timestamp,x,y,z,r,flaps,aux1,aux2,aux3,aux4,aux5,aux6,mode_switch,return_switch,rattitude_switch,posctl_switch,loiter_switch,acro_switch,offboard_switch,kill_switch,arm_switch,transition_switch,gear_switch,mode_slot,data_source,stab_switch,man_switch
21395318,0.0192771,0.0250784,0.0,1.0,0.0,0.0,0.0,0.0,0.0,0.0,0.0,0,0,0,0,3,0,0,3,0,0,0,4,1,0,0
21418421,0.0192771,0.0250784,0.0,1.0,0.0,0.0,0.0,0.0,0.0,0.0,0.0,0,0,0,0,3,0,0,3,0,0,0,4,1,0,0
21596595,0.0192771,0.0250784,0.0,1.0,0.0,0.0,0.0,0.0,0.0,0.0,0.0,0,0,0,0,3,0,0,3,0,0,0,4,1,0,0
21797555,0.0192771,0.0250784,0.0,1.0,0.0,0.0,0.0,0.0,0.0,0.0,0.0,0,0,0,0,3,0,0,3,0,0,0,4,1,0,0
21999300,0.0192771,0.0250784,0.0,1.0,0.0,0.0,0.0,0.0,0.0,0.0,0.0,0,0,0,0,3,0,0,3,0,0,0,4,1,0,0
22199739,0.0192771,0.0250784,0.0,0.495192,0.0,0.0,0.0,0.0,0.0,0.0,0.0,0,0,0,0,3,0,0,3,0,0,0,4,1,0,0
22408445,0.0192771,0.0250784,0.0,0.0,0.0,0.0,0.0,0.0,0.0,0.0,0.0,0,0,0,0,3,0,0,3,0,0,0,4,1,0,0
22602175,0.0192771,0.0250784,0.0,0.0,0.0,0.0,0.0,0.0,0.0,0.0,0.0,0,0,0,0,3,0,0,3,0,0,0,4,1,0,0
22803215,0.0192771,0.0250784,0.0,0.0,0.0,0.0,0.0,0.0,0.0,0.0,0.0,0,0,0,0,3,0,0,3,0,0,0,4,1,0,0
23004228,0.0216867,0.0282132,0.00611995,0.0,0.0,0.0,0.0,0.0,0.0,0.0,0.0,0,0,0,0,3,0,0,3,0,0,0,4,1,0,0
23206021,0.0192771,0.0250784,0.0501836,0.0,0.0,0.0,0.0,0.0,0.0,0.0,0.0,0,0,0,0,3,0,0,3,0,0,0,4,1,0,0
23406487,0.0192771,0.0250784,0.152999,0.0,0.0,0.0,0.0,0.0,0.0,0.0,0.0,0,0,0,0,3,0,0,3,0,0,0,4,1,0,0
23608291,0.0192771,0.0250784,0.179927,0.0,0.0,0.0,0.0,0.0,0.0,0.0,0.0,0,0,0,0,3,0,0,3,0,0,0,4,1,0,0
23808791,0.0192771,0.0438871,0.175031,0.0,0.0,0.0,0.0,0.0,0.0,0.0,0.0,0,0,0,0,3,0,0,3,0,0,0,4,1,0,0
24010136,0.00963855,0.0376176,0.175031,0.0,0.0,0.0,0.0,0.0,0.0,0.0,0.0,0,0,0,0,3,0,0,3,0,0,0,4,1,0,0
24210983,0.0,0.0877743,0.175031,0.0,0.0,0.0,0.0,0.0,0.0,0.0,0.0,0,0,0,0,3,0,0,3,0,0,0,4,1,0,0
24409519,0.0,0.0282132,0.175031,0.0,0.0,0.0,0.0,0.0,0.0,0.0,0.0,0,0,0,0,3,0,0,3,0,0,0,4,1,0,0
24611463,0.0216867,0.0250784,0.173807,0.0,0.0,0.0,0.0,0.0,0.0,0.0,0.0,0,0,0,0,3,0,0,3,0,0,0,4,1,0,0
24812216,0.0216867,0.0250784,0.177479,0.0,0.0,0.0,0.0,0.0,0.0,0.0,0.0,0,0,0,0,3,0,0,3,0,0,0,4,1,0,0
25013140,0.0216867,0.0250784,0.247246,0.0,0.0,0.0,0.0,0.0,0.0,0.0,0.0,0,0,0,0,3,0,0,3,0,0,0,4,1,0,0
25214042,0.0216867,0.0250784,0.263158,0.0,0.0,0.0,0.0,0.0,0.0,0.0,0.0,0,0,0,0,3,0,0,3,0,0,0,4,1,0,0
25412905,0.0216867,0.0250784,0.259486,0.0,0.0,0.0,0.0,0.0,0.0,0.0,0.0,0,0,0,0,3,0,0,3,0,0,0,4,1,0,0
25614077,0.0216867,0.0250784,0.271726,0.0,0.0,0.0,0.0,0.0,0.0,0.0,0.0,0,0,0,0,3,0,0,3,0,0,0,4,1,0,0
25814978,0.0216867,0.0250784,0.301102,0.0,0.0,0.0,0.0,0.0,0.0,0.0,0.0,0,0,0,0,3,0,0,3,0,0,0,4,1,0,0
25993841,0.0216867,0.0250784,0.328029,0.0,0.0,0.0,0.0,0.0,0.0,0.0,0.0,0,0,0,0,3,0,0,3,0,0,0,4,1,0,0
26217184,0.0240964,0.0282132,0.340269,0.0,0.0,0.0,0.0,0.0,0.0,0.0,0.0,0,0,0,0,3,0,0,3,0,0,0,4,1,0,0
26396112,0.0216867,0.0250784,0.339045,0.0,0.0,0.0,0.0,0.0,0.0,0.0,0.0,0,0,0,0,3,0,0,3,0,0,0,4,1,0,0
26594656,0.0216867,0.0250784,0.339045,0.0,0.0,0.0,0.0,0.0,0.0,0.0,0.0,0,0,0,0,3,0,0,3,0,0,0,4,1,0,0
26816420,0.0216867,0.0219436,0.390453,0.0,0.0,0.0,0.0,0.0,0.0,0.0,0.0,0,0,0,0,3,0,0,3,0,0,0,4,1,0,0
26994610,0.0216867,0.0250784,0.400245,0.0,0.0,0.0,0.0,0.0,0.0,0.0,0.0,0,0,0,0,3,0,0,3,0,0,0,4,1,0,0
27195609,0.0216867,0.0250784,0.416157,0.0,0.0,0.0,0.0,0.0,0.0,0.0,0.0,0,0,0,0,3,0,0,3,0,0,0,4,1,0,0
27397475,0.0216867,0.0250784,0.44186,0.0,0.0,0.0,0.0,0.0,0.0,0.0,0.0,0,0,0,0,3,0,0,3,0,0,0,4,1,0,0
27597733,0.0216867,0.0250784,0.444308,0.0,0.0,0.0,0.0,0.0,0.0,0.0,0.0,0,0,0,0,3,0,0,3,0,0,0,4,1,0,0
27799484,0.0216867,0.0250784,0.446756,0.0,0.0,0.0,0.0,0.0,0.0,0.0,0.0,0,0,0,0,3,0,0,3,0,0,0,4,1,0,0
28000165,0.0216867,0.0250784,0.456548,0.0,0.0,0.0,0.0,0.0,0.0,0.0,0.0,0,0,0,0,3,0,0,3,0,0,0,4,1,0,0
28201761,0.0216867,0.0250784,0.470012,0.0,0.0,0.0,0.0,0.0,0.0,0.0,0.0,0,0,0,0,3,0,0,3,0,0,0,4,1,0,0
28402264,0.0216867,0.0250784,0.473684,0.0,0.0,0.0,0.0,0.0,0.0,0.0,0.0,0,0,0,0,3,0,0,3,0,0,0,4,1,0,0
28600798,0.0216867,0.0250784,0.482252,0.0,0.0,0.0,0.0,0.0,0.0,0.0,0.0,0,0,0,0,3,0,0,3,0,0,0,4,1,0,0
28802075,0.0216867,0.0250784,0.481028,0.0,0.0,0.0,0.0,0.0,0.0,0.0,0.0,0,0,0,0,3,0,0,3,0,0,0,4,1,0,0
29001329,0.0216867,0.0250784,0.477356,0.0,0.0,0.0,0.0,0.0,0.0,0.0,0.0,0,0,0,0,3,0,0,3,0,0,0,4,1,0,0
29201918,0.0216867,0.0250784,0.506732,0.0,0.0,0.0,0.0,0.0,0.0,0.0,0.0,0,0,0,0,3,0,0,3,0,0,0,4,1,0,0
29403020,0.0216867,0.0250784,0.516524,0.0,0.0,0.0,0.0,0.0,0.0,0.0,0.0,0,0,0,0,3,0,0,3,0,0,0,4,1,0,0
29603943,0.0216867,0.0250784,0.488372,0.0,0.0,0.0,0.0,0.0,0.0,0.0,0.0,0,0,0,0,3,0,0,3,0,0,0,4,1,0,0
29805686,0.0216867,0.0250784,0.488372,0.0,0.0,0.0,0.0,0.0,0.0,0.0,0.0,0,0,0,0,3,0,0,3,0,0,0,4,1,0,0
30006297,0.0216867,0.0250784,0.517748,0.0,0.0,0.0,0.0,0.0,0.0,0.0,0.0,0,0,0,0,3,0,0,3,0,0,0,4,1,0,0
30207917,0.0216867,0.0250784,0.517748,0.0,0.0,0.0,0.0,0.0,0.0,0.0,0.0,0,0,0,0,3,0,0,3,0,0,0,4,1,0,0
30408483,0.0216867,0.0250784,0.492044,0.0,0.0,0.0,0.0,0.0,0.0,0.0,0.0,0,0,0,0,3,0,0,3,0,0,0,4,1,0,0
30617120,0.0216867,0.0250784,0.493268,0.0,0.0,0.0,0.0,0.0,0.0,0.0,0.0,0,0,0,0,3,0,0,3,0,0,0,4,1,0,0
30810684,0.0216867,0.031348,0.494492,0.0,0.0,0.0,0.0,0.0,0.0,0.0,0.0,0,0,0,0,3,0,0,3,0,0,0,4,1,0,0
31012412,0.0216867,0.031348,0.493268,0.0,0.0,0.0,0.0,0.0,0.0,0.0,0.0,0,0,0,0,3,0,0,3,0,0,0,4,1,0,0
31213076,0.0216867,0.0250784,0.49694,0.0,0.0,0.0,0.0,0.0,0.0,0.0,0.0,0,0,0,0,3,0,0,3,0,0,0,4,1,0,0
31414432,0.13494,0.0407524,0.49694,0.0,0.0,0.0,0.0,0.0,0.0,0.0,0.0,0,0,0,0,3,0,0,3,0,0,0,4,1,0,0
31593513,0.274699,0.115987,0.494492,0.0,0.0,0.0,0.0,0.0,0.0,0.0,0.0,0,0,0,0,3,0,0,3,0,0,0,4,1,0,0
31816726,0.248193,0.0909091,0.493268,0.0,0.0,0.0,0.0,0.0,0.0,0.0,0.0,0,0,0,0,3,0,0,3,0,0,0,4,1,0,0
32017471,0.0361446,0.0282132,0.49694,0.0,0.0,0.0,0.0,0.0,0.0,0.0,0.0,0,0,0,0,3,0,0,3,0,0,0,4,1,0,0
32216155,0.0192771,0.0250784,0.50306,0.0,0.0,0.0,0.0,0.0,0.0,0.0,0.0,0,0,0,0,3,0,0,3,0,0,0,4,1,0,0
32394773,0.0192771,0.0250784,0.510404,0.0,0.0,0.0,0.0,0.0,0.0,0.0,0.0,0,0,0,0,3,0,0,3,0,0,0,4,1,0,0
32596550,0.0192771,0.0250784,0.522644,0.0,0.0,0.0,0.0,0.0,0.0,0.0,0.0,0,0,0,0,3,0,0,3,0,0,0,4,1,0,0
32797175,0.0192771,0.0250784,0.531212,0.0,0.0,0.0,0.0,0.0,0.0,0.0,0.0,0,0,0,0,3,0,0,3,0,0,0,4,1,0,0
32998817,0.0192771,0.0250784,0.534884,0.0,0.0,0.0,0.0,0.0,0.0,0.0,0.0,0,0,0,0,3,0,0,3,0,0,0,4,1,0,0
33199331,0.0192771,0.0250784,0.541004,0.0,0.0,0.0,0.0,0.0,0.0,0.0,0.0,0,0,0,0,3,0,0,3,0,0,0,4,1,0,0
33397949,0.0674699,0.0501567,0.537332,0.0,0.0,0.0,0.0,0.0,0.0,0.0,0.0,0,0,0,0,3,0,0,3,0,0,0,4,1,0,0
33599984,0.192771,0.191223,0.532436,0.0,0.0,0.0,0.0,0.0,0.0,0.0,0.0,0,0,0,0,3,0,0,3,0,0,0,4,1,0,0
33797847,0.228916,0.213166,0.531212,0.0,0.0,0.0,0.0,0.0,0.0,0.0,0.0,0,0,0,0,3,0,0,3,0,0,0,4,1,0,0
33998915,0.226506,0.219436,0.532436,0.0,0.0,0.0,0.0,0.0,0.0,0.0,0.0,0,0,0,0,3,0,0,3,0,0,0,4,1,0,0
34200678,0.221687,0.250784,0.532436,0.0,0.0,0.0,0.0,0.0,0.0,0.0,0.0,0,0,0,0,3,0,0,3,0,0,0,4,1,0,0
34401172,0.195181,0.225705,0.532436,0.0,0.0,0.0,0.0,0.0,0.0,0.0,0.0,0,0,0,0,3,0,0,3,0,0,0,4,1,0,0
34602444,0.0192771,0.0282132,0.532436,0.0,0.0,0.0,0.0,0.0,0.0,0.0,0.0,0,0,0,0,3,0,0,3,0,0,0,4,1,0,0
34803261,0.0192771,0.0250784,0.532436,0.0,0.0,0.0,0.0,0.0,0.0,0.0,0.0,0,0,0,0,3,0,0,3,0,0,0,4,1,0,0
35004624,0.0216867,0.031348,0.532436,0.0,0.0,0.0,0.0,0.0,0.0,0.0,0.0,0,0,0,0,3,0,0,3,0,0,0,4,1,0,0
35205583,0.175904,0.109718,0.532436,0.0,0.0,0.0,0.0,0.0,0.0,0.0,0.0,0,0,0,0,3,0,0,3,0,0,0,4,1,0,0
35404233,0.0987952,0.0658307,0.532436,0.0,0.0,0.0,0.0,0.0,0.0,0.0,0.0,0,0,0,0,3,0,0,3,0,0,0,4,1,0,0
35602794,0.0192771,0.0219436,0.532436,0.0,0.0,0.0,0.0,0.0,0.0,0.0,0.0,0,0,0,0,3,0,0,3,0,0,0,4,1,0,0
35804856,0.154217,0.0438871,0.532436,0.0,0.0,0.0,0.0,0.0,0.0,0.0,0.0,0,0,0,0,3,0,0,3,0,0,0,4,1,0,0
36005052,0.115663,0.0282132,0.532436,0.0,0.0,0.0,0.0,0.0,0.0,0.0,0.0,0,0,0,0,3,0,0,3,0,0,0,4,1,0,0
36206521,0.0192771,0.0250784,0.531212,0.0,0.0,0.0,0.0,0.0,0.0,0.0,0.0,0,0,0,0,3,0,0,3,0,0,0,4,1,0,0
36407364,0.0192771,0.0250784,0.522644,0.0,0.0,0.0,0.0,0.0,0.0,0.0,0.0,0,0,0,0,3,0,0,3,0,0,0,4,1,0,0
36609220,0.0674699,0.0344828,0.49082,0.0,0.0,0.0,0.0,0.0,0.0,0.0,0.0,0,0,0,0,3,0,0,3,0,0,0,4,1,0,0
36808018,0.0385542,0.0282132,0.516524,0.0,0.0,0.0,0.0,0.0,0.0,0.0,0.0,0,0,0,0,3,0,0,3,0,0,0,4,1,0,0
37008249,0.137349,0.0376176,0.516524,0.0,0.0,0.0,0.0,0.0,0.0,0.0,0.0,0,0,0,0,3,0,0,3,0,0,0,4,1,0,0
37210086,0.190361,0.0846395,0.488372,0.0,0.0,0.0,0.0,0.0,0.0,0.0,0.0,0,0,0,0,3,0,0,3,0,0,0,4,1,0,0
37410684,0.13012,0.031348,0.516524,0.0,0.0,0.0,0.0,0.0,0.0,0.0,0.0,0,0,0,0,3,0,0,3,0,0,0,4,1,0,0
37609110,0.0192771,0.0219436,0.492044,0.0,0.0,0.0,0.0,0.0,0.0,0.0,0.0,0,0,0,0,3,0,0,3,0,0,0,4,1,0,0
37810753,0.0216867,0.031348,0.493268,0.0,0.0,0.0,0.0,0.0,0.0,0.0,0.0,0,0,0,0,3,0,0,3,0,0,0,4,1,0,0
38011271,0.0216867,0.031348,0.489596,0.0,0.0,0.0,0.0,0.0,0.0,0.0,0.0,0,0,0,0,3,0,0,3,0,0,0,4,1,0,0
38212541,0.187952,0.0501567,0.488372,0.0,0.0,0.0,0.0,0.0,0.0,0.0,0.0,0,0,0,0,3,0,0,3,0,0,0,4,1,0,0
38413579,0.20241,0.031348,0.500612,0.0,0.0,0.0,0.0,0.0,0.0,0.0,0.0,0,0,0,0,3,0,0,3,0,0,0,4,1,0,0
38612243,0.0216867,0.0219436,0.538556,0.0,0.0,0.0,0.0,0.0,0.0,0.0,0.0,0,0,0,0,3,0,0,3,0,0,0,4,1,0,0
38817890,0.0216867,0.0250784,0.550796,0.0,0.0,0.0,0.0,0.0,0.0,0.0,0.0,0,0,0,0,3,0,0,3,0,0,0,4,1,0,0
39012108,0.166265,0.0344828,0.550796,0.0,0.0,0.0,0.0,0.0,0.0,0.0,0.0,0,0,0,0,3,0,0,3,0,0,0,4,1,0,0
39213097,0.0216867,0.0219436,0.548348,0.0,0.0,0.0,0.0,0.0,0.0,0.0,0.0,0,0,0,0,3,0,0,3,0,0,0,4,1,0,0
39414612,0.0216867,0.0250784,0.549572,0.0,0.0,0.0,0.0,0.0,0.0,0.0,0.0,0,0,0,0,3,0,0,3,0,0,0,4,1,0,0
39615681,0.163855,0.0282132,0.549572,0.0,0.0,0.0,0.0,0.0,0.0,0.0,0.0,0,0,0,0,3,0,0,3,0,0,0,4,1,0,0
39794189,0.0192771,0.0219436,0.532436,0.0,0.0,0.0,0.0,0.0,0.0,0.0,0.0,0,0,0,0,3,0,0,3,0,0,0,4,1,0,0
39995393,0.0361446,0.031348,0.537332,0.0,0.0,0.0,0.0,0.0,0.0,0.0,0.0,0,0,0,0,3,0,0,3,0,0,0,4,1,0,0
40196434,0.2,0.0595611,0.536108,0.0,0.0,0.0,0.0,0.0,0.0,0.0,0.0,0,0,0,0,3,0,0,3,0,0,0,4,1,0,0
40398046,0.0216867,0.0219436,0.505508,0.0,0.0,0.0,0.0,0.0,0.0,0.0,0.0,0,0,0,0,3,0,0,3,0,0,0,4,1,0,0
40597354,0.0216867,0.0282132,0.516524,0.0,0.0,0.0,0.0,0.0,0.0,0.0,0.0,0,0,0,0,3,0,0,3,0,0,0,4,1,0,0
40794894,0.159036,0.0626959,0.49082,0.0,0.0,0.0,0.0,0.0,0.0,0.0,0.0,0,0,0,0,3,0,0,3,0,0,0,4,1,0,0
40996077,0.0192771,0.0219436,0.49082,0.0,0.0,0.0,0.0,0.0,0.0,0.0,0.0,0,0,0,0,3,0,0,3,0,0,0,4,1,0,0
41197739,0.0578313,0.031348,0.49082,0.0,0.0,0.0,0.0,0.0,0.0,0.0,0.0,0,0,0,0,3,0,0,3,0,0,0,4,1,0,0
41398060,0.187952,0.206897,0.492044,0.0,0.0,0.0,0.0,0.0,0.0,0.0,0.0,0,0,0,0,3,0,0,3,0,0,0,4,1,0,0
41600073,0.0216867,0.0219436,0.498164,0.0,0.0,0.0,0.0,0.0,0.0,0.0,0.0,0,0,0,0,3,0,0,3,0,0,0,4,1,0,0
41800445,0.0216867,0.0250784,0.537332,0.0,0.0,0.0,0.0,0.0,0.0,0.0,0.0,0,0,0,0,3,0,0,3,0,0,0,4,1,0,0
42001621,0.0915663,0.0344828,0.523868,0.0,0.0,0.0,0.0,0.0,0.0,0.0,0.0,0,0,0,0,3,0,0,3,0,0,0,4,1,0,0
42202618,0.274699,0.128527,0.526316,0.0,0.0,0.0,0.0,0.0,0.0,0.0,0.0,0,0,0,0,3,0,0,3,0,0,0,4,1,0,0
42401327,0.137349,0.0282132,0.526316,0.0,0.0,0.0,0.0,0.0,0.0,0.0,0.0,0,0,0,0,3,0,0,3,0,0,0,4,1,0,0
42600029,0.0216867,0.0219436,0.523868,0.0,0.0,0.0,0.0,0.0,0.0,0.0,0.0,0,0,0,0,3,0,0,3,0,0,0,4,1,0,0
42801917,0.0216867,0.0219436,0.556916,0.0,0.0,0.0,0.0,0.0,0.0,0.0,0.0,0,0,0,0,3,0,0,3,0,0,0,4,1,0,0
43002275,0.0819277,0.0282132,0.548348,0.0,0.0,0.0,0.0,0.0,0.0,0.0,0.0,0,0,0,0,3,0,0,3,0,0,0,4,1,0,0
43203423,0.163855,0.0282132,0.548348,0.0,0.0,0.0,0.0,0.0,0.0,0.0,0.0,0,0,0,0,3,0,0,3,0,0,0,4,1,0,0
43404435,0.0216867,0.0219436,0.548348,0.0,0.0,0.0,0.0,0.0,0.0,0.0,0.0,0,0,0,0,3,0,0,3,0,0,0,4,1,0,0
43605709,0.0216867,0.0219436,0.548348,0.0,0.0,0.0,0.0,0.0,0.0,0.0,0.0,0,0,0,0,3,0,0,3,0,0,0,4,1,0,0
43806659,0.0216867,0.0250784,0.5459,0.0,0.0,0.0,0.0,0.0,0.0,0.0,0.0,0,0,0,0,3,0,0,3,0,0,0,4,1,0,0
44007951,0.0240964,0.0282132,0.526316,0.0,0.0,0.0,0.0,0.0,0.0,0.0,0.0,0,0,0,0,3,0,0,3,0,0,0,4,1,0,0
44206775,0.0337349,0.031348,0.49082,0.0,0.0,0.0,0.0,0.0,0.0,0.0,0.0,0,0,0,0,3,0,0,3,0,0,0,4,1,0,0
44405097,0.026506,0.031348,0.492044,0.0,0.0,0.0,0.0,0.0,0.0,0.0,0.0,0,0,0,0,3,0,0,3,0,0,0,4,1,0,0
44603951,0.192771,0.031348,0.499388,0.0,0.0,0.0,0.0,0.0,0.0,0.0,0.0,0,0,0,0,3,0,0,3,0,0,0,4,1,0,0
44804814,0.103614,0.0282132,0.500612,0.0,0.0,0.0,0.0,0.0,0.0,0.0,0.0,0,0,0,0,3,0,0,3,0,0,0,4,1,0,0
45003448,0.0216867,0.0219436,0.559364,0.0,0.0,0.0,0.0,0.0,0.0,0.0,0.0,0,0,0,0,3,0,0,3,0,0,0,4,1,0,0
45204745,0.0746988,0.0470219,0.559364,0.0,0.0,0.0,0.0,0.0,0.0,0.0,0.0,0,0,0,0,3,0,0,3,0,0,0,4,1,0,0
45405713,0.178313,0.231975,0.556916,0.0,0.0,0.0,0.0,0.0,0.0,0.0,0.0,0,0,0,0,3,0,0,3,0,0,0,4,1,0,0
45607496,0.214458,0.22884,0.550796,0.0,0.0,0.0,0.0,0.0,0.0,0.0,0.0,0,0,0,0,3,0,0,3,0,0,0,4,1,0,0
45806554,0.195181,0.172414,0.548348,0.0,0.0,0.0,0.0,0.0,0.0,0.0,0.0,0,0,0,0,3,0,0,3,0,0,0,4,1,0,0
46004966,0.195181,0.134796,0.548348,0.0,0.0,0.0,0.0,0.0,0.0,0.0,0.0,0,0,0,0,3,0,0,3,0,0,0,4,1,0,0
46200243,0.0216867,0.0219436,0.532436,0.0,0.0,0.0,0.0,0.0,0.0,0.0,0.0,0,0,0,0,3,0,0,3,0,0,0,4,1,0,0
46401937,0.0216867,0.031348,0.511628,0.0,0.0,0.0,0.0,0.0,0.0,0.0,0.0,0,0,0,0,3,0,0,3,0,0,0,4,1,0,0
46600790,0.0216867,0.031348,0.505508,0.0,0.0,0.0,0.0,0.0,0.0,0.0,0.0,0,0,0,0,3,0,0,3,0,0,0,4,1,0,0
46801245,0.0216867,0.0219436,0.50306,0.0,0.0,0.0,0.0,0.0,0.0,0.0,0.0,0,0,0,0,3,0,0,3,0,0,0,4,1,0,0
47009717,0.142169,0.0501567,0.5153,0.0,0.0,0.0,0.0,0.0,0.0,0.0,0.0,0,0,0,0,3,0,0,3,0,0,0,4,1,0,0
47201435,0.274699,0.115987,0.510404,0.0,0.0,0.0,0.0,0.0,0.0,0.0,0.0,0,0,0,0,3,0,0,3,0,0,0,4,1,0,0
47402061,0.279518,0.131661,0.510404,0.0,0.0,0.0,0.0,0.0,0.0,0.0,0.0,0,0,0,0,3,0,0,3,0,0,0,4,1,0,0
47600775,0.279518,0.153605,0.510404,0.0,0.0,0.0,0.0,0.0,0.0,0.0,0.0,0,0,0,0,3,0,0,3,0,0,0,4,1,0,0
47802393,0.26747,0.144201,0.510404,0.0,0.0,0.0,0.0,0.0,0.0,0.0,0.0,0,0,0,0,3,0,0,3,0,0,0,4,1,0,0
48002816,0.26747,0.134796,0.510404,0.0,0.0,0.0,0.0,0.0,0.0,0.0,0.0,0,0,0,0,3,0,0,3,0,0,0,4,1,0,0
48204307,0.236145,0.0282132,0.510404,0.0,0.0,0.0,0.0,0.0,0.0,0.0,0.0,0,0,0,0,3,0,0,3,0,0,0,4,1,0,0
48402773,0.236145,0.0282132,0.510404,0.0,0.0,0.0,0.0,0.0,0.0,0.0,0.0,0,0,0,0,3,0,0,3,0,0,0,4,1,0,0
48603659,0.103614,-0.14939,0.510404,0.0,0.0,0.0,0.0,0.0,0.0,0.0,0.0,0,0,0,0,3,0,0,3,0,0,0,4,1,0,0
48802340,0.0192771,0.0250784,0.489596,0.0,0.0,0.0,0.0,0.0,0.0,0.0,0.0,0,0,0,0,3,0,0,3,0,0,0,4,1,0,0
49003768,0.0216867,0.0250784,0.517748,0.0,0.0,0.0,0.0,0.0,0.0,0.0,0.0,0,0,0,0,3,0,0,3,0,0,0,4,1,0,0
49202389,0.0409639,0.0344828,0.522644,0.0,0.0,0.0,0.0,0.0,0.0,0.0,0.0,0,0,0,0,3,0,0,3,0,0,0,4,1,0,0
49403330,0.151807,0.15674,0.536108,0.0,0.0,0.0,0.0,0.0,0.0,0.0,0.0,0,0,0,0,3,0,0,3,0,0,0,4,1,0,0
49600312,0.086747,0.0501567,0.531212,0.0,0.0,0.0,0.0,0.0,0.0,0.0,0.0,0,0,0,0,3,0,0,3,0,0,0,4,1,0,0
49800622,0.0216867,0.0250784,0.526316,0.0,0.0,0.0,0.0,0.0,0.0,0.0,0.0,0,0,0,0,3,0,0,3,0,0,0,4,1,0,0
49999213,0.0192771,0.0250784,0.538556,0.0,0.0,0.0,0.0,0.0,0.0,0.0,0.0,0,0,0,0,3,0,0,3,0,0,0,4,1,0,0
50197867,0.0216867,0.0250784,0.561812,0.0,0.0,0.0,0.0,0.0,0.0,0.0,0.0,0,0,0,0,3,0,0,3,0,0,0,4,1,0,0
50399322,0.0216867,0.0250784,0.561812,0.0,0.0,0.0,0.0,0.0,0.0,0.0,0.0,0,0,0,0,3,0,0,3,0,0,0,4,1,0,0
50600291,0.144578,0.0971787,0.554468,0.0,0.0,0.0,0.0,0.0,0.0,0.0,0.0,0,0,0,0,3,0,0,3,0,0,0,4,1,0,0
50801463,0.146988,0.125392,0.554468,0.0,0.0,0.0,0.0,0.0,0.0,0.0,0.0,0,0,0,0,3,0,0,3,0,0,0,4,1,0,0
51002374,0.0192771,0.0250784,0.554468,0.0,0.0,0.0,0.0,0.0,0.0,0.0,0.0,0,0,0,0,3,0,0,3,0,0,0,4,1,0,0
51201061,0.110843,0.0626959,0.55202,0.0,0.0,0.0,0.0,0.0,0.0,0.0,0.0,0,0,0,0,3,0,0,3,0,0,0,4,1,0,0
51402203,0.146988,0.200627,0.542228,0.0,0.0,0.0,0.0,0.0,0.0,0.0,0.0,0,0,0,0,3,0,0,3,0,0,0,4,1,0,0
51603250,0.0987952,0.031348,0.498164,0.0,0.0,0.0,0.0,0.0,0.0,0.0,0.0,0,0,0,0,3,0,0,3,0,0,0,4,1,0,0
51804646,0.0216867,0.0250784,0.495716,0.0,0.0,0.0,0.0,0.0,0.0,0.0,0.0,0,0,0,0,3,0,0,3,0,0,0,4,1,0,0
52005722,0.0987952,0.0752351,0.499388,0.0,0.0,0.0,0.0,0.0,0.0,0.0,0.0,0,0,0,0,3,0,0,3,0,0,0,4,1,0,0
52204010,0.173494,0.15674,0.507956,0.0,0.0,0.0,0.0,0.0,0.0,0.0,0.0,0,0,0,0,3,0,0,3,0,0,0,4,1,0,0
52405438,0.0192771,0.0219436,0.507956,0.0,0.0,0.0,0.0,0.0,0.0,0.0,0.0,0,0,0,0,3,0,0,3,0,0,0,4,1,0,0
52604104,0.139759,0.128527,0.506732,0.0,0.0,0.0,0.0,0.0,0.0,0.0,0.0,0,0,0,0,3,0,0,3,0,0,0,4,1,0,0
52802817,0.190361,0.197492,0.506732,0.0,0.0,0.0,0.0,0.0,0.0,0.0,0.0,0,0,0,0,3,0,0,3,0,0,0,4,1,0,0
53003689,0.180723,0.181818,0.506732,0.0,0.0,0.0,0.0,0.0,0.0,0.0,0.0,0,0,0,0,3,0,0,3,0,0,0,4,1,0,0
53206429,0.026506,0.0250784,0.501836,0.0,0.0,0.0,0.0,0.0,0.0,0.0,0.0,0,0,0,0,3,0,0,3,0,0,0,4,1,0,0
53404586,0.0216867,0.0219436,0.571603,0.0,0.0,0.0,0.0,0.0,0.0,0.0,0.0,0,0,0,0,3,0,0,3,0,0,0,4,1,0,0
53604617,0.0216867,0.0250784,0.571603,0.0,0.0,0.0,0.0,0.0,0.0,0.0,0.0,0,0,0,0,3,0,0,3,0,0,0,4,1,0,0
53805782,0.0216867,0.0250784,0.565483,0.0,0.0,0.0,0.0,0.0,0.0,0.0,0.0,0,0,0,0,3,0,0,3,0,0,0,4,1,0,0
54004653,0.0746988,0.0376176,0.566707,0.0,0.0,0.0,0.0,0.0,0.0,0.0,0.0,0,0,0,0,3,0,0,3,0,0,0,4,1,0,0
54203081,0.151807,0.184953,0.566707,0.0,0.0,0.0,0.0,0.0,0.0,0.0,0.0,0,0,0,0,3,0,0,3,0,0,0,4,1,0,0
54404289,0.0216867,0.0188088,0.566707,0.0,0.0,0.0,0.0,0.0,0.0,0.0,0.0,0,0,0,0,3,0,0,3,0,0,0,4,1,0,0
54605327,0.0216867,0.0282132,0.566707,0.0,0.0,0.0,0.0,0.0,0.0,0.0,0.0,0,0,0,0,3,0,0,3,0,0,0,4,1,0,0
54806215,0.13253,0.0815047,0.566707,0.0,0.0,0.0,0.0,0.0,0.0,0.0,0.0,0,0,0,0,3,0,0,3,0,0,0,4,1,0,0
55008191,0.159036,0.112853,0.52142,0.0,0.0,0.0,0.0,0.0,0.0,0.0,0.0,0,0,0,0,3,0,0,3,0,0,0,4,1,0,0
55208102,0.144578,0.0532915,0.501836,0.0,0.0,0.0,0.0,0.0,0.0,0.0,0.0,0,0,0,0,3,0,0,3,0,0,0,4,1,0,0
55404883,0.0216867,0.031348,0.500612,0.0,0.0,0.0,0.0,0.0,0.0,0.0,0.0,0,0,0,0,3,0,0,3,0,0,0,4,1,0,0
55605874,0.139759,0.128527,0.505508,0.0,0.0,0.0,0.0,0.0,0.0,0.0,0.0,0,0,0,0,3,0,0,3,0,0,0,4,1,0,0
55807131,0.0192771,0.0219436,0.501836,0.0,0.0,0.0,0.0,0.0,0.0,0.0,0.0,0,0,0,0,3,0,0,3,0,0,0,4,1,0,0
56008383,0.0819277,0.0721003,0.500612,0.0,0.0,0.0,0.0,0.0,0.0,0.0,0.0,0,0,0,0,3,0,0,3,0,0,0,4,1,0,0
56186760,0.106024,0.103448,0.500612,0.0,0.0,0.0,0.0,0.0,0.0,0.0,0.0,0,0,0,0,3,0,0,3,0,0,0,4,1,0,0
56410228,0.0457831,0.0470219,0.536108,0.0,0.0,0.0,0.0,0.0,0.0,0.0,0.0,0,0,0,0,3,0,0,3,0,0,0,4,1,0,0
56612000,0.0192771,0.0219436,0.549572,0.0,0.0,0.0,0.0,0.0,0.0,0.0,0.0,0,0,0,0,3,0,0,3,0,0,0,4,1,0,0
56812606,0.0626506,0.0971787,0.532436,0.0,0.0,0.0,0.0,0.0,0.0,0.0,0.0,0,0,0,0,3,0,0,3,0,0,0,4,1,0,0
57011267,0.163855,0.181818,0.532436,0.0,0.0,0.0,0.0,0.0,0.0,0.0,0.0,0,0,0,0,3,0,0,3,0,0,0,4,1,0,0
57212930,0.159036,0.172414,0.532436,0.0,0.0,0.0,0.0,0.0,0.0,0.0,0.0,0,0,0,0,3,0,0,3,0,0,0,4,1,0,0
57411493,0.151807,0.15047,0.532436,0.0,0.0,0.0,0.0,0.0,0.0,0.0,0.0,0,0,0,0,3,0,0,3,0,0,0,4,1,0,0
57612246,0.13494,0.125392,0.532436,0.0,0.0,0.0,0.0,0.0,0.0,0.0,0.0,0,0,0,0,3,0,0,3,0,0,0,4,1,0,0
57813364,0.103614,0.031348,0.532436,0.0,0.0,0.0,0.0,0.0,0.0,0.0,0.0,0,0,0,0,3,0,0,3,0,0,0,4,1,0,0
58014480,0.118072,0.0344828,0.534884,0.0,0.0,0.0,0.0,0.0,0.0,0.0,0.0,0,0,0,0,3,0,0,3,0,0,0,4,1,0,0
58193237,0.159036,0.0344828,0.534884,0.0,0.0,0.0,0.0,0.0,0.0,0.0,0.0,0,0,0,0,3,0,0,3,0,0,0,4,1,0,0
58416717,0.212048,0.0282132,0.53366,0.0,0.0,0.0,0.0,0.0,0.0,0.0,0.0,0,0,0,0,3,0,0,3,0,0,0,4,1,0,0
58595351,0.224096,0.0282132,0.53366,0.0,0.0,0.0,0.0,0.0,0.0,0.0,0.0,0,0,0,0,3,0,0,3,0,0,0,4,1,0,0
58816591,0.190361,0.0282132,0.53366,0.0,0.0,0.0,0.0,0.0,0.0,0.0,0.0,0,0,0,0,3,0,0,3,0,0,0,4,1,0,0
58995827,0.204819,0.031348,0.53366,0.0,0.0,0.0,0.0,0.0,0.0,0.0,0.0,0,0,0,0,3,0,0,3,0,0,0,4,1,0,0
59196430,0.212048,0.031348,0.532436,0.0,0.0,0.0,0.0,0.0,0.0,0.0,0.0,0,0,0,0,3,0,0,3,0,0,0,4,1,0,0
59394962,0.19759,0.031348,0.532436,0.0,0.0,0.0,0.0,0.0,0.0,0.0,0.0,0,0,0,0,3,0,0,3,0,0,0,4,1,0,0
59596804,0.151807,0.031348,0.532436,0.0,0.0,0.0,0.0,0.0,0.0,0.0,0.0,0,0,0,0,3,0,0,3,0,0,0,4,1,0,0
59797259,0.161446,0.0344828,0.532436,0.0,0.0,0.0,0.0,0.0,0.0,0.0,0.0,0,0,0,0,3,0,0,3,0,0,0,4,1,0,0
59998989,0.149398,0.0344828,0.532436,0.0,0.0,0.0,0.0,0.0,0.0,0.0,0.0,0,0,0,0,3,0,0,3,0,0,0,4,1,0,0
60199363,0.168675,0.0438871,0.532436,0.0,0.0,0.0,0.0,0.0,0.0,0.0,0.0,0,0,0,0,3,0,0,3,0,0,0,4,1,0,0
60402055,0.127711,0.031348,0.534884,0.0,0.0,0.0,0.0,0.0,0.0,0.0,0.0,0,0,0,0,3,0,0,3,0,0,0,4,1,0,0
60602239,0.101205,0.0344828,0.549572,0.0,0.0,0.0,0.0,0.0,0.0,0.0,0.0,0,0,0,0,3,0,0,3,0,0,0,4,1,0,0
60802880,0.0626506,0.031348,0.53978,0.0,0.0,0.0,0.0,0.0,0.0,0.0,0.0,0,0,0,0,3,0,0,3,0,0,0,4,1,0,0
61003970,0.0795181,0.0344828,0.538556,0.0,0.0,0.0,0.0,0.0,0.0,0.0,0.0,0,0,0,0,3,0,0,3,0,0,0,4,1,0,0
61202717,0.0939759,0.0376176,0.537332,0.0,0.0,0.0,0.0,0.0,0.0,0.0,0.0,0,0,0,0,3,0,0,3,0,0,0,4,1,0,0
61403899,0.151807,0.184953,0.538556,0.0,0.0,0.0,0.0,0.0,0.0,0.0,0.0,0,0,0,0,3,0,0,3,0,0,0,4,1,0,0
61604756,0.156627,0.163009,0.538556,0.0,0.0,0.0,0.0,0.0,0.0,0.0,0.0,0,0,0,0,3,0,0,3,0,0,0,4,1,0,0
61803278,0.137349,0.141066,0.538556,0.0,0.0,0.0,0.0,0.0,0.0,0.0,0.0,0,0,0,0,3,0,0,3,0,0,0,4,1,0,0
62004733,0.0819277,0.031348,0.538556,0.0,0.0,0.0,0.0,0.0,0.0,0.0,0.0,0,0,0,0,3,0,0,3,0,0,0,4,1,0,0
62203370,0.0192771,0.0219436,0.538556,0.0,0.0,0.0,0.0,0.0,0.0,0.0,0.0,0,0,0,0,3,0,0,3,0,0,0,4,1,0,0
62401965,0.0192771,0.0250784,0.537332,0.0,0.0,0.0,0.0,0.0,0.0,0.0,0.0,0,0,0,0,3,0,0,3,0,0,0,4,1,0,0
62602787,0.0192771,0.031348,0.538556,0.0,0.0,0.0,0.0,0.0,0.0,0.0,0.0,0,0,0,0,3,0,0,3,0,0,0,4,1,0,0
62804286,0.0216867,0.031348,0.537332,0.0,0.0,0.0,0.0,0.0,0.0,0.0,0.0,0,0,0,0,3,0,0,3,0,0,0,4,1,0,0
63002859,0.0216867,0.0407524,0.537332,0.0,0.0,0.0,0.0,0.0,0.0,0.0,0.0,0,0,0,0,3,0,0,3,0,0,0,4,1,0,0
63202153,0.0891566,0.159875,0.538556,0.0,0.0,0.0,0.0,0.0,0.0,0.0,0.0,0,0,0,0,3,0,0,3,0,0,0,4,1,0,0
63402216,0.0746988,0.141066,0.538556,0.0,0.0,0.0,0.0,0.0,0.0,0.0,0.0,0,0,0,0,3,0,0,3,0,0,0,4,1,0,0
63599291,0.0192771,0.0689655,0.537332,0.0,0.0,0.0,0.0,0.0,0.0,0.0,0.0,0,0,0,0,3,0,0,3,0,0,0,4,1,0,0
63799616,0.0409639,0.0626959,0.538556,0.0,0.0,0.0,0.0,0.0,0.0,0.0,0.0,0,0,0,0,3,0,0,3,0,0,0,4,1,0,0
64000860,0.0192771,0.0219436,0.538556,0.0,0.0,0.0,0.0,0.0,0.0,0.0,0.0,0,0,0,0,3,0,0,3,0,0,0,4,1,0,0
64202016,0.0216867,0.0250784,0.537332,0.0,0.0,0.0,0.0,0.0,0.0,0.0,0.0,0,0,0,0,3,0,0,3,0,0,0,4,1,0,0
64410683,0.0216867,0.031348,0.538556,0.0,0.0,0.0,0.0,0.0,0.0,0.0,0.0,0,0,0,0,3,0,0,3,0,0,0,4,1,0,0
64604188,0.13253,0.0752351,0.522644,0.0,0.0,0.0,0.0,0.0,0.0,0.0,0.0,0,0,0,0,3,0,0,3,0,0,0,4,1,0,0
64806013,0.178313,0.147335,0.520196,0.0,0.0,0.0,0.0,0.0,0.0,0.0,0.0,0,0,0,0,3,0,0,3,0,0,0,4,1,0,0
65006571,0.146988,0.112853,0.520196,0.0,0.0,0.0,0.0,0.0,0.0,0.0,0.0,0,0,0,0,3,0,0,3,0,0,0,4,1,0,0
65205107,0.144578,0.112853,0.522644,0.0,0.0,0.0,0.0,0.0,0.0,0.0,0.0,0,0,0,0,3,0,0,3,0,0,0,4,1,0,0
65407131,0.154217,0.137931,0.525092,0.0,0.0,0.0,0.0,0.0,0.0,0.0,0.0,0,0,0,0,3,0,0,3,0,0,0,4,1,0,0
65604977,0.154217,0.128527,0.525092,0.0,0.0,0.0,0.0,0.0,0.0,0.0,0.0,0,0,0,0,3,0,0,3,0,0,0,4,1,0,0
65805885,0.142169,0.0752351,0.529988,0.0,0.0,0.0,0.0,0.0,0.0,0.0,0.0,0,0,0,0,3,0,0,3,0,0,0,4,1,0,0
66007272,0.118072,0.0501567,0.529988,0.0,0.0,0.0,0.0,0.0,0.0,0.0,0.0,0,0,0,0,3,0,0,3,0,0,0,4,1,0,0
66208295,0.106024,0.0376176,0.528764,0.0,0.0,0.0,0.0,0.0,0.0,0.0,0.0,0,0,0,0,3,0,0,3,0,0,0,4,1,0,0
66410221,0.146988,0.0752351,0.528764,0.0,0.0,0.0,0.0,0.0,0.0,0.0,0.0,0,0,0,0,3,0,0,3,0,0,0,4,1,0,0
66610591,0.142169,0.134796,0.532436,0.0,0.0,0.0,0.0,0.0,0.0,0.0,0.0,0,0,0,0,3,0,0,3,0,0,0,4,1,0,0
66812190,0.13012,0.0909091,0.529988,0.0,0.0,0.0,0.0,0.0,0.0,0.0,0.0,0,0,0,0,3,0,0,3,0,0,0,4,1,0,0
67012782,0.161446,0.109718,0.532436,0.0,0.0,0.0,0.0,0.0,0.0,0.0,0.0,0,0,0,0,3,0,0,3,0,0,0,4,1,0,0
67209544,0.13012,0.0721003,0.534884,0.0,0.0,0.0,0.0,0.0,0.0,0.0,0.0,0,0,0,0,3,0,0,3,0,0,0,4,1,0,0
67409970,0.0240964,0.0250784,0.534884,0.0,0.0,0.0,0.0,0.0,0.0,0.0,0.0,0,0,0,0,3,0,0,3,0,0,0,4,1,0,0
67606710,0.053012,0.0344828,0.534884,0.0,0.0,0.0,0.0,0.0,0.0,0.0,0.0,0,0,0,0,3,0,0,3,0,0,0,4,1,0,0
67805621,0.178313,0.175549,0.53366,0.0,0.0,0.0,0.0,0.0,0.0,0.0,0.0,0,0,0,0,3,0,0,3,0,0,0,4,1,0,0
68003531,0.146988,0.15047,0.532436,0.0,0.0,0.0,0.0,0.0,0.0,0.0,0.0,0,0,0,0,3,0,0,3,0,0,0,4,1,0,0
68202168,0.13494,0.119122,0.532436,0.0,0.0,0.0,0.0,0.0,0.0,0.0,0.0,0,0,0,0,3,0,0,3,0,0,0,4,1,0,0
68400996,0.0192771,0.0219436,0.532436,0.0,0.0,0.0,0.0,0.0,0.0,0.0,0.0,0,0,0,0,3,0,0,3,0,0,0,4,1,0,0
68601919,0.0192771,0.0250784,0.537332,0.0,0.0,0.0,0.0,0.0,0.0,0.0,0.0,0,0,0,0,3,0,0,3,0,0,0,4,1,0,0
68803066,0.0433735,0.0344828,0.536108,0.0,0.0,0.0,0.0,0.0,0.0,0.0,0.0,0,0,0,0,3,0,0,3,0,0,0,4,1,0,0
69004239,0.159036,0.147335,0.536108,0.0,0.0,0.0,0.0,0.0,0.0,0.0,0.0,0,0,0,0,3,0,0,3,0,0,0,4,1,0,0
69205454,0.110843,0.0752351,0.534884,0.0,0.0,0.0,0.0,0.0,0.0,0.0,0.0,0,0,0,0,3,0,0,3,0,0,0,4,1,0,0
69406235,0.0915663,0.0344828,0.534884,0.0,0.0,0.0,0.0,0.0,0.0,0.0,0.0,0,0,0,0,3,0,0,3,0,0,0,4,1,0,0
69607538,0.0843373,0.0376176,0.534884,0.0,0.0,0.0,0.0,0.0,0.0,0.0,0.0,0,0,0,0,3,0,0,3,0,0,0,4,1,0,0
69808480,0.0698795,0.0376176,0.53366,0.0,0.0,0.0,0.0,0.0,0.0,0.0,0.0,0,0,0,0,3,0,0,3,0,0,0,4,1,0,0
70010577,0.0939759,0.0438871,0.534884,0.0,0.0,0.0,0.0,0.0,0.0,0.0,0.0,0,0,0,0,3,0,0,3,0,0,0,4,1,0,0
70210775,0.113253,0.103448,0.534884,0.0,0.0,0.0,0.0,0.0,0.0,0.0,0.0,0,0,0,0,3,0,0,3,0,0,0,4,1,0,0
70409406,0.13012,0.122257,0.534884,0.0,0.0,0.0,0.0,0.0,0.0,0.0,0.0,0,0,0,0,3,0,0,3,0,0,0,4,1,0,0
70607986,0.144578,0.15047,0.534884,0.0,0.0,0.0,0.0,0.0,0.0,0.0,0.0,0,0,0,0,3,0,0,3,0,0,0,4,1,0,0
70809464,0.127711,0.128527,0.534884,0.0,0.0,0.0,0.0,0.0,0.0,0.0,0.0,0,0,0,0,3,0,0,3,0,0,0,4,1,0,0
71010391,0.106024,0.103448,0.53366,0.0,0.0,0.0,0.0,0.0,0.0,0.0,0.0,0,0,0,0,3,0,0,3,0,0,0,4,1,0,0
71211555,0.0795181,0.0564263,0.534884,0.0,0.0,0.0,0.0,0.0,0.0,0.0,0.0,0,0,0,0,3,0,0,3,0,0,0,4,1,0,0
71412529,0.0939759,0.0689655,0.534884,0.0,0.0,0.0,0.0,0.0,0.0,0.0,0.0,0,0,0,0,3,0,0,3,0,0,0,4,1,0,0
71614583,0.0819277,0.0438871,0.53366,0.0,0.0,0.0,0.0,0.0,0.0,0.0,0.0,0,0,0,0,3,0,0,3,0,0,0,4,1,0,0
71812415,0.106024,0.0595611,0.534884,0.0,0.0,0.0,0.0,0.0,0.0,0.0,0.0,0,0,0,0,3,0,0,3,0,0,0,4,1,0,0
72013336,0.0819277,0.031348,0.534884,0.0,0.0,0.0,0.0,0.0,0.0,0.0,0.0,0,0,0,0,3,0,0,3,0,0,0,4,1,0,0
72212056,0.0192771,0.0250784,0.534884,0.0,0.0,0.0,0.0,0.0,0.0,0.0,0.0,0,0,0,0,3,0,0,3,0,0,0,4,1,0,0
72413390,0.0192771,0.0250784,0.534884,0.0,0.0,0.0,0.0,0.0,0.0,0.0,0.0,0,0,0,0,3,0,0,3,0,0,0,4,1,0,0
72614199,0.125301,0.0721003,0.534884,0.0,0.0,0.0,0.0,0.0,0.0,0.0,0.0,0,0,0,0,3,0,0,3,0,0,0,4,1,0,0
72811294,0.187952,0.137931,0.534884,0.0,0.0,0.0,0.0,0.0,0.0,0.0,0.0,0,0,0,0,3,0,0,3,0,0,0,4,1,0,0
73011842,0.2,0.106583,0.534884,0.0,0.0,0.0,0.0,0.0,0.0,0.0,0.0,0,0,0,0,3,0,0,3,0,0,0,4,1,0,0
73212857,0.13494,0.0407524,0.53366,0.0,0.0,0.0,0.0,0.0,0.0,0.0,0.0,0,0,0,0,3,0,0,3,0,0,0,4,1,0,0
73413833,0.0192771,0.0219436,0.53366,0.0,0.0,0.0,0.0,0.0,0.0,0.0,0.0,0,0,0,0,3,0,0,3,0,0,0,4,1,0,0
73590312,0.0192771,0.0250784,0.534884,0.0,0.0,0.0,0.0,0.0,0.0,0.0,0.0,0,0,0,0,3,0,0,3,0,0,0,4,1,0,0
73811060,0.127711,0.0376176,0.534884,0.0,0.0,0.0,0.0,0.0,0.0,0.0,0.0,0,0,0,0,3,0,0,3,0,0,0,4,1,0,0
74007842,0.127711,0.0470219,0.534884,0.0,0.0,0.0,0.0,0.0,0.0,0.0,0.0,0,0,0,0,3,0,0,3,0,0,0,4,1,0,0
74208420,0.13494,0.0532915,0.534884,0.0,0.0,0.0,0.0,0.0,0.0,0.0,0.0,0,0,0,0,3,0,0,3,0,0,0,4,1,0,0
74409814,0.118072,0.0564263,0.534884,0.0,0.0,0.0,0.0,0.0,0.0,0.0,0.0,0,0,0,0,3,0,0,3,0,0,0,4,1,0,0
74610834,0.122892,0.0564263,0.53366,0.0,0.0,0.0,0.0,0.0,0.0,0.0,0.0,0,0,0,0,3,0,0,3,0,0,0,4,1,0,0
74811919,0.139759,0.0971787,0.534884,0.0,0.0,0.0,0.0,0.0,0.0,0.0,0.0,0,0,0,0,3,0,0,3,0,0,0,4,1,0,0
75011257,0.13494,0.128527,0.534884,0.0,0.0,0.0,0.0,0.0,0.0,0.0,0.0,0,0,0,0,3,0,0,3,0,0,0,4,1,0,0
75211498,0.0192771,0.0219436,0.53366,0.0,0.0,0.0,0.0,0.0,0.0,0.0,0.0,0,0,0,0,3,0,0,3,0,0,0,4,1,0,0
75412781,0.0192771,0.0219436,0.532436,0.0,0.0,0.0,0.0,0.0,0.0,0.0,0.0,0,0,0,0,3,0,0,3,0,0,0,4,1,0,0
75613808,0.0192771,0.0219436,0.547124,0.0,0.0,0.0,0.0,0.0,0.0,0.0,0.0,0,0,0,0,3,0,0,3,0,0,0,4,1,0,0
75812318,0.0192771,0.0250784,0.547124,0.0,0.0,0.0,0.0,0.0,0.0,0.0,0.0,0,0,0,0,3,0,0,3,0,0,0,4,1,0,0
76013776,0.0216867,0.0282132,0.534884,0.0,0.0,0.0,0.0,0.0,0.0,0.0,0.0,0,0,0,0,3,0,0,3,0,0,0,4,1,0,0
76214939,0.0216867,0.031348,0.534884,0.0,0.0,0.0,0.0,0.0,0.0,0.0,0.0,0,0,0,0,3,0,0,3,0,0,0,4,1,0,0
76393385,0.118072,0.131661,0.534884,0.0,0.0,0.0,0.0,0.0,0.0,0.0,0.0,0,0,0,0,3,0,0,3,0,0,0,4,1,0,0
76611836,0.146988,0.23511,0.534884,0.0,0.0,0.0,0.0,0.0,0.0,0.0,0.0,0,0,0,0,3,0,0,3,0,0,0,4,1,0,0
76813183,0.127711,0.231975,0.534884,0.0,0.0,0.0,0.0,0.0,0.0,0.0,0.0,0,0,0,0,3,0,0,3,0,0,0,4,1,0,0
77014256,0.110843,0.184953,0.534884,0.0,0.0,0.0,0.0,0.0,0.0,0.0,0.0,0,0,0,0,3,0,0,3,0,0,0,4,1,0,0
77212888,0.0192771,0.0219436,0.534884,0.0,0.0,0.0,0.0,0.0,0.0,0.0,0.0,0,0,0,0,3,0,0,3,0,0,0,4,1,0,0
77414085,0.0192771,0.0250784,0.534884,0.0,0.0,0.0,0.0,0.0,0.0,0.0,0.0,0,0,0,0,3,0,0,3,0,0,0,4,1,0,0
77615217,0.0216867,0.0282132,0.534884,0.0,0.0,0.0,0.0,0.0,0.0,0.0,0.0,0,0,0,0,3,0,0,3,0,0,0,4,1,0,0
77813728,0.0915663,0.125392,0.534884,0.0,0.0,0.0,0.0,0.0,0.0,0.0,0.0,0,0,0,0,3,0,0,3,0,0,0,4,1,0,0
78014963,0.0771084,0.128527,0.534884,0.0,0.0,0.0,0.0,0.0,0.0,0.0,0.0,0,0,0,0,3,0,0,3,0,0,0,4,1,0,0
78214202,0.106024,0.122257,0.534884,0.0,0.0,0.0,0.0,0.0,0.0,0.0,0.0,0,0,0,0,3,0,0,3,0,0,0,4,1,0,0
78414634,0.113253,0.119122,0.534884,0.0,0.0,0.0,0.0,0.0,0.0,0.0,0.0,0,0,0,0,3,0,0,3,0,0,0,4,1,0,0
78615927,0.0192771,0.0219436,0.534884,0.0,0.0,0.0,0.0,0.0,0.0,0.0,0.0,0,0,0,0,3,0,0,3,0,0,0,4,1,0,0
78794656,0.0192771,0.0250784,0.534884,0.0,0.0,0.0,0.0,0.0,0.0,0.0,0.0,0,0,0,0,3,0,0,3,0,0,0,4,1,0,0
78995630,0.142169,0.0344828,0.534884,0.0,0.0,0.0,0.0,0.0,0.0,0.0,0.0,0,0,0,0,3,0,0,3,0,0,0,4,1,0,0
79197407,0.137349,0.0344828,0.534884,0.0,0.0,0.0,0.0,0.0,0.0,0.0,0.0,0,0,0,0,3,0,0,3,0,0,0,4,1,0,0
79397952,0.0192771,0.0219436,0.534884,0.0,0.0,0.0,0.0,0.0,0.0,0.0,0.0,0,0,0,0,3,0,0,3,0,0,0,4,1,0,0
79599601,0.0192771,0.0219436,0.563035,0.0,0.0,0.0,0.0,0.0,0.0,0.0,0.0,0,0,0,0,3,0,0,3,0,0,0,4,1,0,0
79800287,0.0192771,0.0250784,0.577723,0.0,0.0,0.0,0.0,0.0,0.0,0.0,0.0,0,0,0,0,3,0,0,3,0,0,0,4,1,0,0
79998783,0.0216867,0.0250784,0.574051,0.0,0.0,0.0,0.0,0.0,0.0,0.0,0.0,0,0,0,0,3,0,0,3,0,0,0,4,1,0,0
80197280,0.0192771,0.0250784,0.570379,0.0,0.0,0.0,0.0,0.0,0.0,0.0,0.0,0,0,0,0,3,0,0,3,0,0,0,4,1,0,0
80395944,0.146988,0.184953,0.571603,0.0,0.0,0.0,0.0,0.0,0.0,0.0,0.0,0,0,0,0,3,0,0,3,0,0,0,4,1,0,0
80595093,0.0698795,0.0877743,0.571603,0.0,0.0,0.0,0.0,0.0,0.0,0.0,0.0,0,0,0,0,3,0,0,3,0,0,0,4,1,0,0
80795933,0.0192771,0.0219436,0.571603,0.0,0.0,0.0,0.0,0.0,0.0,0.0,0.0,0,0,0,0,3,0,0,3,0,0,0,4,1,0,0
81016721,0.0915663,0.0344828,0.526316,0.0,0.0,0.0,0.0,0.0,0.0,0.0,0.0,0,0,0,0,3,0,0,3,0,0,0,4,1,0,0
81195553,0.146988,0.0752351,0.511628,0.0,0.0,0.0,0.0,0.0,0.0,0.0,0.0,0,0,0,0,3,0,0,3,0,0,0,4,1,0,0
81394199,0.106024,0.031348,0.516524,0.0,0.0,0.0,0.0,0.0,0.0,0.0,0.0,0,0,0,0,3,0,0,3,0,0,0,4,1,0,0
81596631,0.0192771,0.0219436,0.523868,0.0,0.0,0.0,0.0,0.0,0.0,0.0,0.0,0,0,0,0,3,0,0,3,0,0,0,4,1,0,0
81804031,0.0987952,0.0564263,0.525092,0.0,0.0,0.0,0.0,0.0,0.0,0.0,0.0,0,0,0,0,3,0,0,3,0,0,0,4,1,0,0
81995094,0.154217,0.181818,0.525092,0.0,0.0,0.0,0.0,0.0,0.0,0.0,0.0,0,0,0,0,3,0,0,3,0,0,0,4,1,0,0
82216753,0.13253,0.166144,0.525092,0.0,0.0,0.0,0.0,0.0,0.0,0.0,0.0,0,0,0,0,3,0,0,3,0,0,0,4,1,0,0
82417106,0.0722892,0.0752351,0.525092,0.0,0.0,0.0,0.0,0.0,0.0,0.0,0.0,0,0,0,0,3,0,0,3,0,0,0,4,1,0,0
82595989,0.0192771,0.0219436,0.525092,0.0,0.0,0.0,0.0,0.0,0.0,0.0,0.0,0,0,0,0,3,0,0,3,0,0,0,4,1,0,0
82797885,0.0192771,0.0250784,0.525092,0.0,0.0,0.0,0.0,0.0,0.0,0.0,0.0,0,0,0,0,3,0,0,3,0,0,0,4,1,0,0
82998251,0.118072,0.0877743,0.525092,0.0,0.0,0.0,0.0,0.0,0.0,0.0,0.0,0,0,0,0,3,0,0,3,0,0,0,4,1,0,0
83197326,0.13253,0.128527,0.525092,0.0,0.0,0.0,0.0,0.0,0.0,0.0,0.0,0,0,0,0,3,0,0,3,0,0,0,4,1,0,0
83398408,0.0987952,0.0501567,0.525092,0.0,0.0,0.0,0.0,0.0,0.0,0.0,0.0,0,0,0,0,3,0,0,3,0,0,0,4,1,0,0
83598994,0.0216867,0.0219436,0.525092,0.0,0.0,0.0,0.0,0.0,0.0,0.0,0.0,0,0,0,0,3,0,0,3,0,0,0,4,1,0,0
83800760,0.151807,0.153605,0.525092,0.0,0.0,0.0,0.0,0.0,0.0,0.0,0.0,0,0,0,0,3,0,0,3,0,0,0,4,1,0,0
84001402,0.159036,0.169279,0.525092,0.0,0.0,0.0,0.0,0.0,0.0,0.0,0.0,0,0,0,0,3,0,0,3,0,0,0,4,1,0,0
84202560,0.0313253,0.0282132,0.525092,0.0,0.0,0.0,0.0,0.0,0.0,0.0,0.0,0,0,0,0,3,0,0,3,0,0,0,4,1,0,0
84403639,0.0192771,0.0219436,0.525092,0.0,0.0,0.0,0.0,0.0,0.0,0.0,0.0,0,0,0,0,3,0,0,3,0,0,0,4,1,0,0
84604939,0.0192771,0.0250784,0.531212,0.0,0.0,0.0,0.0,0.0,0.0,0.0,0.0,0,0,0,0,3,0,0,3,0,0,0,4,1,0,0
84805872,0.0216867,0.031348,0.542228,0.0,0.0,0.0,0.0,0.0,0.0,0.0,0.0,0,0,0,0,3,0,0,3,0,0,0,4,1,0,0
85004579,0.127711,0.163009,0.53366,0.0,0.0,0.0,0.0,0.0,0.0,0.0,0.0,0,0,0,0,3,0,0,3,0,0,0,4,1,0,0
85206301,0.127711,0.172414,0.532436,0.0,0.0,0.0,0.0,0.0,0.0,0.0,0.0,0,0,0,0,3,0,0,3,0,0,0,4,1,0,0
85404517,0.113253,0.159875,0.53366,0.0,0.0,0.0,0.0,0.0,0.0,0.0,0.0,0,0,0,0,3,0,0,3,0,0,0,4,1,0,0
85605307,0.139759,0.197492,0.53366,0.0,0.0,0.0,0.0,0.0,0.0,0.0,0.0,0,0,0,0,3,0,0,3,0,0,0,4,1,0,0
85804061,0.125301,0.15047,0.532436,0.0,0.0,0.0,0.0,0.0,0.0,0.0,0.0,0,0,0,0,3,0,0,3,0,0,0,4,1,0,0
86005680,0.103614,0.141066,0.532436,0.0,0.0,0.0,0.0,0.0,0.0,0.0,0.0,0,0,0,0,3,0,0,3,0,0,0,4,1,0,0
86206135,0.120482,0.153605,0.532436,0.0,0.0,0.0,0.0,0.0,0.0,0.0,0.0,0,0,0,0,3,0,0,3,0,0,0,4,1,0,0
86408219,0.0939759,0.128527,0.532436,0.0,0.0,0.0,0.0,0.0,0.0,0.0,0.0,0,0,0,0,3,0,0,3,0,0,0,4,1,0,0
86606767,0.0192771,0.0219436,0.53366,0.0,0.0,0.0,0.0,0.0,0.0,0.0,0.0,0,0,0,0,3,0,0,3,0,0,0,4,1,0,0
86807100,0.0192771,0.0250784,0.572827,0.0,0.0,0.0,0.0,0.0,0.0,0.0,0.0,0,0,0,0,3,0,0,3,0,0,0,4,1,0,0
87009024,0.0192771,0.0250784,0.577723,0.0,0.0,0.0,0.0,0.0,0.0,0.0,0.0,0,0,0,0,3,0,0,3,0,0,0,4,1,0,0
87209342,0.0626506,0.0376176,0.571603,0.0,0.0,0.0,0.0,0.0,0.0,0.0,0.0,0,0,0,0,3,0,0,3,0,0,0,4,1,0,0
87408074,0.171084,0.147335,0.572827,0.0,0.0,0.0,0.0,0.0,0.0,0.0,0.0,0,0,0,0,3,0,0,3,0,0,0,4,1,0,0
87609982,0.146988,0.103448,0.574051,0.0,0.0,0.0,0.0,0.0,0.0,0.0,0.0,0,0,0,0,3,0,0,3,0,0,0,4,1,0,0
87810293,0.146988,0.0877743,0.574051,0.0,0.0,0.0,0.0,0.0,0.0,0.0,0.0,0,0,0,0,3,0,0,3,0,0,0,4,1,0,0
88011487,0.0192771,0.0219436,0.574051,0.0,0.0,0.0,0.0,0.0,0.0,0.0,0.0,0,0,0,0,3,0,0,3,0,0,0,4,1,0,0
88210576,0.0289157,0.031348,0.55202,0.0,0.0,0.0,0.0,0.0,0.0,0.0,0.0,0,0,0,0,3,0,0,3,0,0,0,4,1,0,0
88411168,0.0939759,0.0501567,0.526316,0.0,0.0,0.0,0.0,0.0,0.0,0.0,0.0,0,0,0,0,3,0,0,3,0,0,0,4,1,0,0
88612519,0.151807,0.137931,0.528764,0.0,0.0,0.0,0.0,0.0,0.0,0.0,0.0,0,0,0,0,3,0,0,3,0,0,0,4,1,0,0
88813488,0.0192771,0.0219436,0.528764,0.0,0.0,0.0,0.0,0.0,0.0,0.0,0.0,0,0,0,0,3,0,0,3,0,0,0,4,1,0,0
89012036,0.026506,0.031348,0.528764,0.0,0.0,0.0,0.0,0.0,0.0,0.0,0.0,0,0,0,0,3,0,0,3,0,0,0,4,1,0,0
89213301,0.159036,0.0815047,0.528764,0.0,0.0,0.0,0.0,0.0,0.0,0.0,0.0,0,0,0,0,3,0,0,3,0,0,0,4,1,0,0
89414386,0.178313,0.106583,0.528764,0.0,0.0,0.0,0.0,0.0,0.0,0.0,0.0,0,0,0,0,3,0,0,3,0,0,0,4,1,0,0
89616152,0.166265,0.0877743,0.528764,0.0,0.0,0.0,0.0,0.0,0.0,0.0,0.0,0,0,0,0,3,0,0,3,0,0,0,4,1,0,0
89814346,0.161446,0.0689655,0.528764,0.0,0.0,0.0,0.0,0.0,0.0,0.0,0.0,0,0,0,0,3,0,0,3,0,0,0,4,1,0,0
90015249,0.0795181,0.0282132,0.528764,0.0,0.0,0.0,0.0,0.0,0.0,0.0,0.0,0,0,0,0,3,0,0,3,0,0,0,4,1,0,0
90213869,0.0192771,0.0219436,0.528764,0.0,0.0,0.0,0.0,0.0,0.0,0.0,0.0,0,0,0,0,3,0,0,3,0,0,0,4,1,0,0
90392588,0.0192771,0.0250784,0.528764,0.0,0.0,0.0,0.0,0.0,0.0,0.0,0.0,0,0,0,0,3,0,0,3,0,0,0,4,1,0,0
90616014,0.0939759,0.159875,0.528764,0.0,0.0,0.0,0.0,0.0,0.0,0.0,0.0,0,0,0,0,3,0,0,3,0,0,0,4,1,0,0
90794837,0.122892,0.191223,0.528764,0.0,0.0,0.0,0.0,0.0,0.0,0.0,0.0,0,0,0,0,3,0,0,3,0,0,0,4,1,0,0
90994773,0.113253,0.15047,0.528764,0.0,0.0,0.0,0.0,0.0,0.0,0.0,0.0,0,0,0,0,3,0,0,3,0,0,0,4,1,0,0
91194701,0.118072,0.144201,0.528764,0.0,0.0,0.0,0.0,0.0,0.0,0.0,0.0,0,0,0,0,3,0,0,3,0,0,0,4,1,0,0
91415595,0.168675,0.219436,0.528764,0.0,0.0,0.0,0.0,0.0,0.0,0.0,0.0,0,0,0,0,3,0,0,3,0,0,0,4,1,0,0
91594381,0.139759,0.147335,0.528764,0.0,0.0,0.0,0.0,0.0,0.0,0.0,0.0,0,0,0,0,3,0,0,3,0,0,0,4,1,0,0
91793161,0.0192771,0.0219436,0.528764,0.0,0.0,0.0,0.0,0.0,0.0,0.0,0.0,0,0,0,0,3,0,0,3,0,0,0,4,1,0,0
92016621,0.0192771,0.0250784,0.52754,0.0,0.0,0.0,0.0,0.0,0.0,0.0,0.0,0,0,0,0,3,0,0,3,0,0,0,4,1,0,0
92195149,0.154217,0.0564263,0.528764,0.0,0.0,0.0,0.0,0.0,0.0,0.0,0.0,0,0,0,0,3,0,0,3,0,0,0,4,1,0,0
92413764,0.175904,0.112853,0.528764,0.0,0.0,0.0,0.0,0.0,0.0,0.0,0.0,0,0,0,0,3,0,0,3,0,0,0,4,1,0,0
92612430,0.0361446,0.0282132,0.526316,0.0,0.0,0.0,0.0,0.0,0.0,0.0,0.0,0,0,0,0,3,0,0,3,0,0,0,4,1,0,0
92813631,0.0192771,0.0219436,0.550796,0.0,0.0,0.0,0.0,0.0,0.0,0.0,0.0,0,0,0,0,3,0,0,3,0,0,0,4,1,0,0
93014767,0.0337349,0.0815047,0.538556,0.0,0.0,0.0,0.0,0.0,0.0,0.0,0.0,0,0,0,0,3,0,0,3,0,0,0,4,1,0,0
93193414,0.120482,0.184953,0.538556,0.0,0.0,0.0,0.0,0.0,0.0,0.0,0.0,0,0,0,0,3,0,0,3,0,0,0,4,1,0,0
93416920,0.156627,0.203762,0.538556,0.0,0.0,0.0,0.0,0.0,0.0,0.0,0.0,0,0,0,0,3,0,0,3,0,0,0,4,1,0,0
93595614,0.127711,0.175549,0.53978,0.0,0.0,0.0,0.0,0.0,0.0,0.0,0.0,0,0,0,0,3,0,0,3,0,0,0,4,1,0,0
93796953,0.0192771,0.0219436,0.53978,0.0,0.0,0.0,0.0,0.0,0.0,0.0,0.0,0,0,0,0,3,0,0,3,0,0,0,4,1,0,0
93995622,0.0795181,0.0344828,0.53978,0.0,0.0,0.0,0.0,0.0,0.0,0.0,0.0,0,0,0,0,3,0,0,3,0,0,0,4,1,0,0
94196453,0.13012,0.0815047,0.53978,0.0,0.0,0.0,0.0,0.0,0.0,0.0,0.0,0,0,0,0,3,0,0,3,0,0,0,4,1,0,0
94397697,0.103614,0.0470219,0.541004,0.0,0.0,0.0,0.0,0.0,0.0,0.0,0.0,0,0,0,0,3,0,0,3,0,0,0,4,1,0,0
94598902,0.0192771,0.0219436,0.556916,0.0,0.0,0.0,0.0,0.0,0.0,0.0,0.0,0,0,0,0,3,0,0,3,0,0,0,4,1,0,0
94800422,0.0192771,0.0250784,0.559364,0.0,0.0,0.0,0.0,0.0,0.0,0.0,0.0,0,0,0,0,3,0,0,3,0,0,0,4,1,0,0
95001113,0.0216867,0.0250784,0.559364,0.0,0.0,0.0,0.0,0.0,0.0,0.0,0.0,0,0,0,0,3,0,0,3,0,0,0,4,1,0,0
95199628,0.0216867,0.0250784,0.559364,0.0,0.0,0.0,0.0,0.0,0.0,0.0,0.0,0,0,0,0,3,0,0,3,0,0,0,4,1,0,0
95401117,0.0216867,0.0250784,0.560588,0.0,0.0,0.0,0.0,0.0,0.0,0.0,0.0,0,0,0,0,3,0,0,3,0,0,0,4,1,0,0
95599915,0.101205,0.0501567,0.55814,0.0,0.0,0.0,0.0,0.0,0.0,0.0,0.0,0,0,0,0,3,0,0,3,0,0,0,4,1,0,0
95800438,0.178313,0.181818,0.55814,0.0,0.0,0.0,0.0,0.0,0.0,0.0,0.0,0,0,0,0,3,0,0,3,0,0,0,4,1,0,0
96002209,0.137349,0.194357,0.55814,0.0,0.0,0.0,0.0,0.0,0.0,0.0,0.0,0,0,0,0,3,0,0,3,0,0,0,4,1,0,0
96202688,0.101205,0.153605,0.55814,0.0,0.0,0.0,0.0,0.0,0.0,0.0,0.0,0,0,0,0,3,0,0,3,0,0,0,4,1,0,0
96404230,0.0192771,0.0219436,0.55814,0.0,0.0,0.0,0.0,0.0,0.0,0.0,0.0,0,0,0,0,3,0,0,3,0,0,0,4,1,0,0
96605102,0.0216867,0.0282132,0.556916,0.0,0.0,0.0,0.0,0.0,0.0,0.0,0.0,0,0,0,0,3,0,0,3,0,0,0,4,1,0,0
96803860,0.0819277,0.0344828,0.55814,0.0,0.0,0.0,0.0,0.0,0.0,0.0,0.0,0,0,0,0,3,0,0,3,0,0,0,4,1,0,0
97004966,0.118072,0.0501567,0.556916,0.0,0.0,0.0,0.0,0.0,0.0,0.0,0.0,0,0,0,0,3,0,0,3,0,0,0,4,1,0,0
97203797,0.0192771,0.0219436,0.556916,0.0,0.0,0.0,0.0,0.0,0.0,0.0,0.0,0,0,0,0,3,0,0,3,0,0,0,4,1,0,0
97404538,0.026506,0.031348,0.556916,0.0,0.0,0.0,0.0,0.0,0.0,0.0,0.0,0,0,0,0,3,0,0,3,0,0,0,4,1,0,0
97606515,0.161446,0.141066,0.528764,0.0,0.0,0.0,0.0,0.0,0.0,0.0,0.0,0,0,0,0,3,0,0,3,0,0,0,4,1,0,0
97806734,0.0506024,0.0282132,0.52754,0.0,0.0,0.0,0.0,0.0,0.0,0.0,0.0,0,0,0,0,3,0,0,3,0,0,0,4,1,0,0
98009260,0.0192771,0.0250784,0.538556,0.0,0.0,0.0,0.0,0.0,0.0,0.0,0.0,0,0,0,0,3,0,0,3,0,0,0,4,1,0,0
98209175,0.151807,0.0909091,0.537332,0.0,0.0,0.0,0.0,0.0,0.0,0.0,0.0,0,0,0,0,3,0,0,3,0,0,0,4,1,0,0
98410192,0.187952,0.153605,0.526316,0.0,0.0,0.0,0.0,0.0,0.0,0.0,0.0,0,0,0,0,3,0,0,3,0,0,0,4,1,0,0
98611191,0.2,0.119122,0.526316,0.0,0.0,0.0,0.0,0.0,0.0,0.0,0.0,0,0,0,0,3,0,0,3,0,0,0,4,1,0,0
98812671,0.20241,0.100313,0.517748,0.0,0.0,0.0,0.0,0.0,0.0,0.0,0.0,0,0,0,0,3,0,0,3,0,0,0,4,1,0,0
99013555,0.0192771,0.0219436,0.526316,0.0,0.0,0.0,0.0,0.0,0.0,0.0,0.0,0,0,0,0,3,0,0,3,0,0,0,4,1,0,0
99192393,0.0216867,0.0250784,0.526316,0.0,0.0,0.0,0.0,0.0,0.0,0.0,0.0,0,0,0,0,3,0,0,3,0,0,0,4,1,0,0
99414089,0.0216867,0.0250784,0.526316,0.0,0.0,0.0,0.0,0.0,0.0,0.0,0.0,0,0,0,0,3,0,0,3,0,0,0,4,1,0,0
99614753,0.0216867,0.031348,0.526316,0.0,0.0,0.0,0.0,0.0,0.0,0.0,0.0,0,0,0,0,3,0,0,3,0,0,0,4,1,0,0
99815658,0.0939759,0.0344828,0.526316,0.0,0.0,0.0,0.0,0.0,0.0,0.0,0.0,0,0,0,0,3,0,0,3,0,0,0,4,1,0,0
99994573,0.154217,0.0438871,0.526316,0.0,0.0,0.0,0.0,0.0,0.0,0.0,0.0,0,0,0,0,3,0,0,3,0,0,0,4,1,0,0
100195352,0.0795181,0.0282132,0.526316,0.0,0.0,0.0,0.0,0.0,0.0,0.0,0.0,0,0,0,0,3,0,0,3,0,0,0,4,1,0,0
100414190,0.0192771,0.0250784,0.526316,0.0,0.0,0.0,0.0,0.0,0.0,0.0,0.0,0,0,0,0,3,0,0,3,0,0,0,4,1,0,0
100615538,0.139759,0.0532915,0.526316,0.0,0.0,0.0,0.0,0.0,0.0,0.0,0.0,0,0,0,0,3,0,0,3,0,0,0,4,1,0,0
100814556,0.156627,0.112853,0.526316,0.0,0.0,0.0,0.0,0.0,0.0,0.0,0.0,0,0,0,0,3,0,0,3,0,0,0,4,1,0,0
101012423,0.151807,0.106583,0.526316,0.0,0.0,0.0,0.0,0.0,0.0,0.0,0.0,0,0,0,0,3,0,0,3,0,0,0,4,1,0,0
101211141,0.0216867,0.0219436,0.526316,0.0,0.0,0.0,0.0,0.0,0.0,0.0,0.0,0,0,0,0,3,0,0,3,0,0,0,4,1,0,0
101411962,0.0385542,0.0438871,0.526316,0.0,0.0,0.0,0.0,0.0,0.0,0.0,0.0,0,0,0,0,3,0,0,3,0,0,0,4,1,0,0
101613348,0.168675,0.216301,0.526316,0.0,0.0,0.0,0.0,0.0,0.0,0.0,0.0,0,0,0,0,3,0,0,3,0,0,0,4,1,0,0
101812578,0.161446,0.184953,0.526316,0.0,0.0,0.0,0.0,0.0,0.0,0.0,0.0,0,0,0,0,3,0,0,3,0,0,0,4,1,0,0
102013099,0.137349,0.172414,0.526316,0.0,0.0,0.0,0.0,0.0,0.0,0.0,0.0,0,0,0,0,3,0,0,3,0,0,0,4,1,0,0
102211807,0.171084,0.181818,0.526316,0.0,0.0,0.0,0.0,0.0,0.0,0.0,0.0,0,0,0,0,3,0,0,3,0,0,0,4,1,0,0
102413827,0.149398,0.134796,0.526316,0.0,0.0,0.0,0.0,0.0,0.0,0.0,0.0,0,0,0,0,3,0,0,3,0,0,0,4,1,0,0
102613810,0.0192771,0.0219436,0.526316,0.0,0.0,0.0,0.0,0.0,0.0,0.0,0.0,0,0,0,0,3,0,0,3,0,0,0,4,1,0,0
102815086,0.026506,0.031348,0.526316,0.0,0.0,0.0,0.0,0.0,0.0,0.0,0.0,0,0,0,0,3,0,0,3,0,0,0,4,1,0,0
102993999,0.226506,0.137931,0.526316,0.0,0.0,0.0,0.0,0.0,0.0,0.0,0.0,0,0,0,0,3,0,0,3,0,0,0,4,1,0,0
103218042,0.178313,0.0815047,0.526316,0.0,0.0,0.0,0.0,0.0,0.0,0.0,0.0,0,0,0,0,3,0,0,3,0,0,0,4,1,0,0
103413449,0.0216867,0.0219436,0.526316,0.0,0.0,0.0,0.0,0.0,0.0,0.0,0.0,0,0,0,0,3,0,0,3,0,0,0,4,1,0,0
103615346,0.0216867,0.0250784,0.560588,0.0,0.0,0.0,0.0,0.0,0.0,0.0,0.0,0,0,0,0,3,0,0,3,0,0,0,4,1,0,0
103815685,0.0216867,0.0250784,0.563035,0.0,0.0,0.0,0.0,0.0,0.0,0.0,0.0,0,0,0,0,3,0,0,3,0,0,0,4,1,0,0
103994469,0.0216867,0.0282132,0.560588,0.0,0.0,0.0,0.0,0.0,0.0,0.0,0.0,0,0,0,0,3,0,0,3,0,0,0,4,1,0,0
104195850,0.0216867,0.0250784,0.565483,0.0,0.0,0.0,0.0,0.0,0.0,0.0,0.0,0,0,0,0,3,0,0,3,0,0,0,4,1,0,0
104396651,0.0216867,0.0250784,0.560588,0.0,0.0,0.0,0.0,0.0,0.0,0.0,0.0,0,0,0,0,3,0,0,3,0,0,0,4,1,0,0
104598506,0.125301,0.0595611,0.560588,0.0,0.0,0.0,0.0,0.0,0.0,0.0,0.0,0,0,0,0,3,0,0,3,0,0,0,4,1,0,0
104796596,0.120482,0.0344828,0.560588,0.0,0.0,0.0,0.0,0.0,0.0,0.0,0.0,0,0,0,0,3,0,0,3,0,0,0,4,1,0,0
104995391,0.113253,0.0438871,0.560588,0.0,0.0,0.0,0.0,0.0,0.0,0.0,0.0,0,0,0,0,3,0,0,3,0,0,0,4,1,0,0
105196204,0.183133,0.137931,0.560588,0.0,0.0,0.0,0.0,0.0,0.0,0.0,0.0,0,0,0,0,3,0,0,3,0,0,0,4,1,0,0
105397923,0.195181,0.112853,0.560588,0.0,0.0,0.0,0.0,0.0,0.0,0.0,0.0,0,0,0,0,3,0,0,3,0,0,0,4,1,0,0
105598573,0.178313,0.0752351,0.560588,0.0,0.0,0.0,0.0,0.0,0.0,0.0,0.0,0,0,0,0,3,0,0,3,0,0,0,4,1,0,0
105800454,0.0216867,0.0250784,0.560588,0.0,0.0,0.0,0.0,0.0,0.0,0.0,0.0,0,0,0,0,3,0,0,3,0,0,0,4,1,0,0
105998622,0.0216867,0.0250784,0.560588,0.0,0.0,0.0,0.0,0.0,0.0,0.0,0.0,0,0,0,0,3,0,0,3,0,0,0,4,1,0,0
106217360,0.026506,0.031348,0.560588,0.0,0.0,0.0,0.0,0.0,0.0,0.0,0.0,0,0,0,0,3,0,0,3,0,0,0,4,1,0,0
106415950,0.0987952,0.0344828,0.559364,0.0,0.0,0.0,0.0,0.0,0.0,0.0,0.0,0,0,0,0,3,0,0,3,0,0,0,4,1,0,0
106595045,0.146988,0.0344828,0.523868,0.0,0.0,0.0,0.0,0.0,0.0,0.0,0.0,0,0,0,0,3,0,0,3,0,0,0,4,1,0,0
106795278,0.122892,0.0344828,0.511628,0.0,0.0,0.0,0.0,0.0,0.0,0.0,0.0,0,0,0,0,3,0,0,3,0,0,0,4,1,0,0
106997066,0.13012,0.0344828,0.514076,0.0,0.0,0.0,0.0,0.0,0.0,0.0,0.0,0,0,0,0,3,0,0,3,0,0,0,4,1,0,0
107197494,0.0481928,0.0282132,0.525092,0.0,0.0,0.0,0.0,0.0,0.0,0.0,0.0,0,0,0,0,3,0,0,3,0,0,0,4,1,0,0
107405971,0.0192771,0.0250784,0.523868,0.0,0.0,0.0,0.0,0.0,0.0,0.0,0.0,0,0,0,0,3,0,0,3,0,0,0,4,1,0,0
107599823,0.026506,0.031348,0.523868,0.0,0.0,0.0,0.0,0.0,0.0,0.0,0.0,0,0,0,0,3,0,0,3,0,0,0,4,1,0,0
107801665,0.0457831,0.031348,0.523868,0.0,0.0,0.0,0.0,0.0,0.0,0.0,0.0,0,0,0,0,3,0,0,3,0,0,0,4,1,0,0
108000306,0.151807,0.0721003,0.523868,0.0,0.0,0.0,0.0,0.0,0.0,0.0,0.0,0,0,0,0,3,0,0,3,0,0,0,4,1,0,0
108200604,0.20241,0.128527,0.523868,0.0,0.0,0.0,0.0,0.0,0.0,0.0,0.0,0,0,0,0,3,0,0,3,0,0,0,4,1,0,0
108402621,0.173494,0.0626959,0.523868,0.0,0.0,0.0,0.0,0.0,0.0,0.0,0.0,0,0,0,0,3,0,0,3,0,0,0,4,1,0,0
108595636,0.0722892,0.0282132,0.523868,0.0,0.0,0.0,0.0,0.0,0.0,0.0,0.0,0,0,0,0,3,0,0,3,0,0,0,4,1,0,0
108796464,0.0192771,0.0250784,0.523868,0.0,0.0,0.0,0.0,0.0,0.0,0.0,0.0,0,0,0,0,3,0,0,3,0,0,0,4,1,0,0
108998465,0.139759,0.0344828,0.523868,0.0,0.0,0.0,0.0,0.0,0.0,0.0,0.0,0,0,0,0,3,0,0,3,0,0,0,4,1,0,0
109198727,0.190361,0.0752351,0.523868,0.0,0.0,0.0,0.0,0.0,0.0,0.0,0.0,0,0,0,0,3,0,0,3,0,0,0,4,1,0,0
109400710,0.195181,0.0564263,0.523868,0.0,0.0,0.0,0.0,0.0,0.0,0.0,0.0,0,0,0,0,3,0,0,3,0,0,0,4,1,0,0
109601158,0.212048,0.0626959,0.523868,0.0,0.0,0.0,0.0,0.0,0.0,0.0,0.0,0,0,0,0,3,0,0,3,0,0,0,4,1,0,0
109799592,0.125301,0.031348,0.522644,0.0,0.0,0.0,0.0,0.0,0.0,0.0,0.0,0,0,0,0,3,0,0,3,0,0,0,4,1,0,0
109998315,0.0192771,0.0219436,0.544676,0.0,0.0,0.0,0.0,0.0,0.0,0.0,0.0,0,0,0,0,3,0,0,3,0,0,0,4,1,0,0
110196891,0.0192771,0.0250784,0.554468,0.0,0.0,0.0,0.0,0.0,0.0,0.0,0.0,0,0,0,0,3,0,0,3,0,0,0,4,1,0,0
110398916,0.0216867,0.031348,0.548348,0.0,0.0,0.0,0.0,0.0,0.0,0.0,0.0,0,0,0,0,3,0,0,3,0,0,0,4,1,0,0
110597313,0.178313,0.109718,0.5459,0.0,0.0,0.0,0.0,0.0,0.0,0.0,0.0,0,0,0,0,3,0,0,3,0,0,0,4,1,0,0
110795526,0.0289157,0.0282132,0.550796,0.0,0.0,0.0,0.0,0.0,0.0,0.0,0.0,0,0,0,0,3,0,0,3,0,0,0,4,1,0,0
110994306,0.0192771,0.0219436,0.567931,0.0,0.0,0.0,0.0,0.0,0.0,0.0,0.0,0,0,0,0,3,0,0,3,0,0,0,4,1,0,0
111195261,0.0216867,0.0250784,0.567931,0.0,0.0,0.0,0.0,0.0,0.0,0.0,0.0,0,0,0,0,3,0,0,3,0,0,0,4,1,0,0
111396351,0.0216867,0.0250784,0.566707,0.0,0.0,0.0,0.0,0.0,0.0,0.0,0.0,0,0,0,0,3,0,0,3,0,0,0,4,1,0,0
111617118,0.0795181,0.0658307,0.563035,0.0,0.0,0.0,0.0,0.0,0.0,0.0,0.0,0,0,0,0,3,0,0,3,0,0,0,4,1,0,0
111815853,0.221687,0.22884,0.563035,0.0,0.0,0.0,0.0,0.0,0.0,0.0,0.0,0,0,0,0,3,0,0,3,0,0,0,4,1,0,0
111994922,0.240964,0.213166,0.563035,0.0,0.0,0.0,0.0,0.0,0.0,0.0,0.0,0,0,0,0,3,0,0,3,0,0,0,4,1,0,0
112196212,0.238554,0.213166,0.563035,0.0,0.0,0.0,0.0,0.0,0.0,0.0,0.0,0,0,0,0,3,0,0,3,0,0,0,4,1,0,0
112396830,0.204819,0.163009,0.563035,0.0,0.0,0.0,0.0,0.0,0.0,0.0,0.0,0,0,0,0,3,0,0,3,0,0,0,4,1,0,0
112598571,0.178313,0.112853,0.563035,0.0,0.0,0.0,0.0,0.0,0.0,0.0,0.0,0,0,0,0,3,0,0,3,0,0,0,4,1,0,0
112797592,0.0216867,0.0219436,0.563035,0.0,0.0,0.0,0.0,0.0,0.0,0.0,0.0,0,0,0,0,3,0,0,3,0,0,0,4,1,0,0
112995855,0.0192771,0.0250784,0.563035,0.0,0.0,0.0,0.0,0.0,0.0,0.0,0.0,0,0,0,0,3,0,0,3,0,0,0,4,1,0,0
113213860,0.0216867,0.0250784,0.561812,0.0,0.0,0.0,0.0,0.0,0.0,0.0,0.0,0,0,0,0,3,0,0,3,0,0,0,4,1,0,0
113414992,0.053012,0.0344828,0.523868,0.0,0.0,0.0,0.0,0.0,0.0,0.0,0.0,0,0,0,0,3,0,0,3,0,0,0,4,1,0,0
113613850,0.0698795,0.0344828,0.501836,0.0,0.0,0.0,0.0,0.0,0.0,0.0,0.0,0,0,0,0,3,0,0,3,0,0,0,4,1,0,0
113814857,0.103614,0.0344828,0.529988,0.0,0.0,0.0,0.0,0.0,0.0,0.0,0.0,0,0,0,0,3,0,0,3,0,0,0,4,1,0,0
113993711,0.190361,0.0815047,0.52142,0.0,0.0,0.0,0.0,0.0,0.0,0.0,0.0,0,0,0,0,3,0,0,3,0,0,0,4,1,0,0
114194723,0.146988,0.0344828,0.517748,0.0,0.0,0.0,0.0,0.0,0.0,0.0,0.0,0,0,0,0,3,0,0,3,0,0,0,4,1,0,0
114415777,0.110843,0.031348,0.517748,0.0,0.0,0.0,0.0,0.0,0.0,0.0,0.0,0,0,0,0,3,0,0,3,0,0,0,4,1,0,0
114616773,0.0216867,0.0250784,0.5153,0.0,0.0,0.0,0.0,0.0,0.0,0.0,0.0,0,0,0,0,3,0,0,3,0,0,0,4,1,0,0
114815289,0.0626506,0.031348,0.5153,0.0,0.0,0.0,0.0,0.0,0.0,0.0,0.0,0,0,0,0,3,0,0,3,0,0,0,4,1,0,0
115013950,0.173494,0.147335,0.5153,0.0,0.0,0.0,0.0,0.0,0.0,0.0,0.0,0,0,0,0,3,0,0,3,0,0,0,4,1,0,0
115215807,0.159036,0.103448,0.5153,0.0,0.0,0.0,0.0,0.0,0.0,0.0,0.0,0,0,0,0,3,0,0,3,0,0,0,4,1,0,0
115393954,0.0987952,0.0438871,0.5153,0.0,0.0,0.0,0.0,0.0,0.0,0.0,0.0,0,0,0,0,3,0,0,3,0,0,0,4,1,0,0
115614882,0.0192771,0.0219436,0.5153,0.0,0.0,0.0,0.0,0.0,0.0,0.0,0.0,0,0,0,0,3,0,0,3,0,0,0,4,1,0,0
115813517,0.0433735,0.0344828,0.5153,0.0,0.0,0.0,0.0,0.0,0.0,0.0,0.0,0,0,0,0,3,0,0,3,0,0,0,4,1,0,0
116012123,0.163855,0.169279,0.5153,0.0,0.0,0.0,0.0,0.0,0.0,0.0,0.0,0,0,0,0,3,0,0,3,0,0,0,4,1,0,0
116210855,0.13012,0.112853,0.5153,0.0,0.0,0.0,0.0,0.0,0.0,0.0,0.0,0,0,0,0,3,0,0,3,0,0,0,4,1,0,0
116409523,0.0216867,0.0250784,0.578947,0.0,0.0,0.0,0.0,0.0,0.0,0.0,0.0,0,0,0,0,3,0,0,3,0,0,0,4,1,0,0
116611304,0.0216867,0.0282132,0.575275,0.0,0.0,0.0,0.0,0.0,0.0,0.0,0.0,0,0,0,0,3,0,0,3,0,0,0,4,1,0,0
116812068,0.166265,0.213166,0.576499,0.0,0.0,0.0,0.0,0.0,0.0,0.0,0.0,0,0,0,0,3,0,0,3,0,0,0,4,1,0,0
117012924,0.187952,0.247649,0.576499,0.0,0.0,0.0,0.0,0.0,0.0,0.0,0.0,0,0,0,0,3,0,0,3,0,0,0,4,1,0,0
117214050,0.0216867,0.0282132,0.577723,0.0,0.0,0.0,0.0,0.0,0.0,0.0,0.0,0,0,0,0,3,0,0,3,0,0,0,4,1,0,0
117415299,0.0192771,0.0250784,0.577723,0.0,0.0,0.0,0.0,0.0,0.0,0.0,0.0,0,0,0,0,3,0,0,3,0,0,0,4,1,0,0
117593925,0.125301,0.0250784,0.577723,0.0,0.0,0.0,0.0,0.0,0.0,0.0,0.0,0,0,0,0,3,0,0,3,0,0,0,4,1,0,0
117814759,0.146988,0.0,0.577723,0.0,0.0,0.0,0.0,0.0,0.0,0.0,0.0,0,0,0,0,3,0,0,3,0,0,0,4,1,0,0
117993501,0.108434,-0.0213415,0.577723,0.0,0.0,0.0,0.0,0.0,0.0,0.0,0.0,0,0,0,0,3,0,0,3,0,0,0,4,1,0,0
118194993,0.106024,-0.0426829,0.576499,0.0,0.0,0.0,0.0,0.0,0.0,0.0,0.0,0,0,0,0,3,0,0,3,0,0,0,4,1,0,0
118395671,0.0216867,0.0219436,0.577723,0.0,0.0,0.0,0.0,0.0,0.0,0.0,0.0,0,0,0,0,3,0,0,3,0,0,0,4,1,0,0
118617559,0.0216867,0.0282132,0.563035,0.0,0.0,0.0,0.0,0.0,0.0,0.0,0.0,0,0,0,0,3,0,0,3,0,0,0,4,1,0,0
118796336,0.0240964,0.0344828,0.563035,0.0,0.0,0.0,0.0,0.0,0.0,0.0,0.0,0,0,0,0,3,0,0,3,0,0,0,4,1,0,0
118996828,0.0240964,0.0344828,0.528764,0.0,0.0,0.0,0.0,0.0,0.0,0.0,0.0,0,0,0,0,3,0,0,3,0,0,0,4,1,0,0
119195441,0.0216867,0.0219436,0.55202,0.0,0.0,0.0,0.0,0.0,0.0,0.0,0.0,0,0,0,0,3,0,0,3,0,0,0,4,1,0,0
119397305,0.0216867,0.0250784,0.553244,0.0,0.0,0.0,0.0,0.0,0.0,0.0,0.0,0,0,0,0,3,0,0,3,0,0,0,4,1,0,0
119595304,0.0216867,0.0250784,0.550796,0.0,0.0,0.0,0.0,0.0,0.0,0.0,0.0,0,0,0,0,3,0,0,3,0,0,0,4,1,0,0
119796473,0.0216867,0.0250784,0.550796,0.0,0.0,0.0,0.0,0.0,0.0,0.0,0.0,0,0,0,0,3,0,0,3,0,0,0,4,1,0,0
119997827,0.0216867,-0.0152439,0.550796,0.0,0.0,0.0,0.0,0.0,0.0,0.0,0.0,0,0,0,0,3,0,0,3,0,0,0,4,1,0,0
120196152,0.0192771,0.0,0.550796,0.0,0.0,0.0,0.0,0.0,0.0,0.0,0.0,0,0,0,0,3,0,0,3,0,0,0,4,1,0,0
120397138,0.0192771,0.0219436,0.550796,0.0,0.0,0.0,0.0,0.0,0.0,0.0,0.0,0,0,0,0,3,0,0,3,0,0,0,4,1,0,0
120598830,0.0192771,0.0219436,0.566707,-0.037123,0.0,0.0,0.0,0.0,0.0,0.0,0.0,0,0,0,0,3,0,0,3,0,0,0,4,1,0,0
120799252,0.0216867,0.0250784,0.566707,-0.0301624,0.0,0.0,0.0,0.0,0.0,0.0,0.0,0,0,0,0,3,0,0,3,0,0,0,4,1,0,0
120997952,0.0216867,0.0282132,0.563035,0.0,0.0,0.0,0.0,0.0,0.0,0.0,0.0,0,0,0,0,3,0,0,3,0,0,0,4,1,0,0
121196655,0.192771,0.166144,0.563035,0.0,0.0,0.0,0.0,0.0,0.0,0.0,0.0,0,0,0,0,3,0,0,3,0,0,0,4,1,0,0
121395500,0.159036,0.166144,0.563035,0.0,0.0,0.0,0.0,0.0,0.0,0.0,0.0,0,0,0,0,3,0,0,3,0,0,0,4,1,0,0
121597067,0.0506024,0.031348,0.526316,0.0,0.0,0.0,0.0,0.0,0.0,0.0,0.0,0,0,0,0,3,0,0,3,0,0,0,4,1,0,0
121797626,0.0626506,0.031348,0.489596,0.0,0.0,0.0,0.0,0.0,0.0,0.0,0.0,0,0,0,0,3,0,0,3,0,0,0,4,1,0,0
121999482,0.0433735,0.031348,0.501836,0.0,0.0,0.0,0.0,0.0,0.0,0.0,0.0,0,0,0,0,3,0,0,3,0,0,0,4,1,0,0
122199775,0.0192771,0.0219436,0.517748,0.0,0.0,0.0,0.0,0.0,0.0,0.0,0.0,0,0,0,0,3,0,0,3,0,0,0,4,1,0,0
122401772,0.0192771,0.0250784,0.510404,0.0,0.0,0.0,0.0,0.0,0.0,0.0,0.0,0,0,0,0,3,0,0,3,0,0,0,4,1,0,0
122600291,0.0216867,0.031348,0.511628,0.0,0.0,0.0,0.0,0.0,0.0,0.0,0.0,0,0,0,0,3,0,0,3,0,0,0,4,1,0,0
122798814,0.154217,0.0877743,0.565483,0.0,0.0,0.0,0.0,0.0,0.0,0.0,0.0,0,0,0,0,3,0,0,3,0,0,0,4,1,0,0
122997598,0.166265,0.0721003,0.585067,0.0,0.0,0.0,0.0,0.0,0.0,0.0,0.0,0,0,0,0,3,0,0,3,0,0,0,4,1,0,0
123195571,0.159036,0.0501567,0.575275,0.0,0.0,0.0,0.0,0.0,0.0,0.0,0.0,0,0,0,0,3,0,0,3,0,0,0,4,1,0,0
123396548,0.122892,0.031348,0.575275,0.0,0.0,0.0,0.0,0.0,0.0,0.0,0.0,0,0,0,0,3,0,0,3,0,0,0,4,1,0,0
123597894,0.0216867,0.0219436,0.574051,0.0,0.0,0.0,0.0,0.0,0.0,0.0,0.0,0,0,0,0,3,0,0,3,0,0,0,4,1,0,0
123798991,0.0506024,0.0407524,0.572827,0.0,0.0,0.0,0.0,0.0,0.0,0.0,0.0,0,0,0,0,3,0,0,3,0,0,0,4,1,0,0
124000527,0.178313,0.285266,0.572827,0.0,0.0,0.0,0.0,0.0,0.0,0.0,0.0,0,0,0,0,3,0,0,3,0,0,0,4,1,0,0
124201022,0.139759,0.131661,0.572827,0.0,0.0,0.0,0.0,0.0,0.0,0.0,0.0,0,0,0,0,3,0,0,3,0,0,0,4,1,0,0
124399585,0.0192771,0.0219436,0.567931,0.0,0.0,0.0,0.0,0.0,0.0,0.0,0.0,0,0,0,0,3,0,0,3,0,0,0,4,1,0,0
124601472,0.0409639,0.0344828,0.501836,0.0,0.0,0.0,0.0,0.0,0.0,0.0,0.0,0,0,0,0,3,0,0,3,0,0,0,4,1,0,0
124801900,0.0698795,0.0344828,0.500612,0.0,0.0,0.0,0.0,0.0,0.0,0.0,0.0,0,0,0,0,3,0,0,3,0,0,0,4,1,0,0
125000479,0.13494,0.0909091,0.500612,0.0,0.0,0.0,0.0,0.0,0.0,0.0,0.0,0,0,0,0,3,0,0,3,0,0,0,4,1,0,0
125202252,0.142169,0.0689655,0.518972,0.0,0.0,0.0,0.0,0.0,0.0,0.0,0.0,0,0,0,0,3,0,0,3,0,0,0,4,1,0,0
125400865,0.0192771,0.0219436,0.517748,0.0,0.0,0.0,0.0,0.0,0.0,0.0,0.0,0,0,0,0,3,0,0,3,0,0,0,4,1,0,0
125599637,0.026506,0.0344828,0.511628,0.0,0.0,0.0,0.0,0.0,0.0,0.0,0.0,0,0,0,0,3,0,0,3,0,0,0,4,1,0,0
125805296,0.154217,0.15047,0.507956,0.0,0.0,0.0,0.0,0.0,0.0,0.0,0.0,0,0,0,0,3,0,0,3,0,0,0,4,1,0,0
125997249,0.146988,0.0940439,0.507956,0.0,0.0,0.0,0.0,0.0,0.0,0.0,0.0,0,0,0,0,3,0,0,3,0,0,0,4,1,0,0
126197469,0.0216867,0.0219436,0.507956,0.0,0.0,0.0,0.0,0.0,0.0,0.0,0.0,0,0,0,0,3,0,0,3,0,0,0,4,1,0,0
126395927,0.0216867,0.0282132,0.547124,0.0,0.0,0.0,0.0,0.0,0.0,0.0,0.0,0,0,0,0,3,0,0,3,0,0,0,4,1,0,0
126597451,0.0240964,0.0344828,0.544676,0.0,0.0,0.0,0.0,0.0,0.0,0.0,0.0,0,0,0,0,3,0,0,3,0,0,0,4,1,0,0
126798518,0.185542,0.206897,0.564259,0.0,0.0,0.0,0.0,0.0,0.0,0.0,0.0,0,0,0,0,3,0,0,3,0,0,0,4,1,0,0
126996972,0.0216867,0.0219436,0.554468,0.0,0.0,0.0,0.0,0.0,0.0,0.0,0.0,0,0,0,0,3,0,0,3,0,0,0,4,1,0,0
127198845,0.0216867,0.031348,0.559364,0.0,0.0,0.0,0.0,0.0,0.0,0.0,0.0,0,0,0,0,3,0,0,3,0,0,0,4,1,0,0
127399339,0.166265,0.119122,0.559364,0.0,0.0,0.0,0.0,0.0,0.0,0.0,0.0,0,0,0,0,3,0,0,3,0,0,0,4,1,0,0
127600614,0.159036,0.125392,0.559364,0.0,0.0,0.0,0.0,0.0,0.0,0.0,0.0,0,0,0,0,3,0,0,3,0,0,0,4,1,0,0
127801353,0.0216867,0.0219436,0.559364,0.0,0.0,0.0,0.0,0.0,0.0,0.0,0.0,0,0,0,0,3,0,0,3,0,0,0,4,1,0,0
128000161,0.026506,0.0407524,0.559364,0.0,0.0,0.0,0.0,0.0,0.0,0.0,0.0,0,0,0,0,3,0,0,3,0,0,0,4,1,0,0
128201357,0.0987952,0.310345,0.559364,0.0,0.0,0.0,0.0,0.0,0.0,0.0,0.0,0,0,0,0,3,0,0,3,0,0,0,4,1,0,0
128402344,0.0216867,0.0188088,0.559364,0.0,0.0,0.0,0.0,0.0,0.0,0.0,0.0,0,0,0,0,3,0,0,3,0,0,0,4,1,0,0
128604079,0.0289157,0.0344828,0.511628,0.0,0.0,0.0,0.0,0.0,0.0,0.0,0.0,0,0,0,0,3,0,0,3,0,0,0,4,1,0,0
128804495,0.0457831,0.0344828,0.50918,0.0,0.0,0.0,0.0,0.0,0.0,0.0,0.0,0,0,0,0,3,0,0,3,0,0,0,4,1,0,0
129005742,0.13494,0.175549,0.520196,0.0,0.0,0.0,0.0,0.0,0.0,0.0,0.0,0,0,0,0,3,0,0,3,0,0,0,4,1,0,0
129206784,0.142169,0.166144,0.517748,0.0,0.0,0.0,0.0,0.0,0.0,0.0,0.0,0,0,0,0,3,0,0,3,0,0,0,4,1,0,0
129405576,0.0216867,0.0219436,0.517748,0.0,0.0,0.0,0.0,0.0,0.0,0.0,0.0,0,0,0,0,3,0,0,3,0,0,0,4,1,0,0
129602291,0.0481928,0.0877743,0.516524,0.0,0.0,0.0,0.0,0.0,0.0,0.0,0.0,0,0,0,0,3,0,0,3,0,0,0,4,1,0,0
129801100,0.0626506,0.0532915,0.523868,0.0,0.0,0.0,0.0,0.0,0.0,0.0,0.0,0,0,0,0,3,0,0,3,0,0,0,4,1,0,0
129999557,0.0192771,0.0219436,0.565483,0.0,0.0,0.0,0.0,0.0,0.0,0.0,0.0,0,0,0,0,3,0,0,3,0,0,0,4,1,0,0
130199928,0.0939759,0.119122,0.560588,0.0,0.0,0.0,0.0,0.0,0.0,0.0,0.0,0,0,0,0,3,0,0,3,0,0,0,4,1,0,0
130401249,0.163855,0.219436,0.560588,0.0,0.0,0.0,0.0,0.0,0.0,0.0,0.0,0,0,0,0,3,0,0,3,0,0,0,4,1,0,0
130602158,0.159036,0.238245,0.560588,0.0,0.0,0.0,0.0,0.0,0.0,0.0,0.0,0,0,0,0,3,0,0,3,0,0,0,4,1,0,0
130804224,0.0963855,0.106583,0.560588,0.0,0.0,0.0,0.0,0.0,0.0,0.0,0.0,0,0,0,0,3,0,0,3,0,0,0,4,1,0,0
131004481,0.0216867,0.0250784,0.563035,0.0,0.0,0.0,0.0,0.0,0.0,0.0,0.0,0,0,0,0,3,0,0,3,0,0,0,4,1,0,0
131206264,0.0795181,0.0344828,0.528764,0.0,0.0,0.0,0.0,0.0,0.0,0.0,0.0,0,0,0,0,3,0,0,3,0,0,0,4,1,0,0
131404536,0.0192771,0.031348,0.543452,0.0,0.0,0.0,0.0,0.0,0.0,0.0,0.0,0,0,0,0,3,0,0,3,0,0,0,4,1,0,0
131605277,0.166265,0.0344828,0.547124,0.0,0.0,0.0,0.0,0.0,0.0,0.0,0.0,0,0,0,0,3,0,0,3,0,0,0,4,1,0,0
131803899,0.0216867,0.0219436,0.578947,0.0,0.0,0.0,0.0,0.0,0.0,0.0,0.0,0,0,0,0,3,0,0,3,0,0,0,4,1,0,0
132002621,0.0192771,0.0250784,0.577723,0.0,0.0,0.0,0.0,0.0,0.0,0.0,0.0,0,0,0,0,3,0,0,3,0,0,0,4,1,0,0
132203993,0.026506,0.031348,0.571603,0.0,0.0,0.0,0.0,0.0,0.0,0.0,0.0,0,0,0,0,3,0,0,3,0,0,0,4,1,0,0
132402487,0.13253,0.119122,0.571603,0.0,0.0,0.0,0.0,0.0,0.0,0.0,0.0,0,0,0,0,3,0,0,3,0,0,0,4,1,0,0
132601600,0.0771084,0.137931,0.571603,0.0,0.0,0.0,0.0,0.0,0.0,0.0,0.0,0,0,0,0,3,0,0,3,0,0,0,4,1,0,0
132800193,0.0192771,0.0219436,0.571603,0.0,0.0,0.0,0.0,0.0,0.0,0.0,0.0,0,0,0,0,3,0,0,3,0,0,0,4,1,0,0
133000848,0.0216867,0.0282132,0.571603,0.0,0.0,0.0,0.0,0.0,0.0,0.0,0.0,0,0,0,0,3,0,0,3,0,0,0,4,1,0,0
133202438,0.0939759,0.0658307,0.536108,0.0,0.0,0.0,0.0,0.0,0.0,0.0,0.0,0,0,0,0,3,0,0,3,0,0,0,4,1,0,0
133401141,0.103614,0.0658307,0.556916,0.0,0.0,0.0,0.0,0.0,0.0,0.0,0.0,0,0,0,0,3,0,0,3,0,0,0,4,1,0,0
133601824,0.183133,0.166144,0.555692,0.0,0.0,0.0,0.0,0.0,0.0,0.0,0.0,0,0,0,0,3,0,0,3,0,0,0,4,1,0,0
133800613,0.0819277,0.0532915,0.554468,0.0,0.0,0.0,0.0,0.0,0.0,0.0,0.0,0,0,0,0,3,0,0,3,0,0,0,4,1,0,0
134001568,0.0192771,0.0219436,0.555692,0.0,0.0,0.0,0.0,0.0,0.0,0.0,0.0,0,0,0,0,3,0,0,3,0,0,0,4,1,0,0
134202503,0.0216867,0.0282132,0.555692,0.0,0.0,0.0,0.0,0.0,0.0,0.0,0.0,0,0,0,0,3,0,0,3,0,0,0,4,1,0,0
134403822,0.151807,0.122257,0.555692,0.0,0.0,0.0,0.0,0.0,0.0,0.0,0.0,0,0,0,0,3,0,0,3,0,0,0,4,1,0,0
134602577,0.163855,0.109718,0.556916,0.0,0.0,0.0,0.0,0.0,0.0,0.0,0.0,0,0,0,0,3,0,0,3,0,0,0,4,1,0,0
134803373,0.0192771,0.0219436,0.52142,0.0,0.0,0.0,0.0,0.0,0.0,0.0,0.0,0,0,0,0,3,0,0,3,0,0,0,4,1,0,0
135008429,0.0216867,0.0282132,0.501836,0.0,0.0,0.0,0.0,0.0,0.0,0.0,0.0,0,0,0,0,3,0,0,3,0,0,0,4,1,0,0
135200750,0.0795181,0.0344828,0.516524,0.0,0.0,0.0,0.0,0.0,0.0,0.0,0.0,0,0,0,0,3,0,0,3,0,0,0,4,1,0,0
135399442,0.122892,0.0971787,0.517748,0.0,0.0,0.0,0.0,0.0,0.0,0.0,0.0,0,0,0,0,3,0,0,3,0,0,0,4,1,0,0
135600979,0.178313,0.147335,0.517748,0.0,0.0,0.0,0.0,0.0,0.0,0.0,0.0,0,0,0,0,3,0,0,3,0,0,0,4,1,0,0
135799665,0.122892,0.0344828,0.517748,0.0,0.0,0.0,0.0,0.0,0.0,0.0,0.0,0,0,0,0,3,0,0,3,0,0,0,4,1,0,0
135998463,0.0216867,0.0219436,0.517748,0.0,0.0,0.0,0.0,0.0,0.0,0.0,0.0,0,0,0,0,3,0,0,3,0,0,0,4,1,0,0
136198905,0.122892,0.0344828,0.517748,0.0,0.0,0.0,0.0,0.0,0.0,0.0,0.0,0,0,0,0,3,0,0,3,0,0,0,4,1,0,0
136397494,0.219277,0.0877743,0.517748,0.0,0.0,0.0,0.0,0.0,0.0,0.0,0.0,0,0,0,0,3,0,0,3,0,0,0,4,1,0,0
136599499,0.168675,0.0846395,0.510404,0.0,0.0,0.0,0.0,0.0,0.0,0.0,0.0,0,0,0,0,3,0,0,3,0,0,0,4,1,0,0
136797570,0.0216867,0.0219436,0.575275,0.0,0.0,0.0,0.0,0.0,0.0,0.0,0.0,0,0,0,0,3,0,0,3,0,0,0,4,1,0,0
136998442,0.0216867,0.0219436,0.577723,0.0,0.0,0.0,0.0,0.0,0.0,0.0,0.0,0,0,0,0,3,0,0,3,0,0,0,4,1,0,0
137200324,0.122892,0.144201,0.575275,0.0,0.0,0.0,0.0,0.0,0.0,0.0,0.0,0,0,0,0,3,0,0,3,0,0,0,4,1,0,0
137399058,0.151807,0.15047,0.575275,0.0,0.0,0.0,0.0,0.0,0.0,0.0,0.0,0,0,0,0,3,0,0,3,0,0,0,4,1,0,0
137597593,0.0939759,0.0470219,0.575275,0.0,0.0,0.0,0.0,0.0,0.0,0.0,0.0,0,0,0,0,3,0,0,3,0,0,0,4,1,0,0
137796322,0.0216867,0.0219436,0.575275,0.0,0.0,0.0,0.0,0.0,0.0,0.0,0.0,0,0,0,0,3,0,0,3,0,0,0,4,1,0,0
138014043,0.101205,0.0501567,0.575275,0.0,0.0,0.0,0.0,0.0,0.0,0.0,0.0,0,0,0,0,3,0,0,3,0,0,0,4,1,0,0
138213124,0.178313,0.22884,0.575275,0.0,0.0,0.0,0.0,0.0,0.0,0.0,0.0,0,0,0,0,3,0,0,3,0,0,0,4,1,0,0
138411862,0.125301,0.191223,0.575275,0.0,0.0,0.0,0.0,0.0,0.0,0.0,0.0,0,0,0,0,3,0,0,3,0,0,0,4,1,0,0
138612543,0.0192771,0.0250784,0.575275,0.0,0.0,0.0,0.0,0.0,0.0,0.0,0.0,0,0,0,0,3,0,0,3,0,0,0,4,1,0,0
138813642,0.0192771,0.0219436,0.575275,0.0,0.0,0.0,0.0,0.0,0.0,0.0,0.0,0,0,0,0,3,0,0,3,0,0,0,4,1,0,0
139014842,0.0192771,0.0250784,0.548348,0.0,0.0,0.0,0.0,0.0,0.0,0.0,0.0,0,0,0,0,3,0,0,3,0,0,0,4,1,0,0
139213290,0.0216867,0.0250784,0.517748,0.0,0.0,0.0,0.0,0.0,0.0,0.0,0.0,0,0,0,0,3,0,0,3,0,0,0,4,1,0,0
139414637,0.0192771,0.0219436,0.52142,0.0,0.0,0.0,0.0,0.0,0.0,0.0,0.0,0,0,0,0,3,0,0,3,0,0,0,4,1,0,0
139613145,0.0192771,0.0250784,0.514076,0.0,0.0,0.0,0.0,0.0,0.0,0.0,0.0,0,0,0,0,3,0,0,3,0,0,0,4,1,0,0
139811726,0.0216867,0.0282132,0.511628,0.0,0.0,0.0,0.0,0.0,0.0,0.0,0.0,0,0,0,0,3,0,0,3,0,0,0,4,1,0,0
140012923,0.166265,0.163009,0.514076,0.0,0.0,0.0,0.0,0.0,0.0,0.0,0.0,0,0,0,0,3,0,0,3,0,0,0,4,1,0,0
