timestamp,timestamp_sample,baro_device_id,baro_alt_meter,baro_temp_celcius,baro_pressure_pa,rho
21365485,21347786,3997730,346.865,25.66,97227.5,1.15522
21425760,21403124,3997730,346.931,25.66,97226.7,1.15521
21586693,21563941,3997730,346.931,25.66,97226.7,1.15521
21797752,21777639,3997730,347.166,25.66,97224.0,1.15518
22009100,21991246,3997730,346.974,25.66,97226.3,1.15521
22169762,22152030,3997730,346.931,25.67,97226.8,1.15521
22390706,22368036,3997730,346.76,25.67,97228.8,1.15524
22601838,22581649,3997730,347.061,25.68,97225.3,1.1552
22812915,22795162,3997730,347.166,25.68,97224.0,1.15518
22973727,22956085,3997730,346.974,25.68,97226.3,1.15521
23194795,23172175,3997730,346.91,25.68,97227.0,1.15522
23406061,23385895,3997730,347.037,25.68,97225.5,1.1552
23617212,23599575,3997730,346.802,25.68,97228.3,1.15523
23778211,23760515,3997730,347.037,25.69,97225.5,1.1552
23999137,23976509,3997730,346.693,25.68,97229.5,1.15525
24210399,24190247,3997730,347.362,25.69,97221.8,1.15516
24371310,24351048,3997730,347.145,25.69,97224.3,1.15518
24582509,24564801,3997730,347.124,25.7,97224.5,1.15519
24803523,24780883,3997730,347.103,25.7,97224.8,1.15519
25014579,24994457,3997730,346.931,25.7,97226.8,1.15521
25175629,25155424,3997730,347.145,25.7,97224.3,1.15518
25386751,25369054,3997730,346.738,25.71,97229.0,1.15524
25608033,25585394,3997730,347.037,25.71,97225.5,1.1552
25769046,25746178,3997730,347.082,25.71,97225.0,1.15519
25980061,25959826,3997730,346.823,25.71,97228.0,1.15523
26191046,26173338,3997730,346.802,25.71,97228.3,1.15523
26412220,26389529,3997730,347.037,25.72,97225.5,1.1552
26573114,26550448,3997730,347.082,25.72,97225.0,1.15519
26784047,26763931,3997730,346.844,25.72,97227.8,1.15523
27015335,26985054,3997730,347.029,25.72,97225.6,1.1552
27176013,27153387,3997730,346.995,25.72,97226.0,1.15521
27387235,27366900,3997730,347.103,25.73,97224.8,1.15519
27598044,27580426,3997730,347.103,25.73,97224.8,1.15519
27758859,27741181,3997730,347.061,25.73,97225.3,1.1552
27980160,27957505,3997730,346.738,25.74,97229.0,1.15524
28191916,28171023,3997730,347.254,25.73,97223.0,1.15517
28361961,28344354,3997730,347.145,25.73,97224.3,1.15518
28583310,28560600,3997730,347.166,25.74,97224.0,1.15518
28794493,28774329,3997730,347.124,25.74,97224.5,1.15519
29005680,28987889,3997730,347.576,25.74,97219.3,1.15513
29166404,29148786,3997730,346.974,25.74,97226.3,1.15521
29387521,29364850,3997730,347.061,25.75,97225.3,1.1552
29608896,29591059,3997730,346.952,25.75,97226.5,1.15521
29769564,29751950,3997730,347.32,25.75,97222.3,1.15516
29990579,29967942,3997730,347.425,25.75,97221.0,1.15515
30201668,30181528,3997730,347.061,25.75,97225.3,1.1552
30412892,30395164,3997730,347.338,25.75,97222.0,1.15516
30573715,30556029,3997730,347.037,25.76,97225.5,1.1552
30794877,30772248,3997730,347.037,25.76,97225.5,1.1552
31005902,30985781,3997730,347.233,25.76,97223.3,1.15517
31166697,31146540,3997730,347.016,25.76,97225.8,1.1552
31377933,31360229,3997730,346.931,25.76,97226.7,1.15521
31599285,31576491,3997730,346.995,25.77,97226.0,1.15521
31810313,31790136,3997730,347.275,25.76,97222.8,1.15517
31981135,31956997,3997730,346.942,25.77,97226.6,1.15521
32202286,32179612,3997730,347.082,25.77,97225.0,1.15519
32413331,32393079,3997730,347.145,25.77,97224.3,1.15518
32574072,32553917,3997730,346.91,25.77,97227.0,1.15522
32785204,32767564,3997730,347.166,25.77,97224.0,1.15518
33006333,32983644,3997730,347.254,25.78,97223.0,1.15517
33217185,33197066,3997730,347.362,25.78,97221.8,1.15516
33378148,33357928,3997730,347.275,25.78,97222.8,1.15517
33589181,33571499,3997730,347.513,25.78,97220.0,1.15513
33810410,33787708,3997730,347.362,25.78,97221.8,1.15516
33971144,33948507,3997730,347.513,25.78,97220.0,1.15513
34192257,34174625,3997730,347.576,25.78,97219.2,1.15513
34413587,34390774,3997730,348.157,25.79,97212.5,1.15505
34574360,34551710,3997730,348.2,25.79,97212.0,1.15504
34785530,34765359,3997730,347.964,25.79,97214.8,1.15507
34996695,34979032,3997730,348.073,25.79,97213.5,1.15506
35157505,35139856,3997730,347.986,25.79,97214.5,1.15507
35378859,35356172,3997730,347.642,25.79,97218.5,1.15512
35589922,35569808,3997730,348.178,25.79,97212.3,1.15504
35801086,35783374,3997730,348.073,25.8,97213.5,1.15506
35962077,35944348,3997730,348.178,25.8,97212.3,1.15504
36183287,36160582,3997730,348.371,25.8,97210.0,1.15502
36394390,36374263,3997730,348.696,25.8,97206.3,1.15497
36605621,36587912,3997730,348.781,25.8,97205.3,1.15496
36766598,36748900,3997730,349.148,25.8,97201.0,1.15491
36987809,36965114,3997730,348.847,25.8,97204.5,1.15495
37198829,37178715,3997730,348.76,25.81,97205.5,1.15496
37409862,37392217,3997730,348.932,25.81,97203.5,1.15494
37570885,37553227,3997730,348.847,25.81,97204.5,1.15495
37792091,37769424,3997730,349.428,25.81,97197.8,1.15487
38003205,37983038,3997730,348.932,25.81,97203.5,1.15494
38214287,38196628,3997730,348.847,25.82,97204.5,1.15495
38374979,38357318,3997730,349.103,25.81,97201.5,1.15491
38596264,38573400,3997730,348.976,25.81,97203.0,1.15493
38807458,38787268,3997730,349.019,25.82,97202.5,1.15493
38978411,38954157,3997730,349.079,25.82,97201.8,1.15492
39199517,39176730,3997730,348.868,25.82,97204.3,1.15495
39410645,39390463,3997730,348.717,25.82,97206.0,1.15497
39571535,39551350,3997730,348.609,25.82,97207.3,1.15498
39782593,39764984,3997730,348.932,25.82,97203.5,1.15494
40003964,39981237,3997730,348.76,25.82,97205.5,1.15496
40215078,40194851,3997730,348.633,25.82,97207.0,1.15498
40375750,40355607,3997730,348.76,25.83,97205.5,1.15496
40587043,40569178,3997730,348.953,25.82,97203.3,1.15494
40808025,40785359,3997730,348.675,25.83,97206.5,1.15497
40969293,40946217,3997730,348.823,25.83,97204.8,1.15495
41189976,41172338,3997730,349.019,25.83,97202.5,1.15493
41411181,41388465,3997730,349.061,25.83,97202.0,1.15492
41572140,41549495,3997730,349.103,25.83,97201.5,1.15491
41783374,41763099,3997730,348.932,25.83,97203.5,1.15494
41994464,41976859,3997730,348.651,25.83,97206.8,1.15498
42215645,42192969,3997730,348.588,25.84,97207.5,1.15499
42376527,42353847,3997730,348.459,25.84,97209.0,1.155
42587629,42567363,3997730,348.696,25.84,97206.3,1.15497
42798669,42781006,3997730,348.223,25.84,97211.7,1.15504
42959512,42941853,3997730,348.696,25.84,97206.3,1.15497
43190807,43170554,3997730,348.546,25.84,97208.0,1.15499
43401844,43384133,3997730,348.223,25.84,97211.8,1.15504
43562672,43545030,3997730,348.781,25.84,97205.3,1.15496
43783889,43761240,3997730,348.953,25.84,97203.3,1.15494
43995166,43974937,3997730,348.395,25.85,97209.8,1.15501
44206392,44188581,3997730,348.781,25.85,97205.3,1.15496
44367309,44349638,3997730,348.651,25.85,97206.8,1.15498
44588386,44565719,3997730,348.91,25.85,97203.8,1.15494
44809700,44791986,3997730,348.76,25.85,97205.5,1.15496
44970506,44952889,3997730,348.889,25.85,97204.0,1.15494
45191532,45168842,3997730,348.91,25.85,97203.8,1.15494
45402601,45382421,3997730,349.257,25.85,97199.8,1.15489
45613562,45595955,3997730,348.823,25.85,97204.8,1.15495
45774576,45756873,3997730,349.04,25.85,97202.3,1.15492
45995640,45972933,3997730,348.953,25.85,97203.3,1.15494
46206655,46186501,3997730,348.609,25.86,97207.3,1.15498
46377698,46353465,3997730,348.63,25.85,97207.0,1.15498
46598776,46576029,3997730,349.061,25.85,97202.0,1.15492
46809863,46789547,3997730,348.823,25.86,97204.8,1.15495
46970526,46950381,3997730,349.257,25.86,97199.8,1.15489
47181741,47164119,3997730,349.085,25.86,97201.7,1.15492
47403230,47380427,3997730,349.127,25.86,97201.3,1.15491
47614323,47594124,3997730,348.998,25.86,97202.8,1.15493
47775017,47754868,3997730,348.976,25.86,97203.0,1.15493
47986227,47968596,3997730,348.91,25.86,97203.8,1.15494
48207505,48184850,3997730,348.953,25.86,97203.3,1.15494
48368709,48345668,3997730,349.085,25.86,97201.7,1.15492
48579520,48559400,3997730,349.278,25.87,97199.5,1.15489
48790789,48772939,3997730,349.299,25.87,97199.3,1.15489
49011710,48989062,3997730,349.579,25.86,97196.0,1.15485
49172510,49149806,3997730,349.169,25.87,97200.8,1.15491
49383783,49363587,3997730,348.717,25.87,97206.0,1.15497
49594835,49577191,3997730,348.739,25.87,97205.8,1.15497
49755895,49738094,3997730,348.329,25.87,97210.5,1.15502
49976858,49954172,3997730,348.609,25.87,97207.3,1.15498
50188073,50167859,3997730,348.546,25.87,97208.0,1.15499
50399054,50381319,3997730,348.007,25.88,97214.2,1.15507
50559916,50542252,3997730,348.094,25.87,97213.2,1.15505
50780970,50758345,3997730,347.772,25.87,97217.0,1.1551
50992318,50972073,3997730,347.814,25.88,97216.5,1.15509
51203543,51185771,3997730,347.6,25.88,97219.0,1.15512
51364441,51346786,3997730,347.534,25.88,97219.7,1.15513
51585517,51562879,3997730,347.919,25.88,97215.3,1.15508
51796597,51776454,3997730,347.898,25.88,97215.5,1.15508
52007594,51989989,3997730,348.223,25.88,97211.8,1.15504
52168505,52150828,3997730,348.2,25.88,97212.0,1.15504
52389587,52366947,3997730,348.48,25.88,97208.8,1.155
52600816,52580689,3997730,348.567,25.88,97207.8,1.15499
52812053,52794273,3997730,348.416,25.88,97209.5,1.15501
52992986,52970351,3997730,348.157,25.88,97212.5,1.15505
53204333,53184123,3997730,347.877,25.89,97215.8,1.15508
53415458,53397728,3997730,348.052,25.88,97213.7,1.15506
53576407,53558791,3997730,348.287,25.88,97211.0,1.15503
53797508,53774856,3997730,347.425,25.89,97221.0,1.15515
54008749,53988633,3997730,347.597,25.89,97219.0,1.15512
54169587,54149375,3997730,347.793,25.89,97216.8,1.1551
54380720,54363068,3997730,347.986,25.89,97214.5,1.15507
54602124,54579429,3997730,347.877,25.89,97215.8,1.15508
54813111,54792967,3997730,348.136,25.89,97212.7,1.15505
54973895,54953748,3997730,347.964,25.89,97214.8,1.15507
55185029,55167382,3997730,348.329,25.9,97210.5,1.15502
55365810,55335648,3997730,348.474,25.89,97208.8,1.155
55576855,55556717,3997730,348.91,25.9,97203.8,1.15494
55788046,55770404,3997730,348.847,25.89,97204.5,1.15495
56009185,55986393,3997730,349.061,25.9,97202.0,1.15492
56170245,56147362,3997730,348.847,25.9,97204.5,1.15495
56381059,56360945,3997730,349.04,25.9,97202.3,1.15492
56593025,56574468,3997730,349.127,25.9,97201.3,1.15491
56813265,56790611,3997730,348.696,25.9,97206.3,1.15497
56974271,56951512,3997730,348.91,25.9,97203.8,1.15494
57185554,57165375,3997730,348.717,25.9,97206.0,1.15497
57396493,57378884,3997730,348.675,25.9,97206.5,1.15497
57557605,57539884,3997730,348.976,25.9,97203.0,1.15493
57779589,57755846,3997730,348.371,25.91,97210.0,1.15502
57999670,57981995,3997730,348.976,25.9,97203.0,1.15493
58160347,58142719,3997730,348.696,25.91,97206.3,1.15497
58381647,58358956,3997730,348.609,25.9,97207.3,1.15498
58592756,58572454,3997730,348.633,25.91,97207.0,1.15498
58803916,58786221,3997730,348.739,25.91,97205.8,1.15497
58964625,58947019,3997730,348.696,25.91,97206.3,1.15497
59185872,59163123,3997730,348.501,25.91,97208.5,1.155
59396917,59376770,3997730,348.805,25.91,97205.0,1.15496
59608219,59590485,3997730,348.781,25.91,97205.3,1.15496
59769053,59751434,3997730,348.91,25.91,97203.8,1.15494
59990238,59967545,3997730,348.976,25.91,97203.0,1.15493
60201305,60181093,3997730,348.739,25.92,97205.8,1.15497
60412419,60394726,3997730,348.953,25.92,97203.3,1.15494
60573231,60555565,3997730,348.675,25.92,97206.5,1.15497
60794330,60771689,3997730,348.696,25.92,97206.3,1.15497
61005535,60985335,3997730,348.847,25.92,97204.5,1.15495
61216666,61199005,3997730,348.805,25.92,97205.0,1.15496
61377545,61359842,3997730,349.061,25.92,97202.0,1.15492
61598709,61576037,3997730,348.609,25.92,97207.2,1.15498
61810025,61789853,3997730,348.308,25.92,97210.7,1.15502
61971271,61950672,3997730,348.675,25.92,97206.5,1.15497
62202071,62179310,3997730,348.353,25.93,97210.3,1.15502
62413371,62393151,3997730,348.371,25.92,97210.0,1.15502
62574191,62554006,3997730,348.353,25.93,97210.2,1.15502
62785292,62767554,3997730,348.889,25.92,97204.0,1.15494
63006619,62983822,3997730,348.805,25.93,97205.0,1.15496
63167371,63144725,3997730,348.889,25.92,97204.0,1.15494
63378373,63358209,3997730,348.501,25.93,97208.5,1.155
63609653,63579401,3997730,348.821,25.93,97204.8,1.15495
63770460,63747818,3997730,348.847,25.92,97204.5,1.15495
63981616,63961483,3997730,348.696,25.93,97206.3,1.15497
64192825,64175168,3997730,348.546,25.93,97208.0,1.15499
64414143,64391407,3997730,348.889,25.93,97204.0,1.15494
64574887,64552214,3997730,348.329,25.93,97210.5,1.15502
64786925,64766060,3997730,348.546,25.93,97208.0,1.15499
64957191,64939516,3997730,348.501,25.94,97208.5,1.155
65178465,65155552,3997730,348.371,25.93,97210.0,1.15502
65389479,65369279,3997730,348.847,25.93,97204.5,1.15495
65550917,65530116,3997730,348.91,25.93,97203.8,1.15494
65781565,65758923,3997730,349.085,25.94,97201.7,1.15492
65992707,65972564,3997730,349.212,25.93,97200.3,1.1549
66203811,66186171,3997730,348.823,25.94,97204.8,1.15495
66364903,66347091,3997730,348.998,25.93,97202.8,1.15493
66585804,66563133,3997730,348.889,25.94,97204.0,1.15494
66797587,66776832,3997730,348.245,25.94,97211.5,1.15503
66967882,66950191,3997730,348.651,25.93,97206.8,1.15498
67189630,67166387,3997730,348.416,25.94,97209.5,1.15501
67410465,67392793,3997730,348.371,25.94,97210.0,1.15502
67571448,67553660,3997730,348.263,25.94,97211.3,1.15503
67792577,67769892,3997730,348.633,25.94,97207.0,1.15498
68003471,67983289,3997730,348.287,25.94,97211.0,1.15503
68214685,68197007,3997730,348.847,25.94,97204.5,1.15495
68375545,68357853,3997730,348.308,25.94,97210.8,1.15502
68596826,68574096,3997730,348.073,25.94,97213.5,1.15506
68807780,68787566,3997730,348.371,25.94,97210.0,1.15502
68968674,68948536,3997730,348.094,25.95,97213.2,1.15505
69179738,69162120,3997730,347.943,25.95,97215.0,1.15508
69410871,69390741,3997730,347.727,25.94,97217.5,1.1551
69571828,69551686,3997730,347.898,25.95,97215.5,1.15508
69803093,69780433,3997730,348.073,25.95,97213.5,1.15506
70014398,69994199,3997730,348.007,25.95,97214.3,1.15507
70175219,70155026,3997730,347.534,25.95,97219.7,1.15513
70386309,70368652,3997730,347.534,25.95,97219.7,1.15513
70607509,70584879,3997730,347.684,25.95,97218.0,1.15511
70768425,70745717,3997730,347.663,25.95,97218.2,1.15511
70979503,70959303,3997730,347.986,25.95,97214.5,1.15507
71190673,71172990,3997730,347.919,25.95,97215.3,1.15508
71411883,71389197,3997730,347.534,25.95,97219.7,1.15513
71572830,71550119,3997730,347.597,25.95,97219.0,1.15512
71784067,71763779,3997730,348.157,25.96,97212.5,1.15505
71995098,71977483,3997730,347.727,25.95,97217.5,1.1551
72156139,72138333,3997730,347.705,25.96,97217.8,1.15511
72377348,72354587,3997730,347.772,25.96,97217.0,1.1551
72588429,72568256,3997730,347.856,25.95,97216.0,1.15509
72799665,72782006,3997730,347.964,25.95,97214.8,1.15507
72960639,72942867,3997730,347.877,25.96,97215.8,1.15508
73181820,73159095,3997730,347.919,25.96,97215.3,1.15508
73392900,73372658,3997730,347.576,25.95,97219.2,1.15513
73603994,73586354,3997730,347.727,25.96,97217.5,1.1551
73765183,73747195,3997730,347.772,25.96,97217.0,1.1551
73985850,73963177,3997730,347.814,25.96,97216.5,1.15509
74207066,74182785,3997730,347.581,25.96,97219.2,1.15512
74367918,74350262,3997730,348.223,25.96,97211.7,1.15504
74589065,74566399,3997730,347.642,25.96,97218.5,1.15512
74800171,74780003,3997730,347.856,25.96,97216.0,1.15509
74962180,74940782,3997730,347.793,25.96,97216.8,1.1551
75192131,75169508,3997730,348.329,25.96,97210.5,1.15502
75403208,75383027,3997730,348.073,25.96,97213.5,1.15506
75614460,75596795,3997730,347.835,25.96,97216.3,1.15509
75775457,75757757,3997730,347.835,25.96,97216.3,1.15509
75996562,75973901,3997730,347.447,25.96,97220.7,1.15514
76208141,76187479,3997730,347.19,25.96,97223.8,1.15518
76378474,76360846,3997730,347.534,25.96,97219.7,1.15513
76599636,76576819,3997730,347.727,25.96,97217.5,1.1551
76810702,76790389,3997730,347.642,25.96,97218.5,1.15512
76971376,76951208,3997730,347.534,25.97,97219.7,1.15513
77182572,77164939,3997730,347.491,25.96,97220.3,1.15514
77403628,77380987,3997730,347.32,25.96,97222.3,1.15516
77615192,77594865,3997730,347.383,25.97,97221.5,1.15515
77776044,77755864,3997730,347.684,25.97,97218.0,1.15511
77987408,77969667,3997730,347.534,25.96,97219.7,1.15513
78208809,78185885,3997730,347.727,25.97,97217.5,1.1551
78369307,78346613,3997730,347.47,25.97,97220.5,1.15514
78580410,78560237,3997730,347.211,25.97,97223.5,1.15518
78791449,78773804,3997730,347.6,25.97,97219.0,1.15512
79012569,78989921,3997730,347.362,25.97,97221.8,1.15516
79173516,79150817,3997730,347.447,25.97,97220.7,1.15514
79384553,79364384,3997730,347.166,25.97,97224.0,1.15518
79595441,79577806,3997730,347.534,25.96,97219.7,1.15513
79816675,79794021,3997730,347.555,25.97,97219.5,1.15513
79977426,79954730,3997730,347.362,25.97,97221.8,1.15516
80188578,80168353,3997730,347.618,25.97,97218.7,1.15512
80349725,80329206,3997730,347.338,25.97,97222.0,1.15516
80580533,80557858,3997730,347.534,25.97,97219.7,1.15513
80791582,80771397,3997730,347.986,25.97,97214.5,1.15507
81002728,80985112,3997730,348.178,25.97,97212.3,1.15504
81163756,81145992,3997730,347.814,25.97,97216.5,1.15509
81384981,81362290,3997730,348.437,25.97,97209.3,1.15501
81606373,81582085,3997730,348.168,25.98,97212.4,1.15504
81767306,81749636,3997730,348.525,25.97,97208.2,1.15499
81988755,81965628,3997730,348.308,25.98,97210.7,1.15502
82209244,82191632,3997730,348.953,25.98,97203.3,1.15494
82370257,82352557,3997730,348.781,25.98,97205.3,1.15496
82591406,82568721,3997730,348.953,25.98,97203.3,1.15494
82802565,82782412,3997730,348.696,25.98,97206.3,1.15497
83013753,82996134,3997730,348.675,25.98,97206.5,1.15497
83175125,83156960,3997730,348.847,25.98,97204.5,1.15495
83395865,83373151,3997730,348.889,25.98,97204.0,1.15494
83607340,83586888,3997730,348.823,25.98,97204.8,1.15495
83768019,83747762,3997730,349.04,25.98,97202.3,1.15492
83980263,83961297,3997730,348.781,25.98,97205.3,1.15496
84200165,84177491,3997730,348.459,25.98,97209.0,1.155
84411596,84391085,3997730,348.588,25.98,97207.5,1.15499
84582227,84564518,3997730,348.329,25.98,97210.5,1.15502
84803519,84780776,3997730,348.546,25.98,97208.0,1.15499
85014585,84994435,3997730,348.459,25.98,97209.0,1.155
85175331,85155179,3997730,348.308,25.98,97210.8,1.15502
85386537,85368902,3997730,348.094,25.98,97213.2,1.15505
85607617,85584994,3997730,347.943,25.98,97215.0,1.15508
85778644,85758513,3997730,348.2,25.98,97212.0,1.15504
85989637,85972030,3997730,347.814,25.98,97216.5,1.15509
86210862,86188223,3997730,347.814,25.98,97216.5,1.15509
86371712,86349086,3997730,347.748,25.98,97217.3,1.1551
86582978,86562706,3997730,347.919,25.99,97215.3,1.15508
86793954,86776348,3997730,347.642,25.99,97218.5,1.15512
87015072,86992437,3997730,347.986,25.98,97214.5,1.15507
87175822,87153132,3997730,347.425,25.98,97221.0,1.15515
87386850,87366685,3997730,347.618,25.98,97218.8,1.15512
87598199,87580398,3997730,347.447,25.98,97220.7,1.15514
87779290,87748834,3997730,347.684,25.99,97218.0,1.15511
87990180,87969972,3997730,347.727,25.99,97217.5,1.1551
88201304,88183507,3997730,347.986,25.99,97214.5,1.15507
88362005,88344381,3997730,347.793,25.99,97216.8,1.1551
88583310,88560595,3997730,348.136,25.99,97212.7,1.15505
88794577,88774362,3997730,348.353,25.99,97210.3,1.15502
89005722,88987991,3997730,348.717,25.99,97206.0,1.15497
89166541,89148917,3997730,348.567,25.99,97207.7,1.15499
89387888,89365186,3997730,348.651,25.99,97206.8,1.15498
89599137,89578879,3997730,348.588,25.99,97207.5,1.15499
89760244,89739655,3997730,348.696,25.99,97206.3,1.15497
89990990,89968321,3997730,348.501,26.0,97208.5,1.155
90202167,90181922,3997730,348.91,25.99,97203.8,1.15494
90413525,90395742,3997730,349.04,25.99,97202.3,1.15492
90574388,90556664,3997730,349.212,25.99,97200.3,1.1549
90795519,90772889,3997730,349.449,25.99,97197.5,1.15487
91016619,90992456,3997730,349.251,25.99,97199.8,1.15489
91177546,91159839,3997730,348.651,25.99,97206.8,1.15498
91398865,91376166,3997730,348.805,26.0,97205.0,1.15496
91609883,91589748,3997730,348.805,25.99,97205.0,1.15496
91770784,91750556,3997730,349.019,25.99,97202.5,1.15493
91981801,91964122,3997730,348.651,26.0,97206.8,1.15498
92203019,92180357,3997730,349.148,26.0,97201.0,1.15491
92414156,92394014,3997730,348.395,26.0,97209.7,1.15501
92576495,92554969,3997730,348.287,26.0,97211.0,1.15503
92806471,92783828,3997730,348.115,26.0,97213.0,1.15505
92967392,92944619,3997730,348.178,26.0,97212.2,1.15504
93178702,93158390,3997730,348.287,26.0,97211.0,1.15503
93390109,93372165,3997730,348.2,26.0,97212.0,1.15504
93610880,93588225,3997730,348.094,26.0,97213.3,1.15505
93771876,93749107,3997730,347.919,26.0,97215.3,1.15508
93982837,93962686,3997730,348.353,26.0,97210.3,1.15502
94193988,94176143,3997730,348.115,26.0,97213.0,1.15505
94415154,94392435,3997730,347.748,26.0,97217.2,1.1551
94575993,94553365,3997730,347.576,26.0,97219.3,1.15513
94787102,94766950,3997730,347.513,26.01,97220.0,1.15513
94998469,94980739,3997730,347.684,26.0,97218.0,1.15511
95159337,95141687,3997730,347.877,26.01,97215.8,1.15508
95380570,95357907,3997730,347.383,26.01,97221.5,1.15515
95591828,95571578,3997730,347.404,26.01,97221.3,1.15515
95802941,95785188,3997730,347.491,26.01,97220.2,1.15514
95963651,95946017,3997730,347.447,26.01,97220.7,1.15514
96184867,96162229,3997730,347.362,26.01,97221.8,1.15516
96396016,96375810,3997730,347.618,26.01,97218.7,1.15512
96607086,96589462,3997730,348.028,26.01,97214.0,1.15506
96788108,96765448,3997730,347.964,26.01,97214.8,1.15507
96999129,96978978,3997730,348.287,26.01,97211.0,1.15503
97210237,97192543,3997730,348.437,26.01,97209.2,1.15501
97371127,97353445,3997730,348.633,26.01,97207.0,1.15498
97592270,97569552,3997730,348.371,26.01,97210.0,1.15502
97803450,97783230,3997730,348.353,26.01,97210.3,1.15502
98014626,97997005,3997730,348.823,26.01,97204.8,1.15495
98175456,98157816,3997730,348.781,26.01,97205.3,1.15496
98396614,98373913,3997730,348.459,26.01,97209.0,1.155
98607781,98587602,3997730,348.651,26.01,97206.8,1.15498
98778744,98754487,3997730,349.114,26.01,97201.4,1.15491
99000018,98977368,3997730,349.019,26.01,97202.5,1.15493
99211071,99190878,3997730,349.019,26.01,97202.5,1.15493
99371763,99351643,3997730,349.492,26.01,97197.0,1.15486
99602981,99572779,3997730,349.545,26.01,97196.4,1.15485
99814254,99794087,3997730,349.233,26.02,97200.0,1.1549
99975106,99954969,3997730,349.064,26.01,97202.0,1.15492
100186110,100168473,3997730,349.645,26.01,97195.2,1.15484
100407218,100384569,3997730,349.278,26.02,97199.5,1.15489
100568149,100545380,3997730,349.449,26.01,97197.5,1.15487
100779209,100759086,3997730,349.341,26.01,97198.8,1.15488
100990254,100972602,3997730,349.32,26.01,97199.0,1.15488
101211406,101188745,3997730,349.19,26.01,97200.5,1.1549
101372246,101349497,3997730,349.299,26.02,97199.3,1.15489
101583409,101563205,3997730,349.405,26.01,97198.0,1.15487
101794521,101776764,3997730,349.082,26.02,97201.8,1.15492
102015692,101993022,3997730,349.257,26.02,97199.8,1.15489
102176521,102153879,3997730,349.148,26.02,97201.0,1.15491
102387831,102367573,3997730,349.32,26.02,97199.0,1.15488
102598835,102581126,3997730,349.428,26.01,97197.8,1.15487
102759549,102741888,3997730,349.082,26.01,97201.8,1.15492
102980727,102958098,3997730,349.061,26.01,97202.0,1.15492
103191745,103171632,3997730,349.233,26.02,97200.0,1.1549
103403054,103385329,3997730,349.534,26.02,97196.5,1.15486
103564210,103546445,3997730,349.212,26.01,97200.3,1.1549
103785238,103762615,3997730,348.976,26.01,97203.0,1.15493
103996472,103976292,3997730,348.998,26.02,97202.8,1.15493
104207775,104189993,3997730,348.353,26.02,97210.3,1.15502
104368590,104350824,3997730,348.588,26.02,97207.5,1.15499
104589519,104566877,3997730,348.675,26.02,97206.5,1.15497
104800515,104780336,3997730,348.308,26.02,97210.8,1.15502
105011689,104994061,3997730,348.525,26.02,97208.3,1.15499
105172539,105154884,3997730,348.245,26.02,97211.5,1.15503
105393576,105370913,3997730,348.353,26.02,97210.3,1.15502
105604824,105584566,3997730,348.567,26.02,97207.8,1.15499
105765683,105745510,3997730,348.889,26.02,97204.0,1.15494
105976667,105959057,3997730,348.525,26.02,97208.3,1.15499
106198013,106175218,3997730,348.395,26.02,97209.7,1.15501
106409053,106388844,3997730,348.976,26.02,97203.0,1.15493
106569996,106549787,3997730,348.976,26.02,97203.0,1.15493
106781104,106763464,3997730,349.233,26.02,97200.0,1.1549
107002164,106979540,3997730,349.212,26.02,97200.3,1.1549
107213458,107193195,3997730,349.278,26.02,97199.5,1.15489
107375283,107354216,3997730,349.257,26.02,97199.8,1.15489
107605811,107583074,3997730,349.471,26.02,97197.3,1.15486
107816933,107796674,3997730,349.534,26.02,97196.5,1.15486
107977714,107957513,3997730,349.449,26.02,97197.5,1.15487
108188825,108171190,3997730,349.685,26.02,97194.8,1.15483
108410079,108387441,3997730,349.212,26.03,97200.3,1.1549
108572014,108548240,3997730,349.6,26.02,97195.7,1.15485
108792089,108774461,3997730,349.579,26.02,97196.0,1.15485
109013207,108990518,3997730,349.534,26.02,97196.5,1.15486
109174025,109151352,3997730,349.169,26.02,97200.8,1.15491
109385284,109364919,3997730,349.19,26.02,97200.5,1.1549
109596371,109578731,3997730,349.169,26.02,97200.8,1.15491
109757483,109739709,3997730,349.428,26.02,97197.8,1.15487
109978590,109955887,3997730,349.19,26.02,97200.5,1.1549
110189699,110169435,3997730,349.233,26.02,97200.0,1.1549
110400657,110382905,3997730,349.103,26.02,97201.5,1.15491
110561475,110543808,3997730,349.019,26.02,97202.5,1.15493
110782782,110759985,3997730,348.781,26.02,97205.3,1.15496
110993891,110973584,3997730,348.651,26.02,97206.8,1.15498
111204948,111187324,3997730,348.353,26.02,97210.3,1.15502
111365687,111348019,3997730,348.178,26.02,97212.2,1.15504
111586787,111564167,3997730,348.48,26.02,97208.8,1.155
111797864,111777754,3997730,347.919,26.02,97215.3,1.15508
112008856,111991247,3997730,348.395,26.02,97209.8,1.15501
112169780,112152134,3997730,348.546,26.02,97208.0,1.15499
112390984,112368225,3997730,348.221,26.02,97211.8,1.15504
112601979,112581760,3997730,348.675,26.02,97206.5,1.15497
112812980,112795319,3997730,348.675,26.02,97206.5,1.15497
112973834,112956205,3997730,348.91,26.02,97203.8,1.15494
113195246,113172408,3997730,348.696,26.02,97206.3,1.15497
113406178,113386039,3997730,348.847,26.02,97204.5,1.15495
113567781,113546869,3997730,348.868,26.02,97204.3,1.15495
113798372,113775731,3997730,349.04,26.02,97202.3,1.15492
114009587,113989409,3997730,349.169,26.02,97200.8,1.15491
114170365,114150233,3997730,349.299,26.02,97199.3,1.15489
114401601,114371379,3997730,349.301,26.02,97199.2,1.15489
114612788,114592637,3997730,349.299,26.02,97199.3,1.15489
114773630,114753494,3997730,349.257,26.02,97199.8,1.15489
114984747,114967127,3997730,349.148,26.02,97201.0,1.15491
115205978,115183256,3997730,349.04,26.02,97202.3,1.15492
115366758,115344083,3997730,349.233,26.02,97200.0,1.1549
115578404,115557869,3997730,349.299,26.03,97199.3,1.15489
115809333,115786619,3997730,349.04,26.03,97202.3,1.15492
115970240,115947583,3997730,349.257,26.03,97199.8,1.15489
116181526,116161407,3997730,349.212,26.03,97200.3,1.1549
116392682,116375029,3997730,349.257,26.02,97199.8,1.15489
116613684,116591067,3997730,348.91,26.02,97203.8,1.15494
116774656,116751977,3997730,348.416,26.03,97209.5,1.15501
116985726,116965565,3997730,348.395,26.03,97209.8,1.15501
117197050,117179091,3997730,348.028,26.03,97214.0,1.15506
117357910,117340190,3997730,348.052,26.02,97213.7,1.15506
117579378,117556302,3997730,348.223,26.03,97211.7,1.15504
117800361,117782680,3997730,348.245,26.03,97211.5,1.15503
117961990,117943575,3997730,347.986,26.03,97214.5,1.15507
118182622,118159974,3997730,348.091,26.03,97213.3,1.15505
118393660,118373532,3997730,347.986,26.03,97214.5,1.15507
118604828,118587182,3997730,348.416,26.03,97209.5,1.15501
118765674,118747956,3997730,348.287,26.03,97211.0,1.15503
118987016,118964296,3997730,348.567,26.03,97207.8,1.15499
119198521,119177998,3997730,348.609,26.03,97207.3,1.15498
119369113,119351430,3997730,348.651,26.03,97206.8,1.15498
119590620,119567492,3997730,348.868,26.03,97204.3,1.15495
119811477,119793810,3997730,348.868,26.03,97204.3,1.15495
119972395,119954675,3997730,349.148,26.03,97201.0,1.15491
120193470,120170769,3997730,349.299,26.03,97199.3,1.15489
120404590,120384286,3997730,349.278,26.03,97199.5,1.15489
120615723,120597905,3997730,349.19,26.03,97200.5,1.1549
120776574,120758947,3997730,349.405,26.02,97198.0,1.15487
120997930,120975172,3997730,349.579,26.02,97196.0,1.15485
121209095,121188822,3997730,349.492,26.03,97197.0,1.15486
121369820,121349691,3997730,349.814,26.03,97193.3,1.15482
121580892,121563276,3997730,349.663,26.02,97195.0,1.15484
121802065,121779448,3997730,349.859,26.03,97192.7,1.15481
122013204,121993036,3997730,349.817,26.03,97193.2,1.15482
122174094,122153973,3997730,349.621,26.03,97195.5,1.15484
122385236,122367513,3997730,349.838,26.03,97193.0,1.15481
122606305,122583642,3997730,349.729,26.03,97194.3,1.15483
122817593,122797475,3997730,349.986,26.03,97191.3,1.15479
122988519,122964380,3997730,350.01,26.03,97191.0,1.15479
123209721,123186998,3997730,349.901,26.03,97192.2,1.1548
123370532,123347771,3997730,349.621,26.03,97195.5,1.15484
123581576,123561362,3997730,349.299,26.03,97199.3,1.15489
123812777,123790111,3997730,349.341,26.03,97198.8,1.15488
123973481,123950858,3997730,349.6,26.03,97195.7,1.15485
124184890,124164583,3997730,349.729,26.03,97194.2,1.15483
124395819,124378126,3997730,349.534,26.03,97196.5,1.15486
124617089,124594376,3997730,349.449,26.03,97197.5,1.15487
124777944,124755288,3997730,349.621,26.03,97195.5,1.15484
124989309,124969074,3997730,349.579,26.03,97196.0,1.15485
125200316,125182644,3997730,349.838,26.03,97193.0,1.15481
125361292,125343535,3997730,349.645,26.03,97195.2,1.15484
125582264,125559596,3997730,349.772,26.03,97193.7,1.15482
125793313,125773160,3997730,349.772,26.03,97193.7,1.15482
126004337,125986694,3997730,349.148,26.03,97201.0,1.15491
126165281,126147539,3997730,349.6,26.03,97195.7,1.15485
126386389,126363611,3997730,349.106,26.03,97201.5,1.15491
126597389,126577205,3997730,348.868,26.03,97204.3,1.15495
126808448,126790802,3997730,348.781,26.03,97205.3,1.15496
126969245,126951581,3997730,348.675,26.03,97206.5,1.15497
127190597,127167869,3997730,348.178,26.03,97212.2,1.15504
127401776,127381542,3997730,348.588,26.03,97207.5,1.15499
127612949,127595299,3997730,348.588,26.03,97207.5,1.15499
127773680,127756074,3997730,348.91,26.02,97203.8,1.15494
128004956,127984784,3997730,348.696,26.03,97206.3,1.15497
128165675,128145563,3997730,348.459,26.03,97209.0,1.155
128377052,128359297,3997730,348.287,26.03,97211.0,1.15503
128598291,128575523,3997730,348.609,26.03,97207.3,1.15498
128809171,128789048,3997730,348.633,26.03,97207.0,1.15498
128970112,128949923,3997730,348.823,26.03,97204.8,1.15495
129181134,129163516,3997730,348.739,26.04,97205.8,1.15497
129402415,129379780,3997730,348.717,26.03,97206.0,1.15497
129573380,129553086,3997730,348.781,26.03,97205.3,1.15496
129784559,129766949,3997730,348.263,26.03,97211.3,1.15503
130005643,129983013,3997730,348.329,26.04,97210.5,1.15502
130216927,130196751,3997730,347.964,26.03,97214.8,1.15507
130377806,130357606,3997730,348.245,26.03,97211.5,1.15503
130588823,130571171,3997730,348.459,26.03,97209.0,1.155
130810108,130787487,3997730,348.263,26.03,97211.3,1.15503
130971071,130948339,3997730,348.395,26.03,97209.8,1.15501
131182185,131162026,3997730,348.094,26.03,97213.2,1.15505
131393253,131375578,3997730,347.856,26.03,97216.0,1.15509
131614409,131591720,3997730,348.028,26.03,97214.0,1.15506
131775353,131752623,3997730,348.266,26.03,97211.2,1.15503
131986590,131966281,3997730,348.2,26.04,97212.0,1.15504
132197897,132180187,3997730,347.793,26.04,97216.8,1.1551
132358767,132340993,3997730,347.772,26.04,97217.0,1.1551
132579771,132557108,3997730,348.094,26.04,97213.2,1.15505
132791047,132770786,3997730,347.642,26.04,97218.5,1.15512
133001916,132984283,3997730,348.308,26.04,97210.8,1.15502
133182865,133152671,3997730,347.753,26.04,97217.2,1.1551
133394015,133373794,3997730,348.245,26.04,97211.5,1.15503
133605325,133587593,3997730,348.221,26.04,97211.8,1.15504
133766110,133748482,3997730,348.371,26.04,97210.0,1.15502
133987372,133964697,3997730,348.675,26.04,97206.5,1.15497
134198419,134178280,3997730,348.953,26.04,97203.3,1.15494
134359810,134339085,3997730,348.717,26.04,97206.0,1.15497
134590455,134567837,3997730,349.127,26.04,97201.3,1.15491
134801572,134781387,3997730,348.823,26.04,97204.8,1.15495
135012507,134994892,3997730,348.868,26.04,97204.3,1.15495
135173336,135155605,3997730,349.341,26.04,97198.8,1.15488
135404563,135384378,3997730,348.998,26.04,97202.8,1.15493
135615580,135597946,3997730,349.492,26.04,97197.0,1.15486
135776435,135758721,3997730,349.299,26.04,97199.3,1.15489
135997764,135975022,3997730,348.823,26.04,97204.8,1.15495
136208916,136188657,3997730,349.082,26.04,97201.8,1.15492
136369673,136349532,3997730,349.233,26.04,97200.0,1.1549
136580812,136563115,3997730,348.588,26.04,97207.5,1.15499
136801842,136779209,3997730,348.889,26.04,97204.0,1.15494
136972718,136952599,3997730,348.567,26.04,97207.7,1.15499
137183969,137166318,3997730,348.63,26.04,97207.0,1.15498
137405179,137382518,3997730,348.651,26.04,97206.8,1.15498
137616590,137596197,3997730,348.287,26.04,97211.0,1.15503
137777520,137757343,3997730,348.115,26.04,97213.0,1.15505
137988714,137971082,3997730,348.2,26.05,97212.0,1.15504
138169652,138147021,3997730,348.263,26.05,97211.3,1.15503
138380759,138360601,3997730,348.073,26.04,97213.5,1.15506
138591835,138574186,3997730,348.395,26.04,97209.7,1.15501
138813146,138790508,3997730,348.437,26.05,97209.3,1.15501
138974092,138951473,3997730,348.459,26.04,97209.0,1.155
139185233,139165105,3997730,348.651,26.05,97206.8,1.15498
139396311,139378646,3997730,348.868,26.05,97204.3,1.15495
139617306,139594639,3997730,348.567,26.05,97207.8,1.15499
139778265,139755423,3997730,348.501,26.05,97208.5,1.155
139989418,139969244,3997730,348.805,26.04,97205.0,1.15496
140200460,140182815,3997730,348.459,26.04,97209.0,1.155
140361225,140343593,3997730,348.588,26.04,97207.5,1.15499
140582336,140559654,3997730,348.525,26.04,97208.3,1.15499
140793424,140773258,3997730,348.781,26.04,97205.3,1.15496
141004641,140986933,3997730,348.525,26.05,97208.2,1.15499
141165348,141147719,3997730,348.353,26.05,97210.3,1.15502
141386313,141363629,3997730,348.353,26.04,97210.2,1.15502
141597408,141577288,3997730,348.353,26.05,97210.2,1.15502
141808723,141790999,3997730,348.329,26.04,97210.5,1.15502
141969453,141951838,3997730,348.353,26.04,97210.2,1.15502
142190899,142168060,3997730,348.028,26.05,97214.0,1.15506
142411851,142394245,3997730,348.245,26.05,97211.5,1.15503
142572693,142554997,3997730,347.835,26.05,97216.3,1.15509
142793878,142771188,3997730,347.425,26.04,97221.0,1.15515
143005189,142984979,3997730,347.555,26.04,97219.5,1.15513
143216405,143198734,3997730,347.727,26.05,97217.5,1.1551
143377785,143359735,3997730,347.6,26.05,97219.0,1.15512
143598691,143576034,3997730,347.856,26.05,97216.0,1.15509
143809670,143789548,3997730,347.748,26.05,97217.3,1.1551
143970587,143950349,3997730,347.877,26.05,97215.8,1.15508
144181636,144163926,3997730,347.793,26.04,97216.8,1.1551
144412599,144392464,3997730,347.919,26.05,97215.3,1.15508
144573400,144553274,3997730,347.986,26.05,97214.5,1.15507
144784656,144766921,3997730,348.073,26.05,97213.5,1.15506
145005765,144983120,3997730,348.052,26.05,97213.7,1.15506
145217104,145196814,3997730,348.2,26.05,97212.0,1.15504
145377813,145357691,3997730,348.371,26.05,97210.0,1.15502
145608932,145586266,3997730,348.094,26.05,97213.2,1.15505
145769775,145747052,3997730,348.633,26.05,97207.0,1.15498
145980899,145960737,3997730,348.115,26.05,97213.0,1.15505
146192026,146174391,3997730,348.245,26.05,97211.5,1.15503
146413182,146390512,3997730,347.964,26.05,97214.8,1.15507
146574249,146551515,3997730,347.835,26.05,97216.2,1.15509
146785566,146765341,3997730,348.094,26.05,97213.2,1.15505
146996525,146978879,3997730,348.266,26.05,97211.2,1.15503
147157485,147139677,3997730,348.245,26.05,97211.5,1.15503
147378445,147355778,3997730,347.877,26.05,97215.8,1.15508
147589585,147569242,3997730,347.919,26.05,97215.3,1.15508
147800626,147782899,3997730,348.157,26.05,97212.5,1.15505
147961558,147943765,3997730,347.642,26.05,97218.5,1.15512
148182464,148159830,3997730,347.856,26.05,97216.0,1.15509
148403678,148379495,3997730,347.7,26.05,97217.8,1.15511
148564543,148546927,3997730,347.555,26.05,97219.5,1.15513
148785759,148763061,3997730,347.383,26.05,97221.5,1.15515
148996819,148976640,3997730,347.642,26.05,97218.5,1.15512
149208148,149190464,3997730,347.404,26.05,97221.3,1.15515
149369037,149351368,3997730,347.772,26.05,97217.0,1.1551
149590440,149567408,3997730,347.6,26.05,97219.0,1.15512
149811348,149793728,3997730,347.6,26.05,97219.0,1.15512
149972708,149954529,3997730,346.952,26.05,97226.5,1.15521
150193406,150170764,3997730,347.254,26.05,97223.0,1.15517
150404613,150384467,3997730,347.32,26.05,97222.3,1.15516
150565590,150545343,3997730,347.32,26.05,97222.3,1.15516
150776714,150758984,3997730,347.576,26.05,97219.2,1.15513
150997857,150975240,3997730,347.748,26.05,97217.2,1.1551
151209477,151188966,3997730,347.383,26.05,97221.5,1.15515
151370010,151349833,3997730,347.618,26.05,97218.7,1.15512
151581125,151563370,3997730,347.772,26.05,97217.0,1.1551
151802183,151779508,3997730,347.404,26.05,97221.3,1.15515
152013772,151993065,3997730,348.094,26.05,97213.2,1.15505
152184025,152166402,3997730,348.157,26.05,97212.5,1.15505
152405106,152382469,3997730,348.136,26.05,97212.8,1.15505
152616483,152596212,3997730,348.287,26.06,97211.0,1.15503
152777236,152757105,3997730,348.525,26.05,97208.2,1.15499
152988499,152970868,3997730,348.308,26.05,97210.7,1.15502
153209830,153187070,3997730,348.437,26.05,97209.3,1.15501
153370679,153347981,3997730,348.998,26.05,97202.8,1.15493
153581779,153561668,3997730,349.257,26.05,97199.8,1.15489
153812909,153782728,3997730,349.167,26.05,97200.8,1.15491
153973870,153951248,3997730,349.428,26.05,97197.8,1.15487
154185062,154164919,3997730,349.299,26.05,97199.3,1.15489
154396264,154378555,3997730,349.534,26.05,97196.5,1.15486
154577174,154554514,3997730,349.772,26.05,97193.7,1.15482
154788349,154768104,3997730,349.708,26.05,97194.5,1.15483
154949392,154928904,3997730,349.838,26.05,97193.0,1.15481
155180294,155157482,3997730,349.922,26.05,97192.0,1.1548
155401469,155377314,3997730,349.941,26.05,97191.8,1.1548
155562448,155544671,3997730,349.814,26.05,97193.3,1.15482
155783617,155760943,3997730,349.579,26.05,97196.0,1.15485
155994672,155974514,3997730,349.299,26.05,97199.3,1.15489
156205805,156188116,3997730,349.383,26.05,97198.3,1.15488
156366681,156349001,3997730,349.19,26.05,97200.5,1.1549
156588184,156565432,3997730,349.148,26.05,97201.0,1.15491
156799490,156779287,3997730,348.998,26.05,97202.8,1.15493
157010783,156993066,3997730,349.383,26.05,97198.3,1.15488
157171637,157153999,3997730,348.976,26.06,97203.0,1.15493
157402838,157382645,3997730,349.257,26.05,97199.8,1.15489
157613930,157596234,3997730,348.998,26.05,97202.8,1.15493
157774730,157756995,3997730,349.212,26.06,97200.2,1.1549
157995700,157973075,3997730,348.91,26.06,97203.8,1.15494
158206977,158186765,3997730,348.739,26.06,97205.8,1.15497
158367886,158347681,3997730,349.064,26.05,97202.0,1.15492
158579049,158561283,3997730,348.91,26.06,97203.8,1.15494
158800110,158777461,3997730,349.127,26.06,97201.3,1.15491
159011512,158991296,3997730,349.082,26.05,97201.8,1.15492
159172251,159152136,3997730,348.654,26.06,97206.7,1.15498
159383374,159365744,3997730,348.91,26.05,97203.8,1.15494
159604485,159581786,3997730,348.696,26.06,97206.3,1.15497
159765623,159742560,3997730,348.805,26.06,97205.0,1.15496
159986448,159968843,3997730,349.106,26.06,97201.5,1.15491
160207848,160185195,3997730,348.868,26.06,97204.3,1.15495
160368883,160346221,3997730,348.91,26.06,97203.8,1.15494
160580026,160559833,3997730,349.082,26.06,97201.8,1.15492
160791208,160773557,3997730,348.805,26.06,97205.0,1.15496
161012368,160989739,3997730,348.953,26.06,97203.3,1.15494
161173190,161150564,3997730,349.169,26.06,97200.7,1.15491
161384198,161363997,3997730,349.19,26.06,97200.5,1.1549
161595340,161577706,3997730,349.127,26.06,97201.3,1.15491
161756419,161738603,3997730,348.998,26.06,97202.8,1.15493
161977562,161954920,3997730,349.257,26.06,97199.8,1.15489
162188671,162168349,3997730,349.405,26.06,97198.0,1.15487
162399591,162381957,3997730,349.471,26.06,97197.3,1.15486
162560546,162542812,3997730,349.428,26.06,97197.8,1.15487
162781847,162759121,3997730,349.341,26.06,97198.8,1.15488
162993528,162972852,3997730,349.751,26.06,97194.0,1.15483
163204253,163186469,3997730,349.257,26.06,97199.8,1.15489
163365077,163347412,3997730,349.6,26.06,97195.7,1.15485
163586345,163563639,3997730,349.817,26.06,97193.2,1.15482
163797486,163777148,3997730,349.687,26.06,97194.7,1.15483
164008449,163990815,3997730,349.513,26.06,97196.8,1.15486
164169351,164151728,3997730,349.663,26.06,97195.0,1.15484
164400645,164380507,3997730,349.859,26.06,97192.7,1.15481
164611819,164594179,3997730,349.708,26.06,97194.5,1.15483
164772617,164755001,3997730,349.708,26.06,97194.5,1.15483
164993691,164971026,3997730,349.341,26.06,97198.8,1.15488
165204775,165184651,3997730,349.212,26.06,97200.3,1.1549
165415838,165398230,3997730,349.32,26.06,97199.0,1.15488
165576627,165558984,3997730,348.781,26.06,97205.3,1.15496
165797680,165775024,3997730,348.781,26.06,97205.3,1.15496
166008744,165988590,3997730,348.588,26.06,97207.5,1.15499
166169626,166149497,3997730,348.675,26.06,97206.5,1.15497
166400931,166370619,3997730,348.546,26.07,97208.0,1.15499
166612014,166591833,3997730,348.416,26.06,97209.5,1.15501
166772772,166752645,3997730,348.48,26.06,97208.8,1.155
166983762,166966144,3997730,348.805,26.06,97205.0,1.15496
167204926,167182248,3997730,348.651,26.06,97206.8,1.15498
167365740,167343065,3997730,348.588,26.06,97207.5,1.15499
167577136,167556576,3997730,348.739,26.06,97205.8,1.15497
167807964,167785343,3997730,348.823,26.06,97204.8,1.15495
167968690,167946060,3997730,349.19,26.06,97200.5,1.1549
168179919,168159761,3997730,349.085,26.06,97201.7,1.15492
168392694,168373358,3997730,348.953,26.06,97203.3,1.15494
168571899,168549238,3997730,348.76,26.06,97205.5,1.15496
168783033,168762819,3997730,348.868,26.06,97204.3,1.15495
168994338,168976575,3997730,348.76,26.06,97205.5,1.15496
169215467,169192615,3997730,348.371,26.06,97210.0,1.15502
169376184,169353523,3997730,348.437,26.06,97209.3,1.15501
169587188,169567058,3997730,348.567,26.06,97207.8,1.15499
169798459,169780813,3997730,348.416,26.06,97209.5,1.15501
169959254,169941608,3997730,348.437,26.06,97209.2,1.15501
170180435,170157682,3997730,348.416,26.06,97209.5,1.15501
170391351,170371208,3997730,348.157,26.06,97212.5,1.15505
170602465,170584830,3997730,347.943,26.06,97215.0,1.15508
170763382,170745656,3997730,348.094,26.06,97213.2,1.15505
170984694,170961896,3997730,348.353,26.07,97210.3,1.15502
171195663,171175472,3997730,348.2,26.07,97212.0,1.15504
171406818,171389186,3997730,348.136,26.07,97212.7,1.15505
171567583,171549981,3997730,348.221,26.07,97211.8,1.15504
171788645,171766026,3997730,348.287,26.07,97211.0,1.15503
171999716,171979588,3997730,348.329,26.07,97210.5,1.15502
172161694,172140364,3997730,348.287,26.07,97211.0,1.15503
172401746,172381601,3997730,348.395,26.07,97209.8,1.15501
172612789,172595183,3997730,348.459,26.07,97209.0,1.155
172773710,172756010,3997730,348.287,26.07,97211.0,1.15503
172995026,172972199,3997730,348.287,26.07,97211.0,1.15503
173206129,173185944,3997730,348.416,26.06,97209.5,1.15501
173368433,173346886,3997730,348.052,26.07,97213.7,1.15506
173608201,173588039,3997730,348.245,26.07,97211.5,1.15503
173769065,173748834,3997730,348.136,26.07,97212.7,1.15505
173980221,173962499,3997730,348.028,26.07,97214.0,1.15506
174201908,174178793,3997730,347.986,26.06,97214.5,1.15507
174372579,174352367,3997730,347.964,26.07,97214.8,1.15507
174583651,174565876,3997730,347.856,26.07,97216.0,1.15509
174804907,174782235,3997730,347.835,26.07,97216.3,1.15509
175015941,174995775,3997730,347.383,26.07,97221.5,1.15515
175176817,175156587,3997730,347.254,26.07,97223.0,1.15517
175387699,175370043,3997730,347.491,26.07,97220.2,1.15514
175568655,175545989,3997730,347.513,26.07,97220.0,1.15513
175779758,175759614,3997730,347.534,26.07,97219.7,1.15513
175990934,175973206,3997730,347.835,26.07,97216.3,1.15509
176212118,176189467,3997730,348.094,26.07,97213.2,1.15505
176372938,176350291,3997730,348.028,26.07,97214.0,1.15506
176584013,176563889,3997730,348.353,26.07,97210.2,1.15502
176795129,176777482,3997730,348.48,26.07,97208.8,1.155
176956082,176938412,3997730,348.651,26.07,97206.8,1.15498
177187233,177167066,3997730,348.717,26.07,97206.0,1.15497
177398406,177380781,3997730,348.651,26.08,97206.8,1.15498
177559155,177541532,3997730,348.76,26.07,97205.5,1.15496
177780410,177757737,3997730,348.501,26.07,97208.5,1.155
177991614,177971317,3997730,348.932,26.07,97203.5,1.15494
178202676,178184971,3997730,348.805,26.07,97205.0,1.15496
178363438,178345827,3997730,348.546,26.07,97208.0,1.15499
178584552,178561930,3997730,348.437,26.07,97209.3,1.15501
178805801,178781539,3997730,348.459,26.08,97209.0,1.155
178966693,178949057,3997730,348.609,26.07,97207.3,1.15498
179187761,179165123,3997730,348.178,26.07,97212.2,1.15504
179398910,179378714,3997730,348.459,26.07,97209.0,1.155
179610264,179592276,3997730,348.395,26.07,97209.7,1.15501
179770867,179753251,3997730,348.696,26.08,97206.3,1.15497
179991995,179969344,3997730,348.501,26.08,97208.5,1.155
180203174,180183041,3997730,348.868,26.07,97204.3,1.15495
180414231,180396588,3997730,348.717,26.07,97206.0,1.15497
180575183,180557486,3997730,348.633,26.08,97207.0,1.15498
180796403,180773689,3997730,348.546,26.07,97208.0,1.15499
181007583,180987425,3997730,348.459,26.07,97209.0,1.155
181168419,181148213,3997730,348.781,26.08,97205.3,1.15496
181379616,181361777,3997730,348.48,26.07,97208.8,1.155
181600547,181577839,3997730,348.178,26.08,97212.3,1.15504
181811674,181791476,3997730,348.717,26.07,97206.0,1.15497
181972402,181952274,3997730,348.416,26.08,97209.5,1.15501
182183544,182165842,3997730,348.76,26.07,97205.5,1.15496
182404965,182382141,3997730,348.651,26.08,97206.8,1.15498
182615945,182595675,3997730,348.717,26.08,97206.0,1.15497
182776680,182756530,3997730,348.525,26.08,97208.2,1.15499
182987809,182970174,3997730,348.567,26.08,97207.7,1.15499
183208941,183186272,3997730,348.739,26.08,97205.8,1.15497
183369841,183347100,3997730,348.91,26.08,97203.8,1.15494
183580966,183560792,3997730,348.739,26.08,97205.8,1.15497
183811953,183789292,3997730,348.739,26.07,97205.8,1.15497
183972673,183950055,3997730,348.651,26.08,97206.8,1.15498
184194458,184169801,3997730,348.855,26.08,97204.4,1.15495
184415181,184392508,3997730,348.823,26.08,97204.8,1.15495
184576012,184553306,3997730,348.76,26.08,97205.5,1.15496
184787064,184766936,3997730,348.998,26.08,97202.8,1.15493
185018776,184988146,3997730,349.027,26.08,97202.4,1.15493
185189158,185169033,3997730,349.233,26.08,97200.0,1.1549
185400331,185382647,3997730,349.32,26.07,97199.0,1.15488
185561219,185543494,3997730,349.061,26.08,97202.0,1.15492
185782639,185759576,3997730,349.169,26.08,97200.8,1.15491
186003405,185985739,3997730,348.696,26.07,97206.3,1.15497
186164450,186146656,3997730,348.567,26.08,97207.8,1.15499
186385588,186362814,3997730,348.609,26.08,97207.3,1.15498
186596653,186576402,3997730,348.805,26.08,97205.0,1.15496
186807572,186789940,3997730,348.805,26.08,97205.0,1.15496
186968392,186950721,3997730,348.63,26.08,97207.0,1.15498
187199796,187179535,3997730,348.567,26.08,97207.8,1.15499
187411625,187393141,3997730,348.76,26.08,97205.5,1.15496
187571704,187554045,3997730,348.287,26.08,97211.0,1.15503
187792819,187770178,3997730,348.525,26.08,97208.3,1.15499
188004150,187983885,3997730,348.889,26.08,97204.0,1.15494
188215361,188197571,3997730,348.805,26.08,97205.0,1.15496
188376017,188358353,3997730,348.525,26.08,97208.3,1.15499
188597314,188574602,3997730,348.805,26.08,97205.0,1.15496
188768098,188747937,3997730,348.588,26.08,97207.5,1.15499
188979204,188961586,3997730,348.91,26.08,97203.8,1.15494
189200305,189177627,3997730,349.04,26.08,97202.3,1.15492
189411425,189391261,3997730,349.085,26.08,97201.7,1.15492
189572448,189552198,3997730,348.91,26.08,97203.8,1.15494
189783712,189766065,3997730,349.169,26.08,97200.8,1.15491
190004774,189982127,3997730,349.103,26.08,97201.5,1.15491
190215856,190195722,3997730,349.061,26.08,97202.0,1.15492
190376592,190356430,3997730,349.257,26.08,97199.8,1.15489
190587659,190570045,3997730,349.019,26.08,97202.5,1.15493
190768617,190738468,3997730,349.064,26.08,97202.0,1.15492
190979682,190959562,3997730,349.148,26.08,97201.0,1.15491
191191694,191173306,3997730,349.127,26.08,97201.3,1.15491
191412307,191389583,3997730,349.32,26.08,97199.0,1.15488
191573765,191550436,3997730,349.299,26.08,97199.3,1.15489
191794455,191776670,3997730,348.998,26.08,97202.8,1.15493
192015678,191992961,3997730,348.889,26.08,97204.0,1.15494
192176420,192153780,3997730,348.976,26.08,97203.0,1.15493
192398222,192373378,3997730,349.217,26.08,97200.2,1.1549
192558366,192540734,3997730,349.383,26.08,97198.3,1.15488
192779902,192756711,3997730,349.257,26.08,97199.8,1.15489
193000659,192983006,3997730,349.449,26.08,97197.5,1.15487
193162512,193143860,3997730,349.534,26.08,97196.5,1.15486
193382771,193360052,3997730,348.76,26.09,97205.5,1.15496
193593718,193573601,3997730,348.868,26.08,97204.3,1.15495
193804839,193787199,3997730,348.633,26.08,97207.0,1.15498
193965554,193947928,3997730,348.525,26.08,97208.3,1.15499
194196739,194176512,3997730,348.482,26.08,97208.7,1.155
194407929,194390191,3997730,348.91,26.08,97203.8,1.15494
194568563,194550923,3997730,348.781,26.08,97205.3,1.15496
194789701,194767026,3997730,348.609,26.08,97207.3,1.15498
195000887,194980735,3997730,348.91,26.09,97203.8,1.15494
195211986,195194377,3997730,348.847,26.08,97204.5,1.15495
195372874,195355262,3997730,348.847,26.09,97204.5,1.15495
195594053,195571394,3997730,348.889,26.08,97204.0,1.15494
195805154,195785033,3997730,349.127,26.08,97201.3,1.15491
196016258,195998645,3997730,349.061,26.08,97202.0,1.15492
196177074,196159444,3997730,349.04,26.08,97202.3,1.15492
196398327,196375575,3997730,349.085,26.08,97201.7,1.15492
196609546,196589396,3997730,348.781,26.08,97205.3,1.15496
196770346,196750179,3997730,348.696,26.09,97206.3,1.15497
196981501,196963801,3997730,348.76,26.08,97205.5,1.15496
197202659,197179945,3997730,349.127,26.08,97201.3,1.15491
197413998,197393856,3997730,348.717,26.08,97206.0,1.15497
197574734,197554604,3997730,348.805,26.08,97205.0,1.15496
197805928,197775696,3997730,348.493,26.09,97208.6,1.155
197966781,197944099,3997730,348.567,26.09,97207.8,1.15499
198187856,198163719,3997730,348.511,26.08,97208.4,1.155
198409235,198386525,3997730,348.266,26.09,97211.3,1.15503
198570248,198547481,3997730,348.287,26.09,97211.0,1.15503
198781203,198761032,3997730,348.266,26.08,97211.2,1.15503
199012606,198982272,3997730,347.959,26.09,97214.8,1.15507
199173454,199150749,3997730,347.772,26.09,97217.0,1.1551
199384671,199364477,3997730,348.073,26.08,97213.5,1.15506
199595708,199578102,3997730,347.943,26.09,97215.0,1.15508
199816958,199794272,3997730,348.073,26.09,97213.5,1.15506
199977687,199955068,3997730,347.856,26.09,97216.0,1.15509
200199048,200174845,3997730,348.355,26.09,97210.2,1.15502
200360020,200342319,3997730,348.416,26.09,97209.5,1.15501
200581438,200558352,3997730,348.329,26.09,97210.5,1.15502
200802054,200784442,3997730,348.588,26.09,97207.5,1.15499
200963243,200945450,3997730,348.717,26.09,97206.0,1.15497
201184248,201161522,3997730,348.588,26.09,97207.5,1.15499
201395389,201375243,3997730,348.588,26.09,97207.5,1.15499
201606448,201588798,3997730,348.868,26.09,97204.3,1.15495
201767445,201749789,3997730,348.501,26.09,97208.5,1.155
201988573,201965886,3997730,348.567,26.08,97207.8,1.15499
202200078,202179571,3997730,348.395,26.09,97209.7,1.15501
202370733,202353018,3997730,348.868,26.09,97204.3,1.15495
202591897,202569170,3997730,348.696,26.09,97206.3,1.15497
202802984,202782812,3997730,348.546,26.09,97208.0,1.15499
203014252,202996551,3997730,348.459,26.09,97209.0,1.155
203175023,203157392,3997730,348.588,26.09,97207.5,1.15499
203396358,203373596,3997730,348.416,26.09,97209.5,1.15501
203607680,203587458,3997730,348.437,26.09,97209.3,1.15501
203768359,203748206,3997730,348.308,26.09,97210.8,1.15502
203979650,203961895,3997730,348.115,26.09,97213.0,1.15505
204200779,204177997,3997730,348.567,26.09,97207.8,1.15499
204411761,204391536,3997730,348.525,26.08,97208.2,1.15499
204572511,204552379,3997730,348.416,26.09,97209.5,1.15501
204783706,204766065,3997730,348.567,26.09,97207.8,1.15499
205005258,204982463,3997730,348.223,26.09,97211.7,1.15504
205166012,205143369,3997730,348.094,26.09,97213.3,1.15505
205377057,205356926,3997730,348.223,26.09,97211.8,1.15504
205588137,205570501,3997730,348.245,26.09,97211.5,1.15503
205809391,205786705,3997730,347.898,26.09,97215.5,1.15508
205980304,205960103,3997730,347.964,26.09,97214.8,1.15507
206191440,206173781,3997730,347.919,26.09,97215.3,1.15508
206412766,206390105,3997730,348.136,26.09,97212.8,1.15505
206573748,206550952,3997730,347.727,26.1,97217.5,1.1551
206784883,206764715,3997730,347.425,26.1,97221.0,1.15515
206995991,206978375,3997730,347.727,26.09,97217.5,1.1551
207217069,207194429,3997730,347.943,26.09,97215.0,1.15508
207378079,207355294,3997730,347.877,26.09,97215.8,1.15508
207589304,207569127,3997730,347.877,26.09,97215.8,1.15508
207800378,207782751,3997730,348.223,26.09,97211.7,1.15504
207961242,207943546,3997730,348.263,26.09,97211.3,1.15503
208182354,208159624,3997730,348.371,26.09,97210.0,1.15502
208393410,208373175,3997730,348.437,26.09,97209.3,1.15501
208604563,208586819,3997730,348.459,26.09,97209.0,1.155
208765374,208747732,3997730,348.223,26.09,97211.7,1.15504
208986430,208963812,3997730,347.986,26.09,97214.5,1.15507
209197800,209177478,3997730,347.898,26.1,97215.5,1.15508
209408835,209391090,3997730,348.263,26.1,97211.3,1.15503
209570016,209551981,3997730,347.618,26.1,97218.7,1.15512
209790778,209768156,3997730,347.943,26.09,97215.0,1.15508
210011857,209987688,3997730,347.494,26.09,97220.2,1.15514
210172806,210155199,3997730,347.793,26.09,97216.8,1.1551
210394104,210371426,3997730,347.6,26.09,97219.0,1.15512
210605152,210585007,3997730,347.684,26.09,97218.0,1.15511
210766109,210745874,3997730,347.663,26.1,97218.3,1.15511
210977315,210959656,3997730,347.898,26.1,97215.5,1.15508
211198826,211175886,3997730,348.052,26.1,97213.7,1.15506
211409597,211389447,3997730,348.007,26.09,97214.2,1.15507
211571388,211550373,3997730,348.052,26.1,97213.7,1.15506
211801732,211779108,3997730,348.308,26.1,97210.8,1.15502
212013047,211992604,3997730,348.245,26.1,97211.5,1.15503
212173897,212153563,3997730,348.2,26.1,97212.0,1.15504
212385040,212367364,3997730,348.609,26.09,97207.3,1.15498
212606044,212583423,3997730,348.696,26.1,97206.3,1.15497
212817437,212796893,3997730,348.76,26.1,97205.5,1.15496
212988079,212970371,3997730,348.868,26.1,97204.3,1.15495
213209268,213186433,3997730,349.019,26.1,97202.5,1.15493
213370086,213347397,3997730,348.91,26.1,97203.8,1.15494
213581187,213561029,3997730,348.847,26.1,97204.5,1.15495
213792290,213774651,3997730,348.953,26.09,97203.3,1.15494
214013562,213990806,3997730,348.868,26.1,97204.3,1.15495
214174467,214151728,3997730,348.546,26.1,97208.0,1.15499
214385440,214365299,3997730,348.781,26.1,97205.3,1.15496
214596550,214578931,3997730,348.052,26.1,97213.7,1.15506
214757570,214739925,3997730,348.395,26.1,97209.8,1.15501
214988724,214968577,3997730,348.094,26.09,97213.2,1.15505
215199891,215182279,3997730,347.898,26.1,97215.5,1.15508
215360746,215343034,3997730,348.245,26.1,97211.5,1.15503
215582004,215559339,3997730,347.6,26.1,97219.0,1.15512
215793104,215772927,3997730,347.425,26.1,97221.0,1.15515
216004121,215986469,3997730,347.943,26.1,97215.0,1.15508
216164999,216147247,3997730,347.835,26.1,97216.3,1.15509
216386164,216363451,3997730,347.943,26.1,97215.0,1.15508
216597348,216577171,3997730,347.877,26.1,97215.8,1.15508
216808538,216790826,3997730,348.052,26.1,97213.7,1.15506
216989518,216959271,3997730,348.097,26.1,97213.2,1.15505
217200645,217180410,3997730,348.094,26.1,97213.2,1.15505
217411735,217394062,3997730,348.308,26.1,97210.8,1.15502
217572589,217554888,3997730,348.633,26.1,97207.0,1.15498
217793893,217771172,3997730,348.805,26.1,97205.0,1.15496
218005033,217984877,3997730,348.998,26.1,97202.8,1.15493
218216093,218198463,3997730,349.212,26.1,97200.3,1.1549
218376959,218359316,3997730,349.169,26.1,97200.7,1.15491
218598106,218575476,3997730,349.103,26.1,97201.5,1.15491
218809460,218789125,3997730,348.953,26.1,97203.3,1.15494
218970451,218949897,3997730,349.064,26.1,97202.0,1.15492
219201347,219178656,3997730,349.019,26.11,97202.5,1.15493
219412405,219392264,3997730,349.04,26.1,97202.3,1.15492
219573376,219553182,3997730,348.868,26.1,97204.3,1.15495
219785029,219766727,3997730,348.998,26.1,97202.8,1.15493
220005450,219982811,3997730,348.717,26.1,97206.0,1.15497
220166307,220143614,3997730,348.395,26.1,97209.8,1.15501
220377743,220357521,3997730,348.416,26.1,97209.5,1.15501
220589353,220571179,3997730,348.245,26.1,97211.5,1.15503
220809967,220787320,3997730,348.245,26.1,97211.5,1.15503
220971032,220948165,3997730,348.482,26.1,97208.7,1.155
221182090,221161899,3997730,348.308,26.1,97210.8,1.15502
221393300,221375566,3997730,348.115,26.1,97213.0,1.15505
221614407,221591680,3997730,347.814,26.1,97216.5,1.15509
221775168,221752522,3997730,347.943,26.1,97215.0,1.15508
221996665,221978990,3997730,347.919,26.1,97215.3,1.15508
222218199,222195104,3997730,347.748,26.1,97217.2,1.1551
222388717,222368484,3997730,347.772,26.11,97217.0,1.1551
222599833,222582097,3997730,347.555,26.1,97219.5,1.15513
222760856,222743130,3997730,347.663,26.1,97218.3,1.15511
222981924,222959269,3997730,347.986,26.11,97214.5,1.15507
223193217,223172978,3997730,347.618,26.11,97218.8,1.15512
223404415,223386553,3997730,347.362,26.11,97221.8,1.15516
223565113,223547478,3997730,347.877,26.1,97215.8,1.15508
223786208,223763502,3997730,347.814,26.11,97216.5,1.15509
223997338,223977161,3997730,347.919,26.1,97215.3,1.15508
224208519,224190848,3997730,347.919,26.11,97215.3,1.15508
224389661,224359372,3997730,348.303,26.1,97210.8,1.15503
224600584,224580473,3997730,348.805,26.11,97205.0,1.15496
224811691,224794058,3997730,348.889,26.11,97204.0,1.15494
224972816,224955108,3997730,349.085,26.11,97201.7,1.15492
225193881,225171162,3997730,349.127,26.1,97201.2,1.15491
225404898,225384783,3997730,349.148,26.11,97201.0,1.15491
225616021,225598390,3997730,349.061,26.1,97202.0,1.15492
225776804,225759118,3997730,349.645,26.11,97195.2,1.15484
225997979,225975291,3997730,349.148,26.11,97201.0,1.15491
226209305,226189078,3997730,349.513,26.1,97196.8,1.15486
226380202,226356056,3997730,349.338,26.11,97198.8,1.15488
226601257,226578561,3997730,349.687,26.11,97194.7,1.15483
226762518,226739442,3997730,349.471,26.11,97197.3,1.15486
226983249,226965644,3997730,349.428,26.11,97197.8,1.15487
227204436,227181642,3997730,349.687,26.11,97194.7,1.15483
227415615,227395345,3997730,349.405,26.11,97198.0,1.15487
227576370,227556183,3997730,350.01,26.11,97191.0,1.15479
227787399,227769781,3997730,349.534,26.11,97196.5,1.15486
