timestamp,roll_body,pitch_body,yaw_body,yaw_sp_move_rate,q_d[0],q_d[1],q_d[2],q_d[3],thrust_body[0],thrust_body[1],thrust_body[2],roll_reset_integral,pitch_reset_integral,yaw_reset_integral,fw_control_yaw,apply_flaps
21412699,0.0153202,-0.0117753,-1.43356,0.0,0.753919,0.00190718,-0.00947093,-0.656896,0.0,0.0,-0.0,0,0,0,0,0
21417705,0.0153202,-0.0117753,-1.43342,0.0,0.753966,0.00190785,-0.00947079,-0.656843,0.0,0.0,-0.0,0,0,0,0,0
21516928,0.0153202,-0.0117753,-1.43418,0.0,0.753716,0.00190425,-0.00947151,-0.657129,0.0,0.0,-0.0,0,0,0,0,0
21611356,0.0153202,-0.0117753,-1.43446,0.0,0.753623,0.00190292,-0.00947178,-0.657236,0.0,0.0,-0.0,0,0,0,0,0
21715623,0.0153202,-0.0117753,-1.43416,0.0,0.753721,0.00190433,-0.0094715,-0.657123,0.0,0.0,-0.0,0,0,0,0,0
21814972,0.0153202,-0.0117753,-1.43391,0.0,0.753804,0.00190552,-0.00947126,-0.657028,0.0,0.0,-0.0,0,0,0,0,0
21914295,0.0153202,-0.0117753,-1.43261,0.0,0.75423,0.00191167,-0.00947002,-0.656539,0.0,0.0,-0.0,0,0,0,0,0
22018586,0.0153202,-0.0117753,-1.4315,0.0,0.754596,0.00191694,-0.00946895,-0.656119,0.0,0.0,-0.0,0,0,0,0,0
22113036,0.0153202,-0.0117753,-1.43033,0.0,0.754978,0.00192246,-0.00946784,-0.655679,0.0,0.0,-0.0,0,0,0,0,0
22217317,0.0153202,-0.0117753,-1.42938,0.0,0.755292,0.00192699,-0.00946691,-0.655318,0.0,0.0,-0.0,0,0,0,0,0
22311534,0.0153202,-0.0117753,-1.42841,0.0,0.755607,0.00193155,-0.00946599,-0.654954,0.0,0.0,-0.0,0,0,0,0,0
22415893,0.0153202,-0.0117753,-1.42727,0.0,0.755982,0.00193697,-0.00946488,-0.654521,0.0,0.0,-0.0,0,0,0,0,0
22515064,0.0153202,-0.0117753,-1.42643,0.0,0.756256,0.00194093,-0.00946407,-0.654205,0.0,0.0,-0.0,0,0,0,0,0
22614435,0.0153202,-0.0117753,-1.42541,0.0,0.756589,0.00194575,-0.00946308,-0.653819,0.0,0.0,-0.0,0,0,0,0,0
22713825,0.0153202,-0.0117753,-1.42356,0.0,0.757195,0.00195453,-0.00946127,-0.653117,0.0,0.0,-0.0,0,0,0,0,0
22813095,0.0153202,-0.0117753,-1.4227,0.0,0.757475,0.00195858,-0.00946043,-0.652793,0.0,0.0,-0.0,0,0,0,0,0
22917531,0.0134052,-0.0117754,-1.42232,0.0,0.757601,0.00123494,-0.00883517,-0.652657,0.0,0.0,-0.00499388,0,0,0,0,0
23011685,0.0172355,-0.013247,-1.42075,0.0,0.75811,0.00221391,-0.0106408,-0.652036,0.0,0.0,-0.00624235,0,0,0,0,0
23115991,0.0153202,-0.0117753,-1.41987,0.0,0.758398,0.00197197,-0.00945765,-0.65172,0.0,0.0,-0.00624235,0,0,0,0,0
23215433,0.0153202,-0.0117753,-1.41916,0.0,0.758628,0.00197531,-0.00945695,-0.651452,0.0,0.0,-0.0511873,0,0,0,0,0
23314584,0.0153204,-0.0132472,-1.41858,0.0,0.758819,0.00149882,-0.0100148,-0.651223,0.0,0.0,-0.173684,0,0,0,0,0
23414002,0.0153202,-0.0117753,-1.41857,0.0,0.758822,0.00197813,-0.00945636,-0.651226,0.0,0.0,-0.211579,0,0,0,0,0
23513270,0.0153202,-0.0117753,-1.41857,0.0,0.758822,0.00197813,-0.00945636,-0.651226,0.0,0.0,-0.224211,0,0,0,0,0
23617637,0.0153202,-0.0117753,-1.41857,0.0,0.758822,0.00197813,-0.00945636,-0.651226,0.0,0.0,-0.234737,0,0,0,0,0
23711983,0.0248953,-0.0117745,-1.41862,0.0,0.758786,0.00561089,-0.0125739,-0.651195,0.0,0.0,-0.231579,0,0,0,0,0
23816304,0.0268104,-0.0117743,-1.41864,0.0,0.758776,0.00633743,-0.0131974,-0.651187,0.0,0.0,-0.230526,0,0,0,0,0
23915466,0.0172352,-0.0117751,-1.41858,0.0,0.758816,0.00270469,-0.0100799,-0.651221,0.0,0.0,-0.230526,0,0,0,0,0
24014858,0.0229795,-0.00588734,-1.41855,0.0,0.758804,0.00680158,-0.00971649,-0.651211,0.0,0.0,-0.230526,0,0,0,0,0
24114241,0.0402137,-0.0,-1.41848,0.0,0.758704,0.0152572,-0.0130938,-0.651125,0.0,0.0,-0.230526,0,0,0,0,0
24213473,0.0536183,-0.0,-1.41848,0.0,0.758585,0.0203419,-0.0174575,-0.651022,0.0,0.0,-0.230526,0,0,0,0,0
24317856,0.0268092,-0.00147179,-1.4185,0.0,0.758789,0.00969256,-0.00928804,-0.651198,0.0,0.0,-0.230526,0,0,0,0,0
24412052,0.0172344,-0.0,-1.41848,0.0,0.75883,0.00653916,-0.00561195,-0.651232,0.0,0.0,-0.230526,0,0,0,0,0
24516552,0.0153202,-0.0117753,-1.41857,0.0,0.758822,0.00197813,-0.00945636,-0.651226,0.0,0.0,-0.229474,0,0,0,0,0
24615834,0.0153204,-0.0132472,-1.41858,0.0,0.758819,0.00149882,-0.0100148,-0.651223,0.0,0.0,-0.229474,0,0,0,0,0
24715092,0.0153204,-0.0132472,-1.41858,0.0,0.758819,0.00149882,-0.0100148,-0.651223,0.0,0.0,-0.229474,0,0,0,0,0
24814580,0.0153204,-0.0132472,-1.41858,0.0,0.758819,0.00149882,-0.0100148,-0.651223,0.0,0.0,-0.232632,0,0,0,0,0
24913698,0.0153204,-0.0132472,-1.41858,0.0,0.758819,0.00149882,-0.0100148,-0.651223,0.0,0.0,-0.250526,0,0,0,0,0
25018025,0.0153204,-0.0132472,-1.41858,0.0,0.758819,0.00149882,-0.0100148,-0.651223,0.0,0.0,-0.292632,0,0,0,0,0
25112322,0.0153204,-0.0132472,-1.41858,0.0,0.758819,0.00149882,-0.0100148,-0.651223,0.0,0.0,-0.304211,0,0,0,0,0
25216582,0.0153204,-0.0132472,-1.41858,0.0,0.758819,0.00149882,-0.0100148,-0.651223,0.0,0.0,-0.306316,0,0,0,0,0
25310910,0.0153204,-0.0132472,-1.41858,0.0,0.758819,0.00149882,-0.0100148,-0.651223,0.0,0.0,-0.304211,0,0,0,0,0
25415326,0.0153204,-0.0132472,-1.41858,0.0,0.758819,0.00149882,-0.0100148,-0.651223,0.0,0.0,-0.303158,0,0,0,0,0
25514566,0.0153204,-0.0132472,-1.41858,0.0,0.758819,0.00149882,-0.0100148,-0.651223,0.0,0.0,-0.303158,0,0,0,0,0
25614008,0.0153204,-0.0132472,-1.41858,0.0,0.758819,0.00149882,-0.0100148,-0.651223,0.0,0.0,-0.311579,0,0,0,0,0
25718315,0.0153204,-0.0132472,-1.41858,0.0,0.758819,0.00149882,-0.0100148,-0.651223,0.0,0.0,-0.333684,0,0,0,0,0
25812550,0.0153204,-0.0132472,-1.41858,0.0,0.758819,0.00149882,-0.0100148,-0.651223,0.0,0.0,-0.337895,0,0,0,0,0
25916884,0.0153204,-0.0132472,-1.41858,0.0,0.758819,0.00149882,-0.0100148,-0.651223,0.0,0.0,-0.348421,0,0,0,0,0
26011093,0.0153204,-0.0132472,-1.41858,0.0,0.758819,0.00149882,-0.0100148,-0.651223,0.0,0.0,-0.362105,0,0,0,0,0
26115462,0.0191505,-0.0132469,-1.4186,0.0,0.758806,0.00295194,-0.0112619,-0.651212,0.0,0.0,-0.377895,0,0,0,0,0
26214868,0.0172357,-0.0147189,-1.4186,0.0,0.758809,0.00174608,-0.0111968,-0.651215,0.0,0.0,-0.373684,0,0,0,0,0
26314019,0.0172355,-0.013247,-1.41859,0.0,0.758813,0.00222538,-0.0106384,-0.651218,0.0,0.0,-0.372632,0,0,0,0,0
26413477,0.0153204,-0.0132472,-1.41858,0.0,0.758819,0.00149882,-0.0100148,-0.651223,0.0,0.0,-0.371579,0,0,0,0,0
26512814,0.0153204,-0.0132472,-1.41858,0.0,0.758819,0.00149882,-0.0100148,-0.651223,0.0,0.0,-0.371579,0,0,0,0,0
26617094,0.0153204,-0.0132472,-1.41858,0.0,0.758819,0.00149882,-0.0100148,-0.651223,0.0,0.0,-0.371579,0,0,0,0,0
26711345,0.0153204,-0.0132472,-1.41858,0.0,0.758819,0.00149882,-0.0100148,-0.651223,0.0,0.0,-0.366316,0,0,0,0,0
26815625,0.0153204,-0.0132472,-1.41858,0.0,0.758819,0.00149882,-0.0100148,-0.651223,0.0,0.0,-0.414737,0,0,0,0,0
26915106,0.0153204,-0.0132472,-1.41858,0.0,0.758819,0.00149882,-0.0100148,-0.651223,0.0,0.0,-0.42,0,0,0,0,0
27014323,0.0153204,-0.0132472,-1.41858,0.0,0.758819,0.00149882,-0.0100148,-0.651223,0.0,0.0,-0.424211,0,0,0,0,0
27113634,0.0134054,-0.0132473,-1.41857,0.0,0.758824,0.00077225,-0.00939132,-0.651227,0.0,0.0,-0.435789,0,0,0,0,0
27212914,0.0153204,-0.0132472,-1.41858,0.0,0.758819,0.00149882,-0.0100148,-0.651223,0.0,0.0,-0.437895,0,0,0,0,0
27317316,0.0153204,-0.0132472,-1.41858,0.0,0.758819,0.00149882,-0.0100148,-0.651223,0.0,0.0,-0.451579,0,0,0,0,0
27411489,0.0153204,-0.0132472,-1.41858,0.0,0.758819,0.00149882,-0.0100148,-0.651223,0.0,0.0,-0.46,0,0,0,0,0
27515913,0.0153204,-0.0132472,-1.41858,0.0,0.758819,0.00149882,-0.0100148,-0.651223,0.0,0.0,-0.461053,0,0,0,0,0
27615176,0.0153204,-0.0132472,-1.41858,0.0,0.758819,0.00149882,-0.0100148,-0.651223,0.0,0.0,-0.462105,0,0,0,0,0
27714579,0.0153204,-0.0132472,-1.41858,0.0,0.758819,0.00149882,-0.0100148,-0.651223,0.0,0.0,-0.462105,0,0,0,0,0
27813934,0.0153204,-0.0132472,-1.41858,0.0,0.758819,0.00149882,-0.0100148,-0.651223,0.0,0.0,-0.464211,0,0,0,0,0
27913106,0.0153204,-0.0132472,-1.41858,0.0,0.758819,0.00149882,-0.0100148,-0.651223,0.0,0.0,-0.469474,0,0,0,0,0
28017478,0.0153204,-0.0132472,-1.41858,0.0,0.758819,0.00149882,-0.0100148,-0.651223,0.0,0.0,-0.472632,0,0,0,0,0
28111778,0.0153204,-0.0132472,-1.41858,0.0,0.758819,0.00149882,-0.0100148,-0.651223,0.0,0.0,-0.48,0,0,0,0,0
28216024,0.0153204,-0.0132472,-1.41858,0.0,0.758819,0.00149882,-0.0100148,-0.651223,0.0,0.0,-0.484211,0,0,0,0,0
28315540,0.0153204,-0.0132472,-1.41858,0.0,0.758819,0.00149882,-0.0100148,-0.651223,0.0,0.0,-0.487368,0,0,0,0,0
28414737,0.0153204,-0.0132472,-1.41858,0.0,0.758819,0.00149882,-0.0100148,-0.651223,0.0,0.0,-0.487368,0,0,0,0,0
28514053,0.0153204,-0.0132472,-1.41858,0.0,0.758819,0.00149882,-0.0100148,-0.651223,0.0,0.0,-0.487368,0,0,0,0,0
28613415,0.0153204,-0.0132472,-1.41858,0.0,0.758819,0.00149882,-0.0100148,-0.651223,0.0,0.0,-0.494737,0,0,0,0,0
28717550,0.0153204,-0.0132472,-1.41858,0.0,0.758819,0.00149882,-0.0100148,-0.651223,0.0,0.0,-0.495789,0,0,0,0,0
28811975,0.0153204,-0.0132472,-1.41858,0.0,0.758819,0.00149882,-0.0100148,-0.651223,0.0,0.0,-0.493684,0,0,0,0,0
28916325,0.0153204,-0.0132472,-1.41858,0.0,0.758819,0.00149882,-0.0100148,-0.651223,0.0,0.0,-0.491579,0,0,0,0,0
29015666,0.0153204,-0.0132472,-1.41858,0.0,0.758819,0.00149882,-0.0100148,-0.651223,0.0,0.0,-0.490526,0,0,0,0,0
29115054,0.0153204,-0.0132472,-1.41858,0.0,0.758819,0.00149882,-0.0100148,-0.651223,0.0,0.0,-0.501053,0,0,0,0,0
29214219,0.0153204,-0.0132472,-1.41858,0.0,0.758819,0.00149882,-0.0100148,-0.651223,0.0,0.0,-0.516597,0,0,0,0,0
29313562,0.0153204,-0.0132472,-1.41858,0.0,0.758819,0.00149882,-0.0100148,-0.651223,0.0,0.0,-0.517797,0,0,0,0,0
29412927,0.0153204,-0.0132472,-1.41858,0.0,0.758819,0.00149882,-0.0100148,-0.651223,0.0,0.0,-0.526193,0,0,0,0,0
29512137,0.0153204,-0.0132472,-1.41858,0.0,0.758819,0.00149882,-0.0100148,-0.651223,0.0,0.0,-0.5,0,0,0,0,0
29616401,0.0153204,-0.0132472,-1.41858,0.0,0.758819,0.00149882,-0.0100148,-0.651223,0.0,0.0,-0.5,0,0,0,0,0
29715855,0.0153204,-0.0132472,-1.41858,0.0,0.758819,0.00149882,-0.0100148,-0.651223,0.0,0.0,-0.5,0,0,0,0,0
29815073,0.0153204,-0.0132472,-1.41858,0.0,0.758819,0.00149882,-0.0100148,-0.651223,0.0,0.0,-0.5,0,0,0,0,0
29914547,0.0153204,-0.0132472,-1.41858,0.0,0.758819,0.00149882,-0.0100148,-0.651223,0.0,0.0,-0.5,0,0,0,0,0
30013699,0.0153204,-0.0132472,-1.41858,0.0,0.758819,0.00149882,-0.0100148,-0.651223,0.0,0.0,-0.527393,0,0,0,0,0
30112977,0.0153204,-0.0132472,-1.41858,0.0,0.758819,0.00149882,-0.0100148,-0.651223,0.0,0.0,-0.527393,0,0,0,0,0
30212488,0.0153204,-0.0132472,-1.41858,0.0,0.758819,0.00149882,-0.0100148,-0.651223,0.0,0.0,-0.527393,0,0,0,0,0
30316583,0.0153204,-0.0132472,-1.41858,0.0,0.758819,0.00149882,-0.0100148,-0.651223,0.0,0.0,-0.527393,0,0,0,0,0
30415937,0.0153204,-0.0132472,-1.41858,0.0,0.758819,0.00149882,-0.0100148,-0.651223,0.0,0.0,-0.503158,0,0,0,0,0
30515387,0.0153204,-0.0132472,-1.41858,0.0,0.758819,0.00149882,-0.0100148,-0.651223,0.0,0.0,-0.504211,0,0,0,0,0
30614690,0.0153204,-0.0132472,-1.41858,0.0,0.758819,0.00149882,-0.0100148,-0.651223,0.0,0.0,-0.504211,0,0,0,0,0
30714038,0.0153204,-0.0132472,-1.41858,0.0,0.758819,0.00149882,-0.0100148,-0.651223,0.0,0.0,-0.505263,0,0,0,0,0
30813207,0.0191505,-0.0132469,-1.4186,0.0,0.758806,0.00295194,-0.0112619,-0.651212,0.0,0.0,-0.505263,0,0,0,0,0
30912540,0.0191508,-0.0147187,-1.41862,0.0,0.758802,0.00247264,-0.0118204,-0.651209,0.0,0.0,-0.504211,0,0,0,0,0
31016885,0.0191505,-0.0132469,-1.4186,0.0,0.758806,0.00295194,-0.0112619,-0.651212,0.0,0.0,-0.504211,0,0,0,0,0
31116217,0.0153204,-0.0132472,-1.41858,0.0,0.758819,0.00149882,-0.0100148,-0.651223,0.0,0.0,-0.507368,0,0,0,0,0
31215475,0.0153204,-0.0132472,-1.41858,0.0,0.758819,0.00149882,-0.0100148,-0.651223,0.0,0.0,-0.507368,0,0,0,0,0
31314941,0.0172355,-0.013247,-1.41859,0.0,0.758813,0.00222538,-0.0106384,-0.651218,0.0,0.0,-0.508421,0,0,0,0,0
31414263,0.0249507,-0.0824215,-1.41951,0.0,0.758155,-0.0173906,-0.0393704,-0.650653,0.0,0.0,-0.507368,0,0,0,0,0
31513552,0.0637006,-0.154452,-1.42341,0.0,0.756215,-0.02632,-0.0791285,-0.648988,0.0,0.0,-0.506316,0,0,0,0,0
31612798,0.0715246,-0.167662,-1.42449,0.0,0.755713,-0.0277198,-0.0866214,-0.648557,0.0,0.0,-0.505263,0,0,0,0,0
31717079,0.0734577,-0.167654,-1.42465,0.0,0.755687,-0.0269939,-0.0872431,-0.648535,0.0,0.0,-0.504211,0,0,0,0,0
31816634,0.05984,-0.154465,-1.42311,0.0,0.756259,-0.0277721,-0.0778844,-0.649026,0.0,0.0,-0.504211,0,0,0,0,0
31915690,0.0192099,-0.0971437,-1.41941,0.0,0.757928,-0.0243589,-0.0430794,-0.650458,0.0,0.0,-0.506316,0,0,0,0,0
32014938,0.0172389,-0.0279659,-1.41872,0.0,0.758755,-0.00256759,-0.0162229,-0.651169,0.0,0.0,-0.507368,0,0,0,0,0
32114386,0.0172355,-0.013247,-1.41859,0.0,0.758813,0.00222538,-0.0106384,-0.651218,0.0,0.0,-0.5106,0,0,0,0,0
32213675,0.0153204,-0.0132472,-1.41858,0.0,0.758819,0.00149882,-0.0100148,-0.651223,0.0,0.0,-0.511799,0,0,0,0,0
32313024,0.0153202,-0.0117753,-1.41857,0.0,0.758822,0.00197813,-0.00945636,-0.651226,0.0,0.0,-0.512999,0,0,0,0,0
32417267,0.0153202,-0.0117753,-1.41857,0.0,0.758822,0.00197813,-0.00945636,-0.651226,0.0,0.0,-0.520196,0,0,0,0,0
32516603,0.0153202,-0.0117753,-1.41857,0.0,0.758822,0.00197813,-0.00945636,-0.651226,0.0,0.0,-0.532191,0,0,0,0,0
32616222,0.0153202,-0.0117753,-1.41857,0.0,0.758822,0.00197813,-0.00945636,-0.651226,0.0,0.0,-0.532191,0,0,0,0,0
32715305,0.0153202,-0.0117753,-1.41857,0.0,0.758822,0.00197813,-0.00945636,-0.651226,0.0,0.0,-0.535789,0,0,0,0,0
32814576,0.0153202,-0.0117753,-1.41857,0.0,0.758822,0.00197813,-0.00945636,-0.651226,0.0,0.0,-0.540587,0,0,0,0,0
32913886,0.0153202,-0.0117753,-1.41857,0.0,0.758822,0.00197813,-0.00945636,-0.651226,0.0,0.0,-0.541787,0,0,0,0,0
33013154,0.0153202,-0.0117753,-1.41857,0.0,0.758822,0.00197813,-0.00945636,-0.651226,0.0,0.0,-0.544186,0,0,0,0,0
33112550,0.0153202,-0.0117753,-1.41857,0.0,0.758822,0.00197813,-0.00945636,-0.651226,0.0,0.0,-0.550184,0,0,0,0,0
33216835,0.0153202,-0.0117753,-1.41857,0.0,0.758822,0.00197813,-0.00945636,-0.651226,0.0,0.0,-0.550184,0,0,0,0,0
33316071,0.0191505,-0.0132469,-1.4186,0.0,0.758806,0.00295194,-0.0112619,-0.651212,0.0,0.0,-0.548984,0,0,0,0,0
33415556,0.0306564,-0.0412086,-1.41911,0.0,0.758608,-0.00179524,-0.0256123,-0.651042,0.0,0.0,-0.546585,0,0,0,0,0
33514808,0.0844993,-0.0926237,-1.4224,0.0,0.757369,0.00177175,-0.0625815,-0.649979,0.0,0.0,-0.542987,0,0,0,0,0
33614032,0.117353,-0.117488,-1.42539,0.0,0.75625,0.00596965,-0.0826227,-0.649018,0.0,0.0,-0.541787,0,0,0,0,0
33713411,0.127196,-0.137994,-1.42728,0.0,0.755529,0.00289479,-0.0935174,-0.6484,0.0,0.0,-0.541787,0,0,0,0,0
33812617,0.131068,-0.139439,-1.42764,0.0,0.755397,0.00386699,-0.0953148,-0.648286,0.0,0.0,-0.540587,0,0,0,0,0
33917052,0.134923,-0.139415,-1.42791,0.0,0.755301,0.00531772,-0.096556,-0.648204,0.0,0.0,-0.541787,0,0,0,0,0
34016358,0.134905,-0.137947,-1.42781,0.0,0.75534,0.00579638,-0.096,-0.648237,0.0,0.0,-0.541787,0,0,0,0,0
34115660,0.152248,-0.137833,-1.42901,0.0,0.754874,0.012323,-0.101582,-0.647838,0.0,0.0,-0.541787,0,0,0,0,0
34214940,0.154134,-0.134888,-1.42891,0.0,0.754895,0.0140054,-0.101091,-0.647856,0.0,0.0,-0.541787,0,0,0,0,0
34314308,0.146296,-0.124673,-1.42763,0.0,0.755366,0.0144565,-0.0947178,-0.64826,0.0,0.0,-0.541787,0,0,0,0,0
34413660,0.13853,-0.11885,-1.42673,0.0,0.755708,0.0134709,-0.0900104,-0.648553,0.0,0.0,-0.541787,0,0,0,0,0
34512871,0.12299,-0.102779,-1.42481,0.0,0.756427,0.0129356,-0.0789187,-0.649171,0.0,0.0,-0.541787,0,0,0,0,0
34617246,0.0172352,-0.0117751,-1.41858,0.0,0.758816,0.00270469,-0.0100799,-0.651221,0.0,0.0,-0.541787,0,0,0,0,0
34716496,0.0153202,-0.0117753,-1.41857,0.0,0.758822,0.00197813,-0.00945636,-0.651226,0.0,0.0,-0.541787,0,0,0,0,0
34815992,0.0153202,-0.0117753,-1.41857,0.0,0.758822,0.00197813,-0.00945636,-0.651226,0.0,0.0,-0.541787,0,0,0,0,0
34915104,0.0153202,-0.0117753,-1.41857,0.0,0.758822,0.00197813,-0.00945636,-0.651226,0.0,0.0,-0.541787,0,0,0,0,0
35014520,0.0191505,-0.0132469,-1.4186,0.0,0.758806,0.00295194,-0.0112619,-0.651212,0.0,0.0,-0.541787,0,0,0,0,0
35113905,0.0498679,-0.0691537,-1.4202,0.0,0.758169,-0.00363546,-0.0424494,-0.650665,0.0,0.0,-0.541787,0,0,0,0,0
35213015,0.0672818,-0.107373,-1.42209,0.0,0.757337,-0.00955307,-0.0625536,-0.649951,0.0,0.0,-0.541787,0,0,0,0,0
35317469,0.0576522,-0.102981,-1.42145,0.0,0.757538,-0.0117476,-0.0577686,-0.650124,0.0,0.0,-0.541787,0,0,0,0,0
35416748,0.0402626,-0.0603343,-1.41969,0.0,0.758359,-0.00439264,-0.0359856,-0.650828,0.0,0.0,-0.541787,0,0,0,0,0
35515952,0.0172359,-0.0161908,-1.41862,0.0,0.758805,0.00126677,-0.0117553,-0.651211,0.0,0.0,-0.541787,0,0,0,0,0
35615367,0.0134052,-0.0117754,-1.41856,0.0,0.758828,0.00125156,-0.00883283,-0.65123,0.0,0.0,-0.541787,0,0,0,0,0
35714699,0.0153202,-0.0117753,-1.41857,0.0,0.758822,0.00197813,-0.00945636,-0.651226,0.0,0.0,-0.541787,0,0,0,0,0
35814021,0.0268887,-0.0941944,-1.41975,0.0,0.757948,-0.0204957,-0.0444564,-0.650476,0.0,0.0,-0.541787,0,0,0,0,0
35913432,0.0462055,-0.126544,-1.42141,0.0,0.757138,-0.023765,-0.0629493,-0.649781,0.0,0.0,-0.541787,0,0,0,0,0
36017565,0.0172632,-0.0706508,-1.41909,0.0,0.758356,-0.0164642,-0.0324132,-0.650826,0.0,0.0,-0.541787,0,0,0,0,0
36112084,0.0153202,-0.0117753,-1.41857,0.0,0.758822,0.00197813,-0.00945636,-0.651226,0.0,0.0,-0.541787,0,0,0,0,0
36216225,0.0153202,-0.0117753,-1.41857,0.0,0.758822,0.00197813,-0.00945636,-0.651226,0.0,0.0,-0.540587,0,0,0,0,0
36315557,0.0153202,-0.0117753,-1.41857,0.0,0.758822,0.00197813,-0.00945636,-0.651226,0.0,0.0,-0.532191,0,0,0,0,0
36414931,0.0153202,-0.0117753,-1.41857,0.0,0.758822,0.00197813,-0.00945636,-0.651226,0.0,0.0,-0.532191,0,0,0,0,0
36514115,0.0191521,-0.0206062,-1.41868,0.0,0.758783,0.000555429,-0.0140542,-0.651192,0.0,0.0,-0.528592,0,0,0,0,0
36613524,0.0210763,-0.0412119,-1.39364,0.0,0.766822,-0.00514315,-0.0225621,-0.641442,0.0,0.0,-0.502105,0,0,0,0,0
36717856,0.0191587,-0.0382687,-1.39357,0.0,0.766852,-0.0049332,-0.0208191,-0.641467,0.0,0.0,-0.502105,0,0,0,0,0
36812171,0.0172376,-0.0235503,-1.3934,0.0,0.766946,-0.000945789,-0.0145607,-0.641546,0.0,0.0,-0.526193,0,0,0,0,0
36916530,0.0191567,-0.0338531,-1.39353,0.0,0.766882,-0.00351671,-0.019126,-0.641493,0.0,0.0,-0.5106,0,0,0,0,0
37015734,0.0230333,-0.0838946,-1.39417,0.0,0.766302,-0.0180978,-0.039537,-0.641007,0.0,0.0,-0.526193,0,0,0,0,0
37115077,0.0365284,-0.108901,-1.39519,0.0,0.765763,-0.0209788,-0.0534172,-0.640557,0.0,0.0,-0.527393,0,0,0,0,0
37214477,0.0519375,-0.116233,-1.39622,0.0,0.765475,-0.0174644,-0.0611425,-0.640316,0.0,0.0,-0.5,0,0,0,0,0
37313672,0.0461614,-0.114773,-1.39585,0.0,0.765562,-0.0191949,-0.0587388,-0.640388,0.0,0.0,-0.526193,0,0,0,0,0
37418016,0.0191898,-0.0794812,-1.39396,0.0,0.766387,-0.0181506,-0.0366171,-0.641078,0.0,0.0,-0.526193,0,0,0,0,0
37512368,0.0172534,-0.0574038,-1.3937,0.0,0.766683,-0.011805,-0.027541,-0.641326,0.0,0.0,-0.526193,0,0,0,0,0
37616593,0.0134052,-0.0117754,-1.39328,0.0,0.766997,0.00136308,-0.00881631,-0.641589,0.0,0.0,-0.503158,0,0,0,0,0
37716020,0.0172355,-0.013247,-1.39332,0.0,0.766982,0.00235965,-0.0106094,-0.641576,0.0,0.0,-0.503158,0,0,0,0,0
37815344,0.0191505,-0.0132469,-1.39333,0.0,0.766976,0.00309403,-0.0112237,-0.641571,0.0,0.0,-0.504211,0,0,0,0,0
37914683,0.0191505,-0.0132469,-1.39333,0.0,0.766976,0.00309403,-0.0112237,-0.641571,0.0,0.0,-0.504211,0,0,0,0,0
38013960,0.0191505,-0.0132469,-1.39333,0.0,0.766976,0.00309403,-0.0112237,-0.641571,0.0,0.0,-0.501053,0,0,0,0,0
38118209,0.0191505,-0.0132469,-1.39333,0.0,0.766976,0.00309403,-0.0112237,-0.641571,0.0,0.0,-0.526193,0,0,0,0,0
38212475,0.0249801,-0.101555,-1.39447,0.0,0.765979,-0.0230252,-0.0469166,-0.640737,0.0,0.0,-0.5,0,0,0,0,0
38316968,0.0425144,-0.164811,-1.39671,0.0,0.764253,-0.0366871,-0.0766487,-0.639293,0.0,0.0,-0.502105,0,0,0,0,0
38416126,0.0192476,-0.123637,-1.39439,0.0,0.765527,-0.0323011,-0.0535279,-0.640359,0.0,0.0,-0.5106,0,0,0,0,0
38515550,0.0172764,-0.0853697,-1.39394,0.0,0.7663,-0.0207724,-0.0382589,-0.641006,0.0,0.0,-0.5106,0,0,0,0,0
38614862,0.0134054,-0.0132473,-1.39329,0.0,0.766994,0.000890872,-0.00938081,-0.641586,0.0,0.0,-0.547785,0,0,0,0,0
38714154,0.0134054,-0.0132473,-1.39329,0.0,0.766994,0.000890872,-0.00938081,-0.641586,0.0,0.0,-0.556181,0,0,0,0,0
38818473,0.0153204,-0.0132472,-1.3933,0.0,0.766988,0.00162526,-0.0099951,-0.641581,0.0,0.0,-0.557381,0,0,0,0,0
38912697,0.0191636,-0.0471,-1.39365,0.0,0.76678,-0.00776604,-0.0242052,-0.641407,0.0,0.0,-0.55978,0,0,0,0,0
39016999,0.021137,-0.101558,-1.39428,0.0,0.765996,-0.0244935,-0.0456889,-0.640751,0.0,0.0,-0.55978,0,0,0,0,0
39111376,0.017284,-0.0927292,-1.394,0.0,0.766175,-0.0231314,-0.0410784,-0.640901,0.0,0.0,-0.557381,0,0,0,0,0
39215688,0.0134054,-0.0132473,-1.39329,0.0,0.766994,0.000890872,-0.00938081,-0.641586,0.0,0.0,-0.557381,0,0,0,0,0
39315037,0.0153202,-0.0117753,-1.39329,0.0,0.766992,0.00209747,-0.00943061,-0.641584,0.0,0.0,-0.545386,0,0,0,0,0
39414357,0.0153202,-0.0117753,-1.39329,0.0,0.766992,0.00209747,-0.00943061,-0.641584,0.0,0.0,-0.548984,0,0,0,0,0
39518655,0.0191898,-0.0794812,-1.39396,0.0,0.766387,-0.0181506,-0.0366171,-0.641078,0.0,0.0,-0.55978,0,0,0,0,0
39613141,0.0192136,-0.100087,-1.39416,0.0,0.766032,-0.024756,-0.0445113,-0.640781,0.0,0.0,-0.55858,0,0,0,0,0
39717289,0.0172586,-0.0647632,-1.39376,0.0,0.766597,-0.0141652,-0.0303621,-0.641254,0.0,0.0,-0.547785,0,0,0,0,0
39811529,0.0134052,-0.0117754,-1.39328,0.0,0.766997,0.00136308,-0.00881631,-0.641589,0.0,0.0,-0.541787,0,0,0,0,0
39915892,0.0134052,-0.0117754,-1.39328,0.0,0.766997,0.00136308,-0.00881631,-0.641589,0.0,0.0,-0.540587,0,0,0,0,0
40015111,0.0191525,-0.0220781,-1.39341,0.0,0.766946,0.000260792,-0.0146105,-0.641546,0.0,0.0,-0.546585,0,0,0,0,0
40114564,0.0384636,-0.113313,-1.39538,0.0,0.765656,-0.0216597,-0.0557212,-0.640467,0.0,0.0,-0.546585,0,0,0,0,0
40213843,0.0365659,-0.122146,-1.39544,0.0,0.76547,-0.0252232,-0.0584876,-0.640311,0.0,0.0,-0.545386,0,0,0,0,0
40313179,0.0191944,-0.0838968,-1.39401,0.0,0.766318,-0.0195663,-0.038309,-0.64102,0.0,0.0,-0.535789,0,0,0,0,0
40417562,0.0134054,-0.0132473,-1.39329,0.0,0.766994,0.000890872,-0.00938081,-0.641586,0.0,0.0,-0.515398,0,0,0,0,0
40511875,0.0153202,-0.0117753,-1.39329,0.0,0.766992,0.00209747,-0.00943061,-0.641584,0.0,0.0,-0.526193,0,0,0,0,0
40615990,0.0172355,-0.013247,-1.39332,0.0,0.766982,0.00235965,-0.0106094,-0.641576,0.0,0.0,-0.526193,0,0,0,0,0
40715417,0.0326152,-0.0750569,-1.39443,0.0,0.766386,-0.0115949,-0.039223,-0.641077,0.0,0.0,-0.501053,0,0,0,0,0
40814634,0.0384197,-0.0971258,-1.39507,0.0,0.765982,-0.0164707,-0.0495222,-0.64074,0.0,0.0,-0.502105,0,0,0,0,0
40914014,0.0172524,-0.0559319,-1.39368,0.0,0.766699,-0.011333,-0.0269768,-0.641339,0.0,0.0,-0.502105,0,0,0,0,0
41013437,0.0134052,-0.0117754,-1.39328,0.0,0.766997,0.00136308,-0.00881631,-0.641589,0.0,0.0,-0.502105,0,0,0,0,0
41117626,0.0134052,-0.0117754,-1.39328,0.0,0.766997,0.00136308,-0.00881631,-0.641589,0.0,0.0,-0.502105,0,0,0,0,0
41212147,0.0191574,-0.035325,-1.39354,0.0,0.766873,-0.00398888,-0.0196904,-0.641485,0.0,0.0,-0.502105,0,0,0,0,0
41316233,0.099961,-0.107275,-1.39857,0.0,0.764971,0.00371393,-0.0730894,-0.639894,0.0,0.0,-0.503158,0,0,0,0,0
41415560,0.126942,-0.114506,-1.40049,0.0,0.764234,0.0116237,-0.0844752,-0.639277,0.0,0.0,-0.503158,0,0,0,0,0
41514999,0.04602,-0.0632722,-1.39466,0.0,0.766441,-0.00267891,-0.0390082,-0.641124,0.0,0.0,-0.503158,0,0,0,0,0
41614442,0.0134054,-0.0132473,-1.39329,0.0,0.766994,0.000890872,-0.00938081,-0.641586,0.0,0.0,-0.508421,0,0,0,0,0
41713560,0.0153202,-0.0117753,-1.39329,0.0,0.766992,0.00209747,-0.00943061,-0.641584,0.0,0.0,-0.553782,0,0,0,0,0
41817829,0.0153204,-0.0132472,-1.3933,0.0,0.766988,0.00162526,-0.0099951,-0.641581,0.0,0.0,-0.546585,0,0,0,0,0
41912153,0.0153204,-0.0132472,-1.3933,0.0,0.766988,0.00162526,-0.0099951,-0.641581,0.0,0.0,-0.53339,0,0,0,0,0
42016522,0.0210863,-0.0559305,-1.39379,0.0,0.766685,-0.00986431,-0.0282051,-0.641328,0.0,0.0,-0.53339,0,0,0,0,0
42110944,0.0518923,-0.104463,-1.39592,0.0,0.765724,-0.0136907,-0.0566355,-0.640524,0.0,0.0,-0.535789,0,0,0,0,0
42215092,0.0792568,-0.16763,-1.39986,0.0,0.763739,-0.0236882,-0.0894145,-0.638864,0.0,0.0,-0.535789,0,0,0,0,0
42314468,0.0657145,-0.166213,-1.39868,0.0,0.76397,-0.028353,-0.0845651,-0.639057,0.0,0.0,-0.535789,0,0,0,0,0
42413748,0.017275,-0.0838978,-1.39393,0.0,0.766324,-0.0203005,-0.037695,-0.641026,0.0,0.0,-0.535789,0,0,0,0,0
42517977,0.0134054,-0.0132473,-1.39329,0.0,0.766994,0.000890872,-0.00938081,-0.641586,0.0,0.0,-0.53459,0,0,0,0,0
42612476,0.0134054,-0.0132473,-1.39329,0.0,0.766994,0.000890872,-0.00938081,-0.641586,0.0,0.0,-0.53339,0,0,0,0,0
42716660,0.0134052,-0.0117754,-1.39328,0.0,0.766997,0.00136308,-0.00881631,-0.641589,0.0,0.0,-0.545386,0,0,0,0,0
42811129,0.0134054,-0.0132473,-1.39329,0.0,0.766994,0.000890872,-0.00938081,-0.641586,0.0,0.0,-0.565777,0,0,0,0,0
42915347,0.0134052,-0.0117754,-1.39328,0.0,0.766997,0.00136308,-0.00881631,-0.641589,0.0,0.0,-0.565777,0,0,0,0,0
43014604,0.0172488,-0.0500443,-1.39363,0.0,0.766759,-0.00944462,-0.0247197,-0.641389,0.0,0.0,-0.557381,0,0,0,0,0
43114159,0.0192027,-0.0912562,-1.39408,0.0,0.766194,-0.0219254,-0.0411285,-0.640917,0.0,0.0,-0.556181,0,0,0,0,0
43218212,0.0172922,-0.100089,-1.39407,0.0,0.766039,-0.0254901,-0.0438973,-0.640787,0.0,0.0,-0.557381,0,0,0,0,0
43312586,0.0172506,-0.0529881,-1.40574,0.0,0.76284,-0.0105448,-0.025785,-0.645987,0.0,0.0,-0.557381,0,0,0,0,0
43416904,0.0134054,-0.0132473,-1.40538,0.0,0.763102,0.00083417,-0.00938602,-0.646209,0.0,0.0,-0.557381,0,0,0,0,0
43511250,0.0134054,-0.0132473,-1.40538,0.0,0.763102,0.00083417,-0.00938602,-0.646209,0.0,0.0,-0.557381,0,0,0,0,0
43615543,0.0134054,-0.0132473,-1.40538,0.0,0.763102,0.00083417,-0.00938602,-0.646209,0.0,0.0,-0.557381,0,0,0,0,0
43714859,0.0153204,-0.0132472,-1.40539,0.0,0.763097,0.00156484,-0.0100047,-0.646204,0.0,0.0,-0.557381,0,0,0,0,0
43814179,0.0153204,-0.0132472,-1.40539,0.0,0.763097,0.00156484,-0.0100047,-0.646204,0.0,0.0,-0.554982,0,0,0,0,0
43913647,0.0172355,-0.013247,-1.4054,0.0,0.763091,0.0022955,-0.0106235,-0.646199,0.0,0.0,-0.53459,0,0,0,0,0
44012794,0.0172357,-0.0147189,-1.40541,0.0,0.763087,0.00181988,-0.0111851,-0.646196,0.0,0.0,-0.535789,0,0,0,0,0
44117153,0.0191508,-0.0147187,-1.40543,0.0,0.763081,0.00255054,-0.0118038,-0.64619,0.0,0.0,-0.526193,0,0,0,0,0
44211484,0.0191521,-0.0206062,-1.40548,0.0,0.763061,0.000648107,-0.0140502,-0.646174,0.0,0.0,-0.502105,0,0,0,0,0
44315691,0.0191508,-0.0147187,-1.40543,0.0,0.763081,0.00255054,-0.0118038,-0.64619,0.0,0.0,-0.502105,0,0,0,0,0
44414983,0.0191511,-0.0161906,-1.40544,0.0,0.763076,0.00207493,-0.0123654,-0.646187,0.0,0.0,-0.503158,0,0,0,0,0
44514492,0.0211088,-0.0794802,-1.40613,0.0,0.762491,-0.017641,-0.0371252,-0.645691,0.0,0.0,-0.507368,0,0,0,0,0
44613709,0.0192384,-0.11775,-1.40642,0.0,0.761779,-0.0307245,-0.0510896,-0.645088,0.0,0.0,-0.509474,0,0,0,0,0
44713107,0.0173125,-0.116279,-1.4063,0.0,0.761819,-0.03098,-0.0499107,-0.645121,0.0,0.0,-0.509474,0,0,0,0,0
44817292,0.0172575,-0.0632913,-1.40583,0.0,0.762726,-0.013873,-0.0297146,-0.64589,0.0,0.0,-0.5106,0,0,0,0,0
44911558,0.0134054,-0.0132473,-1.40538,0.0,0.763102,0.00083417,-0.00938602,-0.646209,0.0,0.0,-0.544186,0,0,0,0,0
45015957,0.0134054,-0.0132473,-1.40538,0.0,0.763102,0.00083417,-0.00938602,-0.646209,0.0,0.0,-0.568176,0,0,0,0,0
45115267,0.0172355,-0.013247,-1.4054,0.0,0.763091,0.0022955,-0.0106235,-0.646199,0.0,0.0,-0.568176,0,0,0,0,0
45214616,0.028744,-0.0456246,-1.40594,0.0,0.762859,-0.00378355,-0.0266894,-0.646003,0.0,0.0,-0.568176,0,0,0,0,0
45313962,0.0786325,-0.0676407,-1.40795,0.0,0.762111,0.00807575,-0.051182,-0.645369,0.0,0.0,-0.566977,0,0,0,0,0
45413268,0.142266,-0.108559,-1.41303,0.0,0.760091,0.0188493,-0.0872339,-0.643659,0.0,0.0,-0.565777,0,0,0,0,0
45517574,0.169374,-0.123057,-1.41575,0.0,0.758973,0.0243035,-0.101444,-0.642712,0.0,0.0,-0.560979,0,0,0,0,0
45611864,0.140593,-0.130576,-1.41449,0.0,0.759638,0.0109927,-0.0950107,-0.643275,0.0,0.0,-0.55978,0,0,0,0,0
45716048,0.136689,-0.126197,-1.41394,0.0,0.759847,0.0109592,-0.0921012,-0.643452,0.0,0.0,-0.55978,0,0,0,0,0
45815527,0.105822,-0.119008,-1.4116,0.0,0.760724,0.00166046,-0.0794416,-0.644194,0.0,0.0,-0.557381,0,0,0,0,0
45914767,0.0923543,-0.11906,-1.4108,0.0,0.760975,-0.00344929,-0.0751232,-0.644408,0.0,0.0,-0.557381,0,0,0,0,0
46014117,0.0827342,-0.119094,-1.41022,0.0,0.761134,-0.00709973,-0.0720373,-0.644542,0.0,0.0,-0.557381,0,0,0,0,0
46113550,0.0153204,-0.0132472,-1.40539,0.0,0.763097,0.00156484,-0.0100047,-0.646204,0.0,0.0,-0.557381,0,0,0,0,0
46217619,0.0134054,-0.0132473,-1.40538,0.0,0.763102,0.00083417,-0.00938602,-0.646209,0.0,0.0,-0.541787,0,0,0,0,0
46312100,0.0153204,-0.0132472,-1.40539,0.0,0.763097,0.00156484,-0.0100047,-0.646204,0.0,0.0,-0.526193,0,0,0,0,0
46416352,0.0191505,-0.0132469,-1.40541,0.0,0.763085,0.00302615,-0.0112422,-0.646194,0.0,0.0,-0.521395,0,0,0,0,0
46515703,0.0191505,-0.0132469,-1.40541,0.0,0.763085,0.00302615,-0.0112422,-0.646194,0.0,0.0,-0.517797,0,0,0,0,0
46615228,0.0191505,-0.0132469,-1.40541,0.0,0.763085,0.00302615,-0.0112422,-0.646194,0.0,0.0,-0.515398,0,0,0,0,0
46714408,0.0172355,-0.013247,-1.4054,0.0,0.763091,0.0022955,-0.0106235,-0.646199,0.0,0.0,-0.511799,0,0,0,0,0
46813634,0.0134054,-0.0132473,-1.40538,0.0,0.763102,0.00083417,-0.00938602,-0.646209,0.0,0.0,-0.512999,0,0,0,0,0
46912998,0.0153204,-0.0132472,-1.40539,0.0,0.763097,0.00156484,-0.0100047,-0.646204,0.0,0.0,-0.526193,0,0,0,0,0
47012169,0.0307163,-0.0868323,-1.40662,0.0,0.762327,-0.0163649,-0.0430225,-0.645552,0.0,0.0,-0.524994,0,0,0,0,0
47116573,0.055954,-0.150063,-1.40949,0.0,0.760693,-0.0272943,-0.0751523,-0.644168,0.0,0.0,-0.521395,0,0,0,0,0
47215877,0.0715246,-0.167662,-1.4113,0.0,0.759974,-0.0271479,-0.0868024,-0.643559,0.0,0.0,-0.520196,0,0,0,0,0
47315204,0.079297,-0.172041,-1.41213,0.0,0.759722,-0.0256513,-0.0909466,-0.643346,0.0,0.0,-0.520196,0,0,0,0,0
47414685,0.0812172,-0.170562,-1.41223,0.0,0.759741,-0.024447,-0.0910043,-0.643362,0.0,0.0,-0.520196,0,0,0,0,0
47513810,0.102488,-0.170451,-1.41405,0.0,0.759376,-0.0164188,-0.0977849,-0.643053,0.0,0.0,-0.520196,0,0,0,0,0
47613141,0.0947529,-0.170494,-1.41339,0.0,0.759518,-0.0193379,-0.0953199,-0.643174,0.0,0.0,-0.520196,0,0,0,0,0
47712495,0.0946898,-0.164616,-1.4131,0.0,0.759706,-0.0174399,-0.0930845,-0.643333,0.0,0.0,-0.520196,0,0,0,0,0
47816657,0.0888782,-0.163175,-1.41256,0.0,0.759852,-0.019155,-0.090676,-0.643456,0.0,0.0,-0.520196,0,0,0,0,0
47916133,0.0869603,-0.164654,-1.41247,0.0,0.759838,-0.0203594,-0.0906184,-0.643444,0.0,0.0,-0.520196,0,0,0,0,0
48015353,0.083082,-0.163202,-1.41209,0.0,0.759945,-0.0213447,-0.088826,-0.643535,0.0,0.0,-0.520196,0,0,0,0,0
48114699,0.0733633,-0.155889,-1.41102,0.0,0.760311,-0.0226219,-0.0829455,-0.643845,0.0,0.0,-0.520196,0,0,0,0,0
48214191,0.017355,-0.144245,-1.40654,0.0,0.761124,-0.0399994,-0.0605577,-0.644533,0.0,0.0,-0.520196,0,0,0,0,0
48313349,0.0173525,-0.142773,-1.40653,0.0,0.761164,-0.0395249,-0.0599976,-0.644567,0.0,0.0,-0.520196,0,0,0,0,0
48412628,0.017355,-0.144245,-1.40654,0.0,0.761124,-0.0399994,-0.0605577,-0.644533,0.0,0.0,-0.520196,0,0,0,0,0
48516929,-0.0523541,-0.108876,-1.40243,0.0,0.761746,-0.05506,-0.0246978,-0.64506,0.0,0.0,-0.520196,0,0,0,0,0
48616298,-0.0913792,-0.0632065,-1.4024,0.0,0.76196,-0.0552441,0.00533305,-0.645241,0.0,0.0,-0.520196,0,0,0,0,0
48715547,-0.0875376,-0.0132308,-1.40471,0.0,0.762389,-0.0376679,0.0232209,-0.645604,0.0,0.0,-0.521395,0,0,0,0,0
48814920,0.0153202,-0.0117753,-1.40538,0.0,0.763101,0.00204045,-0.00944311,-0.646207,0.0,0.0,-0.501053,0,0,0,0,0
48914279,0.0153204,-0.0132472,-1.40539,0.0,0.763097,0.00156484,-0.0100047,-0.646204,0.0,0.0,-0.515398,0,0,0,0,0
49013665,0.0153204,-0.0132472,-1.40539,0.0,0.763097,0.00156484,-0.0100047,-0.646204,0.0,0.0,-0.527393,0,0,0,0,0
49112822,0.0153204,-0.0132472,-1.40539,0.0,0.763097,0.00156484,-0.0100047,-0.646204,0.0,0.0,-0.529792,0,0,0,0,0
49217239,0.0210687,-0.0250215,-1.40555,0.0,0.763034,-4.8051e-05,-0.0163537,-0.646151,0.0,0.0,-0.532191,0,0,0,0,0
49316518,0.0806511,-0.0911631,-1.40897,0.0,0.761725,0.00119941,-0.0607727,-0.645042,0.0,0.0,-0.546585,0,0,0,0,0
49415813,0.0960218,-0.0925917,-1.40974,0.0,0.761442,0.0065651,-0.0662728,-0.644803,0.0,0.0,-0.545386,0,0,0,0,0
49515020,0.084507,-0.0940939,-1.40927,0.0,0.761613,0.00170912,-0.063129,-0.644948,0.0,0.0,-0.540587,0,0,0,0,0
49614437,0.0306677,-0.0529824,-1.4061,0.0,0.762779,-0.00543057,-0.0301149,-0.645935,0.0,0.0,-0.540587,0,0,0,0,0
49713759,0.0134052,-0.0117754,-1.40537,0.0,0.763106,0.00130978,-0.00882439,-0.646212,0.0,0.0,-0.535789,0,0,0,0,0
49813161,0.0153204,-0.0132472,-1.40539,0.0,0.763097,0.00156484,-0.0100047,-0.646204,0.0,0.0,-0.535789,0,0,0,0,0
49912478,0.0153204,-0.0132472,-1.40539,0.0,0.763097,0.00156484,-0.0100047,-0.646204,0.0,0.0,-0.545386,0,0,0,0,0
50016621,0.0153202,-0.0117753,-1.40538,0.0,0.763101,0.00204045,-0.00944311,-0.646207,0.0,0.0,-0.547785,0,0,0,0,0
50116049,0.0153204,-0.0132472,-1.40539,0.0,0.763097,0.00156484,-0.0100047,-0.646204,0.0,0.0,-0.566977,0,0,0,0,0
50215310,0.0153204,-0.0132472,-1.40539,0.0,0.763097,0.00156484,-0.0100047,-0.646204,0.0,0.0,-0.570575,0,0,0,0,0
50314631,0.0153204,-0.0132472,-1.40539,0.0,0.763097,0.00156484,-0.0100047,-0.646204,0.0,0.0,-0.571775,0,0,0,0,0
50414046,0.0153204,-0.0132472,-1.40539,0.0,0.763097,0.00156484,-0.0100047,-0.646204,0.0,0.0,-0.570575,0,0,0,0,0
50513192,0.0172355,-0.013247,-1.4054,0.0,0.763091,0.0022955,-0.0106235,-0.646199,0.0,0.0,-0.566977,0,0,0,0,0
50612612,0.0595178,-0.0882658,-1.40792,0.0,0.762056,-0.00588332,-0.0528557,-0.645323,0.0,0.0,-0.563378,0,0,0,0,0
50716893,0.103784,-0.104323,-1.41071,0.0,0.761075,0.0056826,-0.0732241,-0.644492,0.0,0.0,-0.563378,0,0,0,0,0
50816204,0.0768038,-0.0897018,-1.40874,0.0,0.761808,0.000214284,-0.0589768,-0.645113,0.0,0.0,-0.563378,0,0,0,0,0
50915716,0.0172355,-0.013247,-1.4054,0.0,0.763091,0.0022955,-0.0106235,-0.646199,0.0,0.0,-0.563378,0,0,0,0,0
51014817,0.0153202,-0.0117753,-1.40538,0.0,0.763101,0.00204045,-0.00944311,-0.646207,0.0,0.0,-0.563378,0,0,0,0,0
51114201,0.0210799,-0.0470994,-1.40578,0.0,0.762882,-0.00718154,-0.0247765,-0.646022,0.0,0.0,-0.562179,0,0,0,0,0
51213443,0.0383574,-0.0676938,-1.40659,0.0,0.762559,-0.00726307,-0.0382015,-0.645749,0.0,0.0,-0.560979,0,0,0,0,0
51312755,0.095913,-0.0720159,-1.40875,0.0,0.761766,0.0132207,-0.0584237,-0.645077,0.0,0.0,-0.560979,0,0,0,0,0
51417142,0.122885,-0.0895645,-1.4108,0.0,0.760936,0.0177337,-0.0737901,-0.644374,0.0,0.0,-0.551383,0,0,0,0,0
51516469,0.0825358,-0.0838069,-1.40875,0.0,0.761818,0.00430644,-0.0585869,-0.645121,0.0,0.0,-0.508421,0,0,0,0,0
51615717,0.0191727,-0.0603468,-1.40587,0.0,0.762754,-0.0121916,-0.0292105,-0.645914,0.0,0.0,-0.508421,0,0,0,0,0
51715229,0.0134054,-0.0132473,-1.40538,0.0,0.763102,0.00083417,-0.00938602,-0.646209,0.0,0.0,-0.508421,0,0,0,0,0
51814463,0.0153204,-0.0132472,-1.40539,0.0,0.763097,0.00156484,-0.0100047,-0.646204,0.0,0.0,-0.506316,0,0,0,0,0
51913647,0.0153204,-0.0132472,-1.40539,0.0,0.763097,0.00156484,-0.0100047,-0.646204,0.0,0.0,-0.506316,0,0,0,0,0
52013052,0.0460144,-0.0603293,-1.40668,0.0,0.762588,-0.00196361,-0.0378688,-0.645773,0.0,0.0,-0.509474,0,0,0,0,0
52117308,0.0825714,-0.0911583,-1.40906,0.0,0.761696,0.00192961,-0.0613903,-0.645017,0.0,0.0,-0.516597,0,0,0,0,0
52216609,0.0961063,-0.105819,-1.41038,0.0,0.761191,0.00228745,-0.0713161,-0.64459,0.0,0.0,-0.517797,0,0,0,0,0
52315910,0.0172389,-0.0279659,-1.40553,0.0,0.763033,-0.00246054,-0.0162395,-0.64615,0.0,0.0,-0.518996,0,0,0,0,0
52415236,0.0134052,-0.0117754,-1.40537,0.0,0.763106,0.00130978,-0.00882439,-0.646212,0.0,0.0,-0.517797,0,0,0,0,0
52514694,0.0153204,-0.0132472,-1.40539,0.0,0.763097,0.00156484,-0.0100047,-0.646204,0.0,0.0,-0.516597,0,0,0,0,0
52614001,0.0787035,-0.085286,-1.40865,0.0,0.761853,0.00237061,-0.0579123,-0.645151,0.0,0.0,-0.516597,0,0,0,0,0
52713145,0.123138,-0.118929,-1.41263,0.0,0.760349,0.00822828,-0.0849906,-0.643877,0.0,0.0,-0.516597,0,0,0,0,0
52817463,0.121186,-0.116002,-1.41233,0.0,0.76046,0.008449,-0.0832547,-0.643971,0.0,0.0,-0.516597,0,0,0,0,0
52911923,0.115416,-0.116028,-1.412,0.0,0.760589,0.00625987,-0.0814052,-0.64408,0.0,0.0,-0.516597,0,0,0,0,0
53016086,0.111519,-0.110169,-1.41144,0.0,0.760798,0.00670111,-0.0779321,-0.644258,0.0,0.0,-0.516597,0,0,0,0,0
53115503,0.103817,-0.10873,-1.41094,0.0,0.760986,0.00425686,-0.0749046,-0.644416,0.0,0.0,-0.516597,0,0,0,0,0
53214664,0.0153208,-0.016191,-1.40541,0.0,0.763089,0.000613611,-0.011128,-0.646197,0.0,0.0,-0.511799,0,0,0,0,0
53314120,0.0134054,-0.0132473,-1.40538,0.0,0.763102,0.00083417,-0.00938602,-0.646209,0.0,0.0,-0.571775,0,0,0,0,0
53413481,0.0134054,-0.0132473,-1.40538,0.0,0.763102,0.00083417,-0.00938602,-0.646209,0.0,0.0,-0.580171,0,0,0,0,0
53517586,0.0134054,-0.0132473,-1.40538,0.0,0.763102,0.00083417,-0.00938602,-0.646209,0.0,0.0,-0.58257,0,0,0,0,0
53612180,0.0153204,-0.0132472,-1.40539,0.0,0.763097,0.00156484,-0.0100047,-0.646204,0.0,0.0,-0.580171,0,0,0,0,0
53716336,0.0153204,-0.0132472,-1.40539,0.0,0.763097,0.00156484,-0.0100047,-0.646204,0.0,0.0,-0.574174,0,0,0,0,0
53815640,0.0153204,-0.0132472,-1.40539,0.0,0.763097,0.00156484,-0.0100047,-0.646204,0.0,0.0,-0.574174,0,0,0,0,0
53915045,0.0153204,-0.0132472,-1.40539,0.0,0.763097,0.00156484,-0.0100047,-0.646204,0.0,0.0,-0.575373,0,0,0,0,0
54014300,0.0229952,-0.0456269,-1.40581,0.0,0.762887,-0.00597539,-0.0248336,-0.646027,0.0,0.0,-0.575373,0,0,0,0,0
54113626,0.0633263,-0.0794331,-1.4078,0.0,0.762153,-0.00157034,-0.0507264,-0.645405,0.0,0.0,-0.575373,0,0,0,0,0
54217895,0.113306,-0.0925359,-1.41054,0.0,0.761099,0.0131344,-0.0718267,-0.644512,0.0,0.0,-0.575373,0,0,0,0,0
54312301,0.145993,-0.0968058,-1.41237,0.0,0.760217,0.02411,-0.0839872,-0.643766,0.0,0.0,-0.575373,0,0,0,0,0
54416667,0.0114903,-0.0132474,-1.40536,0.0,0.763107,0.000103503,-0.00876729,-0.646213,0.0,0.0,-0.575373,0,0,0,0,0
54515816,0.0134054,-0.0132473,-1.40538,0.0,0.763102,0.00083417,-0.00938602,-0.646209,0.0,0.0,-0.575373,0,0,0,0,0
54615211,0.0172355,-0.013247,-1.4054,0.0,0.763091,0.0022955,-0.0106235,-0.646199,0.0,0.0,-0.575373,0,0,0,0,0
54714564,0.0325766,-0.0456228,-1.40603,0.0,0.762837,-0.00232234,-0.0279264,-0.645984,0.0,0.0,-0.575373,0,0,0,0,0
54813754,0.0498974,-0.0809245,-1.40731,0.0,0.762275,-0.0071587,-0.0469609,-0.645508,0.0,0.0,-0.575373,0,0,0,0,0
54918090,0.0787754,-0.0999904,-1.40923,0.0,0.761593,-0.00238265,-0.0635185,-0.644931,0.0,0.0,-0.574174,0,0,0,0,0
55012417,0.0691553,-0.0970724,-1.40865,0.0,0.761783,-0.0050834,-0.0593092,-0.645091,0.0,0.0,-0.530991,0,0,0,0,0
55116737,0.057635,-0.0985672,-1.40813,0.0,0.761894,-0.00994071,-0.0561629,-0.645185,0.0,0.0,-0.521395,0,0,0,0,0
55216138,0.0326388,-0.0883022,-1.40673,0.0,0.762291,-0.0161097,-0.0442018,-0.645522,0.0,0.0,-0.511799,0,0,0,0,0
55315511,0.0172362,-0.0176627,-1.40544,0.0,0.763078,0.000868662,-0.0123083,-0.646188,0.0,0.0,-0.512999,0,0,0,0,0
55414591,0.0191505,-0.0132469,-1.40541,0.0,0.763085,0.00302615,-0.0112422,-0.646194,0.0,0.0,-0.5106,0,0,0,0,0
55514094,0.0844623,-0.0852727,-1.40889,0.0,0.761764,0.00456124,-0.0597652,-0.645076,0.0,0.0,-0.518996,0,0,0,0,0
55618227,0.0787035,-0.085286,-1.40865,0.0,0.761853,0.00237061,-0.0579123,-0.645151,0.0,0.0,-0.515398,0,0,0,0,0
55712626,0.0134052,-0.0117754,-1.40537,0.0,0.763106,0.00130978,-0.00882439,-0.646212,0.0,0.0,-0.512999,0,0,0,0,0
55816951,0.0134052,-0.0117754,-1.40537,0.0,0.763106,0.00130978,-0.00882439,-0.646212,0.0,0.0,-0.511799,0,0,0,0,0
55911299,0.0191508,-0.0147187,-1.40543,0.0,0.763081,0.00255054,-0.0118038,-0.64619,0.0,0.0,-0.512999,0,0,0,0,0
56015674,0.0440804,-0.0500306,-1.40639,0.0,0.762712,0.000634458,-0.0333214,-0.645878,0.0,0.0,-0.5106,0,0,0,0,0
56114853,0.0594352,-0.0603151,-1.40708,0.0,0.762453,0.00314973,-0.0421966,-0.645659,0.0,0.0,-0.5106,0,0,0,0,0
56214199,0.0632814,-0.0647233,-1.40734,0.0,0.762355,0.00318409,-0.0451162,-0.645576,0.0,0.0,-0.5106,0,0,0,0,0
56318587,0.030647,-0.0279629,-1.40572,0.0,0.762972,0.00265392,-0.02057,-0.646098,0.0,0.0,-0.523794,0,0,0,0,0
56412759,0.0287316,-0.0279635,-1.40569,0.0,0.762983,0.0019233,-0.0199514,-0.646108,0.0,0.0,-0.545386,0,0,0,0,0
56517162,0.0134052,-0.0117754,-1.40537,0.0,0.763106,0.00130978,-0.00882439,-0.646212,0.0,0.0,-0.55978,0,0,0,0,0
56611512,0.0134052,-0.0117754,-1.40537,0.0,0.763106,0.00130978,-0.00882439,-0.646212,0.0,0.0,-0.55978,0,0,0,0,0
56715942,0.0191505,-0.0132469,-1.40541,0.0,0.763085,0.00302615,-0.0112422,-0.646194,0.0,0.0,-0.554982,0,0,0,0,0
56815066,0.0593921,-0.0382486,-1.40642,0.0,0.762661,0.0102828,-0.0337773,-0.645835,0.0,0.0,-0.541787,0,0,0,0,0
56914446,0.117057,-0.079305,-1.40994,0.0,0.761233,0.0188723,-0.0680166,-0.644626,0.0,0.0,-0.536989,0,0,0,0,0
57018733,0.111438,-0.0998871,-1.41086,0.0,0.761005,0.0100279,-0.0740112,-0.644432,0.0,0.0,-0.541787,0,0,0,0,0
57113026,0.113382,-0.102818,-1.41113,0.0,0.760907,0.00980718,-0.0757484,-0.64435,0.0,0.0,-0.542987,0,0,0,0,0
57217336,0.105653,-0.0969695,-1.41042,0.0,0.761179,0.00878897,-0.0710398,-0.64458,0.0,0.0,-0.541787,0,0,0,0,0
57311649,0.105653,-0.0969695,-1.41042,0.0,0.761179,0.00878897,-0.0710398,-0.64458,0.0,0.0,-0.541787,0,0,0,0,0
57416038,0.092181,-0.0926028,-1.40956,0.0,0.761511,0.00510497,-0.0650381,-0.644861,0.0,0.0,-0.541787,0,0,0,0,0
57515325,0.0844623,-0.0852727,-1.40889,0.0,0.761764,0.00456124,-0.0597652,-0.645076,0.0,0.0,-0.541787,0,0,0,0,0
57614615,0.0767713,-0.0823492,-1.40845,0.0,0.761929,0.00259113,-0.0561731,-0.645215,0.0,0.0,-0.541787,0,0,0,0,0
57714030,0.0575605,-0.0765,-1.40749,0.0,0.762263,-0.00281075,-0.0477504,-0.645498,0.0,0.0,-0.541787,0,0,0,0,0
57813291,0.019175,-0.0632906,-1.40589,0.0,0.762719,-0.0131424,-0.0303332,-0.645884,0.0,0.0,-0.541787,0,0,0,0,0
57917882,0.0191727,-0.0603468,-1.40587,0.0,0.762754,-0.0121916,-0.0292105,-0.645914,0.0,0.0,-0.541787,0,0,0,0,0
58011832,0.0210966,-0.0677053,-1.406,0.0,0.762657,-0.0138381,-0.0326356,-0.645831,0.0,0.0,-0.544186,0,0,0,0,0
58116228,0.0211122,-0.0824239,-1.40616,0.0,0.762446,-0.0185916,-0.0382474,-0.645653,0.0,0.0,-0.542987,0,0,0,0,0
58215489,0.0211308,-0.0971424,-1.40631,0.0,0.762194,-0.0233438,-0.0438574,-0.645439,0.0,0.0,-0.544186,0,0,0,0,0
58314832,0.019234,-0.114806,-1.40639,0.0,0.761844,-0.0297747,-0.0499684,-0.645143,0.0,0.0,-0.544186,0,0,0,0,0
58414085,0.0192523,-0.126581,-1.40651,0.0,0.761573,-0.0335735,-0.0544526,-0.644914,0.0,0.0,-0.542987,0,0,0,0,0
58513466,0.0173383,-0.133942,-1.40645,0.0,0.761397,-0.0366773,-0.0566363,-0.644765,0.0,0.0,-0.542987,0,0,0,0,0
58617743,0.0173429,-0.136886,-1.40648,0.0,0.761321,-0.0376266,-0.0577568,-0.6447,0.0,0.0,-0.542987,0,0,0,0,0
58712209,0.0173249,-0.125111,-1.40637,0.0,0.761615,-0.033829,-0.053274,-0.644949,0.0,0.0,-0.542987,0,0,0,0,0
58816477,0.0173145,-0.117751,-1.40631,0.0,0.761786,-0.0314549,-0.0504714,-0.645094,0.0,0.0,-0.542987,0,0,0,0,0
58915623,0.0173186,-0.120695,-1.40633,0.0,0.761719,-0.0324046,-0.0515925,-0.645037,0.0,0.0,-0.542987,0,0,0,0,0
59015020,0.0192499,-0.125109,-1.40649,0.0,0.761609,-0.0330987,-0.0538922,-0.644944,0.0,0.0,-0.542987,0,0,0,0,0
59114384,0.0192572,-0.129525,-1.40654,0.0,0.761501,-0.034523,-0.0555734,-0.644853,0.0,0.0,-0.541787,0,0,0,0,0
59213713,0.0192572,-0.129525,-1.40654,0.0,0.761501,-0.034523,-0.0555734,-0.644853,0.0,0.0,-0.541787,0,0,0,0,0
59317927,0.0211723,-0.123636,-1.4066,0.0,0.761636,-0.0318936,-0.0539499,-0.644967,0.0,0.0,-0.541787,0,0,0,0,0
59412319,0.0192429,-0.120694,-1.40645,0.0,0.761712,-0.0316743,-0.0522107,-0.645031,0.0,0.0,-0.541787,0,0,0,0,0
59516664,0.0192234,-0.107447,-1.40632,0.0,0.762,-0.0273998,-0.0471649,-0.645275,0.0,0.0,-0.541787,0,0,0,0,0
59611058,0.0192045,-0.0927281,-1.40618,0.0,0.762281,-0.0226488,-0.0415563,-0.645513,0.0,0.0,-0.541787,0,0,0,0,0
59715148,0.0192155,-0.101559,-1.40626,0.0,0.762118,-0.0254996,-0.0449217,-0.645375,0.0,0.0,-0.541787,0,0,0,0,0
59814605,0.0211329,-0.0986143,-1.40633,0.0,0.762167,-0.0238189,-0.0444183,-0.645416,0.0,0.0,-0.541787,0,0,0,0,0
59913774,0.0211308,-0.0971424,-1.40631,0.0,0.762194,-0.0233438,-0.0438574,-0.645439,0.0,0.0,-0.541787,0,0,0,0,0
60018177,0.021123,-0.091255,-1.40625,0.0,0.7623,-0.0214431,-0.0416137,-0.645529,0.0,0.0,-0.541787,0,0,0,0,0
60112599,0.0211211,-0.0897832,-1.40624,0.0,0.762325,-0.0209679,-0.0410527,-0.64555,0.0,0.0,-0.541787,0,0,0,0,0
60216700,0.0269044,-0.103025,-1.40667,0.0,0.762055,-0.0230529,-0.0479557,-0.645322,0.0,0.0,-0.541787,0,0,0,0,0
60311207,0.0269044,-0.103025,-1.40667,0.0,0.762055,-0.0230529,-0.0479557,-0.645322,0.0,0.0,-0.541787,0,0,0,0,0
60415370,0.0191883,-0.0780093,-1.40604,0.0,0.762521,-0.0178962,-0.0359456,-0.645716,0.0,0.0,-0.544186,0,0,0,0,0
60514697,0.0210966,-0.0677053,-1.406,0.0,0.762657,-0.0138381,-0.0326356,-0.645831,0.0,0.0,-0.547785,0,0,0,0,0
60614029,0.0210912,-0.0618179,-1.40594,0.0,0.762729,-0.0119364,-0.0303904,-0.645893,0.0,0.0,-0.55858,0,0,0,0,0
60713431,0.021083,-0.0515149,-1.40583,0.0,0.762841,-0.00860809,-0.0264608,-0.645987,0.0,0.0,-0.544186,0,0,0,0,0
60812764,0.0191587,-0.0382687,-1.40565,0.0,0.762962,-0.00505892,-0.020789,-0.646089,0.0,0.0,-0.548984,0,0,0,0,0
60917032,0.0191645,-0.0485719,-1.40575,0.0,0.762876,-0.00838769,-0.0247193,-0.646017,0.0,0.0,-0.548984,0,0,0,0,0
61011307,0.0210809,-0.0485712,-1.4058,0.0,0.762869,-0.00765707,-0.0253379,-0.646011,0.0,0.0,-0.547785,0,0,0,0,0
61115598,0.0210841,-0.0529868,-1.40585,0.0,0.762826,-0.00908359,-0.0270222,-0.645975,0.0,0.0,-0.547785,0,0,0,0,0
61214977,0.0230045,-0.0574016,-1.40595,0.0,0.762772,-0.00977944,-0.0293249,-0.645929,0.0,0.0,-0.546585,0,0,0,0,0
61314255,0.0556145,-0.0662043,-1.40713,0.0,0.762424,-0.000213097,-0.0432048,-0.645634,0.0,0.0,-0.547785,0,0,0,0,0
61413778,0.113306,-0.0925359,-1.41054,0.0,0.761099,0.0131344,-0.0718267,-0.644512,0.0,0.0,-0.547785,0,0,0,0,0
61512925,0.101783,-0.0925741,-1.41001,0.0,0.761334,0.0087551,-0.0681245,-0.644711,0.0,0.0,-0.547785,0,0,0,0,0
61617163,0.0998811,-0.0955191,-1.41007,0.0,0.761318,0.00707445,-0.0686281,-0.644698,0.0,0.0,-0.547785,0,0,0,0,0
61711625,0.0921644,-0.089663,-1.40942,0.0,0.761562,0.00605568,-0.0639171,-0.644904,0.0,0.0,-0.547785,0,0,0,0,0
61815742,0.0863747,-0.0837979,-1.40891,0.0,0.761757,0.0057668,-0.0598221,-0.645069,0.0,0.0,-0.547785,0,0,0,0,0
61915153,0.0594539,-0.0676705,-1.4073,0.0,0.762363,0.000772317,-0.0450022,-0.645582,0.0,0.0,-0.547785,0,0,0,0,0
62014561,0.0191654,-0.0500437,-1.40577,0.0,0.762863,-0.0088632,-0.0252808,-0.646006,0.0,0.0,-0.547785,0,0,0,0,0
62113821,0.0172365,-0.0191346,-1.40545,0.0,0.763073,0.000393053,-0.0128699,-0.646184,0.0,0.0,-0.547785,0,0,0,0,0
62213254,0.0134052,-0.0117754,-1.40537,0.0,0.763106,0.00130978,-0.00882439,-0.646212,0.0,0.0,-0.547785,0,0,0,0,0
62317457,0.0153202,-0.0117753,-1.40538,0.0,0.763101,0.00204045,-0.00944311,-0.646207,0.0,0.0,-0.547785,0,0,0,0,0
62411704,0.0153202,-0.0117753,-1.40538,0.0,0.763101,0.00204045,-0.00944311,-0.646207,0.0,0.0,-0.546585,0,0,0,0,0
62516061,0.0153202,-0.0117753,-1.40538,0.0,0.763101,0.00204045,-0.00944311,-0.646207,0.0,0.0,-0.547785,0,0,0,0,0
62615326,0.0191503,-0.011775,-1.4054,0.0,0.763088,0.00350177,-0.0106805,-0.646197,0.0,0.0,-0.547785,0,0,0,0,0
62714699,0.0172352,-0.0117751,-1.40539,0.0,0.763095,0.00277111,-0.0100618,-0.646202,0.0,0.0,-0.546585,0,0,0,0,0
62814068,0.0191505,-0.0132469,-1.40541,0.0,0.763085,0.00302615,-0.0112422,-0.646194,0.0,0.0,-0.546585,0,0,0,0,0
62913305,0.0191505,-0.0132469,-1.40541,0.0,0.763085,0.00302615,-0.0112422,-0.646194,0.0,0.0,-0.546585,0,0,0,0,0
63017742,0.0248957,-0.0132463,-1.40545,0.0,0.763061,0.00521809,-0.0130982,-0.646173,0.0,0.0,-0.546585,0,0,0,0,0
63111925,0.0555381,-0.0161833,-1.40574,0.0,0.762817,0.0159557,-0.0241187,-0.645967,0.0,0.0,-0.547785,0,0,0,0,0
63216203,0.0977583,-0.0543761,-1.40795,0.0,0.761944,0.0196565,-0.0523103,-0.645228,0.0,0.0,-0.547785,0,0,0,0,0
63315549,0.0977482,-0.0514368,-1.4078,0.0,0.761974,0.0206075,-0.0511883,-0.645253,0.0,0.0,-0.547785,0,0,0,0,0
63414914,0.086232,-0.0455744,-1.40725,0.0,0.76223,0.0181292,-0.0452372,-0.64547,0.0,0.0,-0.547785,0,0,0,0,0
63514181,0.0593943,-0.0397197,-1.40647,0.0,0.76265,0.00980726,-0.0343387,-0.645825,0.0,0.0,-0.546585,0,0,0,0,0
63613684,0.0421306,-0.0117722,-1.40554,0.0,0.762954,0.012269,-0.0181043,-0.646083,0.0,0.0,-0.546585,0,0,0,0,0
63712818,0.0402161,-0.0132441,-1.40555,0.0,0.762965,0.0110629,-0.0180473,-0.646093,0.0,0.0,-0.547785,0,0,0,0,0
63812201,0.0383068,-0.0250173,-1.40577,0.0,0.762937,0.00652749,-0.0219213,-0.646068,0.0,0.0,-0.547785,0,0,0,0,0
63916551,0.0153202,-0.0117753,-1.40538,0.0,0.763101,0.00204045,-0.00944311,-0.646207,0.0,0.0,-0.546585,0,0,0,0,0
64015682,0.0134052,-0.0117754,-1.40537,0.0,0.763106,0.00130978,-0.00882439,-0.646212,0.0,0.0,-0.547785,0,0,0,0,0
64115129,0.0153202,-0.0117753,-1.40538,0.0,0.763101,0.00204045,-0.00944311,-0.646207,0.0,0.0,-0.547785,0,0,0,0,0
64214414,0.0153204,-0.0132472,-1.40539,0.0,0.763097,0.00156484,-0.0100047,-0.646204,0.0,0.0,-0.546585,0,0,0,0,0
64313809,0.0153202,-0.0117753,-1.40538,0.0,0.763101,0.00204045,-0.00944311,-0.646207,0.0,0.0,-0.545386,0,0,0,0,0
64413065,0.0191505,-0.0132469,-1.40541,0.0,0.763085,0.00302615,-0.0112422,-0.646194,0.0,0.0,-0.547785,0,0,0,0,0
64512386,0.0210717,-0.0323808,-1.40563,0.0,0.762994,-0.002426,-0.0191615,-0.646117,0.0,0.0,-0.527393,0,0,0,0,0
64616668,0.0460591,-0.0809295,-1.40715,0.0,0.76231,-0.00861964,-0.0457246,-0.645537,0.0,0.0,-0.532191,0,0,0,0,0
64716126,0.0730565,-0.108829,-1.40927,0.0,0.7615,-0.0074247,-0.0650285,-0.644852,0.0,0.0,-0.527393,0,0,0,0,0
64815207,0.0903592,-0.108778,-1.41021,0.0,0.761233,-0.00085318,-0.0705851,-0.644625,0.0,0.0,-0.529792,0,0,0,0,0
64914872,0.074904,-0.0941179,-1.40882,0.0,0.761758,-0.00194197,-0.0600411,-0.64507,0.0,0.0,-0.529792,0,0,0,0,0
65013924,0.0691235,-0.0897185,-1.40839,0.0,0.761914,-0.00270686,-0.0565058,-0.645203,0.0,0.0,-0.529792,0,0,0,0,0
65113167,0.0652664,-0.0853134,-1.40807,0.0,0.762037,-0.0027415,-0.0535878,-0.645306,0.0,0.0,-0.53339,0,0,0,0,0
65212620,0.0691174,-0.0882477,-1.40834,0.0,0.761939,-0.00223152,-0.0559451,-0.645224,0.0,0.0,-0.532191,0,0,0,0,0
65316765,0.0729903,-0.095593,-1.40878,0.0,0.761759,-0.00314754,-0.059984,-0.645071,0.0,0.0,-0.53339,0,0,0,0,0
65416216,0.084507,-0.0940939,-1.40927,0.0,0.761613,0.00170912,-0.063129,-0.644948,0.0,0.0,-0.53459,0,0,0,0,0
65515536,0.101831,-0.0999211,-1.41038,0.0,0.761199,0.0063785,-0.0709263,-0.644597,0.0,0.0,-0.53459,0,0,0,0,0
65614818,0.0787453,-0.0941086,-1.409,0.0,0.761702,-0.00048147,-0.0612763,-0.645023,0.0,0.0,-0.53459,0,0,0,0,0
65714385,0.0575929,-0.086798,-1.40779,0.0,0.762102,-0.00613838,-0.0516768,-0.645362,0.0,0.0,-0.536989,0,0,0,0,0
65813417,0.0460744,-0.0868152,-1.40729,0.0,0.762216,-0.010521,-0.0479684,-0.645458,0.0,0.0,-0.539388,0,0,0,0,0
65912753,0.0383889,-0.0838814,-1.4069,0.0,0.762325,-0.0124923,-0.0443736,-0.64555,0.0,0.0,-0.538188,0,0,0,0,0
66017127,0.0306922,-0.0721149,-1.40639,0.0,0.762551,-0.0116115,-0.0374115,-0.645741,0.0,0.0,-0.539388,0,0,0,0,0
66116476,0.028772,-0.0706446,-1.4063,0.0,0.762582,-0.0118667,-0.0362319,-0.645768,0.0,0.0,-0.536989,0,0,0,0,0
66215668,0.0230114,-0.0647607,-1.40603,0.0,0.762686,-0.0121567,-0.0321315,-0.645856,0.0,0.0,-0.538188,0,0,0,0,0
66315096,0.0383708,-0.0750518,-1.40673,0.0,0.762459,-0.00964014,-0.0410073,-0.645664,0.0,0.0,-0.536989,0,0,0,0,0
66414309,0.0460824,-0.0897581,-1.40736,0.0,0.762166,-0.0114716,-0.0490902,-0.645416,0.0,0.0,-0.538188,0,0,0,0,0
66513792,0.051852,-0.0926923,-1.40769,0.0,0.762061,-0.0102309,-0.0520661,-0.645327,0.0,0.0,-0.535789,0,0,0,0,0
66612925,0.0825497,-0.0867475,-1.40887,0.0,0.761771,0.00335568,-0.0597083,-0.645081,0.0,0.0,-0.541787,0,0,0,0,0
66717203,0.0787035,-0.085286,-1.40865,0.0,0.761853,0.00237061,-0.0579123,-0.645151,0.0,0.0,-0.538188,0,0,0,0,0
66816555,0.0556504,-0.0794451,-1.4075,0.0,0.76224,-0.00449198,-0.0482543,-0.645478,0.0,0.0,-0.539388,0,0,0,0,0
66915945,0.0556592,-0.0823875,-1.40758,0.0,0.762194,-0.00544274,-0.0493762,-0.64544,0.0,0.0,-0.541787,0,0,0,0,0
67015208,0.0672408,-0.0985475,-1.4086,0.0,0.761781,-0.00628898,-0.0592521,-0.645089,0.0,0.0,-0.541787,0,0,0,0,0
67114631,0.0653325,-0.101494,-1.40861,0.0,0.761748,-0.00796978,-0.0597555,-0.645062,0.0,0.0,-0.541787,0,0,0,0,0
67213769,0.0441365,-0.0794603,-1.40704,0.0,0.762349,-0.00887476,-0.0445453,-0.64557,0.0,0.0,-0.544186,0,0,0,0,0
67313332,0.0402955,-0.0779931,-1.40686,0.0,0.762402,-0.00986039,-0.0427478,-0.645615,0.0,0.0,-0.545386,0,0,0,0,0
67412444,0.0153206,-0.0147191,-1.4054,0.0,0.763093,0.00108922,-0.0105664,-0.646201,0.0,0.0,-0.544186,0,0,0,0,0
67516704,0.0134052,-0.0117754,-1.40537,0.0,0.763106,0.00130978,-0.00882439,-0.646212,0.0,0.0,-0.544186,0,0,0,0,0
67616133,0.0210717,-0.0323808,-1.40563,0.0,0.762994,-0.002426,-0.0191615,-0.646117,0.0,0.0,-0.544186,0,0,0,0,0
67715426,0.099961,-0.107275,-1.41066,0.0,0.76109,0.0032722,-0.0731105,-0.644505,0.0,0.0,-0.544186,0,0,0,0,0
67814746,0.107662,-0.108716,-1.41115,0.0,0.760909,0.00571665,-0.0761384,-0.644351,0.0,0.0,-0.542987,0,0,0,0,0
67914162,0.0960306,-0.0940613,-1.40981,0.0,0.761416,0.00608976,-0.0668333,-0.644781,0.0,0.0,-0.541787,0,0,0,0,0
68013320,0.0921644,-0.089663,-1.40942,0.0,0.761562,0.00605568,-0.0639171,-0.644904,0.0,0.0,-0.541787,0,0,0,0,0
68112786,0.0844623,-0.0852727,-1.40889,0.0,0.761764,0.00456124,-0.0597652,-0.645076,0.0,0.0,-0.541787,0,0,0,0,0
68217015,0.0729327,-0.0823571,-1.40829,0.0,0.761983,0.00113057,-0.0549376,-0.645261,0.0,0.0,-0.541787,0,0,0,0,0
68316324,0.019161,-0.0426844,-1.4057,0.0,0.762928,-0.00648557,-0.0224735,-0.646061,0.0,0.0,-0.541787,0,0,0,0,0
68415678,0.0134052,-0.0117754,-1.40537,0.0,0.763106,0.00130978,-0.00882439,-0.646212,0.0,0.0,-0.541787,0,0,0,0,0
68514980,0.0153202,-0.0117753,-1.40538,0.0,0.763101,0.00204045,-0.00944311,-0.646207,0.0,0.0,-0.539388,0,0,0,0,0
68614248,0.0153202,-0.0117753,-1.40525,0.0,0.763141,0.00204104,-0.00944298,-0.64616,0.0,0.0,-0.546585,0,0,0,0,0
68713677,0.0153204,-0.0132472,-1.40526,0.0,0.763138,0.00156546,-0.0100046,-0.646157,0.0,0.0,-0.548984,0,0,0,0,0
68812874,0.0210692,-0.0264934,-1.40544,0.0,0.763067,-0.00052259,-0.0169153,-0.646097,0.0,0.0,-0.545386,0,0,0,0,0
68917252,0.0768038,-0.0897018,-1.40861,0.0,0.761848,0.000217969,-0.0589768,-0.645065,0.0,0.0,-0.545386,0,0,0,0,0
69016577,0.0902858,-0.0970181,-1.40955,0.0,0.761504,0.00295303,-0.0661021,-0.644774,0.0,0.0,-0.545386,0,0,0,0,0
69115816,0.0787102,-0.0867564,-1.40858,0.0,0.76187,0.00189889,-0.058473,-0.645083,0.0,0.0,-0.545386,0,0,0,0,0
69215327,0.0460288,-0.0676865,-1.40672,0.0,0.762538,-0.00433843,-0.0406751,-0.645649,0.0,0.0,-0.544186,0,0,0,0,0
69314442,0.0249216,-0.0574007,-1.40588,0.0,0.762803,-0.00904697,-0.029944,-0.645874,0.0,0.0,-0.544186,0,0,0,0,0
69413735,0.0210863,-0.0559305,-1.40575,0.0,0.762836,-0.0100328,-0.0281456,-0.645901,0.0,0.0,-0.544186,0,0,0,0,0
69513185,0.0210819,-0.0500431,-1.40569,0.0,0.762896,-0.00813096,-0.0258999,-0.645952,0.0,0.0,-0.544186,0,0,0,0,0
69617362,0.0229996,-0.0515142,-1.40576,0.0,0.762873,-0.00787578,-0.0270798,-0.645933,0.0,0.0,-0.544186,0,0,0,0,0
69711798,0.0210819,-0.0500431,-1.40569,0.0,0.762896,-0.00813096,-0.0258999,-0.645952,0.0,0.0,-0.544186,0,0,0,0,0
69815997,0.0229932,-0.0426832,-1.40565,0.0,0.762953,-0.00502283,-0.023711,-0.646,0.0,0.0,-0.542987,0,0,0,0,0
69915321,0.0210763,-0.0412119,-1.4056,0.0,0.762972,-0.00527798,-0.0225309,-0.646017,0.0,0.0,-0.542987,0,0,0,0,0
70014883,0.0268386,-0.0573997,-1.40593,0.0,0.762794,-0.00831634,-0.0305625,-0.645866,0.0,0.0,-0.544186,0,0,0,0,0
70114074,0.0421931,-0.0676903,-1.40659,0.0,0.76257,-0.00579954,-0.0394386,-0.645676,0.0,0.0,-0.544186,0,0,0,0,0
70213355,0.0632939,-0.0691362,-1.40735,0.0,0.762339,0.00176061,-0.0467994,-0.645481,0.0,0.0,-0.544186,0,0,0,0,0
70317635,0.072894,-0.0720625,-1.40779,0.0,0.762176,0.00446171,-0.0510111,-0.645342,0.0,0.0,-0.544186,0,0,0,0,0
70411923,0.0748401,-0.079412,-1.40814,0.0,0.762042,0.00281507,-0.0544335,-0.645229,0.0,0.0,-0.544186,0,0,0,0,0
70516233,0.0786487,-0.072052,-1.408,0.0,0.762093,0.00665267,-0.0528645,-0.645272,0.0,0.0,-0.544186,0,0,0,0,0
70615580,0.0921564,-0.0881932,-1.40923,0.0,0.761627,0.00653499,-0.0633561,-0.644878,0.0,0.0,-0.544186,0,0,0,0,0
70714952,0.0825291,-0.0823366,-1.40856,0.0,0.761882,0.00478546,-0.0580259,-0.645094,0.0,0.0,-0.544186,0,0,0,0,0
70814344,0.0786719,-0.0779338,-1.40823,0.0,0.762008,0.00475105,-0.0551081,-0.6452,0.0,0.0,-0.544186,0,0,0,0,0
70913611,0.0671124,-0.063247,-1.40729,0.0,0.762366,0.0051232,-0.0457909,-0.645503,0.0,0.0,-0.544186,0,0,0,0,0
71017825,0.0632814,-0.0647233,-1.40721,0.0,0.762396,0.00318691,-0.045116,-0.645528,0.0,0.0,-0.542987,0,0,0,0,0
71112118,0.0594462,-0.0647283,-1.40709,0.0,0.762441,0.00172601,-0.0438799,-0.645566,0.0,0.0,-0.542987,0,0,0,0,0
71216458,0.034496,-0.0485652,-1.406,0.0,0.762838,-0.00254098,-0.0296679,-0.645903,0.0,0.0,-0.544186,0,0,0,0,0
71315723,0.0344994,-0.0515085,-1.40605,0.0,0.76281,-0.00349196,-0.0307907,-0.645879,0.0,0.0,-0.544186,0,0,0,0,0
71415192,0.042175,-0.0573896,-1.40637,0.0,0.762693,-0.00247146,-0.0355097,-0.64578,0.0,0.0,-0.544186,0,0,0,0,0
71514376,0.044092,-0.057388,-1.40643,0.0,0.762677,-0.00174089,-0.0361281,-0.645767,0.0,0.0,-0.544186,0,0,0,0,0
71613849,0.0268315,-0.0500408,-1.40583,0.0,0.762869,-0.00593901,-0.0277554,-0.645929,0.0,0.0,-0.542987,0,0,0,0,0
71718164,0.0325898,-0.0573965,-1.4061,0.0,0.762761,-0.00612446,-0.0324178,-0.645838,0.0,0.0,-0.544186,0,0,0,0,0
71812277,0.0383549,-0.0662222,-1.40643,0.0,0.762618,-0.00678527,-0.0376408,-0.645717,0.0,0.0,-0.544186,0,0,0,0,0
71916702,0.0345172,-0.0647536,-1.40628,0.0,0.762663,-0.00777104,-0.0358428,-0.645755,0.0,0.0,-0.544186,0,0,0,0,0
72015884,0.0191654,-0.0500437,-1.40564,0.0,0.762903,-0.00886162,-0.0252813,-0.645958,0.0,0.0,-0.544186,0,0,0,0,0
72115297,0.0191602,-0.0412125,-1.40556,0.0,0.76298,-0.00600866,-0.0219123,-0.646023,0.0,0.0,-0.544186,0,0,0,0,0
72214573,0.0153202,-0.0117753,-1.40525,0.0,0.763141,0.00204104,-0.00944298,-0.64616,0.0,0.0,-0.544186,0,0,0,0,0
72313883,0.0134052,-0.0117754,-1.40524,0.0,0.763146,0.00131034,-0.00882431,-0.646164,0.0,0.0,-0.544186,0,0,0,0,0
72418356,0.0153202,-0.0117753,-1.40525,0.0,0.763141,0.00204104,-0.00944298,-0.64616,0.0,0.0,-0.544186,0,0,0,0,0
72512583,0.0210746,-0.0382682,-1.40557,0.0,0.762995,-0.00432695,-0.0214079,-0.646036,0.0,0.0,-0.544186,0,0,0,0,0
72616873,0.0441298,-0.0765174,-1.40685,0.0,0.762433,-0.00792129,-0.0434237,-0.64556,0.0,0.0,-0.544186,0,0,0,0,0
72711335,0.074846,-0.0808826,-1.40819,0.0,0.76202,0.00233969,-0.0549944,-0.64521,0.0,0.0,-0.544186,0,0,0,0,0
72815492,0.0846289,-0.114677,-1.41002,0.0,0.761243,-0.0049398,-0.0709745,-0.644552,0.0,0.0,-0.544186,0,0,0,0,0
72914719,0.0867495,-0.141132,-1.4113,0.0,0.760565,-0.0127592,-0.0816702,-0.643978,0.0,0.0,-0.544186,0,0,0,0,0
73014306,0.0654335,-0.122086,-1.40916,0.0,0.761349,-0.0146174,-0.0676018,-0.644642,0.0,0.0,-0.544186,0,0,0,0,0
73118464,0.0442185,-0.10889,-1.40757,0.0,0.76186,-0.0183761,-0.0557628,-0.645075,0.0,0.0,-0.544186,0,0,0,0,0
73212780,0.0307086,-0.0824171,-1.40643,0.0,0.762439,-0.0149364,-0.0413403,-0.645565,0.0,0.0,-0.542987,0,0,0,0,0
73317125,0.0191602,-0.0412125,-1.40556,0.0,0.76298,-0.00600866,-0.0219123,-0.646023,0.0,0.0,-0.544186,0,0,0,0,0
73411382,0.0134052,-0.0117754,-1.40524,0.0,0.763146,0.00131034,-0.00882431,-0.646164,0.0,0.0,-0.544186,0,0,0,0,0
73515829,0.0134052,-0.0117754,-1.40524,0.0,0.763146,0.00131034,-0.00882431,-0.646164,0.0,0.0,-0.544186,0,0,0,0,0
73614963,0.0153202,-0.0117753,-1.40525,0.0,0.763141,0.00204104,-0.00944298,-0.64616,0.0,0.0,-0.544186,0,0,0,0,0
73714346,0.0210912,-0.0618179,-1.40581,0.0,0.76277,-0.0119345,-0.0303911,-0.645845,0.0,0.0,-0.544186,0,0,0,0,0
73818746,0.023026,-0.0780072,-1.40606,0.0,0.762546,-0.0164328,-0.0371835,-0.645656,0.0,0.0,-0.544186,0,0,0,0,0
73912932,0.046045,-0.0750437,-1.40689,0.0,0.762438,-0.00671539,-0.0434808,-0.645564,0.0,0.0,-0.544186,0,0,0,0,0
74017285,0.0287825,-0.0780034,-1.40629,0.0,0.762518,-0.0142411,-0.0390386,-0.645632,0.0,0.0,-0.544186,0,0,0,0,0
74111587,0.03455,-0.0838853,-1.40661,0.0,0.762392,-0.0139506,-0.0431379,-0.645525,0.0,0.0,-0.542987,0,0,0,0,0
74215897,0.0326279,-0.0824154,-1.40651,0.0,0.762428,-0.0142059,-0.0419586,-0.645555,0.0,0.0,-0.544186,0,0,0,0,0
74315285,0.0287893,-0.0824186,-1.40635,0.0,0.76245,-0.015667,-0.040722,-0.645574,0.0,0.0,-0.544186,0,0,0,0,0
74414493,0.0345288,-0.0721119,-1.40641,0.0,0.762567,-0.010148,-0.038649,-0.645674,0.0,0.0,-0.544186,0,0,0,0,0
