timestamp,roll,pitch,yaw,thrust_body[0],thrust_body[1],thrust_body[2]
21412710,-0.13228,0.043609,-0.00104338,0.0,0.0,-0.0
21417717,-0.132544,0.0438924,-0.00113245,0.0,0.0,-0.0
21437678,-0.13313,0.0439296,-0.000320549,0.0,0.0,-0.0
21457463,-0.132615,0.0428396,-0.000547205,0.0,0.0,-0.0
21472365,-0.131771,0.0430475,-0.00091132,0.0,0.0,-0.0
21497121,-0.132781,0.0439303,-0.000338984,0.0,0.0,-0.0
21516938,-0.131051,0.0436329,-0.000894804,0.0,0.0,-0.0
21531850,-0.13179,0.0448094,-0.000698424,0.0,0.0,-0.0
21551814,-0.132867,0.0429986,-0.00025868,0.0,0.0,-0.0
21576818,-0.130795,0.0432499,-9.86691e-05,0.0,0.0,-0.0
21596534,-0.127002,0.0437718,-0.0018002,0.0,0.0,-0.0
21611366,-0.129781,0.0440864,0.000175923,0.0,0.0,-0.0
21636152,-0.129279,0.0427574,-0.000636756,0.0,0.0,-0.0
21656024,-0.132474,0.0442419,-0.00174603,0.0,0.0,-0.0
21670893,-0.132633,0.0442636,0.000950662,0.0,0.0,-0.0
21695801,-0.130495,0.0432654,-0.000858188,0.0,0.0,-0.0
21715635,-0.128999,0.041889,-0.0027526,0.0,0.0,-0.0
21735519,-0.13146,0.0463764,0.000696628,0.0,0.0,-0.0
21755335,-0.130367,0.0454302,0.000343288,0.0,0.0,-0.0
21775211,-0.128814,0.0390954,-0.00260195,0.0,0.0,-0.0
21795130,-0.130193,0.0436006,-0.000874313,0.0,0.0,-0.0
21814983,-0.132382,0.0498653,0.000998526,0.0,0.0,-0.0
21834920,-0.128721,0.0427796,-0.00162405,0.0,0.0,-0.0
21854886,-0.129062,0.0385808,-0.00237007,0.0,0.0,-0.0
21874577,-0.130551,0.047183,-0.000108422,0.0,0.0,-0.0
21894430,-0.129988,0.0494814,3.27826e-05,0.0,0.0,-0.0
21914306,-0.129436,0.0391696,-0.00121408,0.0,0.0,-0.0
21934245,-0.129896,0.0394524,-0.00139712,0.0,0.0,-0.0
21953994,-0.129538,0.050815,-0.000492178,0.0,0.0,-0.0
21973822,-0.12817,0.0484359,-0.000754311,0.0,0.0,-0.0
21993761,-0.128373,0.0380154,-0.00107689,0.0,0.0,-0.0
22018598,-0.128474,0.0378626,-0.000901132,0.0,0.0,-0.0
22033485,-0.128197,0.0503803,-0.00142323,0.0,0.0,-0.0
22053235,-0.128276,0.0485454,-0.000357784,0.0,0.0,-0.0
22078122,-0.128875,0.0461484,-6.46408e-05,0.0,0.0,-0.0
22093034,-0.128699,0.0401299,-0.00126489,0.0,0.0,-0.0
22113048,-0.126397,0.0466167,-0.00237538,0.0,0.0,-0.0
22132750,-0.128155,0.0484533,-5.84421e-05,0.0,0.0,-0.0
22157701,-0.128104,0.0476492,0.000212526,0.0,0.0,-0.0
22172677,-0.127771,0.0414067,-0.0014059,0.0,0.0,-0.0
22192537,-0.124923,0.0424363,-0.00268992,0.0,0.0,-0.0
22217328,-0.124458,0.0421326,-0.00248302,0.0,0.0,-0.0
22232150,-0.128805,0.0475234,0.000918487,0.0,0.0,-0.0
22252017,-0.127258,0.0435234,-0.00167599,0.0,0.0,-0.0
22276799,-0.126182,0.0422305,-0.00233701,0.0,0.0,-0.0
22296612,-0.125577,0.0399047,-0.0022821,0.0,0.0,-0.0
22311544,-0.126463,0.0488285,0.000766296,0.0,0.0,-0.0
22336394,-0.126449,0.0490031,0.000591864,0.0,0.0,-0.0
22356289,-0.126307,0.0430973,-0.00147462,0.0,0.0,-0.0
22371165,-0.125294,0.0433974,-0.00103012,0.0,0.0,-0.0
22396162,-0.125795,0.0449739,-0.000717476,0.0,0.0,-0.0
22415903,-0.124767,0.0483738,0.000174387,0.0,0.0,-0.0
22435765,-0.124518,0.043547,-0.000799606,0.0,0.0,-0.0
22455633,-0.12708,0.0414889,-0.000998043,0.0,0.0,-0.0
22475418,-0.127147,0.0463528,-0.00128077,0.0,0.0,-0.0
22495285,-0.123319,0.0480198,-0.00133491,0.0,0.0,-0.0
22515075,-0.122232,0.0417988,-0.000280805,0.0,0.0,-0.0
22534999,-0.126521,0.0408351,0.000287398,0.0,0.0,-0.0
22554846,-0.127747,0.0474659,-0.00134527,0.0,0.0,-0.0
22574696,-0.122574,0.0478944,-0.00270669,0.0,0.0,-0.0
22594519,-0.120763,0.0412453,-0.000619593,0.0,0.0,-0.0
22614446,-0.125092,0.0418169,0.00137123,0.0,0.0,-0.0
22634345,-0.127834,0.0477689,-0.000987202,0.0,0.0,-0.0
22654334,-0.123431,0.0465455,-0.00372591,0.0,0.0,-0.0
22674136,-0.120978,0.0412722,-0.00125033,0.0,0.0,-0.0
22694045,-0.123174,0.0411571,0.00180025,0.0,0.0,-0.0
22713836,-0.126192,0.0470557,6.67776e-05,0.0,0.0,-0.0
22733726,-0.125274,0.0472285,-0.00295318,0.0,0.0,-0.0
22753496,-0.122131,0.0429452,-0.00230605,0.0,0.0,-0.0
22773384,-0.122679,0.0433028,0.000376027,0.0,0.0,-0.0
22793230,-0.12391,0.0450254,0.000894886,0.0,0.0,-0.0
22813109,-0.12363,0.0440462,-0.0017095,0.0,0.0,-0.0
22832916,-0.124282,0.0445615,-0.00178955,0.0,0.0,-0.0
22857780,-0.123997,0.0456663,-0.00141717,0.0,0.0,-0.0
22872718,-0.120817,0.0450453,-0.00048397,0.0,0.0,-0.0
22892597,-0.122079,0.0416156,-0.000582966,0.0,0.0,-0.0
22917542,-0.122384,0.0410549,-0.000370416,0.0,0.0,-0.00499388
22932479,-0.136466,0.0494605,-0.00163112,0.0,0.0,-0.00499388
22952273,-0.120129,0.0474143,-0.00177486,0.0,0.0,-0.00624235
22977027,-0.10627,0.0354677,-0.00202477,0.0,0.0,-0.00624235
22997004,-0.108563,0.0281142,0.000799222,0.0,0.0,-0.00624235
23011695,-0.1132,0.0417448,-0.00142293,0.0,0.0,-0.00624235
23036732,-0.112675,0.042732,-0.00182227,0.0,0.0,-0.00624235
23056398,-0.106533,0.0362846,-0.00282132,0.0,0.0,-0.00624235
23071323,-0.10979,0.0310864,0.00156634,0.0,0.0,-0.00624235
23096138,-0.123267,0.031959,0.00155267,0.0,0.0,-0.00624235
23116001,-0.125609,0.0522565,-0.000745606,0.0,0.0,-0.00624235
23135922,-0.120674,0.0397307,-0.00316821,0.0,0.0,-0.00249694
23155779,-0.118289,0.030343,-0.000998501,0.0,0.0,-0.00374541
23175730,-0.120744,0.0291786,0.0011817,0.0,0.0,-0.00873929
23195656,-0.123241,0.0372505,-8.20255e-05,0.0,0.0,-0.0337087
23215444,-0.122025,0.0498878,-0.00264341,0.0,0.0,-0.0511873
23235269,-0.119755,0.0445528,-0.00137536,0.0,0.0,-0.0686658
23255106,-0.120075,0.0399298,0.000664007,0.0,0.0,-0.0686658
23274957,-0.118832,0.0302444,-0.000325171,0.0,0.0,-0.0836475
23294765,-0.120346,0.0347545,-0.0018754,0.0,0.0,-0.107368
23314595,-0.120596,0.03898,-0.000590134,0.0,0.0,-0.173684
23334640,-0.119075,0.0488399,0.000619398,0.0,0.0,-0.173684
23354467,-0.116488,0.0342707,0.00126876,0.0,0.0,-0.177895
23374338,-0.113481,0.029854,0.000892978,0.0,0.0,-0.184211
23394210,-0.111136,0.0388026,-0.00102163,0.0,0.0,-0.206316
23414013,-0.106845,0.0382939,-0.0025366,0.0,0.0,-0.211579
23433922,-0.106636,0.0402798,-0.00262488,0.0,0.0,-0.211579
23453836,-0.112661,0.0410542,-0.00150755,0.0,0.0,-0.211579
23473802,-0.129382,0.048025,-0.00321019,0.0,0.0,-0.212632
23493472,-0.133139,0.0440967,-0.00437751,0.0,0.0,-0.218947
23513282,-0.113496,0.0404934,-0.00316481,0.0,0.0,-0.224211
23533158,-0.115193,0.0448731,-0.00307299,0.0,0.0,-0.232632
23558092,-0.125517,0.0440031,-0.0053398,0.0,0.0,-0.233684
23573036,-0.122206,0.0460044,-0.00560219,0.0,0.0,-0.234737
23592799,-0.123096,0.0471567,-0.00420089,0.0,0.0,-0.234737
23617649,-0.12242,0.049274,-0.00661422,0.0,0.0,-0.234737
23632481,-0.121611,0.0470979,-0.00689189,0.0,0.0,-0.234737
23652349,-0.131953,0.0490005,-0.00455728,0.0,0.0,-0.233684
23677117,-0.119774,0.0459583,-0.00742672,0.0,0.0,-0.232632
23697043,-0.0891437,0.0463266,-0.0082379,0.0,0.0,-0.231579
23711997,-0.0657661,0.0471052,-0.00863057,0.0,0.0,-0.231579
23736910,-0.0973968,0.0456288,-0.00789292,0.0,0.0,-0.230526
23756692,-0.0881053,0.0443992,-0.00914721,0.0,0.0,-0.230526
23771515,-0.0874425,0.0444291,-0.0095437,0.0,0.0,-0.230526
23796500,-0.0463906,0.04071,-0.0100982,0.0,0.0,-0.230526
23816315,-0.0515153,0.0453951,-0.00994693,0.0,0.0,-0.230526
23836183,-0.0439623,0.0410658,-0.00978441,0.0,0.0,-0.230526
23856018,-0.0788772,0.0407605,-0.0113397,0.0,0.0,-0.230526
23875821,-0.0936159,0.0501548,-0.0105058,0.0,0.0,-0.230526
23895668,-0.0898826,0.0387629,-0.011635,0.0,0.0,-0.230526
23915478,-0.10389,0.0412223,-0.0127005,0.0,0.0,-0.230526
23935449,-0.121394,0.0453653,-0.0124846,0.0,0.0,-0.230526
23955254,-0.105975,0.0425162,-0.0129455,0.0,0.0,-0.230526
23975222,-0.105998,0.0440437,-0.0122526,0.0,0.0,-0.230526
23995097,-0.0868289,0.0405183,-0.0124822,0.0,0.0,-0.230526
24014870,-0.0850282,0.0438789,-0.0121601,0.0,0.0,-0.230526
24034830,-0.0623094,0.0771983,-0.0146573,0.0,0.0,-0.230526
24054683,-0.0761174,0.0951966,-0.0145338,0.0,0.0,-0.230526
24074543,-0.0246614,0.103517,-0.0148424,0.0,0.0,-0.230526
24094404,0.0155555,0.1038,-0.0166124,0.0,0.0,-0.230526
24114253,0.0312393,0.121535,-0.0156939,0.0,0.0,-0.230526
24133972,0.0329494,0.115376,-0.016904,0.0,0.0,-0.230526
24153838,0.0440428,0.11414,-0.0161986,0.0,0.0,-0.230526
24173776,0.102377,0.114505,-0.017189,0.0,0.0,-0.230526
24193613,0.0913648,0.123675,-0.0171941,0.0,0.0,-0.230526
24213485,0.107234,0.113793,-0.0183899,0.0,0.0,-0.230526
24233385,0.13046,0.114762,-0.0202958,0.0,0.0,-0.230526
24258249,0.160967,0.10791,-0.0200316,0.0,0.0,-0.230526
24273289,0.11136,0.10958,-0.0204593,0.0,0.0,-0.230526
24293072,0.0614566,0.122206,-0.0214763,0.0,0.0,-0.229474
24317868,-0.0417508,0.106651,-0.0205159,0.0,0.0,-0.230526
24332797,-0.0948481,0.108447,-0.0194247,0.0,0.0,-0.230526
24352601,-0.113943,0.110986,-0.0192371,0.0,0.0,-0.230526
24377366,-0.110436,0.10489,-0.0196352,0.0,0.0,-0.230526
24397216,-0.115215,0.120298,-0.0199454,0.0,0.0,-0.229474
24412065,-0.115086,0.122484,-0.0202127,0.0,0.0,-0.229474
24436914,-0.102203,0.113138,-0.0209611,0.0,0.0,-0.230526
24456765,-0.129363,0.114615,-0.0204893,0.0,0.0,-0.230526
24471773,-0.131195,0.0574337,-0.0210137,0.0,0.0,-0.229474
24496647,-0.115926,0.0361,-0.0218845,0.0,0.0,-0.229474
24516564,-0.131705,0.0509985,-0.0205208,0.0,0.0,-0.229474
24536446,-0.1251,0.0321223,-0.0207588,0.0,0.0,-0.229474
24556221,-0.122573,0.0351312,-0.0198742,0.0,0.0,-0.229474
24576105,-0.120677,0.0331239,-0.0192356,0.0,0.0,-0.229474
24595959,-0.129727,0.0359295,-0.0182481,0.0,0.0,-0.229474
24615846,-0.120937,0.0279335,-0.020446,0.0,0.0,-0.229474
24635613,-0.118035,0.0367665,-0.0202595,0.0,0.0,-0.229474
24655437,-0.128647,0.0400392,-0.0196042,0.0,0.0,-0.229474
24675266,-0.123557,0.0336361,-0.0205892,0.0,0.0,-0.230526
24695128,-0.124101,0.0329974,-0.0186787,0.0,0.0,-0.230526
24715103,-0.118912,0.0275393,-0.0172619,0.0,0.0,-0.229474
24734946,-0.130067,0.0343587,-0.0165015,0.0,0.0,-0.229474
24754792,-0.12427,0.0277712,-0.0180965,0.0,0.0,-0.229474
24774649,-0.116021,0.0310858,-0.0180131,0.0,0.0,-0.230526
24794564,-0.124452,0.0371833,-0.0169813,0.0,0.0,-0.230526
24814592,-0.125128,0.0362345,-0.0165044,0.0,0.0,-0.230526
24834305,-0.125314,0.0332427,-0.0139837,0.0,0.0,-0.232632
24854088,-0.113774,0.0249449,-0.0155002,0.0,0.0,-0.234737
24874181,-0.128706,0.0384116,-0.0147028,0.0,0.0,-0.237895
24893888,-0.128107,0.033417,-0.0158414,0.0,0.0,-0.242105
24913711,-0.120805,0.0329288,-0.0151577,0.0,0.0,-0.250526
24933526,-0.123487,0.0365918,-0.0139271,0.0,0.0,-0.255789
24958386,-0.124815,0.0354646,-0.0120074,0.0,0.0,-0.261053
24973275,-0.129022,0.0343855,-0.0116232,0.0,0.0,-0.261053
24993127,-0.116637,0.0291721,-0.0128273,0.0,0.0,-0.283158
25018037,-0.126979,0.0301459,-0.0128401,0.0,0.0,-0.285263
25032920,-0.124478,0.0323205,-0.0122232,0.0,0.0,-0.292632
25052882,-0.128424,0.0374231,-0.00967452,0.0,0.0,-0.301053
25077698,-0.126684,0.0377942,-0.0118507,0.0,0.0,-0.301053
25097471,-0.121262,0.0311465,-0.0111863,0.0,0.0,-0.303158
25112334,-0.122311,0.0311992,-0.0101497,0.0,0.0,-0.304211
25137222,-0.127046,0.0374644,-0.00917369,0.0,0.0,-0.306316
25157064,-0.121961,0.0286641,-0.00859169,0.0,0.0,-0.306316
25172014,-0.117357,0.0272888,-0.00945017,0.0,0.0,-0.306316
25191792,-0.12531,0.04693,-0.00939233,0.0,0.0,-0.306316
25216593,-0.11853,0.0342258,-0.0103191,0.0,0.0,-0.305263
25236464,-0.123794,0.0380389,-0.00833511,0.0,0.0,-0.306316
25251445,-0.127391,0.0385715,-0.00748463,0.0,0.0,-0.304211
25276342,-0.118538,0.0368496,-0.00564165,0.0,0.0,-0.304211
25296111,-0.127313,0.0333765,-0.00556217,0.0,0.0,-0.304211
25310922,-0.130698,0.031442,-0.0043371,0.0,0.0,-0.304211
25335808,-0.119144,0.0396585,-0.00466986,0.0,0.0,-0.304211
25355842,-0.125262,0.0350855,-0.00411071,0.0,0.0,-0.304211
25375583,-0.117611,0.0289451,-0.00451422,0.0,0.0,-0.304211
25395479,-0.124833,0.0336025,-0.00508484,0.0,0.0,-0.303158
25415337,-0.12026,0.026548,-0.00401538,0.0,0.0,-0.304211
25435179,-0.121728,0.0346172,-0.00390881,0.0,0.0,-0.303158
25455005,-0.113947,0.0390397,-0.00462756,0.0,0.0,-0.303158
25474832,-0.105296,0.0377231,-0.00412372,0.0,0.0,-0.303158
25494753,-0.126079,0.0407937,-0.00368668,0.0,0.0,-0.303158
25514605,-0.124745,0.03192,-0.00157863,0.0,0.0,-0.303158
25534420,-0.116939,0.0273035,-0.00192377,0.0,0.0,-0.303158
25554308,-0.125641,0.0307228,-0.00171427,0.0,0.0,-0.310526
25574162,-0.122842,0.0267686,-0.000726565,0.0,0.0,-0.310526
25594057,-0.121316,0.0320679,0.000101678,0.0,0.0,-0.311579
25614020,-0.126929,0.036173,6.52849e-05,0.0,0.0,-0.311579
25633836,-0.116826,0.0303401,-0.000274034,0.0,0.0,-0.313684
25658749,-0.131583,0.03207,0.000973549,0.0,0.0,-0.321053
25673675,-0.125399,0.0321817,0.00115534,0.0,0.0,-0.323158
25693492,-0.115638,0.0257976,0.00138611,0.0,0.0,-0.331579
25718325,-0.117042,0.0246504,0.000959637,0.0,0.0,-0.333684
25733107,-0.119011,0.0270295,0.00054833,0.0,0.0,-0.334737
25753044,-0.118643,0.0331762,0.000468728,0.0,0.0,-0.334737
25772728,-0.123392,0.0261914,0.00274901,0.0,0.0,-0.335789
25797674,-0.124343,0.0335406,0.00300033,0.0,0.0,-0.336842
25812561,-0.121935,0.0293725,0.00355114,0.0,0.0,-0.337895
25832373,-0.120497,0.0263909,0.00525406,0.0,0.0,-0.338947
25857312,-0.122184,0.0278057,0.00557493,0.0,0.0,-0.34
25872166,-0.119969,0.0270406,0.00652678,0.0,0.0,-0.345263
25892219,-0.11964,0.0278493,0.00542196,0.0,0.0,-0.348421
25916896,-0.113003,0.0259153,0.00458984,0.0,0.0,-0.348421
25936829,-0.122955,0.0346002,0.00351062,0.0,0.0,-0.351579
25951664,-0.122267,0.0327531,0.00543177,0.0,0.0,-0.351579
25976516,-0.119164,0.0307078,0.00512856,0.0,0.0,-0.354737
25996239,-0.121955,0.0265273,0.00772666,0.0,0.0,-0.355789
26011105,-0.118152,0.0244307,0.00740141,0.0,0.0,-0.362105
26036004,-0.117707,0.0276916,0.00848357,0.0,0.0,-0.366316
26055842,-0.112938,0.0263815,0.0112633,0.0,0.0,-0.371579
26075706,-0.109664,0.0306736,0.016155,0.0,0.0,-0.372632
26095535,-0.0835973,0.0285143,0.0177735,0.0,0.0,-0.377895
26115474,-0.0924143,0.031494,0.0179437,0.0,0.0,-0.377895
26135409,-0.0910735,0.0281345,0.0192255,0.0,0.0,-0.377895
26155394,-0.0966783,0.0309903,0.0192986,0.0,0.0,-0.377895
26175077,-0.0939613,0.0179359,0.0217156,0.0,0.0,-0.375789
26195016,-0.0926443,0.0173618,0.0190367,0.0,0.0,-0.374737
26214880,-0.103289,0.0117108,0.0207653,0.0,0.0,-0.373684
26234744,-0.108326,0.0162666,0.0206116,0.0,0.0,-0.372632
26254508,-0.101989,0.0190239,0.0224668,0.0,0.0,-0.372632
26274309,-0.10328,0.0174501,0.0207622,0.0,0.0,-0.372632
26294222,-0.0967728,0.0186488,0.0214378,0.0,0.0,-0.372632
26314031,-0.106499,0.0290198,0.0223823,0.0,0.0,-0.372632
26334059,-0.0996694,0.0187861,0.0237024,0.0,0.0,-0.372632
26353835,-0.114101,0.0234338,0.0257501,0.0,0.0,-0.372632
26373709,-0.104666,0.0148025,0.0271658,0.0,0.0,-0.371579
26393602,-0.112317,0.01938,0.0298481,0.0,0.0,-0.372632
26413488,-0.111258,0.0153404,0.0304962,0.0,0.0,-0.371579
26433506,-0.107384,0.0172145,0.0319241,0.0,0.0,-0.371579
26453228,-0.108819,0.0140582,0.0317503,0.0,0.0,-0.371579
26473161,-0.11003,0.0151692,0.0322973,0.0,0.0,-0.371579
26497865,-0.102873,0.0151029,0.0320406,0.0,0.0,-0.371579
26512825,-0.106181,0.0156379,0.0322928,0.0,0.0,-0.371579
26532559,-0.108977,0.0176111,0.0322875,0.0,0.0,-0.372632
26557602,-0.11357,0.0234951,0.0345096,0.0,0.0,-0.371579
26572475,-0.111537,0.0236052,0.0352208,0.0,0.0,-0.371579
26592261,-0.118647,0.0297668,0.0342854,0.0,0.0,-0.371579
26617106,-0.104328,0.024108,0.0346844,0.0,0.0,-0.371579
26636932,-0.113832,0.0193103,0.0366509,0.0,0.0,-0.371579
26651895,-0.107872,0.012096,0.0379615,0.0,0.0,-0.371579
26676713,-0.103717,0.0102481,0.0392092,0.0,0.0,-0.369474
26696776,-0.0924875,0.00222536,0.0387016,0.0,0.0,-0.366316
26711358,-0.100499,0.00151601,0.0413112,0.0,0.0,-0.366316
26736311,-0.103124,0.00168209,0.0416874,0.0,0.0,-0.377895
26756104,-0.100694,-0.00183027,0.0432934,0.0,0.0,-0.377895
26775968,-0.0975502,0.000803421,0.0398939,0.0,0.0,-0.391579
26795901,-0.0970858,-0.00261701,0.0417631,0.0,0.0,-0.406316
26815672,-0.0993,0.00966867,0.0422201,0.0,0.0,-0.414737
26835498,-0.117399,0.00932589,0.0424557,0.0,0.0,-0.415789
26855370,-0.123775,0.0152543,0.0424231,0.0,0.0,-0.418947
26875342,-0.109202,0.0124505,0.0409717,0.0,0.0,-0.418947
26895157,-0.111016,0.0148955,0.0407451,0.0,0.0,-0.42
26915118,-0.094746,0.00954684,0.0423719,0.0,0.0,-0.42
26934873,-0.106419,0.00151318,0.0445879,0.0,0.0,-0.42
26954737,-0.0945936,-0.00119319,0.0449849,0.0,0.0,-0.42
26974608,-0.0812243,-0.00837783,0.0445584,0.0,0.0,-0.42
26994484,-0.0779109,-0.0147617,0.0436839,0.0,0.0,-0.42
27014335,-0.0823162,-0.0214733,0.0423991,0.0,0.0,-0.424211
27034259,-0.0723012,-0.0234953,0.0373859,0.0,0.0,-0.426316
27054128,-0.06276,-0.0217482,0.0314735,0.0,0.0,-0.428421
27073909,-0.0582704,-0.0211803,0.0265236,0.0,0.0,-0.433684
27093859,-0.0489425,-0.0286703,0.0232291,0.0,0.0,-0.435789
27113646,-0.0629333,-0.0320395,0.0219371,0.0,0.0,-0.435789
27133535,-0.0683261,-0.0337702,0.0222412,0.0,0.0,-0.435789
27153399,-0.0557151,-0.0355984,0.0185941,0.0,0.0,-0.436842
27173135,-0.0593146,-0.0355118,0.0181355,0.0,0.0,-0.437895
27197976,-0.082936,-0.0294188,0.015317,0.0,0.0,-0.437895
27212926,-0.0653391,-0.0256593,0.0106272,0.0,0.0,-0.437895
27232971,-0.0684171,-0.0152378,0.00889231,0.0,0.0,-0.44
27257707,-0.0828452,-0.00685729,0.00687277,0.0,0.0,-0.442105
27272658,-0.090734,-0.00115826,0.00533894,0.0,0.0,-0.442105
27292412,-0.0935819,-0.00107989,0.00496766,0.0,0.0,-0.445263
27317328,-0.0788376,-0.00461883,0.00361985,0.0,0.0,-0.451579
27337134,-0.0697056,-0.0145806,0.00335654,0.0,0.0,-0.456842
27352061,-0.0767531,-0.0190839,0.00480193,0.0,0.0,-0.456842
27376866,-0.0797157,-0.0289295,0.00527532,0.0,0.0,-0.458947
27396657,-0.0760052,-0.0285515,0.00558222,0.0,0.0,-0.458947
27411545,-0.061462,-0.0360448,0.00141782,0.0,0.0,-0.46
27436335,-0.06332,-0.0306523,0.000615627,0.0,0.0,-0.458947
27456322,-0.0606811,-0.0276769,-0.00261603,0.0,0.0,-0.461053
27476207,-0.0552386,-0.0282003,-0.00547952,0.0,0.0,-0.461053
27496190,-0.0463788,-0.0230166,-0.006698,0.0,0.0,-0.461053
27515925,-0.0383685,-0.0219042,-0.00882885,0.0,0.0,-0.461053
27535756,-0.0370856,-0.0292575,-0.0106699,0.0,0.0,-0.461053
27555633,-0.0254678,-0.0323402,-0.0110242,0.0,0.0,-0.461053
27575561,-0.0185362,-0.0304529,-0.0110557,0.0,0.0,-0.461053
27595321,-0.0113438,-0.0311168,-0.0130753,0.0,0.0,-0.462105
27615188,-0.00161644,-0.0379672,-0.0143853,0.0,0.0,-0.462105
27635062,0.00184001,-0.0384177,-0.014808,0.0,0.0,-0.462105
27654833,0.00331469,-0.0424378,-0.0148667,0.0,0.0,-0.462105
27674697,0.0108116,-0.0434498,-0.0180721,0.0,0.0,-0.462105
27694557,0.0127616,-0.0481566,-0.0200889,0.0,0.0,-0.462105
27714590,0.027396,-0.0536678,-0.0190973,0.0,0.0,-0.462105
27734437,0.0417192,-0.0589644,-0.0197121,0.0,0.0,-0.462105
27754377,0.037991,-0.0564011,-0.0193509,0.0,0.0,-0.463158
27774275,0.0284871,-0.0550754,-0.019374,0.0,0.0,-0.463158
27793984,0.0218439,-0.0562347,-0.0196271,0.0,0.0,-0.463158
27813946,0.0192092,-0.0616975,-0.0212805,0.0,0.0,-0.464211
27833767,0.0148903,-0.0609614,-0.0197744,0.0,0.0,-0.466316
27853690,0.00998405,-0.0614409,-0.0192392,0.0,0.0,-0.467368
27873382,0.013887,-0.0651845,-0.0194519,0.0,0.0,-0.467368
27898322,-0.0108881,-0.0662735,-0.0179809,0.0,0.0,-0.469474
27913118,-0.0161795,-0.0683539,-0.0187844,0.0,0.0,-0.469474
27932977,-0.0242128,-0.0760037,-0.0191452,0.0,0.0,-0.469474
27957824,-0.0406734,-0.0795417,-0.0164327,0.0,0.0,-0.470526
27972699,-0.0375447,-0.0804264,-0.01957,0.0,0.0,-0.470526
27992639,-0.0518049,-0.0755132,-0.0199628,0.0,0.0,-0.471579
28017489,-0.0547007,-0.0688272,-0.0281617,0.0,0.0,-0.472632
28037495,-0.0619748,-0.0659406,-0.0331836,0.0,0.0,-0.475789
28052266,-0.0608934,-0.0548346,-0.0355461,0.0,0.0,-0.476842
28077120,-0.064956,-0.04392,-0.0461226,0.0,0.0,-0.477895
28096868,-0.0587383,-0.0415323,-0.0512037,0.0,0.0,-0.48
28111790,-0.0650098,-0.0378834,-0.0557572,0.0,0.0,-0.48
28136619,-0.0799952,-0.0322885,-0.057739,0.0,0.0,-0.482105
28156483,-0.0634281,-0.0323114,-0.0637136,0.0,0.0,-0.482105
28176305,-0.0591739,-0.0366982,-0.0686922,0.0,0.0,-0.482105
28196166,-0.068519,-0.0325831,-0.0718881,0.0,0.0,-0.483158
28216039,-0.0439221,-0.039929,-0.0762084,0.0,0.0,-0.484211
28235896,-0.026228,-0.0435691,-0.080618,0.0,0.0,-0.485263
28250851,-0.0249611,-0.0428678,-0.0813616,0.0,0.0,-0.485263
28275679,-0.0216268,-0.0515698,-0.0855815,0.0,0.0,-0.487368
28295622,-0.0094655,-0.0566873,-0.0881505,0.0,0.0,-0.487368
28315552,0.00304174,-0.062453,-0.0910373,0.0,0.0,-0.487368
28335238,0.0157164,-0.0642222,-0.0937693,0.0,0.0,-0.487368
28355082,0.0274252,-0.0680839,-0.0977154,0.0,0.0,-0.486316
28375007,0.0334628,-0.0707456,-0.0999195,0.0,0.0,-0.487368
28394929,0.0422256,-0.0778253,-0.100767,0.0,0.0,-0.486316
28414749,0.061423,-0.0821345,-0.101607,0.0,0.0,-0.487368
28434607,0.0628537,-0.0772395,-0.103011,0.0,0.0,-0.487368
28454402,0.0547889,-0.0788119,-0.103943,0.0,0.0,-0.487368
28474273,0.0601044,-0.0824936,-0.105875,0.0,0.0,-0.487368
28494221,0.0675973,-0.0851453,-0.107932,0.0,0.0,-0.487368
28514065,0.0667767,-0.0893651,-0.10804,0.0,0.0,-0.487368
28533911,0.0652675,-0.0833137,-0.107129,0.0,0.0,-0.488421
28553757,0.0681775,-0.0940831,-0.107035,0.0,0.0,-0.488421
28573696,0.0819043,-0.0809527,-0.107568,0.0,0.0,-0.491579
28598587,0.102086,-0.0899601,-0.108979,0.0,0.0,-0.492632
28613427,0.0866219,-0.0898348,-0.107947,0.0,0.0,-0.494737
28633280,0.0912293,-0.0823397,-0.110831,0.0,0.0,-0.495789
28658119,0.0755557,-0.0808685,-0.108407,0.0,0.0,-0.495789
28673039,0.0736805,-0.0790113,-0.110668,0.0,0.0,-0.495789
28692805,0.0549894,-0.0783001,-0.108738,0.0,0.0,-0.495789
28717561,0.0428537,-0.062045,-0.109383,0.0,0.0,-0.495789
28737542,0.0382576,-0.0727886,-0.108274,0.0,0.0,-0.495789
28752382,0.0360146,-0.0741491,-0.110262,0.0,0.0,-0.495789
28777241,0.0535948,-0.0721147,-0.114066,0.0,0.0,-0.495789
28797093,0.0638447,-0.0709883,-0.114412,0.0,0.0,-0.494737
28811987,0.0865494,-0.0690939,-0.116002,0.0,0.0,-0.493684
28831933,0.0920713,-0.0668482,-0.115009,0.0,0.0,-0.492632
28856878,0.101944,-0.0727185,-0.117202,0.0,0.0,-0.492632
28876664,0.0838457,-0.0777173,-0.114712,0.0,0.0,-0.491579
28891523,0.0771262,-0.0856953,-0.117905,0.0,0.0,-0.491579
28916337,0.0529284,-0.0944184,-0.112828,0.0,0.0,-0.491579
28936081,0.0556143,-0.0908109,-0.114753,0.0,0.0,-0.491579
28950985,0.0546064,-0.0977911,-0.115557,0.0,0.0,-0.491579
28975775,0.0618625,-0.0936625,-0.121775,0.0,0.0,-0.490526
28995788,0.0681147,-0.0880839,-0.124679,0.0,0.0,-0.490526
29015678,0.0735809,-0.0813448,-0.126027,0.0,0.0,-0.490526
29035547,0.087513,-0.0755879,-0.127084,0.0,0.0,-0.490526
29055393,0.0908896,-0.0766513,-0.129916,0.0,0.0,-0.490526
29075248,0.0869063,-0.0641773,-0.131385,0.0,0.0,-0.494737
29095234,0.0803999,-0.0530603,-0.132427,0.0,0.0,-0.494737
29115066,0.082968,-0.0448936,-0.133499,0.0,0.0,-0.498947
29134761,0.0926954,-0.040966,-0.133365,0.0,0.0,-0.501053
29154622,0.0975387,-0.0446934,-0.133639,0.0,0.0,-0.509474
29174537,0.0903902,-0.0536037,-0.131993,0.0,0.0,-0.512999
29194392,0.0793001,-0.0595612,-0.131139,0.0,0.0,-0.515398
29214231,0.0603386,-0.0635443,-0.128644,0.0,0.0,-0.516597
29234099,0.0517454,-0.0663595,-0.124533,0.0,0.0,-0.516597
29253917,0.0597401,-0.0694845,-0.123498,0.0,0.0,-0.517797
29273791,0.100357,-0.0651395,-0.120586,0.0,0.0,-0.517797
29298690,0.153303,-0.0514437,-0.115166,0.0,0.0,-0.517797
29313573,0.18506,-0.0436262,-0.112163,0.0,0.0,-0.517797
29333440,0.207883,-0.0413943,-0.106798,0.0,0.0,-0.517797
29353242,0.223428,-0.0490601,-0.103106,0.0,0.0,-0.520196
29373141,0.224431,-0.0575389,-0.0997076,0.0,0.0,-0.523794
29393227,0.211463,-0.0683894,-0.0947795,0.0,0.0,-0.526193
29412938,0.193629,-0.0712522,-0.0882008,0.0,0.0,-0.526193
29437725,0.168709,-0.0650766,-0.0810421,0.0,0.0,-0.527393
29452707,0.140339,-0.0558109,-0.073515,0.0,0.0,-0.527393
29472512,0.125736,-0.0434265,-0.0685556,0.0,0.0,-0.527393
29497296,0.132661,-0.025157,-0.0664096,0.0,0.0,-0.5
29512148,0.12695,-0.0129968,-0.0608228,0.0,0.0,-0.5
29532097,0.140944,-0.0144143,-0.055282,0.0,0.0,-0.527393
29556926,0.175429,-0.0151187,-0.0475491,0.0,0.0,-0.527393
29576711,0.206496,-0.018299,-0.0417934,0.0,0.0,-0.527393
29591616,0.225366,-0.0177007,-0.0382747,0.0,0.0,-0.527393
29616413,0.240297,-0.0146391,-0.0298264,0.0,0.0,-0.5
29636340,0.227352,-0.0191995,-0.0234802,0.0,0.0,-0.527393
29651343,0.196414,-0.0233107,-0.0178856,0.0,0.0,-0.527393
29676140,0.159273,-0.0356834,-0.0107358,0.0,0.0,-0.5
29696000,0.119715,-0.0484498,-0.00287824,0.0,0.0,-0.5
29715867,0.0905477,-0.0569602,0.00468363,0.0,0.0,-0.5
29735688,0.0707831,-0.0648239,0.0114714,0.0,0.0,-0.5
29755527,0.0624216,-0.0723544,0.0168265,0.0,0.0,-0.5
29775451,0.0642019,-0.0686684,0.0222913,0.0,0.0,-0.5
29795284,0.0613181,-0.0569662,0.0275481,0.0,0.0,-0.5
29815187,0.057536,-0.0441306,0.03404,0.0,0.0,-0.5
29834950,0.0560439,-0.036424,0.0410763,0.0,0.0,-0.5
29854759,0.0611237,-0.0405253,0.0480034,0.0,0.0,-0.5
29874630,0.0600353,-0.0434999,0.0529504,0.0,0.0,-0.5
29894618,0.0568968,-0.0433191,0.0569458,0.0,0.0,-0.5
29914558,0.0492386,-0.0460432,0.062199,0.0,0.0,-0.5
29934384,0.0334824,-0.0431658,0.0687476,0.0,0.0,-0.5
29954230,0.00921895,-0.0341913,0.0747751,0.0,0.0,-0.5
29974049,-0.0330605,-0.0574457,0.0758153,0.0,0.0,-0.5
29993964,-0.0882357,-0.0762543,0.0691527,0.0,0.0,-0.5
30013710,-0.114762,-0.103846,0.0658319,0.0,0.0,-0.527393
30033691,-0.105851,-0.109721,0.0667427,0.0,0.0,-0.527393
30053450,-0.0777514,-0.0986697,0.0633242,0.0,0.0,-0.527393
30073318,-0.0205836,-0.0871158,0.0652294,0.0,0.0,-0.527393
30093128,0.0178322,-0.0588384,0.067046,0.0,0.0,-0.527393
30112988,0.0514617,-0.0381389,0.0697102,0.0,0.0,-0.527393
30137812,0.0740686,-0.0154536,0.0743486,0.0,0.0,-0.526193
30152824,0.0811495,-0.0110912,0.0760965,0.0,0.0,-0.526193
30172818,0.0789966,-0.00754434,0.0809819,0.0,0.0,-0.526193
30197734,0.0689548,-0.0141792,0.0876118,0.0,0.0,-0.526193
30212501,0.0612328,-0.0205196,0.0917113,0.0,0.0,-0.526193
30232331,0.0486559,-0.0356304,0.0968602,0.0,0.0,-0.527393
30257202,0.0391744,-0.0494362,0.10143,0.0,0.0,-0.527393
30277012,0.0257555,-0.0569026,0.106758,0.0,0.0,-0.527393
30291794,0.019781,-0.055245,0.110263,0.0,0.0,-0.527393
30316594,0.00128559,-0.0343375,0.116138,0.0,0.0,-0.527393
30336531,0.000123968,-0.0200775,0.119798,0.0,0.0,-0.527393
30351464,0.016114,-0.00738699,0.123492,0.0,0.0,-0.501053
30376229,0.0405525,0.019307,0.127224,0.0,0.0,-0.502105
30396113,0.0651671,0.0315519,0.131727,0.0,0.0,-0.502105
30415949,0.0829396,0.0359013,0.134679,0.0,0.0,-0.503158
30435853,0.0955679,0.0334741,0.13672,0.0,0.0,-0.503158
30455859,0.104036,0.0253263,0.13918,0.0,0.0,-0.503158
30475684,0.10118,0.00681614,0.140857,0.0,0.0,-0.504211
30495521,0.0891441,-0.0113147,0.142196,0.0,0.0,-0.504211
30515399,0.0697008,-0.02522,0.144432,0.0,0.0,-0.504211
30535156,0.0456833,-0.0341589,0.147105,0.0,0.0,-0.504211
30554987,0.027584,-0.0391455,0.148153,0.0,0.0,-0.504211
30574870,0.0207801,-0.0393573,0.148098,0.0,0.0,-0.504211
30594752,0.0283778,-0.0417701,0.148658,0.0,0.0,-0.504211
30614701,0.0396776,-0.0449195,0.148884,0.0,0.0,-0.504211
30634500,0.0495036,-0.0498738,0.148956,0.0,0.0,-0.504211
30654378,0.0541485,-0.0481161,0.148215,0.0,0.0,-0.504211
30674204,0.0507557,-0.0469044,0.147243,0.0,0.0,-0.505263
30694062,0.0427399,-0.0489374,0.147176,0.0,0.0,-0.505263
30714050,0.0291244,-0.0500308,0.146137,0.0,0.0,-0.505263
30733990,0.0157049,-0.0473339,0.146473,0.0,0.0,-0.505263
30753741,0.00517794,-0.0373206,0.145604,0.0,0.0,-0.505263
30773524,0.0236148,-0.035512,0.144585,0.0,0.0,-0.504211
30793435,0.0227114,-0.0226408,0.143088,0.0,0.0,-0.504211
30813262,0.0032996,-0.0140384,0.1427,0.0,0.0,-0.504211
30838215,0.0313019,0.000652916,0.140172,0.0,0.0,-0.505263
30853052,0.0269283,0.00796021,0.141064,0.0,0.0,-0.504211
30872868,0.0228581,0.0119035,0.140578,0.0,0.0,-0.504211
30897653,0.0136124,0.0194532,0.138227,0.0,0.0,-0.504211
30912551,-0.011488,0.00386633,0.139421,0.0,0.0,-0.504211
30932485,0.00109441,0.0045066,0.139104,0.0,0.0,-0.504211
30957315,-0.00336911,-0.00349853,0.138302,0.0,0.0,-0.504211
30977264,-0.0229398,-0.0292029,0.137715,0.0,0.0,-0.504211
30992184,-0.0560421,-0.0920265,0.132424,0.0,0.0,-0.504211
31016896,-0.0751172,-0.119909,0.117671,0.0,0.0,-0.504211
31036719,-0.0875446,-0.152312,0.114281,0.0,0.0,-0.504211
31051623,-0.081406,-0.172753,0.110803,0.0,0.0,-0.505263
31076585,-0.0456359,-0.131287,0.10219,0.0,0.0,-0.506316
31096459,-0.0156817,-0.0918575,0.0963347,0.0,0.0,-0.507368
31116229,-0.00551602,-0.0519194,0.0926022,0.0,0.0,-0.507368
31136045,0.00610279,-0.0300589,0.0907562,0.0,0.0,-0.507368
31155950,0.00793036,-0.0157633,0.0896793,0.0,0.0,-0.507368
31175760,0.00583216,-0.0159469,0.0893864,0.0,0.0,-0.507368
31195570,-0.00412486,-0.0170699,0.0868019,0.0,0.0,-0.507368
31215486,-0.0144428,-0.0267661,0.0854818,0.0,0.0,-0.507368
31235345,-0.0182363,-0.0277188,0.0853012,0.0,0.0,-0.507368
31255283,-0.0213495,-0.0221458,0.0849615,0.0,0.0,-0.507368
31275206,-0.0154665,-0.0156026,0.0860235,0.0,0.0,-0.508421
31294941,-0.0106188,-0.00457453,0.0872065,0.0,0.0,-0.508421
31314952,0.00119397,0.0017364,0.0865524,0.0,0.0,-0.508421
31334847,0.0235696,-0.0574857,0.0857133,0.0,0.0,-0.508421
31354635,0.034954,-0.11745,0.0856521,0.0,0.0,-0.508421
31374616,0.0452619,-0.106299,0.0843674,0.0,0.0,-0.508421
31394401,0.0712606,-0.242327,0.0855046,0.0,0.0,-0.507368
31414275,0.105079,-0.402321,0.0858544,0.0,0.0,-0.507368
31434049,0.0920579,-0.382988,0.0849091,0.0,0.0,-0.507368
31453837,0.197479,-0.564268,0.0847726,0.0,0.0,-0.506316
31473660,0.226878,-0.625469,0.085237,0.0,0.0,-0.506316
31493523,0.234604,-0.610254,0.0862863,0.0,0.0,-0.506316
31513564,0.265156,-0.61397,0.0863077,0.0,0.0,-0.506316
31538492,0.229207,-0.545846,0.0884508,0.0,0.0,-0.506316
31553171,0.221702,-0.47915,0.0861971,0.0,0.0,-0.506316
31573084,0.196141,-0.408363,0.0871724,0.0,0.0,-0.505263
31597917,0.172521,-0.31537,0.088616,0.0,0.0,-0.505263
31612810,0.167594,-0.272929,0.0873187,0.0,0.0,-0.505263
31632644,0.162723,-0.199211,0.0854567,0.0,0.0,-0.505263
31657497,0.154964,-0.128405,0.0902825,0.0,0.0,-0.504211
31677448,0.146786,-0.0905107,0.0887189,0.0,0.0,-0.504211
31692273,0.139619,-0.0715845,0.0869678,0.0,0.0,-0.504211
31717090,0.138436,-0.0573729,0.0883712,0.0,0.0,-0.504211
31736955,0.106585,-0.0406043,0.0897068,0.0,0.0,-0.504211
31751824,0.0884454,-0.0356634,0.0918941,0.0,0.0,-0.504211
31776597,0.0796143,-0.0357517,0.0948147,0.0,0.0,-0.504211
31796538,0.031367,0.0104309,0.0966309,0.0,0.0,-0.504211
31816646,-0.00654256,0.0601883,0.0964234,0.0,0.0,-0.504211
31831313,-0.0320062,0.0829953,0.0971848,0.0,0.0,-0.504211
31856178,-0.0308984,0.159756,0.0845032,0.0,0.0,-0.504211
31875995,-0.091662,0.267871,0.0721616,0.0,0.0,-0.504211
31891026,-0.108544,0.330505,0.0631613,0.0,0.0,-0.504211
31915702,-0.0925342,0.41765,0.0522125,0.0,0.0,-0.506316
31935629,-0.111785,0.54928,0.0446371,0.0,0.0,-0.506316
31955465,-0.125419,0.51296,0.0380132,0.0,0.0,-0.506316
31975322,-0.132758,0.518257,0.0328886,0.0,0.0,-0.506316
31995185,-0.125615,0.570601,0.0278836,0.0,0.0,-0.506316
32014949,-0.105931,0.614022,0.0219515,0.0,0.0,-0.507368
32034863,-0.0746619,0.574616,0.0182695,0.0,0.0,-0.507368
32054779,-0.0340288,0.535555,0.0150234,0.0,0.0,-0.507368
32074723,0.0185454,0.467037,0.0144113,0.0,0.0,-0.5106
32094514,0.0666643,0.390265,0.0141273,0.0,0.0,-0.5106
32114397,0.0949881,0.332478,0.0132029,0.0,0.0,-0.5106
32134237,0.0997353,0.273699,0.0129964,0.0,0.0,-0.511799
32154104,0.0927772,0.229731,0.0137757,0.0,0.0,-0.511799
32174086,0.0826616,0.194241,0.0127168,0.0,0.0,-0.511799
32193882,0.0740239,0.172202,0.0126803,0.0,0.0,-0.512999
32213686,0.0461306,0.153394,0.0140133,0.0,0.0,-0.511799
32238558,0.0112383,0.130786,0.017515,0.0,0.0,-0.512999
32253308,0.0146917,0.114374,0.0164847,0.0,0.0,-0.512999
32273206,0.0130887,0.0976423,0.0173713,0.0,0.0,-0.514198
32298012,0.0137839,0.0926547,0.0198571,0.0,0.0,-0.514198
32313035,0.0169283,0.0897039,0.0199334,0.0,0.0,-0.512999
32333020,0.0248308,0.0862884,0.0211214,0.0,0.0,-0.512999
32357761,0.0392449,0.0750379,0.0208364,0.0,0.0,-0.514198
32377529,0.0557942,0.0597283,0.021125,0.0,0.0,-0.514198
32392474,0.058503,0.04573,0.0229122,0.0,0.0,-0.516597
32417279,0.0682112,0.0162039,0.0217615,0.0,0.0,-0.520196
32437242,0.0666256,0.00151998,0.0216402,0.0,0.0,-0.523794
32452061,0.054485,-0.00357606,0.0209556,0.0,0.0,-0.526193
32472009,0.0350173,-0.00438615,0.019162,0.0,0.0,-0.526193
32496747,0.0143407,-0.00019231,0.0170934,0.0,0.0,-0.528592
32516615,0.00111127,0.00268147,0.0154528,0.0,0.0,-0.532191
32531550,-0.0196133,-0.0041841,0.0141022,0.0,0.0,-0.532191
32556410,-0.0184458,-0.023668,0.0139186,0.0,0.0,-0.532191
32576355,-0.0133729,-0.0384427,0.0139996,0.0,0.0,-0.532191
32591146,0.00884911,-0.0462608,0.00787909,0.0,0.0,-0.532191
32616234,-0.00260807,-0.0464228,0.0112521,0.0,0.0,-0.532191
32635743,0.00239579,-0.0403012,0.00911485,0.0,0.0,-0.53339
32655610,0.0160668,-0.0355882,0.00830656,0.0,0.0,-0.532191
32675550,0.0208817,-0.0335723,0.00810789,0.0,0.0,-0.532191
32695429,0.0133883,-0.0319517,0.00929672,0.0,0.0,-0.535789
32715317,-0.0141527,-0.0385643,0.0111886,0.0,0.0,-0.535789
32735188,-0.0343904,-0.0468435,0.0142683,0.0,0.0,-0.535789
32754931,-0.0491669,-0.0582114,0.0172074,0.0,0.0,-0.535789
32774804,-0.0616022,-0.0627816,0.0213196,0.0,0.0,-0.538188
32794761,-0.0669107,-0.0591072,0.024892,0.0,0.0,-0.540587
32814587,-0.0683098,-0.0465599,0.0279171,0.0,0.0,-0.540587
32834385,-0.0654428,-0.0314347,0.0305939,0.0,0.0,-0.540587
32854263,-0.0572539,-0.0213043,0.034357,0.0,0.0,-0.540587
32874228,-0.0559312,-0.0075391,0.0381856,0.0,0.0,-0.541787
32893979,-0.0563915,0.00191756,0.0413418,0.0,0.0,-0.541787
32913964,-0.054303,0.00919375,0.0447639,0.0,0.0,-0.541787
32938771,-0.0253084,0.00840989,0.0456466,0.0,0.0,-0.542987
32953689,-0.0100115,0.00966855,0.0493372,0.0,0.0,-0.542987
32973597,0.0217725,0.00490786,0.050208,0.0,0.0,-0.544186
32993347,0.0410888,-0.00257494,0.052592,0.0,0.0,-0.544186
33013165,0.0514137,-0.00886454,0.0549092,0.0,0.0,-0.544186
33033040,0.0526806,-0.0151247,0.0565189,0.0,0.0,-0.546585
33052912,0.0512026,-0.0236155,0.0587169,0.0,0.0,-0.546585
33077718,0.0427585,-0.0281985,0.0601375,0.0,0.0,-0.547785
33092605,0.0379799,-0.034367,0.0631632,0.0,0.0,-0.547785
33112561,0.0241737,-0.0342875,0.0648712,0.0,0.0,-0.550184
33137380,-0.000371586,-0.0330053,0.0638892,0.0,0.0,-0.550184
33152416,-0.00738798,-0.0335061,0.0651553,0.0,0.0,-0.550184
33172164,-0.00607956,-0.0263712,0.0639915,0.0,0.0,-0.550184
33197013,-0.0117933,-0.0182287,0.0649237,0.0,0.0,-0.550184
33216854,-0.0140393,-0.015392,0.0633831,0.0,0.0,-0.550184
33231765,-0.00729587,-0.0276302,0.0592746,0.0,0.0,-0.550184
33256528,-0.0259385,-0.028737,0.0594985,0.0,0.0,-0.550184
33276403,-0.0246242,-0.0319167,0.057485,0.0,0.0,-0.550184
33291215,-0.0139457,-0.0337726,0.0541036,0.0,0.0,-0.550184
33316083,0.0207222,-0.0242692,0.0542509,0.0,0.0,-0.550184
33335944,0.0295392,-0.0306374,0.0532826,0.0,0.0,-0.548984
33355806,0.0417392,-0.0392455,0.0528503,0.0,0.0,-0.548984
33375680,0.0400112,-0.0525122,0.0525098,0.0,0.0,-0.547785
33395555,0.0353793,-0.0826922,0.0515496,0.0,0.0,-0.547785
33415568,0.0932152,-0.233852,0.0508276,0.0,0.0,-0.546585
33435385,0.161896,-0.325332,0.0489629,0.0,0.0,-0.545386
33455244,0.207192,-0.359368,0.0466539,0.0,0.0,-0.545386
33475108,0.296971,-0.423325,0.0442647,0.0,0.0,-0.544186
33494935,0.385829,-0.469433,0.0417728,0.0,0.0,-0.542987
33514852,0.359807,-0.41682,0.039386,0.0,0.0,-0.542987
33534570,0.384899,-0.393786,0.0370422,0.0,0.0,-0.542987
33554486,0.421953,-0.397651,0.0353433,0.0,0.0,-0.542987
33574317,0.431938,-0.373082,0.0327056,0.0,0.0,-0.542987
33594177,0.40421,-0.341281,0.0305152,0.0,0.0,-0.542987
33614044,0.386944,-0.315414,0.0278833,0.0,0.0,-0.541787
33633951,0.370687,-0.321331,0.0258677,0.0,0.0,-0.541787
33653801,0.32838,-0.290601,0.0238858,0.0,0.0,-0.540587
33673815,0.287155,-0.262112,0.0218648,0.0,0.0,-0.540587
33693744,0.234938,-0.225676,0.0200454,0.0,0.0,-0.540587
33713422,0.189766,-0.224275,0.019127,0.0,0.0,-0.541787
33733376,0.15732,-0.181408,0.0160498,0.0,0.0,-0.541787
33753223,0.149425,-0.143346,0.0129448,0.0,0.0,-0.540587
33778020,0.123281,-0.102233,0.0134319,0.0,0.0,-0.540587
33792856,0.133384,-0.0957014,0.009671,0.0,0.0,-0.541787
33812629,0.119717,-0.0813072,0.00959091,0.0,0.0,-0.540587
33837458,0.103885,-0.0687391,0.00887752,0.0,0.0,-0.541787
33852396,0.115481,-0.0601821,0.00951499,0.0,0.0,-0.541787
33872378,0.113132,-0.0526056,0.00977864,0.0,0.0,-0.541787
33897134,0.10792,-0.0484813,0.00989961,0.0,0.0,-0.541787
33917063,0.106342,-0.0418518,0.0107827,0.0,0.0,-0.541787
33931939,0.094762,-0.0337461,0.0108374,0.0,0.0,-0.541787
33956969,0.0837024,-0.0224069,0.0124092,0.0,0.0,-0.541787
33976671,0.0798727,-0.0231303,0.0128424,0.0,0.0,-0.541787
33991674,0.0657364,-0.0266439,0.0116877,0.0,0.0,-0.541787
34016369,0.0653536,-0.0344964,0.0126728,0.0,0.0,-0.541787
34036219,0.0500589,-0.0311853,0.0115176,0.0,0.0,-0.541787
34055985,0.0417064,-0.0336785,0.00987981,0.0,0.0,-0.541787
34075911,0.0674,-0.0435584,0.0075612,0.0,0.0,-0.541787
34095776,0.0591812,-0.0345675,0.00590992,0.0,0.0,-0.541787
34115671,0.0454186,-0.0267971,0.00509099,0.0,0.0,-0.541787
34135557,0.076802,-0.021885,0.00378377,0.0,0.0,-0.541787
34155371,0.0982641,-0.0136791,0.00196022,0.0,0.0,-0.541787
34175202,0.104136,-0.0104958,-0.000436632,0.0,0.0,-0.541787
34195111,0.0958295,-0.0131686,-0.00163797,0.0,0.0,-0.541787
34214951,0.0621378,0.00116091,-0.00277429,0.0,0.0,-0.541787
34235017,0.0367469,0.0056176,-0.00446777,0.0,0.0,-0.541787
34254698,0.0106359,0.0322863,-0.00651668,0.0,0.0,-0.541787
34274616,-0.0144663,0.0519107,-0.00816868,0.0,0.0,-0.541787
34294430,-0.0285308,0.0516787,-0.00957622,0.0,0.0,-0.541787
34314322,-0.0325294,0.0500477,-0.0105176,0.0,0.0,-0.541787
34334137,-0.0363223,0.0497366,-0.0109066,0.0,0.0,-0.541787
34354058,-0.017281,0.0429442,-0.0114311,0.0,0.0,-0.541787
34373880,0.00408601,0.0209446,-0.01217,0.0,0.0,-0.541787
34393769,-0.000554823,0.00706693,-0.0125295,0.0,0.0,-0.541787
34413672,-0.00919032,0.00345888,-0.013309,0.0,0.0,-0.541787
34433411,-0.0044137,0.0115415,-0.0146097,0.0,0.0,-0.541787
34453287,-0.0408285,0.0346901,-0.0153092,0.0,0.0,-0.541787
34478185,-0.0519952,0.0500298,-0.0143894,0.0,0.0,-0.541787
34493174,-0.0324062,0.0449097,-0.0162407,0.0,0.0,-0.541787
34512884,-0.0440725,0.0503112,-0.0170033,0.0,0.0,-0.541787
34537785,-0.0924236,0.084812,-0.0175922,0.0,0.0,-0.541787
34552720,-0.25736,0.223949,-0.0174815,0.0,0.0,-0.541787
34572609,-0.364586,0.301969,-0.0177877,0.0,0.0,-0.541787
34597423,-0.652617,0.557289,-0.0212214,0.0,0.0,-0.541787
34617257,-0.623505,0.574395,-0.0246646,0.0,0.0,-0.541787
34632078,-0.611548,0.534905,-0.0217585,0.0,0.0,-0.541787
34656919,-0.507329,0.465368,-0.028533,0.0,0.0,-0.541787
34676831,-0.409319,0.388895,-0.0296369,0.0,0.0,-0.541787
34691662,-0.347418,0.330679,-0.0281343,0.0,0.0,-0.541787
34716508,-0.223101,0.225507,-0.0343478,0.0,0.0,-0.541787
34736390,-0.160201,0.152375,-0.035597,0.0,0.0,-0.541787
34756324,-0.109832,0.0918532,-0.0357494,0.0,0.0,-0.541787
34771309,-0.0865424,0.0525085,-0.0373341,0.0,0.0,-0.541787
34796132,-0.0535291,0.0056737,-0.0378401,0.0,0.0,-0.541787
34816004,-0.0377478,-0.0162471,-0.0396825,0.0,0.0,-0.541787
34835843,-0.026681,-0.0258605,-0.0408593,0.0,0.0,-0.541787
34855709,-0.0170668,-0.0300144,-0.0440666,0.0,0.0,-0.541787
34875594,-0.0121514,-0.028906,-0.046076,0.0,0.0,-0.541787
34895351,-0.00695408,-0.0295072,-0.0461231,0.0,0.0,-0.541787
34915117,-0.00116449,-0.0379317,-0.0459316,0.0,0.0,-0.541787
34934940,0.0085606,-0.0476307,-0.0456693,0.0,0.0,-0.541787
34954801,0.0289136,-0.0547166,-0.0462022,0.0,0.0,-0.541787
34974742,0.0366635,-0.0645795,-0.0467589,0.0,0.0,-0.541787
34994588,0.0453044,-0.0840344,-0.0477495,0.0,0.0,-0.541787
35014532,0.0595668,-0.0878112,-0.048251,0.0,0.0,-0.541787
35034495,0.0641134,-0.118076,-0.0484789,0.0,0.0,-0.541787
35054278,0.052835,-0.114513,-0.048423,0.0,0.0,-0.541787
35074086,0.0448983,-0.274722,-0.0480919,0.0,0.0,-0.541787
35094017,0.130277,-0.370502,-0.0477877,0.0,0.0,-0.541787
35113918,0.193861,-0.38517,-0.0480327,0.0,0.0,-0.541787
35133667,0.207532,-0.379834,-0.0477668,0.0,0.0,-0.541787
35153570,0.27748,-0.419489,-0.0469963,0.0,0.0,-0.541787
35178274,0.258006,-0.39584,-0.0489276,0.0,0.0,-0.541787
35193163,0.231871,-0.409162,-0.0468127,0.0,0.0,-0.541787
35213027,0.182389,-0.387153,-0.0465462,0.0,0.0,-0.541787
35238036,0.129389,-0.331904,-0.0441993,0.0,0.0,-0.541787
35252842,0.104779,-0.298566,-0.046427,0.0,0.0,-0.541787
35272710,0.0817659,-0.26915,-0.0464879,0.0,0.0,-0.541787
35297678,0.0603998,-0.224815,-0.04218,0.0,0.0,-0.541787
35317483,0.0447498,-0.1876,-0.0423592,0.0,0.0,-0.541787
35332362,0.0192831,-0.144146,-0.0457969,0.0,0.0,-0.541787
35357163,-0.002141,-0.102114,-0.0424039,0.0,0.0,-0.541787
35377066,-0.0554353,-0.00869912,-0.0427871,0.0,0.0,-0.541787
35391926,-0.0731394,0.116181,-0.0442361,0.0,0.0,-0.541787
35416761,-0.0630192,0.160918,-0.0443053,0.0,0.0,-0.541787
35436641,-0.079103,0.259414,-0.0446963,0.0,0.0,-0.541787
35456473,-0.1609,0.29247,-0.0436331,0.0,0.0,-0.541787
35471444,-0.155397,0.271634,-0.041176,0.0,0.0,-0.541787
35496089,-0.149448,0.251015,-0.0446937,0.0,0.0,-0.541787
35515964,-0.156872,0.295917,-0.0448771,0.0,0.0,-0.541787
35530844,-0.158207,0.294935,-0.0430191,0.0,0.0,-0.541787
35555847,-0.145939,0.227364,-0.0440575,0.0,0.0,-0.541787
35575762,-0.142667,0.193924,-0.0435725,0.0,0.0,-0.541787
35595576,-0.128211,0.153186,-0.0430567,0.0,0.0,-0.541787
35615378,-0.113795,0.115377,-0.0426355,0.0,0.0,-0.541787
35635248,-0.0999103,0.0832508,-0.0432748,0.0,0.0,-0.541787
35655154,-0.0835911,0.0567533,-0.0446069,0.0,0.0,-0.541787
35674995,-0.0670168,0.0380621,-0.0461206,0.0,0.0,-0.541787
35694918,-0.0505624,0.0254898,-0.0475751,0.0,0.0,-0.541787
35714710,-0.0267966,0.0181194,-0.0495477,0.0,0.0,-0.541787
35734517,-0.0207534,0.0146507,-0.051916,0.0,0.0,-0.541787
35754327,0.00144641,-0.0655708,-0.0532574,0.0,0.0,-0.541787
35774201,0.00223801,-0.289044,-0.0520884,0.0,0.0,-0.541787
35794123,-0.00729798,-0.402113,-0.0517346,0.0,0.0,-0.541787
35814033,-0.00106262,-0.513943,-0.0521591,0.0,0.0,-0.541787
35834023,0.00676358,-0.534026,-0.0548953,0.0,0.0,-0.541787
35853737,-0.00449891,-0.493523,-0.0581551,0.0,0.0,-0.541787
35878582,0.071073,-0.551376,-0.0596003,0.0,0.0,-0.541787
35893498,0.06173,-0.499674,-0.0658766,0.0,0.0,-0.541787
35913444,0.0563778,-0.451912,-0.0690648,0.0,0.0,-0.541787
35938252,0.00231744,-0.349218,-0.0677816,0.0,0.0,-0.541787
35953035,-0.0398969,-0.240313,-0.0718224,0.0,0.0,-0.541787
35972884,-0.131451,-0.106433,-0.0709189,0.0,0.0,-0.541787
35992693,-0.203024,0.00191961,-0.0699077,0.0,0.0,-0.541787
36017576,-0.195321,0.215343,-0.0718858,0.0,0.0,-0.541787
36032531,-0.183906,0.218443,-0.0710934,0.0,0.0,-0.541787
36052365,-0.15569,0.386556,-0.0723539,0.0,0.0,-0.541787
36077159,-0.131259,0.488164,-0.0708858,0.0,0.0,-0.541787
36092219,-0.11953,0.502822,-0.0678171,0.0,0.0,-0.541787
36112098,-0.106175,0.434409,-0.0648249,0.0,0.0,-0.541787
36136857,-0.0754451,0.331464,-0.0635153,0.0,0.0,-0.541787
36156708,-0.0539664,0.248897,-0.0603967,0.0,0.0,-0.541787
36171642,-0.0599111,0.192335,-0.053957,0.0,0.0,-0.541787
36196475,-0.0337721,0.113135,-0.0534148,0.0,0.0,-0.541787
36216237,-0.0321932,0.0721205,-0.0484946,0.0,0.0,-0.540587
36231138,-0.0394659,0.0511272,-0.0454036,0.0,0.0,-0.540587
36255880,-0.0463443,0.0331542,-0.0405151,0.0,0.0,-0.539388
36275791,-0.0571106,0.0347287,-0.0376439,0.0,0.0,-0.540587
36295724,-0.0652694,0.0408496,-0.0347061,0.0,0.0,-0.539388
36315569,-0.0651193,0.0427416,-0.0308822,0.0,0.0,-0.532191
36335423,-0.0552933,0.040274,-0.0268069,0.0,0.0,-0.532191
36355323,-0.0424663,0.0342995,-0.0228111,0.0,0.0,-0.530991
36375228,-0.0266607,0.0199598,-0.0186577,0.0,0.0,-0.532191
36395035,-0.0106991,-0.00566083,-0.0143573,0.0,0.0,-0.532191
36414942,0.0038491,-0.0111992,-0.00990352,0.0,0.0,-0.532191
36434887,0.0144512,-0.0173387,-0.00647567,0.0,0.0,-0.532191
36454666,0.0313577,-0.0301489,-0.00397293,0.0,0.0,-0.532191
36474515,0.0479263,-0.0326527,9.20882e-05,0.0,0.0,-0.530991
36494294,0.051937,-0.0479815,0.00447117,0.0,0.0,-0.529792
36514127,0.0530769,-0.0703559,0.00836684,0.0,0.0,-0.528592
36534078,0.0498437,-0.0671819,0.0124412,0.0,0.0,-0.528592
36553951,0.0439839,-0.0914442,0.0172508,0.0,0.0,-0.524994
36573810,0.0460056,-0.141314,0.0213538,0.0,0.0,-0.504211
36593653,0.026001,-0.164669,0.023625,0.0,0.0,-0.503158
36613535,0.0123717,-0.159686,0.0266713,0.0,0.0,-0.503158
36633459,0.00134897,-0.169547,0.030145,0.0,0.0,-0.502105
36653436,-0.0130564,-0.166527,0.0334709,0.0,0.0,-0.501053
36673274,-0.0265524,-0.144954,0.0378368,0.0,0.0,-0.501053
36692988,-0.0284152,-0.104937,0.0396343,0.0,0.0,-0.502105
36717868,-0.0341335,-0.0818993,0.0467273,0.0,0.0,-0.502105
36732702,-0.0160134,-0.0288377,0.0459938,0.0,0.0,-0.5
36752556,-0.00292175,0.0132512,0.049896,0.0,0.0,-0.526193
36777403,0.00255881,0.0267679,0.0539296,0.0,0.0,-0.526193
36792306,0.0110881,0.0427091,0.0572841,0.0,0.0,-0.526193
36812185,0.0156299,0.0422985,0.0605014,0.0,0.0,-0.526193
36837063,0.03652,0.0458893,0.0626753,0.0,0.0,-0.526193
36856836,0.0311566,0.0408745,0.0647263,0.0,0.0,-0.526193
36871668,0.0249131,0.0147067,0.0665861,0.0,0.0,-0.520196
36896626,0.0207338,-0.0271248,0.0692416,0.0,0.0,-0.511799
36916542,0.0146344,-0.0432476,0.0707111,0.0,0.0,-0.5106
36931410,0.0255715,-0.0642705,0.0694531,0.0,0.0,-0.5106
36956234,0.0229242,-0.076057,0.0738068,0.0,0.0,-0.515398
36976104,0.0235775,-0.0919473,0.0730558,0.0,0.0,-0.516597
36995977,0.0276285,-0.161977,0.0723619,0.0,0.0,-0.520196
37015746,0.044507,-0.349048,0.0716062,0.0,0.0,-0.526193
37035648,0.0364362,-0.336771,0.0718859,0.0,0.0,-0.526193
37055408,0.0586252,-0.369046,0.0742353,0.0,0.0,-0.526193
37075293,0.11448,-0.386755,0.0728688,0.0,0.0,-0.527393
37095215,0.101526,-0.376139,0.0714248,0.0,0.0,-0.527393
37115088,0.0881948,-0.327761,0.0705694,0.0,0.0,-0.527393
37134954,0.0858743,-0.268932,0.0686945,0.0,0.0,-0.501053
37154841,0.0667236,-0.230001,0.0675207,0.0,0.0,-0.502105
37174763,0.0541583,-0.195702,0.0665746,0.0,0.0,-0.502105
37194718,0.0585602,-0.15195,0.0646208,0.0,0.0,-0.502105
37214489,0.0528987,-0.126506,0.0630346,0.0,0.0,-0.502105
37234257,0.129928,-0.118108,0.0607844,0.0,0.0,-0.5
37254120,0.157044,-0.121181,0.0600473,0.0,0.0,-0.526193
37274054,0.138657,-0.121226,0.0613981,0.0,0.0,-0.526193
37293949,0.0977578,-0.0832859,0.0627588,0.0,0.0,-0.526193
37313683,0.0510257,-0.0571242,0.0622719,0.0,0.0,-0.526193
37333644,-0.0588644,-0.030231,0.062334,0.0,0.0,-0.526193
37353404,-0.116571,0.0354476,0.061686,0.0,0.0,-0.526193
37373267,-0.151781,0.0735228,0.061142,0.0,0.0,-0.526193
37393138,-0.153773,0.0799132,0.0599994,0.0,0.0,-0.526193
37418028,-0.15765,0.204826,0.0585247,0.0,0.0,-0.526193
37432961,-0.145143,0.201927,0.0572885,0.0,0.0,-0.526193
37452905,-0.115049,0.181569,0.055087,0.0,0.0,-0.526193
37477569,-0.084841,0.147716,0.0569941,0.0,0.0,-0.526193
37492476,-0.0580527,0.146643,0.0532546,0.0,0.0,-0.526193
37512382,-0.0562015,0.230716,0.052329,0.0,0.0,-0.526193
37537240,-0.0554552,0.411512,0.0530485,0.0,0.0,-0.527393
37557186,-0.0419041,0.383809,0.0519212,0.0,0.0,-0.527393
37571985,-0.0639406,0.440721,0.0527072,0.0,0.0,-0.503158
37596743,-0.0731557,0.402462,0.0493365,0.0,0.0,-0.504211
37616604,-0.082929,0.353504,0.0488896,0.0,0.0,-0.503158
37631527,-0.0978116,0.317057,0.0507643,0.0,0.0,-0.503158
37656405,-0.0906502,0.250553,0.0490513,0.0,0.0,-0.503158
37676274,-0.0890422,0.199762,0.0492606,0.0,0.0,-0.503158
37696119,-0.0846141,0.159541,0.0496688,0.0,0.0,-0.503158
37716032,-0.0708294,0.115828,0.0504802,0.0,0.0,-0.503158
37736021,-0.0598371,0.0941732,0.0527973,0.0,0.0,-0.503158
37755660,-0.0506418,0.0825845,0.0518124,0.0,0.0,-0.503158
37775586,-0.0398697,0.0707961,0.0515879,0.0,0.0,-0.504211
37795503,-0.0313555,0.0682268,0.0506675,0.0,0.0,-0.504211
37815356,-0.0238338,0.0619906,0.0496144,0.0,0.0,-0.504211
37835170,0.00536235,0.0522937,0.0474143,0.0,0.0,-0.504211
37854968,0.00908773,0.0389189,0.0444873,0.0,0.0,-0.504211
37874846,0.0363981,0.0231121,0.0430551,0.0,0.0,-0.504211
37894773,0.0377187,0.0108458,0.0410027,0.0,0.0,-0.504211
37914695,0.0388388,-0.00540456,0.0407265,0.0,0.0,-0.504211
37934434,0.0379475,-0.0192634,0.0419272,0.0,0.0,-0.504211
37954301,0.0204198,-0.0288826,0.0405916,0.0,0.0,-0.503158
37974217,0.0259126,-0.0376534,0.0386979,0.0,0.0,-0.502105
37994118,0.0265367,-0.0382443,0.0362562,0.0,0.0,-0.502105
38013971,0.0210874,-0.0400603,0.0325392,0.0,0.0,-0.502105
38033900,0.0192636,-0.036613,0.0289419,0.0,0.0,-0.501053
38053865,0.0118396,-0.0272402,0.0234567,0.0,0.0,-0.5
38073723,0.00664498,-0.0240525,0.0215792,0.0,0.0,-0.527393
38093522,-0.00107045,-0.0178533,0.019686,0.0,0.0,-0.526193
38118221,-0.0210182,-0.0157838,0.0155122,0.0,0.0,-0.526193
38133081,-0.0161042,-0.206117,0.0166156,0.0,0.0,-0.5
38152942,-0.0146871,-0.293729,0.0130918,0.0,0.0,-0.5
38177760,0.0120824,-0.415646,0.00558024,0.0,0.0,-0.5
38192655,0.00493134,-0.407169,0.00566544,0.0,0.0,-0.5
38212486,0.0290047,-0.569349,0.00206093,0.0,0.0,-0.5
38237404,0.0406042,-0.605498,-0.000905309,0.0,0.0,-0.5
38257407,0.133788,-0.761578,-0.00294912,0.0,0.0,-0.501053
38272425,0.11029,-0.774002,-0.00519863,0.0,0.0,-0.501053
38297023,0.0933371,-0.676517,-0.00847092,0.0,0.0,-0.501053
38316982,0.0394943,-0.571222,-0.0108361,0.0,0.0,-0.502105
38331784,0.00628755,-0.467233,-0.0147243,0.0,0.0,-0.504211
38356533,-0.0836579,-0.285448,-0.0160926,0.0,0.0,-0.506316
38376402,-0.152849,-0.10844,-0.0179192,0.0,0.0,-0.508421
38396291,-0.157443,-0.0537999,-0.0189969,0.0,0.0,-0.508421
38416139,-0.15881,0.0116086,-0.0214577,0.0,0.0,-0.508421
38435992,-0.153125,0.0796608,-0.0229662,0.0,0.0,-0.5106
38455831,-0.14936,0.124841,-0.0251263,0.0,0.0,-0.5106
38470703,-0.14294,0.149007,-0.0228392,0.0,0.0,-0.509474
38495672,-0.0960851,0.165285,-0.0256695,0.0,0.0,-0.5106
38515562,-0.0814026,0.228154,-0.0255184,0.0,0.0,-0.5106
38535508,-0.0715046,0.269477,-0.024795,0.0,0.0,-0.511799
38555245,-0.0624401,0.349565,-0.0251132,0.0,0.0,-0.511799
38575145,-0.0621317,0.569623,-0.0267226,0.0,0.0,-0.517797
38595011,-0.0461366,0.530158,-0.026636,0.0,0.0,-0.517797
38614874,-0.0454121,0.514931,-0.0268015,0.0,0.0,-0.523794
38634835,-0.0341755,0.446392,-0.0258634,0.0,0.0,-0.547785
38654464,-0.0226789,0.375262,-0.0233288,0.0,0.0,-0.556181
38674334,-0.0234153,0.302067,-0.0213741,0.0,0.0,-0.556181
38694177,-0.0393208,0.233878,-0.0193864,0.0,0.0,-0.554982
38714165,-0.0656139,0.182312,-0.0167305,0.0,0.0,-0.556181
38734004,-0.0916231,0.139076,-0.0142086,0.0,0.0,-0.556181
38753854,-0.103811,0.109311,-0.0118382,0.0,0.0,-0.556181
38773738,-0.097776,0.092123,-0.00959544,0.0,0.0,-0.556181
38793640,-0.0759592,0.0796764,-0.00746356,0.0,0.0,-0.557381
38818485,-0.0572724,0.0672523,-0.00489675,0.0,0.0,-0.557381
38833396,-0.0313956,0.0567693,-0.00175624,0.0,0.0,-0.55978
38853303,0.000831665,0.0410667,-0.000129192,0.0,0.0,-0.55978
38878091,0.0414161,0.0113127,0.00183412,0.0,0.0,-0.55978
38892838,0.0667621,-0.212288,0.00416508,0.0,0.0,-0.55978
38912709,0.0592673,-0.229472,0.006688,0.0,0.0,-0.55978
38937509,0.0212191,-0.439941,0.0107044,0.0,0.0,-0.55978
38957487,0.0044127,-0.46577,0.0137292,0.0,0.0,-0.55978
38972359,-0.0148231,-0.43636,0.0137482,0.0,0.0,-0.55978
38997198,-0.0427448,-0.452744,0.0160925,0.0,0.0,-0.55978
39017011,-0.0471202,-0.380728,0.0170483,0.0,0.0,-0.55978
39032011,-0.0546888,-0.331799,0.0188055,0.0,0.0,-0.55978
39051821,-0.0477747,-0.247271,0.0187746,0.0,0.0,-0.55978
39076859,-0.0289896,-0.172751,0.020464,0.0,0.0,-0.55858
39096483,-0.0370283,-0.11151,0.022128,0.0,0.0,-0.557381
39111392,-0.0500286,-0.0729783,0.020887,0.0,0.0,-0.557381
39136269,-0.0510804,0.052382,0.0245042,0.0,0.0,-0.55858
39156137,-0.0526486,0.206356,0.0246346,0.0,0.0,-0.557381
39170990,-0.047472,0.200152,0.0229579,0.0,0.0,-0.557381
39195868,-0.0472794,0.269017,0.0260823,0.0,0.0,-0.557381
39215702,-0.0514998,0.423757,0.0263973,0.0,0.0,-0.557381
39235577,-0.0540243,0.376195,0.028245,0.0,0.0,-0.557381
39255550,-0.0459944,0.333621,0.0297282,0.0,0.0,-0.556181
39275368,-0.0265334,0.276817,0.0315039,0.0,0.0,-0.553782
39295161,-0.0337238,0.220089,0.0335548,0.0,0.0,-0.548984
39315078,-0.0162612,0.167256,0.0349462,0.0,0.0,-0.545386
39334912,-0.0108522,0.125824,0.0358818,0.0,0.0,-0.544186
39354744,-0.00593869,0.0961049,0.0358853,0.0,0.0,-0.545386
39374613,0.00540022,0.0762889,0.0349402,0.0,0.0,-0.545386
39394502,0.0205741,0.0652595,0.0341091,0.0,0.0,-0.547785
39414369,0.0283184,0.0658208,0.0333082,0.0,0.0,-0.548984
39434334,0.0248797,0.0594188,0.0330958,0.0,0.0,-0.55858
39454098,0.0282105,0.0623581,0.0332602,0.0,0.0,-0.55978
39473977,0.0192966,0.0221308,0.0336778,0.0,0.0,-0.55858
39493825,0.0233444,-0.275335,0.0347277,0.0,0.0,-0.55978
39518667,0.0140488,-0.374171,0.0327613,0.0,0.0,-0.55978
39533542,0.00757853,-0.481329,0.0349512,0.0,0.0,-0.55978
39553344,0.00453954,-0.456161,0.0340183,0.0,0.0,-0.55978
39573232,0.00944575,-0.429113,0.0329009,0.0,0.0,-0.55858
39593087,0.0118999,-0.365452,0.0311738,0.0,0.0,-0.55858
39613153,0.0153587,-0.298249,0.0309452,0.0,0.0,-0.55858
39632801,0.000146295,-0.235778,0.0305767,0.0,0.0,-0.55858
39657679,-0.0102646,-0.161297,0.030127,0.0,0.0,-0.557381
39672668,-0.0133081,-0.100417,0.0289582,0.0,0.0,-0.551383
39692538,-0.0202976,-0.0752899,0.0289082,0.0,0.0,-0.551383
39717303,-0.0312864,0.128708,0.0278529,0.0,0.0,-0.547785
39732199,-0.036663,0.129931,0.0279998,0.0,0.0,-0.547785
39752044,-0.040217,0.335756,0.0264491,0.0,0.0,-0.547785
39776749,-0.0651328,0.446889,0.0263371,0.0,0.0,-0.545386
39796671,-0.0585613,0.401431,0.0253859,0.0,0.0,-0.544186
39811571,-0.053433,0.37056,0.0260596,0.0,0.0,-0.541787
39836457,-0.0423516,0.289457,0.0242298,0.0,0.0,-0.540587
39856347,-0.0326562,0.229997,0.0238782,0.0,0.0,-0.540587
39871339,-0.041973,0.193126,0.0266657,0.0,0.0,-0.540587
39896041,-0.0352803,0.141362,0.0232735,0.0,0.0,-0.539388
39915904,-0.036674,0.11618,0.0234927,0.0,0.0,-0.540587
39935822,-0.0214693,0.0953031,0.0233451,0.0,0.0,-0.541787
39955693,-0.0159904,0.0874048,0.0218777,0.0,0.0,-0.541787
39975608,-0.00914079,0.084143,0.0209689,0.0,0.0,-0.544186
39995333,0.00788598,0.080353,0.0203693,0.0,0.0,-0.545386
40015122,0.0211766,0.0182397,0.0201182,0.0,0.0,-0.546585
40034979,0.0325321,-0.19069,0.0205853,0.0,0.0,-0.546585
40054959,0.0264333,-0.351958,0.0214097,0.0,0.0,-0.546585
40074783,0.0800837,-0.500011,0.022318,0.0,0.0,-0.546585
40094723,0.119375,-0.54128,0.0217125,0.0,0.0,-0.546585
40114576,0.109042,-0.517106,0.0203052,0.0,0.0,-0.546585
40134459,0.0966658,-0.451536,0.0191304,0.0,0.0,-0.546585
40154477,0.0843175,-0.409242,0.0172458,0.0,0.0,-0.546585
40174174,0.0590063,-0.346525,0.0173417,0.0,0.0,-0.545386
40194004,0.0361983,-0.269901,0.0169442,0.0,0.0,-0.545386
40213855,-0.000578642,-0.208444,0.0165998,0.0,0.0,-0.545386
40233813,-0.0794254,-0.135455,0.0172549,0.0,0.0,-0.544186
40253574,-0.114009,-0.087351,0.0176862,0.0,0.0,-0.542987
40273495,-0.105973,-0.00145923,0.0166335,0.0,0.0,-0.540587
40293269,-0.0881575,0.0865007,0.0153523,0.0,0.0,-0.536989
40313191,-0.0669022,0.091333,0.0146722,0.0,0.0,-0.536989
40333063,-0.0488626,0.141776,0.0141274,0.0,0.0,-0.535789
40357813,-0.0428804,0.262425,0.0137916,0.0,0.0,-0.526193
40372666,-0.039304,0.465403,0.0134024,0.0,0.0,-0.516597
40392574,-0.0443881,0.538747,0.0129601,0.0,0.0,-0.514198
40417574,-0.0455125,0.465758,0.0146554,0.0,0.0,-0.515398
40432380,-0.040168,0.425605,0.0137025,0.0,0.0,-0.514198
40452469,-0.0216297,0.344212,0.0138422,0.0,0.0,-0.508421
40477236,-0.0190413,0.268821,0.0168315,0.0,0.0,-0.504211
40497111,-0.014383,0.204855,0.0168297,0.0,0.0,-0.527393
40511888,-0.0130784,0.162908,0.0184556,0.0,0.0,-0.527393
40536864,-0.00649382,0.115886,0.0174101,0.0,0.0,-0.526193
40556579,-0.00626723,0.0968983,0.0180442,0.0,0.0,-0.526193
40571360,-0.00466996,0.0906697,0.0200149,0.0,0.0,-0.526193
40596187,0.00684947,0.0784677,0.0203626,0.0,0.0,-0.527393
40616002,0.0203452,0.0833475,0.0214093,0.0,0.0,-0.526193
40635953,0.0346379,0.0852323,0.0242735,0.0,0.0,-0.526193
40655843,0.0395191,-0.017688,0.0259096,0.0,0.0,-0.527393
40675861,0.0371024,-0.123815,0.026514,0.0,0.0,-0.501053
40695708,0.0448588,-0.192498,0.0288538,0.0,0.0,-0.501053
40715429,0.110753,-0.30778,0.0312091,0.0,0.0,-0.501053
40735338,0.148138,-0.351767,0.0342104,0.0,0.0,-0.501053
40755216,0.136863,-0.32284,0.0361736,0.0,0.0,-0.501053
40775087,0.125303,-0.344033,0.0373047,0.0,0.0,-0.501053
40794838,0.101273,-0.315318,0.0391674,0.0,0.0,-0.502105
40814646,0.090805,-0.265966,0.0429332,0.0,0.0,-0.502105
40834512,0.0301981,-0.208382,0.0458385,0.0,0.0,-0.502105
40854489,-0.0607715,-0.0882397,0.0506625,0.0,0.0,-0.501053
40874314,-0.0756029,-0.0352326,0.0527807,0.0,0.0,-0.501053
40894143,-0.0871207,0.115008,0.0573388,0.0,0.0,-0.502105
40914026,-0.0695518,0.229826,0.0601765,0.0,0.0,-0.502105
40933976,-0.0470265,0.236253,0.0634771,0.0,0.0,-0.502105
40953879,-0.0295839,0.298739,0.0656738,0.0,0.0,-0.502105
40973708,-0.0238698,0.4745,0.0693065,0.0,0.0,-0.502105
40993623,-0.0465851,0.460802,0.074406,0.0,0.0,-0.502105
41013449,-0.0525114,0.408368,0.0777233,0.0,0.0,-0.502105
41033332,-0.0623231,0.34935,0.0810866,0.0,0.0,-0.503158
41058015,-0.093619,0.271822,0.0858019,0.0,0.0,-0.503158
41072878,-0.0961812,0.231241,0.0891741,0.0,0.0,-0.503158
41092745,-0.10587,0.181126,0.0911772,0.0,0.0,-0.502105
41117641,-0.109156,0.136704,0.0946142,0.0,0.0,-0.502105
41132517,-0.11123,0.116321,0.0971813,0.0,0.0,-0.502105
41152428,-0.0921277,0.10188,0.0960468,0.0,0.0,-0.502105
41177206,-0.0712014,0.0857003,0.0975037,0.0,0.0,-0.502105
41197095,-0.0473882,0.024734,0.0972236,0.0,0.0,-0.502105
41212182,-0.0417299,-0.0593237,0.0970239,0.0,0.0,-0.502105
41236918,0.0055566,-0.249677,0.0973427,0.0,0.0,-0.502105
41256795,0.0421457,-0.281328,0.0955195,0.0,0.0,-0.502105
41271676,0.147385,-0.328716,0.0968825,0.0,0.0,-0.502105
41296415,0.306878,-0.40458,0.0930929,0.0,0.0,-0.503158
41316245,0.450849,-0.415898,0.0895926,0.0,0.0,-0.503158
41336110,0.420543,-0.367721,0.0889582,0.0,0.0,-0.503158
41355995,0.454173,-0.323441,0.0843481,0.0,0.0,-0.503158
41375857,0.477787,-0.297705,0.083106,0.0,0.0,-0.503158
41395807,0.42922,-0.246028,0.0784592,0.0,0.0,-0.503158
41415571,0.327836,-0.176467,0.0761396,0.0,0.0,-0.503158
41435490,0.187719,-0.0666209,0.0741909,0.0,0.0,-0.503158
41455308,-0.0277328,0.0475003,0.0749742,0.0,0.0,-0.502105
41475319,-0.124026,0.107842,0.0716664,0.0,0.0,-0.502105
41495228,-0.257149,0.154392,0.0700657,0.0,0.0,-0.502105
41515011,-0.243301,0.147963,0.067918,0.0,0.0,-0.502105
41534799,-0.363337,0.215502,0.0666036,0.0,0.0,-0.503158
41554639,-0.420219,0.261044,0.0632226,0.0,0.0,-0.503158
41574561,-0.445111,0.46242,0.0580894,0.0,0.0,-0.503158
41594380,-0.390174,0.429248,0.0547483,0.0,0.0,-0.504211
41614455,-0.325584,0.357233,0.0530716,0.0,0.0,-0.508421
41634205,-0.243684,0.287229,0.0506585,0.0,0.0,-0.520196
41654037,-0.171524,0.21861,0.0457026,0.0,0.0,-0.536989
41673862,-0.106909,0.163206,0.0418335,0.0,0.0,-0.553782
41693745,-0.0621597,0.112993,0.0378064,0.0,0.0,-0.553782
41713601,-0.0483365,0.0669449,0.0338903,0.0,0.0,-0.554982
41733515,-0.0326091,0.0604364,0.0302832,0.0,0.0,-0.553782
41758401,-0.0502702,0.0478386,0.027384,0.0,0.0,-0.548984
41773239,-0.0475232,0.0474492,0.0234369,0.0,0.0,-0.547785
41793089,-0.0466822,0.0513299,0.0199664,0.0,0.0,-0.546585
41817841,-0.0523259,0.0559046,0.0176079,0.0,0.0,-0.546585
41832792,-0.0396044,0.0535474,0.0133438,0.0,0.0,-0.545386
41852697,-0.0348141,0.0495867,0.0111457,0.0,0.0,-0.53339
41877494,-0.0332896,0.0428396,0.00742605,0.0,0.0,-0.530991
41897365,-0.0314587,0.0380344,0.00433486,0.0,0.0,-0.530991
41912167,-0.0338281,0.0355413,0.00312446,0.0,0.0,-0.53339
41937025,-0.0332856,0.0310924,0.000249265,0.0,0.0,-0.53459
