timestamp,timestamp_sample,hover_thrust,hover_thrust_var,accel_innov,accel_innov_var,accel_innov_test_ratio,accel_noise_var,valid
79059869,79058526,0.5541147,0.0007581362,-1.2727396,4.5564938,0.039500795,4.346938,0
79079547,79078353,0.55785036,0.00073011214,-1.4991269,4.5138173,0.055321038,4.3204455,0
79159512,79157823,0.5604303,0.00063613994,-2.3581612,4.3668356,0.14149387,4.22123,0
79258390,79257160,0.5670272,0.00054040016,-1.9343014,4.247577,0.09787336,4.0973268,0
79357894,79356496,0.56770563,0.00046133494,-0.42409563,4.0835013,0.0048938696,3.9189396,0
79457099,79455878,0.5804706,0.00039802073,-0.6830882,3.941815,0.013152697,3.7975154,0
79561545,79560138,0.58170855,0.00034745387,-0.30845913,3.7486777,0.002820166,3.614268,0
79660701,79659475,0.58167523,0.00030484112,0.41341925,3.5707943,0.0053183143,3.4514742,0
79760387,79758894,0.570792,0.00026834657,1.2736651,3.532395,0.051026843,3.4290044,0
79854998,79853182,0.57016516,0.00023789975,0.15260106,3.3958545,0.0007619448,3.2880888,0
79964074,79962463,0.56179833,0.00021374502,1.2238503,3.30384,0.05037268,3.2175171,0
80063065,80061789,0.5552133,0.00019308024,0.89461946,3.2097547,0.027705267,3.1212056,0
80162721,80161156,0.55091363,0.00017506635,0.86361074,3.075967,0.026940886,2.9920201,0
80261561,80260463,0.54748154,0.00015920092,0.35384738,2.943477,0.004726382,2.86091,0
80355978,80354833,0.55024123,0.00014532758,-1.3770545,2.8486204,0.073964804,2.7946627,0
80455801,80454171,0.553848,0.00013389828,-0.15950403,2.7780037,0.0010175786,2.7083328,0
80554960,80553587,0.55403006,0.00012390225,-0.17241022,2.647746,0.001247404,2.5825787,0
80664080,80662779,0.5531475,0.00011494641,0.6114522,2.5153482,0.016515223,2.4565177,0
80763827,80762115,0.54835516,0.000106744184,1.0947673,2.4400678,0.054575697,2.3887687,0
80862677,80861452,0.5440804,9.922123e-05,1.1770717,2.3579245,0.06528801,2.3090231,0
80962177,80960789,0.54032344,9.2284296e-05,0.7059827,2.273539,0.024358088,2.2202866,0
81061505,81060127,0.5373473,8.585404e-05,0.86646116,2.1728702,0.038390335,2.1231546,0
81160859,81159462,0.5344072,7.9910766e-05,0.32057118,2.082382,0.0054833507,2.0328515,0
81260163,81258799,0.5325137,7.444225e-05,0.83650506,1.9854534,0.0391593,1.9400498,0
81359537,81358227,0.530157,6.937891e-05,0.5496844,1.89488,0.017717505,1.850258,0
81463819,81462441,0.53479916,6.48405e-05,-2.047267,1.9226686,0.24221553,1.9312712,0
81562956,81561777,0.54048467,6.121953e-05,-1.907839,2.0379245,0.19845079,2.0337873,0
81662702,81661305,0.5447123,5.8190944e-05,-1.4391168,2.0699675,0.111169614,2.0474503,0
81761671,81760454,0.5483173,5.5546418e-05,-1.0604382,2.0589042,0.060686495,2.0273108,0
81861166,81859806,0.54990107,5.3119802e-05,-0.45693842,1.9761349,0.011739681,1.9397435,0
81960425,81959130,0.54898083,5.080333e-05,0.57481116,1.8957142,0.01936578,1.865957,0
82059825,82058463,0.5467195,4.8580314e-05,1.0245317,1.852128,0.06297053,1.8294492,0
82159140,82157855,0.54624,4.6449506e-05,-0.07852134,1.7817873,0.00038448293,1.7483977,0
82258552,82257137,0.5490316,4.4417975e-05,-1.8003217,1.734476,0.20762968,1.7282981,0
82358173,82356473,0.5519867,4.2594518e-05,-0.8465937,1.7290593,0.046057213,1.7012476,0
82457098,82455978,0.55057454,4.0892224e-05,1.0547053,1.6746498,0.07380668,1.6594876,0
82561819,82560116,0.55251145,3.929922e-05,0.03742209,1.6439027,9.4653675e-05,1.6157402,0
82660754,82659451,0.550615,3.7791473e-05,1.0905694,1.6084298,0.082160294,1.594953,0
82754946,82753824,0.55057067,3.6349422e-05,0.52977496,1.560655,0.019981747,1.5402954,0
82854470,82853158,0.54923725,3.496672e-05,0.20315331,1.5188895,0.0030191112,1.4928554,0
82963888,82962461,0.5514208,3.363151e-05,-1.1746339,1.4777111,0.10374639,1.4617906,0
83062909,83061768,0.55107814,3.2371157e-05,0.85615516,1.4278845,0.05703867,1.4123651,0
83162478,83161104,0.5514672,3.1152093e-05,-1.068361,1.3812346,0.09181763,1.3654845,0
83261895,83260610,0.55436885,3.0020881e-05,-1.059775,1.3882241,0.08989287,1.3708112,0
83361498,83359778,0.5536564,2.8968527e-05,1.2851905,1.3435739,0.13659379,1.342098,0
83460824,83459114,0.55328196,2.7968039e-05,-0.7304787,1.3243604,0.04476787,1.3051124,0
83559799,83558451,0.5559914,2.7022503e-05,-1.063884,1.3272325,0.09475432,1.3113148,0
83658997,83657838,0.55552745,2.6140795e-05,0.9321768,1.2832229,0.07524055,1.2751298,0
83758257,83757125,0.55497044,2.5292331e-05,-0.13401423,1.2528002,0.0015928597,1.2321513,0
83857820,83856464,0.55723155,2.4476156e-05,-1.0802476,1.2354925,0.10494555,1.221592,0
83957795,83955799,0.5589251,2.3708382e-05,-0.6608441,1.201574,0.040383596,1.1829093,0
84056755,84055196,0.55946255,2.2875862e-05,-0.29697663,1.1483872,0.008533235,1.1282694,0
84160782,84159440,0.5622531,2.2024211e-05,-0.70889366,1.17541,0.047504008,1.1563419,0
84260165,84258779,0.5609359,2.136074e-05,1.4021231,1.1650202,0.18749787,1.176086,0
84359305,84358116,0.5596619,2.0789e-05,0.77089363,1.183294,0.055802505,1.1747687,0
84459058,84457451,0.5597247,2.0240639e-05,-0.7235583,1.1486485,0.050642766,1.133664,0
84558063,84556788,0.56014377,1.9711002e-05,0.13004886,1.1006823,0.0017072951,1.0850414,0
84662711,84661092,0.5603833,1.9207673e-05,-2.0693562,1.1293476,0.42130864,1.1457428,0
84761752,84760429,0.56302553,1.876915e-05,-0.9920134,1.234925,0.088542536,1.2208246,0
84861224,84859808,0.5621041,1.8352537e-05,1.1394494,1.2239516,0.11786459,1.22569,0
84960241,84959103,0.56205463,1.7948254e-05,-1.4319203,1.2150735,0.18749627,1.2111413,0
85060564,85058440,0.5641345,1.7561782e-05,-1.0658606,1.2488632,0.101074934,1.2357739,0
85159080,85157954,0.56396145,1.71966e-05,1.0272596,1.2101697,0.09688836,1.2107823,0
85264406,85262085,0.56497514,1.684795e-05,-0.36748052,1.1796399,0.0127196945,1.1630788,0
85362737,85361419,0.5644521,1.6503538e-05,0.5537871,1.159185,0.029396147,1.1498048,0
85463077,85460755,0.56551844,1.616971e-05,-0.8958937,1.1381198,0.078357846,1.1250126,0
85561360,85560092,0.5648558,1.5844555e-05,0.28193772,1.1305505,0.0078122094,1.1175396,0
85661584,85659498,0.5662185,1.552753e-05,-1.2855834,1.1084722,0.16566592,1.1015531,0
85756051,85753801,0.5659673,1.5221244e-05,0.60595757,1.0826161,0.037684906,1.0753583,0
85864433,85863070,0.56693125,1.4925815e-05,-1.3538691,1.047688,0.19439222,1.0425905,0
85954881,85952601,0.5679548,1.4634508e-05,0.49810812,1.033511,0.02667409,1.026586,0
86064011,86061744,0.56738955,1.4355289e-05,-0.25963277,1.0313222,0.007262432,1.0169528,0
86162230,86161081,0.56839603,1.4079515e-05,-0.9406541,1.0041908,0.09790416,1.0,0
86261687,86260418,0.5680927,1.3817809e-05,1.1824425,1.0106212,0.15371957,1.0176765,0
86362101,86359762,0.56817573,1.3567997e-05,-1.0628482,1.0115407,0.12408425,1.0037836,0
86460262,86459099,0.56756717,1.3324292e-05,0.9338812,1.021208,0.09489134,1.0195692,0
86560719,86558430,0.5682187,1.3089329e-05,-0.2713701,1.006804,0.008127119,1.0,0
86659055,86657767,0.56678206,1.2867467e-05,1.4207258,1.0552062,0.21254003,1.0630745,0
86759634,86757282,0.5659118,1.2663471e-05,0.9200989,1.0550758,0.08915442,1.0491949,0
86857547,86856443,0.5665247,1.2463273e-05,-1.3200125,1.0438734,0.18546659,1.0456282,0
86957929,86955779,0.5665118,1.2267759e-05,0.96341956,1.02988,0.10013865,1.0260537,0
87061456,87060083,0.5669194,1.2073593e-05,0.89447796,1.029099,0.086385265,1.0243055,0
87160647,87159419,0.5672044,1.1884446e-05,-1.2233288,1.006933,0.16513659,1.0059516,0
87259837,87258752,0.5668755,1.1700538e-05,1.187676,1.0096264,0.15523611,1.0112497,0
87365350,87363060,0.5661905,1.1529484e-05,0.8261268,1.032494,0.0734452,1.0233911,0
87454641,87452464,0.5661349,1.135631e-05,-1.0091894,1.0246848,0.11043647,1.0214194,0
87563192,87561834,0.5656185,1.1189626e-05,-0.6199793,1.0060651,0.04245079,1.0,0
87662355,87661072,0.5653886,1.1024347e-05,1.9275377,1.0044885,0.41097775,1.0244248,0
87761820,87760409,0.56566274,1.086823e-05,-1.263987,1.0038607,0.1768354,1.0075895,0
87866097,87864712,0.56635934,1.0721357e-05,-1.3702356,1.0032164,0.20794731,1.0095334,0
87955501,87954119,0.5667927,1.0577376e-05,1.1650648,1.0161209,0.14842677,1.0176281,0
88054823,88053453,0.5665663,1.0440571e-05,-0.99855787,1.01954,0.108667515,1.0155928,0
88164118,88162730,0.56641954,1.03072925e-05,-0.5755808,1.0037984,0.03667107,1.0,0
88263279,88262063,0.5665656,1.0173402e-05,-0.24827585,1.0030997,0.0068278247,1.0,0
88362789,88361459,0.56738704,1.0045063e-05,0.18353342,1.018803,0.0036736485,1.0065882,0
90960654,90959064,0.5688199,7.766743e-06,-0.9737681,1.0451614,0.10080574,1.0387763,0
91059669,91058502,0.56838566,7.7063e-06,1.6459277,1.0319355,0.29169327,1.0494988,0
91164000,91162707,0.56855595,7.651444e-06,-0.17792864,1.074901,0.0032725083,1.0621521,0
91263396,91262042,0.56801784,7.595013e-06,0.3681929,1.0675325,0.014110007,1.0563699,0
91362689,91361380,0.56698996,7.5409453e-06,1.5464094,1.1364037,0.23381577,1.142552,0
91461943,91460717,0.5663756,7.490672e-06,0.8920086,1.1348255,0.07790521,1.1258538,0
91561403,91560054,0.5668875,7.4385225e-06,-1.3436209,1.1273735,0.17792754,1.1348813,0
91660702,91659391,0.56712425,7.3881934e-06,0.32118726,1.1201701,0.010232696,1.1075428,0
91760026,91758732,0.5677326,7.337326e-06,-1.6366843,1.1126751,0.26749703,1.1245648,0
91859520,91858133,0.5682865,7.289582e-06,-0.70414406,1.1187913,0.049241517,1.1088686,0
91958971,91957403,0.56904864,7.2410267e-06,-1.9777628,1.1149995,0.38979048,1.1314776,0
92058568,92056749,0.5696387,7.194982e-06,-0.8236299,1.1220798,0.067173496,1.1114261,0
92157307,92156080,0.5702815,7.1494287e-06,-1.0769827,1.098358,0.11733594,1.0900742,0
92256819,92255450,0.5709396,7.104078e-06,-0.79472077,1.0784396,0.0650715,1.0668104,0
92355932,92354752,0.571577,7.0579067e-06,-1.0812616,1.0474803,0.124014705,1.0381662,0
92460252,92459055,0.57205933,7.0116316e-06,-1.4980955,1.0385606,0.2401069,1.0349274,0
92559762,92558394,0.5727852,6.9643174e-06,-1.5046825,1.0101918,0.24902527,1.005854,0
92659099,92657757,0.57329094,6.9176517e-06,0.60960805,1.0020304,0.041207664,1.0054682,0
92763402,92762037,0.5735541,6.876651e-06,-0.69073755,1.0216943,0.051887486,1.009743,0
92862701,92861371,0.57383937,6.834276e-06,-1.4293897,1.001969,0.2265711,1.0,0
92962256,92960908,0.574535,6.792373e-06,-0.9887825,1.0019541,0.108420454,1.0,0
93056376,93055079,0.5741783,6.752002e-06,-0.44391218,1.0504758,0.020843254,1.0383539,0
93155834,93154420,0.5745427,6.712677e-06,-0.2883912,1.0020416,0.009222225,1.0,0
93254964,93253758,0.5746799,6.6737193e-06,0.36632842,1.0018972,0.014882488,1.0,0
93364203,93363024,0.5741726,6.6395633e-06,0.30050254,1.0575925,0.009487142,1.047275,0
93463810,93462442,0.57463664,6.6041516e-06,-1.2919271,1.0247871,0.1809672,1.0199913,0
93562830,93561698,0.57519084,6.567323e-06,-0.8210823,1.001875,0.07476827,1.0,0
93662366,93661044,0.5752385,6.531073e-06,0.25443006,1.0018549,0.0071794223,1.0,0
93761939,93760536,0.5752743,6.496069e-06,-0.03377968,1.0018306,0.00012655352,1.0,0
93860841,93859710,0.5755349,6.462144e-06,-0.82592714,1.0018045,0.075658545,1.0,0
93960456,93959047,0.57613814,6.4297183e-06,-1.1250917,1.0051329,0.13992967,1.0,0
94059713,94058385,0.5761302,6.398982e-06,1.0116125,1.0017234,0.11351103,1.0108507,0
94159100,94157722,0.5757044,6.3694047e-06,0.9218107,1.0281705,0.09182815,1.0315077,0
94258183,94257076,0.5757657,6.339274e-06,-1.2498024,1.0093182,0.1719539,1.0064056,0
94357615,94356396,0.5765045,6.308058e-06,-0.7882053,1.0252168,0.067331836,1.0147882,0
94457012,94455734,0.57617635,6.2775107e-06,-0.5095247,1.0481713,0.027520463,1.0364528,0
94556384,94555171,0.5767672,6.247298e-06,-1.4837971,1.024506,0.23877674,1.024413,0
94660760,94659375,0.5772227,6.2179643e-06,-1.0582191,1.0114468,0.12301713,1.0035807,0
94760079,94758712,0.5774699,6.1882565e-06,-1.0874857,1.0017416,0.13117433,1.0,0
94859239,94858054,0.57801867,6.15977e-06,-1.0659856,1.0017239,0.12604107,1.0,0
94958594,94957389,0.57764107,6.132466e-06,0.51642346,1.0389134,0.028522665,1.034892,0
95058109,95056726,0.57732505,6.10711e-06,0.6110379,1.0525799,0.039412934,1.0484191,0
95162221,95161033,0.577051,6.0830557e-06,1.3326246,1.0443065,0.18894923,1.055389,0
95261772,95260365,0.57613754,6.0629386e-06,1.8646661,1.20075,0.32174146,1.2210437,0
95361134,95359790,0.5754488,6.047559e-06,1.751204,1.2777529,0.2666761,1.2881246,0
95455242,95454075,0.5754603,6.0323005e-06,0.22548962,1.288594,0.0043842415,1.2743323,0
95554758,95553412,0.5750419,6.017412e-06,1.2899734,1.2525809,0.14760913,1.2494233,0
95664264,95662681,0.57464325,6.0044867e-06,0.2784816,1.2301568,0.0070047085,1.2165306,0
95763334,95762017,0.5748474,5.9881245e-06,-0.6103712,1.1977392,0.034560755,1.1914374,0
95862980,95861358,0.5748022,5.9716367e-06,1.0223035,1.15956,0.10014377,1.1527498,0
95961832,95960692,0.5742282,5.954566e-06,1.5654107,1.1508381,0.23659189,1.1528201,0
96061579,96060078,0.5744558,5.936715e-06,-1.35651,1.1619825,0.17595594,1.1743122,0
96160577,96159430,0.5739825,5.919836e-06,0.9731785,1.1662186,0.0902324,1.1571172,0
96260100,96258704,0.574358,5.9018143e-06,-0.8385513,1.1755387,0.066462986,1.173302,0
96359349,96358041,0.57401675,5.883769e-06,0.91451937,1.142817,0.08131424,1.1339587,0
96458662,96457567,0.57423586,5.8644628e-06,-1.016143,1.1149124,0.10290261,1.1168164,0
96563374,96561683,0.5736661,5.8471614e-06,0.6788441,1.1332046,0.04518448,1.12177,0
96662721,96661021,0.573263,5.828667e-06,0.6952314,1.097176,0.048948564,1.0858543,0
96761521,96760358,0.5731778,5.80941e-06,-1.1930572,1.0600485,0.149195,1.0712969,0
96860926,96859696,0.5736617,5.7913335e-06,-0.61995095,1.1171242,0.03822704,1.1113663,0
96960739,96959103,0.57393783,5.774233e-06,-0.45691097,1.0990188,0.021106467,1.0900415,0
97059447,97058369,0.57394284,5.755964e-06,0.33890104,1.0514891,0.012136642,1.0400442,0
97159125,97157708,0.573578,5.7360035e-06,-0.029697329,1.0298696,9.515028e-05,1.0185888,0
97258389,97257217,0.57393146,5.715374e-06,-0.057046533,1.0286396,0.0003515222,1.017138,0
97362948,97361348,0.57425606,5.695878e-06,0.0015611202,1.0118315,2.6762208e-07,1.0002967,0
97461816,97460685,0.57398427,5.6749277e-06,-0.119182244,1.0016166,0.0015757201,1.0,0
97561341,97560022,0.57424337,5.654118e-06,0.33369684,1.0016183,0.0123526305,1.0,0
97660564,97659360,0.57433563,5.633065e-06,0.52398837,1.0016267,0.030457543,1.0,0
97760162,97758743,0.57406175,5.611919e-06,-0.38786015,1.0016423,0.016687648,1.0,0
97864219,97863003,0.5741112,5.5924e-06,-0.5047451,1.0016253,0.028261585,1.0,0
97963742,97962355,0.5745267,5.5726377e-06,-0.59510744,1.0015825,0.039288145,1.0,0
98063002,98061819,0.5744268,5.554209e-06,1.2988051,1.0015469,0.18714327,1.0076214,0
98162589,98161017,0.57380915,5.5374453e-06,1.0700687,1.0498855,0.12118221,1.0473119,0
98261663,98260351,0.5741119,5.5205683e-06,-0.070638284,1.0477469,0.00052915316,1.0359833,0
98361269,98359689,0.5740068,5.5031205e-06,-0.7277945,1.0262295,0.057349622,1.0204389,0
98460354,98459025,0.5740946,5.4852912e-06,1.1307523,1.0015634,0.141845,1.0022206,0
98559641,98558362,0.5738911,5.4674006e-06,-0.53069025,1.0015709,0.03124338,1.0,0
98664235,98662666,0.573635,5.4527195e-06,1.684589,1.0777026,0.29258123,1.0961525,0
98763225,98762003,0.57361495,5.4392613e-06,-1.2261027,1.0859224,0.15381986,1.0913154,0
98862548,98861448,0.5735793,5.4258257e-06,1.4918025,1.0876268,0.22735277,1.0941002,0
98961983,98960679,0.5734434,5.412162e-06,-0.42214793,1.0751675,0.01841665,1.0660934,0
99061370,99060015,0.57374805,5.3983035e-06,-0.19239897,1.0632522,0.0038683577,1.0518831,0
99160704,99159391,0.5735887,5.38332e-06,-0.8436879,1.035104,0.0764077,1.0317707,0
99260044,99258690,0.573573,5.3675876e-06,1.5053142,1.0145937,0.24815306,1.0230212,0
99359398,99358064,0.57376266,5.3516405e-06,-0.5669574,1.0211829,0.034974765,1.0131133,0
99459029,99457364,0.57314485,5.336307e-06,1.9408084,1.038636,0.40295768,1.05805,0
99558052,99556705,0.5728049,5.323465e-06,-0.35899222,1.06604,0.013432414,1.0573274,0
99657499,99656097,0.57310104,5.3098925e-06,0.17842251,1.0657865,0.0033188418,1.0538402,0
99756653,99755376,0.5729597,5.2955425e-06,-0.66885924,1.0320334,0.048165176,1.0269517,0
99855991,99854714,0.57328176,5.280753e-06,0.0033735745,1.0322498,1.2250485e-06,1.0206192,0
99955635,99954248,0.5727717,5.2662617e-06,0.79961264,1.0332693,0.068754844,1.0254451,0
100059557,100058355,0.5723256,5.2527766e-06,1.2026854,1.0155178,0.15826102,1.0129306,0
100159327,100157692,0.5718036,5.2385863e-06,1.3848249,1.0031822,0.2124063,1.0025815,0
100263117,100261996,0.57162565,5.2254804e-06,-0.90118456,1.0071112,0.0895999,1.0107607,0
100363053,100361334,0.57144624,5.210797e-06,-0.3392618,1.0015339,0.012769144,1.0,0
100461999,100460776,0.57189536,5.197485e-06,-0.2028651,1.0595185,0.004315823,1.0492873,0
100561375,100560010,0.5715168,5.184714e-06,1.6485733,1.0277479,0.2938241,1.0345595,0
100660686,100659345,0.57141674,5.1721513e-06,-1.5386548,1.0288714,0.25566941,1.0494702,0
100760447,100758919,0.57120997,5.1603115e-06,1.4306444,1.0440601,0.21781883,1.0449791,0
100864190,100862987,0.57122207,5.149045e-06,-0.87120545,1.0174752,0.08288478,1.0188922,0
100963737,100962324,0.57120335,5.1359134e-06,-0.4737035,1.0014904,0.024895674,1.0,0
101062849,101061669,0.57146263,5.123102e-06,-0.48029363,1.001456,0.025594063,1.0,0
101162297,101160999,0.5713052,5.1110555e-06,-0.6437741,1.0014578,0.045982417,1.0,0
101261528,101260405,0.5712549,5.098712e-06,0.89104706,1.0014606,0.08808965,1.0,0
101355865,101354709,0.5708904,5.085127e-06,1.4844447,1.001738,0.24441701,1.0052742,0
101455417,101454045,0.57086104,5.0728654e-06,-1.1233997,1.0014697,0.14001942,1.0082911,0
101554832,101553516,0.5709897,5.0608933e-06,0.40820795,1.0014647,0.01848778,1.0,0
101663851,101662652,0.5709004,5.0510466e-06,-0.6779978,1.0014725,0.051000576,1.0,0
101763622,101761986,0.5708222,5.0389954e-06,1.7769588,1.0118885,0.34672055,1.0250472,0
101862486,101861327,0.57093,5.0270446e-06,0.22019339,1.0146892,0.0053092474,1.0032928,0
101962257,101960665,0.5702471,5.0151166e-06,1.5266325,1.0463735,0.24747983,1.0496302,0
102061104,102060002,0.5699716,5.0041435e-06,-0.15769765,1.0280669,0.0026877357,1.018758,0
102160636,102159339,0.5699876,4.9916184e-06,-0.51093996,1.0014931,0.028963381,1.0,0
102260261,102258698,0.57042116,4.979875e-06,-0.616009,1.0382065,0.040611394,1.0325389,0
102359282,102358124,0.5701566,4.968404e-06,0.9031046,1.0014738,0.090488635,1.0,0
102458641,102457353,0.5700292,4.956848e-06,0.048627883,1.0014622,0.00026235761,1.0,0
102558007,102556691,0.57008106,4.9454306e-06,-0.31882054,1.0014697,0.011277485,1.0,0
102662618,102660993,0.57041264,4.9350792e-06,-1.9969666,1.0014794,0.44244277,1.0405166,0
102761946,102760331,0.57093453,4.925476e-06,-1.3803282,1.068221,0.19818057,1.0737714,0
102861425,102859669,0.57081264,4.916029e-06,1.0997361,1.0571587,0.12711427,1.0573766,0
102960637,102959005,0.57064503,4.905397e-06,0.39499837,1.0262601,0.016892372,1.015995,0
103059694,103058343,0.5704059,4.8935144e-06,0.6389579,1.0015049,0.045294862,1.0,0
103158896,103157758,0.5699092,4.881884e-06,1.1224253,1.0117218,0.13836023,1.0089931,0
103263364,103261984,0.56967086,4.871773e-06,0.44919723,1.0014896,0.022386448,1.0,0
103362615,103361321,0.57014036,4.8607335e-06,-1.178372,1.0383294,0.1485892,1.0424615,0
103467027,103465625,0.5704426,4.852812e-06,1.5980664,1.0750289,0.26395324,1.0906595,0
103556805,103555029,0.5698823,4.8430675e-06,1.6207565,1.1171912,0.26125553,1.1261361,0
103655460,103654370,0.569462,4.8372376e-06,0.13872613,1.1463652,0.0018653101,1.1337695,0
103755110,103753704,0.5697373,4.8312418e-06,-1.2382551,1.11981,0.1521365,1.1261622,0
103864365,103862975,0.57023346,4.828745e-06,-0.92122334,1.181266,0.07982513,1.1764035,0
103963765,103962442,0.5707362,4.824703e-06,-1.5645393,1.2021556,0.22624019,1.2087749,0
104063303,104061650,0.571026,4.8209813e-06,-0.28050697,1.1918087,0.0073356437,1.178761,0
104162272,104160989,0.5709642,4.8163633e-06,-0.16006993,1.1438966,0.0024888013,1.1312598,0
104261632,104260324,0.5713763,4.8109714e-06,-1.1490238,1.1243117,0.13047545,1.1196116,0
104361076,104359662,0.57192326,4.8059474e-06,-1.40064,1.1354121,0.19198047,1.1331133,0
104460077,104459001,0.5718146,4.80066e-06,1.1181488,1.1225947,0.12374672,1.1302943,0
104559701,104558336,0.5717775,4.795489e-06,-1.1996554,1.1153146,0.1433749,1.1113131,0
104658883,104657674,0.572113,4.7893486e-06,-0.5201021,1.0930707,0.027497068,1.0812569,0
104758496,104757092,0.57183874,4.783106e-06,0.30962393,1.0934361,0.009741663,1.0841684,0
104857731,104856356,0.57196295,4.7759786e-06,-1.160616,1.0521172,0.14225596,1.048633,0
104957311,104955686,0.57211655,4.7685458e-06,1.4822123,1.0439581,0.23382734,1.0618826,0
105056368,105055166,0.5718768,4.7619733e-06,0.5320902,1.0775906,0.029192695,1.0704949,0
105160675,105159328,0.57210374,4.7572667e-06,-0.44030786,1.0366259,0.020780133,1.0255917,0
105259978,105258665,0.572139,4.7499775e-06,-1.6291821,1.0204731,0.28899822,1.0289928,0
105364319,105362971,0.5719518,4.743968e-06,-0.42470086,1.027199,0.019510536,1.0165154,0
105463686,105462303,0.5715992,4.736384e-06,1.04929,1.0117933,0.12090847,1.0132027,0
105563063,105561646,0.57183075,4.7286712e-06,-1.3265678,1.0013838,0.19526114,1.004988,0
105662103,105660982,0.5719065,4.720884e-06,-1.0839084,1.001391,0.13035838,1.0,0
105761696,105760319,0.57209134,4.7133913e-06,-0.415744,1.0143899,0.018932352,1.0038136,0
105861176,105859795,0.5715646,4.7071367e-06,1.4429284,1.050072,0.22030686,1.0588654,0
105955421,105954039,0.5716733,4.700375e-06,0.7382494,1.0403149,0.05821018,1.0344523,0
106054751,106053371,0.57185006,4.694169e-06,-1.1881187,1.0484228,0.14960313,1.0491227,0
106163854,106162637,0.57175106,4.6910595e-06,1.3523636,1.0552386,0.19257227,1.0625987,0
106263200,106261973,0.5720481,4.6853656e-06,-0.46811977,1.0534459,0.023113154,1.0429852,0
106362595,106361312,0.5717707,4.67955e-06,0.4265568,1.0545902,0.019170238,1.0449585,0
106462058,106460661,0.5711736,4.675193e-06,1.8784711,1.1007441,0.3561887,1.1188277,0
106561184,106559985,0.57132137,4.6713194e-06,-1.3734311,1.0964738,0.19114941,1.1048256,0
106660837,106659469,0.57155913,4.6675364e-06,0.026155151,1.0948478,6.9425376e-05,1.0827204,0
106760058,106758708,0.57129335,4.6629953e-06,0.30678886,1.0713236,0.009761487,1.0599818,0
106859336,106857998,0.57151407,4.658086e-06,0.8449291,1.0688646,0.0742122,1.0638428,0
106963502,106962302,0.5714239,4.6536684e-06,1.4030387,1.0608315,0.20618184,1.0691892,0
107062956,107061640,0.57148224,4.647799e-06,-1.2044357,1.045762,0.15413167,1.048795,0
107162132,107160976,0.5719232,4.6419905e-06,-1.1089176,1.064461,0.12835899,1.0628036,0
107261624,107260314,0.57186383,4.636741e-06,0.9957354,1.057651,0.10416048,1.0569654,0
107360884,107359651,0.571375,4.6320597e-06,1.2992871,1.0864844,0.17264111,1.0894367,0
107460720,107459052,0.5717051,4.62735e-06,-1.3000522,1.0977114,0.17107669,1.1014577,0
107560045,107558329,0.5715238,4.622673e-06,0.89412224,1.0804093,0.082217254,1.0758833,0
107658942,107657663,0.5714325,4.61722e-06,-0.38180113,1.044591,0.0155054955,1.0347184,0
107758400,107757001,0.5715118,4.610955e-06,-0.61957675,1.0013623,0.04259479,1.0,0
107857456,107856338,0.57192844,4.6046566e-06,-0.8144111,1.0090936,0.07303204,1.0031081,0
107957263,107955681,0.5720716,4.598447e-06,0.19619797,1.0013512,0.0042713,1.0,0
108061295,108059990,0.57177883,4.5933652e-06,0.55809814,1.001369,0.03456085,1.0,0
108160975,108159318,0.57190657,4.586379e-06,-1.8895202,1.0013884,0.39614847,1.0231357,0
108259899,108258696,0.5719905,4.580272e-06,1.5765909,1.0116632,0.27299806,1.0269676,0
108364361,108362959,0.5722613,4.576179e-06,-1.2073866,1.0362059,0.15631625,1.0360261,0
108463510,108462297,0.5726153,4.571146e-06,-0.6351686,1.0242584,0.043764908,1.0146819,0
108563250,108561836,0.572484,4.5661905e-06,1.4076222,1.0039551,0.21928827,1.0167822,0
108662262,108660976,0.57245094,4.5609395e-06,-1.3248425,1.0082824,0.19342107,1.0109714,0
108761725,108760323,0.57239497,4.5557035e-06,0.90685654,1.005202,0.09090364,1.0040694,0
108856308,108854679,0.572417,4.549044e-06,0.16995382,1.0090281,0.0031806517,1.003067,0
108955123,108954017,0.5727404,4.5436673e-06,-0.34034368,1.0108397,0.01273241,1.0,0
109054729,109053410,0.5723654,4.5383385e-06,1.2339772,1.0191371,0.16601186,1.0242338,0
109164043,109162626,0.57246786,4.535915e-06,-1.3526741,1.0013281,0.20303337,1.0060221,0
109263154,109261964,0.57244563,4.5311026e-06,0.25766763,1.0209563,0.0072255363,1.0106435,0
109363063,109361461,0.5726394,4.5260576e-06,-0.5228652,1.0094773,0.03009126,1.0,0
109461830,109460638,0.5723666,4.520422e-06,0.2502308,1.0013825,0.006947667,1.0,0
109561400,109559980,0.5726748,4.5147417e-06,-0.0933954,1.0013465,0.00096788566,1.0,0
109660660,109659313,0.572307,4.5093857e-06,1.2754902,1.0054667,0.17978111,1.0103443,0
109759936,109758655,0.5720011,4.5044603e-06,0.1984656,1.007259,0.00434497,1.0,0
109859364,109857988,0.5724391,4.499093e-06,-0.60200036,1.0345942,0.038920727,1.0261197,0
109963598,109962295,0.57223487,4.4955887e-06,0.31023848,1.0298128,0.010384617,1.0192574,0
110063182,110061629,0.5718728,4.4906024e-06,1.0327821,1.0134813,0.11693894,1.010816,0
110162114,110161096,0.5722101,4.485112e-06,-1.8231372,1.0147607,0.3639423,1.036253,0
110261711,110260307,0.572654,4.48103e-06,-0.9174436,1.0569284,0.088485196,1.0516287,0
110360975,110359642,0.5725178,4.476926e-06,1.249013,1.0318341,0.16798925,1.0372634,0
110460591,110458979,0.5720671,4.473387e-06,0.9015996,1.0646348,0.084836796,1.0598712,0
110559471,110558317,0.5720328,4.4695685e-06,-0.6363596,1.0291021,0.04372242,1.0224172,0
110658997,110657656,0.57252777,4.465117e-06,-1.7163512,1.0456371,0.31303203,1.0606339,0
110758260,110756994,0.57294226,4.461955e-06,-0.95545906,1.0660601,0.095148064,1.0603225,0
110857629,110856330,0.572779,4.4582944e-06,0.99616575,1.0353866,0.10649229,1.0359442,0
110957158,110955788,0.5724938,4.454633e-06,0.79866546,1.0239106,0.069218986,1.0192217,0
111061167,111059971,0.5728372,4.4523413e-06,-1.7638092,1.0468767,0.33019096,1.061773,0
111161027,111159309,0.57333344,4.4500057e-06,-1.3702296,1.0794609,0.1932579,1.0800985,0
111264943,111263613,0.5735836,4.449118e-06,1.2995095,1.0731132,0.1748521,1.0889125,0
111364342,111362951,0.573292,4.447764e-06,0.59322655,1.0995202,0.03556276,1.0906922,0
111463726,111462288,0.5733641,4.4456547e-06,-0.36737502,1.0566877,0.014191559,1.0404427,0
111563250,111561646,0.57359713,4.4420913e-06,-0.66026425,1.0089767,0.048007812,1.0,0
111662162,111660966,0.5738452,4.4403364e-06,-1.0198888,1.0012009,0.11543616,1.0,0
111761748,111760361,0.5741598,4.439449e-06,0.13314235,1.0010799,0.0019675293,1.0,0
111860749,111859638,0.5739993,4.4382987e-06,0.8513069,1.0016698,0.080390595,1.0023955,0
111960693,111958975,0.5741188,4.4339854e-06,-0.67705595,1.0013264,0.05086639,1.0,0
112059485,112058316,0.57442015,4.4293306e-06,-0.82786363,1.0013306,0.076049715,1.0,0
112159034,112157664,0.5747573,4.424761e-06,-1.024337,1.0013288,0.116430454,1.0,0
112258070,112256988,0.57532763,4.420506e-06,-1.1059804,1.0174619,0.13357778,1.010208,0
112362883,112361295,0.5754799,4.4180747e-06,1.1558192,1.0415307,0.14251651,1.0551676,0
112462244,112460630,0.57531387,4.415575e-06,-0.08564966,1.0555613,0.0007721921,1.0446384,0
112561697,112560003,0.57541716,4.4121425e-06,-0.87822795,1.0102769,0.08482651,1.0017278,0
112660648,112659305,0.5759871,4.4079684e-06,-1.4867574,1.0111287,0.24290211,1.0101963,0
112759918,112758644,0.57616454,4.4037333e-06,-0.08188141,1.0013231,0.0007439674,1.0,0
112859359,112858135,0.5756813,4.401807e-06,1.97259,1.0666233,0.40534052,1.1053989,0
112958504,112957317,0.57573456,4.401757e-06,-1.3793006,1.1100508,0.19042873,1.1097344,0
113057962,113056655,0.5758037,4.4000412e-06,0.79191446,1.0833013,0.06432278,1.0824045,0
113162281,113160960,0.5756817,4.399627e-06,-0.6980668,1.1111857,0.04872645,1.1012412,0
113261835,113260301,0.5756538,4.3993778e-06,1.0302553,1.0751636,0.10969142,1.0779626,0
113360915,113359694,0.5758445,4.396821e-06,-0.96863306,1.0612495,0.09823326,1.0549666,0
113455153,113454005,0.5758114,4.3932155e-06,0.99159396,1.072742,0.10184271,1.0747395,0
113554758,113553343,0.5759782,4.392114e-06,-1.0629119,1.0411088,0.1205746,1.036591,0
113664471,113662760,0.57606095,4.3922314e-06,0.81276274,1.0080165,0.07281443,1.007449,0
113763316,113761957,0.5758162,4.389308e-06,0.030159637,1.0165578,9.942089e-05,1.0055879,0
113862684,113861290,0.57620054,4.3861924e-06,-1.3273889,1.0126994,0.19331846,1.0133293,0
113957031,113955659,0.57624805,4.3818554e-06,-1.4961312,1.0060396,0.24721895,1.0094161,0
114056393,114054997,0.57662714,4.37976e-06,0.014374256,1.0143033,2.2633953e-05,1.0040712,0
114156049,114154337,0.57639307,4.377955e-06,0.6491492,1.0025505,0.046702515,1.0,0
114254787,114253672,0.5766257,4.377309e-06,-0.8536297,1.0011853,0.080869,1.0,0
114364287,114362946,0.576466,4.37745e-06,-0.62316275,1.0051531,0.042926777,1.0,0
114463752,114462400,0.57672805,4.3744053e-06,0.16741201,1.0013012,0.0031100402,1.0,0
114562947,114561618,0.57642424,4.371203e-06,0.10973886,1.016041,0.0013169434,1.0053508,0
114662359,114660956,0.5768223,4.367045e-06,-1.6274468,1.0021603,0.29365262,1.0103881,0
114761519,114760293,0.5770678,4.3635805e-06,-0.059008814,1.0013016,0.0003863904,1.0,0
114861217,114859631,0.5767044,4.360258e-06,0.94138443,1.0195255,0.096581385,1.0197892,0
114960718,114958968,0.57638186,4.357575e-06,0.43580794,1.0283499,0.020521395,1.0192802,0
115059447,115058309,0.57657456,4.353979e-06,-1.3570023,1.0012969,0.20434111,1.0058118,0
115159102,115157644,0.57701766,4.3510836e-06,-1.0515625,1.013646,0.12121082,1.0095717,0
115258229,115257036,0.5772706,4.347951e-06,-0.4316819,1.00128,0.020679004,1.0,0
115357723,115356320,0.57711506,4.34498e-06,0.4752862,1.0012788,0.025067605,1.0,0
115456779,115455656,0.5768703,4.342064e-06,0.924206,1.0082566,0.09412912,1.007388,0
115561635,115559963,0.57665235,4.3408663e-06,-1.5152605,1.022825,0.24941969,1.0354359,0
115660638,115659300,0.5770542,4.3391833e-06,-0.5762148,1.0487117,0.03517792,1.0389882,0
115760317,115758639,0.57701457,4.3369705e-06,0.69739276,1.0026599,0.05389627,1.0,0
115859148,115857991,0.5766152,4.334347e-06,0.8741647,1.0213886,0.08312908,1.0177265,0
115958976,115957313,0.5766671,4.3316054e-06,-1.1233683,1.0012896,0.14003676,1.0020841,0
116058007,116056734,0.5770991,4.328979e-06,-1.3134044,1.0079774,0.19015321,1.0105765,0
116157334,116155989,0.57751274,4.3264813e-06,-0.89664257,1.011791,0.088288754,1.0050468,0
116256686,116255326,0.5773825,4.323765e-06,0.96851885,1.001275,0.1040927,1.0028384,0
116356142,116354817,0.5769808,4.321292e-06,1.0281099,1.0234226,0.114757635,1.023488,0
116460378,116458965,0.57722396,4.3199216e-06,-0.39895618,1.001533,0.017658044,1.0,0
116559613,116558304,0.57696134,4.3170703e-06,0.9532851,1.0012841,0.10084301,1.0,0
116663918,116662608,0.57688457,4.315899e-06,-1.2974446,1.0409943,0.17967464,1.0454949,0
116763154,116761945,0.5772255,4.3147306e-06,-0.13358204,1.0558782,0.0018777589,1.0442674,0
116862510,116861300,0.5771369,4.3155032e-06,0.72582275,1.0089986,0.05801336,1.0042772,0
116961926,116960620,0.5769096,4.3155433e-06,-0.35477847,1.0095347,0.013853221,1.0,0
117061351,117060015,0.577508,4.312792e-06,-1.3755785,1.0672587,0.19699652,1.0700486,0
117160734,117159448,0.5779583,4.311717e-06,-1.0106485,1.0817056,0.10491768,1.0752176,0
117260175,117258630,0.57825285,4.3107602e-06,-0.71163595,1.0483572,0.053674,1.0383198,0
117359122,117357972,0.5781724,4.309139e-06,1.3976623,1.0141718,0.21401808,1.0301636,0
117463622,117462275,0.5779211,4.309072e-06,-1.1735482,1.0670527,0.14340803,1.0647494,0
117562789,117561612,0.57814664,4.30795e-06,-0.36685753,1.0382855,0.014402423,1.0270542,0
117662313,117660951,0.5779338,4.3060786e-06,1.0307603,1.0085889,0.11704656,1.0110674,0
117761685,117760292,0.57749474,4.304906e-06,0.7738436,1.0532235,0.063174725,1.0477947,0
117861243,117859629,0.5775931,4.303814e-06,-1.04621,1.0243605,0.11872507,1.0229095,0
117960202,117959075,0.57804215,4.3023697e-06,-1.0965676,1.0402607,0.12843582,1.0374373,0
118059429,118058304,0.5778673,4.300506e-06,1.1956398,1.0083531,0.1575236,1.0135788,0
118159315,118157639,0.5773848,4.298765e-06,1.3687009,1.0488427,0.198456,1.0546463,0
118258270,118256976,0.5770306,4.297528e-06,1.2485672,1.0478057,0.16531056,1.0485343,0
118357713,118356314,0.5769889,4.2960332e-06,-0.4944907,1.0144331,0.026782453,1.0070287,0
118456787,118455651,0.5773571,4.293866e-06,-1.6272544,1.0117745,0.29079348,1.0272049,0
118561525,118559955,0.57732856,4.293919e-06,1.3293644,1.0683206,0.18379936,1.072952,0
118660457,118659293,0.5770141,4.2936767e-06,0.54534346,1.0705341,0.030867198,1.0605468,0
118760139,118758771,0.57712126,4.29214e-06,-0.89731884,1.0258751,0.08720805,1.023881,0
118864160,118862944,0.5769289,4.2916877e-06,1.0022678,1.0134454,0.11013485,1.0085187,0
118964038,118962293,0.5766669,4.289e-06,-0.5002776,1.0073057,0.02760694,1.0006171,0
119062835,119061610,0.5766672,4.2832803e-06,0.72417617,1.0013661,0.05819063,1.0,0
119162276,119160951,0.5764743,4.2807073e-06,-0.26448157,1.0012896,0.007762268,1.0,0
119261353,119260285,0.577058,4.2761453e-06,-1.5391915,1.0749903,0.2448715,1.0872852,0
119355964,119354697,0.57722914,4.271295e-06,1.4144702,1.1484377,0.19356982,1.1557345,0
119455641,119453994,0.5769583,4.2702727e-06,0.7610439,1.1414821,0.056377757,1.133736,0
119554663,119553362,0.57686704,4.270651e-06,0.028975114,1.0956548,8.5140084e-05,1.083637,0
119663813,119662612,0.57659763,4.2732136e-06,1.201688,1.0553881,0.15202981,1.0545065,0
119763757,119761941,0.57622296,4.2728598e-06,0.68189234,1.0531536,0.04905659,1.0434544,0
119862446,119861278,0.5766193,4.2718916e-06,-1.780858,1.0756574,0.3275987,1.0988785,0
119962220,119960628,0.57696944,4.2725646e-06,-0.04037653,1.1343348,0.00015968872,1.1219431,0
120061122,120059953,0.5767679,4.2726756e-06,1.0544288,1.0886918,0.11347157,1.0864233,0
120160705,120159330,0.5765127,4.2722004e-06,0.35200924,1.0721319,0.012841548,1.0608197,0
120259973,120258629,0.5767863,4.2707825e-06,-1.0609016,1.0498511,0.11911872,1.0501381,0
120359267,120358079,0.5772191,4.2695096e-06,-1.427427,1.068112,0.21195738,1.0741813,0
120463685,120462271,0.57701933,4.270468e-06,1.240576,1.1004171,0.15539853,1.1036634,0
120562945,120561608,0.57664585,4.270525e-06,0.7689954,1.1150686,0.05892552,1.1072805,0
120662837,120661118,0.5764206,4.2701363e-06,0.7922151,1.0783085,0.06466968,1.0704757,0
120761569,120760285,0.5763038,4.2690403e-06,0.22389452,1.0319992,0.005397157,1.0206833,0
120860997,120859621,0.5764586,4.266651e-06,-0.85127723,1.0012956,0.08041503,1.0,0
120960233,120958960,0.5768309,4.2639003e-06,-1.5674443,1.005046,0.27161628,1.0181694,0
121059936,121058297,0.5773831,4.262559e-06,-1.7736089,1.0610343,0.32941532,1.0755045,0
121158795,121157682,0.5779114,4.2628117e-06,-1.1482552,1.1197727,0.13082914,1.1149999,0
121263223,121261938,0.57800996,4.2643087e-06,-0.20538296,1.0787038,0.004344943,1.066897,0
121362567,121361276,0.57846975,4.2643e-06,-1.4490253,1.0680213,0.21843864,1.0676559,0
121462143,121460818,0.57885337,4.264698e-06,-0.58656365,1.0575525,0.03614813,1.046045,0
121561115,121559951,0.5785614,4.264061e-06,0.87330323,1.0707679,0.079139315,1.0730958,0
121660640,121659289,0.5786585,4.2635597e-06,-1.3809203,1.0458014,0.20260282,1.0452816,0
121755071,121753672,0.5790266,4.2615998e-06,-0.0045537353,1.045596,2.2035815e-06,1.0377921,0
121864223,121862931,0.5793812,4.262932e-06,-0.8676445,1.0118103,0.08266887,1.00231,0
121963441,121962270,0.57915103,4.2617703e-06,-0.23544225,1.0285983,0.005987982,1.0173957,0
122063872,122061663,0.57931113,4.260225e-06,0.5022625,1.0012405,0.027995005,1.0,0
122162128,122160944,0.5792555,4.2587603e-06,-0.88140076,1.0035542,0.086012885,1.0,0
122261788,122260387,0.5791358,4.257315e-06,1.2860639,1.0225188,0.17972615,1.0344851,0
122362220,122359639,0.5794662,4.2562374e-06,-1.3815081,1.036499,0.20459522,1.0362182,0
122460088,122458957,0.5793782,4.2550537e-06,0.9745647,1.024047,0.103052594,1.0277343,0
122565438,122563261,0.5793083,4.254723e-06,0.8725574,1.0029173,0.08434909,1.0038139,0
122655004,122652725,0.5789841,4.250588e-06,0.6447228,1.0119134,0.04564153,1.0065109,0
122764096,122761931,0.579285,4.2511424e-06,-1.6009299,1.0040706,0.28362066,1.0122758,0
122862467,122861275,0.57949567,4.249829e-06,0.81269705,1.0112118,0.07257262,1.0107561,0
122962842,122960611,0.5790709,4.2490406e-06,0.7843268,1.0578912,0.064611614,1.0538942,0
123061195,123060028,0.57938963,4.248335e-06,-0.98479635,1.0454543,0.1030731,1.0403653,0
123161479,123159288,0.5791739,4.2472943e-06,1.1582286,1.0297146,0.14475356,1.0338947,0
123259849,123258670,0.579018,4.246649e-06,-1.0636905,1.0456027,0.120232366,1.0441302,0
123360278,123357963,0.5793248,4.2463466e-06,0.115856946,1.0523491,0.0014172348,1.0414232,0
123459670,123457301,0.57913107,4.2456545e-06,0.04502313,1.027959,0.00021910538,1.0167432,0
123557944,123556638,0.5795045,4.244254e-06,-1.2498273,1.0123727,0.17144193,1.0129085,0
123658104,123655976,0.57962006,4.242909e-06,0.4836192,1.0012451,0.025955185,1.0,0
123756613,123755314,0.5791624,4.241766e-06,1.293411,1.0373138,0.17919275,1.043182,0
123856718,123854668,0.5787514,4.241227e-06,0.9571121,1.0623319,0.09581265,1.0581821,0
123960354,123958980,0.57891476,4.2417246e-06,-0.06285981,1.0521711,0.00041727012,1.0406454,0
124060387,124058294,0.57880116,4.240552e-06,0.43176436,1.0084603,0.020539615,1.0,0
124158965,124157809,0.57843316,4.2389647e-06,1.2953225,1.0012455,0.18619704,1.0032669,0
124264271,124261939,0.57880384,4.2390348e-06,-0.67104197,1.0212538,0.048991773,1.0148561,0
124362821,124361274,0.57881236,4.2376887e-06,-0.22718118,1.0012429,0.0057274695,1.0,0
124462933,124460614,0.57872957,4.2363095e-06,0.06409101,1.0012408,0.0004558408,1.0,0
124561142,124559948,0.57851416,4.234889e-06,0.84185255,1.0012428,0.078648455,1.0,0
124661535,124659353,0.57811433,4.23336e-06,1.361225,1.0048432,0.2048892,1.0071064,0
124756106,124753661,0.57826596,4.2308943e-06,-1.7404951,1.0449301,0.3221186,1.0681442,0
124865256,124862931,0.5786655,4.233651e-06,-1.265128,1.0912977,0.1629608,1.0951382,0
124954720,124952450,0.5788847,4.231937e-06,-0.47842127,1.0862163,0.023413274,1.0760545,0
125063836,125061642,0.5785708,4.2346883e-06,0.43219125,1.0865827,0.019100586,1.076108,0
125162152,125160954,0.5785476,4.2344377e-06,-0.12214259,1.0446131,0.0015868514,1.0333871,0
125262437,125260279,0.5790064,4.233722e-06,-1.7249768,1.0533488,0.31387144,1.0683099,0
125360939,125359617,0.5794304,4.234286e-06,-0.9187188,1.0887469,0.0861382,1.0820283,0
125461216,125458955,0.5797359,4.2351744e-06,-0.8072045,1.0615977,0.0681969,1.0529422,0
125560672,125558292,0.5800417,4.2357087e-06,-1.3795302,1.0248567,0.20632735,1.0246574,0
125658919,125657630,0.5805799,4.235907e-06,-1.4766706,1.0421402,0.23248695,1.0413688,0
125759208,125757072,0.580687,4.235802e-06,0.4370194,1.0061934,0.021090044,1.0023394,0
125857698,125856309,0.5808118,4.235097e-06,-1.80368,1.0146765,0.35624507,1.0223252,0
125958065,125955643,0.580581,4.234593e-06,0.5255143,1.048669,0.029260932,1.0441171,0
126061073,126059948,0.5806252,4.235628e-06,2.0251296,1.0240638,0.44497547,1.0754293,0
126161642,126159288,0.5802139,4.237619e-06,1.0538816,1.1289548,0.10931119,1.1306953,0
126259847,126258625,0.5799059,4.240321e-06,0.27980006,1.1487383,0.0075723734,1.1372561,0
126364523,126362927,0.5801192,4.2435086e-06,-1.6348116,1.1055293,0.2686103,1.1167121,0
126463497,126462266,0.5798231,4.245088e-06,1.8115321,1.1237185,0.32448307,1.1435918,0
126563127,126561693,0.5794062,4.2476604e-06,1.4893265,1.1600279,0.21245596,1.1656517,0
126662139,126660941,0.57904446,4.250938e-06,0.29851013,1.1831454,0.008368306,1.1703869,0
126761926,126760279,0.57942,4.253855e-06,-0.9906323,1.2220637,0.08922542,1.220294,0
126860911,126859616,0.5791552,4.2571346e-06,1.0238172,1.2173233,0.095674545,1.21142,0
126960569,126958967,0.579225,4.260019e-06,-1.1881287,1.1722802,0.13379905,1.1765312,0
127059634,127058292,0.57944643,4.262846e-06,0.70373124,1.1905036,0.046221115,1.1817952,0
127163820,127162596,0.57931715,4.2668667e-06,-0.23379998,1.1836746,0.0051311427,1.1717911,0
127263233,127261934,0.57893497,4.269484e-06,1.1117755,1.1788461,0.116502315,1.1744502,0
127362713,127361338,0.57874244,4.2719716e-06,-0.51811117,1.164054,0.025623016,1.1568141,0
127461788,127460609,0.57894284,4.2747483e-06,1.321711,1.1988071,0.1619128,1.1993463,0
127561356,127559947,0.5786287,4.2776546e-06,1.0890096,1.1840888,0.111285016,1.1784865,0
127660872,127659288,0.5785006,4.2800903e-06,-0.9528799,1.1488273,0.087817095,1.1504391,0
127759764,127758623,0.5784823,4.2819597e-06,1.3971788,1.1385281,0.19050996,1.139472,0
127859276,127857960,0.57827836,4.2835104e-06,0.13856202,1.114577,0.001913973,1.1025747,0
127963562,127962265,0.57828534,4.2856695e-06,0.671094,1.1111848,0.045033727,1.1008034,0
128063278,128061603,0.57828945,4.286204e-06,-0.023891438,1.0700306,5.9271497e-05,1.0589054,0
128162147,128160965,0.5786374,4.2862207e-06,-1.1522994,1.0800506,0.13659792,1.0837835,0
128261888,128260278,0.5785534,4.2864226e-06,1.2105799,1.0535985,0.15455008,1.053682,0
128360883,128359638,0.57873243,4.2858737e-06,-1.1127316,1.0512415,0.1308687,1.0531754,0
128460496,128459117,0.57894516,4.2855345e-06,-0.23062046,1.0389333,0.0056880773,1.0279762,0
128559573,128558293,0.5789849,4.284471e-06,-0.38509256,1.0012147,0.016457373,1.0,0
128658806,128657658,0.57907844,4.2834536e-06,0.70269305,1.0012046,0.05479816,1.0,0
128758284,128756966,0.5790095,4.282221e-06,-0.56597286,1.0012237,0.0355482,1.0,0
128857502,128856304,0.57930803,4.281096e-06,-1.0802413,1.0012118,0.12950099,1.0,0
128957286,128955728,0.57950264,4.279998e-06,0.5471636,1.0012193,0.03322483,1.0,0
129061150,129059947,0.5794516,4.2798983e-06,-0.16305594,1.0012237,0.0029505272,1.0,0
129160867,129159285,0.5791149,4.2789275e-06,-0.05383592,1.0304227,0.00031252616,1.0191054,0
129260101,129258807,0.5795501,4.278176e-06,-1.1287225,1.0375423,0.13643509,1.0359874,0
129364316,129362928,0.57899207,4.2800057e-06,1.2314228,1.1325065,0.14877541,1.1338639,0
129463432,129462282,0.5789821,4.2818215e-06,0.26794457,1.1006037,0.007247971,1.0890557,0
129563006,129561602,0.5787824,4.282596e-06,0.3107865,1.080634,0.009931232,1.0692457,0
129662140,129660941,0.5788498,4.282492e-06,-0.6097025,1.0314605,0.040044315,1.0246791,0
129761912,129760278,0.57919556,4.281966e-06,-0.72127384,1.0314305,0.056042552,1.0248313,0
129855933,129854648,0.5794622,4.279481e-06,-1.584024,1.001234,0.27844882,1.0121323,0
129955293,129953986,0.57919276,4.2782494e-06,1.6044955,1.0260259,0.27878937,1.0401721,0
130054803,130053401,0.5790372,4.2773563e-06,0.7849045,1.0091277,0.06783362,1.0035088,0
130163954,130162595,0.5790132,4.2785023e-06,-0.72865105,1.0012245,0.058920335,1.0,0
130263087,130261933,0.5794483,4.2774086e-06,-0.88076746,1.0259945,0.08401077,1.0209941,0
130362686,130361272,0.57929075,4.2764987e-06,-0.5743011,1.0154296,0.036090013,1.0071825,0
130462006,130460609,0.57954186,4.275131e-06,0.34570333,1.0053074,0.013208872,1.0,0
130561585,130559951,0.5789912,4.274107e-06,1.8729404,1.0520734,0.3704754,1.0727049,0
130660647,130659319,0.5785022,4.275329e-06,0.9452679,1.1189618,0.088726245,1.1122775,0
130759850,130758622,0.5782084,4.2765355e-06,0.68348366,1.092199,0.04752389,1.0820137,0
130859219,130858018,0.5785118,4.2772476e-06,-0.6344029,1.1146168,0.04012012,1.1084865,0
130958688,130957298,0.57815796,4.2782513e-06,1.0497643,1.1067415,0.110635586,1.1011267,0
131057952,131056635,0.57823443,4.2788224e-06,-0.91252905,1.070276,0.08644802,1.0705386,0
131162222,131160940,0.57856214,4.2809656e-06,-0.2762582,1.1040593,0.007680605,1.0909485,0
131261894,131260283,0.57896566,4.2819333e-06,-0.641212,1.1301262,0.04042349,1.1213435,0
131360803,131359616,0.57903,4.2829374e-06,-1.2861291,1.1089745,0.1657315,1.1116767,0
131455150,131453986,0.5791484,4.282591e-06,0.51383585,1.1000484,0.026668249,1.0915694,0
131554932,131553324,0.5793127,4.283231e-06,0.14175808,1.1070338,0.0020169367,1.0956229,0
131664060,131662708,0.5789761,4.287117e-06,-0.46103382,1.1441243,0.02064191,1.1336968,0
131763611,131761934,0.57911044,4.288287e-06,0.66558844,1.1219805,0.043871623,1.1145943,0
131862837,131861272,0.57894343,4.289133e-06,0.23198184,1.1144836,0.0053652725,1.1027762,0
131962220,131960830,0.57929915,4.290097e-06,-0.7409227,1.1157243,0.054669656,1.1076417,0
132056172,132054980,0.5794394,4.289457e-06,-1.4608992,1.0788872,0.2197971,1.0845608,0
132156057,132154319,0.5793987,4.2899555e-06,0.82516104,1.0963192,0.069007754,1.0927355,0
132254960,132253668,0.57963616,4.2904435e-06,-0.3479839,1.1041441,0.012185687,1.0924145,0
132364127,132362927,0.57955694,4.2932597e-06,-0.13919337,1.0606539,0.002029649,1.0438963,0
132463669,132462283,0.5792779,4.2928687e-06,0.88043904,1.0372608,0.08303632,1.0340947,0
132562789,132561603,0.57926756,4.291651e-06,0.10412626,1.0012373,0.0012032088,1.0,0
132662313,132660947,0.5795319,4.290157e-06,-1.4483206,1.0050108,0.23190825,1.0118753,0
132761548,132760431,0.5794201,4.2887186e-06,1.1346347,1.0012252,0.14286894,1.0041143,0
132860999,132859616,0.5795234,4.28708e-06,-1.796581,1.0012255,0.35819474,1.0190686,0
132960717,132958956,0.57982284,4.285924e-06,-0.12925309,1.0252241,0.0018105918,1.0139257,0
133059602,133058291,0.5799961,4.2844713e-06,-0.2424717,1.0012094,0.006524612,1.0,0
133159245,133157645,0.5797438,4.282803e-06,1.2685586,1.001238,0.17858347,1.008508,0
133258197,133256982,0.57930106,4.281808e-06,0.72727495,1.0474535,0.05610738,1.0407324,0
133362692,133361273,0.5790371,4.28188e-06,1.3529748,1.0243392,0.19856061,1.0284584,0
133461739,133460610,0.5786727,4.2806996e-06,0.5324429,1.0330092,0.03049295,1.022802,0
133561738,133560067,0.5789819,4.2790134e-06,-1.3274086,1.030686,0.18995044,1.0389422,0
133660608,133659285,0.57933486,4.27836e-06,-0.3925815,1.0572774,0.01619676,1.0470628,0
133760318,133758623,0.5791339,4.2772926e-06,1.2504305,1.0164253,0.17092325,1.0195932,0
133859193,133857963,0.5789586,4.276072e-06,-0.6735106,1.0101669,0.049894564,1.0046238,0
133958707,133957298,0.5794075,4.274969e-06,-0.57374734,1.0484104,0.034887314,1.0396287,0
134058009,134056679,0.5791776,4.2741312e-06,0.13731785,1.0303243,0.002033469,1.0190834,0
134162298,134160941,0.579216,4.274261e-06,-0.3240009,1.0363092,0.01125539,1.0260252,0
134262547,134260279,0.57940024,4.2732236e-06,0.9310283,1.0280461,0.093685135,1.0258256,0
134360846,134359699,0.5792857,4.2721645e-06,-1.1199124,1.0266286,0.13574137,1.0275866,0
134460181,134458956,0.5790679,4.2709044e-06,0.75794274,1.0392058,0.061422676,1.0325657,0
134559573,134558292,0.57925284,4.2699053e-06,0.8192329,1.0293503,0.07244511,1.0245155,0
134664727,134662597,0.57941884,4.2697257e-06,-0.7483736,1.0197289,0.06102527,1.0121064,0
134763138,134761937,0.5795065,4.2681554e-06,0.8235669,1.0020278,0.07520999,1.0,0
134863557,134861273,0.5796148,4.266202e-06,0.84796834,1.0012512,0.07979464,1.0,0
134961985,134960622,0.57950187,4.2644497e-06,-0.8372756,1.0020843,0.07773026,1.0,0
135062194,135059948,0.5796566,4.262469e-06,0.50336236,1.0012596,0.028117212,1.0,0
135160517,135159376,0.579275,4.260541e-06,1.0797321,1.0070888,0.12862392,1.0068583,0
135254833,135253654,0.57961464,4.2575775e-06,-1.430966,1.0344609,0.21993889,1.0414804,0
135355451,135352998,0.58006614,4.2566207e-06,-1.0911343,1.0604672,0.12474314,1.0570303,0
135464584,135462266,0.58012295,4.2583038e-06,-0.011286281,1.0197225,1.387961e-05,1.0087742,0
135562766,135561604,0.57986933,4.2568395e-06,0.78298885,1.0073289,0.06762346,1.0036304,0
135663255,135660947,0.57974976,4.255236e-06,0.56544477,1.0012425,0.035481222,1.0,0
135761491,135760281,0.5796554,4.2536813e-06,-0.5796025,1.0012431,0.037280213,1.0,0
135861766,135859620,0.5799763,4.25214e-06,-1.5768486,1.0097243,0.27361172,1.0199224,0
135960101,135958991,0.5804478,4.2513875e-06,-1.3294615,1.0377265,0.18924573,1.0384403,0
136059573,136058293,0.5804607,4.2506645e-06,0.67575854,1.0160289,0.049938384,1.0123429,0
136159923,136157631,0.58027196,4.249365e-06,1.0870274,1.0012356,0.13113004,1.0047405,0
136258264,136257118,0.5800534,4.2479182e-06,-0.2402334,1.0012535,0.006404427,1.0,0
136358737,136356313,0.5805001,4.2462093e-06,-1.4102111,1.0117248,0.21840538,1.0155703,0
136456852,136455663,0.5805875,4.244742e-06,0.9282167,1.0012454,0.09561273,1.0021824,0
136562337,136559950,0.58027345,4.244699e-06,0.93992794,1.0164249,0.09657646,1.0154213,0
136660634,136659287,0.58019954,4.243372e-06,-0.9791401,1.0155405,0.104893826,1.0126773,0
136761001,136758657,0.5803574,4.2420334e-06,0.26811087,1.00124,0.007977157,1.0,0
136859258,136857965,0.58031774,4.2406386e-06,-1.1867663,1.001245,0.15629587,1.0023315,0
136959656,136957303,0.58027726,4.2391634e-06,0.84463406,1.0012385,0.079169355,1.0,0
137057904,137056809,0.580397,4.2378306e-06,1.01089,1.0012269,0.11340516,1.001838,0
137163309,137160943,0.580423,4.2379497e-06,1.5060548,1.0012131,0.25171697,1.0148627,0
137261654,137260281,0.5804929,4.2371194e-06,-1.0009984,1.0032265,0.11097502,1.0002581,0
137355883,137354652,0.5803016,4.2347515e-06,1.4094415,1.0021476,0.22025202,1.0089482,0
137456385,137454001,0.5803658,4.2337765e-06,-1.2561169,1.001223,0.17510027,1.0043155,0
137554613,137553329,0.5804293,4.2328934e-06,-1.1891916,1.00122,0.15693927,1.0025251,0
137654830,137652680,0.5804323,4.2317574e-06,-0.37207597,1.0012317,0.015363358,1.0,0
137763366,137761940,0.5804046,4.232908e-06,1.0349898,1.0087333,0.1179922,1.009467,0
137862574,137861388,0.5805257,4.231662e-06,-0.07728892,1.0012296,0.00066291564,1.0,0
137962026,137960614,0.580019,4.23123e-06,1.7594712,1.057523,0.325261,1.074464,0
138061320,138059998,0.5795728,4.233011e-06,0.6858057,1.1147405,0.046879813,1.1051179,0
138160595,138159288,0.57988685,4.2344973e-06,-1.8526199,1.1140234,0.3423228,1.1379082,0
138260029,138258625,0.5801886,4.237214e-06,0.565831,1.1758842,0.030252859,1.1665702,0
138359171,138357964,0.5802296,4.23971e-06,-1.5626382,1.1711483,0.23166607,1.1811886,0
138463585,138462269,0.58055073,4.243575e-06,-0.9525286,1.1757077,0.08574606,1.1694807,0
138562964,138561608,0.58030534,4.2461393e-06,1.2191386,1.1886169,0.13893825,1.1914479,0
138662374,138661016,0.5804457,4.2488678e-06,-1.7147751,1.1600214,0.2816474,1.1734908,0
138761645,138760282,0.5804251,4.2515103e-06,1.0696641,1.1763979,0.10806824,1.1763673,0
138860970,138859650,0.58062303,4.2540646e-06,-1.3792428,1.17316,0.18016967,1.175862,0
138960177,138958964,0.58065677,4.2566744e-06,1.1084211,1.1488795,0.11882082,1.1512336,0
139059855,139058297,0.5807125,4.2589118e-06,-1.334409,1.1470059,0.17249231,1.148766,0
139158936,139157676,0.5807815,4.260577e-06,-1.0810702,1.127324,0.11519046,1.1237211,0
139263571,139261938,0.58088684,4.2633674e-06,-0.19298092,1.1532611,0.0035880508,1.1407326,0
139362643,139361276,0.580623,4.2652136e-06,0.7592564,1.1541944,0.05549521,1.1483837,0
139462301,139460706,0.58101153,4.2674856e-06,-1.3077002,1.1606497,0.16370906,1.1605334,0
139561263,139559952,0.58095974,4.269779e-06,0.8552242,1.1380571,0.07140908,1.1355227,0
139660659,139659290,0.58111924,4.271358e-06,0.39735267,1.1205794,0.015655506,1.1116039,0
139760006,139758807,0.5807576,4.2731635e-06,0.26428714,1.1528279,0.0067320154,1.1412455,0
139864078,139862934,0.5807223,4.2758643e-06,-1.2454474,1.1174223,0.15423784,1.1206162,0
139963349,139962282,0.58045065,4.2770657e-06,1.1873715,1.149117,0.13632217,1.1497118,0
140063445,140061658,0.5806757,4.2788124e-06,-1.2292919,1.1493064,0.14609377,1.150702,0
140162244,140160950,0.5805043,4.2807096e-06,1.0895822,1.1475785,0.11494633,1.1463805,0
140261627,140260296,0.5805324,4.28239e-06,2.2738822,1.12505,0.51064795,1.1631367,0
140355962,140354656,0.58039623,4.28415e-06,-0.17845415,1.2073668,0.0029307012,1.194828,0
140455650,140453993,0.5803383,4.2870565e-06,-1.3400923,1.181582,0.16887411,1.1881161,0
140554611,140553447,0.58035433,4.289558e-06,-1.5158565,1.1677074,0.21864505,1.1791967,0
140663925,140662610,0.5800781,4.294469e-06,1.3475654,1.1956859,0.16874856,1.197265,0
140763257,140761940,0.5803446,4.297269e-06,-1.1699171,1.191251,0.12766281,1.1926111,0
140862423,140861279,0.5802329,4.3000155e-06,-0.94630927,1.1693656,0.08508898,1.1667279,0
140962370,140960616,0.58025235,4.3023792e-06,0.21841584,1.1752698,0.0045101205,1.1627674,0
141061299,141059973,0.5803334,4.3043538e-06,1.2713054,1.1492027,0.15626462,1.1518804,0
141160703,141159323,0.5805632,4.3061905e-06,-1.5950794,1.163407,0.24299115,1.1743462,0
141259801,141258630,0.58022416,4.30862e-06,1.6800885,1.1796523,0.26586905,1.1925374,0
141359439,141358119,0.58040726,4.311276e-06,-0.2509962,1.1815914,0.0059241285,1.1693257,0
141458896,141457307,0.58021194,4.313637e-06,-0.90611947,1.1646134,0.07833334,1.1610824,0
141558002,141556643,0.58018434,4.3156956e-06,-0.0079007,1.1541795,6.009181e-06,1.1416832,0
141662532,141660948,0.58021414,4.3186824e-06,-0.35216,1.116718,0.012339399,1.1038904,0
141761585,141760333,0.5799981,4.3196947e-06,0.07853058,1.0861434,0.0006308817,1.0742593,0
141861058,141859624,0.5800498,4.3200725e-06,-1.7699347,1.0610338,0.328052,1.0829576,0
141960140,141958962,0.5800648,4.3202404e-06,-1.043478,1.0616282,0.11395978,1.0620769,0
142060195,142058300,0.58010626,4.3201944e-06,-1.2172296,1.0735646,0.15334666,1.0775288,0
142158919,142157713,0.5799934,4.320131e-06,-1.1053549,1.0748374,0.12630431,1.0767405,0
142263372,142261942,0.58019745,4.321281e-06,0.3509997,1.0734496,0.012752323,1.0628223,0
142362685,142361281,0.5799528,4.3215177e-06,-0.4496405,1.0710994,0.020972904,1.0621046,0
142462001,142460649,0.57986253,4.32184e-06,2.1425176,1.0513346,0.48513803,1.0806725,0
142561302,142559957,0.57972866,4.32329e-06,-1.5218027,1.1163111,0.23050956,1.13069,0
142660938,142659295,0.57955426,4.324966e-06,0.32918596,1.1254354,0.010698418,1.1134499,0
142755323,142753665,0.5796114,4.3251316e-06,0.993866,1.1144142,0.098484196,1.1094711,0
142864480,142862937,0.5795447,4.328681e-06,0.7442585,1.113903,0.055253237,1.1054199,0
142963773,142962338,0.5795126,4.3293244e-06,0.88287854,1.0701212,0.08093315,1.0639744,0
143062967,143061615,0.57939845,4.3299106e-06,0.13585046,1.0672317,0.0019214142,1.0555604,0
143162124,143160951,0.5791955,4.3302352e-06,1.1413752,1.0441523,0.13862786,1.0416186,0
143261591,143260291,0.57920474,4.3299424e-06,0.9391933,1.0305207,0.095106624,1.0250217,0
143360998,143359643,0.579064,4.3292785e-06,1.9707062,1.0160372,0.42470917,1.0358534,0
143460288,143458964,0.5792338,4.3287955e-06,0.30053836,1.0403202,0.009646956,1.0291831,0
143559929,143558302,0.57918096,4.3280493e-06,0.52691627,1.0212183,0.03020801,1.0115165,0
143658865,143657662,0.5790485,4.3270798e-06,0.694338,1.0175805,0.052641787,1.0092486,0
143758569,143757053,0.57899237,4.325716e-06,0.9085832,1.001211,0.09161388,1.0,0
143862563,143861283,0.57884187,4.325745e-06,-0.5332535,1.016477,0.031083317,1.0103089,0
143962026,143960621,0.578788,4.324462e-06,-0.09903936,1.0035635,0.001085996,1.0,0
144061340,144060128,0.5787185,4.323071e-06,-0.81298196,1.0045525,0.07310493,1.0030943,0
144161042,144159297,0.5787453,4.32149e-06,-0.08650437,1.0013692,0.0008303082,1.0,0
144260003,144258638,0.5786636,4.3199498e-06,0.9276474,1.0105511,0.09461611,1.0052193,0
144359362,144357972,0.5785857,4.3187356e-06,-0.60262525,1.0080413,0.040028915,1.002679,0
144458442,144457310,0.57850426,4.3172367e-06,0.7964533,1.0012171,0.070396304,1.0,0
144558034,144556652,0.5785627,4.315936e-06,1.8223344,1.0214463,0.36124188,1.0380384,0
144662332,144660953,0.57816666,4.3167497e-06,1.0971047,1.0356773,0.1291306,1.0315919,0
144761666,144760291,0.5780734,4.315842e-06,1.5530301,1.016375,0.26367158,1.0220969,0
144860927,144859759,0.57826287,4.3148434e-06,-0.4598775,1.0300009,0.022814145,1.0225027,0
144955148,144954001,0.5781366,4.3126192e-06,1.6559585,1.0102013,0.3016119,1.0199425,0
145054714,145053338,0.5781219,4.3117375e-06,-0.022845939,1.0170331,5.7021738e-05,1.00627,0
145164227,145162610,0.57801867,4.313124e-06,0.45095238,1.0012066,0.022568109,1.0,0
145263213,145261948,0.57801497,4.3121336e-06,0.8229929,1.031645,0.07294901,1.0243112,0
145362840,145361286,0.57805026,4.310918e-06,0.48056272,1.0238243,0.025062948,1.0135545,0
145462212,145460623,0.5780626,4.30923e-06,0.86462635,1.0198014,0.08145145,1.0136828,0
145561237,145559962,0.57751375,4.3093464e-06,0.19787095,1.0973347,0.0039644456,1.0854023,0
145660736,145659400,0.5776077,4.3099362e-06,0.3027458,1.0895903,0.009346533,1.0776666,0
145755034,145753670,0.5778316,4.308728e-06,-1.3207607,1.1029689,0.17572862,1.1117718,0
145864511,145862944,0.57757694,4.311789e-06,-0.26096666,1.1078624,0.0068303305,1.0933812,0
145963599,145962282,0.5776242,4.312365e-06,1.2643496,1.0964577,0.16199438,1.0963646,0
146062916,146061618,0.57761043,4.3128193e-06,-0.39160556,1.0922453,0.015600373,1.0831625,0
146162267,146161004,0.5773458,4.3128316e-06,-0.039548717,1.0757704,0.00016154842,1.0645493,0
146261955,146260296,0.5774565,4.3123528e-06,0.66299963,1.0575651,0.04618245,1.0484133,0
146360988,146359632,0.5774279,4.3114396e-06,0.8233892,1.058397,0.07117364,1.0511254,0
146460504,146459081,0.57754076,4.3105833e-06,0.82716024,1.088864,0.06981732,1.0818622,0
146559523,146558308,0.5778265,4.3100895e-06,-1.6542064,1.0930958,0.27814972,1.1087376,0
146658934,146657646,0.5776541,4.3102877e-06,-0.8896677,1.0943141,0.08036577,1.0913364,0
146758555,146757165,0.5779031,4.310625e-06,0.75872505,1.1040096,0.05793666,1.097633,0
146862501,146861289,0.5778047,4.311972e-06,1.0575399,1.0972073,0.1132563,1.0957706,0
146961849,146960627,0.57793546,4.3120413e-06,-0.33402735,1.0971264,0.011299647,1.0860716,0
147061301,147059964,0.5780381,4.3113823e-06,-0.9073603,1.0618944,0.086146116,1.0574756,0
147160997,147159306,0.5779492,4.310035e-06,0.091409445,1.0602869,0.00087562116,1.0487105,0
147259807,147258666,0.57842225,4.3090863e-06,-1.3528547,1.0736415,0.18940896,1.0761844,0
147359351,147357989,0.5781974,4.3088394e-06,1.2439966,1.0709741,0.16055244,1.0761147,0
147458528,147457317,0.5783694,4.3085215e-06,0.13253449,1.054735,0.0018504269,1.0437142,0
147558407,147556827,0.57837534,4.307542e-06,-0.14008114,1.0322461,0.0021121928,1.0208274,0
147662283,147660959,0.57835025,4.306928e-06,-0.020161226,1.0394226,4.3450942e-05,1.0280213,0
147761875,147760303,0.57841593,4.305089e-06,0.7401214,1.0407257,0.058482666,1.0360595,0
147856258,147854669,0.57836366,4.3023397e-06,1.2797191,1.055229,0.17244083,1.057796,0
147955201,147954006,0.57863617,4.3016557e-06,-1.2962658,1.0571258,0.1766115,1.0586085,0
148054948,148053389,0.578546,4.3011323e-06,-0.19969736,1.0473093,0.0042308457,1.0358584,0
148164000,148162616,0.57861805,4.302547e-06,0.8648833,1.0255518,0.08104289,1.023594,0
148263158,148261955,0.5786328,4.3012396e-06,1.1937357,1.0241793,0.15459585,1.0294275,0
148363106,148361453,0.57868874,4.299561e-06,-0.28466392,1.005893,0.008950979,1.0,0
148461804,148460630,0.57884073,4.297289e-06,-0.50750065,1.0090433,0.028360955,1.0,0
148561379,148559999,0.5785822,4.295267e-06,0.5947438,1.0111545,0.038868684,1.004181,0
148660447,148659309,0.5786804,4.2933425e-06,1.0946977,1.0012298,0.1329879,1.0036677,0
148759990,148758647,0.5787501,4.2911415e-06,1.3245741,1.0012652,0.19469774,1.0097147,0
148859420,148857984,0.578878,4.288831e-06,0.40824026,1.0025039,0.018471539,1.0,0
148958698,148957320,0.578907,4.286367e-06,-1.02526,1.0012753,0.11664657,1.0,0
149058270,149056658,0.5787408,4.284395e-06,1.4795494,1.0304193,0.23604915,1.0421143,0
149157423,149156161,0.5784488,4.28445e-06,-0.51063,1.0851661,0.026697708,1.0760578,0
149261708,149260301,0.5784106,4.285372e-06,-0.013953678,1.0562378,2.0482037e-05,1.0446488,0
149360838,149359639,0.5788877,4.2848587e-06,-1.1287714,1.0862024,0.13033432,1.0848042,0
149460295,149458977,0.5787285,4.284796e-06,1.1716304,1.0649692,0.14321935,1.0676495,0
149559693,149558318,0.5788994,4.284357e-06,-0.25265282,1.077044,0.006585252,1.0654954,0
149659430,149657653,0.57894427,4.2837496e-06,-1.2239559,1.0637087,0.1564827,1.0646201,0
149758264,149757040,0.5786965,4.282984e-06,1.0784777,1.0638323,0.12148053,1.0638509,0
149857691,149856330,0.57885826,4.2823544e-06,-1.2439275,1.0495822,0.1638065,1.051842,0
149956890,149955742,0.5789001,4.281703e-06,-0.35227674,1.0446122,0.013199892,1.0339068,0
150061357,150059972,0.57917917,4.2815636e-06,-0.5300666,1.0219493,0.030548438,1.0122278,0
150160953,150159310,0.57919776,4.279504e-06,-1.4092805,1.0012653,0.22039574,1.0063658,0
150265024,150263615,0.5793102,4.2787765e-06,-1.116769,1.001255,0.13840108,1.0,0
150354725,150353071,0.57924145,4.274403e-06,-0.5167916,1.0086741,0.029419646,1.0,0
150464114,150462291,0.5792258,4.2750994e-06,1.1273274,1.0012378,0.14103289,1.0047324,0
150562828,150561631,0.5792172,4.273902e-06,-0.757006,1.014808,0.06274401,1.0080779,0
