timestamp,x,y,z,r,flaps,aux1,aux2,aux3,aux4,aux5,aux6,mode_switch,return_switch,rattitude_switch,posctl_switch,loiter_switch,acro_switch,offboard_switch,kill_switch,arm_switch,transition_switch,gear_switch,mode_slot,data_source,stab_switch,man_switch
66703846,-0.0,0.0,-0.0,1.0,0.0,0.0,0.0,0.0,0.0,0.0,0.0,0,0,0,0,3,0,0,3,0,0,0,1,1,0,0
66727010,-0.0,0.0,-0.0,1.0,0.0,0.0,0.0,0.0,0.0,0.0,0.0,0,0,0,0,3,0,0,3,0,0,0,1,1,0,0
66905370,-0.0,0.0,-0.0,1.0,0.0,0.0,0.0,0.0,0.0,0.0,0.0,0,0,0,0,3,0,0,3,0,0,0,1,1,0,0
67106272,-0.0,0.0,-0.0,0.05147059,0.0,0.0,0.0,0.0,0.0,0.0,0.0,0,0,0,0,3,0,0,3,0,0,0,1,1,0,0
67307497,-0.0,0.0,-0.0,0.0,0.0,0.0,0.0,0.0,0.0,0.0,0.0,0,0,0,0,3,0,0,3,0,0,0,1,1,0,0
67486395,-0.0,0.0,-0.0,0.0,0.0,0.0,0.0,0.0,0.0,0.0,0.0,0,0,0,0,3,0,0,3,0,0,0,1,1,0,0
67695026,-0.0,0.0,-0.0,-0.0022779044,0.0,0.0,0.0,0.0,0.0,0.0,0.0,0,0,0,0,3,0,0,3,0,0,0,1,1,0,0
67889150,-0.0,0.0,-0.0,0.0,0.0,0.0,0.0,0.0,0.0,0.0,0.0,0,0,0,0,3,0,0,3,0,0,0,1,1,0,0
68089604,-0.0,0.0,-0.0,0.0,0.0,0.0,0.0,0.0,0.0,0.0,0.0,0,0,0,0,3,0,0,3,0,0,0,1,1,0,0
68288274,-0.0,0.0,-0.0,0.0,0.0,0.0,0.0,0.0,0.0,0.0,0.0,0,0,0,0,3,0,0,3,0,0,0,1,1,0,0
68490332,-0.0,0.0,0.037869822,0.0,0.0,0.0,0.0,0.0,0.0,0.0,0.0,0,0,0,0,3,0,0,3,0,0,0,1,1,0,0
68690549,-0.0,0.0,0.16449705,0.0,0.0,0.0,0.0,0.0,0.0,0.0,0.0,0,0,0,0,3,0,0,3,0,0,0,1,1,0,0
68892537,-0.0,0.0,0.18816568,0.0,0.0,0.0,0.0,0.0,0.0,0.0,0.0,0,0,0,0,3,0,0,3,0,0,0,1,1,0,0
69092882,-0.0,0.077108435,0.18934911,0.0,0.0,0.0,0.0,0.0,0.0,0.0,0.0,0,0,0,0,3,0,0,3,0,0,0,1,1,0,0
69295021,-0.0,0.10120482,0.19526628,0.0,0.0,0.0,0.0,0.0,0.0,0.0,0.0,0,0,0,0,3,0,0,3,0,0,0,1,1,0,0
69495294,-0.0,0.0,0.25325444,0.0,0.0,0.0,0.0,0.0,0.0,0.0,0.0,0,0,0,0,3,0,0,3,0,0,0,1,1,0,0
69696683,-0.0,0.0,0.304142,0.0,0.0,0.0,0.0,0.0,0.0,0.0,0.0,0,0,0,0,3,0,0,3,0,0,0,1,1,0,0
69895727,-0.0,0.0,0.36804733,0.0,0.0,0.0,0.0,0.0,0.0,0.0,0.0,0,0,0,0,3,0,0,3,0,0,0,1,1,0,0
70096420,-0.0,0.012048192,0.4402367,0.0,0.0,0.0,0.0,0.0,0.0,0.0,0.0,0,0,0,0,3,0,0,3,0,0,0,1,1,0,0
70297643,-0.0,0.09638554,0.48284024,0.0,0.0,0.0,0.0,0.0,0.0,0.0,0.0,0,0,0,0,3,0,0,3,0,0,0,1,1,0,0
70498578,-0.0,0.031325303,0.512426,0.0,0.0,0.0,0.0,0.0,0.0,0.0,0.0,0,0,0,0,3,0,0,3,0,0,0,1,1,0,0
70700698,0.021582734,0.0,0.54201186,0.0,0.0,0.0,0.0,0.0,0.0,0.0,0.0,0,0,0,0,3,0,0,3,0,0,0,1,1,0,0
70901109,0.07913669,0.0,0.5597633,0.0,0.0,0.0,0.0,0.0,0.0,0.0,0.0,0,0,0,0,3,0,0,3,0,0,0,1,1,0,0
71102209,0.08872902,0.08915663,0.5704142,0.0,0.0,0.0,0.0,0.0,0.0,0.0,0.0,0,0,0,0,3,0,0,3,0,0,0,1,1,0,0
71303222,0.07194245,0.17590362,0.5704142,0.0,0.0,0.0,0.0,0.0,0.0,0.0,0.0,0,0,0,0,3,0,0,3,0,0,0,1,1,0,0
71504747,0.06714629,0.25060242,0.5668639,0.0,0.0,0.0,0.0,0.0,0.0,0.0,0.0,0,0,0,0,3,0,0,3,0,0,0,1,1,0,0
71705826,0.07434053,0.24819277,0.56568044,0.0,0.0,0.0,0.0,0.0,0.0,0.0,0.0,0,0,0,0,3,0,0,3,0,0,0,1,1,0,0
71906933,0.086330935,0.20963855,0.5668639,0.0,0.0,0.0,0.0,0.0,0.0,0.0,0.0,0,0,0,0,3,0,0,3,0,0,0,1,1,0,0
72086212,0.086330935,0.18072289,0.56568044,0.0,0.0,0.0,0.0,0.0,0.0,0.0,0.0,0,0,0,0,3,0,0,3,0,0,0,1,1,0,0
72286778,-0.0,0.0,0.56568044,0.0,0.0,0.0,0.0,0.0,0.0,0.0,0.0,0,0,0,0,3,0,0,3,0,0,0,1,1,0,0
72487979,-0.0,0.0,0.56449705,0.0,0.0,0.0,0.0,0.0,0.0,0.0,0.0,0,0,0,0,3,0,0,3,0,0,0,1,1,0,0
72686617,-0.0,0.0,0.56449705,0.0,0.0,0.0,0.0,0.0,0.0,0.0,0.0,0,0,0,0,3,0,0,3,0,0,0,1,1,0,0
72907636,-0.0,0.0,0.56449705,0.0,0.0,0.0,0.0,0.0,0.0,0.0,0.0,0,0,0,0,3,0,0,3,0,0,0,1,1,0,0
73086401,-0.0,0.0,0.56449705,0.0,0.0,0.0,0.0,0.0,0.0,0.0,0.0,0,0,0,0,3,0,0,3,0,0,0,1,1,0,0
73288382,-0.0,0.0,0.56568044,0.0,0.0,0.0,0.0,0.0,0.0,0.0,0.0,0,0,0,0,1,0,0,3,0,0,0,1,1,0,0
73488587,-0.0,0.0,0.56568044,0.0,0.0,0.0,0.0,0.0,0.0,0.0,0.0,0,0,0,0,1,0,0,3,0,0,0,1,1,0,0
73690495,-0.0,0.0,0.56449705,0.0,0.0,0.0,0.0,0.0,0.0,0.0,0.0,0,0,0,0,1,0,0,3,0,0,0,1,1,0,0
73890983,-0.0,0.0,0.5597633,0.0,0.0,0.0,0.0,0.0,0.0,0.0,0.0,0,0,0,0,1,0,0,3,0,0,0,1,1,0,0
74092325,-0.0,0.33734939,0.5597633,0.0,0.0,0.0,0.0,0.0,0.0,0.0,0.0,0,0,0,0,1,0,0,3,0,0,0,1,1,0,0
74293207,-0.0,0.3325301,0.55857986,0.0,0.0,0.0,0.0,0.0,0.0,0.0,0.0,0,0,0,0,1,0,0,3,0,0,0,1,1,0,0
74495512,-0.0,0.28433734,0.55857986,0.0,0.0,0.0,0.0,0.0,0.0,0.0,0.0,0,0,0,0,1,0,0,3,0,0,0,1,1,0,0
74693679,-0.0,0.055421688,0.4852071,0.0,0.0,0.0,0.0,0.0,0.0,0.0,0.0,0,0,0,0,1,0,0,3,0,0,0,1,1,0,0
74894270,-0.0,0.031325303,0.45443788,0.0,0.0,0.0,0.0,0.0,0.0,0.0,0.0,0,0,0,0,1,0,0,3,0,0,0,1,1,0,0
75091298,-0.0,0.05060241,0.45443788,0.0,0.0,0.0,0.0,0.0,0.0,0.0,0.0,0,0,0,0,1,0,0,3,0,0,0,1,1,0,0
75289868,-0.0,0.03373494,0.4698225,0.0,0.0,0.0,0.0,0.0,0.0,0.0,0.0,0,0,0,0,1,0,0,3,0,0,0,1,1,0,0
75490301,-0.0,0.040963855,0.4852071,0.0,0.0,0.0,0.0,0.0,0.0,0.0,0.0,0,0,0,0,1,0,0,3,0,0,0,1,1,0,0
75692310,-0.0,0.021686748,0.4852071,0.0,0.0,0.0,0.0,0.0,0.0,0.0,0.0,0,0,0,0,3,0,0,3,0,0,0,1,1,0,0
75899374,-0.0,0.0,0.4934911,0.0,0.0,0.0,0.0,0.0,0.0,0.0,0.0,0,0,0,0,3,0,0,3,0,0,0,1,1,0,0
76093997,-0.0,0.08192771,0.5195266,0.0,0.0,0.0,0.0,0.0,0.0,0.0,0.0,0,0,0,0,3,0,0,3,0,0,0,1,1,0,0
76294990,-0.0,0.10120482,0.59408283,0.0,0.0,0.0,0.0,0.0,0.0,0.0,0.0,0,0,0,0,3,0,0,3,0,0,0,1,1,0,0
76496884,-0.0,0.13493976,0.60236686,0.0,0.0,0.0,0.0,0.0,0.0,0.0,0.0,0,0,0,0,3,0,0,3,0,0,0,1,1,0,0
76697231,-0.0,0.0,0.60946745,0.0,0.0,0.0,0.0,0.0,0.0,0.0,0.0,0,0,0,0,3,0,0,3,0,0,0,1,1,0,0
76899549,-0.0,0.21686748,0.60946745,0.0,0.0,0.0,0.0,0.0,0.0,0.0,0.0,0,0,0,0,3,0,0,3,0,0,0,1,1,0,0
77099488,-0.0,0.32771084,0.60946745,0.0,0.0,0.0,0.0,0.0,0.0,0.0,0.0,0,0,0,0,3,0,0,3,0,0,0,1,1,0,0
77300937,-0.0,0.26746988,0.60946745,0.0,0.0,0.0,0.0,0.0,0.0,0.0,0.0,0,0,0,0,3,0,0,3,0,0,0,1,1,0,0
77499484,-0.0,0.23373494,0.60946745,0.0,0.0,0.0,0.0,0.0,0.0,0.0,0.0,0,0,0,0,3,0,0,3,0,0,0,1,1,0,0
77698633,-0.04047619,0.09638554,0.60946745,0.0,0.0,0.0,0.0,0.0,0.0,0.0,0.0,0,0,0,0,3,0,0,3,0,0,0,1,1,0,0
77899408,-0.0,0.0,0.6106509,0.0,0.0,0.0,0.0,0.0,0.0,0.0,0.0,0,0,0,0,3,0,0,3,0,0,0,1,1,0,0
78097768,-0.0,0.0,0.61183435,0.0,0.0,0.0,0.0,0.0,0.0,0.0,0.0,0,0,0,0,3,0,0,3,0,0,0,1,1,0,0
78296547,-0.0,0.0,0.61183435,0.0,0.0,0.0,0.0,0.0,0.0,0.0,0.0,0,0,0,0,3,0,0,3,0,0,0,1,1,0,0
78498274,-0.0,0.0,0.6,0.0,0.0,0.0,0.0,0.0,0.0,0.0,0.0,0,0,0,0,3,0,0,3,0,0,0,1,1,0,0
78699174,-0.0,0.0,0.6,0.0,0.0,0.0,0.0,0.0,0.0,0.0,0.0,0,0,0,0,1,0,0,3,0,0,0,1,1,0,0
78897484,-0.0,0.0,0.6,0.0,0.0,0.0,0.0,0.0,0.0,0.0,0.0,0,0,0,0,1,0,0,3,0,0,0,1,1,0,0
79096113,-0.0,0.0,0.6,0.0,0.0,0.0,0.0,0.0,0.0,0.0,0.0,0,0,0,0,1,0,0,3,0,0,0,1,1,0,0
79298064,-0.0,0.0,0.6,0.0,0.0,0.0,0.0,0.0,0.0,0.0,0.0,0,0,0,0,1,0,0,3,0,0,0,1,1,0,0
79498882,-0.0,0.0,0.6,0.0,0.0,0.0,0.0,0.0,0.0,0.0,0.0,0,0,0,0,1,0,0,3,0,0,0,1,1,0,0
79697192,-0.0,0.0,0.6,0.0,0.0,0.0,0.0,0.0,0.0,0.0,0.0,0,0,0,0,1,0,0,3,0,0,0,1,1,0,0
79895827,-0.0,0.0,0.6011834,0.0,0.0,0.0,0.0,0.0,0.0,0.0,0.0,0,0,0,0,1,0,0,3,0,0,0,1,1,0,0
80097294,-0.0,0.0,0.60236686,0.0,0.0,0.0,0.0,0.0,0.0,0.0,0.0,0,0,0,0,1,0,0,3,0,0,0,1,1,0,0
80298237,-0.0,0.0,0.60236686,0.0,0.0,0.0,0.0,0.0,0.0,0.0,0.0,0,0,0,0,1,0,0,3,0,0,0,1,1,0,0
80499482,-0.0,0.0,0.60236686,0.0,0.0,0.0,0.0,0.0,0.0,0.0,0.0,0,0,0,0,1,0,0,3,0,0,0,1,1,0,0
80700418,-0.0,0.0,0.6011834,0.0,0.0,0.0,0.0,0.0,0.0,0.0,0.0,0,0,0,0,1,0,0,3,0,0,0,1,1,0,0
80902743,-0.0,0.0,0.6,0.0,0.0,0.0,0.0,0.0,0.0,0.0,0.0,0,0,0,0,1,0,0,3,0,0,0,1,1,0,0
81102838,-0.0,0.0,0.6,0.0,0.0,0.0,0.0,0.0,0.0,0.0,0.0,0,0,0,0,1,0,0,3,0,0,0,1,1,0,0
81304056,-0.0,0.0,0.6,0.0,0.0,0.0,0.0,0.0,0.0,0.0,0.0,0,0,0,0,1,0,0,3,0,0,0,1,1,0,0
81505049,-0.0,0.0,0.6,0.0,0.0,0.0,0.0,0.0,0.0,0.0,0.0,0,0,0,0,1,0,0,3,0,0,0,1,1,0,0
81706451,-0.0,0.0,0.6,0.0,0.0,0.0,0.0,0.0,0.0,0.0,0.0,0,0,0,0,1,0,0,3,0,0,0,1,1,0,0
81885247,-0.0,0.0,0.6011834,0.0,0.0,0.0,0.0,0.0,0.0,0.0,0.0,0,0,0,0,1,0,0,3,0,0,0,1,1,0,0
82086234,-0.0,0.0,0.60236686,0.0,0.0,0.0,0.0,0.0,0.0,0.0,0.0,0,0,0,0,1,0,0,3,0,0,0,1,1,0,0
82285109,-0.0,0.0,0.60236686,0.0,0.0,0.0,0.0,0.0,0.0,0.0,0.0,0,0,0,0,1,0,0,3,0,0,0,1,1,0,0
82486250,-0.0,0.0,0.6035503,0.0,0.0,0.0,0.0,0.0,0.0,0.0,0.0,0,0,0,0,1,0,0,3,0,0,0,1,1,0,0
82687140,-0.0,0.0,0.60236686,0.0,0.0,0.0,0.0,0.0,0.0,0.0,0.0,0,0,0,0,1,0,0,3,0,0,0,1,1,0,0
82888528,0.21822542,0.0,0.6,0.0,0.0,0.0,0.0,0.0,0.0,0.0,0.0,0,0,0,0,1,0,0,3,0,0,0,1,1,0,0
83089483,0.15107913,0.0,0.6035503,0.0,0.0,0.0,0.0,0.0,0.0,0.0,0.0,0,0,0,0,1,0,0,3,0,0,0,1,1,0,0
83291579,0.086330935,0.0,0.6035503,0.0,0.0,0.0,0.0,0.0,0.0,0.0,0.0,0,0,0,0,1,0,0,3,0,0,0,1,1,0,0
83490045,0.19424461,0.0,0.6035503,0.0,0.0,0.0,0.0,0.0,0.0,0.0,0.0,0,0,0,0,1,0,0,3,0,0,0,1,1,0,0
83688707,0.2326139,0.0,0.6035503,0.0,0.0,0.0,0.0,0.0,0.0,0.0,0.0,0,0,0,0,1,0,0,3,0,0,0,1,1,0,0
83887417,0.23021583,0.0,0.6035503,0.0,0.0,0.0,0.0,0.0,0.0,0.0,0.0,0,0,0,0,1,0,0,3,0,0,0,1,1,0,0
84107622,0.37170264,0.0,0.6035503,0.0,0.0,0.0,0.0,0.0,0.0,0.0,0.0,0,0,0,0,1,0,0,3,0,0,0,1,1,0,0
84286469,0.46282974,0.0,0.60236686,0.0,0.0,0.0,0.0,0.0,0.0,0.0,0.0,0,0,0,0,1,0,0,3,0,0,0,1,1,0,0
84488520,0.3788969,0.0,0.60236686,0.0,0.0,0.0,0.0,0.0,0.0,0.0,0.0,0,0,0,0,1,0,0,3,0,0,0,1,1,0,0
84686609,0.28297362,0.0,0.60236686,0.0,0.0,0.0,0.0,0.0,0.0,0.0,0.0,0,0,0,0,1,0,0,3,0,0,0,1,1,0,0
84905083,0.34292567,0.0,0.60236686,0.0,0.0,0.0,0.0,0.0,0.0,0.0,0.0,0,0,0,0,1,0,0,3,0,0,0,1,1,0,0
85085175,0.34292567,0.0,0.6035503,0.0,0.0,0.0,0.0,0.0,0.0,0.0,0.0,0,0,0,0,1,0,0,3,0,0,0,1,1,0,0
85307418,0.3381295,0.0,0.60236686,0.0,0.0,0.0,0.0,0.0,0.0,0.0,0.0,0,0,0,0,1,0,0,3,0,0,0,1,1,0,0
85487591,0.34292567,0.0,0.60236686,0.0,0.0,0.0,0.0,0.0,0.0,0.0,0.0,0,0,0,0,1,0,0,3,0,0,0,1,1,0,0
85687337,0.30695444,0.0,0.60236686,0.0,0.0,0.0,0.0,0.0,0.0,0.0,0.0,0,0,0,0,1,0,0,3,0,0,0,1,1,0,0
85886548,0.33093524,0.0,0.60236686,0.0,0.0,0.0,0.0,0.0,0.0,0.0,0.0,0,0,0,0,1,0,0,3,0,0,0,1,1,0,0
86087268,0.24940048,0.0,0.60236686,0.0,0.0,0.0,0.0,0.0,0.0,0.0,0.0,0,0,0,0,1,0,0,3,0,0,0,1,1,0,0
86288151,0.2877698,0.0,0.60236686,0.0,0.0,0.0,0.0,0.0,0.0,0.0,0.0,0,0,0,0,1,0,0,3,0,0,0,1,1,0,0
86491142,0.3381295,0.0,0.60236686,0.0,0.0,0.0,0.0,0.0,0.0,0.0,0.0,0,0,0,0,1,0,0,3,0,0,0,1,1,0,0
86691045,0.32374102,0.0,0.60236686,0.0,0.0,0.0,0.0,0.0,0.0,0.0,0.0,0,0,0,0,1,0,0,3,0,0,0,1,1,0,0
86891829,0.34772182,0.0,0.60236686,0.0,0.0,0.0,0.0,0.0,0.0,0.0,0.0,0,0,0,0,1,0,0,3,0,0,0,1,1,0,0
87089197,0.35491607,0.0,0.60236686,0.0,0.0,0.0,0.0,0.0,0.0,0.0,0.0,0,0,0,0,1,0,0,3,0,0,0,1,1,0,0
87286562,0.35011992,0.0,0.60236686,0.0,0.0,0.0,0.0,0.0,0.0,0.0,0.0,0,0,0,0,1,0,0,3,0,0,0,1,1,0,0
87485267,0.3788969,0.0,0.60236686,0.0,0.0,0.0,0.0,0.0,0.0,0.0,0.0,0,0,0,0,1,0,0,3,0,0,0,1,1,0,0
87686510,0.4028777,0.0,0.60236686,0.0,0.0,0.0,0.0,0.0,0.0,0.0,0.0,0,0,0,0,1,0,0,3,0,0,0,1,1,0,0
87887520,0.36211032,0.0,0.60236686,0.0,0.0,0.0,0.0,0.0,0.0,0.0,0.0,0,0,0,0,1,0,0,3,0,0,0,1,1,0,0
88088961,0.3908873,0.0,0.60236686,0.0,0.0,0.0,0.0,0.0,0.0,0.0,0.0,0,0,0,0,1,0,0,3,0,0,0,1,1,0,0
88287608,0.39808154,0.0,0.60236686,0.0,0.0,0.0,0.0,0.0,0.0,0.0,0.0,0,0,0,0,1,0,0,3,0,0,0,1,1,0,0
91106217,0.34772182,-0.26303318,0.60236686,0.0,0.0,0.0,0.0,0.0,0.0,0.0,0.0,0,0,0,0,1,0,0,3,0,0,0,1,1,0,0
91303400,0.3381295,-0.30094787,0.60236686,0.0,0.0,0.0,0.0,0.0,0.0,0.0,0.0,0,0,0,0,1,0,0,3,0,0,0,1,1,0,0
91501825,0.35491607,-0.27014217,0.60236686,0.0,0.0,0.0,0.0,0.0,0.0,0.0,0.0,0,0,0,0,1,0,0,3,0,0,0,1,1,0,0
91700573,0.3381295,-0.3127962,0.60236686,0.0,0.0,0.0,0.0,0.0,0.0,0.0,0.0,0,0,0,0,1,0,0,3,0,0,0,1,1,0,0
91895719,0.3261391,-0.36255923,0.60236686,0.0,0.0,0.0,0.0,0.0,0.0,0.0,0.0,0,0,0,0,1,0,0,3,0,0,0,1,1,0,0
92097803,0.23741007,-0.4099526,0.60236686,0.0,0.0,0.0,0.0,0.0,0.0,0.0,0.0,0,0,0,0,1,0,0,3,0,0,0,1,1,0,0
92293133,0.2470024,-0.40521327,0.60236686,0.0,0.0,0.0,0.0,0.0,0.0,0.0,0.0,0,0,0,0,1,0,0,3,0,0,0,1,1,0,0
92494620,0.2470024,-0.39810428,0.60236686,0.0,0.0,0.0,0.0,0.0,0.0,0.0,0.0,0,0,0,0,1,0,0,3,0,0,0,1,1,0,0
92695633,0.2326139,-0.38388625,0.60236686,0.0,0.0,0.0,0.0,0.0,0.0,0.0,0.0,0,0,0,0,1,0,0,3,0,0,0,1,1,0,0
92896753,0.22781774,-0.3578199,0.60236686,0.0,0.0,0.0,0.0,0.0,0.0,0.0,0.0,0,0,0,0,1,0,0,3,0,0,0,1,1,0,0
93096232,0.235012,-0.31753555,0.60236686,0.0,0.0,0.0,0.0,0.0,0.0,0.0,0.0,0,0,0,0,1,0,0,3,0,0,0,1,1,0,0
93294772,0.23980816,-0.30094787,0.60236686,0.0,0.0,0.0,0.0,0.0,0.0,0.0,0.0,0,0,0,0,1,0,0,3,0,0,0,1,1,0,0
93490300,0.31654677,-0.1800948,0.60236686,0.0,0.0,0.0,0.0,0.0,0.0,0.0,0.0,0,0,0,0,1,0,0,3,0,0,0,1,1,0,0
93692044,0.34052756,-0.17772512,0.60236686,0.0,0.0,0.0,0.0,0.0,0.0,0.0,0.0,0,0,0,0,1,0,0,3,0,0,0,1,1,0,0
93892626,0.39568347,-0.14691943,0.60236686,0.0,0.0,0.0,0.0,0.0,0.0,0.0,0.0,0,0,0,0,1,0,0,3,0,0,0,1,1,0,0
94093933,0.41007194,-0.16587678,0.60236686,0.0,0.0,0.0,0.0,0.0,0.0,0.0,0.0,0,0,0,0,1,0,0,3,0,0,0,1,1,0,0
94302539,0.41007194,-0.17772512,0.60236686,0.0,0.0,0.0,0.0,0.0,0.0,0.0,0.0,0,0,0,0,1,0,0,3,0,0,0,1,1,0,0
94497001,0.4028777,-0.20379147,0.60236686,0.0,0.0,0.0,0.0,0.0,0.0,0.0,0.0,0,0,0,0,1,0,0,3,0,0,0,1,1,0,0
94697017,0.37170264,-0.21563981,0.60236686,0.0,0.0,0.0,0.0,0.0,0.0,0.0,0.0,0,0,0,0,1,0,0,3,0,0,0,1,1,0,0
94899428,0.5755396,-0.2535545,0.60236686,0.0,0.0,0.0,0.0,0.0,0.0,0.0,0.0,0,0,0,0,1,0,0,3,0,0,0,1,1,0,0
95097956,0.46282974,-0.22748815,0.60236686,0.0,0.0,0.0,0.0,0.0,0.0,0.0,0.0,0,0,0,0,1,0,0,3,0,0,0,1,1,0,0
95295822,0.25659472,-0.10663507,0.60236686,0.0,0.0,0.0,0.0,0.0,0.0,0.0,0.0,0,0,0,0,1,0,0,3,0,0,0,1,1,0,0
95496675,0.26378897,-0.04028436,0.60236686,0.0,0.0,0.0,0.0,0.0,0.0,0.0,0.0,0,0,0,0,1,0,0,3,0,0,0,1,1,0,0
95698182,0.23980816,-0.018957347,0.60236686,0.0,0.0,0.0,0.0,0.0,0.0,0.0,0.0,0,0,0,0,1,0,0,3,0,0,0,1,1,0,0
95899307,0.1822542,0.0,0.60236686,0.0,0.0,0.0,0.0,0.0,0.0,0.0,0.0,0,0,0,0,1,0,0,3,0,0,0,1,1,0,0
96101063,0.22541967,-0.023696683,0.60236686,0.0,0.0,0.0,0.0,0.0,0.0,0.0,0.0,0,0,0,0,1,0,0,3,0,0,0,1,1,0,0
96299787,0.26618704,-0.0071090045,0.60236686,0.0,0.0,0.0,0.0,0.0,0.0,0.0,0.0,0,0,0,0,1,0,0,3,0,0,0,1,1,0,0
96497738,0.3117506,-0.0071090045,0.60236686,0.0,0.0,0.0,0.0,0.0,0.0,0.0,0.0,0,0,0,0,1,0,0,3,0,0,0,1,1,0,0
96698721,0.3788969,0.0,0.60236686,0.0,0.0,0.0,0.0,0.0,0.0,0.0,0.0,0,0,0,0,1,0,0,3,0,0,0,1,1,0,0
96897397,0.34772182,-0.035545025,0.60236686,0.0,0.0,0.0,0.0,0.0,0.0,0.0,0.0,0,0,0,0,1,0,0,3,0,0,0,1,1,0,0
97096342,0.26618704,-0.033175357,0.60236686,0.0,0.0,0.0,0.0,0.0,0.0,0.0,0.0,0,0,0,0,1,0,0,3,0,0,0,1,1,0,0
97297525,0.26858515,-0.018957347,0.60236686,0.0,0.0,0.0,0.0,0.0,0.0,0.0,0.0,0,0,0,0,1,0,0,3,0,0,0,1,1,0,0
97498575,0.26378897,-0.0023696683,0.60236686,0.0,0.0,0.0,0.0,0.0,0.0,0.0,0.0,0,0,0,0,1,0,0,3,0,0,0,1,1,0,0
97694719,0.3141487,0.0,0.60236686,0.0,0.0,0.0,0.0,0.0,0.0,0.0,0.0,0,0,0,0,1,0,0,3,0,0,0,1,1,0,0
97895768,0.30695444,0.0,0.60236686,0.0,0.0,0.0,0.0,0.0,0.0,0.0,0.0,0,0,0,0,1,0,0,3,0,0,0,1,1,0,0
98097156,0.30695444,0.0,0.60236686,0.0,0.0,0.0,0.0,0.0,0.0,0.0,0.0,0,0,0,0,1,0,0,3,0,0,0,1,1,0,0
98298042,0.31894484,0.0,0.60236686,0.0,0.0,0.0,0.0,0.0,0.0,0.0,0.0,0,0,0,0,1,0,0,3,0,0,0,1,1,0,0
98496691,0.35971224,0.0,0.60236686,0.0,0.0,0.0,0.0,0.0,0.0,0.0,0.0,0,0,0,0,1,0,0,3,0,0,0,1,1,0,0
98698130,0.36211032,0.0,0.60236686,0.0,0.0,0.0,0.0,0.0,0.0,0.0,0.0,0,0,0,0,1,0,0,3,0,0,0,1,1,0,0
98898990,0.32134292,-0.0047393367,0.60236686,0.0,0.0,0.0,0.0,0.0,0.0,0.0,0.0,0,0,0,0,1,0,0,3,0,0,0,1,1,0,0
99101455,0.27577937,-0.023696683,0.6011834,0.0,0.0,0.0,0.0,0.0,0.0,0.0,0.0,0,0,0,0,1,0,0,3,0,0,0,1,1,0,0
99301380,0.27817747,-0.07109005,0.6035503,0.0,0.0,0.0,0.0,0.0,0.0,0.0,0.0,0,0,0,0,1,0,0,3,0,0,0,1,1,0,0
99502783,0.23980816,-0.07819905,0.60236686,0.0,0.0,0.0,0.0,0.0,0.0,0.0,0.0,0,0,0,0,1,0,0,3,0,0,0,1,1,0,0
99701424,0.29256594,-0.08293839,0.6035503,0.0,0.0,0.0,0.0,0.0,0.0,0.0,0.0,0,0,0,0,1,0,0,3,0,0,0,1,1,0,0
99902313,0.34292567,-0.056872036,0.60236686,0.0,0.0,0.0,0.0,0.0,0.0,0.0,0.0,0,0,0,0,1,0,0,3,0,0,0,1,1,0,0
100103684,0.34052756,-0.0450237,0.60236686,0.0,0.0,0.0,0.0,0.0,0.0,0.0,0.0,0,0,0,0,1,0,0,3,0,0,0,1,1,0,0
100303036,0.38369304,0.0,0.60236686,0.0,0.0,0.0,0.0,0.0,0.0,0.0,0.0,0,0,0,0,1,0,0,3,0,0,0,1,1,0,0
100503358,0.38369304,0.0,0.60236686,0.0,0.0,0.0,0.0,0.0,0.0,0.0,0.0,0,0,0,0,1,0,0,3,0,0,0,1,1,0,0
100704707,0.36690646,0.0,0.60236686,0.0,0.0,0.0,0.0,0.0,0.0,0.0,0.0,0,0,0,0,1,0,0,3,0,0,0,1,1,0,0
100905801,0.36690646,-0.014218009,0.6035503,0.0,0.0,0.0,0.0,0.0,0.0,0.0,0.0,0,0,0,0,1,0,0,3,0,0,0,1,1,0,0
101104321,0.34292567,-0.030805686,0.60236686,0.0,0.0,0.0,0.0,0.0,0.0,0.0,0.0,0,0,0,0,1,0,0,3,0,0,0,1,1,0,0
101305710,0.2733813,-0.1042654,0.60236686,0.0,0.0,0.0,0.0,0.0,0.0,0.0,0.0,0,0,0,0,1,0,0,3,0,0,0,1,1,0,0
101484923,0.22302158,-0.20379147,0.60236686,0.0,0.0,0.0,0.0,0.0,0.0,0.0,0.0,0,0,0,0,1,0,0,3,0,0,0,1,1,0,0
101685618,0.20143884,-0.26540285,0.60236686,0.0,0.0,0.0,0.0,0.0,0.0,0.0,0.0,0,0,0,0,1,0,0,3,0,0,0,1,1,0,0
101886814,0.17985612,-0.25829384,0.60236686,0.0,0.0,0.0,0.0,0.0,0.0,0.0,0.0,0,0,0,0,1,0,0,3,0,0,0,1,1,0,0
102088073,0.17026378,-0.26540285,0.60236686,0.0,0.0,0.0,0.0,0.0,0.0,0.0,0.0,0,0,0,0,1,0,0,3,0,0,0,1,1,0,0
102289426,0.18944845,-0.29620853,0.60236686,0.0,0.0,0.0,0.0,0.0,0.0,0.0,0.0,0,0,0,0,1,0,0,3,0,0,0,1,1,0,0
102497236,0.15107913,-0.3957346,0.60236686,0.0,0.0,0.0,0.0,0.0,0.0,0.0,0.0,0,0,0,0,1,0,0,3,0,0,0,1,1,0,0
102692467,0.12709832,-0.41469195,0.60236686,0.0,0.0,0.0,0.0,0.0,0.0,0.0,0.0,0,0,0,0,1,0,0,3,0,0,0,1,1,0,0
102887654,0.13189448,-0.4099526,0.60236686,0.0,0.0,0.0,0.0,0.0,0.0,0.0,0.0,0,0,0,0,1,0,0,3,0,0,0,1,1,0,0
103089194,0.13189448,-0.40758294,0.60236686,0.0,0.0,0.0,0.0,0.0,0.0,0.0,0.0,0,0,0,0,1,0,0,3,0,0,0,1,1,0,0
103289940,0.11990408,-0.36729857,0.60236686,0.0,0.0,0.0,0.0,0.0,0.0,0.0,0.0,0,0,0,0,1,0,0,3,0,0,0,1,1,0,0
103491193,0.16067146,-0.2843602,0.60236686,0.0,0.0,0.0,0.0,0.0,0.0,0.0,0.0,0,0,0,0,1,0,0,3,0,0,0,1,1,0,0
103692031,0.206235,-0.23933649,0.60236686,0.0,0.0,0.0,0.0,0.0,0.0,0.0,0.0,0,0,0,0,1,0,0,3,0,0,0,1,1,0,0
103888391,0.26618704,-0.18957347,0.60236686,0.0,0.0,0.0,0.0,0.0,0.0,0.0,0.0,0,0,0,0,1,0,0,3,0,0,0,1,1,0,0
104089371,0.33573142,-0.1421801,0.60236686,0.0,0.0,0.0,0.0,0.0,0.0,0.0,0.0,0,0,0,0,1,0,0,3,0,0,0,1,1,0,0
104288222,0.34772182,-0.13270143,0.6035503,0.0,0.0,0.0,0.0,0.0,0.0,0.0,0.0,0,0,0,0,1,0,0,3,0,0,0,1,1,0,0
104490163,0.35971224,-0.12559241,0.6035503,0.0,0.0,0.0,0.0,0.0,0.0,0.0,0.0,0,0,0,0,1,0,0,3,0,0,0,1,1,0,0
104688649,0.36690646,-0.11848341,0.60236686,0.0,0.0,0.0,0.0,0.0,0.0,0.0,0.0,0,0,0,0,1,0,0,3,0,0,0,1,1,0,0
104889100,0.38129497,-0.10663507,0.6035503,0.0,0.0,0.0,0.0,0.0,0.0,0.0,0.0,0,0,0,0,1,0,0,3,0,0,0,1,1,0,0
105090910,0.36211032,-0.11848341,0.60236686,0.0,0.0,0.0,0.0,0.0,0.0,0.0,0.0,0,0,0,0,1,0,0,3,0,0,0,1,1,0,0
105291418,0.34292567,-0.0971564,0.60236686,0.0,0.0,0.0,0.0,0.0,0.0,0.0,0.0,0,0,0,0,1,0,0,3,0,0,0,1,1,0,0
105493209,0.34292567,-0.1042654,0.60236686,0.0,0.0,0.0,0.0,0.0,0.0,0.0,0.0,0,0,0,0,1,0,0,3,0,0,0,1,1,0,0
105693779,0.35731414,-0.109004736,0.60236686,0.0,0.0,0.0,0.0,0.0,0.0,0.0,0.0,0,0,0,0,1,0,0,3,0,0,0,1,1,0,0
105895787,0.33573142,-0.12085308,0.60236686,0.0,0.0,0.0,0.0,0.0,0.0,0.0,0.0,0,0,0,0,1,0,0,3,0,0,0,1,1,0,0
106094097,0.34292567,-0.11137441,0.60236686,0.0,0.0,0.0,0.0,0.0,0.0,0.0,0.0,0,0,0,0,1,0,0,3,0,0,0,1,1,0,0
106292902,0.33333334,-0.123222746,0.60236686,0.0,0.0,0.0,0.0,0.0,0.0,0.0,0.0,0,0,0,0,1,0,0,3,0,0,0,1,1,0,0
106493426,0.26378897,-0.0971564,0.60236686,0.0,0.0,0.0,0.0,0.0,0.0,0.0,0.0,0,0,0,0,1,0,0,3,0,0,0,1,1,0,0
106690142,0.26378897,-0.1042654,0.60236686,0.0,0.0,0.0,0.0,0.0,0.0,0.0,0.0,0,0,0,0,1,0,0,3,0,0,0,1,1,0,0
106890833,0.27817747,-0.10663507,0.60236686,0.0,0.0,0.0,0.0,0.0,0.0,0.0,0.0,0,0,0,0,1,0,0,3,0,0,0,1,1,0,0
107092661,0.27577937,-0.109004736,0.60236686,0.0,0.0,0.0,0.0,0.0,0.0,0.0,0.0,0,0,0,0,1,0,0,3,0,0,0,1,1,0,0
107291329,0.27817747,-0.1042654,0.60236686,0.0,0.0,0.0,0.0,0.0,0.0,0.0,0.0,0,0,0,0,1,0,0,3,0,0,0,1,1,0,0
107491679,0.29736212,-0.0971564,0.60236686,0.0,0.0,0.0,0.0,0.0,0.0,0.0,0.0,0,0,0,0,1,0,0,3,0,0,0,1,1,0,0
107693051,0.2997602,-0.09952607,0.60236686,0.0,0.0,0.0,0.0,0.0,0.0,0.0,0.0,0,0,0,0,1,0,0,3,0,0,0,1,1,0,0
107894049,0.27577937,-0.101895735,0.60236686,0.0,0.0,0.0,0.0,0.0,0.0,0.0,0.0,0,0,0,0,1,0,0,3,0,0,0,1,1,0,0
108095484,0.33333334,-0.06872038,0.60236686,0.0,0.0,0.0,0.0,0.0,0.0,0.0,0.0,0,0,0,0,1,0,0,3,0,0,0,1,1,0,0
108294155,0.34052756,-0.059241705,0.6035503,0.0,0.0,0.0,0.0,0.0,0.0,0.0,0.0,0,0,0,0,1,0,0,3,0,0,0,1,1,0,0
108495101,0.28297362,-0.07109005,0.6047337,0.0,0.0,0.0,0.0,0.0,0.0,0.0,0.0,0,0,0,0,1,0,0,3,0,0,0,1,1,0,0
108693672,0.33573142,-0.054502368,0.60591716,0.0,0.0,0.0,0.0,0.0,0.0,0.0,0.0,0,0,0,0,1,0,0,3,0,0,0,1,1,0,0
108895677,0.31894484,-0.059241705,0.60236686,0.0,0.0,0.0,0.0,0.0,0.0,0.0,0.0,0,0,0,0,1,0,0,3,0,0,0,1,1,0,0
109094821,0.28297362,-0.049763035,0.6035503,0.0,0.0,0.0,0.0,0.0,0.0,0.0,0.0,0,0,0,0,1,0,0,3,0,0,0,1,1,0,0
109292781,0.2589928,-0.047393367,0.60236686,0.0,0.0,0.0,0.0,0.0,0.0,0.0,0.0,0,0,0,0,1,0,0,3,0,0,0,1,1,0,0
109491717,0.22541967,-0.056872036,0.6035503,0.0,0.0,0.0,0.0,0.0,0.0,0.0,0.0,0,0,0,0,1,0,0,3,0,0,0,1,1,0,0
109690180,0.13908873,0.0,0.6035503,0.0,0.0,0.0,0.0,0.0,0.0,0.0,0.0,0,0,0,0,1,0,0,3,0,0,0,1,1,0,0
109888976,0.043165468,0.0,0.60591716,0.0,0.0,0.0,0.0,0.0,0.0,0.0,0.0,0,0,0,0,1,0,0,3,0,0,0,1,1,0,0
110087243,-0.0,0.0,0.60591716,0.0,0.0,0.0,0.0,0.0,0.0,0.0,0.0,0,0,0,0,1,0,0,3,0,0,0,1,1,0,0
110288175,-0.0,0.0,0.60591716,0.0,0.0,0.0,0.0,0.0,0.0,0.0,0.0,0,0,0,0,1,0,0,3,0,0,0,1,1,0,0
110489736,-0.0,0.0,0.6047337,0.0,0.0,0.0,0.0,0.0,0.0,0.0,0.0,0,0,0,0,1,0,0,3,0,0,0,1,1,0,0
110688873,-0.0,0.0,0.6035503,0.0,0.0,0.0,0.0,0.0,0.0,0.0,0.0,0,0,0,0,1,0,0,3,0,0,0,1,1,0,0
110888991,-0.0,0.0,0.6035503,0.0,0.0,0.0,0.0,0.0,0.0,0.0,0.0,0,0,0,0,1,0,0,3,0,0,0,1,1,0,0
111087759,-0.0,0.0,0.6035503,0.0,0.0,0.0,0.0,0.0,0.0,0.0,0.0,0,0,0,0,1,0,0,3,0,0,0,1,1,0,0
111286556,-0.0,0.0,0.6047337,0.0,0.0,0.0,0.0,0.0,0.0,0.0,0.0,0,0,0,0,1,0,0,3,0,0,0,1,1,0,0
111505098,-0.0,0.0,0.6035503,0.0,0.0,0.0,0.0,0.0,0.0,0.0,0.0,0,0,0,0,1,0,0,3,0,0,0,1,1,0,0
111690414,-0.0,0.0,0.556213,0.0,0.0,0.0,0.0,0.0,0.0,0.0,0.0,0,0,0,0,1,0,0,3,0,0,0,1,1,0,0
111905002,-0.0,0.0,0.5372781,-0.004555809,0.0,0.0,0.0,0.0,0.0,0.0,0.0,0,0,0,0,1,0,0,3,0,0,0,1,1,0,0
112105914,-0.0,0.0,0.5029586,0.0,0.0,0.0,0.0,0.0,0.0,0.0,0.0,0,0,0,0,1,0,0,3,0,0,0,1,1,0,0
112284820,-0.0,0.0,0.48994082,-0.009111618,0.0,0.0,0.0,0.0,0.0,0.0,0.0,0,0,0,0,1,0,0,3,0,0,0,1,1,0,0
112486097,-0.0,0.0,0.48994082,-0.0022779044,0.0,0.0,0.0,0.0,0.0,0.0,0.0,0,0,0,0,1,0,0,3,0,0,0,1,1,0,0
112684857,-0.0,0.0,0.4698225,0.0,0.0,0.0,0.0,0.0,0.0,0.0,0.0,0,0,0,0,1,0,0,3,0,0,0,1,1,0,0
112885712,-0.0,0.0,0.43786982,0.0,0.0,0.0,0.0,0.0,0.0,0.0,0.0,0,0,0,0,1,0,0,3,0,0,0,1,1,0,0
113087578,-0.0,0.0,0.43195266,0.0,0.0,0.0,0.0,0.0,0.0,0.0,0.0,0,0,0,0,1,0,0,3,0,0,0,1,1,0,0
113288012,-0.0,0.0,0.39526626,0.0,0.0,0.0,0.0,0.0,0.0,0.0,0.0,0,0,0,0,1,0,0,3,0,0,0,1,1,0,0
113489317,-0.0,0.0,0.37159765,0.0,0.0,0.0,0.0,0.0,0.0,0.0,0.0,0,0,0,0,1,0,0,3,0,0,0,1,1,0,0
113688209,-0.0,0.0,0.3526627,0.0,0.0,0.0,0.0,0.0,0.0,0.0,0.0,0,0,0,0,1,0,0,3,0,0,0,1,1,0,0
113889025,-0.0,0.0,0.3372781,0.0,0.0,0.0,0.0,0.0,0.0,0.0,0.0,0,0,0,0,1,0,0,3,0,0,0,1,1,0,0
114087785,-0.0,0.0,0.304142,0.05392157,0.0,0.0,0.0,0.0,0.0,0.0,0.0,0,0,0,0,1,0,0,3,0,0,0,1,1,0,0
114286366,-0.0,0.0,0.25680473,0.036764707,0.0,0.0,0.0,0.0,0.0,0.0,0.0,0,0,0,0,1,0,0,3,0,0,0,1,1,0,0
114487732,-0.0,0.0,0.24023668,0.05637255,0.0,0.0,0.0,0.0,0.0,0.0,0.0,0,0,0,0,1,0,0,3,0,0,0,1,1,0,0
114688854,-0.0,0.0,0.24260356,0.04901961,0.0,0.0,0.0,0.0,0.0,0.0,0.0,0,0,0,0,1,0,0,3,0,0,0,1,1,0,0
114890766,-0.0,0.0,0.24378698,0.05637255,0.0,0.0,0.0,0.0,0.0,0.0,0.0,0,0,0,0,1,0,0,3,0,0,0,1,1,0,0
115089322,-0.0,0.0,0.24852072,0.0882353,0.0,0.0,0.0,0.0,0.0,0.0,0.0,0,0,0,0,1,0,0,3,0,0,0,1,1,0,0
115289654,-0.0,0.0,0.25088757,0.11519608,0.0,0.0,0.0,0.0,0.0,0.0,0.0,0,0,0,0,1,0,0,3,0,0,0,1,1,0,0
115491093,-0.0,0.0,0.25088757,0.12254902,0.0,0.0,0.0,0.0,0.0,0.0,0.0,0,0,0,0,1,0,0,3,0,0,0,1,1,0,0
115690176,-0.0,0.0,0.24852072,0.10784314,0.0,0.0,0.0,0.0,0.0,0.0,0.0,0,0,0,0,1,0,0,3,0,0,0,1,1,0,0
115888991,-0.0,0.0,0.24733728,0.085784316,0.0,0.0,0.0,0.0,0.0,0.0,0.0,0,0,0,0,1,0,0,3,0,0,0,1,1,0,0
116089533,-0.0,0.0,0.24733728,0.12990196,0.0,0.0,0.0,0.0,0.0,0.0,0.0,0,0,0,0,1,0,0,3,0,0,0,1,1,0,0
116290666,-0.0,0.0,0.24733728,0.075980395,0.0,0.0,0.0,0.0,0.0,0.0,0.0,0,0,0,0,1,0,0,3,0,0,0,1,1,0,0
116491703,-0.0,0.0,0.24733728,0.068627454,0.0,0.0,0.0,0.0,0.0,0.0,0.0,0,0,0,0,1,0,0,3,0,0,0,1,1,0,0
116693690,-0.0,0.0,0.24378698,0.12009804,0.0,0.0,0.0,0.0,0.0,0.0,0.0,0,0,0,0,1,0,0,3,0,0,0,1,1,0,0
116892231,-0.0,0.0,0.20236686,0.12009804,0.0,0.0,0.0,0.0,0.0,0.0,0.0,0,0,0,0,1,0,0,3,0,0,0,1,1,0,0
117091060,-0.0,0.0,0.20236686,0.071078435,0.0,0.0,0.0,0.0,0.0,0.0,0.0,0,0,0,0,1,0,0,3,0,0,0,1,1,0,0
117289540,-0.0,0.0,0.20473373,0.041666668,0.0,0.0,0.0,0.0,0.0,0.0,0.0,0,0,0,0,1,0,0,3,0,0,0,1,1,0,0
117487752,-0.0,0.0,0.21183433,0.036764707,0.0,0.0,0.0,0.0,0.0,0.0,0.0,0,0,0,0,1,0,0,3,0,0,0,1,1,0,0
117686567,-0.0,0.0,0.21065089,0.05882353,0.0,0.0,0.0,0.0,0.0,0.0,0.0,0,0,0,0,1,0,0,3,0,0,0,1,1,0,0
117887368,-0.0,0.0,0.20591716,0.05392157,0.0,0.0,0.0,0.0,0.0,0.0,0.0,0,0,0,0,1,0,0,3,0,0,0,1,1,0,0
118086046,-0.0,0.0,0.20710059,0.063725494,0.0,0.0,0.0,0.0,0.0,0.0,0.0,0,0,0,0,1,0,0,3,0,0,0,1,1,0,0
118288159,-0.0,0.0,0.20946746,0.068627454,0.0,0.0,0.0,0.0,0.0,0.0,0.0,0,0,0,0,1,0,0,3,0,0,0,1,1,0,0
118488365,-0.0,0.0,0.20946746,0.066176474,0.0,0.0,0.0,0.0,0.0,0.0,0.0,0,0,0,0,1,0,0,3,0,0,0,1,1,0,0
118687089,-0.0,0.0,0.20946746,0.071078435,0.0,0.0,0.0,0.0,0.0,0.0,0.0,0,0,0,0,1,0,0,3,0,0,0,1,1,0,0
118908261,-0.0,0.0,0.25325444,0.0,0.0,0.0,0.0,0.0,0.0,0.0,0.0,0,0,0,0,1,0,0,3,0,0,0,1,1,0,0
119087122,-0.0,0.0,0.25443786,0.0,0.0,0.0,0.0,0.0,0.0,0.0,0.0,0,0,0,0,1,0,0,3,0,0,0,1,1,0,0
119288329,-0.0,0.0,0.3846154,0.05637255,0.0,0.0,0.0,0.0,0.0,0.0,0.0,0,0,0,0,1,0,0,3,0,0,0,1,1,0,0
119489440,-0.0,0.0,0.42840236,0.16666667,0.0,0.0,0.0,0.0,0.0,0.0,0.0,0,0,0,0,1,0,0,3,0,0,0,1,1,0,0
119690286,-0.0,0.0,0.4402367,0.13480392,0.0,0.0,0.0,0.0,0.0,0.0,0.0,0,0,0,0,1,0,0,3,0,0,0,1,1,0,0
119892207,-0.0,0.0,0.4402367,0.0,0.0,0.0,0.0,0.0,0.0,0.0,0.0,0,0,0,0,1,0,0,3,0,0,0,1,1,0,0
120092757,-0.0,0.0,0.43905327,0.0,0.0,0.0,0.0,0.0,0.0,0.0,0.0,0,0,0,0,1,0,0,3,0,0,0,1,1,0,0
120289521,-0.0,0.0,0.43786982,0.0,0.0,0.0,0.0,0.0,0.0,0.0,0.0,0,0,0,0,1,0,0,3,0,0,0,1,1,0,0
120490095,-0.0,0.0,0.4366864,0.0,0.0,0.0,0.0,0.0,0.0,0.0,0.0,0,0,0,0,1,0,0,3,0,0,0,1,1,0,0
120691879,-0.0,0.0,0.4366864,0.0,0.0,0.0,0.0,0.0,0.0,0.0,0.0,0,0,0,0,1,0,0,3,0,0,0,1,1,0,0
120897520,-0.0,0.0,0.42366865,0.0,0.0,0.0,0.0,0.0,0.0,0.0,0.0,0,0,0,0,1,0,0,3,0,0,0,1,1,0,0
121088977,-0.0,0.0,0.4224852,0.0,0.0,0.0,0.0,0.0,0.0,0.0,0.0,0,0,0,0,1,0,0,3,0,0,0,1,1,0,0
121289750,-0.0,0.0,0.42130178,0.0,0.0,0.0,0.0,0.0,0.0,0.0,0.0,0,0,0,0,1,0,0,3,0,0,0,1,1,0,0
121491568,-0.0,0.0,0.39763314,-0.13439636,0.0,0.0,0.0,0.0,0.0,0.0,0.0,0,0,0,0,1,0,0,3,0,0,0,1,1,0,0
121690251,-0.0,0.0,0.39881656,-0.3690205,0.0,0.0,0.0,0.0,0.0,0.0,0.0,0,0,0,0,1,0,0,3,0,0,0,1,1,0,0
121888423,-0.0,0.0,0.39763314,-0.44191343,0.0,0.0,0.0,0.0,0.0,0.0,0.0,0,0,0,0,1,0,0,3,0,0,0,1,1,0,0
122089338,-0.0,0.0,0.39763314,-0.50569475,0.0,0.0,0.0,0.0,0.0,0.0,0.0,0,0,0,0,1,0,0,3,0,0,0,1,1,0,0
122292264,-0.0,0.0,0.3964497,-0.44646925,0.0,0.0,0.0,0.0,0.0,0.0,0.0,0,0,0,0,1,0,0,3,0,0,0,1,1,0,0
122492449,-0.0,0.0,0.39763314,-0.41230068,0.0,0.0,0.0,0.0,0.0,0.0,0.0,0,0,0,0,1,0,0,3,0,0,0,1,1,0,0
122694738,-0.0,0.0,0.3964497,-0.43963555,0.0,0.0,0.0,0.0,0.0,0.0,0.0,0,0,0,0,1,0,0,3,0,0,0,1,1,0,0
122893058,-0.0,0.0,0.39763314,-0.43507972,0.0,0.0,0.0,0.0,0.0,0.0,0.0,0,0,0,0,1,0,0,3,0,0,0,1,1,0,0
123092634,-0.0,0.0,0.3964497,-0.44191343,0.0,0.0,0.0,0.0,0.0,0.0,0.0,0,0,0,0,1,0,0,3,0,0,0,1,1,0,0
123294017,-0.0,0.0,0.3964497,-0.44874716,0.0,0.0,0.0,0.0,0.0,0.0,0.0,0,0,0,0,1,0,0,3,0,0,0,1,1,0,0
123492606,-0.0,0.0,0.3964497,-0.40318906,0.0,0.0,0.0,0.0,0.0,0.0,0.0,0,0,0,0,1,0,0,3,0,0,0,1,1,0,0
123693682,-0.0,0.0,0.39526626,-0.11161731,0.0,0.0,0.0,0.0,0.0,0.0,0.0,0,0,0,0,1,0,0,3,0,0,0,1,1,0,0
123890229,-0.0,0.0,0.4035503,0.0,0.0,0.0,0.0,0.0,0.0,0.0,0.0,0,0,0,0,1,0,0,3,0,0,0,1,1,0,0
124093649,-0.0,0.0,0.40591717,0.0,0.0,0.0,0.0,0.0,0.0,0.0,0.0,0,0,0,0,1,0,0,3,0,0,0,1,1,0,0
124290943,-0.0,-0.023696683,0.40591717,0.0,0.0,0.0,0.0,0.0,0.0,0.0,0.0,0,0,0,0,1,0,0,3,0,0,0,1,1,0,0
124507407,0.019184653,-0.06872038,0.40236688,0.0,0.0,0.0,0.0,0.0,0.0,0.0,0.0,0,0,0,0,1,0,0,3,0,0,0,1,1,0,0
124686376,0.083932854,-0.0971564,0.40236688,0.0,0.0,0.0,0.0,0.0,0.0,0.0,0.0,0,0,0,0,1,0,0,3,0,0,0,1,1,0,0
124889728,0.12709832,-0.0971564,0.40236688,0.0,0.0,0.0,0.0,0.0,0.0,0.0,0.0,0,0,0,0,1,0,0,3,0,0,0,1,1,0,0
125090835,0.15107913,-0.10663507,0.40236688,0.0,0.0,0.0,0.0,0.0,0.0,0.0,0.0,0,0,0,0,1,0,0,3,0,0,0,1,1,0,0
125292999,0.25179857,-0.13033175,0.39881656,0.0,0.0,0.0,0.0,0.0,0.0,0.0,0.0,0,0,0,0,1,0,0,3,0,0,0,1,1,0,0
125490839,0.17985612,-0.12796208,0.39881656,0.0,0.0,0.0,0.0,0.0,0.0,0.0,0.0,0,0,0,0,1,0,0,3,0,0,0,1,1,0,0
125689603,0.21103117,-0.13744076,0.4,0.0,0.0,0.0,0.0,0.0,0.0,0.0,0.0,0,0,0,0,1,0,0,3,0,0,0,1,1,0,0
125889658,0.22781774,-0.14454976,0.40118343,0.0,0.0,0.0,0.0,0.0,0.0,0.0,0.0,0,0,0,0,1,0,0,3,0,0,0,1,1,0,0
126090856,0.22781774,-0.13270143,0.39881656,0.0,0.0,0.0,0.0,0.0,0.0,0.0,0.0,0,0,0,0,1,0,0,3,0,0,0,1,1,0,0
126289697,0.24220623,-0.12796208,0.39881656,0.0,0.0,0.0,0.0,0.0,0.0,0.0,0.0,0,0,0,0,1,0,0,3,0,0,0,1,1,0,0
126487758,0.27577937,-0.116113745,0.40118343,0.0,0.0,0.0,0.0,0.0,0.0,0.0,0.0,0,0,0,0,1,0,0,3,0,0,0,1,1,0,0
126686401,0.29256594,-0.11374407,0.39881656,0.0,0.0,0.0,0.0,0.0,0.0,0.0,0.0,0,0,0,0,1,0,0,3,0,0,0,1,1,0,0
126887480,0.30935252,-0.11374407,0.40118343,0.0,0.0,0.0,0.0,0.0,0.0,0.0,0.0,0,0,0,0,1,0,0,3,0,0,0,1,1,0,0
127089275,0.30455637,-0.1042654,0.40118343,0.0,0.0,0.0,0.0,0.0,0.0,0.0,0.0,0,0,0,0,1,0,0,3,0,0,0,1,1,0,0
127287361,0.2997602,-0.109004736,0.40828404,0.0,0.0,0.0,0.0,0.0,0.0,0.0,0.0,0,0,0,0,1,0,0,3,0,0,0,1,1,0,0
127488372,0.27817747,-0.10663507,0.41065088,0.0,0.0,0.0,0.0,0.0,0.0,0.0,0.0,0,0,0,0,1,0,0,3,0,0,0,1,1,0,0
127690240,0.27098322,-0.08293839,0.41065088,0.0,0.0,0.0,0.0,0.0,0.0,0.0,0.0,0,0,0,0,1,0,0,3,0,0,0,1,1,0,0
127885974,0.27577937,-0.09241706,0.41065088,0.0,0.0,0.0,0.0,0.0,0.0,0.0,0.0,0,0,0,0,1,0,0,3,0,0,0,1,1,0,0
128087103,0.25659472,-0.101895735,0.41065088,0.0,0.0,0.0,0.0,0.0,0.0,0.0,0.0,0,0,0,0,1,0,0,3,0,0,0,1,1,0,0
128285803,0.26378897,-0.10663507,0.41065088,0.0,0.0,0.0,0.0,0.0,0.0,0.0,0.0,0,0,0,0,1,0,0,3,0,0,0,1,1,0,0
128486680,0.25419664,-0.1042654,0.41065088,0.0,0.0,0.0,0.0,0.0,0.0,0.0,0.0,0,0,0,0,1,0,0,3,0,0,0,1,1,0,0
128688789,0.23980816,-0.116113745,0.41065088,0.0,0.0,0.0,0.0,0.0,0.0,0.0,0.0,0,0,0,0,1,0,0,3,0,0,0,1,1,0,0
128889037,0.23980816,-0.16113745,0.40828404,0.0,0.0,0.0,0.0,0.0,0.0,0.0,0.0,0,0,0,0,1,0,0,3,0,0,0,1,1,0,0
129085484,0.24220623,-0.123222746,0.40946746,0.0,0.0,0.0,0.0,0.0,0.0,0.0,0.0,0,0,0,0,1,0,0,3,0,0,0,1,1,0,0
129286445,0.24220623,-0.0900474,0.40946746,0.0,0.0,0.0,0.0,0.0,0.0,0.0,0.0,0,0,0,0,1,0,0,3,0,0,0,1,1,0,0
129485023,0.25419664,-0.10663507,0.41065088,0.0,0.0,0.0,0.0,0.0,0.0,0.0,0.0,0,0,0,0,1,0,0,3,0,0,0,1,1,0,0
129686300,0.22781774,-0.109004736,0.41065088,0.0,0.0,0.0,0.0,0.0,0.0,0.0,0.0,0,0,0,0,1,0,0,3,0,0,0,1,1,0,0
129887525,0.235012,-0.101895735,0.41065088,0.0,0.0,0.0,0.0,0.0,0.0,0.0,0.0,0,0,0,0,1,0,0,3,0,0,0,1,1,0,0
130096429,0.15827338,-0.13270143,0.40828404,0.0,0.0,0.0,0.0,0.0,0.0,0.0,0.0,0,0,0,0,1,0,0,3,0,0,0,1,1,0,0
130289834,0.21822542,-0.08293839,0.41065088,0.0,0.0,0.0,0.0,0.0,0.0,0.0,0.0,0,0,0,0,1,0,0,3,0,0,0,1,1,0,0
130491549,0.20383693,-0.073459715,0.41065088,0.0,0.0,0.0,0.0,0.0,0.0,0.0,0.0,0,0,0,0,1,0,0,3,0,0,0,1,1,0,0
130690363,0.21822542,-0.073459715,0.40946746,0.0,0.0,0.0,0.0,0.0,0.0,0.0,0.0,0,0,0,0,1,0,0,3,0,0,0,1,1,0,0
130888853,0.2733813,-0.049763035,0.40946746,0.0,0.0,0.0,0.0,0.0,0.0,0.0,0.0,0,0,0,0,1,0,0,3,0,0,0,1,1,0,0
131089524,0.27577937,-0.035545025,0.40946746,0.0,0.0,0.0,0.0,0.0,0.0,0.0,0.0,0,0,0,0,1,0,0,3,0,0,0,1,1,0,0
131288019,0.26378897,-0.033175357,0.40946746,0.0,0.0,0.0,0.0,0.0,0.0,0.0,0.0,0,0,0,0,1,0,0,3,0,0,0,1,1,0,0
131489436,0.25659472,-0.037914693,0.40946746,0.0,0.0,0.0,0.0,0.0,0.0,0.0,0.0,0,0,0,0,1,0,0,3,0,0,0,1,1,0,0
131690490,0.25419664,-0.047393367,0.40946746,0.0,0.0,0.0,0.0,0.0,0.0,0.0,0.0,0,0,0,0,1,0,0,3,0,0,0,1,1,0,0
131892128,0.23741007,-0.06635071,0.40946746,0.0,0.0,0.0,0.0,0.0,0.0,0.0,0.0,0,0,0,0,1,0,0,3,0,0,0,1,1,0,0
132092675,0.21822542,-0.06872038,0.40828404,0.0,0.0,0.0,0.0,0.0,0.0,0.0,0.0,0,0,0,0,1,0,0,3,0,0,0,1,1,0,0
132291517,0.20383693,-0.06872038,0.4071006,0.0,0.0,0.0,0.0,0.0,0.0,0.0,0.0,0,0,0,0,1,0,0,3,0,0,0,1,1,0,0
132493171,0.12709832,-0.028436018,0.40473372,0.0,0.0,0.0,0.0,0.0,0.0,0.0,0.0,0,0,0,0,1,0,0,3,0,0,0,1,1,0,0
132692067,0.026378896,0.0,0.40236688,0.0,0.0,0.0,0.0,0.0,0.0,0.0,0.0,0,0,0,0,1,0,0,3,0,0,0,1,1,0,0
132891279,-0.0,-0.0047393367,0.4,-0.004555809,0.0,0.0,0.0,0.0,0.0,0.0,0.0,0,0,0,0,1,0,0,3,0,0,0,1,1,0,0
133091171,-0.0,0.0,0.4,-0.10933941,0.0,0.0,0.0,0.0,0.0,0.0,0.0,0,0,0,0,1,0,0,3,0,0,0,1,1,0,0
133292499,-0.0,0.0,0.40236688,-0.13667426,0.0,0.0,0.0,0.0,0.0,0.0,0.0,0,0,0,0,1,0,0,3,0,0,0,1,1,0,0
133493345,-0.0,0.0,0.40236688,-0.22551253,0.0,0.0,0.0,0.0,0.0,0.0,0.0,0,0,0,0,1,0,0,3,0,0,0,1,1,0,0
133694703,-0.0,0.0,0.4,-0.23234624,0.0,0.0,0.0,0.0,0.0,0.0,0.0,0,0,0,0,1,0,0,3,0,0,0,1,1,0,0
133895878,-0.0,0.0,0.4,-0.32118452,0.0,0.0,0.0,0.0,0.0,0.0,0.0,0,0,0,0,1,0,0,3,0,0,0,1,1,0,0
134098113,-0.0,0.0,0.4,-0.40318906,0.0,0.0,0.0,0.0,0.0,0.0,0.0,0,0,0,0,1,0,0,3,0,0,0,1,1,0,0
134298012,-0.0,0.0,0.39881656,-0.5330296,0.0,0.0,0.0,0.0,0.0,0.0,0.0,0,0,0,0,1,0,0,3,0,0,0,1,1,0,0
134501063,-0.0,0.0,0.4,-0.5785877,0.0,0.0,0.0,0.0,0.0,0.0,0.0,0,0,0,0,1,0,0,3,0,0,0,1,1,0,0
134700522,-0.0,0.0,0.39881656,-0.6241458,0.0,0.0,0.0,0.0,0.0,0.0,0.0,0,0,0,0,1,0,0,3,0,0,0,1,1,0,0
134903242,-0.0,0.0,0.40118343,-0.44874716,0.0,0.0,0.0,0.0,0.0,0.0,0.0,0,0,0,0,1,0,0,3,0,0,0,1,1,0,0
135103354,-0.0,0.0,0.4,-0.24829157,0.0,0.0,0.0,0.0,0.0,0.0,0.0,0,0,0,0,1,0,0,3,0,0,0,1,1,0,0
135304589,-0.0,0.0,0.4071006,0.0,0.0,0.0,0.0,0.0,0.0,0.0,0.0,0,0,0,0,1,0,0,3,0,0,0,1,1,0,0
135484658,0.007194245,0.0,0.40828404,0.0,0.0,0.0,0.0,0.0,0.0,0.0,0.0,0,0,0,0,1,0,0,3,0,0,0,1,1,0,0
135706388,0.06714629,0.0,0.40828404,0.0,0.0,0.0,0.0,0.0,0.0,0.0,0.0,0,0,0,0,1,0,0,3,0,0,0,1,1,0,0
135907163,0.107913665,0.0,0.40828404,0.0,0.0,0.0,0.0,0.0,0.0,0.0,0.0,0,0,0,0,1,0,0,3,0,0,0,1,1,0,0
136086107,0.117506,0.0,0.40828404,0.0,0.0,0.0,0.0,0.0,0.0,0.0,0.0,0,0,0,0,1,0,0,3,0,0,0,1,1,0,0
136288984,0.13189448,0.0,0.40828404,0.0,0.0,0.0,0.0,0.0,0.0,0.0,0.0,0,0,0,0,1,0,0,3,0,0,0,1,1,0,0
136489000,0.14148681,0.0,0.40828404,0.0,0.0,0.0,0.0,0.0,0.0,0.0,0.0,0,0,0,0,1,0,0,3,0,0,0,1,1,0,0
136687026,0.16546762,0.0,0.40828404,0.0,0.0,0.0,0.0,0.0,0.0,0.0,0.0,0,0,0,0,1,0,0,3,0,0,0,1,1,0,0
136885699,0.20383693,0.0,0.40828404,0.0,0.0,0.0,0.0,0.0,0.0,0.0,0.0,0,0,0,0,1,0,0,3,0,0,0,1,1,0,0
137108423,0.22302158,0.0,0.40946746,0.0,0.0,0.0,0.0,0.0,0.0,0.0,0.0,0,0,0,0,1,0,0,3,0,0,0,1,1,0,0
137307986,0.1822542,0.0,0.40946746,0.0,0.0,0.0,0.0,0.0,0.0,0.0,0.0,0,0,0,0,1,0,0,3,0,0,0,1,1,0,0
137482975,0.21103117,0.0,0.40946746,0.0,0.0,0.0,0.0,0.0,0.0,0.0,0.0,0,0,0,0,1,0,0,3,0,0,0,1,1,0,0
137703475,0.26618704,0.0,0.40946746,0.0,0.0,0.0,0.0,0.0,0.0,0.0,0.0,0,0,0,0,1,0,0,3,0,0,0,1,1,0,0
137902745,0.30455637,0.0,0.41065088,0.0,0.0,0.0,0.0,0.0,0.0,0.0,0.0,0,0,0,0,1,0,0,3,0,0,0,1,1,0,0
138102613,0.2997602,0.0,0.41065088,0.0,0.0,0.0,0.0,0.0,0.0,0.0,0.0,0,0,0,0,1,0,0,3,0,0,0,1,1,0,0
138301405,0.30215827,0.0,0.41065088,0.0,0.0,0.0,0.0,0.0,0.0,0.0,0.0,0,0,0,0,1,0,0,3,0,0,0,1,1,0,0
138500111,0.31894484,0.0,0.41065088,0.0,0.0,0.0,0.0,0.0,0.0,0.0,0.0,0,0,0,0,1,0,0,3,0,0,0,1,1,0,0
138698578,0.31894484,0.0,0.41065088,0.0,0.0,0.0,0.0,0.0,0.0,0.0,0.0,0,0,0,0,1,0,0,3,0,0,0,1,1,0,0
138900706,0.28297362,0.0,0.41065088,0.0,0.0,0.0,0.0,0.0,0.0,0.0,0.0,0,0,0,0,1,0,0,3,0,0,0,1,1,0,0
139099363,0.30215827,0.0,0.41065088,0.0,0.0,0.0,0.0,0.0,0.0,0.0,0.0,0,0,0,0,1,0,0,3,0,0,0,1,1,0,0
139277616,0.31894484,0.0,0.41065088,0.0,0.0,0.0,0.0,0.0,0.0,0.0,0.0,0,0,0,0,1,0,0,3,0,0,0,1,1,0,0
139498265,0.3141487,0.0,0.41065088,0.0,0.0,0.0,0.0,0.0,0.0,0.0,0.0,0,0,0,0,1,0,0,3,0,0,0,1,1,0,0
139700133,0.31654677,0.0,0.41065088,0.0,0.0,0.0,0.0,0.0,0.0,0.0,0.0,0,0,0,0,1,0,0,3,0,0,0,1,1,0,0
139900597,0.32134292,0.0,0.41065088,0.0,0.0,0.0,0.0,0.0,0.0,0.0,0.0,0,0,0,0,1,0,0,3,0,0,0,1,1,0,0
140102623,0.32853717,0.0,0.41065088,0.0,0.0,0.0,0.0,0.0,0.0,0.0,0.0,0,0,0,0,1,0,0,3,0,0,0,1,1,0,0
140303031,0.32134292,0.0,0.41065088,0.0,0.0,0.0,0.0,0.0,0.0,0.0,0.0,0,0,0,0,1,0,0,3,0,0,0,1,1,0,0
140504738,0.3381295,0.0,0.41065088,0.0,0.0,0.0,0.0,0.0,0.0,0.0,0.0,0,0,0,0,1,0,0,3,0,0,0,1,1,0,0
140705471,0.34772182,0.0,0.41065088,0.0,0.0,0.0,0.0,0.0,0.0,0.0,0.0,0,0,0,0,1,0,0,3,0,0,0,1,1,0,0
140884341,0.35491607,0.0,0.41065088,0.0,0.0,0.0,0.0,0.0,0.0,0.0,0.0,0,0,0,0,1,0,0,3,0,0,0,1,1,0,0
141085394,0.38369304,0.0,0.41065088,0.0,0.0,0.0,0.0,0.0,0.0,0.0,0.0,0,0,0,0,1,0,0,3,0,0,0,1,1,0,0
141286365,0.33573142,0.0,0.41065088,0.0,0.0,0.0,0.0,0.0,0.0,0.0,0.0,0,0,0,0,1,0,0,3,0,0,0,1,1,0,0
141485084,0.30215827,0.0,0.41065088,0.0,0.0,0.0,0.0,0.0,0.0,0.0,0.0,0,0,0,0,1,0,0,3,0,0,0,1,1,0,0
141706339,0.235012,0.0,0.40828404,0.0,0.0,0.0,0.0,0.0,0.0,0.0,0.0,0,0,0,0,1,0,0,3,0,0,0,1,1,0,0
141885147,0.235012,0.0,0.4071006,0.0,0.0,0.0,0.0,0.0,0.0,0.0,0.0,0,0,0,0,1,0,0,3,0,0,0,1,1,0,0
142105929,0.30695444,0.0,0.4071006,0.0,0.0,0.0,0.0,0.0,0.0,0.0,0.0,0,0,0,0,1,0,0,3,0,0,0,1,1,0,0
142284636,0.35731414,0.0,0.4071006,0.0,0.0,0.0,0.0,0.0,0.0,0.0,0.0,0,0,0,0,1,0,0,3,0,0,0,1,1,0,0
142483609,0.35731414,0.0,0.4071006,0.0,0.0,0.0,0.0,0.0,0.0,0.0,0.0,0,0,0,0,1,0,0,3,0,0,0,1,1,0,0
142706999,0.35971224,0.0,0.4071006,0.0,0.0,0.0,0.0,0.0,0.0,0.0,0.0,0,0,0,0,1,0,0,3,0,0,0,1,1,0,0
142885821,0.36211032,0.0,0.4071006,0.0,0.0,0.0,0.0,0.0,0.0,0.0,0.0,0,0,0,0,1,0,0,3,0,0,0,1,1,0,0
143087054,0.3764988,0.0,0.4071006,0.0,0.0,0.0,0.0,0.0,0.0,0.0,0.0,0,0,0,0,1,0,0,3,0,0,0,1,1,0,0
143288200,0.3788969,0.0,0.4071006,0.0,0.0,0.0,0.0,0.0,0.0,0.0,0.0,0,0,0,0,1,0,0,3,0,0,0,1,1,0,0
143489907,0.3645084,0.0,0.4071006,0.0,0.0,0.0,0.0,0.0,0.0,0.0,0.0,0,0,0,0,1,0,0,3,0,0,0,1,1,0,0
143688781,0.35491607,0.0,0.4071006,0.0,0.0,0.0,0.0,0.0,0.0,0.0,0.0,0,0,0,0,1,0,0,3,0,0,0,1,1,0,0
143889147,0.35011992,0.0,0.4071006,0.0,0.0,0.0,0.0,0.0,0.0,0.0,0.0,0,0,0,0,1,0,0,3,0,0,0,1,1,0,0
144091090,0.35971224,0.0,0.4071006,0.0,0.0,0.0,0.0,0.0,0.0,0.0,0.0,0,0,0,0,1,0,0,3,0,0,0,1,1,0,0
144289608,0.36930457,0.0,0.4071006,0.0,0.0,0.0,0.0,0.0,0.0,0.0,0.0,0,0,0,0,1,0,0,3,0,0,0,1,1,0,0
144488235,0.3764988,0.0,0.4071006,0.0,0.0,0.0,0.0,0.0,0.0,0.0,0.0,0,0,0,0,1,0,0,3,0,0,0,1,1,0,0
144688713,0.29016787,-0.0023696683,0.4071006,0.0,0.0,0.0,0.0,0.0,0.0,0.0,0.0,0,0,0,0,1,0,0,3,0,0,0,1,1,0,0
144890118,0.26618704,0.0,0.4071006,0.0,0.0,0.0,0.0,0.0,0.0,0.0,0.0,0,0,0,0,1,0,0,3,0,0,0,1,1,0,0
145088761,0.29016787,0.0,0.4071006,0.0,0.0,0.0,0.0,0.0,0.0,0.0,0.0,0,0,0,0,1,0,0,3,0,0,0,1,1,0,0
145289695,0.29496402,0.0,0.4071006,0.0,0.0,0.0,0.0,0.0,0.0,0.0,0.0,0,0,0,0,1,0,0,3,0,0,0,1,1,0,0
145491506,0.29016787,0.0,0.4071006,0.0,0.0,0.0,0.0,0.0,0.0,0.0,0.0,0,0,0,0,1,0,0,3,0,0,0,1,1,0,0
145686994,0.34772182,0.0,0.4071006,0.0,0.0,0.0,0.0,0.0,0.0,0.0,0.0,0,0,0,0,1,0,0,3,0,0,0,1,1,0,0
145888429,0.34292567,0.0,0.4071006,0.0,0.0,0.0,0.0,0.0,0.0,0.0,0.0,0,0,0,0,1,0,0,3,0,0,0,1,1,0,0
146087116,0.3141487,0.0,0.4071006,0.0,0.0,0.0,0.0,0.0,0.0,0.0,0.0,0,0,0,0,1,0,0,3,0,0,0,1,1,0,0
146285795,0.3381295,0.0,0.4071006,0.0,0.0,0.0,0.0,0.0,0.0,0.0,0.0,0,0,0,0,1,0,0,3,0,0,0,1,1,0,0
146486910,0.34772182,0.0,0.4071006,0.0,0.0,0.0,0.0,0.0,0.0,0.0,0.0,0,0,0,0,1,0,0,3,0,0,0,1,1,0,0
146688764,0.34292567,0.0,0.4071006,0.0,0.0,0.0,0.0,0.0,0.0,0.0,0.0,0,0,0,0,1,0,0,3,0,0,0,1,1,0,0
146889015,0.33333334,0.0,0.4071006,0.0,0.0,0.0,0.0,0.0,0.0,0.0,0.0,0,0,0,0,1,0,0,3,0,0,0,1,1,0,0
147090988,0.34052756,0.0,0.4071006,0.0,0.0,0.0,0.0,0.0,0.0,0.0,0.0,0,0,0,0,1,0,0,3,0,0,0,1,1,0,0
147291562,0.31894484,0.0,0.40828404,0.0,0.0,0.0,0.0,0.0,0.0,0.0,0.0,0,0,0,0,1,0,0,3,0,0,0,1,1,0,0
147500163,0.35971224,0.0,0.40828404,0.0,0.0,0.0,0.0,0.0,0.0,0.0,0.0,0,0,0,0,1,0,0,3,0,0,0,1,1,0,0
147693733,0.36211032,0.0,0.40828404,0.0,0.0,0.0,0.0,0.0,0.0,0.0,0.0,0,0,0,0,1,0,0,3,0,0,0,1,1,0,0
147896133,0.35491607,0.0,0.40828404,0.0,0.0,0.0,0.0,0.0,0.0,0.0,0.0,0,0,0,0,1,0,0,3,0,0,0,1,1,0,0
148091432,0.29016787,0.0,0.40828404,0.0,0.0,0.0,0.0,0.0,0.0,0.0,0.0,0,0,0,0,1,0,0,3,0,0,0,1,1,0,0
148292981,0.31894484,0.0,0.41065088,0.0,0.0,0.0,0.0,0.0,0.0,0.0,0.0,0,0,0,0,1,0,0,3,0,0,0,1,1,0,0
148491576,0.25419664,0.0,0.41065088,0.0,0.0,0.0,0.0,0.0,0.0,0.0,0.0,0,0,0,0,1,0,0,3,0,0,0,1,1,0,0
148692044,0.34292567,0.0,0.40946746,0.0,0.0,0.0,0.0,0.0,0.0,0.0,0.0,0,0,0,0,1,0,0,3,0,0,0,1,1,0,0
148893610,0.33093524,0.0,0.40828404,0.0,0.0,0.0,0.0,0.0,0.0,0.0,0.0,0,0,0,0,1,0,0,3,0,0,0,1,1,0,0
149094426,0.3645084,0.0,0.40828404,0.0,0.0,0.0,0.0,0.0,0.0,0.0,0.0,0,0,0,0,1,0,0,3,0,0,0,1,1,0,0
149295770,0.35011992,0.0,0.40828404,0.0,0.0,0.0,0.0,0.0,0.0,0.0,0.0,0,0,0,0,1,0,0,3,0,0,0,1,1,0,0
149496602,0.352518,0.0,0.40828404,0.0,0.0,0.0,0.0,0.0,0.0,0.0,0.0,0,0,0,0,1,0,0,3,0,0,0,1,1,0,0
149695407,0.32374102,0.0,0.40828404,0.0,0.0,0.0,0.0,0.0,0.0,0.0,0.0,0,0,0,0,1,0,0,3,0,0,0,1,1,0,0
149897265,0.32134292,0.0,0.40828404,0.0,0.0,0.0,0.0,0.0,0.0,0.0,0.0,0,0,0,0,1,0,0,3,0,0,0,1,1,0,0
150097591,0.31654677,0.0,0.40828404,0.0,0.0,0.0,0.0,0.0,0.0,0.0,0.0,0,0,0,0,1,0,0,3,0,0,0,1,1,0,0
150296339,0.31894484,0.0,0.41065088,0.0,0.0,0.0,0.0,0.0,0.0,0.0,0.0,0,0,0,0,1,0,0,3,0,0,0,1,1,0,0
150497844,0.27098322,0.0,0.40946746,0.0,0.0,0.0,0.0,0.0,0.0,0.0,0.0,0,0,0,0,1,0,0,3,0,0,0,1,1,0,0
150696364,0.2470024,0.0,0.40828404,0.0,0.0,0.0,0.0,0.0,0.0,0.0,0.0,0,0,0,0,1,0,0,3,0,0,0,1,1,0,0
150896022,0.3261391,0.0,0.40236688,0.0,0.0,0.0,0.0,0.0,0.0,0.0,0.0,0,0,0,0,1,0,0,3,0,0,0,1,1,0,0
151094482,0.34772182,0.0,0.40236688,0.0,0.0,0.0,0.0,0.0,0.0,0.0,0.0,0,0,0,0,1,0,0,3,0,0,0,1,1,0,0
151293011,0.3381295,0.0,0.4035503,0.0,0.0,0.0,0.0,0.0,0.0,0.0,0.0,0,0,0,0,1,0,0,3,0,0,0,1,1,0,0
151493345,0.33093524,0.0,0.40591717,0.0,0.0,0.0,0.0,0.0,0.0,0.0,0.0,0,0,0,0,1,0,0,3,0,0,0,1,1,0,0
151694628,0.33093524,0.0,0.40591717,0.0,0.0,0.0,0.0,0.0,0.0,0.0,0.0,0,0,0,0,1,0,0,3,0,0,0,1,1,0,0
151895657,0.29496402,0.0,0.40236688,0.0,0.0,0.0,0.0,0.0,0.0,0.0,0.0,0,0,0,0,1,0,0,3,0,0,0,1,1,0,0
152097809,0.2997602,0.0,0.39881656,-0.006833713,0.0,0.0,0.0,0.0,0.0,0.0,0.0,0,0,0,0,1,0,0,3,0,0,0,1,1,0,0
152297932,0.22781774,0.0,0.39881656,-0.0022779044,0.0,0.0,0.0,0.0,0.0,0.0,0.0,0,0,0,0,1,0,0,3,0,0,0,1,1,0,0
152496585,0.22302158,0.0,0.40118343,0.0,0.0,0.0,0.0,0.0,0.0,0.0,0.0,0,0,0,0,1,0,0,3,0,0,0,1,1,0,0
152695517,0.28297362,0.0,0.40591717,0.0,0.0,0.0,0.0,0.0,0.0,0.0,0.0,0,0,0,0,1,0,0,3,0,0,0,1,1,0,0
152894170,0.2877698,0.0,0.40591717,0.0,0.0,0.0,0.0,0.0,0.0,0.0,0.0,0,0,0,0,1,0,0,3,0,0,0,1,1,0,0
153092789,0.29496402,0.0,0.40591717,0.0,0.0,0.0,0.0,0.0,0.0,0.0,0.0,0,0,0,0,1,0,0,3,0,0,0,1,1,0,0
153294790,0.29016787,0.0,0.4071006,0.0,0.0,0.0,0.0,0.0,0.0,0.0,0.0,0,0,0,0,1,0,0,3,0,0,0,1,1,0,0
153489965,0.29016787,0.0,0.40473372,0.0,0.0,0.0,0.0,0.0,0.0,0.0,0.0,0,0,0,0,1,0,0,3,0,0,0,1,1,0,0
153691874,0.2853717,0.0,0.40236688,0.0,0.0,0.0,0.0,0.0,0.0,0.0,0.0,0,0,0,0,1,0,0,3,0,0,0,1,1,0,0
153890820,0.29256594,0.0,0.41301775,0.0,0.0,0.0,0.0,0.0,0.0,0.0,0.0,0,0,0,0,1,0,0,3,0,0,0,1,1,0,0
154091044,0.3381295,0.0,0.41420117,0.0,0.0,0.0,0.0,0.0,0.0,0.0,0.0,0,0,0,0,1,0,0,3,0,0,0,1,1,0,0
154289799,0.3261391,0.0,0.4071006,0.0,0.0,0.0,0.0,0.0,0.0,0.0,0.0,0,0,0,0,1,0,0,3,0,0,0,1,1,0,0
154491735,0.29736212,0.0,0.39881656,0.0,0.0,0.0,0.0,0.0,0.0,0.0,0.0,0,0,0,0,1,0,0,3,0,0,0,1,1,0,0
154690395,0.31654677,0.0,0.39526626,0.0,0.0,0.0,0.0,0.0,0.0,0.0,0.0,0,0,0,0,1,0,0,3,0,0,0,1,1,0,0
154890711,0.35731414,0.0,0.3964497,0.0,0.0,0.0,0.0,0.0,0.0,0.0,0.0,0,0,0,0,1,0,0,3,0,0,0,1,1,0,0
155092290,0.35731414,0.0,0.3964497,0.0,0.0,0.0,0.0,0.0,0.0,0.0,0.0,0,0,0,0,1,0,0,3,0,0,0,1,1,0,0
155293097,0.34292567,0.0,0.40236688,0.0,0.0,0.0,0.0,0.0,0.0,0.0,0.0,0,0,0,0,1,0,0,3,0,0,0,1,1,0,0
155495377,0.34532374,0.0,0.4071006,0.0,0.0,0.0,0.0,0.0,0.0,0.0,0.0,0,0,0,0,1,0,0,3,0,0,0,1,1,0,0
155693761,0.31654677,0.0,0.40236688,0.0,0.0,0.0,0.0,0.0,0.0,0.0,0.0,0,0,0,0,1,0,0,3,0,0,0,1,1,0,0
155894169,0.35011992,0.0,0.39881656,0.0,0.0,0.0,0.0,0.0,0.0,0.0,0.0,0,0,0,0,1,0,0,3,0,0,0,1,1,0,0
156092765,0.35491607,0.0,0.3964497,0.0,0.0,0.0,0.0,0.0,0.0,0.0,0.0,0,0,0,0,1,0,0,3,0,0,0,1,1,0,0
156295084,0.3381295,0.0,0.3964497,0.0,0.0,0.0,0.0,0.0,0.0,0.0,0.0,0,0,0,0,1,0,0,3,0,0,0,1,1,0,0
156493165,0.3261391,0.0,0.3964497,0.0,0.0,0.0,0.0,0.0,0.0,0.0,0.0,0,0,0,0,1,0,0,3,0,0,0,1,1,0,0
156699407,0.34292567,0.0,0.3964497,0.0,0.0,0.0,0.0,0.0,0.0,0.0,0.0,0,0,0,0,1,0,0,3,0,0,0,1,1,0,0
156890044,0.30215827,0.0,0.39763314,-0.025056947,0.0,0.0,0.0,0.0,0.0,0.0,0.0,0,0,0,0,1,0,0,3,0,0,0,1,1,0,0
157091098,0.29016787,0.0,0.39763314,-0.03644647,0.0,0.0,0.0,0.0,0.0,0.0,0.0,0,0,0,0,1,0,0,3,0,0,0,1,1,0,0
157292825,0.28297362,0.0,0.39881656,-0.061503418,0.0,0.0,0.0,0.0,0.0,0.0,0.0,0,0,0,0,1,0,0,3,0,0,0,1,1,0,0
157493459,0.27817747,0.0,0.39881656,-0.04328018,0.0,0.0,0.0,0.0,0.0,0.0,0.0,0,0,0,0,1,0,0,3,0,0,0,1,1,0,0
157695470,0.2086331,0.0,0.39881656,0.0,0.0,0.0,0.0,0.0,0.0,0.0,0.0,0,0,0,0,1,0,0,3,0,0,0,1,1,0,0
157895864,0.1822542,0.0,0.4071006,0.0,0.0,0.0,0.0,0.0,0.0,0.0,0.0,0,0,0,0,1,0,0,3,0,0,0,1,1,0,0
158097111,0.1558753,0.0,0.41301775,0.0,0.0,0.0,0.0,0.0,0.0,0.0,0.0,0,0,0,0,1,0,0,3,0,0,0,1,1,0,0
158298131,0.14628297,0.0,0.39763314,-0.029612755,0.0,0.0,0.0,0.0,0.0,0.0,0.0,0,0,0,0,1,0,0,3,0,0,0,1,1,0,0
158499358,0.1822542,0.0,0.39763314,-0.11617312,0.0,0.0,0.0,0.0,0.0,0.0,0.0,0,0,0,0,1,0,0,3,0,0,0,1,1,0,0
158700322,0.07434053,0.0,0.3964497,-0.19589977,0.0,0.0,0.0,0.0,0.0,0.0,0.0,0,0,0,0,1,0,0,3,0,0,0,1,1,0,0
158902205,-0.0,0.0,0.3964497,-0.22551253,0.0,0.0,0.0,0.0,0.0,0.0,0.0,0,0,0,0,1,0,0,3,0,0,0,1,1,0,0
159101270,-0.0,0.0,0.39763314,-0.2072893,0.0,0.0,0.0,0.0,0.0,0.0,0.0,0,0,0,0,1,0,0,3,0,0,0,1,1,0,0
159299828,-0.0,0.0,0.39526626,-0.23690204,0.0,0.0,0.0,0.0,0.0,0.0,0.0,0,0,0,0,1,0,0,3,0,0,0,1,1,0,0
159498494,-0.0,0.0,0.39881656,-0.28246012,0.0,0.0,0.0,0.0,0.0,0.0,0.0,0,0,0,0,1,0,0,3,0,0,0,1,1,0,0
159696465,-0.0,0.0,0.39881656,-0.40546697,0.0,0.0,0.0,0.0,0.0,0.0,0.0,0,0,0,0,1,0,0,3,0,0,0,1,1,0,0
159897353,-0.0,0.0,0.39881656,-0.44646925,0.0,0.0,0.0,0.0,0.0,0.0,0.0,0,0,0,0,1,0,0,3,0,0,0,1,1,0,0
160100240,-0.0,0.0,0.3964497,-0.2095672,0.0,0.0,0.0,0.0,0.0,0.0,0.0,0,0,0,0,1,0,0,3,0,0,0,1,1,0,0
160299640,-0.0,0.0,0.4,0.0,0.0,0.0,0.0,0.0,0.0,0.0,0.0,0,0,0,0,1,0,0,3,0,0,0,1,1,0,0
160499756,-0.0,0.0,0.39881656,0.0,0.0,0.0,0.0,0.0,0.0,0.0,0.0,0,0,0,0,1,0,0,3,0,0,0,1,1,0,0
160700446,-0.0,0.0,0.40118343,0.0,0.0,0.0,0.0,0.0,0.0,0.0,0.0,0,0,0,0,1,0,0,3,0,0,0,1,1,0,0
160899667,-0.0,0.0,0.40236688,0.0,0.0,0.0,0.0,0.0,0.0,0.0,0.0,0,0,0,0,1,0,0,3,0,0,0,1,1,0,0
161099438,-0.0,0.0,0.39881656,0.0,0.0,0.0,0.0,0.0,0.0,0.0,0.0,0,0,0,0,1,0,0,3,0,0,0,1,1,0,0
161298906,-0.0,0.0,0.39763314,0.0,0.0,0.0,0.0,0.0,0.0,0.0,0.0,0,0,0,0,1,0,0,3,0,0,0,1,1,0,0
161499360,0.09592326,0.0,0.40118343,0.0,0.0,0.0,0.0,0.0,0.0,0.0,0.0,0,0,0,0,1,0,0,3,0,0,0,1,1,0,0
161699307,0.09352518,-0.021327015,0.39763314,0.0,0.0,0.0,0.0,0.0,0.0,0.0,0.0,0,0,0,0,1,0,0,3,0,0,0,1,1,0,0
161898458,0.07194245,-0.04265403,0.39881656,0.0,0.0,0.0,0.0,0.0,0.0,0.0,0.0,0,0,0,0,1,0,0,3,0,0,0,1,1,0,0
162097122,0.019184653,-0.023696683,0.39763314,0.0,0.0,0.0,0.0,0.0,0.0,0.0,0.0,0,0,0,0,1,0,0,3,0,0,0,1,1,0,0
162295792,0.1031175,-0.04028436,0.39881656,0.0,0.0,0.0,0.0,0.0,0.0,0.0,0.0,0,0,0,0,1,0,0,3,0,0,0,1,1,0,0
162495214,0.13189448,-0.047393367,0.39763314,0.0,0.0,0.0,0.0,0.0,0.0,0.0,0.0,0,0,0,0,1,0,0,3,0,0,0,1,1,0,0
162696460,0.21822542,-0.033175357,0.39763314,0.0,0.0,0.0,0.0,0.0,0.0,0.0,0.0,0,0,0,0,1,0,0,3,0,0,0,1,1,0,0
162892644,0.235012,-0.047393367,0.39881656,0.0,0.0,0.0,0.0,0.0,0.0,0.0,0.0,0,0,0,0,1,0,0,3,0,0,0,1,1,0,0
163093755,0.235012,-0.04028436,0.39763314,0.0,0.0,0.0,0.0,0.0,0.0,0.0,0.0,0,0,0,0,1,0,0,3,0,0,0,1,1,0,0
163294828,0.22781774,-0.047393367,0.39881656,0.0,0.0,0.0,0.0,0.0,0.0,0.0,0.0,0,0,0,0,1,0,0,3,0,0,0,1,1,0,0
163496134,0.24220623,-0.049763035,0.39881656,0.0,0.0,0.0,0.0,0.0,0.0,0.0,0.0,0,0,0,0,1,0,0,3,0,0,0,1,1,0,0
163694878,0.25179857,-0.04028436,0.39881656,0.0,0.0,0.0,0.0,0.0,0.0,0.0,0.0,0,0,0,0,1,0,0,3,0,0,0,1,1,0,0
163895714,0.2470024,-0.030805686,0.40118343,0.0,0.0,0.0,0.0,0.0,0.0,0.0,0.0,0,0,0,0,1,0,0,3,0,0,0,1,1,0,0
164094445,0.25179857,-0.030805686,0.40118343,0.0,0.0,0.0,0.0,0.0,0.0,0.0,0.0,0,0,0,0,1,0,0,3,0,0,0,1,1,0,0
164295752,0.24220623,-0.035545025,0.40236688,0.0,0.0,0.0,0.0,0.0,0.0,0.0,0.0,0,0,0,0,1,0,0,3,0,0,0,1,1,0,0
164494646,0.2589928,-0.028436018,0.40118343,0.0,0.0,0.0,0.0,0.0,0.0,0.0,0.0,0,0,0,0,1,0,0,3,0,0,0,1,1,0,0
164695438,0.30455637,0.0,0.39881656,0.0,0.0,0.0,0.0,0.0,0.0,0.0,0.0,0,0,0,0,1,0,0,3,0,0,0,1,1,0,0
164897415,0.33573142,0.0,0.40118343,0.0,0.0,0.0,0.0,0.0,0.0,0.0,0.0,0,0,0,0,1,0,0,3,0,0,0,1,1,0,0
165095452,0.3141487,-0.0023696683,0.39881656,0.0,0.0,0.0,0.0,0.0,0.0,0.0,0.0,0,0,0,0,1,0,0,3,0,0,0,1,1,0,0
165296507,0.30695444,0.0,0.40236688,0.0,0.0,0.0,0.0,0.0,0.0,0.0,0.0,0,0,0,0,1,0,0,3,0,0,0,1,1,0,0
165498337,0.2997602,0.0,0.40236688,0.0,0.0,0.0,0.0,0.0,0.0,0.0,0.0,0,0,0,0,1,0,0,3,0,0,0,1,1,0,0
165698864,0.2997602,0.0,0.40473372,0.0,0.0,0.0,0.0,0.0,0.0,0.0,0.0,0,0,0,0,1,0,0,3,0,0,0,1,1,0,0
165877441,0.30455637,0.0,0.40236688,0.0,0.0,0.0,0.0,0.0,0.0,0.0,0.0,0,0,0,0,1,0,0,3,0,0,0,1,1,0,0
166099834,0.35491607,0.0,0.4035503,0.0,0.0,0.0,0.0,0.0,0.0,0.0,0.0,0,0,0,0,1,0,0,3,0,0,0,1,1,0,0
166297406,0.34052756,0.0,0.40236688,0.0,0.0,0.0,0.0,0.0,0.0,0.0,0.0,0,0,0,0,1,0,0,3,0,0,0,1,1,0,0
166498343,0.31654677,0.0,0.40236688,0.0,0.0,0.0,0.0,0.0,0.0,0.0,0.0,0,0,0,0,1,0,0,3,0,0,0,1,1,0,0
166699771,0.33573142,0.0,0.40236688,0.0,0.0,0.0,0.0,0.0,0.0,0.0,0.0,0,0,0,0,1,0,0,3,0,0,0,1,1,0,0
166901003,0.34532374,0.0,0.40236688,0.0,0.0,0.0,0.0,0.0,0.0,0.0,0.0,0,0,0,0,1,0,0,3,0,0,0,1,1,0,0
167099406,0.3117506,0.0,0.40236688,0.0,0.0,0.0,0.0,0.0,0.0,0.0,0.0,0,0,0,0,1,0,0,3,0,0,0,1,1,0,0
167301902,0.34532374,0.0,0.40236688,0.0,0.0,0.0,0.0,0.0,0.0,0.0,0.0,0,0,0,0,1,0,0,3,0,0,0,1,1,0,0
167500093,0.36211032,0.0,0.40236688,0.0,0.0,0.0,0.0,0.0,0.0,0.0,0.0,0,0,0,0,1,0,0,3,0,0,0,1,1,0,0
167700412,0.33573142,0.0,0.40236688,0.0,0.0,0.0,0.0,0.0,0.0,0.0,0.0,0,0,0,0,1,0,0,3,0,0,0,1,1,0,0
167901791,0.30455637,0.0,0.40236688,0.0,0.0,0.0,0.0,0.0,0.0,0.0,0.0,0,0,0,0,1,0,0,3,0,0,0,1,1,0,0
168101110,0.31894484,0.0,0.40236688,0.0,0.0,0.0,0.0,0.0,0.0,0.0,0.0,0,0,0,0,1,0,0,3,0,0,0,1,1,0,0
168299155,0.32134292,0.0,0.40236688,0.0,0.0,0.0,0.0,0.0,0.0,0.0,0.0,0,0,0,0,1,0,0,3,0,0,0,1,1,0,0
168500258,0.3117506,0.0,0.40236688,0.0,0.0,0.0,0.0,0.0,0.0,0.0,0.0,0,0,0,0,1,0,0,3,0,0,0,1,1,0,0
168701955,0.33573142,0.0,0.40236688,0.0,0.0,0.0,0.0,0.0,0.0,0.0,0.0,0,0,0,0,1,0,0,3,0,0,0,1,1,0,0
168900097,0.33093524,0.0,0.40236688,0.0,0.0,0.0,0.0,0.0,0.0,0.0,0.0,0,0,0,0,1,0,0,3,0,0,0,1,1,0,0
169098887,0.32853717,0.0,0.40236688,0.0,0.0,0.0,0.0,0.0,0.0,0.0,0.0,0,0,0,0,1,0,0,3,0,0,0,1,1,0,0
169297493,0.32853717,0.0,0.40236688,0.0,0.0,0.0,0.0,0.0,0.0,0.0,0.0,0,0,0,0,1,0,0,3,0,0,0,1,1,0,0
169498530,0.32374102,0.0,0.40236688,0.0,0.0,0.0,0.0,0.0,0.0,0.0,0.0,0,0,0,0,1,0,0,3,0,0,0,1,1,0,0
169692106,0.2997602,0.0,0.40118343,0.0,0.0,0.0,0.0,0.0,0.0,0.0,0.0,0,0,0,0,1,0,0,3,0,0,0,1,1,0,0
169893462,0.33093524,0.0,0.40236688,0.0,0.0,0.0,0.0,0.0,0.0,0.0,0.0,0,0,0,0,1,0,0,3,0,0,0,1,1,0,0
170094388,0.33573142,0.0,0.40236688,0.0,0.0,0.0,0.0,0.0,0.0,0.0,0.0,0,0,0,0,1,0,0,3,0,0,0,1,1,0,0
170293162,0.32374102,0.0,0.40236688,0.0,0.0,0.0,0.0,0.0,0.0,0.0,0.0,0,0,0,0,1,0,0,3,0,0,0,1,1,0,0
170491913,0.33573142,0.0,0.40236688,0.0,0.0,0.0,0.0,0.0,0.0,0.0,0.0,0,0,0,0,1,0,0,3,0,0,0,1,1,0,0
170690623,0.33093524,0.0,0.40236688,0.0,0.0,0.0,0.0,0.0,0.0,0.0,0.0,0,0,0,0,1,0,0,3,0,0,0,1,1,0,0
170889036,0.30695444,0.0,0.40236688,0.0,0.0,0.0,0.0,0.0,0.0,0.0,0.0,0,0,0,0,1,0,0,3,0,0,0,1,1,0,0
171090990,0.34292567,0.0,0.40236688,0.0,0.0,0.0,0.0,0.0,0.0,0.0,0.0,0,0,0,0,1,0,0,3,0,0,0,1,1,0,0
171289160,0.35011992,0.0,0.40236688,0.0,0.0,0.0,0.0,0.0,0.0,0.0,0.0,0,0,0,0,1,0,0,3,0,0,0,1,1,0,0
171490307,0.3381295,0.0,0.40236688,0.0,0.0,0.0,0.0,0.0,0.0,0.0,0.0,0,0,0,0,1,0,0,3,0,0,0,1,1,0,0
171691846,0.33093524,0.0,0.40236688,0.0,0.0,0.0,0.0,0.0,0.0,0.0,0.0,0,0,0,0,1,0,0,3,0,0,0,1,1,0,0
171892444,0.31654677,0.0,0.40236688,0.0,0.0,0.0,0.0,0.0,0.0,0.0,0.0,0,0,0,0,1,0,0,3,0,0,0,1,1,0,0
172091044,0.30455637,0.0,0.40236688,0.0,0.0,0.0,0.0,0.0,0.0,0.0,0.0,0,0,0,0,1,0,0,3,0,0,0,1,1,0,0
172289903,0.33093524,0.0,0.40236688,0.0,0.0,0.0,0.0,0.0,0.0,0.0,0.0,0,0,0,0,1,0,0,3,0,0,0,1,1,0,0
172491202,0.34052756,0.0,0.40236688,0.0,0.0,0.0,0.0,0.0,0.0,0.0,0.0,0,0,0,0,1,0,0,3,0,0,0,1,1,0,0
172692368,0.35491607,0.0,0.40236688,0.0,0.0,0.0,0.0,0.0,0.0,0.0,0.0,0,0,0,0,1,0,0,3,0,0,0,1,1,0,0
172893467,0.352518,0.0,0.40236688,0.0,0.0,0.0,0.0,0.0,0.0,0.0,0.0,0,0,0,0,1,0,0,3,0,0,0,1,1,0,0
173094865,0.3381295,0.0,0.40236688,0.0,0.0,0.0,0.0,0.0,0.0,0.0,0.0,0,0,0,0,1,0,0,3,0,0,0,1,1,0,0
173296501,0.32374102,0.0,0.40236688,0.0,0.0,0.0,0.0,0.0,0.0,0.0,0.0,0,0,0,0,1,0,0,3,0,0,0,1,1,0,0
173497288,0.36211032,0.0,0.40236688,0.0,0.0,0.0,0.0,0.0,0.0,0.0,0.0,0,0,0,0,1,0,0,3,0,0,0,1,1,0,0
173698265,0.35971224,0.0,0.40236688,0.0,0.0,0.0,0.0,0.0,0.0,0.0,0.0,0,0,0,0,1,0,0,3,0,0,0,1,1,0,0
173899326,0.32134292,0.0,0.40236688,0.0,0.0,0.0,0.0,0.0,0.0,0.0,0.0,0,0,0,0,1,0,0,3,0,0,0,1,1,0,0
174100438,0.32853717,0.0,0.4,0.0,0.0,0.0,0.0,0.0,0.0,0.0,0.0,0,0,0,0,1,0,0,3,0,0,0,1,1,0,0
174301497,0.35011992,0.009638554,0.40118343,0.0,0.0,0.0,0.0,0.0,0.0,0.0,0.0,0,0,0,0,1,0,0,3,0,0,0,1,1,0,0
174500023,0.37170264,0.08192771,0.4,0.0,0.0,0.0,0.0,0.0,0.0,0.0,0.0,0,0,0,0,1,0,0,3,0,0,0,1,1,0,0
174698833,0.35491607,0.0,0.39881656,0.0,0.0,0.0,0.0,0.0,0.0,0.0,0.0,0,0,0,0,1,0,0,3,0,0,0,1,1,0,0
174900873,0.36211032,0.0,0.39881656,0.0,0.0,0.0,0.0,0.0,0.0,0.0,0.0,0,0,0,0,1,0,0,3,0,0,0,1,1,0,0
175108141,0.35011992,0.0,0.39881656,0.0,0.0,0.0,0.0,0.0,0.0,0.0,0.0,0,0,0,0,1,0,0,3,0,0,0,1,1,0,0
175302487,0.29496402,-0.011848342,0.44615385,0.05392157,0.0,0.0,0.0,0.0,0.0,0.0,0.0,0,0,0,0,1,0,0,3,0,0,0,1,1,0,0
175503438,0.24220623,0.0,0.48639053,0.1004902,0.0,0.0,0.0,0.0,0.0,0.0,0.0,0,0,0,0,1,0,0,3,0,0,0,1,1,0,0
175704703,0.24220623,0.0,0.48757395,0.125,0.0,0.0,0.0,0.0,0.0,0.0,0.0,0,0,0,0,1,0,0,3,0,0,0,1,1,0,0
175905772,0.21822542,0.0,0.48994082,0.05147059,0.0,0.0,0.0,0.0,0.0,0.0,0.0,0,0,0,0,1,0,0,3,0,0,0,1,1,0,0
176084587,0.22781774,0.0,0.5005917,0.009803922,0.0,0.0,0.0,0.0,0.0,0.0,0.0,0,0,0,0,1,0,0,3,0,0,0,1,1,0,0
176308268,0.06235012,0.0,0.49940827,0.0,0.0,0.0,0.0,0.0,0.0,0.0,0.0,0,0,0,0,1,0,0,3,0,0,0,1,1,0,0
176486894,-0.0,0.0,0.49940827,0.0,0.0,0.0,0.0,0.0,0.0,0.0,0.0,0,0,0,0,1,0,0,3,0,0,0,1,1,0,0
176685562,-0.0,0.0,0.49822485,0.0,0.0,0.0,0.0,0.0,0.0,0.0,0.0,0,0,0,0,1,0,0,3,0,0,0,1,1,0,0
176886994,-0.0,0.0,0.5005917,0.0,0.0,0.0,0.0,0.0,0.0,0.0,0.0,0,0,0,0,1,0,0,3,0,0,0,1,1,0,0
177087935,0.038369305,0.0,0.49940827,0.0,0.0,0.0,0.0,0.0,0.0,0.0,0.0,0,0,0,0,1,0,0,3,0,0,0,1,1,0,0
177284916,0.038369305,0.0,0.48994082,0.0,0.0,0.0,0.0,0.0,0.0,0.0,0.0,0,0,0,0,1,0,0,3,0,0,0,1,1,0,0
177505109,0.09832134,-0.033175357,0.48994082,0.0,0.0,0.0,0.0,0.0,0.0,0.0,0.0,0,0,0,0,1,0,0,3,0,0,0,1,1,0,0
177706490,0.17266187,-0.014218009,0.48994082,0.0,0.0,0.0,0.0,0.0,0.0,0.0,0.0,0,0,0,0,1,0,0,3,0,0,0,1,1,0,0
177907649,0.206235,-0.0071090045,0.48994082,0.0,0.0,0.0,0.0,0.0,0.0,0.0,0.0,0,0,0,0,1,0,0,3,0,0,0,1,1,0,0
178086082,0.21582733,0.0,0.48994082,0.0,0.0,0.0,0.0,0.0,0.0,0.0,0.0,0,0,0,0,1,0,0,3,0,0,0,1,1,0,0
178287991,0.23980816,-0.0047393367,0.48994082,0.0,0.0,0.0,0.0,0.0,0.0,0.0,0.0,0,0,0,0,1,0,0,3,0,0,0,1,1,0,0
178488688,0.23980816,0.0,0.48994082,0.0,0.0,0.0,0.0,0.0,0.0,0.0,0.0,0,0,0,0,1,0,0,3,0,0,0,1,1,0,0
178690283,0.28297362,0.0,0.49112427,0.0,0.0,0.0,0.0,0.0,0.0,0.0,0.0,0,0,0,0,1,0,0,3,0,0,0,1,1,0,0
178890882,0.2997602,0.0,0.48994082,0.0,0.0,0.0,0.0,0.0,0.0,0.0,0.0,0,0,0,0,1,0,0,3,0,0,0,1,1,0,0
179092604,0.2997602,0.0,0.49112427,0.0,0.0,0.0,0.0,0.0,0.0,0.0,0.0,0,0,0,0,1,0,0,3,0,0,0,1,1,0,0
179293308,0.2997602,0.0,0.49112427,0.0,0.0,0.0,0.0,0.0,0.0,0.0,0.0,0,0,0,0,1,0,0,3,0,0,0,1,1,0,0
179494556,0.2997602,0.0,0.48994082,0.0,0.0,0.0,0.0,0.0,0.0,0.0,0.0,0,0,0,0,1,0,0,3,0,0,0,1,1,0,0
179695485,0.24220623,-0.0047393367,0.49112427,0.0,0.0,0.0,0.0,0.0,0.0,0.0,0.0,0,0,0,0,1,0,0,3,0,0,0,1,1,0,0
179896946,0.2086331,-0.0047393367,0.49112427,0.0,0.0,0.0,0.0,0.0,0.0,0.0,0.0,0,0,0,0,1,0,0,3,0,0,0,1,1,0,0
180095608,0.20143884,-0.030805686,0.49112427,0.0,0.0,0.0,0.0,0.0,0.0,0.0,0.0,0,0,0,0,1,0,0,3,0,0,0,1,1,0,0
180294091,0.19184652,-0.030805686,0.49112427,0.0,0.0,0.0,0.0,0.0,0.0,0.0,0.0,0,0,0,0,1,0,0,3,0,0,0,1,1,0,0
180495154,0.17026378,-0.0071090045,0.46745563,-0.009111618,0.0,0.0,0.0,0.0,0.0,0.0,0.0,0,0,0,0,1,0,0,3,0,0,0,1,1,0,0
180696556,0.16546762,0.0,0.46863905,-0.24145786,0.0,0.0,0.0,0.0,0.0,0.0,0.0,0,0,0,0,1,0,0,3,0,0,0,1,1,0,0
180895313,0.16786571,-0.0023696683,0.46863905,-0.24829157,0.0,0.0,0.0,0.0,0.0,0.0,0.0,0,0,0,0,1,0,0,3,0,0,0,1,1,0,0
181096102,0.1558753,0.0,0.46863905,-0.38268793,0.0,0.0,0.0,0.0,0.0,0.0,0.0,0,0,0,0,1,0,0,3,0,0,0,1,1,0,0
181293104,0.1031175,0.0,0.4698225,-0.3120729,0.0,0.0,0.0,0.0,0.0,0.0,0.0,0,0,0,0,1,0,0,3,0,0,0,1,1,0,0
181489774,-0.0,0.0,0.46863905,-0.3120729,0.0,0.0,0.0,0.0,0.0,0.0,0.0,0,0,0,0,1,0,0,3,0,0,0,1,1,0,0
181688428,-0.0,0.0,0.46745563,-0.27107063,0.0,0.0,0.0,0.0,0.0,0.0,0.0,0,0,0,0,1,0,0,3,0,0,0,1,1,0,0
181890262,-0.0,0.0,0.46863905,-0.2642369,0.0,0.0,0.0,0.0,0.0,0.0,0.0,0,0,0,0,1,0,0,3,0,0,0,1,1,0,0
182089506,-0.0,0.0,0.46863905,-0.28929386,0.0,0.0,0.0,0.0,0.0,0.0,0.0,0,0,0,0,1,0,0,3,0,0,0,1,1,0,0
182288776,-0.0,0.0,0.46627218,-0.38952163,0.0,0.0,0.0,0.0,0.0,0.0,0.0,0,0,0,0,1,0,0,3,0,0,0,1,1,0,0
182487509,-0.0,0.0,0.46863905,-0.41002277,0.0,0.0,0.0,0.0,0.0,0.0,0.0,0,0,0,0,1,0,0,3,0,0,0,1,1,0,0
182689694,-0.0,0.0,0.46745563,-0.25512528,0.0,0.0,0.0,0.0,0.0,0.0,0.0,0,0,0,0,1,0,0,3,0,0,0,1,1,0,0
182889225,-0.0,0.0,0.46863905,-0.056947608,0.0,0.0,0.0,0.0,0.0,0.0,0.0,0,0,0,0,1,0,0,3,0,0,0,1,1,0,0
183091948,-0.0,0.0,0.47218934,0.0,0.0,0.0,0.0,0.0,0.0,0.0,0.0,0,0,0,0,1,0,0,3,0,0,0,1,1,0,0
183299826,-0.0,0.0,0.46627218,0.0,0.0,0.0,0.0,0.0,0.0,0.0,0.0,0,0,0,0,1,0,0,3,0,0,0,1,1,0,0
183496404,-0.0,0.0,0.46863905,0.0,0.0,0.0,0.0,0.0,0.0,0.0,0.0,0,0,0,0,1,0,0,3,0,0,0,1,1,0,0
183693915,-0.0,0.0,0.46745563,-0.0022779044,0.0,0.0,0.0,0.0,0.0,0.0,0.0,0,0,0,0,1,0,0,3,0,0,0,1,1,0,0
183895215,0.0023980816,0.0,0.46863905,-0.05922551,0.0,0.0,0.0,0.0,0.0,0.0,0.0,0,0,0,0,1,0,0,3,0,0,0,1,1,0,0
184096382,-0.0,0.0,0.4698225,0.0,0.0,0.0,0.0,0.0,0.0,0.0,0.0,0,0,0,0,1,0,0,3,0,0,0,1,1,0,0
184297469,-0.0,0.0,0.46745563,-0.01594533,0.0,0.0,0.0,0.0,0.0,0.0,0.0,0,0,0,0,1,0,0,3,0,0,0,1,1,0,0
184498475,-0.0,0.0,0.46863905,-0.050113894,0.0,0.0,0.0,0.0,0.0,0.0,0.0,0,0,0,0,1,0,0,3,0,0,0,1,1,0,0
184697930,0.08872902,0.0,0.46863905,-0.009111618,0.0,0.0,0.0,0.0,0.0,0.0,0.0,0,0,0,0,1,0,0,3,0,0,0,1,1,0,0
184898447,0.17026378,0.0,0.46745563,0.0,0.0,0.0,0.0,0.0,0.0,0.0,0.0,0,0,0,0,1,0,0,3,0,0,0,1,1,0,0
185099468,0.21103117,0.0,0.46390533,0.0,0.0,0.0,0.0,0.0,0.0,0.0,0.0,0,0,0,0,1,0,0,3,0,0,0,1,1,0,0
185298107,0.235012,0.0,0.46153846,0.0,0.0,0.0,0.0,0.0,0.0,0.0,0.0,0,0,0,0,1,0,0,3,0,0,0,1,1,0,0
185500480,0.24220623,0.0,0.46508875,0.0,0.0,0.0,0.0,0.0,0.0,0.0,0.0,0,0,0,0,1,0,0,3,0,0,0,1,1,0,0
185700630,0.25179857,0.0,0.46745563,0.0,0.0,0.0,0.0,0.0,0.0,0.0,0.0,0,0,0,0,1,0,0,3,0,0,0,1,1,0,0
185902482,0.2589928,0.0,0.46863905,-0.0022779044,0.0,0.0,0.0,0.0,0.0,0.0,0.0,0,0,0,0,1,0,0,3,0,0,0,1,1,0,0
186102835,0.25179857,0.0,0.46627218,-0.04328018,0.0,0.0,0.0,0.0,0.0,0.0,0.0,0,0,0,0,1,0,0,3,0,0,0,1,1,0,0
186304324,0.235012,0.0,0.46863905,-0.05922551,0.0,0.0,0.0,0.0,0.0,0.0,0.0,0,0,0,0,1,0,0,3,0,0,0,1,1,0,0
186505332,0.21582733,0.0,0.46863905,-0.12072893,0.0,0.0,0.0,0.0,0.0,0.0,0.0,0,0,0,0,1,0,0,3,0,0,0,1,1,0,0
186703826,0.24220623,0.0,0.46863905,-0.097949885,0.0,0.0,0.0,0.0,0.0,0.0,0.0,0,0,0,0,1,0,0,3,0,0,0,1,1,0,0
186902541,0.3117506,0.0,0.46508875,-0.054669704,0.0,0.0,0.0,0.0,0.0,0.0,0.0,0,0,0,0,1,0,0,3,0,0,0,1,1,0,0
187103831,0.32374102,0.0,0.46627218,0.0,0.0,0.0,0.0,0.0,0.0,0.0,0.0,0,0,0,0,1,0,0,3,0,0,0,1,1,0,0
187303180,0.3117506,0.0,0.47573966,0.0,0.0,0.0,0.0,0.0,0.0,0.0,0.0,0,0,0,0,1,0,0,3,0,0,0,1,1,0,0
187498412,0.3261391,0.0,0.47573966,0.0,0.0,0.0,0.0,0.0,0.0,0.0,0.0,0,0,0,0,1,0,0,3,0,0,0,1,1,0,0
187699914,0.3381295,0.0,0.47692308,0.0,0.0,0.0,0.0,0.0,0.0,0.0,0.0,0,0,0,0,1,0,0,3,0,0,0,1,1,0,0
187901044,0.34292567,0.0,0.47692308,0.0,0.0,0.0,0.0,0.0,0.0,0.0,0.0,0,0,0,0,1,0,0,3,0,0,0,1,1,0,0
188102093,0.3381295,0.0,0.47692308,0.0,0.0,0.0,0.0,0.0,0.0,0.0,0.0,0,0,0,0,1,0,0,3,0,0,0,1,1,0,0
188300905,0.34772182,0.0,0.47692308,0.0,0.0,0.0,0.0,0.0,0.0,0.0,0.0,0,0,0,0,1,0,0,3,0,0,0,1,1,0,0
188501947,0.34532374,0.0,0.47692308,0.0,0.0,0.0,0.0,0.0,0.0,0.0,0.0,0,0,0,0,1,0,0,3,0,0,0,1,1,0,0
188704107,0.33093524,0.0,0.47692308,0.0,0.0,0.0,0.0,0.0,0.0,0.0,0.0,0,0,0,0,1,0,0,3,0,0,0,1,1,0,0
188904071,0.30935252,0.0,0.47573966,0.0,0.0,0.0,0.0,0.0,0.0,0.0,0.0,0,0,0,0,1,0,0,3,0,0,0,1,1,0,0
189106130,0.3117506,0.0,0.46508875,0.0,0.0,0.0,0.0,0.0,0.0,0.0,0.0,0,0,0,0,1,0,0,3,0,0,0,1,1,0,0
189306361,0.30455637,0.0,0.46745563,0.0,0.0,0.0,0.0,0.0,0.0,0.0,0.0,0,0,0,0,1,0,0,3,0,0,0,1,1,0,0
189485299,0.27098322,0.0,0.46745563,-0.06378132,0.0,0.0,0.0,0.0,0.0,0.0,0.0,0,0,0,0,1,0,0,3,0,0,0,1,1,0,0
