timestamp,gyro_rad[0],gyro_rad[1],gyro_rad[2],gyro_integral_dt,accelerometer_timestamp_relative,accelerometer_m_s2[0],accelerometer_m_s2[1],accelerometer_m_s2[2],accelerometer_integral_dt,accelerometer_clipping
66701032,-0.00044430682,-0.0032817663,-0.041439526,5010,0,0.5752968,-0.37861386,-9.883935,5010,0
66705971,-0.0384425,-0.030206798,-0.020739216,4939,0,0.12467659,0.049533058,-9.941936,4939,0
66710922,0.009452351,0.03168849,0.055299647,4951,0,-0.15275477,0.11795736,-9.556941,4951,0
66715888,0.031350847,0.02218356,-0.008510329,4966,0,0.24679443,-0.0684811,-9.583215,4966,0
66720858,-0.01491411,-0.05842535,-0.04885793,4970,0,0.38868183,-0.13411932,-9.808658,4970,0
66725822,-0.0017234666,-0.0044099675,0.07616089,4964,0,-0.3288701,-0.13555594,-9.902654,4964,0
66730797,0.026254432,0.0063703773,0.012765789,4975,0,0.3261021,-0.4189648,-10.20046,4975,0
66735755,-0.008724703,0.026239002,-0.020901123,4958,0,-0.10369294,-0.12489274,-9.949411,4958,0
66740722,0.0007445575,0.02988987,0.061025463,4967,0,0.05632845,-0.41021773,-9.722828,4967,0
66745689,0.0017860705,-0.028547667,0.04019196,4967,0,0.4634414,-0.61948323,-9.856739,4967,0
66750656,-0.008236457,-0.026990196,-0.038653813,4967,0,0.12703303,-0.30196553,-10.022862,4967,0
66755623,-0.0076323044,0.03814277,0.022498649,4967,0,0.059851643,-0.11465273,-9.731526,4967,0
66760589,-0.013192833,0.00060490484,0.0400602,4966,0,0.25380516,-0.27518162,-9.760282,4966,0
66765558,0.0006689223,-0.027874023,0.024664097,4969,0,0.1876084,-0.30185294,-9.709824,4969,0
66770523,-0.009000465,-0.014450685,-0.0052897315,4965,0,-0.071786866,0.0059000337,-9.876565,4965,0
66775490,-0.029275093,0.005322102,0.01136991,4967,0,0.116199866,0.2145582,-9.883057,4967,0
66780457,0.0031545036,-0.009663851,0.015499858,4967,0,0.0220525,0.23835295,-9.981546,4967,0
66785424,0.037530318,-0.022939261,0.0064448817,4967,0,0.108530335,-0.016267363,-10.00846,4967,0
66790391,0.044580076,0.005840041,-0.026778482,4967,0,-0.30457616,-0.1464337,-10.021676,4967,0
66795357,0.03360778,0.02064072,-0.0497792,4966,0,0.19232966,-0.49833578,-9.900138,4966,0
66800324,0.017206887,-0.04868833,-0.07383633,4967,0,0.40961677,-0.68648756,-9.9837675,4967,0
66805291,-0.0068319375,-0.046017982,-0.051070172,4967,0,0.27658245,-0.66275865,-10.153578,4967,0
66810258,-0.04267295,-0.014728416,-0.051382896,4967,0,0.21853209,-0.4943018,-10.039816,4967,0
66815221,-0.06538614,0.026501581,-0.022762477,4963,0,0.15009554,0.055202894,-9.523683,4963,0
66820198,-0.052254785,0.002177708,0.007431634,4977,0,0.07808165,0.4582284,-9.155707,4977,0
66825192,-0.01397815,-0.017191678,0.020266788,4994,0,-0.27552652,0.63767195,-9.254197,4994,0
66830175,0.03164187,-0.027766751,0.0074110995,4983,0,-0.32464823,0.38207725,-9.7794695,4983,0
66835181,0.07528931,-0.000273298,0.020580597,5006,0,-0.16273987,-0.23069896,-10.217103,5006,0
66840170,0.074886575,-0.025708068,-0.008237923,4989,0,0.44320503,-0.9421554,-10.686189,4989,0
66845158,0.02720564,-0.019145485,-0.023993088,4988,0,0.5144173,-1.1365709,-10.798505,4988,0
66850138,-0.03468043,0.006085373,-0.00013556475,4980,0,0.40650547,-0.9378784,-10.266153,4980,0
66855124,-0.06777274,0.04887995,0.0434561,4986,0,-0.03970042,-0.42388442,-9.376554,4986,0
66860085,-0.074792944,0.037135787,0.043055695,4961,0,-0.34690493,0.25029436,-8.633764,4961,0
66865049,-0.04004355,0.010332574,0.01689149,4964,0,-0.5900899,0.7648676,-8.615091,4964,0
66870043,0.033127327,-0.026430072,-0.0077706617,4994,0,-0.42615083,0.7589787,-9.371385,4994,0
66874827,0.09213636,-0.061855108,-0.02367485,4784,0,0.40052795,0.018353118,-10.593779,4784,0
66879794,0.05446434,-0.058919083,-0.013717818,4967,0,0.9549614,-0.62746227,-11.497331,4967,0
66884762,-0.015260487,0.01020075,0.030972099,4968,0,0.8666397,-0.8194939,-11.2814,4968,0
66889727,-0.029440878,0.08936574,0.068254024,4965,0,0.3383362,-0.66981494,-10.108104,4965,0
66894694,-0.002798235,0.060484186,0.03118314,4967,0,-0.13260202,-0.38375166,-8.695128,4967,0
66899662,-0.0076892436,0.002015595,-0.0064089145,4968,0,-0.8893059,-0.11052936,-8.155502,4968,0
66904627,-0.032381754,-0.08261072,-0.07993475,4965,0,-0.38932562,0.11140319,-8.860772,4965,0
66909594,-0.020360054,-0.0995089,-0.10937667,4967,0,-0.058148198,0.24754469,-10.246911,4967,0
66914561,-0.00033673886,-0.02415871,-0.038494106,4967,0,0.60917133,0.2161483,-11.369211,4967,0
66919528,0.0004910706,0.043471415,0.039848242,4967,0,0.5536557,-0.087394655,-11.365106,4967,0
66924495,0.034512985,0.103952244,0.085265465,4967,0,0.28699026,-0.26300722,-10.232365,4967,0
66929462,0.073438354,0.038231667,0.03548433,4967,0,-0.020870501,-0.60876936,-8.759201,4967,0
66934428,0.045985688,-0.052038874,-0.060872067,4966,0,0.040639278,-0.6585621,-8.4154005,4966,0
66939397,-0.03431096,-0.14220227,-0.13048063,4969,0,0.20221604,-0.57187057,-9.104806,4969,0
66944366,-0.10533809,-0.04267583,-0.03365292,4969,0,-0.29832155,-0.0015741679,-10.503476,4969,0
66949329,-0.08612369,0.040462382,0.042795774,4963,0,-0.2699422,0.4500256,-11.1694145,4963,0
66954297,0.025646957,0.09987799,0.08666148,4968,0,-0.42111236,0.47226924,-10.720605,4968,0
66959263,0.14198974,0.050228614,0.06906186,4966,0,0.19135405,-0.12009794,-9.402288,4966,0
66964230,0.11284135,-0.031917468,-0.036611553,4967,0,0.82064164,-0.6557464,-8.704392,4967,0
66969201,-0.009258819,-0.07910027,-0.08989448,4971,0,0.8239711,-0.79566544,-8.93062,4971,0
66974163,-0.12901321,-0.03222062,-0.0070307227,4962,0,0.1464437,-0.37711793,-10.096473,4962,0
66979130,-0.10241978,-0.00018495235,0.053938966,4967,0,-0.5270929,0.09062889,-11.02639,4967,0
66984097,0.013953678,0.05388605,0.08727012,4967,0,-0.8189749,0.22139758,-10.959329,4967,0
66989064,0.10820235,0.04439999,0.010817804,4967,0,-0.16789274,-0.18031515,-9.877507,4967,0
66994067,0.07201134,0.0054842294,-0.07335887,5003,0,0.63663065,-0.13930778,-8.8281,5003,0
66998996,-0.018863067,-0.03216731,-0.06593746,4929,0,0.82482594,-0.3005156,-8.615005,4929,0
67003965,-0.09668725,-0.03736799,0.028726712,4969,0,0.35629645,0.057558205,-9.5809145,4969,0
67008931,-0.048802793,-0.016460981,0.047762047,4966,0,-0.4684478,-0.18549623,-10.792106,4966,0
67013898,0.05074893,0.030052464,0.069668904,4967,0,-0.66287625,-0.19828254,-11.05462,4967,0
67018866,0.093259975,0.012491492,-0.026568953,4968,0,0.18525255,-0.6775939,-10.270662,4968,0
67023832,0.032659773,0.00042087815,-0.08519898,4966,0,0.6443145,-0.23973337,-9.15621,4966,0
67028799,-0.05610172,0.015531136,-0.06221979,4967,0,0.45854244,-0.14494678,-8.828923,4967,0
67033767,-0.096124835,-0.0051906477,0.023696069,4968,0,0.013625858,0.4676768,-9.578839,4968,0
67038741,-0.019450285,-0.044328846,0.049882375,4974,0,-0.5149921,0.090707034,-10.637583,4974,0
67043699,0.09908013,-0.016981265,0.056900933,4958,0,-0.29348162,-0.27741313,-10.798477,4958,0
67048667,0.10447553,-0.0077171377,-0.05878923,4968,0,0.6182501,-0.64533144,-9.831516,4968,0
67053634,0.022726662,0.043043904,-0.06282779,4967,0,0.6380155,-0.3152999,-8.764594,4967,0
67058600,-0.098553166,0.03248601,-0.015354321,4966,0,0.13248043,-0.17487177,-8.94793,4966,0
67063568,-0.090476066,-0.04634707,0.027214136,4968,0,-0.3628372,0.14404108,-10.193654,4968,0
67068531,0.01262007,-0.06627921,0.049689803,4963,0,-0.8480022,-0.12810694,-11.430009,4963,0
67073512,0.09544234,-0.009757072,0.018461673,4981,0,0.25070906,-0.63225365,-10.983309,4981,0
67078510,0.05643978,0.061626516,-0.062369976,4998,0,0.84394187,-0.28864005,-9.193602,4998,0
67083489,-0.01675986,0.09193614,-0.031936325,4979,0,0.8403496,0.03906262,-7.9158077,4979,0
67088403,-0.091357626,0.017428264,0.022047568,4914,0,-0.26032403,0.27990204,-8.813796,4914,0
67093368,-0.04817811,-0.124220625,0.030390425,4965,0,-0.42594337,-0.010642044,-10.680122,4965,0
67098339,0.050860696,-0.091221765,0.052121006,4971,0,-0.8085827,-0.42348197,-11.984418,4971,0
67103326,0.097254544,0.010434804,-0.013783181,4987,0,0.59798706,-0.70164007,-10.886137,4987,0
67108313,0.04689597,0.14274123,-0.03510883,4987,0,0.6423131,-0.3749756,-8.718228,4987,0
67113301,-0.06053063,0.1131858,-0.010930491,4988,0,0.46201316,0.015269014,-7.865787,4988,0
67118294,-0.099875696,-0.05209961,0.016948413,4993,0,-0.47906554,0.24401969,-9.1378975,4993,0
67123284,-0.019728364,-0.18746947,0.006984235,4990,0,-0.51766825,-0.045520492,-11.286516,4990,0
67128273,0.078435294,-0.0878792,0.028129904,4989,0,0.08530453,-0.44524595,-11.783924,4989,0
67133259,0.092296764,0.09226126,-0.027287928,4986,0,0.8855099,-0.44009236,-10.126576,4986,0
67138316,0.008043213,0.19168156,0.013247242,5057,0,0.61041206,0.0050809574,-8.095086,5057,0
67143051,-0.068399005,0.05243301,-0.017516097,4735,0,-0.1994426,-0.11441357,-8.2576065,4735,0
67148012,-0.058981087,-0.16779658,-0.0016221567,4961,0,-0.55131227,0.16434403,-10.172826,4961,0
67152970,0.020687679,-0.1808927,-0.00071093574,4958,0,-0.5691328,-0.5393638,-11.966579,4958,0
67157937,0.0753647,0.0003424461,0.000774874,4967,0,0.767234,-0.24314286,-11.073723,4967,0
67162904,0.043902997,0.19307001,0.0018924061,4967,0,0.7530241,-0.42932314,-8.792331,4967,0
67167871,-0.022140844,0.16736431,0.00897631,4967,0,0.31852642,0.05441317,-7.697052,4967,0
67172836,-0.077490166,-0.06891675,-0.019707212,4965,0,-0.6742505,0.010400689,-9.297696,4965,0
67177804,-0.03525914,-0.24641874,-0.05144661,4968,0,-0.4885858,-0.13589881,-11.508707,4968,0
67182770,0.044308152,-0.10503905,0.03746325,4966,0,-0.09864329,-0.21493602,-12.054617,4966,0
67187737,0.09791006,0.13793434,0.008954525,4967,0,1.011232,-0.56330353,-10.011973,4967,0
67192704,0.018611418,0.25454018,0.03423235,4967,0,0.35045397,-0.016044978,-7.7879305,4967,0
67197671,-0.050194938,0.07634202,-0.037324995,4967,0,-0.2092439,-0.5119333,-7.790662,4967,0
67202638,-0.08965723,-0.22353227,-0.058198236,4967,0,-0.43400764,0.43599635,-10.196532,4967,0
67207605,-0.013582647,-0.24611527,-0.020871783,4967,0,-0.20576994,-0.18317033,-12.251716,4967,0
67212571,0.09504182,0.009786006,0.04836534,4966,0,0.8347859,0.08230476,-11.344509,4966,0
67217538,0.08858538,0.27917874,0.067821436,4967,0,0.2754427,-0.43166858,-9.123387,4967,0
67222506,0.021934865,0.22317499,0.0039897887,4968,0,-0.012578457,-0.48919025,-7.4158874,4968,0
67227472,-0.07126435,-0.109943405,-0.06755083,4966,0,-0.6371748,-0.11776749,-9.035717,4966,0
67232439,-0.07247989,-0.33163065,-0.079189256,4967,0,0.124319166,-0.22171135,-11.279786,4967,0
67237406,0.0007178872,-0.12257564,0.060856063,4967,0,0.43360963,0.32077965,-12.11749,4967,0
67242372,0.10533753,0.19999756,0.063697614,4966,0,0.7578411,-0.41769293,-10.052317,4966,0
67247339,0.06276787,0.3252115,0.068323754,4967,0,-0.16705136,-0.25135595,-7.827428,4967,0
67252308,-0.015299976,0.044474322,-0.07468972,4969,0,-0.43596497,-0.6796357,-7.9952846,4969,0
67257273,-0.10913551,-0.3181773,-0.10261454,4965,0,-0.03393918,-0.042324025,-10.244414,4965,0
67262240,-0.06985381,-0.2633177,0.0069858194,4967,0,0.10857361,0.22089095,-12.570294,4967,0
67267206,0.07746298,0.08529514,0.08988719,4966,0,1.0470283,-0.044479683,-10.919346,4966,0
67272173,0.10943632,0.3435799,0.08846346,4967,0,-0.24425317,-0.35972604,-8.894354,4967,0
67277142,0.061635848,0.21226351,-0.042095263,4969,0,-0.37877756,-0.7688927,-7.346436,4969,0
67282107,-0.093397096,-0.18218176,-0.12038056,4965,0,-0.45523793,-0.25951582,-9.251955,4965,0
67287116,-0.12110107,-0.39047942,-0.07596291,5009,0,0.5666638,0.04498158,-11.559049,5009,0
67292069,-0.009431671,-0.033960633,0.11545192,4953,0,0.5879988,0.48731366,-12.001889,4953,0
67297025,0.13534495,0.26968366,0.068662405,4956,0,0.30400753,-0.28561705,-9.872025,4956,0
67301993,0.119205244,0.31054467,0.025536545,4968,0,-0.6755778,-0.40161943,-7.6124654,4968,0
67306975,-0.0078355,-0.025616836,-0.115029484,4982,0,-0.6269692,-0.7939334,-8.56278,4982,0
67311912,-0.1502992,-0.38289276,-0.10856719,4937,0,0.7721115,0.058433123,-10.410432,4937,0
67316875,-0.10308499,-0.21272364,0.05444107,4963,0,0.49854255,0.3253126,-12.391594,4963,0
67321842,0.10944,0.16825645,0.11118179,4967,0,0.99926317,0.101973996,-10.357773,4967,0
67326809,0.14041945,0.3307966,0.06067503,4967,0,-0.64381737,-0.57463306,-8.496563,4967,0
67331775,0.07208964,0.11551488,-0.09608412,4966,0,-0.5735445,-0.8117397,-7.8943357,4966,0
67336742,-0.14755549,-0.26375604,-0.10186687,4967,0,-0.07208112,-0.046803504,-9.778275,4967,0
67341709,-0.15608694,-0.34766114,-0.020917227,4967,0,0.916814,0.18305342,-11.773551,4967,0
67346676,0.032449823,0.0640902,0.1575188,4967,0,0.5914316,0.5601397,-11.386485,4967,0
67351645,0.18320562,0.3100455,0.06807487,4969,0,-0.42193657,-0.85641277,-9.390659,4969,0
67356611,0.11806596,0.22493932,-0.05396787,4966,0,-0.6081478,-0.6267848,-7.7219267,4966,0
67361576,-0.099856324,-0.12548557,-0.12545085,4965,0,-0.41447905,-0.61660844,-9.027727,4965,0
67366545,-0.19823878,-0.372592,-0.060891513,4969,0,1.1921453,0.43666366,-10.739713,4969,0
67371534,-0.05146275,-0.08371604,0.13754237,4989,0,0.36734867,0.67316926,-12.02767,4989,0
67376514,0.21659108,0.23251124,0.093202055,4980,0,0.21466231,-0.636492,-10.035599,4980,0
67381505,0.1522104,0.28617606,0.011117496,4991,0,-0.967396,-0.9024784,-8.375283,4991,0
67386492,-0.044006787,-0.005731654,-0.16303979,4987,0,-0.26606315,-1.012867,-8.459782,4987,0
67391483,-0.22922045,-0.32206535,-0.09370836,4991,0,0.853351,0.8546004,-10.082539,4991,0
67396480,-0.10335162,-0.2058789,0.09771138,4997,0,0.6164901,0.81467223,-11.890682,4997,0
67401461,0.20013747,0.14606874,0.14583047,4981,0,0.41359374,-0.078699514,-10.6405525,4981,0
67406460,0.20021114,0.29338527,0.03624305,4999,0,-1.206984,-1.4063387,-9.116419,4999,0
67411248,0.0113224415,0.11404754,-0.15461491,4788,0,-0.18394206,-1.2635899,-7.874075,4788,0
67416212,-0.26043177,-0.23649243,-0.13643181,4964,0,0.63140416,0.64212567,-9.285481,4964,0
67421179,-0.17255567,-0.2857784,0.033848014,4967,0,1.0328976,1.1582568,-11.211851,4967,0
67426146,0.1297237,0.07495378,0.20185582,4967,0,0.055826813,0.71416754,-11.693391,4967,0
67431115,0.26559976,0.23818405,0.04993983,4969,0,-0.776617,-1.7344487,-9.971248,4969,0
67436099,0.07049924,0.18145056,-0.0952069,4984,0,-0.498638,-1.5619249,-8.096976,4984,0
67441046,-0.23021254,-0.1167425,-0.17564596,4947,0,0.5220138,-0.27813208,-8.818946,4947,0
67446013,-0.24008495,-0.29489136,-0.033831704,4967,0,1.3585893,1.5091926,-10.155741,4967,0
67450979,0.04793251,-0.02716495,0.19729029,4966,0,-0.2019297,1.20947,-11.773695,4966,0
67455946,0.31071818,0.17293534,0.09947463,4967,0,-0.43378705,-1.2947747,-10.323964,4967,0
67460913,0.14314087,0.20111278,-0.043632675,4967,0,-0.84303546,-1.9338725,-8.712381,4967,0
67465880,-0.15803649,-0.028288726,-0.19337434,4967,0,0.58198893,-0.98951906,-8.594964,4967,0
67470847,-0.29984012,-0.26303554,-0.07862293,4967,0,1.317385,1.6295042,-9.593185,4967,0
67475814,-0.018105233,-0.11284014,0.15328982,4967,0,-0.1993743,1.6420617,-11.698333,4967,0
67480782,0.3215286,0.12782826,0.16838138,4968,0,-0.45359588,-0.50812405,-10.749816,4968,0
67485747,0.22383995,0.19546957,-0.010257668,4965,0,-1.0087981,-2.3361564,-9.352475,4965,0
67490715,-0.08897371,0.03936696,-0.17987345,4968,0,0.6198645,-1.4791394,-8.135195,4968,0
67495681,-0.35127765,-0.18783356,-0.117074765,4966,0,1.1941043,1.0824046,-9.108935,4966,0
67500648,-0.126699,-0.1625619,0.080117695,4967,0,0.3521675,1.9607491,-11.098483,4967,0
67505615,0.24998689,0.08647432,0.19973981,4967,0,-0.64066106,0.37431377,-11.33287,4967,0
67510581,0.29994637,0.16887437,0.01397444,4966,0,-1.0203471,-2.1916604,-10.183678,4966,0
67515548,-0.022779042,0.099308886,-0.12686945,4967,0,0.35799652,-1.7010255,-8.294185,4967,0
67520515,-0.32470903,-0.103002645,-0.14122874,4967,0,1.1826643,0.14257246,-8.643061,4967,0
67525482,-0.19629805,-0.1805264,0.016051836,4967,0,0.84085554,1.9863788,-10.263738,4967,0
67530448,0.15890251,0.02672253,0.19269353,4966,0,-0.90596247,0.8553243,-11.589539,4966,0
67535415,0.33338454,0.11615664,0.058378514,4967,0,-0.8916818,-1.7938081,-10.624415,4967,0
67540382,0.049122144,0.11265593,-0.073741935,4967,0,0.09577107,-1.9594022,-8.978788,4967,0
67545354,-0.2567774,-0.047863595,-0.17425202,4972,0,1.2525018,-0.49111724,-8.401146,4972,0
67550325,-0.23987502,-0.1411954,-0.018629925,4971,0,0.8577129,2.006769,-9.572946,4971,0
67555321,0.08236623,-0.03568225,0.15980893,4996,0,-0.59799135,1.1911628,-11.247879,4996,0
67560313,0.33352065,0.046540305,0.09779441,4992,0,-0.8356693,-1.0393621,-10.748847,4992,0
67565217,0.12413679,0.1081981,-0.028156808,4904,0,-0.12905991,-2.1586354,-9.6294985,4904,0
67570185,-0.195299,-0.008292522,-0.16635741,4968,0,1.3435946,-0.95634764,-8.402574,4968,0
67575150,-0.27472645,-0.091945514,-0.04520934,4965,0,0.7277694,1.5582305,-9.341645,4965,0
67580155,0.012326685,-0.070005976,0.11098902,5005,0,-0.32556266,1.2231148,-10.975136,5005,0
67585087,0.27259633,0.0027225337,0.11643978,4932,0,-1.0074906,-0.42167497,-11.0288105,4932,0
67590051,0.17243932,0.1082325,0.0046522683,4964,0,-0.30987686,-2.2097561,-9.99116,4964,0
67595019,-0.13878423,0.040284045,-0.14805038,4968,0,1.3879846,-1.0918943,-8.297409,4968,0
67599984,-0.2763772,-0.043281738,-0.09175466,4965,0,0.6046578,1.0514243,-8.839989,4965,0
67604951,-0.05556737,-0.089410156,0.071034744,4967,0,-0.15318787,1.4240317,-10.472728,4967,0
67609918,0.20405415,-0.055583857,0.11751883,4967,0,-1.0938628,0.03380448,-11.498313,4967,0
67614885,0.2228894,0.0733117,0.0329641,4967,0,-0.4499683,-2.000631,-10.636652,4967,0
67619854,-0.05894916,0.092153616,-0.11191784,4969,0,1.3021196,-1.2217047,-8.661909,4969,0
67624819,-0.2356935,0.0113922665,-0.11725099,4965,0,0.7437233,0.35586336,-8.320257,4965,0
67629785,-0.10842268,-0.08571106,0.04564744,4966,0,-0.056825217,1.3738892,-9.766116,4966,0
67634753,0.122465625,-0.1131591,0.10203035,4968,0,-1.0241927,0.24141301,-11.5489,4968,0
67639733,0.22460452,0.016216217,0.05678517,4980,0,-0.4800027,-1.3336598,-10.973644,4980,0
67644724,0.018718747,0.12339126,-0.07043848,4991,0,1.1225855,-1.1690396,-9.21806,4991,0
67649714,-0.17287025,0.059699316,-0.10990173,4990,0,1.0204952,-0.046181127,-7.973214,4990,0
67654754,-0.14022538,-0.051492434,0.028518334,5040,0,-0.12320261,1.1673235,-9.206968,5040,0
67659740,0.050996587,-0.14855266,0.084462866,4986,0,-0.93470913,0.25380066,-11.412489,4986,0
67664711,0.17877585,-0.052061874,0.0754534,4971,0,-0.55616534,-0.8276874,-11.442584,4971,0
67669666,0.06912405,0.11018004,-0.04498605,4955,0,0.9556665,-1.2151347,-9.868134,4955,0
67674659,-0.10953038,0.119985275,-0.08960531,4993,0,1.2062315,-0.26347578,-7.8799567,4993,0
67679457,-0.1580343,0.023224326,-0.0069928044,4798,0,-0.18496631,0.7504604,-8.684171,4798,0
67684421,-0.011234227,-0.15015356,0.064527765,4964,0,-0.8772855,0.41372302,-10.863355,4964,0
67689389,0.116034575,-0.13606521,0.066104025,4968,0,-0.6665724,-0.38554567,-11.723516,4968,0
67694356,0.111312054,0.055230867,-0.029485352,4967,0,0.81791085,-1.0676728,-10.422767,4967,0
67699322,-0.04078793,0.16216578,-0.060565986,4966,0,1.256376,-0.33524162,-8.07285,4966,0
67704288,-0.1302418,0.08663917,-0.036121268,4966,0,0.0032095052,0.32932824,-8.384232,4966,0
67709267,-0.047261555,-0.13534342,0.043318048,4979,0,-0.87243366,0.531199,-10.289017,4979,0
67714222,0.07385838,-0.20341438,0.04727655,4955,0,-0.76683253,-0.37206313,-11.969808,4955,0
67719196,0.12447306,-0.020189572,-0.0048152967,4974,0,0.6430186,-0.8846444,-11.0030365,4974,0
67724156,0.0025038144,0.17675282,-0.04498031,4960,0,1.1922295,-0.48065886,-8.492301,4960,0
67729122,-0.08824379,0.17338705,-0.040288992,4966,0,0.20879334,-0.017561685,-7.8685484,4966,0
67734090,-0.071142174,-0.07502731,0.024993394,4968,0,-0.7604071,0.5389852,-9.446461,4968,0
67739062,0.020958833,-0.25298417,0.014564176,4972,0,-0.69328535,-0.22298688,-11.791308,4972,0
67744022,0.09272635,-0.10532804,0.023120169,4960,0,0.33767813,-0.42788553,-11.531459,4960,0
67748991,0.046588447,0.1679865,-0.020741949,4969,0,1.126685,-0.4979883,-9.32078,4969,0
67753956,-0.030599814,0.24612471,-0.036601104,4965,0,0.34865025,-0.12587047,-7.7562904,4965,0
67758927,-0.0707852,0.013740046,0.014204355,4971,0,-0.8091106,0.29918993,-8.8424,4971,0
67763890,-0.02110632,-0.2645268,-0.00265742,4963,0,-0.5582155,-0.20377761,-11.200203,4963,0
67768857,0.036982037,-0.18418387,0.039274715,4967,0,0.10796616,-0.21697427,-11.858074,4967,0
67773826,0.062052887,0.10824344,-0.018132983,4969,0,1.1351485,-0.5241474,-10.065884,4969,0
67778790,0.014047036,0.28248864,-0.007577682,4964,0,0.51964027,-0.16786128,-8.022206,4964,0
67783757,-0.045326922,0.12649082,-0.0019635106,4967,0,-0.7684951,0.051426765,-8.606793,4967,0
67788740,-0.04465313,-0.24207078,-0.027086468,4983,0,-0.357242,-0.08408247,-10.333507,4983,0
67793724,-0.0062285075,-0.2623482,0.045243427,4984,0,-0.13500308,0.08025784,-11.788519,4984,0
67798765,0.07496406,0.033988666,0.012588501,5041,0,1.3117689,-0.40719807,-10.411602,5041,0
67803639,0.05183397,0.2722983,0.0074412203,4874,0,0.40256923,-0.31208703,-8.564623,4874,0
67808591,0.0022275257,0.21598722,-0.022293111,4952,0,-0.8309089,-0.31610078,-8.529352,4952,0
67813560,-0.05072874,-0.15771113,-0.036768362,4969,0,-0.48784488,-0.08760307,-9.834738,4969,0
67818525,-0.06458641,-0.32887223,0.016980434,4965,0,-0.108877115,-0.07779774,-11.650693,4965,0
67823492,0.045553572,-0.037759047,0.04724232,4967,0,1.1574073,-0.20181061,-10.844819,4967,0
67828459,0.07394042,0.26083773,0.0030276345,4967,0,0.5975863,-0.30467567,-9.063916,4967,0
67833426,0.03174056,0.26392812,-0.03987055,4967,0,-0.46040916,-0.32449833,-8.154175,4967,0
67838393,-0.055408172,-0.07177324,-0.03238219,4967,0,-0.740542,-0.03517328,-9.42179,4967,0
67843359,-0.093531124,-0.35793126,-0.012076153,4966,0,0.2071877,-0.10329213,-11.222905,4966,0
67848326,0.013027843,-0.118340604,0.06962116,4967,0,0.8089837,0.18538105,-11.309523,4967,0
67853293,0.10527973,0.2199514,0.015517499,4967,0,0.7599609,-0.45983616,-9.523842,4967,0
67858260,0.051734168,0.27746403,-0.021319384,4967,0,-0.2961219,-0.5691253,-8.256329,4967,0
67863227,-0.047854204,0.026917806,-0.048931234,4967,0,-1.061991,-0.35870355,-9.277514,4967,0
67868200,-0.104537,-0.31484413,-0.039282,4973,0,0.36488575,-0.07201787,-10.643027,4973,0
67873160,-0.03507637,-0.20752276,0.07085158,4960,0,0.7434805,0.43324697,-11.23872,4960,0
67878127,0.12086867,0.15587313,0.04127671,4967,0,0.8749777,-0.289713,-9.867374,4967,0
67883094,0.076634265,0.27762973,0.0033273532,4967,0,-0.26754642,-0.60592514,-8.55525,4967,0
67888061,-0.012640556,0.0915793,-0.072857365,4967,0,-1.2160119,-0.56277746,-9.295363,4967,0
67893028,-0.09863849,-0.25885636,-0.043101672,4967,0,0.12286714,0.062210687,-10.319932,4967,0
67897995,-0.07694741,-0.25548628,0.070904955,4967,0,0.5479939,0.3494029,-11.387835,4967,0
67902962,0.1080568,0.095627196,0.055261172,4967,0,1.1291033,-0.16175416,-10.0198965,4967,0
67907943,0.08790321,0.26508617,0.01600475,4981,0,-0.15676937,-0.70882815,-8.519978,4981,0
67912930,0.0031557458,0.1283738,-0.089152105,4987,0,-0.85404307,-0.7883569,-8.876835,4987,0
67917913,-0.114788935,-0.18647948,-0.05383585,4983,0,-0.16333273,0.34516668,-10.103801,4983,0
67922904,-0.106334336,-0.27711815,0.04062392,4991,0,0.6187191,0.313526,-11.428122,4991,0
67927892,0.08303989,0.024055528,0.09005335,4988,0,1.1139653,0.40019336,-10.381237,4988,0
67932883,0.13577497,0.24207479,0.024580233,4991,0,-0.19418694,-0.9195695,-8.990988,4991,0
67937870,0.045623124,0.16267501,-0.07946616,4987,0,-0.70713514,-0.8866233,-8.710557,4987,0
67942865,-0.12244625,-0.12854254,-0.07206447,4995,0,-0.49274546,0.046158057,-9.9393215,4995,0
67947889,-0.12210755,-0.29012427,0.010898211,5024,0,0.6528204,0.23213454,-11.088853,5024,0
67952626,0.05457834,-0.011233431,0.120821044,4737,0,0.80515796,0.75795126,-10.618864,4737,0
67957597,0.15782744,0.2032766,0.015122703,4971,0,0.048028443,-1.0552899,-9.216892,4971,0
67962563,0.06347825,0.1832731,-0.06441454,4966,0,-0.68872696,-0.87651014,-8.573278,4966,0
67967530,-0.10654048,-0.06424667,-0.09259338,4967,0,-0.5586122,-0.30835482,-9.715871,4967,0
67972497,-0.14476839,-0.2757015,-0.02164306,4967,0,0.85534215,0.47171056,-10.760462,4967,0
67977474,-0.0033813189,-0.060440574,0.13213088,4977,0,0.5415603,0.9756899,-11.092394,4977,0
67982431,0.19468059,0.16637062,0.030326324,4957,0,0.3645744,-0.88304424,-9.485705,4957,0
67987399,0.10127821,0.20880452,-0.02987858,4968,0,-0.7007717,-0.9560742,-8.575917,4968,0
67992364,-0.079429455,-0.02049321,-0.12491147,4965,0,-0.43110737,-0.8126593,-9.384704,4965,0
67997331,-0.17964934,-0.24827635,-0.03357848,4967,0,0.6731274,0.6048694,-10.487584,4967,0
68002299,-0.05922275,-0.102339104,0.123257495,4968,0,0.37473634,0.93119514,-11.474659,4968,0
68007265,0.19648583,0.12995169,0.05237536,4966,0,0.56126606,-0.38873464,-9.682584,4966,0
68012232,0.14663036,0.2339176,-0.00034915103,4967,0,-0.9912244,-1.0989949,-8.675784,4967,0
68017201,-0.03902595,0.029609023,-0.13388234,4969,0,-0.037029523,-1.0653793,-8.716403,4969,0
68022168,-0.22322372,-0.2344772,-0.054494705,4967,0,0.68655235,0.6699866,-9.986747,4967,0
68027139,-0.102126576,-0.16517456,0.1091707,4971,0,0.40583876,0.9723462,-11.666109,4971,0
68032131,0.1915983,0.093397915,0.10020366,4992,0,0.47080988,0.15452869,-10.499395,4992,0
68037116,0.1998435,0.21629933,0.0026874028,4985,0,-1.1997092,-1.3744704,-9.330421,4985,0
68042033,0.01863632,0.09383216,-0.11741532,4917,0,-0.084696256,-1.3201768,-8.324026,4917,0
68047000,-0.2324738,-0.1715867,-0.0747328,4967,0,0.5919068,0.27326557,-9.404591,4967,0
68051967,-0.15804273,-0.22007513,0.057034988,4967,0,0.86332685,1.0188806,-11.081347,4967,0
68056934,0.14226188,0.04817322,0.13600135,4967,0,0.11691652,0.65042335,-11.065161,4967,0
68061901,0.24516147,0.19564207,0.007814711,4967,0,-0.9807416,-1.4698871,-9.807459,4967,0
68066867,0.050200485,0.13734671,-0.10720904,4966,0,-0.10110464,-1.3803836,-8.241928,4966,0
68071834,-0.22544123,-0.11046446,-0.10452018,4967,0,0.5313083,-0.2500061,-9.001805,4967,0
68076801,-0.20780857,-0.25188777,0.02360023,4967,0,1.3418623,1.1940234,-10.553377,4967,0
68081769,0.08327032,-0.00931913,0.14602208,4968,0,-0.27720383,1.1008205,-11.818631,4968,0
68086734,0.2879376,0.174591,0.022707436,4965,0,-0.84944344,-1.3109553,-10.264113,4965,0
68091746,0.10119524,0.17131566,-0.07567584,5012,0,-0.47204354,-1.5487379,-8.40242,5012,0
68096675,-0.18383925,-0.06096953,-0.1304791,4929,0,0.6974497,-0.7418151,-8.302027,4929,0
68101635,-0.25705075,-0.2361231,0.0045090653,4960,0,1.316604,1.2525438,-9.911713,4960,0
68106601,0.003877736,-0.07448212,0.13696927,4966,0,-0.060458753,1.157277,-12.002001,4966,0
68111568,0.2942683,0.11629013,0.041398585,4967,0,-0.6620765,-0.77861094,-10.693653,4967,0
68116535,0.15960667,0.19586135,-0.02633777,4967,0,-1.0467892,-1.5789065,-9.062164,4967,0
68121502,-0.13028525,0.0072728395,-0.1464242,4967,0,0.87254196,-1.2127059,-8.031615,4967,0
68126469,-0.2867553,-0.19793454,-0.01550403,4967,0,1.1786377,1.2217952,-9.247111,4967,0
68131437,-0.054661475,-0.12525104,0.12457991,4968,0,0.2396973,1.139815,-11.600863,4968,0
68136404,0.2622558,0.06832945,0.072965056,4967,0,-0.50265163,-0.12605299,-11.170948,4967,0
68141372,0.20325325,0.18016168,-0.0048836274,4968,0,-1.4231254,-1.7311455,-9.709406,4968,0
68146337,-0.06472462,0.082262896,-0.12605275,4965,0,0.77661645,-1.3459858,-7.88718,4965,0
68151306,-0.28859916,-0.1412894,-0.061206967,4969,0,1.0583078,0.8709629,-8.872894,4969,0
68156274,-0.119220056,-0.15971829,0.10101761,4968,0,0.53253865,1.1957662,-11.066067,4968,0
68161238,0.20852758,0.008192281,0.11354096,4964,0,-0.4440592,0.45113477,-11.613896,4964,0
68166209,0.253067,0.14668863,-0.012182335,4971,0,-1.4193808,-1.8074944,-10.315349,4971,0
68171174,-0.012859678,0.13636187,-0.10932051,4965,0,0.5609833,-1.4067098,-8.105768,4965,0
68176151,-0.2726467,-0.09361021,-0.101832606,4977,0,1.1588827,0.5283803,-8.483078,4977,0
68181135,-0.14853281,-0.18540256,0.08065212,4984,0,0.7954365,1.1986566,-10.394011,4984,0
68186123,0.14825289,-0.033010967,0.1370034,4988,0,-0.6454523,0.70173734,-11.9408245,4988,0
68191114,0.26611978,0.09629782,-0.029017434,4991,0,-1.0398625,-1.7565697,-10.518373,4991,0
68196103,0.031056803,0.15941346,-0.08033954,4989,0,0.041175395,-1.4079682,-8.352586,4989,0
68201100,-0.23983245,-0.010554029,-0.109249614,4997,0,1.0865206,0.018219551,-8.307306,4997,0
68206083,-0.19501749,-0.18430804,0.02982857,4983,0,1.1159902,1.2249308,-9.775952,4983,0
68211088,0.08985034,-0.08327013,0.13489416,5005,0,-0.69195074,0.9230582,-12.083116,5005,0
68216074,0.28008252,0.06363183,0.014071012,4986,0,-0.6739279,-1.5173441,-10.822281,4986,0
68220839,0.06401658,0.15615419,-0.07176141,4765,0,-0.23722032,-1.5151343,-8.770063,4765,0
68225806,-0.19349805,0.05097365,-0.11886482,4967,0,0.9425316,-0.3879106,-8.02694,4967,0
68230775,-0.21626882,-0.13998166,0.020837465,4969,0,0.9167648,1.1899463,-9.2389,4969,0
68235752,0.026854401,-0.1381339,0.11742967,4977,0,-0.5365675,0.94650227,-11.880527,4977,0
68240724,0.25892642,0.0115329195,0.04733141,4972,0,-0.52532464,-1.0756938,-11.097694,4972,0
68245673,0.10792028,0.15321961,-0.050192215,4949,0,-0.46186924,-1.4634368,-9.525398,4949,0
68250642,-0.14337935,0.10401795,-0.110204585,4969,0,1.149394,-0.49598387,-7.9284434,4969,0
68255607,-0.21267942,-0.095150605,-0.0010935045,4965,0,0.8534292,1.1568183,-8.79664,4965,0
68260574,-0.009835867,-0.18267955,0.10272982,4967,0,-0.24595463,0.9829086,-11.43624,4967,0
68265555,0.22634725,-0.035297282,0.09463556,4981,0,-0.74892634,-0.7855904,-11.486958,4981,0
68270530,0.1485403,0.1279673,-0.042284746,4975,0,-0.49631724,-1.5844129,-10.057762,4975,0
68275527,-0.0994985,0.1445909,-0.093054414,4997,0,0.90908855,-0.7870167,-7.9090796,4997,0
68280441,-0.23171133,-0.03979418,-0.03168079,4914,0,0.6766691,0.8469461,-8.596987,4914,0
68285408,-0.065533675,-0.2017687,0.07127932,4967,0,0.12189282,1.0738055,-10.905657,4967,0
68290374,0.17976564,-0.06539957,0.10863324,4966,0,-0.86198753,-0.36336985,-11.777985,4966,0
68295345,0.1817425,0.10099922,-0.048780315,4971,0,-0.2830238,-1.4371985,-10.336205,4971,0
68300309,-0.058949284,0.16957723,-0.070282206,4964,0,0.8211472,-0.93816274,-7.9187083,4964,0
68305276,-0.21657555,0.0036929564,-0.0547568,4967,0,0.71135277,0.46342045,-8.395931,4967,0
68310248,-0.102389224,-0.19624928,0.044516884,4972,0,0.17096578,1.1854846,-10.568559,4972,0
68315209,0.13551249,-0.10501076,0.09645192,4961,0,-1.0203995,-0.150783,-12.085221,4961,0
68320177,0.20294872,0.06490957,-0.021407947,4968,0,-0.37789324,-1.1913034,-10.760392,4968,0
68325143,-0.0016279579,0.1855491,-0.051173393,4966,0,0.6335296,-1.1427932,-8.146893,4966,0
68330110,-0.17528965,0.054623958,-0.07800154,4967,0,0.88806367,0.17965265,-7.910858,4967,0
68335076,-0.13788131,-0.1681602,0.026471097,4966,0,0.19703059,1.1578561,-9.843999,4966,0
68340044,0.075424835,-0.15059641,0.08006954,4968,0,-0.9954971,0.15358487,-12.05275,4968,0
68345010,0.2071742,0.019600729,0.012559579,4966,0,-0.33711323,-0.71336365,-11.17221,4966,0
68349978,0.058389727,0.18491523,-0.03492822,4968,0,0.39161456,-1.2665864,-8.848546,4968,0
68354943,-0.14658894,0.09978228,-0.073869914,4965,0,1.1097893,-0.019893622,-7.8905406,4965,0
68359916,-0.15664904,-0.14235342,0.0073702787,4973,0,0.29049635,0.94131243,-9.416504,4973,0
68364877,0.043567773,-0.17259449,0.06569481,4961,0,-0.84391934,0.32767406,-11.808602,4961,0
68369844,0.18846107,-0.014048053,0.046234965,4967,0,-0.5300843,-0.48475677,-11.39404,4967,0
68374811,0.09813311,0.18232909,-0.026736982,4967,0,0.15936553,-1.3321697,-9.092835,4967,0
68379779,-0.10426496,0.14506683,-0.070823915,4968,0,1.068998,-0.33125055,-7.654118,4968,0
68384781,-0.16623,-0.10382578,-0.01134933,5002,0,0.2606747,0.6307086,-8.967647,5002,0
68389713,-0.0047928263,-0.19346285,0.043321617,4932,0,-0.69668204,0.3959618,-11.698325,4932,0
68394678,0.14140546,-0.045990516,0.056873903,4965,0,-0.56023604,-0.1490224,-11.891079,4965,0
68399645,0.13721721,0.16913454,-0.028230682,4967,0,0.17952557,-1.2219418,-9.598614,4967,0
68404612,-0.044671867,0.19808733,-0.040021688,4967,0,0.9749061,-0.3317114,-7.7367115,4967,0
68409579,-0.16226809,-0.06632804,-0.037364118,4967,0,0.3550601,0.29999292,-8.620929,4967,0
68414548,-0.041464087,-0.20614079,0.017995961,4969,0,-0.62150395,0.3946382,-11.23719,4969,0
68419512,0.11461274,-0.06326151,0.076287195,4964,0,-0.62632334,0.044445433,-11.992499,4964,0
68424479,0.15717733,0.124730706,-0.0347754,4967,0,0.29029053,-1.0678213,-9.854028,4967,0
68429446,-0.009000829,0.22805674,-0.020360997,4967,0,0.7778789,-0.34370184,-7.785433,4967,0
68434412,-0.14719981,-0.0045704194,-0.04533363,4966,0,0.44412407,-0.012058798,-8.511732,4966,0
68439380,-0.06851099,-0.21010305,0.0005653798,4968,0,-0.42811024,0.36369294,-10.896996,4968,0
68444351,0.07801232,-0.117648736,0.07596463,4971,0,-0.58953995,0.23836382,-12.210724,4971,0
68449339,0.16903809,0.09585056,-0.020391006,4988,0,0.46797878,-0.98191386,-10.089879,4988,0
68454319,0.016625607,0.26030186,-0.014889461,4980,0,0.6238851,-0.44582096,-7.938684,4980,0
68459311,-0.14132193,0.050229702,-0.046752516,4992,0,0.3494737,-0.22616135,-8.358965,4992,0
68464311,-0.08904592,-0.21963698,-0.01060319,5000,0,-0.2677507,0.25131622,-10.531816,5000,0
68469289,0.05237564,-0.15945192,0.0754336,4978,0,-0.5741684,0.47563368,-12.2141,4978,0
68474288,0.16444479,0.059950467,-0.015219271,4999,0,0.7186978,-0.8930491,-10.101997,4999,0
68479283,0.040758487,0.26133475,-0.010482805,4995,0,0.4444447,-0.45251495,-8.1080885,4995,0
68484279,-0.114946045,0.089229345,-0.048726507,4996,0,0.09035603,-0.3323978,-8.634593,4996,0
68489051,-0.09902462,-0.21570449,-0.01043064,4772,0,-0.18604165,0.09147433,-10.517062,4772,0
68494030,0.039167542,-0.21680294,0.07732154,4979,0,-0.26572478,0.64343965,-11.936987,4979,0
68499025,0.16277494,0.052497257,0.0014732814,4995,0,0.6146398,-0.86011714,-10.095629,4995,0
68503952,0.05300698,0.27108365,-0.034747757,4927,0,0.43753937,-0.76177627,-8.106347,4927,0
68508916,-0.12137749,0.119780995,-0.06154392,4964,0,-0.23713174,-0.2400046,-8.885077,4964,0
68513883,-0.105868004,-0.20857812,0.011445633,4967,0,-0.1766963,0.053084742,-10.367459,4967,0
68518849,0.023583777,-0.25760403,0.081395306,4966,0,0.15016246,0.70309234,-11.543527,4966,0
68523816,0.1688526,0.06277923,-0.0054104016,4967,0,0.6541612,-0.7182973,-10.128046,4967,0
68528835,0.05273357,0.27520126,-0.044683702,5019,0,0.3223357,-1.0329924,-8.195118,5019,0
68533766,-0.13840409,0.12451788,-0.05711789,4931,0,-0.6762074,-0.057437956,-9.3309,4931,0
68538716,-0.11111748,-0.21446922,0.023900794,4950,0,-0.3542389,0.15581568,-10.675991,4950,0
68543687,0.043772865,-0.2669278,0.080731556,4971,0,0.63679504,0.6148358,-11.063797,4971,0
68548650,0.18599048,0.099353135,-0.004655841,4963,0,0.48787487,-0.6128224,-9.958414,4963,0
68553617,0.03473825,0.2860369,-0.05487535,4967,0,0.46487823,-1.4209663,-8.146799,4967,0
68558586,-0.19550833,0.07325803,-0.055694137,4969,0,-0.64971346,0.14457566,-9.435516,4969,0
68563551,-0.11797782,-0.25532994,0.047231615,4965,0,-0.4969042,0.62068933,-11.035467,4965,0
68568518,0.0997528,-0.25004062,0.08041416,4967,0,1.1300138,0.5665596,-10.643672,4967,0
68573484,0.22120416,0.14226048,-0.029101843,4966,0,0.47125536,-0.75864065,-9.7959385,4966,0
68578451,-0.009480585,0.30737376,-0.044083726,4967,0,-0.0576006,-1.7114335,-8.556466,4967,0
68583418,-0.23649837,0.009607119,-0.025238847,4967,0,-0.5201168,0.030159552,-9.399237,4967,0
68588385,-0.1313464,-0.31879902,0.056070853,4967,0,-0.26832825,1.1073622,-11.198264,4967,0
68593353,0.20380451,-0.19224551,0.03685415,4968,0,1.0230212,0.3740098,-10.346264,4968,0
68598319,0.25158513,0.24659814,-0.04458043,4966,0,0.44094017,-1.2656112,-9.295276,4966,0
68603287,-0.15532407,0.25423384,-0.06200071,4968,0,-0.48647347,-1.4358379,-9.489358,4968,0
68608252,-0.27439097,-0.10322135,0.025033465,4965,0,-0.5120449,0.31074375,-9.666582,4965,0
68613219,-0.009489342,-0.32632458,0.08736711,4967,0,0.6445664,1.2500966,-10.246627,4967,0
68618186,0.2959861,-0.057549406,-0.0571473,4967,0,0.4755409,0.14808853,-10.426781,4967,0
68623153,0.11879784,0.30567226,-0.08951842,4967,0,0.08371738,-1.8420358,-9.379785,4967,0
68628120,-0.29354167,0.10055327,0.014620724,4967,0,-0.39418462,-0.9697014,-9.588998,4967,0
68633086,-0.21369195,-0.21951042,0.12500697,4966,0,-0.3806056,0.99392337,-10.411261,4966,0
68638053,0.20827158,-0.2348265,-0.05342401,4967,0,0.91632944,1.1740215,-9.87138,4967,0
68643020,0.27585602,0.16894594,-0.15523517,4967,0,-0.11240894,-0.89330757,-9.839259,4967,0
68647988,-0.13376673,0.2505434,0.039752234,4968,0,-0.40300435,-1.602302,-10.148837,4968,0
68652954,-0.3076225,-0.115949914,0.16809002,4966,0,0.48571223,-0.25311807,-9.998486,4966,0
68657921,0.07224354,-0.3138631,-0.0576025,4967,0,1.0547011,0.7545391,-9.099981,4967,0
68662889,0.30247656,0.113291435,-0.22501351,4968,0,-1.1211845,0.0077541196,-9.751017,4968,0
68667854,-0.09822436,0.27327248,-0.010356995,4965,0,-0.42935875,-0.6889149,-10.236315,4965,0
68672824,-0.34226394,-0.1516356,0.20081674,4970,0,1.3805019,-0.015712881,-9.758189,4970,0
68677809,0.12084373,-0.3096042,0.0073733334,4985,0,0.5637822,0.38629106,-9.499,4985,0
68682754,0.3664098,0.2195059,-0.22318892,4945,0,-1.5484948,-0.5577182,-10.427789,4945,0
68687721,-0.19860198,0.22576144,-0.055870805,4967,0,-0.0032028342,-0.7776588,-10.77751,4967,0
68692690,-0.35128802,-0.31994373,0.16439137,4969,0,2.390416,0.96563035,-8.904604,4969,0
68697676,0.3235622,-0.16907096,0.08982728,4986,0,-1.333884,0.38751,-9.235806,4986,0
68702671,0.34411663,0.40507904,-0.1530016,4995,0,-1.774432,-1.8140357,-10.552467,4995,0
68707653,-0.52293354,0.010406272,-0.15169679,4982,0,1.7771907,-0.9672007,-10.586798,4982,0
68712621,-0.24661686,-0.48803148,0.08289235,4968,0,2.3280547,1.2549721,-8.521268,4968,0
68717609,0.59050274,0.157035,0.168651,4988,0,-2.9524648,0.28620762,-10.032389,4988,0
68722600,0.09376378,0.3763159,-0.14173065,4991,0,-0.17291665,-1.3714572,-11.053536,4991,0
68727570,-0.5877418,-0.36469954,-0.19965406,4970,0,3.175984,0.7951411,-9.1324005,4970,0
68732564,0.07069767,-0.33046237,0.15688719,4994,0,-1.6546308,0.79516137,-9.249832,4994,0
68737550,0.58106923,0.6114051,0.19980434,4986,0,-3.5293596,-1.8094919,-11.106418,4986,0
68742548,-0.2517979,0.087268054,-0.28090796,4998,0,3.557921,-1.0517349,-9.873904,4998,0
68747536,-0.4170753,-0.615481,-0.30368087,4988,0,2.684626,0.80568516,-9.043866,4988,0
68752529,0.32975847,0.23359919,0.29997572,4993,0,-5.778622,1.3287212,-10.819572,4993,0
68757272,0.23023431,0.36429444,0.13426122,4743,0,1.6179938,-0.37490448,-9.35903,4743,0
68762224,-0.12174863,-0.43983045,-0.3573691,4952,0,4.051889,-0.55800694,-8.64138,4952,0
68767195,0.10893178,-0.040881284,0.009917897,4971,0,-4.97918,-0.28823185,-10.942967,4971,0
68772158,0.02081281,0.44734052,0.26630327,4963,0,-0.6691521,-0.6717981,-10.6338005,4963,0
68777124,-0.18592668,-0.2912395,-0.24489702,4966,0,4.6313124,0.1368854,-8.713192,4966,0
68782093,0.1962934,-0.18685956,-0.11621971,4969,0,-2.6294103,-0.2772283,-10.265639,4969,0
68787058,0.10295424,0.4825318,0.18088782,4965,0,-2.114178,-0.5507376,-10.463163,4965,0
68792025,-0.442818,-0.097881116,-0.11909348,4967,0,4.5330176,0.7384943,-8.349788,4967,0
68796992,0.09383657,-0.29284942,-0.030980382,4967,0,-0.9430843,-0.11598604,-9.289517,4967,0
68801959,0.44494987,0.37316108,0.1868766,4967,0,-3.0074859,-0.34016487,-10.858169,4967,0
68806925,-0.33134776,-0.01701205,-0.16395555,4966,0,4.1946816,0.3231023,-9.708392,4966,0
68811892,-0.16139391,-0.25345126,-0.03182544,4967,0,-0.14965267,-0.2995731,-10.092842,4967,0
68816859,0.46634445,0.27277955,0.32522684,4967,0,-3.6216173,-0.47312737,-10.154174,4967,0
68821826,-0.12096328,-0.033704814,-0.039832376,4967,0,2.998325,0.49309775,-10.108583,4967,0
68826793,-0.17158543,-0.25098035,-0.18530346,4967,0,0.7813028,-0.98112047,-9.813589,4967,0
68831759,0.3539535,0.34123853,0.18383452,4966,0,-3.6266627,-0.804246,-10.045581,4966,0
68836728,-0.16663489,0.0077185724,-0.048566386,4969,0,2.8921235,0.6730475,-10.011847,4969,0
68841693,-0.17662857,-0.40941915,-0.16244182,4965,0,2.3255491,-0.8925851,-9.3634,4965,0
68846660,0.31124595,0.19866967,0.15534168,4967,0,-3.5951624,-1.0011083,-10.619011,4967,0
68851627,-0.20356324,0.2223164,-0.05894286,4967,0,1.5019788,0.99152327,-10.211418,4967,0
68856594,-0.17982055,-0.35696644,-0.18561658,4967,0,3.0126493,-0.74011225,-8.462631,4967,0
68861570,0.34673053,-0.03598352,0.1219223,4976,0,-2.4236617,-0.63678944,-10.200044,4976,0
68866557,-0.20373245,0.26571628,0.039851364,4987,0,-0.12374774,1.0365648,-10.736512,4987,0
68871547,-0.14458829,-0.22419867,-0.14439577,4990,0,2.851734,-1.2002453,-8.12725,4990,0
68876461,0.36338294,-0.113490224,0.035141677,4914,0,-1.4183202,-0.91269886,-9.874095,4914,0
68881430,-0.28426293,0.25703615,0.08680391,4969,0,-1.7192351,0.981678,-11.465142,4969,0
68886395,-0.1790271,-0.13756263,-0.046929095,4965,0,2.5272038,-0.9313669,-8.318762,4965,0
68891366,0.41487333,-0.16588302,-0.0139341615,4971,0,-0.18681799,-1.1596504,-9.866076,4971,0
68896350,-0.29432416,0.26014772,0.10859146,4984,0,-2.4882078,0.8467123,-11.629637,4984,0
68901296,-0.23045938,-0.09906414,-0.007858217,4946,0,2.301531,-0.9781404,-8.118421,4946,0
68906262,0.40212047,-0.1924404,-0.05175436,4966,0,0.664029,-0.724856,-9.563534,4966,0
68911229,-0.2812937,0.24640308,0.10603272,4967,0,-2.80925,0.9640452,-11.575851,4967,0
68916202,-0.23833753,-0.06828316,0.042685837,4973,0,2.0383523,-0.7541889,-8.411352,4973,0
68921163,0.41112912,-0.22371204,-0.035576705,4961,0,0.85964423,-0.075720735,-9.848428,4961,0
68926131,-0.17842573,0.21938951,0.05894207,4968,0,-2.8327188,0.7134272,-11.436073,4968,0
68931101,-0.27518794,-0.017222026,0.04139417,4970,0,2.1523287,-1.0916772,-8.364127,4970,0
68936070,0.3611185,-0.20731458,-0.03702439,4969,0,1.2316735,0.2873263,-9.524932,4969,0
68941033,-0.03692781,0.1330611,-0.010899226,4963,0,-3.0111885,0.5843335,-11.029226,4963,0
68945997,-0.26782814,-0.024995584,0.035172623,4964,0,2.0084827,-1.4470899,-8.862394,4964,0
68950966,0.16362993,-0.18603787,0.010286848,4969,0,1.2099572,0.7176516,-9.946091,4969,0
68955930,0.03869791,0.097105004,-0.048534427,4964,0,-3.142909,0.5523963,-11.114425,4964,0
68960897,-0.057878137,0.029426705,-0.0041715843,4967,0,1.8357073,-1.5497622,-9.204015,4967,0
68965865,0.041827627,-0.16376746,-0.011333719,4968,0,1.2427876,0.36769578,-9.976524,4968,0
68970834,-0.07387334,0.060219295,-0.054797888,4969,0,-2.7687676,0.45860356,-10.430146,4969,0
68975798,0.06952215,0.053486567,0.0062957346,4964,0,1.4702867,-1.1105479,-8.962067,4964,0
68980768,0.015185367,-0.11686929,-0.025957739,4970,0,0.80059975,0.3847342,-10.178952,4970,0
68985747,-0.16811198,0.02305654,-0.077612266,4979,0,-2.1685636,0.45277655,-10.297883,4979,0
68990733,0.13234821,0.08632613,-0.0077156993,4986,0,0.77442056,-0.5936359,-9.139416,4986,0
68995725,0.047168918,-0.06404643,0.00043645443,4992,0,0.39228922,0.40220663,-10.316048,4992,0
69000714,-0.1642628,0.0013818599,-0.062187742,4989,0,-1.401934,0.29799515,-10.2039585,4989,0
69005705,0.13653894,0.08977806,-0.008096515,4991,0,0.47571677,-0.3059577,-9.348035,4991,0
69010701,0.07784714,-0.081171185,0.023126977,4996,0,0.7730783,0.28866357,-9.733003,4996,0
69015691,-0.10397602,0.009363102,-0.020817367,4990,0,-1.2784971,-0.13027759,-9.953248,4990,0
69020679,0.0884095,0.14465673,0.028457385,4988,0,0.22942115,-0.4702644,-9.693249,4988,0
69025466,0.03820343,-0.15679918,-0.009250737,4787,0,1.5979171,-0.094733156,-9.609087,4787,0
69030435,-0.05471074,-0.001311756,-0.013354396,4969,0,-1.8893964,-0.15741026,-10.37382,4969,0
69035400,0.02406564,0.22262347,0.08932344,4965,0,0.048182577,-0.16881022,-10.142214,4965,0
69040397,0.037430163,-0.1807415,-0.04825356,4997,0,2.7515607,-0.12083133,-9.171899,4997,0
69045334,0.048653975,0.042419396,0.004988996,4937,0,-2.3957133,-0.006481294,-10.124326,4937,0
69050301,-0.02061952,0.26479012,0.13827415,4967,0,0.1215387,0.054628856,-9.91433,4967,0
69055267,0.025740128,-0.26409772,-0.078373246,4966,0,3.3627045,-0.26641002,-8.72777,4966,0
69060234,0.15055057,0.054770514,-0.0037883199,4967,0,-3.395634,0.108568,-10.73624,4967,0
69065201,-0.034536626,0.32203248,0.15970497,4967,0,-0.27630544,-0.21332549,-10.413419,4967,0
69070170,-0.0024416072,-0.31231523,-0.093323246,4969,0,3.8100939,-0.6577429,-8.930409,4969,0
69075134,0.19947517,0.038930707,-0.03764182,4964,0,-3.9966094,0.04279681,-11.226674,4964,0
69080101,-0.051753227,0.3750053,0.16056749,4967,0,-0.64198333,-0.07422581,-10.301493,4967,0
69085064,-0.05418077,-0.3332563,-0.10734407,4963,0,4.576076,-0.7122739,-8.25932,4963,0
69090047,0.20147473,0.0335694,-0.073631,4983,0,-4.1467423,0.17853321,-11.223382,4983,0
69095042,-0.03914329,0.39796233,0.14144944,4995,0,-0.13662185,-0.02125706,-9.86458,4995,0
69099972,-0.037662,-0.37430725,-0.1314815,4930,0,4.992692,-0.74074405,-8.00667,4930,0
69104937,0.18451239,0.060022105,-0.08758823,4965,0,-4.880231,0.38541025,-11.903013,4965,0
69109903,-0.07417107,0.40562937,0.12432338,4966,0,-0.2698574,0.341122,-9.841847,4966,0
69114869,0.022267232,-0.37089702,-0.12722239,4966,0,5.0340204,-0.56808317,-7.9022837,4966,0
69119836,0.2425848,0.13002004,-0.06718094,4967,0,-5.180414,0.07857477,-12.285269,4967,0
69124805,-0.09522222,0.3945184,0.12105033,4969,0,0.45090634,-0.13252838,-9.541079,4969,0
69129770,0.0033323208,-0.42423877,-0.14700033,4965,0,5.3115587,-0.5943046,-7.5558977,4965,0
69134737,0.2128233,0.18534781,-0.02797652,4967,0,-5.6513844,0.44645348,-12.298812,4967,0
69139703,-0.09960927,0.36514544,0.12765917,4966,0,1.30558,0.14799002,-8.926587,4966,0
69144671,0.062408052,-0.45477927,-0.14194208,4968,0,4.7671413,-0.48966396,-7.7314515,4968,0
69149637,0.23109566,0.259511,0.017654527,4966,0,-6.550418,0.0695247,-12.960713,4966,0
69154604,-0.09893802,0.30314362,0.10389479,4967,0,1.9168851,-0.36489412,-9.044209,4967,0
69159572,0.052316137,-0.43557602,-0.13056117,4968,0,4.4945,-0.86831844,-8.253996,4968,0
69164538,0.1802374,0.39271465,0.071858734,4966,0,-6.860954,-0.05816257,-13.060191,4966,0
69169505,-0.09605856,0.23201182,0.06599564,4967,0,3.089064,-0.37353632,-8.099252,4967,0
69174471,0.034952167,-0.46799517,-0.16405275,4966,0,4.1397095,-0.62244207,-8.11343,4966,0
69179439,0.12211506,0.47865131,0.11256216,4968,0,-7.096692,0.50921565,-13.23785,4968,0
69184409,-0.044166476,0.12781174,0.047971074,4970,0,4.7409678,-0.08636418,-7.8482556,4970,0
69189393,0.116378725,-0.45748624,-0.1804994,4984,0,2.9810486,-0.6414233,-9.232826,4984,0
69194342,0.1349671,0.5127896,0.16403328,4949,0,-7.050127,0.414984,-13.215142,4949,0
69199309,-0.015059294,-0.010722921,-0.011646015,4967,0,5.087396,-0.25930816,-7.9608197,4967,0
69204273,0.11794454,-0.3540296,-0.1793386,4964,0,1.571188,-0.55087626,-9.342174,4964,0
69209239,0.18022363,0.5557875,0.20113468,4966,0,-6.2360888,0.09200558,-11.711528,4966,0
69214206,-0.021031199,-0.12588534,-0.09885462,4967,0,5.7125535,-0.8677258,-7.8178415,4967,0
69219173,0.021236215,-0.2785627,-0.23913294,4967,0,-0.1636602,-0.26911753,-10.053867,4967,0
69224140,0.15863384,0.5373592,0.23665246,4967,0,-4.589837,0.16703327,-11.380646,4967,0
69229107,0.024713289,-0.20626415,-0.14774652,4967,0,6.191805,-1.2647283,-8.584137,4967,0
69234074,0.021889862,-0.14580356,-0.23002441,4967,0,-1.8875806,-0.28589356,-10.550154,4967,0
69239043,0.08446999,0.46628666,0.27256367,4969,0,-2.6081088,-0.12039393,-10.149004,4969,0
69244010,-0.03304939,-0.29756165,-0.198128,4967,0,5.7889996,-0.97389346,-8.423375,4967,0
69248970,0.04442653,0.009071625,-0.19356698,4960,0,-4.0912,-0.22346091,-10.662331,4960,0
69253958,0.06929613,0.38540518,0.26716486,4988,0,-0.26433715,-0.33259323,-9.193526,4988,0
69258949,-0.12635288,-0.36188367,-0.21065041,4991,0,5.0639305,-0.40551546,-9.211578,4991,0
69263933,0.06441909,0.1044351,-0.10099386,4984,0,-4.115308,-0.06951403,-11.213939,4984,0
69268927,0.15550005,0.2860137,0.22696935,4994,0,1.2436359,-0.23595524,-9.173167,4994,0
69273916,-0.1756547,-0.35292783,-0.1868243,4989,0,3.7527616,-0.13877653,-10.013497,4989,0
69278906,0.13061029,0.14842196,0.027956964,4990,0,-3.7579694,-0.27532038,-10.538289,4990,0
69283895,0.22993647,0.18802,0.18367274,4989,0,1.4558574,-0.61182344,-8.924721,4989,0
69288889,-0.2523291,-0.29008862,-0.20328505,4994,0,1.7401321,-0.53692055,-10.246057,4994,0
69293678,0.1465102,0.15790358,0.074133836,4789,0,-2.4334164,-0.93706715,-9.532322,4789,0
69298643,0.19136988,0.11108378,0.14789832,4965,0,1.6305311,-0.32841253,-9.505861,4965,0
69303609,-0.35030517,-0.21541686,-0.18789847,4966,0,0.7338719,-0.46043885,-10.86063,4966,0
69308576,0.1334936,0.07297007,0.05395717,4967,0,-0.85471195,-0.8680236,-9.107571,4967,0
69313544,0.19396581,0.124593936,0.08942854,4968,0,0.7783985,0.26851377,-9.8800335,4968,0
69318510,-0.37832677,-0.0922513,-0.1254589,4966,0,0.6654196,-0.59825516,-10.566283,4966,0
69323476,0.096574426,-0.08702723,-0.00096975977,4966,0,0.1390996,-0.30702975,-8.041572,4966,0
69328443,0.21602406,0.1674186,0.07332438,4967,0,-0.8276347,0.5348777,-10.458059,4967,0
69333459,-0.31103805,-0.046806622,-0.06742091,5016,0,1.4275542,-1.0301899,-10.877649,5016,0
69338397,0.09456006,-0.22447741,-0.057220593,4938,0,1.1783788,-0.39748952,-8.509919,4938,0
69343344,0.14081873,0.26732635,0.14015357,4947,0,-3.1281948,0.49593145,-11.347443,4947,0
69348311,-0.22713053,0.017162336,0.02940004,4967,0,2.6537125,-0.980278,-9.780782,4967,0
69353278,0.11498739,-0.3522593,-0.1494912,4967,0,1.8128821,-0.40393275,-8.2484455,4967,0
69358247,0.09366264,0.38859418,0.17424771,4969,0,-4.9192133,0.41463658,-11.464672,4969,0
69363211,-0.21242362,-0.04118566,0.04200908,4964,0,4.1876106,-1.2761717,-8.630618,4964,0
69368178,0.031374346,-0.45504242,-0.18302794,4967,0,1.6518642,-0.07945768,-8.657807,4967,0
69373146,0.1316648,0.4917144,0.23118569,4968,0,-5.610751,0.31180346,-11.962839,4968,0
69378112,-0.18831354,-0.03959722,0.03667811,4966,0,4.952318,-1.1341987,-9.399087,4966,0
69383078,-0.073143154,-0.4825879,-0.2411123,4966,0,1.216055,0.6808494,-9.669524,4966,0
69388052,0.20736839,0.4332969,0.24798436,4974,0,-5.5289664,0.23480351,-11.619831,4974,0
69393012,-0.024239719,-0.038734123,0.027519537,4960,0,5.3445287,-1.1272752,-8.571903,4960,0
69397979,-0.109579675,-0.36765853,-0.28518283,4967,0,0.012154365,0.4458696,-9.4832115,4967,0
69402946,0.1390605,0.39136678,0.2783047,4967,0,-4.599722,-0.6671668,-10.429089,4967,0
69407913,-0.0010123638,-0.14007361,-0.021107284,4967,0,4.9290676,-0.66872406,-8.7560215,4967,0
69412880,-0.08226539,-0.29075277,-0.27596518,4967,0,-0.94862175,0.42081976,-10.442472,4967,0
69417847,0.12618126,0.36036283,0.27467248,4967,0,-2.9367342,-0.53602606,-10.539641,4967,0
69422813,-0.09558963,-0.13915399,-0.08716935,4966,0,4.0825114,-0.2644435,-9.656795,4966,0
69427781,-0.04726462,-0.18356061,-0.17344043,4968,0,-1.301777,0.29125762,-9.640446,4968,0
69432749,0.26960745,0.23703417,0.26602766,4968,0,-1.0503095,-0.4430704,-9.567277,4968,0
69437718,-0.25888687,-0.14314763,-0.13073727,4969,0,2.0457208,-0.25373778,-10.499449,4969,0
69442682,-0.1552982,-0.13240333,-0.10815163,4964,0,-0.46643093,-0.28243616,-8.829986,4964,0
69447648,0.34955096,0.08538231,0.17259534,4966,0,0.1667355,-0.1784323,-9.32275,4966,0
69452617,-0.20768747,-0.006108279,-0.06360245,4969,0,-0.1379339,-0.37787086,-11.754762,4969,0
69457600,-0.23585649,-0.1396265,-0.02966136,4983,0,1.7615807,-0.9537985,-8.86007,4983,0
69462581,0.2712755,-0.0043047457,0.066898875,4981,0,-0.1164064,0.62321806,-9.60461,4981,0
69467573,-0.13186081,0.15905257,0.040130265,4992,0,-1.3081741,-0.22268948,-11.438815,4992,0
69472482,-0.07934026,-0.23646055,-0.010614557,4909,0,3.0319147,-0.69900763,-7.957595,4909,0
69477448,0.21180159,0.017930869,0.011886046,4966,0,-2.2194932,0.5702295,-10.746083,4966,0
69482446,-0.12793846,0.25250897,0.13828404,4998,0,-1.2907296,-0.7425576,-10.447514,4998,0
69487378,0.05399059,-0.3938192,-0.078488216,4932,0,3.6944907,-1.410694,-7.781149,4932,0
69492351,0.1594764,0.12508693,-0.004849214,4973,0,-4.4962645,0.1731989,-11.872853,4973,0
69497316,-0.24457738,0.28844702,0.16542196,4965,0,0.3928263,-1.3592514,-9.654232,4965,0
69502283,-0.0069569834,-0.4576443,-0.16491956,4967,0,4.5777016,-1.5911362,-8.105251,4967,0
69507247,0.0875062,0.21076067,0.0044280128,4964,0,-5.015704,0.74922836,-12.358397,4964,0
69512264,-0.23312213,0.15870796,0.16017535,5017,0,2.8180099,-0.35161844,-8.726777,5017,0
69517179,-0.052040763,-0.41135362,-0.19794707,4915,0,3.5635517,-0.9202895,-8.91518,4915,0
69522165,0.036064204,0.32021382,0.050230477,4986,0,-5.178646,0.7346764,-11.974846,4986,0
69527146,-0.07119019,-0.039639648,0.095496304,4981,0,4.0610423,0.061876103,-8.055075,4981,0
69532148,-0.030871222,-0.33973768,-0.17960604,5002,0,1.0668232,-0.40517238,-10.397882,5002,0
69537126,-0.045407087,0.3641011,0.14207578,4978,0,-4.565507,0.20378068,-11.494981,4978,0
69542120,0.038365226,-0.20576198,-0.016650155,4994,0,4.9924784,-0.38635033,-7.72479,4994,0
69547107,0.016188044,-0.1570814,-0.13071835,4987,0,-1.1881039,-0.11705548,-10.891206,4987,0
69552102,-0.106933504,0.2946313,0.22630166,4995,0,-2.454454,-0.014681249,-9.699813,4995,0
69557099,0.02674715,-0.33683762,-0.1393801,4997,0,4.8266478,-0.94580525,-7.8957,4997,0
69561890,-0.031666745,0.043007754,-0.08680598,4791,0,-3.4786654,0.17890985,-12.122164,4791,0
69566852,-0.056380015,0.13677038,0.19816533,4962,0,0.8137524,0.51753134,-8.917982,4962,0
69571819,0.06318186,-0.3682754,-0.16520594,4967,0,2.435706,-0.71294296,-9.694382,4967,0
69576785,-0.07502383,0.2363559,0.07757883,4966,0,-4.8574176,0.11998759,-12.340331,4966,0
69581752,-0.010137191,-0.043958694,0.07629309,4967,0,3.2062423,-0.15320016,-8.052363,4967,0
69586719,0.063159466,-0.22469266,-0.17382815,4967,0,0.3738805,-0.7434551,-10.136454,4967,0
69591686,-0.06628735,0.3092417,0.1899334,4967,0,-3.330054,0.05386061,-10.115474,4967,0
69596652,-0.032331843,-0.23181123,-0.046019427,4966,0,4.3371916,-1.0033985,-7.7875566,4966,0
69601619,-0.07024218,-0.06002197,-0.124540664,4967,0,-1.9164977,0.012876185,-11.319153,4967,0
69606593,-0.055170167,0.17179857,0.1824901,4974,0,-0.3734176,0.74295676,-9.304216,4974,0
69611553,0.08768295,-0.2810741,-0.11307251,4960,0,3.0058808,-0.70129883,-9.641927,4960,0
69616521,-0.05030859,0.1974354,0.027182652,4968,0,-3.7721293,0.03724808,-12.2255125,4968,0
69621487,-0.02104705,-0.022732452,0.1125223,4966,0,2.6038518,0.11798764,-8.232517,4966,0
69626502,0.09015365,-0.22677651,-0.15356524,5015,0,0.35973343,-0.68583363,-10.373051,5015,0
69631432,-0.06672725,0.33938885,0.156689,4930,0,-3.6360452,-0.3648573,-10.890818,4930,0
69636387,-0.014649305,-0.19855532,-0.043289743,4955,0,4.3107843,-0.8198439,-7.7126665,4955,0
69641354,-0.0064620986,-0.07757747,-0.13854292,4967,0,-1.9648738,0.15016557,-11.164373,4967,0
69646323,-0.06551712,0.27499977,0.21010326,4969,0,-1.2990885,0.31433553,-9.65216,4969,0
69651288,0.057851393,-0.2672574,-0.13920283,4965,0,3.5326748,-1.0100731,-9.050527,4965,0
69656255,-0.046533827,0.18840861,-0.047724415,4967,0,-4.1617246,0.077753946,-12.145189,4967,0
69661221,-0.016455553,0.06949562,0.120959915,4966,0,1.9519724,-0.03681861,-8.125471,4966,0
69666193,0.043089885,-0.2566879,-0.18352754,4972,0,1.5848533,-0.6166036,-9.967492,4972,0
69671156,-0.079718806,0.26538065,0.08069564,4963,0,-3.8015277,0.43494377,-10.554013,4963,0
69676122,0.0648534,-0.13072632,0.012952854,4966,0,3.9539635,-0.24639736,-7.6868634,4966,0
69681086,0.0014654308,-0.077518895,-0.13002609,4964,0,-0.63307375,0.19049683,-11.327289,4964,0
69686066,-0.04487875,0.17366703,0.16658685,4980,0,-1.2165513,0.045786887,-9.708384,4980,0
69691062,0.11067127,-0.22668305,-0.08053332,4996,0,3.264359,-0.90387857,-9.777637,4996,0
69695993,-0.05278404,0.150512,-0.045070123,4931,0,-3.174281,0.17941089,-12.183593,4931,0
69700956,0.028916555,0.031898618,0.1257731,4963,0,1.5996158,-0.29223567,-8.185465,4963,0
69705926,0.050744258,-0.16276537,-0.112131625,4970,0,1.3781213,-0.26275915,-9.877588,4970,0
69710890,-0.07909007,0.23020722,0.08355678,4964,0,-3.2265751,0.21837589,-9.742054,4964,0
69715857,0.073810466,-0.16356756,0.032973405,4967,0,3.244648,-0.8307955,-8.05284,4967,0
69720829,-0.064789504,-0.033739984,-0.10564349,4972,0,-1.0543277,0.2821007,-11.413508,4972,0
69725790,-0.04194717,0.15994415,0.1289409,4961,0,-0.89218235,-0.41934004,-9.176796,4961,0
69730764,0.07639669,-0.1453199,-0.04747392,4974,0,2.5438433,-0.7272335,-10.004051,4974,0
69735724,-0.086056694,0.12666802,-0.061319627,4960,0,-2.8412573,0.40925455,-11.577446,4960,0
69740692,0.049904097,-0.0021287329,0.11186881,4968,0,1.9617718,-0.90117705,-8.358514,4968,0
69745662,-0.029439755,-0.095046915,-0.08173182,4970,0,1.2050484,0.20993611,-10.4701185,4970,0
69750625,-0.096025646,0.10123703,0.018742027,4963,0,-2.0501544,-0.18708622,-9.631594,4963,0
69755591,0.09210025,-0.11911908,0.041886233,4966,0,2.7099593,-0.7446787,-9.021252,4966,0
69760558,-0.08646811,-0.03830942,-0.09085406,4967,0,-0.6860071,0.62910813,-11.319784,4967,0
69765532,0.015427021,0.002495465,0.074478894,4974,0,-0.15241912,-1.231477,-9.441337,4974,0
69770492,0.080713116,-0.08045715,-0.007126832,4960,0,1.8463633,0.015793907,-10.03805,4960,0
69775515,-0.06001834,0.0420904,-0.03248527,5023,0,-1.9273843,0.17882168,-10.065867,5023,0
69780445,0.073319465,-0.067151725,0.074576594,4930,0,1.2723068,-1.4754916,-8.881409,4930,0
69785433,-0.034126304,-0.069548324,-0.09844443,4988,0,0.24810925,0.8040969,-10.455906,4988,0
69790423,-0.024886671,-0.0029752243,-0.002916608,4990,0,-0.99188596,-1.3792502,-9.319183,4990,0
69795400,0.06141489,-0.03846322,0.04801108,4977,0,2.163427,-0.37941986,-9.451884,4977,0
69800370,-0.09218046,-0.040122557,-0.10691515,4970,0,-1.0002291,0.723321,-10.750407,4970,0
69805332,0.02377907,-0.010794656,0.058069862,4962,0,-0.4932734,-1.7762158,-10.150139,4962,0
69810323,0.0031285319,0.007562641,-0.03892897,4991,0,1.2498636,0.706122,-10.070172,4991,0
69815311,-0.089350246,-0.06335948,-0.07816029,4988,0,-0.8767458,-1.2537298,-9.582186,4988,0
69820307,-0.02305663,0.0041555422,0.09024324,4996,0,0.69226927,-0.45390385,-9.526855,4996,0
69825298,-0.06673122,-0.024702419,-0.09269692,4991,0,0.013152857,1.6197374,-9.768333,4991,0
69830285,-0.0072843092,-0.059461415,0.01627284,4987,0,-0.61845356,-1.8628019,-9.807783,4987,0
69835060,-0.03602963,0.019946259,0.042627558,4775,0,1.5871167,0.89645386,-9.50712,4775,0
69840027,-0.086409755,-0.1166105,-0.09453336,4967,0,-0.3898256,-0.45672956,-9.942538,4967,0
69844994,0.010752528,0.01022891,0.115091085,4967,0,-0.049821932,-0.7071972,-10.585132,4967,0
69849961,0.018443428,-0.031787477,-0.040967386,4967,0,0.70749766,1.8910997,-10.068528,4967,0
69854929,0.018904569,-0.045320213,0.023061676,4968,0,-0.8584676,-2.152002,-10.349996,4968,0
69859895,0.0071413876,0.05187455,0.08844542,4966,0,0.6929869,0.80484223,-9.386622,4966,0
69864861,-0.029780637,-0.12975252,-0.12059317,4966,0,-0.34590265,-0.34825617,-9.186949,4966,0
69869829,-0.036125425,0.07208108,0.099807575,4968,0,-1.1200445,-1.2085344,-10.179242,4968,0
69874795,-0.012648258,-0.023626499,-0.052042928,4966,0,1.1170381,1.8145056,-8.956396,4966,0
69879762,-0.0072566746,-0.07009813,-0.025026001,4967,0,-0.546452,-2.3117487,-10.515704,4967,0
69884730,-0.056128412,0.07638433,0.07197503,4968,0,0.76930827,0.4867512,-10.339862,4968,0
69889696,-0.06769414,-0.13039714,-0.13083313,4966,0,0.43757224,0.035445273,-9.762753,4966,0
69894662,-0.07208058,0.09140562,0.10879688,4966,0,-0.99178475,-1.083335,-10.879442,4966,0
69899629,-0.0110931555,-0.06901169,-0.06995604,4967,0,1.7626185,2.1895866,-8.473478,4967,0
69904596,0.013685917,-0.12979208,-0.054792985,4967,0,-0.53690827,-1.4366767,-10.131582,4967,0
69909563,0.0020565137,0.105088934,0.107198924,4967,0,0.098990604,0.68813705,-9.478245,4967,0
69914530,0.04459031,-0.15346174,-0.1204363,4967,0,0.4952089,0.20867841,-9.60044,4967,0
69919497,-0.0046335887,0.1030941,0.09623542,4967,0,-1.6964102,-1.2906433,-11.592026,4967,0
69924464,0.06583634,-0.08011564,-0.066217184,4967,0,1.2600591,1.7002325,-8.823616,4967,0
69929430,0.09081903,-0.06834028,0.0058014565,4966,0,-1.2040309,-1.8465508,-10.704203,4966,0
69934408,-0.0026490327,0.17119591,0.11129289,4978,0,-0.17168622,0.044689592,-9.169914,4978,0
69939387,0.0019765825,-0.16574173,-0.14317586,4979,0,0.8752993,-0.22404402,-8.698392,4979,0
69944384,-0.0784167,0.10831338,0.071720526,4997,0,-1.2828795,-1.0076791,-10.901462,4997,0
69949298,0.0022914358,-0.07223947,-0.08206968,4914,0,1.7714225,1.3021159,-8.6324215,4914,0
69954265,-0.04742377,-0.07263252,-0.0024315573,4967,0,-0.47333682,-1.3901783,-11.81685,4967,0
69959231,-0.036565218,0.06033847,0.0064951116,4966,0,0.31742397,0.4338698,-9.760742,4966,0
69964204,0.06131652,-0.0709597,-0.04920918,4973,0,0.17197186,0.0025684205,-10.21939,4973,0
