timestamp,timestamp_sample,accel_device_id,gyro_device_id,delta_angle[0],delta_angle[1],delta_angle[2],delta_velocity[0],delta_velocity[1],delta_velocity[2],delta_angle_dt,delta_velocity_dt,delta_velocity_clipping
66701359,66701032,3670026,3670026,-2.2259771e-06,-1.6441649e-05,-0.00020761203,0.002882237,-0.0018968554,-0.049518514,5010,5010,0
66706316,66705971,3670026,3670026,-0.00018986751,-0.00014919137,-0.00010243099,0.0006157777,0.00024464377,-0.04910322,4939,4939,0
67203006,67202638,3670026,3670026,-0.0004453275,-0.0011102848,-0.00028907065,-0.002155716,0.002165594,-0.05064618,4967,4967,0
67704641,67704288,3670026,3670026,-0.00064678077,0.00043025013,-0.00017937821,1.5938404e-05,0.0016354441,-0.041636094,4966,4966,0
68206450,68206083,3670026,3670026,-0.0009717721,-0.00091840693,0.00014863577,0.005560979,0.0061038295,-0.04871357,4983,4983,0
68708022,68707653,3670026,3670026,-0.002605255,5.1844047e-05,-0.0007557534,0.0088539645,-0.004818594,-0.052743427,4982,4982,0
69204600,69204273,3670026,3670026,0.0005854767,-0.0017574029,-0.0008902369,0.007799377,-0.0027345498,-0.046374552,4964,4964,0
69706304,69705926,3670026,3670026,0.00025219895,-0.0008089439,-0.0005572942,0.0068492624,-0.001305913,-0.049091615,4970,4970,0
70203027,70202607,3670026,3670026,0.00024659815,0.00039590878,0.00019046794,-0.00017589758,0.0015887597,-0.052970514,4967,4967,0
70704648,70704258,3670026,3670026,-0.0017004049,0.00051398197,0.0011841097,-0.009055092,-0.0018850047,-0.05488447,4968,4968,0
71206260,71205909,3670026,3670026,0.0013241562,-0.00022616074,-0.0007344647,6.991003e-06,-0.006067493,-0.056042522,4968,4968,0
71708167,71707793,3670026,3670026,0.0013932511,-0.00026228582,-0.0008860015,0.009893555,-0.0012322408,-0.044764925,5059,5059,0
72204566,72204243,3670026,3670026,-0.0015110299,0.00042198398,0.0001341044,-0.0008385255,-0.008784791,-0.047401633,4967,4967,0
72706231,72705894,3670026,3670026,-0.00094080385,0.0001174195,0.0009134277,-0.00625545,0.0034090693,-0.05644631,4968,4968,0
73207872,73207545,3670026,3670026,0.0005345027,-3.3649998e-05,2.3507944e-05,-0.0007986012,-0.011953827,-0.053827245,4967,4967,0
73704639,73704231,3670026,3670026,-0.0008620421,0.00021181058,0.00028527973,-0.004301817,-0.008405086,-0.051960755,4968,4968,0
74206281,74205880,3670026,3670026,0.0033154874,-0.0001364249,-0.0006249177,0.011082262,-0.0039501237,-0.04255413,4967,4967,0
74702907,74702564,3670026,3670026,-0.0035536566,0.00016124768,0.0005787238,-0.0024562571,0.003952459,-0.045392837,4967,4967,0
75204765,75204394,3670026,3670026,0.00013865803,0.00017435974,0.0009050811,-0.009331239,0.0017303814,-0.04473803,4998,4998,0
75706242,75705869,3670026,3670026,-0.0007415683,0.00058935606,0.00083645846,-0.0010937254,0.006700367,-0.045651406,4962,4962,0
76207876,76207517,3670026,3670026,0.0026300463,-0.00018978937,-0.00036379023,0.001548718,-0.012441342,-0.042426758,4967,4967,0
76704616,76704232,3670026,3670026,-0.0023704644,-4.6669393e-05,-0.00039558712,0.0027059864,-0.009556235,-0.04963552,4994,4994,0
77206228,77205853,3670026,3670026,0.0007334311,-1.4575057e-05,-0.00092442444,0.008529346,0.003073489,-0.049571253,4966,4966,0
77702863,77702537,3670026,3670026,-0.0018839305,0.00050394185,0.00027118213,-0.0008082651,-0.0028838085,-0.054046858,4967,4967,0
78204539,78204198,3670026,3670026,-0.00034174183,0.000100919046,0.0004708334,0.0047742757,-0.0026831927,-0.055725835,4976,4976,0
78706400,78706031,3670026,3670026,0.00024388911,-1.755191e-05,9.913259e-05,0.010427778,0.0026958995,-0.042684533,4981,4981,0
79207954,79207620,3670026,3670026,-0.0003631561,-0.00018150167,3.7614165e-05,-0.0047222255,-0.0072007645,-0.047525782,5033,5033,0
79704581,79704177,3670026,3670026,-0.00035325973,0.0006871947,-0.00010703056,-0.002225357,-0.011705116,-0.04453362,4968,4968,0
80206204,80205830,3670026,3670026,0.00016351655,1.7168759e-05,-0.0002754022,-0.0015229711,-0.018074328,-0.043450233,4966,4966,0
80702888,80702513,3670026,3670026,-0.00051718845,0.00027781806,0.0004368329,-0.003711042,0.0045223255,-0.055666365,4966,4966,0
81204567,81204164,3670026,3670026,0.00041315722,-0.00025765772,-0.0007008716,0.009257286,-0.004675647,-0.044282146,4964,4964,0
81706163,81705817,3670026,3670026,-4.8924656e-05,3.201068e-05,-2.9030691e-06,0.0005769743,-0.007732623,-0.055136226,4957,4957,0
82207833,82207481,3670026,3670026,0.0007067463,-0.00013798264,-0.00069683057,0.0071351016,-0.005120422,-0.043815732,4789,4789,0
82704603,82704238,3670026,3670026,-0.00044135196,1.7063267e-05,0.00060674327,-0.0013284648,0.004182761,-0.04829779,4991,4991,0
83206240,83205805,3670026,3670026,0.00033862176,7.691725e-05,-3.860304e-05,0.00064976554,0.0024815965,-0.05614947,4967,4967,0
83702854,83702485,3670026,3670026,-3.5428523e-06,-5.3893367e-05,-3.7082253e-05,0.00058463897,0.0018361029,-0.04418505,4939,4939,0
84204552,84204142,3670026,3670026,-0.0010539887,-0.0032695467,0.0007708888,0.0021224718,-0.0010510377,-0.054799862,4967,4967,0
84706166,84705795,3670026,3670026,-0.0015612538,0.0034067177,0.00023366074,-0.0068994206,0.00045669175,-0.056652434,4968,4968,0
85202872,85202479,3670026,3670026,0.0013266415,0.004101484,-0.0006366929,0.005593711,-0.002269302,-0.045300912,4913,4913,0
85704473,85704131,3670026,3670026,-0.0014088403,-0.0027516945,0.00022020841,-0.005696265,-0.00028506396,-0.051934138,4775,4775,0
86206153,86205826,3670026,3670026,0.00045338957,0.0028431332,6.381371e-06,-0.009936205,-0.010833157,-0.049657617,4977,4977,0
86707762,86707435,3670026,3670026,-1.4980637e-05,-0.0017642035,-0.00037500402,-0.006405683,-0.014678692,-0.051002238,4966,4966,0
87209463,87209088,3670026,3670026,-0.0005769005,-0.00013151338,0.0009369265,-0.0031330113,0.012108064,-0.05258362,4967,4967,0
87706113,87705791,3670026,3670026,-0.00092146447,-0.0019933851,0.00070722366,-0.011115185,0.0027023503,-0.05100999,4983,4983,0
88202866,88202460,3670026,3670026,-7.291931e-05,-0.00059003575,0.00015918553,0.0042901826,5.2487874e-05,-0.046621896,4967,4967,0
91202797,91202441,3670026,3670026,0.001704924,0.0001986147,0.0007349658,-0.0028402915,-1.9788113e-05,-0.054141544,4968,4968,0
91704471,91704093,3670026,3670026,0.00038292166,-7.5193355e-05,-0.0002886865,0.0012187636,-0.004704564,-0.055160377,4966,4966,0
92206091,92205745,3670026,3670026,0.0016902414,0.002699141,-0.00061003154,0.0058006807,-0.00368523,-0.042290334,4966,4966,0
92707747,92707400,3670026,3670026,-0.00076803204,-0.00021705734,0.0006497186,-0.012159939,0.003539152,-0.058560316,4969,4969,0
93204522,93204151,3670026,3670026,-0.0007091446,-0.00286783,-0.0005630335,0.0016802114,-0.016704464,-0.043731455,4941,4941,0
93706193,93705739,3670026,3670026,8.523375e-05,-0.003648502,-0.00038469248,0.006611687,-0.0061347503,-0.047877043,4964,4964,0
94202748,94202424,3670026,3670026,-0.0024342036,0.0037062205,0.00017513227,-0.00071281043,-0.0029418624,-0.046151556,4967,4967,0
94704399,94704076,3670026,3670026,0.003498931,0.0009693326,-0.0002665463,-0.010695181,-0.0038577893,-0.053278536,4967,4967,0
95206102,95205729,3670026,3670026,-0.00031255325,-0.0032806322,-0.0006974989,-0.0021547542,-0.014597656,-0.042778708,4960,4960,0
95702762,95702415,3670026,3670026,0.0012215934,0.0039136335,-0.00072972703,-0.0038741925,-0.01599132,-0.04331499,4966,4966,0
96204411,96204069,3670026,3670026,-0.0013085462,-0.003794497,0.00053929945,0.002887409,-0.0039005717,-0.053662747,4967,4967,0
96706143,96705818,3670026,3670026,0.0002631651,-4.892038e-05,-0.00016657775,0.0014728596,0.0052374047,-0.048101317,4994,4994,0
97207741,97207371,3670026,3670026,0.00026961084,0.004200204,-0.00020721814,-0.007937277,-0.006093631,-0.042373754,4962,4962,0
97704388,97704061,3670026,3670026,-0.00022868962,-0.004500532,7.7920864e-05,0.0010059588,-0.0027048725,-0.042265825,4967,4967,0
98206068,98205746,3670026,3670026,-0.0005744063,0.0033890207,0.00055159396,-0.0024097832,0.0019017516,-0.053034615,4975,4975,0
98702766,98702401,3670026,3670026,0.00019069303,0.0023530659,-0.0001357062,-0.006775665,-0.0004927768,-0.05244739,4967,4967,0
99204450,99204056,3670026,3670026,-0.0001507005,-0.00074775424,0.00029563368,-0.007422252,-0.009394559,-0.051204015,4969,4969,0
99706079,99705707,3670026,3670026,0.000395676,-0.0020822012,3.6248624e-05,-0.0036532737,-0.01944871,-0.051119573,4958,4958,0
100207859,100207475,3670026,3670026,0.00053474325,0.0034337775,0.00012611876,-0.0072625377,-0.0036698096,-0.055029206,4988,4988,0
100704375,100704048,3670026,3670026,0.00021553907,0.0019110685,-9.468145e-05,-0.010318589,-0.014261594,-0.04631332,4967,4967,0
101206070,101205701,3670026,3670026,-0.00041182202,-0.0008013846,-0.00021418947,-0.006786666,-0.020891253,-0.05055974,4967,4967,0
101702779,101702387,3670026,3670026,-0.0033598384,-0.0016353253,-0.00012947468,0.0006038395,0.00016478467,-0.046106383,4966,4966,0
102204370,102204041,3670026,3670026,-0.000925977,-0.0022160828,0.00020887495,0.007324013,0.005179984,-0.054704357,4967,4967,0
102706049,102705695,3670026,3670026,-0.00032032595,0.0018907859,0.0008678005,-0.0069590346,-0.0007963067,-0.05429032,4967,4967,0
103207691,103207352,3670026,3670026,-0.0019386837,0.00038667675,0.0006568276,-0.009464056,-0.007054693,-0.04762779,4971,4971,0
103704522,103704153,3670026,3670026,-0.0011097506,-0.0023378842,0.00069157314,-0.00784743,0.0028118566,-0.05078991,4985,4985,0
104206013,104205685,3670026,3670026,-0.0011527593,-6.122301e-06,-1.1767465e-06,-0.005158557,0.0021699907,-0.057460427,4961,4961,0
104702705,104702378,3670026,3670026,0.0015508196,0.0003139666,-0.00073552766,0.0015563767,-0.008994866,-0.04132841,4969,4969,0
105204355,105204029,3670026,3670026,0.00050484255,0.0030190477,-0.00045810133,-0.0032717863,-0.012776003,-0.04114574,4967,4967,0
105706005,105705683,3670026,3670026,0.00015431491,-0.0029710352,-7.859091e-05,-0.0054173307,-0.020803096,-0.054707747,4966,4966,0
106202762,106202422,3670026,3670026,0.001422869,-0.0028594972,-0.0005325853,0.0013927001,-0.008224425,-0.046696838,4986,4986,0
106704378,106704024,3670026,3670026,0.000898029,0.000896848,-0.00077386317,0.009065694,-0.000963318,-0.04069208,4967,4967,0
107206239,107205819,3670026,3670026,0.001292069,0.0011901442,-0.0003119843,-0.007491877,-0.0064131087,-0.05109573,4988,4988,0
107707724,107707353,3670026,3670026,-0.00042266172,-4.6361038e-05,-0.00045229314,-0.0048871115,0.0008420361,-0.05021796,4991,4991,0
108209372,108208986,3670026,3670026,0.00010324148,-0.003859292,0.0001459422,0.002538966,0.0046267333,-0.045144804,4967,4967,0
108706099,108705715,3670026,3670026,0.0012003994,0.0020401697,0.0003430263,-0.002362163,-0.00948013,-0.048841305,4988,4988,0
109202732,109202362,3670026,3670026,0.0003483124,0.0035256788,0.00028230823,-0.0050803763,0.007770291,-0.046827078,4968,4968,0
109704403,109704014,3670026,3670026,0.0002676171,0.0027928464,7.096347e-05,-0.004398251,0.007758591,-0.046161633,4966,4966,0
110206010,110205669,3670026,3670026,-0.000626944,-0.0013689073,0.00039947862,-0.0047645727,0.006517478,-0.05662478,4962,4962,0
110707852,110707483,3670026,3670026,0.0006525982,6.324108e-05,-0.00043559592,0.00086556806,-0.013703136,-0.042816523,4987,4987,0
111204450,111204098,3670026,3670026,-0.00062240043,0.0004654518,0.00013864943,-0.012533051,-0.014674035,-0.055102218,4983,4983,0
111706005,111705665,3670026,3670026,-0.00065367244,0.00021161049,0.0004700408,-0.007643121,-0.006641053,-0.051706452,4965,4965,0
112202722,112202353,3670026,3670026,-0.001126956,0.00049355254,0.0006791729,-0.0009783733,0.010978452,-0.05774111,4967,4967,0
112704431,112704008,3670026,3670026,-0.00018889885,6.485783e-05,0.0003496941,-0.004786821,-0.009860979,-0.050241087,4963,4963,0
113206028,113205661,3670026,3670026,-0.00011949127,-6.8178866e-05,-1.5773825e-05,-0.0014901359,0.0008427673,-0.052613284,4959,4959,0
113707657,113707315,3670026,3670026,0.0009265768,-0.0007421958,-0.00041314893,0.0011848625,-0.0038846992,-0.042072464,4966,4966,0
114204494,114204168,3670026,3670026,0.0006720412,-0.0001493049,-0.00060579536,0.005952942,-0.008265275,-0.042209495,4986,4986,0
114706033,114705661,3670026,3670026,-4.2657088e-05,-0.00016044402,-0.0003847892,0.00014664349,-0.008454927,-0.054126546,4970,4970,0
115207683,115207312,3670026,3670026,-0.0003132402,4.71687e-06,2.6132568e-05,-0.0037651083,0.0045421687,-0.04651702,4961,4961,0
115704475,115704000,3670026,3670026,0.0004217934,-0.00015076221,-0.0005113393,0.00078849477,-0.0068710707,-0.046899088,4967,4967,0
116205977,116205655,3670026,3670026,6.4625514e-05,0.00023959538,0.0006394579,0.0034084134,0.011259445,-0.052297376,4965,4965,0
116702729,116702343,3670026,3670026,0.00020936927,4.9797894e-05,-0.0004492238,0.0073485738,-0.004658012,-0.042214632,4966,4966,0
117204359,117203997,3670026,3670026,-0.00016532306,0.00021567474,0.00034565054,-0.00988608,-0.01607932,-0.052780546,4967,4967,0
117706256,117705843,3670026,3670026,-0.00018702651,-3.3819654e-06,-1.1496684e-05,0.002127159,0.005756001,-0.04302948,4993,4993,0
118207679,118207355,3670026,3670026,-0.00036888107,9.594026e-05,0.00024815366,-0.008193255,-0.010373059,-0.053380772,4984,4984,0
118704328,118703995,3670026,3670026,-0.00019056353,0.00020929845,0.00064131676,-0.008373487,-5.024808e-05,-0.0476553,4967,4967,0
119206017,119205650,3670026,3670026,-0.001304302,0.0003942374,0.0010923151,-0.004712539,0.009430629,-0.056127086,4967,4967,0
119702706,119702338,3670026,3670026,-0.0010474947,0.00034568366,0.0011268178,-0.008752192,-0.0014709964,-0.055176213,4965,4965,0
120204409,120203993,3670026,3670026,-0.00029678555,0.0002555101,0.0003489345,0.0034610564,0.013829184,-0.05278261,4967,4967,0
120705995,120705647,3670026,3670026,-0.0010085778,0.00033267325,0.00023857105,0.0017136951,0.013160434,-0.047561653,4966,4966,0
121207654,121207303,3670026,3670026,0.00020813326,-0.00026464602,-4.639961e-05,-0.00015978022,-0.005601015,-0.045179777,4769,4769,0
121704398,121704012,3670026,3670026,0.00027565233,7.887222e-05,-0.0002893048,-0.0019377425,0.0056739063,-0.05668067,4990,4990,0
122206014,122205689,3670026,3670026,0.00028417827,-0.00020824953,-0.0023462453,-0.0035229353,-0.017471034,-0.047896013,5010,5010,0
122702656,122702334,3670026,3670026,0.00034370963,-0.00059040927,-0.0024938327,0.0031554217,-0.012314357,-0.0458008,4966,4966,0
123204381,123203989,3670026,3670026,-0.00067462755,3.6482073e-05,-0.0019297058,0.0023214265,0.0010691894,-0.04299351,4966,4966,0
123705969,123705646,3670026,3670026,-0.0005876774,-5.9045626e-05,-0.0015195296,-0.0020158123,-0.0060332194,-0.056343008,4968,4968,0
124207689,124207303,3670026,3670026,-0.00013645166,5.7974685e-05,-0.00037590403,-0.01074967,-0.014069378,-0.0531079,4970,4970,0
124704357,124703991,3670026,3670026,-4.754627e-05,0.00013526506,0.00019131687,0.0007454207,-0.005866023,-0.039157175,4773,4773,0
125206108,125205692,3670026,3670026,-0.0012423468,-0.0013804687,0.0008269592,-0.0033343125,0.00918656,-0.054841265,4989,4989,0
125707671,125707299,3670026,3670026,0.0008291118,0.005409046,-0.0002599119,0.0038022888,0.007858695,-0.04729556,4960,4960,0
126204321,126203987,3670026,3670026,-0.0001641758,0.0025130396,8.276362e-05,-0.0003682113,0.0007324869,-0.04361797,4964,4964,0
126705979,126705643,3670026,3670026,-0.0011435616,0.0015299347,0.00093241583,-0.0066756643,-0.0017648115,-0.053946603,4967,4967,0
127202740,127202332,3670026,3670026,0.0025564982,0.0015788132,0.00043105037,-0.014771555,-0.0052712336,-0.054729212,4967,4967,0
127704348,127703987,3670026,3670026,-0.0009372343,-0.0010958939,0.0008731765,0.0021594488,-0.0007696265,-0.052738067,4967,4967,0
128206049,128205700,3670026,3670026,-0.0005219383,0.000776934,-0.0007517722,0.002779681,-0.01047386,-0.050678853,5025,5025,0
128707754,128707394,3670026,3670026,-0.00073566864,-4.9534156e-05,-0.00014273293,0.0008301813,-0.007918602,-0.049454674,4993,4993,0
129209347,129208954,3670026,3670026,0.004391216,-0.001383935,4.6062636e-05,-0.0025852972,-0.008312386,-0.04130503,4967,4967,0
129706003,129705680,3670026,3670026,-0.0006408285,0.004382077,0.00044180214,-0.008792842,0.0016214869,-0.056306023,4987,4987,0
130202746,130202331,3670026,3670026,5.851281e-05,0.0031492033,-0.0010089154,0.0058372603,-0.0064270995,-0.0412635,4967,4967,0
130704375,130703987,3670026,3670026,-0.0013364272,-0.0020439806,-0.00022692882,0.0008279994,-0.010469731,-0.044477355,4965,4965,0
131206027,131205642,3670026,3670026,-0.00041716703,0.0034455536,0.00026691452,-0.00011212361,-0.006763915,-0.05452783,4967,4967,0
131707643,131707298,3670026,3670026,-0.0007368614,-0.0011132264,0.00068592746,-0.00039526922,-0.0023994702,-0.04999672,4966,4966,0
132204467,132204099,3670026,3670026,0.0009965437,-0.003353898,-0.0006652426,0.003972232,-0.0063828146,-0.041463304,4991,4991,0
132706016,132705644,3670026,3670026,0.0012529906,0.000914481,-0.0006096761,0.0018363507,-0.00038500503,-0.047342602,4930,4930,0
133202757,133202332,3670026,3670026,-0.00013393813,0.0001260294,-0.00030470968,-0.0010789668,-0.0023944546,-0.04229302,4967,4967,0
133704414,133703987,3670026,3670026,-0.00022745885,8.0540776e-05,-0.0009724956,-0.0012624526,-0.010725264,-0.047641728,4967,4967,0
134205966,134205643,3670026,3670026,-0.00013874611,-3.8534814e-05,-0.0014057469,0.0022922046,-0.0050454526,-0.05518656,4967,4967,0
134707745,134707343,3670026,3670026,-5.4739274e-05,0.00024219093,-0.0030354324,-0.00039788565,0.0019817185,-0.054353915,4981,4981,0
135204392,135203988,3670026,3670026,0.00023064252,-0.00020277107,-0.0022657255,0.00014070242,0.005394437,-0.043614913,4964,4964,0
135706206,135705787,3670026,3670026,0.0005079088,-0.00027641293,-0.0009535564,0.004499144,-0.0063352576,-0.044130255,4987,4987,0
136207715,136207300,3670026,3670026,-0.0008833637,-0.00010790749,0.00052550744,-0.004519118,-0.0009238189,-0.054892797,4963,4963,0
136704428,136703989,3670026,3670026,-0.00044234146,-0.00078437245,0.0007551479,-0.0101324525,-0.013253683,-0.053123098,4967,4967,0
137205983,137205657,3670026,3670026,0.00021543383,0.0022292573,-0.00015349529,-0.0031630613,-0.0076220236,-0.0478856,4933,4933,0
137702659,137702335,3670026,3670026,-0.00019169792,-0.0033071025,-2.5116968e-05,-0.0020000413,0.0053661843,-0.04532513,4967,4967,0
138204360,138203991,3670026,3670026,-0.00076568587,0.0040416457,6.286943e-05,-0.008111383,-0.0036501403,-0.05501403,4957,4957,0
138706040,138705650,3670026,3670026,1.7088289e-05,0.0003996852,-0.0002718274,-0.0012520833,-0.0070063747,-0.052359827,4970,4970,0
139207738,139207416,3670026,3670026,-0.00033228667,-0.0029867154,0.0007444442,-0.0017833126,0.009489618,-0.053330116,4989,4989,0
139704348,139704018,3670026,3670026,0.0006226536,0.00015223243,-0.0006299403,0.002157,0.007346027,-0.0437621,4978,4978,0
140206053,140205683,3670026,3670026,-9.10862e-05,-0.0009569511,4.3486383e-05,-0.0034891819,-0.006210229,-0.052050825,4983,4983,0
140702705,140702337,3670026,3670026,0.00035232594,-0.00026563587,-0.0004855459,-0.009471328,-0.015612259,-0.045909327,4967,4967,0
141204372,141203994,3670026,3670026,-0.00018806005,0.0007251931,-1.979231e-05,-0.009760423,-0.012653622,-0.04178092,4964,4964,0
141706036,141705650,3670026,3670026,-0.0003617712,0.0011983303,2.5950374e-05,-0.008176151,-0.013978358,-0.045478262,4967,4967,0
142207650,142207307,3670026,3670026,-8.974876e-05,-0.0041484456,0.0010051924,-0.012653235,0.0028217845,-0.052159753,4967,4967,0
142704485,142704163,3670026,3670026,-0.00018660372,0.0018825459,-0.00010623186,-0.0050595035,-0.009276464,-0.047707472,4987,4987,0
143206039,143205654,3670026,3670026,1.3984667e-05,-0.0035279873,0.00052795437,0.0015122431,-0.004238538,-0.048841253,4968,4968,0
143702664,143702342,3670026,3670026,-0.0004745289,0.0005351047,0.0011744094,-0.011956201,-0.005816572,-0.049138017,4967,4967,0
144204336,144203999,3670026,3670026,-0.00020259894,-0.0014981242,0.0002923724,-0.008876879,-0.00525439,-0.043490466,4967,4967,0
144706068,144705655,3670026,3670026,0.00042035134,0.0029400522,-0.00044918462,-0.0041399896,-0.012142239,-0.05044936,4967,4967,0
145207668,145207313,3670026,3670026,-0.0004869484,-0.004035811,0.0007441872,-0.004217211,0.004041147,-0.053992916,4967,4967,0
145704401,145704002,3670026,3670026,-0.0006549016,-0.0022824646,0.00032128577,-0.00069102296,-0.009528016,-0.05006472,4890,4890,0
146206168,146205796,3670026,3670026,-0.0008553044,0.0027961424,0.0005086243,-0.0112859,-0.010055213,-0.054184563,4991,4991,0
146707751,146707317,3670026,3670026,0.0009184416,0.001907107,-0.0008780376,0.002616898,-0.016334666,-0.0411705,4966,4966,0
147204442,147204005,3670026,3670026,-0.0006224455,-0.0006091114,0.00080537546,-0.015961848,0.0018571268,-0.060564976,4971,4971,0
147705987,147705662,3670026,3670026,-0.001082549,-0.0032948505,0.0010727854,-0.0028290767,0.0027318997,-0.056173153,4967,4967,0
148202675,148202352,3670026,3670026,-0.0002136219,0.0038230913,-6.24848e-05,-0.0064390977,-0.0064994935,-0.047886822,4967,4967,0
148704379,148704009,3670026,3670026,0.0004240863,-0.0014826809,0.0009177917,-0.014155465,-0.013202551,-0.05233414,4968,4968,0
149206047,149205665,3670026,3670026,0.00076586497,0.000565178,-0.0003833934,-0.0043305173,0.0055951104,-0.044534907,4966,4966,0
149707844,149707479,3670026,3670026,0.00012375653,-0.00086546846,0.00029589934,-0.0065873438,-0.011880778,-0.05159295,4990,4990,0
150204403,150204080,3670026,3670026,0.0007393232,5.3428386e-05,-0.00047089715,-0.004436961,-0.017193623,-0.05052331,4976,4976,0
150705992,150705669,3670026,3670026,0.00034266317,0.0025954328,-0.00042548636,-0.00079206005,-0.007379228,-0.054175455,4967,4967,0
151202711,151202364,3670026,3670026,-0.00044129693,-0.004082503,0.00022963007,-0.005708512,-0.0069203805,-0.047410417,4971,4971,0
151704340,151704016,3670026,3670026,-0.00073266606,-0.0005826617,-3.827596e-05,6.227751e-05,0.0017585838,-0.043771792,4966,4966,0
152206058,152205701,3670026,3670026,-0.0004695869,-0.0025250781,0.0009076166,-0.0042991424,0.008841905,-0.05879666,4992,4992,0
152707714,152707330,3670026,3670026,0.0006528333,-0.0022688478,0.00015637567,-0.0048328848,-0.00046741107,-0.0482199,4966,4966,0
153204563,153204194,3670026,3670026,-0.00026857108,0.001944969,0.00052122085,-0.011259448,0.0020178503,-0.054989547,4996,4996,0
153706053,153705683,3670026,3670026,-0.00012195284,0.0017473524,4.9404257e-06,-0.004710064,0.0018278178,-0.046304416,4972,4972,0
154202690,154202369,3670026,3670026,-0.0005411258,-0.0036698028,-0.00042168266,0.0071846503,-0.005973087,-0.0468761,4967,4967,0
154704354,154704025,3670026,3670026,0.00037786685,-0.0017325918,1.7230674e-05,0.0071900887,0.0044712117,-0.043683857,4966,4966,0
155206009,155205683,3670026,3670026,0.0005162573,0.002777053,-0.0007307388,5.233118e-05,-0.012480801,-0.039825708,4967,4967,0
155707750,155707340,3670026,3670026,-0.00048117148,0.000150224,9.9973775e-05,-0.012483298,-0.01192543,-0.050151456,4967,4967,0
156204380,156204030,3670026,3670026,0.00039362197,-1.162993e-05,-0.0005481771,0.00570447,-0.007294366,-0.04026352,4966,4966,0
156706208,156705873,3670026,3670026,0.00012781196,-0.0026420024,0.00012759872,0.0057476843,0.009258035,-0.05336601,4921,4921,0
157207692,157207365,3670026,3670026,0.00028841483,0.00052565703,-0.00035258953,0.0058174795,-0.0034605248,-0.053774234,4978,4978,0
157704363,157704037,3670026,3670026,-0.0002817327,0.0035607868,-0.000120444915,-0.0004355622,-0.0021879259,-0.045373816,4969,4969,0
158206017,158205692,3670026,3670026,-3.7865186e-05,-0.0027218412,-0.00022441734,0.0058349106,-0.00068012706,-0.04126374,4966,4966,0
158702711,158702383,3670026,3670026,0.00086886686,0.0022656086,-0.0012447542,-0.001361959,-0.017244287,-0.043082803,4966,4966,0
159204371,159204041,3670026,3670026,-4.2783737e-05,-0.004121656,-0.00080377085,-0.00028615724,-0.009732759,-0.05087951,4967,4967,0
159706039,159705698,3670026,3670026,0.00048215353,-0.00025032397,-0.0013372705,-0.00024460678,0.0065098265,-0.045898024,4966,4966,0
160207705,160207357,3670026,3670026,-0.00043826527,0.00025648126,-0.0008099001,-0.0017928395,-0.002119593,-0.053023633,4784,4784,0
160704497,160704125,3670026,3670026,-0.0011926604,0.0006804593,0.0005407568,-0.004597452,0.0014911781,-0.05341002,4973,4973,0
161206089,161205711,3670026,3670026,0.00031228733,-0.0001898701,-0.00012995725,-0.0011436201,-0.009196394,-0.046553694,4973,4973,0
161702722,161702394,3670026,3670026,0.0008639397,-0.00016275288,-0.0002515736,-0.005401507,-0.008258726,-0.055802602,4967,4967,0
162204429,162204056,3670026,3670026,-0.0005680525,0.0001522545,0.00017681214,-0.0014122354,0.005514601,-0.045976803,4943,4943,0
162706112,162705711,3670026,3670026,3.3133645e-05,-0.002585396,0.0003279764,-0.0053782826,0.0024203772,-0.055694982,4962,4962,0
163207714,163207367,3670026,3670026,0.00031261105,0.0011792795,-0.00075472234,0.00054883485,-0.018707853,-0.04837223,4967,4967,0
163704418,163704075,3670026,3670026,-0.00051830127,-0.0009242301,0.00022723424,-0.0037685176,0.0031880473,-0.056080718,4789,4789,0
164206087,164205759,3670026,3670026,9.600103e-05,-0.00014407132,-0.00022323694,-0.002322724,0.0013395582,-0.042643964,4988,4988,0
164702825,164702405,3670026,3670026,-0.00033636112,0.0011219258,4.941369e-05,0.0006888791,0.008373088,-0.04522321,4965,4965,0
165204438,165204065,3670026,3670026,-0.00020209214,0.0037980324,-0.000283973,8.310459e-05,-0.0063174544,-0.055640906,4945,4945,0
165706132,165705721,3670026,3670026,-0.0005316451,-0.0015417637,0.00028238777,0.0028381983,0.006308969,-0.042598035,4967,4967,0
166207702,166207379,3670026,3670026,0.0011793302,-0.0033195142,-0.00014465467,0.00027904692,0.0010599826,-0.05452844,4966,4966,0
166704415,166704069,3670026,3670026,-0.00045175222,-0.001128324,0.000106138534,0.0051698866,0.011448175,-0.046230756,4966,4966,0
167206075,167205728,3670026,3670026,0.0006837496,0.0030305488,-0.00085247454,-0.00011405747,-0.009140404,-0.043136384,4957,4957,0
167707765,167707444,3670026,3670026,0.0010670449,-0.0024400437,-0.00043543064,0.0069946903,-0.0053452007,-0.049462978,4985,4985,0
168204446,168204076,3670026,3670026,-0.00019554749,-0.0026522428,0.00048673197,-0.0058337087,-0.010605861,-0.043292448,4967,4967,0
168706062,168705735,3670026,3670026,-0.00048667635,-0.0026915846,0.0003123314,0.005366395,0.00692301,-0.052043483,4958,4958,0
169202808,169202480,3670026,3670026,-0.001335086,-0.0016586666,0.0004217971,0.006472618,0.0056317337,-0.043414306,4983,4983,0
169704454,169704082,3670026,3670026,-0.00011110466,0.0021394738,0.00044795824,-0.009020585,6.197481e-05,-0.05367429,4964,4964,0
170206175,170205740,3670026,3670026,-0.00092548097,0.00085952604,-6.178684e-05,-0.004714908,-0.010589218,-0.047147714,4964,4964,0
170707737,170707398,3670026,3670026,0.00055908883,0.002287171,-0.000599467,0.0018532339,-0.0040451833,-0.04568471,4967,4967,0
171204586,171204157,3670026,3670026,-0.0007079086,-0.0026413486,0.0009918872,-0.0063424488,0.01051804,-0.057364974,4995,4995,0
171706151,171705746,3670026,3670026,4.3525717e-05,-0.000494951,-8.6928776e-05,-0.0065460424,-0.012134118,-0.05449996,4966,4966,0
172202759,172202437,3670026,3670026,0.00036977662,0.0015339154,-0.0007281957,0.005615279,0.0058301054,-0.043932166,4966,4966,0
172704420,172704095,3670026,3670026,-0.0007074267,-0.0008951218,-0.00024084456,-0.0006211493,0.008276817,-0.043766033,4971,4971,0
173206133,173205753,3670026,3670026,-0.0006140579,0.0030252803,-0.0007139129,0.0011320609,-0.009130666,-0.043732405,4958,4958,0
173707763,173707413,3670026,3670026,-0.00057985063,0.0008683796,-1.1363472e-05,-0.009157549,-0.0009135203,-0.055471387,4969,4969,0
174204444,174204102,3670026,3670026,0.0004915108,-0.0034032958,-0.00015473593,-0.0007010477,-0.01249324,-0.04602142,4966,4966,0
174706244,174705909,3670026,3670026,0.0004946332,0.0033719118,-0.00045538138,-0.0075780666,-0.019197194,-0.05075859,4999,4999,0
175202828,175202451,3670026,3670026,0.00032214093,-0.00023213383,0.0003484782,-0.00982598,-0.008252224,-0.04792311,4967,4967,0
175704434,175704109,3670026,3670026,0.000903695,-0.0025450096,0.00026778204,0.00642011,0.0012749213,-0.04160089,4965,4965,0
176206093,176205767,3670026,3670026,0.0011082699,-0.0019511554,-0.000170846,-0.0004775321,0.0024362577,-0.04737985,4963,4963,0
176707757,176707426,3670026,3670026,0.0005018841,-0.0026290487,0.0004330455,-0.002567898,-0.015824495,-0.047876973,4968,4968,0
177204517,177204133,3670026,3670026,0.00057621463,5.5064334e-07,-0.0008177933,0.008120199,-0.00809831,-0.044732887,4977,4977,0
177706118,177705774,3670026,3670026,0.0010549373,-0.0022609883,0.0006730629,-0.0014680085,-0.009379131,-0.044373054,4963,4963,0
178207944,178207535,3670026,3670026,-0.00075926154,0.0026346636,5.3323838e-05,0.0003053779,-0.0052578724,-0.053943805,4986,4986,0
178704457,178704136,3670026,3670026,0.0005645256,-0.0024847935,-0.00066757854,0.008946006,-0.0031045508,-0.03952191,4978,4978,0
179206112,179205781,3670026,3670026,0.0009954172,0.002721814,-7.257429e-05,0.0035850296,0.010205108,-0.05027909,4967,4967,0
179702795,179702473,3670026,3670026,0.00094881095,0.0014322422,-0.00090423704,0.00569352,-0.002234687,-0.047321163,4967,4967,0
180204460,180204131,3670026,3670026,0.0010229292,-0.004029203,0.00029289015,-0.006232523,-0.017448807,-0.052722745,4968,4968,0
180706174,180705788,3670026,3670026,-0.0006951454,-0.0013801975,0.00043428157,-0.00277371,0.014817453,-0.054865334,4965,4965,0
181207835,181207449,3670026,3670026,-0.00016084129,-0.0014493881,-0.0010712647,0.0060472097,0.0057869195,-0.054510318,4970,4970,0
181704608,181704241,3670026,3670026,0.0005153213,-0.00276035,-0.0012263801,-0.0060321065,-0.01135471,-0.04132419,4989,4989,0
182206163,182205837,3670026,3670026,-0.0003106982,-9.612735e-05,-0.001359037,-0.0045950785,-0.016417427,-0.044365197,4973,4973,0
182702815,182702487,3670026,3670026,-0.00011135362,-1.34660195e-05,-0.0018406105,-0.0025329185,-0.009567736,-0.0528143,4958,4958,0
183204476,183204145,3670026,3670026,0.0008043124,-0.0006379615,-0.0010554247,0.0056437724,-0.0011149632,-0.046011046,4967,4967,0
183706177,183705802,3670026,3670026,1.41416385e-05,0.00015090655,0.00027932486,-0.0016751768,0.003319555,-0.04598775,4965,4965,0
184207817,184207461,3670026,3670026,-0.00017652843,0.00030369704,0.00015788908,-0.002639804,-0.0045583155,-0.04134966,4967,4967,0
184704497,184704153,3670026,3670026,-0.00012258111,0.00027191668,0.00059198466,0.002864547,0.017633406,-0.049942885,4966,4966,0
185206371,185206003,3670026,3670026,-0.0015619288,0.00074207527,0.0008569291,-0.014750135,-0.011804123,-0.055431,5001,5001,0
185702925,185702501,3670026,3670026,0.00053547556,-0.00283601,1.559408e-05,-0.004479419,-0.0036609592,-0.05633816,4967,4967,0
186204530,186204160,3670026,3670026,-0.00073802413,0.001892215,0.00016180509,-0.0032996137,0.010595365,-0.04770751,4958,4958,0
186706213,186705817,3670026,3670026,-0.00095222297,-0.0015955203,0.0009542329,-0.008214612,-0.0066605224,-0.052771647,4966,4966,0
187207853,187207476,3670026,3670026,-0.0012022424,0.004366845,0.0008966622,-0.008524463,0.004384708,-0.052092705,4966,4966,0
187704532,187704170,3670026,3670026,-0.00029847602,-0.00065046386,0.0003538081,-0.005190854,-0.008652401,-0.05208075,4973,4973,0
188206215,188205826,3670026,3670026,-0.0008211013,0.0020229185,7.6333185e-05,-0.009329344,-0.0024532366,-0.05383151,4950,4950,0
188708051,188707640,3670026,3670026,-0.00036831596,0.0012440619,0.0008339287,-0.005318064,-0.000370228,-0.050782785,4987,4987,0
189204556,189204174,3670026,3670026,-0.00082867616,-0.0030862421,0.0003047512,-0.00088655204,-0.009745988,-0.045599066,4966,4966,0
189706209,189705833,3670026,3670026,-0.00094772904,0.0016632113,8.310325e-05,-0.0023402763,-0.011534512,-0.050972108,4967,4967,0
190202858,190202535,3670026,3670026,-9.810678e-05,0.0031400602,-0.0016232101,-0.004018556,-0.006548416,-0.043790545,4960,4960,0
190704571,190704195,3670026,3670026,-0.0001094889,0.00011482098,-0.001875624,-0.006691921,-0.011164107,-0.039003234,4934,4934,0
191206262,191205840,3670026,3670026,-0.00070972776,0.0003487719,-0.0020369927,-0.001810781,0.0050911577,-0.054320272,4967,4967,0
191707841,191707498,3670026,3670026,0.0003474478,0.0031473555,-0.0011753944,0.0026978236,0.0072394735,-0.043240733,4960,4960,0
192204763,192204341,3670026,3670026,0.00031891817,-0.00066193345,-0.00035499065,-0.004623365,-0.012242158,-0.055818226,4990,4990,0
192706207,192705878,3670026,3670026,0.00013775841,-0.0035951175,8.560095e-05,0.0066446085,0.0065815807,-0.04428776,4985,4985,0
193202863,193202540,3670026,3670026,0.00040006352,0.004031498,-0.0002728115,0.0023978727,-0.002480948,-0.04805017,4967,4967,0
193704573,193704202,3670026,3670026,0.00022441492,-0.004709009,6.849951e-05,-0.001970728,-0.0119556105,-0.04665942,4971,4971,0
194206246,194205856,3670026,3670026,-0.00071784336,-0.0022891322,0.00095671223,0.001599927,0.01180554,-0.051025335,4965,4965,0
194707835,194707514,3670026,3670026,0.0002789879,0.0012036675,-0.0006261567,0.005625193,-0.0037330221,-0.04417792,4966,4966,0
195204550,195204206,3670026,3670026,0.0006397847,0.0005158143,-3.2904256e-05,0.0026568037,-0.0040267273,-0.04155925,4966,4966,0
195701470,195701147,3670026,3670026,-0.00022995319,0.0007050045,8.544299e-05,-0.0026672417,0.0031971408,-0.046390537,4993,4993,0
196202974,196202556,3670026,3670026,-0.00043574334,0.00067349686,0.00020934727,-0.0140978275,-0.0009785604,-0.05551962,4967,4967,0
196704634,196704214,3670026,3670026,-0.00031926608,0.002950885,-0.00066253264,-0.0015754116,-0.0024176864,-0.043468278,4967,4967,0
197206255,197205872,3670026,3670026,-2.426642e-05,0.0030246773,-1.3574788e-05,-0.005853764,0.0022598323,-0.044972364,4965,4965,0
197707919,197707531,3670026,3670026,-9.426751e-05,0.00081958086,0.000107362495,-0.0035821523,-0.009308279,-0.052692257,4968,4968,0
198204554,198204226,3670026,3670026,-0.00088785985,0.00080702733,0.00041744928,-0.008778485,-0.0093151,-0.050391827,4970,4970,0
198706276,198705881,3670026,3670026,-0.0026720832,0.0005956871,0.000804116,-0.011380831,-0.0045071216,-0.05708738,4965,4965,0
199207882,199207542,3670026,3670026,0.0027823986,-0.00047195813,-0.0008092435,0.008211855,-0.004223663,-0.0422381,4794,4794,0
199704614,199704244,3670026,3670026,0.0027184759,0.000554709,0.00074041216,-0.012572584,-0.0061608404,-0.05738378,4982,4982,0
200206222,200205889,3670026,3670026,-0.0029688366,0.0013048958,3.682276e-05,0.0030648739,0.011419928,-0.043966133,4967,4967,0
200703000,200702623,3670026,3670026,0.0037085651,-0.0018877672,0.0009902109,-0.008736703,-0.005077007,-0.05075657,5010,5010,0
201204612,201204284,3670026,3670026,0.0027049372,0.0015029408,-5.8312107e-05,0.0012545165,0.0044252025,-0.05718192,4994,4994,0
201706315,201705897,3670026,3670026,-0.0026161538,-0.0013010222,-0.00024941383,-0.00018441117,-0.011861444,-0.045954216,4967,4967,0
202207898,202207556,3670026,3670026,-0.0022237308,-0.0019905407,6.2453696e-06,-0.0010955468,-0.0017181431,-0.05347971,4968,4968,0
202704643,202704273,3670026,3670026,-0.000116738964,0.001271388,6.3645646e-05,-0.007649897,0.0038430279,-0.04951052,4806,4806,0
203206368,203205939,3670026,3670026,0.00081092666,0.0005681493,-0.0007980474,-0.0028406167,-0.02030362,-0.042296145,4987,4987,0
203702970,203702597,3670026,3670026,0.0003423308,-0.0007547541,-3.4566452e-05,0.0041744104,0.0074688317,-0.05121368,4967,4967,0
204204639,204204256,3670026,3670026,-0.0008182224,0.0019216429,0.0005937081,-0.006777452,-0.0013915182,-0.05689579,4967,4967,0
204706249,204705916,3670026,3670026,0.00023459746,-0.0036413455,0.00076539646,-0.00778864,0.00033345516,-0.055001624,4961,4961,0
205207941,205207612,3670026,3670026,-0.0006140225,0.0006980431,0.0003401122,-0.0056142774,-0.0067908587,-0.05415013,5007,5007,0
205704607,205704264,3670026,3670026,-0.0008563168,0.00015842526,0.0010291605,-0.0043699564,0.008744265,-0.055551257,4967,4967,0
206206283,206205929,3670026,3670026,0.00020135257,-0.0012769197,0.00038132045,-0.008787257,0.010823583,-0.058911197,4971,4971,0
206703069,206702695,3670026,3670026,0.00011559936,-0.0034807043,0.00026232743,-0.003835269,0.0048041274,-0.057683628,4936,4936,0
207204597,207204273,3670026,3670026,-0.0011206415,0.0013319066,0.0009775672,0.0052303863,0.008802676,-0.05209862,4967,4967,0
207706266,207705934,3670026,3670026,-0.0023658248,0.0025891268,0.00038815325,-0.000996563,-0.006360889,-0.052825697,4967,4967,0
208207965,208207590,3670026,3670026,-0.00040255714,0.0035969373,-0.00040537826,0.0019679696,-0.010274035,-0.053305924,4967,4967,0
208704611,208704286,3670026,3670026,0.00052764616,-0.0040241783,-7.112534e-05,0.004708156,0.00028339992,-0.04507238,4971,4971,0
209206385,209205943,3670026,3670026,0.00017531496,0.0038257872,1.3632282e-05,-0.009706058,-0.0032249503,-0.05523758,4936,4936,0
209707997,209707599,3670026,3670026,0.0011399481,-0.0023617365,0.00034331714,-0.01137929,-0.0166384,-0.054193743,4967,4967,0
210204719,210204348,3670026,3670026,0.0009127408,-0.0025691094,-0.00060741336,0.008849206,0.008996281,-0.044375226,4990,4990,0
210706343,210705956,3670026,3670026,0.00022774647,0.00111858,-0.00036506774,0.008389673,-0.004638492,-0.048211213,4974,4974,0
211202965,211202642,3670026,3670026,0.0017526316,0.00056583027,0.00046745426,-0.009526581,-0.008476119,-0.053970378,4968,4968,0
211704681,211704301,3670026,3670026,0.00031520415,0.002146037,-0.0007701821,0.0018078962,-0.012736104,-0.04823788,4923,4923,0
212206327,212205958,3670026,3670026,-0.0006043292,0.0025385646,0.0009434994,-0.011409191,0.003366809,-0.055436883,4964,4964,0
212708010,212707616,3670026,3670026,-0.0012697631,-0.0017430346,0.00020736041,0.001784886,-0.016506016,-0.04496729,4966,4966,0
213204659,213204308,3670026,3670026,-0.00070498494,0.00067384506,0.0010454113,0.00050150155,0.01239707,-0.05729772,4967,4967,0
213706418,213706040,3670026,3670026,0.00062053796,-0.00038041163,-0.00012090093,0.0048132087,-0.011229147,-0.041363213,4990,4990,0
214203072,214202658,3670026,3670026,0.00026975924,4.0475985e-05,-5.4747634e-06,0.008018502,-0.0023986134,-0.043854687,4957,4957,0
214704640,214704317,3670026,3670026,2.0845444e-05,-0.00015696727,-0.00039068446,-0.0037076054,-0.012729247,-0.053636637,4966,4966,0
215206356,215206026,3670026,3670026,0.00016222552,-0.00048880966,-0.0047765514,0.0002930793,-0.0049170023,-0.04533639,5017,5017,0
215708003,215707634,3670026,3670026,0.001283108,-0.00057618937,-0.0037008305,0.00458487,-0.013286054,-0.04193521,4967,4967,0
216204675,216204331,3670026,3670026,0.000866664,-0.00041254805,-0.0021186224,0.0039355895,-0.0044568516,-0.044180837,4972,4972,0
216701363,216701019,3670026,3670026,1.1887223e-05,-9.043733e-05,-0.00056871085,0.0044835266,-0.009076606,-0.04231715,4958,4958,0
217203142,217202817,3670026,3670026,0.00072332734,-0.00018196557,-0.000669642,-0.0030587676,-0.016396005,-0.051848922,5007,5007,0
217704708,217704336,3670026,3670026,0.0002692515,0.0018691842,-0.0002587533,0.008110353,0.008129696,-0.0446559,4967,4967,0
218206371,218205994,3670026,3670026,0.00043634977,0.0020373599,-0.0007864852,0.0006645737,-0.013719815,-0.049173772,4967,4967,0
218708076,218707654,3670026,3670026,-0.00030321698,0.0010496672,8.2106955e-05,-0.002424412,-0.009302732,-0.04251909,4968,4968,0
219204668,219204344,3670026,3670026,0.00017713435,-0.0021992365,-0.0003376748,-0.0073954915,-0.019269627,-0.042679746,4967,4967,0
219706354,219706003,3670026,3670026,0.000342381,0.00048623647,-0.00017480085,-0.0057483846,-0.012230962,-0.040640112,4966,4966,0
220208013,220207662,3670026,3670026,-0.00042166864,-0.00023339051,0.00012695372,0.006075778,0.0028788315,-0.051323008,4967,4967,0
220704862,220704458,3670026,3670026,0.0014750027,-0.002938748,0.0006137512,-0.013815449,-0.019386984,-0.05460519,4995,4995,0
221206365,221206041,3670026,3670026,0.0004495858,-0.0016943068,-0.00032384868,0.0014946028,-0.0031929524,-0.05361102,4984,4984,0
221703131,221702705,3670026,3670026,-0.000278223,0.0012560838,-0.00011124092,-0.006771494,-0.017069684,-0.04721459,4967,4967,0
222204738,222204369,3670026,3670026,0.00032271922,0.0012925809,0.00025763985,-0.0056586023,0.0026830111,-0.050422743,4973,4973,0
222706395,222706022,3670026,3670026,0.0008478443,0.00012359317,-0.0007148974,-0.001682968,-0.018288897,-0.048717204,4967,4967,0
223208074,223207681,3670026,3670026,-0.0007871229,-0.0021339015,0.00071479374,0.002252635,0.0028345326,-0.055895798,4967,4967,0
223704755,223704373,3670026,3670026,-0.0012145392,0.0045186286,-0.00017457543,0.0023216975,0.0003991603,-0.04027573,4967,4967,0
224206480,224206152,3670026,3670026,-0.00044895493,-0.00035434673,0.00022160729,0.0011355785,0.0056864885,-0.05841183,4987,4987,0
224703087,224702719,3670026,3670026,0.00012275213,-0.0039212187,0.00030757138,-0.006244813,-0.006025707,-0.054385703,4961,4961,0
225204857,225204383,3670026,3670026,0.00023994643,0.004764698,-0.0003321394,8.428554e-05,-0.0026478001,-0.054144952,4917,4917,0
225706408,225706041,3670026,3670026,0.0001771202,-0.00042839433,0.0004862348,-0.0069471714,-0.0013284306,-0.054524068,4965,4965,0
226208072,226207700,3670026,3670026,0.0002055881,0.000791241,-0.00014890108,0.003551533,0.014381784,-0.047775757,4967,4967,0
226704756,226704392,3670026,3670026,-9.306829e-05,1.1366429e-05,0.00018675288,-0.005669951,-0.0038039533,-0.05682336,4967,4967,0
227206402,227206051,3670026,3670026,0.003820195,-0.0011325824,-0.00060688553,0.006663835,0.004522237,-0.04636519,4967,4967,0
227703331,227702866,3670026,3670026,0.00042983578,0.0028430382,-0.00021492987,-0.002193449,-0.012762152,-0.053986467,4995,4995,0
228204746,228204422,3670026,3670026,-0.0010680703,0.0010689042,-0.00041159958,-0.0019003177,-0.013857807,-0.042260285,4987,4987,0
228706384,228706061,3670026,3670026,-0.0041366373,0.0009361827,0.00023370783,-0.0049570426,-0.0049304473,-0.048007995,4967,4967,0
229203123,229202755,3670026,3670026,0.004497171,-0.0010123389,0.00020747264,-0.0020157893,-0.0049120253,-0.056442246,4967,4967,0
229704797,229704412,3670026,3670026,-0.00049014826,-0.0014621882,-0.00046414102,0.0034990243,-0.018399203,-0.04094931,4966,4966,0
230206438,230206072,3670026,3670026,-0.0014615202,0.0001590376,-0.00035248845,-0.008913216,-0.02011485,-0.047370095,4968,4968,0
230703109,230702763,3670026,3670026,-0.0004310954,0.00055337715,-0.0021129784,-0.0010840282,-0.0027906382,-0.04775648,4966,4966,0
231204933,231204565,3670026,3670026,0.0026230887,-0.0005902214,-0.0019344803,-0.00843606,-0.00020525299,-0.05449683,4989,4989,0
231706497,231706126,3670026,3670026,-0.0005010422,0.00025208047,-0.0013230303,-0.0033762811,-0.011104623,-0.053713188,4993,4993,0
232203148,232202824,3670026,3670026,0.00021417224,-0.000113812785,-0.00055394246,-0.006988979,-0.023545377,-0.05577305,5015,5015,0
232704802,232704436,3670026,3670026,-0.0005075545,0.00020338304,0.00050153426,-5.6340123e-05,0.0026855776,-0.05532019,4971,4971,0
233206505,233206093,3670026,3670026,0.0005097353,-0.00034443042,-3.7161346e-05,-0.004880411,-0.014060915,-0.04986579,4968,4968,0
233708150,233707750,3670026,3670026,0.00028505008,-0.00030189968,-0.00039849602,-0.00051909796,0.001014789,-0.045960963,4946,4946,0
234204839,234204443,3670026,3670026,0.00087532867,-0.00010899643,-0.0008328513,0.0068462556,-0.00519367,-0.041971873,4967,4967,0
234706655,234706282,3670026,3670026,0.0006657845,-9.640936e-05,-0.00040479266,0.009823152,0.0028162543,-0.04550371,5006,5006,0
235203117,235202794,3670026,3670026,-5.7729616e-05,0.00019062629,5.1928528e-05,0.0018453579,0.004915874,-0.046498775,4967,4967,0
235704777,235704453,3670026,3670026,0.00021489932,-0.00015628475,-0.00023466766,0.0035154284,-0.005298049,-0.042519383,4967,4967,0
236206526,236206113,3670026,3670026,-0.0006841093,0.0003699259,0.00026517207,0.00049198064,0.017253093,-0.050198033,4955,4955,0
236708098,236707771,3670026,3670026,-0.000527534,0.00042271393,0.00013586709,0.0026202148,0.005237272,-0.05248365,4965,4965,0
237204865,237204466,3670026,3670026,-0.00046367687,6.530043e-05,7.6865326e-05,0.0010294787,-0.0053460463,-0.052272562,4969,4969,0
237706474,237706123,3670026,3670026,0.0009120797,-0.00035060375,-0.00038401695,0.007667777,-7.31237e-05,-0.04282067,4967,4967,0
238203413,238202990,3670026,3670026,0.003857053,-0.00060768996,-0.00011022917,-0.0012434873,-0.01814496,-0.046993125,4993,4993,0
238704879,238704475,3670026,3670026,-0.0034670993,-9.502377e-05,-0.0003304213,0.0033363379,-0.0076004863,-0.054060377,4967,4967,0
239206518,239206134,3670026,3670026,0.002334576,0.000787019,0.00018332902,-0.00024212066,0.008521632,-0.049820792,4966,4966,0
239708132,239707802,3670026,3670026,0.0010880381,-0.0015791397,-0.00046219557,0.006307117,-0.0119843595,-0.046872545,4976,4976,0
240204860,240204485,3670026,3670026,0.0014186166,0.0012050278,-0.0009315761,0.0071814433,-0.008140001,-0.041231956,4966,4966,0
240706474,240706148,3670026,3670026,0.0011521134,0.000430175,-0.00048043954,0.005274266,-0.0070350836,-0.045596547,4944,4944,0
241203237,241202837,3670026,3670026,-0.0007728127,0.00034318413,0.00059421454,-0.00487683,-0.006355411,-0.0550271,4919,4919,0
241705104,241704689,3670026,3670026,-0.00054551597,0.00085960166,0.00080650765,-0.0053396896,0.0090562,-0.056296602,4988,4988,0
242206597,242206232,3670026,3670026,0.00093209033,-0.0028850494,-0.00050366815,-0.0019404094,-0.0062283934,-0.04720545,5031,5031,0
242703239,242702848,3670026,3670026,-0.0012648111,0.0015353019,0.00034885175,-0.0014532212,0.0046743504,-0.0550402,4967,4967,0
243204879,243204507,3670026,3670026,-0.00062579307,-0.0005278756,0.00031068648,0.0047418256,0.011645774,-0.049984492,4967,4967,0
243706550,243706166,3670026,3670026,0.00011911481,0.00079147564,-0.00024254274,0.00918816,4.0702067e-05,-0.052721266,4966,4966,0
244208150,244207827,3670026,3670026,0.00021113605,-0.0032248667,-5.340177e-05,0.0010461438,0.0025253866,-0.046863686,4968,4968,0
244704862,244704518,3670026,3670026,-0.00038627,0.0026730408,-0.00013871687,0.0071314345,0.011088907,-0.045224063,4967,4967,0
245206576,245206177,3670026,3670026,0.0001797156,0.0011561719,-6.25438e-05,0.0034339058,-0.0036643096,-0.051972747,4772,4772,0
245703265,245702897,3670026,3670026,-0.00045261157,-0.0029747882,0.0005544276,3.7981645e-05,-0.0043585286,-0.05599166,4987,4987,0
246204852,246204529,3670026,3670026,-0.0001965764,-0.002084931,0.0010018614,-0.0022964063,-0.0028536818,-0.054513596,4967,4967,0
246706625,246706194,3670026,3670026,9.141819e-05,0.0010500741,-0.00020120814,0.0027661654,0.0054550683,-0.052358046,4972,4972,0
247208267,247207848,3670026,3670026,0.0023201315,0.0020405191,-0.0005927381,-0.0064355605,-0.01182675,-0.05459251,4959,4959,0
247704955,247704542,3670026,3670026,-0.0012525211,-1.9882884e-05,-0.0007333932,0.006834301,0.009878426,-0.043668784,4968,4968,0
248206550,248206200,3670026,3670026,-0.0017294937,-0.00061665644,0.00041146865,-0.001133921,0.0020642176,-0.049813878,4967,4967,0
248703276,248702928,3670026,3670026,-0.001186906,-0.0003396425,0.0008342968,-0.000616186,0.007990642,-0.052968666,4805,4805,0
249205032,249204604,3670026,3670026,-0.0012756777,0.0034421769,-0.0005288824,0.0065075937,0.004366642,-0.051861517,4994,4994,0
249706586,249706215,3670026,3670026,-0.001360781,0.0017278808,-0.0003038713,0.0047909487,-7.3378316e-05,-0.0485017,4970,4970,0
250203282,250202906,3670026,3670026,0.00016563035,0.00040447275,-4.442942e-05,0.0023987256,-0.0004956973,-0.048137926,4968,4968,0
250704887,250704563,3670026,3670026,-0.00080465124,0.0033464974,0.00031244475,-0.008350727,0.0013606595,-0.056044705,4967,4967,0
251206547,251206223,3670026,3670026,0.0031830757,-0.0036691767,-0.00013221124,-0.00022466244,-0.010682136,-0.04523678,4966,4966,0
251703361,251702915,3670026,3670026,0.0008640701,0.0014708898,0.0002447791,-0.005437329,-0.007801468,-0.042980827,4967,4967,0
252204917,252204575,3670026,3670026,0.00085828174,0.0006540814,-0.00037386117,-0.006150763,-0.004363894,-0.051324144,4967,4967,0
252706719,252706306,3670026,3670026,-0.00097323395,0.0034365435,-0.00010178408,-0.0068893917,-0.00987198,-0.053694494,4992,4992,0
253203313,253202942,3670026,3670026,1.2644369e-05,0.0023111368,-0.00048952264,0.006937708,0.005030967,-0.04365466,4933,4933,0
253704914,253704587,3670026,3670026,-0.0045595076,0.0006435163,-7.307407e-05,0.0035317692,0.010393454,-0.0506298,4967,4967,0
254206567,254206246,3670026,3670026,0.0033617893,0.0003985626,0.00040423858,-0.004831872,0.004741741,-0.0553557,4961,4961,0
254708233,254707907,3670026,3670026,-0.0027047044,-0.0015904243,0.0004165375,-0.004116582,-0.007812529,-0.050528333,4969,4969,0
255204986,255204598,3670026,3670026,-0.00027096664,-0.0029407183,0.00027164054,0.010311898,0.013102039,-0.04892691,4962,4962,0
255706617,255706262,3670026,3670026,-0.00022131724,-0.0015982732,0.0003825017,-6.406571e-05,-0.0034943235,-0.05533491,4971,4971,0
256203442,256203019,3670026,3670026,0.0020434556,0.0009645016,0.00021316411,-0.0013822532,0.0036360684,-0.047042627,4985,4985,0
256705028,256704660,3670026,3670026,0.0029981213,0.0016213662,-0.0009178583,0.012476246,0.0025345597,-0.042962193,5017,5017,0
257206690,257206270,3670026,3670026,-0.0014201801,0.0038685165,9.227961e-05,-0.00941165,-0.013064167,-0.052769117,4967,4967,0
257708367,257707930,3670026,3670026,0.00025185826,-0.0032068144,9.4273564e-05,-0.0052776835,-0.00738552,-0.05288973,4968,4968,0
258204998,258204622,3670026,3670026,0.0006755213,-0.0004610118,-0.0004970248,0.0077131907,-0.00030635984,-0.043474205,4967,4967,0
258701664,258701315,3670026,3670026,-0.00028655157,0.00021083417,0.0008901356,-0.002951554,0.00071686687,-0.049229946,4967,4967,0
259203329,259202974,3670026,3670026,-0.00040575117,0.00027762135,0.0013128112,-0.0020239453,0.0013643482,-0.051345516,4967,4967,0
259705059,259704736,3670026,3670026,-0.00039293966,0.00014047133,0.0010147649,-0.0054482166,-0.016054545,-0.04963092,4938,4938,0
260206628,260206303,3670026,3670026,0.0010199099,-0.0004370236,-1.0463575e-05,0.01033877,0.0051809414,-0.041833267,4931,4931,0
260703316,260702986,3670026,3670026,0.0003214193,-5.820503e-05,-6.5425345e-05,0.0029249939,0.0007805081,-0.041796323,4967,4967,0
261204974,261204646,3670026,3670026,0.00047280945,-0.00015136147,-0.0013437994,0.009768194,0.007981732,-0.047028847,4967,4967,0
263703393,263703011,3670026,3670026,0.0010272672,-0.0039198366,-0.0004119335,0.0068541635,-0.009073224,-0.042444125,4966,4966,0
265208370,265207990,3670026,3670026,-0.00010689005,0.003226869,-0.0005765637,0.0072801765,0.0055849683,-0.04438614,4966,4966,0
265705064,265704683,3670026,3670026,0.00042784703,0.00034640296,-0.00014976588,0.005644328,0.0019808693,-0.044787686,4967,4967,0
266201721,266201376,3670026,3670026,-0.00044025155,0.0020805479,0.00022561813,-0.007975922,0.004074157,-0.04871497,4967,4967,0
266703581,266703152,3670026,3670026,0.00027399964,-0.00329884,0.0007039805,-0.00050568586,0.012475126,-0.048623033,4990,4990,0
267205025,267204698,3670026,3670026,0.0005355607,-0.0004709973,-0.00032128455,-0.00039659019,-0.0033127451,-0.04511829,4968,4968,0
267706731,267706355,3670026,3670026,0.0009022395,0.0021924064,-0.00039325174,0.008502612,0.00034020885,-0.0435517,4966,4966,0
268208392,268208016,3670026,3670026,-0.0004662702,0.0029051185,0.00049281446,-0.009828425,0.00047588174,-0.054304082,4968,4968,0
268705079,268704708,3670026,3670026,-0.00017250326,-0.00076979335,0.00037709766,-0.0025343082,0.0027766656,-0.05151254,4967,4967,0
269206771,269206368,3670026,3670026,-0.00025047915,-0.0006851788,0.00039449002,-0.0033770106,-0.014837297,-0.04749235,4967,4967,0
269703407,269703061,3670026,3670026,4.3900174e-05,-0.00025694366,-4.4052023e-05,-0.0009675378,0.00261073,-0.055922512,4966,4966,0
270205235,270204862,3670026,3670026,0.0005103166,-0.0008932284,-0.00090635155,0.008648954,-0.0111953365,-0.044913456,4986,4986,0
270706792,270706381,3670026,3670026,0.0009188536,-0.0037129906,3.8408805e-05,-0.0024230618,-0.004000562,-0.043948893,4967,4967,0
271203444,271203074,3670026,3670026,0.00064574444,-0.0013091442,-0.00040240306,0.0014371038,-0.001248695,-0.043989222,4967,4967,0
271705172,271704745,3670026,3670026,-0.0005207896,0.0005211839,0.00017347684,0.004694655,0.003601628,-0.056462027,4978,4978,0
272206716,272206395,3670026,3670026,-0.0006120646,0.002316786,-0.00027057316,0.00071248563,-0.004274583,-0.04283763,4968,4968,0
272703443,272703087,3670026,3670026,-0.00038930154,0.00063373864,-4.447185e-05,0.005527721,0.0015630126,-0.053818177,4967,4967,0
273205135,273204747,3670026,3670026,-0.0001472753,0.00177469,-5.0463317e-05,0.0060626077,0.0037933022,-0.051137656,4967,4967,0
273707002,273706586,3670026,3670026,0.00059740536,4.2233863e-05,-0.0002143985,-0.007251815,-0.013109392,-0.042338286,5000,5000,0
274203514,274203100,3670026,3670026,0.00038739038,-0.0011358833,0.00034065952,-0.000755056,-0.005082782,-0.055235654,4962,4962,0
274705145,274704760,3670026,3670026,0.00013189884,-0.0026043858,-0.00030412673,0.0066566593,-0.008194028,-0.04382671,4967,4967,0
275206778,275206453,3670026,3670026,-6.296293e-05,0.0035032465,0.000103097984,0.0015288389,-0.009041752,-0.042666607,5000,5000,0
275708452,275708081,3670026,3670026,0.0003039703,-0.0012905431,-0.00017455767,0.006855126,-0.010300559,-0.048517313,4965,4965,0
276205098,276204774,3670026,3670026,0.0009818922,-0.0034881532,-0.00024793672,0.0015413617,-0.014056194,-0.043254096,4967,4967,0
276701855,276701467,3670026,3670026,-0.0006572198,-0.0009736491,0.0006392975,-7.4017145e-05,0.010705417,-0.051335834,4967,4967,0
277203662,277203293,3670026,3670026,-0.0004067048,0.0010050837,-7.8057485e-05,0.004903366,0.0057432353,-0.056388903,4979,4979,0
277705163,277704840,3670026,3670026,-0.0008167434,-0.0035350663,-0.0005690497,0.0035090358,0.001995486,-0.046144314,4989,4989,0
278206807,278206481,3670026,3670026,-0.0027717827,-0.0013225155,0.0003056214,0.00089181314,0.0021893615,-0.048392225,4983,4983,0
278708456,278708123,3670026,3670026,-0.00096935517,-0.0003188555,-0.000278339,0.0006757244,0.004337717,-0.044825263,4944,4944,0
279205123,279204802,3670026,3670026,-0.0034721955,-2.1729209e-05,0.0006281148,0.0001888131,0.006134278,-0.050257917,4966,4966,0
279701817,279701495,3670026,3670026,0.00012743249,7.372271e-05,0.000107620246,0.007708153,-0.002591422,-0.041413736,4968,4968,0
280203545,280203155,3670026,3670026,0.00032319533,-0.00023346188,-0.00017349684,0.007112469,-0.0047227736,-0.041503992,4966,4966,0
280705435,280705021,3670026,3670026,-0.00080294895,0.0003978019,0.0010571465,-0.0043689767,-0.00082626933,-0.05224186,4997,4997,0
281206880,281206505,3670026,3670026,-2.0732288e-05,-5.817856e-05,0.00015194983,-0.0075832754,-0.017211633,-0.052230228,4990,4990,0
281703584,281703169,3670026,3670026,0.00050485396,-0.000114618604,-0.0006001307,0.0014763155,0.000926424,-0.051186185,4967,4967,0
282205275,282204838,3670026,3670026,8.9555295e-05,2.2105109e-05,-0.00020585798,-0.0052685905,-0.014849951,-0.053998493,4976,4976,0
282706907,282706491,3670026,3670026,8.887778e-06,0.00018143568,0.00037067142,-0.00090075127,-0.0003011487,-0.050560333,4968,4968,0
283208482,283208152,3670026,3670026,0.0005259117,-0.00022008625,-0.0004599986,0.0062252223,-0.008513634,-0.041903418,4969,4969,0
283705192,283704843,3670026,3670026,-6.5999893e-06,6.776515e-05,0.00077103166,-0.009422727,-0.005160959,-0.057751115,4966,4966,0
284206850,284206504,3670026,3670026,-0.00043491364,-1.659833e-05,-0.000100437755,0.0028240373,0.0055873585,-0.04210627,4964,4964,0
284703550,284703226,3670026,3670026,-0.0005342908,0.00018037316,-0.0001831109,-0.0010946828,-0.006968918,-0.052142948,4972,4972,0
285205181,285204858,3670026,3670026,0.0003264993,-5.0362833e-05,8.1378974e-05,-0.0024945033,-0.004384298,-0.049497634,4967,4967,0
285706846,285706520,3670026,3670026,-0.00029067014,0.00018857069,0.0004913678,-0.0026831182,-0.011900701,-0.044642787,4967,4967,0
286208606,286208234,3670026,3670026,-0.0010607581,0.00021893953,-3.6224792e-05,0.0077297664,0.006195234,-0.043351676,4999,4999,0
286705206,286704872,3670026,3670026,0.00054490636,0.0021242376,-0.0012009077,0.0065946523,-0.0071952953,-0.0457242,4965,4965,0
287201967,287201566,3670026,3670026,2.8449205e-05,-0.0014673334,-0.0004137878,0.005508948,0.009661002,-0.042783637,4967,4967,0
287703572,287703227,3670026,3670026,-0.00025403174,-0.00019579586,8.1551116e-05,0.0025096338,0.018764572,-0.05245981,4965,4965,0
288205369,288205044,3670026,3670026,-0.00016454728,0.00015983196,0.00047642484,-0.0025399267,0.0038023067,-0.047714073,4986,4986,0
288706916,288706550,3670026,3670026,-3.640114e-05,0.00013103944,0.00070002035,-0.01347105,-0.011290717,-0.054937553,4930,4930,0
289203610,289203241,3670026,3670026,-0.00039351822,0.00022665464,0.00018321618,-0.00059403945,0.0008151531,-0.050223533,4967,4967,0
289705299,289704918,3670026,3670026,-0.0003276932,-0.00066001795,3.739544e-05,0.0029441214,0.007872086,-0.05204519,4981,4981,0
290202011,290201595,3670026,3670026,0.00033908908,-0.00016166994,-7.153306e-05,-0.003367985,-0.0030475976,-0.047615618,4967,4967,0
290703603,290703256,3670026,3670026,-0.0010385535,-4.8395536e-06,0.00039406918,-0.00389426,0.0044653793,-0.0533769,4965,4965,0
291205263,291204916,3670026,3670026,-0.00036347943,0.000107086795,8.4720115e-05,0.0032185807,0.0073894244,-0.042995133,4967,4967,0
291707105,291706650,3670026,3670026,0.00079620956,-0.0006673397,-0.00051143504,0.011271895,-0.006452378,-0.043665078,4990,4990,0
292203662,292203296,3670026,3670026,0.0012121947,-0.00084143644,-0.00063223805,0.0095865335,-0.0047227982,-0.043959193,4988,4988,0
292705366,292704933,3670026,3670026,-0.0012548943,0.0022957136,-0.00014653607,0.0023064858,0.0039577545,0.0046849228,4969,4969,0
293206916,293206592,3670026,3670026,-0.0029507717,0.0037212514,0.00065372064,0.0067518195,0.023968067,-0.030594924,4964,4964,0
293703613,293703287,3670026,3670026,0.00063401635,-0.00047060513,-0.0009774877,-0.009092903,0.0028637752,-0.04654957,4968,4968,0
294205293,294204947,3670026,3670026,-0.00017030085,0.00044744203,-0.0007543269,0.0016633527,0.00042165947,-0.041676134,4965,4965,0
294706954,294706607,3670026,3670026,7.0514354e-05,0.000326688,9.2586015e-05,0.00035794431,-0.0027111464,-0.04681723,4967,4967,0
295203703,295203381,3670026,3670026,0.00014349777,6.800532e-05,0.00015079747,-0.00045777226,-0.0012448998,-0.04804387,4991,4991,0
