timestamp,timestamp_sample,xyz[0],xyz[1],xyz[2]
66704948,66704714,-0.00052827696,-0.0015908103,-0.033010848
66706210,66705971,-0.0060266615,-0.0051216176,-0.032267295
66727307,66727065,-0.0027550643,-0.017042179,0.011416328
66747170,66746934,-0.002229854,0.009270587,0.03628281
66765793,66765558,-0.01123571,-0.0005577284,0.025691787
66785655,66785424,0.00096654147,-0.008809208,0.01089613
66806765,66806533,0.011891743,-0.029481083,-0.06187166
66827866,66827642,-0.038807273,-0.003032006,0.007432931
66845389,66845158,0.06311628,-0.017211813,-0.0044139484
66866534,66866307,-0.06608811,0.03185469,0.031232668
66887470,66887244,0.027006624,-0.021887245,0.006785497
66904863,66904627,-0.020298928,0.009510673,-0.0077353795
66925967,66925738,0.010209669,0.045508966,0.03181706
66947071,66946846,-0.05677279,-0.07320203,-0.0686707
66968186,66967957,0.09536353,0.006069432,0.0044157305
66985571,66985344,-0.06759699,0.00762616,0.04267578
67006673,67006449,-0.035130113,-0.023662202,-0.021332156
67027833,67027606,0.039919276,0.010604817,-0.04793065
67045167,67044941,0.0020777588,-0.022483306,0.04167319
67066312,67066088,-0.06821293,-0.00531884,-0.0055640247
67087385,67087160,0.008204782,0.064729095,-0.027819723
67108548,67108313,0.059499968,0.005181563,-0.0013149608
67125995,67125771,-0.049693346,-0.07699203,0.0056048003
67146986,67146761,-0.025993412,0.07333769,-0.0058769197
67168102,67167871,0.031811453,0.11071829,0.004490936
67185479,67185254,-0.0030711077,-0.12615609,-0.005857158
67206588,67206363,-0.055906523,-0.07931942,-0.041955683
67227702,67227472,0.021503013,0.1448506,0.0055427696
67247567,67247339,0.049878415,0.10875716,0.05556358
67266198,67265965,-0.05896465,-0.18800347,-0.020245926
67286066,67285832,-0.02817363,-0.03134023,-0.06926246
67307210,67306975,0.08484216,0.1957188,0.009260625
67325816,67325588,0.01679246,0.011304563,0.057557106
67345657,67345434,-0.1066122,-0.20335935,-0.025202837
67366778,67366545,-0.04946556,-0.060735855,-0.07596492
67387973,67387745,0.083041966,0.15346436,-0.029701913
67405441,67405210,0.058244105,0.0073019504,0.08303935
67426379,67426146,-0.1141565,-0.15142144,0.020344606
67447481,67447254,-0.14609744,-0.09487342,-0.09566059
67468589,67468363,0.01566889,0.07572648,-0.07711328
67485984,67485747,0.1619015,0.052378144,0.09594539
67507093,67506862,-0.040468488,-0.06545082,0.06624724
67528198,67527968,-0.18129233,-0.08643694,-0.052301973
67545585,67545354,0.055500496,0.06916972,-0.046026435
67566686,67566458,0.17324737,0.042010065,0.059223957
67587794,67587567,0.07463509,-0.032116104,0.07298101
67605184,67604951,-0.15383087,-0.020168837,-0.05945786
67626288,67626062,-0.049752306,0.05382929,-0.07159637
67647512,67647287,0.08878983,0.041498564,0.00020085645
67668647,67668420,0.08233266,-0.05630962,0.053723786
67685889,67685663,-0.08484019,-0.013422944,0.0003455154
67707001,67706772,-0.05147409,0.09136871,-0.0354627
67728106,67727881,0.03377239,0.073646605,-0.022195859
67745492,67745264,0.01738834,-0.13895,0.016062666
67766600,67766373,-0.03793959,-0.071596965,-0.0015028225
67787712,67787484,-0.014640163,0.120904304,-0.0096057
67808824,67808591,0.042129263,0.15864748,0.0023791564
67826202,67825975,-0.009534432,-0.12983605,0.017347794
67847310,67847084,-0.05637825,-0.1609817,-0.009381274
67867180,67866953,-0.008016976,0.0787528,-0.03416851
67885817,67885589,0.061800726,0.13249815,0.01833975
67905734,67905508,0.006479318,-0.06731911,0.038838826
67926875,67926651,-0.07458825,-0.15462467,0.0071723773
67948117,67947889,-0.06077516,-0.0662768,-0.05039675
67965277,67965047,0.07693341,0.13280627,-0.009126471
67986393,67986169,0.07582619,0.052646857,0.048093062
68007493,68007265,-0.031006293,-0.07248114,0.047155946
68028600,68028375,-0.12466359,-0.12911153,-0.011705995
68045989,68045758,0.053512745,0.09436646,-0.048832864
68067099,68066867,0.1364623,0.11375015,0.018145679
68088228,68087993,0.07965256,0.0027461746,0.062156368
68105582,68105360,-0.15515551,-0.10835807,-0.029177723
68126707,68126469,-0.06590722,0.018190973,-0.07131896
68147806,68147578,0.10180891,0.10641693,-0.025674984
68165231,68164995,0.05889522,-0.039558176,0.06127119
68186352,68186123,-0.10031531,-0.09534876,0.035198182
68207601,68207375,-0.14181992,-0.02942378,-0.049618322
68228514,68228289,-0.023468502,0.07946871,-0.065711915
68245903,68245673,0.12293567,-0.0034905535,0.035925407
68267021,68266783,0.022026308,-0.09340694,0.06619926
68288119,68287891,-0.11107536,-0.0706966,0.007976408
68305506,68305276,-0.020331623,0.09569571,-0.050267465
68326627,68326403,0.09655497,0.06027667,-0.0047346675
68347717,68347493,0.08532754,-0.05687396,0.031312194
68368830,68368602,-0.021374898,-0.104981385,0.033183374
68386229,68385994,-0.07080871,0.056966152,-0.034981422
68407325,68407095,0.039170984,0.12706822,-0.017595433
68427195,68426962,0.090108,0.009334499,0.01275966
68448378,68448156,0.020605927,-0.100502044,0.021010615
68465787,68465561,-0.0756295,0.0003134823,-0.026939759
68486791,68486567,-0.013326873,0.123076774,-0.026344674
68507904,68507673,0.055109054,0.12723713,-0.01577088
68525282,68525058,0.040112723,-0.11040402,0.026377305
68546393,68546166,-0.031011568,-0.15010563,0.028151186
68567540,68567314,-0.09452979,-0.08853676,0.0129134115
68584890,68584660,-0.042639107,0.13492946,-0.02575301
68606015,68605789,0.026256125,0.14406908,-0.0348803
68627101,68626878,0.08379318,0.098655194,-0.043827362
68649464,68649233,0.07921141,0.10185713,-0.04745195
68665598,68665371,0.09185571,-0.037846863,-0.08767455
68686720,68686497,0.13121176,0.040165357,-0.070487514
68707882,68707653,0.061289255,0.11014811,-0.075418405
68729005,68728775,-0.09728435,0.020644305,-0.1054259
68746452,68746230,-0.020628292,0.051180612,-0.100037575
68767426,68767195,0.04293521,-0.117589995,-0.10969707
68788525,68788300,0.0770425,0.07438251,-0.008993052
68805917,68805684,0.12750955,0.0845621,0.049781036
68827027,68826793,-0.02842625,-0.048793357,-0.008482603
68848133,68847906,0.03390658,-0.06492773,-0.0032163425
68865513,68865286,0.06489393,-0.034229457,0.0157499
68886628,68886395,-0.124715365,0.04215529,0.016330542
68907736,68907504,0.028958319,-0.06786872,0.0019211118
68927628,68927403,0.028098712,0.001305252,0.022342622
68946235,68945997,-0.04917968,0.0143464515,0.0046865204
68967338,68967106,0.008800434,-0.039732665,-0.012835393
68987234,68986998,-0.052908197,-0.017714558,-0.05253078
69008433,69008205,0.018299801,0.029491527,-0.022887446
69025699,69025466,0.032774758,0.02827248,0.01083448
69046806,69046576,0.029396359,-0.014611381,0.0003670049
69067916,69067684,0.034421552,0.11548937,0.052169587
69085292,69085064,0.0013670415,0.069151685,0.021502485
69106411,69106177,0.05418057,-0.054195005,-0.066982925
69127512,69127286,0.031902246,0.1558199,0.0040179514
69148622,69148396,0.06964685,-0.07090668,-0.047674276
69166043,69165819,0.086187944,0.04467839,-0.007982317
69187115,69186890,0.020519037,0.119013645,0.026178136
69208229,69207998,0.09535759,-0.02352562,-0.046793725
69225612,69225381,0.07202134,0.103745595,-0.02063338
69246714,69246490,0.017612,-0.01456605,-0.05593723
69267966,69267735,0.021353949,0.047877703,-0.020786539
69285363,69285137,0.10698,0.0824803,0.06373753
69306319,69306092,-0.075422525,-0.03341534,-0.034243535
69327426,69327202,0.0072727124,-0.02525295,-0.0039362214
69348540,69348311,-0.0019832593,0.0939005,0.056511138
69365922,69365695,-0.06150345,0.032105517,0.03384721
69387031,69386808,-0.046777166,-0.11720109,-0.04660225
69408147,69407913,0.04717216,0.07366007,0.06443556
69429259,69429022,-0.042881373,-0.08268759,-0.06076945
69446644,69446412,-0.059870843,-0.06326376,-0.02040225
69467804,69467573,0.019285964,0.022444287,0.02639263
69488853,69488625,0.004515137,-0.05623354,0.033170957
69506235,69506007,-0.030810645,-0.10463069,-0.02621264
69526173,69525947,-0.041338984,0.066237435,0.023566647
69547339,69547107,0.004819714,-0.09138882,-0.030703254
69568323,69568093,-0.042042404,0.03319888,0.030043382
69585703,69585477,-0.008291524,-0.039742373,0.012977499
69606827,69606593,-0.07042453,0.009955082,0.0030609705
69627922,69627695,0.022163667,-0.07087682,-0.01574618
69645345,69645121,-0.028674288,0.014471237,-0.021054257
69666423,69666193,0.0006809449,-0.023923906,-0.019897772
69687525,69687298,-0.0112138605,0.028167091,0.014112539
69704906,69704681,0.020453738,-0.003095986,0.022731468
69726020,69725790,-0.03719152,0.025955576,0.006461775
69747160,69746932,-0.00793595,-0.021476226,-0.0032545861
69768238,69768009,-0.002480128,-0.033638123,0.0100457845
69785661,69785433,0.019259704,-0.041626617,-0.0014767288
69806806,69806580,-0.020253554,-0.02357494,-0.016451282
69828023,69827797,-0.055687897,-0.014742333,-0.029157262
69845230,69844994,-0.038067598,-0.049135003,0.0056600254
69866336,69866104,-0.00082825264,-0.03544769,-0.008698277
69887442,69887213,-0.038876716,0.0040740166,0.0055687358
69904826,69904596,-0.03156873,-0.06012159,-0.0398969
69925942,69925706,0.027707579,-0.009763405,-0.000889223
69947038,69946815,-0.0354727,0.012128975,0.00231847
69968150,69967923,-0.0046892976,0.004150501,-0.0022416054
69989269,69989032,0.029169152,-0.016784398,0.0012843425
70006644,70006417,0.03814732,0.021744821,0.013073907
70027759,70027526,-0.03757649,-0.012312299,-0.0030471145
70047630,70047405,0.021571653,-0.011726586,-0.00955424
70066299,70066061,0.04681025,0.0205947,-0.015872678
70086250,70086024,-0.018865816,0.033547983,-0.0125731025
70107266,70107042,-0.005609773,0.0322214,-0.015852904
70128333,70128104,0.006320573,0.039122645,-0.025701847
70145746,70145522,0.06787366,0.038761795,-0.021839138
70166823,70166598,0.019103784,0.008330859,-0.027260134
70187943,70187706,0.062400147,0.045005415,-0.015309237
70205317,70205090,0.052671723,0.05825104,-0.02231382
70226427,70226200,0.032355215,0.053627197,-0.038531348
70247537,70247308,0.13920704,0.053416856,-0.040030304
70264917,70264692,0.13582593,0.057709087,-0.063226074
70286026,70285801,0.09542973,0.085669294,-0.05800122
70307141,70306910,0.12408392,0.11543097,-0.03656327
70328311,70328084,0.096520506,0.121038064,-0.030823587
70345775,70345539,0.096885845,0.11544359,-0.010255681
70366975,70366746,0.10332009,0.06924045,-0.022879386
70387854,70387622,0.12956257,0.07703849,-0.024085853
70408960,70408731,0.087778166,0.11420603,-0.0020969897
70426347,70426114,0.009776857,0.075410455,-0.029514344
70447452,70447223,-0.02246963,0.052281637,-4.8501915e-05
70468563,70468333,0.06377651,0.027287144,0.03468564
70485947,70485716,0.012872114,-0.0021352621,0.0747648
70507052,70506826,0.021183051,-0.011155397,0.10932075
70528158,70527936,-0.025555935,-0.03598925,0.1139436
70545548,70545319,-0.10243921,0.039845552,0.1352491
70566655,70566428,-0.18878396,0.06303302,0.15529011
70587815,70587587,-0.2705999,0.096799254,0.17462645
70607735,70607510,-0.20775428,0.086983204,0.15603517
70625158,70624924,-0.17446716,-0.009576645,0.1363044
70646124,70645897,-0.12561749,-0.015529083,0.13099763
70667236,70667006,-0.14540319,-0.019972479,0.13731639
70688338,70688115,-0.2933953,0.041246276,0.12460889
70705721,70705496,-0.22653762,0.022700537,0.12797765
70726832,70726608,-0.27915904,0.04622231,0.12162973
70747945,70747717,-0.23171344,-0.04518273,0.11781444
70765337,70765102,-0.105644874,-0.07715291,0.07842421
70786438,70786210,-0.046923034,-0.1366926,0.07630887
70807542,70807319,0.00083519344,-0.18123503,0.08397837
70824929,70824703,-0.049074296,-0.18082166,0.06882417
70846043,70845812,-0.10414702,-0.23769401,0.075835176
70867205,70866977,-0.15264316,-0.27564213,0.052921206
70888362,70888134,-0.087204896,-0.2584189,0.035555113
70905832,70905607,-0.11389926,-0.20742613,0.0036757626
70926751,70926523,-0.0746927,-0.19235234,-0.0188508
70947863,70947632,0.0013283305,-0.18278658,-0.017624017
70968976,70968745,-0.06688845,-0.21357217,-0.03431836
70986350,70986125,-0.067132935,-0.12933505,-0.0030153708
71007464,71007235,-0.034464173,-0.088474035,-0.015075384
71028577,71028344,-0.0009983255,-0.079982266,-0.016366139
71045954,71045727,0.014869092,-0.096436344,-0.0117429
71067073,71066843,0.008358251,-0.11866488,-0.020666163
71088177,71087946,0.078884326,-0.1915464,-0.02193581
71105555,71105330,0.16873084,-0.18686114,-0.043872926
71126683,71126455,0.17702562,-0.17148179,-0.07642088
71146602,71146372,0.27386686,-0.15553778,-0.09933537
71167816,71167588,0.25366345,-0.06779825,-0.08554633
71186279,71186040,0.3234205,-0.018536672,-0.10107617
71206139,71205909,0.29330164,0.05247142,-0.12626833
71227253,71227018,0.35785913,0.0974667,-0.109141074
71248369,71248143,0.40326345,0.035566572,-0.08060494
71265739,71265510,0.48867807,-0.0077302204,-0.09556312
71286855,71286623,0.42951313,-0.008868421,-0.10956455
71307956,71307728,0.5476466,-0.039658662,-0.06871761
71325348,71325117,0.5182918,0.00020421676,-0.10168722
71346452,71346222,0.4267938,0.008589288,-0.0970615
71367554,71367330,0.26717633,-0.011129614,-0.0847273
71388664,71388439,0.103802145,-0.0025435137,-0.04726409
71406114,71405884,0.10223007,-0.030581588,-0.059978817
71427264,71427040,0.15815777,-0.049005143,-0.052541383
71448276,71448049,0.14376624,-0.08089288,-0.08191834
71465654,71465425,0.17410962,-0.0020997538,-0.048599277
71486764,71486538,0.17232811,-0.048968554,-0.07043916
71507869,71507644,0.19003578,-0.0089706825,-0.0643021
71525264,71525032,0.133343,0.019014405,-0.063175276
71546362,71546136,0.095490575,0.010031634,-0.06893837
71567471,71567246,0.1520162,-0.0065370575,-0.061301436
71588582,71588354,0.22880976,-0.07917432,-0.029289704
71605965,71605740,0.26947176,-0.103347234,-0.035195053
71627073,71626848,0.25617278,-0.09263651,-0.031901352
71648192,71647957,0.26374343,-0.04988592,-0.017651187
71665581,71665353,0.2181748,-0.06563568,-0.0013032317
71686744,71686514,0.15959884,-0.020164475,-0.01716757
71706710,71706479,0.11308567,0.036431566,-0.020809906
71727656,71727426,0.0678365,0.045924015,-0.030591361
71746301,71746067,0.007992538,0.032643944,-0.023831155
71766143,71765919,-0.031734917,0.040201124,-0.016625468
71787259,71787028,-0.023456674,0.01665358,-0.04335741
71808365,71808137,0.035868816,-0.019580146,-0.02707039
71825748,71825522,0.054538917,-0.060713273,-0.022953939
71846888,71846656,0.046419844,-0.12149897,-0.03533302
71867967,71867739,-0.00013658118,-0.13702972,-0.010690616
71885356,71885124,-0.09477082,-0.10703728,-0.0022659616
71906466,71906233,-0.15185873,-0.047556847,-0.0031433604
71927569,71927341,-0.16741116,-0.042263664,0.002185091
71948820,71948593,-0.10457068,-0.057447784,0.006827466
71966176,71965948,-0.089138635,0.017508812,-0.0035050327
71987169,71986943,-0.09443469,0.036146335,0.0014659517
72008277,72008052,-0.015214164,-0.002405407,0.021687496
72025668,72025436,-0.021026338,0.013572761,0.012728094
72046778,72046546,-0.064857736,0.010743867,0.0011384579
72067884,72067657,-0.05526605,-0.035080936,0.005447416
72085278,72085040,-0.11319624,-0.017655164,0.013531719
72106379,72106149,-0.1617241,-0.020050507,0.005759122
72127480,72127257,-0.16614567,0.029105663,0.021359222
72144870,72144642,-0.19102465,0.047238868,0.01149716
72165985,72165753,-0.21174775,0.06302772,0.014746589
72187084,72186859,-0.2843422,0.08791779,0.028021812
72208255,72208022,-0.32356283,0.11342783,0.054961726
72225666,72225435,-0.36419305,0.14708972,0.038589954
72245632,72245400,-0.49719304,0.1976904,0.028680636
72266569,72266328,-0.5681903,0.25604042,0.04945326
72287666,72287437,-0.5620003,0.29790232,0.06131886
72306329,72306098,-0.5341831,0.3040316,0.05759695
72326161,72325932,-0.47190875,0.2843976,0.052564725
72347270,72347039,-0.42838344,0.23890796,0.057093125
72368382,72368149,-0.33514434,0.16865034,0.05943542
72385761,72385534,-0.27298564,0.13309747,0.040676866
72406866,72406641,-0.19627342,0.0944983,0.044103768
72427983,72427753,-0.1695427,0.059131414,0.051254615
72445402,72445177,-0.123375386,0.042812876,0.04076492
72466486,72466251,-0.09758221,0.018525336,0.050082132
72487628,72487396,-0.1060362,0.015595475,0.059652623
72505087,72504862,-0.060072087,0.034091316,0.073927775
72526074,72525845,-0.06846282,0.038823556,0.0680849
72547184,72546956,-0.070431985,0.028621817,0.062541515
72568293,72568064,-0.06154156,0.042385537,0.06470895
72585672,72585448,-0.10285669,0.048783682,0.09146262
72606788,72606557,-0.10411325,0.019626375,0.07409345
72627957,72627718,-0.10101714,0.036154825,0.07376022
72649001,72648775,-0.09942757,0.0050061257,0.07458248
72666393,72666160,-0.05769141,0.020564908,0.06871347
72687494,72687268,-0.02765245,0.007042769,0.08603595
72708604,72708378,-0.022564216,0.0028717278,0.08045528
72725993,72725761,0.0057222173,-0.0082362695,0.061858494
72747098,72746872,0.020310903,-0.0057930257,0.058312315
72768320,72768091,0.034769557,-0.0344034,0.04109145
72785772,72785537,0.009654936,-0.037473958,0.046568878
72806699,72806472,0.011897682,-0.023229612,0.046739127
72827809,72827581,-0.014916559,-0.017004842,0.03549441
72847673,72847448,-0.06257204,-0.008087524,0.04124203
72865071,72864832,-0.029675307,-0.010373896,0.050263233
72886181,72885950,0.008857778,-0.010110379,0.06626115
72907317,72907090,0.012982419,-0.006403736,0.053880926
72928387,72928160,0.005381657,-0.011058316,0.037745982
72945770,72945544,0.037992917,-0.005917833,0.019292204
72966882,72966653,0.026051857,-0.0238114,0.014952812
72987986,72987761,0.017364578,-0.021225676,0.021011947
73005373,73005147,0.03595931,-0.02212648,0.008226045
73026535,73026307,-0.0040848954,-0.024715902,0.009040052
73047729,73047503,-0.0014366138,0.0022866775,-0.004586613
73068702,73068473,-0.053931337,0.031522997,-0.0025136694
73086086,73085858,-0.07721249,0.049132593,0.018478515
73107209,73106969,-0.047244232,0.019261256,0.016354483
73128317,73128088,-0.017937887,0.01737047,0.00880799
73145683,73145459,0.0020936527,0.013682558,-0.011908054
73166803,73166577,-0.0015323466,0.00061567663,-0.003059543
73187912,73187679,0.043497056,0.027827526,-0.005035199
73205282,73205059,0.03648448,0.00013163975,-0.016122308
73226402,73226174,0.020958168,-0.013272743,-0.032009095
73247508,73247280,-0.018653538,-0.028235523,-0.04469482
73268617,73268387,-0.041738253,-0.024692073,-0.030419508
73286014,73285779,-0.01305129,-0.016236503,-0.04176763
73307211,73306977,0.008127363,-0.009019539,-0.028403558
73328230,73327997,0.02485081,0.031071464,-0.019916233
73345598,73345374,0.019738218,-0.015041256,-0.020404765
73366715,73366484,0.05871693,-0.01545825,-0.011915729
73386587,73386352,0.015269641,0.0041290657,-0.02575696
73407685,73407461,-0.03163995,-0.0026285471,-0.045167316
73426323,73426087,-0.0045821113,0.011689689,-0.053655535
73446185,73445954,0.025980053,-0.0040851175,-0.062848486
73467293,73467068,0.03451459,-0.022607286,-0.057302658
73488399,73488172,0.031300694,-0.015103189,-0.033744384
73505822,73505594,0.055361327,-0.037830587,-0.056461275
73526889,73526664,0.029530998,-0.027685814,-0.04818593
73548001,73547773,0.03769927,-0.031952504,-0.0578382
73565449,73565216,-0.02900803,-0.005340474,-0.032556433
73586645,73586418,0.011438027,-0.019085307,-0.04590523
73607601,73607375,0.031723067,-0.018535946,-0.067874156
73624990,73624759,-0.008032506,0.007972345,-0.041460894
73646101,73645868,-0.0049523297,0.020639427,-0.051686853
73667212,73666977,-0.05922255,0.018077323,-0.05474106
73688331,73688106,-0.01699805,0.021939047,-0.0467848
73705702,73705471,-0.011433383,0.003242669,-0.04118323
73726824,73726598,0.002827896,0.002082122,-0.031187484
73747915,73747688,0.04415255,0.007197459,-0.03343308
73770271,73770040,0.12033136,-0.03151613,-0.06704228
73786414,73786182,0.09562588,-0.022657456,-0.027652733
73807510,73807287,0.059027042,0.0051682442,-0.03866569
73828713,73828486,0.016613275,0.009010145,-0.04143959
73846124,73845886,0.007613961,0.012731598,-0.030976927
73867126,73866892,-0.017796824,0.03194095,-0.02677705
73888236,73888001,-0.03864981,0.036155254,-0.028417476
73905612,73905385,-0.009143275,0.040101226,-0.042480607
73926723,73926495,-0.006671245,0.022012679,-0.03734338
73946592,73946364,0.0051108543,-0.009035774,-0.039382853
73967701,73967471,0.049061146,-0.0077984803,-0.03301653
73985086,73984857,0.22483651,-0.019414246,-0.053592905
74006201,74005969,0.4282157,-0.021499332,-0.045813505
74027303,74027074,0.52998686,-0.025743809,-0.04267394
74044685,74044457,0.67707217,-0.032167096,-0.033410013
74065790,74065566,0.8374896,-0.030635219,-0.02432934
74086927,74086696,1.022554,-0.04554042,-0.03477998
74108091,74107860,1.1306343,-0.024784079,-0.053508412
74125543,74125319,1.033839,0.024172675,-0.0238255
74146509,74146278,0.9295783,0.02399231,-0.023459341
74167619,74167391,0.77898157,0.02081625,-0.035321146
74188720,74188497,0.615135,0.0064074686,-0.04817342
74206118,74205880,0.56473535,0.022376264,-0.017422348
74227224,74226992,0.49567452,-0.0044592577,-0.029684858
74248330,74248099,0.37549788,-0.0070125405,-0.028915266
74265711,74265482,0.24993882,0.0126185855,0.0037913625
74286819,74286591,0.17468487,0.005184354,-0.014411274
74307925,74307699,0.13046537,4.179134e-05,-0.027401045
74329034,74328809,0.09836504,-0.0093840845,-0.02485416
74346426,74346198,0.04110287,-0.009665956,-0.022562675
74367550,74367327,0.0016238645,0.0033759421,-0.03718095
74388770,74388538,-0.0078780595,0.004376578,-0.037240654
74406040,74405811,0.048533875,0.025771417,-0.0120355375
74427136,74426907,0.11318155,0.040869135,-0.03196022
74448250,74448013,0.1862364,0.019833874,-0.037883252
74465636,74465401,0.16252378,-0.0057558967,-0.004453193
74486742,74486506,0.016866716,-0.02577521,-0.02833474
74507841,74507615,-0.09973166,-0.05152144,-0.03268845
74527725,74527502,-0.18730485,-0.041344766,-0.033130787
74546343,74546109,-0.2347454,-0.029783804,-0.016948432
74566213,74565980,-0.28229815,-0.022183603,-0.013294913
74587314,74587084,-0.43510243,-0.021328423,-0.028841808
74608432,74608200,-0.54751533,-0.0066461773,-0.02545164
74625802,74625577,-0.5681572,0.0020350637,-0.010121571
74646997,74646762,-0.594647,0.011035445,-0.009524146
74668208,74667974,-0.667167,0.014882861,-0.019442681
74685405,74685180,-0.6773049,0.012049366,0.0038059957
74706516,74706289,-0.64275473,-0.0029555107,0.0015039645
74727627,74727398,-0.5181018,-0.0021704487,0.0071481303
74748733,74748507,-0.4399642,-0.014551353,0.00046273603
74766124,74765891,-0.43033627,-0.027837658,0.024980176
74787233,74787000,-0.42394105,-0.058847133,0.024589082
74808336,74808109,-0.43307948,-0.059440944,0.017511493
74825717,74825493,-0.41168284,-0.04557514,0.015128919
74846831,74846602,-0.40643796,-0.03295258,0.018532265
74867939,74867711,-0.38802224,-0.017358126,0.023767693
74889042,74888815,-0.3116592,-0.008546031,0.025295956
74906470,74906240,-0.21741149,-0.02595578,-0.0066770217
74927673,74927447,-0.12120561,0.0023111624,0.0018313527
74948690,74948462,-0.065246046,-0.011623483,0.015957061
74966038,74965806,-0.01339095,-0.024679119,0.022750728
74987150,74986918,0.007371324,-0.0048103244,0.013804861
75008262,75008024,-0.015259371,-0.021665446,-0.0062291203
75025637,75025408,-0.045557953,0.0051279133,0.03213664
75046756,75046518,-0.07983248,-0.008925212,0.04136819
75066613,75066385,-0.08891392,-0.015700916,0.038790252
75087719,75087494,-0.10869977,-0.008733537,0.024569152
75106348,75106119,-0.13012008,0.0070075816,0.02188362
75126253,75126024,-0.06334931,0.018707104,0.03754386
75147337,75147109,0.009181791,0.01294875,0.01998216
75168439,75168214,0.073121384,0.015216553,0.008793701
75185954,75185721,0.10019704,0.027652327,0.035787184
75207107,75206881,0.07870514,0.019033184,0.042329144
75228033,75227808,0.07249625,0.02556118,0.05953931
75245429,75245197,0.06570398,-0.012541293,0.003960749
75266530,75266300,0.042889595,-0.0150396,0.0074611423
75287634,75287410,-0.019603109,-0.0049453406,0.013032553
75305019,75304793,-0.06712792,-0.002309086,0.044701625
75326135,75325905,-0.06178845,0.018386962,0.03714362
75347242,75347013,-0.071279936,0.028422032,0.039369527
75368387,75368154,-0.03439845,0.0028017196,0.029560259
75385729,75385504,-0.03336948,0.031846143,0.010450136
75406868,75406643,-0.007105939,0.033848688,0.020388
75427953,75427723,0.01698063,0.027005233,0.01358715
75449127,75448892,0.06426516,0.008818318,-0.00043870942
75466590,75466363,0.09214139,0.013040684,0.023198798
75487554,75487325,0.12527955,0.019478932,0.02631488
75508660,75508434,0.13066137,-0.0020930204,0.028691228
75526052,75525818,0.11981557,-0.011875633,0.0069586197
75547203,75546970,0.06212466,-0.019056285,0.005418021
75568268,75568036,-0.00574308,-0.009037735,0.0084525235
75585642,75585420,0.021207206,0.0076475646,0.017690111
75606774,75606530,0.038500987,0.006533191,0.01095178
75626644,75626398,0.08283238,0.0052693435,0.0071360357
75647733,75647507,0.10397116,0.02452784,-0.0065893824
75665116,75664890,0.0714712,0.029865311,0.0369727
75686238,75685999,0.050572224,0.03028681,0.037529193
75707340,75707115,-0.0014868706,0.022772131,0.040596526
75728551,75728317,-0.13709623,0.028550992,0.039547857
75746021,75745788,-0.19411288,-0.013984607,-0.009139062
75766939,75766710,-0.23065941,-0.01593597,-0.005536164
75788045,75787819,-0.22474338,-0.02169766,-0.013587673
75805431,75805203,-0.20657323,-0.013326008,0.025349263
75826540,75826312,-0.13141517,0.0046342607,0.030141642
75847647,75847421,-0.104920276,0.016850654,0.010431977
75868755,75868530,-0.08255214,-0.009133897,0.007853754
75886147,75885916,-0.04049067,-0.024856888,0.0032941557
75907304,75907077,-0.057516623,-0.035655573,-0.0013176142
75928359,75928132,-0.03701004,-0.039779667,-0.010216178
75945744,75945516,-0.06427185,-0.033456214,0.010165655
75966850,75966625,-0.0906783,-0.045450356,0.011422962
75988014,75987789,-0.08639288,-0.031280857,0.0088848965
76005491,76005264,-0.07629158,-0.048233736,-0.02582212
76026456,76026228,-0.06904922,-0.017586585,-0.027038509
76047565,76047338,-0.054978006,-0.0072884373,-0.020876925
76068674,76068445,-0.05041931,-0.0016473248,-0.02141425
76086060,76085829,-0.026901035,0.01362856,0.017945394
76107162,76106938,0.010891057,0.0012989013,0.014957419
76128281,76128047,0.07744655,0.009840867,0.0073395367
76145714,76145486,0.18302485,-0.0024273738,-0.005981311
76166773,76166540,0.3408097,0.012122028,-0.006005927
76186635,76186411,0.46761087,0.02241118,0.011414627
76207746,76207517,0.48797524,0.019026624,-0.0036301506
76225129,76224903,0.46633387,0.014172635,0.025601745
76246247,76246022,0.3924886,0.01197785,0.03899664
76267508,76267280,0.25575262,0.0111472355,0.048059974
76284920,76284694,0.14835365,0.029942311,0.04950695
76305837,76305612,-0.0011264608,0.037867438,0.061948854
76326954,76326721,-0.051098306,0.031011598,0.043728746
76348061,76347831,-0.06866437,0.009748863,0.022699848
76365446,76365220,-0.08318271,0.031223062,0.05053304
76386558,76386324,-0.032984324,0.024405366,0.03512355
76407665,76407434,-0.03271205,0.050643936,0.024949912
76425041,76424817,-0.025810199,0.026864348,0.054175485
76446158,76445927,0.031881668,0.011197808,0.044856112
76467265,76467035,0.05705931,0.010327628,0.042355686
76488375,76488150,0.05425046,-0.0045734365,0.03385833
76505760,76505531,0.1111118,-0.0056248223,0.05101033
76527040,76526808,0.12857413,-0.032554485,0.017238555
76548132,76547904,0.11876553,-0.05480604,0.022093859
76565362,76565133,0.13926403,-0.004777225,0.039554063
76586474,76586243,0.12786134,-0.023981588,0.02695041
76607583,76607354,0.22546262,-0.029617952,-0.000742282
76624966,76624735,0.17863034,0.0013647296,0.0055431505
76646068,76645841,0.16649416,-0.016499454,0.0065896576
76667179,76666952,0.031109983,-0.00081100524,0.009857977
76688291,76688059,-0.22646692,-0.009863679,0.009001674
76705673,76705443,-0.5346463,-0.010266757,-0.0016168024
76726788,76726554,-0.67926455,-0.009559714,-0.014722766
76746654,76746420,-0.7153488,-0.033097256,-0.005817611
76767791,76767566,-0.58380705,-0.014097705,0.03178942
76785168,76784937,-0.38270047,0.078964114,-0.014536333
76806355,76806130,-0.24646887,0.095481195,-0.042801514
76827366,76827132,-0.118398786,0.028606385,-0.021945572
76844741,76844515,0.06309884,0.011073145,0.0066276025
76865851,76865624,0.070119455,-0.04325598,-0.02881183
76887002,76886774,0.14683715,-0.029540602,-0.027268467
76909331,76909096,0.2605374,-0.0018374979,-0.008831378
76925465,76925234,0.4442502,-0.01044936,-0.033655804
76946559,76946335,0.6207523,-0.018084334,-0.053251214
76968924,76968688,0.80599904,-0.031810608,-0.0147255
76985058,76984830,0.83297867,-0.032927543,-0.035890177
77006166,77005938,0.7745035,-0.038798753,-0.037167758
77027284,77027054,0.7500827,-0.03203882,-0.016228607
77048449,77048217,0.7134995,-0.02024305,-0.011712947
77065832,77065605,0.7384254,-0.028761066,-0.038157746
77087061,77086829,0.713268,0.015581753,-0.012796902
77107989,77107758,0.5188202,-0.0047186296,-0.05183547
77129097,77128866,0.33953544,-0.043820053,-0.037252408
77146485,77146252,0.20008168,-0.027396338,-0.031343974
77167598,77167366,0.101435654,-0.011521496,-0.0328039
77188700,77188471,0.06646404,-0.024283597,-0.059217148
77206084,77205853,-0.022225924,0.032719076,-0.05405475
77227207,77226964,-0.054484513,0.016789932,-0.07874585
77248304,77248071,-0.023630826,0.013967005,-0.060679156
77265682,77265455,-0.016568832,-0.011317769,-0.069189444
77286795,77286564,0.03486722,-0.030722538,-0.075346105
77306660,77306432,-0.020353036,-0.006167548,-0.07087835
77327820,77327591,-0.14222494,0.027933588,-0.0554005
77346526,77346285,-0.19184163,0.017224073,-0.054053858
77366265,77366036,-0.17368807,0.0019104916,-0.056394055
77387369,77387142,-0.122614145,0.015351286,-0.055791702
77404758,77404527,-0.0498048,0.03080374,-0.0631076
77425867,77425637,-0.06385906,0.036967542,-0.072401844
77446973,77446749,-0.11186504,0.009722724,-0.06646052
77468081,77467853,-0.10882452,0.013025393,-0.06903115
77485466,77485238,-0.13491787,-0.0021829242,-0.072603896
77506572,77506347,-0.12786444,-0.0023663219,-0.0923045
77527681,77527456,-0.08013859,-0.013889609,-0.10231829
77548794,77548565,-0.10378037,-0.015143534,-0.08046791
77566179,77565950,-0.07578444,-0.037614048,-0.08794231
77587285,77587059,-0.10002047,-0.01798825,-0.06654812
77608489,77608259,-0.13288389,-0.0027422719,-0.08291778
77625952,77625721,-0.17781188,0.007872203,-0.07910323
77646888,77646662,-0.17325325,0.011005397,-0.08536281
77667997,77667769,-0.20489241,0.021271626,-0.07011095
77689114,77688879,-0.1905981,0.005358006,-0.09033644
77706494,77706268,-0.19998313,0.034224052,-0.07126043
77727600,77727371,-0.20768294,0.028324882,-0.09365574
77748719,77748486,-0.32671747,0.06504434,-0.08024743
77766095,77765866,-0.42826527,0.11083577,-0.09300196
77787214,77786979,-0.5383334,0.16325508,-0.07871896
77808314,77808083,-0.525616,0.17376086,-0.067333095
77825693,77825467,-0.4945731,0.121263415,-0.07366242
77846805,77846572,-0.396554,0.03953228,-0.048474185
77866713,77866484,-0.3020301,-0.05703204,-0.044879384
77887934,77887702,-0.32389262,-0.09264921,-0.07366196
77905161,77904938,-0.3882076,-0.13193123,-0.052842148
77926278,77926046,-0.37181866,-0.14022972,-0.07215865
77947397,77947154,-0.3489514,-0.076716036,-0.073183484
77964763,77964538,-0.27844352,-0.05209184,-0.085183084
77985876,77985647,-0.21083844,0.02245682,-0.076744184
78006982,78006758,-0.22111484,0.015285625,-0.061913464
78028098,78027872,-0.10979646,0.0061124535,-0.055023517
78045482,78045250,-0.08977572,0.03739702,-0.038541246
78066624,78066400,-0.083640546,-0.006458663,-0.05423222
78087693,78087469,0.0036449772,-0.011250238,-0.07111628
78105083,78104852,-0.024475394,-0.011124343,-0.044610552
78126197,78125965,-0.04443096,-0.012683273,-0.053396128
78147441,78147212,-0.042037107,-0.0019633078,-0.030710686
78168409,78168182,-0.049934182,-0.0065317475,-0.023245625
78185795,78185563,0.010545167,0.0021831414,-0.019461479
78206899,78206672,0.054786112,-0.012161622,-0.009980662
78228042,78227818,0.026036648,0.0074598016,-0.034536473
78245394,78245165,-0.0013901389,0.008776721,-0.027261633
78266499,78266274,-0.05441782,0.01115147,-0.014846146
78287610,78287383,-0.027892863,0.03932343,0.0092332475
78309975,78309736,-0.039893396,-0.0003247223,-0.0061067147
78326102,78325876,-0.07599885,-0.00014903642,0.0028071248
78347221,78346985,-0.03226442,-0.016025517,0.003639829
78368326,78368095,-0.003416644,-0.0030338631,-0.012467741
78385719,78385494,-0.013598776,-0.005129845,0.002962437
78405723,78405497,0.036754053,-0.019858582,-0.0016249387
78426821,78426598,0.03463497,-0.042676285,-0.012847267
78447791,78447564,0.017475177,-0.00785474,0.020137077
78465176,78464949,-0.0036842234,-0.028447567,-0.009592363
78486286,78486057,-0.032508038,-0.034220025,0.029147789
78507396,78507166,-0.006312505,-0.022766244,0.024053996
78528509,78528280,-0.015200235,-0.008370157,0.020278718
78545886,78545662,0.048797604,-0.021414585,0.032791093
78567001,78566770,0.051071115,-0.012549909,0.01680266
78588164,78587929,0.05083519,-0.011300057,0.0068916185
78605489,78605262,0.057688385,-0.02532157,0.020365926
78626600,78626372,0.03969775,-0.011450134,0.03242452
78647720,78647482,-0.0032800003,-0.008567733,0.032280203
78665220,78664985,-0.035574865,0.008351226,0.036301192
78686301,78686070,-0.01206773,0.009914222,0.066506416
78707321,78707089,0.020783633,0.010265751,0.08029348
78728420,78728195,0.045596994,0.009099022,0.0034555644
78745803,78745575,0.04414823,-0.019421019,0.023250353
78766913,78766684,0.10972482,-0.07546441,-0.0002790682
78788021,78787794,0.18957053,-0.16419785,-0.013097365
78805407,78805177,0.28192,-0.19350615,-0.05593917
78826558,78826332,0.33031732,-0.2276512,-0.0689584
78847619,78847395,0.3583834,-0.2549515,-0.06505561
78868738,78868505,0.31687745,-0.23763733,-0.061723255
78886114,78885889,0.25434732,-0.22271399,-0.026799105
78907234,78906999,0.20312859,-0.1990565,-0.036194272
78927089,78926864,0.16133985,-0.19261165,-0.072097845
78945773,78945541,0.12910266,-0.15334103,-0.065537654
78965744,78965512,0.10288493,-0.13646883,-0.043265376
78986711,78986487,0.109170586,-0.12443226,-0.039922737
79007815,79007581,0.1358043,-0.12157282,-0.040197287
79025203,79024972,0.15455493,-0.12481651,-0.062090464
79046297,79046069,0.1586909,-0.10818546,-0.045339476
79067407,79067178,0.14423582,-0.109341964,-0.028017132
79088516,79088287,0.09607575,-0.1011018,-0.020834299
79105896,79105671,0.0924871,-0.11031536,-0.075610675
79127006,79126780,0.05591944,-0.09293384,-0.07409281
79148122,79147889,0.035501763,-0.077987686,-0.049627755
79165499,79165273,0.0048417985,-0.07970829,-0.023758162
79186664,79186435,0.030923977,-0.07065711,-0.038164183
79207850,79207620,0.053278252,-0.06455863,-0.061678603
79228958,79228728,0.03956056,-0.06504027,-0.070999265
79246216,79245984,-0.009785498,-0.03494568,-0.023364712
79268570,79268337,0.007575592,-0.04575649,-0.012021435
79288433,79288203,-0.011291227,-0.0439462,-0.026332656
79305814,79305586,-0.0003474814,-0.058749992,-0.05088742
79326930,79326696,-0.020398742,-0.03363078,-0.0461997
79348037,79347806,-0.048094824,-0.021977054,-0.032319263
79365430,79365195,-0.012025207,-0.00012749335,-0.03467718
79386531,79386298,0.0052867127,-0.008422957,-0.03774884
79407641,79407411,0.01962543,0.008373987,-0.04548159
79428753,79428517,0.034917712,0.02304188,-0.04650221
79446133,79445903,0.012848348,0.03526286,-0.038590495
79467240,79467009,0.018739598,0.034762837,-0.038843974
79487182,79486952,0.0028395636,0.026316736,-0.019272473
79504632,79504409,-0.006389448,0.030536117,-0.020223176
79525602,79525371,0.00169325,0.034610596,-0.010595134
79546704,79546479,-0.0015561696,0.049045473,-0.008181558
79565340,79565104,-0.01999683,0.064130135,-0.013378622
79585205,79584972,-0.028541366,0.07245339,-0.016247984
79606307,79606081,-0.037532207,0.09147915,-0.0064468007
79627418,79627194,-0.021494636,0.091874145,-0.0121093225
79648532,79648308,0.019085158,0.08766672,-0.015289732
79665913,79665684,-0.022776993,0.08339334,-0.007960231
79687027,79686801,-0.064168945,0.10983759,-0.010263346
79708128,79707903,-0.1355305,0.17083506,-0.013076058
79725519,79725292,-0.15160893,0.21562114,-0.034056026
79746648,79746419,-0.18928356,0.2650051,-0.03298366
79767881,79767657,-0.20401272,0.26182413,-0.021764293
79785122,79784891,-0.1454449,0.23769672,-0.027895054
79806236,79806005,-0.10058431,0.19378723,-0.019545
79827334,79827106,-0.04959931,0.15121277,0.0025132184
79848443,79848215,-0.03121385,0.1545093,0.0025586078
79865827,79865599,-0.019458719,0.1377249,-0.0053252983
79886931,79886707,0.016324455,0.12079317,0.010704487
79908046,79907817,0.010770818,0.10977976,0.014543635
79929153,79928926,0.014330637,0.08950651,-0.0030577404
79946537,79946310,-0.022790179,0.07795495,0.025950324
79967650,79967419,-0.024906045,0.03342628,0.018305887
79988792,79988557,0.004363595,0.027407806,0.00080922665
80006136,80005912,-0.057622906,0.03038365,0.015382185
80026075,80025851,-0.0026371307,-0.0057417606,0.01445945
80047296,80047067,0.12676352,-0.003955501,0.017708296
80065749,80065517,0.11295686,-0.013356676,0.0077741514
80085605,80085382,0.09469475,-0.0038443739,0.013562904
80106722,80106492,-8.7799424e-05,-0.025081962,0.008804245
80127846,80127614,-0.07769977,-0.024176564,-0.0067159845
80145219,80144986,-0.07811084,-0.024467494,0.0028303342
80166323,80166094,-0.004313249,-0.0022900344,-0.0025687893
80187439,80187204,0.046074383,0.00969421,-0.008267645
80204811,80204586,0.06471225,0.023187533,-0.018073762
80225926,80225695,0.044624157,-0.0029409106,-0.02001509
80247031,80246807,0.009974035,-0.003990527,-0.021091415
80268203,80267973,-0.012841864,-0.008608247,-0.02215023
80285557,80285328,-0.0040314365,-0.014654766,-0.010647153
80306764,80306537,0.030811671,-0.022574479,-0.024655377
80327741,80327516,0.06354352,-0.036076266,-0.027030023
80345135,80344901,0.07421562,-0.040623188,-0.006914314
80366248,80366011,0.09997057,-0.038558796,-0.021011649
80387354,80387126,0.09173423,-0.022290079,-0.026647529
80408458,80408231,0.12038689,-0.017954504,-0.020819178
80425842,80425612,0.07932445,-0.0020991764,-0.013918903
80446949,80446720,0.059166018,-0.027981633,-0.013594403
80468053,80467829,0.013090188,0.033003822,-0.009942408
80489166,80488938,-0.046304885,0.03098221,0.0050676567
80506547,80506322,-0.015335243,0.004728028,-0.009233333
80527658,80527432,-0.022748219,-0.008676725,0.010712684
80548830,80548599,-0.00051524997,0.0013890949,0.015737584
80566248,80566014,0.07410701,-0.03360848,-0.017932355
80586212,80585979,0.04303219,-0.024034528,-0.025270179
80607135,80606910,-0.00596103,-0.016933244,-0.009042379
80625758,80625526,0.004923558,0.0015971946,-0.019728104
80645620,80645394,-0.007550634,-0.00077775755,-0.009951262
80666733,80666503,-0.01796906,0.022238916,-0.012924529
80687843,80687612,-0.022143377,0.016997635,-0.009659391
80705231,80704996,-0.021705821,0.029526,0.004987907
80726332,80726105,-0.021544069,0.036807958,0.0051733973
80747444,80747214,-0.027778454,0.033684064,-0.0047186534
80764825,80764598,-0.015518207,0.0321569,0.0046384092
80785935,80785707,-0.013813709,0.021027233,0.011591912
80807046,80806817,0.003322501,0.013312532,0.006079986
80828204,80827975,0.031317722,0.035301648,0.0009075593
80845728,80845504,0.009420651,0.043207027,0.0058452208
80866646,80866418,0.0057104197,0.030358242,-0.0034676201
80887753,80887528,0.015455501,0.021205153,-0.007903682
80905148,80904916,-0.006046397,0.03902796,-0.013756777
80926251,80926021,-0.02016118,0.0330204,-0.019479144
80947359,80947131,-0.003001491,0.020339442,-0.018583678
80968506,80968277,0.016907876,0.0117402775,-0.02258272
80985854,80985623,0.01304762,0.00311123,-0.0025548064
81006976,81006750,0.023771087,-0.023697626,-0.00987221
81028070,81027841,0.046266053,-0.038312923,-0.018734742
81045472,81045238,0.008892606,-0.015771158,0.0036303506
81066562,81066334,0.10869951,-0.0013014401,0.0070744846
81087678,81087454,0.03619388,-0.012847285,-0.00827815
81107634,81107411,0.025018942,0.006551631,0.0014227516
81126370,81126141,-0.03244957,0.014308834,0.00783557
81147280,81147045,-0.053940702,0.017350206,0.008168841
81167139,81166913,-0.06575551,0.008501064,-0.0027599682
81185770,81185538,-0.06384202,0.0067112753,-0.006222928
81205645,81205418,-0.031225618,0.016473629,-0.010711826
81226745,81226515,0.004992282,-0.031684417,-0.007682491
81247847,81247624,0.05044047,-0.05724445,-0.0047891843
81265243,81265008,0.081630595,-0.05526556,0.010832567
81286343,81286117,0.08477527,-0.06666672,0.002110208
81307453,81307226,0.058679435,-0.036329612,0.012702523
81328566,81328338,-0.012669761,-0.012285282,0.009379731
81345960,81345719,-0.047716934,0.010075843,0.013268615
81367160,81366937,-0.038790222,0.01715608,0.016471298
81388371,81388141,-0.022549601,0.028271189,0.026958724
81405565,81405341,-0.009826781,0.024874138,0.015971867
81426659,81426431,0.001192314,0.007999807,0.022070795
81447775,81447540,-0.0011078039,0.008511125,0.029328063
81465152,81464925,0.019310232,-0.010523415,0.0048548877
81486261,81486033,0.012427625,-0.0013613588,0.018182546
81507372,81507142,-0.01589377,-0.0023893572,0.02349289
81528478,81528252,-0.011483525,-0.003657709,0.038329396
81545865,81545636,-0.020937473,-0.003764039,0.0020166277
81566970,81566744,-0.013681005,-0.0046321587,0.016197592
81588078,81587853,-0.039578013,-0.008805608,0.026496656
81609201,81608968,-0.026289152,-0.01280365,0.04359317
81626594,81626361,0.028999142,-0.013113834,0.006187585
81647792,81647564,-0.002141517,0.013738442,0.012413994
81668790,81668565,-0.036072746,0.027312517,0.032552443
81686181,81685949,-0.029084185,0.005692962,0.006596549
81707300,81707058,-0.0013346182,-0.012979056,0.020031745
81727155,81726927,0.016382528,-0.03062354,0.027569568
81745790,81745552,0.02649493,-0.02536004,0.011714634
81765655,81765419,0.03604012,-0.03125676,0.017314138
81786755,81786528,0.0632428,-0.017745329,0.014467699
81807860,81807636,0.07449087,-0.020573247,0.014619565
81825255,81825022,0.029919751,-0.006636855,0.021824267
81846356,81846130,0.013267582,0.0012178613,0.016963093
81867466,81867239,-0.029337445,0.0017642436,0.015159429
81884869,81884639,-0.020568408,0.007926518,0.04416878
81906078,81905846,-0.068542935,0.030494383,0.029937094
81927239,81927014,-0.058737747,0.013440403,0.029293261
81948178,81947950,-0.013727611,-0.0023324369,0.02844291
81965559,81965334,-0.0140853,-0.0348549,0.025162008
81986667,81986443,-0.00024376625,-0.015386382,0.0139585985
82007778,82007552,-0.000876506,-0.01476237,0.0037666045
82028898,82028661,0.00073632016,0.008670242,0.015236011
82046288,82046054,-0.018577816,0.00261264,0.015581717
82067383,82067158,-0.036546092,0.012210953,-0.0034917549
82088499,82088265,0.006760939,-0.020008745,0.009275053
82105913,82105686,-0.006052905,-0.0007802278,0.024470259
82126979,82126756,-0.020933442,0.010402671,0.022404125
82148109,82147877,-0.038477354,0.018770903,0.010073018
82169252,82169015,-0.049273945,0.043683656,0.0052458365
82186761,82186528,-0.078344576,0.06540289,0.031011036
82207711,82207481,-0.056110088,0.0704873,0.013565701
82228812,82228580,-0.026885647,0.05434966,0.005425237
82246193,82245961,-0.052278906,0.08222048,0.046400826
82268544,82268312,-0.05135037,0.048897862,0.015438245
82287180,82286947,-0.09285407,0.051230002,0.031992845
82305804,82305564,-0.090442665,0.045037746,0.046016824
82325707,82325482,-0.049792692,0.03985371,0.049220525
82346776,82346540,-0.015537315,0.016999317,0.040508185
82367884,82367649,-0.0028327457,-0.005356568,0.043715984
82385261,82385034,-0.019922765,-0.02324107,0.0437471
82406373,82406142,-0.027849237,-0.0048655756,0.036131162
82427541,82427311,-0.034279563,0.0076191598,0.028005982
82444926,82444699,-0.030329144,0.009926817,0.04172168
82466209,82465974,-0.015608795,0.020875903,0.022567095
82487083,82486853,-0.00091525045,0.0061392663,0.021718986
82508205,82507972,0.046807736,-0.010718193,0.030857123
82525579,82525347,0.07418254,-0.02562673,0.004188871
82546692,82546459,0.06312234,-0.026746705,0.007616524
82567795,82567566,0.03745714,-0.025025463,0.014214792
82588903,82588673,0.028014017,-0.026186557,0.030845197
82606284,82606058,0.046238646,-0.028536227,0.01265242
82627396,82627167,0.017425934,-0.022186833,0.0060511082
82648504,82648276,0.01463311,-0.020428862,0.010198626
82665899,82665660,0.027697964,-0.013525809,0.018911216
82686995,82686769,0.03735483,-0.02810528,0.021920575
82708153,82707919,0.033840097,-0.037619215,0.017587358
82725617,82725379,-0.010577376,-0.022884851,0.031245178
82746595,82746371,0.014473126,-0.020054651,0.03733521
82767707,82767483,-0.023211636,0.0019541462,0.023396099
82788824,82788589,-0.028871303,0.01765583,0.015477997
82806220,82805993,-0.03050184,0.01993049,0.03158117
82827309,82827082,-0.051903043,0.0031039931,0.032753006
82847201,82846971,-0.04653708,0.0060925004,0.028051246
82865809,82865576,-0.04129423,0.006788048,0.017123124
82885681,82885456,-0.035363574,0.013918573,0.015473178
82906779,82906552,-0.037435364,0.017900694,0.012473391
82927891,82927661,-0.027205983,-0.0058448254,-0.0009990035
82945284,82945053,-0.0060924995,0.00775055,-0.0067665186
82966385,82966160,0.009030237,0.012073378,-0.01920491
82987577,82987349,0.023043936,0.0094664,-0.012681091
83005050,83004818,0.0027402146,0.01796929,-0.0018708032
83025983,83025756,-0.0024078668,0.023080762,-0.0060737827
83047096,83046865,-0.019783303,0.009946526,0.012589241
83068253,83068021,-0.033098508,0.01833103,0.018018175
83085585,83085358,-0.027208267,-0.0015540854,0.031914707
83106718,83106490,-0.023434922,-0.0061291577,0.02640584
83127809,83127577,0.019619005,-0.02660397,0.030385738
83145209,83144977,0.036317803,-0.0548535,0.0345603
83166299,83166067,-0.004615942,-0.024908224,0.018091407
83187409,83187179,-0.006671964,-0.010803554,0.011592689
83208512,83208288,0.021024682,0.00063662376,0.011045746
83225909,83225675,0.013301521,0.0064701135,-0.0002839005
83247055,83246830,-0.0077912873,0.0005068386,-0.0026325712
83268266,83268031,-0.025564617,-0.0033069814,0.020253854
83285503,83285275,-0.01993774,-0.02436281,-0.012784248
83306614,83306386,-0.018978061,-0.030333461,0.002087495
83327755,83327522,-0.034206666,-0.020206047,0.010104019
83347590,83347360,-0.03812605,-0.015489851,0.0075870277
83366233,83366001,-0.047705762,-0.019086733,0.013473966
83387325,83387096,-0.095147416,-0.020978376,-0.0049422546
83407193,83406962,-0.07504239,-0.021186009,0.00051362405
83425817,83425588,-0.053657193,-0.021797584,0.019846156
83445683,83445456,-0.03752548,-0.017475843,0.014394365
83466790,83466565,-0.015603596,0.0018702737,-0.0042298725
83487899,83487673,-0.0324564,0.0050254175,-0.020191375
83505296,83505065,-0.03487908,0.010504537,0.0015300754
83526530,83526304,-0.014440157,0.000552069,0.00021180885
83547691,83547469,-0.012155808,-0.028700134,0.0019685999
83568621,83568385,-0.024618834,-0.016863244,0.009483667
83586000,83585769,-0.03969224,-0.03196029,0.0014588808
83607102,83606878,-0.03160195,-0.032861065,0.017514609
83628230,83627990,-0.032541376,-0.026997276,0.0072991885
83645598,83645371,-0.013684705,-0.029127926,-0.0077398815
83666713,83666482,-0.01000699,-0.031966563,-0.010077243
83687820,83687589,0.007539845,-0.02208917,-0.020317432
83705211,83704976,0.00766058,-0.027737545,-0.016142547
83726307,83726082,0.031700607,-0.015720082,-0.030501327
83747426,83747196,0.037434477,-0.022138432,-0.034249492
83768537,83768302,0.047238927,-0.03654842,-0.02306654
83785955,83785730,0.05279182,-0.020000143,-0.025931574
83807169,83806939,0.044426404,-0.024844384,-0.015756072
83828141,83827911,0.011944829,-0.022321431,-0.028857136
83849249,83849013,0.025615204,-0.022215275,-0.018267747
83866627,83866396,0.004209021,0.002402917,-0.0101792505
83887745,83887505,-0.03285857,-0.005593755,-0.023020428
83908843,83908614,-0.021910792,0.021479847,-0.03466987
83926238,83926001,-0.035935525,0.0066282926,-0.0033334508
83946108,83945866,-0.014614596,0.003931351,-0.019285267
83967215,83966976,-0.011680373,0.031660177,-0.02793245
83985831,83985600,-0.009517779,0.024312256,-0.01571289
84005698,84005469,-0.02183393,0.11436843,-0.0018207126
84026815,84026581,-0.0919065,0.17935754,0.0028899491
84047929,84047702,-0.046088606,0.16516168,0.010202581
84065447,84065219,-0.0133627085,0.07886154,0.017729808
84086419,84086183,0.048341222,-0.10032308,0.036571585
84107519,84107289,0.083297804,-0.26909083,0.029439777
84128626,84128397,0.09980583,-0.43378544,0.028190732
84146011,84145781,0.09388477,-0.54631066,0.053757165
84167118,84166892,0.051648308,-0.6046427,0.05318187
84188229,84187999,-0.03853808,-0.65101737,0.04502939
84205609,84205383,-0.056806803,-0.67280465,0.055482283
84226715,84226492,-0.07067222,-0.69338375,0.047324833
84247869,84247644,-0.046126112,-0.72439235,0.024587851
84265224,84264988,-0.076724455,-0.7324056,0.05255987
84286349,84286124,-0.043274824,-0.79858124,0.035137706
84307437,84307204,-0.005039346,-0.82370573,0.033677265
84328619,84328391,-0.04211367,-0.8565443,0.043721072
84346081,84345850,-0.066943586,-0.8794427,0.05123897
84367029,84366806,-0.1424889,-0.87846184,0.059270673
84389393,84389160,-0.14336964,-0.8696529,0.047818452
84405526,84405300,-0.1742446,-0.853237,0.061418794
84426634,84426408,-0.16241828,-0.8383764,0.040213898
84447751,84447517,-0.100048065,-0.82045054,0.019450983
84467615,84467385,-0.067861274,-0.8164097,0.014681061
84486237,84486010,-0.05754586,-0.79236525,0.027073119
84507353,84507120,-0.017539795,-0.6890467,0.041494798
84527219,84526987,-0.02605482,-0.5105112,0.012637667
84548333,84548102,-0.011352813,-0.3087516,-0.013057535
84565709,84565480,-0.028280627,-0.116460934,-0.018531606
84588093,84587862,-0.019288348,0.07936445,-0.019057747
84608054,84607826,0.04253434,0.23062554,-0.019661536
84625314,84625088,0.09250397,0.3193016,-0.035333246
84646426,84646196,0.05646679,0.4113517,-0.025177877
84667567,84667342,-0.06058716,0.48561478,-0.022309255
84688634,84688409,-0.18290503,0.5460601,-0.010420417
84706026,84705795,-0.24479704,0.6122013,-0.013548902
84727135,84726904,-0.27660462,0.67379254,-0.01938847
84748245,84748012,-0.20875663,0.72057724,-0.021110287
84765627,84765398,-0.13691431,0.74748886,-0.042773843
84786730,84786506,-0.0048948913,0.74649346,-0.044262353
84807839,84807614,0.084656775,0.7390493,-0.04930658
84828951,84828723,0.14022131,0.7350326,-0.031779837
84846412,84846180,0.147544,0.73492265,-0.035682566
84867524,84867298,0.10345029,0.7522068,-0.039920144
84888725,84888499,0.071672775,0.7701118,-0.029782513
84905943,84905709,0.050969724,0.79424447,-0.015614465
84927045,84926819,0.082339495,0.818615,-0.028915603
84948153,84947929,0.16975804,0.81769717,-0.034069523
84965542,84965312,0.23220064,0.8489235,-0.021383388
84986646,84986421,0.2689682,0.85916054,-0.040171064
85007765,85007533,0.27968222,0.87655115,-0.026742289
85027663,85027439,0.24808432,0.8625732,-0.029533355
85046259,85046023,0.24159472,0.86154884,-0.03510283
85066118,85065890,0.23346595,0.833281,-0.035316262
85087236,85087000,0.24765979,0.7950709,-0.025676608
85105854,85105625,0.26321933,0.767531,-0.04383627
85125743,85125516,0.2458677,0.7534251,-0.048828233
85146977,85146750,0.25897798,0.75607777,-0.05235803
85167940,85167711,0.18452725,0.8074447,-0.045116935
85185325,85185097,0.24141613,0.8054424,-0.038167603
85206436,85206204,0.23468824,0.80893344,-0.057331014
85227544,85227313,0.22225389,0.83335876,-0.06607337
85248650,85248422,0.20573173,0.7729028,-0.03806755
85266042,85265807,0.2015793,0.67685276,-0.06198152
85287148,85286915,0.15270978,0.55386436,-0.03345299
85308258,85308025,0.026075678,0.37789658,-0.04073998
85325638,85325411,-0.07742281,0.22477333,0.0063379807
85346748,85346518,-0.090159535,-0.0055394145,0.015644373
85367852,85367627,-0.05623101,-0.17839983,0.019718358
85388965,85388739,-0.0072940136,-0.34310588,0.03253667
85406496,85406267,-0.019923983,-0.43002048,0.064685404
85427631,85427406,-0.06088564,-0.5530088,0.04864047
85448564,85448338,-0.099408,-0.58507663,0.0536663
85465955,85465722,-0.16573064,-0.6280844,0.022649562
85487083,85486857,-0.17019242,-0.65780014,0.023504307
85508176,85507947,-0.15500957,-0.6943191,0.025615804
85525557,85525325,-0.13071589,-0.73977244,0.0497479
85546667,85546434,-0.082151145,-0.7854561,0.041970737
85567787,85567548,-0.022840051,-0.8635681,0.0481398
85587638,85587410,-0.08027402,-0.9152362,0.051303487
85606275,85606036,-0.09861507,-0.87586397,0.062553726
85626132,85625905,-0.13834295,-0.886465,0.04473268
85647237,85647008,-0.1788344,-0.85760224,0.045345034
85664711,85664483,-0.18914147,-0.85883886,0.0054206955
85685861,85685634,-0.21149297,-0.7411376,0.018926466
85706840,85706615,-0.15896954,-0.58044827,0.013962218
85727997,85727765,-0.14461364,-0.35494298,-0.033120923
85745345,85745109,-0.082749076,-0.1536581,-0.04717389
85766473,85766250,0.008649825,0.0640057,-0.0653723
85785073,85784844,0.05195161,0.20784964,-0.06664505
85804958,85804730,0.06402752,0.3488664,-0.07874132
85826055,85825821,0.045293696,0.45109648,-0.083437264
85847163,85846930,0.01090977,0.5357544,-0.05996787
85868265,85868037,0.00036390472,0.6107113,-0.036054287
85885652,85885421,0.053634014,0.62135905,-0.06645343
85906754,85906530,0.10049089,0.5861597,-0.06530488
85927878,85927646,0.18707736,0.43762183,-0.041990038
85945340,85945115,0.26788682,0.30295756,-0.015286481
85966540,85966314,0.26741603,0.074384786,0.0063502295
85987512,85987281,0.16490716,-0.1462699,0.018449351
86008578,86008351,0.079575665,-0.3278864,0.046131015
86025991,86025758,-0.07344307,-0.41324234,0.05635535
86047083,86046844,-0.16800359,-0.426074,0.05530556
86068182,86067954,-0.19879644,-0.25754756,0.034918457
86085562,86085337,-0.15762576,-0.12173568,0.010463201
86106677,86106446,-0.05323632,0.1259472,-0.010270922
86127802,86127556,-0.03481843,0.38891888,-0.026200578
86147656,86147423,0.022119258,0.47991008,-0.032103006
86166285,86166048,0.09356617,0.5542876,-0.03180139
86186144,86185916,0.06720631,0.55778867,-0.020800028
86207309,86207081,0.095624514,0.6004736,-0.021629555
86224779,86224552,0.08706984,0.59549594,-0.026316036
86245748,86245518,0.103202395,0.5793052,-0.006429722
86266863,86266628,0.096877,0.4882398,-0.0012101046
86287960,86287733,0.08202538,0.3224408,0.010542288
86305355,86305122,0.04971531,0.14951108,0.04790053
86326497,86326273,0.044373482,-0.05631154,0.057795998
86347569,86347342,0.05218491,-0.22187631,0.0709142
86368673,86368448,0.07266962,-0.35660303,0.07424372
86386058,86385832,0.11758386,-0.47722584,0.02665507
86407169,86406942,0.09123913,-0.5426079,0.03378302
86428283,86428052,0.008998136,-0.6136236,0.051753946
86445670,86445434,-0.03140031,-0.6387058,0.055783793
86466783,86466557,-0.07629253,-0.6752367,0.052558903
86487988,86487760,-0.10012894,-0.6842742,0.06977613
86505449,86505224,-0.09718188,-0.7133946,0.084468745
86526372,86526146,-0.095669895,-0.7382661,0.06980947
86547485,86547254,-0.073443495,-0.7747992,0.08237105
86568595,86568363,-0.07989345,-0.7903987,0.0816133
86585972,86585748,-0.056445826,-0.812444,0.0614528
86607089,86606857,-0.059258066,-0.8290775,0.06315092
86629443,86629208,-0.06708288,-0.84269637,0.07400636
86645575,86645350,-0.085579015,-0.8636457,0.06509182
86666684,86666459,-0.09345772,-0.7826457,0.052944116
86689042,86688811,-0.07110948,-0.60974514,0.01652944
86707663,86707435,-0.10167074,-0.39394855,-0.0021531964
86726298,86726061,-0.13582315,-0.16937162,-0.013301376
86746211,86745981,-0.110181645,0.06158794,-0.02341478
86767431,86767199,-0.06963954,0.24313211,-0.025046881
86788386,86788148,0.022395328,0.36992913,-0.027297646
86805756,86805531,0.08293279,0.43881038,-0.0142129315
86828112,86827883,0.18335585,0.46515444,-0.02671339
86847986,86847753,0.2238317,0.5205325,-0.011403002
86865358,86865133,0.18409956,0.5676642,0.0052285437
86886478,86886243,0.1630665,0.62833154,-0.0071605206
86907618,86907390,0.1474611,0.5979329,-0.006877075
86924958,86924734,0.12826563,0.5074687,0.007987523
86946086,86945859,0.08729505,0.34626466,0.022535363
86967184,86966955,0.07226329,0.11785004,0.036167953
86988293,86988064,0.04338366,-0.116503574,0.04525196
87006953,87006725,0.030930253,-0.25240663,0.058457237
87026913,87026681,-0.050971765,-0.316664,0.06884339
87047893,87047664,-0.02409616,-0.24951175,0.04024825
87065280,87065049,-0.04605441,-0.08438715,0.04953391
87086389,87086159,-0.008927185,0.107304975,0.0108601535
87107502,87107279,0.06372429,0.21793959,-0.00014164747
87128632,87128408,0.07774886,0.23744544,0.018303812
87145988,87145760,0.081311904,0.1807247,0.02473275
87167110,87166884,0.036657073,0.08137151,0.042930495
87188210,87187979,-0.031799562,-0.019362403,0.064712524
87205591,87205367,-0.04047473,-0.09728392,0.021609161
87226697,87226472,-0.040259745,-0.098420225,0.039548267
87247810,87247581,-0.094694875,0.0016542086,0.04779189
87267678,87267452,-0.078133784,0.13629378,0.010002724
87285175,87284949,-0.07469691,0.29653654,-0.014240413
87306334,87306105,-0.059265804,0.42259252,-0.018488236
87327275,87327050,0.030012956,0.5245637,-0.022482643
87348392,87348159,0.055029728,0.59518546,-0.033302758
87365782,87365547,0.045075297,0.61783266,-0.009201966
87386880,87386653,0.05646838,0.54356307,-0.010176876
87407991,87407762,0.053101383,0.399984,0.008071915
87425380,87425146,0.04818399,0.22108375,0.0044112075
87446479,87446255,0.035009556,-0.007953202,0.034098804
87467614,87467383,-0.005193736,-0.2276465,0.030613078
87484975,87484749,-0.034056693,-0.33939633,0.07783192
87506086,87505858,-0.01782389,-0.44160593,0.076782934
87527210,87526968,-0.054967172,-0.4976153,0.04858065
87548335,87548107,-0.10249074,-0.5037833,0.051505566
87565842,87565618,-0.14365906,-0.5430138,0.05288717
87586797,87586569,-0.091249906,-0.5945353,0.039670374
87607910,87607678,-0.09402003,-0.6380868,0.035649307
87629016,87628787,-0.05402272,-0.66032344,0.044563126
87646404,87646171,-0.025722003,-0.70289254,0.04317567
87667505,87667280,-0.053084355,-0.7136555,0.05776883
87688614,87688389,-0.050975893,-0.6726499,0.03920596
87706019,87705791,-0.0588733,-0.5194551,0.041956153
87727107,87726882,-0.03614015,-0.3045127,0.013168658
87748233,87747996,0.002874396,-0.05062734,-0.018275172
87765617,87765383,0.07319734,0.08872788,-0.037825137
87786772,87786533,0.11796194,0.2648957,-0.036970813
87806626,87806401,0.14453234,0.36715418,-0.03480858
87825337,87825104,0.13488232,0.4252747,-0.05848394
87845238,87845005,0.0941881,0.48121935,-0.061099425
87866196,87865957,0.038048297,0.4999568,-0.052568913
87887294,87887063,0.028517166,0.43585694,-0.02653487
87904675,87904447,-0.029214233,0.41031322,-0.008977953
87925788,87925557,-0.04178242,0.39396122,0.0049943165
87946896,87946666,-0.07438384,0.448127,0.0030537036
87968002,87967775,-0.102493614,0.52394426,-0.0120320795
87985386,87985159,-0.09300763,0.60268927,-0.034073707
88006493,88006268,-0.08251132,0.70044327,-0.025279513
88027601,88027377,-0.009074246,0.76545465,-0.030539183
88045001,88044763,0.040717315,0.77949697,-0.054339252
88066166,88065940,0.08627195,0.7984198,-0.0678189
88087252,88087027,0.14021641,0.7175149,-0.06476093
88108459,88108230,0.10953327,0.6265748,-0.037364773
88125699,88125473,0.0061585754,0.52378523,0.0010789455
88146805,88146581,-0.058194544,0.36225736,0.01945603
88167930,88167698,-0.10036219,0.10607385,0.021038828
88185302,88185075,-0.037861507,-0.03263977,0.008132291
88206416,88206184,0.028071795,-0.20052439,0.03361182
88227524,88227293,0.12057531,-0.38408294,0.04403155
88248669,88248445,0.123635635,-0.4975521,0.042855565
88266022,88265787,0.0126492465,-0.54936296,0.032786727
88287129,88286895,-0.06290377,-0.6050207,0.048230305
88308244,88308005,-0.15967983,-0.63198113,0.04019113
88325616,88325389,-0.15486144,-0.65245616,0.022636818
88346790,88346550,-0.18958333,-0.65838605,0.025989782
88366682,88366450,-0.15728663,-0.6902666,0.042336427
88387888,88387660,-0.16711915,-0.6625501,0.025583666
88406331,88406100,-0.14981715,-0.6112298,0.027930418
88426239,88426010,-0.10050986,-0.43586743,0.015098867
90946873,90946647,-0.6204299,-0.08637804,0.029287519
90967984,90967756,-0.67531896,-0.1498845,0.03812396
90985370,90985141,-0.66355956,-0.24235564,0.053949382
91006484,91006255,-0.64343053,-0.2933696,0.030044785
91027634,91027407,-0.5408374,-0.26002976,0.02633572
91048796,91048564,-0.4387056,-0.10077858,0.005027679
91066264,91066031,-0.34591934,0.027850742,-0.01751236
91087191,91086961,-0.20313843,0.20516631,-0.027900193
91108309,91108071,-0.105777584,0.3650772,-0.040916234
91125695,91125463,-0.019866154,0.45040724,-0.04261123
91146793,91146563,0.121924624,0.48296514,-0.04511446
91166657,91166430,0.23156798,0.39052418,-0.028242636
91187768,91187541,0.3706779,0.20673598,-0.019175356
91205154,91204925,0.4294125,0.052311495,0.03087045
91226290,91226064,0.505588,-0.0960761,0.030045196
