timestamp,gyro_device_id,gyro_bias[0],gyro_bias[1],gyro_bias[2],accel_device_id,accel_bias[0],accel_bias[1],accel_bias[2],mag_device_id,mag_bias[0],mag_bias[1],mag_bias[2]
17933419,3670026,-0.004220655,-0.008373539,0.008226458,3670026,0.0,0.0,-0.036790892,396809,0.0,0.0,0.0
17943333,3670026,-0.004220805,-0.008373837,0.00822675,3670026,0.0,0.0,-0.0367922,396809,0.0,0.0,0.0
18931477,3670026,-0.0039964295,-0.0078051253,0.0052032475,3670026,0.0,0.0,-0.036297232,396809,0.0,0.0,0.0
19944118,3670026,-0.0039569014,-0.0076412014,0.0031175383,3670026,0.0,0.0,-0.03636561,396809,0.0,0.0,0.0
20932039,3670026,-0.004023173,-0.0077045476,0.0019762088,3670026,0.0,0.0,-0.036178384,396809,0.0,0.0,0.0
21934895,3670026,-0.00406819,-0.0077533363,0.0026953025,3670026,0.0,0.0,-0.035346445,396809,0.0,0.0,0.0
22942769,3670026,-0.0041049942,-0.0077886707,0.0031314674,3670026,0.0,0.0,-0.034740485,396809,0.0,0.0,0.0
23940607,3670026,-0.0041227024,-0.0078116455,0.003341857,3670026,2.9687597e-05,1.7981216e-05,-0.034692746,396809,0.0,0.0,0.0
24933533,3670026,-0.004123681,-0.00780708,0.0034390276,3670026,0.00040233144,0.00022218522,-0.034825113,396809,0.0,0.0,0.0
25931610,3670026,-0.0041214786,-0.007794943,0.003469606,3670026,0.0016704468,0.0002860802,-0.03505455,396809,0.0,0.0,0.0
26934283,3670026,-0.0041194665,-0.007774945,0.0034178826,3670026,0.0050743767,-0.0001941583,-0.035526685,396809,0.0,0.0,0.0
27932176,3670026,-0.0041617993,-0.007829152,0.0033526963,3670026,0.010015906,-0.0031646676,-0.03630979,396809,0.0,0.0,0.0
28935038,3670026,-0.004175653,-0.007816756,0.0032286441,3670026,0.015655719,-0.0073519144,-0.03699709,396809,0.0,0.0,0.0
29937939,3670026,-0.004205751,-0.007834798,0.002928521,3670026,0.019342555,-0.010471679,-0.037843592,396809,0.0,0.0,0.0
30940748,3670026,-0.0042116186,-0.0078033577,0.00280146,3670026,0.022483377,-0.013458728,-0.038572226,396809,0.0,0.0,0.0
31933681,3670026,-0.004219375,-0.0077780103,0.0027205625,3670026,0.02439956,-0.015539259,-0.039277807,396809,0.0,0.0,0.0
32941501,3670026,-0.0042530396,-0.0078004766,0.002648033,3670026,0.026331713,-0.017150082,-0.04021953,396809,0.0,0.0,0.0
33934430,3670026,-0.0042527053,-0.0077394093,0.0026096478,3670026,0.03182776,-0.014664335,-0.040584475,396809,0.0,0.0,0.0
34937288,3670026,-0.0043041916,-0.0077719237,0.0026322992,3670026,0.029257476,-0.00609872,-0.038989514,396809,0.0,0.0,0.0
35935183,3670026,-0.0043315864,-0.0078028925,0.0026519427,3670026,0.026232189,-0.0025437155,-0.033922233,396809,0.0,0.0,0.0
36938139,3670026,-0.0042941067,-0.0077839615,0.0026412364,3670026,0.03427349,-0.016952889,-0.030242937,396809,0.0,0.0,0.0
37935940,3670026,-0.004283595,-0.0077548022,0.0026186225,3670026,0.036961842,-0.020927634,-0.028333368,396809,0.0,0.0,0.0
38933833,3670026,-0.0042725084,-0.007783109,0.0026088962,3670026,0.039373357,-0.021812018,-0.025027338,396809,0.0,0.0,0.0
39941656,3670026,-0.004232969,-0.007737064,0.0025584588,3670026,0.040800847,-0.022700034,-0.022568783,396809,0.0,0.0,0.0
40934586,3670026,-0.0042138956,-0.0077386517,0.00251111,3670026,0.040607087,-0.0228796,-0.020431755,396809,0.0,0.0,0.0
41932484,3670026,-0.0042430423,-0.007913283,0.0024467462,3670026,0.035632987,-0.022446478,-0.01775127,396809,0.0,0.0,0.0
42940307,3670026,-0.0043789903,-0.0079209795,0.0023994758,3670026,0.034276042,-0.014366661,-0.018023176,396809,0.0,0.0,0.0
43943284,3670026,-0.0043929755,-0.0079122735,0.0023075414,3670026,0.034017093,-0.012951796,-0.016874153,396809,0.0,0.0,0.0
44941062,3670026,-0.004429122,-0.007955957,0.0022191221,3670026,0.0332997,-0.011599876,-0.015573313,396809,0.0,0.0,0.0
45933993,3670026,-0.0043962584,-0.007860413,0.002187945,3670026,0.03854436,-0.013152255,-0.014299738,396809,0.0,0.0,0.0
46936854,3670026,-0.00443233,-0.007967497,0.0021127595,3670026,0.03430709,-0.011692166,-0.013039831,396809,0.0,0.0,0.0
47934750,3670026,-0.0044214483,-0.007958633,0.0019822202,3670026,0.03506352,-0.011190715,-0.011935602,396809,0.0,0.0,0.0
48932648,3670026,-0.0044927225,-0.0080273375,0.0018815226,3670026,0.03367991,-0.008802414,-0.0119587835,396809,0.0,0.0,0.0
49935507,3670026,-0.0045154886,-0.007951893,0.001781698,3670026,0.037012823,-0.0059838453,-0.0114921,396809,0.0,0.0,0.0
50943452,3670026,-0.004501948,-0.007934504,0.0016598868,3670026,0.038807508,-0.006733194,-0.011592144,396809,0.0,0.0,0.0
51941230,3670026,-0.0045275404,-0.008031266,0.001511525,3670026,0.03538406,-0.0062320046,-0.011259324,396809,0.0,0.0,0.0
52934162,3670026,-0.004544902,-0.007990694,0.001371371,3670026,0.035695974,-0.0040192334,-0.011321946,396809,0.0,0.0,0.0
53942001,3670026,-0.0045443457,-0.008109847,0.0012170874,3670026,0.032001574,-0.0052831164,-0.010680639,396809,0.0,0.0,0.0
54939885,3670026,-0.0045767627,-0.008131182,0.0009623019,3670026,0.031256646,-0.0041973135,-0.010222567,396809,0.0,0.0,0.0
55932817,3670026,-0.004542079,-0.008130436,0.00070803135,3670026,0.031672813,-0.0060039377,-0.009902807,396809,0.0,0.0,0.0
56940682,3670026,-0.0044870577,-0.008158403,0.00051311334,3670026,0.03482489,-0.011576122,-0.0092737805,396809,0.0,0.0,0.0
57943638,3670026,-0.0044387053,-0.008134874,0.000508788,3670026,0.033076096,-0.011264636,-0.0088592265,396809,0.0,0.0,0.0
58941404,3670026,-0.004435872,-0.0081738345,0.0005043122,3670026,0.030601429,-0.010030911,-0.008499009,396809,0.0,0.0,0.0
59934336,3670026,-0.0044407384,-0.008224899,0.00050950504,3670026,0.028442098,-0.008768078,-0.008080781,396809,0.0,0.0,0.0
60942164,3670026,-0.0044665644,-0.008190352,0.00045986267,3670026,0.030197421,-0.008975484,-0.007956232,396809,0.0,0.0,0.0
61940063,3670026,-0.004440483,-0.008115426,0.0004380578,3670026,0.031425796,-0.009455059,-0.007632643,396809,0.0,0.0,0.0
62933000,3670026,-0.0044579026,-0.008156752,0.0004394688,3670026,0.030881044,-0.009081471,-0.0075712996,396809,0.0,0.0,0.0
63940821,3670026,-0.004471404,-0.008154934,0.00044914242,3670026,0.029077195,-0.009116197,-0.007048031,396809,0.0,0.0,0.0
64933911,3670026,-0.0044257427,-0.008094192,0.00046819577,3670026,0.026014527,-0.010472008,-0.0067697386,396809,0.0,0.0,0.0
65941582,3670026,-0.0044592954,-0.008073425,0.00046984755,3670026,0.027131135,-0.014182262,-0.006595309,396809,0.0,0.0,0.0
66939480,3670026,-0.004430551,-0.0080308905,0.00043980317,3670026,0.024261137,-0.016879134,-0.006003399,396809,0.0,0.0,0.0
67937378,3670026,-0.0044321823,-0.008058695,0.00044980695,3670026,0.024178315,-0.0132027725,-0.0055944584,396809,0.0,0.0,0.0
68940241,3670026,-0.004436322,-0.008171333,0.00041817682,3670026,0.023260746,-0.008614488,-0.005504988,396809,0.0,0.0,0.0
69933177,3670026,-0.004442219,-0.008240734,0.0003841098,3670026,0.023089055,-0.0068075634,-0.0055595892,396809,0.0,0.0,0.0
70936038,3670026,-0.0044267406,-0.00820552,0.00035142747,3670026,0.022141015,-0.007454887,-0.005509987,396809,0.0,0.0,0.0
71934050,3670026,-0.0044493275,-0.008136992,0.00031664927,3670026,0.022456894,-0.008417891,-0.0055178707,396809,0.0,0.0,0.0
72941819,3670026,-0.004476932,-0.008153401,0.00028845627,3670026,0.021176107,-0.008086396,-0.005379602,396809,0.0,0.0,0.0
73939663,3670026,-0.004491604,-0.008158202,0.00024482043,3670026,0.019219868,-0.008065062,-0.0050876066,396809,0.0,0.0,0.0
74942526,3670026,-0.0045575867,-0.008155657,0.00020191794,3670026,0.016488213,-0.008457554,-0.004808833,396809,0.0,0.0,0.0
75940575,3670026,-0.0045776484,-0.008105713,0.0001584571,3670026,0.012560501,-0.0072063548,-0.0041784546,396809,0.0,0.0,0.0
76938325,3670026,-0.0045886394,-0.008123993,0.00010576455,3670026,0.010002386,-0.0072927983,-0.003970408,396809,0.0,0.0,0.0
77941192,3670026,-0.004558219,-0.008163617,1.3262348e-05,3670026,0.012420314,-0.010160663,-0.003922252,396809,0.0,0.0,0.0
78934122,3670026,-0.0045120595,-0.008100597,1.661866e-05,3670026,0.01233922,-0.010376992,-0.0038266226,396809,0.0,0.0,0.0
79936998,3670026,-0.0045152577,-0.008215961,-1.6294513e-05,3670026,0.012714642,-0.010501812,-0.003954522,396809,0.0,0.0,0.0
80939851,3670026,-0.0045464737,-0.008258663,-4.388257e-05,3670026,0.016030854,-0.008393505,-0.0042880652,396809,0.0,0.0,0.0
81942713,3670026,-0.0045417333,-0.008217571,-5.8188984e-05,3670026,0.014693225,-0.010051207,-0.0041049616,396809,0.0,0.0,0.0
82940721,3670026,-0.0045740223,-0.008169618,-6.937401e-05,3670026,0.013998282,-0.011533221,-0.0037816993,396809,0.0,0.0,0.0
83933547,3670026,-0.0045596026,-0.00810329,-8.258358e-05,3670026,0.014044612,-0.012716919,-0.0037481857,396809,0.0,0.0,0.0
84936411,3670026,-0.0045411955,-0.008096457,-0.000106937936,3670026,0.01245075,-0.007057234,-0.0022910477,396809,0.0,0.0,0.0
85939275,3670026,-0.004614,-0.008144061,-0.00010198517,3670026,0.01689069,-0.00302402,-0.0018042767,396809,0.0,0.0,0.0
86942164,3670026,-0.0046021603,-0.008129341,-0.00011025301,3670026,0.014790925,0.0003672633,-0.0012105542,396809,0.0,0.0,0.0
87935075,3670026,-0.0046164626,-0.008111108,-6.2562314e-05,3670026,0.028600834,0.0065810117,-0.0011648478,396809,0.0,0.0,0.0
88942905,3670026,-0.0046227174,-0.008173229,-7.031984e-05,3670026,0.019928746,0.009732538,-0.0010214912,396809,0.0,0.0,0.0
89935938,3670026,-0.0045778817,-0.0081004435,-6.645485e-05,3670026,0.018119404,0.005529002,-0.000852167,396809,0.0,0.0,0.0
90933777,3670026,-0.0045791906,-0.008112321,-9.566834e-05,3670026,0.01305885,0.0053999173,0.00056559854,396809,0.0,0.0,0.0
91936603,3670026,-0.0045603146,-0.008139126,-0.00010894713,3670026,0.011972737,0.010590021,0.001647133,396809,0.0,0.0,0.0
92934503,3670026,-0.004544676,-0.008195036,-0.000114532486,3670026,0.011084572,0.0140425395,0.0017509488,396809,0.0,0.0,0.0
93932404,3670026,-0.0045540137,-0.008174741,-0.00011927601,3670026,0.009861431,0.012678598,0.0018615953,396809,0.0,0.0,0.0
94940241,3670026,-0.004600731,-0.008215739,-0.00012038897,3670026,0.010523799,0.011016369,0.0016762128,396809,0.0,0.0,0.0
95943099,3670026,-0.004553211,-0.0082002515,-0.00014078287,3670026,0.0110224765,0.011642314,0.0027690795,396809,0.0,0.0,0.0
96936147,3670026,-0.0045338576,-0.0081839245,-0.00014347918,3670026,0.011688224,0.011039019,0.0036345276,396809,0.0,0.0,0.0
97938897,3670026,-0.004557276,-0.008245049,-0.0001507191,3670026,0.012136971,0.011036746,0.0039923997,396809,0.0,0.0,0.0
98941762,3670026,-0.004561009,-0.008290938,-0.00015572312,3670026,0.011591786,0.009523437,0.0040796627,396809,0.0,0.0,0.0
99934698,3670026,-0.0045867497,-0.008291326,-0.00016038142,3670026,0.010155341,0.008516875,0.0040886877,396809,0.0,0.0,0.0
100942576,3670026,-0.004576638,-0.008245373,-0.00016767891,3670026,0.009458909,0.009298066,0.0041963444,396809,0.0,0.0,0.0
101935463,3670026,-0.004612008,-0.008224819,-0.0001728931,3670026,0.00807612,0.010174009,0.0042120717,396809,0.0,0.0,0.0
102933364,3670026,-0.0046407785,-0.008231428,-0.00018171912,3670026,0.0068753664,0.009509273,0.0041860435,396809,0.0,0.0,0.0
103936354,3670026,-0.004630133,-0.008212348,-0.00019353008,3670026,0.006321866,0.009302284,0.004243816,396809,0.0,0.0,0.0
104939094,3670026,-0.0045717247,-0.008246443,-0.00020763837,3670026,0.008543915,0.010031148,0.00424042,396809,0.0,0.0,0.0
105936995,3670026,-0.0046319114,-0.008246316,-0.00021762408,3670026,0.0062710643,0.009388252,0.004323627,396809,0.0,0.0,0.0
106934896,3670026,-0.004629921,-0.00823914,-0.00022964015,3670026,0.006475684,0.010103562,0.004348298,396809,0.0,0.0,0.0
107937765,3670026,-0.0045957877,-0.008215987,-0.00024770532,3670026,0.0073733064,0.010934168,0.0043417946,396809,0.0,0.0,0.0
108940626,3670026,-0.0046394486,-0.008210651,-0.00026328478,3670026,0.006191243,0.010882925,0.0043925196,396809,0.0,0.0,0.0
109933586,3670026,-0.0046201274,-0.0081549,-0.00027564832,3670026,0.0058412147,0.01085109,0.0043171686,396809,0.0,0.0,0.0
110941611,3670026,-0.004643052,-0.00814446,-0.00029800157,3670026,0.0050839125,0.011556318,0.004318034,396809,0.0,0.0,0.0
111934329,3670026,-0.0045593083,-0.00812433,-0.00038492243,3670026,0.006220106,0.014550614,0.004681174,396809,0.0,0.0,0.0
112942160,3670026,-0.0045955605,-0.008134562,-0.0004280511,3670026,0.0047582597,0.016665388,0.0046239225,396809,0.0,0.0,0.0
113940117,3670026,-0.0046665356,-0.008161153,-0.00043501673,3670026,0.0039017745,0.01570109,0.0046249195,396809,0.0,0.0,0.0
114942985,3670026,-0.0046325224,-0.008129469,-0.00043897078,3670026,0.004521924,0.015737977,0.004321385,396809,0.0,0.0,0.0
115940827,3670026,-0.0046660462,-0.008129926,-0.00044791715,3670026,0.004213016,0.016213704,0.0043177283,396809,0.0,0.0,0.0
116938729,3670026,-0.0046630786,-0.008115808,-0.00045823096,3670026,0.0040750885,0.016380068,0.0043204124,396809,0.0,0.0,0.0
117941776,3670026,-0.004617992,-0.008064172,-0.00046053354,3670026,0.0042091864,0.01667525,0.0042436393,396809,0.0,0.0,0.0
118934531,3670026,-0.004571047,-0.008044624,-0.00046272558,3670026,0.00439523,0.01690039,0.004247915,396809,0.0,0.0,0.0
119942361,3670026,-0.004612465,-0.008085991,-0.00047288756,3670026,0.0041119317,0.016867043,0.004330959,396809,0.0,0.0,0.0
120935301,3670026,-0.0046052267,-0.008065693,-0.00046872805,3670026,0.0038976367,0.016726684,0.004420311,396809,0.0,0.0,0.0
121943148,3670026,-0.0046135755,-0.008087192,-0.0004591804,3670026,0.0035137413,0.016173946,0.004516908,396809,0.0,0.0,0.0
122941029,3670026,-0.004601766,-0.008093276,-0.0004568312,3670026,0.0037241285,0.016380107,0.0044612354,396809,0.0,0.0,0.0
123933966,3670026,-0.0046174806,-0.00811676,-0.0004483974,3670026,0.003704293,0.016507056,0.0044502635,396809,0.0,0.0,0.0
124941992,3670026,-0.004611344,-0.008122769,-0.00042725095,3670026,0.0037458672,0.016553883,0.0044576153,396809,0.0,0.0,0.0
125934734,3670026,-0.0045864466,-0.008107684,-0.00039310803,3670026,0.0039369576,0.016806113,0.004448762,396809,0.0,0.0,0.0
126942565,3670026,-0.0046067145,-0.0081271,-0.00035316197,3670026,0.004040443,0.017489687,0.0045070783,396809,0.0,0.0,0.0
127935501,3670026,-0.0045502996,-0.008013002,-0.00031974367,3670026,0.004325481,0.018432334,0.004499407,396809,0.0,0.0,0.0
128938383,3670026,-0.0046033743,-0.008084728,-0.00028928005,3670026,0.0040008356,0.018360958,0.004614091,396809,0.0,0.0,0.0
129941304,3670026,-0.004594374,-0.008034078,-0.0002575488,3670026,0.0038805474,0.018752158,0.0046126773,396809,0.0,0.0,0.0
130934171,3670026,-0.004602497,-0.008045895,-0.00021877528,3670026,0.0035947906,0.01874075,0.004624923,396809,0.0,0.0,0.0
131942002,3670026,-0.004609363,-0.008056827,-0.00017945246,3670026,0.0036052058,0.018999048,0.004695958,396809,0.0,0.0,0.0
132934941,3670026,-0.004603548,-0.008002027,-0.00014004546,3670026,0.0034493215,0.019373996,0.004685758,396809,0.0,0.0,0.0
133932842,3670026,-0.0046590846,-0.008032163,-8.051238e-05,3670026,0.0032270486,0.019429887,0.004742367,396809,0.0,0.0,0.0
134940677,3670026,-0.004628126,-0.007998588,-1.4503763e-05,3670026,0.0038439243,0.02016815,0.004719873,396809,0.0,0.0,0.0
135938615,3670026,-0.0046665943,-0.008004475,4.9889877e-05,3670026,0.0031621496,0.020417646,0.0047681383,396809,0.0,0.0,0.0
136941440,3670026,-0.004622244,-0.007943809,9.792332e-05,3670026,0.0037141282,0.021360865,0.004796948,396809,0.0,0.0,0.0
137934377,3670026,-0.004646667,-0.007969518,0.00014378832,3670026,0.0037275346,0.02144034,0.0047155158,396809,0.0,0.0,0.0
138942209,3670026,-0.0046468717,-0.007986827,0.00019451285,3670026,0.0038033638,0.021621117,0.0046585887,396809,0.0,0.0,0.0
139935146,3670026,-0.004611226,-0.007940358,0.00021999408,3670026,0.0036904968,0.02181051,0.0046214666,396809,0.0,0.0,0.0
140933073,3670026,-0.004600751,-0.0079671545,0.0002605802,3670026,0.009417031,0.020786544,0.008801077,396809,0.0,0.0,0.0
141940879,3670026,-0.004608873,-0.007914289,0.00027533146,3670026,0.026167136,0.020198375,0.01591505,396809,0.0,0.0,0.0
142943797,3670026,-0.00458984,-0.007840556,0.00023531467,3670026,0.03921748,0.022823324,0.02147592,396809,0.0,0.0,0.0
143941648,3670026,-0.004620472,-0.007846174,0.00026731417,3670026,0.050680574,0.027812736,0.027339473,396809,0.0,0.0,0.0
144934586,3670026,-0.0045886743,-0.007823493,0.00031864046,3670026,0.050715428,0.035032,0.03174429,396809,0.0,0.0,0.0
145932722,3670026,-0.0046046684,-0.007841036,0.00036502478,3670026,0.049823165,0.042173326,0.034302305,396809,0.0,0.0,0.0
146935355,3670026,-0.0045721647,-0.007844567,0.00038005205,3670026,0.048018888,0.048571464,0.034525797,396809,0.0,0.0,0.0
147933257,3670026,-0.004548038,-0.007813559,0.00038938533,3670026,0.044203322,0.051586274,0.03724014,396809,0.0,0.0,0.0
148936124,3670026,-0.0045178807,-0.0077710035,0.00047749034,3670026,0.04380767,0.05838283,0.038906623,396809,0.0,0.0,0.0
149944043,3670026,-0.0044902437,-0.0077099074,0.0005502649,3670026,0.04302356,0.063736714,0.040520467,396809,0.0,0.0,0.0
150941859,3670026,-0.00442756,-0.007745505,0.0005848041,3670026,0.039908614,0.06817423,0.040348627,396809,0.0,0.0,0.0
151934796,3670026,-0.0044091344,-0.0077388533,0.0006230526,3670026,0.038773686,0.06858067,0.040404554,396809,0.0,0.0,0.0
152942628,3670026,-0.0043816753,-0.0077193743,0.0006611001,3670026,0.03789955,0.06891236,0.04030313,396809,0.0,0.0,0.0
153940530,3670026,-0.004379536,-0.0077265925,0.000679047,3670026,0.03748445,0.06931393,0.040377025,396809,0.0,0.0,0.0
154933468,3670026,-0.00439683,-0.007732958,0.0006873784,3670026,0.0370711,0.06935493,0.040336013,396809,0.0,0.0,0.0
155936337,3670026,-0.0044134124,-0.007788134,0.00066627935,3670026,0.03682461,0.06789252,0.040199213,396809,0.0,0.0,0.0
156939255,3670026,-0.004410495,-0.007833439,0.0006454558,3670026,0.037203234,0.06752366,0.04022521,396809,0.0,0.0,0.0
157937106,3670026,-0.0044176546,-0.007849699,0.00063035707,3670026,0.037009977,0.06735786,0.04011783,396809,0.0,0.0,0.0
158935013,3670026,-0.0043652738,-0.007816905,0.0006086927,3670026,0.037061263,0.06637294,0.039596252,396809,0.0,0.0,0.0
159942841,3670026,-0.0044424767,-0.007849155,0.0005797077,3670026,0.035684675,0.06646955,0.03958774,396809,0.0,0.0,0.0
160940743,3670026,-0.004464179,-0.00787056,0.00055046263,3670026,0.03528021,0.06618845,0.039578065,396809,0.0,0.0,0.0
161933681,3670026,-0.0045319623,-0.007822926,0.0005480605,3670026,0.03354899,0.066972144,0.039488602,396809,0.0,0.0,0.0
162941513,3670026,-0.0045977132,-0.007838058,0.0005509508,3670026,0.032576703,0.067583844,0.039573606,396809,0.0,0.0,0.0
163939488,3670026,-0.0045941398,-0.007829191,0.0005486538,3670026,0.032455508,0.06775341,0.03941799,396809,0.0,0.0,0.0
164932355,3670026,-0.004592923,-0.007796721,0.00056251115,3670026,0.0319133,0.06778909,0.039195783,396809,0.0,0.0,0.0
165935226,3670026,-0.004619502,-0.00781902,0.0005752833,3670026,0.031242961,0.06742089,0.03914069,396809,0.0,0.0,0.0
166943054,3670026,-0.004611325,-0.007830698,0.00057472807,3670026,0.031380307,0.06755627,0.039122384,396809,0.0,0.0,0.0
167935993,3670026,-0.0046177115,-0.007829918,0.0005789396,3670026,0.030824326,0.066863775,0.038785208,396809,0.0,0.0,0.0
168933896,3670026,-0.0045935283,-0.007888132,0.00059424445,3670026,0.031126061,0.066495106,0.038713627,396809,0.0,0.0,0.0
169936764,3670026,-0.0045725806,-0.007891849,0.00061892683,3670026,0.030931938,0.066080526,0.038570758,396809,0.0,0.0,0.0
170934776,3670026,-0.0045864033,-0.007901574,0.0006167844,3670026,0.030907128,0.0662643,0.03859995,396809,0.0,0.0,0.0
171932578,3670026,-0.004589346,-0.007937443,0.0006374292,3670026,0.030804582,0.06594025,0.03836976,396809,0.0,0.0,0.0
172940402,3670026,-0.0046191937,-0.007924338,0.0006491426,3670026,0.030386077,0.06596818,0.038121022,396809,0.0,0.0,0.0
173938306,3670026,-0.004600158,-0.007872413,0.00068271573,3670026,0.030038642,0.065768346,0.037836447,396809,0.0,0.0,0.0
174941196,3670026,-0.0046117725,-0.007909447,0.0007287902,3670026,0.030068103,0.06600827,0.037917275,396809,0.0,0.0,0.0
175939077,3670026,-0.0046059694,-0.00789594,0.0007737571,3670026,0.029931296,0.06607298,0.03792803,396809,0.0,0.0,0.0
176941945,3670026,-0.0045892373,-0.007913082,0.00081295194,3670026,0.02986799,0.065953724,0.037783444,396809,0.0,0.0,0.0
177930098,3670026,-0.004564228,-0.00789996,0.00084259454,3670026,0.029587666,0.06541028,0.037488297,396809,0.0,0.0,0.0
178932787,3670026,-0.0045535215,-0.007879016,0.000881021,3670026,0.029440247,0.06541169,0.037364725,396809,0.0,0.0,0.0
179940633,3670026,-0.004560459,-0.007886909,0.0009371577,3670026,0.029333714,0.06555551,0.03734247,396809,0.0,0.0,0.0
180943488,3670026,-0.0045511913,-0.007858424,0.0009866622,3670026,0.029046994,0.065283775,0.03712699,396809,0.0,0.0,0.0
181941501,3670026,-0.0045668753,-0.007888835,0.0010104727,3670026,0.02901952,0.06532873,0.03715676,396809,0.0,0.0,0.0
182939295,3670026,-0.004579306,-0.007911822,0.0010539354,3670026,0.028916555,0.065250516,0.037140526,396809,0.0,0.0,0.0
183937223,3670026,-0.0045471755,-0.007898617,0.0010755068,3670026,0.028795762,0.06473321,0.036848146,396809,0.0,0.0,0.0
184935141,3670026,-0.0045636413,-0.00791567,0.0010993523,3670026,0.028628653,0.064382754,0.03666556,396809,0.0,0.0,0.0
185933010,3670026,-0.004532612,-0.007933358,0.0011021462,3670026,0.028855255,0.064294584,0.036564622,396809,0.0,0.0,0.0
186940839,3670026,-0.004552651,-0.007959808,0.0011187876,3670026,0.028887067,0.06434001,0.03658947,396809,0.0,0.0,0.0
187943707,3670026,-0.0045423876,-0.007925148,0.0011213676,3670026,0.028766185,0.06406058,0.03640965,396809,0.0,0.0,0.0
188936683,3670026,-0.0045684427,-0.007912538,0.0010807246,3670026,0.02868165,0.063994154,0.036330264,396809,0.0,0.0,0.0
189934582,3670026,-0.004580904,-0.007956593,0.0010276041,3670026,0.028938964,0.064267516,0.036413457,396809,0.0,0.0,0.0
190937425,3670026,-0.0045589716,-0.007908213,0.0009583116,3670026,0.028879236,0.06411128,0.036202025,396809,0.0,0.0,0.0
191940289,3670026,-0.0046023177,-0.007908585,0.00090095436,3670026,0.028906524,0.06417994,0.036143225,396809,0.0,0.0,0.0
192938198,3670026,-0.004578346,-0.007926741,0.00080371555,3670026,0.028941529,0.06401357,0.03604312,396809,0.0,0.0,0.0
193936095,3670026,-0.00457832,-0.007899374,0.0007355354,3670026,0.028864965,0.06375002,0.035849094,396809,0.0,0.0,0.0
194938967,3670026,-0.0045871,-0.007927442,0.0006719638,3670026,0.028933065,0.06383009,0.03582545,396809,0.0,0.0,0.0
195931933,3670026,-0.004587061,-0.007884857,0.00062064774,3670026,0.028780978,0.06343499,0.035516366,396809,0.0,0.0,0.0
196934773,3670026,-0.0045943805,-0.007899465,0.000579502,3670026,0.028742423,0.06331257,0.03535485,396809,0.0,0.0,0.0
197942606,3670026,-0.004608875,-0.007911316,0.0005561912,3670026,0.028808959,0.06340342,0.035353053,396809,0.0,0.0,0.0
198940510,3670026,-0.004631447,-0.007892556,0.000524829,3670026,0.028787427,0.06334649,0.035259925,396809,0.0,0.0,0.0
199933449,3670026,-0.0046162354,-0.007859818,0.0004902908,3670026,0.028644886,0.06304974,0.035061255,396809,0.0,0.0,0.0
200941286,3670026,-0.0046528047,-0.007853798,0.00048029472,3670026,0.028750224,0.06331772,0.035104092,396809,0.0,0.0,0.0
201939192,3670026,-0.0046453974,-0.007852516,0.00046561856,3670026,0.028826904,0.06347857,0.035057906,396809,0.0,0.0,0.0
202932226,3670026,-0.0046114298,-0.007866905,0.00045302196,3670026,0.028808607,0.06322154,0.034771416,396809,0.0,0.0,0.0
203934997,3670026,-0.0046221563,-0.00789641,0.0004270126,3670026,0.02886796,0.063407436,0.034694653,396809,0.0,0.0,0.0
204942840,3670026,-0.0046179583,-0.007882379,0.0004131889,3670026,0.028901562,0.06354207,0.03462875,396809,0.0,0.0,0.0
205935768,3670026,-0.004599591,-0.007837081,0.00038072205,3670026,0.028768735,0.06332231,0.034416523,396809,0.0,0.0,0.0
206933670,3670026,-0.004576687,-0.007841265,0.00037219733,3670026,0.028747203,0.06324417,0.034347463,396809,0.0,0.0,0.0
207941506,3670026,-0.004585507,-0.007866338,0.00035091676,3670026,0.028803756,0.063333645,0.03429921,396809,0.0,0.0,0.0
208934446,3670026,-0.004558227,-0.00784783,0.00035001014,3670026,0.028721977,0.06309212,0.03413341,396809,0.0,0.0,0.0
209932451,3670026,-0.004563741,-0.007854629,0.00037703174,3670026,0.028835807,0.063396014,0.034101512,396809,0.0,0.0,0.0
210940183,3670026,-0.004548802,-0.007883423,0.00038009544,3670026,0.028876899,0.063453384,0.03381263,396809,0.0,0.0,0.0
211943052,3670026,-0.004592482,-0.007895236,0.00038715775,3670026,0.028812485,0.06360461,0.033710074,396809,0.0,0.0,0.0
212935992,3670026,-0.004618732,-0.007838392,0.00044428374,3670026,0.02965755,0.064664945,0.03193396,396809,0.0,0.0,0.0
213938866,3670026,-0.0046282453,-0.007853863,0.00050898694,3670026,0.031027313,0.067313775,0.029297985,396809,0.0,0.0,0.0
214941731,3670026,-0.0046141637,-0.0078055663,0.0005552597,3670026,0.031370096,0.06875018,0.026516456,396809,0.0,0.0,0.0
215934670,3670026,-0.004608001,-0.0078045623,0.0005686111,3670026,0.029668914,0.072040334,0.021380965,396809,0.0,0.0,0.0
216932638,3670026,-0.004635609,-0.007839727,0.0005728937,3670026,0.02721461,0.07464879,0.016204003,396809,0.0,0.0,0.0
217940408,3670026,-0.004653048,-0.00783679,0.0005612562,3670026,0.024144286,0.072335914,0.012421572,396809,0.0,0.0,0.0
218943280,3670026,-0.0045954213,-0.0077714347,0.00057638576,3670026,0.018643312,0.06870334,0.011992937,396809,0.0,0.0,0.0
219941181,3670026,-0.00463082,-0.0077735237,0.00058794103,3670026,0.015373452,0.067531265,0.0058904053,396809,0.0,0.0,0.0
220939086,3670026,-0.0046242583,-0.007802434,0.0005637355,3670026,0.011108889,0.06835172,-0.00050629774,396809,0.0,0.0,0.0
221941955,3670026,-0.004597754,-0.0077794204,0.00057714194,3670026,0.00669191,0.0678487,-0.004383215,396809,0.0,0.0,0.0
222939863,3670026,-0.004607452,-0.007762089,0.0005805244,3670026,0.005697999,0.06714334,-0.004319884,396809,0.0,0.0,0.0
223937871,3670026,-0.0046093957,-0.0077429935,0.00059064996,3670026,0.0051938505,0.066748865,-0.0042700544,396809,0.0,0.0,0.0
224935668,3670026,-0.0046179756,-0.0077028205,0.0005963285,3670026,0.004922469,0.06619869,-0.0042529465,396809,0.0,0.0,0.0
225943502,3670026,-0.004605856,-0.007665281,0.0006062027,3670026,0.0048455023,0.066090405,-0.004239234,396809,0.0,0.0,0.0
226941411,3670026,-0.0046223765,-0.007656542,0.00061317923,3670026,0.0047615464,0.06611951,-0.0042430214,396809,0.0,0.0,0.0
227934346,3670026,-0.0046228934,-0.0076497984,0.00061820826,3670026,0.004638343,0.06564917,-0.004204389,396809,0.0,0.0,0.0
228942180,3670026,-0.004629294,-0.0076884306,0.0006153799,3670026,0.0048558516,0.06568436,-0.004157081,396809,0.0,0.0,0.0
229940085,3670026,-0.004602618,-0.0077197077,0.0006171552,3670026,0.005160523,0.06546481,-0.0040709497,396809,0.0,0.0,0.0
230933119,3670026,-0.004610442,-0.0076514566,0.00061378593,3670026,0.0050544064,0.06570293,-0.0039679785,396809,0.0,0.0,0.0
231940858,3670026,-0.004621678,-0.007675318,0.00060720916,3670026,0.005051665,0.065736145,-0.0039232806,396809,0.0,0.0,0.0
232938763,3670026,-0.0046161856,-0.007737004,0.0005856334,3670026,0.0051697996,0.065523565,-0.0038914762,396809,0.0,0.0,0.0
233936667,3670026,-0.0046422556,-0.0077243093,0.0005618007,3670026,0.0049082013,0.065358,-0.0037813094,396809,0.0,0.0,0.0
234934572,3670026,-0.0046504126,-0.0077161007,0.00053666247,3670026,0.004891239,0.06541024,-0.0037101288,396809,0.0,0.0,0.0
235942406,3670026,-0.0046795774,-0.007778094,0.00051593943,3670026,0.0049547395,0.06569795,-0.0036388985,396809,0.0,0.0,0.0
236935346,3670026,-0.0046734163,-0.0077575194,0.0004990408,3670026,0.0048555494,0.065382294,-0.0035533325,396809,0.0,0.0,0.0
237933352,3670026,-0.0046719904,-0.0077941967,0.0004680241,3670026,0.0049122027,0.06504582,-0.0035059513,396809,0.0,0.0,0.0
238941085,3670026,-0.0046858494,-0.007826733,0.00044003344,3670026,0.0048458227,0.064930044,-0.0034741398,396809,0.0,0.0,0.0
239934025,3670026,-0.004676519,-0.007828091,0.00042588494,3670026,0.0050265025,0.065099455,-0.0034343072,396809,0.0,0.0,0.0
240936894,3670026,-0.004686116,-0.007809547,0.00039986393,3670026,0.004957334,0.0651572,-0.0033047958,396809,0.0,0.0,0.0
241939763,3670026,-0.00465823,-0.0077644153,0.00037760832,3670026,0.0050128684,0.06488471,-0.0031672644,396809,0.0,0.0,0.0
242942633,3670026,-0.004693692,-0.0078476975,0.00037324874,3670026,0.005112495,0.0653352,-0.0031102719,396809,0.0,0.0,0.0
243935614,3670026,-0.0046785073,-0.0078036217,0.00036709927,3670026,0.0051182085,0.06517528,-0.0029988508,396809,0.0,0.0,0.0
244933593,3670026,-0.004685144,-0.007817539,0.0003621888,3670026,0.0051794504,0.06527033,-0.0028974947,396809,0.0,0.0,0.0
245941312,3670026,-0.0046977685,-0.007816734,0.00035552162,3670026,0.0052263686,0.065492734,-0.0027538755,396809,0.0,0.0,0.0
246934252,3670026,-0.0046972036,-0.007820566,0.00034140545,3670026,0.0052450723,0.0652794,-0.0025960207,396809,0.0,0.0,0.0
247942087,3670026,-0.0047117365,-0.007830437,0.0003242422,3670026,0.0053238114,0.06555205,-0.0024872252,396809,0.0,0.0,0.0
248939992,3670026,-0.0047043706,-0.0078383535,0.00031449963,3670026,0.0054309503,0.06559489,-0.0024271007,396809,0.0,0.0,0.0
249942861,3670026,-0.0046402626,-0.007849924,0.00030032572,3670026,0.005677557,0.06537915,-0.002375263,396809,0.0,0.0,0.0
250940765,3670026,-0.0046586227,-0.0078437915,0.0003024468,3670026,0.0056590857,0.0656457,-0.0023518554,396809,0.0,0.0,0.0
251938822,3670026,-0.0046634786,-0.00785958,0.00030495602,3670026,0.005767195,0.06568924,-0.0021248986,396809,0.0,0.0,0.0
252936575,3670026,-0.004622668,-0.007835775,0.00031014983,3670026,0.005845242,0.06523135,-0.0019902512,396809,0.0,0.0,0.0
253934480,3670026,-0.0046498883,-0.007873056,0.00031509047,3670026,0.005928304,0.06572974,-0.0019856219,396809,0.0,0.0,0.0
254942349,3670026,-0.0046512475,-0.007874899,0.0003212735,3670026,0.0059527038,0.065774865,-0.0019549958,396809,0.0,0.0,0.0
255940225,3670026,-0.0046591745,-0.007876043,0.0003199067,3670026,0.0058266614,0.06552286,-0.0018854168,396809,0.0,0.0,0.0
256943089,3670026,-0.004632919,-0.007870976,0.00032771303,3670026,0.0059104417,0.06537931,-0.0018182002,396809,0.0,0.0,0.0
257940994,3670026,-0.004639829,-0.007833558,0.00033758223,3670026,0.006009181,0.06581341,-0.0017889731,396809,0.0,0.0,0.0
258934076,3670026,-0.0046557644,-0.007784598,0.00035242256,3670026,0.005983136,0.06566371,-0.0016643271,396809,0.0,0.0,0.0
259941767,3670026,-0.0046721925,-0.0078107202,0.0003611994,3670026,0.0060552186,0.06591632,-0.0015486573,396809,0.0,0.0,0.0
260939674,3670026,-0.004673398,-0.007816086,0.00038790354,3670026,0.006133723,0.06603308,-0.0014087353,396809,0.0,0.0,0.0
261937579,3670026,-0.00466804,-0.007810873,0.00041340545,3670026,0.0060623125,0.065707855,-0.0013349608,396809,0.0,0.0,0.0
262940458,3670026,-0.0047104317,-0.007861785,0.00043502607,3670026,0.0060289223,0.065956555,-0.0013311466,396809,0.0,0.0,0.0
263938354,3670026,-0.0047245882,-0.007896143,0.00045125678,3670026,0.005992889,0.065854035,-0.0013925065,396809,0.0,0.0,0.0
264936259,3670026,-0.004741403,-0.00785377,0.0004616227,3670026,0.005958078,0.06571993,-0.0012550792,396809,0.0,0.0,0.0
265934325,3670026,-0.004696013,-0.007819948,0.00045885428,3670026,0.0059674624,0.06577716,-0.0012052391,396809,0.0,0.0,0.0
266941998,3670026,-0.0046660732,-0.007849497,0.00047195348,3670026,0.006016271,0.06594885,-0.0010731576,396809,0.0,0.0,0.0
267934943,3670026,-0.0046202256,-0.0078933425,0.0004842013,3670026,0.0058761346,0.065697834,-0.0010469817,396809,0.0,0.0,0.0
268942773,3670026,-0.0045907884,-0.007928201,0.00049958215,3670026,0.005895452,0.06588351,-0.0009892215,396809,0.0,0.0,0.0
269935760,3670026,-0.004551985,-0.007907323,0.0005104551,3670026,0.0058935788,0.06572134,-0.0009176297,396809,0.0,0.0,0.0
270933664,3670026,-0.0045868857,-0.007958072,0.000528716,3670026,0.0058966284,0.065983236,-0.0008657027,396809,0.0,0.0,0.0
271936513,3670026,-0.0046123234,-0.008012625,0.0005492378,3670026,0.005875435,0.06604382,-0.00085072865,396809,0.0,0.0,0.0
272939559,3670026,-0.004608539,-0.008041603,0.0005664238,3670026,0.005939949,0.06610073,-0.0008079529,396809,0.0,0.0,0.0
273942230,3670026,-0.004588528,-0.007941071,0.00058109476,3670026,0.006986103,0.065789446,-0.0044168443,396809,0.0,0.0,0.0
274935169,3670026,-0.0046014446,-0.007865062,0.000588246,3670026,0.009433682,0.06539149,-0.014667687,396809,0.0,0.0,0.0
275943004,3670026,-0.0045894017,-0.0077844677,0.0006176454,3670026,0.011001476,0.06484738,-0.022353007,396809,0.0,0.0,0.0
276940945,3670026,-0.0045956536,-0.0077187386,0.0006547285,3670026,0.012683337,0.06405555,-0.027339805,396809,0.0,0.0,0.0
277933848,3670026,-0.0046081534,-0.0076968037,0.00071545056,3670026,0.012930895,0.064194,-0.031413898,396809,0.0,0.0,0.0
278941685,3670026,-0.0045602336,-0.007690306,0.000763142,3670026,0.010636276,0.06584224,-0.0333517,396809,0.0,0.0,0.0
279939641,3670026,-0.004575749,-0.007691449,0.00081049395,3670026,0.011294264,0.06840239,-0.03859034,396809,0.0,0.0,0.0
280942458,3670026,-0.004580383,-0.0076712454,0.0008507367,3670026,0.012017614,0.06967783,-0.043111466,396809,0.0,0.0,0.0
281940365,3670026,-0.004618482,-0.0076849777,0.00090823066,3670026,0.012171033,0.06990934,-0.046958346,396809,0.0,0.0,0.0
282943234,3670026,-0.004538437,-0.007733812,0.0009906815,3670026,0.010655522,0.07328489,-0.050866783,396809,0.0,0.0,0.0
283941178,3670026,-0.004488626,-0.00768238,0.0010218935,3670026,0.009890643,0.07358509,-0.05111035,396809,0.0,0.0,0.0
284934079,3670026,-0.004465979,-0.0076746596,0.0010422047,3670026,0.010119832,0.07357081,-0.05000225,396809,0.0,0.0,0.0
285941913,3670026,-0.0045304648,-0.0077218083,0.0010667208,3670026,0.010619462,0.07297298,-0.049319513,396809,0.0,0.0,0.0
286934858,3670026,-0.004455358,-0.0076525584,0.001090224,3670026,0.010995664,0.07228716,-0.048030972,396809,0.0,0.0,0.0
287937723,3670026,-0.004433564,-0.0076420475,0.0011096712,3670026,0.011318325,0.07215226,-0.04684367,396809,0.0,0.0,0.0
288935628,3670026,-0.0044797766,-0.0076935836,0.0011382041,3670026,0.011345449,0.0720505,-0.045987085,396809,0.0,0.0,0.0
289943463,3670026,-0.0045206654,-0.0076606916,0.0011590865,3670026,0.011256628,0.07227283,-0.04472984,396809,0.0,0.0,0.0
290941479,3670026,-0.004451141,-0.007746878,0.0011891589,3670026,0.012238497,0.071412764,-0.04301005,396809,0.0,0.0,0.0
291939322,3670026,-0.00437238,-0.00781882,0.001200907,3670026,0.013195727,0.07090883,-0.041313857,396809,0.0,0.0,0.0
292942143,3670026,-0.0043939725,-0.007764331,0.001207612,3670026,0.012982551,0.07114301,-0.03981431,396809,0.0,0.0,0.0
293935083,3670026,-0.0044207554,-0.0077176285,0.0012182525,3670026,0.012819177,0.07150029,-0.038442615,396809,0.0,0.0,0.0
294932989,3670026,-0.0044793715,-0.007771028,0.0012372748,3670026,0.012500683,0.0717178,-0.036958247,396809,0.0,0.0,0.0
295940824,3670026,-0.004515234,-0.00778174,0.0012454813,3670026,0.012295159,0.071961924,-0.035782978,396809,0.0,0.0,0.0
296943694,3670026,-0.0045085126,-0.007767231,0.0012420791,3670026,0.012321073,0.07201152,-0.03430986,396809,0.0,0.0,0.0
297941666,3670026,-0.004513278,-0.007794506,0.0012393186,3670026,0.0123502975,0.07210872,-0.033383716,396809,0.0,0.0,0.0
298934539,3670026,-0.004510842,-0.007806741,0.0012306115,3670026,0.012368662,0.07216002,-0.03204113,396809,0.0,0.0,0.0
299937417,3670026,-0.004508361,-0.00781469,0.0012166784,3670026,0.012247982,0.07197977,-0.030965285,396809,0.0,0.0,0.0
300940291,3670026,-0.004526983,-0.0078942245,0.0011951316,3670026,0.012068457,0.07196526,-0.030129757,396809,0.0,0.0,0.0
301933233,3670026,-0.0044831466,-0.0078983735,0.0011621579,3670026,0.012073376,0.07153069,-0.029078443,396809,0.0,0.0,0.0
302936090,3670026,-0.0045061507,-0.00788509,0.0011299404,3670026,0.011984639,0.07205211,-0.028071528,396809,0.0,0.0,0.0
303943925,3670026,-0.004538246,-0.007876299,0.0011081361,3670026,0.011867439,0.07251491,-0.027056184,396809,0.0,0.0,0.0
304936921,3670026,-0.004580092,-0.007883476,0.0010856022,3670026,0.01162273,0.07270783,-0.025970276,396809,0.0,0.0,0.0
305934771,3670026,-0.0045729247,-0.00785886,0.0010616515,3670026,0.011532998,0.072607264,-0.024795733,396809,0.0,0.0,0.0
306942608,3670026,-0.0045664497,-0.007862268,0.0010422787,3670026,0.011523722,0.07261601,-0.023828337,396809,0.0,0.0,0.0
307940511,3670026,-0.004600875,-0.007873417,0.0010262489,3670026,0.011414721,0.072887056,-0.023365807,396809,0.0,0.0,0.0
308938416,3670026,-0.004586877,-0.007916628,0.0010160302,3670026,0.011414128,0.07283131,-0.02305263,396809,0.0,0.0,0.0
309941285,3670026,-0.0045607863,-0.007893272,0.0009910737,3670026,0.0114684105,0.07264215,-0.022054857,396809,0.0,0.0,0.0
310939196,3670026,-0.0045631593,-0.007881052,0.00097490824,3670026,0.011666794,0.07297172,-0.020960439,396809,0.0,0.0,0.0
311942164,3670026,-0.004497054,-0.007865748,0.00095493655,3670026,0.011988852,0.072778046,-0.01988262,396809,0.0,0.0,0.0
312935004,3670026,-0.00449055,-0.007890389,0.0009166359,3670026,0.012438495,0.07226815,-0.018741854,396809,0.0,0.0,0.0
313937872,3670026,-0.004446093,-0.007882121,0.00096135086,3670026,0.011996555,0.07210914,-0.016403519,396809,0.0,0.0,0.0
314935777,3670026,-0.004449954,-0.00783855,0.0009289863,3670026,0.012488113,0.07178377,-0.014911161,396809,0.0,0.0,0.0
315933682,3670026,-0.0044787237,-0.0078428015,0.00090479146,3670026,0.012634871,0.071635164,-0.013734993,396809,0.0,0.0,0.0
316941517,3670026,-0.0045462116,-0.007871497,0.00090047665,3670026,0.0129796835,0.07142641,-0.013085453,396809,0.0,0.0,0.0
317944387,3670026,-0.004584108,-0.00789036,0.00087701995,3670026,0.012957858,0.071415275,-0.012844189,396809,0.0,0.0,0.0
318932421,3670026,-0.004588825,-0.00782649,0.00084201293,3670026,0.012783604,0.071279526,-0.012510174,396809,0.0,0.0,0.0
319940201,3670026,-0.004566211,-0.007822692,0.00080277177,3670026,0.012723847,0.07147309,-0.011468994,396809,0.0,0.0,0.0
320938100,3670026,-0.0045601693,-0.007856363,0.0007559239,3670026,0.0125623,0.071081184,-0.010576094,396809,0.0,0.0,0.0
321936010,3670026,-0.004564476,-0.00792342,0.0007248146,3670026,0.012530166,0.07089957,-0.010076657,396809,0.0,0.0,0.0
322938879,3670026,-0.0046646288,-0.008025665,0.00067463197,3670026,0.01222487,0.07122834,-0.009743937,396809,0.0,0.0,0.0
323941751,3670026,-0.0047055637,-0.00796544,0.0006227575,3670026,0.011880048,0.07124531,-0.009571056,396809,0.0,0.0,0.0
324944620,3670026,-0.004667701,-0.007916614,0.00057306286,3670026,0.011911421,0.07123899,-0.00840658,396809,0.0,0.0,0.0
325932709,3670026,-0.004684637,-0.007859841,0.0005164309,3670026,0.011810431,0.07166639,-0.007792782,396809,0.0,0.0,0.0
326940431,3670026,-0.0046638614,-0.007849365,0.00046873494,3670026,0.011816312,0.07190219,-0.0069714887,396809,0.0,0.0,0.0
327943301,3670026,-0.004655186,-0.007833026,0.0004387831,3670026,0.011712953,0.07177504,-0.0064418046,396809,0.0,0.0,0.0
328941214,3670026,-0.0046578627,-0.007828397,0.00040799772,3670026,0.011714387,0.07213476,-0.005760225,396809,0.0,0.0,0.0
329939113,3670026,-0.0046735797,-0.007843572,0.00036902638,3670026,0.011603597,0.0722699,-0.005147564,396809,0.0,0.0,0.0
330937020,3670026,-0.0046928558,-0.007816233,0.00036678274,3670026,0.011432413,0.072073445,-0.0048916927,396809,0.0,0.0,0.0
331934925,3670026,-0.004657977,-0.007835435,0.00035176496,3670026,0.011632543,0.07306414,-0.0016486992,396809,0.0,0.0,0.0
332937899,3670026,-0.004711716,-0.007937526,0.0004737196,3670026,0.009966988,0.07889472,0.002955994,396809,0.0,0.0,0.0
333935701,3670026,-0.004743289,-0.007937089,0.0005455417,3670026,0.0078061395,0.08382302,0.0058415807,396809,0.0,0.0,0.0
334943536,3670026,-0.004740765,-0.007874576,0.00061540527,3670026,0.004794541,0.08309615,0.007889008,396809,0.0,0.0,0.0
335941442,3670026,-0.004786366,-0.007869165,0.0006765503,3670026,0.0036805128,0.0819862,0.0101453755,396809,0.0,0.0,0.0
336934387,3670026,-0.004723295,-0.007796179,0.00068962865,3670026,0.00054275815,0.080034554,0.010075459,396809,0.0,0.0,0.0
337942219,3670026,-0.004742252,-0.007788642,0.0007169592,3670026,-0.00047707232,0.078946196,0.010523846,396809,0.0,0.0,0.0
338935160,3670026,-0.0048193163,-0.007805212,0.0007720402,3670026,-0.0059315576,0.07847745,0.01233182,396809,0.0,0.0,0.0
339933211,3670026,-0.0048022503,-0.007827363,0.0007905354,3670026,-0.011866765,0.07972121,0.014120382,396809,0.0,0.0,0.0
340935936,3670026,-0.0047607687,-0.007831166,0.000778395,3670026,-0.013663073,0.080487646,0.014322015,396809,0.0,0.0,0.0
341938846,3670026,-0.0048542377,-0.007909663,0.0007768555,3670026,-0.017703181,0.08130184,0.01616952,396809,0.0,0.0,0.0
342936716,3670026,-0.004870774,-0.007909183,0.00072543323,3670026,-0.024749296,0.08216816,0.018518014,396809,0.0,0.0,0.0
343934623,3670026,-0.004887834,-0.007879039,0.00070167606,3670026,-0.031308904,0.08229949,0.02081607,396809,0.0,0.0,0.0
344942455,3670026,-0.0048527014,-0.007869587,0.00067784096,3670026,-0.03313882,0.08271228,0.020616416,396809,0.0,0.0,0.0
345935396,3670026,-0.004874345,-0.007824236,0.0006735378,3670026,-0.032969072,0.08183543,0.018964862,396809,0.0,0.0,0.0
346933418,3670026,-0.0048957053,-0.007837145,0.00066404,3670026,-0.033474695,0.08183851,0.018036792,396809,0.0,0.0,0.0
347941138,3670026,-0.0048918603,-0.007832106,0.0006508711,3670026,-0.033792738,0.0818856,0.017689079,396809,0.0,0.0,0.0
348944009,3670026,-0.004922037,-0.007833562,0.00064133987,3670026,-0.034229357,0.081844896,0.01708133,396809,0.0,0.0,0.0
349936952,3670026,-0.0048859394,-0.007809188,0.000624982,3670026,-0.034125347,0.08151367,0.016775783,396809,0.0,0.0,0.0
350939884,3670026,-0.004894627,-0.007825477,0.00061604293,3670026,-0.034339402,0.081484556,0.017536052,396809,0.0,0.0,0.0
351942695,3670026,-0.0048414613,-0.007794414,0.00060852384,3670026,-0.0337949,0.08167842,0.018764796,396809,0.0,0.0,0.0
352935633,3670026,-0.004796571,-0.007766783,0.00058622303,3670026,-0.033428736,0.081368916,0.019231988,396809,0.0,0.0,0.0
353933659,3670026,-0.0047841487,-0.0077692675,0.00056179654,3670026,-0.033480346,0.080576725,0.018642796,396809,0.0,0.0,0.0
354941375,3670026,-0.004802585,-0.0077913823,0.0005384067,3670026,-0.03373082,0.08022295,0.01718359,396809,0.0,0.0,0.0
355939281,3670026,-0.004770408,-0.007791385,0.00050816796,3670026,-0.033449844,0.07979684,0.016338978,396809,0.0,0.0,0.0
356932223,3670026,-0.004796311,-0.0078668725,0.00048485145,3670026,-0.03372876,0.079599045,0.015160624,396809,0.0,0.0,0.0
357940064,3670026,-0.0047834474,-0.007854127,0.00045408978,3670026,-0.033649575,0.079334356,0.014035292,396809,0.0,0.0,0.0
358942933,3670026,-0.004773077,-0.007841194,0.0004241052,3670026,-0.033582915,0.079121955,0.0127856815,396809,0.0,0.0,0.0
359935919,3670026,-0.0047513447,-0.007829122,0.00039542074,3670026,-0.03342825,0.07891897,0.011556821,396809,0.0,0.0,0.0
360938899,3670026,-0.004775252,-0.007887845,0.00036905805,3670026,-0.033615384,0.07911173,0.011314544,396809,0.0,0.0,0.0
361941614,3670026,-0.004729989,-0.007851745,0.0003407391,3670026,-0.033279706,0.07882239,0.010646194,396809,0.0,0.0,0.0
362934556,3670026,-0.0047861435,-0.007997988,0.00021991841,3670026,-0.041605998,0.080499835,0.010581136,396809,0.0,0.0,0.0
363937427,3670026,-0.004793327,-0.008025715,0.00012324103,3670026,-0.04977365,0.081322014,0.009739841,396809,0.0,0.0,0.0
364935362,3670026,-0.004802966,-0.008064855,7.6625874e-05,3670026,-0.054201696,0.08177638,0.008982133,396809,0.0,0.0,0.0
365943169,3670026,-0.0048008766,-0.008017542,5.5635217e-05,3670026,-0.054849308,0.0816081,0.008546137,396809,0.0,0.0,0.0
366941077,3670026,-0.004802817,-0.007941269,3.4571825e-05,3670026,-0.055377763,0.081157036,0.009084781,396809,0.0,0.0,0.0
367934159,3670026,-0.0047341427,-0.007835339,1.7577946e-05,3670026,-0.0555227,0.08045065,0.00870138,396809,0.0,0.0,0.0
368936889,3670026,-0.0046820412,-0.007802713,7.075714e-06,3670026,-0.055453204,0.080266766,0.009697164,396809,0.0,0.0,0.0
369939760,3670026,-0.0046948157,-0.007818114,-1.069972e-05,3670026,-0.05602469,0.0808578,0.011090533,396809,0.0,0.0,0.0
370937667,3670026,-0.0046983846,-0.007796282,-2.1598486e-05,3670026,-0.0558541,0.08019143,0.012468893,396809,0.0,0.0,0.0
371935573,3670026,-0.0046764226,-0.0078987265,3.2244305e-05,3670026,-0.06395363,0.078672715,0.013136152,396809,0.0,0.0,0.0
372938445,3670026,-0.0046906387,-0.008038482,8.304403e-05,3670026,-0.07149192,0.07812454,0.013858382,396809,0.0,0.0,0.0
373936351,3670026,-0.0046662753,-0.007976354,9.47538e-05,3670026,-0.07241656,0.07818286,0.014523843,396809,0.0,0.0,0.0
374934416,3670026,-0.004676867,-0.007929159,0.000109078566,3670026,-0.07285373,0.07848548,0.01483236,396809,0.0,0.0,0.0
375942094,3670026,-0.0046703443,-0.007942598,0.00012012792,3670026,-0.07296689,0.0788721,0.01499853,396809,0.0,0.0,0.0
376940023,3670026,-0.0047003445,-0.007926287,0.00013715788,3670026,-0.0733756,0.07920395,0.014913221,396809,0.0,0.0,0.0
377932982,3670026,-0.0047075828,-0.0079056965,0.00015986085,3670026,-0.07345141,0.07931454,0.014619768,396809,0.0,0.0,0.0
378940800,3670026,-0.004678389,-0.007921362,0.00018056479,3670026,-0.07347337,0.079731576,0.0146143865,396809,0.0,0.0,0.0
379938695,3670026,-0.0046869395,-0.00794343,0.00020411998,3670026,-0.07357934,0.079984196,0.015438707,396809,0.0,0.0,0.0
380936592,3670026,-0.004661979,-0.007941859,0.00022951877,3670026,-0.07331251,0.07989353,0.0161684,396809,0.0,0.0,0.0
381934703,3670026,-0.0046027903,-0.0078969,0.00025823433,3670026,-0.07315405,0.07996259,0.016497998,396809,0.0,0.0,0.0
382937372,3670026,-0.0046510412,-0.007919104,0.00030121743,3670026,-0.073626764,0.08076819,0.015095227,396809,0.0,0.0,0.0
383935278,3670026,-0.0045870924,-0.007877025,0.00033937255,3670026,-0.07331142,0.08063261,0.013519932,396809,0.0,0.0,0.0
384933184,3670026,-0.0045575583,-0.00788462,0.00037529194,3670026,-0.07328308,0.08076004,0.013969673,396809,0.0,0.0,0.0
385941046,3670026,-0.0045517506,-0.007872125,0.00041279197,3670026,-0.07329708,0.080980554,0.014051499,396809,0.0,0.0,0.0
386933962,3670026,-0.0045597292,-0.007910828,0.000451082,3670026,-0.07349158,0.08134822,0.014903075,396809,0.0,0.0,0.0
387941800,3670026,-0.004629805,-0.007873021,0.0004900027,3670026,-0.07325054,0.08132063,0.012372188,396809,0.0,0.0,0.0
388939706,3670026,-0.0046124617,-0.007903344,0.0005744829,3670026,-0.073427044,0.081203125,0.01745225,396809,0.0,0.0,0.0
389942583,3670026,-0.004567844,-0.0077966247,0.000465077,3670026,-0.0709925,0.08168494,0.024022501,396809,0.0,0.0,0.0
390935520,3670026,-0.0046434803,-0.0077482658,0.00023731896,3670026,-0.06475998,0.08365342,0.030619876,396809,0.0,0.0,0.0
391938393,3670026,-0.0047519985,-0.0076703816,7.9713616e-05,3670026,-0.05543603,0.08517782,0.033737805,396809,0.0,0.0,0.0
392941298,3670026,-0.004798006,-0.007599522,-9.974363e-06,3670026,-0.050517045,0.08483204,0.03481154,396809,0.0,0.0,0.0
393934222,3670026,-0.0048095775,-0.0075609693,-4.808588e-05,3670026,-0.04971129,0.08117194,0.034309283,396809,0.0,0.0,0.0
394942052,3670026,-0.0048484304,-0.0075722877,-6.875187e-05,3670026,-0.049127385,0.07960183,0.033639282,396809,0.0,0.0,0.0
395935176,3670026,-0.004860793,-0.0075270482,-9.9240526e-05,3670026,-0.04857131,0.0780751,0.03402018,396809,0.0,0.0,0.0
396937856,3670026,-0.0048948918,-0.0075282753,-0.00013105202,3670026,-0.04734724,0.08021661,0.037013877,396809,0.0,0.0,0.0
397940728,3670026,-0.0049946215,-0.007613218,-0.00018026574,3670026,-0.047136806,0.08193259,0.041034605,396809,0.0,0.0,0.0
398933671,3670026,-0.004987277,-0.007637513,-0.00020744893,3670026,-0.046906386,0.08290428,0.04163001,396809,0.0,0.0,0.0
399941609,3670026,-0.0049762307,-0.0076213204,-0.00023490257,3670026,-0.04664774,0.08282121,0.040241394,396809,0.0,0.0,0.0
400939415,3670026,-0.004976556,-0.007642306,-0.0002710197,3670026,-0.046371385,0.0831886,0.038627032,396809,0.0,0.0,0.0
401942287,3670026,-0.0049136584,-0.0076186657,-0.00030736078,3670026,-0.045828257,0.08356535,0.035723086,396809,0.0,0.0,0.0
402935229,3670026,-0.004886995,-0.0075859386,-0.0003441926,3670026,-0.045409538,0.083508074,0.03374534,396809,0.0,0.0,0.0
403943066,3670026,-0.004886688,-0.0076158624,-0.00034897882,3670026,-0.04553376,0.08375892,0.031268388,396809,0.0,0.0,0.0
404940975,3670026,-0.004935809,-0.007660756,-0.00033573815,3670026,-0.04610574,0.08426518,0.03121185,396809,0.0,0.0,0.0
405933920,3670026,-0.004874826,-0.0075903665,-0.00032177896,3670026,-0.045602173,0.08386513,0.030367931,396809,0.0,0.0,0.0
406941848,3670026,-0.004900084,-0.007648345,-0.00030210824,3670026,-0.046138138,0.08399034,0.028135534,396809,0.0,0.0,0.0
407939662,3670026,-0.004891974,-0.0076638605,-0.00028460854,3670026,-0.04628852,0.08396069,0.02649006,396809,0.0,0.0,0.0
408937568,3670026,-0.004859962,-0.0076564616,-0.00026401272,3670026,-0.046269666,0.083434984,0.02497289,396809,0.0,0.0,0.0
409935478,3670026,-0.004880583,-0.0077124387,-0.00023334524,3670026,-0.0467766,0.08363264,0.023878245,396809,0.0,0.0,0.0
410933389,3670026,-0.004853358,-0.0076782885,-0.00019794787,3670026,-0.04670546,0.083560035,0.023236632,396809,0.0,0.0,0.0
411936255,3670026,-0.0048486963,-0.00769668,-0.00015077466,3670026,-0.046980675,0.08358198,0.021753775,396809,0.0,0.0,0.0
412934166,3670026,-0.004803904,-0.007704554,-9.523815e-05,3670026,-0.046906173,0.083096005,0.021154707,396809,0.0,0.0,0.0
413942129,3670026,-0.004787497,-0.0077264174,-3.2466345e-05,3670026,-0.047105473,0.082982995,0.020316254,396809,0.0,0.0,0.0
414934943,3670026,-0.004750925,-0.0077368235,4.171805e-05,3670026,-0.04716411,0.0830597,0.0191228,396809,0.0,0.0,0.0
415942780,3670026,-0.004749864,-0.007760887,0.00012120931,3670026,-0.047546275,0.082682796,0.018338343,396809,0.0,0.0,0.0
416940688,3670026,-0.004724121,-0.0077697663,0.00019146166,3670026,-0.047600865,0.08258815,0.01735899,396809,0.0,0.0,0.0
417933631,3670026,-0.0046921764,-0.007734567,0.0002559863,3670026,-0.04752605,0.08225359,0.016499564,396809,0.0,0.0,0.0
418936503,3670026,-0.0046966844,-0.007761837,0.00031995075,3670026,-0.04778516,0.08265544,0.015429695,396809,0.0,0.0,0.0
419939373,3670026,-0.004668905,-0.007805811,0.00036978826,3670026,-0.047839057,0.08220893,0.01567728,396809,0.0,0.0,0.0
420942381,3670026,-0.004678862,-0.007802735,0.00038294191,3670026,-0.047937624,0.08253165,0.014499732,396809,0.0,0.0,0.0
421935213,3670026,-0.004721743,-0.007819369,0.0003941244,3670026,-0.048188325,0.08255519,0.014281365,396809,0.0,0.0,0.0
422943028,3670026,-0.0046852715,-0.007872982,0.00035705484,3670026,-0.04804678,0.08234041,0.013835014,396809,0.0,0.0,0.0
423935972,3670026,-0.0046777087,-0.007810692,0.00029219527,3670026,-0.047705017,0.082242124,0.012317813,396809,0.0,0.0,0.0
424933879,3670026,-0.0046669384,-0.0077517773,0.00019719522,3670026,-0.047369353,0.08233606,0.0116768405,396809,0.0,0.0,0.0
425941716,3670026,-0.0046872757,-0.007803309,0.00011268137,3670026,-0.04739673,0.08235728,0.012221252,396809,0.0,0.0,0.0
426934691,3670026,-0.0046815444,-0.00786391,2.9274648e-05,3670026,-0.04740972,0.082162425,0.012237426,396809,0.0,0.0,0.0
427942593,3670026,-0.004662476,-0.007838052,-2.1455182e-05,3670026,-0.047206756,0.08221849,0.013145831,396809,0.0,0.0,0.0
428940412,3670026,-0.0046814317,-0.007826756,-3.884466e-05,3670026,-0.047293115,0.08250743,0.013088937,396809,0.0,0.0,0.0
429943277,3670026,-0.0047173356,-0.007853192,-4.7180933e-05,3670026,-0.04731195,0.08253661,0.012943566,396809,0.0,0.0,0.0
430936221,3670026,-0.004684416,-0.007829344,-6.732565e-05,3670026,-0.047119536,0.08227214,0.013302827,396809,0.0,0.0,0.0
431934131,3670026,-0.0047356137,-0.0077870125,-9.329315e-05,3670026,-0.04703635,0.08241867,0.014241338,396809,0.0,0.0,0.0
432941967,3670026,-0.004721025,-0.007875625,-0.0001128603,3670026,-0.04723024,0.082817376,0.014253339,396809,0.0,0.0,0.0
433934912,3670026,-0.004661616,-0.007816963,-0.00014505643,3670026,-0.04681953,0.08220475,0.013505246,396809,0.0,0.0,0.0
434932903,3670026,-0.004660497,-0.007823878,-0.00017542127,3670026,-0.046865083,0.08238763,0.012812721,396809,0.0,0.0,0.0
435935691,3670026,-0.0046585356,-0.007851168,-0.00017957618,3670026,-0.04694361,0.08251078,0.011482098,396809,0.0,0.0,0.0
436943528,3670026,-0.0046922257,-0.007847414,-0.00018366835,3670026,-0.04698662,0.08236646,0.010716542,396809,0.0,0.0,0.0
437941437,3670026,-0.0047074086,-0.0078825345,-0.00019070094,3670026,-0.047136925,0.08254794,0.009975991,396809,0.0,0.0,0.0
438939344,3670026,-0.0046610227,-0.007887468,-0.0001815789,3670026,-0.04700608,0.0824519,0.009813498,396809,0.0,0.0,0.0
439942221,3670026,-0.004611742,-0.007857752,-0.00010108838,3670026,-0.045830585,0.08120064,0.011001837,396809,0.0,0.0,0.0
440935162,3670026,-0.004649639,-0.007825655,-9.915922e-05,3670026,-0.045250498,0.08404898,0.00879598,396809,0.0,0.0,0.0
441933146,3670026,-0.0047687492,-0.007851338,-0.00011876934,3670026,-0.043875426,0.08817876,0.0042914776,396809,0.0,0.0,0.0
442935954,3670026,-0.0048224423,-0.007828857,-0.00013979369,3670026,-0.042876296,0.08825388,0.0005063198,396809,0.0,0.0,0.0
443938860,3670026,-0.0048326976,-0.0077442154,-0.00016329378,3670026,-0.04190606,0.08351944,0.00057310046,396809,0.0,0.0,0.0
444936726,3670026,-0.0049058055,-0.007759858,-0.00021096581,3670026,-0.044801645,0.082859546,-0.0054473677,396809,0.0,0.0,0.0
445934632,3670026,-0.0049679317,-0.007788049,-0.00024596794,3670026,-0.049067218,0.08224327,-0.010901137,396809,0.0,0.0,0.0
446942469,3670026,-0.0050133825,-0.007782833,-0.00026931707,3670026,-0.05186477,0.08093033,-0.012153966,396809,0.0,0.0,0.0
447940377,3670026,-0.005016784,-0.0077530057,-0.00028810656,3670026,-0.052835822,0.0805475,-0.010628237,396809,0.0,0.0,0.0
448938398,3670026,-0.0050282413,-0.007715208,-0.0003082029,3670026,-0.053319428,0.080012515,-0.009254127,396809,0.0,0.0,0.0
449936199,3670026,-0.004986418,-0.0076216147,-0.00032705735,3670026,-0.05314778,0.07930244,-0.008846688,396809,0.0,0.0,0.0
450939067,3670026,-0.004977387,-0.007697816,-0.00035819574,3670026,-0.053084746,0.08033868,-0.008030876,396809,0.0,0.0,0.0
451941949,3670026,-0.0049341065,-0.007678444,-0.00038122133,3670026,-0.052537333,0.080354236,-0.0057385988,396809,0.0,0.0,0.0
452934885,3670026,-0.004943135,-0.0076710684,-0.0004007255,3670026,-0.052385204,0.08033186,-0.0035732905,396809,0.0,0.0,0.0
453942722,3670026,-0.004956991,-0.007692804,-0.0004275812,3670026,-0.052498113,0.08113299,-0.0024202035,396809,0.0,0.0,0.0
454940630,3670026,-0.0049244454,-0.00770152,-0.00044954452,3670026,-0.05221843,0.08069762,-0.0010245353,396809,0.0,0.0,0.0
455933741,3670026,-0.004885188,-0.0076925997,-0.00046649997,3670026,-0.051823724,0.08062258,0.0012509169,396809,0.0,0.0,0.0
456941412,3670026,-0.004892579,-0.0077355374,-0.0004766719,3670026,-0.0519649,0.080769256,0.0027444086,396809,0.0,0.0,0.0
457944286,3670026,-0.004878683,-0.007704106,-0.00048894575,3670026,-0.0517802,0.080605544,0.0015118273,396809,0.0,0.0,0.0
458937230,3670026,-0.00485631,-0.0077201813,-0.00050069776,3670026,-0.051638156,0.080736674,0.0010383247,396809,0.0,0.0,0.0
459935138,3670026,-0.00481668,-0.0077042812,-0.0005019914,3670026,-0.05130128,0.08041947,0.0016920397,396809,0.0,0.0,0.0
460938053,3670026,-0.004864439,-0.007755232,-0.00051746465,3670026,-0.051701877,0.08100831,0.003164646,396809,0.0,0.0,0.0
461935920,3670026,-0.0048321495,-0.007710125,-0.0005276097,3670026,-0.051322296,0.08037529,0.0038772253,396809,0.0,0.0,0.0
462933981,3670026,-0.004819269,-0.0077364617,-0.00054102397,3670026,-0.051262558,0.08054054,0.0048910812,396809,0.0,0.0,0.0
463941672,3670026,-0.0047825193,-0.0077651273,-0.0005291072,3670026,-0.051078755,0.08029601,0.0053604483,396809,0.0,0.0,0.0
464944550,3670026,-0.004790614,-0.0077919518,-0.00052503403,3670026,-0.05120076,0.080377534,0.005895536,396809,0.0,0.0,0.0
465932519,3670026,-0.004777434,-0.007801879,-0.0005182761,3670026,-0.051119607,0.08011333,0.006952949,396809,0.0,0.0,0.0
466935400,3670026,-0.0047482057,-0.0077805617,-0.00050673675,3670026,-0.05088854,0.080002874,0.008708616,396809,0.0,0.0,0.0
467943230,3670026,-0.004796824,-0.0077960514,-0.00050557,3670026,-0.05127742,0.08059828,0.0074029504,396809,0.0,0.0,0.0
468941139,3670026,-0.0047638346,-0.007775038,-0.0004986352,3670026,-0.051034637,0.080396906,0.0077847587,396809,0.0,0.0,0.0
469939210,3670026,-0.0047573666,-0.007773318,-0.00048845005,3670026,-0.0509994,0.08044763,0.008375274,396809,0.0,0.0,0.0
470941923,3670026,-0.004747222,-0.007771968,-0.00046912237,3670026,-0.050947417,0.080083884,0.008217183,396809,0.0,0.0,0.0
471934866,3670026,-0.0047457176,-0.007784911,-0.00046544214,3670026,-0.05098525,0.080279134,0.008606144,396809,0.0,0.0,0.0
472932786,3670026,-0.0047383006,-0.0077670095,-0.0004479591,3670026,-0.050971154,0.0804737,0.0078059495,396809,0.0,0.0,0.0
473940659,3670026,-0.0047318623,-0.0077321315,-0.0004129762,3670026,-0.050859854,0.08022631,0.008614504,396809,0.0,0.0,0.0
474943486,3670026,-0.00471456,-0.007718044,-0.00038614517,3670026,-0.050758444,0.08013983,0.008170972,396809,0.0,0.0,0.0
475941397,3670026,-0.0047049746,-0.0077318703,-0.00035863268,3670026,-0.050770864,0.080134846,0.0082915705,396809,0.0,0.0,0.0
476934528,3670026,-0.004709251,-0.0077487077,-0.00032299958,3670026,-0.05070721,0.07977931,0.008480151,396809,0.0,0.0,0.0
477942179,3670026,-0.0047545787,-0.007775034,-0.00031585677,3670026,-0.050935216,0.08002549,0.006126237,396809,0.0,0.0,0.0
478940143,3670026,-0.0047565987,-0.00773712,-0.00028795062,3670026,-0.050947674,0.08020068,0.0018429245,396809,0.0,0.0,0.0
479933032,3670026,-0.0047470704,-0.007740319,-0.00026126613,3670026,-0.05095331,0.08016409,0.002956543,396809,0.0,0.0,0.0
480935951,3670026,-0.0046850294,-0.0076918975,-0.0002219029,3670026,-0.050557453,0.07960306,0.0055821254,396809,0.0,0.0,0.0
481938785,3670026,-0.0047299727,-0.0077564693,-0.00017779613,3670026,-0.05096923,0.080161855,0.006179624,396809,0.0,0.0,0.0
482941652,3670026,-0.0046894085,-0.007727608,-0.00013601812,3670026,-0.050726663,0.079822116,0.0072712293,396809,0.0,0.0,0.0
483934750,3670026,-0.004695782,-0.007741014,-8.967617e-05,3670026,-0.050681334,0.07961358,0.0075382264,396809,0.0,0.0,0.0
484942435,3670026,-0.0046866853,-0.0077658775,-4.5726294e-05,3670026,-0.05079697,0.07978808,0.008308067,396809,0.0,0.0,0.0
485935421,3670026,-0.0046798363,-0.007827264,-1.1917644e-05,3670026,-0.050870907,0.07970066,0.008937539,396809,0.0,0.0,0.0
486933288,3670026,-0.004677953,-0.0077740983,2.3132321e-05,3670026,-0.05078539,0.07962946,0.010754092,396809,0.0,0.0,0.0
487936169,3670026,-0.0046799155,-0.007746117,5.6504698e-05,3670026,-0.050744288,0.079581946,0.0122973835,396809,0.0,0.0,0.0
488939040,3670026,-0.00467841,-0.0078041633,8.2317965e-05,3670026,-0.050970066,0.07999864,0.012860801,396809,0.0,0.0,0.0
489936955,3670026,-0.004684862,-0.007761623,0.000110730136,3670026,-0.05080733,0.07979923,0.009727457,396809,0.0,0.0,0.0
490935024,3670026,-0.0046979506,-0.0077519803,0.00014353577,3670026,-0.050779194,0.07972831,0.00904486,396809,0.0,0.0,0.0
491942692,3670026,-0.004694754,-0.0078000952,0.00016987007,3670026,-0.05089731,0.07980681,0.008062295,396809,0.0,0.0,0.0
492935637,3670026,-0.0046774945,-0.007812765,0.0001955879,3670026,-0.050912373,0.07988167,0.008033534,396809,0.0,0.0,0.0
493933574,3670026,-0.0046723625,-0.007852539,0.00022239232,3670026,-0.050774287,0.079613246,0.0080087185,396809,0.0,0.0,0.0
494941456,3670026,-0.0046560303,-0.00780726,0.00025406168,3670026,-0.050819617,0.07987605,0.0086279465,396809,0.0,0.0,0.0
495934367,3670026,-0.0046145413,-0.0078038475,0.00028853328,3670026,-0.05080454,0.07986646,0.0107493615,396809,0.0,0.0,0.0
496932238,3670026,-0.0046103303,-0.007776601,0.00032607434,3670026,-0.0506656,0.07975019,0.012440712,396809,0.0,0.0,0.0
497935299,3670026,-0.0046348954,-0.007728657,0.00036099018,3670026,-0.050524555,0.07941871,0.010535486,396809,0.0,0.0,0.0
498937987,3670026,-0.004667949,-0.0077034356,0.0003979852,3670026,-0.05045105,0.07931388,0.010620024,396809,0.0,0.0,0.0
499940860,3670026,-0.0046747206,-0.007754804,0.0004256739,3670026,-0.050810598,0.080184534,0.010623413,396809,0.0,0.0,0.0
500938769,3670026,-0.0047071413,-0.007749764,0.00056187727,3670026,-0.050818067,0.08019632,0.010624975,396809,0.0,0.0,0.0
501941685,3670026,-0.004648692,-0.0077320957,0.00066211104,3670026,-0.04926581,0.08019257,0.018075507,396809,0.0,0.0,0.0
