timestamp,timestamp_sample,device_id,x,y,z,temperature,error_count
17932363,17932164,3670026,-0.031158986,0.030146986,0.009054748,21.440636,0
17933619,17933419,3670026,-0.041385528,0.015126755,-0.005752428,21.42595,0
18934216,18934017,3670026,-0.009321064,0.045433532,-0.02806972,21.489595,0
19936827,19936631,3670026,0.07866978,0.05763081,0.002396845,21.538555,0
20932235,20932039,3670026,-0.08357,0.052144695,0.26983148,21.543451,0
21933850,21933653,3670026,0.00628506,-0.0340352,-0.08490158,21.450428,0
22934245,22934047,3670026,-0.08522116,0.05816344,0.17273264,21.553244,0
23933358,23933160,3670026,0.023595607,0.027643614,0.25529063,21.602203,0
24933731,24933533,3670026,0.45572016,0.37273604,-0.2754774,21.523869,0
25934109,25933912,3670026,0.32469264,-0.064661555,0.15361114,21.572828,0
26936971,26936774,3670026,-0.12405005,0.053263225,0.17097494,21.567932,0
27932375,27932176,3670026,-0.13102753,0.20048277,-0.12101404,21.602203,0
28933994,28933792,3670026,-0.32325453,0.036218993,0.0320112,21.548347,0
29934397,29934199,3670026,0.14562164,0.10657971,-0.71101075,21.651163,0
30932268,30932062,3670026,0.077711046,0.059974387,0.40751693,21.597307,0
31932637,31932437,3670026,-0.61236733,0.14002901,0.07787083,21.631578,0
32934279,32934083,3670026,-0.37625143,0.16990969,-0.07313041,21.64137,0
33934626,33934430,3670026,0.38530618,-0.12048141,0.37721014,21.602203,0
34932520,34932324,3670026,0.13795175,-0.18690065,0.7847803,21.621786,0
35934143,35933942,3670026,0.41806304,0.01981392,-0.5498363,21.64137,0
36934606,36934408,3670026,0.16740632,-0.1300688,-0.058909122,21.685434,0
37936139,37935940,3670026,0.060720075,-0.18413097,0.016245283,21.631578,0
38932789,38932591,3670026,-0.27686223,0.29177594,-0.053050168,21.670746,0
39934408,39934209,3670026,0.07739147,0.04474111,0.36240298,21.611996,0
40934784,40934586,3670026,-0.49497512,0.7387609,-0.06977482,21.700123,0
41932682,41932484,3670026,0.14572819,-0.14311829,0.75165063,21.665852,0
42934299,42934100,3670026,0.048149955,-0.20852552,0.3823234,21.695227,0
43935992,43935792,3670026,-0.5599563,0.37662426,-0.72501904,21.744186,0
44932570,44932372,3670026,-0.15227956,0.24362598,0.21379857,21.675642,0
45932951,45932752,3670026,-0.53753245,0.4086887,-0.34722295,21.719706,0
46934570,46934371,3670026,0.02066613,-0.21129522,0.9678993,21.695227,0
47934951,47934750,3670026,0.71127707,-0.540888,0.6999853,21.724602,0
48932849,48932648,3670026,0.5532451,-0.15819177,-0.22935145,21.700123,0
49933226,49933026,3670026,0.6527408,-0.32469264,-0.2191249,21.709915,0
50936161,50935964,3670026,-0.053050168,0.024873925,-0.003089267,21.724602,0
51935250,51935024,3670026,0.757403,-0.17720675,0.53103435,21.71481,0
52933119,52932921,3670026,-0.12287825,-0.2491121,0.3047189,21.73929,0
53934740,53934541,3670026,-0.13731259,0.3616573,-0.76198363,21.729498,0
54935117,54934920,3670026,0.39952746,-0.14514229,0.19915119,21.744186,0
55933014,55932817,3670026,-0.3334278,0.2533199,-0.38344195,21.783354,0
56933400,56933200,3670026,-0.12996227,0.113290876,0.1041296,21.768665,0
57936355,57936157,3670026,0.19137476,-0.009534117,0.033928674,21.778458,0
58935398,58935200,3670026,-0.44474792,0.2865029,-0.11584751,21.675642,0
59933292,59933095,3670026,0.47239155,-0.08649948,-0.08357,21.73929,0
60934919,60934717,3670026,-0.43670517,-0.27334687,0.6489591,21.773561,0
61935294,61935096,3670026,-0.2000034,0.18940403,-0.22642197,21.709915,0
62933207,62933000,3670026,-0.13693975,0.20309268,0.41539988,21.793146,0
63933573,63933374,3670026,-0.7476026,0.07307714,-0.24767399,21.753977,0
64936541,64936344,3670026,-0.24682178,-0.07845673,-0.32554483,21.744186,0
65935574,65935376,3670026,0.049161956,0.20698088,-0.7729026,21.802937,0
66933474,66933275,3670026,-0.30391997,0.13363743,0.033981934,21.798042,0
67933852,67933655,3670026,-0.63383234,0.115740985,-0.38791606,21.817625,0
68935473,68935276,3670026,-0.08564726,0.0013848438,0.26668897,21.783354,0
69932130,69931933,3670026,0.50317764,-0.39862198,-0.030679617,21.798042,0
70933751,70933555,3670026,0.5399293,-0.6216351,0.19616845,21.78825,0
71934247,71934050,3670026,-0.117871515,0.40836912,-0.30812773,21.817625,0
72935757,72935559,3670026,0.20298615,-0.3409379,-0.06066681,21.758875,0
73933654,73933457,3670026,-0.4005927,0.45891595,-0.06753777,21.778458,0
74934045,74933842,3670026,-0.5389706,0.33422673,-0.30535805,21.827417,0
75933296,75933092,3670026,0.561927,-0.15126756,0.096246645,21.734394,0
76932318,76932118,3670026,0.07946873,0.2615757,-0.26200178,21.807833,0
77933939,77933741,3670026,-0.39484027,0.17949706,0.36250952,21.851896,0
78934320,78934122,3670026,-0.43542686,0.43356264,-0.29332057,21.87148,0
79935942,79935744,3670026,-0.18913771,-0.102371916,0.07978831,21.827417,0
80932615,80932417,3670026,-0.26865968,0.12117383,-0.13725933,21.768665,0
81934232,81934027,3670026,-0.04809669,0.5593171,0.16538231,21.832314,0
82934697,82934499,3670026,-0.011664646,0.045699846,-0.040320262,21.802937,0
83932505,83932306,3670026,0.3089267,-0.035952676,-0.3143063,21.87148,0
84934127,84933929,3670026,0.03286341,-0.0743022,-0.40288302,21.817625,0
85934510,85934311,3670026,-0.07685883,0.23547672,-0.74030554,21.866585,0
86936136,86935936,3670026,-0.05832323,0.39782304,-0.42967442,21.861689,0
87932791,87932593,3670026,0.24991105,0.26945865,0.05539375,21.798042,0
88936896,88936699,3670026,-0.34786212,0.10887003,-0.11957593,21.88617,0
89934892,89934693,3670026,0.090867065,-0.008042747,0.030360037,21.876377,0
90932695,90932497,3670026,0.28842035,-0.07483483,-0.13385049,21.866585,0
91934327,91934129,3670026,-0.41934136,0.063116916,0.33145702,21.866585,0
92934699,92934503,3670026,-0.2336125,-0.13864417,0.049960904,21.822521,0
93935082,93934885,3670026,-0.35606465,0.03446131,-0.39068574,21.891066,0
94932982,94932785,3670026,0.123943515,0.01635181,0.23696807,21.807833,0
95935847,95935650,3670026,-0.09129317,0.47926247,0.21475732,21.83721,0
96935107,96934906,3670026,-0.16213325,-0.008575379,-0.30855384,21.964504,0
97932889,97932691,3670026,0.030306775,0.1510545,0.29960564,21.861689,0
98934516,98934315,3670026,0.0696683,0.16911073,-0.015073493,21.861689,0
99934895,99934698,3670026,-0.25992453,-0.0902279,-0.13752565,21.876377,0
100935283,100935082,3670026,-0.17566212,0.20772657,0.17736652,21.851896,0
101933181,101932982,3670026,0.11147993,-0.16144083,0.020932445,21.964504,0
102934805,102934606,3670026,-0.63910544,0.24586304,0.06066681,21.866585,0
103935318,103935121,3670026,-0.026471822,0.06785735,0.21704763,21.866585,0
104933086,104932889,3670026,-0.49646652,-0.014860439,0.1836516,21.827417,0
105933469,105933272,3670026,-0.19313245,-0.22205438,0.25001755,21.87148,0
106935098,106934896,3670026,-0.065620296,0.054435015,-0.37864825,21.910648,0
107935478,107935279,3670026,0.3048787,-0.01603223,0.0680704,21.925337,0
108933430,108933233,3670026,0.037071202,0.101999074,0.17944379,21.88617,0
109933783,109933586,3670026,-0.23558325,0.06519418,-0.4253601,21.891066,0
110935525,110935327,3670026,0.023435818,0.12016183,-0.3234143,21.974297,0
111933293,111933088,3670026,0.111160345,0.3026949,0.4004329,21.905752,0
112934923,112934715,3670026,-0.22461101,0.114089824,-0.049321745,21.910648,0
113935300,113935097,3670026,-0.24698158,0.085061364,0.0077231675,21.876377,0
114935711,114935514,3670026,-0.005432849,-0.3115366,0.45034054,21.88617,0
115933576,115933380,3670026,0.009321064,-0.06988135,-0.25353295,21.959608,0
116933959,116933763,3670026,0.41870221,-0.3029612,0.34562507,21.891066,0
117935734,117935537,3670026,-0.2796319,0.13896374,-0.078776315,21.92044,0
118932246,118932048,3670026,-0.3561712,0.2140649,-0.5691708,21.915545,0
119935109,119934914,3670026,-0.5575062,0.95474327,-0.12128036,21.915545,0
120934289,120934092,3670026,0.1526524,-0.12735237,-0.42722434,21.866585,0
121935878,121935681,3670026,0.34695664,0.24841967,0.68214214,21.949816,0
122933780,122933582,3670026,0.031638354,0.10956245,-0.36666405,21.959608,0
123934165,123933966,3670026,-0.109029815,-0.081918836,-0.14040186,21.925337,0
124936004,124935807,3670026,-0.3798733,0.14929682,0.03962784,21.891066,0
125932449,125932251,3670026,0.013795175,0.5926066,-0.69583076,21.905752,0
126935334,126935133,3670026,0.3772634,0.064395234,0.4156129,21.881273,0
127934459,127934260,3670026,0.23419839,-0.23387882,-0.6599313,21.959608,0
128936133,128935937,3670026,0.19531624,-0.020186761,0.23728766,21.979193,0
129932750,129932548,3670026,-0.1910552,0.044421528,0.050600063,21.89596,0
130934370,130934171,3670026,-0.42344263,-0.08628642,-0.04346279,21.900856,0
131934924,131934724,3670026,-0.031478565,0.08165252,0.41982073,21.949816,0
132932657,132932457,3670026,-0.16096146,0.31478566,-0.054435015,21.88617,0
133934287,133934085,3670026,-0.11233214,0.09970875,0.32304144,21.92044,0
134934662,134934466,3670026,-0.34189665,0.4192881,-0.0706803,21.930233,0
135936296,135936099,3670026,-0.38498658,0.2495382,-0.14168017,21.891066,0
136933009,136932812,3670026,0.13901702,-0.21065605,0.45039383,21.88617,0
137934575,137934377,3670026,-0.14865766,0.05672533,-0.38946068,21.9694,0
138935146,138934945,3670026,-0.19387813,-0.0139549645,-0.17736652,21.900856,0
139932863,139932664,3670026,0.037497308,0.014168018,-0.23521039,21.979193,0
140933270,140933073,3670026,-0.29683593,0.0386691,-0.9913884,21.88617,0
141934870,141934673,3670026,-0.26738137,0.0944357,-0.80464756,21.940025,0
142936520,142936322,3670026,-0.059015654,0.0706803,-0.58477694,21.915545,0
143934400,143934201,3670026,-0.2388323,-0.19254655,-0.10966898,21.99388,0
144934782,144934586,3670026,0.2414422,-0.23446472,-0.19851203,21.949816,0
145935172,145934973,3670026,-0.6241917,0.2810168,-0.660677,21.964504,0
146933073,146932873,3670026,0.102478445,-0.20746025,-0.27324033,21.964504,0
147933456,147933257,3670026,0.4250405,-0.262854,-0.054594804,21.915545,0
148935080,148934883,3670026,0.041279,0.056352492,0.59862536,21.954712,0
149936786,149936590,3670026,-2.053031,1.1583153,-0.3112703,21.954712,0
150933375,150933174,3670026,0.023808662,0.07914915,-0.8564194,21.984089,0
151933751,151933555,3670026,-0.06849651,0.19057582,-0.7339672,21.94492,0
152935387,152935181,3670026,-0.3357181,0.19371834,-0.024714136,21.984089,0
153933280,153933083,3670026,-0.34258905,0.020932445,-0.5807822,22.013464,0
154933664,154933468,3670026,0.13406353,0.29614353,0.52181983,21.964504,0
155935294,155935094,3670026,0.11984225,0.015339809,0.12048141,21.9694,0
156935769,156935572,3670026,-0.119735725,0.31073767,-0.4877846,21.9694,0
157933581,157933382,3670026,0.6360694,-0.282881,0.45630604,21.974297,0
158933992,158933795,3670026,0.013102753,-0.74067837,0.51031494,21.905752,0
159935593,159935393,3670026,0.22786008,-0.2650378,0.15915053,21.925337,0
160933493,160933296,3670026,0.16495621,-0.16655411,0.5073855,21.998775,0
161933882,161933681,3670026,-0.10748518,0.21907164,-0.1232511,21.974297,0
162934268,162934067,3670026,0.03217099,-0.24676852,0.34168357,21.915545,0
163935995,163935798,3670026,0.4878911,-0.48783788,0.18066886,21.930233,0
164935070,164934874,3670026,0.27835363,-0.21225394,0.67218184,21.940025,0
165934184,165933981,3670026,-0.24373251,0.38956723,0.15030882,22.023256,0
166935806,166935608,3670026,0.5676262,-0.10338392,0.36634445,21.925337,0
167932467,167932269,3670026,-0.46924898,0.66674906,0.009800433,22.023256,0
168934099,168933896,3670026,-0.06727145,-0.42285675,0.3823767,21.99388,0
169934517,169934315,3670026,0.35654402,0.07739147,0.24415861,21.92044,0
170937472,170937275,3670026,-0.2583799,0.0017576864,-0.27893952,21.94492,0
171934014,171933814,3670026,-0.43782368,0.3335343,-0.67953223,22.008568,0
172934398,172934200,3670026,-0.51569456,0.35995287,-0.6319149,21.979193,0
173934827,173934629,3670026,0.08372978,-0.37955374,-0.32362735,21.94492,0
174933924,174933727,3670026,-0.09102685,0.4557734,-0.14626081,21.99388,0
175933071,175932871,3670026,0.60144836,-0.1645301,0.18706045,22.023256,0
176934705,176934498,3670026,0.027856665,-0.03499394,0.124316365,21.988983,0
177937567,177937366,3670026,-0.2905509,0.10418287,-0.49854377,22.003672,0
178932987,178932787,3670026,0.50168633,0.19851203,0.5456285,21.959608,0
179934611,179934414,3670026,0.16080166,-0.37566552,0.45641258,21.988983,0
180936273,180936072,3670026,-0.24261399,0.19861856,0.24900557,21.988983,0
181934166,181933964,3670026,0.3821104,-0.12197278,0.20469058,21.93513,0
182933297,182933097,3670026,0.5364139,-0.34301516,0.053316485,22.013464,0
183934917,183934716,3670026,-0.049161956,0.14082795,0.1774198,21.988983,0
184935338,184935141,3670026,-0.13608754,-0.060879864,0.057311226,22.028152,0
185933210,185933010,3670026,-0.18210696,0.39521313,-0.065567024,21.94492,0
186934830,186934633,3670026,-0.35068506,0.17896444,-0.22487733,22.01836,0
187936463,187936260,3670026,-0.59787965,-0.008628642,-0.0541687,21.998775,0
188933160,188932961,3670026,0.0475108,-0.075793564,0.027909929,22.008568,0
189933510,189933310,3670026,0.12112057,-0.48421597,0.052304488,22.008568,0
190935186,190934989,3670026,-0.1025317,0.31846082,0.053316485,22.028152,0
191933052,191932840,3670026,-0.51718587,0.19989689,-0.23728766,21.988983,0
192933428,192933227,3670026,-0.41076598,-0.19755329,-0.016724652,22.013464,0
193933811,193933613,3670026,-0.04825648,0.62264705,0.2166748,22.028152,0
194935466,194935269,3670026,-0.5242699,-0.08745821,-0.4215784,21.979193,0
195932130,195931933,3670026,0.74882764,-0.050387006,0.31047133,21.954712,0
196933730,196933532,3670026,-0.66813385,0.0055393754,-0.126873,22.01836,0
197934134,197933931,3670026,-0.41779673,0.71750885,-0.61364555,22.052631,0
198933267,198933063,3670026,0.038935415,0.0072437986,-0.043356266,22.013464,0
199933645,199933449,3670026,0.20138825,-0.40224385,0.56283253,21.984089,0
200934035,200933836,3670026,-0.58312577,0.6894392,-0.42658517,22.013464,0
201935666,201935463,3670026,0.095767274,-0.58701396,0.5431783,22.023256,0
202932422,202932226,3670026,0.77940077,0.23989755,-0.06332997,22.003672,0
203933952,203933755,3670026,-0.4346279,0.014860439,-0.13885723,21.925337,0
204935584,204935382,3670026,-0.11957593,0.4273841,-0.13800502,21.998775,0
205935966,205935768,3670026,-0.05438175,-0.55068845,0.08138621,22.057528,0
206933878,206933670,3670026,-0.006764429,-0.51729244,0.020453079,21.984089,0
207934261,207934059,3670026,-0.52698636,0.29449236,-0.12532836,22.077112,0
208934643,208934446,3670026,-0.072278194,-0.2839995,-0.15137409,22.01836,0
209932649,209932451,3670026,-0.1984055,0.3119627,0.17821875,22.06732,0
210934178,210933978,3670026,-0.24293356,-0.13358417,0.264878,22.01836,0
211935811,211935606,3670026,0.08372978,0.30919302,-0.005965481,21.99388,0
212932468,212932270,3670026,-0.1123854,0.08442221,0.13624732,22.072216,0
213932853,213932655,3670026,-0.3945207,0.44064665,-0.05400891,22.003672,0
214934485,214934286,3670026,-0.080054626,0.35574508,-0.81269026,22.008568,0
215934869,215934670,3670026,0.40788975,-0.34306845,-0.45838332,21.9694,0
216932835,216932638,3670026,-0.15451661,0.005965481,-0.1232511,22.057528,0
217933177,217932963,3670026,0.07637946,0.31766188,-0.5055745,21.988983,0
218936028,218935830,3670026,0.050014168,0.17720675,0.282881,21.988983,0
219933932,219933733,3670026,-0.7327422,0.22104238,0.5322594,22.047735,0
220933096,220932890,3670026,0.32607746,-0.35750276,0.029348036,22.057528,0
221934705,221934508,3670026,0.2915096,0.09944244,0.123836994,21.988983,0
222932609,222932412,3670026,0.15435682,0.007456851,0.32330775,21.959608,0
223933078,223932880,3670026,-0.2841593,0.1516404,0.08713864,22.028152,0
224933387,224933186,3670026,-0.23600934,-0.5390771,-0.1099353,22.04284,0
225935019,225934818,3670026,0.053795855,0.38994008,0.030306775,22.111383,0
226935466,226935267,3670026,-0.052464273,0.0012250541,0.37971354,22.086903,0
227933311,227933114,3670026,-0.4114584,0.07680557,-0.16889769,21.99388,0
228934933,228934733,3670026,0.098856546,-0.4282896,0.17326528,22.072216,0
229935319,229935120,3670026,0.26312032,0.036858153,0.40405482,22.062424,0
230932131,230931934,3670026,-0.27116308,0.25869948,-0.94457,22.028152,0
231933613,231933413,3670026,0.49646652,-0.11840414,0.9657688,22.062424,0
232935288,232935089,3670026,-0.415826,0.20224047,0.25454494,22.047735,0
233935656,233935458,3670026,0.06412892,-0.07920241,0.5576127,21.998775,0
234933528,234933331,3670026,-0.79266334,0.27569047,-0.34754252,22.033049,0
235935213,235935012,3670026,0.052464273,0.20037626,-0.0023435818,22.091799,0
236935548,236935346,3670026,-0.7283213,0.4122041,-0.18684739,22.057528,0
237932324,237932125,3670026,0.15169367,-0.0757403,-0.24330641,22.04284,0
238933835,238933637,3670026,0.445174,-0.5844574,-0.06785735,22.077112,0
239934221,239934025,3670026,0.50381684,0.3368899,0.21694112,22.033049,0
240935851,240935653,3670026,-0.12415657,0.50381684,-0.8728777,22.033049,0
241933757,241933552,3670026,-0.25028387,0.4610997,-0.46141928,22.008568,0
242934152,242933949,3670026,0.22727418,-0.13182648,-0.18658108,22.06732,0
243935810,243935614,3670026,0.4124704,0.3991546,0.49018145,22.04284,0
244932591,244932394,3670026,-0.13315806,0.2732936,0.0793622,22.062424,0
245934070,245933865,3670026,-0.19787288,0.3922304,-0.23867251,22.086903,0
246934450,246934252,3670026,0.16559535,0.26083001,-0.4342018,21.940025,0
247936077,247935881,3670026,-0.76129127,-0.04165184,-0.19973709,22.052631,0
248932745,248932548,3670026,0.61428475,-0.3818973,0.5336975,22.057528,0
249934435,249934237,3670026,-0.5118596,0.20373182,-0.23004386,22.028152,0
250934806,250934610,3670026,0.109402664,0.20026971,-0.20730047,22.008568,0
251932789,251932592,3670026,0.43132558,-0.13315806,0.18759307,22.072216,0
252934291,252934093,3670026,0.24644893,-0.18572886,-0.42067292,22.106487,0
253934677,253934480,3670026,-0.5314072,-0.41284326,-0.16341157,22.028152,0
254936328,254936130,3670026,0.0974717,0.19536951,0.4048005,22.04284,0
255933000,255932803,3670026,0.43233758,-0.64821345,0.29071066,22.037943,0
256934603,256934403,3670026,0.1300688,-0.017630128,-0.42967442,21.998775,0
257934986,257934788,3670026,-0.11105382,-0.30306774,0.28160265,22.101591,0
258933024,258932828,3670026,-0.34919372,0.23824641,0.25411883,22.052631,0
259934519,259934322,3670026,-0.32336104,0.30274817,-0.29933932,22.101591,0
260934909,260934709,3670026,-0.47404268,0.07856325,0.20969732,22.033049,0
261935296,261935096,3670026,-0.8244082,0.32373387,-0.39984703,22.037943,0
262933204,262933002,3670026,-0.38796932,0.3685815,-0.70467246,22.082006,0
263934830,263934631,3670026,-0.41071272,-0.018908445,-0.07483483,22.04284,0
264935227,264935029,3670026,0.13278522,-0.11749867,-0.40410808,22.013464,0
265933274,265933074,3670026,0.38402784,-0.52405685,0.57625484,22.062424,0
266933516,266933310,3670026,0.14130734,0.028868668,-0.34519896,22.003672,0
267935143,267934943,3670026,0.37880805,-0.087884314,0.6170012,22.052631,0
268935525,268935327,3670026,-0.6001168,0.42136538,0.06295713,22.096695,0
269933425,269933227,3670026,0.27222833,-0.37151098,0.17289242,22.033049,0
270933861,270933664,3670026,-0.00021305289,-0.49998188,0.59622854,22.008568,0
271935458,271935254,3670026,0.11936288,0.14492923,0.18748654,22.11628,0
272933510,272933313,3670026,-0.49422947,0.25688854,-0.6957775,22.052631,0
273934978,273934781,3670026,0.010492856,0.3409379,-0.811412,22.057528,0
274934126,274933928,3670026,0.43862265,-0.04245079,-0.3226686,22.008568,0
275935756,275935556,3670026,0.4832572,0.07307714,-0.81940144,22.072216,0
276933713,276933515,3670026,0.25278726,-0.6278669,0.26306707,22.028152,0
277934046,277933848,3670026,0.5224057,0.05273059,-0.0147539135,21.964504,0
278935678,278935478,3670026,-0.14157365,-0.021571605,-0.35638425,22.111383,0
279933766,279933568,3670026,0.6620086,-0.20937774,0.5070659,22.033049,0
280935216,280935017,3670026,-0.111639716,0.13486248,-0.5933523,22.037943,0
281934383,281934182,3670026,-0.06668556,-0.32437304,0.49683934,22.023256,0
282935982,282935786,3670026,0.6351639,-0.09784454,0.019014971,22.04284,0
283933899,283933701,3670026,0.04804343,0.23323965,0.21230721,22.013464,0
284934275,284934079,3670026,-0.25891253,0.03978763,-0.46211174,22.096695,0
285934663,285934466,3670026,-0.16282567,0.09944244,-0.16767263,22.06732,0
286932751,286932554,3670026,-0.18780613,0.5201154,-0.09171927,22.091799,0
287934207,287934001,3670026,-0.07366304,0.1965413,-0.08724516,22.023256,0
288934586,288934387,3670026,-0.0753142,-0.22391859,0.29593047,22.077112,0
289936229,289936033,3670026,0.49912968,0.0654605,0.105993815,22.033049,0
290934140,290933941,3670026,-0.4566789,0.11755193,-0.20719394,21.99388,0
291934506,291934309,3670026,0.40575922,-0.3473295,0.15861788,22.077112,0
292934911,292934711,3670026,-0.037071202,-0.020453079,-0.22003038,21.979193,0
293932804,293932606,3670026,0.10327739,-0.094116114,-0.32059136,22.003672,0
294933185,294932989,3670026,-0.072065145,0.117658466,-0.20543626,22.003672,0
295934814,295934617,3670026,-0.30056435,0.04660532,-0.16128105,22.057528,0
296935235,296935036,3670026,0.49369684,-0.28597027,-0.43366918,21.998775,0
297934401,297934202,3670026,0.434042,-0.3399259,0.15361114,22.01836,0
298934737,298934539,3670026,0.6674948,-0.15749936,0.5463209,22.04284,0
299935127,299934929,3670026,0.35968652,-0.26642266,-0.4016047,22.013464,0
300933034,300932832,3670026,-0.5722601,0.119735725,-0.043409526,22.057528,0
301933429,301933233,3670026,0.12793826,0.10183928,-0.006657903,22.072216,0
302935046,302934848,3670026,0.020719394,-0.019014971,-0.36799562,22.037943,0
303936674,303936478,3670026,0.14061491,-0.0027164244,-0.1433846,22.057528,0
304933437,304933241,3670026,0.21145499,0.11132014,-0.39265648,22.086903,0
305933728,305933532,3670026,0.08937569,-0.16495621,0.46568036,22.06732,0
306935354,306935158,3670026,-0.068176925,-0.005645902,0.074142404,22.082006,0
307933263,307933063,3670026,0.6816095,0.10945592,-0.03483415,22.013464,0
308933648,308933451,3670026,0.27419907,0.100241385,0.7464308,22.091799,0
309935282,309935080,3670026,-0.052304488,-0.055926383,-0.285118,22.052631,0
310935665,310935467,3670026,-0.12820457,0.04804343,0.27403927,22.023256,0
311933678,311933481,3670026,-0.007776431,0.54706657,-0.83729786,22.057528,0
312933958,312933761,3670026,0.15398398,0.012942964,-0.81285006,22.072216,0
313935587,313935389,3670026,-0.11355719,0.13347764,-0.48650628,22.086903,0
314932252,314932054,3670026,-0.23659524,0.12319784,0.08916264,22.037943,0
315933882,315933682,3670026,-0.21992384,0.020133497,-0.3042928,22.091799,0
316934267,316934070,3670026,-0.4137487,-0.046339005,0.021411816,22.101591,0
317937138,317936940,3670026,0.58248657,-0.18093517,-0.3458381,21.99388,0
318933932,318933730,3670026,0.5159609,-0.02514024,-0.52448297,22.082006,0
319934195,319933992,3670026,-0.0034088462,0.14684671,0.10370349,22.06732,0
320935817,320935621,3670026,0.41161817,-0.09438243,0.120321624,22.072216,0
321932483,321932286,3670026,0.21513015,0.2806972,0.20383836,22.033049,0
322934115,322933915,3670026,0.05715144,0.14588797,-0.7292801,22.037943,0
323934499,323934303,3670026,-1.2738965,0.6288789,-0.30077744,22.077112,0
324936139,324935933,3670026,-0.31185618,0.016245283,-0.35286885,22.047735,0
325932909,325932709,3670026,-0.1465804,0.048682585,-0.20357205,22.077112,0
326934424,326934226,3670026,-0.5453622,0.0061252704,0.26221487,22.111383,0
327936060,327935854,3670026,0.035047203,0.05800365,-0.17385116,21.988983,0
328932723,328932522,3670026,-0.042557314,0.20325246,0.045699846,22.047735,0
329934360,329934163,3670026,1.211259,-0.95298564,0.96800584,22.082006,0
330934733,330934536,3670026,0.5763081,-0.45257762,0.036112465,22.111383,0
331935124,331934925,3670026,-0.20730047,0.19196065,-0.7874435,22.062424,0
332933115,332932917,3670026,0.121493414,-0.1138235,-0.7022756,22.101591,0
333934657,333934459,3670026,-0.4104464,0.49747851,-0.024021715,22.057528,0
334936293,334936091,3670026,-0.33262882,0.0060720076,-0.051825117,22.121176,0
335932959,335932756,3670026,-0.1646899,0.14391723,-0.48538774,22.086903,0
336933341,336933143,3670026,0.041758366,0.113397405,0.10711234,22.052631,0
337934969,337934771,3670026,-0.25747442,-0.0005326322,-0.31489217,22.028152,0
338935361,338935160,3670026,0.24314661,-0.19201392,0.09688581,22.121176,0
339933407,339933211,3670026,-0.15797873,0.060879864,0.48245826,22.077112,0
340934893,340934695,3670026,0.08655274,0.21683459,0.00958738,22.072216,0
341935283,341935084,3670026,-0.25598305,0.19297266,-0.09757822,22.121176,0
342933192,342932989,3670026,-0.10231865,0.31483892,-0.2986469,22.06732,0
343933575,343933378,3670026,0.21347901,0.04703143,0.7752462,22.12607,0
344935213,344935009,3670026,0.34131074,-0.09784454,0.45923552,22.170135,0
345935595,345935396,3670026,0.033662356,-0.23723438,-0.06194513,22.06732,0
346933615,346933418,3670026,-0.106739506,0.04474111,-0.35542548,22.111383,0
347933886,347933690,3670026,-0.41721082,0.23707461,-0.12175973,22.11628,0
348935525,348935323,3670026,0.23180155,0.1481783,0.058110174,22.091799,0
349932193,349931989,3670026,-0.15643409,0.19137476,-0.32234904,22.052631,0
350933815,350933618,3670026,-0.2844789,0.20053603,0.2524144,22.106487,0
351934210,351934004,3670026,-0.8672851,0.05885586,0.33364084,22.06732,0
352935830,352935633,3670026,-0.016458336,0.03286341,0.44570664,22.106487,0
353933856,353933659,3670026,0.063010395,0.03307646,0.049108695,22.12607,0
354934132,354933928,3670026,-0.08729843,0.2561961,-0.18461034,22.106487,0
355935754,355935558,3670026,-0.029880669,0.118776985,-0.034940675,22.155447,0
356932421,356932223,3670026,-0.7409447,0.28623658,-0.23606262,22.086903,0
357934051,357933854,3670026,-0.06657903,-0.16692694,-0.0060187443,22.072216,0
358935684,358935485,3670026,0.112438664,0.04399542,-0.11653993,22.145655,0
359936115,359935919,3670026,0.010013486,-0.0060187443,0.023808662,22.101591,0
360932853,360932656,3670026,0.2947054,0.014647386,0.02263687,22.091799,0
361934364,361934167,3670026,-0.57481676,-0.1284709,-0.3124421,22.008568,0
362934753,362934556,3670026,-0.53492254,0.27446538,-0.21028322,22.082006,0
363932661,363932462,3670026,-0.04356932,0.07659251,0.09166601,22.091799,0
364934303,364934106,3670026,-0.33076462,0.1652758,0.24740767,22.072216,0
365934691,365934483,3670026,0.3144661,0.033609096,0.030306775,22.15055,0
366932593,366932390,3670026,0.044954162,0.1530785,0.20655479,22.082006,0
367933108,367932911,3670026,0.052517537,-0.14221281,-0.019068234,22.121176,0
368934606,368934408,3670026,-0.18375812,0.016937705,0.12655342,22.072216,0
369934991,369934795,3670026,-0.4958806,0.31302798,0.13129385,22.096695,0
370932904,370932703,3670026,0.16767263,-0.12841763,0.020719394,22.086903,0
371933288,371933091,3670026,0.083942845,-0.064874604,0.04926848,22.06732,0
372934919,372934721,3670026,-0.14354439,0.21992384,0.09209212,22.11628,0
373935310,373935110,3670026,0.35675707,-0.23062976,-0.14604776,22.091799,0
374933359,374933160,3670026,0.2831473,-0.40272325,0.47052732,22.091799,0
375934881,375934683,3670026,0.0053263223,0.08452873,-0.06812366,22.121176,0
376932763,376932561,3670026,0.18519624,-0.043835633,-0.52363074,22.091799,0
377933179,377932982,3670026,-0.10556771,0.47042078,0.20676784,22.135862,0
378933615,378933418,3670026,0.14572819,0.021837922,0.011345067,22.111383,0
379935161,379934962,3670026,0.42184472,-0.45449507,0.7167099,22.062424,0
380935547,380935351,3670026,0.18727349,0.3768373,-0.07973504,22.082006,0
381933614,381933416,3670026,0.19398466,0.1480185,0.5049886,22.072216,0
382933858,382933654,3670026,-0.7164436,0.70509857,-0.57641464,22.091799,0
383935475,383935278,3670026,0.52879727,-0.0624245,-0.028655613,22.140759,0
384932141,384931943,3670026,0.6894924,-0.3455718,0.13880396,22.111383,0
385933772,385933575,3670026,-0.17220001,0.11142666,0.117818244,22.101591,0
386934167,386933962,3670026,0.15920377,-0.03632552,-0.53273875,22.086903,0
387935789,387935593,3670026,-0.078776315,0.03483415,0.47984838,22.101591,0
388933869,388933673,3670026,-0.14663365,-0.10524813,-0.39036617,22.130966,0
389935333,389935133,3670026,0.4966263,-0.0702542,-0.82174504,22.106487,0
390935717,390935520,3670026,-0.057311226,0.20660804,0.18940403,22.101591,0
391932393,391932194,3670026,-0.26770097,0.37316215,-0.8256865,22.12607,0
392934021,392933824,3670026,0.12863068,0.028122982,0.58690745,22.135862,0
393934420,393934222,3670026,-0.052996907,0.6200905,0.21976405,22.12607,0
394936034,394935836,3670026,-0.09198558,-0.30679616,-0.9821206,22.17503,0
395934124,395933928,3670026,0.31041807,0.01832255,-0.5795039,22.111383,0
396934332,396934133,3670026,-0.35388085,0.001438107,0.11653993,22.047735,0
397934719,397934522,3670026,-0.46237805,-0.14689998,0.25347966,22.11628,0
398932627,398932430,3670026,0.338328,-0.040053945,0.31494543,22.101591,0
399934286,399934088,3670026,-0.48224524,0.69125015,-0.1383246,22.111383,0
400934647,400934450,3670026,-0.34466633,0.3708718,-0.018109497,22.130966,0
401936280,401936081,3670026,0.050173957,-0.11275824,-0.2634399,22.121176,0
402932947,402932750,3670026,0.4375041,-0.22242722,0.7095194,22.12607,0
403935819,403935620,3670026,-0.35814193,0.3030145,-0.9450494,22.130966,0
404934967,404934768,3670026,0.8162056,-0.09816412,-0.19164109,22.145655,0
405932871,405932675,3670026,-0.10285129,0.19995013,-0.17001621,22.101591,0
406934582,406934382,3670026,-0.06950851,0.27031085,-0.39947417,22.16524,0
407934893,407934696,3670026,-0.3697533,0.051665325,-0.83063996,22.106487,0
408935287,408935087,3670026,-0.6061355,0.47255132,-0.19877836,22.130966,0
409933215,409933018,3670026,0.59356534,-0.21539646,0.21789984,22.184822,0
410934827,410934628,3670026,0.014487597,0.29529133,0.011132013,22.057528,0
411935215,411935015,3670026,-0.08127968,0.03701794,-0.22700787,22.155447,0
412933125,412932925,3670026,0.0469249,0.120694466,-0.6733004,22.096695,0
413934797,413934598,3670026,0.09012137,0.22562301,0.22455776,22.135862,0
414935140,414934943,3670026,0.14274544,-0.01816276,-0.008735169,22.06732,0
415935572,415935376,3670026,0.29640985,0.39515987,0.33422673,22.155447,0
416933476,416933279,3670026,-0.54232615,0.23893882,-0.40677124,22.130966,0
417933832,417933631,3670026,-0.053369753,-0.11899004,-0.38967377,22.140759,0
418935466,418935264,3670026,0.481393,-0.015233282,0.26557043,22.16524,0
419932128,419931928,3670026,-0.32005873,0.35313517,0.26407906,22.16524,0
420935051,420934852,3670026,0.6122075,-0.33076462,0.5112737,22.16524,0
421935410,421935213,3670026,-1.5624235,0.28810078,-0.017630128,22.121176,0
422935778,422935581,3670026,0.037390783,-0.20394488,-0.01667139,22.12607,0
423933693,423933489,3670026,0.59479046,-0.091080114,-0.06066681,22.130966,0
424934076,424933879,3670026,-0.107911296,0.054754596,0.50083405,22.160343,0
425935706,425935510,3670026,0.3449859,-0.038136467,0.32037827,22.130966,0
426932380,426932177,3670026,-0.21481058,0.13677996,-0.7647534,22.16524,0
427935360,427935162,3670026,-0.31025827,0.3780091,-0.16506273,22.155447,0
428934399,428934201,3670026,0.19504993,0.301097,-0.33763558,22.135862,0
429936030,429935831,3670026,-0.41630536,0.3580354,-0.81673825,22.228886,0
430932698,430932497,3670026,0.02082592,-0.098483704,-0.42381546,22.140759,0
431934329,431934131,3670026,0.26290727,-0.15014902,0.19286613,22.082006,0
432934718,432934519,3670026,0.15462315,0.7078682,-0.04314321,22.189718,0
433932628,433932427,3670026,0.37790257,0.10865697,0.43920857,22.15055,0
434933103,434932903,3670026,0.01784318,0.064768076,-0.5293299,22.204407,0
435934660,435934461,3670026,-0.43990096,0.28873995,-0.24192156,22.219093,0
436936281,436936081,3670026,-0.4877846,0.6204633,-0.48304418,22.111383,0
437932957,437932755,3670026,0.32421324,-0.18482338,0.3824832,22.160343,0
438934577,438934380,3670026,0.08490158,0.17821875,-0.0092678005,22.135862,0
439934968,439934770,3670026,0.3775297,-0.28847364,-1.4720889,22.140759,0
440932878,440932679,3670026,0.3392867,-0.08282431,0.2515622,22.189718,0
441933343,441933146,3670026,-0.5405152,0.357343,-0.20442426,22.145655,0
442934898,442934701,3670026,0.33987266,-0.24522388,-0.29625005,22.12607,0
443935288,443935091,3670026,0.28788772,-0.0053795855,-0.6962569,22.12607,0
444933204,444933000,3670026,0.1010936,0.03419499,-0.5332714,22.16524,0
445933588,445933390,3670026,0.36325517,0.049321745,-0.11488877,22.11628,0
446935224,446935023,3670026,-0.3284743,0.41934136,-0.039840892,22.077112,0
447933129,447932932,3670026,0.12676647,-0.08053399,-0.46807718,22.130966,0
448933617,448933418,3670026,-0.06578008,-0.082131885,-0.3277819,22.219093,0
449935198,449934997,3670026,-0.8966864,0.29694247,-0.62238073,22.140759,0
450935561,450935363,3670026,-0.91149354,0.2612561,-0.40048617,22.170135,0
451933457,451933254,3670026,0.25949842,0.027217507,0.40842238,22.135862,0
452933881,452933683,3670026,-0.080267675,0.28666267,-0.28985846,22.160343,0
453935476,453935276,3670026,-0.017310547,-0.04399542,0.17731327,22.17503,0
454932150,454931946,3670026,0.30040458,-0.44922203,0.59553605,22.2142,0
455933938,455933741,3670026,0.06332997,0.11041466,-0.57369816,22.17503,0
456934166,456933967,3670026,-0.14285196,-0.024714136,0.15488946,22.184822,0
457937036,457936838,3670026,0.34658378,-0.03568636,-0.2833071,22.228886,0
458933703,458933505,3670026,-0.23425166,0.35196337,-0.4342018,22.145655,0
459934138,459933939,3670026,0.4397412,-0.066312715,0.2885269,22.189718,0
460935725,460935528,3670026,-0.36155075,0.22349249,0.13741912,22.160343,0
461932400,461932200,3670026,-0.972693,0.44458812,-0.09821739,22.15055,0
462934177,462933981,3670026,-0.59676117,0.3092463,0.2799515,22.179926,0
463934422,463934223,3670026,0.51026165,0.33412018,0.35824844,22.160343,0
464936056,464935854,3670026,-0.04841627,-0.2140649,0.74216974,22.19951,0
465932717,465932519,3670026,0.47830373,-0.35430697,0.6023005,22.170135,0
466934348,466934151,3670026,0.84800375,-0.31633028,0.10711234,22.189718,0
467934742,467934543,3670026,-0.0053795855,0.14711303,0.06961503,22.15055,0
468932682,468932483,3670026,0.024234766,0.07680557,-0.15361114,22.17503,0
469933218,469933022,3670026,-0.03483415,0.08783106,0.6251505,22.189718,0
470934673,470934475,3670026,0.013795175,-0.29768816,0.06988135,22.140759,0
471936310,471936110,3670026,-0.15590146,0.38141796,-0.07366304,22.209303,0
472932983,472932786,3670026,-0.5303419,0.41113883,-0.45513424,22.12607,0
473934605,473934407,3670026,-0.2666357,0.13438311,0.5342834,22.145655,0
474936248,474936052,3670026,-0.41049966,0.024501082,-0.10498182,22.160343,0
475932912,475932708,3670026,0.53550845,-0.1959554,0.036804885,22.17503,0
476933435,476933237,3670026,0.014434334,0.08479505,0.01454086,22.140759,0
477934933,477934735,3670026,-0.027803402,0.15094797,0.096246645,22.219093,0
478932837,478932639,3670026,0.05438175,-0.22189459,0.522459,22.130966,0
479933229,479933032,3670026,0.39079228,-0.006870956,0.7907991,22.135862,0
480934864,480934664,3670026,-0.16676715,0.10615361,-0.5138303,22.189718,0
481935265,481935057,3670026,0.02593919,0.0551807,0.18812571,22.184822,0
482933169,482932967,3670026,0.16879115,0.008255799,0.6535397,22.189718,0
483933699,483933502,3670026,0.12293152,-0.104928546,-0.036964677,22.160343,0
484935218,484935020,3670026,-0.030839406,0.050440274,0.09901634,22.233782,0
485935618,485935421,3670026,0.13219932,0.117392145,0.6173208,22.253366,0
486933486,486933288,3670026,-0.6765495,0.09321064,0.258806,22.140759,0
487933878,487933680,3670026,-0.38258973,0.22034995,-0.92012215,22.194614,0
488935511,488935312,3670026,-0.41603905,0.5255482,-0.42456117,22.243574,0
489932181,489931980,3670026,0.2615224,0.12042815,0.05752428,22.16524,0
490933980,490933782,3670026,-0.019014971,0.15334481,-0.20905815,22.219093,0
491935449,491935252,3670026,-0.09832391,0.16692694,-0.002130529,22.179926,0
492935834,492935637,3670026,0.13640712,0.20921795,-0.25310683,22.233782,0
493933770,493933574,3670026,0.04479437,-0.31824777,0.28868666,22.184822,0
494934183,494933986,3670026,0.442937,0.1073254,0.47196543,22.17503,0
495935776,495935573,3670026,-0.14205302,0.21230721,-0.11110709,22.160343,0
496932435,496932238,3670026,-0.71149015,0.166128,-0.21283984,22.170135,0
497934245,497934045,3670026,-0.03286341,0.08127968,0.18482338,22.17503,0
498934463,498934264,3670026,0.23776703,-0.31132352,-0.1433846,22.184822,0
499932384,499932175,3670026,-3.6152413,-0.094808534,0.7417436,22.155447,0
500932765,500932563,3670026,-0.21694112,0.29651636,-0.18871161,22.204407,0
501934487,501934288,3670026,-0.07930894,0.076272935,0.005060006,22.204407,0
