timestamp,time_utc_usec,lat,lon,alt,alt_ellipsoid,s_variance_m_s,c_variance_rad,eph,epv,hdop,vdop,noise_per_ms,jamming_indicator,vel_m_s,vel_n_m_s,vel_e_m_s,vel_d_m_s,cog_rad,timestamp_time_relative,heading,heading_offset,fix_type,vel_ned_valid,satellites_used
23071942,1611123900200109,340361996,1087608458,426149,398240,0.26900002,0.7393171,1.074,1.6880001,0.65,1.1,112,7,0.031000001,0.027,0.015000001,0.08800001,5.6478257,0,nan,0.0,3,1,17
23271996,1611123900400109,340361998,1087608454,426160,398250,0.26200002,0.73932683,1.0660001,1.674,0.65,1.1,112,7,0.049000002,0.035,-0.034,0.093,5.6478257,0,nan,0.0,3,1,17
24072935,1611123901200108,340362011,1087608442,426149,398240,0.27,0.73936665,1.0370001,1.6240001,0.65,1.1,112,8,0.066,0.066,0.001,0.128,5.6478257,0,nan,0.0,3,1,17
25070948,1611123902200107,340362026,1087608429,426049,398139,0.26200002,0.73941624,1.0040001,1.5680001,0.65,1.1,112,7,0.059000004,0.043,0.040000003,0.123,5.6478257,0,nan,0.0,3,1,17
26066696,1611123903200107,340362041,1087608417,426007,398097,0.266,0.7394658,0.9760001,1.5220001,0.65,1.1,112,7,0.076000005,0.063,0.042000003,0.143,5.6478257,0,nan,0.0,3,1,17
27071944,1611123904200106,340362055,1087608408,425940,398030,0.25500003,0.73951554,0.952,1.4820001,0.63,1.1,112,20,0.049000002,0.029000001,0.040000003,0.080000006,5.6478257,0,nan,0.0,3,1,18
28070944,1611123905200105,340362068,1087608401,425862,397952,0.27100003,0.7395649,0.93100005,1.447,0.63,1.1,112,7,0.064,0.062000003,0.012,0.11400001,5.6478257,0,nan,0.0,3,1,18
29071940,1611123906200105,340362084,1087608397,425746,397836,0.272,0.7396134,0.91300005,1.416,0.65,1.15,112,6,0.062000003,0.060000002,0.017,0.12100001,5.6478257,0,nan,0.0,3,1,17
30067943,1611123907200104,340362108,1087608392,425471,397561,0.259,0.7396599,0.897,1.3870001,0.65,1.15,112,9,0.065000005,0.065000005,-0.002,0.064,5.6478257,0,nan,0.0,3,1,17
31069010,1611123908200103,340362128,1087608392,425178,397268,0.263,0.7397084,0.883,1.36,0.65,1.15,112,9,0.061000004,0.052,0.033,0.19500001,5.6478257,0,nan,0.0,3,1,17
32068953,1611123909200103,340362151,1087608405,424777,396867,0.25,0.7397487,0.86600006,1.335,0.63,1.1,113,8,0.052,-0.031000001,-0.042000003,-0.106000006,5.6478257,0,nan,0.0,3,1,18
33066486,1611123910200102,340362171,1087608398,424582,396672,0.20500001,0.57886934,0.84900004,1.314,0.63,1.1,113,7,0.30400002,0.15100001,-0.263,0.162,5.3914204,0,nan,0.0,3,1,18
34070137,1611123911200101,340362204,1087608373,424028,396118,0.165,0.45714498,0.83100003,1.291,0.63,1.1,113,8,0.354,0.126,-0.33,0.042000003,5.053683,0,nan,0.0,3,1,18
35066042,1611123912200101,340362224,1087608363,423951,396041,0.23700002,0.74458313,0.809,1.256,0.63,1.1,113,10,0.09,0.047000002,0.07700001,-0.42200002,4.809031,0,nan,0.0,3,1,18
36072062,1611123913200100,340362231,1087608373,424095,396186,0.24000001,0.57558095,0.78900003,1.2270001,0.63,1.1,113,10,0.068,0.068,-0.0050000004,-0.416,3.917396,0,nan,0.0,3,1,18
37071941,1611123914200099,340362238,1087608359,424152,396242,0.163,0.28438133,0.767,1.189,0.63,1.1,113,8,0.48800004,-0.060000002,-0.48400003,0.172,4.5784726,0,nan,0.0,3,1,18
38070944,1611123915200099,340362237,1087608306,423935,396025,0.18200001,0.58082235,0.748,1.161,0.65,1.1,113,8,0.28100002,-0.113000005,-0.25800002,-0.093,4.491178,0,nan,0.0,3,1,17
39064213,1611123916200098,340362236,1087608280,424298,396388,0.264,0.70751005,0.739,1.1520001,0.65,1.1,113,7,0.20600002,-0.120000005,-0.16800001,-0.33800003,4.36185,0,nan,0.0,3,1,17
40069942,1611123917200097,340362235,1087608257,424525,396616,0.223,0.760922,0.73,1.143,0.63,1.1,113,9,0.135,-0.048,-0.126,-0.106000006,4.647316,0,nan,0.0,3,1,18
41069392,1611123918200096,340362232,1087608236,424679,396769,0.178,0.41362345,0.72400004,1.1350001,0.63,1.1,113,7,0.36800003,0.17300001,-0.32500002,0.105000004,5.123905,0,nan,0.0,3,1,18
42071005,1611123919200096,340362242,1087608181,424628,396718,0.20500001,0.33373487,0.72,1.131,0.65,1.1,114,9,0.507,0.046000004,-0.505,0.22200002,4.8160334,0,nan,0.0,3,1,17
43071944,1611123920200095,340362252,1087608131,424350,396440,0.19100001,0.48458245,0.716,1.1270001,0.65,1.1,114,6,0.33900002,-0.037,-0.337,0.26000002,4.7015843,0,nan,0.0,3,1,17
44070941,1611123921200094,340362255,1087608089,424113,396203,0.16100001,0.38585842,0.708,1.118,0.65,1.1,114,9,0.381,-0.021000002,-0.381,0.157,4.5898595,0,nan,0.0,3,1,17
45070055,1611123922200094,340362259,1087608026,423893,395983,0.14400001,0.18883416,0.69100004,1.098,0.65,1.1,114,9,0.70400006,-0.158,-0.68600005,-0.15,4.5030775,0,nan,0.0,3,1,17
46070982,1611123923200093,340362258,1087607966,424136,396226,0.23,0.5291421,0.68200004,1.087,0.65,1.1,114,6,0.30900002,0.076000005,-0.29900002,-0.62600005,4.6382713,0,nan,0.0,3,1,17
47068951,1611123924200092,340362265,1087607937,423957,396047,0.22200002,0.391888,0.675,1.077,0.65,1.1,114,6,0.349,-0.105000004,-0.333,0.614,4.4702487,0,nan,0.0,3,1,17
48063165,1611123925200092,340362260,1087607900,423477,395568,0.19500001,0.40718007,0.66800004,1.067,0.7,1.18,114,5,0.18200001,-0.032,-0.179,0.17300001,4.4626546,0,nan,0.0,3,1,16
49066943,1611123926200091,340362250,1087607845,423473,395563,0.21100001,0.25645518,0.65900004,1.0580001,0.7,1.18,114,6,0.61,-0.10300001,-0.601,-0.333,4.457327,0,nan,0.0,3,1,16
50067977,1611123927200090,340362246,1087607755,423917,396007,0.18100001,0.15311494,0.651,1.046,0.65,1.1,114,9,1.1220001,-0.179,-1.107,-0.49800003,4.599019,0,nan,0.0,3,1,17
51071956,1611123928200090,340362261,1087607673,423856,395946,0.149,0.27363253,0.64000005,1.0250001,0.65,1.1,114,9,0.49300003,-0.004,-0.49300003,-0.033,4.7065897,0,nan,0.0,3,1,17
52062013,1611123929200089,340362272,1087607618,423398,395489,0.20400001,0.24482186,0.63000005,1.006,0.65,1.1,114,8,0.56100005,-0.16600001,-0.536,0.595,4.4516234,0,nan,0.0,3,1,17
53072032,1611123930200088,340362282,1087607533,422462,394552,0.178,0.16187161,0.623,0.989,0.7,1.18,114,8,0.808,-0.16000001,-0.79200006,0.314,4.505549,0,nan,0.0,3,1,16
54072444,1611123931200088,340362290,1087607435,422024,394114,0.15900001,0.14487855,0.61800003,0.97300005,0.65,1.1,115,6,0.90000004,-0.056,-0.89800006,0.165,4.6515737,0,nan,0.0,3,1,17
55068215,1611123932200087,340362304,1087607351,421740,393830,0.16000001,0.20228924,0.609,0.95400006,0.65,1.1,115,7,0.633,-0.10300001,-0.624,-0.177,4.549331,0,nan,0.0,3,1,17
56069940,1611123933200086,340362319,1087607290,421564,393654,0.179,0.2824468,0.60700005,0.94500005,0.65,1.1,115,6,0.55300003,-0.016,-0.55200005,-0.272,4.714013,0,nan,0.0,3,1,17
57071999,1611123934200086,340362343,1087607244,421539,393629,0.127,0.35660705,0.60200006,0.93200004,0.65,1.1,115,9,0.397,0.062000003,-0.39200002,-0.123,4.872484,0,nan,0.0,3,1,17
58068344,1611123935200085,340362356,1087607221,421110,393200,0.201,0.34603995,0.592,0.91800004,0.65,1.1,115,8,0.16600001,0.006,-0.16600001,0.261,4.3525877,0,nan,0.0,3,1,17
59068947,1611123936200084,340362365,1087607192,420552,392642,0.157,0.416649,0.588,0.9110001,0.7,1.18,115,7,0.323,-0.11000001,-0.30400002,0.17300001,4.4364634,0,nan,0.0,3,1,16
60081966,1611123937200083,340362366,1087607124,420321,392411,0.13900001,0.16757306,0.583,0.90500003,0.7,1.18,115,9,0.837,-0.001,-0.837,-0.132,4.656567,0,nan,0.0,3,1,16
61066939,1611123938200083,340362362,1087607040,420354,392444,0.20300001,0.33835843,0.59000003,0.91600007,0.66999996,1.17,86,4,0.762,-0.09,-0.757,-0.23,4.6031404,0,nan,0.0,3,1,17
62062085,1611123939200082,340362369,1087606972,420407,392497,0.178,0.26298898,0.6,0.93000007,0.66999996,1.17,86,3,0.61700004,-0.085,-0.611,-0.082,4.6386414,0,nan,0.0,3,1,17
63065044,1611123940200081,340362364,1087606921,420121,392211,0.17300001,0.41201705,0.60300004,0.94100004,0.69,1.22,86,3,0.37500003,-0.07300001,-0.36800003,0.057000004,4.4430294,0,nan,0.0,3,1,16
64069955,1611123941200081,340362356,1087606884,419896,391986,0.24100001,0.28585735,0.605,0.9480001,0.69,1.1999999,86,3,0.157,-0.120000005,-0.101,0.674,3.9474785,0,nan,0.0,3,1,16
65063976,1611123942200080,340362349,1087606845,419902,391992,0.23900001,0.36619484,0.60700005,0.95300007,0.66999996,1.17,86,4,0.46,-0.020000001,-0.46,-0.43600002,4.4366193,0,nan,0.0,3,1,17
66066985,1611123943200079,340362346,1087606760,420745,392835,0.24400002,0.17655505,0.609,0.957,0.66999996,1.17,92,3,0.99200004,-0.085,-0.98800004,-0.989,4.5799694,0,nan,0.0,3,1,17
67067939,1611123944200079,340362316,1087606660,421422,393512,0.21100001,0.19340289,0.61300004,0.96300006,0.66999996,1.17,92,3,0.781,-0.41400003,-0.66200006,-0.24000001,4.2250495,0,nan,0.0,3,1,17
68063145,1611123945200078,340362291,1087606578,421404,393494,0.158,0.2639095,0.61600006,0.966,0.68,1.17,92,4,0.619,-0.043,-0.61800003,0.091000006,4.4845448,0,nan,0.0,3,1,17
69067942,1611123946200077,340362295,1087606508,421378,393468,0.16800001,0.30014217,0.61800003,0.9710001,0.68,1.17,92,2,0.57600003,0.15400001,-0.555,0.115,4.9073544,0,nan,0.0,3,1,17
70062023,1611123947200077,340362296,1087606458,421228,393318,0.165,0.38511702,0.61800003,0.9710001,0.68,1.17,92,3,0.46,0.024,-0.45900002,0.119,4.7367473,0,nan,0.0,3,1,17
71067960,1611123948200076,340362293,1087606379,421230,393320,0.156,0.20947005,0.61600006,0.97200006,0.68,1.17,92,3,0.86800003,-0.127,-0.859,0.053000003,4.556516,0,nan,0.0,3,1,17
72070940,1611123949200075,340362277,1087606279,421228,393318,0.18100001,0.15552,0.61700004,0.97300005,0.68,1.17,92,3,1.031,-0.379,-0.95800006,-0.115,4.468049,0,nan,0.0,3,1,17
73066942,1611123950200075,340362260,1087606169,421440,393530,0.187,0.14798978,0.61700004,0.9760001,0.68,1.17,92,4,1.0530001,-0.177,-1.0380001,-0.29000002,4.5405984,0,nan,0.0,3,1,17
74064010,1611123951200074,340362237,1087606069,421631,393721,0.15,0.18914464,0.61700004,0.98,0.68,1.17,92,4,0.77000004,-0.14500001,-0.75600004,0.127,4.4725256,0,nan,0.0,3,1,17
75073026,1611123952200073,340362211,1087605972,421280,393370,0.18300001,0.15348145,0.62100005,0.98800004,0.68,1.17,101,4,0.96000004,-0.45700002,-0.84400004,0.2,4.3128734,0,nan,0.0,3,1,17
76065390,1611123953200072,340362190,1087605873,421213,393302,0.193,0.19362596,0.62600005,0.9990001,0.68,1.17,101,3,0.758,-0.28,-0.70500004,-0.120000005,4.369013,0,nan,0.0,3,1,17
77070012,1611123954200072,340362165,1087605789,421456,393546,0.291,0.37970003,0.628,1.008,0.68,1.17,101,4,0.48200002,-0.316,-0.36400002,-0.37100002,4.2890873,0,nan,0.0,3,1,17
78069940,1611123955200071,340362120,1087605722,422060,394150,0.223,0.21507885,0.633,1.018,0.68,1.17,101,5,0.75100005,-0.52000004,-0.541,-0.263,3.9936805,0,nan,0.0,3,1,17
79071944,1611123956200070,340362095,1087605665,422484,394574,0.177,0.741294,0.638,1.028,0.68,1.17,101,3,0.27,0.002,-0.27,0.025,4.4385123,0,nan,0.0,3,1,17
80068948,1611123957200070,340362116,1087605619,422383,394473,0.21300001,0.36243317,0.643,1.034,0.68,1.17,101,3,0.587,0.26900002,-0.521,0.24800001,5.203955,0,nan,0.0,3,1,17
81070757,1611123958200069,340362128,1087605586,421927,394017,0.261,0.3507239,0.647,1.0400001,0.68,1.17,101,4,0.537,-0.008,-0.537,0.24800001,4.9949813,0,nan,0.0,3,1,17
82070949,1611123959200068,340362116,1087605509,421725,393815,0.22800002,0.22165297,0.65500003,1.046,0.68,1.17,101,4,0.768,-0.089,-0.763,0.012,4.583509,0,nan,0.0,3,1,17
83072946,1611123960200068,340362094,1087605431,421831,393921,0.287,0.21662816,0.66400003,1.056,0.68,1.17,101,3,0.721,-0.377,-0.615,-0.18,4.288829,0,nan,0.0,3,1,17
84073219,1611123961200067,340362057,1087605364,422119,394208,0.287,0.329937,0.671,1.057,0.69,1.22,101,3,0.48800004,-0.29200003,-0.39100003,-0.30800003,4.0923815,0,nan,0.0,3,1,16
85069095,1611123962200066,340362018,1087605318,422062,394152,0.19800001,0.23953736,0.674,1.057,0.64,1.16,93,5,0.60400003,-0.3,-0.52400005,0.201,4.054694,0,nan,0.0,3,1,18
86065034,1611123963200066,340361977,1087605282,421847,393937,0.20500001,0.3420498,0.67,1.054,0.64,1.16,94,3,0.45600003,-0.397,-0.22500001,-0.143,3.7286255,0,nan,0.0,3,1,18
87069196,1611123964200065,340361924,1087605263,421733,393823,0.19500001,0.3833001,0.66700006,1.0600001,0.64,1.16,94,3,0.499,-0.46800002,-0.17500001,0.215,3.3715158,0,nan,0.0,3,1,18
88066713,1611123965200064,340361870,1087605265,421811,393901,0.238,0.25423285,0.669,1.072,0.69,1.26,94,4,0.757,-0.74600005,-0.132,-0.40100002,3.2506924,0,nan,0.0,3,1,16
89061965,1611123966200064,340361817,1087605260,422010,394099,0.193,0.27998886,0.66700006,1.0810001,0.64,1.16,94,3,0.64500004,-0.58500004,-0.27100003,-0.047000002,3.4231331,0,nan,0.0,3,1,18
90064081,1611123967200063,340361766,1087605245,422154,394244,0.22900002,0.29707876,0.66800004,1.082,0.64,1.16,94,3,0.58100003,-0.36900002,-0.44900003,0.24900001,3.75201,0,nan,0.0,3,1,18
91070962,1611123968200062,340361716,1087605217,421941,394031,0.201,0.45276877,0.669,1.087,0.64,1.16,94,4,0.41500002,-0.38300002,-0.16100001,0.30400002,3.583566,0,nan,0.0,3,1,18
92062958,1611123969200061,340361665,1087605193,421787,393876,0.22600001,0.3315806,0.67300004,1.098,0.64,1.16,94,4,0.57500005,-0.47100002,-0.33,-0.22000001,3.7478662,0,nan,0.0,3,1,18
93064902,1611123970200061,340361620,1087605153,421964,394054,0.275,0.35259125,0.67600006,1.1110001,0.64,1.16,94,4,0.523,-0.439,-0.28500003,-0.62,3.7648628,0,nan,0.0,3,1,18
94069941,1611123971200060,340361575,1087605129,422193,394283,0.19500001,0.5768606,0.684,1.1270001,0.64,1.16,94,13,0.4,-0.395,-0.065000005,0.14,3.5843847,0,nan,0.0,3,1,18
95065406,1611123972200059,340361533,1087605098,421539,393628,0.27600002,0.2824522,0.68500006,1.1350001,0.64,1.16,94,11,0.588,-0.48600003,-0.33200002,0.836,3.7902615,0,nan,0.0,3,1,18
96066936,1611123973200059,340361477,1087605084,421431,393521,0.216,0.33954874,0.68500006,1.139,0.64,1.16,94,5,0.51000005,-0.46500003,-0.208,-0.21700001,3.4972548,0,nan,0.0,3,1,18
97066977,1611123974200058,340361426,1087605064,421608,393698,0.208,0.28015324,0.68700004,1.143,0.64,1.16,94,5,0.689,-0.47800002,-0.49600002,-0.058000002,3.768951,0,nan,0.0,3,1,18
98063001,1611123975200057,340361367,1087605033,421278,393368,0.18400002,0.32909194,0.688,1.148,0.69,1.27,94,5,0.629,-0.59000003,-0.21700001,0.22900002,3.4863515,0,nan,0.0,3,1,17
99065043,1611123976200057,340361303,1087605021,421485,393574,0.23,0.35163933,0.69500005,1.1630001,0.69,1.27,94,4,0.712,-0.68200004,-0.20500001,-0.37500003,3.359846,0,nan,0.0,3,1,17
100069940,1611123977200056,340361243,1087604994,421808,393898,0.16000001,0.26417372,0.69600004,1.1650001,0.69,1.27,94,3,0.707,-0.597,-0.38000003,0.012,3.68108,0,nan,0.0,3,1,17
101077970,1611123978200055,340361177,1087604961,421786,393876,0.16600001,0.32538974,0.698,1.1700001,0.69,1.27,94,4,0.85,-0.76000005,-0.38000003,0.116000004,3.6173918,0,nan,0.0,3,1,17
102063970,1611123979200055,340361115,1087604931,421963,394053,0.23200001,0.31260312,0.703,1.1800001,0.74,1.4,94,4,0.70600003,-0.689,-0.15100001,-0.39100003,3.463781,0,nan,0.0,3,1,15
103070940,1611123980200054,340361058,1087604909,422473,394563,0.256,0.36896852,0.712,1.194,0.71999997,1.31,94,3,0.54,-0.43600002,-0.319,-0.578,3.6286635,0,nan,0.0,3,1,16
104073042,1611123981200053,340360996,1087604887,422620,394710,0.17,0.3464241,0.72300005,1.2080001,0.71999997,1.31,94,8,0.73600006,-0.731,-0.087000005,0.043,3.3193843,0,nan,0.0,3,1,16
105076940,1611123982200053,340360921,1087604882,422414,394503,0.155,0.35263693,0.735,1.2240001,0.68,1.2099999,95,7,0.71000004,-0.688,-0.17500001,0.081,3.272386,0,nan,0.0,3,1,17
106070014,1611123983200052,340360853,1087604857,422740,394830,0.254,0.31222,0.75200003,1.251,0.68,1.1899999,95,3,0.832,-0.795,-0.24400002,-0.59300005,3.4871683,0,nan,0.0,3,1,17
107071947,1611123984200051,340360774,1087604840,422958,395048,0.16800001,0.29127136,0.762,1.264,0.69,1.24,95,4,0.9250001,-0.87700003,-0.294,-0.002,3.4877918,0,nan,0.0,3,1,16
108074975,1611123985200050,340360695,1087604824,422705,394795,0.179,0.29936498,0.77400005,1.279,0.68,1.1899999,95,4,0.837,-0.78300005,-0.29500002,0.42100003,3.4334593,0,nan,0.0,3,1,17
109066010,1611123986200050,340360622,1087604798,422523,394613,0.17500001,0.27639872,0.78400004,1.294,0.69,1.24,95,4,0.85200006,-0.757,-0.39000002,0.067,3.5836105,0,nan,0.0,3,1,16
110070013,1611123987200049,340360547,1087604786,423048,395138,0.254,0.3418667,0.78800005,1.297,0.68,1.1899999,95,4,0.768,-0.753,-0.148,-0.605,3.3986738,0,nan,0.0,3,1,17
111068939,1611123988200048,340360464,1087604785,424146,396236,0.296,0.30516416,0.8,1.314,0.69,1.24,112,4,0.91300005,-0.91300005,0.017,-0.86800003,3.2480297,0,nan,0.0,3,1,16
112065975,1611123989200048,340360390,1087604795,424684,396774,0.23400001,0.27563268,0.81200004,1.3360001,0.65999997,1.13,112,4,0.86600006,-0.86100006,0.097,-0.277,2.9554784,0,nan,0.0,3,1,18
113068088,1611123990200047,340360312,1087604793,424755,396845,0.18,0.28820482,0.81600004,1.3440001,0.7,1.24,112,4,0.822,-0.809,-0.14400001,0.22600001,3.2290823,0,nan,0.0,3,1,16
114068971,1611123991200046,340360241,1087604777,424262,396352,0.231,0.32778102,0.82400006,1.358,0.64,1.16,105,3,0.702,-0.698,-0.069000006,0.785,3.2863436,0,nan,0.0,3,1,18
115061939,1611123992200046,340360170,1087604779,424110,396200,0.26200002,0.34349787,0.83000004,1.3640001,0.68,1.1899999,105,3,0.77400005,-0.76900005,0.091000006,-0.33100003,3.097956,0,nan,0.0,3,1,17
116065059,1611123993200045,340360095,1087604782,424563,396652,0.257,0.3696782,0.837,1.3720001,0.68,1.1899999,105,7,0.703,-0.703,0.031000001,-0.31100002,3.1642811,0,nan,0.0,3,1,17
117062942,1611123994200044,340360014,1087604782,424706,396796,0.177,0.26378348,0.841,1.3700001,0.65999997,1.13,105,8,0.85200006,-0.85,0.061000004,0.068,3.1150475,0,nan,0.0,3,1,18
118065002,1611123995200044,340359931,1087604789,424619,396709,0.17300001,0.23722671,0.832,1.3490001,0.64,1.13,105,6,0.81600004,-0.81500006,-0.035,0.071,3.1931863,0,nan,0.0,3,1,18
119066945,1611123996200043,340359842,1087604779,424630,396720,0.162,0.23416157,0.81700003,1.317,0.62,1.1,104,4,0.934,-0.897,-0.261,-0.11800001,3.3549025,0,nan,0.0,3,1,19
120080984,1611123997200042,340359755,1087604766,424815,396905,0.16800001,0.21543173,0.81200004,1.3030001,0.62,1.1,104,4,0.94000006,-0.93000007,-0.134,-0.010000001,3.3098786,0,nan,0.0,3,1,19
121065598,1611123998200041,340359675,1087604752,424687,396777,0.16800001,0.300612,0.80700004,1.2900001,0.62,1.1,104,4,0.69000006,-0.65800005,-0.20600002,-0.123,3.373347,0,nan,0.0,3,1,19
122064047,1611123999200041,340359606,1087604737,424761,396851,0.20400001,0.2517702,0.79800004,1.268,0.64,1.13,104,3,0.82800007,-0.82800007,0.018000001,0.068,3.1510363,0,nan,0.0,3,1,18
123066001,1611124000200040,340359541,1087604727,424663,396753,0.19900002,0.41883922,0.79300004,1.256,0.62,1.1,104,5,0.56,-0.55700004,-0.049000002,0.028,3.200494,0,nan,0.0,3,1,19
124066052,1611124001200039,340359481,1087604723,424716,396806,0.202,0.24898657,0.781,1.2310001,0.64,1.13,104,3,0.597,-0.58900005,0.102000006,-0.080000006,3.0618856,0,nan,0.0,3,1,18
125065970,1611124002200039,340359429,1087604745,424730,396820,0.21300001,0.21972421,0.76900005,1.2080001,0.62,1.1,104,3,0.669,-0.559,0.367,0.41300002,2.6408184,0,nan,0.0,3,1,19
126068942,1611124003200038,340359387,1087604761,424695,396785,0.19500001,0.4594909,0.762,1.19,0.62,1.1,104,5,0.416,-0.41500002,-0.028,-0.112,2.9435117,0,nan,0.0,3,1,19
127061019,1611124004200037,340359350,1087604752,424942,397032,0.187,0.49403027,0.75200003,1.171,0.62,1.1,104,6,0.41000003,-0.4,-0.09,-0.14,3.4998102,0,nan,0.0,3,1,19
128060985,1611124005200037,340359309,1087604736,424768,396858,0.18200001,0.36749756,0.744,1.154,0.62,1.1,104,5,0.51100004,-0.47800002,-0.18100001,0.42200002,3.498236,0,nan,0.0,3,1,19
129064224,1611124006200036,340359270,1087604717,424715,396805,0.17400001,0.35103753,0.735,1.143,0.64,1.14,104,5,0.55,-0.48100004,-0.26700002,-0.113000005,3.501546,0,nan,0.0,3,1,18
130063970,1611124007200035,340359209,1087604701,424941,397031,0.231,0.3266228,0.72700006,1.1290001,0.62,1.1,104,6,0.62,-0.60800004,-0.12100001,-0.629,3.3171184,0,nan,0.0,3,1,19
131062972,1611124008200035,340359144,1087604696,425258,397348,0.22200002,0.20973568,0.721,1.118,0.62,1.1,104,4,0.73,-0.721,0.115,-0.404,3.054028,0,nan,0.0,3,1,19
132074038,1611124009200034,340359067,1087604699,425240,397330,0.19900002,0.22196363,0.71900004,1.11,0.62,1.1,104,5,0.75000006,-0.748,0.065000005,0.056,3.1303658,0,nan,0.0,3,1,19
133061940,1611124010200033,340358995,1087604715,424930,397020,0.20400001,0.27317753,0.716,1.1040001,0.62,1.1,104,4,0.61600006,-0.59300005,0.16800001,0.39600003,2.9302704,0,nan,0.0,3,1,19
134063976,1611124011200033,340358936,1087604732,424687,396777,0.20300001,0.33609822,0.71500003,1.103,0.62,1.1,104,5,0.656,-0.65500003,0.036000002,-0.009000001,2.8951855,0,nan,0.0,3,1,19
135062953,1611124012200032,340358876,1087604740,425024,397114,0.24700001,0.22779636,0.71300006,1.1010001,0.62,1.1,104,4,0.71900004,-0.71900004,0.009000001,-0.63600004,3.082273,0,nan,0.0,3,1,19
136064439,1611124013200031,340358812,1087604726,425566,397656,0.22700001,0.18916838,0.70500004,1.0940001,0.64,1.14,104,3,0.87100005,-0.87100005,-0.015000001,-0.39400002,3.1750996,0,nan,0.0,3,1,18
137060009,1611124014200030,340358754,1087604727,425541,397631,0.21000001,0.5685614,0.702,1.093,0.62,1.1,103,4,0.363,-0.363,-0.010000001,0.23400001,3.1877565,0,nan,0.0,3,1,19
138064510,1611124015200030,340358708,1087604727,424869,396959,0.252,0.46680856,0.697,1.087,0.62,1.1,103,5,0.43,-0.43,-0.003,0.51600003,3.207787,0,nan,0.0,3,1,19
139060977,1611124016200029,340358671,1087604732,424613,396703,0.22200002,0.56145316,0.694,1.0840001,0.65,1.15,103,4,0.32200003,-0.317,-0.059000004,0.27,3.1759768,0,nan,0.0,3,1,18
140061169,1611124017200028,340358625,1087604737,424399,396489,0.178,0.24089435,0.688,1.077,0.62,1.1,103,4,0.625,-0.62,0.078,0.024,3.0302992,0,nan,0.0,3,1,19
141065126,1611124018200028,340358578,1087604758,424080,396170,0.20500001,0.36221918,0.683,1.0660001,0.62,1.1,103,4,0.41300002,-0.31100002,0.272,0.22900002,2.6613445,0,nan,0.0,3,1,19
142064938,1611124019200027,340358544,1087604781,424089,396179,0.22600001,0.3921627,0.68,1.059,0.62,1.1,103,4,0.374,-0.208,0.31100002,-0.19500001,2.355919,0,nan,0.0,3,1,19
143062114,1611124020200026,340358528,1087604805,423787,395877,0.2,0.77810985,0.67300004,1.041,0.62,1.1,103,4,0.21200001,-0.030000001,0.21000001,0.19900002,2.0551565,0,nan,0.0,3,1,19
144063019,1611124021200026,340358534,1087604813,423618,395708,0.15900001,0.778163,0.66700006,1.031,0.62,1.1,103,4,0.24700001,0.18800001,0.16000001,0.004,2.0551565,0,nan,0.0,3,1,19
145064859,1611124022200025,340358552,1087604829,423621,395711,0.18800001,0.4288792,0.66300005,1.024,0.62,1.1,103,7,0.40800002,0.21000001,0.35000002,-0.25500003,0.9727774,0,nan,0.0,3,1,19
146059027,1611124023200024,340358560,1087604898,423471,395561,0.163,0.28107443,0.65800005,1.019,0.62,1.1,103,8,0.72400004,0.07,0.721,0.186,1.4649646,0,nan,0.0,3,1,19
147063942,1611124024200024,340358562,1087604959,423607,395697,0.22500001,0.3099167,0.65500003,1.0120001,0.62,1.1,103,7,0.51900005,-0.28,0.437,-0.47400004,1.885942,0,nan,0.0,3,1,19
148064599,1611124025200023,340358550,1087605004,423903,395993,0.18100001,0.54501164,0.652,1.0170001,0.61,1.0699999,103,4,0.238,0.007,0.238,0.067,1.7260662,0,nan,0.0,3,1,19
149061972,1611124026200022,340358554,1087605026,423545,395636,0.20600002,0.67826855,0.651,1.0270001,0.61,1.0699999,103,4,0.266,-0.051000003,0.261,0.15900001,1.5221654,0,nan,0.0,3,1,19
150062958,1611124027200022,340358565,1087605065,422534,394624,0.25300002,0.30723292,0.64900005,1.0350001,0.61,1.0699999,103,3,0.61300004,0.049000002,0.61200005,0.94000006,1.568902,0,nan,0.0,3,1,19
151060974,1611124028200021,340358535,1087605118,422206,394296,0.23900001,0.3149998,0.647,1.0380001,0.61,1.0699999,103,4,0.47500002,-0.30400002,0.365,-0.351,2.2380579,0,nan,0.0,3,1,19
152068041,1611124029200020,340358516,1087605148,422452,394542,0.223,0.74638164,0.647,1.044,0.61,1.0699999,103,4,0.19500001,-0.14,0.136,-0.091000006,2.1552477,0,nan,0.0,3,1,19
153061947,1611124030200019,340358516,1087605161,422663,394753,0.25300002,0.6440457,0.646,1.0430001,0.63,1.12,103,3,0.15200001,0.15100001,0.018000001,-0.45100003,2.0303328,0,nan,0.0,3,1,18
154061093,1611124031200019,340358519,1087605203,422986,395076,0.24900001,0.48544568,0.646,1.044,0.61,1.0699999,103,4,0.367,0.045,0.36400002,-0.518,1.5857862,0,nan,0.0,3,1,19
155063951,1611124032200018,340358523,1087605267,423025,395115,0.147,0.3248131,0.642,1.041,0.61,1.0699999,103,3,0.50200003,0.016,0.50200003,0.009000001,1.4989761,0,nan,0.0,3,1,19
156064945,1611124033200017,340358527,1087605317,422828,394919,0.19800001,0.54504764,0.638,1.0380001,0.61,1.0699999,103,4,0.319,-0.030000001,0.317,-0.102000006,1.5703553,0,nan,0.0,3,1,19
157070941,1611124034200017,340358536,1087605348,422825,394915,0.177,0.46623084,0.63600004,1.0400001,0.61,1.0699999,94,4,0.37500003,0.087000005,0.36400002,-0.109000005,1.4146239,0,nan,0.0,3,1,19
158064980,1611124035200016,340358550,1087605376,422617,394707,0.17400001,0.35455018,0.62700003,1.0250001,0.61,1.0699999,94,4,0.40500003,0.028,0.404,0.24700001,1.4299915,0,nan,0.0,3,1,19
159070972,1611124036200015,340358575,1087605442,422082,394172,0.162,0.2404383,0.62100005,1.018,0.61,1.0699999,94,4,0.85400003,0.36,0.77500004,0.20600002,1.2167385,0,nan,0.0,3,1,19
160069940,1611124037200015,340358595,1087605523,421939,394029,0.17300001,0.29858845,0.62100005,1.0170001,0.61,1.0699999,94,4,0.629,0.067,0.625,-0.14,1.4541831,0,nan,0.0,3,1,19
161074941,1611124038200014,340358602,1087605580,422259,394349,0.22100002,0.40752947,0.62,1.016,0.61,1.0699999,94,6,0.42400002,-0.07300001,0.418,-0.18200001,1.6114262,0,nan,0.0,3,1,19
162072082,1611124039200013,340358606,1087605622,422448,394538,0.162,0.45734292,0.61300004,1.0040001,0.61,1.0699999,94,4,0.34,0.155,0.303,-0.158,1.2166085,0,nan,0.0,3,1,19
163073973,1611124040200013,340358629,1087605643,422384,394474,0.133,0.52924645,0.606,0.99200004,0.61,1.0699999,94,4,0.31500003,0.277,0.15100001,-0.051000003,0.6200439,0,nan,0.0,3,1,19
164074827,1611124041200012,340358647,1087605660,422371,394461,0.157,0.6318973,0.605,0.9850001,0.61,1.0699999,94,3,0.24300002,0.0050000004,0.24300002,-0.015000001,1.1003808,0,nan,0.0,3,1,19
165073946,1611124042200011,340358648,1087605712,422292,394382,0.155,0.22954726,0.6,0.98300004,0.61,1.0699999,95,4,0.72200006,0.042000003,0.72,0.0,1.5351217,0,nan,0.0,3,1,19
166075513,1611124043200010,340358649,1087605783,422393,394483,0.15300001,0.29555264,0.597,0.97900003,0.61,1.0699999,95,3,0.57000005,0.119,0.55700004,-0.057000004,1.5349472,0,nan,0.0,3,1,19
167070049,1611124044200010,340358661,1087605824,422516,394606,0.186,0.661327,0.59400004,0.97700006,0.61,1.0699999,95,4,0.24000001,0.155,0.18400002,-0.086,1.1208355,0,nan,0.0,3,1,19
168068096,1611124045200009,340358665,1087605839,422217,394307,0.24400002,0.71976507,0.59300005,0.97400004,0.61,1.0699999,95,4,0.038000003,-0.019000001,-0.033,0.294,1.6768328,0,nan,0.0,3,1,19
169070110,1611124046200008,340358634,1087605847,422111,394201,0.158,0.44614646,0.592,0.97,0.61,1.0699999,95,4,0.342,-0.25300002,0.231,0.023000002,2.647932,0,nan,0.0,3,1,19
170067541,1611124047200008,340358616,1087605883,422308,394398,0.19600001,0.24616316,0.59000003,0.96800005,0.61,1.0699999,95,4,0.624,-0.245,0.574,-0.40800002,1.9922348,0,nan,0.0,3,1,19
171063031,1611124048200007,340358616,1087605908,422427,394517,0.22100002,0.36987627,0.58900005,0.96700007,0.61,1.0699999,95,3,0.172,0.09200001,0.14500001,0.17,1.9803315,0,nan,0.0,3,1,19
172070989,1611124049200006,340358630,1087605943,421837,393927,0.21200001,0.20851955,0.588,0.966,0.61,1.0699999,95,4,0.776,0.017,0.776,0.81000006,1.5223539,0,nan,0.0,3,1,19
173068984,1611124050200006,340358641,1087606012,420967,393057,0.23,0.43438992,0.587,0.96900004,0.61,1.0699999,95,11,0.42400002,0.216,0.365,0.49,1.329058,0,nan,0.0,3,1,19
174067122,1611124051200005,340358645,1087606049,421065,393155,0.238,0.51544493,0.588,0.9710001,0.61,1.0699999,95,9,0.319,-0.029000001,0.317,-0.57500005,1.6988705,0,nan,0.0,3,1,19
175070952,1611124052200004,340358627,1087606095,421711,393801,0.22200002,0.30316177,0.588,0.97300005,0.61,1.0699999,95,11,0.53800005,-0.093,0.53000003,-0.503,1.8977507,0,nan,0.0,3,1,19
176069160,1611124053200004,340358620,1087606136,421952,394042,0.16800001,0.6154272,0.58400005,0.97,0.61,1.0699999,95,4,0.24800001,-0.032,0.246,-0.058000002,1.7264012,0,nan,0.0,3,1,19
177067978,1611124054200003,340358630,1087606166,421623,393713,0.177,0.40210882,0.583,0.96900004,0.61,1.0699999,95,6,0.381,0.069000006,0.374,0.156,1.3063173,0,nan,0.0,3,1,19
178075125,1611124055200002,340358644,1087606205,421366,393456,0.148,0.3174944,0.577,0.95800006,0.61,1.0699999,95,3,0.48900002,0.091000006,0.48100004,-0.097,1.3427479,0,nan,0.0,3,1,19
179072971,1611124056200002,340358639,1087606256,421234,393324,0.147,0.185244,0.57100004,0.94500005,0.61,1.0699999,96,11,0.70400006,-0.156,0.68700004,-0.082,1.8083953,0,nan,0.0,3,1,19
180082942,1611124057200001,340358633,1087606334,421180,393271,0.17300001,0.20600471,0.57000005,0.94500005,0.61,1.0699999,102,5,0.84200007,-0.047000002,0.84000003,-0.060000002,1.6317807,0,nan,0.0,3,1,19
181075944,1611124058200000,340358643,1087606413,421073,393164,0.185,0.24249046,0.573,0.95000005,0.61,1.0699999,102,6,0.67700005,-0.0050000004,0.67700005,-0.209,1.5013871,0,nan,0.0,3,1,19
182071168,1611124059199999,340358644,1087606471,421101,393192,0.17400001,0.34182745,0.57600003,0.95600003,0.61,1.0699999,102,4,0.45800003,0.11000001,0.44500002,-0.078,1.4638194,0,nan,0.0,3,1,19
183070942,1611124060199999,340358657,1087606531,420964,393055,0.148,0.27264416,0.572,0.95400006,0.61,1.0699999,102,5,0.61200005,0.22700001,0.569,0.083000004,1.2876587,0,nan,0.0,3,1,19
184072941,1611124061199998,340358651,1087606590,420776,392866,0.165,0.27292898,0.57500005,0.95900005,0.61,1.0699999,102,4,0.54800004,-0.259,0.483,0.115,1.925699,0,nan,0.0,3,1,19
185069985,1611124062199997,340358636,1087606649,420425,392515,0.18900001,0.27421355,0.57500005,0.9620001,0.63,1.12,102,4,0.62200004,-0.015000001,0.62200004,0.38300002,1.7160285,0,nan,0.0,3,1,18
186070947,1611124063199997,340358631,1087606706,420208,392299,0.18900001,0.30781412,0.577,0.966,0.63,1.1,102,3,0.568,-0.133,0.55200005,0.11100001,1.7350981,0,nan,0.0,3,1,18
187071230,1611124064199996,340358626,1087606768,420212,392303,0.179,0.29377782,0.578,0.97200006,0.63,1.12,102,6,0.526,-0.014,0.52500004,-0.148,1.6026093,0,nan,0.0,3,1,18
188067118,1611124065199995,340358623,1087606833,420521,392612,0.20500001,0.23196717,0.577,0.9710001,0.61,1.0699999,118,7,0.698,-0.17500001,0.675,-0.31800002,1.715976,0,nan,0.0,3,1,19
189062943,1611124066199995,340358617,1087606898,420760,392850,0.18800001,0.3032438,0.58400005,0.98100007,0.61,1.0699999,117,7,0.61700004,-0.071,0.61300004,-0.109000005,1.7281476,0,nan,0.0,3,1,19
190065012,1611124067199994,340358610,1087606944,420599,392689,0.20300001,0.4115989,0.58500004,0.984,0.61,1.0699999,117,8,0.41200003,-0.019000001,0.41200003,0.21900001,1.6911954,0,nan,0.0,3,1,19
191064056,1611124068199993,340358612,1087606990,420369,392459,0.202,0.36898825,0.586,0.98700005,0.61,1.0699999,117,4,0.512,-0.048,0.509,0.149,1.5685661,0,nan,0.0,3,1,19
192062943,1611124069199993,340358615,1087607058,420300,392391,0.19600001,0.47666565,0.59400004,1.003,0.61,1.0699999,117,5,0.43100002,0.15400001,0.402,-0.08800001,1.4217429,0,nan,0.0,3,1,19
193061945,1611124070199992,340358599,1087607110,420321,392412,0.20700002,0.30474776,0.59900004,1.0150001,0.61,1.0699999,117,4,0.512,-0.25800002,0.44200003,-0.18800001,2.034897,0,nan,0.0,3,1,19
194064938,1611124071199991,340358581,1087607173,420313,392403,0.18800001,0.22768012,0.601,1.0200001,0.61,1.0699999,117,8,0.72700006,-0.21100001,0.69500005,-0.148,1.8297921,0,nan,0.0,3,1,19
195103985,1611124072199990,340358583,1087607252,420184,392274,0.187,0.29762295,0.605,1.0250001,0.61,1.0699999,117,12,0.642,0.07300001,0.638,0.14,1.4762592,0,nan,0.0,4,1,19
196067102,1611124073199990,340358594,1087607316,419934,392025,0.194,0.31753942,0.605,1.031,0.61,1.0699999,117,7,0.551,0.056,0.54800004,0.22500001,1.3860137,0,nan,0.0,4,1,19
197094945,1611124074199989,340358588,1087607372,419853,391943,0.15200001,0.2566346,0.60300004,1.0270001,0.63,1.0799999,117,10,0.57000005,-0.109000005,0.56,0.11100001,1.7656497,0,nan,0.0,4,1,18
198064964,1611124075199988,340358586,1087607443,419880,391970,0.15,0.20912273,0.596,1.0170001,0.61,1.0699999,117,11,0.78000003,0.007,0.78000003,-0.18200001,1.5568389,0,nan,0.0,4,1,19
199068944,1611124076199988,340358585,1087607527,420039,392130,0.177,0.23318331,0.595,1.0120001,0.61,1.0699999,117,6,0.68700004,0.002,0.68700004,-0.30100003,1.5485727,0,nan,0.0,4,1,19
200060941,1611124077199987,340358588,1087607592,420317,392407,0.19600001,0.26918438,0.59300005,1.008,0.61,1.0699999,117,4,0.614,0.007,0.614,-0.24000001,1.5095936,0,nan,0.0,4,1,19
201064056,1611124078199986,340358592,1087607663,420529,392620,0.17500001,0.24675709,0.592,1.003,0.61,1.0699999,117,4,0.74300003,0.091000006,0.73800004,-0.08800001,1.4697275,0,nan,0.0,4,1,19
202065938,1611124079199986,340358600,1087607748,420556,392647,0.16900001,0.2437916,0.597,1.006,0.61,1.0699999,117,5,0.70000005,0.08800001,0.69500005,0.027,1.4307101,0,nan,0.0,4,1,19
203064090,1611124080199985,340358606,1087607831,420253,392343,0.179,0.23556846,0.597,1.008,0.63,1.1,117,6,0.726,-0.033,0.725,0.3,1.5163982,0,nan,0.0,4,1,18
204066952,1611124081199984,340358606,1087607915,420000,392091,0.15,0.19680594,0.59900004,1.01,0.61,1.0699999,117,7,0.841,-0.044000003,0.83900005,0.119,1.6107873,0,nan,0.0,4,1,19
205069951,1611124082199984,340358604,1087608001,420071,392161,0.19000001,0.26241532,0.595,1.006,0.61,1.0699999,117,4,0.726,0.012,0.726,-0.19000001,1.5560495,0,nan,0.0,4,1,19
206069026,1611124083199983,340358607,1087608075,420598,392688,0.18800001,0.2388394,0.59400004,1.003,0.61,1.0699999,117,3,0.619,0.035,0.61800003,-0.296,1.53665,0,nan,0.0,4,1,19
207074010,1611124084199982,340358613,1087608137,420531,392622,0.20400001,0.44195923,0.59400004,1.0020001,0.61,1.0699999,108,3,0.42200002,-0.013,0.42100003,0.215,1.5134261,0,nan,0.0,4,1,19
208076472,1611124085199982,340358617,1087608191,420470,392560,0.18200001,0.3088264,0.592,0.994,0.61,1.0699999,109,4,0.522,-0.185,0.48800004,-0.16100001,1.7595638,0,nan,0.0,4,1,19
209075144,1611124086199981,340358606,1087608239,421051,393142,0.192,0.3178489,0.591,0.99500006,0.64,1.0799999,109,3,0.614,-0.080000006,0.60800004,-0.13700001,1.7359328,0,nan,0.0,4,1,18
210072932,1611124087199980,340358601,1087608303,420812,392902,0.24200001,0.31891108,0.59400004,0.994,0.61,1.0699999,109,3,0.528,0.051000003,0.52500004,0.74,1.5358775,0,nan,0.0,4,1,19
211072093,1611124088199979,340358600,1087608362,420463,392553,0.18200001,0.47336295,0.592,0.99300003,0.61,1.0699999,109,4,0.39600003,-0.056,0.39200002,0.097,1.6413873,0,nan,0.0,4,1,19
212076013,1611124089199979,340358596,1087608415,420691,392781,0.23200001,0.38352647,0.592,0.99300003,0.61,1.0699999,109,4,0.47200003,0.087000005,0.46400002,-0.597,1.5443779,0,nan,0.0,4,1,19
213071110,1611124090199978,340358602,1087608449,421396,393487,0.27,0.7106656,0.591,0.99300003,0.61,1.0699999,109,4,0.30600002,0.025,0.305,-0.577,1.2805442,0,nan,0.0,4,1,19
214073014,1611124091199977,340358615,1087608478,421556,393647,0.26900002,0.5090958,0.59400004,0.994,0.63,1.12,109,4,0.11800001,0.051000003,0.106000006,-0.541,0.9431208,0,nan,0.0,4,1,18
215075167,1611124092199977,340358633,1087608493,421548,393638,0.17,0.70581317,0.592,0.994,0.61,1.0699999,109,5,0.23200001,0.20700002,0.105000004,0.079,0.43540293,0,nan,0.0,4,1,19
216070038,1611124093199976,340358653,1087608488,421750,393840,0.22000001,0.48471823,0.586,0.98600006,0.61,1.0699999,110,5,0.31300002,0.185,-0.252,-0.503,5.6969523,0,nan,0.0,4,1,19
217073953,1611124094199975,340358661,1087608471,422085,394175,0.24800001,0.54162997,0.583,0.98200005,0.61,1.0699999,110,5,0.16100001,0.006,-0.16100001,-0.90300006,5.1362963,0,nan,0.0,4,1,19
218065949,1611124095199975,340358669,1087608452,421539,393630,0.27100003,0.40464762,0.58100003,0.97900003,0.61,1.0699999,120,4,0.38000003,0.37300003,-0.07300001,1.271,5.843092,0,nan,0.0,4,1,19
219070199,1611124096199974,340358698,1087608431,420716,392807,0.24700001,0.7470654,0.58100003,0.97900003,0.61,1.0699999,120,4,0.22100002,0.19500001,-0.105000004,0.28100002,5.6961923,0,nan,0.0,4,1,19
220068946,1611124097199973,340358720,1087608413,420508,392598,0.194,0.4757078,0.58000004,0.9760001,0.61,1.0699999,120,5,0.34100002,0.163,-0.3,-0.21800001,5.3728576,0,nan,0.0,4,1,19
221070976,1611124098199973,340358720,1087608422,421375,393465,0.23300001,0.37905303,0.58100003,0.9760001,0.63,1.1,120,3,0.48400003,0.053000003,0.48100004,-0.739,1.0346011,0,nan,0.0,4,1,18
222070941,1611124099199972,340358713,1087608461,421519,393610,0.16800001,0.5492902,0.58000004,0.98,0.61,1.0699999,120,4,0.293,-0.15,0.252,0.120000005,2.0346017,0,nan,0.0,4,1,19
223068163,1611124100199971,340358704,1087608488,421342,393433,0.194,0.6741634,0.58000004,0.98200005,0.63,1.1,120,4,0.13900001,0.038000003,0.133,0.079,2.2101057,0,nan,0.0,4,1,18
224066938,1611124101199970,340358736,1087608518,421181,393272,0.16700001,0.23415092,0.578,0.97900003,0.61,1.0699999,120,5,0.648,0.60300004,0.238,0.124000005,0.45545533,0,nan,0.0,4,1,19
225070437,1611124102199970,340358795,1087608548,420862,392952,0.202,0.24865374,0.57900006,0.98100007,0.63,1.1,120,5,0.666,0.648,0.15400001,0.38200003,0.30448174,0,nan,0.0,4,1,18
226069993,1611124103199969,340358865,1087608568,420598,392689,0.16000001,0.18227468,0.57600003,0.97800004,0.61,1.0699999,120,4,0.794,0.76600003,0.209,0.264,0.24243566,0,nan,0.0,4,1,19
227069130,1611124104199968,340358928,1087608588,420454,392545,0.16800001,0.21888994,0.57600003,0.97800004,0.61,1.0699999,119,4,0.66700006,0.66200006,0.082,0.109000005,0.16658172,0,nan,0.0,4,1,19
228069135,1611124105199968,340358983,1087608609,420574,392664,0.15300001,0.29155236,0.573,0.9760001,0.61,1.0699999,119,4,0.541,0.532,0.094000004,-0.18,0.22741291,0,nan,0.0,4,1,19
229071027,1611124106199967,340359023,1087608625,420786,392877,0.17400001,0.372085,0.573,0.97300005,0.61,1.0699999,119,3,0.41300002,0.409,0.059000004,-0.24400002,0.23499462,0,nan,0.0,4,1,19
230062979,1611124107199966,340359077,1087608631,420783,392874,0.163,0.16316298,0.569,0.96000004,0.61,1.0699999,119,3,0.90900004,0.90300006,0.1,0.245,0.0948466,0,nan,0.0,4,1,19
231070938,1611124108199966,340359163,1087608642,420687,392777,0.157,0.15515976,0.568,0.95600003,0.63,1.1,119,4,0.98600006,0.98100007,0.1,0.010000001,0.08167303,0,nan,0.0,4,1,18
232069997,1611124109199965,340359254,1087608644,420882,392973,0.17400001,0.14846312,0.56700003,0.95400006,0.63,1.1,119,4,0.934,0.934,-0.035,-0.34800002,6.251859,0,nan,0.0,4,1,18
233075941,1611124110199964,340359323,1087608630,421175,393266,0.21100001,0.28408095,0.57100004,0.95600003,0.71,1.1899999,119,3,0.592,0.57500005,-0.14,-0.335,6.0700173,0,nan,0.0,4,1,16
234071503,1611124111199964,340359380,1087608624,421060,393151,0.2,0.3102272,0.57600003,0.961,0.61,1.0699999,119,5,0.554,0.55,-0.065000005,0.21100001,6.200297,0,nan,0.0,4,1,19
235065050,1611124112199963,340359422,1087608632,420871,392962,0.19900002,0.45202386,0.578,0.96700007,0.63,1.1,111,3,0.363,0.36200002,0.026,0.14500001,0.10253477,0,nan,0.0,4,1,18
236068941,1611124113199962,340359458,1087608647,420732,392822,0.17,0.28931397,0.57900006,0.966,0.61,1.0699999,111,5,0.512,0.509,0.060000002,0.194,0.16683637,0,nan,0.0,4,1,19
237069951,1611124114199961,340359521,1087608651,420595,392686,0.18900001,0.2563618,0.578,0.96300006,0.61,1.0699999,111,5,0.65900004,0.656,0.066,0.19700001,0.0826759,0,nan,0.0,4,1,19
238068945,1611124115199961,340359587,1087608661,420487,392578,0.177,0.29036483,0.58000004,0.97,0.61,1.0699999,110,5,0.62,0.559,0.268,0.30400002,0.3149998,0,nan,0.0,4,1,19
239069942,1611124116199960,340359637,1087608665,420591,392682,0.19500001,0.3947364,0.58000004,0.97,0.61,1.0699999,110,4,0.41300002,0.41300002,0.016,0.20600002,0.04008672,0,nan,0.0,4,1,19
240082942,1611124117199959,340359710,1087608650,420980,393070,0.15900001,0.1742863,0.731,1.2210001,0.63,1.1,103,5,0.836,0.836,0.003,0.087000005,6.229632,0,nan,0.0,4,1,18
241065965,1611124118199959,340359790,1087608659,421021,393111,0.14600001,0.187215,0.574,0.95800006,0.63,1.1,103,5,0.845,0.80200005,0.264,-0.022000002,0.22947955,0,nan,0.0,4,1,18
242065226,1611124119199958,340359854,1087608683,421003,393094,0.149,0.22822064,0.57100004,0.95400006,0.65,1.12,103,5,0.64900005,0.62200004,0.185,-0.004,0.2779084,0,nan,0.0,4,1,17
243068952,1611124120199957,340359898,1087608692,421119,393209,0.164,0.3403734,0.57000005,0.94900006,0.61,1.0699999,103,4,0.437,0.43400002,0.056,-0.18800001,0.1242711,0,nan,0.0,4,1,19
244070247,1611124121199957,340359951,1087608700,421271,393361,0.163,0.29512173,0.569,0.9480001,0.61,1.0699999,103,4,0.59800005,0.597,-0.034,-0.19800001,0.054284453,0,nan,0.0,4,1,19
245063650,1611124122199956,340360004,1087608700,421300,393391,0.14600001,0.19101703,0.564,0.93700004,0.63,1.1,103,5,0.748,0.739,0.112,0.105000004,0.090286404,0,nan,0.0,3,1,18
246061098,1611124123199955,340360096,1087608726,421122,393213,0.165,0.12980537,0.56100005,0.929,0.63,1.1,103,4,1.1370001,1.118,0.208,0.178,0.20816508,0,nan,0.0,3,1,18
247062950,1611124124199955,340360193,1087608740,420842,392933,0.156,0.13458757,0.56,0.92700005,0.63,1.1,103,5,1.0170001,1.013,0.09200001,0.245,0.099570505,0,nan,0.0,3,1,18
248065946,1611124125199954,340360266,1087608749,420872,392962,0.142,0.20093538,0.558,0.92200005,0.63,1.1,103,3,0.72300005,0.72300005,-0.015000001,-0.20400001,0.032651618,0,nan,0.0,3,1,18
249061993,1611124126199953,340360335,1087608753,420965,393055,0.143,0.22515967,0.55700004,0.92,0.63,1.1,103,5,0.63500005,0.63500005,0.007,-0.24400002,0.038551528,0,nan,0.0,3,1,18
250063722,1611124127199952,340360386,1087608755,421147,393238,0.155,0.30184335,0.555,0.91600007,0.63,1.1,103,5,0.503,0.503,0.011000001,-0.061000004,6.2723,0,nan,0.0,3,1,18
251064960,1611124128199952,340360432,1087608754,420849,392939,0.19800001,0.2741387,0.555,0.91300005,0.63,1.1,103,4,0.523,0.518,-0.071,0.33200002,6.176636,0,nan,0.0,3,1,18
252064202,1611124129199951,340360494,1087608768,420407,392497,0.21200001,0.22886607,0.55300003,0.91,0.63,1.1,103,4,0.62200004,0.619,0.059000004,0.532,0.12493747,0,nan,0.0,3,1,18
253061365,1611124130199950,340360556,1087608783,420020,392110,0.178,0.18496823,0.55300003,0.90900004,0.65,1.12,103,4,0.74200004,0.717,0.19000001,0.34600002,0.22432508,0,nan,0.0,3,1,17
254064778,1611124131199950,340360616,1087608799,419883,391974,0.158,0.21623999,0.554,0.91200006,0.69,1.13,103,3,0.68500006,0.68100005,0.065000005,0.042000003,0.1250771,0,nan,0.0,3,1,16
255064000,1611124132199949,340360677,1087608802,420024,392115,0.13800001,0.24176928,0.55200005,0.90700006,0.63,1.1,103,5,0.55300003,0.53900003,0.12200001,-0.24900001,0.0767423,0,nan,0.0,3,1,18
256062943,1611124133199948,340360737,1087608823,420317,392408,0.15100001,0.23308924,0.55,0.901,0.65,1.1,103,5,0.60800004,0.605,0.057000004,-0.35500002,0.20241769,0,nan,0.0,3,1,17
257061940,1611124134199948,340360787,1087608832,420490,392581,0.15400001,0.32978728,0.54700005,0.896,0.65,1.1,103,5,0.43300003,0.43,0.051000003,0.017,0.15930074,0,nan,0.0,3,1,17
258063980,1611124135199947,340360847,1087608834,420623,392714,0.13000001,0.17816652,0.545,0.89000005,0.63,1.1,103,5,0.735,0.734,0.035,-0.148,0.027986355,0,nan,0.0,3,1,18
259068027,1611124136199946,340360919,1087608832,420595,392685,0.15300001,0.1847588,0.541,0.87900007,0.63,1.1,103,4,0.73600006,0.735,0.047000002,0.17600001,0.00052185345,0,nan,0.0,3,1,18
260057945,1611124137199946,340360980,1087608840,420485,392575,0.18,0.2775749,0.54200006,0.88000005,0.63,1.1,103,5,0.577,0.57100004,-0.082,0.178,0.013798573,0,nan,0.0,3,1,18
261063962,1611124138199945,340361044,1087608840,420505,392596,0.141,0.20706446,0.54300004,0.882,0.63,1.1,103,5,0.73,0.72,-0.12100001,-0.224,6.186602,0,nan,0.0,3,1,18
262064084,1611124139199944,340361119,1087608846,420587,392677,0.15100001,0.16188662,0.546,0.88900006,0.63,1.1,103,4,0.85600007,0.85300004,0.068,-0.12900001,0.062776,0,nan,0.0,3,1,18
263072948,1611124140199943,340361188,1087608851,420793,392884,0.16700001,0.21755649,0.55,0.89500004,0.63,1.1,102,4,0.65000004,0.65000004,-0.029000001,0.025,6.263833,0,nan,0.0,3,1,18
264059567,1611124141199943,340361243,1087608850,420596,392686,0.19800001,0.24221015,0.554,0.906,0.63,1.1,102,3,0.624,0.624,0.0050000004,0.201,6.220853,0,nan,0.0,3,1,18
265064946,1611124142199942,340361294,1087608846,420301,392391,0.24100001,0.42405742,0.559,0.91800004,0.63,1.1,102,5,0.43,0.363,-0.23,0.45700002,6.076233,0,nan,0.0,3,1,18
266061946,1611124143199941,340361348,1087608841,419995,392086,0.21200001,0.19257368,0.568,0.933,0.63,1.1,102,6,0.88000005,0.81200004,0.34,0.337,0.24334548,0,nan,0.0,3,1,18
267064941,1611124144199941,340361424,1087608876,419633,391723,0.21400002,0.18972775,0.573,0.94500005,0.65,1.1,102,5,0.86200005,0.81700003,0.275,0.291,0.32488796,0,nan,0.0,3,1,17
268063954,1611124145199940,340361490,1087608895,419683,391774,0.178,0.19493373,0.577,0.957,0.65,1.12,102,5,0.81000006,0.80700004,0.067,-0.24700001,0.11341515,0,nan,0.0,3,1,17
269071253,1611124146199939,340361552,1087608891,420053,392144,0.16000001,0.23755798,0.58100003,0.96400005,0.62,1.0799999,102,4,0.72900003,0.72200006,-0.10300001,-0.41400003,6.114858,0,nan,0.0,3,1,19
270064050,1611124147199939,340361620,1087608897,420097,392188,0.148,0.27782378,0.58400005,0.96700007,0.62,1.0799999,102,5,0.569,0.569,-0.030000001,-0.15400001,6.271741,0,nan,0.0,3,1,19
271055987,1611124148199938,340361670,1087608897,420167,392257,0.16900001,0.37279972,0.587,0.97200006,0.62,1.0799999,102,5,0.42000002,0.41300002,-0.078,0.008,6.244507,0,nan,0.0,3,1,19
272063042,1611124149199937,340361716,1087608897,420513,392604,0.17400001,0.20398779,0.58900005,0.97800004,0.62,1.0799999,102,4,0.73600006,0.72400004,-0.13000001,-0.39800003,6.161828,0,nan,0.0,3,1,19
273063030,1611124150199937,340361760,1087608884,420702,392792,0.14600001,0.39858082,0.59300005,0.9850001,0.68,1.15,102,6,0.425,0.367,-0.21400002,-0.22500001,5.8517404,0,nan,0.0,3,1,18
274063812,1611124151199936,340361804,1087608870,420621,392712,0.303,0.3746084,0.595,0.98800004,0.68,1.15,102,7,0.41000003,0.404,-0.07,0.49100003,6.014884,0,nan,0.0,3,1,18
275061941,1611124152199935,340361836,1087608852,420335,392425,0.18800001,0.56849194,0.597,0.99300003,0.68,1.15,102,7,0.286,0.178,-0.223,0.061000004,5.544638,0,nan,0.0,3,1,18
276063313,1611124153199935,340361848,1087608830,420252,392342,0.256,0.7389853,0.60400003,1.001,0.62,1.0799999,102,6,0.26700002,0.097,-0.24800001,0.15900001,4.9582295,0,nan,0.0,3,1,19
277060156,1611124154199934,340361850,1087608804,420243,392334,0.24900001,0.7390392,0.619,1.013,0.62,1.0799999,102,6,0.25800002,-0.08400001,-0.24400002,-0.26200002,4.9582295,0,nan,0.0,3,1,19
278065091,1611124155199933,340361865,1087608745,420569,392659,0.186,0.3645251,0.624,1.018,0.64,1.0799999,102,4,0.61700004,0.093,-0.61,-0.245,4.868051,0,nan,0.0,3,1,18
279064953,1611124156199932,340361891,1087608698,420858,392948,0.18800001,0.48404387,0.63000005,1.014,0.64,1.0799999,102,5,0.33900002,0.12900001,-0.31300002,-0.23700002,5.1156197,0,nan,0.0,3,1,18
280064970,1611124157199932,340361900,1087608672,420737,392827,0.256,0.71086574,0.633,1.0090001,0.62,1.0799999,102,4,0.046000004,-0.014,-0.044000003,0.27100003,4.70771,0,nan,0.0,3,1,19
281062461,1611124158199931,340361899,1087608655,420550,392640,0.215,0.61144954,0.63100004,0.998,0.62,1.0799999,102,4,0.157,-0.123,-0.098000005,0.32700002,4.354315,0,nan,0.0,3,1,19
282056947,1611124159199930,340361912,1087608640,420131,392221,0.18900001,0.67418975,0.629,0.99100006,0.62,1.0799999,102,4,0.1,0.097,-0.021000002,-0.080000006,4.1678076,0,nan,0.0,3,1,19
283058993,1611124160199930,340361950,1087608608,420339,392430,0.19100001,0.23151286,0.63000005,0.984,0.62,1.0799999,102,5,0.78200006,0.404,-0.67,-0.319,5.2439666,0,nan,0.0,3,1,19
284062938,1611124161199929,340361975,1087608557,420570,392661,0.171,0.43608412,0.628,0.975,0.62,1.0799999,102,3,0.33800003,0.125,-0.314,0.048,5.0121984,0,nan,0.0,3,1,19
285061997,1611124162199928,340361987,1087608502,420386,392477,0.21100001,0.3728585,0.63000005,0.97900003,0.64,1.0799999,102,4,0.544,0.148,-0.52400005,0.23400001,4.8626504,0,nan,0.0,3,1,18
286062348,1611124163199928,340361998,1087608441,420271,392361,0.18900001,0.3286839,0.634,0.98700005,0.64,1.0799999,102,3,0.523,-0.032,-0.522,0.277,4.703165,0,nan,0.0,3,1,18
287063223,1611124164199927,340362011,1087608371,420291,392381,0.19100001,0.2323431,0.638,0.99700004,0.62,1.0799999,102,3,0.74300003,0.337,-0.66200006,0.13700001,5.067188,0,nan,0.0,3,1,19
288059982,1611124165199926,340362030,1087608278,420483,392573,0.18400002,0.27484626,0.638,1.0020001,0.64,1.0799999,102,3,0.67200005,-0.020000001,-0.67200005,-0.15200001,4.772081,0,nan,0.0,3,1,18
289060953,1611124166199926,340362047,1087608204,420664,392754,0.177,0.281634,0.642,1.011,0.62,1.0799999,101,4,0.64500004,-0.016,-0.64500004,-0.19500001,4.7145934,0,nan,0.0,3,1,19
290064331,1611124167199925,340362047,1087608134,420859,392949,0.215,0.6230054,0.648,1.023,0.62,1.0799999,101,5,0.393,0.215,-0.32900003,-0.179,4.7982726,0,nan,0.0,3,1,19
291061506,1611124168199924,340362094,1087608088,420855,392946,0.2,0.30282193,0.648,1.018,0.62,1.0799999,101,3,0.568,0.45900002,-0.33400002,0.30400002,5.632021,0,nan,0.0,3,1,19
292064985,1611124169199923,340362123,1087608046,420724,392814,0.15900001,0.364693,0.646,1.01,0.62,1.0799999,101,3,0.45400003,0.277,-0.36,-0.05,5.3514256,0,nan,0.0,3,1,19
293058947,1611124170199923,340362133,1087607996,420767,392857,0.15300001,0.38749537,0.64000005,1.001,0.62,1.0799999,101,3,0.38300002,-0.083000004,-0.374,0.089,4.6255703,0,nan,0.0,3,1,19
294062042,1611124171199922,340362130,1087607940,420844,392934,0.148,0.30620527,0.632,0.99100006,0.62,1.0799999,101,3,0.483,-0.014,-0.483,-0.033,4.6488366,0,nan,0.0,3,1,19
295066939,1611124172199921,340362125,1087607856,420665,392755,0.18300001,0.17852063,0.63100004,0.98700005,0.62,1.0799999,101,4,0.84200007,-0.031000001,-0.84200007,0.120000005,4.683156,0,nan,0.0,3,1,19
296063017,1611124173199921,340362139,1087607766,420566,392656,0.19500001,0.27851388,0.633,0.99300003,0.62,1.0799999,101,3,0.66300005,0.15200001,-0.64500004,-0.104,4.9085903,0,nan,0.0,3,1,19
297062939,1611124174199920,340362143,1087607696,420599,392689,0.20500001,0.28830448,0.64100003,1.0090001,0.62,1.0799999,101,5,0.61800003,0.054,-0.61600006,0.080000006,4.829261,0,nan,0.0,3,1,19
298064016,1611124175199919,340362148,1087607633,420517,392607,0.19000001,0.28800586,0.642,1.013,0.62,1.0799999,101,4,0.56600004,-0.042000003,-0.564,0.067,4.66834,0,nan,0.0,3,1,19
299059567,1611124176199919,340362146,1087607559,420352,392442,0.202,0.23478481,0.643,1.0200001,0.64,1.0799999,101,3,0.786,0.053000003,-0.78400004,0.14400001,4.677632,0,nan,0.0,3,1,18
300074103,1611124177199918,340362165,1087607486,420074,392164,0.19900002,0.32457677,0.646,1.028,0.64,1.0799999,101,4,0.549,0.11100001,-0.53800005,0.164,4.9389634,0,nan,0.0,3,1,18
301062961,1611124178199917,340362179,1087607421,420101,392191,0.19100001,0.37592068,0.64900005,1.039,0.64,1.0799999,101,3,0.58900005,0.049000002,-0.587,-0.12900001,4.873059,0,nan,0.0,3,1,18
302062129,1611124179199917,340362194,1087607369,420345,392435,0.18100001,0.32694608,0.652,1.047,0.64,1.0799999,101,3,0.537,0.040000003,-0.535,-0.148,4.847786,0,nan,0.0,3,1,18
303062001,1611124180199916,340362205,1087607315,420337,392427,0.20300001,0.55482376,0.65500003,1.051,0.64,1.0799999,101,9,0.32700002,-0.017,-0.32700002,0.004,4.7312922,0,nan,0.0,3,1,18
304061020,1611124181199915,340362208,1087607243,420272,392362,0.208,0.20082963,0.65900004,1.051,0.64,1.0799999,101,12,0.823,-0.027,-0.823,0.039,4.665541,0,nan,0.0,3,1,18
305060957,1611124182199914,340362214,1087607159,420235,392325,0.171,0.23807094,0.66400003,1.049,0.64,1.0799999,101,10,0.657,0.014,-0.657,-0.1,4.657129,0,nan,0.0,3,1,18
306063944,1611124183199914,340362234,1087607098,420167,392257,0.15300001,0.33260602,0.657,1.052,0.64,1.0799999,101,3,0.47400004,0.061000004,-0.47000003,-0.060000002,4.816539,0,nan,0.0,3,1,18
307059945,1611124184199913,340362253,1087607017,420138,392228,0.17600001,0.19305697,0.65300006,1.0580001,0.65,1.1,101,3,0.78200006,0.002,-0.78200006,0.041,4.7287865,0,nan,0.0,3,1,17
308062974,1611124185199912,340362269,1087606939,419947,392037,0.23200001,0.42483792,0.65400004,1.0610001,0.69,1.15,101,4,0.51900005,-0.047000002,-0.517,0.22600001,4.694175,0,nan,0.0,3,1,17
309063887,1611124186199912,340362287,1087606882,419731,391821,0.18,0.31093457,0.656,1.062,0.65,1.1,101,5,0.5,0.044000003,-0.49800003,0.156,4.869141,0,nan,0.0,3,1,17
310062984,1611124187199911,340362289,1087606823,419804,391894,0.20600002,0.31148246,0.661,1.065,0.69,1.15,101,4,0.66300005,-0.128,-0.65000004,0.071,4.5736165,0,nan,0.0,3,1,17
311060938,1611124188199910,340362294,1087606741,419898,391988,0.15400001,0.29559368,0.66200006,1.065,0.69,1.15,101,11,0.60300004,0.13900001,-0.587,0.015000001,4.815743,0,nan,0.0,3,1,17
312062325,1611124189199910,340362304,1087606679,419966,392056,0.185,0.40760854,0.66400003,1.069,0.69,1.15,101,11,0.47800002,0.064,-0.47300002,-0.059000004,4.893278,0,nan,0.0,3,1,17
313061944,1611124190199909,340362310,1087606621,419917,392007,0.22700001,0.50026613,0.665,1.072,0.65,1.13,101,9,0.335,0.054,-0.33,0.33,4.8571534,0,nan,0.0,3,1,18
314060013,1611124191199908,340362293,1087606572,420047,392137,0.238,0.3282664,0.66700006,1.0780001,0.7,1.15,101,7,0.49100003,-0.08800001,-0.483,-0.32000002,4.472052,0,nan,0.0,3,1,16
315061007,1611124192199908,340362281,1087606497,420546,392635,0.202,0.1889029,0.665,1.072,0.64,1.0799999,101,9,0.73700005,-0.223,-0.702,-0.24800001,4.4392495,0,nan,0.0,3,1,18
316058943,1611124193199907,340362270,1087606403,420639,392729,0.179,0.16224317,0.65900004,1.075,0.69,1.18,101,8,0.97,0.012,-0.97,0.21800001,4.656687,0,nan,0.0,3,1,16
317062185,1611124194199906,340362267,1087606311,420494,392584,0.20400001,0.25437805,0.66300005,1.079,0.69,1.15,101,3,0.72200006,-0.028,-0.72200006,0.28300002,4.6964016,0,nan,0.0,3,1,17
318059943,1611124195199906,340362266,1087606230,420451,392541,0.18400002,0.18688321,0.661,1.079,0.69,1.15,101,3,0.83500004,-0.143,-0.823,-0.19800001,4.581888,0,nan,0.0,3,1,17
319060940,1611124196199905,340362253,1087606132,420861,392950,0.20500001,0.1908486,0.66400003,1.082,0.69,1.15,101,3,0.892,-0.17500001,-0.87500006,-0.354,4.5086336,0,nan,0.0,3,1,17
320059066,1611124197199904,340362242,1087606055,421228,393318,0.22100002,0.33590922,0.66400003,1.0830001,0.69,1.15,101,3,0.46500003,-0.171,-0.43300003,-0.19700001,4.421267,0,nan,0.0,3,1,17
321060136,1611124198199903,340362226,1087606005,421134,393223,0.20400001,0.330997,0.669,1.092,0.69,1.15,101,6,0.508,0.063,-0.504,0.252,4.595181,0,nan,0.0,3,1,17
322056943,1611124199199903,340362228,1087605948,420654,392744,0.22000001,0.26814696,0.67,1.092,0.69,1.15,101,7,0.67600006,0.030000001,-0.67600006,0.51100004,4.7715726,0,nan,0.0,3,1,17
323060944,1611124200199902,340362239,1087605899,420172,392262,0.18800001,0.32015446,0.66800004,1.088,0.69,1.15,101,6,0.49500003,-0.19800001,-0.45400003,0.21700001,4.4385643,0,nan,0.0,3,1,17
324062992,1611124201199901,340362234,1087605826,420224,392314,0.24800001,0.25929883,0.66400003,1.082,0.66999996,1.14,101,3,0.83000004,-0.09200001,-0.82500005,-0.39800003,4.673235,0,nan,0.0,3,1,18
325067011,1611124202199901,340362232,1087605746,420524,392614,0.23700002,0.2492358,0.66700006,1.0830001,0.66999996,1.14,101,3,0.71000004,-0.066,-0.707,-0.47100002,4.6529016,0,nan,0.0,3,1,18
326062976,1611124203199900,340362215,1087605674,420641,392731,0.21100001,0.22645436,0.67300004,1.087,0.66999996,1.14,101,4,0.637,-0.28300002,-0.57100004,-0.061000004,4.3523088,0,nan,0.0,3,1,18
327060944,1611124204199899,340362183,1087605620,420715,392804,0.21800001,0.33349055,0.67,1.092,0.66999996,1.14,101,4,0.505,-0.07300001,-0.5,-0.044000003,4.359462,0,nan,0.0,3,1,18
328064219,1611124205199899,340362163,1087605558,420610,392700,0.224,0.22528744,0.67600006,1.1010001,0.66999996,1.14,101,4,0.81600004,-0.006,-0.81600004,0.15300001,4.5934367,0,nan,0.0,3,1,18
329059992,1611124206199898,340362148,1087605497,420545,392635,0.20600002,0.33272746,0.68600005,1.115,0.66999996,1.14,101,3,0.505,-0.157,-0.48000002,0.028,4.4271297,0,nan,0.0,3,1,18
330062030,1611124207199897,340362118,1087605443,420494,392584,0.22700001,0.2845932,0.68700004,1.1240001,0.66999996,1.14,101,4,0.624,-0.141,-0.60800004,-0.009000001,4.323348,0,nan,0.0,3,1,18
331064048,1611124208199897,340362135,1087605365,420517,392607,0.259,0.23616521,0.69600004,1.123,0.71,1.1899999,101,3,0.837,0.09200001,-0.832,-0.038000003,4.9021144,0,nan,0.0,3,1,17
332060978,1611124209199896,340362132,1087605297,420557,392647,0.20400001,0.26223344,0.69500005,1.126,0.63,1.13,100,4,0.60700005,-0.303,-0.526,-0.002,4.3446717,0,nan,0.0,3,1,19
333061965,1611124210199895,340362109,1087605251,420538,392628,0.20700002,0.237858,0.69100004,1.1220001,0.64,1.16,100,4,0.648,-0.379,-0.526,0.117000006,4.1042852,0,nan,0.0,3,1,18
334063018,1611124211199894,340362073,1087605215,420459,392549,0.19500001,0.37408027,0.688,1.128,0.63,1.13,100,6,0.42800003,-0.29900002,-0.307,0.034,3.875436,0,nan,0.0,3,1,19
335061005,1611124212199894,340362021,1087605186,420722,392812,0.21300001,0.38026553,0.689,1.1400001,0.66999996,1.18,101,4,0.50600004,-0.48100004,-0.157,-0.133,3.5528283,0,nan,0.0,3,1,18
336059987,1611124213199893,340361965,1087605167,420949,393039,0.192,0.2708374,0.689,1.151,0.66999996,1.18,101,7,0.684,-0.684,-0.015000001,-0.135,3.2941327,0,nan,0.0,3,1,18
337062981,1611124214199892,340361888,1087605157,421009,393099,0.193,0.23678915,0.69100004,1.167,0.66999996,1.18,100,7,0.82100004,-0.82000005,-0.05,-0.094000004,3.2123358,0,nan,0.0,3,1,18
338063903,1611124215199892,340361811,1087605145,421025,393115,0.187,0.23322065,0.69100004,1.177,0.66999996,1.18,100,6,0.827,-0.80100006,-0.20600002,-0.020000001,3.3196065,0,nan,0.0,3,1,18
339063974,1611124216199891,340361733,1087605131,421055,393145,0.21800001,0.2841745,0.69100004,1.1810001,0.66999996,1.18,100,4,0.675,-0.646,-0.19500001,-0.298,3.4068143,0,nan,0.0,3,1,18
340058141,1611124217199890,340361667,1087605106,421411,393501,0.20400001,0.32109764,0.69200003,1.19,0.66999996,1.18,100,4,0.60800004,-0.555,-0.24800001,-0.10300001,3.5286589,0,nan,0.0,3,1,18
341064940,1611124218199890,340361607,1087605093,421032,393121,0.202,0.45356098,0.694,1.2,0.66999996,1.18,100,4,0.504,-0.503,-0.023000002,0.35500002,3.2181783,0,nan,0.0,3,1,18
342060330,1611124219199889,340361547,1087605080,420839,392929,0.178,0.3757015,0.70100003,1.215,0.63,1.13,100,4,0.60700005,-0.60300004,-0.067,0.19900002,3.3105745,0,nan,0.0,3,1,19
343065935,1611124220199888,340361478,1087605084,420971,393061,0.22200002,0.36336446,0.707,1.225,0.66999996,1.18,100,4,0.646,-0.623,-0.172,-0.26900002,3.2426505,0,nan,0.0,3,1,18
344073027,1611124221199888,340361408,1087605064,421123,393213,0.193,0.32469702,0.71500003,1.235,0.66999996,1.18,100,3,0.71800005,-0.717,-0.036000002,0.05,3.27213,0,nan,0.0,3,1,18
345072657,1611124222199887,340361345,1087605076,420753,392843,0.19800001,0.4287225,0.72200006,1.253,0.66999996,1.18,100,3,0.50200003,-0.47100002,0.17500001,0.28,2.900902,0,nan,0.0,3,1,18
346062939,1611124223199886,340361299,1087605052,420591,392681,0.192,0.2679796,0.72300005,1.258,0.66999996,1.18,100,4,0.77800006,-0.595,-0.50100005,0.13900001,3.8409495,0,nan,0.0,3,1,18
347064081,1611124224199885,340361241,1087605001,420639,392728,0.16000001,0.23647481,0.72,1.2540001,0.66999996,1.18,100,3,0.841,-0.776,-0.32500002,0.064,3.7355099,0,nan,0.0,3,1,18
348106979,1611124225199885,340361162,1087604973,420869,392959,0.16900001,0.2715432,0.71800005,1.2520001,0.68,1.22,100,3,0.83300006,-0.80600005,-0.21100001,-0.09900001,3.436093,0,nan,0.0,4,1,17
349067938,1611124226199884,340361079,1087604958,421179,393269,0.16800001,0.26526612,0.712,1.2420001,0.66999996,1.18,100,3,0.77900004,-0.767,-0.135,-0.105000004,3.322609,0,nan,0.0,4,1,18
350100960,1611124227199883,340360993,1087604938,421433,393523,0.16600001,0.24871132,0.712,1.2390001,0.66999996,1.18,100,5,0.809,-0.799,-0.127,0.24900001,3.3411045,0,nan,0.0,4,1,18
351064994,1611124228199883,340360909,1087604933,421620,393710,0.20400001,0.29671836,0.71500003,1.238,0.66999996,1.18,100,3,0.80200005,-0.80200005,-0.017,-0.15,3.1469102,0,nan,0.0,4,1,18
