timestamp,ref_timestamp,ref_lat,ref_lon,x,y,z,delta_xy[0],delta_xy[1],delta_z,vx,vy,vz,z_deriv,delta_vxy[0],delta_vxy[1],delta_vz,ax,ay,az,heading,delta_heading,ref_alt,dist_bottom,eph,epv,evh,evv,vxy_max,vz_max,hagl_min,hagl_max,xy_valid,z_valid,v_xy_valid,v_z_valid,xy_reset_counter,z_reset_counter,vxy_reset_counter,vz_reset_counter,heading_reset_counter,xy_global,z_global,dist_bottom_valid
17933419,0,0.0,0.0,0.0,0.0,0.6980637,-2.7622531e-05,-1.6538992e-05,0.0,0.052735437,0.099312596,0.13485387,0.016148487,-0.0055634505,-0.0033311164,0.0,-0.09019995,-0.3125435,0.053920142,-1.718024,0.10878013,0.0,0.1,0.37960112,0.65139174,0.37186596,0.2326395,inf,inf,inf,inf,0,1,0,1,1,0,1,0,2,0,0,1
17943333,0,0.0,0.0,0.0,0.0,0.6980674,-2.7622531e-05,-1.6538992e-05,0.0,0.05221554,0.10016702,0.13418138,0.015404963,-0.0055634505,-0.0033311164,0.0,0.12950617,0.32908085,-0.077751555,-1.7181453,0.10878013,0.0,0.1,0.38269478,0.65335053,0.3737814,0.23299597,inf,inf,inf,inf,0,1,0,1,1,0,1,0,2,0,0,1
18042626,0,0.0,0.0,0.0,0.0,0.6971425,-2.7622531e-05,-1.6538992e-05,0.0,0.044265274,0.08005716,0.13360271,0.01326725,-0.0055634505,-0.0033311164,0.0,-0.14651856,-0.21922897,-0.05010211,-1.7179563,0.10878013,0.0,0.1,0.41498002,0.6500555,0.3941302,0.23086992,inf,inf,inf,inf,0,1,0,1,1,0,1,0,2,0,0,1
18131989,0,0.0,0.0,0.0,0.0,0.6966882,-2.7622531e-05,-1.6538992e-05,0.0,0.033989437,0.06699371,0.133795,0.012937027,-0.0055634505,-0.0033311164,0.0,-1.1860348,-0.08469946,-0.7787685,-1.7179415,0.10878013,0.0,0.1,0.44620204,0.64498705,0.41199198,0.22835693,inf,inf,inf,inf,0,1,0,1,1,0,1,0,2,0,0,1
18241211,0,0.0,0.0,0.0,0.0,0.69570607,-2.7622531e-05,-1.6538992e-05,0.0,0.031689636,0.06310949,0.12194603,5.7992234e-05,-0.0055634505,-0.0033311164,0.0,1.0377885,0.020751549,-1.4974198,-1.7176948,0.10878013,0.0,0.1,0.41111436,0.6436193,0.38431004,0.22636658,inf,inf,inf,inf,0,1,0,1,1,0,1,0,2,0,0,1
18340503,0,0.0,0.0,0.0,0.0,0.6934245,-2.7622531e-05,-1.6538992e-05,0.0,0.019106006,0.04946377,0.13190247,0.007852372,-0.0055634505,-0.0033311164,0.0,-0.16493852,-0.01998953,-0.3644431,-1.7165583,0.10878013,0.0,0.1,0.4450693,0.6516056,0.4033969,0.22699736,inf,inf,inf,inf,0,1,0,1,1,0,1,0,2,0,0,1
18439796,0,0.0,0.0,0.0,0.0,0.68938833,-2.7622531e-05,-1.6538992e-05,0.0,0.012906978,0.038579565,0.12972143,0.002006651,-0.0055634505,-0.0033311164,0.0,0.7952137,0.12817234,-0.5381624,-1.7145952,0.10878013,0.0,0.1,0.40658408,0.6482972,0.37395117,0.22470583,inf,inf,inf,inf,0,1,0,1,1,0,1,0,2,0,0,1
18539109,0,0.0,0.0,0.0,0.0,0.6844211,-2.7622531e-05,-1.6538992e-05,0.0,0.004844089,0.030467013,0.12944019,-0.0023373566,-0.0055634505,-0.0033311164,0.0,-0.16327605,0.47877458,0.25055516,-1.7137806,0.10878013,0.0,0.1,0.43959722,0.64511824,0.39198893,0.22257656,inf,inf,inf,inf,0,1,0,1,1,0,1,0,2,0,0,1
18638495,0,0.0,0.0,0.0,0.0,0.67930305,-2.7622531e-05,-1.6538992e-05,0.0,-0.0007034553,0.018872356,0.12467418,-0.010775968,-0.0055634505,-0.0033311164,0.0,0.023180533,0.4221528,-0.0043904814,-1.7112038,0.10878013,0.0,0.1,0.4015978,0.64177144,0.36329162,0.2203288,inf,inf,inf,inf,0,1,0,1,1,0,1,0,2,0,0,1
18742639,0,0.0,0.0,0.0,0.0,0.6757029,-2.7622531e-05,-1.6538992e-05,0.0,-0.005072585,0.011773222,0.123147294,-0.01459471,-0.0055634505,-0.0033311164,0.0,0.038400706,0.3107788,0.10031946,-1.7095876,0.10878013,0.0,0.1,0.4336348,0.63854784,0.38050205,0.21823594,inf,inf,inf,inf,0,1,0,1,1,0,1,0,2,0,0,1
18832001,0,0.0,0.0,0.0,0.0,0.672037,-2.7622531e-05,-1.6538992e-05,0.0,-0.012231892,0.0046351645,0.12783535,-0.011611713,-0.0055634505,-0.0033311164,0.0,-0.31008932,-0.5568967,0.44626105,-1.7085733,0.10878013,0.0,0.1,0.39419696,0.64419174,0.35186067,0.21835585,inf,inf,inf,inf,0,1,0,1,1,0,1,0,2,0,0,1
18931477,0,0.0,0.0,0.0,0.0,0.66859496,-2.7622531e-05,-1.6538992e-05,0.0,-0.016648853,-0.0014071431,0.12503701,-0.0150295645,-0.0055634505,-0.0033311164,0.0,-0.4507379,-0.0552271,0.6487786,-1.7064304,0.10878013,0.0,0.1,0.42518872,0.64098036,0.36908177,0.21641248,inf,inf,inf,inf,0,1,0,1,1,0,1,0,2,0,0,1
19035551,0,0.0,0.0,0.0,0.0,0.66785043,-2.7622531e-05,-1.6538992e-05,0.0,-0.020553831,-0.007002817,0.12439721,-0.014290423,-0.0055634505,-0.0033311164,0.0,-0.21173555,0.21657577,0.42005283,-1.7048129,0.10878013,0.0,0.1,0.39038038,0.6375774,0.34328496,0.21423598,inf,inf,inf,inf,0,1,0,1,1,0,1,0,2,0,0,1
19134843,0,0.0,0.0,0.0,0.0,0.668271,-2.7622531e-05,-1.6538992e-05,0.0,-0.023059009,-0.014309567,0.12357704,-0.012201836,-0.0055634505,-0.0033311164,0.0,0.42013013,0.5581567,0.028049212,-1.7037538,0.10878013,0.0,0.1,0.42055875,0.634343,0.3597926,0.21232958,inf,inf,inf,inf,0,1,0,1,1,0,1,0,2,0,0,1
19244077,0,0.0,0.0,0.0,0.0,0.66831887,-2.7622531e-05,-1.6538992e-05,0.0,-0.02521764,-0.018859029,0.12428013,-0.008990555,-0.0055634505,-0.0033311164,0.0,0.5946854,0.40521806,0.109314084,-1.7020656,0.10878013,0.0,0.1,0.38894933,0.6328283,0.33604306,0.21055338,inf,inf,inf,inf,0,1,0,1,1,0,1,0,2,0,0,1
19333425,0,0.0,0.0,0.0,0.0,0.67074436,-2.7622531e-05,-1.6538992e-05,0.0,-0.03277238,-0.028659878,0.1283179,-0.0009940523,-0.0055634505,-0.0033311164,0.0,-0.29530564,-0.94549936,0.47171348,-1.7018801,0.10878013,0.0,0.1,0.41545624,0.63834226,0.34958345,0.21076238,inf,inf,inf,inf,0,1,0,1,1,0,1,0,2,0,0,1
19442692,0,0.0,0.0,0.0,0.0,0.6723718,-2.7622531e-05,-1.6538992e-05,0.0,-0.036358062,-0.030734764,0.12646136,-8.618948e-05,-0.0055634505,-0.0033311164,0.0,-0.48462233,0.118913166,-0.2823461,-1.7005085,0.10878013,0.0,0.1,0.384249,0.6265335,0.326424,0.20662351,inf,inf,inf,inf,0,1,0,1,1,0,1,0,2,0,0,1
19532014,0,0.0,0.0,0.0,0.0,0.67246044,-2.7622531e-05,-1.6538992e-05,0.0,-0.03518411,-0.03285706,0.12495025,-0.0008980152,-0.0055634505,-0.0033311164,0.0,1.5706965,0.55047774,-0.2016798,-1.6992006,0.10878013,0.0,0.1,0.40995774,0.631919,0.33935222,0.20681584,inf,inf,inf,inf,0,1,0,1,1,0,1,0,2,0,0,1
19641236,0,0.0,0.0,0.0,0.0,0.67453027,-2.7622531e-05,-1.6538992e-05,0.0,-0.034479,-0.032545377,0.12639026,0.0030811576,-0.0055634505,-0.0033311164,0.0,0.2081922,0.7230387,0.35283196,-1.6979328,0.10878013,0.0,0.1,0.37932977,0.63046116,0.31703407,0.20515405,inf,inf,inf,inf,0,1,0,1,1,0,1,0,2,0,0,1
19740715,0,0.0,0.0,0.0,0.0,0.6775825,-2.7622531e-05,-1.6538992e-05,0.0,-0.042030215,-0.04072673,0.12530592,0.005004353,-0.0055634505,-0.0033311164,0.0,0.4314325,0.8647022,-0.33427706,-1.6972574,0.10878013,0.0,0.1,0.40710053,0.6273375,0.33073288,0.20328131,inf,inf,inf,inf,0,1,0,1,1,0,1,0,2,0,0,1
19834856,0,0.0,0.0,0.0,0.0,0.68015033,-2.7622531e-05,-1.6538992e-05,0.0,-0.0435827,-0.046509918,0.13043861,0.011674923,-0.0055634505,-0.0033311164,0.0,-0.3635912,-0.9069696,-0.24582429,-1.6960552,0.10878013,0.0,0.1,0.3723991,0.62254655,0.3071721,0.20113823,inf,inf,inf,inf,0,1,0,1,1,0,1,0,2,0,0,1
19944118,0,0.0,0.0,0.0,0.0,0.6820426,-2.7622531e-05,-1.6538992e-05,0.0,-0.045847915,-0.049550436,0.12912855,0.011577744,-0.0055634505,-0.0033311164,0.0,-0.8374225,-0.36869532,-0.10679136,-1.6952469,0.10878013,0.0,0.1,0.4019932,0.62120456,0.3222493,0.19971801,inf,inf,inf,inf,0,1,0,1,1,0,1,0,2,0,0,1
20033441,0,0.0,0.0,0.0,0.0,0.68381315,-2.7622531e-05,-1.6538992e-05,0.0,-0.045547333,-0.04361991,0.13161017,0.015222679,-0.0055634505,-0.0033311164,0.0,0.17457446,0.7253133,0.14100417,-1.6941614,0.10878013,0.0,0.1,0.36797994,0.6165955,0.29939127,0.19765742,inf,inf,inf,inf,0,1,0,1,1,0,1,0,2,0,0,1
20142663,0,0.0,0.0,0.0,0.0,0.6865081,-2.7622531e-05,-1.6538992e-05,0.0,-0.041105747,-0.046013854,0.13154025,0.016743947,-0.0055634505,-0.0033311164,0.0,1.0057975,0.19465634,-0.076601565,-1.6931058,0.10878013,0.0,0.1,0.3967513,0.61535716,0.313275,0.1962069,inf,inf,inf,inf,0,1,0,1,1,0,1,0,2,0,0,1
20232027,0,0.0,0.0,0.0,0.0,0.6878151,-2.7622531e-05,-1.6538992e-05,0.0,-0.045616493,-0.051533706,0.13305113,0.018444147,-0.0055634505,-0.0033311164,0.0,-0.5113599,-1.0127025,0.008695957,-1.6916704,0.10878013,0.0,0.1,0.36346716,0.6204335,0.2912197,0.19636345,inf,inf,inf,inf,0,1,0,1,1,0,1,0,2,0,0,1
20336285,0,0.0,0.0,0.0,0.0,0.68970144,-2.7622531e-05,-1.6538992e-05,0.0,-0.04398143,-0.052383192,0.13285324,0.0180871,-0.0055634505,-0.0033311164,0.0,0.16935155,-0.6181747,-0.32413322,-1.6903903,0.10878013,0.0,0.1,0.38877496,0.6174946,0.3033177,0.19466098,inf,inf,inf,inf,0,1,0,1,1,0,1,0,2,0,0,1
20435576,0,0.0,0.0,0.0,0.0,0.6904651,-2.7622531e-05,-1.6538992e-05,0.0,-0.045617267,-0.050978445,0.13448004,0.018981861,-0.0055634505,-0.0033311164,0.0,0.24761221,-0.60296774,-0.037052862,-1.6898749,0.10878013,0.0,0.1,0.35951042,0.6145872,0.28385314,0.19296034,inf,inf,inf,inf,0,1,0,1,1,0,1,0,2,0,0,1
20535014,0,0.0,0.0,0.0,0.0,0.68921405,-2.7622531e-05,-1.6538992e-05,0.0,-0.045972615,-0.050668843,0.13499518,0.017093668,-0.0055634505,-0.0033311164,0.0,0.3554853,0.12502079,0.12102503,-1.6897246,0.10878013,0.0,0.1,0.384161,0.6118266,0.2960432,0.19145279,inf,inf,inf,inf,0,1,0,1,1,0,1,0,2,0,0,1
20644093,0,0.0,0.0,0.0,0.0,0.68551826,-2.7622531e-05,-1.6538992e-05,0.0,-0.045311708,-0.051482257,0.12996423,0.0075050173,-0.0055634505,-0.0033311164,0.0,0.557425,0.38676187,-0.8321282,-1.6883315,0.10878013,0.0,0.1,0.3577914,0.6106367,0.2782792,0.19008015,inf,inf,inf,inf,0,1,0,1,1,0,1,0,2,0,0,1
20733454,0,0.0,0.0,0.0,0.0,0.6822221,-2.7622531e-05,-1.6538992e-05,0.0,-0.04723995,-0.055493236,0.13321829,0.007241863,-0.0055634505,-0.0033311164,0.0,0.19457754,0.2487075,0.37864995,-1.68756,0.10878013,0.0,0.1,0.37944,0.60630405,0.2883561,0.18825288,inf,inf,inf,inf,0,1,0,1,1,0,1,0,2,0,0,1
20842683,0,0.0,0.0,0.0,0.0,0.6808825,-2.7622531e-05,-1.6538992e-05,0.0,-0.05025331,-0.053974602,0.13346326,0.0062454552,-0.0055634505,-0.0033311164,0.0,-0.7385881,0.127505,0.1878767,-1.6873649,0.10878013,0.0,0.1,0.3535958,0.6051077,0.27125332,0.18691719,inf,inf,inf,inf,0,1,0,1,1,0,1,0,2,0,0,1
20932039,0,0.0,0.0,0.0,0.0,0.6805971,-2.7622531e-05,-1.6538992e-05,0.0,-0.045885667,-0.05523615,0.1307522,0.0033880293,-0.0055634505,-0.0033311164,0.0,1.0459428,0.018876337,-0.49040404,-1.6863527,0.10878013,0.0,0.1,0.37464607,0.6100227,0.28091428,0.1871186,inf,inf,inf,inf,0,1,0,1,1,0,1,0,2,0,0,1
21041261,0,0.0,0.0,0.0,0.0,0.6815923,-2.7622531e-05,-1.6538992e-05,0.0,-0.046454612,-0.05324273,0.13177375,0.005468569,-0.0055634505,-0.0033311164,0.0,-0.2999107,-0.28722498,0.1500643,-1.6855264,0.10878013,0.0,0.1,0.34938124,0.6088141,0.2644802,0.18581219,inf,inf,inf,inf,0,1,0,1,1,0,1,0,2,0,0,1
21140553,0,0.0,0.0,0.0,0.0,0.6826177,-2.7622531e-05,-1.6538992e-05,0.0,-0.04779452,-0.052242514,0.13268036,0.007248876,-0.0055634505,-0.0033311164,0.0,0.006097699,0.29908276,-0.23177701,-1.6865617,0.10878013,0.0,0.1,0.37219208,0.60611475,0.27488136,0.18431103,inf,inf,inf,inf,0,1,0,1,1,0,1,0,2,0,0,1
21239846,0,0.0,0.0,0.0,0.0,0.6859618,-2.7622531e-05,-1.6538992e-05,0.0,-0.04765564,-0.052453708,0.13642779,0.013924228,-0.0055634505,-0.0033311164,0.0,-0.17507051,0.4340469,0.1556067,-1.6876367,0.10878013,0.0,0.1,0.39630827,0.6034247,0.28549618,0.18283278,inf,inf,inf,inf,0,1,0,1,1,0,1,0,2,0,0,1
21339240,0,0.0,0.0,0.0,0.0,0.68966603,-2.7622531e-05,-1.6538992e-05,0.0,-0.04844377,-0.051763307,0.13791524,0.018175745,-0.0055634505,-0.0033311164,0.0,-1.0473843,0.18444929,0.6600077,-1.6882619,0.10878013,0.0,0.1,0.3673871,0.6007704,0.26811683,0.18136577,inf,inf,inf,inf,0,1,0,1,1,0,1,0,2,0,0,1
21433467,0,0.0,0.0,0.0,0.0,0.6934967,-2.7622531e-05,-1.6538992e-05,0.0,-0.0459208,-0.054209746,0.13542338,0.01761434,-0.0055634505,-0.0033311164,0.0,0.35492763,0.2964812,0.13977367,-1.6882309,0.10878013,0.0,0.1,0.38843814,0.59664434,0.27728742,0.1796975,inf,inf,inf,inf,0,1,0,1,1,0,1,0,2,0,0,1
21542689,0,0.0,0.0,0.0,0.0,0.6966403,-2.7622531e-05,-1.6538992e-05,0.0,-0.046876337,-0.050266683,0.1396851,0.023242379,-0.0055634505,-0.0033311164,0.0,-0.5440023,0.14011636,0.6266455,-1.6892974,0.10878013,0.0,0.1,0.36321968,0.59551406,0.26250488,0.1785951,inf,inf,inf,inf,0,1,0,1,1,0,1,0,2,0,0,1
21632052,0,0.0,0.0,0.0,0.0,0.69813824,-2.7622531e-05,-1.6538992e-05,0.0,-0.048909962,-0.053718776,0.13725978,0.020891994,-0.0055634505,-0.0033311164,0.0,-0.21612899,0.058473777,-0.45209002,-1.6909884,0.10878013,0.0,0.1,0.38377774,0.6002031,0.27140117,0.17880672,inf,inf,inf,inf,0,1,0,1,1,0,1,0,2,0,0,1
21741274,0,0.0,0.0,0.0,0.0,0.70215386,-2.7622531e-05,-1.6538992e-05,0.0,-0.049178455,-0.054622784,0.14012061,0.025807034,-0.0055634505,-0.0033311164,0.0,-0.49964008,-0.57187635,0.16078398,-1.6915613,0.10878013,0.0,0.1,0.35908476,0.59911025,0.2566262,0.17763625,inf,inf,inf,inf,0,1,0,1,1,0,1,0,2,0,0,1
21840619,0,0.0,0.0,0.0,0.0,0.70741856,-2.7622531e-05,-1.6538992e-05,0.0,-0.049453184,-0.05259365,0.14290616,0.031603143,-0.0055634505,-0.0033311164,0.0,-1.4465503,-0.98903674,0.23548003,-1.6924917,0.10878013,0.0,0.1,0.38141826,0.5965444,0.2662112,0.17627315,inf,inf,inf,inf,0,1,0,1,1,0,1,0,2,0,0,1
21934895,0,0.0,0.0,0.0,0.0,0.7110812,-2.7622531e-05,-1.6538992e-05,0.0,-0.045248337,-0.04573017,0.14105651,0.030299783,-0.0055634505,-0.0033311164,0.0,-0.2941432,0.7647005,0.47728488,-1.6929778,0.10878013,0.0,0.1,0.35284,0.59255725,0.25007436,0.17470355,inf,inf,inf,inf,0,1,0,1,1,0,1,0,2,0,0,1
22044117,0,0.0,0.0,0.0,0.0,0.7146565,-2.7622531e-05,-1.6538992e-05,0.0,-0.043452542,-0.04999517,0.14585671,0.03550349,-0.0055634505,-0.0033311164,0.0,0.04472173,-1.0605779,0.5073349,-1.6935189,0.10878013,0.0,0.1,0.3767385,0.5915084,0.2602986,0.17360397,inf,inf,inf,inf,0,1,0,1,1,0,1,0,2,0,0,1
22133519,0,0.0,0.0,0.0,0.0,0.7174839,-2.7622531e-05,-1.6538992e-05,0.0,-0.04870776,-0.053360432,0.14257492,0.0325306,-0.0055634505,-0.0033311164,0.0,-0.94070673,-0.09157466,0.0069437902,-1.6947132,0.10878013,0.0,0.1,0.34930232,0.58760774,0.24547641,0.17217797,inf,inf,inf,inf,0,1,0,1,1,0,1,0,2,0,0,1
22242706,0,0.0,0.0,0.0,0.0,0.71778715,-2.7622531e-05,-1.6538992e-05,0.0,-0.047980264,-0.04823771,0.144648,0.031809792,-0.0055634505,-0.0033311164,0.0,0.48740137,0.5756587,0.27147502,-1.6952904,0.10878013,0.0,0.1,0.3727017,0.58663636,0.25539795,0.17112213,inf,inf,inf,inf,0,1,0,1,1,0,1,0,2,0,0,1
22332068,0,0.0,0.0,0.0,0.0,0.71901333,-2.7622531e-05,-1.6538992e-05,0.0,-0.04300102,-0.046241384,0.14442913,0.030454477,-0.0055634505,-0.0033311164,0.0,-0.114752136,-0.48454574,0.16422872,-1.69578,0.10878013,0.0,0.1,0.34574488,0.5911088,0.24062754,0.17132823,inf,inf,inf,inf,0,1,0,1,1,0,1,0,2,0,0,1
22431535,0,0.0,0.0,0.0,0.0,0.719738,-2.7622531e-05,-1.6538992e-05,0.0,-0.04425599,-0.04446015,0.14477547,0.028937574,-0.0055634505,-0.0033311164,0.0,-0.05332685,0.43192768,0.22463802,-1.6971223,0.10878013,0.0,0.1,0.36648694,0.5886649,0.24936473,0.17006484,inf,inf,inf,inf,0,1,0,1,1,0,1,0,2,0,0,1
22535615,0,0.0,0.0,0.0,0.0,0.7219019,-2.7622531e-05,-1.6538992e-05,0.0,-0.045685872,-0.044650655,0.14712788,0.030292703,-0.0055634505,-0.0033311164,0.0,-0.09475882,0.35311583,0.5449135,-1.6978363,0.10878013,0.0,0.1,0.34261435,0.5862587,0.2362121,0.16882446,inf,inf,inf,inf,0,1,0,1,1,0,1,0,2,0,0,1
22634910,0,0.0,0.0,0.0,0.0,0.72367376,-2.7622531e-05,-1.6538992e-05,0.0,-0.045895647,-0.0435474,0.14616731,0.028739134,-0.0055634505,-0.0033311164,0.0,-0.2344529,0.99736035,0.23655689,-1.6985091,0.10878013,0.0,0.1,0.3629386,0.5838696,0.24514315,0.16769925,inf,inf,inf,inf,0,1,0,1,1,0,1,0,2,0,0,1
22744130,0,0.0,0.0,0.0,0.0,0.7241268,-2.7622531e-05,-1.6538992e-05,0.0,-0.04380217,-0.044765994,0.14816345,0.028785465,-0.0055634505,-0.0033311164,0.0,0.24024342,-0.24594784,-0.11061613,-1.698539,0.10878013,0.0,0.1,0.34137458,0.5829061,0.23315446,0.16670395,inf,inf,inf,inf,0,1,0,1,1,0,1,0,2,0,0,1
22833493,0,0.0,0.0,0.0,0.0,0.7242985,-2.7622531e-05,-1.6538992e-05,0.0,-0.04240255,-0.045119815,0.1451648,0.024119504,-0.0055634505,-0.0033311164,0.0,-0.444854,-0.5851938,0.50280005,-1.6986296,0.10878013,0.0,0.1,0.35935798,0.57922554,0.24059887,0.16531938,inf,inf,inf,inf,0,1,0,1,1,0,1,0,2,0,0,1
22942769,0,0.0,0.0,0.0,0.0,0.7253166,-2.7622531e-05,-1.6538992e-05,0.0,-0.041605983,-0.044387612,0.14770009,0.025527716,-0.0055634505,-0.0033311164,0.0,0.30851132,0.04082342,0.39872494,-1.6987697,0.10878013,0.0,0.1,0.3381169,0.5782892,0.22895534,0.16435999,inf,inf,inf,inf,0,1,0,1,1,0,1,0,2,0,0,1
23037043,0,0.0,0.0,0.0,0.0,0.7280244,-2.7622531e-05,-1.6538992e-05,0.0,-0.03966587,-0.040950783,0.14720151,0.025171338,-0.0055634505,-0.0033311164,0.0,1.0929139,0.50342,-0.54981804,-1.6997277,0.10878013,0.0,0.1,0.35573146,0.5826222,0.23624527,0.16457455,inf,inf,inf,inf,0,1,0,1,1,0,1,0,2,0,0,1
23136339,0,0.0,0.0,0.0,0.0,0.73192567,-2.7622531e-05,-1.6538992e-05,0.0,-0.044805028,-0.040256787,0.15120763,0.030868817,-0.0055634505,-0.0033311164,0.0,0.1357832,0.42524093,0.3084851,-1.7010677,0.10878013,0.0,0.1,0.33338287,0.58031416,0.22440453,0.16343074,inf,inf,inf,inf,0,1,0,1,1,0,1,0,2,0,0,1
23235788,0,0.0,0.0,0.0,0.0,0.73553294,-2.7622531e-05,-1.6538992e-05,0.0,-0.041441176,-0.037497655,0.14883585,0.029839834,-0.0055634505,-0.0033311164,0.0,0.58405256,1.4615881,-0.15192431,-1.7015997,0.10878013,0.0,0.1,0.35256127,0.5780231,0.2326822,0.16238922,inf,inf,inf,inf,0,1,0,1,1,0,1,0,2,0,0,1
23334921,0,0.0,0.0,0.0,0.0,0.73765653,-2.7622531e-05,-1.6538992e-05,0.0,-0.03390856,-0.029434312,0.14597966,0.026612887,-0.0055634505,-0.0033311164,0.0,3.0034754,2.196029,0.40766144,-1.7017096,0.10878013,0.0,0.1,0.3726042,0.57581085,0.24126843,0.16129188,inf,inf,inf,inf,0,1,0,1,1,0,1,0,2,0,0,1
23444174,0,0.0,0.0,0.0,0.0,0.74140793,-2.7622531e-05,-1.6538992e-05,0.0,-0.049397137,-0.0409708,0.1458611,0.027341232,-0.0055634505,-0.0033311164,0.0,-0.6437425,-1.6681055,0.5705263,-1.7016797,0.10878013,0.0,0.1,0.39593542,0.5749302,0.25424728,0.1603951,inf,inf,inf,inf,0,1,0,1,1,0,1,0,2,0,0,1
23533506,0,0.0,0.0,0.0,0.0,0.74516076,-2.7622531e-05,-1.6538992e-05,0.0,-0.04967892,-0.04489775,0.1510997,0.033768233,-0.0055634505,-0.0033311164,0.0,0.62409604,-1.2515599,0.46611077,-1.7030932,0.10878013,0.0,0.1,0.4157955,0.5714316,0.26728258,0.15912735,inf,inf,inf,inf,0,1,0,1,1,0,1,0,2,0,0,1
23642728,0,0.0,0.0,0.0,0.0,0.74848,-2.7622531e-05,-1.6538992e-05,0.0,-0.057255402,-0.039732717,0.15057752,0.033216003,-0.0055634505,-0.0033311164,0.0,-1.5480942,1.3853048,-0.90113974,-1.7037052,0.10878013,0.0,0.1,0.44154915,0.5705726,0.2861827,0.1583004,inf,inf,inf,inf,0,1,0,1,1,0,1,0,2,0,0,1
23732092,0,0.0,0.0,0.0,0.0,0.7519054,-2.7622531e-05,-1.6538992e-05,0.0,-0.054393295,-0.045768395,0.16025037,0.04325378,-0.0055634505,-0.0033311164,0.0,0.2459008,-2.3008096,1.864069,-1.7035985,0.10878013,0.0,0.1,0.46352884,0.5671364,0.3032337,0.15708612,inf,inf,inf,inf,0,1,0,1,1,0,1,0,2,0,0,1
23841340,0,0.0,0.0,0.0,0.0,0.7521349,-2.7622531e-05,-1.6538992e-05,0.0,-0.050128046,-0.04597757,0.15869758,0.038007196,-0.0055634505,-0.0033311164,0.0,0.70736,-1.45725,0.42241645,-1.7036859,0.10878013,0.0,0.1,0.49226734,0.5663004,0.32605675,0.15625784,inf,inf,inf,inf,0,1,0,1,1,0,1,0,2,0,0,1
23940607,0,0.0,0.0,0.0,0.0,0.7508765,-2.7622531e-05,-1.6538992e-05,0.0,-0.056923486,-0.05072268,0.16314091,0.038185265,-0.0055634505,-0.0033311164,0.0,-0.7384976,-0.35777295,0.8921001,-1.7046015,0.10878013,0.0,0.1,0.51972336,0.57168055,0.34812135,0.15667653,inf,inf,inf,inf,0,1,0,1,1,0,1,0,2,0,0,1
24040049,0,0.0,0.0,0.0,0.0,0.7442758,-2.7622531e-05,-1.6538992e-05,0.0,-0.062235005,-0.05016545,0.15540448,0.021620361,-0.0055634505,-0.0033311164,0.0,0.05084629,-1.3154986,0.09007097,-1.7055081,0.10878013,0.0,0.1,0.549286,0.5695052,0.3714498,0.1556759,inf,inf,inf,inf,0,1,0,1,1,0,1,0,2,0,0,1
24139197,0,0.0,0.0,0.0,0.0,0.7428179,-2.7622531e-05,-1.6538992e-05,0.0,-0.061849803,-0.035821646,0.14569224,0.009134111,-0.0055634505,-0.0033311164,0.0,0.07623387,1.9450319,-2.4009552,-1.7071627,0.10878013,0.0,0.1,0.5807898,0.5673702,0.39569545,0.15469034,inf,inf,inf,inf,0,1,0,1,1,0,1,0,2,0,0,1
24238486,0,0.0,0.0,0.0,0.0,0.74387574,-2.7622531e-05,-1.6538992e-05,0.0,-0.07147867,-0.04828741,0.1631348,0.02645332,-0.0055634505,-0.0033311164,0.0,-1.8760846,-1.507212,2.822548,-1.7064518,0.10878013,0.0,0.1,0.61387074,0.565241,0.42059413,0.15374792,inf,inf,inf,inf,0,1,0,1,1,0,1,0,2,0,0,1
24342757,0,0.0,0.0,0.0,0.0,0.74392825,-2.7622531e-05,-1.6538992e-05,0.0,-0.067238115,-0.037413843,0.15227512,0.013709122,-0.0055634505,-0.0033311164,0.0,-0.07746694,2.2257013,-1.4734273,-1.707215,0.10878013,0.0,0.1,0.6496951,0.56315076,0.44637004,0.15282322,inf,inf,inf,inf,0,1,0,1,1,0,1,0,2,0,0,1
24432106,0,0.0,0.0,0.0,0.0,0.74438024,-2.7622531e-05,-1.6538992e-05,0.0,-0.07755131,-0.042344704,0.15301982,0.013967177,-0.0055634505,-0.0033311164,0.0,0.39771253,0.85188174,-0.26741117,-1.707666,0.10878013,0.0,0.1,0.68324625,0.56715244,0.46963006,0.15305938,inf,inf,inf,inf,0,1,0,1,1,0,1,0,2,0,0,1
24541358,0,0.0,0.0,0.0,0.0,0.7459003,-2.7622531e-05,-1.6538992e-05,0.0,-0.07096846,-0.054626994,0.16148312,0.023057949,-0.0055634505,-0.0033311164,0.0,1.2028899,-0.35464954,1.7979795,-1.7072614,0.10878013,0.0,0.1,0.72787416,0.56629294,0.4993774,0.1524016,inf,inf,inf,inf,0,1,0,1,1,0,1,0,2,0,0,1
24640619,0,0.0,0.0,0.0,0.0,0.74650234,-2.7622531e-05,-1.6538992e-05,0.0,-0.07633169,-0.038200922,0.15699202,0.018334273,-0.0055634505,-0.0033311164,0.0,-1.0432919,2.488234,-1.5773823,-1.7081064,0.10878013,0.0,0.1,0.7701785,0.5641473,0.5261025,0.15149674,inf,inf,inf,inf,0,1,0,1,1,0,1,0,2,0,0,1
24739913,0,0.0,0.0,0.0,0.0,0.74628913,-2.7622531e-05,-1.6538992e-05,0.0,-0.08020482,-0.037960112,0.15526627,0.015419947,-0.0055634505,-0.0033311164,0.0,-0.22189948,2.7220495,-1.5587307,-1.709033,0.10878013,0.0,0.1,0.81618905,0.56204367,0.5535706,0.15058494,inf,inf,inf,inf,0,1,0,1,1,0,1,0,2,0,0,1
24839313,0,0.0,0.0,0.0,0.0,0.7447008,-2.7622531e-05,-1.6538992e-05,0.0,-0.08394879,-0.054495454,0.16258973,0.020125123,-0.0055634505,-0.0033311164,0.0,1.3842705,0.5319927,0.64899546,-1.7084287,0.10878013,0.0,0.1,0.8635182,0.5599492,0.58067846,0.14970051,inf,inf,inf,inf,0,1,0,1,1,0,1,0,2,0,0,1
24933533,0,0.0,0.0,0.0,0.0,0.74398416,-2.7622531e-05,-1.6538992e-05,0.0,-0.09514602,-0.051239807,0.16055465,0.015944472,-0.0055634505,-0.0033311164,0.0,-0.5196354,-2.0684125,2.4995475,-1.7091974,0.10878013,0.0,0.1,0.90983534,0.556644,0.60593855,0.14865518,inf,inf,inf,inf,0,1,0,1,1,0,1,0,2,0,0,1
25042756,0,0.0,0.0,0.0,0.0,0.7446107,-2.7622531e-05,-1.6538992e-05,0.0,-0.093662426,-0.057437517,0.16479944,0.020116886,-0.0055634505,-0.0033311164,0.0,-0.08654584,-3.386747,2.5171962,-1.7091368,0.10878013,0.0,0.1,0.96758556,0.55582154,0.63634664,0.14805542,inf,inf,inf,inf,0,1,0,1,1,0,1,0,2,0,0,1
25137083,0,0.0,0.0,0.0,0.0,0.74745005,-2.7622531e-05,-1.6538992e-05,0.0,-0.09490263,-0.05030319,0.16010986,0.017058337,-0.0055634505,-0.0033311164,0.0,-0.20290814,-1.2272254,0.907632,-1.7098408,0.10878013,0.0,0.1,1.0191637,0.5596694,0.661994,0.14831196,inf,inf,inf,inf,0,1,0,1,1,0,1,0,2,0,0,1
25236401,0,0.0,0.0,0.0,0.0,0.7518826,-2.7622531e-05,-1.6538992e-05,0.0,-0.08942086,-0.04863797,0.15923427,0.019790808,-0.0055634505,-0.0033311164,0.0,0.58934456,1.7483548,-1.1198536,-1.7108244,0.10878013,0.0,0.1,1.0764259,0.5576409,0.6892707,0.1474981,inf,inf,inf,inf,0,1,0,1,1,0,1,0,2,0,0,1
25335669,0,0.0,0.0,0.0,0.0,0.7555095,-2.7622531e-05,-1.6538992e-05,0.0,-0.094881445,-0.0476653,0.16216204,0.024892583,-0.0055634505,-0.0033311164,0.0,-1.4503193,0.37016085,0.4812849,-1.7102193,0.10878013,0.0,0.1,1.1395203,0.5556534,0.7183778,0.14675905,inf,inf,inf,inf,0,1,0,1,1,0,1,0,2,0,0,1
25434959,0,0.0,0.0,0.0,0.0,0.7557779,-2.7622531e-05,-1.6538992e-05,0.0,-0.10211601,-0.044106122,0.15697618,0.018539388,-0.0055634505,-0.0033311164,0.0,-0.5126429,2.3282228,-1.4818445,-1.7107565,0.10878013,0.0,0.1,1.2016095,0.5537065,0.74536526,0.14598586,inf,inf,inf,inf,0,1,0,1,1,0,1,0,2,0,0,1
25544184,0,0.0,0.0,0.0,0.0,0.7550085,-2.7622531e-05,-1.6538992e-05,0.0,-0.0996793,-0.05751834,0.16225918,0.021550147,-0.0055634505,-0.0033311164,0.0,0.3333688,-0.039944865,-0.6959036,-1.7107488,0.10878013,0.0,0.1,1.2777795,0.552954,0.7774018,0.14537391,inf,inf,inf,inf,0,1,0,1,1,0,1,0,2,0,0,1
25633595,0,0.0,0.0,0.0,0.0,0.7546217,-2.7622531e-05,-1.6538992e-05,0.0,-0.110018834,-0.049122833,0.15592657,0.013691992,-0.0055634505,-0.0033311164,0.0,-0.3776604,1.8331673,-1.1740915,-1.7110195,0.10878013,0.0,0.1,1.3371615,0.5498634,0.8008272,0.14444463,inf,inf,inf,inf,0,1,0,1,1,0,1,0,2,0,0,1
25742769,0,0.0,0.0,0.0,0.0,0.75507706,-2.7622531e-05,-1.6538992e-05,0.0,-0.10463146,-0.053628393,0.15891738,0.015968256,-0.0055634505,-0.0033311164,0.0,0.4109876,0.16867045,-0.80519027,-1.7106582,0.10878013,0.0,0.1,1.4198786,0.5491391,0.83302635,0.14384541,inf,inf,inf,inf,0,1,0,1,1,0,1,0,2,0,0,1
25832142,0,0.0,0.0,0.0,0.0,0.75728184,-2.7622531e-05,-1.6538992e-05,0.0,-0.11283264,-0.050722215,0.15926132,0.017318716,-0.0055634505,-0.0033311164,0.0,1.0174257,2.95288,-1.6889127,-1.7117614,0.10878013,0.0,0.1,1.4824404,0.5528777,0.85562414,0.14414108,inf,inf,inf,inf,0,1,0,1,1,0,1,0,2,0,0,1
25931610,0,0.0,0.0,0.0,0.0,0.76014274,-2.7622531e-05,-1.6538992e-05,0.0,-0.12339185,-0.067671195,0.16606341,0.02553554,-0.0055634505,-0.0033311164,0.0,-0.5929997,-2.1309512,1.9138039,-1.7108928,0.10878013,0.0,0.1,1.5633553,0.550955,0.8849216,0.14336504,inf,inf,inf,inf,0,1,0,1,1,0,1,0,2,0,0,1
26035691,0,0.0,0.0,0.0,0.0,0.76162773,-2.7622531e-05,-1.6538992e-05,0.0,-0.13430598,-0.058028452,0.1653693,0.023901578,-0.0055634505,-0.0033311164,0.0,-2.92698,-1.5382875,1.9052153,-1.7116247,0.10878013,0.0,0.1,1.6366932,0.5490686,0.90933245,0.14266716,inf,inf,inf,inf,0,1,0,1,1,0,1,0,2,0,0,1
26135012,0,0.0,0.0,0.0,0.0,0.76201123,-2.7622531e-05,-1.6538992e-05,0.0,-0.13365278,-0.05192288,0.15707563,0.014340131,-0.0055634505,-0.0033311164,0.0,-0.24937254,2.503924,-2.101527,-1.7114675,0.10878013,0.0,0.1,1.7233648,0.5471919,0.9390871,0.1420217,inf,inf,inf,inf,0,1,0,1,1,0,1,0,2,0,0,1
26234269,0,0.0,0.0,0.0,0.0,0.76161283,-2.7622531e-05,-1.6538992e-05,0.0,-0.13475484,-0.05910034,0.16160405,0.017394641,-0.0055634505,-0.0033311164,0.0,0.25016063,1.3095093,-0.38400456,-1.7115942,0.10878013,0.0,0.1,1.7987847,0.5453816,0.9617384,0.14130862,inf,inf,inf,inf,0,1,0,1,1,0,1,0,2,0,0,1
26333567,0,0.0,0.0,0.0,0.0,0.7618571,-2.7622531e-05,-1.6538992e-05,0.0,-0.13222389,-0.052826267,0.1627828,0.017650561,-0.0055634505,-0.0033311164,0.0,1.1805345,0.827544,-0.408965,-1.7107784,0.10878013,0.0,0.1,1.8910528,0.54357773,0.9912479,0.14063168,inf,inf,inf,inf,0,1,0,1,1,0,1,0,2,0,0,1
26442839,0,0.0,0.0,0.0,0.0,0.76163536,-2.7622531e-05,-1.6538992e-05,0.0,-0.14928406,-0.06051431,0.16491443,0.018290298,-0.0055634505,-0.0033311164,0.0,-3.0004387,-0.20827256,0.6283665,-1.710863,0.10878013,0.0,0.1,1.976954,0.54291505,1.0148872,0.14010476,inf,inf,inf,inf,0,1,0,1,1,0,1,0,2,0,0,1
26532147,0,0.0,0.0,0.0,0.0,0.76214653,-2.7622531e-05,-1.6538992e-05,0.0,-0.1457727,-0.06323438,0.17040962,0.023466688,-0.0055634505,-0.0033311164,0.0,-0.3063052,-2.5779893,1.5443306,-1.7103564,0.10878013,0.0,0.1,2.06494,0.54658735,1.0413485,0.14039534,inf,inf,inf,inf,0,1,0,1,1,0,1,0,2,0,0,1
26641372,0,0.0,0.0,0.0,0.0,0.76086783,-2.7622531e-05,-1.6538992e-05,0.0,-0.14326447,-0.050767343,0.16207862,0.0128503945,-0.0055634505,-0.0033311164,0.0,0.40651703,-1.6915934,-0.011001077,-1.7108629,0.10878013,0.0,0.1,2.1508286,0.5394035,1.0624981,0.13877977,inf,inf,inf,inf,0,1,0,1,1,0,1,0,2,0,0,1
26740865,0,0.0,0.0,0.0,0.0,0.7599695,-2.7622531e-05,-1.6538992e-05,0.0,-0.15301904,-0.06156234,0.16927163,0.018404273,-0.0055634505,-0.0033311164,0.0,-0.58351433,-3.045278,1.883584,-1.7097317,0.10878013,0.0,0.1,2.2537947,0.5441571,1.0918021,0.13922396,inf,inf,inf,inf,0,1,0,1,1,0,1,0,2,0,0,1
26834990,0,0.0,0.0,0.0,0.0,0.7588946,-2.7622531e-05,-1.6538992e-05,0.0,-0.14992537,-0.046223335,0.16317488,0.009836876,-0.0055634505,-0.0033311164,0.0,0.99491686,1.1411424,-1.478966,-1.71001,0.10878013,0.0,0.1,2.317352,0.5412675,1.1043209,0.13841984,inf,inf,inf,inf,0,1,0,1,1,0,1,0,2,0,0,1
26944212,0,0.0,0.0,0.0,0.0,0.7540304,-2.7622531e-05,-1.6538992e-05,0.0,-0.15355769,-0.049500182,0.16114905,0.0027568,-0.0055634505,-0.0033311164,0.0,1.4080855,-0.952878,0.7174796,-1.7086921,0.10878013,0.0,0.1,2.4356403,0.54063445,1.1366252,0.13800552,inf,inf,inf,inf,0,1,0,1,1,0,1,0,2,0,0,1
27033579,0,0.0,0.0,0.0,0.0,0.75148726,-2.7622531e-05,-1.6538992e-05,0.0,-0.15527989,-0.03847723,0.16149098,0.0012924494,-0.0055634505,-0.0033311164,0.0,-1.0612283,-0.190443,-0.030231478,-1.7109913,0.10878013,0.0,0.1,2.5352023,0.53783107,1.1628596,0.13722463,inf,inf,inf,inf,0,1,0,1,1,0,1,0,2,0,0,1
27142798,0,0.0,0.0,0.0,0.0,0.7497245,-2.7622531e-05,-1.6538992e-05,0.0,-0.15615712,-0.05002091,0.16265462,0.0016374444,-0.0055634505,-0.0033311164,0.0,-0.21644495,-0.26594976,0.36188126,-1.7107179,0.10878013,0.0,0.1,2.618165,0.5372722,1.1774638,0.13674344,inf,inf,inf,inf,0,1,0,1,1,0,1,0,2,0,0,1
27232204,0,0.0,0.0,0.0,0.0,0.75035936,-2.7622531e-05,-1.6538992e-05,0.0,-0.16478693,-0.05153921,0.15977558,-0.00017661139,-0.0055634505,-0.0033311164,0.0,0.13224766,-0.38437048,-0.55295986,-1.7109193,0.10878013,0.0,0.1,2.7215927,0.53451496,1.2034823,0.13598774,inf,inf,inf,inf,0,1,0,1,1,0,1,0,2,0,0,1
27341383,0,0.0,0.0,0.0,0.0,0.75032914,-2.7622531e-05,-1.6538992e-05,0.0,-0.16407907,-0.03987696,0.16145794,0.002141008,-0.0055634505,-0.0033311164,0.0,-1.2006935,1.1141784,-0.73801845,-1.7138726,0.10878013,0.0,0.1,2.7991042,0.533948,1.2142057,0.13549715,inf,inf,inf,inf,0,1,0,1,1,0,1,0,2,0,0,1
27440677,0,0.0,0.0,0.0,0.0,0.75083035,-2.7622531e-05,-1.6538992e-05,0.0,-0.16743314,-0.04105933,0.16901205,0.010475848,-0.0055634505,-0.0033311164,0.0,1.1839502,0.92146695,-0.032697156,-1.7127832,0.10878013,0.0,0.1,2.9180434,0.5385869,1.2428322,0.13594647,inf,inf,inf,inf,0,1,0,1,1,0,1,0,2,0,0,1
27540121,0,0.0,0.0,0.0,0.0,0.7501972,-2.7622531e-05,-1.6538992e-05,0.0,-0.16413094,-0.032898474,0.16946384,0.010424932,-0.0055634505,-0.0033311164,0.0,-0.72099435,0.89432496,-0.38439593,-1.7128446,0.10878013,0.0,0.1,2.9762273,0.5369198,1.2464095,0.13531491,inf,inf,inf,inf,0,1,0,1,1,0,1,0,2,0,0,1
27639262,0,0.0,0.0,0.0,0.0,0.7512192,-2.7622531e-05,-1.6538992e-05,0.0,-0.17500272,-0.037864972,0.16868103,0.010717287,-0.0055634505,-0.0033311164,0.0,-1.835566,-0.008406383,1.0136676,-1.7140735,0.10878013,0.0,0.1,3.0985131,0.53526825,1.2745562,0.13471052,inf,inf,inf,inf,0,1,0,1,1,0,1,0,2,0,0,1
27738554,0,0.0,0.0,0.0,0.0,0.7539984,-2.7622531e-05,-1.6538992e-05,0.0,-0.17376052,-0.037484206,0.15983433,0.004556469,-0.0055634505,-0.0033311164,0.0,-2.2597504,-0.49157396,0.06534188,-1.7123032,0.10878013,0.0,0.1,3.1472945,0.53360486,1.2735925,0.13406922,inf,inf,inf,inf,0,1,0,1,1,0,1,0,2,0,0,1
27842812,0,0.0,0.0,0.0,0.0,0.75525874,-2.7622531e-05,-1.6538992e-05,0.0,-0.174179,-0.029109491,0.15975375,0.0046224934,-0.0055634505,-0.0033311164,0.0,-1.7136385,-1.7244579,-1.0594847,-1.7092555,0.10878013,0.0,0.1,3.2724218,0.5319858,1.3012887,0.13348372,inf,inf,inf,inf,0,1,0,1,1,0,1,0,2,0,0,1
27932176,0,0.0,0.0,0.0,0.0,0.7553512,-2.7622531e-05,-1.6538992e-05,0.0,-0.16859865,-0.024478558,0.16915353,0.013846927,-0.0055634505,-0.0033311164,0.0,-2.2577443,0.49835718,0.8435235,-1.7053207,0.10878013,0.0,0.1,3.2983544,0.53546613,1.293111,0.13371477,inf,inf,inf,inf,0,1,0,1,1,0,1,0,2,0,0,1
28041439,0,0.0,0.0,0.0,0.0,0.7531121,-2.7622531e-05,-1.6538992e-05,0.0,-0.16063054,-0.03581966,0.17065078,0.012534155,-0.0055634505,-0.0033311164,0.0,-0.005289263,-2.1484032,1.6361513,-1.703924,0.10878013,0.0,0.1,3.4383926,0.5287657,1.3232671,0.13236141,inf,inf,inf,inf,0,1,0,1,1,0,1,0,2,0,0,1
28135730,0,0.0,0.0,0.0,0.0,0.7536778,-2.7622531e-05,-1.6538992e-05,0.0,-0.164162,-0.026703792,0.16726749,0.008665021,-0.0055634505,-0.0033311164,0.0,2.4593866,1.1574641,1.7551101,-1.7012334,0.10878013,0.0,0.1,3.4519901,0.53222555,1.3103956,0.13257787,inf,inf,inf,inf,0,1,0,1,1,0,1,0,2,0,0,1
28235019,0,0.0,0.0,0.0,0.0,0.7541401,-2.7622531e-05,-1.6538992e-05,0.0,-0.1616434,-0.014871313,0.16383067,0.0056491788,-0.0055634505,-0.0033311164,0.0,-0.48408163,-0.21598557,0.98172915,-1.6995467,0.10878013,0.0,0.1,3.5809667,0.5306453,1.3368767,0.13198695,inf,inf,inf,inf,0,1,0,1,1,0,1,0,2,0,0,1
28334413,0,0.0,0.0,0.0,0.0,0.7538135,-2.7622531e-05,-1.6538992e-05,0.0,-0.1542989,-0.00059714477,0.16571154,0.00765601,-0.0055634505,-0.0033311164,0.0,1.1604362,0.36433837,0.87216455,-1.696327,0.10878013,0.0,0.1,3.5951278,0.5290661,1.3225381,0.13145198,inf,inf,inf,inf,0,1,0,1,1,0,1,0,2,0,0,0
28433634,0,0.0,0.0,0.0,0.0,0.7540557,-2.7622531e-05,-1.6538992e-05,0.0,-0.16137736,0.016935881,0.16398406,0.0069062933,-0.0055634505,-0.0033311164,0.0,0.2684726,1.2212646,-1.0516994,-1.6915405,0.10878013,0.0,0.1,3.725387,0.52754164,1.3483862,0.13089973,inf,inf,inf,inf,0,1,0,1,1,0,1,0,2,0,0,0
28542826,0,0.0,0.0,0.0,0.0,0.755335,-2.7622531e-05,-1.6538992e-05,0.0,-0.15210555,0.0019009486,0.16878586,0.012569913,-0.0055634505,-0.0033311164,0.0,-3.4376218,0.9997525,-2.4047453,-1.6788571,0.10878013,0.0,0.1,3.7388241,0.52703255,1.3317714,0.13044323,inf,inf,inf,inf,0,1,0,1,1,0,1,0,2,0,0,0
28632194,0,0.0,0.0,0.0,0.0,0.7561765,-2.7622531e-05,-1.6538992e-05,0.0,-0.14243148,0.009072429,0.16905946,0.013048862,-0.0055634505,-0.0033311164,0.0,-0.20201097,0.8954212,-0.32926595,-1.6650969,0.10878013,0.0,0.1,3.856807,0.52448654,1.354363,0.12972641,inf,inf,inf,inf,0,1,0,1,1,0,1,0,2,0,0,0
28741412,0,0.0,0.0,0.0,0.0,0.7564385,-2.7622531e-05,-1.6538992e-05,0.0,-0.1419551,0.016926536,0.17933269,0.022575535,-0.0055634505,-0.0033311164,0.0,-1.0866202,-0.025458895,1.5481691,-1.6488123,0.10878013,0.0,0.1,3.856282,0.52398384,1.3332756,0.12921204,inf,inf,inf,inf,0,1,0,1,1,0,1,0,2,0,0,0
28840706,0,0.0,0.0,0.0,0.0,0.75395334,-2.7622531e-05,-1.6538992e-05,0.0,-0.13534576,0.020127786,0.1757183,0.015385866,-0.0055634505,-0.0033311164,0.0,3.3934982,-0.0055061225,0.4921118,-1.6332954,0.10878013,0.0,0.1,3.9876907,0.52249867,1.3576324,0.1286544,inf,inf,inf,inf,0,1,0,1,1,0,1,0,2,0,0,0
28935038,0,0.0,0.0,0.0,0.0,0.7524132,-2.7622531e-05,-1.6538992e-05,0.0,-0.1366136,0.023146212,0.17348236,0.010491358,-0.0055634505,-0.0033311164,0.0,-0.16928075,1.1419278,0.038017295,-1.6223423,0.10878013,0.0,0.1,3.94807,0.52583313,1.3280989,0.12885094,inf,inf,inf,inf,0,1,0,1,1,0,1,0,2,0,0,0
29034328,0,0.0,0.0,0.0,0.0,0.7526444,-2.7622531e-05,-1.6538992e-05,0.0,-0.15158977,0.020692786,0.17329031,0.01019134,-0.0055634505,-0.0033311164,0.0,0.25905836,-1.0527391,-0.6574599,-1.6168146,0.10878013,0.0,0.1,4.078969,0.52432424,1.3517019,0.12830316,inf,inf,inf,inf,0,1,0,1,1,0,1,0,2,0,0,0
29133675,0,0.0,0.0,0.0,0.0,0.7528827,-2.7622531e-05,-1.6538992e-05,0.0,-0.14488252,0.03026507,0.174732,0.01219343,-0.0055634505,-0.0033311164,0.0,1.5207322,1.8788117,0.37656516,-1.6019608,0.10878013,0.0,0.1,4.039136,0.522801,1.3212497,0.12776373,inf,inf,inf,inf,0,1,0,1,1,0,1,0,2,0,0,0
29242841,0,0.0,0.0,0.0,0.0,0.7553444,-2.7622531e-05,-1.6538992e-05,0.0,-0.14180154,0.037589956,0.19072142,0.029478835,-0.0055634505,-0.0033311164,0.0,-0.20424323,-2.4819648,1.4523525,-1.5916963,0.10878013,0.0,0.1,4.1825185,0.5223596,1.346306,0.12736903,inf,inf,inf,inf,0,1,0,1,1,0,1,0,2,0,0,0
29332204,0,0.0,0.0,0.0,0.0,0.7574845,-2.7622531e-05,-1.6538992e-05,0.0,-0.14059573,0.02914348,0.15397981,-0.0063292254,-0.0055634505,-0.0033311164,0.0,-0.39815897,-1.0356084,0.90715843,-1.5862358,0.10878013,0.0,0.1,4.1168003,0.5198622,1.3102987,0.12665817,inf,inf,inf,inf,0,1,0,1,1,0,1,0,2,0,0,0
29441426,0,0.0,0.0,0.0,0.0,0.75938153,-2.7622531e-05,-1.6538992e-05,0.0,-0.13775352,0.006549029,0.20328306,0.043346256,-0.0055634505,-0.0033311164,0.0,2.1784635,0.14125597,0.56841516,-1.5804436,0.10878013,0.0,0.1,4.2589564,0.5194285,1.3343221,0.12624979,inf,inf,inf,inf,0,1,0,1,1,0,1,0,2,0,0,0
29540730,0,0.0,0.0,0.0,0.0,0.764237,-2.7622531e-05,-1.6538992e-05,0.0,-0.13099222,-0.011874338,0.19318298,0.03446696,-0.0055634505,-0.0033311164,0.0,0.7120011,-0.9998703,1.3256032,-1.57382,0.10878013,0.0,0.1,4.1942406,0.5179418,1.2980914,0.12571499,inf,inf,inf,inf,0,1,0,1,1,0,1,0,2,0,0,0
29640012,0,0.0,0.0,0.0,0.0,0.76705825,-2.7622531e-05,-1.6538992e-05,0.0,-0.1529192,-0.034415476,0.17988692,0.023114199,-0.0055634505,-0.0033311164,0.0,-2.9221392,-3.8882802,1.253036,-1.5758566,0.10878013,0.0,0.1,4.322161,0.5222346,1.3190498,0.12605238,inf,inf,inf,inf,0,1,0,1,1,0,1,0,2,0,0,0
29739305,0,0.0,0.0,0.0,0.0,0.77055794,-2.7622531e-05,-1.6538992e-05,0.0,-0.13548692,-0.047068167,0.17351715,0.019351846,-0.0055634505,-0.0033311164,0.0,-3.3451166,-0.3057396,-0.06875407,-1.5881536,0.10878013,0.0,0.1,4.2467327,0.5207425,1.280987,0.1256081,inf,inf,inf,inf,0,1,0,1,1,0,1,0,2,0,0,0
29838598,0,0.0,0.0,0.0,0.0,0.7727444,-2.7622531e-05,-1.6538992e-05,0.0,-0.12984605,-0.03563311,0.18185158,0.028556144,-0.0055634505,-0.0033311164,0.0,1.749895,0.53376484,-0.54518306,-1.6053193,0.10878013,0.0,0.1,4.372879,0.51929724,1.3012159,0.12515292,inf,inf,inf,inf,0,1,0,1,1,0,1,0,2,0,0,0
29937939,0,0.0,0.0,0.0,0.0,0.77614796,-2.7622531e-05,-1.6538992e-05,0.0,-0.11468746,-0.01838867,0.18946542,0.0364719,-0.0055634505,-0.0033311164,0.0,-2.5556915,0.01393244,0.6609298,-1.6341035,0.10878013,0.0,0.1,4.5011115,0.5178774,1.3215187,0.12474183,inf,inf,inf,inf,0,1,0,1,1,0,1,0,2,0,0,0
30032219,0,0.0,0.0,0.0,0.0,0.7794907,-2.7622531e-05,-1.6538992e-05,0.0,-0.11090599,-0.022003869,0.19396433,0.040690135,-0.0055634505,-0.0033311164,0.0,0.78602654,-0.7862455,-0.7759433,-1.66105,0.10878013,0.0,0.1,4.3996186,0.5154319,1.2789202,0.12412715,inf,inf,inf,inf,0,1,0,1,1,0,1,0,2,0,0,0
30141467,0,0.0,0.0,0.0,0.0,0.78321695,-2.7622531e-05,-1.6538992e-05,0.0,-0.089442916,0.0065353494,0.19499037,0.04131882,-0.0055634505,-0.0033311164,0.0,-0.62591183,-0.14517358,-0.6850389,-1.6944677,0.10878013,0.0,0.1,4.5382957,0.5150084,1.3004457,0.1238819,inf,inf,inf,inf,0,1,0,1,1,0,1,0,2,0,0,0
30240734,0,0.0,0.0,0.0,0.0,0.7854303,-2.7622531e-05,-1.6538992e-05,0.0,-0.08318025,0.028924674,0.18860725,0.033588577,-0.0055634505,-0.0033311164,0.0,-0.89632523,0.6363717,-2.1053813,-1.7213478,0.10878013,0.0,0.1,4.442156,0.51360625,1.259424,0.12349978,inf,inf,inf,inf,0,1,0,1,1,0,1,0,2,0,0,0
30340027,0,0.0,0.0,0.0,0.0,0.78600454,-2.7622531e-05,-1.6538992e-05,0.0,-0.09452867,0.01403391,0.18661694,0.029781256,-0.0055634505,-0.0033311164,0.0,-2.3824587,0.7702805,-0.23328735,-1.7396746,0.10878013,0.0,0.1,4.566174,0.5178444,1.2781656,0.12393874,inf,inf,inf,inf,0,1,0,1,1,0,1,0,2,0,0,0
30439320,0,0.0,0.0,0.0,0.0,0.7895171,-2.7622531e-05,-1.6538992e-05,0.0,-0.095930904,0.0162338,0.17476065,0.018977089,-0.0055634505,-0.0033311164,0.0,-0.38582972,1.9029928,-2.872736,-1.747198,0.10878013,0.0,0.1,4.4628096,0.51642376,1.2363758,0.12350737,inf,inf,inf,inf,0,1,0,1,1,0,1,0,2,0,0,0
30533648,0,0.0,0.0,0.0,0.0,0.7909965,-2.7622531e-05,-1.6538992e-05,0.0,-0.114168026,0.028743759,0.18651731,0.029286403,-0.0055634505,-0.0033311164,0.0,-0.91159546,0.70085037,-1.3877492,-1.7516052,0.10878013,0.0,0.1,4.5721884,0.51409084,1.252574,0.12297647,inf,inf,inf,inf,0,1,0,1,1,0,1,0,2,0,0,0
30642919,0,0.0,0.0,0.0,0.0,0.79025626,-2.7622531e-05,-1.6538992e-05,0.0,-0.117520615,0.04092766,0.18724242,0.026090961,-0.0055634505,-0.0033311164,0.0,-1.8559508,1.5330039,-0.0779424,-1.7549574,0.10878013,0.0,0.1,4.47622,0.51367396,1.2125698,0.1226894,inf,inf,inf,inf,0,1,0,1,1,0,1,0,2,0,0,0
30732278,0,0.0,0.0,0.0,0.0,0.78932047,-2.7622531e-05,-1.6538992e-05,0.0,-0.13243707,0.050464023,0.17010203,0.007004219,-0.0055634505,-0.0033311164,0.0,-0.048390742,-0.16247436,-0.09792433,-1.7496377,0.10878013,0.0,0.1,4.583422,0.5113772,1.2282138,0.12221883,inf,inf,inf,inf,0,1,0,1,1,0,1,0,2,0,0,0
30841456,0,0.0,0.0,0.0,0.0,0.7875813,-2.7622531e-05,-1.6538992e-05,0.0,-0.1397328,0.052874375,0.18727762,0.021288866,-0.0055634505,-0.0033311164,0.0,2.0846677,-2.0248919,1.9928734,-1.7402745,0.10878013,0.0,0.1,4.4821877,0.5110023,1.1880842,0.12192623,inf,inf,inf,inf,0,1,0,1,1,0,1,0,2,0,0,0
30940748,0,0.0,0.0,0.0,0.0,0.78788465,-2.7622531e-05,-1.6538992e-05,0.0,-0.15121268,0.054452162,0.17510793,0.008285437,-0.0055634505,-0.0033311164,0.0,0.18380463,-1.0782722,0.3353016,-1.7294644,0.10878013,0.0,0.1,4.5988946,0.50971866,1.2046807,0.121555306,inf,inf,inf,inf,0,1,0,1,1,0,1,0,2,0,0,0
31040237,0,0.0,0.0,0.0,0.0,0.7904759,-2.7622531e-05,-1.6538992e-05,0.0,-0.16551952,0.07247946,0.20915882,0.043086924,-0.0055634505,-0.0033311164,0.0,-1.5053545,1.1917763,0.2703862,-1.717791,0.10878013,0.0,0.1,4.481659,0.5083974,1.1631138,0.121105865,inf,inf,inf,inf,0,1,0,1,1,0,1,0,2,0,0,0
31139337,0,0.0,0.0,0.0,0.0,0.7964487,-2.7622531e-05,-1.6538992e-05,0.0,-0.16265973,0.051697895,0.21240985,0.048899613,-0.0055634505,-0.0033311164,0.0,-1.1181347,0.96668357,-0.116163686,-1.706653,0.10878013,0.0,0.1,4.595837,0.5125409,1.1790426,0.121485345,inf,inf,inf,inf,0,1,0,1,1,0,1,0,2,0,0,0
31238627,0,0.0,0.0,0.0,0.0,0.79905015,-2.7622531e-05,-1.6538992e-05,0.0,-0.16439502,0.07111311,0.17691772,0.013817536,-0.0055634505,-0.0033311164,0.0,-0.38023216,-1.0667654,0.20378713,-1.6952019,0.10878013,0.0,0.1,4.47555,0.51119685,1.1379337,0.12102146,inf,inf,inf,inf,0,1,0,1,1,0,1,0,2,0,0,0
31342886,0,0.0,0.0,0.0,0.0,0.8008355,-2.7622531e-05,-1.6538992e-05,0.0,-0.16870794,0.06820148,0.14218213,-0.019298669,-0.0055634505,-0.0033311164,0.0,0.48101303,-0.3408722,-0.46342704,-1.6853963,0.10878013,0.0,0.1,4.587108,0.5099074,1.1532766,0.1206436,inf,inf,inf,inf,0,1,0,1,1,0,1,0,2,0,0,0
31432298,0,0.0,0.0,0.0,0.0,0.7990757,-2.7622531e-05,-1.6538992e-05,0.0,-0.17276886,0.08064891,0.11649838,-0.043276314,-0.0055634505,-0.0033311164,0.0,1.3386936,-1.2202853,1.0858614,-1.6802769,0.10878013,0.0,0.1,4.4548664,0.50763863,1.111768,0.12015063,inf,inf,inf,inf,0,1,0,1,1,0,1,0,2,0,0,0
31541474,0,0.0,0.0,0.0,0.0,0.79067624,-2.7622531e-05,-1.6538992e-05,0.0,-0.17947394,0.07157757,0.06639855,-0.093075834,-0.0055634505,-0.0033311164,0.0,-0.18504898,-1.3751093,1.7846773,-1.6741896,0.10878013,0.0,0.1,4.5747194,0.5073247,1.1281892,0.11997981,inf,inf,inf,inf,0,1,0,1,1,0,1,0,2,0,0,0
31635799,0,0.0,0.0,0.0,0.0,0.78102845,-2.7622531e-05,-1.6538992e-05,0.0,-0.19461936,0.06506382,0.033859998,-0.12472748,-0.0055634505,-0.0033311164,0.0,-0.6630056,0.7038824,-0.45326954,-1.6718159,0.10878013,0.0,0.10217768,4.4421654,0.5051141,1.087796,0.11949668,inf,inf,inf,inf,0,1,0,1,1,0,1,0,2,0,0,0
31735092,0,0.0,0.0,0.0,0.0,0.76817834,-2.7622531e-05,-1.6538992e-05,0.0,-0.1755711,0.03989838,0.019844376,-0.1382034,-0.0055634505,-0.0033311164,0.0,0.62578845,-1.7147088,1.1231064,-1.6718875,0.10878013,0.0,0.115027785,4.548593,0.5092072,1.1020688,0.11995424,inf,inf,inf,inf,0,1,0,1,1,0,1,0,2,0,0,0
31834488,0,0.0,0.0,0.0,0.0,0.75258255,-2.7622531e-05,-1.6538992e-05,0.0,-0.16921072,0.005949971,0.027288537,-0.13203558,-0.0055634505,-0.0033311164,0.0,0.17941268,-0.5352029,-0.000787872,-1.6731927,0.10878013,0.0,0.13062358,4.4259024,0.5079506,1.0641251,0.11964692,inf,inf,inf,inf,0,1,0,1,1,0,1,0,2,0,0,0
31933681,0,0.0,0.0,0.0,0.0,0.7367036,-2.7622531e-05,-1.6538992e-05,0.0,-0.17551555,-0.017637322,0.025478413,-0.13599738,-0.0055634505,-0.0033311164,0.0,0.4430599,0.8369176,-2.049151,-1.6765566,0.10878013,0.0,0.14650255,4.5298457,0.50674444,1.0778041,0.119319536,inf,inf,inf,inf,0,1,0,1,1,0,1,0,2,0,0,0
32042903,0,0.0,0.0,0.0,0.0,0.71955866,-2.7622531e-05,-1.6538992e-05,0.0,-0.16704525,-0.033559315,0.044579227,-0.11933369,-0.0055634505,-0.0033311164,0.0,3.0234725,-2.19028,2.5378542,-1.6797259,0.10878013,0.0,0.16364747,4.4166813,0.50644594,1.0418855,0.11905803,inf,inf,inf,inf,0,1,0,1,1,0,1,0,2,0,0,0
32137235,0,0.0,0.0,0.0,0.0,0.7085951,-2.7622531e-05,-1.6538992e-05,0.0,-0.15255927,-0.03988577,0.05762879,-0.10670348,-0.0055634505,-0.0033311164,0.0,1.1372242,-0.25467953,-0.36897713,-1.682279,0.10878013,0.0,0.17461103,4.508078,0.50432163,1.0537195,0.1186394,inf,inf,inf,inf,0,1,0,1,1,0,1,0,2,0,0,0
32236521,0,0.0,0.0,0.0,0.0,0.69771504,-2.7622531e-05,-1.6538992e-05,0.0,-0.17043552,-0.036525354,0.06563524,-0.09853813,-0.0055634505,-0.0033311164,0.0,-2.4963126,0.280239,-0.5881013,-1.6845459,0.10878013,0.0,0.18549109,4.385679,0.50310713,1.017799,0.11827725,inf,inf,inf,inf,0,1,0,1,1,0,1,0,2,0,0,0
32335814,0,0.0,0.0,0.0,0.0,0.6882556,-2.7622531e-05,-1.6538992e-05,0.0,-0.1553317,-0.052472312,0.08299195,-0.08146099,-0.0055634505,-0.0033311164,0.0,-0.53057307,0.5346159,-1.2140906,-1.6856979,0.10878013,0.0,0.19495052,4.484789,0.50195503,1.0305768,0.11794013,inf,inf,inf,inf,0,1,0,1,1,0,1,0,2,0,0,0
32435106,0,0.0,0.0,0.0,0.0,0.67973983,-2.7622531e-05,-1.6538992e-05,0.0,-0.12009567,-0.0632614,0.09180892,-0.07274581,-0.0055634505,-0.0033311164,0.0,1.0877043,0.7337046,-1.2596772,-1.6874744,0.10878013,0.0,0.2034663,4.362594,0.5007767,0.9956952,0.11755713,inf,inf,inf,inf,0,1,0,1,1,0,1,0,2,0,0,0
32534400,0,0.0,0.0,0.0,0.0,0.67284346,-2.7622531e-05,-1.6538992e-05,0.0,-0.11309732,-0.09305715,0.10647882,-0.057685114,-0.0055634505,-0.0033311164,0.0,-2.4853392,0.7335238,-0.5586294,-1.6910287,0.10878013,0.0,0.21036267,4.459403,0.5048076,1.0079517,0.117949426,inf,inf,inf,inf,0,1,0,1,1,0,1,0,2,0,0,0
32633761,0,0.0,0.0,0.0,0.0,0.6700129,-2.7622531e-05,-1.6538992e-05,0.0,-0.079554886,-0.13401714,0.15143502,-0.011597431,-0.0055634505,-0.0033311164,0.0,-0.4707793,0.082160674,1.1267736,-1.6916877,0.10878013,0.0,0.21319324,4.3377624,0.50356865,0.97422904,0.11761894,inf,inf,inf,inf,0,1,0,1,1,0,1,0,2,0,0,0
32742916,0,0.0,0.0,0.0,0.0,0.66950005,-2.7622531e-05,-1.6538992e-05,0.0,-0.043122225,-0.17771278,0.19209419,0.028060054,-0.0055634505,-0.0033311164,0.0,1.6825899,-2.8202796,3.1745822,-1.6897762,0.10878013,0.0,0.21370608,4.441799,0.50329375,0.9871887,0.11738958,inf,inf,inf,inf,0,1,0,1,1,0,1,0,2,0,0,0
32832305,0,0.0,0.0,0.0,0.0,0.6714397,-2.7622531e-05,-1.6538992e-05,0.0,-0.024949603,-0.210343,0.20416985,0.040206462,-0.0055634505,-0.0033311164,0.0,0.12538233,-1.0621243,1.4706184,-1.6862305,0.10878013,0.0,0.21176642,4.5279927,0.50117767,0.997805,0.116938524,inf,inf,inf,inf,0,1,0,1,1,0,1,0,2,0,0,0
32941501,0,0.0,0.0,0.0,0.0,0.6800389,-2.7622531e-05,-1.6538992e-05,0.0,-0.029985374,-0.23570532,0.24500036,0.08395387,-0.0055634505,-0.0033311164,0.0,-0.14158836,-0.25101116,0.8154026,-1.6812265,0.10878013,0.0,0.2031672,4.4130855,0.5008704,0.9659142,0.11673067,inf,inf,inf,inf,0,1,0,1,1,0,1,0,2,0,0,0
33040794,0,0.0,0.0,0.0,0.0,0.693256,-2.7622531e-05,-1.6538992e-05,0.0,-0.02045794,-0.26353317,0.27395767,0.116499655,-0.0055634505,-0.0033311164,0.0,-1.038065,0.35718936,-0.8265041,-1.6779315,0.10878013,0.0,0.18995011,4.5066648,0.49967173,0.97739965,0.11641472,inf,inf,inf,inf,0,1,0,1,1,0,1,0,2,0,0,0
33140086,0,0.0,0.0,0.0,0.0,0.7082987,-2.7622531e-05,-1.6538992e-05,0.0,-0.018878432,-0.2962233,0.29372507,0.138861,-0.0055634505,-0.0033311164,0.0,3.4079964,-2.1578395,1.6926278,-1.6747881,0.10878013,0.0,0.17490745,4.3833685,0.50362015,0.94543535,0.116768785,inf,inf,inf,inf,0,1,0,1,1,0,1,0,2,0,0,0
33239379,0,0.0,0.0,0.0,0.0,0.72416914,-2.7622531e-05,-1.6538992e-05,0.0,-0.03944722,-0.30129215,0.31956786,0.16592684,-0.0055634505,-0.0033311164,0.0,1.1939058,-0.55310476,0.49428537,-1.6704761,0.10878013,0.0,0.159037,4.4747615,0.5024188,0.95658576,0.1164239,inf,inf,inf,inf,0,1,0,1,1,0,1,0,2,0,0,0
33338672,33274130,34.0362177,108.7608392,-0.0015140533,-0.06055766,0.73899174,0.29549575,0.06588339,0.0,0.14695345,-0.38827306,0.2792256,0.123858936,0.17898631,-0.07041693,-0.06860788,-0.6544793,1.0077636,-1.5468078,-1.6615435,0.006815734,425.16885,0.14421439,0.84700364,0.5002851,0.24491122,0.19181563,inf,inf,inf,inf,1,1,1,1,2,0,2,1,3,1,1,0
33438018,33274130,34.0362177,108.7608392,0.02761905,-0.09817972,0.74873424,0.29549575,0.06588339,0.0,0.12954506,-0.3950247,0.3165009,0.15879855,0.17898631,-0.07041693,-0.06860788,-2.2579663,-0.3929981,0.6903548,-1.6598996,0.006815734,425.16885,0.1344719,0.8474299,0.49078456,0.2468336,0.19221407,inf,inf,inf,inf,1,1,1,1,2,0,2,1,3,1,1,0
33532293,33274130,34.0362177,108.7608392,0.054563556,-0.13560763,0.76194865,0.29549575,0.06588339,0.0,0.13039154,-0.38098383,0.33171672,0.17351672,0.17898631,-0.07041693,-0.06860788,0.29666916,1.1842985,-1.098876,-1.6566938,0.006815734,425.16885,0.121257484,0.6913309,0.48679948,0.21562608,0.17712879,inf,inf,inf,inf,1,1,1,1,2,0,2,1,3,1,1,0
33641516,33274130,34.0362177,108.7608392,0.08368788,-0.1734542,0.7777952,0.29549575,0.06588339,0.0,0.13102289,-0.38073945,0.36457938,0.20450775,0.17898631,-0.07041693,-0.06860788,-2.2509832,0.5663477,1.3658707,-1.6547343,0.006815734,425.16885,0.10541093,0.69270957,0.47931644,0.22210659,0.17784984,inf,inf,inf,inf,1,1,1,1,2,0,2,1,3,1,1,0
33731104,33274130,34.0362177,108.7608392,0.10381434,-0.20307553,0.7916435,0.29549575,0.06588339,0.0,0.10192509,-0.3651953,0.35244617,0.1904249,0.17898631,-0.07041693,-0.06860788,-0.6705204,-1.4941072,1.9757007,-1.6521848,0.006815734,425.16885,0.1,0.5992522,0.47185817,0.20208026,0.16598685,inf,inf,inf,inf,1,1,1,1,2,0,2,1,3,1,1,0
33835138,33274130,34.0362177,108.7608392,0.12805147,-0.23352036,0.80518115,0.29549575,0.06588339,0.0,0.122496076,-0.34250623,0.28056717,0.116762154,0.17898631,-0.07041693,-0.06860788,-2.9400403,-0.82513404,-1.1275231,-1.652841,0.006815734,425.16885,0.1,0.6011916,0.46579257,0.21168286,0.16688381,inf,inf,inf,inf,1,1,1,1,2,0,2,1,3,1,1,0
33934430,33274130,34.0362177,108.7608392,0.14959854,-0.2616985,0.80938435,0.29549575,0.06588339,0.0,0.12409945,-0.3262602,0.17830883,0.013157923,0.17898631,-0.07041693,-0.06860788,3.4204943,0.91888463,-1.9269388,-1.6567547,0.006815734,425.16885,0.1,0.5369357,0.45953453,0.19804989,0.1573634,inf,inf,inf,inf,1,1,1,1,2,0,2,1,3,1,1,0
34033724,33274130,34.0362177,108.7608392,0.17490797,-0.28518823,0.8042004,0.29549575,0.06588339,0.0,0.14687976,-0.30624643,0.11350734,-0.053735614,0.17898631,-0.07041693,-0.06860788,1.5781362,-0.93931925,0.8162068,-1.6655533,0.006815734,425.16885,0.1,0.53956944,0.45469657,0.21109323,0.15855372,inf,inf,inf,inf,1,1,1,1,2,0,2,1,3,1,1,0
34142945,33274130,34.0362177,108.7608392,0.20124446,-0.31015277,0.78593385,0.29549575,0.06588339,0.0,0.13981275,-0.27316287,0.028488174,-0.14498672,0.17898631,-0.07041693,-0.06860788,-0.5493351,0.2701689,-0.000135194,-1.6787735,0.006815734,425.16885,0.1,0.49185368,0.44949943,0.20048712,0.15081966,inf,inf,inf,inf,1,1,1,1,2,0,2,1,3,1,1,0
34232307,33274130,34.0362177,108.7608392,0.22649544,-0.3268122,0.7652205,0.29549575,0.06588339,0.0,0.15136057,-0.25496456,-0.0147969425,-0.19310927,0.17898631,-0.07041693,-0.06860788,-0.5797877,0.7389125,-0.7863081,-1.687946,0.006815734,425.16885,0.117985606,0.4948947,0.44896218,0.21382421,0.15219973,inf,inf,inf,inf,1,1,1,1,2,0,2,1,3,1,1,0
34341550,33274130,34.0362177,108.7608392,0.25347856,-0.34564617,0.7398921,0.29549575,0.06588339,0.0,0.13676874,-0.21652539,-0.042109225,-0.22225803,0.17898631,-0.07041693,-0.06860788,-0.71160287,1.0932037,-1.1784571,-1.6980488,0.006815734,425.16885,0.143314,0.4574617,0.44424886,0.20329724,0.1457374,inf,inf,inf,inf,1,1,1,1,2,0,2,1,3,1,1,0
34440824,33274130,34.0362177,108.7608392,0.2758427,-0.3609103,0.7172577,0.29549575,0.06588339,0.0,0.12078949,-0.21475433,-0.055763405,-0.23468429,0.17898631,-0.07041693,-0.06860788,0.19378445,-0.9314292,0.80052406,-1.7015301,0.006815734,425.16885,0.16594845,0.46164596,0.44113836,0.2185057,0.14745167,inf,inf,inf,inf,1,1,1,1,2,0,2,1,3,1,1,0
34540290,33274130,34.0362177,108.7608392,0.29330504,-0.37338156,0.694272,0.29549575,0.06588339,0.0,0.09857988,-0.15904874,-0.084357776,-0.26094088,0.17898631,-0.07041693,-0.06860788,1.3858923,2.61012,-1.7033093,-1.7010213,0.006815734,425.16885,0.18893415,0.4305319,0.43649083,0.20517136,0.14172676,inf,inf,inf,inf,1,1,1,1,2,0,2,1,3,1,1,0
34634445,33274130,34.0362177,108.7608392,0.30788457,-0.3825048,0.670291,0.29549575,0.06588339,0.0,0.09055576,-0.15551467,-0.104767025,-0.2794645,0.17898631,-0.07041693,-0.06860788,1.2762907,-1.1885278,1.5014683,-1.6974151,0.006815734,425.16885,0.21291512,0.43491048,0.4336004,0.21848749,0.14342353,inf,inf,inf,inf,1,1,1,1,2,0,2,1,3,1,1,0
34733739,33274130,34.0362177,108.7608392,0.3202158,-0.38970044,0.64167786,0.29549575,0.06588339,0.0,0.049089473,-0.11237216,-0.15574475,-0.3278702,0.17898631,-0.07041693,-0.06860788,2.1576025,-0.2924696,0.40371904,-1.6938665,0.006815734,425.16885,0.24152827,0.40860328,0.42932463,0.20478137,0.138482,inf,inf,inf,inf,1,1,1,1,2,0,2,1,3,1,1,0
34837996,33274130,34.0362177,108.7608392,0.33568057,-0.38829902,0.6079795,0.29549575,0.06588339,0.0,0.0332103,-0.06697863,-0.19418743,-0.3630234,0.17898631,-0.07041693,-0.06860788,0.0073084324,-0.81840044,0.5616281,-1.6903672,0.006815734,425.16885,0.27522665,0.41411084,0.42741203,0.21913153,0.14060673,inf,inf,inf,inf,1,1,1,1,2,0,2,1,3,1,1,0
34937288,33274130,34.0362177,108.7608392,0.34604466,-0.385653,0.5728147,0.29549575,0.06588339,0.0,0.019417156,-0.03375355,-0.22478695,-0.38998076,0.17898631,-0.07041693,-0.06860788,0.12863795,-0.39905986,0.42633855,-1.6870013,0.006815734,425.16885,0.31039143,0.3910071,0.4265696,0.20403026,0.13629277,inf,inf,inf,inf,1,1,1,1,2,0,2,1,3,1,1,0
35036582,33274130,34.0362177,108.7608392,0.35410932,-0.38363197,0.52889705,0.29549575,0.06588339,0.0,-0.014004594,0.012518246,-0.25931922,-0.4261761,0.17898631,-0.07041693,-0.06860788,0.49230984,1.4489547,-0.63698953,-1.6821324,0.006815734,425.16885,0.35430908,0.397129,0.4251134,0.21806154,0.13869819,inf,inf,inf,inf,1,1,1,1,2,0,2,1,3,1,1,0
35135875,33274130,34.0362177,108.7608392,0.35928816,-0.37747455,0.4818347,0.29549575,0.06588339,0.0,-0.011306987,0.030976629,-0.2759979,-0.44520673,0.17898631,-0.07041693,-0.06860788,0.3536405,0.14450997,-0.15928504,-1.6773444,0.006815734,425.16885,0.40137142,0.3766096,0.42130607,0.20279022,0.13469759,inf,inf,inf,inf,1,1,1,1,2,0,2,1,3,1,1,0
35235167,33274130,34.0362177,108.7608392,0.36731395,-0.3617554,0.4284263,0.29549575,0.06588339,0.0,-0.039271567,0.081817515,-0.30736077,-0.48262468,0.17898631,-0.07041693,-0.06860788,-2.882293,1.5891173,-0.5851858,-1.67542,0.006815734,425.16885,0.45477983,0.38330287,0.4202777,0.2155275,0.13720517,inf,inf,inf,inf,1,1,1,1,2,0,2,1,3,1,1,0
35334575,33274130,34.0362177,108.7608392,0.3710563,-0.34540677,0.37648526,0.29549575,0.06588339,0.0,-0.048262168,0.0908456,-0.3237914,-0.5005263,0.17898631,-0.07041693,-0.06860788,-1.4473286,-0.5590142,0.14768477,-1.6758598,0.006815734,425.16885,0.5067209,0.36459348,0.4166667,0.2002829,0.13353331,inf,inf,inf,inf,1,1,1,1,2,0,2,1,3,1,1,0
35433754,33274130,34.0362177,108.7608392,0.37109414,-0.33167818,0.32530627,0.29549575,0.06588339,0.0,-0.062190272,0.10795534,-0.33325347,-0.50955147,0.17898631,-0.07041693,-0.06860788,-0.18879437,-0.27276853,-0.4068874,-1.676179,0.006815734,425.16885,0.55789983,0.371775,0.41601276,0.2120987,0.13616821,inf,inf,inf,inf,1,1,1,1,2,0,2,1,3,1,1,0
35542979,33274130,34.0362177,108.7608392,0.36898693,-0.31745517,0.27009264,0.29549575,0.06588339,0.0,-0.07768532,0.108683735,-0.34327123,-0.5170349,0.17898631,-0.07041693,-0.06860788,-0.60793567,-0.54967314,-0.28754482,-1.676748,0.006815734,425.16885,0.6131135,0.35521537,0.4131012,0.19818169,0.13302521,inf,inf,inf,inf,1,1,1,1,2,0,2,1,3,1,1,0
35632342,33274130,34.0362177,108.7608392,0.37136352,-0.3085888,0.22339025,0.29549575,0.06588339,0.0,-0.07477748,0.10239122,-0.34780073,-0.5206189,0.17898631,-0.07041693,-0.06860788,0.82320476,0.41770643,-0.4363801,-1.6777334,0.006815734,425.16885,0.6598159,0.36210546,0.4151365,0.20799434,0.13561313,inf,inf,inf,inf,1,1,1,1,2,0,2,1,3,1,1,0
35741562,33274130,34.0362177,108.7608392,0.371878,-0.2977841,0.16393143,0.29549575,0.06588339,0.0,-0.085825495,0.08471089,-0.34793597,-0.5219387,0.17898631,-0.07041693,-0.06860788,0.5343417,0.10852994,-1.1436448,-1.6797076,0.006815734,425.16885,0.7192747,0.34675932,0.4123213,0.19449772,0.13265347,inf,inf,inf,inf,1,1,1,1,2,0,2,1,3,1,1,0
35840871,33274130,34.0362177,108.7608392,0.37299812,-0.28621662,0.10904367,0.29549575,0.06588339,0.0,-0.1059819,0.07686927,-0.36042157,-0.5356542,0.17898631,-0.07041693,-0.06860788,0.84476537,1.2326427,-1.770892,-1.6811719,0.006815734,425.16885,0.7741625,0.35481927,0.41232392,0.2046814,0.13549297,inf,inf,inf,inf,1,1,1,1,2,0,2,1,3,1,1,0
35935183,33274130,34.0362177,108.7608392,0.3695419,-0.27880144,0.05934713,0.29549575,0.06588339,0.0,-0.12392541,0.05161776,-0.35125813,-0.52598745,0.17898631,-0.07041693,-0.06860788,0.61135614,-1.0831634,1.4851855,-1.6839515,0.006815734,425.16885,0.823859,0.33863854,0.4084759,0.1894967,0.13198227,inf,inf,inf,inf,1,1,1,1,2,0,2,1,3,1,1,0
36034476,33274130,34.0362177,108.7608392,0.36029643,-0.2777631,0.00022393093,0.29549575,0.06588339,0.0,-0.15415667,0.014673847,-0.34989476,-0.5299822,0.17898631,-0.07041693,-0.06860788,-3.2688735,1.3658801,-0.7664436,-1.6859107,0.006815734,425.16885,0.8829822,0.3468397,0.40871468,0.19899713,0.1348846,inf,inf,inf,inf,1,1,1,1,2,0,2,1,3,1,1,0
36133847,33274130,34.0362177,108.7608392,0.35036287,-0.28132775,-0.053155266,0.29549575,0.06588339,0.0,-0.15598795,-0.0340032,-0.33914056,-0.51875937,0.17898631,-0.07041693,-0.06860788,-2.1340728,0.10117142,-0.60539573,-1.6891525,0.006815734,425.16885,0.9363614,0.3323327,0.40555096,0.18573196,0.13183798,inf,inf,inf,inf,1,1,1,1,2,0,2,1,3,1,1,0
36242991,33274130,34.0362177,108.7608392,0.35591608,-0.2885054,-0.1094957,0.29549575,0.06588339,0.0,-0.12927927,-0.081581056,-0.3374639,-0.5151965,0.17898631,-0.07041693,-0.06860788,2.1763172,1.4291582,-2.1745992,-1.6910915,0.006815734,425.16885,0.9927018,0.34165582,0.4066547,0.19540782,0.13507985,inf,inf,inf,inf,1,1,1,1,2,0,2,1,3,1,1,0
36332355,33274130,34.0362177,108.7608392,0.359358,-0.29848394,-0.15457271,0.29549575,0.06588339,0.0,-0.123206906,-0.14741467,-0.3320797,-0.5074866,0.17898631,-0.07041693,-0.06860788,0.3353694,-2.4947188,1.2522572,-1.6945816,0.006815734,425.16885,1.0377789,0.32692713,0.40565604,0.1817353,0.13185467,inf,inf,inf,inf,1,1,1,1,2,0,2,1,3,1,1,0
36441577,33274130,34.0362177,108.7608392,0.37747362,-0.30624864,-0.2048212,0.29549575,0.06588339,0.0,-0.10384894,-0.20259157,-0.27311203,-0.44390395,0.17898631,-0.07041693,-0.06860788,-1.6737027,-0.2805041,0.90581316,-1.6955492,0.006815734,425.16885,1.0880274,0.3364353,0.40700808,0.19092873,0.13518313,inf,inf,inf,inf,1,1,1,1,2,0,2,1,3,1,1,0
36540878,33274130,34.0362177,108.7608392,0.38910204,-0.3212104,-0.24223492,0.29549575,0.06588339,0.0,-0.09369657,-0.25845814,-0.18121465,-0.3488032,0.17898631,-0.07041693,-0.06860788,1.0893241,-0.3080157,1.0267467,-1.6972183,0.006815734,425.16885,1.1254411,0.3231166,0.40390354,0.1789797,0.13215515,inf,inf,inf,inf,1,1,1,1,2,0,2,1,3,1,1,0
36640158,33274130,34.0362177,108.7608392,0.39847338,-0.343703,-0.27234188,0.29549575,0.06588339,0.0,-0.08810636,-0.32148775,-0.08388458,-0.25090805,0.17898631,-0.07041693,-0.06860788,0.047657132,-1.1810325,1.4307783,-1.697341,0.006815734,425.16885,1.155548,0.33195773,0.4048528,0.18652803,0.1350375,inf,inf,inf,inf,1,1,1,1,2,0,2,1,3,1,1,0
36739475,33274130,34.0362177,108.7608392,0.40503266,-0.37315804,-0.29175627,0.29549575,0.06588339,0.0,-0.09013391,-0.37564906,0.008652735,-0.15650508,0.17898631,-0.07041693,-0.06860788,-1.3334396,0.077195294,1.054911,-1.697626,0.006815734,425.16885,1.1749624,0.31898507,0.4017901,0.17478384,0.1318775,inf,inf,inf,inf,1,1,1,1,2,0,2,1,3,1,1,0
36838751,33274130,34.0362177,108.7608392,0.4139174,-0.40714225,-0.301466,0.29549575,0.06588339,0.0,-0.098786786,-0.42925104,0.10454608,-0.058688443,0.17898631,-0.07041693,-0.06860788,-0.53250986,0.40074325,0.3370782,-1.6970075,0.006815734,425.16885,1.1846721,0.3279037,0.40291092,0.18183681,0.1347067,inf,inf,inf,inf,1,1,1,1,2,0,2,1,3,1,1,0
36938139,33274130,34.0362177,108.7608392,0.41928506,-0.44675642,-0.3000863,0.29549575,0.06588339,0.0,-0.09729932,-0.4832489,0.20212705,0.041930567,0.17898631,-0.07041693,-0.06860788,-1.0973463,-0.10892474,0.8853187,-1.6959108,0.006815734,425.16885,1.1832924,0.31530568,0.39987642,0.17086875,0.13157462,inf,inf,inf,inf,1,1,1,1,2,0,2,1,3,1,1,0
37032370,33274130,34.0362177,108.7608392,0.42659548,-0.4867294,-0.29094362,0.29549575,0.06588339,0.0,-0.09716665,-0.5328483,0.2824684,0.12316909,0.17898631,-0.07041693,-0.06860788,-3.21014,0.95075077,-1.4604656,-1.6934615,0.006815734,425.16885,1.1741498,0.32334036,0.40311986,0.17688309,0.13427733,inf,inf,inf,inf,1,1,1,1,2,0,2,1,3,1,1,0
37141592,33274130,34.0362177,108.7608392,0.43092942,-0.5387983,-0.27198642,0.29549575,0.06588339,0.0,-0.11067499,-0.56497943,0.3226365,0.16654189,0.17898631,-0.07041693,-0.06860788,-0.0658493,-0.5730215,0.6403822,-1.6911874,0.006815734,425.16885,1.1551926,0.3120073,0.40072113,0.16741493,0.13153598,inf,inf,inf,inf,1,1,1,1,2,0,2,1,3,1,1,0
