timestamp,lat,lon,alt,alt_ellipsoid,delta_alt,eph,epv,terrain_alt,lat_lon_reset_counter,alt_reset_counter,terrain_alt_valid,dead_reckoning
33641516,34.036218452623174,108.7608373176043,424.39105,396.54218,-0.0,1.0941918,1.3968136,0.0,2,0,0,0
33651445,34.03621847356387,108.76083728094045,424.38962,396.54077,-0.0,1.0942981,1.3953621,0.0,2,0,0,0
33845069,34.03621887141347,108.76083663317785,424.3628,396.5102,-0.0,1.0388088,1.3923192,0.0,2,0,0,0
34043652,34.036219294181365,108.76083607941848,424.36588,396.50784,-0.0,1.00443,1.3886639,0.0,2,0,0,0
34242276,34.03621975950997,108.76083563247538,424.40604,396.5399,-0.0,0.9811796,1.3856311,0.0,2,0,0,0
34450753,34.03622019720115,108.76083526631172,424.45367,396.57825,-0.0,0.9648676,1.3843105,0.0,2,0,0,0
34644378,34.036220480394825,108.76083503834776,424.5012,396.61493,-0.0,0.95238215,1.3819333,0.0,2,0,0,0
34847925,34.03622072944344,108.76083498864381,424.56424,396.66644,-0.0,0.94308585,1.3800107,0.0,2,0,0,0
35046534,34.03622088806363,108.76083504040442,424.64462,396.7332,-0.0,0.9357693,1.3783513,0.0,2,0,0,0
35245098,34.036221008458995,108.76083529274439,424.7457,396.8206,-0.0,0.92999935,1.3778309,0.0,2,0,0,0
35443689,34.036221034328435,108.76083561529326,424.8486,396.90826,-0.0,0.92531776,1.3765404,0.0,2,0,0,0
35642269,34.03622104056872,108.76083586095935,424.9509,396.99335,-0.0,0.92148256,1.3754088,0.0,2,0,0,0
35850849,34.036221053602205,108.76083610470587,425.0651,397.08936,-0.0,0.91865456,1.3754419,0.0,2,0,0,0
36044408,34.036220930369346,108.7608361835302,425.1742,397.1792,-0.0,0.91559875,1.3743663,0.0,2,0,0,0
36242991,34.036220900830195,108.76083606902154,425.27835,397.26315,-0.0,0.9133114,1.3735764,0.0,2,0,0,0
36451506,34.03622110650428,108.7608358637586,425.37772,397.34265,-0.0,0.9117146,1.3730605,0.0,2,0,0,0
36650124,34.03622128897356,108.76083544052528,425.4435,397.38904,-0.0,0.9100713,1.3732361,0.0,2,0,0,0
36848679,34.036221427204985,108.76083474036604,425.4706,397.39563,-0.0,0.90859795,1.3726672,0.0,2,0,0,0
37042302,34.03622154160634,108.76083386837684,425.45828,397.36288,-0.0,0.90695405,1.3727318,0.0,2,0,0,0
37245850,34.03622161613158,108.76083279481726,425.4222,397.30704,-0.0,0.90579474,1.372247,0.0,2,0,0,0
37444441,34.03622164226521,108.76083169662421,425.39606,397.26117,-0.0,0.9047536,1.3725682,0.0,2,0,0,0
37643025,34.03622165962043,108.76083066553642,425.39307,397.23828,-0.0,0.90385175,1.3721445,0.0,2,0,0,0
37846583,34.036221647290965,108.76082977671963,425.4076,397.233,-0.0,0.9030404,1.3717576,0.0,2,0,0,0
38045158,34.0362217214458,108.76082904475263,425.4379,397.24292,-0.0,0.90227944,1.3714023,0.0,2,0,0,0
38243745,34.036221896318054,108.76082850327182,425.4885,397.2734,-0.0,0.901605,1.3718251,0.0,2,0,0,0
38442331,34.036222141829604,108.76082806890871,425.56476,397.32983,-0.0,0.90105224,1.371504,0.0,2,0,0,0
38650846,34.036222367841965,108.76082757180012,425.65335,397.39847,-0.0,0.9008309,1.3714161,0.0,2,0,0,0
38849623,34.03622242176784,108.76082721833194,425.75195,397.4773,-0.0,0.90033513,1.3718873,0.0,2,0,0,0
39043070,34.03622241417486,108.76082712835715,425.8399,397.54453,-0.0,0.89957565,1.3713751,0.0,2,0,0,0
39241639,34.03622236083108,108.76082705583059,425.91708,397.60266,-0.0,0.8992051,1.37186,0.0,2,0,0,0
39450155,34.03622235095135,108.7608267350984,425.98087,397.6456,-0.0,0.8991398,1.3718123,0.0,2,0,0,0
39648895,34.03622232956074,108.76082632970211,426.03445,397.67957,-0.0,0.89878386,1.37155,0.0,2,0,0,0
39842362,34.03622236476655,108.76082588762141,426.07785,397.70306,-0.0,0.89814264,1.3710701,0.0,2,0,0,0
40050878,34.03622241296968,108.76082551373075,426.12988,397.7348,-0.0,0.89813584,1.3710454,0.0,2,0,0,0
40244501,34.03622242103541,108.76082529650427,426.17465,397.75967,-0.0,0.89754605,1.3713311,0.0,2,0,0,0
40443174,34.0362224698834,108.76082504429073,426.20856,397.77386,-0.0,0.89728695,1.3710911,0.0,2,0,0,0
40651628,34.03622261109438,108.76082462786165,426.23322,397.77798,-0.0,0.8973477,1.3710781,0.0,2,0,0,0
40845222,34.03622281906558,108.7608240611244,426.25403,397.77924,-0.0,0.8968371,1.3713732,0.0,2,0,0,0
41043808,34.03622307221454,108.76082334895108,426.27118,397.77356,-0.0,0.8965693,1.371132,0.0,2,0,0,0
41242450,34.036223353361784,108.76082249851142,426.27994,397.765,-0.0,0.8964055,1.3709028,0.0,2,0,0,0
41450910,34.03622356162183,108.76082142135851,426.28506,397.7505,-0.0,0.89654994,1.3716354,0.0,2,0,0,0
41649497,34.03622368997529,108.7608202597886,426.28854,397.73416,-0.0,0.89639825,1.3713924,0.0,2,0,0,0
41843120,34.03622376142514,108.76081906093013,426.28342,397.71017,-0.0,0.89596266,1.3709248,0.0,2,0,0,0
42041723,34.036223783396046,108.76081788372836,426.28204,397.68945,-0.0,0.89581347,1.3714293,0.0,2,0,0,0
42245263,34.03622378417043,108.76081685552164,426.2735,397.6611,-0.0,0.89568543,1.3711864,0.0,2,0,0,0
42443840,34.03622383545941,108.76081599174648,426.25903,397.62674,-0.0,0.89560705,1.3709525,0.0,2,0,0,0
42642427,34.036223911912124,108.76081514061342,426.2357,397.5834,-0.0,0.89550316,1.3707124,0.0,2,0,0,0
42851005,34.03622399229453,108.7608142988261,426.20694,397.53445,-0.0,0.89570177,1.3706871,0.0,2,0,0,0
43049529,34.03622407484949,108.76081352944503,426.18002,397.48734,-0.0,0.8956092,1.3711889,0.0,2,0,0,0
43243150,34.03622410970892,108.76081276200453,426.15128,397.43878,-0.0,0.8952247,1.3707281,0.0,2,0,0,0
43446701,34.03622414509793,108.76081193301718,426.11743,397.38492,-0.0,0.8951304,1.3704858,0.0,2,0,0,0
43645288,34.03622415841399,108.76081110988774,426.0862,397.33392,-0.0,0.895044,1.3709848,0.0,2,0,0,0
43843931,34.03622412327331,108.76081018175321,426.06665,397.29446,-0.0,0.8949833,1.3707354,0.0,2,0,0,0
44042459,34.03622409490756,108.76080912855595,426.04703,397.25473,-0.0,0.8948943,1.3712226,0.0,2,0,0,0
44246012,34.03622411635306,108.7608080175765,426.0356,397.22324,-0.0,0.89479864,1.3709582,0.0,2,0,0,0
44444604,34.03622413027313,108.7608068892691,426.03116,397.1996,-0.0,0.8947218,1.3706974,0.0,2,0,0,0
44643231,34.03622406334797,108.7608055775476,426.03867,397.18674,-0.0,0.89463115,1.3711704,0.0,2,0,0,0
44851699,34.03622390572626,108.76080401909016,426.06662,397.19473,-0.0,0.8948155,1.3711056,0.0,2,0,0,0
45050286,34.03622372162485,108.76080255337867,426.10538,397.2127,-0.0,0.89465636,1.3708161,0.0,2,0,0,0
45248871,34.036223620053924,108.76080118909901,426.16354,397.25125,-0.0,0.89447886,1.3712751,0.0,2,0,0,0
45442492,34.03622365130078,108.76080001015073,426.24155,397.30936,-0.0,0.8940082,1.3707799,0.0,2,0,0,0
45646044,34.036223837627006,108.76079877318992,426.3321,397.38013,-0.0,0.89387494,1.3704995,0.0,2,0,0,0
45844815,34.036224030704105,108.76079765382455,426.42435,397.45236,-0.0,0.8937138,1.3702242,0.0,2,0,0,0
46043216,34.03622414711825,108.76079669694377,426.51758,397.5249,-0.0,0.8935516,1.3706839,0.0,2,0,0,0
46251732,34.036224296775345,108.7607959071997,426.59476,397.58237,-0.0,0.8936913,1.3706068,0.0,2,0,0,0
46445353,34.036224398989425,108.76079529710508,426.6326,397.59998,-0.0,0.89323044,1.370128,0.0,2,0,0,0
46644084,34.0362245196218,108.76079481117279,426.62238,397.5702,-0.0,0.8930602,1.3705794,0.0,2,0,0,0
46842526,34.0362246101401,108.76079427157234,426.56015,397.48816,-0.0,0.8929336,1.3703023,0.0,2,0,0,0
47046076,34.03622467485999,108.76079370494375,426.45718,397.3649,-0.0,0.8927655,1.3700261,0.0,2,0,0,0
47244702,34.03622469423106,108.76079304596513,426.33286,397.22067,-0.0,0.89263254,1.3697523,0.0,2,0,0,0
47443411,34.036224594379846,108.76079225038656,426.2139,397.08182,-0.0,0.8925101,1.370199,0.0,2,0,0,0
47646807,34.03622440422351,108.76079154298716,426.13953,396.98746,-0.0,0.89239115,1.3699265,0.0,2,0,0,0
47845386,34.0362242789706,108.76079087282581,426.10443,396.93234,-0.0,0.89227813,1.3696609,0.0,2,0,0,0
48043973,34.036224174018436,108.76079008227201,426.08734,396.89526,-0.0,0.8921771,1.369392,0.0,2,0,0,0
48242731,34.03622410766149,108.76078925288107,426.08258,396.87097,-0.0,0.8920849,1.3698376,0.0,2,0,0,0
48451074,34.0362239859468,108.76078820780833,426.08737,396.8555,-0.0,0.8922798,1.3697575,0.0,2,0,0,0
48649661,34.036223837946906,108.76078703828092,426.10736,396.85556,-0.0,0.8921804,1.3694901,0.0,2,0,0,0
48843287,34.036223642867895,108.76078584656905,426.1433,396.8714,-0.0,0.8917419,1.3697393,0.0,2,0,0,0
49051873,34.03622345568515,108.7607844556572,426.20105,396.90915,-0.0,0.89189696,1.3696557,0.0,2,0,0,0
49250387,34.03622342830209,108.76078296457605,426.26758,396.9556,-0.0,0.89180124,1.3693911,0.0,2,0,0,0
49444006,34.03622342874625,108.76078135844283,426.34036,397.0083,-0.0,0.8913752,1.368937,0.0,2,0,0,0
49642594,34.0362234691675,108.76077968793467,426.42355,397.07208,-0.0,0.89127713,1.3693755,0.0,2,0,0,0
49851153,34.03622351398524,108.7607778657936,426.51395,397.14175,-0.0,0.89143926,1.3692962,0.0,2,0,0,0
50044730,34.036223702005366,108.76077605864907,426.6023,397.21002,-0.0,0.89101857,1.3688483,0.0,2,0,0,0
50248282,34.03622382738288,108.76077392198167,426.70645,397.29437,-0.0,0.89091384,1.3685894,0.0,2,0,0,0
50446869,34.0362239373874,108.76077190339356,426.8039,397.37192,-0.0,0.8908004,1.3690265,0.0,2,0,0,0
50645453,34.03622407236116,108.76077007729366,426.86688,397.4146,-0.0,0.89066637,1.3687719,0.0,2,0,0,0
50844049,34.03622422885909,108.76076852913394,426.90375,397.4308,-0.0,0.89049226,1.3685098,0.0,2,0,0,0
51042672,34.03622434959863,108.76076722802071,426.93372,397.44104,-0.0,0.8903122,1.3689326,0.0,2,0,0,0
51251142,34.03622443994061,108.76076603602918,426.94797,397.4355,-0.0,0.8904063,1.3688374,0.0,2,0,0,0
51449799,34.03622454320704,108.76076495590716,426.93372,397.4012,-0.0,0.89021736,1.3685645,0.0,2,0,0,0
51643350,34.03622457857258,108.76076394749802,426.89398,397.3413,-0.0,0.8897502,1.3688035,0.0,2,0,0,0
51851866,34.03622455638533,108.76076287266996,426.83008,397.2581,-0.0,0.8898484,1.3687097,0.0,2,0,0,0
52050455,34.03622454374915,108.76076174455665,426.74884,397.15683,-0.0,0.8896828,1.3684406,0.0,2,0,0,0
52249041,34.036224499122135,108.76076044957055,426.6413,397.02982,-0.0,0.8895165,1.3681653,0.0,2,0,0,0
52442660,34.03622443296508,108.76075900763998,426.52777,396.896,-0.0,0.8890623,1.3683953,0.0,2,0,0,0
52646211,34.03622440034549,108.76075721515073,426.41614,396.76425,-0.0,0.88892424,1.3681223,0.0,2,0,0,0
52844801,34.03622439837323,108.76075534302596,426.3182,396.64642,-0.0,0.8887914,1.3678569,0.0,2,0,0,0
53043435,34.03622439565423,108.76075346581435,426.23642,396.54303,-0.0,0.8885994,1.3682662,0.0,2,0,0,0
53251904,34.03622458786079,108.76075139287487,426.17133,396.45883,-0.0,0.88872707,1.3681713,0.0,2,0,0,0
53445522,34.036224953293775,108.76074939469598,426.13266,396.40048,-0.0,0.88832736,1.3677381,0.0,2,0,0,0
53644270,34.03622535615331,108.76074728904614,426.1087,396.3563,-0.0,0.88821137,1.3674785,0.0,2,0,0,0
53842695,34.03622563914738,108.7607452483302,426.09402,396.32175,-0.0,0.88810265,1.3678868,0.0,2,0,0,0
54051252,34.036225842353936,108.76074330140298,426.08768,396.2952,-0.0,0.8882835,1.367798,0.0,2,0,0,0
54249797,34.036225994134774,108.76074153746823,426.08502,396.2725,-0.0,0.88818616,1.3675425,0.0,2,0,0,0
54448527,34.03622612257118,108.7607398057106,426.09464,396.26227,-0.0,0.8880829,1.3672895,0.0,2,0,0,0
54642005,34.03622628115125,108.76073827037919,426.11728,396.2652,-0.0,0.8877142,1.3675294,0.0,2,0,0,0
54850521,34.03622650335892,108.76073668498638,426.16147,396.2898,-0.0,0.88791317,1.367447,0.0,2,0,0,0
55044143,34.03622669141624,108.76073521961865,426.21158,396.3189,-0.0,0.8875311,1.3670349,0.0,2,0,0,0
55242817,34.03622697003229,108.76073378972946,426.2632,396.3511,-0.0,0.8874147,1.3674434,0.0,2,0,0,0
55446281,34.036227495854845,108.7607323627482,426.3116,396.3795,-0.0,0.8873441,1.3672,0.0,2,0,0,0
55644868,34.03622815163229,108.76073106398873,426.35895,396.40677,-0.0,0.88728595,1.3669624,0.0,2,0,0,0
55843453,34.036228776396804,108.76072984953765,426.40594,396.43347,-0.0,0.88719475,1.3667257,0.0,2,0,0,0
56052111,34.036229332900284,108.76072878677132,426.47192,396.47934,-0.0,0.8873846,1.3672993,0.0,2,0,0,0
56245591,34.03622977046033,108.76072780186567,426.5418,396.52954,-0.0,0.8870371,1.3668975,0.0,2,0,0,0
56444179,34.036230213230645,108.76072679046484,426.62357,396.59116,-0.0,0.88700116,1.3666654,0.0,2,0,0,0
56642764,34.03623062005108,108.76072581546383,426.71613,396.66364,-0.0,0.88692987,1.3670783,0.0,2,0,0,0
56851391,34.03623097372659,108.76072481221864,426.77887,396.7066,-0.0,0.88710463,1.3670056,0.0,2,0,0,0
57049867,34.03623136128097,108.76072405529543,426.80753,396.7149,-0.0,0.8870102,1.3667703,0.0,2,0,0,0
57243490,34.036231733355784,108.76072344250164,426.8131,396.70062,-0.0,0.88664705,1.3663774,0.0,2,0,0,0
57447041,34.03623208887461,108.76072290176224,426.7948,396.66306,-0.0,0.88652134,1.366785,0.0,2,0,0,0
57645623,34.03623245336146,108.76072248568452,426.75958,396.6076,-0.0,0.8864181,1.3665522,0.0,2,0,0,0
57844213,34.03623278125094,108.76072212325951,426.70972,396.5373,-0.0,0.8862756,1.3663149,0.0,2,0,0,0
58042800,34.0362330121379,108.76072166168487,426.65045,396.45816,-0.0,0.88612723,1.3667172,0.0,2,0,0,0
58251315,34.03623323247987,108.76072112631711,426.58203,396.3699,-0.0,0.8862745,1.366631,0.0,2,0,0,0
58449906,34.03623341178707,108.76072056112166,426.51392,396.28192,-0.0,0.8861688,1.3663871,0.0,2,0,0,0
58643524,34.03623359796091,108.76071998045347,426.45505,396.20297,-0.0,0.88578206,1.3666233,0.0,2,0,0,0
58852041,34.036233773475935,108.760719179265,426.39328,396.1213,-0.0,0.8859633,1.3665408,0.0,2,0,0,0
59045661,34.036233908063366,108.76071830518386,426.34247,396.04907,-0.0,0.88557297,1.3661461,0.0,2,0,0,0
59244248,34.03623402128856,108.760717357734,426.30814,395.99594,-0.0,0.8854813,1.3665432,0.0,2,0,0,0
59442835,34.036234134498535,108.76071621825645,426.28818,395.956,-0.0,0.88541466,1.36631,0.0,2,0,0,0
59651351,34.03623423688675,108.76071484443146,426.27548,395.92377,-0.0,0.8856107,1.3662306,0.0,2,0,0,0
59840203,34.03623433230431,108.76071347491192,426.2757,395.9038,-0.0,0.8852907,1.3664691,0.0,2,0,0,0
60043559,34.03623441449112,108.76071184960045,426.28293,395.89136,-0.0,0.8852316,1.3662313,0.0,2,0,0,0
60252075,34.03623450749077,108.76071013470226,426.30865,395.89517,-0.0,0.8853861,1.3661528,0.0,2,0,0,0
60450662,34.03623449976483,108.76070857884753,426.34586,395.91376,-0.0,0.88531387,1.3659207,0.0,2,0,0,0
60649252,34.03623441378933,108.76070713847446,426.38464,395.93307,-0.0,0.8852834,1.3663168,0.0,2,0,0,0
60847835,34.03623441683785,108.7607057142364,426.41626,395.94476,-0.0,0.88527066,1.3660871,0.0,2,0,0,0
61051390,34.036234607485405,108.76070417620346,426.4411,395.9489,-0.0,0.885264,1.365859,0.0,2,0,0,0
61249975,34.0362348938113,108.76070261112669,426.4684,395.95642,-0.0,0.8853322,1.3656355,0.0,2,0,0,0
61448726,34.03623520781817,108.7607010559338,426.49847,395.9667,-0.0,0.88543576,1.3660346,0.0,2,0,0,0
61647170,34.036235400136015,108.76069957581757,426.5259,395.97403,-0.0,0.8855183,1.3658115,0.0,2,0,0,0
61850697,34.036235463280796,108.76069824556467,426.56238,395.9906,-0.0,0.8855995,1.3655888,0.0,2,0,0,0
62044319,34.036235454507626,108.76069698107369,426.58945,395.99777,-0.0,0.8854466,1.3658363,0.0,2,0,0,0
62243014,34.036235390798105,108.76069570903789,426.58417,395.9727,-0.0,0.885549,1.365621,0.0,2,0,0,0
62451423,34.0362352902565,108.76069455697547,426.52652,395.89474,-0.0,0.88589233,1.3655591,0.0,2,0,0,0
62650008,34.036235185741,108.76069365244598,426.4492,395.79752,-0.0,0.8859568,1.3653475,0.0,2,0,0,0
62843630,34.03623508178299,108.76069275892854,426.39172,395.7202,-0.0,0.8857643,1.3655974,0.0,2,0,0,0
63042281,34.03623488363902,108.76069196162176,426.35077,395.65955,-0.0,0.8858405,1.3653791,0.0,2,0,0,0
63250733,34.036234669604795,108.76069120787675,426.31888,395.6071,-0.0,0.8861842,1.3653123,0.0,2,0,0,0
63449358,34.03623441939345,108.76069049888375,426.292,395.5605,-0.0,0.8862648,1.3657039,0.0,2,0,0,0
63647918,34.03623413449295,108.76068976101526,426.2634,395.5114,-0.0,0.88631433,1.3654796,0.0,2,0,0,0
63846544,34.03623395106873,108.76068912729525,426.1995,395.4276,-0.0,0.88634175,1.3652557,0.0,2,0,0,0
64050044,34.03623373864062,108.76068849146398,426.12006,395.328,-0.0,0.8863701,1.3656453,0.0,2,0,0,0
64243666,34.0362336313917,108.76068793781921,426.04663,395.23434,-0.0,0.88613296,1.3658772,0.0,2,0,0,0
64452182,34.03623354909418,108.76068730804226,426.00778,395.17603,-0.0,0.8864512,1.3657935,0.0,2,0,0,0
64650801,34.03623355575836,108.7606865645327,426.0157,395.1642,-0.0,0.8865223,1.3655635,0.0,2,0,0,0
64844390,34.036233557426606,108.76068578772826,426.05612,395.18463,-0.0,0.88632476,1.3651892,0.0,2,0,0,0
65047944,34.03623352272119,108.76068475936495,426.13104,395.23877,-0.0,0.8863901,1.3655784,0.0,2,0,0,0
65246529,34.03623355157021,108.76068349366301,426.24084,395.32916,-0.0,0.8864654,1.3653597,0.0,2,0,0,0
65445136,34.03623351150797,108.7606819025574,426.39124,395.45956,-0.0,0.8865432,1.3651456,0.0,2,0,0,0
65643702,34.036233404872675,108.76068000057901,426.5612,395.6094,-0.0,0.8866222,1.3655382,0.0,2,0,0,0
65842290,34.03623324376524,108.76067810769811,426.74744,395.77557,-0.0,0.8866907,1.3653181,0.0,2,0,0,0
66050812,34.03623296124175,108.76067597052398,426.94058,395.94885,-0.0,0.8870035,1.3652472,0.0,2,0,0,0
66249393,34.036232700171475,108.76067379642218,427.0966,396.0846,-0.0,0.88700396,1.365027,0.0,2,0,0,0
66443015,34.03623233100292,108.76067173421086,427.22757,396.1956,-0.0,0.8867526,1.3652694,0.0,2,0,0,0
66651529,34.03623191287466,108.76066956226215,427.34628,396.2942,-0.0,0.8870646,1.3652015,0.0,2,0,0,0
66850116,34.03623130468486,108.76066755052666,427.43317,396.36118,-0.0,0.88709944,1.3649817,0.0,2,0,0,0
67048713,34.03623048673701,108.76066543963148,427.51065,396.41815,-0.0,0.8871061,1.365367,0.0,2,0,0,0
67242365,34.03622967925617,108.76066359283908,427.54434,396.43225,-0.0,0.88684285,1.3649988,0.0,2,0,0,0
67450840,34.03622894906429,108.76066168016055,427.5176,396.386,-0.0,0.887137,1.3649286,0.0,2,0,0,0
67639661,34.03622841279177,108.76065999724422,427.45752,396.30573,-0.0,0.8869072,1.3651707,0.0,2,0,0,0
67843060,34.03622812671584,108.76065835783734,427.39874,396.2269,-0.0,0.8869048,1.3649544,0.0,2,0,0,0
68046601,34.03622810990985,108.76065679764623,427.3726,396.181,-0.0,0.8869452,1.3647447,0.0,2,0,0,0
68245207,34.03622823932432,108.76065537154506,427.36502,396.1534,-0.0,0.8869851,1.3645394,0.0,2,0,0,0
68443935,34.036228426813224,108.76065403354009,427.36703,396.13525,-0.0,0.88702387,1.3649347,0.0,2,0,0,0
68652290,34.03622863014315,108.76065274154968,427.35873,396.10715,-0.0,0.8873444,1.364875,0.0,2,0,0,0
68850877,34.03622886446582,108.76065154819149,427.34174,396.0701,-0.0,0.8873931,1.3646739,0.0,2,0,0,0
69044502,34.036229088080695,108.76065041032824,427.3301,396.0378,-0.0,0.88714087,1.3649243,0.0,2,0,0,0
69243257,34.03622929089731,108.76064929065973,427.31653,396.00446,-0.0,0.8871516,1.3647228,0.0,2,0,0,0
69451602,34.03622943210717,108.76064818618464,427.2913,395.95938,-0.0,0.88745195,1.3646708,0.0,2,0,0,0
69650194,34.03622952506531,108.76064723424302,427.26324,395.91156,-0.0,0.8874827,1.3644744,0.0,2,0,0,0
69843818,34.03622959906059,108.76064628904943,427.23505,395.86328,-0.0,0.8872434,1.3647296,0.0,2,0,0,0
70052453,34.036229592619,108.76064524387826,427.20892,395.81696,-0.0,0.88749176,1.3646792,0.0,2,0,0,0
70250917,34.0362295440278,108.76064425776237,427.18994,395.77844,-0.0,0.8875175,1.3644868,0.0,2,0,0,0
70444537,34.0362294677566,108.76064321867696,427.17917,395.7475,-0.0,0.8872764,1.3641553,0.0,2,0,0,0
70643122,34.03622930981859,108.76064191254972,427.17868,395.727,-0.0,0.8872986,1.3645569,0.0,2,0,0,0
70841747,34.0362290993013,108.76064033768321,427.1861,395.7142,-0.0,0.8873107,1.3643705,0.0,2,0,0,0
71045262,34.03622883700239,108.76063853791865,427.19846,395.70407,-0.0,0.88722336,1.364184,0.0,2,0,0,0
71243850,34.036228538146545,108.76063658835315,427.20728,395.6952,-0.0,0.88723254,1.3640034,0.0,2,0,0,0
71442434,34.036228238008256,108.76063451444679,427.2138,395.68222,-0.0,0.8872405,1.3644073,0.0,2,0,0,0
71651039,34.03622787141161,108.76063220862535,427.22955,395.67786,-0.0,0.8875237,1.3643671,0.0,2,0,0,0
71844574,34.03622740145321,108.76063003946115,427.24142,395.66965,-0.0,0.8872724,1.3640416,0.0,2,0,0,0
72043211,34.036226968454265,108.76062770072797,427.252,395.65973,-0.0,0.8872852,1.364447,0.0,2,0,0,0
72241745,34.03622650404251,108.76062542539694,427.2677,395.6553,-0.0,0.8872675,1.3642676,0.0,2,0,0,0
72450353,34.036226057457604,108.76062308964455,427.29395,395.66156,-0.0,0.8875155,1.3642293,0.0,2,0,0,0
72648849,34.03622578910425,108.76062087757022,427.33182,395.67993,-0.0,0.8874899,1.3640496,0.0,2,0,0,0
72842471,34.03622566322876,108.76061878733178,427.37247,395.70068,-0.0,0.88721293,1.3643115,0.0,2,0,0,0
73050987,34.03622548122415,108.76061665350069,427.42288,395.7315,-0.0,0.88750887,1.3642738,0.0,2,0,0,0
73249574,34.03622521505264,108.76061459803749,427.47864,395.76666,-0.0,0.8874958,1.3640943,0.0,2,0,0,0
73443201,34.03622490989362,108.76061261779577,427.52777,395.79587,-0.0,0.887229,1.3643576,0.0,2,0,0,0
73641782,34.03622451067759,108.76061058475032,427.54807,395.7963,-0.0,0.8872531,1.3641814,0.0,2,0,0,0
73850299,34.03622401768976,108.76060851786175,427.53812,395.76593,-0.0,0.88750356,1.3641462,0.0,2,0,0,0
74048998,34.0362235110119,108.7606066675503,427.4986,395.7069,-0.0,0.8875125,1.3639636,0.0,2,0,0,0
74242508,34.03622306436136,108.76060495745597,427.43073,395.61905,-0.0,0.887243,1.3642213,0.0,2,0,0,0
74451024,34.03622244406525,108.76060298303172,427.34146,395.50967,-0.0,0.8875066,1.364181,0.0,2,0,0,0
74649610,34.03622188201109,108.76060123810075,427.2417,395.3898,-0.0,0.8875186,1.3639985,0.0,2,0,0,0
74848227,34.03622142896949,108.76059948453789,427.1276,395.25577,-0.0,0.88750184,1.3643987,0.0,2,0,0,0
75041820,34.03622098593373,108.76059769249498,427.01956,395.12708,-0.0,0.8872365,1.3640734,0.0,2,0,0,0
75245372,34.036220440262284,108.76059575036156,426.93372,395.02112,-0.0,0.8872474,1.3638936,0.0,2,0,0,0
75443960,34.03622007380781,108.76059372781077,426.87668,394.94418,-0.0,0.88726985,1.3637167,0.0,2,0,0,0
75642546,34.036219825375966,108.76059182227294,426.84732,394.89532,-0.0,0.8873346,1.3641202,0.0,2,0,0,0
75851061,34.036219422494845,108.76058978775808,426.8383,394.86618,-0.0,0.88764286,1.3640836,0.0,2,0,0,0
76049647,34.036218923122796,108.76058781892249,426.84833,394.85565,-0.0,0.88769567,1.3639009,0.0,2,0,0,0
76243270,34.036218380794956,108.7605860230713,426.874,394.86215,-0.0,0.8875164,1.3641586,0.0,2,0,0,0
76441856,34.03621785319392,108.76058419673,426.91577,394.88388,-0.0,0.8875564,1.363975,0.0,2,0,0,0
76650373,34.0362173618895,108.76058231104363,426.9763,394.9241,-0.0,0.8878731,1.363934,0.0,2,0,0,0
76848961,34.03621687472494,108.76058057029395,427.0563,394.984,-0.0,0.88791734,1.3637538,0.0,2,0,0,0
77047546,34.036216219907764,108.7605788175185,427.15338,395.0601,-0.0,0.8879381,1.3641523,0.0,2,0,0,0
77246135,34.03621546615365,108.76057737825536,427.26004,395.14777,-0.0,0.88799554,1.3639623,0.0,2,0,0,0
77449685,34.03621472579903,108.76057596182356,427.38922,395.25693,-0.0,0.8880417,1.3643563,0.0,2,0,0,0
77648272,34.03621386691956,108.76057454810376,427.52246,395.37012,-0.0,0.8882709,1.364239,0.0,2,0,0,0
77837095,34.03621298281638,108.76057330084804,427.63602,395.46368,-0.0,0.88804996,1.3639122,0.0,2,0,0,0
78050415,34.036212044578605,108.7605719802134,427.7329,395.54086,-0.0,0.88836825,1.3638647,0.0,2,0,0,0
78244032,34.036211260188814,108.76057085030189,427.7936,395.58133,-0.0,0.88813746,1.3641214,0.0,2,0,0,0
78442619,34.036210491198574,108.76056961248476,427.8535,395.6213,-0.0,0.88819444,1.3639376,0.0,2,0,0,0
78651328,34.03621006000937,108.7605683163566,427.9252,395.67355,-0.0,0.88870996,1.3639596,0.0,2,0,0,0
78844757,34.036209864570765,108.76056715137858,427.97073,395.69965,-0.0,0.8884931,1.3642116,0.0,2,0,0,0
79043345,34.03621003627866,108.76056597592556,428.01004,395.71814,-0.0,0.8885467,1.3640242,0.0,2,0,0,0
79241931,34.03621037746695,108.76056497436699,428.0311,395.7186,-0.0,0.8885706,1.363836,0.0,2,0,0,0
79450595,34.036210740260934,108.76056404887834,428.03775,395.70566,-0.0,0.88886535,1.3637879,0.0,2,0,0,0
79649036,34.036211072768396,108.76056318167909,428.02435,395.67236,-0.0,0.88889164,1.3641816,0.0,2,0,0,0
79847621,34.03621139802002,108.76056230588964,427.9939,395.6221,-0.0,0.88892937,1.3639935,0.0,2,0,0,0
80051173,34.036211731950516,108.76056138133255,427.94363,395.55142,-0.0,0.88895774,1.3638047,0.0,2,0,0,0
80249928,34.036212044733205,108.7605604387878,427.87976,395.46756,-0.0,0.88899076,1.3641976,0.0,2,0,0,0
80443382,34.03621224171929,108.76055964666543,427.7992,395.3666,-0.0,0.8887596,1.3638726,0.0,2,0,0,0
80641969,34.036212432437836,108.76055901668086,427.70355,395.25098,-0.0,0.88882256,1.3637042,0.0,2,0,0,0
80850485,34.03621258904129,108.76055835802785,427.59137,395.11874,-0.0,0.8895125,1.3638059,0.0,2,0,0,0
81049152,34.036212769676055,108.76055756091698,427.48624,394.99356,-0.0,0.88981205,1.3643088,0.0,2,0,0,0
81242699,34.03621284021397,108.76055648076391,427.4104,394.8988,-0.0,0.88952917,1.364555,0.0,2,0,0,0
81446246,34.03621277820413,108.76055509550324,427.34583,394.81628,-0.0,0.8895713,1.3643523,0.0,2,0,0,0
81644833,34.03621260349954,108.7605535560123,427.28906,394.7402,-0.0,0.88959825,1.3641464,0.0,2,0,0,0
81843496,34.036212329083284,108.7605519700724,427.245,394.6792,-0.0,0.88963133,1.3645267,0.0,2,0,0,0
82042008,34.03621200450905,108.76055044329135,427.2196,394.63678,-0.0,0.88966835,1.3643137,0.0,2,0,0,0
82250523,34.03621165271308,108.76054886004266,427.2103,394.6112,-0.0,0.88999444,1.3642408,0.0,2,0,0,0
82449110,34.03621132803915,108.76054735913581,427.21268,394.5978,-0.0,0.8900469,1.3646166,0.0,2,0,0,0
82647757,34.036210957887754,108.76054583221006,427.24036,394.61148,-0.0,0.8901006,1.3644035,0.0,2,0,0,0
82851250,34.03621043975964,108.76054439700354,427.29303,394.64966,-0.0,0.8901663,1.364185,0.0,2,0,0,0
83049835,34.03620986733853,108.7605429996356,427.35925,394.70047,-0.0,0.8902139,1.3645574,0.0,2,0,0,0
83243457,34.036209221267086,108.76054166829877,427.42593,394.75198,-0.0,0.89003754,1.3641956,0.0,2,0,0,0
83442057,34.03620852869198,108.76054045861207,427.49457,394.80338,-0.0,0.8901328,1.3645638,0.0,2,0,0,0
83650564,34.03620783740768,108.76053925906804,427.5583,394.8495,-0.0,0.89053434,1.3644962,0.0,2,0,0,0
83844184,34.036207097110136,108.76053801508274,427.60913,394.88397,-0.0,0.8903517,1.364142,0.0,2,0,0,0
84047792,34.03620611958647,108.76053653092409,427.6564,394.9169,-0.0,0.89046854,1.3639318,0.0,2,0,0,0
84246324,34.03620521984227,108.76053523103054,427.68427,394.92975,-0.0,0.8905353,1.3643064,0.0,2,0,0,0
84444917,34.03620441092719,108.76053425294909,427.69504,394.927,-0.0,0.8906031,1.3641025,0.0,2,0,0,0
84648460,34.036203539949476,108.76053318844818,427.6841,394.9028,-0.0,0.8906807,1.3638994,0.0,2,0,0,0
84847047,34.036202658178965,108.76053204255761,427.65668,394.86285,-0.0,0.8907672,1.3636999,0.0,2,0,0,0
85045634,34.03620171813963,108.76053113607563,427.62463,394.8176,-0.0,0.89084107,1.3640804,0.0,2,0,0,0
85244221,34.036200849853344,108.76053029711458,427.58762,394.76776,-0.0,0.89091575,1.3638828,0.0,2,0,0,0
85452745,34.0361998218683,108.76052932126954,427.5464,394.71283,-0.0,0.89125973,1.3638244,0.0,2,0,0,0
85651324,34.03619878335796,108.76052847887307,427.51688,394.66937,-0.0,0.89132714,1.3636302,0.0,2,0,0,0
85849911,34.03619781659541,108.76052774003506,427.50323,394.64102,-0.0,0.89135766,1.3640127,0.0,2,0,0,0
86048498,34.03619694764086,108.76052718916725,427.5003,394.62387,-0.0,0.89138615,1.3638179,0.0,2,0,0,0
86242170,34.03619616702569,108.76052680089226,427.4999,394.61002,-0.0,0.89111954,1.3634887,0.0,2,0,0,0
86450827,34.0361953168458,108.76052644134822,427.4939,394.5905,-0.0,0.8914298,1.3634354,0.0,2,0,0,0
86644259,34.03619441977576,108.76052618511464,427.4799,394.5633,-0.0,0.89119977,1.3636831,0.0,2,0,0,0
86852777,34.036193380803965,108.76052601331412,427.43787,394.508,-0.0,0.8915525,1.3636359,0.0,2,0,0,0
87051363,34.036192302929095,108.76052599698633,427.36597,394.42236,-0.0,0.8916113,1.36345,0.0,2,0,0,0
87250076,34.03619125108419,108.76052597254433,427.2985,394.34293,-0.0,0.8916327,1.3638304,0.0,2,0,0,0
87443572,34.036190235559154,108.76052599438586,427.2665,394.2998,-0.0,0.8913666,1.3635031,0.0,2,0,0,0
87647124,34.036189199000304,108.76052613104659,427.2721,394.29382,-0.0,0.89144224,1.3638827,0.0,2,0,0,0
87845710,34.036188237799934,108.76052634284557,427.32416,394.33588,-0.0,0.8915321,1.3636901,0.0,2,0,0,0
88044376,34.0361873220702,108.76052642173403,427.40497,394.40787,-0.0,0.891622,1.3634957,0.0,2,0,0,0
88242931,34.03618632133054,108.76052617168996,427.50073,394.4933,-0.0,0.89171606,1.3638743,0.0,2,0,0,0
88451400,34.03618525495353,108.76052567664902,427.60287,394.58334,-0.0,0.89209944,1.3638163,0.0,2,0,0,0
88649990,34.03618431143452,108.76052532043796,427.68408,394.6528,-0.0,0.8921621,1.3636221,0.0,2,0,0,0
88848626,34.0361834955794,108.76052544012443,427.7489,394.7056,-0.0,0.89221114,1.3639985,0.0,2,0,0,0
89042202,34.03618263026507,108.76052551704629,427.79614,394.73987,-0.0,0.89190567,1.3636601,0.0,2,0,0,0
89250713,34.036181547829116,108.76052531401069,427.81747,394.74884,-0.0,0.8922279,1.3636016,0.0,2,0,0,0
89444337,34.036180580297696,108.76052492921399,427.8226,394.74362,-0.0,0.89192826,1.3638448,0.0,2,0,0,0
89652891,34.036179561546895,108.76052457339652,427.81223,394.72415,-0.0,0.8922253,1.3637882,0.0,2,0,0,0
89846474,34.0361785877762,108.76052426529081,427.78113,394.68448,-0.0,0.89190966,1.3634628,0.0,2,0,0,0
90045061,34.03617756526857,108.76052379854575,427.73105,394.62585,-0.0,0.89188606,1.3632787,0.0,2,0,0,0
90243649,34.036176646652855,108.76052305420177,427.65698,394.54434,-0.0,0.8918643,1.3636637,0.0,2,0,0,0
90442241,34.036175785950924,108.76052242809209,427.58307,394.46515,-0.0,0.8918218,1.3634787,0.0,2,0,0,0
90645787,34.03617484871594,108.76052188941662,427.51242,394.38916,-0.0,0.89176965,1.3632938,0.0,2,0,0,0
90844375,34.03617372193813,108.76052135978748,427.4289,394.30005,-0.0,0.8917348,1.3636739,0.0,2,0,0,0
91052890,34.036172488240204,108.76052085340406,427.33676,394.20346,-0.0,0.8919593,1.3636198,0.0,2,0,0,0
91251498,34.03617142249809,108.7605204511997,427.26434,394.12787,-0.0,0.8919008,1.3634257,0.0,2,0,0,0
91450065,34.03617045235933,108.76052005195497,427.21985,394.0813,-0.0,0.8918892,1.3638045,0.0,2,0,0,0
91643687,34.03616944260933,108.76051957012015,427.20166,394.06052,-0.0,0.8915725,1.3634756,0.0,2,0,0,0
91847239,34.036168402060525,108.76051899549044,427.19305,394.04883,-0.0,0.8915437,1.363285,0.0,2,0,0,0
92045881,34.03616743635057,108.76051820581529,427.20224,394.05426,-0.0,0.89155537,1.3636672,0.0,2,0,0,0
92244414,34.036166474885704,108.7605172996237,427.23267,394.08112,-0.0,0.89157313,1.3634851,0.0,2,0,0,0
92452954,34.03616548283704,108.76051652977863,427.27832,394.12155,-0.0,0.89187896,1.3634367,0.0,2,0,0,0
92651516,34.03616457091553,108.76051586419571,427.32968,394.16708,-0.0,0.89189416,1.3632563,0.0,2,0,0,0
92850104,34.03616368354036,108.7605152409014,427.4018,394.23346,-0.0,0.89191425,1.363643,0.0,2,0,0,0
93043726,34.036162894796405,108.76051474809519,427.48007,394.30466,-0.0,0.8916577,1.3633286,0.0,2,0,0,0
93247277,34.03616207250519,108.76051429548718,427.5479,394.3672,-0.0,0.8916752,1.3637152,0.0,2,0,0,0
93446022,34.03616124082246,108.76051378788115,427.58453,394.4025,-0.0,0.8916843,1.3635327,0.0,2,0,0,0
93644451,34.036160336217456,108.76051338226091,427.58917,394.40485,-0.0,0.89170337,1.3633528,0.0,2,0,0,0
93852968,34.0361593540546,108.76051310029867,427.56195,394.37524,-0.0,0.89199996,1.3633074,0.0,2,0,0,0
94046591,34.03615849408236,108.76051275253285,427.51913,394.33176,-0.0,0.89176327,1.3635591,0.0,2,0,0,0
94245315,34.036157631756,108.76051245812987,427.46265,394.27444,-0.0,0.8917878,1.3633794,0.0,2,0,0,0
94443764,34.03615672516102,108.76051197523914,427.39813,394.21088,-0.0,0.89184177,1.3632028,0.0,2,0,0,0
94642355,34.036155818887316,108.76051136568935,427.29254,394.10428,-0.0,0.8918846,1.3630277,0.0,2,0,0,0
94850868,34.03615490611214,108.76051059907323,427.14413,393.95398,-0.0,0.89229006,1.363576,0.0,2,0,0,0
95049583,34.03615403224898,108.76050983249837,426.99014,393.7967,-0.0,0.8923848,1.3634349,0.0,2,0,0,0
95248042,34.036153105189626,108.76050912775257,426.85724,393.66074,-0.0,0.8923664,1.3632579,0.0,2,0,0,0
95451594,34.036152035665005,108.76050865438422,426.77176,393.57367,-0.0,0.8923358,1.363082,0.0,2,0,0,0
95650181,34.03615083945198,108.76050849287218,426.73834,393.53964,-0.0,0.8923256,1.3634734,0.0,2,0,0,0
95848953,34.0361497524488,108.76050823142344,426.7289,393.5293,-0.0,0.8923053,1.3633007,0.0,2,0,0,0
96042390,34.036148686479805,108.76050798680318,426.73724,393.5359,-0.0,0.892015,1.3629953,0.0,2,0,0,0
96245944,34.03614758116123,108.76050770121914,426.7689,393.56717,-0.0,0.8920331,1.3633884,0.0,2,0,0,0
96444530,34.036146566111476,108.76050745370078,426.81192,393.60986,-0.0,0.8920411,1.3632135,0.0,2,0,0,0
96643124,34.03614549978639,108.76050715654569,426.8407,393.6376,-0.0,0.8920493,1.3636029,0.0,2,0,0,0
96846670,34.03614440621721,108.76050666113275,426.83847,393.6349,-0.0,0.892063,1.3634132,0.0,2,0,0,0
97045261,34.036143319543214,108.76050602421932,426.80493,393.6015,-0.0,0.8920813,1.3632267,0.0,2,0,0,0
97243843,34.03614224070773,108.7605051955889,426.75427,393.55292,-0.0,0.89210284,1.3636076,0.0,2,0,0,0
97442430,34.036141147446486,108.76050440016024,426.69757,393.4996,-0.0,0.8921179,1.3634217,0.0,2,0,0,0
97650946,34.03613985629759,108.76050369529186,426.632,393.43698,-0.0,0.8924141,1.3633717,0.0,2,0,0,0
97849533,34.03613858102422,108.76050307274457,426.56763,393.37445,-0.0,0.89243734,1.3637534,0.0,2,0,0,0
98053087,34.036137250174974,108.76050263402806,426.52017,393.32825,-0.0,0.8924603,1.3635622,0.0,2,0,0,0
98251696,34.03613597776702,108.76050231867919,426.50327,393.31216,-0.0,0.8924856,1.3633717,0.0,2,0,0,0
98450259,34.036134722349374,108.76050203282676,426.50952,393.3194,-0.0,0.8925227,1.3631849,0.0,2,0,0,0
98648849,34.03613349972011,108.76050176082207,426.54562,393.357,-0.0,0.8925789,1.3635666,0.0,2,0,0,0
98842497,34.03613235522369,108.76050149777984,426.61023,393.42368,-0.0,0.89237255,1.3632455,0.0,2,0,0,0
99050987,34.036131123271645,108.76050121648122,426.6957,393.5104,-0.0,0.8927001,1.363193,0.0,2,0,0,0
99244662,34.036129941106594,108.76050087863187,426.78635,393.60214,-0.0,0.8925018,1.3634361,0.0,2,0,0,0
99453124,34.03612871005487,108.76050051726835,426.87064,393.6868,-0.0,0.8928753,1.3633842,0.0,2,0,0,0
99651748,34.03612758171659,108.76050019577127,426.91553,393.73123,-0.0,0.892955,1.3631995,0.0,2,0,0,0
99850298,34.036126434106535,108.76049981219707,426.93015,393.74652,-0.0,0.8930303,1.3635817,0.0,2,0,0,0
100043922,34.03612535931989,108.7604992501532,426.9217,393.74155,-0.0,0.892802,1.3632635,0.0,2,0,0,0
100242512,34.03612426204469,108.76049843241096,426.8822,393.70532,-0.0,0.8928055,1.3630841,0.0,2,0,0,0
100441244,34.03612315082361,108.76049749848359,426.82172,393.65033,-0.0,0.89279366,1.3634688,0.0,2,0,0,0
100644647,34.03612196444626,108.76049673418734,426.76254,393.59824,-0.0,0.8927803,1.3632882,0.0,2,0,0,0
100843234,34.036120719954425,108.76049617009498,426.71634,393.55975,-0.0,0.892768,1.363112,0.0,2,0,0,0
101051752,34.03611944560739,108.76049558480669,426.68182,393.53192,-0.0,0.89304644,1.3630704,0.0,2,0,0,0
101250493,34.03611815503339,108.76049498817527,426.6732,393.5303,-0.0,0.8930408,1.3628951,0.0,2,0,0,0
101448928,34.03611685464797,108.76049447011845,426.68356,393.54633,-0.0,0.8931155,1.3632822,0.0,2,0,0,0
101642547,34.03611563080031,108.76049401297936,426.71112,393.58118,-0.0,0.89287627,1.3629748,0.0,2,0,0,0
101846104,34.03611435471236,108.76049348393114,426.758,393.63605,-0.0,0.89292365,1.36336,0.0,2,0,0,0
102044780,34.03611308676359,108.76049294877662,426.81317,393.69772,-0.0,0.8929889,1.363184,0.0,2,0,0,0
102243279,34.03611175711503,108.76049250585844,426.8743,393.76544,-0.0,0.89307564,1.3630097,0.0,2,0,0,0
102446825,34.03611049808633,108.7604921181036,426.93353,393.83304,-0.0,0.8931803,1.3628368,0.0,2,0,0,0
102645412,34.036109317293416,108.76049174450678,426.97687,393.8833,-0.0,0.8932902,1.3632243,0.0,2,0,0,0
102844053,34.036108125676485,108.76049124868067,427.01752,393.93134,-0.0,0.8934067,1.3630545,0.0,2,0,0,0
103042592,34.0361069557666,108.76049063880134,427.05194,393.97357,-0.0,0.89351755,1.3628845,0.0,2,0,0,0
103246139,34.03610585673335,108.76048989437629,427.0957,394.02924,-0.0,0.89359456,1.3632724,0.0,2,0,0,0
103444784,34.03610479321577,108.76048914332735,427.12103,394.06482,-0.0,0.8936957,1.3630979,0.0,2,0,0,0
103653369,34.03610361342533,108.7604884279231,427.12866,394.08307,-0.0,0.89407676,1.3630546,0.0,2,0,0,0
103846865,34.03610236701249,108.76048792717084,427.1247,394.09128,-0.0,0.89390165,1.3633019,0.0,2,0,0,0
104045452,34.03610097709652,108.76048762024743,427.1099,394.0891,-0.0,0.89402366,1.3631217,0.0,2,0,0,0
104244039,34.03609951147534,108.7604874612001,427.08206,394.07422,-0.0,0.89412904,1.3629429,0.0,2,0,0,0
104442712,34.03609798503775,108.76048738730995,427.04678,394.0516,-0.0,0.8942358,1.3633252,0.0,2,0,0,0
104651144,34.03609638009832,108.76048724200754,426.9963,394.01367,-0.0,0.89462817,1.3632786,0.0,2,0,0,0
104849730,34.036094794215586,108.76048691260554,426.93283,393.9615,-0.0,0.8947485,1.3630996,0.0,2,0,0,0
105053283,34.03609321855652,108.76048671336068,426.88483,393.9249,-0.0,0.89488167,1.362922,0.0,2,0,0,0
105251870,34.03609176453972,108.76048663839387,426.8738,393.926,-0.0,0.89499277,1.3633052,0.0,2,0,0,0
105445491,34.036090405379916,108.76048649880349,426.89255,393.9558,-0.0,0.89485294,1.3629926,0.0,2,0,0,0
105644089,34.03608910586979,108.76048615851249,426.94052,394.01593,-0.0,0.89504033,1.3633751,0.0,2,0,0,0
105847634,34.03608780145353,108.76048570834968,427.00943,394.09543,-0.0,0.89520824,1.3631971,0.0,2,0,0,0
106046218,34.03608646656431,108.76048515133725,427.07672,394.17416,-0.0,0.89540166,1.3630208,0.0,2,0,0,0
106244805,34.03608501246038,108.76048460049373,427.1382,394.24866,-0.0,0.895633,1.3634032,0.0,2,0,0,0
106453322,34.03608340576163,108.76048406186347,427.17847,394.3006,-0.0,0.89611554,1.363355,0.0,2,0,0,0
106651910,34.03608185006792,108.76048352981536,427.20303,394.33774,-0.0,0.89632547,1.3631731,0.0,2,0,0,0
106850496,34.03608028480276,108.7604830045981,427.20938,394.35715,-0.0,0.8965062,1.3629926,0.0,2,0,0,0
107044116,34.0360788247982,108.76048248616976,427.19696,394.35904,-0.0,0.8963611,1.3632408,0.0,2,0,0,0
107242751,34.036077292355714,108.76048197382735,427.1692,394.3448,-0.0,0.89651954,1.3630627,0.0,2,0,0,0
107441448,34.03607568510868,108.76048165431988,427.1213,394.31024,-0.0,0.89668256,1.3628831,0.0,2,0,0,0
107649810,34.03607400879457,108.76048143052621,427.04855,394.2513,-0.0,0.89712954,1.3633938,0.0,2,0,0,0
107848439,34.03607237194174,108.7604813317561,426.9576,394.1739,-0.0,0.8972909,1.3632101,0.0,2,0,0,0
108051948,34.03607079741469,108.76048109583225,426.85068,394.08054,-0.0,0.89744717,1.3630265,0.0,2,0,0,0
108250734,34.03606930733223,108.7604806568066,426.74658,393.99118,-0.0,0.8975748,1.362846,0.0,2,0,0,0
108449124,34.03606788646267,108.76048013196144,426.6584,393.9179,-0.0,0.8977301,1.3632264,0.0,2,0,0,0
108647710,34.03606646711982,108.7604796302167,426.59628,393.8711,-0.0,0.8978866,1.3630427,0.0,2,0,0,0
108841333,34.03606504549544,108.76047907974586,426.56805,393.85806,-0.0,0.8977611,1.3632867,0.0,2,0,0,0
109049980,34.03606354254754,108.76047845711766,426.56766,393.8725,-0.0,0.89818704,1.3632362,0.0,2,0,0,0
109248437,34.0360621028778,108.76047784492167,426.59387,393.91287,-0.0,0.8983499,1.363056,0.0,2,0,0,0
109451989,34.03606066789099,108.76047726530633,426.64584,393.9794,-0.0,0.89849514,1.3628776,0.0,2,0,0,0
109645611,34.03605923142973,108.7604769332131,426.71262,394.06067,-0.0,0.8983362,1.3631282,0.0,2,0,0,0
109844323,34.036057740713055,108.76047665659421,426.79376,394.15692,-0.0,0.89846814,1.3629544,0.0,2,0,0,0
110042786,34.036056304612266,108.76047641305254,426.89108,394.27103,-0.0,0.8985925,1.3627834,0.0,2,0,0,0
110241377,34.03605485329688,108.76047626799816,427.00696,394.40356,-0.0,0.89870995,1.363169,0.0,2,0,0,0
110449889,34.03605322331392,108.76047616806899,427.14996,394.56497,-0.0,0.89912695,1.3631297,0.0,2,0,0,0
110648528,34.03605164384745,108.7604761809921,427.30917,394.7439,-0.0,0.89927745,1.3629607,0.0,2,0,0,0
110852028,34.03605005673089,108.76047627215854,427.4795,394.93408,-0.0,0.8994078,1.3627912,0.0,2,0,0,0
111045659,34.03604852525889,108.76047622422554,427.63528,395.11008,-0.0,0.89925796,1.3630486,0.0,2,0,0,0
111244246,34.03604686023222,108.76047621889225,427.77515,395.2702,-0.0,0.8993828,1.3628823,0.0,2,0,0,0
111442848,34.036045255276456,108.76047635294768,427.89117,395.40768,-0.0,0.89974606,1.3627933,0.0,2,0,0,0
111641413,34.036043698144105,108.76047658722882,427.9965,395.53116,-0.0,0.8998768,1.3626292,0.0,2,0,0,0
111844965,34.036042159811565,108.76047679170293,428.09314,395.6477,-0.0,0.90000635,1.3630189,0.0,2,0,0,0
112043552,34.036040643847286,108.76047715974262,428.1696,395.74448,-0.0,0.9001075,1.3628539,0.0,2,0,0,0
112252079,34.03603896654032,108.76047763330796,428.2306,395.82538,-0.0,0.9005345,1.3628232,0.0,2,0,0,0
112445691,34.03603740470773,108.7604777750219,428.26727,395.88174,-0.0,0.90035886,1.3630824,0.0,2,0,0,0
112644280,34.0360358898404,108.76047785534156,428.27118,395.90558,-0.0,0.9004705,1.362919,0.0,2,0,0,0
112842866,34.03603436385786,108.76047795710572,428.2554,395.9096,-0.0,0.90056485,1.3627577,0.0,2,0,0,0
113041453,34.036032798542976,108.76047803510728,428.22153,395.89612,-0.0,0.90062827,1.3625968,0.0,2,0,0,0
113249969,34.03603113226399,108.76047798870658,428.1587,395.85236,-0.0,0.900981,1.3625673,0.0,2,0,0,0
113443592,34.036029595045505,108.76047787913114,428.0796,395.79303,-0.0,0.90076005,1.3628267,0.0,2,0,0,0
113652110,34.03602794605661,108.7604777173526,427.9712,395.70435,-0.0,0.9011562,1.3627971,0.0,2,0,0,0
113850791,34.036026435991126,108.76047743974031,427.85266,395.60526,-0.0,0.9012535,1.3626374,0.0,2,0,0,0
114049286,34.036025062636604,108.76047714805193,427.7411,395.51074,-0.0,0.90135795,1.3630303,0.0,2,0,0,0
114247870,34.03602375957615,108.76047694607395,427.65424,395.44122,-0.0,0.9014361,1.3628697,0.0,2,0,0,0
114436681,34.03602258935007,108.76047674881482,427.59244,395.39337,-0.0,0.90122265,1.3625771,0.0,2,0,0,0
114650011,34.036021229306925,108.76047662710889,427.5539,395.36887,-0.0,0.9016108,1.3625481,0.0,2,0,0,0
114853604,34.03601979646592,108.76047661390888,427.553,395.38208,-0.0,0.90173364,1.362943,0.0,2,0,0,0
115047184,34.0360184246562,108.76047667158292,427.59372,395.438,-0.0,0.9015569,1.3626565,0.0,2,0,0,0
115245932,34.03601698540045,108.76047684372425,427.6686,395.52798,-0.0,0.90167916,1.3625025,0.0,2,0,0,0
115444359,34.036015554086376,108.7604769343932,427.75116,395.6267,-0.0,0.9018046,1.3629011,0.0,2,0,0,0
115642946,34.03601418174484,108.76047696536517,427.81903,395.70926,-0.0,0.901923,1.3627474,0.0,2,0,0,0
115841533,34.03601268752983,108.76047700184367,427.881,395.7857,-0.0,0.9020347,1.3625926,0.0,2,0,0,0
116050193,34.03601100667068,108.76047696777984,427.93814,395.85822,-0.0,0.9024408,1.3625677,0.0,2,0,0,0
116243673,34.036009484444406,108.76047697014606,427.9825,395.9185,-0.0,0.9022486,1.3628272,0.0,2,0,0,0
116452195,34.03600781301972,108.76047701171734,428.02686,395.9792,-0.0,0.9026526,1.3627976,0.0,2,0,0,0
116650776,34.036006188663734,108.7604771592273,428.0589,396.0268,-0.0,0.9027504,1.3626379,0.0,2,0,0,0
116849468,34.03600446535092,108.76047730102468,428.07468,396.05798,-0.0,0.9028352,1.363029,0.0,2,0,0,0
117047951,34.036002796739325,108.76047732731989,428.0766,396.07544,-0.0,0.90288967,1.3628666,0.0,2,0,0,0
117241581,34.03600118569393,108.76047737828836,428.06473,396.0777,-0.0,0.9026701,1.3625721,0.0,2,0,0,0
117450090,34.03599939651301,108.76047757945152,428.03442,396.0615,-0.0,0.903039,1.3625424,0.0,2,0,0,0
117648810,34.035997714196476,108.7604777669113,427.99722,396.0385,-0.0,0.9030994,1.3629347,0.0,2,0,0,0
117852233,34.035996027282366,108.7604777776407,427.96628,396.0235,-0.0,0.9031081,1.3627682,0.0,2,0,0,0
118045854,34.035994413114366,108.76047758038352,427.9484,396.02008,-0.0,0.90281904,1.3630251,0.0,2,0,0,0
118244440,34.035992755394254,108.76047733477306,427.9406,396.026,-0.0,0.90279406,1.3628532,0.0,2,0,0,0
118443088,34.03599106137815,108.76047715167454,427.9468,396.04608,-0.0,0.90274763,1.3626823,0.0,2,0,0,0
118646594,34.03598924579729,108.76047695164455,427.9578,396.07053,-0.0,0.90268964,1.3630686,0.0,2,0,0,0
118845166,34.03598739951225,108.76047677260374,427.9756,396.10168,-0.0,0.90260434,1.3628993,0.0,2,0,0,0
119043753,34.035985613606485,108.76047659463906,427.999,396.13818,-0.0,0.9024752,1.3627236,0.0,2,0,0,0
119252339,34.03598377823055,108.76047629964094,428.02704,396.1775,-0.0,0.9026583,1.3632385,0.0,2,0,0,0
119450857,34.035982078604796,108.76047592838614,428.05923,396.222,-0.0,0.90254706,1.3630614,0.0,2,0,0,0
119649445,34.03598033846352,108.76047566766562,428.0815,396.25674,-0.0,0.9024391,1.3628857,0.0,2,0,0,0
119843067,34.035978665786,108.76047548344931,428.08685,396.2747,-0.0,0.90204436,1.3631301,0.0,2,0,0,0
120041658,34.035976936674295,108.76047524897544,428.0762,396.27655,-0.0,0.90194833,1.3629495,0.0,2,0,0,0
120245206,34.03597515099135,108.76047501483299,428.0537,396.2679,-0.0,0.9017908,1.3627715,0.0,2,0,0,0
120443794,34.03597340024974,108.76047487156019,428.02264,396.2481,-0.0,0.9016939,1.3631527,0.0,2,0,0,0
120652311,34.03597161051897,108.76047475180192,427.987,396.22467,-0.0,0.9019035,1.3631104,0.0,2,0,0,0
120850899,34.03596993243845,108.76047465655112,427.96176,396.21103,-0.0,0.9018297,1.3629357,0.0,2,0,0,0
121044521,34.03596834465224,108.76047452151595,427.94803,396.20868,-0.0,0.90145534,1.3626312,0.0,2,0,0,0
121243108,34.03596685055658,108.76047430914791,427.949,396.22116,-0.0,0.90136963,1.3630157,0.0,2,0,0,0
121441891,34.035965427389314,108.76047407036732,427.947,396.23102,-0.0,0.90127826,1.362846,0.0,2,0,0,0
121650227,34.035963961304674,108.76047380972851,427.94315,396.24136,-0.0,0.9014205,1.362807,0.0,2,0,0,0
121843841,34.03596256659502,108.76047372196965,427.94366,396.25363,-0.0,0.9010004,1.3630565,0.0,2,0,0,0
122052351,34.03596110088823,108.76047362340607,427.9473,396.27002,-0.0,0.9011927,1.3630128,0.0,2,0,0,0
122250941,34.035959682627286,108.76047355787831,427.943,396.27722,-0.0,0.9010966,1.3628341,0.0,2,0,0,0
122449526,34.03595832253292,108.76047352008732,427.9347,396.2786,-0.0,0.90099454,1.3632115,0.0,2,0,0,0
122643148,34.035957011788156,108.76047342777426,427.92688,396.2797,-0.0,0.9005852,1.3628976,0.0,2,0,0,0
122841736,34.03595570330739,108.76047326214443,427.9196,396.28104,-0.0,0.9004751,1.3627206,0.0,2,0,0,0
123050417,34.03595434686636,108.76047312516256,427.9186,396.28973,-0.0,0.9006736,1.3626759,0.0,2,0,0,0
123248844,34.035953155078936,108.76047300581577,427.92233,396.30273,-0.0,0.9005728,1.3630552,0.0,2,0,0,0
123452440,34.03595205442648,108.76047289106381,427.9305,396.31943,-0.0,0.9004935,1.3628798,0.0,2,0,0,0
123650983,34.035950913000825,108.76047276765976,427.95322,396.35092,-0.0,0.9004523,1.3627074,0.0,2,0,0,0
123849682,34.035949763033024,108.76047268859355,427.98752,396.39322,-0.0,0.9003831,1.3630912,0.0,2,0,0,0
124043194,34.035948698539904,108.76047271128454,428.0075,396.4212,-0.0,0.8999564,1.3627878,0.0,2,0,0,0
124246741,34.03594760107879,108.7604728811888,428.0059,396.42728,-0.0,0.8998288,1.3626205,0.0,2,0,0,0
124445328,34.0359465458662,108.76047312511344,427.98846,396.41803,-0.0,0.8996772,1.3624557,0.0,2,0,0,0
124644027,34.03594553852843,108.76047344827461,427.95505,396.3941,-0.0,0.8995343,1.3628426,0.0,2,0,0,0
124852436,34.03594456397044,108.76047377847338,427.9095,396.35785,-0.0,0.89967936,1.3628086,0.0,2,0,0,0
125046056,34.03594370744379,108.76047416758175,427.86743,396.32605,-0.0,0.89920574,1.3625121,0.0,2,0,0,0
125244667,34.03594277990313,108.76047463704491,427.81253,396.28085,-0.0,0.89905196,1.3628998,0.0,2,0,0,0
125443297,34.03594197740866,108.76047489769341,427.7659,396.24435,-0.0,0.8989017,1.362737,0.0,2,0,0,0
125646782,34.03594115580565,108.76047519911954,427.7379,396.22675,-0.0,0.898744,1.3625753,0.0,2,0,0,0
125845369,34.03594039595409,108.76047547537509,427.73676,396.23538,-0.0,0.89860183,1.3624159,0.0,2,0,0,0
126043956,34.035939647131826,108.76047568141871,427.7555,396.2638,-0.0,0.89848125,1.3628061,0.0,2,0,0,0
126252504,34.035938873933965,108.76047558517048,427.78827,396.30713,-0.0,0.89865905,1.3627788,0.0,2,0,0,0
126451060,34.03593812843787,108.76047526052652,427.83093,396.3596,-0.0,0.8985362,1.362618,0.0,2,0,0,0
126649654,34.03593741170748,108.7604748729981,427.8879,396.427,-0.0,0.89841163,1.3624579,0.0,2,0,0,0
126843271,34.035936792098674,108.76047454487615,427.9426,396.49136,-0.0,0.8979954,1.362717,0.0,2,0,0,0
127041862,34.03593611986375,108.76047417614248,427.9748,396.5337,-0.0,0.8978385,1.3625582,0.0,2,0,0,0
127250403,34.03593532012927,108.76047386789259,427.97787,396.54645,-0.0,0.8980037,1.3625318,0.0,2,0,0,0
127443998,34.03593454253983,108.76047364492355,427.9535,396.5319,-0.0,0.8975963,1.3627921,0.0,2,0,0,0
127647550,34.03593370270135,108.76047339815064,427.90173,396.4901,-0.0,0.89748174,1.362636,0.0,2,0,0,0
127846137,34.035932849912186,108.76047314438144,427.83344,396.43222,-0.0,0.8973702,1.3624816,0.0,2,0,0,0
128044724,34.03593194701859,108.76047291197409,427.76065,396.3711,-0.0,0.8972538,1.3623277,0.0,2,0,0,0
128243312,34.03593100000693,108.76047266561564,427.69678,396.3169,-0.0,0.897125,1.3627167,0.0,2,0,0,0
128441904,34.035930136445394,108.7604723563311,427.65268,396.28403,-0.0,0.896996,1.3625549,0.0,2,0,0,0
128650415,34.035929310037524,108.76047199057884,427.6267,396.26917,-0.0,0.8971532,1.3625243,0.0,2,0,0,0
128849003,34.03592849014784,108.76047161667105,427.61823,396.2712,-0.0,0.89702535,1.3629131,0.0,2,0,0,0
129052555,34.03592751467903,108.76047137408001,427.62738,396.29074,-0.0,0.8969077,1.3627512,0.0,2,0,0,0
129251142,34.03592649094093,108.7604710672387,427.6481,396.3219,-0.0,0.89676154,1.3625886,0.0,2,0,0,0
129449730,34.03592530719781,108.76047076275782,427.68118,396.365,-0.0,0.8966438,1.3629749,0.0,2,0,0,0
129643353,34.03592408805083,108.76047057526927,427.72534,396.4187,-0.0,0.89623773,1.3626767,0.0,2,0,0,0
129841941,34.03592271829896,108.76047045774486,427.78467,396.48666,-0.0,0.8961258,1.3630608,0.0,2,0,0,0
130050640,34.035921245593414,108.76047027005043,427.85574,396.5657,-0.0,0.8962973,1.3630197,0.0,2,0,0,0
130244080,34.035919958416784,108.76047006062099,427.9409,396.66006,-0.0,0.89590365,1.3627156,0.0,2,0,0,0
130452596,34.035918613742524,108.76046981641707,428.01947,396.74713,-0.0,0.89608765,1.3626775,0.0,2,0,0,0
130646219,34.03591732395833,108.76046951243346,428.06555,396.8002,-0.0,0.8957114,1.3629305,0.0,2,0,0,0
130844922,34.035916025974814,108.7604691781048,428.09882,396.84122,-0.0,0.8956221,1.3627617,0.0,2,0,0,0
131043393,34.03591468703005,108.76046904439349,428.11728,396.868,-0.0,0.89552224,1.3625953,0.0,2,0,0,0
131241981,34.03591327559652,108.76046912549931,428.13425,396.89453,-0.0,0.8954138,1.3624299,0.0,2,0,0,0
131445533,34.03591174604648,108.76046934413147,428.1432,396.91412,-0.0,0.89530796,1.3628155,0.0,2,0,0,0
131644198,34.03591022448976,108.76046954115357,428.13452,396.9161,-0.0,0.8951976,1.362651,0.0,2,0,0,0
131852637,34.035908648660005,108.76046963116077,428.1158,396.90753,-0.0,0.89540917,1.362619,0.0,2,0,0,0
132051224,34.035907167481454,108.76046967554642,428.08817,396.88892,-0.0,0.8953378,1.3624558,0.0,2,0,0,0
132244847,34.03590578606614,108.76046979556668,428.05692,396.8671,-0.0,0.894957,1.362712,0.0,2,0,0,0
132443467,34.03590441377624,108.76046988760152,428.00156,396.81906,-0.0,0.8948879,1.3625488,0.0,2,0,0,0
132642023,34.03590303630628,108.76047004748851,427.928,396.7544,-0.0,0.89483553,1.3623878,0.0,2,0,0,0
132845587,34.035901569263,108.76047043879349,427.8318,396.66766,-0.0,0.89477897,1.3627756,0.0,2,0,0,0
133044163,34.03590018863751,108.76047081896186,427.73102,396.57498,-0.0,0.89472,1.3626155,0.0,2,0,0,0
133252726,34.03589886307394,108.76047125414861,427.6296,396.4828,-0.0,0.8949419,1.3625863,0.0,2,0,0,0
133446302,34.035897762662984,108.76047159805069,427.54297,396.40436,-0.0,0.89461285,1.3628412,0.0,2,0,0,0
133644938,34.03589662990056,108.76047175822637,427.47778,396.34625,-0.0,0.89459497,1.3626761,0.0,2,0,0,0
133843477,34.035895537276964,108.76047204131399,427.45697,396.33502,-0.0,0.89457744,1.3625065,0.0,2,0,0,0
134042065,34.035894463384736,108.76047234683952,427.46133,396.349,-0.0,0.89453995,1.3628883,0.0,2,0,0,0
134245615,34.03589333518478,108.76047241705625,427.48315,396.37943,-0.0,0.8945207,1.3627174,0.0,2,0,0,0
134444204,34.03589219216439,108.76047246164735,427.529,396.4347,-0.0,0.8945085,1.3625492,0.0,2,0,0,0
134652721,34.03589090419961,108.76047255239841,427.59436,396.51,-0.0,0.8947959,1.362512,0.0,2,0,0,0
134851309,34.035889547862084,108.76047261301167,427.66174,396.58505,-0.0,0.8948004,1.3628962,0.0,2,0,0,0
135049897,34.035888129636035,108.76047274242949,427.7376,396.66833,-0.0,0.8947957,1.3627303,0.0,2,0,0,0
135243517,34.03588672458363,108.7604728675418,427.82965,396.7691,-0.0,0.8944869,1.3624339,0.0,2,0,0,0
135442105,34.03588531472803,108.76047289838975,427.94272,396.89197,-0.0,0.89442027,1.3628178,0.0,2,0,0,0
135650622,34.03588382864292,108.76047269355645,428.07086,397.02875,-0.0,0.89465386,1.3627852,0.0,2,0,0,0
135849209,34.035882571415456,108.76047237073648,428.1691,397.13528,-0.0,0.8945851,1.3626199,0.0,2,0,0,0
136052771,34.03588143333436,108.76047214031742,428.23566,397.21194,-0.0,0.894509,1.3624552,0.0,2,0,0,0
136241596,34.0358802852704,108.76047200772304,428.26675,397.25186,-0.0,0.8941193,1.3627058,0.0,2,0,0,0
136444989,34.03587899418312,108.76047189268223,428.26517,397.25885,-0.0,0.894038,1.3625371,0.0,2,0,0,0
136643561,34.03587781273918,108.76047180719948,428.23148,397.23495,-0.0,0.8939912,1.3623725,0.0,2,0,0,0
136842146,34.03587675836619,108.76047174394716,428.1704,397.18472,-0.0,0.8939099,1.3627563,0.0,2,0,0,0
137040873,34.03587576478431,108.7604717352578,428.0822,397.1067,-0.0,0.8938254,1.3625911,0.0,2,0,0,0
137244287,34.03587487645465,108.76047179388189,427.97592,397.01105,-0.0,0.89374876,1.3624271,0.0,2,0,0,0
137452802,34.03587394791804,108.76047190359189,427.86826,396.91458,-0.0,0.8939495,1.3623948,0.0,2,0,0,0
137651412,34.035873023017864,108.76047199757045,427.77234,396.8282,-0.0,0.8938756,1.3627818,0.0,2,0,0,0
137850116,34.0358720983234,108.76047205002634,427.6786,396.74225,-0.0,0.8938052,1.3626181,0.0,2,0,0,0
138043602,34.03587130608573,108.76047203255959,427.58475,396.65585,-0.0,0.8934311,1.3623258,0.0,2,0,0,0
138242195,34.03587053360859,108.76047202755373,427.49323,396.57062,-0.0,0.8933683,1.3627139,0.0,2,0,0,0
138440775,34.035869868373204,108.76047201273595,427.41425,396.49918,-0.0,0.8933059,1.3625543,0.0,2,0,0,0
138649395,34.03586914763024,108.76047205500691,427.34268,396.4354,-0.0,0.89352214,1.3625196,0.0,2,0,0,0
138847879,34.03586847114303,108.7604722662249,427.27594,396.37677,-0.0,0.89347,1.3629037,0.0,2,0,0,0
139051473,34.03586776429452,108.76047243244284,427.22293,396.33218,-0.0,0.8934169,1.3627361,0.0,2,0,0,0
139250019,34.03586703837133,108.76047248638821,427.1757,396.29245,-0.0,0.8933727,1.362571,0.0,2,0,0,0
139448733,34.03586616894443,108.76047252331941,427.13824,396.26263,-0.0,0.89332694,1.3624068,0.0,2,0,0,0
139642230,34.03586512510406,108.76047264544943,427.10376,396.23566,-0.0,0.8929989,1.3626616,0.0,2,0,0,0
139845782,34.03586389141231,108.76047284151795,427.06882,396.2076,-0.0,0.8929379,1.3625007,0.0,2,0,0,0
140044369,34.0358627506567,108.76047307472051,427.0363,396.1821,-0.0,0.89287555,1.3623419,0.0,2,0,0,0
140252941,34.03586162280052,108.7604733867457,426.98706,396.13925,-0.0,0.8930905,1.3623118,0.0,2,0,0,0
140446521,34.03586067573922,108.76047375498923,426.91486,396.07245,-0.0,0.8927331,1.3625703,0.0,2,0,0,0
140645096,34.03585979862928,108.7604743310528,426.82175,395.98636,-0.0,0.8926598,1.3624061,0.0,2,0,0,0
140843700,34.03585891225642,108.76047484299016,426.7307,395.90222,-0.0,0.89255357,1.3627908,0.0,2,0,0,0
141042282,34.03585803620969,108.76047532557595,426.68134,395.8606,-0.0,0.89244646,1.3626276,0.0,2,0,0,0
141240859,34.035857273854546,108.76047586794066,426.67108,395.8566,-0.0,0.89236355,1.3624642,0.0,2,0,0,0
141449375,34.03585657153555,108.76047639407687,426.70166,395.89276,-0.0,0.89256227,1.3624299,0.0,2,0,0,0
141652927,34.035855873230204,108.7604768598541,426.76624,395.9616,-0.0,0.8924944,1.3628156,0.0,2,0,0,0
141851515,34.03585527609432,108.76047728853784,426.83984,396.03964,-0.0,0.8924116,1.3626528,0.0,2,0,0,0
142050102,34.035854706129335,108.76047779608555,426.88998,396.0931,-0.0,0.89236766,1.362491,0.0,2,0,0,0
142243775,34.03585420594379,108.76047838585033,426.90393,396.10873,-0.0,0.8920423,1.3627439,0.0,2,0,0,0
142442315,34.035853698725674,108.76047905621797,426.88235,396.08868,-0.0,0.89195937,1.3625764,0.0,2,0,0,0
142640901,34.0358532771019,108.76047968899542,426.84686,396.0548,-0.0,0.8919019,1.3624113,0.0,2,0,0,0
142844452,34.035852948756975,108.76048024034168,426.80634,396.01456,-0.0,0.8918448,1.3627957,0.0,2,0,0,0
143048013,34.035852665284665,108.76048073857349,426.7732,395.98056,-0.0,0.8917897,1.3626319,0.0,2,0,0,0
143246677,34.03585247478248,108.76048116460598,426.76126,395.96664,-0.0,0.8917207,1.3624707,0.0,2,0,0,0
143445182,34.03585238280798,108.76048149206828,426.78064,395.9829,-0.0,0.8916795,1.362312,0.0,2,0,0,0
143643767,34.035852366032884,108.7604817429017,426.83536,396.03284,-0.0,0.89161754,1.3627005,0.0,2,0,0,0
143842354,34.035852503670675,108.76048192575817,426.90182,396.09326,-0.0,0.89158493,1.3625402,0.0,2,0,0,0
144041094,34.03585264820396,108.76048207454367,426.94647,396.1309,-0.0,0.8915244,1.3623807,0.0,2,0,0,0
144249459,34.03585292179792,108.76048222995239,426.96237,396.1382,-0.0,0.89175993,1.362896,0.0,2,0,0,0
144453011,34.03585335762668,108.76048233348814,426.9816,396.14835,-0.0,0.89171624,1.3627284,0.0,2,0,0,0
144646650,34.03585381366213,108.76048251497713,427.01135,396.16864,-0.0,0.8914024,1.3624334,0.0,2,0,0,0
144845359,34.035854187294625,108.76048304119156,427.0475,396.19528,-0.0,0.891377,1.3622713,0.0,2,0,0,0
145043809,34.03585446068495,108.76048396379679,427.08798,396.2256,-0.0,0.89135224,1.3626568,0.0,2,0,0,0
145242406,34.03585470940967,108.76048512729984,427.12427,396.25137,-0.0,0.891325,1.3624958,0.0,2,0,0,0
145445950,34.03585487504486,108.76048649361438,427.14725,396.2631,-0.0,0.8912923,1.3623328,0.0,2,0,0,0
145644633,34.035855097182974,108.76048796425285,427.1505,396.25507,-0.0,0.8912552,1.3627203,0.0,2,0,0,0
145853053,34.03585527331675,108.76048963675048,427.12872,396.22174,-0.0,0.89149785,1.3626913,0.0,2,0,0,0
146046676,34.035855420152465,108.76049117275745,427.09448,396.17535,-0.0,0.89115685,1.3624011,0.0,2,0,0,0
146245263,34.03585560623441,108.76049261381687,427.06915,396.13815,-0.0,0.89113253,1.3622435,0.0,2,0,0,0
146443907,34.03585588851114,108.76049393490312,427.0662,396.12253,-0.0,0.89108396,1.3626328,0.0,2,0,0,0
146642438,34.03585598350858,108.76049501993604,427.09647,396.14096,-0.0,0.8910413,1.3624759,0.0,2,0,0,0
146845998,34.03585575448147,108.76049587462919,427.16733,396.2004,-0.0,0.8909926,1.3623198,0.0,2,0,0,0
147044607,34.0358554243187,108.76049659490187,427.27075,396.29156,-0.0,0.8909375,1.3621658,0.0,2,0,0,0
147243246,34.035855105511295,108.760497293668,427.38867,396.3972,-0.0,0.8908787,1.3625556,0.0,2,0,0,0
147446740,34.03585480948345,108.76049804109793,427.49957,396.49594,-0.0,0.89080244,1.3624004,0.0,2,0,0,0
147645313,34.03585455362849,108.76049881516762,427.57996,396.56543,-0.0,0.89076155,1.3622488,0.0,2,0,0,0
147843893,34.03585442364367,108.76049958594561,427.62387,396.59808,-0.0,0.890681,1.3626395,0.0,2,0,0,0
148042567,34.03585440460551,108.76050027419532,427.62558,396.58792,-0.0,0.8905952,1.3624852,0.0,2,0,0,0
148241068,34.035854440354285,108.76050082363571,427.59778,396.5482,-0.0,0.89050573,1.362324,0.0,2,0,0,0
