timestamp,q[0],q[1],q[2],q[3],delta_q_reset[0],delta_q_reset[1],delta_q_reset[2],delta_q_reset[3],quat_reset_counter
17938370,0.65317744,0.0028701562,-0.016693847,-0.75701547,0.9985212,-3.3877856e-10,-1.3409094e-09,0.054363254,2
17943333,0.6531421,0.0028943147,-0.0166596,-0.75704664,0.9985212,-3.3877856e-10,-1.3409094e-09,0.054363254,2
17992981,0.65336984,0.0026848144,-0.016739124,-0.7568491,0.9985212,-3.3877856e-10,-1.3409094e-09,0.054363254,2
18042626,0.6532161,0.0024502391,-0.016764965,-0.75698197,0.9985212,-3.3877856e-10,-1.3409094e-09,0.054363254,2
18092343,0.653059,0.0024354875,-0.016991237,-0.7571126,0.9985212,-3.3877856e-10,-1.3409094e-09,0.054363254,2
18136954,0.6531255,0.0024461367,-0.017170345,-0.75705105,0.9985212,-3.3877856e-10,-1.3409094e-09,0.054363254,2
18191564,0.6533121,0.0018980169,-0.017109757,-0.75689304,0.9985212,-3.3877856e-10,-1.3409094e-09,0.054363254,2
18241211,0.65331924,0.0015586871,-0.01675218,-0.7568956,0.9985212,-3.3877856e-10,-1.3409094e-09,0.054363254,2
18290860,0.6533535,0.0016939751,-0.017053992,-0.75685906,0.9985212,-3.3877856e-10,-1.3409094e-09,0.054363254,2
18340503,0.6537497,0.0016027075,-0.017084429,-0.7565164,0.9985212,-3.3877856e-10,-1.3409094e-09,0.054363254,2
18390309,0.65432143,0.0013426107,-0.017084455,-0.75602233,0.9985212,-3.3877856e-10,-1.3409094e-09,0.054363254,2
18439796,0.65449417,0.0010546321,-0.017184032,-0.755871,0.9985212,-3.3877856e-10,-1.3409094e-09,0.054363254,2
18489442,0.65447325,0.0011713204,-0.017204467,-0.7558886,0.9985212,-3.3877856e-10,-1.3409094e-09,0.054363254,2
18544129,0.6548882,0.0010407114,-0.017320558,-0.7555266,0.9985212,-3.3877856e-10,-1.3409094e-09,0.054363254,2
18588740,0.6552176,0.0011598421,-0.017229833,-0.75524294,0.9985212,-3.3877856e-10,-1.3409094e-09,0.054363254,2
18638495,0.65577567,0.00089076016,-0.017199088,-0.75475943,0.9985212,-3.3877856e-10,-1.3409094e-09,0.054363254,2
18692991,0.6560992,0.000804963,-0.017273502,-0.7544766,0.9985212,-3.3877856e-10,-1.3409094e-09,0.054363254,2
18742639,0.6563858,0.00068153924,-0.017163578,-0.75422984,0.9985212,-3.3877856e-10,-1.3409094e-09,0.054363254,2
18792284,0.65668255,0.0005153778,-0.01713099,-0.7539724,0.9985212,-3.3877856e-10,-1.3409094e-09,0.054363254,2
18836966,0.65670776,0.00043427426,-0.01738489,-0.75394475,0.9985212,-3.3877856e-10,-1.3409094e-09,0.054363254,2
18891577,0.6570084,0.0004648411,-0.017394006,-0.7536825,0.9985212,-3.3877856e-10,-1.3409094e-09,0.054363254,2
18941223,0.6573137,0.00030917418,-0.017421657,-0.75341576,0.9985212,-3.3877856e-10,-1.3409094e-09,0.054363254,2
18990871,0.6577152,0.00016957638,-0.017513713,-0.753063,0.9985212,-3.3877856e-10,-1.3409094e-09,0.054363254,2
19040516,0.65811235,0.0001380826,-0.01743507,-0.75271785,0.9985212,-3.3877856e-10,-1.3409094e-09,0.054363254,2
19090163,0.65848196,2.8645847e-05,-0.017428007,-0.75239474,0.9985212,-3.3877856e-10,-1.3409094e-09,0.054363254,2
19139808,0.6587678,3.7934922e-05,-0.017340373,-0.7521465,0.9985212,-3.3877856e-10,-1.3409094e-09,0.054363254,2
19189581,0.65896344,-7.372741e-06,-0.017227227,-0.75197774,0.9985212,-3.3877856e-10,-1.3409094e-09,0.054363254,2
19244077,0.65922004,1.4676826e-06,-0.017429331,-0.7517482,0.9985212,-3.3877856e-10,-1.3409094e-09,0.054363254,2
19288747,0.6592249,-5.014948e-05,-0.017314523,-0.7517465,0.9985212,-3.3877856e-10,-1.3409094e-09,0.054363254,2
19338393,0.65932244,-0.00014354529,-0.017476307,-0.7516571,0.9985212,-3.3877856e-10,-1.3409094e-09,0.054363254,2
19393004,0.6596665,-9.155767e-05,-0.017487217,-0.75135505,0.9985212,-3.3877856e-10,-1.3409094e-09,0.054363254,2
19442692,0.6598057,-0.00014177094,-0.01771537,-0.7512273,0.9985212,-3.3877856e-10,-1.3409094e-09,0.054363254,2
19492297,0.6600244,-0.0001911681,-0.017819367,-0.7510328,0.9985212,-3.3877856e-10,-1.3409094e-09,0.054363254,2
19536986,0.660323,-0.00047854433,-0.017458767,-0.75077856,0.9985212,-3.3877856e-10,-1.3409094e-09,0.054363254,2
19591592,0.66051275,-0.00032770928,-0.017558195,-0.7506095,0.9985212,-3.3877856e-10,-1.3409094e-09,0.054363254,2
19641236,0.6607726,-0.00033973015,-0.017476715,-0.7503826,0.9985212,-3.3877856e-10,-1.3409094e-09,0.054363254,2
19690886,0.66090584,-0.0002356036,-0.017305905,-0.7502693,0.9985212,-3.3877856e-10,-1.3409094e-09,0.054363254,2
19740715,0.6610256,-0.0002455801,-0.017337767,-0.75016296,0.9985212,-3.3877856e-10,-1.3409094e-09,0.054363254,2
19790174,0.66121376,-0.00024177643,-0.017434549,-0.74999493,0.9985212,-3.3877856e-10,-1.3409094e-09,0.054363254,2
19839821,0.66139364,-0.00039191745,-0.017639969,-0.74983144,0.9985212,-3.3877856e-10,-1.3409094e-09,0.054363254,2
19889467,0.6617034,-0.00052145065,-0.017839931,-0.74955326,0.9985212,-3.3877856e-10,-1.3409094e-09,0.054363254,2
19944118,0.66178024,-0.00038108262,-0.017774817,-0.74948716,0.9985212,-3.3877856e-10,-1.3409094e-09,0.054363254,2
19988883,0.6621412,-0.0008035626,-0.017814644,-0.74916697,0.9985212,-3.3877856e-10,-1.3409094e-09,0.054363254,2
20038406,0.6623457,-0.0008628779,-0.017593909,-0.7489913,0.9985212,-3.3877856e-10,-1.3409094e-09,0.054363254,2
20093036,0.6624513,-0.00072544935,-0.017755874,-0.7488942,0.9985212,-3.3877856e-10,-1.3409094e-09,0.054363254,2
20142663,0.6625821,-0.0006764733,-0.017527787,-0.7487839,0.9985212,-3.3877856e-10,-1.3409094e-09,0.054363254,2
20192309,0.66268456,-0.00062120863,-0.017481389,-0.74869436,0.9985212,-3.3877856e-10,-1.3409094e-09,0.054363254,2
20236991,0.66303694,-0.00049634464,-0.017653996,-0.74837834,0.9985212,-3.3877856e-10,-1.3409094e-09,0.054363254,2
20291602,0.6630868,-0.00045249946,-0.017559486,-0.74833643,0.9985212,-3.3877856e-10,-1.3409094e-09,0.054363254,2
20341251,0.66335434,-0.0005358831,-0.017705401,-0.7480958,0.9985212,-3.3877856e-10,-1.3409094e-09,0.054363254,2
20390896,0.66368306,-0.00064926216,-0.017740337,-0.74780333,0.9985212,-3.3877856e-10,-1.3409094e-09,0.054363254,2
20440541,0.6639123,-0.0008787757,-0.01779749,-0.7475982,0.9985212,-3.3877856e-10,-1.3409094e-09,0.054363254,2
20490192,0.6640518,-0.00096541725,-0.017782219,-0.74747455,0.9985212,-3.3877856e-10,-1.3409094e-09,0.054363254,2
20540002,0.6641852,-0.0010196613,-0.01782515,-0.74735487,0.9985212,-3.3877856e-10,-1.3409094e-09,0.054363254,2
20589480,0.6641252,-0.00087520666,-0.017709753,-0.7474111,0.9985212,-3.3877856e-10,-1.3409094e-09,0.054363254,2
20644093,0.66436815,-0.0009171729,-0.017777666,-0.74719346,0.9985212,-3.3877856e-10,-1.3409094e-09,0.054363254,2
20688772,0.6643119,-0.0006373245,-0.017625937,-0.74724746,0.9985212,-3.3877856e-10,-1.3409094e-09,0.054363254,2
20738418,0.6644761,-0.0005519725,-0.017645255,-0.74710107,0.9985212,-3.3877856e-10,-1.3409094e-09,0.054363254,2
20793140,0.66460264,-0.0006422926,-0.017847896,-0.7469836,0.9985212,-3.3877856e-10,-1.3409094e-09,0.054363254,2
20842683,0.66472906,-0.0005608252,-0.017842816,-0.7468712,0.9985212,-3.3877856e-10,-1.3409094e-09,0.054363254,2
20892322,0.6650953,-0.00057658495,-0.017850483,-0.7465449,0.9985212,-3.3877856e-10,-1.3409094e-09,0.054363254,2
20937005,0.665371,-0.0007775202,-0.017578805,-0.7463055,0.9985212,-3.3877856e-10,-1.3409094e-09,0.054363254,2
20991632,0.6654333,-0.0007002997,-0.017749751,-0.74624604,0.9985212,-3.3877856e-10,-1.3409094e-09,0.054363254,2
21041261,0.6654153,-0.0006564738,-0.017647276,-0.7462645,0.9985212,-3.3877856e-10,-1.3409094e-09,0.054363254,2
21090916,0.66527796,-0.0007207067,-0.017650856,-0.74638677,0.9985212,-3.3877856e-10,-1.3409094e-09,0.054363254,2
21140553,0.665029,-0.0006608191,-0.017725492,-0.74660695,0.9985212,-3.3877856e-10,-1.3409094e-09,0.054363254,2
21190200,0.66478664,-0.00055122055,-0.017711109,-0.7468232,0.9985212,-3.3877856e-10,-1.3409094e-09,0.054363254,2
21239846,0.66462755,-0.000453401,-0.017855618,-0.7469613,0.9985212,-3.3877856e-10,-1.3409094e-09,0.054363254,2
21289492,0.6644649,-0.0004296933,-0.017872365,-0.74710566,0.9985212,-3.3877856e-10,-1.3409094e-09,0.054363254,2
21339240,0.66439414,-0.00048503827,-0.017910639,-0.7471676,0.9985212,-3.3877856e-10,-1.3409094e-09,0.054363254,2
21388785,0.6644211,-0.00052216166,-0.017825807,-0.74714565,0.9985212,-3.3877856e-10,-1.3409094e-09,0.054363254,2
21438442,0.66433656,-0.0005641715,-0.017728088,-0.7472231,0.9985212,-3.3877856e-10,-1.3409094e-09,0.054363254,2
21493043,0.6641284,-0.00082227855,-0.017955417,-0.7474025,0.9985212,-3.3877856e-10,-1.3409094e-09,0.054363254,2
21542689,0.66400725,-0.0007459783,-0.017801315,-0.7475139,0.9985212,-3.3877856e-10,-1.3409094e-09,0.054363254,2
21592365,0.6638843,-0.00079173926,-0.017736413,-0.7476246,0.9985212,-3.3877856e-10,-1.3409094e-09,0.054363254,2
21637018,0.6634269,-0.0005489092,-0.017617427,-0.7480335,0.9985212,-3.3877856e-10,-1.3409094e-09,0.054363254,2
21691628,0.663416,-0.0007514817,-0.017668739,-0.7480418,0.9985212,-3.3877856e-10,-1.3409094e-09,0.054363254,2
21741274,0.6631604,-0.0006181769,-0.017719116,-0.7482673,0.9985212,-3.3877856e-10,-1.3409094e-09,0.054363254,2
21790921,0.6630027,-0.00071859825,-0.017913992,-0.7484023,0.9985212,-3.3877856e-10,-1.3409094e-09,0.054363254,2
21840619,0.66281265,-0.0006169867,-0.017958898,-0.74856967,0.9985212,-3.3877856e-10,-1.3409094e-09,0.054363254,2
21890442,0.66271335,-0.0007504938,-0.018004628,-0.7486564,0.9985212,-3.3877856e-10,-1.3409094e-09,0.054363254,2
21939859,0.66262144,-0.0008280578,-0.017803336,-0.74874246,0.9985212,-3.3877856e-10,-1.3409094e-09,0.054363254,2
21989506,0.66247416,-0.0008393057,-0.017673498,-0.74887586,0.9985212,-3.3877856e-10,-1.3409094e-09,0.054363254,2
22044117,0.6624281,-0.0010663327,-0.017824223,-0.7489127,0.9985212,-3.3877856e-10,-1.3409094e-09,0.054363254,2
22088798,0.66214967,-0.0007021113,-0.01744756,-0.74916816,0.9985212,-3.3877856e-10,-1.3409094e-09,0.054363254,2
22138513,0.6619199,-0.000576718,-0.017481053,-0.7493705,0.9985212,-3.3877856e-10,-1.3409094e-09,0.054363254,2
22193056,0.66186047,-0.0007519411,-0.017450545,-0.74942356,0.9985212,-3.3877856e-10,-1.3409094e-09,0.054363254,2
22242706,0.66176367,-0.0006517821,-0.01743645,-0.74950945,0.9985212,-3.3877856e-10,-1.3409094e-09,0.054363254,2
22292348,0.6616786,-0.00065606216,-0.017643847,-0.74957967,0.9985212,-3.3877856e-10,-1.3409094e-09,0.054363254,2
22337031,0.66166395,-0.00079403067,-0.017912466,-0.74958616,0.9985212,-3.3877856e-10,-1.3409094e-09,0.054363254,2
22391663,0.66169804,-0.0008011327,-0.0178441,-0.7495576,0.9985212,-3.3877856e-10,-1.3409094e-09,0.054363254,2
22441287,0.6615442,-0.00096450566,-0.017903676,-0.74969184,0.9985212,-3.3877856e-10,-1.3409094e-09,0.054363254,2
22490935,0.66140825,-0.0009223203,-0.017789595,-0.7498145,0.9985212,-3.3877856e-10,-1.3409094e-09,0.054363254,2
22540580,0.6611834,-0.00093180005,-0.01770087,-0.7500149,0.9985212,-3.3877856e-10,-1.3409094e-09,0.054363254,2
22590226,0.6608673,-0.00078221504,-0.017581612,-0.7502965,0.9985212,-3.3877856e-10,-1.3409094e-09,0.054363254,2
22639910,0.66067684,-0.00063480693,-0.017521437,-0.7504657,0.9985212,-3.3877856e-10,-1.3409094e-09,0.054363254,2
22689640,0.66054225,-0.00061997614,-0.017612385,-0.7505821,0.9985212,-3.3877856e-10,-1.3409094e-09,0.054363254,2
22744130,0.66054565,-0.00075905555,-0.017565992,-0.75057995,0.9985212,-3.3877856e-10,-1.3409094e-09,0.054363254,2
22788870,0.6605015,-0.00058213057,-0.01767399,-0.75061655,0.9985212,-3.3877856e-10,-1.3409094e-09,0.054363254,2
22838461,0.6605311,-0.00058526197,-0.017645225,-0.7505911,0.9985212,-3.3877856e-10,-1.3409094e-09,0.054363254,2
22893070,0.6603698,-0.0004578201,-0.017517526,-0.750736,0.9985212,-3.3877856e-10,-1.3409094e-09,0.054363254,2
22942769,0.66045904,-0.00059003645,-0.017609337,-0.75065535,0.9985212,-3.3877856e-10,-1.3409094e-09,0.054363254,2
22992362,0.66043085,-0.00070911,-0.01753702,-0.75068176,0.9985212,-3.3877856e-10,-1.3409094e-09,0.054363254,2
23037043,0.6600994,-0.00079147116,-0.017480375,-0.75097454,0.9985212,-3.3877856e-10,-1.3409094e-09,0.054363254,2
23091654,0.6601876,-0.0007448479,-0.017458146,-0.7508975,0.9985212,-3.3877856e-10,-1.3409094e-09,0.054363254,2
23141300,0.65991753,-0.0007009288,-0.017396975,-0.75113624,0.9985212,-3.3877856e-10,-1.3409094e-09,0.054363254,2
23190999,0.65972805,-0.0006570157,-0.017342577,-0.75130403,0.9985212,-3.3877856e-10,-1.3409094e-09,0.054363254,2
23240784,0.6595011,-0.00040618714,-0.017188687,-0.751507,0.9985212,-3.3877856e-10,-1.3409094e-09,0.054363254,2
23290240,0.65945816,-0.0003041025,-0.017152704,-0.75154555,0.9985212,-3.3877856e-10,-1.3409094e-09,0.054363254,2
23339886,0.6595725,-0.00020083088,-0.017449116,-0.75143844,0.9985212,-3.3877856e-10,-1.3409094e-09,0.054363254,2
23389532,0.65937465,-0.00086953724,-0.017795853,-0.7516035,0.9985212,-3.3877856e-10,-1.3409094e-09,0.054363254,2
23444174,0.65936464,-0.00096777664,-0.01650351,-0.75164163,0.9985212,-3.3877856e-10,-1.3409094e-09,0.054363254,2
23488972,0.65895927,-0.0005816541,-0.01737743,-0.7519777,0.9985212,-3.3877856e-10,-1.3409094e-09,0.054363254,2
23538472,0.6587793,-0.0006052466,-0.017792765,-0.7521257,0.9985212,-3.3877856e-10,-1.3409094e-09,0.054363254,2
23593083,0.6586514,-0.00033575422,-0.017486565,-0.752245,0.9985212,-3.3877856e-10,-1.3409094e-09,0.054363254,2
23642728,0.65860397,-0.00044445266,-0.017333515,-0.75229,0.9985212,-3.3877856e-10,-1.3409094e-09,0.054363254,2
23692375,0.6587564,-0.00022557999,-0.017341228,-0.7521565,0.9985212,-3.3877856e-10,-1.3409094e-09,0.054363254,2
23737058,0.65863836,-0.00019529907,-0.017749276,-0.7522504,0.9985212,-3.3877856e-10,-1.3409094e-09,0.054363254,2
23791668,0.65848833,-0.0005625937,-0.01689351,-0.7524012,0.9985212,-3.3877856e-10,-1.3409094e-09,0.054363254,2
23841340,0.65861136,-0.0005141868,-0.017381433,-0.7522824,0.9985212,-3.3877856e-10,-1.3409094e-09,0.054363254,2
23890960,0.65831625,-0.00056853483,-0.017042488,-0.75254834,0.9985212,-3.3877856e-10,-1.3409094e-09,0.054363254,2
23940607,0.6582675,-0.00022265823,-0.018032363,-0.752568,0.9985212,-3.3877856e-10,-1.3409094e-09,0.054363254,2
23990258,0.65824497,-2.9706862e-06,-0.01785843,-0.75259197,0.9985212,-3.3877856e-10,-1.3409094e-09,0.054363254,2
24040049,0.6579261,-0.0005608273,-0.017601749,-0.7528767,0.9985212,-3.3877856e-10,-1.3409094e-09,0.054363254,2
24089546,0.65744096,-0.0005959308,-0.017115066,-0.7533115,0.9985212,-3.3877856e-10,-1.3409094e-09,0.054363254,2
24144156,0.65757036,-0.0005217509,-0.016599052,-0.7532102,0.9985212,-3.3877856e-10,-1.3409094e-09,0.054363254,2
24188838,0.65768546,-0.0008314499,-0.016355988,-0.7531146,0.9985212,-3.3877856e-10,-1.3409094e-09,0.054363254,2
24238486,0.6575707,-0.0008559452,-0.017428646,-0.75319076,0.9985212,-3.3877856e-10,-1.3409094e-09,0.054363254,2
24293237,0.6571899,-0.0005291337,-0.017075846,-0.7535315,0.9985212,-3.3877856e-10,-1.3409094e-09,0.054363254,2
24342757,0.65728235,-0.00023067696,-0.017293008,-0.7534459,0.9985212,-3.3877856e-10,-1.3409094e-09,0.054363254,2
24392388,0.6572452,-0.0008913242,-0.016796453,-0.7534891,0.9985212,-3.3877856e-10,-1.3409094e-09,0.054363254,2
24437070,0.6568184,-0.0008135294,-0.017056039,-0.75385547,0.9985212,-3.3877856e-10,-1.3409094e-09,0.054363254,2
24491681,0.65714544,-0.0007618772,-0.016069442,-0.7535922,0.9985212,-3.3877856e-10,-1.3409094e-09,0.054363254,2
24541358,0.65726525,-0.00096506695,-0.017077785,-0.75346535,0.9985212,-3.3877856e-10,-1.3409094e-09,0.054363254,2
24590974,0.6571472,-0.0007355979,-0.016886428,-0.75357276,0.9985212,-3.3877856e-10,-1.3409094e-09,0.054363254,2
24640619,0.6569468,-0.0003706157,-0.01736995,-0.75373673,0.9985212,-3.3877856e-10,-1.3409094e-09,0.054363254,2
24690267,0.6570071,-0.0007829183,-0.016903237,-0.7536944,0.9985212,-3.3877856e-10,-1.3409094e-09,0.054363254,2
24739913,0.6565971,-0.00063125225,-0.01690065,-0.75405204,0.9985212,-3.3877856e-10,-1.3409094e-09,0.054363254,2
24789574,0.65683407,-0.00071208546,-0.016149502,-0.75386184,0.9985212,-3.3877856e-10,-1.3409094e-09,0.054363254,2
24839313,0.6568256,-0.0007344541,-0.017335359,-0.7538429,0.9985212,-3.3877856e-10,-1.3409094e-09,0.054363254,2
24888852,0.6568083,-0.00075277226,-0.017131494,-0.75386256,0.9985212,-3.3877856e-10,-1.3409094e-09,0.054363254,2
24938500,0.65638936,-0.00017585514,-0.017283905,-0.7542244,0.9985212,-3.3877856e-10,-1.3409094e-09,0.054363254,2
24993114,0.6565508,-0.0011625546,-0.016634455,-0.75409746,0.9985212,-3.3877856e-10,-1.3409094e-09,0.054363254,2
25042756,0.65655774,-0.00095125544,-0.016654825,-0.75409144,0.9985212,-3.3877856e-10,-1.3409094e-09,0.054363254,2
25092480,0.656309,-0.00012651281,-0.016673451,-0.7543079,0.9985212,-3.3877856e-10,-1.3409094e-09,0.054363254,2
25137083,0.656292,-0.0006453361,-0.016630048,-0.75432354,0.9985212,-3.3877856e-10,-1.3409094e-09,0.054363254,2
25191695,0.6561193,-0.0004891071,-0.016075747,-0.7544859,0.9985212,-3.3877856e-10,-1.3409094e-09,0.054363254,2
25241380,0.6561643,-0.000566988,-0.01606557,-0.75444686,0.9985212,-3.3877856e-10,-1.3409094e-09,0.054363254,2
25290989,0.65619206,-0.00021952171,-0.017060835,-0.75440097,0.9985212,-3.3877856e-10,-1.3409094e-09,0.054363254,2
25340634,0.6559366,-0.000286431,-0.016855467,-0.7546277,0.9985212,-3.3877856e-10,-1.3409094e-09,0.054363254,2
25390480,0.6563032,-0.0005845574,-0.015920801,-0.7543291,0.9985212,-3.3877856e-10,-1.3409094e-09,0.054363254,2
25439927,0.6560886,-0.0004649831,-0.015745211,-0.7545196,0.9985212,-3.3877856e-10,-1.3409094e-09,0.054363254,2
25489573,0.65606236,-0.00037948287,-0.017010998,-0.7545149,0.9985212,-3.3877856e-10,-1.3409094e-09,0.054363254,2
25544184,0.6559484,-0.00015917097,-0.016312405,-0.75462943,0.9985212,-3.3877856e-10,-1.3409094e-09,0.054363254,2
25588866,0.65581644,-0.00065502076,-0.015906565,-0.75475264,0.9985212,-3.3877856e-10,-1.3409094e-09,0.054363254,2
25638581,0.6559136,-0.0005138006,-0.015799709,-0.75467056,0.9985212,-3.3877856e-10,-1.3409094e-09,0.054363254,2
25693123,0.655918,-0.00036783906,-0.016734416,-0.75464654,0.9985212,-3.3877856e-10,-1.3409094e-09,0.054363254,2
25742769,0.6559827,-0.00048006137,-0.016080134,-0.7546046,0.9985212,-3.3877856e-10,-1.3409094e-09,0.054363254,2
25792416,0.65572584,-0.00010474963,-0.016637312,-0.75481576,0.9985212,-3.3877856e-10,-1.3409094e-09,0.054363254,2
25837098,0.65580916,-0.0005937525,-0.015716203,-0.7547629,0.9985212,-3.3877856e-10,-1.3409094e-09,0.054363254,2
25891771,0.65593255,-0.0005441904,-0.016183639,-0.7546459,0.9985212,-3.3877856e-10,-1.3409094e-09,0.054363254,2
25941355,0.65594184,-0.0006663571,-0.015797496,-0.75464594,0.9985212,-3.3877856e-10,-1.3409094e-09,0.054363254,2
25991003,0.655936,-0.0007728383,-0.016468462,-0.7546364,0.9985212,-3.3877856e-10,-1.3409094e-09,0.054363254,2
26040649,0.65567124,-0.00036777582,-0.016778912,-0.75486004,0.9985212,-3.3877856e-10,-1.3409094e-09,0.054363254,2
26090294,0.6554071,-0.000550149,-0.01668579,-0.75509125,0.9985212,-3.3877856e-10,-1.3409094e-09,0.054363254,2
26139951,0.65577996,-0.00047400602,-0.015822772,-0.75478613,0.9985212,-3.3877856e-10,-1.3409094e-09,0.054363254,2
26189744,0.6559218,-0.0008874957,-0.015586667,-0.7546674,0.9985212,-3.3877856e-10,-1.3409094e-09,0.054363254,2
26239233,0.6557518,-0.00033742742,-0.016085763,-0.75480515,0.9985212,-3.3877856e-10,-1.3409094e-09,0.054363254,2
26288880,0.65577966,-0.000424217,-0.016120933,-0.7547801,0.9985212,-3.3877856e-10,-1.3409094e-09,0.054363254,2
26338528,0.6561344,-0.0006703395,-0.015598691,-0.75448257,0.9985212,-3.3877856e-10,-1.3409094e-09,0.054363254,2
26393137,0.655827,-0.000817188,-0.015901227,-0.7547433,0.9985212,-3.3877856e-10,-1.3409094e-09,0.054363254,2
26442839,0.65590584,-0.00089077576,-0.016226234,-0.7546677,0.9985212,-3.3877856e-10,-1.3409094e-09,0.054363254,2
26492474,0.65600795,-0.0005656792,-0.01571307,-0.7545902,0.9985212,-3.3877856e-10,-1.3409094e-09,0.054363254,2
26537111,0.65601224,-0.00012806822,-0.01577987,-0.7545853,0.9985212,-3.3877856e-10,-1.3409094e-09,0.054363254,2
26591723,0.6559393,-0.00066374487,-0.015816089,-0.7546477,0.9985212,-3.3877856e-10,-1.3409094e-09,0.054363254,2
26641372,0.65590453,-0.000166862,-0.015763456,-0.7546792,0.9985212,-3.3877856e-10,-1.3409094e-09,0.054363254,2
26691011,0.65600926,1.5178479e-05,-0.015386345,-0.75459605,0.9985212,-3.3877856e-10,-1.3409094e-09,0.054363254,2
26740865,0.6563319,-0.00079316704,-0.015718231,-0.7543083,0.9985212,-3.3877856e-10,-1.3409094e-09,0.054363254,2
26790332,0.6560943,-0.00034193246,-0.015712371,-0.75451523,0.9985212,-3.3877856e-10,-1.3409094e-09,0.054363254,2
26839955,0.65623885,-0.0005607119,-0.014624013,-0.7544113,0.9985212,-3.3877856e-10,-1.3409094e-09,0.054363254,2
26889601,0.6564562,-0.00067211944,-0.01529109,-0.75420886,0.9985212,-3.3877856e-10,-1.3409094e-09,0.054363254,2
26944212,0.65672225,-0.00044819768,-0.014796929,-0.75398725,0.9985212,-3.3877856e-10,-1.3409094e-09,0.054363254,2
26989005,0.65639514,-0.00065805874,-0.014508499,-0.7542775,0.9985212,-3.3877856e-10,-1.3409094e-09,0.054363254,2
27038540,0.65582985,0.000469595,-0.014179761,-0.75477546,0.9985212,-3.3877856e-10,-1.3409094e-09,0.054363254,2
27093151,0.65622103,-7.492145e-05,-0.012863046,-0.7544591,0.9985212,-3.3877856e-10,-1.3409094e-09,0.054363254,2
27142798,0.6559544,0.0006686928,-0.013269497,-0.7546836,0.9985212,-3.3877856e-10,-1.3409094e-09,0.054363254,2
27192444,0.6564049,-0.0004654723,-0.013825878,-0.7542819,0.9985212,-3.3877856e-10,-1.3409094e-09,0.054363254,2
27237195,0.6557548,-8.481216e-05,-0.013694965,-0.75484973,0.9985212,-3.3877856e-10,-1.3409094e-09,0.054363254,2
27291738,0.6552926,1.8103701e-05,-0.012623872,-0.75526977,0.9985212,-3.3877856e-10,-1.3409094e-09,0.054363254,2
27341383,0.65476376,9.6543314e-05,-0.012787696,-0.7557255,0.9985212,-3.3877856e-10,-1.3409094e-09,0.054363254,2
27391030,0.6551258,0.00018176853,-0.01225155,-0.75542045,0.9985212,-3.3877856e-10,-1.3409094e-09,0.054363254,2
27440677,0.6551745,0.00021178885,-0.01226522,-0.75537807,0.9985212,-3.3877856e-10,-1.3409094e-09,0.054363254,2
27490327,0.65497047,0.0001690168,-0.012035743,-0.7555586,0.9985212,-3.3877856e-10,-1.3409094e-09,0.054363254,2
27540121,0.6551511,0.00010277368,-0.011954002,-0.75540334,0.9985212,-3.3877856e-10,-1.3409094e-09,0.054363254,2
27589615,0.6547071,0.00023774634,-0.0115986485,-0.75579375,0.9985212,-3.3877856e-10,-1.3409094e-09,0.054363254,2
27639262,0.65468705,0.0001750277,-0.012265903,-0.75580055,0.9985212,-3.3877856e-10,-1.3409094e-09,0.054363254,2
27688919,0.6552613,0.00019036431,-0.011215859,-0.7553191,0.9985212,-3.3877856e-10,-1.3409094e-09,0.054363254,2
27738554,0.6553548,0.0003647419,-0.011581445,-0.75523233,0.9985212,-3.3877856e-10,-1.3409094e-09,0.054363254,2
27793261,0.65595394,0.000103700535,-0.011110402,-0.75471914,0.9985212,-3.3877856e-10,-1.3409094e-09,0.054363254,2
27842812,0.65650237,0.00065452553,-0.009339484,-0.75426584,0.9985212,-3.3877856e-10,-1.3409094e-09,0.054363254,2
27892462,0.6569778,0.001444815,-0.00947908,-0.75384897,0.9985212,-3.3877856e-10,-1.3409094e-09,0.054363254,2
27937140,0.657967,0.0022490993,-0.009179135,-0.7529875,0.9985212,-3.3877856e-10,-1.3409094e-09,0.054363254,2
27991751,0.65833867,0.0018441525,-0.008863956,-0.7526675,0.9985212,-3.3877856e-10,-1.3409094e-09,0.054363254,2
28041439,0.65850866,0.0015430392,-0.009468046,-0.75251204,0.9985212,-3.3877856e-10,-1.3409094e-09,0.054363254,2
28091044,0.6594292,0.0017155925,-0.010506655,-0.75169134,0.9985212,-3.3877856e-10,-1.3409094e-09,0.054363254,2
28140713,0.6591449,0.0009356582,-0.010096095,-0.7519477,0.9985212,-3.3877856e-10,-1.3409094e-09,0.054363254,2
28190339,0.659874,0.0014313677,-0.01018288,-0.751306,0.9985212,-3.3877856e-10,-1.3409094e-09,0.054363254,2
28239983,0.6603537,0.0017361195,-0.008787483,-0.7509014,0.9985212,-3.3877856e-10,-1.3409094e-09,0.054363254,2
28289630,0.6607261,0.0027728844,-0.008910732,-0.7505692,0.9985212,-3.3877856e-10,-1.3409094e-09,0.054363254,2
28339396,0.66151214,0.0042275162,-0.0070951,-0.749889,0.9985212,-3.3877856e-10,-1.3409094e-09,0.054363254,2
28388922,0.66208357,0.0050440026,-0.005193033,-0.74939513,0.9985212,-3.3877856e-10,-1.3409094e-09,0.054363254,2
28438569,0.6633723,0.0064460444,-0.0036733109,-0.7482528,0.9985212,-3.3877856e-10,-1.3409094e-09,0.054363254,2
28493180,0.66558033,0.0070990208,-0.0030136902,-0.7462864,0.9985212,-3.3877856e-10,-1.3409094e-09,0.054363254,2
28542826,0.6678505,0.007192494,-0.0028557114,-0.74425524,0.9985212,-3.3877856e-10,-1.3409094e-09,0.054363254,2
28592566,0.67092174,0.007370643,-0.0027198747,-0.74148667,0.9985212,-3.3877856e-10,-1.3409094e-09,0.054363254,2
28637154,0.67317015,0.0070277597,-0.0024070942,-0.73945034,0.9985212,-3.3877856e-10,-1.3409094e-09,0.054363254,2
28691765,0.6765208,0.0076980544,-0.002203674,-0.73638,0.9985212,-3.3877856e-10,-1.3409094e-09,0.054363254,2
28741412,0.6789543,0.007323036,-0.0026659425,-0.73413926,0.9985212,-3.3877856e-10,-1.3409094e-09,0.054363254,2
28791058,0.6819961,0.007628994,-0.0026446832,-0.73131126,0.9985212,-3.3877856e-10,-1.3409094e-09,0.054363254,2
28840706,0.6846326,0.0070481934,-0.0027319333,-0.72884923,0.9985212,-3.3877856e-10,-1.3409094e-09,0.054363254,2
28890543,0.6869877,0.0088309655,-0.0030202768,-0.7266092,0.9985212,-3.3877856e-10,-1.3409094e-09,0.054363254,2
28939997,0.68872684,0.008275993,-0.002652414,-0.7249689,0.9985212,-3.3877856e-10,-1.3409094e-09,0.054363254,2
28989644,0.6902629,0.009663038,-0.002701962,-0.72348905,0.9985212,-3.3877856e-10,-1.3409094e-09,0.054363254,2
29039290,0.69106305,0.007625357,-0.0011378721,-0.7227534,0.9985212,-3.3877856e-10,-1.3409094e-09,0.054363254,2
29088937,0.6937549,0.00924942,-0.0008089767,-0.7201514,0.9985212,-3.3877856e-10,-1.3409094e-09,0.054363254,2
29138662,0.6962146,0.008046324,-0.00083335367,-0.7177882,0.9985212,-3.3877856e-10,-1.3409094e-09,0.054363254,2
29193199,0.69836974,0.008356311,-0.0011403861,-0.7156876,0.9985212,-3.3877856e-10,-1.3409094e-09,0.054363254,2
29242841,0.6996255,0.008679175,-0.0031767958,-0.71445,0.9985212,-3.3877856e-10,-1.3409094e-09,0.054363254,2
29292487,0.70033693,0.0067133266,-0.0039848993,-0.7137698,0.9985212,-3.3877856e-10,-1.3409094e-09,0.054363254,2
29337169,0.70149034,0.008110388,-0.0043605478,-0.71261954,0.9985212,-3.3877856e-10,-1.3409094e-09,0.054363254,2
29391793,0.70247793,0.006413387,-0.0036046687,-0.71166754,0.9985212,-3.3877856e-10,-1.3409094e-09,0.054363254,2
29441426,0.7036817,0.002931878,-0.0069809263,-0.7104751,0.9985212,-3.3877856e-10,-1.3409094e-09,0.054363254,2
29491073,0.7043718,-0.0002985346,-0.011778142,-0.70973355,0.9985212,-3.3877856e-10,-1.3409094e-09,0.054363254,2
29540730,0.7060373,-0.00020897633,-0.016799774,-0.70797545,0.9985212,-3.3877856e-10,-1.3409094e-09,0.054363254,2
29590368,0.70618105,-0.0030726865,-0.019089043,-0.7077673,0.9985212,-3.3877856e-10,-1.3409094e-09,0.054363254,2
29640012,0.7052841,-0.0067912554,-0.020408105,-0.7085985,0.9985212,-3.3877856e-10,-1.3409094e-09,0.054363254,2
29689803,0.7032592,-0.009127193,-0.023072306,-0.7105005,0.9985212,-3.3877856e-10,-1.3409094e-09,0.054363254,2
29739305,0.70085406,-0.011745144,-0.0264115,-0.71271884,0.9985212,-3.3877856e-10,-1.3409094e-09,0.054363254,2
29788951,0.6979945,-0.013830727,-0.028120492,-0.7154172,0.9985212,-3.3877856e-10,-1.3409094e-09,0.054363254,2
29838598,0.6946391,-0.015795458,-0.026757244,-0.7186871,0.9985212,-3.3877856e-10,-1.3409094e-09,0.054363254,2
29893274,0.68920934,-0.014196213,-0.027398605,-0.72390497,0.9985212,-3.3877856e-10,-1.3409094e-09,0.054363254,2
29942921,0.6840487,-0.013728795,-0.02614725,-0.7288384,0.9985212,-3.3877856e-10,-1.3409094e-09,0.054363254,2
29992502,0.6786578,-0.014111031,-0.023045102,-0.73395735,0.9985212,-3.3877856e-10,-1.3409094e-09,0.054363254,2
30037183,0.67382294,-0.012724805,-0.021929298,-0.7384578,0.9985212,-3.3877856e-10,-1.3409094e-09,0.054363254,2
30091795,0.667718,-0.010437779,-0.021313202,-0.74403596,0.9985212,-3.3877856e-10,-1.3409094e-09,0.054363254,2
30141467,0.6620433,-0.008435937,-0.021042287,-0.74912274,0.9985212,-3.3877856e-10,-1.3409094e-09,0.054363254,2
30191088,0.6567058,-0.006295794,-0.020604558,-0.75383914,0.9985212,-3.3877856e-10,-1.3409094e-09,0.054363254,2
30240734,0.6519426,-0.003099381,-0.018250616,-0.75804245,0.9985212,-3.3877856e-10,-1.3409094e-09,0.054363254,2
30290385,0.6478993,-0.0021876195,-0.018246425,-0.76150435,0.9985212,-3.3877856e-10,-1.3409094e-09,0.054363254,2
30340027,0.64496994,-0.0033079751,-0.018621674,-0.76397383,0.9985212,-3.3877856e-10,-1.3409094e-09,0.054363254,2
30389677,0.6429689,-0.0040457197,-0.017838044,-0.7656739,0.9985212,-3.3877856e-10,-1.3409094e-09,0.054363254,2
30439320,0.6420933,-0.003380531,-0.019279167,-0.7663767,0.9985212,-3.3877856e-10,-1.3409094e-09,0.054363254,2
30489072,0.6411719,-0.0058347154,-0.017075712,-0.7671852,0.9985212,-3.3877856e-10,-1.3409094e-09,0.054363254,2
30538612,0.6401152,-0.0045231264,-0.015460242,-0.76811016,0.9985212,-3.3877856e-10,-1.3409094e-09,0.054363254,2
30593220,0.63935095,-0.0026277446,-0.014163073,-0.7687802,0.9985212,-3.3877856e-10,-1.3409094e-09,0.054363254,2
30642919,0.6391038,-0.0010381554,-0.013213768,-0.7690063,0.9985212,-3.3877856e-10,-1.3409094e-09,0.054363254,2
30692516,0.63985956,-0.0014522666,-0.01160715,-0.76840293,0.9985212,-3.3877856e-10,-1.3409094e-09,0.054363254,2
30737273,0.6410884,-0.0026204626,-0.010021668,-0.76739717,0.9985212,-3.3877856e-10,-1.3409094e-09,0.054363254,2
30791809,0.6429095,-0.0032501805,-0.007786094,-0.7658957,0.9985212,-3.3877856e-10,-1.3409094e-09,0.054363254,2
30841456,0.6447209,-0.0028841964,-0.006824937,-0.76438224,0.9985212,-3.3877856e-10,-1.3409094e-09,0.054363254,2
30891102,0.6466723,-0.004104236,-0.006512993,-0.7627291,0.9985212,-3.3877856e-10,-1.3409094e-09,0.054363254,2
30940748,0.648832,-0.004776523,-0.004935315,-0.76090074,0.9985212,-3.3877856e-10,-1.3409094e-09,0.054363254,2
30990397,0.6511068,-0.005919919,-0.0054903035,-0.75894326,0.9985212,-3.3877856e-10,-1.3409094e-09,0.054363254,2
31040237,0.65325725,-0.00567168,-0.0061306735,-0.7570901,0.9985212,-3.3877856e-10,-1.3409094e-09,0.054363254,2
31089688,0.65576243,-0.0031055468,-0.008427827,-0.75491387,0.9985212,-3.3877856e-10,-1.3409094e-09,0.054363254,2
31139337,0.6574831,-0.003402877,-0.012161446,-0.75336355,0.9985212,-3.3877856e-10,-1.3409094e-09,0.054363254,2
31188981,0.6596616,-0.002552058,-0.0124715455,-0.75145495,0.9985212,-3.3877856e-10,-1.3409094e-09,0.054363254,2
31238627,0.66178894,-0.0011105874,-0.0111047495,-0.74960715,0.9985212,-3.3877856e-10,-1.3409094e-09,0.054363254,2
31293325,0.66383904,-0.0033846395,-0.008417451,-0.7478205,0.9985212,-3.3877856e-10,-1.3409094e-09,0.054363254,2
31342886,0.6654318,-0.006359369,-0.009848385,-0.7463666,0.9985212,-3.3877856e-10,-1.3409094e-09,0.054363254,2
31392531,0.66681445,-0.005594533,-0.010735135,-0.7451255,0.9985212,-3.3877856e-10,-1.3409094e-09,0.054363254,2
31437211,0.66771585,-0.0026805308,-0.0098861335,-0.74434584,0.9985212,-3.3877856e-10,-1.3409094e-09,0.054363254,2
31491847,0.66900903,-0.0042800945,-0.010037387,-0.74317425,0.9985212,-3.3877856e-10,-1.3409094e-09,0.054363254,2
31541474,0.66961896,-0.004437687,-0.012346387,-0.742589,0.9985212,-3.3877856e-10,-1.3409094e-09,0.054363254,2
31591117,0.67014295,-0.004845249,-0.015602824,-0.7420522,0.9985212,-3.3877856e-10,-1.3409094e-09,0.054363254,2
31640764,0.6703503,-0.008158938,-0.017955964,-0.7417827,0.9985212,-3.3877856e-10,-1.3409094e-09,0.054363254,2
31690412,0.67060214,-0.010269159,-0.021666665,-0.7414297,0.9985212,-3.3877856e-10,-1.3409094e-09,0.054363254,2
31740056,0.67064166,-0.011469641,-0.024727007,-0.7412805,0.9985212,-3.3877856e-10,-1.3409094e-09,0.054363254,2
31789703,0.6704187,-0.013994457,-0.027648512,-0.7413357,0.9985212,-3.3877856e-10,-1.3409094e-09,0.054363254,2
31839474,0.6699563,-0.014965156,-0.03159846,-0.74157685,0.9985212,-3.3877856e-10,-1.3409094e-09,0.054363254,2
31888996,0.6691382,-0.014458833,-0.03272099,-0.74227655,0.9985212,-3.3877856e-10,-1.3409094e-09,0.054363254,2
31938670,0.66841483,-0.01399468,-0.030149339,-0.7430457,0.9985212,-3.3877856e-10,-1.3409094e-09,0.054363254,2
31993253,0.66780686,-0.011554365,-0.025987348,-0.7437911,0.9985212,-3.3877856e-10,-1.3409094e-09,0.054363254,2
32042903,0.667545,-0.0080487,-0.01911187,-0.74428064,0.9985212,-3.3877856e-10,-1.3409094e-09,0.054363254,2
32092595,0.6670559,-0.005085211,-0.010184929,-0.74492073,0.9985212,-3.3877856e-10,-1.3409094e-09,0.054363254,2
32137235,0.6666166,-0.00030968653,-0.0083463155,-0.745354,0.9985212,-3.3877856e-10,-1.3409094e-09,0.054363254,2
32191839,0.6660554,0.0030191876,-0.01054117,-0.7458218,0.9985212,-3.3877856e-10,-1.3409094e-09,0.054363254,2
32241486,0.665858,0.0027755497,-0.011282358,-0.7459881,0.9985212,-3.3877856e-10,-1.3409094e-09,0.054363254,2
32291132,0.66551644,0.001247644,-0.012742037,-0.74627346,0.9985212,-3.3877856e-10,-1.3409094e-09,0.054363254,2
32340785,0.66512555,-0.0020101673,-0.018146472,-0.7465084,0.9985212,-3.3877856e-10,-1.3409094e-09,0.054363254,2
32390619,0.6648525,-0.005634116,-0.02599848,-0.7465009,0.9985212,-3.3877856e-10,-1.3409094e-09,0.054363254,2
32440071,0.6642929,-0.006668103,-0.034294065,-0.7466556,0.9985212,-3.3877856e-10,-1.3409094e-09,0.054363254,2
32489758,0.66389877,-0.005998615,-0.038660172,-0.7467985,0.9985212,-3.3877856e-10,-1.3409094e-09,0.054363254,2
32539364,0.6633672,-0.0037248675,-0.042046197,-0.7471026,0.9985212,-3.3877856e-10,-1.3409094e-09,0.054363254,2
32589011,0.6632065,-0.002504583,-0.043666508,-0.74715745,0.9985212,-3.3877856e-10,-1.3409094e-09,0.054363254,2
32638750,0.66320825,-0.0025538974,-0.044529796,-0.7471047,0.9985212,-3.3877856e-10,-1.3409094e-09,0.054363254,2
32693268,0.6634073,-0.00448804,-0.044264164,-0.74693465,0.9985212,-3.3877856e-10,-1.3409094e-09,0.054363254,2
32742916,0.66388535,-0.004918393,-0.041857343,-0.74664587,0.9985212,-3.3877856e-10,-1.3409094e-09,0.054363254,2
32792561,0.66453314,-0.0063496027,-0.03789275,-0.7462705,0.9985212,-3.3877856e-10,-1.3409094e-09,0.054363254,2
32837286,0.66547424,-0.007285606,-0.034393907,-0.7455924,0.9985212,-3.3877856e-10,-1.3409094e-09,0.054363254,2
32891922,0.666135,-0.008738276,-0.029436631,-0.7451989,0.9985212,-3.3877856e-10,-1.3409094e-09,0.054363254,2
32941501,0.6669593,-0.011376878,-0.024261847,-0.7446122,0.9985212,-3.3877856e-10,-1.3409094e-09,0.054363254,2
32991148,0.66774285,-0.01229681,-0.02133102,-0.7439848,0.9985212,-3.3877856e-10,-1.3409094e-09,0.054363254,2
33040794,0.6681855,-0.01086297,-0.021832949,-0.74359506,0.9985212,-3.3877856e-10,-1.3409094e-09,0.054363254,2
33090440,0.66861814,-0.012054678,-0.02295518,-0.7431538,0.9985212,-3.3877856e-10,-1.3409094e-09,0.054363254,2
33140086,0.66931945,-0.013461421,-0.024394523,-0.7424522,0.9985212,-3.3877856e-10,-1.3409094e-09,0.054363254,2
33189881,0.669768,-0.013490443,-0.025261747,-0.742018,0.9985212,-3.3877856e-10,-1.3409094e-09,0.054363254,2
33239379,0.6709145,-0.013186209,-0.021233575,-0.7411134,0.9985212,-3.3877856e-10,-1.3409094e-09,0.054363254,2
33289026,0.6738279,-0.010718003,-0.017986508,-0.73859173,0.9999943,-1.2837457e-09,-1.3396545e-09,0.0034078606,3
33338672,0.6742843,-0.0075633894,-0.01767768,-0.7382216,0.9999943,-1.2837457e-09,-1.3396545e-09,0.0034078606,3
33393283,0.6746851,-0.006363755,-0.017722921,-0.73786545,0.9999943,-1.2837457e-09,-1.3396545e-09,0.0034078606,3
33443001,0.67513525,-0.005017713,-0.01645926,-0.73749334,0.9999943,-1.2837457e-09,-1.3396545e-09,0.0034078606,3
33492605,0.6752952,-0.002385837,-0.014942887,-0.73739237,0.9999943,-1.2837457e-09,-1.3396545e-09,0.0034078606,3
33537258,0.67589784,-0.0007495166,-0.010856663,-0.73691505,0.9999943,-1.2837457e-09,-1.3396545e-09,0.0034078606,3
33591889,0.67661846,0.0027728574,-0.008664319,-0.73627764,0.9999943,-1.2837457e-09,-1.3396545e-09,0.0034078606,3
33641516,0.67681205,0.0028081937,-0.010350962,-0.73607785,0.9999943,-1.2837457e-09,-1.3396545e-09,0.0034078606,3
33691247,0.67763704,-9.168983e-05,-0.011664926,-0.735304,0.9999943,-1.2837457e-09,-1.3396545e-09,0.0034078606,3
33740808,0.67793155,-0.004094189,-0.0086028315,-0.7350633,0.9999943,-1.2837457e-09,-1.3396545e-09,0.0034078606,3
33790458,0.6779637,-0.0028385487,-0.004636382,-0.73507535,0.9999943,-1.2837457e-09,-1.3396545e-09,0.0034078606,3
33840101,0.67793894,0.0021710333,-0.006277148,-0.7350883,0.9999943,-1.2837457e-09,-1.3396545e-09,0.0034078606,3
33889748,0.6769035,0.0049336823,-0.010443783,-0.7359812,0.9999943,-1.2837457e-09,-1.3396545e-09,0.0034078606,3
33939394,0.6758605,0.004761732,-0.010781222,-0.7369353,0.9999943,-1.2837457e-09,-1.3396545e-09,0.0034078606,3
33989228,0.6743081,0.0047941874,-0.011414942,-0.7383464,0.9999943,-1.2837457e-09,-1.3396545e-09,0.0034078606,3
34038694,0.67247486,0.0063044913,-0.011448376,-0.7400046,0.9999943,-1.2837457e-09,-1.3396545e-09,0.0034078606,3
34093299,0.67042327,0.0055019567,-0.01203421,-0.7418609,0.9999943,-1.2837457e-09,-1.3396545e-09,0.0034078606,3
34142945,0.6679111,0.0036556635,-0.011006361,-0.74415076,0.9999943,-1.2837457e-09,-1.3396545e-09,0.0034078606,3
34192598,0.66615856,0.003741157,-0.009761943,-0.7457369,0.9999943,-1.2837457e-09,-1.3396545e-09,0.0034078606,3
34237305,0.663994,0.0034382537,-0.011052462,-0.7476483,0.9999943,-1.2837457e-09,-1.3396545e-09,0.0034078606,3
34291885,0.66233027,0.0017092403,-0.010928058,-0.74913037,0.9999943,-1.2837457e-09,-1.3396545e-09,0.0034078606,3
34341550,0.66071534,0.0016934552,-0.008321652,-0.7505886,0.9999943,-1.2837457e-09,-1.3396545e-09,0.0034078606,3
34391181,0.6598096,0.00095957145,-0.009636597,-0.7513704,0.9999943,-1.2837457e-09,-1.3396545e-09,0.0034078606,3
34440824,0.6594104,-0.0031115783,-0.011353328,-0.75169104,0.9999943,-1.2837457e-09,-1.3396545e-09,0.0034078606,3
34490471,0.65973413,-0.004647047,-0.008035256,-0.7514419,0.9999943,-1.2837457e-09,-1.3396545e-09,0.0034078606,3
34540290,0.65959567,-0.002484663,-0.0017092535,-0.7516147,0.9999943,-1.2837457e-09,-1.3396545e-09,0.0034078606,3
34589763,0.66006285,0.0010904919,-0.0004557399,-0.75120956,0.9999943,-1.2837457e-09,-1.3396545e-09,0.0034078606,3
34639414,0.66085535,0.002552038,-0.0033155268,-0.7505017,0.9999943,-1.2837457e-09,-1.3396545e-09,0.0034078606,3
34689057,0.66177666,0.0015791709,-0.0056488835,-0.7496782,0.9999943,-1.2837457e-09,-1.3396545e-09,0.0034078606,3
34738703,0.66249967,-0.00091735116,-0.0056642042,-0.7490403,0.9999943,-1.2837457e-09,-1.3396545e-09,0.0034078606,3
34793424,0.66305774,-0.0011073581,-0.0032763018,-0.7485603,0.9999943,-1.2837457e-09,-1.3396545e-09,0.0034078606,3
34842960,0.6634129,0.0016503389,-0.00171003,-0.74824977,0.9999943,-1.2837457e-09,-1.3396545e-09,0.0034078606,3
34892607,0.6642474,0.0026719908,-0.0001263361,-0.74750805,0.9999943,-1.2837457e-09,-1.3396545e-09,0.0034078606,3
34937288,0.6648448,0.0031248997,-0.0013176796,-0.7469738,0.9999943,-1.2837457e-09,-1.3396545e-09,0.0034078606,3
34991899,0.6656795,0.0023943202,-0.0034816843,-0.74622583,0.9999943,-1.2837457e-09,-1.3396545e-09,0.0034078606,3
35041555,0.66676086,0.0021234627,-0.002818198,-0.74526346,0.9999943,-1.2837457e-09,-1.3396545e-09,0.0034078606,3
35091196,0.66764164,0.004130672,-0.003490944,-0.7444632,0.9999943,-1.2837457e-09,-1.3396545e-09,0.0034078606,3
35140839,0.6681622,0.0061259144,-0.007839268,-0.7439491,0.9999943,-1.2837457e-09,-1.3396545e-09,0.0034078606,3
35190487,0.66887915,0.0045491625,-0.011012404,-0.7432757,0.9999943,-1.2837457e-09,-1.3396545e-09,0.0034078606,3
35240133,0.66937166,0.0026691954,-0.010162766,-0.7428534,0.9999943,-1.2837457e-09,-1.3396545e-09,0.0034078606,3
35289778,0.66921514,0.0023762144,-0.009339644,-0.7430062,0.9999943,-1.2837457e-09,-1.3396545e-09,0.0034078606,3
35339558,0.669362,0.0011358912,-0.011605474,-0.74284494,0.9999943,-1.2837457e-09,-1.3396545e-09,0.0034078606,3
35389073,0.66927713,-0.00084562495,-0.015338126,-0.7428541,0.9999943,-1.2837457e-09,-1.3396545e-09,0.0034078606,3
35438760,0.6689553,-0.0023488938,-0.017222386,-0.74309945,0.9999943,-1.2837457e-09,-1.3396545e-09,0.0034078606,3
35493329,0.6686809,-0.0037434136,-0.01716077,-0.7433421,0.9999943,-1.2837457e-09,-1.3396545e-09,0.0034078606,3
35542979,0.66866916,-0.0054813223,-0.01703228,-0.7433447,0.9999943,-1.2837457e-09,-1.3396545e-09,0.0034078606,3
35587704,0.6684601,-0.0063217487,-0.018694352,-0.7434862,0.9999943,-1.2837457e-09,-1.3396545e-09,0.0034078606,3
35637304,0.6681388,-0.008070505,-0.020777242,-0.74370277,0.9999943,-1.2837457e-09,-1.3396545e-09,0.0034078606,3
35691915,0.66780585,-0.009943171,-0.021310687,-0.743964,0.9999943,-1.2837457e-09,-1.3396545e-09,0.0034078606,3
35741562,0.6675138,-0.011966929,-0.02353868,-0.7441291,0.9999943,-1.2837457e-09,-1.3396545e-09,0.0034078606,3
35791211,0.66710746,-0.014897364,-0.025441311,-0.7443779,0.9999943,-1.2837457e-09,-1.3396545e-09,0.0034078606,3
35840871,0.6668933,-0.016573725,-0.026000597,-0.7445151,0.9999943,-1.2837457e-09,-1.3396545e-09,0.0034078606,3
35890504,0.6664026,-0.0162012,-0.02829967,-0.7448787,0.9999943,-1.2837457e-09,-1.3396545e-09,0.0034078606,3
35940148,0.6662826,-0.016080406,-0.02788292,-0.7450044,0.9999943,-1.2837457e-09,-1.3396545e-09,0.0034078606,3
35989794,0.6653848,-0.015247577,-0.026678316,-0.74586785,0.9999943,-1.2837457e-09,-1.3396545e-09,0.0034078606,3
36039440,0.6654943,-0.014604612,-0.026688982,-0.7457827,0.9999943,-1.2837457e-09,-1.3396545e-09,0.0034078606,3
36089087,0.66456205,-0.01508496,-0.03126611,-0.7464263,0.9999943,-1.2837457e-09,-1.3396545e-09,0.0034078606,3
36138841,0.6641256,-0.016204035,-0.037494432,-0.7465044,0.9999943,-1.2837457e-09,-1.3396545e-09,0.0034078606,3
36193350,0.66336673,-0.01829955,-0.043668065,-0.7467951,0.9999943,-1.2837457e-09,-1.3396545e-09,0.0034078606,3
36242991,0.6631837,-0.020855365,-0.045294438,-0.74679375,0.9999943,-1.2837457e-09,-1.3396545e-09,0.0034078606,3
36292637,0.662049,-0.020856312,-0.049187616,-0.7475539,0.9999943,-1.2837457e-09,-1.3396545e-09,0.0034078606,3
36337319,0.6618877,-0.020393455,-0.052151646,-0.7475085,0.9999943,-1.2837457e-09,-1.3396545e-09,0.0034078606,3
36391959,0.66151553,-0.020662356,-0.05487173,-0.7476359,0.9999943,-1.2837457e-09,-1.3396545e-09,0.0034078606,3
36441577,0.6615084,-0.023391902,-0.05422899,-0.7476087,0.9999943,-1.2837457e-09,-1.3396545e-09,0.0034078606,3
36491223,0.6609991,-0.02638052,-0.050507624,-0.7482201,0.9999943,-1.2837457e-09,-1.3396545e-09,0.0034078606,3
36540878,0.66070116,-0.027778111,-0.04706041,-0.7486573,0.9999943,-1.2837457e-09,-1.3396545e-09,0.0034078606,3
36590518,0.660475,-0.027314821,-0.044851776,-0.7490094,0.9999943,-1.2837457e-09,-1.3396545e-09,0.0034078606,3
36640158,0.6606439,-0.02731914,-0.042763166,-0.7489825,0.9999943,-1.2837457e-09,-1.3396545e-09,0.0034078606,3
36689964,0.66039747,-0.027213043,-0.04255591,-0.7492154,0.9999943,-1.2837457e-09,-1.3396545e-09,0.0034078606,3
36739475,0.66055465,-0.02679787,-0.042700652,-0.7490835,0.9999943,-1.2837457e-09,-1.3396545e-09,0.0034078606,3
36789102,0.6604877,-0.027369015,-0.043734573,-0.7490623,0.9999943,-1.2837457e-09,-1.3396545e-09,0.0034078606,3
36838751,0.66071516,-0.028885659,-0.043131158,-0.7488397,0.9999943,-1.2837457e-09,-1.3396545e-09,0.0034078606,3
36893360,0.66094965,-0.030112777,-0.04217455,-0.74863887,0.9999943,-1.2837457e-09,-1.3396545e-09,0.0034078606,3
36943135,0.66117376,-0.030901756,-0.042417463,-0.748395,0.9999943,-1.2837457e-09,-1.3396545e-09,0.0034078606,3
36992653,0.66155636,-0.030647766,-0.045152172,-0.7479072,0.9999943,-1.2837457e-09,-1.3396545e-09,0.0034078606,3
37037380,0.6620901,-0.030503584,-0.0470664,-0.7473226,0.9999943,-1.2837457e-09,-1.3396545e-09,0.0034078606,3
37091946,0.66253614,-0.0301621,-0.045331668,-0.7470484,0.9999943,-1.2837457e-09,-1.3396545e-09,0.0034078606,3
37141592,0.6629428,-0.026520588,-0.03840882,-0.74721366,0.9999943,-1.2837457e-09,-1.3396545e-09,0.0034078606,3
37191283,0.66389024,-0.019856857,-0.029526746,-0.74698305,0.9999943,-1.2837457e-09,-1.3396545e-09,0.0034078606,3
37240885,0.6643891,-0.011181746,-0.022360452,-0.7469686,0.9999943,-1.2837457e-09,-1.3396545e-09,0.0034078606,3
37290533,0.6655902,-0.004544686,-0.016224474,-0.7461272,0.9999943,-1.2837457e-09,-1.3396545e-09,0.0034078606,3
37340179,0.66621846,-0.0026025136,-0.011443423,-0.7456643,0.9999943,-1.2837457e-09,-1.3396545e-09,0.0034078606,3
37389825,0.66723794,-0.0013879637,-0.009064504,-0.7447882,0.9999943,-1.2837457e-09,-1.3396545e-09,0.0034078606,3
37439520,0.6681747,0.0013610357,-0.009542092,-0.743942,0.9999943,-1.2837457e-09,-1.3396545e-09,0.0034078606,3
37489237,0.6691472,0.0039389003,-0.010651791,-0.7430431,0.9999943,-1.2837457e-09,-1.3396545e-09,0.0034078606,3
37538765,0.66982067,0.003884529,-0.009582461,-0.74245095,0.9999943,-1.2837457e-09,-1.3396545e-09,0.0034078606,3
37593375,0.6709177,0.003063305,-0.00782486,-0.7414842,0.9999943,-1.2837457e-09,-1.3396545e-09,0.0034078606,3
37643025,0.6722668,0.003914405,-0.0073274984,-0.7402624,0.9999943,-1.2837457e-09,-1.3396545e-09,0.0034078606,3
37687703,0.6731563,0.0036390696,-0.0067140204,-0.7394608,0.9999943,-1.2837457e-09,-1.3396545e-09,0.0034078606,3
37737382,0.67433983,0.003385795,-0.006065625,-0.7383885,0.9999943,-1.2837457e-09,-1.3396545e-09,0.0034078606,3
37791964,0.6753036,0.0036328027,-0.00775384,-0.7374902,0.9999943,-1.2837457e-09,-1.3396545e-09,0.0034078606,3
37841611,0.6755245,0.0050772033,-0.011643661,-0.73722816,0.9999943,-1.2837457e-09,-1.3396545e-09,0.0034078606,3
37891255,0.67540616,0.0067411587,-0.015629806,-0.7372495,0.9999943,-1.2837457e-09,-1.3396545e-09,0.0034078606,3
37940904,0.6749956,0.0104627,-0.019720625,-0.73748404,0.9999943,-1.2837457e-09,-1.3396545e-09,0.0034078606,3
37990550,0.67424196,0.015948065,-0.02581057,-0.7378871,0.9999943,-1.2837457e-09,-1.3396545e-09,0.0034078606,3
38040396,0.6725757,0.02259612,-0.03404618,-0.7388994,0.9999943,-1.2837457e-09,-1.3396545e-09,0.0034078606,3
38089840,0.6712856,0.028267583,-0.04108881,-0.739519,0.9999943,-1.2837457e-09,-1.3396545e-09,0.0034078606,3
38139487,0.67030203,0.027743997,-0.0436453,-0.7402842,0.9999943,-1.2837457e-09,-1.3396545e-09,0.0034078606,3
38189137,0.6693418,0.01810884,-0.03502353,-0.74190766,0.9999943,-1.2837457e-09,-1.3396545e-09,0.0034078606,3
38238780,0.6683193,0.0056298594,-0.023150722,-0.74349296,0.9999943,-1.2837457e-09,-1.3396545e-09,0.0034078606,3
38293509,0.66727316,0.00060708896,-0.01640328,-0.74463224,0.9999943,-1.2837457e-09,-1.3396545e-09,0.0034078606,3
38343038,0.6661961,0.0009945409,-0.014526565,-0.7456345,0.9999943,-1.2837457e-09,-1.3396545e-09,0.0034078606,3
38387720,0.66611964,0.0015618417,-0.014396202,-0.7457044,0.9999943,-1.2837457e-09,-1.3396545e-09,0.0034078606,3
38437368,0.66572845,0.0017869943,-0.014793177,-0.74604535,0.9999943,-1.2837457e-09,-1.3396545e-09,0.0034078606,3
38491978,0.66531926,0.0016977155,-0.014437563,-0.74641746,0.9999943,-1.2837457e-09,-1.3396545e-09,0.0034078606,3
38541639,0.665377,0.00029249175,-0.012030368,-0.7464105,0.9999943,-1.2837457e-09,-1.3396545e-09,0.0034078606,3
38591270,0.6646483,-0.00066948665,-0.011321643,-0.7470703,0.9999943,-1.2837457e-09,-1.3396545e-09,0.0034078606,3
38640917,0.66402185,0.00013768203,-0.011054804,-0.7476315,0.9999943,-1.2837457e-09,-1.3396545e-09,0.0034078606,3
38690563,0.66381013,0.0006676779,-0.009933112,-0.74783486,0.9999943,-1.2837457e-09,-1.3396545e-09,0.0034078606,3
38740210,0.6634876,0.00038009885,-0.009245368,-0.7481301,0.9999943,-1.2837457e-09,-1.3396545e-09,0.0034078606,3
38789857,0.6632871,0.0016134697,-0.010276592,-0.7482928,0.9999943,-1.2837457e-09,-1.3396545e-09,0.0034078606,3
38839644,0.66276526,0.0021659804,-0.011077608,-0.74874216,0.9999943,-1.2837457e-09,-1.3396545e-09,0.0034078606,3
38889149,0.6630619,0.0016177797,-0.010557413,-0.74848837,0.9999943,-1.2837457e-09,-1.3396545e-09,0.0034078606,3
38938805,0.6628512,0.0012874237,-0.009875519,-0.74868494,0.9999943,-1.2837457e-09,-1.3396545e-09,0.0034078606,3
38993413,0.6628792,0.0010066736,-0.008930958,-0.7486724,0.9999943,-1.2837457e-09,-1.3396545e-09,0.0034078606,3
39043070,0.6633357,0.0012794617,-0.009711453,-0.74825794,0.9999943,-1.2837457e-09,-1.3396545e-09,0.0034078606,3
39087781,0.66354793,-0.00058296626,-0.013720115,-0.7480078,0.9999943,-1.2837457e-09,-1.3396545e-09,0.0034078606,3
39137382,0.66391665,-0.005687593,-0.021259578,-0.7474828,0.9999943,-1.2837457e-09,-1.3396545e-09,0.0034078606,3
39191996,0.6640285,-0.009396003,-0.031650357,-0.746978,0.9999943,-1.2837457e-09,-1.3396545e-09,0.0034078606,3
39241639,0.664471,-0.011369672,-0.037865333,-0.74626756,0.9999943,-1.2837457e-09,-1.3396545e-09,0.0034078606,3
39291286,0.66451997,-0.0117083965,-0.041784182,-0.7460096,0.9999943,-1.2837457e-09,-1.3396545e-09,0.0034078606,3
39340934,0.6646897,-0.013146123,-0.044018,-0.7457059,0.9999943,-1.2837457e-09,-1.3396545e-09,0.0034078606,3
39390579,0.66504896,-0.013548698,-0.046757177,-0.74521154,0.9999943,-1.2837457e-09,-1.3396545e-09,0.0034078606,3
39440227,0.66508114,-0.013782248,-0.04911908,-0.74502647,0.9999943,-1.2837457e-09,-1.3396545e-09,0.0034078606,3
39489868,0.6646749,-0.014907206,-0.051415574,-0.74521244,0.9999943,-1.2837457e-09,-1.3396545e-09,0.0034078606,3
39539519,0.6646883,-0.017208599,-0.051299773,-0.74515885,0.9999943,-1.2837457e-09,-1.3396545e-09,0.0034078606,3
39589166,0.6645736,-0.018793924,-0.044735108,-0.7456457,0.9999943,-1.2837457e-09,-1.3396545e-09,0.0034078606,3
39638984,0.6648085,-0.015439371,-0.034562662,-0.7460542,0.9999943,-1.2837457e-09,-1.3396545e-09,0.0034078606,3
39693423,0.66492885,-0.0064228442,-0.0251399,-0.7464559,0.9999943,-1.2837457e-09,-1.3396545e-09,0.0034078606,3
39743069,0.6649664,-0.0025582819,-0.018756572,-0.74663335,0.9999943,-1.2837457e-09,-1.3396545e-09,0.0034078606,3
39787757,0.6651673,-0.0032154087,-0.014033946,-0.7465556,0.9999943,-1.2837457e-09,-1.3396545e-09,0.0034078606,3
39837398,0.66536367,-0.0024378907,-0.01345057,-0.7463942,0.9999943,-1.2837457e-09,-1.3396545e-09,0.0034078606,3
39892102,0.6653537,-0.00037725604,-0.012977484,-0.7464154,0.9999943,-1.2837457e-09,-1.3396545e-09,0.0034078606,3
39941656,0.66526085,0.00095475395,-0.011985204,-0.74651426,0.9999943,-1.2837457e-09,-1.3396545e-09,0.0034078606,3
39991302,0.6658633,0.00062971277,-0.010652318,-0.7459975,0.9999943,-1.2837457e-09,-1.3396545e-09,0.0034078606,3
40040948,0.6658957,0.00061671465,-0.011305545,-0.7459589,0.9999943,-1.2837457e-09,-1.3396545e-09,0.0034078606,3
40090595,0.6667026,0.00067103247,-0.012478696,-0.7452191,0.9999943,-1.2837457e-09,-1.3396545e-09,0.0034078606,3
40140243,0.6667931,-2.33249e-07,-0.01527104,-0.74508643,0.9999943,-1.2837457e-09,-1.3396545e-09,0.0034078606,3
40190100,0.666988,-0.0035343217,-0.017154284,-0.7448626,0.9999943,-1.2837457e-09,-1.3396545e-09,0.0034078606,3
40239564,0.66684294,-0.007119298,-0.021761583,-0.7448465,0.9999943,-1.2837457e-09,-1.3396545e-09,0.0034078606,3
40289181,0.66682285,-0.009710582,-0.02724313,-0.74465483,0.9999943,-1.2837457e-09,-1.3396545e-09,0.0034078606,3
40338829,0.66652745,-0.010456492,-0.031897012,-0.7447244,0.9999943,-1.2837457e-09,-1.3396545e-09,0.0034078606,3
40393439,0.6664972,-0.009275104,-0.040987693,-0.74432224,0.9999943,-1.2837457e-09,-1.3396545e-09,0.0034078606,3
40443174,0.6660163,-0.008370975,-0.05328384,-0.7439846,0.9999943,-1.2837457e-09,-1.3396545e-09,0.0034078606,3
40487767,0.66575223,-0.0077019907,-0.060287993,-0.74369353,0.9999943,-1.2837457e-09,-1.3396545e-09,0.0034078606,3
40537414,0.6660357,-0.009129953,-0.05829389,-0.7435825,0.9999943,-1.2837457e-09,-1.3396545e-09,0.0034078606,3
40592025,0.6658898,-0.01138288,-0.05224442,-0.74413157,0.9999943,-1.2837457e-09,-1.3396545e-09,0.0034078606,3
40641672,0.6656876,-0.011657091,-0.052362345,-0.7442999,0.9999943,-1.2837457e-09,-1.3396545e-09,0.0034078606,3
40691371,0.6654639,-0.009239455,-0.056756735,-0.74421173,0.9999943,-1.2837457e-09,-1.3396545e-09,0.0034078606,3
40740964,0.6653525,-0.0065119066,-0.061223544,-0.74398607,0.9999943,-1.2837457e-09,-1.3396545e-09,0.0034078606,3
40790611,0.6647645,-0.005910151,-0.06297266,-0.74437064,0.9999943,-1.2837457e-09,-1.3396545e-09,0.0034078606,3
40840257,0.6650954,-0.008286978,-0.05895741,-0.74438137,0.9999943,-1.2837457e-09,-1.3396545e-09,0.0034078606,3
40889905,0.6647326,-0.012524093,-0.053165615,-0.7450821,0.9999943,-1.2837457e-09,-1.3396545e-09,0.0034078606,3
40939551,0.66480595,-0.01599961,-0.04692775,-0.74536896,0.9999943,-1.2837457e-09,-1.3396545e-09,0.0034078606,3
40989323,0.66469127,-0.019324942,-0.041344132,-0.745723,0.9999943,-1.2837457e-09,-1.3396545e-09,0.0034078606,3
41038845,0.6648158,-0.022698617,-0.0399023,-0.7455955,0.9999943,-1.2837457e-09,-1.3396545e-09,0.0034078606,3
41093480,0.66497767,-0.024545452,-0.040371906,-0.7453673,0.9999943,-1.2837457e-09,-1.3396545e-09,0.0034078606,3
41143102,0.6646454,-0.028461607,-0.039471228,-0.7455726,0.9999943,-1.2837457e-09,-1.3396545e-09,0.0034078606,3
41187784,0.6648833,-0.030336227,-0.036864202,-0.74542004,0.9999943,-1.2837457e-09,-1.3396545e-09,0.0034078606,3
41237465,0.6647048,-0.029748097,-0.037057705,-0.74559337,0.9999943,-1.2837457e-09,-1.3396545e-09,0.0034078606,3
41292041,0.6650086,-0.030930858,-0.038643766,-0.74519366,0.9999943,-1.2837457e-09,-1.3396545e-09,0.0034078606,3
41341688,0.66468847,-0.03038479,-0.039984025,-0.745431,0.9999943,-1.2837457e-09,-1.3396545e-09,0.0034078606,3
41391334,0.66490304,-0.029646574,-0.039387446,-0.74530107,0.9999943,-1.2837457e-09,-1.3396545e-09,0.0034078606,3
41440983,0.6649958,-0.028969266,-0.03921576,-0.74525404,0.9999943,-1.2837457e-09,-1.3396545e-09,0.0034078606,3
41490680,0.6649302,-0.028853167,-0.03780211,-0.74539006,0.9999943,-1.2837457e-09,-1.3396545e-09,0.0034078606,3
41540477,0.66514176,-0.028417628,-0.03874528,-0.7451696,0.9999943,-1.2837457e-09,-1.3396545e-09,0.0034078606,3
41589920,0.665011,-0.02867774,-0.040355545,-0.74519086,0.9999943,-1.2837457e-09,-1.3396545e-09,0.0034078606,3
41639567,0.66485965,-0.028655326,-0.04014147,-0.7453383,0.9999943,-1.2837457e-09,-1.3396545e-09,0.0034078606,3
41689214,0.6649089,-0.029160522,-0.04006859,-0.7452787,0.9999943,-1.2837457e-09,-1.3396545e-09,0.0034078606,3
41738861,0.6647351,-0.028977644,-0.036980398,-0.74560046,0.9999943,-1.2837457e-09,-1.3396545e-09,0.0034078606,3
41793582,0.66469693,-0.025006086,-0.03516608,-0.745866,0.9999943,-1.2837457e-09,-1.3396545e-09,0.0034078606,3
41843120,0.66467476,-0.019257061,-0.03086953,-0.74624646,0.9999943,-1.2837457e-09,-1.3396545e-09,0.0034078606,3
41887799,0.6643443,-0.012471845,-0.023832377,-0.7469425,0.9999943,-1.2837457e-09,-1.3396545e-09,0.0034078606,3
41937452,0.6649544,-0.0060928394,-0.015983472,-0.746688,0.9999943,-1.2837457e-09,-1.3396545e-09,0.0034078606,3
41992078,0.6653088,-0.0025639222,-0.012227673,-0.74646384,0.9999943,-1.2837457e-09,-1.3396545e-09,0.0034078606,3
42041723,0.6655715,-0.00066269387,-0.012225062,-0.74623364,0.9999943,-1.2837457e-09,-1.3396545e-09,0.0034078606,3
42091350,0.6657389,0.00089040556,-0.0110024065,-0.7461032,0.9999943,-1.2837457e-09,-1.3396545e-09,0.0034078606,3
42140997,0.6657433,0.0018431434,-0.009563211,-0.74611735,0.9999943,-1.2837457e-09,-1.3396545e-09,0.0034078606,3
42190643,0.66659564,0.0015354214,-0.008301895,-0.74537176,0.9999943,-1.2837457e-09,-1.3396545e-09,0.0034078606,3
42240290,0.6662694,0.0021530297,-0.007591158,-0.7456694,0.9999943,-1.2837457e-09,-1.3396545e-09,0.0034078606,3
42289938,0.6664442,0.0030784379,-0.009055711,-0.74549365,0.9999943,-1.2837457e-09,-1.3396545e-09,0.0034078606,3
42339792,0.6665875,0.0025540406,-0.0104248775,-0.74534965,0.9999943,-1.2837457e-09,-1.3396545e-09,0.0034078606,3
42389229,0.6668721,0.0020326022,-0.012042405,-0.7450721,0.9999943,-1.2837457e-09,-1.3396545e-09,0.0034078606,3
42438878,0.66710794,0.0010426367,-0.013171732,-0.74484396,0.9999943,-1.2837457e-09,-1.3396545e-09,0.0034078606,3
42493487,0.6672399,-0.0037195932,-0.016347647,-0.7446542,0.9999943,-1.2837457e-09,-1.3396545e-09,0.0034078606,3
42543134,0.6670822,-0.008327699,-0.020857567,-0.7446456,0.9999943,-1.2837457e-09,-1.3396545e-09,0.0034078606,3
42587866,0.6670927,-0.009033704,-0.021577286,-0.7446075,0.9999943,-1.2837457e-09,-1.3396545e-09,0.0034078606,3
42637462,0.66701704,-0.01000352,-0.022896921,-0.7446234,0.9999943,-1.2837457e-09,-1.3396545e-09,0.0034078606,3
42692073,0.6668526,-0.012197279,-0.02518385,-0.74466413,0.9999943,-1.2837457e-09,-1.3396545e-09,0.0034078606,3
42741726,0.66658956,-0.010496907,-0.025754083,-0.744906,0.9999943,-1.2837457e-09,-1.3396545e-09,0.0034078606,3
42791367,0.6664874,-0.009572815,-0.024261957,-0.7450599,0.9999943,-1.2837457e-09,-1.3396545e-09,0.0034078606,3
42841087,0.6665505,-0.01048573,-0.023993164,-0.7449999,0.9999943,-1.2837457e-09,-1.3396545e-09,0.0034078606,3
42890723,0.6660918,-0.012098257,-0.026078172,-0.74531555,0.9999943,-1.2837457e-09,-1.3396545e-09,0.0034078606,3
42940307,0.6665924,-0.012550398,-0.02615847,-0.74485755,0.9999943,-1.2837457e-09,-1.3396545e-09,0.0034078606,3
42989952,0.66643083,-0.013179246,-0.025869574,-0.7450014,0.9999943,-1.2837457e-09,-1.3396545e-09,0.0034078606,3
43039599,0.66636276,-0.012187988,-0.025090516,-0.7451058,0.9999943,-1.2837457e-09,-1.3396545e-09,0.0034078606,3
43089246,0.6667891,-0.011075036,-0.024203457,-0.744771,0.9999943,-1.2837457e-09,-1.3396545e-09,0.0034078606,3
43139063,0.6668765,-0.012402988,-0.025567833,-0.7446262,0.9999943,-1.2837457e-09,-1.3396545e-09,0.0034078606,3
43193503,0.6672096,-0.014578794,-0.02848253,-0.7441825,0.9999943,-1.2837457e-09,-1.3396545e-09,0.0034078606,3
43243150,0.6675817,-0.014876651,-0.03059928,-0.74375874,0.9999943,-1.2837457e-09,-1.3396545e-09,0.0034078606,3
43287832,0.6676637,-0.013183562,-0.028645838,-0.7437949,0.9999943,-1.2837457e-09,-1.3396545e-09,0.0034078606,3
43337533,0.6680756,-0.011196658,-0.025183538,-0.74358284,0.9999943,-1.2837457e-09,-1.3396545e-09,0.0034078606,3
43392132,0.6684725,-0.009748929,-0.023426179,-0.74330395,0.9999943,-1.2837457e-09,-1.3396545e-09,0.0034078606,3
43441736,0.66918874,-0.009979185,-0.023555242,-0.7426521,0.9999943,-1.2837457e-09,-1.3396545e-09,0.0034078606,3
43491420,0.6696582,-0.013055741,-0.027402373,-0.7420489,0.9999943,-1.2837457e-09,-1.3396545e-09,0.0034078606,3
43541053,0.6700521,-0.015867462,-0.030387681,-0.7415221,0.9999943,-1.2837457e-09,-1.3396545e-09,0.0034078606,3
43590676,0.67034703,-0.018565066,-0.033637546,-0.74105245,0.9999943,-1.2837457e-09,-1.3396545e-09,0.0034078606,3
43640324,0.6707332,-0.02021037,-0.0356153,-0.74056745,0.9999943,-1.2837457e-09,-1.3396545e-09,0.0034078606,3
43690154,0.6710783,-0.021326397,-0.036821466,-0.74016434,0.9999943,-1.2837457e-09,-1.3396545e-09,0.0034078606,3
43739615,0.67203677,-0.022028161,-0.039534748,-0.7391336,0.9999943,-1.2837457e-09,-1.3396545e-09,0.0034078606,3
43789262,0.6719047,-0.022003498,-0.041967995,-0.7391202,0.9999943,-1.2837457e-09,-1.3396545e-09,0.0034078606,3
43838914,0.67271936,-0.02204695,-0.042552255,-0.738344,0.9999943,-1.2837457e-09,-1.3396545e-09,0.0034078606,3
43893519,0.6725254,-0.020565618,-0.041838035,-0.7386043,0.9999943,-1.2837457e-09,-1.3396545e-09,0.0034078606,3
43943284,0.67204636,-0.019655162,-0.040569134,-0.73913574,0.9999943,-1.2837457e-09,-1.3396545e-09,0.0034078606,3
43987849,0.67186457,-0.018942492,-0.039408028,-0.7393824,0.9999943,-1.2837457e-09,-1.3396545e-09,0.0034078606,3
44037494,0.67116475,-0.017660873,-0.03721548,-0.74016285,0.9999943,-1.2837457e-09,-1.3396545e-09,0.0034078606,3
44092106,0.6704741,-0.016336603,-0.03463994,-0.74094385,0.9999943,-1.2837457e-09,-1.3396545e-09,0.0034078606,3
44141753,0.66992474,-0.015574042,-0.03166954,-0.7415897,0.9999943,-1.2837457e-09,-1.3396545e-09,0.0034078606,3
44191462,0.66975063,-0.01664398,-0.031175015,-0.7417448,0.9999943,-1.2837457e-09,-1.3396545e-09,0.0034078606,3
44241047,0.6689243,-0.017764749,-0.030328976,-0.7424992,0.9999943,-1.2837457e-09,-1.3396545e-09,0.0034078606,3
44290702,0.6679789,-0.019114578,-0.028316192,-0.7433956,0.9999943,-1.2837457e-09,-1.3396545e-09,0.0034078606,3
44340340,0.6674676,-0.02148568,-0.028909205,-0.74376726,0.9999943,-1.2837457e-09,-1.3396545e-09,0.0034078606,3
44389985,0.6661242,-0.022653317,-0.032132886,-0.74480397,0.9999943,-1.2837457e-09,-1.3396545e-09,0.0034078606,3
44439633,0.66501963,-0.023945387,-0.034945846,-0.74562347,0.9999943,-1.2837457e-09,-1.3396545e-09,0.0034078606,3
