timestamp,ref_timestamp,ref_lat,ref_lon,x,y,z,delta_xy[0],delta_xy[1],delta_z,vx,vy,vz,z_deriv,delta_vxy[0],delta_vxy[1],delta_vz,ax,ay,az,heading,delta_heading,ref_alt,dist_bottom,eph,epv,evh,evv,vxy_max,vz_max,hagl_min,hagl_max,xy_valid,z_valid,v_xy_valid,v_z_valid,xy_reset_counter,z_reset_counter,vxy_reset_counter,vz_reset_counter,heading_reset_counter,xy_global,z_global,dist_bottom_valid
414813893,65222418,34.0348619,108.756711,-2.41257,1.66462,-1.64202,-0.0511265,-0.0257923,0.0,-0.00243152,0.0203529,-0.00422582,-0.00482131,-0.0714168,-0.0348164,0.0633587,1.88775,-0.524843,0.715671,0.0476644,0.00111277,427.744,0.11793,0.265511,0.390884,0.131503,0.104556,inf,inf,inf,inf,1,1,1,1,2,0,2,1,4,1,1,1
414823919,65222418,34.0348619,108.756711,-2.41312,1.66539,-1.6417,-0.0511265,-0.0257923,0.0,-0.0106169,0.0134347,-0.00670749,-0.00693632,-0.0714168,-0.0348164,0.0633587,-2.01453,-0.448988,-0.245886,0.047059,0.00111277,427.744,0.113495,0.266356,0.389119,0.131963,0.104489,inf,inf,inf,inf,1,1,1,1,2,0,2,1,4,1,1,1
414913968,65222418,34.0348619,108.756711,-2.41861,1.6721,-1.64014,-0.0511265,-0.0257923,0.0,0.00535124,0.0482505,-0.0174712,-0.0155777,-0.0714168,-0.0348164,0.0633587,8.31363,-1.09637,2.02148,0.0490857,0.00111277,427.744,0.10801,0.274194,0.392679,0.136115,0.105963,inf,inf,inf,inf,1,1,1,1,2,0,2,1,4,1,1,1
415014046,65222418,34.0348619,108.756711,-2.42528,1.67866,-1.64172,-0.0511265,-0.0257923,0.0,0.0122158,0.00250384,0.019661,0.0202069,-0.0714168,-0.0348164,0.0633587,-0.0920122,-7.09007,7.52449,0.0476405,0.00111277,427.744,0.10493,0.265619,0.390143,0.131544,0.104468,inf,inf,inf,inf,1,1,1,1,2,0,2,1,4,1,1,1
415114124,65222418,34.0348619,108.756711,-2.43394,1.68456,-1.64393,-0.0511265,-0.0257923,0.0,-0.0509038,0.011669,-0.00675805,-0.00787601,-0.0714168,-0.0348164,0.0633587,-3.78133,3.31551,-6.22444,0.0461888,0.00111277,427.744,0.107136,0.274311,0.391927,0.136311,0.105873,inf,inf,inf,inf,1,1,1,1,2,0,2,1,4,1,1,1
415214202,65222418,34.0348619,108.756711,-2.4424,1.69224,-1.64606,-0.0511265,-0.0257923,0.0,-0.00249806,0.0286873,-0.0207951,-0.0228721,-0.0714168,-0.0348164,0.0633587,5.5949,-0.854341,-1.56947,0.0481981,0.00111277,427.744,0.109265,0.265754,0.389406,0.13167,0.104379,inf,inf,inf,inf,1,1,1,1,2,0,2,1,4,1,1,1
415314286,65222418,34.0348619,108.756711,-2.45094,1.69992,-1.65013,-0.0511265,-0.0257923,0.0,-0.0344025,0.01895,0.0014864,-0.00301793,-0.0714168,-0.0348164,0.0633587,-1.83096,4.09349,4.86448,0.0484563,0.00111277,427.744,0.113337,0.274456,0.393638,0.136577,0.106048,inf,inf,inf,inf,1,1,1,1,2,0,2,1,4,1,1,1
415414359,65222418,34.0348619,108.756711,-2.45879,1.7071,-1.64976,-0.0511265,-0.0257923,0.0,-0.0249631,0.0219066,0.031134,0.028304,-0.0714168,-0.0348164,0.0633587,0.161228,-2.25289,9.24524,0.0493829,0.00111277,427.744,0.114716,0.265869,0.391069,0.132217,0.104544,inf,inf,inf,inf,1,1,1,1,2,0,2,1,4,1,1,1
415514437,65222418,34.0348619,108.756711,-2.46617,1.71533,-1.64994,-0.0511265,-0.0257923,0.0,-0.0549791,0.0417732,0.0275264,0.0251722,-0.0714168,-0.0348164,0.0633587,-4.2333,1.60528,8.78012,0.0465098,0.00111277,427.744,0.114896,0.27458,0.392858,0.13712,0.105951,inf,inf,inf,inf,1,1,1,1,2,0,2,1,4,1,1,1
415614515,65222418,34.0348619,108.756711,-2.47331,1.72375,-1.64906,-0.0511265,-0.0257923,0.0,-0.0104317,0.0414169,-0.00372121,-0.0048466,-0.0714168,-0.0348164,0.0633587,3.32743,2.11389,-9.07088,0.0418183,0.00111277,427.744,0.114019,0.265982,0.390305,0.132721,0.104455,inf,inf,inf,inf,1,1,1,1,2,0,2,1,4,1,1,1
415714594,65222418,34.0348619,108.756711,-2.47918,1.73184,-1.64782,-0.0511265,-0.0257923,0.0,-0.0152892,0.0286051,-0.0349642,-0.0343636,-0.0714168,-0.0348164,0.0633587,2.74905,-5.95367,-9.50419,0.0350525,0.00111277,427.744,0.112772,0.274705,0.392083,0.137792,0.105858,inf,inf,inf,inf,1,1,1,1,2,0,2,1,4,1,1,1
415814671,65222418,34.0348619,108.756711,-2.48679,1.74036,-1.64861,-0.0511265,-0.0257923,0.0,-0.0495676,0.0584814,-0.00994886,-0.00895762,-0.0714168,-0.0348164,0.0633587,-3.10667,0.746357,11.0308,0.0307004,0.00111277,427.744,0.113566,0.266078,0.389547,0.133097,0.104363,inf,inf,inf,inf,1,1,1,1,2,0,2,1,4,1,1,1
415914749,65222418,34.0348619,108.756711,-2.49503,1.74992,-1.65268,-0.0511265,-0.0257923,0.0,-0.0428614,0.0610524,0.0219042,0.0198434,-0.0714168,-0.0348164,0.0633587,-0.067092,0.338041,7.04376,0.0278128,0.00111277,427.744,0.117635,0.274816,0.391315,0.138091,0.105762,inf,inf,inf,inf,1,1,1,1,2,0,2,1,4,1,1,1
416014827,65222418,34.0348619,108.756711,-2.50207,1.75391,-1.65309,-0.0511265,-0.0257923,0.0,-0.0506379,-0.0285285,-0.012887,-0.0154885,-0.0714168,-0.0348164,0.0633587,-0.634542,1.88527,-8.54181,0.0327845,0.00111277,427.744,0.11804,0.2662,0.391224,0.133833,0.104532,inf,inf,inf,inf,1,1,1,1,2,0,2,1,4,1,1,1
416114905,65222418,34.0348619,108.756711,-2.50832,1.7494,-1.6524,-0.0511265,-0.0257923,0.0,-0.0503939,-0.124848,-0.0130961,-0.0144481,-0.0714168,-0.0348164,0.0633587,3.06235,-5.07448,0.0562692,0.0392706,0.00111277,427.744,0.117359,0.274956,0.393014,0.138803,0.105931,inf,inf,inf,inf,1,1,1,1,2,0,2,1,4,1,1,1
416214983,65222418,34.0348619,108.756711,-2.51406,1.74611,-1.65639,-0.0511265,-0.0257923,0.0,-0.0385669,-0.0658024,-0.0271102,-0.0295441,-0.0714168,-0.0348164,0.0633587,0.274815,-0.195699,-1.29412,0.0447942,0.00111277,427.744,0.121349,0.26641,0.390478,0.134156,0.104442,inf,inf,inf,inf,1,1,1,1,2,0,2,1,4,1,1,1
416315063,65222418,34.0348619,108.756711,-2.51934,1.75139,-1.66275,-0.0511265,-0.0257923,0.0,-0.0289332,0.00906986,-0.0222098,-0.0257294,-0.0714168,-0.0348164,0.0633587,0.944961,0.274438,6.44789,0.0508477,0.00111277,427.744,0.127706,0.275198,0.392258,0.13956,0.105847,inf,inf,inf,inf,1,1,1,1,2,0,2,1,4,1,1,1
416415140,65222418,34.0348619,108.756711,-2.52284,1.761,-1.66518,-0.0511265,-0.0257923,0.0,-0.00331126,0.0784888,-0.0131957,-0.0152772,-0.0714168,-0.0348164,0.0633587,3.25365,-1.00004,4.89592,0.0642367,0.00111277,427.744,0.130132,0.266545,0.389729,0.134943,0.104359,inf,inf,inf,inf,1,1,1,1,2,0,2,1,4,1,1,1
416515228,65222418,34.0348619,108.756711,-2.52649,1.76953,-1.66658,-0.0511265,-0.0257923,0.0,-0.00630169,0.0449187,-0.0406984,-0.0404171,-0.0714168,-0.0348164,0.0633587,0.149872,2.16812,-4.99126,0.0786964,0.00111277,427.744,0.131539,0.275356,0.3915,0.139881,0.105763,inf,inf,inf,inf,1,1,1,1,2,0,2,1,4,1,1,1
416615296,65222418,34.0348619,108.756711,-2.53302,1.77113,-1.66939,-0.0511265,-0.0257923,0.0,-0.0542702,-0.017657,-0.0697199,-0.0691701,-0.0714168,-0.0348164,0.0633587,-1.79489,0.854117,-8.15812,0.0863583,0.00111277,427.744,0.134346,0.266679,0.388986,0.135269,0.104281,inf,inf,inf,inf,1,1,1,1,2,0,2,1,4,1,1,1
416715374,65222418,34.0348619,108.756711,-2.54235,1.76746,-1.67459,-0.0511265,-0.0257923,0.0,-0.0695991,-0.0215348,-0.0495857,-0.0483855,-0.0714168,-0.0348164,0.0633587,-1.67551,2.70905,2.12073,0.0895219,0.00111277,427.744,0.139548,0.275508,0.390756,0.140208,0.105678,inf,inf,inf,inf,1,1,1,1,2,0,2,1,4,1,1,1
416815455,65222418,34.0348619,108.756711,-2.54852,1.76786,-1.67593,-0.0511265,-0.0257923,0.0,-0.0352475,-0.0196545,-0.0467188,-0.0428785,-0.0714168,-0.0348164,0.0633587,1.25478,-3.56463,-5.30994,0.0918002,0.00111277,427.744,0.140888,0.266792,0.390676,0.135654,0.104455,inf,inf,inf,inf,1,1,1,1,2,0,2,1,4,1,1,1
416915531,65222418,34.0348619,108.756711,-2.5505,1.77469,-1.67465,-0.0511265,-0.0257923,0.0,-0.0065163,0.0249621,0.00556802,0.0130772,-0.0714168,-0.0348164,0.0633587,2.0742,0.193488,0.607033,0.0916691,0.00111277,427.744,0.139601,0.275641,0.392477,0.140546,0.105867,inf,inf,inf,inf,1,1,1,1,2,0,2,1,4,1,1,1
417015610,65222418,34.0348619,108.756711,-2.5511,1.78158,-1.6726,-0.0511265,-0.0257923,0.0,-0.0142106,0.00341233,-0.00100398,0.00764065,-0.0714168,-0.0348164,0.0633587,2.47275,-4.55978,-2.65199,0.0900751,0.00111277,427.744,0.137558,0.266823,0.389938,0.135809,0.104366,inf,inf,inf,inf,1,1,1,1,2,0,2,1,4,1,1,1
417115687,65222418,34.0348619,108.756711,-2.557,1.78422,-1.67135,-0.0511265,-0.0257923,0.0,-0.0793495,-0.0030827,-0.019724,-0.00995856,-0.0714168,-0.0348164,0.0633587,-2.89869,3.04713,2.24962,0.0899254,0.00111277,427.744,0.136306,0.275673,0.391704,0.14062,0.105769,inf,inf,inf,inf,1,1,1,1,2,0,2,1,4,1,1,1
417215765,65222418,34.0348619,108.756711,-2.5649,1.78429,-1.67035,-0.0511265,-0.0257923,0.0,-0.0512301,-0.0383373,-0.0176039,-0.00617571,-0.0714168,-0.0348164,0.0633587,1.24742,1.40591,-1.71833,0.0918806,0.00111277,427.744,0.135303,0.266935,0.389172,0.135717,0.104279,inf,inf,inf,inf,1,1,1,1,2,0,2,1,4,1,1,1
417315843,65222418,34.0348619,108.756711,-2.56919,1.78446,-1.66985,-0.0511265,-0.0257923,0.0,-0.019018,-0.0203049,-0.0426292,-0.0305934,-0.0714168,-0.0348164,0.0633587,-0.488761,2.95628,-10.0195,0.0910541,0.00111277,427.744,0.134807,0.275802,0.393398,0.140782,0.105948,inf,inf,inf,inf,1,1,1,1,2,0,2,1,4,1,1,1
417415921,65222418,34.0348619,108.756711,-2.57171,1.78936,-1.67151,-0.0511265,-0.0257923,0.0,-0.0157606,0.0077746,-0.0129406,-0.00303784,-0.0714168,-0.0348164,0.0633587,-0.566112,0.573393,-2.51647,0.0901613,0.00111277,427.744,0.136463,0.267093,0.390849,0.135974,0.104467,inf,inf,inf,inf,1,1,1,1,2,0,2,1,4,1,1,1
417515999,65222418,34.0348619,108.756711,-2.57385,1.79773,-1.67561,-0.0511265,-0.0257923,0.0,-0.0138658,0.0218821,0.00303533,0.00748823,-0.0714168,-0.0348164,0.0633587,1.74519,-2.98296,-0.394073,0.0904318,0.00111277,427.744,0.140567,0.275982,0.392637,0.140976,0.105876,inf,inf,inf,inf,1,1,1,1,2,0,2,1,4,1,1,1
417616077,65222418,34.0348619,108.756711,-2.57817,1.80327,-1.67688,-0.0511265,-0.0257923,0.0,-0.0427981,-0.00738077,0.036854,0.0393263,-0.0714168,-0.0348164,0.0633587,1.92558,-2.54578,6.70907,0.0899947,0.00111277,427.744,0.141839,0.267154,0.390097,0.135948,0.104387,inf,inf,inf,inf,1,1,1,1,2,0,2,1,4,1,1,1
417716156,65222418,34.0348619,108.756711,-2.58356,1.80576,-1.67538,-0.0511265,-0.0257923,0.0,-0.0412539,-0.0209059,0.0130655,0.0163174,-0.0714168,-0.0348164,0.0633587,0.304113,-2.78429,-0.600708,0.0893833,0.00111277,427.744,0.140333,0.276049,0.391876,0.140878,0.10579,inf,inf,inf,inf,1,1,1,1,2,0,2,1,4,1,1,1
417816236,65222418,34.0348619,108.756711,-2.58641,1.80932,-1.6741,-0.0511265,-0.0257923,0.0,-0.0136291,-0.00441261,-0.00825404,-0.00430199,-0.0714168,-0.0348164,0.0633587,0.686832,2.40696,-4.48708,0.0889573,0.00111277,427.744,0.139054,0.267297,0.389358,0.135857,0.104316,inf,inf,inf,inf,1,1,1,1,2,0,2,1,4,1,1,1
417916316,65222418,34.0348619,108.756711,-2.58652,1.81661,-1.6732,-0.0511265,-0.0257923,0.0,-0.00130657,0.0284562,0.0212845,0.0253912,-0.0714168,-0.0348164,0.0633587,-0.434197,-2.94109,4.37403,0.0900471,0.00111277,427.744,0.138156,0.276209,0.391127,0.140791,0.105719,inf,inf,inf,inf,1,1,1,1,2,0,2,1,4,1,1,1
418016390,65222418,34.0348619,108.756711,-2.58786,1.82397,-1.67156,-0.0511265,-0.0257923,0.0,0.00218578,0.0236604,0.00264839,0.00793231,-0.0714168,-0.0348164,0.0633587,2.37495,-2.89118,1.32184,0.0901869,0.00111277,427.744,0.136512,0.267341,0.391043,0.135666,0.104497,inf,inf,inf,inf,1,1,1,1,2,0,2,1,4,1,1,1
418116479,65222418,34.0348619,108.756711,-2.59067,1.8309,-1.67186,-0.0511265,-0.0257923,0.0,0.00175605,0.0445788,-0.0194486,-0.0141996,-0.0714168,-0.0348164,0.0633587,-0.897874,3.9986,-1.59835,0.0907391,0.00111277,427.744,0.136817,0.276255,0.392836,0.140641,0.105907,inf,inf,inf,inf,1,1,1,1,2,0,2,1,4,1,1,1
418216547,65222418,34.0348619,108.756711,-2.59076,1.83801,-1.67577,-0.0511265,-0.0257923,0.0,0.0222465,0.0484315,0.000419178,0.00228335,-0.0714168,-0.0348164,0.0633587,0.524202,-2.54497,2.18446,0.0909646,0.00111277,427.744,0.140726,0.26735,0.390301,0.135589,0.104417,inf,inf,inf,inf,1,1,1,1,2,0,2,1,4,1,1,1
418306617,65222418,34.0348619,108.756711,-2.58789,1.84549,-1.67866,-0.0511265,-0.0257923,0.0,0.0367759,0.0479017,-0.00480447,-0.00536607,-0.0714168,-0.0348164,0.0633587,-0.797916,-2.30509,0.774172,0.0916392,0.00111277,427.744,0.143614,0.275348,0.39142,0.139992,0.105632,inf,inf,inf,inf,1,1,1,1,2,0,2,1,4,1,1,1
418416703,65222418,34.0348619,108.756711,-2.58283,1.85426,-1.68058,-0.0511265,-0.0257923,0.0,0.0746958,0.071341,-0.00336579,-0.00421372,-0.0714168,-0.0348164,0.0633587,0.847785,0.287349,0.0802184,0.0940578,0.00111277,427.744,0.145535,0.26736,0.389564,0.135312,0.10434,inf,inf,inf,inf,1,1,1,1,2,0,2,1,4,1,1,1
418516781,65222418,34.0348619,108.756711,-2.57651,1.86328,-1.6809,-0.0511265,-0.0257923,0.0,0.0930194,0.0781841,-0.00683379,-0.00693987,-0.0714168,-0.0348164,0.0633587,-0.341865,-1.14487,0.43387,0.0969278,0.00111277,427.744,0.145857,0.276273,0.391321,0.14023,0.105739,inf,inf,inf,inf,1,1,1,1,2,0,2,1,4,1,1,1
418616859,65222418,34.0348619,108.756711,-2.56917,1.87218,-1.68112,-0.0511265,-0.0257923,0.0,0.111326,0.0767303,0.00291382,0.00301555,-0.0714168,-0.0348164,0.0633587,0.357321,-2.62739,0.613657,0.10011,0.00111277,427.744,0.146071,0.267424,0.391229,0.135191,0.104526,inf,inf,inf,inf,1,1,1,1,2,0,2,1,4,1,1,1
418716937,65222418,34.0348619,108.756711,-2.56097,1.88241,-1.67918,-0.0511265,-0.0257923,0.0,0.121455,0.114335,-0.000890554,2.55483e-05,-0.0714168,-0.0348164,0.0633587,-1.02406,1.36989,-3.16868,0.100206,0.00111277,427.744,0.144135,0.276341,0.393002,0.139965,0.105931,inf,inf,inf,inf,1,1,1,1,2,0,2,1,4,1,1,1
418807021,65222418,34.0348619,108.756711,-2.5522,1.89226,-1.67965,-0.0511265,-0.0257923,0.0,0.135896,0.100416,-0.0163813,-0.0151651,-0.0714168,-0.0348164,0.0633587,1.70399,-3.67751,-2.46161,0.0996717,0.00111277,427.744,0.144605,0.284855,0.394141,0.144332,0.107127,inf,inf,inf,inf,1,1,1,1,2,0,2,1,4,1,1,1
418917094,65222418,34.0348619,108.756711,-2.5422,1.90796,-1.68157,-0.0511265,-0.0257923,0.0,0.14844,0.148207,0.00368856,0.00389437,-0.0714168,-0.0348164,0.0633587,-0.623607,3.01795,2.86852,0.0980748,0.00111277,427.744,0.14652,0.276131,0.392166,0.139371,0.105793,inf,inf,inf,inf,1,1,1,1,2,0,2,1,4,1,1,1
419007164,65222418,34.0348619,108.756711,-2.5315,1.92259,-1.68413,-0.0511265,-0.0257923,0.0,0.165876,0.168562,-0.0206308,-0.0219264,-0.0714168,-0.0348164,0.0633587,0.524903,3.64122,0.539268,0.0974268,0.00111277,427.744,0.149088,0.266626,0.391395,0.134009,0.104372,inf,inf,inf,inf,1,1,1,1,2,0,2,1,4,1,1,1
419117253,65222418,34.0348619,108.756711,-2.51544,1.94143,-1.68822,-0.0511265,-0.0257923,0.0,0.187757,0.17395,-0.0269469,-0.0296295,-0.0714168,-0.0348164,0.0633587,-1.14229,2.28063,-0.209867,0.0977268,0.00111277,427.744,0.153172,0.276367,0.39137,0.139203,0.105705,inf,inf,inf,inf,1,1,1,1,2,0,2,1,4,1,1,1
419207326,65222418,34.0348619,108.756711,-2.49928,1.95793,-1.68788,-0.0511265,-0.0257923,0.0,0.206871,0.198588,-0.00303737,-0.00398127,-0.0714168,-0.0348164,0.0633587,-0.858411,4.38315,-1.12957,0.095715,0.00111277,427.744,0.152838,0.266953,0.390611,0.133828,0.104288,inf,inf,inf,inf,1,1,1,1,2,0,2,1,4,1,1,1
419307419,65222418,34.0348619,108.756711,-2.47884,1.97722,-1.68441,-0.0511265,-0.0257923,0.0,0.229661,0.178986,-0.0190788,-0.0170624,-0.0714168,-0.0348164,0.0633587,0.507785,-2.71595,-4.44745,0.0944005,0.00111277,427.744,0.14936,0.275783,0.392372,0.138541,0.105694,inf,inf,inf,inf,1,1,1,1,2,0,2,1,4,1,1,1
419417485,65222418,34.0348619,108.756711,-2.45357,2.00012,-1.68615,-0.0511265,-0.0257923,0.0,0.258383,0.22549,-0.0198158,-0.0175775,-0.0714168,-0.0348164,0.0633587,-0.110167,0.153749,2.89977,0.0947955,0.00111277,427.744,0.151108,0.268226,0.390494,0.134,0.104398,inf,inf,inf,inf,1,1,1,1,2,0,2,1,4,1,1,1
419507555,65222418,34.0348619,108.756711,-2.4309,2.01855,-1.69109,-0.0511265,-0.0257923,0.0,0.265285,0.217786,-0.0886873,-0.0861625,-0.0714168,-0.0348164,0.0633587,-1.06002,2.89984,-2.46888,0.0935658,0.00111277,427.744,0.156046,0.276198,0.391586,0.138282,0.105609,inf,inf,inf,inf,1,1,1,1,2,0,2,1,4,1,1,1
419617641,65222418,34.0348619,108.756711,-2.40271,2.04092,-1.69953,-0.0511265,-0.0257923,0.0,0.29259,0.200575,-0.0856332,-0.0816475,-0.0714168,-0.0348164,0.0633587,1.10467,-2.85106,-0.950522,0.0951979,0.00111277,427.744,0.164483,0.268677,0.389716,0.133945,0.104315,inf,inf,inf,inf,1,1,1,1,2,0,2,1,4,1,1,1
419707714,65222418,34.0348619,108.756711,-2.37835,2.05894,-1.70121,-0.0511265,-0.0257923,0.0,0.322509,0.197964,-0.0703966,-0.0617211,-0.0714168,-0.0348164,0.0633587,0.129036,-0.222642,1.08734,0.096884,0.00111277,427.744,0.166168,0.276658,0.393268,0.138323,0.105793,inf,inf,inf,inf,1,1,1,1,2,0,2,1,4,1,1,1
419817798,65222418,34.0348619,108.756711,-2.34564,2.07695,-1.70037,-0.0511265,-0.0257923,0.0,0.32656,0.158782,-0.0655215,-0.0497109,-0.0714168,-0.0348164,0.0633587,-0.160668,-1.01542,3.2068,0.0971266,0.00111277,427.744,0.165328,0.269281,0.38896,0.133941,0.104246,inf,inf,inf,inf,1,1,1,1,2,0,2,1,4,1,1,1
419917886,65222418,34.0348619,108.756711,-2.31448,2.08951,-1.70427,-0.0511265,-0.0257923,0.0,0.351941,0.125664,-0.063632,-0.0458984,-0.0714168,-0.0348164,0.0633587,-0.239918,-0.749522,5.0051,0.0931773,0.00111277,427.744,0.16923,0.278184,0.393173,0.138551,0.105915,inf,inf,inf,inf,1,1,1,1,2,0,2,1,4,1,1,1
420007946,65222418,34.0348619,108.756711,-2.28351,2.10103,-1.71012,-0.0511265,-0.0257923,0.0,0.377194,0.113255,-0.0500821,-0.033915,-0.0714168,-0.0348164,0.0633587,0.554043,-0.67109,2.417,0.0901329,0.00111277,427.744,0.175077,0.268987,0.389971,0.133254,0.104229,inf,inf,inf,inf,1,1,1,1,2,0,2,1,4,1,1,0
420118032,65222418,34.0348619,108.756711,-2.24406,2.11583,-1.70889,-0.0511265,-0.0257923,0.0,0.374285,0.101529,-0.0027205,0.015756,-0.0714168,-0.0348164,0.0633587,-1.98379,5.43092,4.50513,0.0871077,0.00111277,427.744,0.173846,0.278747,0.39241,0.138386,0.105828,inf,inf,inf,inf,1,1,1,1,2,0,2,1,4,1,1,0
420208102,65222418,34.0348619,108.756711,-2.21193,2.12546,-1.70156,-0.0511265,-0.0257923,0.0,0.380859,0.0893328,0.0321009,0.0551049,-0.0714168,-0.0348164,0.0633587,-0.524094,1.95193,2.5374,0.0856964,0.00111277,427.744,0.166511,0.269598,0.389225,0.132971,0.104148,inf,inf,inf,inf,1,1,1,1,2,0,2,1,4,1,1,0
420318188,65222418,34.0348619,108.756711,-2.17323,2.13424,-1.68866,-0.0511265,-0.0257923,0.0,0.384207,0.0588853,0.0710767,0.098423,-0.0714168,-0.0348164,0.0633587,-0.955371,1.52142,0.671718,0.0860245,0.00111277,427.744,0.153614,0.279345,0.391661,0.137912,0.105747,inf,inf,inf,inf,1,1,1,1,2,0,2,1,4,1,1,0
420408260,65222418,34.0348619,108.756711,-2.14042,2.14077,-1.67832,-0.0511265,-0.0257923,0.0,0.374419,0.0282632,0.0968684,0.124945,-0.0714168,-0.0348164,0.0633587,-0.901718,-1.92351,6.00808,0.0846878,0.00111277,427.744,0.143276,0.270093,0.388492,0.132538,0.104072,inf,inf,inf,inf,1,1,1,1,2,0,2,1,4,1,1,0
420508337,65222418,34.0348619,108.756711,-2.10316,2.14816,-1.66836,-0.0511265,-0.0257923,0.0,0.377262,0.0142646,0.0998138,0.126022,-0.0714168,-0.0348164,0.0633587,0.0528994,-0.370442,1.92737,0.0803815,0.00111277,427.744,0.133314,0.278907,0.392696,0.136968,0.10574,inf,inf,inf,inf,1,1,1,1,2,0,2,1,4,1,1,0
420618423,65222418,34.0348619,108.756711,-2.06024,2.15179,-1.65396,-0.0511265,-0.0257923,0.0,0.384178,-0.0160572,0.094028,0.119998,-0.0714168,-0.0348164,0.0633587,0.567563,1.03734,-1.11416,0.0783828,0.00111277,427.744,0.11891,0.27134,0.390833,0.13268,0.104444,inf,inf,inf,inf,1,1,1,1,2,0,2,1,4,1,1,0
420708493,65222418,34.0348619,108.756711,-2.02293,2.15175,-1.64366,-0.0511265,-0.0257923,0.0,0.393501,-0.0394134,0.0512447,0.0774056,-0.0714168,-0.0348164,0.0633587,0.628903,-2.64688,-4.51769,0.0773603,0.00111277,427.744,0.108617,0.279281,0.391953,0.136718,0.105659,inf,inf,inf,inf,1,1,1,1,2,0,2,1,4,1,1,0
420818580,65222418,34.0348619,108.756711,-1.97827,2.14964,-1.64088,-0.0511265,-0.0257923,0.0,0.38906,-0.0566453,-0.0428723,-0.0155332,-0.0714168,-0.0348164,0.0633587,-1.13238,2.06345,2.6297,0.0786011,0.00111277,427.744,0.105831,0.271719,0.39011,0.132573,0.10438,inf,inf,inf,inf,1,1,1,1,2,0,2,1,4,1,1,0
420908650,65222418,34.0348619,108.756711,-1.94057,2.14413,-1.64497,-0.0511265,-0.0257923,0.0,0.420631,-0.100893,-0.0893396,-0.0614108,-0.0714168,-0.0348164,0.0633587,-0.0821894,-0.943128,0.475023,0.0803802,0.00111277,427.744,0.114334,0.279657,0.391221,0.136956,0.105591,inf,inf,inf,inf,1,1,1,1,2,0,2,1,4,1,1,0
421008730,65222418,34.0348619,108.756711,-1.89624,2.1335,-1.65448,-0.0511265,-0.0257923,0.0,0.447511,-0.14763,-0.127115,-0.0995315,-0.0714168,-0.0348164,0.0633587,-0.535884,-0.578833,3.00428,0.0817207,0.00111277,427.744,0.129577,0.27107,0.388727,0.132401,0.104107,inf,inf,inf,inf,1,1,1,1,2,0,2,1,4,1,1,0
421108806,65222418,34.0348619,108.756711,-1.84892,2.1197,-1.66251,-0.0511265,-0.0257923,0.0,0.473962,-0.19307,-0.134555,-0.104665,-0.0714168,-0.0348164,0.0633587,0.473442,-2.49023,-0.163317,0.0831454,0.00111277,427.744,0.137607,0.279867,0.390488,0.137101,0.105509,inf,inf,inf,inf,1,1,1,1,2,0,2,1,4,1,1,0
421208897,65222418,34.0348619,108.756711,-1.80074,2.1026,-1.6732,-0.0511265,-0.0257923,0.0,0.486129,-0.2178,-0.126572,-0.0975148,-0.0714168,-0.0348164,0.0633587,-1.00679,2.62959,-2.88478,0.0828239,0.00111277,427.744,0.148292,0.271193,0.390414,0.132405,0.104287,inf,inf,inf,inf,1,1,1,1,2,0,2,1,4,1,1,0
421318971,65222418,34.0348619,108.756711,-1.74848,2.08394,-1.67531,-0.0511265,-0.0257923,0.0,0.501134,-0.231048,-0.0593096,-0.0262596,-0.0714168,-0.0348164,0.0633587,-0.0254829,0.757624,2.77631,0.0808927,0.00111277,427.744,0.150407,0.280881,0.39288,0.137365,0.105893,inf,inf,inf,inf,1,1,1,1,2,0,2,1,4,1,1,0
421409041,65222418,34.0348619,108.756711,-1.70254,2.06647,-1.67109,-0.0511265,-0.0257923,0.0,0.504232,-0.250349,-0.0334362,0.00430831,-0.0714168,-0.0348164,0.0633587,-1.09085,-0.132543,-1.84437,0.0789478,0.00111277,427.744,0.146182,0.271254,0.389699,0.132063,0.104226,inf,inf,inf,inf,1,1,1,1,2,0,2,1,4,1,1,0
421509119,65222418,34.0348619,108.756711,-1.64952,2.04545,-1.66519,-0.0511265,-0.0257923,0.0,0.50595,-0.236707,0.0196891,0.0593079,-0.0714168,-0.0348164,0.0633587,-0.48346,2.41501,1.09264,0.0784483,0.00111277,427.744,0.140287,0.28001,0.391483,0.136541,0.105636,inf,inf,inf,inf,1,1,1,1,2,0,2,1,4,1,1,0
421609198,65222418,34.0348619,108.756711,-1.59816,2.02543,-1.66052,-0.0511265,-0.0257923,0.0,0.51306,-0.235058,0.0429488,0.0792763,-0.0714168,-0.0348164,0.0633587,-0.239307,-3.22169,-2.18718,0.0779295,0.00111277,427.744,0.135611,0.271168,0.388997,0.131675,0.104168,inf,inf,inf,inf,1,1,1,1,2,0,2,1,4,1,1,0
421709282,65222418,34.0348619,108.756711,-1.54869,2.0066,-1.65608,-0.0511265,-0.0257923,0.0,0.519662,-0.235302,0.0535754,0.0848524,-0.0714168,-0.0348164,0.0633587,0.437438,-0.231962,-4.09608,0.0788398,0.00111277,427.744,0.131171,0.279896,0.390772,0.136112,0.105575,inf,inf,inf,inf,1,1,1,1,2,0,2,1,4,1,1,0
421809354,65222418,34.0348619,108.756711,-1.49944,1.98586,-1.65218,-0.0511265,-0.0257923,0.0,0.517718,-0.223724,0.0265441,0.0537827,-0.0714168,-0.0348164,0.0633587,-0.0404788,-0.0158176,-3.15461,0.0809458,0.00111277,427.744,0.127271,0.27093,0.388292,0.131248,0.104095,inf,inf,inf,inf,1,1,1,1,2,0,2,1,4,1,1,0
421909432,65222418,34.0348619,108.756711,-1.45186,1.9636,-1.65227,-0.0511265,-0.0257923,0.0,0.519294,-0.206502,0.00133017,0.0241939,-0.0714168,-0.0348164,0.0633587,-0.594424,4.27823,-0.786464,0.083584,0.00111277,427.744,0.127359,0.279625,0.390065,0.135801,0.1055,inf,inf,inf,inf,1,1,1,1,2,0,2,1,4,1,1,0
422009518,65222418,34.0348619,108.756711,-1.40294,1.94221,-1.65478,-0.0511265,-0.0257923,0.0,0.521243,-0.193298,0.00556675,0.0234026,-0.0714168,-0.0348164,0.0633587,-0.757185,4.25652,-0.49969,0.0865993,0.00111277,427.744,0.129875,0.270667,0.390004,0.131162,0.104281,inf,inf,inf,inf,1,1,1,1,2,0,2,1,4,1,1,0
422109589,65222418,34.0348619,108.756711,-1.35258,1.92233,-1.65707,-0.0511265,-0.0257923,0.0,0.543391,-0.18696,0.0116595,0.0246732,-0.0714168,-0.0348164,0.0633587,0.00995553,3.08332,-0.0841137,0.0878761,0.00111277,427.744,0.132168,0.279343,0.391801,0.13582,0.105693,inf,inf,inf,inf,1,1,1,1,2,0,2,1,4,1,1,0
422209667,65222418,34.0348619,108.756711,-1.30031,1.90288,-1.65909,-0.0511265,-0.0257923,0.0,0.543825,-0.169136,0.00284199,0.0125561,-0.0714168,-0.0348164,0.0633587,-0.0927775,3.42378,2.60203,0.08885,0.00111277,427.744,0.134179,0.270333,0.389308,0.13107,0.10421,inf,inf,inf,inf,1,1,1,1,2,0,2,1,4,1,1,0
422309745,65222418,34.0348619,108.756711,-1.24591,1.88251,-1.66388,-0.0511265,-0.0257923,0.0,0.585967,-0.171049,-0.0341661,-0.0271589,-0.0714168,-0.0348164,0.0633587,-0.36026,0.571133,1.02332,0.0922345,0.00111277,427.744,0.13897,0.278985,0.391095,0.13561,0.105619,inf,inf,inf,inf,1,1,1,1,2,0,2,1,4,1,1,0
422409823,65222418,34.0348619,108.756711,-1.18627,1.86365,-1.67006,-0.0511265,-0.0257923,0.0,0.638651,-0.14949,-0.0512561,-0.0466618,-0.0714168,-0.0348164,0.0633587,0.562359,3.35219,-2.66063,0.0940813,0.00111277,427.744,0.145155,0.269878,0.388607,0.130925,0.104124,inf,inf,inf,inf,1,1,1,1,2,0,2,1,4,1,1,0
422509919,65222418,34.0348619,108.756711,-1.12209,1.84569,-1.67487,-0.0511265,-0.0257923,0.0,0.691797,-0.137716,-0.0830805,-0.0772052,-0.0714168,-0.0348164,0.0633587,1.31922,0.870997,0.627799,0.0968688,0.00111277,427.744,0.149964,0.278505,0.390384,0.135489,0.105531,inf,inf,inf,inf,1,1,1,1,2,0,2,1,4,1,1,0
422609982,65222418,34.0348619,108.756711,-1.05224,1.83095,-1.6807,-0.0511265,-0.0257923,0.0,0.780163,-0.0982473,-0.0899199,-0.0820539,-0.0714168,-0.0348164,0.0633587,1.75366,-0.213347,-1.37947,0.0983921,0.00111277,427.744,0.155798,0.269614,0.387922,0.130999,0.104066,inf,inf,inf,inf,1,1,1,1,2,0,2,1,4,1,1,0
422710058,65222418,34.0348619,108.756711,-0.97548,1.82107,-1.68845,-0.0511265,-0.0257923,0.0,0.873051,-0.0187221,-0.0889799,-0.0800028,-0.0714168,-0.0348164,0.0633587,1.0145,1.60986,-0.816541,0.100026,0.00111277,427.744,0.163539,0.278238,0.392136,0.135683,0.105735,inf,inf,inf,inf,1,1,1,1,2,0,2,1,4,1,1,0
422810137,65222418,34.0348619,108.756711,-0.889785,1.81868,-1.69708,-0.0511265,-0.0257923,0.0,0.963481,0.0549632,-0.111167,-0.102567,-0.0714168,-0.0348164,0.0633587,0.761057,-0.552964,-3.93111,0.0992479,0.00111277,427.744,0.172172,0.26923,0.389633,0.131015,0.104248,inf,inf,inf,inf,1,1,1,1,2,0,2,1,4,1,1,0
422910217,65222418,34.0348619,108.756711,-0.797986,1.82289,-1.70723,-0.0511265,-0.0257923,0.0,1.04561,0.126746,-0.133109,-0.123777,-0.0714168,-0.0348164,0.0633587,2.74429,-3.64941,-3.42028,0.100742,0.00111277,427.744,0.182322,0.27784,0.391432,0.135521,0.105656,inf,inf,inf,inf,1,1,1,1,2,0,2,1,4,1,1,0
423010293,65222418,34.0348619,108.756711,-0.698901,1.8329,-1.71948,-0.0511265,-0.0257923,0.0,1.09848,0.171726,-0.126408,-0.116813,-0.0714168,-0.0348164,0.0633587,0.795172,-2.30179,0.269514,0.102287,0.00111277,427.744,0.194569,0.268828,0.388942,0.130953,0.104163,inf,inf,inf,inf,1,1,1,1,2,0,2,1,4,1,1,0
423110371,65222418,34.0348619,108.756711,-0.596638,1.84434,-1.7325,-0.0511265,-0.0257923,0.0,1.12521,0.228691,-0.146353,-0.136432,-0.0714168,-0.0348164,0.0633587,-0.300319,5.67693,5.01414,0.0995951,0.00111277,427.744,0.207592,0.277428,0.390729,0.135679,0.105562,inf,inf,inf,inf,1,1,1,1,2,0,2,1,4,1,1,0
423210450,65222418,34.0348619,108.756711,-0.493262,1.8577,-1.75053,-0.0511265,-0.0257923,0.0,1.12735,0.214876,-0.208909,-0.200167,-0.0714168,-0.0348164,0.0633587,-0.328329,-0.201732,-2.47166,0.0964947,0.00111277,427.744,0.22562,0.268378,0.388259,0.131015,0.104085,inf,inf,inf,inf,1,1,1,1,2,0,2,1,4,1,1,0
423310528,65222418,34.0348619,108.756711,-0.393694,1.86789,-1.7726,-0.0511265,-0.0257923,0.0,1.11902,0.201522,-0.263437,-0.253901,-0.0714168,-0.0348164,0.0633587,0.811167,2.27593,2.94365,0.0943776,0.00111277,427.744,0.247698,0.276969,0.392481,0.135722,0.10576,inf,inf,inf,inf,1,1,1,1,2,0,2,1,4,1,1,0
423410606,65222418,34.0348619,108.756711,-0.291363,1.87782,-1.79937,-0.0511265,-0.0257923,0.0,1.11073,0.174946,-0.319667,-0.308004,-0.0714168,-0.0348164,0.0633587,0.160599,-2.63957,-0.0120762,0.0915317,0.00111277,427.744,0.274464,0.267946,0.38996,0.131209,0.104268,inf,inf,inf,inf,1,1,1,1,2,0,2,1,4,1,1,0
423510685,65222418,34.0348619,108.756711,-0.18646,1.88793,-1.83084,-0.0511265,-0.0257923,0.0,1.10249,0.159532,-0.342491,-0.330323,-0.0714168,-0.0348164,0.0633587,0.640727,-4.84362,0.706904,0.0882716,0.00111277,427.744,0.305933,0.276539,0.391753,0.135932,0.105675,inf,inf,inf,inf,1,1,1,1,2,0,2,1,4,1,1,0
423610763,65222418,34.0348619,108.756711,-0.0809562,1.89761,-1.86354,-0.0511265,-0.0257923,0.0,1.08504,0.148036,-0.377096,-0.363542,-0.0714168,-0.0348164,0.0633587,-0.595471,0.0698505,-4.63428,0.084776,0.00111277,427.744,0.338639,0.267578,0.389245,0.131358,0.104186,inf,inf,inf,inf,1,1,1,1,2,0,2,1,4,1,1,0
423710841,65222418,34.0348619,108.756711,0.0217945,1.90864,-1.89431,-0.0511265,-0.0257923,0.0,1.02941,0.135542,-0.348133,-0.330562,-0.0714168,-0.0348164,0.0633587,-0.454408,-0.975927,3.81247,0.0842944,0.00111277,427.744,0.369401,0.276174,0.391019,0.135954,0.105588,inf,inf,inf,inf,1,1,1,1,2,0,2,1,4,1,1,0
423810919,65222418,34.0348619,108.756711,0.121894,1.92123,-1.92047,-0.0511265,-0.0257923,0.0,0.997218,0.151317,-0.305237,-0.282146,-0.0714168,-0.0348164,0.0633587,0.577505,1.03288,5.41604,0.0828359,0.00111277,427.744,0.395564,0.267161,0.388526,0.1313,0.104102,inf,inf,inf,inf,1,1,1,1,2,0,2,1,4,1,1,0
423910998,65222418,34.0348619,108.756711,0.223035,1.93757,-1.93874,-0.0511265,-0.0257923,0.0,0.967888,0.152762,-0.291453,-0.25982,-0.0714168,-0.0348164,0.0633587,0.399481,2.41448,3.67941,0.0809971,0.00111277,427.744,0.413837,0.275748,0.390298,0.135783,0.1055,inf,inf,inf,inf,1,1,1,1,2,0,2,1,4,1,1,0
424011076,65222418,34.0348619,108.756711,0.322066,1.95219,-1.95989,-0.0511265,-0.0257923,0.0,0.937299,0.158814,-0.314996,-0.278148,-0.0714168,-0.0348164,0.0633587,-0.108915,0.638121,-2.06997,0.0816676,0.00111277,427.744,0.434985,0.266824,0.390236,0.131042,0.104288,inf,inf,inf,inf,1,1,1,1,2,0,2,1,4,1,1,0
424111169,65222418,34.0348619,108.756711,0.422313,1.96688,-1.9838,-0.0511265,-0.0257923,0.0,0.944267,0.15937,-0.295584,-0.256025,-0.0714168,-0.0348164,0.0633587,0.529256,1.83224,4.36042,0.0821742,0.00111277,427.744,0.458896,0.275404,0.392031,0.135489,0.105694,inf,inf,inf,inf,1,1,1,1,2,0,2,1,4,1,1,0
424211238,65222418,34.0348619,108.756711,0.522464,1.98134,-2.004,-0.0511265,-0.0257923,0.0,0.948608,0.161605,-0.257278,-0.21427,-0.0714168,-0.0348164,0.0633587,0.110155,-2.5701,4.01727,0.0831616,0.00111277,427.744,0.479094,0.266371,0.389525,0.130932,0.104207,inf,inf,inf,inf,1,1,1,1,2,0,2,1,4,1,1,0
424311311,65222418,34.0348619,108.756711,0.622457,1.99629,-2.01887,-0.0511265,-0.0257923,0.0,0.943399,0.170971,-0.236119,-0.187898,-0.0714168,-0.0348164,0.0633587,-0.441899,0.543413,1.97074,0.0821698,0.00111277,427.744,0.493963,0.274943,0.391311,0.135395,0.105614,inf,inf,inf,inf,1,1,1,1,2,0,2,1,4,1,1,0
424411389,65222418,34.0348619,108.756711,0.719916,2.01215,-2.03556,-0.0511265,-0.0257923,0.0,0.938932,0.156809,-0.235327,-0.186057,-0.0714168,-0.0348164,0.0633587,-0.678441,-1.1387,-4.02473,0.0812819,0.00111277,427.744,0.510654,0.265916,0.388818,0.130557,0.104132,inf,inf,inf,inf,1,1,1,1,2,0,2,1,4,1,1,0
424511467,65222418,34.0348619,108.756711,0.814069,2.02952,-2.05271,-0.0511265,-0.0257923,0.0,0.923427,0.175259,-0.176237,-0.12949,-0.0714168,-0.0348164,0.0633587,-0.743732,3.3876,1.13859,0.0805344,0.00111277,427.744,0.527808,0.274474,0.390593,0.135039,0.105535,inf,inf,inf,inf,1,1,1,1,2,0,2,1,4,1,1,0
424611552,65222418,34.0348619,108.756711,0.906902,2.04573,-2.06567,-0.0511265,-0.0257923,0.0,0.90911,0.163621,-0.141895,-0.0971745,-0.0714168,-0.0348164,0.0633587,-0.252046,1.9466,2.79058,0.0801112,0.00111277,427.744,0.540767,0.265409,0.388113,0.130274,0.104055,inf,inf,inf,inf,1,1,1,1,2,0,2,1,4,1,1,0
424711626,65222418,34.0348619,108.756711,0.999109,2.05929,-2.0744,-0.0511265,-0.0257923,0.0,0.903077,0.157639,-0.13736,-0.0925148,-0.0714168,-0.0348164,0.0633587,-0.119746,-2.53202,1.07181,0.0790013,0.00111277,427.744,0.54949,0.273952,0.392328,0.1347,0.105724,inf,inf,inf,inf,1,1,1,1,2,0,2,1,4,1,1,0
424811704,65222418,34.0348619,108.756711,1.08975,2.0742,-2.08502,-0.0511265,-0.0257923,0.0,0.882791,0.16545,-0.135705,-0.092723,-0.0714168,-0.0348164,0.0633587,-0.65737,-0.809126,1.81935,0.0775356,0.00111277,427.744,0.560116,0.283023,0.394199,0.139194,0.107125,inf,inf,inf,inf,1,1,1,1,2,0,2,1,4,1,1,0
424911781,65222418,34.0348619,108.756711,1.17923,2.09157,-2.09325,-0.0511265,-0.0257923,0.0,0.886442,0.167711,-0.120538,-0.0779779,-0.0714168,-0.0348164,0.0633587,-0.325416,2.90856,-0.105751,0.075933,0.00111277,427.744,0.568347,0.273043,0.39159,0.134121,0.105595,inf,inf,inf,inf,1,1,1,1,2,0,2,1,4,1,1,0
425011859,65222418,34.0348619,108.756711,1.26854,2.10986,-2.09761,-0.0511265,-0.0257923,0.0,0.882367,0.167434,-0.0841355,-0.0409575,-0.0714168,-0.0348164,0.0633587,0.0462562,-0.432704,1.33614,0.0762423,0.00111277,427.744,0.572704,0.264097,0.3891,0.129641,0.104116,inf,inf,inf,inf,1,1,1,1,2,0,2,1,4,1,1,0
425111937,65222418,34.0348619,108.756711,1.35732,2.12827,-2.09946,-0.0511265,-0.0257923,0.0,0.897632,0.17651,-0.0579166,-0.0132449,-0.0714168,-0.0348164,0.0633587,0.561564,0.0871759,5.81885,0.076593,0.00111277,427.744,0.574559,0.272588,0.390891,0.134079,0.105524,inf,inf,inf,inf,1,1,1,1,2,0,2,1,4,1,1,0
425212023,65222418,34.0348619,108.756711,1.44786,2.14657,-2.10116,-0.0511265,-0.0257923,0.0,0.922122,0.172296,-0.066108,-0.0211664,-0.0714168,-0.0348164,0.0633587,-0.19976,0.918804,-0.203572,0.0768867,0.00111277,427.744,0.57625,0.263672,0.388413,0.129476,0.104048,inf,inf,inf,inf,1,1,1,1,2,0,2,1,4,1,1,0
425312094,65222418,34.0348619,108.756711,1.53852,2.1653,-2.10518,-0.0511265,-0.0257923,0.0,0.921499,0.176705,-0.0670898,-0.0240963,-0.0714168,-0.0348164,0.0633587,-0.302284,1.88097,0.906666,0.0776088,0.00111277,427.744,0.580278,0.272161,0.390186,0.133966,0.105451,inf,inf,inf,inf,1,1,1,1,2,0,2,1,4,1,1,0
425412174,65222418,34.0348619,108.756711,1.6294,2.18311,-2.10862,-0.0511265,-0.0257923,0.0,0.935444,0.177875,-0.0194062,0.0209149,-0.0714168,-0.0348164,0.0633587,0.568464,4.19603,3.98855,0.0778868,0.00111277,427.744,0.583712,0.263236,0.390129,0.129443,0.104236,inf,inf,inf,inf,1,1,1,1,2,0,2,1,4,1,1,0
425512253,65222418,34.0348619,108.756711,1.71944,2.20045,-2.10782,-0.0511265,-0.0257923,0.0,0.937289,0.17153,0.00820665,0.0465207,-0.0714168,-0.0348164,0.0633587,0.205927,5.25524,5.38247,0.0772267,0.00111277,427.744,0.582913,0.271728,0.391933,0.13398,0.105647,inf,inf,inf,inf,1,1,1,1,2,0,2,1,4,1,1,0
425612329,65222418,34.0348619,108.756711,1.80958,2.21782,-2.10941,-0.0511265,-0.0257923,0.0,0.929992,0.160163,-0.0301351,0.00459649,-0.0714168,-0.0348164,0.0633587,0.381857,2.29557,4.02879,0.0772069,0.00111277,427.744,0.584506,0.262797,0.389441,0.12933,0.104168,inf,inf,inf,inf,1,1,1,1,2,0,2,1,4,1,1,0
425712408,65222418,34.0348619,108.756711,1.89808,2.23544,-2.11495,-0.0511265,-0.0257923,0.0,0.927082,0.133613,-0.0659328,-0.0349131,-0.0714168,-0.0348164,0.0633587,-0.410957,-2.07791,-5.32008,0.0750898,0.00111277,427.744,0.590046,0.271283,0.391235,0.133823,0.105576,inf,inf,inf,inf,1,1,1,1,2,0,2,1,4,1,1,0
425812485,65222418,34.0348619,108.756711,1.98846,2.25192,-2.11868,-0.0511265,-0.0257923,0.0,0.928701,0.1307,-0.0625381,-0.0323762,-0.0714168,-0.0348164,0.0633587,-1.16155,-3.21783,-6.19018,0.0740401,0.00111277,427.744,0.593775,0.26227,0.388755,0.129405,0.104099,inf,inf,inf,inf,1,1,1,1,2,0,2,1,4,1,1,0
425912563,65222418,34.0348619,108.756711,2.08033,2.26777,-2.11844,-0.0511265,-0.0257923,0.0,0.92761,0.128816,-0.0398294,-0.00807845,-0.0714168,-0.0348164,0.0633587,-0.556687,-0.598027,0.250786,0.0742319,0.00111277,427.744,0.593533,0.270766,0.390539,0.133967,0.105505,inf,inf,inf,inf,1,1,1,1,2,0,2,1,4,1,1,0
426012642,65222418,34.0348619,108.756711,2.17094,2.2837,-2.11952,-0.0511265,-0.0257923,0.0,0.930617,0.143487,-0.0233117,0.00794258,-0.0714168,-0.0348164,0.0633587,0.258864,1.88522,4.02973,0.0746204,0.00111277,427.744,0.594615,0.261721,0.38807,0.12936,0.104031,inf,inf,inf,inf,1,1,1,1,2,0,2,1,4,1,1,0
426112720,65222418,34.0348619,108.756711,2.25912,2.3018,-2.11931,-0.0511265,-0.0257923,0.0,0.932343,0.13333,-0.0125749,0.0174957,-0.0714168,-0.0348164,0.0633587,0.592588,-2.66361,-0.853658,0.0759152,0.00111277,427.744,0.594403,0.270215,0.392293,0.133946,0.105702,inf,inf,inf,inf,1,1,1,1,2,0,2,1,4,1,1,0
426212829,65222418,34.0348619,108.756711,2.348,2.31859,-2.11197,-0.0511265,-0.0257923,0.0,0.924536,0.129166,0.00808969,0.0416359,-0.0714168,-0.0348164,0.0633587,0.0723139,-3.72564,-4.51091,0.0787102,0.00111277,427.744,0.587062,0.261108,0.38979,0.129358,0.104219,inf,inf,inf,inf,1,1,1,1,2,0,2,1,4,1,1,0
426312877,65222418,34.0348619,108.756711,2.43682,2.33475,-2.10476,-0.0511265,-0.0257923,0.0,0.921556,0.13864,0.0348096,0.0689673,-0.0714168,-0.0348164,0.0633587,0.172597,-0.60548,-2.49342,0.0817255,0.00111277,427.744,0.579859,0.269599,0.391595,0.13373,0.10563,inf,inf,inf,inf,1,1,1,1,2,0,2,1,4,1,1,0
426412955,65222418,34.0348619,108.756711,2.5262,2.35055,-2.09852,-0.0511265,-0.0257923,0.0,0.916081,0.120248,0.0428326,0.07439,-0.0714168,-0.0348164,0.0633587,0.154311,1.60327,-4.59259,0.0827165,0.00111277,427.744,0.57361,0.260475,0.389111,0.129107,0.104152,inf,inf,inf,inf,1,1,1,1,2,0,2,1,4,1,1,0
426513033,65222418,34.0348619,108.756711,2.61517,2.36507,-2.09281,-0.0511265,-0.0257923,0.0,0.911868,0.0799856,0.0597603,0.0877582,-0.0714168,-0.0348164,0.0633587,0.379493,-0.626348,-0.0621942,0.0838553,0.00111277,427.744,0.567904,0.268959,0.390906,0.133589,0.10556,inf,inf,inf,inf,1,1,1,1,2,0,2,1,4,1,1,0
426613112,65222418,34.0348619,108.756711,2.70403,2.37422,-2.08674,-0.0511265,-0.0257923,0.0,0.91507,0.0502752,0.0807792,0.105426,-0.0714168,-0.0348164,0.0633587,0.0492994,1.86988,2.94594,0.0829454,0.00111277,427.744,0.561834,0.259904,0.388441,0.129135,0.104097,inf,inf,inf,inf,1,1,1,1,2,0,2,1,4,1,1,0
426713190,65222418,34.0348619,108.756711,2.7931,2.37697,-2.08099,-0.0511265,-0.0257923,0.0,0.918149,-0.0107774,0.0878569,0.108215,-0.0714168,-0.0348164,0.0633587,-0.810996,6.04698,5.13001,0.0814645,0.00111277,427.744,0.556085,0.268395,0.390234,0.133684,0.105504,inf,inf,inf,inf,1,1,1,1,2,0,2,1,4,1,1,0
426813275,65222418,34.0348619,108.756711,2.88227,2.37522,-2.07522,-0.0511265,-0.0257923,0.0,0.928104,-0.0459531,0.0969044,0.11218,-0.0714168,-0.0348164,0.0633587,0.388427,3.87704,4.13463,0.0805175,0.00111277,427.744,0.550313,0.259262,0.387772,0.129126,0.104027,inf,inf,inf,inf,1,1,1,1,2,0,2,1,4,1,1,0
426913347,65222418,34.0348619,108.756711,2.97063,2.37164,-2.06949,-0.0511265,-0.0257923,0.0,0.933933,-0.100696,0.0902237,0.100877,-0.0714168,-0.0348164,0.0633587,0.655001,-3.90927,0.587393,0.0793712,0.00111277,427.744,0.544587,0.267751,0.391991,0.133639,0.105695,inf,inf,inf,inf,1,1,1,1,2,0,2,1,4,1,1,0
427013425,65222418,34.0348619,108.756711,3.05969,2.36591,-2.06249,-0.0511265,-0.0257923,0.0,0.940301,-0.0884395,0.101115,0.108679,-0.0714168,-0.0348164,0.0633587,-0.538016,0.838183,1.13262,0.076869,0.00111277,427.744,0.537588,0.258729,0.389509,0.129162,0.104226,inf,inf,inf,inf,1,1,1,1,2,0,2,1,4,1,1,0
427113505,65222418,34.0348619,108.756711,3.14943,2.36114,-2.05723,-0.0511265,-0.0257923,0.0,0.938101,-0.0857353,0.101876,0.10448,-0.0714168,-0.0348164,0.0633587,0.349301,3.71584,3.85476,0.0742144,0.00111277,427.744,0.532319,0.26723,0.391315,0.13363,0.105638,inf,inf,inf,inf,1,1,1,1,2,0,2,1,4,1,1,0
427213581,65222418,34.0348619,108.756711,3.23819,2.35597,-2.05535,-0.0511265,-0.0257923,0.0,0.922425,-0.0872732,0.105513,0.100322,-0.0714168,-0.0348164,0.0633587,0.622651,-1.76076,2.00951,0.0730472,0.00111277,427.744,0.530447,0.258156,0.388837,0.129103,0.104158,inf,inf,inf,inf,1,1,1,1,2,0,2,1,4,1,1,0
427313660,65222418,34.0348619,108.756711,3.32457,2.35122,-2.05268,-0.0511265,-0.0257923,0.0,0.922503,-0.105971,0.0995209,0.0873262,-0.0714168,-0.0348164,0.0633587,-0.385801,-4.13987,-5.0163,0.071889,0.00111277,427.744,0.527778,0.266659,0.390633,0.133724,0.105566,inf,inf,inf,inf,1,1,1,1,2,0,2,1,4,1,1,0
427413738,65222418,34.0348619,108.756711,3.41151,2.3451,-2.0483,-0.0511265,-0.0257923,0.0,0.903576,-0.0990048,0.111225,0.0939713,-0.0714168,-0.0348164,0.0633587,-0.320988,-0.605211,-2.39349,0.0722898,0.00111277,427.744,0.523389,0.257755,0.388173,0.129147,0.104101,inf,inf,inf,inf,1,1,1,1,2,0,2,1,4,1,1,0
427513819,65222418,34.0348619,108.756711,3.49854,2.33864,-2.03809,-0.0511265,-0.0257923,0.0,0.897831,-0.0891139,0.142713,0.124946,-0.0714168,-0.0348164,0.0633587,-0.188601,2.28905,0.842188,0.0717249,0.00111277,427.744,0.513182,0.266273,0.389958,0.133644,0.105506,inf,inf,inf,inf,1,1,1,1,2,0,2,1,4,1,1,0
427613895,65222418,34.0348619,108.756711,3.58693,2.33084,-2.01866,-0.0511265,-0.0257923,0.0,0.917948,-0.0949433,0.17514,0.163182,-0.0714168,-0.0348164,0.0633587,0.512016,2.34455,3.43764,0.0700931,0.00111277,427.744,0.493753,0.257384,0.389914,0.129201,0.104302,inf,inf,inf,inf,1,1,1,1,2,0,2,1,4,1,1,0
427713973,65222418,34.0348619,108.756711,3.67828,2.32234,-1.9951,-0.0511265,-0.0257923,0.0,0.94433,-0.101986,0.181672,0.176954,-0.0714168,-0.0348164,0.0633587,0.817852,-3.07643,-3.3789,0.0684044,0.00111277,427.744,0.470198,0.265913,0.391732,0.133658,0.105715,inf,inf,inf,inf,1,1,1,1,2,0,2,1,4,1,1,0
427814051,65222418,34.0348619,108.756711,3.77045,2.31586,-1.97511,-0.0511265,-0.0257923,0.0,0.949837,-0.0719431,0.180034,0.178164,-0.0714168,-0.0348164,0.0633587,0.825232,2.15416,2.61872,0.0692723,0.00111277,427.744,0.450206,0.257041,0.389246,0.129123,0.104243,inf,inf,inf,inf,1,1,1,1,2,0,2,1,4,1,1,0
427914129,65222418,34.0348619,108.756711,3.86352,2.31104,-1.95468,-0.0511265,-0.0257923,0.0,0.970683,-0.0656705,0.190977,0.191243,-0.0714168,-0.0348164,0.0633587,-0.134906,0.277317,-4.12478,0.0700898,0.00111277,427.744,0.429773,0.265579,0.391054,0.13356,0.105651,inf,inf,inf,inf,1,1,1,1,2,0,2,1,4,1,1,0
428014208,65222418,34.0348619,108.756711,3.95762,2.30625,-1.93285,-0.0511265,-0.0257923,0.0,0.969435,-0.0622848,0.179266,0.181575,-0.0714168,-0.0348164,0.0633587,-0.890847,-1.00696,-3.04573,0.0711679,0.00111277,427.744,0.407948,0.256714,0.388586,0.129122,0.104182,inf,inf,inf,inf,1,1,1,1,2,0,2,1,4,1,1,0
428114290,65222418,34.0348619,108.756711,4.05041,2.30055,-1.91472,-0.0511265,-0.0257923,0.0,0.967013,-0.0448015,0.183336,0.186431,-0.0714168,-0.0348164,0.0633587,-0.632742,2.27055,5.98325,0.0713185,0.00111277,427.744,0.389817,0.265265,0.390376,0.133602,0.105586,inf,inf,inf,inf,1,1,1,1,2,0,2,1,4,1,1,0
428214364,65222418,34.0348619,108.756711,4.14435,2.29603,-1.89593,-0.0511265,-0.0257923,0.0,0.977591,-0.0351906,0.173516,0.178172,-0.0714168,-0.0348164,0.0633587,0.333611,-1.05361,-2.6224,0.0716274,0.00111277,427.744,0.371025,0.256314,0.390301,0.129132,0.104359,inf,inf,inf,inf,1,1,1,1,2,0,2,1,4,1,1,0
428314443,65222418,34.0348619,108.756711,4.2382,2.29431,-1.87885,-0.0511265,-0.0257923,0.0,0.980173,-0.0142777,0.180566,0.184171,-0.0714168,-0.0348164,0.0633587,0.616547,-1.03199,3.86834,0.0729669,0.00111277,427.744,0.353941,0.264871,0.392113,0.133781,0.10577,inf,inf,inf,inf,1,1,1,1,2,0,2,1,4,1,1,0
428414529,65222418,34.0348619,108.756711,4.33281,2.29399,-1.8646,-0.0511265,-0.0257923,0.0,0.985247,0.0142312,0.135367,0.137245,-0.0714168,-0.0348164,0.0633587,-0.486343,2.04504,-4.09398,0.0734108,0.00111277,427.744,0.339695,0.255978,0.3896,0.129108,0.104278,inf,inf,inf,inf,1,1,1,1,2,0,2,1,4,1,1,0
428514601,65222418,34.0348619,108.756711,4.42732,2.29704,-1.85036,-0.0511265,-0.0257923,0.0,0.993477,0.0289387,0.10914,0.112777,-0.0714168,-0.0348164,0.0633587,-0.692191,-0.209575,1.68867,0.0730179,0.00111277,427.744,0.325457,0.264539,0.391393,0.133709,0.105684,inf,inf,inf,inf,1,1,1,1,2,0,2,1,4,1,1,0
428614678,65222418,34.0348619,108.756711,4.52584,2.30095,-1.83628,-0.0511265,-0.0257923,0.0,1.03463,0.0634848,0.0554475,0.0637498,-0.0714168,-0.0348164,0.0633587,1.24775,-3.22957,0.0703299,0.0728475,0.00111277,427.744,0.311372,0.255744,0.3889,0.129367,0.104209,inf,inf,inf,inf,1,1,1,1,2,0,2,1,4,1,1,0
428714756,65222418,34.0348619,108.756711,4.62772,2.3058,-1.82884,-0.0511265,-0.0257923,0.0,1.06062,0.0639971,0.0101744,0.0215691,-0.0714168,-0.0348164,0.0633587,0.230631,1.60702,-1.77802,0.0720602,0.00111277,427.744,0.303931,0.26433,0.390691,0.134087,0.105614,inf,inf,inf,inf,1,1,1,1,2,0,2,1,4,1,1,0
428814834,65222418,34.0348619,108.756711,4.73205,2.31093,-1.82361,-0.0511265,-0.0257923,0.0,1.09434,0.0652334,0.00623929,0.0209174,-0.0714168,-0.0348164,0.0633587,0.636919,-3.75392,0.655768,0.070156,0.00111277,427.744,0.298705,0.255434,0.388204,0.129618,0.104128,inf,inf,inf,inf,1,1,1,1,2,0,2,1,4,1,1,0
428914916,65222418,34.0348619,108.756711,4.83728,2.31544,-1.81583,-0.0511265,-0.0257923,0.0,1.1205,0.0787844,-0.00711855,0.0134585,-0.0714168,-0.0348164,0.0633587,-0.015839,-0.303896,-1.61776,0.0697584,0.00111277,427.744,0.290926,0.264037,0.392426,0.134414,0.105796,inf,inf,inf,inf,1,1,1,1,2,0,2,1,4,1,1,0
429014991,65222418,34.0348619,108.756711,4.94424,2.32049,-1.80827,-0.0511265,-0.0257923,0.0,1.12211,0.0803098,-0.0143405,0.012595,-0.0714168,-0.0348164,0.0633587,-0.175701,3.26528,4.94531,0.0699088,0.00111277,427.744,0.283367,0.255146,0.389914,0.129679,0.104305,inf,inf,inf,inf,1,1,1,1,2,0,2,1,4,1,1,0
429115069,65222418,34.0348619,108.756711,5.05008,2.32514,-1.80293,-0.0511265,-0.0257923,0.0,1.11812,0.0761762,-0.0433273,-0.0113266,-0.0714168,-0.0348164,0.0633587,-0.0268679,-1.79324,-1.87216,0.0691704,0.00111277,427.744,0.278025,0.263758,0.391716,0.134348,0.105715,inf,inf,inf,inf,1,1,1,1,2,0,2,1,4,1,1,0
429215149,65222418,34.0348619,108.756711,5.1556,2.33067,-1.80279,-0.0511265,-0.0257923,0.0,1.09219,0.079078,-0.089199,-0.0537592,-0.0714168,-0.0348164,0.0633587,-0.20666,-0.036229,2.68129,0.0681649,0.00111277,427.744,0.277888,0.254959,0.389223,0.129878,0.10424,inf,inf,inf,inf,1,1,1,1,2,0,2,1,4,1,1,0
429315236,65222418,34.0348619,108.756711,5.25856,2.33849,-1.80552,-0.0511265,-0.0257923,0.0,1.05143,0.110004,-0.102547,-0.0636593,-0.0714168,-0.0348164,0.0633587,-0.915484,2.76048,-0.0775739,0.0669768,0.00111277,427.744,0.280612,0.263589,0.391014,0.134506,0.105646,inf,inf,inf,inf,1,1,1,1,2,0,2,1,4,1,1,0
429415305,65222418,34.0348619,108.756711,5.35913,2.34797,-1.80598,-0.0511265,-0.0257923,0.0,1.02797,0.10758,-0.0855336,-0.0415887,-0.0714168,-0.0348164,0.0633587,-0.186915,3.87543,3.15121,0.0641864,0.00111277,427.744,0.281075,0.254645,0.388527,0.129951,0.104159,inf,inf,inf,inf,1,1,1,1,2,0,2,1,4,1,1,0
429515382,65222418,34.0348619,108.756711,5.45647,2.3582,-1.80544,-0.0511265,-0.0257923,0.0,0.984499,0.111867,-0.113594,-0.0636486,-0.0714168,-0.0348164,0.0633587,-0.113583,1.90651,2.64147,0.0613332,0.00111277,427.744,0.280535,0.263284,0.390307,0.134569,0.105559,inf,inf,inf,inf,1,1,1,1,2,0,2,1,4,1,1,0
429615461,65222418,34.0348619,108.756711,5.5514,2.36847,-1.8132,-0.0511265,-0.0257923,0.0,0.966289,0.0991795,-0.159616,-0.109171,-0.0714168,-0.0348164,0.0633587,0.709647,-0.546122,-0.130278,0.0576974,0.00111277,427.744,0.288293,0.254275,0.390244,0.129848,0.104334,inf,inf,inf,inf,1,1,1,1,2,0,2,1,4,1,1,0
429715539,65222418,34.0348619,108.756711,5.64626,2.37822,-1.8297,-0.0511265,-0.0257923,0.0,0.96731,0.104815,-0.176373,-0.131022,-0.0714168,-0.0348164,0.0633587,0.144282,-0.15253,-2.85793,0.0562447,0.00111277,427.744,0.304795,0.262913,0.392055,0.134524,0.105745,inf,inf,inf,inf,1,1,1,1,2,0,2,1,4,1,1,0
429815617,65222418,34.0348619,108.756711,5.74264,2.38814,-1.84282,-0.0511265,-0.0257923,0.0,0.962235,0.0844598,-0.165026,-0.120112,-0.0714168,-0.0348164,0.0633587,-0.392611,0.601091,2.40851,0.0569494,0.00111277,427.744,0.317909,0.253878,0.389554,0.129858,0.104257,inf,inf,inf,inf,1,1,1,1,2,0,2,1,4,1,1,0
429915696,65222418,34.0348619,108.756711,5.84131,2.39768,-1.85469,-0.0511265,-0.0257923,0.0,0.954479,0.0831124,-0.161869,-0.11676,-0.0714168,-0.0348164,0.0633587,0.174084,-4.44263,0.795584,0.060347,0.00111277,427.744,0.329787,0.262519,0.391337,0.134464,0.105661,inf,inf,inf,inf,1,1,1,1,2,0,2,1,4,1,1,0
430015774,65222418,34.0348619,108.756711,5.93645,2.40618,-1.87215,-0.0511265,-0.0257923,0.0,0.924926,0.0803338,-0.156533,-0.116782,-0.0714168,-0.0348164,0.0633587,0.348921,2.70274,3.67538,0.0646014,0.00111277,427.744,0.347239,0.253677,0.38884,0.129836,0.104186,inf,inf,inf,inf,1,1,1,1,2,0,2,1,4,1,1,0
430115852,65222418,34.0348619,108.756711,6.03087,2.41418,-1.88764,-0.0511265,-0.0257923,0.0,0.929736,0.0898416,-0.123525,-0.0891948,-0.0714168,-0.0348164,0.0633587,0.287961,-0.965966,0.0340812,0.0730516,0.00111277,427.744,0.362737,0.262325,0.390614,0.134367,0.105587,inf,inf,inf,inf,1,1,1,1,2,0,2,1,4,1,1,0
430215930,65222418,34.0348619,108.756711,6.12187,2.42252,-1.90265,-0.0511265,-0.0257923,0.0,0.893502,0.0803037,-0.178379,-0.147506,-0.0714168,-0.0348164,0.0633587,-0.357133,0.998819,-3.12227,0.0811696,0.00111277,427.744,0.377744,0.253548,0.390539,0.129682,0.104371,inf,inf,inf,inf,1,1,1,1,2,0,2,1,4,1,1,0
430316009,65222418,34.0348619,108.756711,6.20939,2.42932,-1.91998,-0.0511265,-0.0257923,0.0,0.888371,0.0698549,-0.183015,-0.155498,-0.0714168,-0.0348164,0.0633587,-0.520661,0.354246,-3.86706,0.086362,0.00111277,427.744,0.395074,0.262198,0.392344,0.134184,0.105781,inf,inf,inf,inf,1,1,1,1,2,0,2,1,4,1,1,0
430406079,65222418,34.0348619,108.756711,6.28893,2.43631,-1.93703,-0.0511265,-0.0257923,0.0,0.889452,0.0795873,-0.145637,-0.1239,-0.0714168,-0.0348164,0.0633587,0.0890902,-0.533148,-2.11894,0.0893596,0.00111277,427.744,0.41212,0.252524,0.389168,0.129215,0.104108,inf,inf,inf,inf,1,1,1,1,2,0,2,1,4,1,1,0
430516165,65222418,34.0348619,108.756711,6.38863,2.44636,-1.95072,-0.0511265,-0.0257923,0.0,0.917105,0.0957212,-0.0955379,-0.0767574,-0.0714168,-0.0348164,0.0633587,-0.526051,5.07342,5.17522,0.09088,0.00111277,427.744,0.425816,0.26202,0.391621,0.134095,0.105708,inf,inf,inf,inf,1,1,1,1,2,0,2,1,4,1,1,0
430616251,65222418,34.0348619,108.756711,6.48062,2.4545,-1.96562,-0.0511265,-0.0257923,0.0,0.927123,0.0821889,-0.139131,-0.125112,-0.0714168,-0.0348164,0.0633587,0.0724522,-3.32291,-5.26218,0.092818,0.00111277,427.744,0.440716,0.253082,0.38911,0.129249,0.104217,inf,inf,inf,inf,1,1,1,1,2,0,2,1,4,1,1,0
430716322,65222418,34.0348619,108.756711,6.57085,2.46272,-1.98015,-0.0511265,-0.0257923,0.0,0.930098,0.110009,-0.111116,-0.100542,-0.0714168,-0.0348164,0.0633587,-0.304153,4.07183,0.37898,0.0929825,0.00111277,427.744,0.455245,0.261725,0.390894,0.133749,0.105621,inf,inf,inf,inf,1,1,1,1,2,0,2,1,4,1,1,0
430816400,65222418,34.0348619,108.756711,6.66312,2.47164,-1.99022,-0.0511265,-0.0257923,0.0,0.938788,0.115694,-0.0666894,-0.0586786,-0.0714168,-0.0348164,0.0633587,-0.384609,5.94864,2.70791,0.0939592,0.00111277,427.744,0.465313,0.252801,0.388384,0.128958,0.104106,inf,inf,inf,inf,1,1,1,1,2,0,2,1,4,1,1,0
430906474,65222418,34.0348619,108.756711,6.74357,2.48115,-2.00313,-0.0511265,-0.0257923,0.0,0.929656,0.122151,-0.0531543,-0.0529517,-0.0714168,-0.0348164,0.0633587,0.144676,4.71588,5.51699,0.0945249,0.00111277,427.744,0.478222,0.260538,0.391937,0.13294,0.105583,inf,inf,inf,inf,1,1,1,1,2,0,2,1,4,1,1,0
431016557,65222418,34.0348619,108.756711,6.84097,2.49174,-2.01662,-0.0511265,-0.0257923,0.0,0.917226,0.106463,-0.0525048,-0.0585141,-0.0714168,-0.0348164,0.0633587,0.059523,-3.18422,2.56136,0.0946611,0.00111277,427.744,0.491717,0.252913,0.39009,0.12875,0.104286,inf,inf,inf,inf,1,1,1,1,2,0,2,1,4,1,1,0
431116640,65222418,34.0348619,108.756711,6.92677,2.49973,-2.02447,-0.0511265,-0.0257923,0.0,0.912461,0.114123,-0.0225944,-0.0311252,-0.0714168,-0.0348164,0.0633587,-0.325214,0.88753,1.19238,0.0922813,0.00111277,427.744,0.499569,0.261534,0.391884,0.133255,0.105694,inf,inf,inf,inf,1,1,1,1,2,0,2,1,4,1,1,0
431216714,65222418,34.0348619,108.756711,7.01409,2.50933,-2.03003,-0.0511265,-0.0257923,0.0,0.908127,0.118107,-0.0107561,-0.0222841,-0.0714168,-0.0348164,0.0633587,-0.185018,0.811197,-3.79921,0.0906579,0.00111277,427.744,0.505128,0.252973,0.389377,0.128599,0.104207,inf,inf,inf,inf,1,1,1,1,2,0,2,1,4,1,1,0
431316792,65222418,34.0348619,108.756711,7.10162,2.51974,-2.03834,-0.0511265,-0.0257923,0.0,0.900903,0.08665,-0.00323009,-0.0211624,-0.0714168,-0.0348164,0.0633587,-0.108575,-2.16334,1.46253,0.0920468,0.00111277,427.744,0.513432,0.261596,0.391169,0.133026,0.105614,inf,inf,inf,inf,1,1,1,1,2,0,2,1,4,1,1,0
431406862,65222418,34.0348619,108.756711,7.1803,2.52594,-2.04481,-0.0511265,-0.0257923,0.0,0.901805,0.0592559,-0.0115269,-0.0325562,-0.0714168,-0.0348164,0.0633587,0.599205,-3.16683,2.42035,0.0932357,0.00111277,427.744,0.519908,0.252115,0.390425,0.127993,0.104194,inf,inf,inf,inf,1,1,1,1,2,0,2,1,4,1,1,0
431516950,65222418,34.0348619,108.756711,7.27498,2.52944,-2.04671,-0.0511265,-0.0257923,0.0,0.903603,0.0178208,0.0246945,0.00384882,-0.0714168,-0.0348164,0.0633587,0.581269,-1.71385,1.06616,0.0931043,0.00111277,427.744,0.521807,0.261565,0.392883,0.132952,0.105796,inf,inf,inf,inf,1,1,1,1,2,0,2,1,4,1,1,0
431607021,65222418,34.0348619,108.756711,7.35295,2.52863,-2.04586,-0.0511265,-0.0257923,0.0,0.899066,-0.0443257,0.058948,0.0371008,-0.0714168,-0.0348164,0.0633587,-0.167392,-4.61511,-3.87774,0.0934841,0.00111277,427.744,0.520954,0.252056,0.38969,0.127884,0.104109,inf,inf,inf,inf,1,1,1,1,2,0,2,1,4,1,1,0
431717105,65222418,34.0348619,108.756711,7.44625,2.52424,-2.03827,-0.0511265,-0.0257923,0.0,0.896163,-0.0731683,0.107681,0.0870642,-0.0714168,-0.0348164,0.0633587,0.486754,-1.34868,0.637322,0.0949657,0.00111277,427.744,0.513367,0.261503,0.392136,0.13268,0.105705,inf,inf,inf,inf,1,1,1,1,2,0,2,1,4,1,1,0
431817183,65222418,34.0348619,108.756711,7.53249,2.51753,-2.02379,-0.0511265,-0.0257923,0.0,0.888647,-0.104165,0.135528,0.119014,-0.0714168,-0.0348164,0.0633587,-0.149346,-0.241211,-4.72751,0.0959124,0.00111277,427.744,0.49888,0.252804,0.389608,0.128029,0.104213,inf,inf,inf,inf,1,1,1,1,2,0,2,1,4,1,1,0
431907257,65222418,34.0348619,108.756711,7.61061,2.51123,-2.00735,-0.0511265,-0.0257923,0.0,0.882038,-0.110519,0.159062,0.146339,-0.0714168,-0.0348164,0.0633587,-0.10576,-0.941267,-3.86116,0.0979136,0.00111277,427.744,0.482449,0.260522,0.390713,0.131983,0.105422,inf,inf,inf,inf,1,1,1,1,2,0,2,1,4,1,1,0
432017355,65222418,34.0348619,108.756711,7.70536,2.50281,-1.98689,-0.0511265,-0.0257923,0.0,0.875306,-0.0979824,0.171319,0.161301,-0.0714168,-0.0348164,0.0633587,-0.172408,4.71999,-2.09717,0.0988536,0.00111277,427.744,0.461982,0.252647,0.38888,0.12777,0.104131,inf,inf,inf,inf,1,1,1,1,2,0,2,1,4,1,1,0
432107410,65222418,34.0348619,108.756711,7.78085,2.49693,-1.97102,-0.0511265,-0.0257923,0.0,0.865514,-0.0986089,0.193316,0.183622,-0.0714168,-0.0348164,0.0633587,0.244202,1.4936,1.94979,0.0989788,0.00111277,427.744,0.446117,0.260352,0.392428,0.131795,0.105607,inf,inf,inf,inf,1,1,1,1,2,0,2,1,4,1,1,0
432217497,65222418,34.0348619,108.756711,7.87311,2.48866,-1.94869,-0.0511265,-0.0257923,0.0,0.864483,-0.0884662,0.21807,0.209797,-0.0714168,-0.0348164,0.0633587,0.271411,1.89521,1.72573,0.0983204,0.00111277,427.744,0.423785,0.252465,0.390565,0.127741,0.104309,inf,inf,inf,inf,1,1,1,1,2,0,2,1,4,1,1,0
432307567,65222418,34.0348619,108.756711,7.94864,2.47999,-1.93017,-0.0511265,-0.0257923,0.0,0.862234,-0.0899492,0.237514,0.229067,-0.0714168,-0.0348164,0.0633587,0.604856,0.56946,4.44979,0.0977361,0.00111277,427.744,0.405262,0.260165,0.391689,0.131773,0.105525,inf,inf,inf,inf,1,1,1,1,2,0,2,1,4,1,1,0
432417653,65222418,34.0348619,108.756711,8.04114,2.46993,-1.90507,-0.0511265,-0.0257923,0.0,0.873744,-0.0753315,0.267611,0.259318,-0.0714168,-0.0348164,0.0633587,0.376348,-1.11364,3.83378,0.0971741,0.00111277,427.744,0.380168,0.252271,0.389839,0.127644,0.10423,inf,inf,inf,inf,1,1,1,1,2,0,2,1,4,1,1,0
432517731,65222418,34.0348619,108.756711,8.12442,2.46213,-1.88041,-0.0511265,-0.0257923,0.0,0.87062,-0.0588195,0.266857,0.258545,-0.0714168,-0.0348164,0.0633587,0.979021,-1.20149,0.24358,0.0967239,0.00111277,427.744,0.355502,0.260847,0.391625,0.132096,0.105637,inf,inf,inf,inf,1,1,1,1,2,0,2,1,4,1,1,0
432607805,65222418,34.0348619,108.756711,8.20047,2.45557,-1.85535,-0.0511265,-0.0257923,0.0,0.881197,-0.0475036,0.262493,0.255881,-0.0714168,-0.0348164,0.0633587,-0.664949,1.64299,-1.44131,0.096549,0.00111277,427.744,0.330446,0.25124,0.38846,0.127096,0.103959,inf,inf,inf,inf,1,1,1,1,2,0,2,1,4,1,1,0
432717890,65222418,34.0348619,108.756711,8.29366,2.44905,-1.82451,-0.0511265,-0.0257923,0.0,0.880746,-0.0250745,0.259862,0.255508,-0.0714168,-0.0348164,0.0633587,-0.364175,3.3392,-0.480473,0.0941806,0.00111277,427.744,0.299607,0.260638,0.390893,0.131947,0.105556,inf,inf,inf,inf,1,1,1,1,2,0,2,1,4,1,1,0
432807959,65222418,34.0348619,108.756711,8.36984,2.44442,-1.80007,-0.0511265,-0.0257923,0.0,0.889261,-0.0261914,0.290331,0.286481,-0.0714168,-0.0348164,0.0633587,0.318885,-1.8108,3.70192,0.0928936,0.00111277,427.744,0.275165,0.251114,0.39016,0.12715,0.104152,inf,inf,inf,inf,1,1,1,1,2,0,2,1,4,1,1,0
432918045,65222418,34.0348619,108.756711,8.46277,2.43928,-1.77354,-0.0511265,-0.0257923,0.0,0.896798,-0.00495588,0.289906,0.282074,-0.0714168,-0.0348164,0.0633587,0.482802,0.257729,1.83667,0.0879284,0.00111277,427.744,0.248638,0.26052,0.392627,0.132184,0.105759,inf,inf,inf,inf,1,1,1,1,2,0,2,1,4,1,1,0
433008115,65222418,34.0348619,108.756711,8.53998,2.43711,-1.7543,-0.0511265,-0.0257923,0.0,0.898618,0.00510257,0.249769,0.238311,-0.0714168,-0.0348164,0.0633587,0.297951,1.08297,0.89169,0.0845951,0.00111277,427.744,0.229391,0.251012,0.389455,0.127288,0.10409,inf,inf,inf,inf,1,1,1,1,2,0,2,1,4,1,1,0
433108193,65222418,34.0348619,108.756711,8.62731,2.43705,-1.73676,-0.0511265,-0.0257923,0.0,0.902604,0.0348644,0.233925,0.218324,-0.0714168,-0.0348164,0.0633587,0.333149,2.39843,6.70957,0.0818541,0.00111277,427.744,0.211852,0.259545,0.391224,0.131828,0.105496,inf,inf,inf,inf,1,1,1,1,2,0,2,1,4,1,1,0
433218282,65222418,34.0348619,108.756711,8.72319,2.43922,-1.71601,-0.0511265,-0.0257923,0.0,0.90644,0.0578284,0.186398,0.170724,-0.0714168,-0.0348164,0.0633587,-0.673752,-2.61833,-6.18419,0.0782153,0.00111277,427.744,0.191101,0.25159,0.389373,0.127956,0.104199,inf,inf,inf,inf,1,1,1,1,2,0,2,1,4,1,1,0
433308352,65222418,34.0348619,108.756711,8.80025,2.44326,-1.70286,-0.0511265,-0.0257923,0.0,0.914171,0.110109,0.155924,0.139329,-0.0714168,-0.0348164,0.0633587,0.0921189,-0.514615,3.29072,0.0763402,0.00111277,427.744,0.177953,0.259299,0.390474,0.132099,0.105409,inf,inf,inf,inf,1,1,1,1,2,0,2,1,4,1,1,0
433418438,65222418,34.0348619,108.756711,8.89662,2.45268,-1.69669,-0.0511265,-0.0257923,0.0,0.942092,0.156154,0.0854169,0.0644723,-0.0714168,-0.0348164,0.0633587,-0.384829,0.0785935,-1.09863,0.0741781,0.00111277,427.744,0.171781,0.251433,0.388643,0.128223,0.10413,inf,inf,inf,inf,1,1,1,1,2,0,2,1,4,1,1,0
433508507,65222418,34.0348619,108.756711,8.97778,2.4636,-1.69569,-0.0511265,-0.0257923,0.0,0.949926,0.183947,0.000137946,-0.0217389,-0.0714168,-0.0348164,0.0633587,-0.155121,-0.202068,-1.31882,0.0735485,0.00111277,427.744,0.170785,0.259157,0.392183,0.132462,0.105604,inf,inf,inf,inf,1,1,1,1,2,0,2,1,4,1,1,0
433608585,65222418,34.0348619,108.756711,9.06989,2.47839,-1.70068,-0.0511265,-0.0257923,0.0,0.966448,0.186438,-0.0701374,-0.09184,-0.0714168,-0.0348164,0.0633587,0.502234,-1.36265,-3.68732,0.075115,0.00111277,427.744,0.175769,0.250384,0.389666,0.128125,0.104113,inf,inf,inf,inf,1,1,1,1,2,0,2,1,4,1,1,0
433708665,65222418,34.0348619,108.756711,9.16273,2.49478,-1.71107,-0.0511265,-0.0257923,0.0,0.967802,0.228246,-0.0992599,-0.120485,-0.0714168,-0.0348164,0.0633587,0.556227,-0.587019,1.94685,0.0771809,0.00111277,427.744,0.186168,0.258961,0.391437,0.132966,0.105519,inf,inf,inf,inf,1,1,1,1,2,0,2,1,4,1,1,0
433808743,65222418,34.0348619,108.756711,9.25635,2.51217,-1.72265,-0.0511265,-0.0257923,0.0,0.977875,0.226196,-0.140773,-0.158562,-0.0714168,-0.0348164,0.0633587,-0.421375,1.844,0.547916,0.0792935,0.00111277,427.744,0.197741,0.250302,0.388933,0.128673,0.104044,inf,inf,inf,inf,1,1,1,1,2,0,2,1,4,1,1,0
433918828,65222418,34.0348619,108.756711,9.35941,2.53104,-1.73517,-0.0511265,-0.0257923,0.0,0.981817,0.235026,-0.179116,-0.189216,-0.0714168,-0.0348164,0.0633587,0.742601,-2.3938,-1.1894,0.0813569,0.00111277,427.744,0.21026,0.259797,0.391366,0.133801,0.105642,inf,inf,inf,inf,1,1,1,1,2,0,2,1,4,1,1,0
434008906,65222418,34.0348619,108.756711,9.44499,2.54649,-1.74833,-0.0511265,-0.0257923,0.0,0.97923,0.212717,-0.203304,-0.208397,-0.0714168,-0.0348164,0.0633587,-0.689483,0.943187,-0.877853,0.0827365,0.00111277,427.744,0.223419,0.250289,0.388213,0.12897,0.103977,inf,inf,inf,inf,1,1,1,1,2,0,2,1,4,1,1,0
434108980,65222418,34.0348619,108.756711,9.54045,2.56293,-1.76315,-0.0511265,-0.0257923,0.0,0.977771,0.222504,-0.209693,-0.208573,-0.0714168,-0.0348164,0.0633587,-0.496983,4.25783,3.17514,0.0823335,0.00111277,427.744,0.238243,0.258914,0.392417,0.133551,0.105647,inf,inf,inf,inf,1,1,1,1,2,0,2,1,4,1,1,0
