timestamp,timestamp_sample,control[0],control[1],control[2],control[3],control[4],control[5],control[6],control[7]
16968805,16967939,-0.0419763,-0.1523,-0.000660834,0.0912,0.0,0.0,0.0,-1.0
16971349,16970487,-0.0762339,-0.0414821,-0.00966253,0.0912,0.0,0.0,0.0,-1.0
17068921,17068064,-0.134155,0.196878,-0.00585774,0.0912,0.0,0.0,0.0,-1.0
17171619,17170742,-0.212639,-0.176002,-0.00681768,0.0922182,0.0,0.0,0.0,-1.0
17269178,17268321,0.169643,-0.0270063,0.0115397,0.0942545,0.0,0.0,0.0,-1.0
17369318,17368450,-0.0757026,-0.298528,-0.0226794,0.0901818,0.0,0.0,0.0,-1.0
17471983,17471127,0.0378101,-0.284599,-0.0141627,0.0901818,0.0,0.0,0.0,-1.0
17569564,17568707,0.237332,-0.250407,0.00238367,0.0901818,0.0,0.0,0.0,-1.0
17669711,17668835,0.209203,-0.090343,0.00838344,0.0901818,0.0,0.0,0.0,-1.0
17769821,17768964,-0.24838,0.30057,0.0100343,0.0901818,0.0,0.0,0.0,-1.0
17869949,17869092,-0.291232,0.307593,-0.0152914,0.0901818,0.0,0.0,0.0,-1.0
17972636,17971770,0.305813,-0.338911,-0.00215655,0.0901818,0.0,0.0,0.0,-1.0
18070210,18069350,0.244643,-0.308209,0.00246343,0.0901818,0.0,0.0,0.0,-1.0
18170349,18169478,-0.0879316,0.236816,0.00180158,0.0901818,0.0,0.0,0.0,-1.0
18270464,18269606,-0.189644,0.252198,0.00368734,0.0901818,0.0,0.0,0.0,-1.0
18370604,18369735,-0.0301211,-0.145117,0.0150513,0.0901818,0.0,0.0,0.0,-1.0
18468271,18467406,0.039749,-0.25882,0.00892815,0.0901818,0.0,0.0,0.0,-1.0
18570849,18569992,0.0983256,-0.138615,0.00980324,0.0901818,0.0,0.0,0.0,-1.0
18670983,18670120,0.254717,-0.440103,0.00744775,0.0901818,0.0,0.0,0.0,-1.0
18771130,18770256,0.117211,-0.158009,0.00353633,0.0901818,0.0,0.0,0.0,-1.0
18871240,18870378,-0.126572,0.0931192,-0.00981004,0.0901818,0.0,0.0,0.0,-1.0
18968907,18968049,-0.160166,0.218145,0.00406311,0.0912,0.0,0.0,0.0,-1.0
19071501,19070641,-0.221745,0.0922341,0.0147147,0.0912,0.0,0.0,0.0,-1.0
19169166,19168308,-0.158956,0.247118,0.00770427,0.0901818,0.0,0.0,0.0,-1.0
19269307,19268435,-0.12393,-0.0512367,-0.00373174,0.0901818,0.0,0.0,0.0,-1.0
19371889,19371020,0.302522,-0.480059,0.00898453,0.0901818,0.0,0.0,0.0,-1.0
19469551,19468693,0.0668781,-0.137362,0.00902049,0.0912,0.0,0.0,0.0,-1.0
19572156,19571289,-0.217586,0.224707,0.00357889,0.0901818,0.0,0.0,0.0,-1.0
19669807,19668949,-0.196542,0.0350116,0.0161298,0.0901818,0.0,0.0,0.0,-1.0
19769940,19769078,-0.0426528,-0.224799,0.00906833,0.0912,0.0,0.0,0.0,-1.0
19870079,19869206,-0.121458,0.0275272,0.0014218,0.0901818,0.0,0.0,0.0,-1.0
19970200,19969343,0.0247847,-0.190086,-0.00327753,0.0901818,0.0,0.0,0.0,-1.0
20072791,20071921,0.181632,-0.085111,0.00658541,0.0912,0.0,0.0,0.0,-1.0
20170450,20169592,0.0358659,0.0108868,0.005081,0.0901818,0.0,0.0,0.0,-1.0
20270582,20269720,0.240737,-0.438827,0.0162322,0.0901818,0.0,0.0,0.0,-1.0
20368158,20367300,0.202234,-0.396276,0.01622,0.0901818,0.0,0.0,0.0,-1.0
20470842,20469978,-0.156743,0.0722737,0.0133569,0.0901818,0.0,0.0,0.0,-1.0
20568414,20567557,-0.089987,-0.0576779,-0.0114422,0.0901818,0.0,0.0,0.0,-1.0
20671098,20670235,-0.250834,0.128392,0.0111035,0.0912,0.0,0.0,0.0,-1.0
20768668,20767807,-0.355172,0.32637,0.00776683,0.0912,0.0,0.0,0.0,-1.0
20868805,20867943,-0.0994119,0.0371683,-0.00011477,0.0901818,0.0,0.0,0.0,-1.0
20968929,20968072,0.155471,-0.38694,0.00213099,0.0901818,0.0,0.0,0.0,-1.0
21069060,21068200,0.0727949,-0.278293,0.00905231,0.0901818,0.0,0.0,0.0,-1.0
21171742,21170884,-0.210134,0.192508,0.0024582,0.0912,0.0,0.0,0.0,-1.0
21269323,21268457,-0.147967,0.231826,0.000524962,0.0912,0.0,0.0,0.0,-1.0
21369457,21368586,0.0926403,-0.22353,0.0096713,0.0901818,0.0,0.0,0.0,-1.0
21469587,21468715,0.278484,-0.251017,0.0183662,0.0901818,0.0,0.0,0.0,-1.0
21569713,21568850,-0.0407389,0.103925,0.0175897,0.0912,0.0,0.0,0.0,-1.0
21672389,21671521,-0.18082,0.0435633,0.00995799,0.0912,0.0,0.0,0.0,-1.0
21769957,21769100,0.0542046,-0.295709,0.00682372,0.0901818,0.0,0.0,0.0,-1.0
21870097,21869232,0.237165,-0.459793,0.00762286,0.0912,0.0,0.0,0.0,-1.0
21967763,21966900,0.17296,-0.264637,0.00148617,0.0901818,0.0,0.0,0.0,-1.0
22070364,22069487,-0.201985,0.1093,-0.00410804,0.0901818,0.0,0.0,0.0,-1.0
22173053,22172164,-0.131476,-0.324151,0.0063629,0.0912,0.0,0.0,0.0,-1.0
22270601,22269743,-0.196166,0.123492,0.00685611,0.0901818,0.0,0.0,0.0,-1.0
22370754,22369872,-0.124411,0.0328002,0.0133546,0.0901818,0.0,0.0,0.0,-1.0
22468399,22467543,-0.0343052,-0.212449,0.0161503,0.0901818,0.0,0.0,0.0,-1.0
22570992,22570132,0.15676,-0.261842,0.0257296,0.0901818,0.0,0.0,0.0,-1.0
22668657,22667801,0.0534637,-0.144996,0.0116382,0.0901818,0.0,0.0,0.0,-1.0
22771247,22770387,-0.184602,0.0830369,0.0141128,0.0901818,0.0,0.0,0.0,-1.0
22871376,22870515,0.264398,-0.469579,0.00285636,0.0901818,0.0,0.0,0.0,-1.0
22969060,22968190,0.281081,-0.35389,-0.000529131,0.0912,0.0,0.0,0.0,-1.0
23071641,23070772,-0.31329,0.203935,0.00513887,0.0901818,0.0,0.0,0.0,-1.0
23169325,23168448,-0.150066,0.135839,0.00260323,0.0922182,0.0,0.0,0.0,-1.0
23271898,23271035,0.0830307,-0.319914,0.0109323,0.0922182,0.0,0.0,0.0,-1.0
23369557,23368701,0.12563,-0.0737538,-0.0158399,0.137018,0.0,0.0,0.0,-1.0
23469694,23468833,-0.219881,0.0943561,-0.0236157,0.144145,0.0,0.0,0.0,-1.0
23572286,23571416,-0.232201,0.0490882,-0.0451462,0.140073,0.0,0.0,0.0,-1.0
23669950,23669093,0.136968,-0.233161,-0.0618482,0.139055,0.0,0.0,0.0,-1.0
23772548,23771673,0.154759,-0.358733,-0.0681016,0.160436,0.0,0.0,0.0,-1.0
23870202,23869346,-0.178459,-0.249526,-0.0711303,0.177745,0.0,0.0,0.0,-1.0
23970341,23969473,0.056551,-0.0704969,-0.0601351,0.193018,0.0,0.0,0.0,-1.0
24067914,24067053,0.0964501,-0.120088,-0.0589669,0.204218,0.0,0.0,0.0,-1.0
24170604,24169730,-0.270832,0.00532461,-0.10257,0.239855,0.0,0.0,0.0,-1.0
24270715,24269859,0.14375,-0.0477516,-0.100587,0.245964,0.0,0.0,0.0,-1.0
24370847,24369988,0.0218582,-0.00956798,-0.100246,0.249018,0.0,0.0,0.0,-1.0
24470981,24470116,-0.0908239,0.00194283,-0.0668185,0.267345,0.0,0.0,0.0,-1.0
24568553,24567696,-0.0941124,-0.074606,-0.0714554,0.277527,0.0,0.0,0.0,-1.0
24671255,24670374,-0.211955,0.121934,-0.0256683,0.277527,0.0,0.0,0.0,-1.0
24768811,24767954,0.00438992,0.0444917,-0.00857433,0.279564,0.0,0.0,0.0,-1.0
24871491,24870631,0.0109709,-0.0354862,0.00132215,0.294836,0.0,0.0,0.0,-1.0
24971623,24970764,-0.0942008,0.0534184,0.0262827,0.307055,0.0,0.0,0.0,-1.0
25069215,25068345,-0.0022865,0.0533488,0.016611,0.307055,0.0,0.0,0.0,-1.0
25171876,25171020,-0.0136917,0.0106588,0.00912487,0.319273,0.0,0.0,0.0,-1.0
25269457,25268597,0.0602022,0.103102,-0.0375977,0.327418,0.0,0.0,0.0,-1.0
25369598,25368734,0.0336166,0.00199774,-0.0342002,0.334545,0.0,0.0,0.0,-1.0
25469712,25468854,0.140985,0.133294,-0.038455,0.339636,0.0,0.0,0.0,-1.0
25569841,25568983,0.303489,0.0187382,-0.0339838,0.342691,0.0,0.0,0.0,-1.0
25672517,25671661,0.00770909,0.0569934,-0.0115548,0.374255,0.0,0.0,0.0,-1.0
25770110,25769240,0.342183,0.069245,-0.0291964,0.377309,0.0,0.0,0.0,-1.0
25870229,25869369,0.147354,0.0873805,-0.0201076,0.377309,0.0,0.0,0.0,-1.0
25970367,25969498,-0.128971,0.0632513,-0.00826904,0.396655,0.0,0.0,0.0,-1.0
26070496,26069627,-0.27274,-0.0174785,0.00252137,0.396655,0.0,0.0,0.0,-1.0
26168164,26167304,-0.271871,-0.0705682,-0.00331997,0.395636,0.0,0.0,0.0,-1.0
26270742,26269884,-0.124381,-0.0502268,-0.0117306,0.396655,0.0,0.0,0.0,-1.0
26370872,26370013,-0.308991,-0.0237013,0.00946284,0.396655,0.0,0.0,0.0,-1.0
26471015,26470142,-0.151719,0.029896,0.00538393,0.398691,0.0,0.0,0.0,-1.0
26571137,26570277,-0.0619444,-0.054787,-0.00424983,0.403782,0.0,0.0,0.0,-1.0
26668817,26667942,0.31263,-0.0747763,-0.00224717,0.4048,0.0,0.0,0.0,-1.0
26771386,26770528,0.0178418,0.0254649,0.00893707,0.403782,0.0,0.0,0.0,-1.0
26869079,26868222,0.274334,0.00304035,0.00387606,0.402764,0.0,0.0,0.0,-1.0
26969197,26968329,0.435842,0.0442889,0.0102728,0.4048,0.0,0.0,0.0,-1.0
27071781,27070914,0.36169,0.0541986,0.022698,0.402764,0.0,0.0,0.0,-1.0
27169445,27168586,0.261088,0.0822789,0.0234275,0.405818,0.0,0.0,0.0,-1.0
27272072,27271201,0.44761,0.031336,0.0115306,0.407855,0.0,0.0,0.0,-1.0
27369701,27368843,0.131256,0.148313,0.000249821,0.413964,0.0,0.0,0.0,-1.0
27469838,27468978,0.174965,0.0555153,-0.0179944,0.413964,0.0,0.0,0.0,-1.0
27569986,27569117,-0.0416847,0.155239,-0.0077695,0.417018,0.0,0.0,0.0,-1.0
27670093,27669232,-0.0581053,0.0246974,-0.0245827,0.414982,0.0,0.0,0.0,-1.0
27772707,27771816,0.172196,0.0225119,-0.0151822,0.414982,0.0,0.0,0.0,-1.0
27870354,27869488,-0.227425,0.00630245,-0.00381063,0.413964,0.0,0.0,0.0,-1.0
27970474,27969616,-0.445755,-0.0736191,-0.0272171,0.398691,0.0,0.0,0.0,-1.0
28070615,28069745,-0.40932,0.0106909,-0.0467865,0.401745,0.0,0.0,0.0,-1.0
28170737,28169874,-0.130726,-0.00441604,-0.0350457,0.401745,0.0,0.0,0.0,-1.0
28268316,28267454,0.183174,0.0803787,-0.0432406,0.403782,0.0,0.0,0.0,-1.0
28370990,28370132,-0.090124,0.0973159,-0.0355645,0.408873,0.0,0.0,0.0,-1.0
28468572,28467711,0.309851,0.0447721,-0.03008,0.405818,0.0,0.0,0.0,-1.0
28568700,28567840,0.371172,0.049803,-0.00527287,0.389527,0.0,0.0,0.0,-1.0
28668830,28667971,0.341257,-0.0113041,-8.32984e-05,0.394618,0.0,0.0,0.0,-1.0
28768977,28768103,0.224946,0.0668464,0.0230387,0.3936,0.0,0.0,0.0,-1.0
28871654,28870787,0.333688,0.0432966,0.0118165,0.394618,0.0,0.0,0.0,-1.0
28969215,28968356,0.20262,0.211285,0.00469428,0.401745,0.0,0.0,0.0,-1.0
29069366,29068484,0.226448,0.0644812,0.00716592,0.401745,0.0,0.0,0.0,-1.0
29169473,29168613,0.266628,0.0713039,0.0079535,0.400727,0.0,0.0,0.0,-1.0
29269601,29268742,0.213599,0.105227,0.00956579,0.398691,0.0,0.0,0.0,-1.0
29372293,29371420,0.360146,0.0295128,-0.00145895,0.400727,0.0,0.0,0.0,-1.0
29469862,29469000,0.028076,-0.0466307,0.00377539,0.401745,0.0,0.0,0.0,-1.0
29569986,29569130,0.205246,-0.0059588,0.00606032,0.402764,0.0,0.0,0.0,-1.0
29670127,29669257,-0.0641404,-0.0261911,0.000716826,0.402764,0.0,0.0,0.0,-1.0
29770262,29769386,-0.278385,-0.0680793,0.0183252,0.4048,0.0,0.0,0.0,-1.0
29872927,29872064,-0.325374,0.0289617,0.00754388,0.4048,0.0,0.0,0.0,-1.0
29970504,29969644,-0.23958,-0.0676459,-0.00766773,0.4048,0.0,0.0,0.0,-1.0
30070641,30069772,-0.0789975,-0.0504181,-0.00392104,0.405818,0.0,0.0,0.0,-1.0
30168306,30167443,0.360248,0.0516472,-1.0705e-05,0.403782,0.0,0.0,0.0,-1.0
30270892,30270029,0.247494,0.0463234,-0.00305123,0.405818,0.0,0.0,0.0,-1.0
30368565,30367700,0.183961,0.060454,0.013336,0.416,0.0,0.0,0.0,-1.0
30471146,30470287,0.393795,0.0433097,0.00510436,0.414982,0.0,0.0,0.0,-1.0
30571286,30570415,0.454061,0.146761,0.00689808,0.412945,0.0,0.0,0.0,-1.0
30668942,30668087,0.171839,0.221306,0.0155185,0.402764,0.0,0.0,0.0,-1.0
30771532,30770673,0.240163,-0.0268442,0.0239438,0.403782,0.0,0.0,0.0,-1.0
30869200,30868344,0.18046,0.0560541,0.0151111,0.403782,0.0,0.0,0.0,-1.0
30971796,30970934,0.343346,0.0659169,0.00723584,0.403782,0.0,0.0,0.0,-1.0
31069457,31068601,0.152331,0.0101173,0.0245191,0.403782,0.0,0.0,0.0,-1.0
31169588,31168733,0.0140288,-0.0257053,0.0324047,0.403782,0.0,0.0,0.0,-1.0
31272173,31271316,0.298929,0.175799,0.0142238,0.403782,0.0,0.0,0.0,-1.0
31369855,31368987,0.140531,0.120424,0.00480517,0.401745,0.0,0.0,0.0,-1.0
31472441,31471576,0.33171,0.0976028,0.00859951,0.402764,0.0,0.0,0.0,-1.0
31570107,31569245,-0.24162,0.125269,0.0131009,0.402764,0.0,0.0,0.0,-1.0
31670243,31669375,-0.232918,0.001751,0.0104846,0.403782,0.0,0.0,0.0,-1.0
31767810,31766953,-0.0901764,-0.0424383,0.000132705,0.402764,0.0,0.0,0.0,-1.0
31870493,31869631,-0.353853,-0.13367,0.00117595,0.401745,0.0,0.0,0.0,-1.0
31973089,31972218,-0.298831,-0.0239037,0.0130542,0.401745,0.0,0.0,0.0,-1.0
32070744,32069888,-0.026141,-0.0520396,-0.0197107,0.403782,0.0,0.0,0.0,-1.0
32170872,32170017,0.204778,0.0356285,-0.00965078,0.401745,0.0,0.0,0.0,-1.0
32268463,32267596,0.484792,-0.0226755,-0.00149677,0.403782,0.0,0.0,0.0,-1.0
32371139,32370280,0.192593,0.022804,-0.0169964,0.418036,0.0,0.0,0.0,-1.0
32468723,32467856,0.275601,-0.00534649,-0.000849248,0.402764,0.0,0.0,0.0,-1.0
32571399,32570531,0.407172,-0.0639488,-0.005533,0.402764,0.0,0.0,0.0,-1.0
32671522,32670660,0.32522,-0.0217626,-0.0095074,0.402764,0.0,0.0,0.0,-1.0
32769112,32768245,0.10784,0.0272295,-0.00382811,0.402764,0.0,0.0,0.0,-1.0
32871776,32870918,0.271498,0.103563,-0.00340158,0.4048,0.0,0.0,0.0,-1.0
32969360,32968497,-0.0461395,-0.0164613,0.00495792,0.4048,0.0,0.0,0.0,-1.0
33072054,33071175,0.137163,-0.0012612,-0.00730852,0.401745,0.0,0.0,0.0,-1.0
33169616,33168754,-0.281159,-0.0283098,-0.0131683,0.401745,0.0,0.0,0.0,-1.0
33269751,33268883,-0.367304,0.00283238,-0.0189803,0.372218,0.0,0.0,0.0,-1.0
33372417,33371561,-0.0384249,0.0321493,-0.0193978,0.374255,0.0,0.0,0.0,-1.0
33470007,33469141,-0.282284,0.117541,-0.0138277,0.372218,0.0,0.0,0.0,-1.0
33570132,33569276,-0.134277,-0.0419301,-0.0314455,0.396655,0.0,0.0,0.0,-1.0
33670257,33669399,-0.131713,-0.0356871,-0.0355066,0.399709,0.0,0.0,0.0,-1.0
33770401,33769527,-0.259158,-0.0282697,-0.0156194,0.399709,0.0,0.0,0.0,-1.0
33868058,33867199,0.16077,0.0110655,-0.0164441,0.398691,0.0,0.0,0.0,-1.0
33970643,33969784,-0.0188314,-0.0396455,-0.000693132,0.396655,0.0,0.0,0.0,-1.0
34070770,34069913,0.170276,-0.0468123,0.00633546,0.342691,0.0,0.0,0.0,-1.0
34170899,34170042,-0.0681529,0.0853293,0.00546034,0.306036,0.0,0.0,0.0,-1.0
34271037,34270170,0.224679,0.059127,0.00572936,0.260218,0.0,0.0,0.0,-1.0
34368699,34367842,0.120858,-0.258797,0.0164019,0.2144,0.0,0.0,0.0,-1.0
34471302,34470428,0.0187196,-0.00818263,-0.00497309,0.1136,0.0,0.0,0.0,-1.0
34568957,34568099,0.111238,-0.0716421,0.00700428,0.0901818,0.0,0.0,0.0,-1.0
34671555,34670685,0.319308,-0.0145857,0.00379925,0.0912,0.0,0.0,0.0,-1.0
34771671,34770814,-0.225496,0.262318,0.0048866,0.0901818,0.0,0.0,0.0,-1.0
34869376,34868497,0.0363559,-0.000677312,0.00790326,0.0922182,0.0,0.0,0.0,-1.0
34971928,34971071,-0.0248598,-0.0926845,0.00860099,0.0901818,0.0,0.0,0.0,-1.0
35069600,35068742,0.0516092,0.239269,0.0113928,0.0901818,0.0,0.0,0.0,-1.0
35169729,35168871,-0.118693,0.0978132,0.0165585,0.0901818,0.0,0.0,0.0,-1.0
35269864,35269006,-0.201326,-0.0605244,0.0160572,0.0901818,0.0,0.0,0.0,-1.0
35369988,35369128,-0.130569,0.0810237,0.0172096,0.0912,0.0,0.0,0.0,-1.0
35472590,35471714,0.0751546,-0.0260792,0.013288,0.0912,0.0,0.0,0.0,-1.0
35570251,35569389,0.132828,-0.191159,0.00528841,0.0912,0.0,0.0,0.0,-1.0
35670375,35669514,0.119571,-0.399958,0.0172692,0.0901818,0.0,0.0,0.0,-1.0
35770513,35769643,-0.0153951,-0.157842,0.0383621,0.0912,0.0,0.0,0.0,-1.0
35870637,35869772,-0.191282,0.213821,0.0466113,0.0901818,0.0,0.0,0.0,-1.0
35968208,35967351,-0.222703,0.137189,0.0348402,0.0912,0.0,0.0,0.0,-1.0
36070886,36070029,0.0513015,-0.240647,0.0117383,0.0912,0.0,0.0,0.0,-1.0
36168474,36167608,0.178183,-0.316113,0.0221398,0.0901818,0.0,0.0,0.0,-1.0
36268596,36267737,0.0613718,-0.130329,0.042252,0.0901818,0.0,0.0,0.0,-1.0
36368724,36367865,-0.234027,0.326655,0.0365814,0.0901818,0.0,0.0,0.0,-1.0
36468851,36467994,-0.0759169,-0.0516768,0.0213996,0.0901818,0.0,0.0,0.0,-1.0
36571534,36570672,0.125914,-0.18924,0.0234652,0.0901818,0.0,0.0,0.0,-1.0
36669126,36668252,0.182292,-0.156596,0.00377528,0.0901818,0.0,0.0,0.0,-1.0
36769257,36768387,-0.0446394,-0.187296,0.0256344,0.0901818,0.0,0.0,0.0,-1.0
36869378,36868508,-0.20962,0.128159,0.0305154,0.0912,0.0,0.0,0.0,-1.0
36969494,36968637,-0.0528257,-0.00928647,0.0226767,0.0912,0.0,0.0,0.0,-1.0
37072183,37071317,0.162174,-0.237118,0.0320307,0.0901818,0.0,0.0,0.0,-1.0
37169751,37168894,0.0823787,-0.0194108,0.0222424,0.0901818,0.0,0.0,0.0,-1.0
37269891,37269022,-0.321964,0.246461,0.0208684,0.0901818,0.0,0.0,0.0,-1.0
37370025,37369151,-0.121665,-0.105945,0.0202009,0.0912,0.0,0.0,0.0,-1.0
37470155,37469293,0.133912,-0.300719,0.0298732,0.0901818,0.0,0.0,0.0,-1.0
37572822,37571958,0.0367515,0.00977258,0.0235125,0.0901818,0.0,0.0,0.0,-1.0
37670403,37669537,0.0446043,-0.0471734,0.0133722,0.0901818,0.0,0.0,0.0,-1.0
37770522,37769665,0.0485277,-0.026421,0.0329638,0.0901818,0.0,0.0,0.0,-1.0
37868192,37867337,-0.0612729,0.176925,0.0374662,0.0922182,0.0,0.0,0.0,-1.0
37970784,37969923,-0.123669,0.0130075,0.045422,0.0922182,0.0,0.0,0.0,-1.0
38068452,38067594,-0.138694,-0.0919663,0.0320985,0.0912,0.0,0.0,0.0,-1.0
38171041,38170181,-0.0806881,-0.00388193,0.000579367,0.0922182,0.0,0.0,0.0,-1.0
38271166,38270308,0.249293,-0.260105,0.0126947,0.0912,0.0,0.0,0.0,-1.0
38368835,38367979,0.257252,-0.323843,0.0232516,0.0912,0.0,0.0,0.0,-1.0
38471425,38470565,-0.272363,0.345313,0.02286,0.0922182,0.0,0.0,0.0,-1.0
38569101,38568236,-0.294146,0.197613,0.0149854,0.0922182,0.0,0.0,0.0,-1.0
38671685,38670825,0.281241,-0.415297,0.0220963,0.0922182,0.0,0.0,0.0,-1.0
38769356,38768493,0.22663,-0.192009,0.0220797,0.0922182,0.0,0.0,0.0,-1.0
38869483,38868622,-0.0517838,0.143328,0.0160505,0.0922182,0.0,0.0,0.0,-1.0
38969614,38968751,-0.21796,0.00271434,0.0174873,0.0912,0.0,0.0,0.0,-1.0
39069735,39068879,-0.0611266,-0.0617155,0.033222,0.0922182,0.0,0.0,0.0,-1.0
39172338,39171468,0.205049,-0.233004,0.0190737,0.0922182,0.0,0.0,0.0,-1.0
39269992,39269136,0.303343,-0.31839,0.0308728,0.0922182,0.0,0.0,0.0,-1.0
39370129,39369271,0.211068,-0.131993,0.021538,0.0922182,0.0,0.0,0.0,-1.0
39467701,39466844,0.0348765,0.00214205,0.0133695,0.0922182,0.0,0.0,0.0,-1.0
39570391,39569536,-0.115461,0.0795876,0.0240008,0.0912,0.0,0.0,0.0,-1.0
39672982,39672110,-0.0950439,0.0791672,0.0150531,0.0922182,0.0,0.0,0.0,-1.0
39770637,39769779,-0.0999785,-0.291472,0.0109633,0.0922182,0.0,0.0,0.0,-1.0
39870763,39869907,0.104848,-0.284135,0.0246087,0.0922182,0.0,0.0,0.0,-1.0
39968369,39967487,0.193757,-0.0589478,0.0215918,0.0922182,0.0,0.0,0.0,-1.0
40071024,40070168,0.0993318,-0.138654,0.0329508,0.0922182,0.0,0.0,0.0,-1.0
40168604,40167744,0.134865,-0.00328183,0.0130874,0.0922182,0.0,0.0,0.0,-1.0
40271286,40270422,-0.0475575,-0.0537952,0.0304622,0.0922182,0.0,0.0,0.0,-1.0
40371418,40370550,-0.205121,0.251816,0.0167843,0.0912,0.0,0.0,0.0,-1.0
40468998,40468136,-0.131285,0.137878,0.0208768,0.0922182,0.0,0.0,0.0,-1.0
40571686,40570821,-0.0493723,0.021906,0.0225689,0.0922182,0.0,0.0,0.0,-1.0
40669255,40668386,-0.187114,-0.1895,0.0157409,0.0922182,0.0,0.0,0.0,-1.0
40771922,40771064,0.107454,-0.132746,0.0203891,0.0922182,0.0,0.0,0.0,-1.0
40869501,40868643,0.112678,-0.152859,0.0151248,0.0922182,0.0,0.0,0.0,-1.0
40969642,40968774,0.276537,-0.388944,0.0167463,0.0912,0.0,0.0,0.0,-1.0
41072318,41071449,-0.265584,0.151852,0.0209755,0.0912,0.0,0.0,0.0,-1.0
41169886,41169029,-0.153088,-0.0261033,0.0222073,0.0922182,0.0,0.0,0.0,-1.0
41272598,41271707,0.261082,-0.162234,0.0272452,0.0922182,0.0,0.0,0.0,-1.0
41370149,41369288,0.213543,-0.190372,0.0258546,0.0922182,0.0,0.0,0.0,-1.0
41470285,41469415,0.248201,-0.314541,0.0217189,0.0922182,0.0,0.0,0.0,-1.0
41567943,41567086,0.176494,-0.169935,0.0278526,0.0922182,0.0,0.0,0.0,-1.0
41670529,41669672,-0.130444,0.182053,0.0309052,0.0922182,0.0,0.0,0.0,-1.0
41770658,41769800,-0.229872,0.0914941,0.0325316,0.0922182,0.0,0.0,0.0,-1.0
41870798,41869929,-0.310582,0.153639,0.025153,0.0912,0.0,0.0,0.0,-1.0
41970918,41970057,0.125318,-0.304826,0.0234517,0.0922182,0.0,0.0,0.0,-1.0
42068586,42067728,0.174764,-0.206242,0.0173735,0.0922182,0.0,0.0,0.0,-1.0
42171186,42170314,0.238185,-0.286398,0.00354007,0.0922182,0.0,0.0,0.0,-1.0
42268845,42267985,0.259,-0.45163,0.0253862,0.0912,0.0,0.0,0.0,-1.0
42371439,42370571,0.0674578,0.147839,0.0270691,0.0922182,0.0,0.0,0.0,-1.0
42471567,42470699,0.0297525,-0.141852,0.0146963,0.0922182,0.0,0.0,0.0,-1.0
42569244,42568373,0.185034,-0.111999,0.0119118,0.0922182,0.0,0.0,0.0,-1.0
42671817,42670956,-0.290534,0.431314,0.0139321,0.0922182,0.0,0.0,0.0,-1.0
42769485,42768627,-0.167914,0.170841,0.00557408,0.0922182,0.0,0.0,0.0,-1.0
42872092,42871218,0.299845,-0.245236,0.0183534,0.0922182,0.0,0.0,0.0,-1.0
42969743,42968885,0.134524,-0.167988,0.00819565,0.0922182,0.0,0.0,0.0,-1.0
43069876,43069013,-0.00273852,-0.0468167,0.00428717,0.0922182,0.0,0.0,0.0,-1.0
43172470,43171602,0.0975944,-0.347444,0.0152812,0.0922182,0.0,0.0,0.0,-1.0
43270164,43269298,-0.079648,-0.0903,0.0182242,0.0912,0.0,0.0,0.0,-1.0
43370262,43369400,-0.0943059,-0.226486,-0.00221709,0.0922182,0.0,0.0,0.0,-1.0
43470387,43469527,-0.218671,0.141196,0.0140044,0.0922182,0.0,0.0,0.0,-1.0
43570518,43569655,-0.0357825,-0.12453,0.0255531,0.0922182,0.0,0.0,0.0,-1.0
43668113,43667244,0.141619,0.00921409,0.0142951,0.0912,0.0,0.0,0.0,-1.0
43770775,43769915,-0.0529009,-0.0111205,0.0104953,0.0912,0.0,0.0,0.0,-1.0
43870899,43870041,-0.243564,0.211068,0.00984647,0.0912,0.0,0.0,0.0,-1.0
43971044,43970176,-0.236414,0.150467,0.00970684,0.0922182,0.0,0.0,0.0,-1.0
44068606,44067748,-0.121306,-0.232729,0.0106308,0.0912,0.0,0.0,0.0,-1.0
44168734,44167877,-0.209751,0.0290617,0.00157498,0.0912,0.0,0.0,0.0,-1.0
44271417,44270555,-0.0849324,-0.193856,0.00226093,0.0922182,0.0,0.0,0.0,-1.0
44368992,44368134,-0.245983,0.241967,0.0092385,0.0922182,0.0,0.0,0.0,-1.0
44469149,44468289,-0.0688356,0.058309,0.0188228,0.0922182,0.0,0.0,0.0,-1.0
44569251,44568391,-0.299061,0.124989,0.00929638,0.0912,0.0,0.0,0.0,-1.0
44669380,44668519,0.103089,-0.310866,-0.00219037,0.0922182,0.0,0.0,0.0,-1.0
44772064,44771201,0.093222,-0.161409,0.0124475,0.0922182,0.0,0.0,0.0,-1.0
44869643,44868776,-0.0509369,0.0719951,0.00712677,0.0922182,0.0,0.0,0.0,-1.0
44969770,44968904,0.0908752,-0.105541,0.0165043,0.0922182,0.0,0.0,0.0,-1.0
45069890,45069033,-0.0123939,0.078565,0.00598264,0.0922182,0.0,0.0,0.0,-1.0
45170028,45169162,0.0896261,-0.152729,0.00275951,0.0912,0.0,0.0,0.0,-1.0
45272703,45271839,-0.255419,0.4128,0.00523385,0.0922182,0.0,0.0,0.0,-1.0
45370297,45369426,-0.228451,0.0569516,0.00916795,0.0922182,0.0,0.0,0.0,-1.0
45470428,45469565,-0.095737,-0.157339,0.0157331,0.0912,0.0,0.0,0.0,-1.0
45570545,45569675,-0.306634,0.00187987,-0.00500885,0.0922182,0.0,0.0,0.0,-1.0
45670664,45669803,0.0055386,-0.166387,0.0044317,0.0922182,0.0,0.0,0.0,-1.0
45768340,45767475,-0.139528,-0.20319,0.0158986,0.0922182,0.0,0.0,0.0,-1.0
45870934,45870060,0.0573627,-0.125141,0.00647855,0.0922182,0.0,0.0,0.0,-1.0
45971063,45970196,0.143909,-0.324933,0.00257989,0.0922182,0.0,0.0,0.0,-1.0
46068728,46067860,0.00893776,-0.174883,0.0254884,0.0922182,0.0,0.0,0.0,-1.0
46171313,46170445,0.159793,-0.0227042,0.00533039,0.0912,0.0,0.0,0.0,-1.0
46268975,46268116,0.0627867,-0.214708,0.0048713,0.0922182,0.0,0.0,0.0,-1.0
46371571,46370702,0.0951184,-0.319067,0.0161971,0.0922182,0.0,0.0,0.0,-1.0
46469255,46468373,0.171907,-0.320483,0.00690782,0.0922182,0.0,0.0,0.0,-1.0
46569361,46568501,0.232095,-0.159338,-0.00579331,0.0912,0.0,0.0,0.0,-1.0
46669485,46668629,0.279593,-0.243339,0.0133599,0.0922182,0.0,0.0,0.0,-1.0
46769622,46768758,0.20125,-0.0736369,0.0168835,0.0922182,0.0,0.0,0.0,-1.0
46872220,46871344,0.246009,-0.250917,-0.000725212,0.0912,0.0,0.0,0.0,-1.0
46969875,46969017,0.250245,-0.387184,0.0138478,0.0922182,0.0,0.0,0.0,-1.0
47069998,47069143,-0.0363348,0.094694,0.0170493,0.0922182,0.0,0.0,0.0,-1.0
47167579,47166722,-0.0772656,0.0271368,0.0152254,0.0922182,0.0,0.0,0.0,-1.0
47270260,47269399,-0.107219,0.0342143,0.0184003,0.0922182,0.0,0.0,0.0,-1.0
47372846,47371986,-0.196333,-0.0004836,0.00744147,0.0922182,0.0,0.0,0.0,-1.0
47470524,47469662,0.0339364,-0.187323,0.00662581,0.0922182,0.0,0.0,0.0,-1.0
47570640,47569784,0.142767,-0.195612,0.0201159,0.0922182,0.0,0.0,0.0,-1.0
47668236,47667363,-0.0353375,-0.0809487,0.00442406,0.0922182,0.0,0.0,0.0,-1.0
47770900,47770040,0.0654933,-0.0996287,0.00906238,0.0912,0.0,0.0,0.0,-1.0
47868476,47867619,-0.122849,0.0772904,0.00846738,0.0912,0.0,0.0,0.0,-1.0
47971157,47970297,0.155416,-0.458285,0.0220349,0.0922182,0.0,0.0,0.0,-1.0
48071296,48070428,-0.0322477,-0.0155739,0.0166719,0.0922182,0.0,0.0,0.0,-1.0
48168861,48168004,-0.0956474,0.073432,0.00208006,0.0922182,0.0,0.0,0.0,-1.0
48271538,48270681,-0.193714,-0.113039,0.00840679,0.0922182,0.0,0.0,0.0,-1.0
48369129,48368261,-0.251854,0.0777295,0.0185833,0.0912,0.0,0.0,0.0,-1.0
48471795,48470938,-0.284121,0.126906,0.000686068,0.0922182,0.0,0.0,0.0,-1.0
48569373,48568517,-0.183142,-0.103264,0.0094807,0.0901818,0.0,0.0,0.0,-1.0
48669524,48668645,-0.0378825,-0.0673258,0.025736,0.0922182,0.0,0.0,0.0,-1.0
48772184,48771324,0.230476,-0.10551,-0.0241774,0.136,0.0,0.0,0.0,-1.0
48869761,48868901,0.263086,-0.221176,-0.0403518,0.144145,0.0,0.0,0.0,-1.0
48972436,48971578,0.192971,-0.212296,-0.052878,0.164509,0.0,0.0,0.0,-1.0
49070024,49069157,-0.18824,-0.139454,-0.0410705,0.184873,0.0,0.0,0.0,-1.0
49170143,49169286,-0.224186,0.00283907,-0.0697284,0.218473,0.0,0.0,0.0,-1.0
49267859,49266957,-0.0778086,0.0057396,-0.0440851,0.252073,0.0,0.0,0.0,-1.0
49370410,49369542,-0.0217927,0.0295246,-0.0368808,0.2592,0.0,0.0,0.0,-1.0
49473092,49472223,-0.0569392,0.0988564,-0.0541425,0.256145,0.0,0.0,0.0,-1.0
49570658,49569798,0.124341,-0.0421837,-0.0513383,0.252073,0.0,0.0,0.0,-1.0
49670785,49669926,-0.0383674,0.0984867,-0.0436796,0.242909,0.0,0.0,0.0,-1.0
49768464,49767605,0.220527,-0.208422,-0.0362805,0.242909,0.0,0.0,0.0,-1.0
49871043,49870182,-0.0193705,-0.058822,-0.0495757,0.198109,0.0,0.0,0.0,-1.0
49968710,49967853,-0.207582,0.0785629,-0.0393109,0.153309,0.0,0.0,0.0,-1.0
50071320,50070452,0.220304,-0.140794,-0.0409598,0.0901818,0.0,0.0,0.0,-1.0
50171428,50170567,0.0356201,-0.124291,-0.0443734,0.0901818,0.0,0.0,0.0,-1.0
50269110,50268240,0.288973,-0.116604,-0.0354187,0.0922182,0.0,0.0,0.0,-1.0
50371679,50370822,-0.229302,0.0597187,-0.057241,0.0922182,0.0,0.0,0.0,-1.0
50469376,50468508,-0.135826,-0.0529104,-0.0539363,0.0922182,0.0,0.0,0.0,-1.0
50571945,50571078,-0.253065,0.0902621,-0.0586057,0.0912,0.0,0.0,0.0,-1.0
50669611,50668749,-0.138115,-0.0151806,-0.0583096,0.0901818,0.0,0.0,0.0,-1.0
50769745,50768877,-0.0768648,-0.0495546,-0.0489256,0.0912,0.0,0.0,0.0,-1.0
50872332,50871462,-0.168384,0.0872179,-0.0472491,0.0901818,0.0,0.0,0.0,-1.0
50969997,50969140,0.158423,-0.189057,-0.0323275,0.0901818,0.0,0.0,0.0,-1.0
51072603,51071718,-0.0126473,0.169412,-0.0293787,0.0901818,0.0,0.0,0.0,-1.0
51170251,51169389,0.120074,-0.176937,-0.0459828,0.0912,0.0,0.0,0.0,-1.0
51270385,51269517,0.173836,-0.3181,-0.0414569,0.0912,0.0,0.0,0.0,-1.0
51367957,51367098,0.30063,-0.22193,-0.0528108,0.0912,0.0,0.0,0.0,-1.0
51470638,51469773,-0.00824414,-0.0619268,-0.0556508,0.0901818,0.0,0.0,0.0,-1.0
51570762,51569901,0.303599,-0.172649,-0.0488421,0.0912,0.0,0.0,0.0,-1.0
51670890,51670029,-0.00606517,0.097665,-0.0412642,0.0912,0.0,0.0,0.0,-1.0
51768465,51767608,-0.0753235,-0.0733312,-0.0608313,0.0912,0.0,0.0,0.0,-1.0
51868597,51867736,-0.142082,-0.116796,-0.062836,0.0912,0.0,0.0,0.0,-1.0
51971295,51970421,-0.248617,0.197489,-0.0573485,0.0901818,0.0,0.0,0.0,-1.0
52068852,52067992,-0.132247,-0.0162654,-0.0563982,0.0912,0.0,0.0,0.0,-1.0
52171540,52170669,0.00637966,-0.112263,-0.0476721,0.0912,0.0,0.0,0.0,-1.0
52269110,52268247,0.0007341,-0.028024,-0.0489554,0.0912,0.0,0.0,0.0,-1.0
52369243,52368378,-0.137329,0.212274,-0.0553523,0.0901818,0.0,0.0,0.0,-1.0
52471916,52471053,-0.171484,-0.154688,-0.0600024,0.0912,0.0,0.0,0.0,-1.0
52569488,52568631,0.042041,0.0727976,-0.0451945,0.0912,0.0,0.0,0.0,-1.0
52669622,52668765,-0.00046629,0.176481,-0.0339476,0.0901818,0.0,0.0,0.0,-1.0
52769744,52768887,0.214204,-0.272852,-0.0319122,0.0912,0.0,0.0,0.0,-1.0
52869883,52869015,0.171192,-0.331201,-0.0315876,0.0912,0.0,0.0,0.0,-1.0
52972569,52971698,0.0106506,0.163298,-0.0406497,0.0912,0.0,0.0,0.0,-1.0
53070149,53069287,-0.126646,0.086268,-0.0544135,0.0912,0.0,0.0,0.0,-1.0
53170258,53169399,-0.00917692,-0.245298,-0.0514343,0.0922182,0.0,0.0,0.0,-1.0
53270386,53269526,0.0844414,-0.00886628,-0.0364827,0.0912,0.0,0.0,0.0,-1.0
53370511,53369654,0.142696,-0.29149,-0.0377565,0.0912,0.0,0.0,0.0,-1.0
53468183,53467327,0.0881378,-0.212786,-0.0483993,0.0912,0.0,0.0,0.0,-1.0
53570767,53569910,-0.0276749,0.0430491,-0.054284,0.0912,0.0,0.0,0.0,-1.0
53670896,53670038,0.151782,-0.254436,-0.0486329,0.0912,0.0,0.0,0.0,-1.0
53771045,53770166,0.110056,-0.242653,-0.0364576,0.0922182,0.0,0.0,0.0,-1.0
53871152,53870294,0.166251,-0.0139707,-0.0351215,0.0912,0.0,0.0,0.0,-1.0
53968823,53967964,-0.0509145,-0.204891,-0.0359695,0.0922182,0.0,0.0,0.0,-1.0
54071420,54070551,-0.132933,-0.0638376,-0.0403856,0.0922182,0.0,0.0,0.0,-1.0
54169100,54168229,-0.362754,0.155138,-0.0595284,0.0922182,0.0,0.0,0.0,-1.0
54269207,54268348,-0.129768,-0.197865,-0.0599101,0.0901818,0.0,0.0,0.0,-1.0
54371803,54370940,-0.372654,0.164244,-0.0475303,0.0912,0.0,0.0,0.0,-1.0
54469462,54468604,0.094468,-0.145309,-0.05213,0.0912,0.0,0.0,0.0,-1.0
54572049,54571189,0.175425,-0.258911,-0.0448969,0.0901818,0.0,0.0,0.0,-1.0
54669728,54668864,0.202514,-0.244391,-0.0498464,0.0901818,0.0,0.0,0.0,-1.0
54769843,54768987,0.111918,-0.0838263,-0.0454066,0.0912,0.0,0.0,0.0,-1.0
54869971,54869115,-0.0797498,-0.277568,-0.0490288,0.0901818,0.0,0.0,0.0,-1.0
54970108,54969243,-0.207133,0.139988,-0.0655206,0.0901818,0.0,0.0,0.0,-1.0
55072690,55071828,-0.0990912,-0.0722388,-0.0564756,0.0922182,0.0,0.0,0.0,-1.0
55170367,55169499,0.160898,-0.0471488,-0.0309343,0.0912,0.0,0.0,0.0,-1.0
55270482,55269626,0.178181,0.00581567,-0.0442599,0.0922182,0.0,0.0,0.0,-1.0
55370619,55369757,0.111051,-0.31526,-0.0614982,0.0912,0.0,0.0,0.0,-1.0
55470739,55469882,0.263209,-0.314428,-0.0656155,0.0912,0.0,0.0,0.0,-1.0
55568345,55567461,0.257599,-0.304501,-0.054864,0.0912,0.0,0.0,0.0,-1.0
55670999,55670138,-0.0511119,0.162795,-0.0473129,0.0922182,0.0,0.0,0.0,-1.0
55771128,55770272,-0.193132,0.0473496,-0.046483,0.0912,0.0,0.0,0.0,-1.0
55868701,55867844,-0.0778378,-0.134996,-0.052703,0.0922182,0.0,0.0,0.0,-1.0
55971377,55970521,-0.302805,0.135004,-0.0490548,0.0912,0.0,0.0,0.0,-1.0
56068962,56068100,-0.136293,0.366253,-0.0401445,0.0912,0.0,0.0,0.0,-1.0
56171633,56170777,-0.0435244,-0.0793451,-0.052335,0.0912,0.0,0.0,0.0,-1.0
56269218,56268359,0.0184279,-0.247324,-0.0556449,0.0912,0.0,0.0,0.0,-1.0
56369349,56368483,0.20292,-0.368849,-0.0460803,0.0912,0.0,0.0,0.0,-1.0
56469469,56468611,-0.0179251,-0.104861,-0.0346009,0.0912,0.0,0.0,0.0,-1.0
56569596,56568739,-0.0434396,-0.00429588,-0.0967962,0.143127,0.0,0.0,0.0,-1.0
56672283,56671416,-0.186621,0.00557611,-0.0687571,0.1248,0.0,0.0,0.0,-1.0
56769852,56768995,-0.141162,0.301077,-0.0819023,0.1248,0.0,0.0,0.0,-1.0
56869989,56869128,0.183366,-0.53233,-0.127462,0.123782,0.0,0.0,0.0,-1.0
56970119,56969250,-0.278632,0.025033,-0.138227,0.136,0.0,0.0,0.0,-1.0
57070240,57069378,0.315568,-0.0723789,-0.104183,0.148218,0.0,0.0,0.0,-1.0
57172912,57172055,-0.167524,0.0175802,-0.0709716,0.173673,0.0,0.0,0.0,-1.0
57270503,57269634,-0.237473,-0.00828487,-0.0377715,0.176727,0.0,0.0,0.0,-1.0
57370619,57369762,-0.226584,0.179697,-0.023657,0.211345,0.0,0.0,0.0,-1.0
57468299,57467432,0.082821,0.00326946,-0.0221498,0.211345,0.0,0.0,0.0,-1.0
57570874,57570017,0.284396,0.0750808,0.0177839,0.245964,0.0,0.0,0.0,-1.0
57668547,57667691,0.23553,-0.0102114,0.0203913,0.2704,0.0,0.0,0.0,-1.0
57771141,57770279,0.17352,-0.0803231,0.0312568,0.297891,0.0,0.0,0.0,-1.0
57871259,57870401,0.0734134,-0.00370257,0.0310227,0.307055,0.0,0.0,0.0,-1.0
57968938,57968071,0.02305,-0.0023567,0.0356619,0.319273,0.0,0.0,0.0,-1.0
58071530,58070670,0.137005,0.0866612,0.0311842,0.3264,0.0,0.0,0.0,-1.0
58169193,58168327,0.22315,0.0506956,0.00631194,0.331491,0.0,0.0,0.0,-1.0
58271768,58270911,0.223474,-0.0202078,-0.0459696,0.338618,0.0,0.0,0.0,-1.0
58369444,58368582,0.149453,0.113611,-0.0522231,0.361018,0.0,0.0,0.0,-1.0
58469567,58468710,0.222695,0.0932027,-0.0731158,0.394618,0.0,0.0,0.0,-1.0
58572156,58571299,0.286162,0.0479692,-0.0612688,0.406836,0.0,0.0,0.0,-1.0
58669831,58668966,0.223784,0.0948394,-0.0394553,0.408873,0.0,0.0,0.0,-1.0
58772407,58771550,0.231763,0.0317501,-0.0297681,0.421091,0.0,0.0,0.0,-1.0
58870084,58869227,0.0794846,0.0210592,0.00701083,0.422109,0.0,0.0,0.0,-1.0
58970208,58969351,-0.148861,0.132954,-0.00369694,0.423127,0.0,0.0,0.0,-1.0
59067786,59066927,-0.383489,0.00864089,0.0150079,0.422109,0.0,0.0,0.0,-1.0
59170467,59169604,-0.0533166,0.0550409,0.0195892,0.422109,0.0,0.0,0.0,-1.0
59273061,59272189,0.237213,0.119856,0.00200772,0.424145,0.0,0.0,0.0,-1.0
59370717,59369860,0.0349536,-0.0636031,0.0127663,0.431273,0.0,0.0,0.0,-1.0
59468313,59467438,-0.289441,-0.0621558,0.0120859,0.430255,0.0,0.0,0.0,-1.0
59568426,59567566,-0.239188,0.00919018,0.0163654,0.4272,0.0,0.0,0.0,-1.0
59668572,59667699,-0.30211,-0.00617789,0.00259273,0.4272,0.0,0.0,0.0,-1.0
59768700,59767821,-0.103685,0.121706,-0.012559,0.429236,0.0,0.0,0.0,-1.0
59871366,59870498,0.230243,0.0349466,-0.0243172,0.383418,0.0,0.0,0.0,-1.0
59968938,59968078,-0.245623,-0.0350562,-0.022997,0.379345,0.0,0.0,0.0,-1.0
60069064,60068204,-0.12469,0.00264166,-0.0301959,0.400727,0.0,0.0,0.0,-1.0
60171739,60170881,0.0103793,0.0254598,-0.0267147,0.399709,0.0,0.0,0.0,-1.0
60269332,60268460,-0.214362,-0.0227484,-0.0299299,0.399709,0.0,0.0,0.0,-1.0
60371999,60371138,-0.306035,0.0576521,-0.0313611,0.406836,0.0,0.0,0.0,-1.0
60469575,60468715,-0.465465,-0.0558164,-0.031051,0.414982,0.0,0.0,0.0,-1.0
60569711,60568843,-0.367211,-0.0613906,-0.0331265,0.411927,0.0,0.0,0.0,-1.0
60672379,60671519,-0.262285,0.034101,-0.0421582,0.422109,0.0,0.0,0.0,-1.0
60769969,60769100,-0.221146,-0.0213291,-0.0522021,0.424145,0.0,0.0,0.0,-1.0
60870092,60869230,-0.247559,-0.0615908,-0.0539041,0.423127,0.0,0.0,0.0,-1.0
60970220,60969353,-0.233915,-0.0225912,-0.0457777,0.421091,0.0,0.0,0.0,-1.0
61070359,61069486,-0.266061,0.0540243,-0.0457066,0.423127,0.0,0.0,0.0,-1.0
61168009,61167151,0.114498,-0.00268413,-0.0502177,0.424145,0.0,0.0,0.0,-1.0
61270596,61269736,-0.19979,0.0067139,-0.0446983,0.436364,0.0,0.0,0.0,-1.0
61370721,61369864,-0.281154,-0.0307577,-0.0372571,0.440436,0.0,0.0,0.0,-1.0
61470859,61469993,-0.384319,-0.0707349,-0.0131636,0.430255,0.0,0.0,0.0,-1.0
61570976,61570119,-0.378196,-0.0354552,-0.0126793,0.432291,0.0,0.0,0.0,-1.0
61668660,61667790,0.0235827,0.00987613,-0.00944304,0.432291,0.0,0.0,0.0,-1.0
61771243,61770374,-0.291832,-0.0802577,0.00907966,0.423127,0.0,0.0,0.0,-1.0
61868913,61868044,-0.115046,0.0374475,0.000465808,0.410909,0.0,0.0,0.0,-1.0
61971490,61970631,-0.344579,0.0190425,0.00127964,0.403782,0.0,0.0,0.0,-1.0
62071617,62070757,-0.236426,-0.103673,0.00663728,0.406836,0.0,0.0,0.0,-1.0
62169296,62168427,0.016398,0.00588033,-0.000966674,0.403782,0.0,0.0,0.0,-1.0
62271869,62271012,-0.288435,-0.00435154,0.0259031,0.384436,0.0,0.0,0.0,-1.0
62369537,62368682,0.279014,0.0935392,0.0119222,0.388509,0.0,0.0,0.0,-1.0
62469669,62468810,0.235955,0.0843823,-0.00662504,0.388509,0.0,0.0,0.0,-1.0
62569793,62568937,0.444349,-0.0113366,0.0116764,0.390545,0.0,0.0,0.0,-1.0
62669924,62669065,0.294185,-0.0182301,0.0167507,0.390545,0.0,0.0,0.0,-1.0
62772521,62771650,0.311212,0.0209026,0.0244572,0.400727,0.0,0.0,0.0,-1.0
62870183,62869320,0.227303,0.111946,0.0159063,0.402764,0.0,0.0,0.0,-1.0
62970313,62969447,0.130134,0.022971,0.024976,0.417018,0.0,0.0,0.0,-1.0
63070431,63069575,0.134152,-0.0189284,0.014561,0.425164,0.0,0.0,0.0,-1.0
63170558,63169703,0.0914821,-0.0100969,0.0196491,0.4272,0.0,0.0,0.0,-1.0
63268166,63267288,-0.183141,-0.0355779,0.0257406,0.4272,0.0,0.0,0.0,-1.0
63370817,63369958,0.253724,0.046134,0.0107502,0.431273,0.0,0.0,0.0,-1.0
63470940,63470085,0.126943,0.132158,0.0134859,0.432291,0.0,0.0,0.0,-1.0
63571082,63570216,0.234688,0.0299538,0.0129922,0.432291,0.0,0.0,0.0,-1.0
63671199,63670341,0.133794,0.0447838,0.0296933,0.435345,0.0,0.0,0.0,-1.0
63768775,63767919,-0.133638,-0.00956272,0.0242658,0.439418,0.0,0.0,0.0,-1.0
63871452,63870596,0.141605,0.164193,-0.00479106,0.444509,0.0,0.0,0.0,-1.0
63969036,63968174,-0.133814,0.0317508,-0.00930894,0.443491,0.0,0.0,0.0,-1.0
64069161,64068303,-0.330401,0.00927979,-0.031679,0.442473,0.0,0.0,0.0,-1.0
64169304,64168429,-0.474566,0.0407345,-0.0359066,0.443491,0.0,0.0,0.0,-1.0
64269424,64268557,-0.248839,0.0596496,-0.0292266,0.444509,0.0,0.0,0.0,-1.0
64372095,64371233,-0.116647,-0.00414069,-0.0282975,0.442473,0.0,0.0,0.0,-1.0
64469668,64468811,-0.31529,-0.0313437,-0.0529016,0.442473,0.0,0.0,0.0,-1.0
64569795,64568939,-0.386423,-0.0912784,-0.0358091,0.442473,0.0,0.0,0.0,-1.0
64669923,64669066,-0.316834,-0.0171202,-0.0401931,0.442473,0.0,0.0,0.0,-1.0
64770056,64769194,-0.242996,-0.0487526,-0.0366902,0.444509,0.0,0.0,0.0,-1.0
64872729,64871873,-0.522647,-0.0209121,-0.0215958,0.442473,0.0,0.0,0.0,-1.0
64970317,64969449,-0.0974548,-0.0859257,-0.0179376,0.436364,0.0,0.0,0.0,-1.0
65070433,65069576,-0.196717,-0.133404,-0.0216685,0.429236,0.0,0.0,0.0,-1.0
65170573,65169704,-0.256598,-0.144773,-0.0111055,0.420073,0.0,0.0,0.0,-1.0
65270690,65269831,-0.241196,-0.00822748,-0.0217011,0.409891,0.0,0.0,0.0,-1.0
65368364,65367501,0.11621,-0.102326,-0.012195,0.406836,0.0,0.0,0.0,-1.0
65470946,65470086,-0.318734,-0.0967533,-0.00723222,0.409891,0.0,0.0,0.0,-1.0
65571072,65570215,-0.252132,-0.116564,0.000693901,0.405818,0.0,0.0,0.0,-1.0
65668765,65667886,-0.0307796,-0.0489813,-0.00207621,0.405818,0.0,0.0,0.0,-1.0
65771335,65770468,-0.210423,-0.112991,-0.0141634,0.407855,0.0,0.0,0.0,-1.0
65869008,65868139,0.0806024,-0.00350112,-0.0114519,0.405818,0.0,0.0,0.0,-1.0
65971592,65970723,-0.180029,-0.107635,-0.0120739,0.405818,0.0,0.0,0.0,-1.0
66069256,66068395,0.128815,-0.00511855,-0.00337345,0.405818,0.0,0.0,0.0,-1.0
66169380,66168521,0.288814,0.0259182,-0.00123778,0.405818,0.0,0.0,0.0,-1.0
66269516,66268648,0.253515,0.0344032,0.0053616,0.407855,0.0,0.0,0.0,-1.0
66369638,66368778,0.188642,0.11838,-0.00482926,0.406836,0.0,0.0,0.0,-1.0
66472222,66471361,0.354448,-0.0416889,-0.00414865,0.407855,0.0,0.0,0.0,-1.0
66569902,66569030,-0.250718,0.0658208,0.0012653,0.405818,0.0,0.0,0.0,-1.0
66670028,66669158,-0.31294,0.0761334,-0.00323868,0.422109,0.0,0.0,0.0,-1.0
66767596,66766736,-0.338456,-0.0770294,0.00334524,0.422109,0.0,0.0,0.0,-1.0
66870285,66869413,-0.424382,-0.0563531,0.0119526,0.422109,0.0,0.0,0.0,-1.0
66972858,66971997,-0.171991,0.0353735,0.00116359,0.423127,0.0,0.0,0.0,-1.0
67070533,67069668,-0.469984,0.000167686,0.00171551,0.422109,0.0,0.0,0.0,-1.0
67170653,67169795,-0.273172,-0.0633529,-0.000532715,0.422109,0.0,0.0,0.0,-1.0
67268234,67267373,-0.251286,-0.053958,0.0113458,0.422109,0.0,0.0,0.0,-1.0
67368368,67367502,-0.304979,0.015688,-0.00991341,0.424145,0.0,0.0,0.0,-1.0
67468498,67467628,-0.396606,-0.002246,-0.0138377,0.423127,0.0,0.0,0.0,-1.0
67571166,67570306,-0.104044,0.0485995,-0.0096794,0.410909,0.0,0.0,0.0,-1.0
67668743,67667884,-0.151522,-0.0826687,-0.0235058,0.410909,0.0,0.0,0.0,-1.0
67768876,67768010,-0.292155,0.00768754,-0.00579322,0.410909,0.0,0.0,0.0,-1.0
67869013,67868137,-0.482296,0.0343707,-0.00722302,0.416,0.0,0.0,0.0,-1.0
67969133,67968270,-0.446941,-0.10017,0.00534511,0.414982,0.0,0.0,0.0,-1.0
68071802,68070941,-0.315982,0.00229161,0.00259919,0.417018,0.0,0.0,0.0,-1.0
68169378,68168519,-0.396315,-0.0789692,0.0113665,0.417018,0.0,0.0,0.0,-1.0
68269502,68268646,-0.214025,0.0705949,0.00184508,0.426182,0.0,0.0,0.0,-1.0
68372181,68371323,-0.143585,0.0150876,-0.0163458,0.435345,0.0,0.0,0.0,-1.0
68469761,68468900,0.00539324,0.00182716,-0.0195866,0.432291,0.0,0.0,0.0,-1.0
68572438,68571576,-0.0444267,0.0235817,0.00470241,0.431273,0.0,0.0,0.0,-1.0
68670014,68669154,0.177207,-0.0060355,0.00151628,0.433309,0.0,0.0,0.0,-1.0
68770139,68769281,0.237241,0.0798566,0.00780114,0.435345,0.0,0.0,0.0,-1.0
68867813,68866951,0.0893193,0.0339993,0.0110317,0.436364,0.0,0.0,0.0,-1.0
68970428,68969552,0.270636,0.0340203,-0.0116228,0.461818,0.0,0.0,0.0,-1.0
69068063,69067205,0.190026,0.119135,-0.0145432,0.459782,0.0,0.0,0.0,-1.0
69170662,69169792,0.381028,-0.0731745,-0.00317652,0.459782,0.0,0.0,0.0,-1.0
69270773,69269917,0.319755,0.00176754,-0.00256719,0.475055,0.0,0.0,0.0,-1.0
69368444,69367589,0.215009,0.0185991,-0.0141616,0.476073,0.0,0.0,0.0,-1.0
69471027,69470170,0.348286,0.0248198,-0.0140907,0.490327,0.0,0.0,0.0,-1.0
69568695,69567840,0.271579,0.0804999,-0.0144645,0.493382,0.0,0.0,0.0,-1.0
69671292,69670424,0.189548,0.0158803,-0.0232146,0.476073,0.0,0.0,0.0,-1.0
69771410,69770551,0.327137,-0.0420546,-0.0175224,0.454691,0.0,0.0,0.0,-1.0
69869083,69868228,0.365427,0.0285806,-0.0126326,0.446545,0.0,0.0,0.0,-1.0
69971674,69970804,0.35165,0.079312,-0.020088,0.447564,0.0,0.0,0.0,-1.0
70069346,70068478,0.1061,0.0735089,-0.0151745,0.445527,0.0,0.0,0.0,-1.0
70171915,70171058,0.186401,0.0205343,-0.00431802,0.445527,0.0,0.0,0.0,-1.0
70269584,70268728,-0.0251284,0.161062,-0.00937213,0.446545,0.0,0.0,0.0,-1.0
70369718,70368854,-0.157897,-0.0815452,-0.00576409,0.447564,0.0,0.0,0.0,-1.0
70472319,70471438,0.0863378,-0.00353219,0.00474802,0.445527,0.0,0.0,0.0,-1.0
70569968,70569111,-0.296619,0.0068009,0.00711454,0.443491,0.0,0.0,0.0,-1.0
70672562,70671691,-0.131699,0.0315285,0.000434804,0.446545,0.0,0.0,0.0,-1.0
70770219,70769361,-0.355804,-0.075895,0.00609569,0.433309,0.0,0.0,0.0,-1.0
70870359,70869487,-0.245677,0.0044455,-0.00010721,0.420073,0.0,0.0,0.0,-1.0
70967921,70967065,-0.193649,-0.152621,-0.00615628,0.414982,0.0,0.0,0.0,-1.0
71070607,71069741,-0.147841,-0.0533892,-0.0114208,0.414982,0.0,0.0,0.0,-1.0
71170723,71169867,-0.130475,-0.051211,-0.0142284,0.399709,0.0,0.0,0.0,-1.0
71270853,71269994,-0.268207,0.014672,-0.00927158,0.408873,0.0,0.0,0.0,-1.0
71370979,71370120,-0.329972,-0.118162,-0.00439474,0.397673,0.0,0.0,0.0,-1.0
71468558,71467701,-0.301157,-0.012035,-0.00808669,0.403782,0.0,0.0,0.0,-1.0
71571244,71570380,-0.246844,-0.0248577,-0.00573093,0.432291,0.0,0.0,0.0,-1.0
71668812,71667951,0.00581556,-0.013786,-0.0203022,0.434327,0.0,0.0,0.0,-1.0
71771483,71770626,-0.482584,-0.117645,-0.0104872,0.421091,0.0,0.0,0.0,-1.0
71871612,71870753,-0.385492,-0.045835,0.00408523,0.411927,0.0,0.0,0.0,-1.0
71969197,71968331,-0.184453,-0.037626,-0.00697422,0.421091,0.0,0.0,0.0,-1.0
72071872,72071009,-0.374376,-0.0188412,-0.00736385,0.422109,0.0,0.0,0.0,-1.0
72169464,72168587,0.139124,-0.0579046,-0.0142076,0.420073,0.0,0.0,0.0,-1.0
72269570,72268710,0.245938,0.0291297,-0.0133893,0.423127,0.0,0.0,0.0,-1.0
72369702,72368836,0.243505,0.0402461,-0.0164199,0.424145,0.0,0.0,0.0,-1.0
72469820,72468963,0.306015,0.0560872,-0.0206843,0.416,0.0,0.0,0.0,-1.0
72572501,72571638,0.309395,-0.061374,-0.015806,0.405818,0.0,0.0,0.0,-1.0
72670074,72669217,0.214716,0.105989,-0.0128,0.430255,0.0,0.0,0.0,-1.0
72770209,72769342,0.0665399,0.0632185,-0.0260688,0.430255,0.0,0.0,0.0,-1.0
72870344,72869472,0.0972553,0.0869503,-0.0216268,0.429236,0.0,0.0,0.0,-1.0
72970451,72969595,0.169501,-0.0168657,-0.0160471,0.418036,0.0,0.0,0.0,-1.0
73068140,73067283,-0.0262825,0.0460742,-0.0144032,0.428218,0.0,0.0,0.0,-1.0
73170705,73169847,0.252875,0.0140828,-0.0160709,0.430255,0.0,0.0,0.0,-1.0
73270831,73269974,0.336495,0.0501957,-0.00457864,0.440436,0.0,0.0,0.0,-1.0
73370961,73370100,0.490157,0.0661927,-0.0029822,0.442473,0.0,0.0,0.0,-1.0
73471095,73470227,0.505862,0.0817588,-0.0019934,0.424145,0.0,0.0,0.0,-1.0
73568756,73567895,0.143292,-0.0172843,-0.00701594,0.422109,0.0,0.0,0.0,-1.0
73671357,73670479,0.226513,-0.00563212,0.0103408,0.426182,0.0,0.0,0.0,-1.0
73769005,73768148,0.128892,0.0538682,0.00642026,0.429236,0.0,0.0,0.0,-1.0
73871605,73870731,0.378492,0.00272505,-0.00359581,0.433309,0.0,0.0,0.0,-1.0
73971729,73970858,0.397812,0.0373467,-0.00639729,0.432291,0.0,0.0,0.0,-1.0
74069398,74068537,0.0288233,-0.00536833,-0.000672761,0.431273,0.0,0.0,0.0,-1.0
74171984,74171110,-0.00969246,0.0370113,0.00103711,0.430255,0.0,0.0,0.0,-1.0
74269636,74268779,-0.289913,0.0106388,-0.0116967,0.432291,0.0,0.0,0.0,-1.0
74369772,74368912,-0.355236,0.0703383,-0.00681463,0.431273,0.0,0.0,0.0,-1.0
74469898,74469041,-0.453936,0.0397354,-0.00228963,0.429236,0.0,0.0,0.0,-1.0
74570017,74569158,-0.375934,-0.0251796,0.00519654,0.429236,0.0,0.0,0.0,-1.0
74672617,74671741,-0.0914031,-0.0742401,-0.00209011,0.439418,0.0,0.0,0.0,-1.0
74770276,74769410,-0.25504,-0.0711318,-0.00375844,0.4384,0.0,0.0,0.0,-1.0
74870408,74869551,-0.342465,-0.0187869,-0.00573533,0.440436,0.0,0.0,0.0,-1.0
74970533,74969662,-0.346087,-0.103651,0.00155124,0.437382,0.0,0.0,0.0,-1.0
75070650,75069788,-0.412848,-0.0487861,0.00102829,0.439418,0.0,0.0,0.0,-1.0
75168224,75167366,-0.381777,-0.0621561,-0.00164518,0.4384,0.0,0.0,0.0,-1.0
75270898,75270040,-0.551763,-0.0444888,0.0011375,0.4384,0.0,0.0,0.0,-1.0
75368474,75367617,-0.559449,-0.0397074,0.0184381,0.4496,0.0,0.0,0.0,-1.0
75468600,75467744,-0.0638005,-0.0544547,0.0115305,0.451636,0.0,0.0,0.0,-1.0
75568726,75567869,-0.311319,-0.145623,0.0136083,0.429236,0.0,0.0,0.0,-1.0
75668864,75667996,-0.298315,0.0441451,0.0137663,0.416,0.0,0.0,0.0,-1.0
75771528,75770670,-0.159315,0.0237359,0.00131753,0.417018,0.0,0.0,0.0,-1.0
75869118,75868249,-0.467009,-0.0356345,0.00945211,0.421091,0.0,0.0,0.0,-1.0
75969244,75968376,-0.40114,-0.00477792,0.00476468,0.432291,0.0,0.0,0.0,-1.0
76069367,76068499,-0.231434,-0.0536704,-0.00880553,0.429236,0.0,0.0,0.0,-1.0
76169482,76168625,-0.205066,-0.00756378,-0.00627626,0.429236,0.0,0.0,0.0,-1.0
76272160,76271303,-0.281558,-0.0839098,-0.00777751,0.411927,0.0,0.0,0.0,-1.0
76369735,76368877,0.0590744,0.0172503,-0.010954,0.426182,0.0,0.0,0.0,-1.0
76469878,76469016,0.139054,-0.0274335,-0.00870041,0.435345,0.0,0.0,0.0,-1.0
76569989,76569129,0.382593,-0.0797496,-0.0085705,0.432291,0.0,0.0,0.0,-1.0
76670122,76669255,0.438289,0.0462102,-0.0141799,0.4272,0.0,0.0,0.0,-1.0
76772790,76771930,-0.0732637,0.0305044,-0.0112911,0.424145,0.0,0.0,0.0,-1.0
76870366,76869506,0.389297,-0.0970984,-0.0104471,0.424145,0.0,0.0,0.0,-1.0
76970492,76969632,0.140999,-0.0257462,-0.00179304,0.426182,0.0,0.0,0.0,-1.0
77070618,77069758,0.0520323,0.00695647,-0.0099977,0.432291,0.0,0.0,0.0,-1.0
77170740,77169884,0.0915157,-0.0284183,-0.0107717,0.431273,0.0,0.0,0.0,-1.0
77268408,77267552,0.384022,-0.00824954,-0.0153757,0.421091,0.0,0.0,0.0,-1.0
77370992,77370135,0.0673124,-0.0126256,-0.0034108,0.423127,0.0,0.0,0.0,-1.0
77471124,77470261,0.141069,0.0353009,-0.00930386,0.431273,0.0,0.0,0.0,-1.0
77568790,77567931,0.159092,0.100156,-0.0192845,0.422109,0.0,0.0,0.0,-1.0
77671374,77670514,0.284689,0.0271131,-0.0118793,0.422109,0.0,0.0,0.0,-1.0
77769039,77768181,0.328198,-0.0745395,0.000584027,0.422109,0.0,0.0,0.0,-1.0
77871630,77870764,0.248185,0.0404676,-0.00936679,0.422109,0.0,0.0,0.0,-1.0
77969310,77968434,0.0509853,0.0576594,-0.002538,0.422109,0.0,0.0,0.0,-1.0
78069413,78068558,-0.0544041,0.0763029,-0.013591,0.421091,0.0,0.0,0.0,-1.0
78169549,78168683,-0.147912,-0.0506297,-0.003357,0.423127,0.0,0.0,0.0,-1.0
78269665,78268809,-0.174509,-0.0558631,0.00065227,0.422109,0.0,0.0,0.0,-1.0
78372251,78371392,0.0512846,-0.0426233,-0.0058036,0.436364,0.0,0.0,0.0,-1.0
78469920,78469060,-0.359316,0.025712,-0.00582829,0.4384,0.0,0.0,0.0,-1.0
78570049,78569188,-0.161404,-0.102822,-0.00526273,0.4384,0.0,0.0,0.0,-1.0
78667620,78666762,-0.26938,-0.110163,-0.00925896,0.439418,0.0,0.0,0.0,-1.0
78770301,78769437,-0.226741,-0.0132871,-0.00674645,0.436364,0.0,0.0,0.0,-1.0
78872877,78872020,0.372082,0.157991,-0.00743746,0.441455,0.0,0.0,0.0,-1.0
78970543,78969688,0.159738,0.15709,-0.00704943,0.456727,0.0,0.0,0.0,-1.0
79070669,79069814,0.182341,0.0309234,-0.00990631,0.451636,0.0,0.0,0.0,-1.0
79168249,79167390,-0.143997,-0.00187268,-0.0107846,0.444509,0.0,0.0,0.0,-1.0
79270921,79270064,0.136575,0.0307262,-0.0162793,0.442473,0.0,0.0,0.0,-1.0
79368498,79367641,-0.150773,0.100133,-0.00538942,0.447564,0.0,0.0,0.0,-1.0
79471176,79470319,0.249833,-0.0959796,-0.00941603,0.454691,0.0,0.0,0.0,-1.0
79571312,79570441,0.110655,-0.0437658,-0.00834265,0.453673,0.0,0.0,0.0,-1.0
79668874,79668017,-0.175343,0.0223339,-0.0213372,0.454691,0.0,0.0,0.0,-1.0
79771547,79770692,-0.0165432,-0.0351831,-0.00758184,0.446545,0.0,0.0,0.0,-1.0
79869136,79868276,-0.352781,0.0576498,-0.00261765,0.4496,0.0,0.0,0.0,-1.0
79971798,79970942,0.0365033,-0.0441904,-0.00036898,0.463855,0.0,0.0,0.0,-1.0
80069378,80068519,-0.263154,-0.156841,0.00649379,0.467927,0.0,0.0,0.0,-1.0
80169501,80168644,-0.263808,-0.0278323,0.0182293,0.473018,0.0,0.0,0.0,-1.0
80272174,80271319,-0.117884,0.0626095,-0.0057647,0.477091,0.0,0.0,0.0,-1.0
80369752,80368895,-0.321997,0.0597932,0.00555295,0.457745,0.0,0.0,0.0,-1.0
80472425,80471569,-0.0228968,0.0555713,0.00714726,0.447564,0.0,0.0,0.0,-1.0
80570008,80569146,-0.156597,0.00564943,0.00648112,0.4496,0.0,0.0,0.0,-1.0
80670145,80669285,-0.0750357,-0.0827278,-0.00534454,0.453673,0.0,0.0,0.0,-1.0
80767799,80766939,-0.252999,-0.136757,-0.00637091,0.450618,0.0,0.0,0.0,-1.0
80870407,80869536,-0.0570503,0.0650508,-0.00809288,0.450618,0.0,0.0,0.0,-1.0
80973063,80972196,0.224074,0.0289667,6.33549e-05,0.453673,0.0,0.0,0.0,-1.0
81070629,81069772,0.00686606,-0.0158904,-0.00814662,0.450618,0.0,0.0,0.0,-1.0
81170757,81169897,0.125955,0.111239,-0.00656522,0.446545,0.0,0.0,0.0,-1.0
81268425,81267568,-0.212959,-0.0072105,0.000666881,0.447564,0.0,0.0,0.0,-1.0
81371015,81370152,0.121085,0.109423,-0.00569845,0.447564,0.0,0.0,0.0,-1.0
81468676,81467816,-0.258695,0.128101,-0.00588357,0.445527,0.0,0.0,0.0,-1.0
81571258,81570399,0.116412,0.0421402,-0.00777541,0.447564,0.0,0.0,0.0,-1.0
81671391,81670524,0.0647747,0.0473259,-0.00656063,0.446545,0.0,0.0,0.0,-1.0
81769063,81768192,-0.185623,0.168179,-0.0021945,0.429236,0.0,0.0,0.0,-1.0
81871631,81870774,0.163778,0.111983,-0.00188432,0.437382,0.0,0.0,0.0,-1.0
81969317,81968442,-0.189458,0.0885071,0.000551161,0.440436,0.0,0.0,0.0,-1.0
82071881,82071024,-0.044093,0.123779,-0.00578119,0.440436,0.0,0.0,0.0,-1.0
82169550,82168692,-0.350357,0.0977779,-0.00191757,0.439418,0.0,0.0,0.0,-1.0
82269675,82268818,-0.209349,0.00837606,0.0102481,0.436364,0.0,0.0,0.0,-1.0
82372259,82371400,-0.0398811,0.0435382,-0.000332662,0.423127,0.0,0.0,0.0,-1.0
82469929,82469073,-0.455664,0.0678132,0.00699859,0.426182,0.0,0.0,0.0,-1.0
82572524,82571650,0.168667,0.105763,-9.95483e-05,0.435345,0.0,0.0,0.0,-1.0
82670182,82669325,-0.13531,0.0636888,0.0157022,0.433309,0.0,0.0,0.0,-1.0
82770325,82769450,-0.173623,0.0460957,0.010736,0.416,0.0,0.0,0.0,-1.0
82867879,82867019,-0.264979,0.0792548,0.0106197,0.418036,0.0,0.0,0.0,-1.0
82970551,82969693,-0.0123551,0.0288488,0.0148304,0.420073,0.0,0.0,0.0,-1.0
83070693,83069836,-0.124902,0.0533002,0.00912065,0.435345,0.0,0.0,0.0,-1.0
83170801,83169943,-0.0770336,0.0854719,0.0112494,0.432291,0.0,0.0,0.0,-1.0
83268401,83267519,-0.26847,-0.0716169,0.0140756,0.436364,0.0,0.0,0.0,-1.0
83368504,83367644,-0.364155,0.0374221,0.0134057,0.4384,0.0,0.0,0.0,-1.0
83471184,83470323,-0.0718825,0.0584274,0.0053587,0.4384,0.0,0.0,0.0,-1.0
83568751,83567894,-0.403693,-0.0180807,0.0193977,0.439418,0.0,0.0,0.0,-1.0
83671429,83670568,-0.327285,0.017799,0.0162943,0.440436,0.0,0.0,0.0,-1.0
83769001,83768144,-0.263246,0.0471231,0.00953373,0.436364,0.0,0.0,0.0,-1.0
83869143,83868281,-0.299321,-0.0251713,0.00326556,0.435345,0.0,0.0,0.0,-1.0
83971803,83970946,-0.320208,-0.00367961,0.00368295,0.437382,0.0,0.0,0.0,-1.0
84069379,84068519,-0.131633,-0.0159318,-0.00506837,0.439418,0.0,0.0,0.0,-1.0
84172065,84171193,-0.363808,-0.0661489,0.00152939,0.4384,0.0,0.0,0.0,-1.0
84269625,84268769,-0.311411,-0.0373402,0.000282972,0.436364,0.0,0.0,0.0,-1.0
84369750,84368894,-0.279744,-0.073212,0.00328024,0.436364,0.0,0.0,0.0,-1.0
84472427,84471568,-0.428441,0.044323,-0.00472748,0.443491,0.0,0.0,0.0,-1.0
84570002,84569144,-0.327695,0.0125072,0.00589322,0.443491,0.0,0.0,0.0,-1.0
84670165,84669278,-0.453488,0.062486,-0.000625386,0.450618,0.0,0.0,0.0,-1.0
84770253,84769394,-0.364655,-0.0600871,-0.0125929,0.446545,0.0,0.0,0.0,-1.0
84870375,84869518,-0.237538,-0.00924079,-0.00803564,0.432291,0.0,0.0,0.0,-1.0
84968044,84967186,-0.243834,-0.0267346,0.00588464,0.435345,0.0,0.0,0.0,-1.0
85070642,85069776,-0.168221,-0.0850784,0.000450564,0.4384,0.0,0.0,0.0,-1.0
85170750,85169893,-0.0831239,-0.0848876,0.00187359,0.444509,0.0,0.0,0.0,-1.0
85270878,85270018,-0.0446095,0.103683,-0.0111522,0.447564,0.0,0.0,0.0,-1.0
85371000,85370143,0.0906541,0.0318448,-0.0162311,0.446545,0.0,0.0,0.0,-1.0
85468666,85467811,-0.337926,0.085922,-0.0306843,0.448582,0.0,0.0,0.0,-1.0
85571255,85570393,-0.170774,0.0415667,-0.0337071,0.443491,0.0,0.0,0.0,-1.0
85668934,85668075,-0.291894,0.019063,-0.0467942,0.451636,0.0,0.0,0.0,-1.0
85771516,85770643,-0.180301,0.00382122,-0.0609226,0.446545,0.0,0.0,0.0,-1.0
85874184,85873319,-0.0530479,0.0735847,-0.0595608,0.447564,0.0,0.0,0.0,-1.0
85969299,85968436,-0.35927,-0.0214118,-0.0533006,0.448582,0.0,0.0,0.0,-1.0
86071874,86071017,-0.333338,0.052183,-0.0217082,0.442473,0.0,0.0,0.0,-1.0
86169541,86168685,-0.258152,-0.0204427,-0.0242838,0.439418,0.0,0.0,0.0,-1.0
86269666,86268810,-0.40509,-0.0377691,-0.0300891,0.448582,0.0,0.0,0.0,-1.0
86369797,86368935,-0.144978,-0.0139566,-0.0290196,0.464873,0.0,0.0,0.0,-1.0
86469919,86469060,-0.224891,-0.113938,-0.01466,0.458764,0.0,0.0,0.0,-1.0
86575058,86574193,-0.108978,0.0785875,-0.0166763,0.458764,0.0,0.0,0.0,-1.0
86670166,86669310,-0.252484,-0.0677116,-0.0214058,0.456727,0.0,0.0,0.0,-1.0
86770302,86769435,-0.245576,0.0437355,-0.0300805,0.4608,0.0,0.0,0.0,-1.0
86870445,86869589,-0.287344,0.0372638,-0.0127694,0.454691,0.0,0.0,0.0,-1.0
86970540,86969685,-0.39312,0.0651729,-0.0155779,0.453673,0.0,0.0,0.0,-1.0
87068128,87067260,-0.282808,-0.132444,-0.0135431,0.441455,0.0,0.0,0.0,-1.0
87170790,87169934,0.00537537,0.0412072,-0.00322951,0.440436,0.0,0.0,0.0,-1.0
87270915,87270059,-0.0354646,0.089114,-0.0198514,0.4384,0.0,0.0,0.0,-1.0
87371052,87370184,-0.142919,0.00125551,-0.0225642,0.439418,0.0,0.0,0.0,-1.0
87471170,87470312,-0.0662402,0.137962,-0.0186216,0.4384,0.0,0.0,0.0,-1.0
87568746,87567889,-0.263381,0.029002,-0.00125859,0.434327,0.0,0.0,0.0,-1.0
87671415,87670559,-0.272863,-0.0358022,0.031772,0.437382,0.0,0.0,0.0,-1.0
87768992,87768135,-0.268157,-0.0520196,0.00371495,0.437382,0.0,0.0,0.0,-1.0
87869126,87868260,-0.0816212,-0.0481896,0.0163899,0.437382,0.0,0.0,0.0,-1.0
87969247,87968385,-0.126354,-0.0513206,0.0141462,0.439418,0.0,0.0,0.0,-1.0
88069367,88068510,-0.00885808,-0.0280672,-0.00305985,0.4384,0.0,0.0,0.0,-1.0
88172041,88171184,-0.232982,0.0540574,-0.00779112,0.436364,0.0,0.0,0.0,-1.0
88269619,88268759,0.15062,-0.0538863,-0.0233622,0.4384,0.0,0.0,0.0,-1.0
88369744,88368884,0.00141713,-0.0249923,-0.038108,0.439418,0.0,0.0,0.0,-1.0
88469866,88469009,0.0805999,-0.0416483,-0.0343582,0.440436,0.0,0.0,0.0,-1.0
88569993,88569134,-0.0359129,-0.0748531,-0.0411084,0.4496,0.0,0.0,0.0,-1.0
88672666,88671809,-0.409203,-0.103059,-0.0437996,0.447564,0.0,0.0,0.0,-1.0
88770246,88769384,-0.134584,-0.0968787,-0.0600846,0.447564,0.0,0.0,0.0,-1.0
88870367,88869509,-0.202864,-0.0235101,-0.0721062,0.442473,0.0,0.0,0.0,-1.0
88970493,88969634,-0.30407,-0.0194386,-0.0748674,0.442473,0.0,0.0,0.0,-1.0
89070620,89069760,-0.489029,0.0331234,-0.0413577,0.445527,0.0,0.0,0.0,-1.0
89168303,89167428,-0.297413,0.0249744,-0.04735,0.447564,0.0,0.0,0.0,-1.0
89270868,89270009,-0.247834,0.0887467,-0.040867,0.451636,0.0,0.0,0.0,-1.0
89370990,89370134,-0.281236,0.0465709,-0.0348341,0.431273,0.0,0.0,0.0,-1.0
89471131,89470259,-0.290124,0.0330164,-0.0354019,0.432291,0.0,0.0,0.0,-1.0
89571244,89570384,-0.204861,0.0380583,-0.0187823,0.431273,0.0,0.0,0.0,-1.0
89668914,89668054,-0.349975,0.078547,-0.0292425,0.432291,0.0,0.0,0.0,-1.0
89771495,89770633,-0.252999,-0.0193786,-0.0341527,0.440436,0.0,0.0,0.0,-1.0
89869173,89868302,-0.196657,0.0202466,-0.0331543,0.443491,0.0,0.0,0.0,-1.0
89969292,89968426,-0.00270015,-0.0219282,-0.0379952,0.4496,0.0,0.0,0.0,-1.0
90071870,90071009,-0.323496,-0.098426,-0.0174767,0.459782,0.0,0.0,0.0,-1.0
90169545,90168677,0.0808873,-0.0730483,-0.0297833,0.477091,0.0,0.0,0.0,-1.0
90272135,90271269,0.0365696,-0.00966632,-0.0162837,0.479127,0.0,0.0,0.0,-1.0
90369796,90368927,0.116625,0.0626904,-0.0301503,0.476073,0.0,0.0,0.0,-1.0
90467371,90466501,0.0837507,0.00942545,-0.00195165,0.490327,0.0,0.0,0.0,-1.0
90570055,90569176,0.070028,0.0640405,-0.00277086,0.498473,0.0,0.0,0.0,-1.0
90670159,90669299,-0.0421602,-0.0960853,0.0342541,0.488291,0.0,0.0,0.0,-1.0
90770304,90769425,-0.162633,-0.109429,0.0318787,0.4944,0.0,0.0,0.0,-1.0
90870411,90869550,-0.326161,0.0340635,0.0245608,0.489309,0.0,0.0,0.0,-1.0
90970531,90969673,-0.290782,-0.0522557,0.0264996,0.493382,0.0,0.0,0.0,-1.0
91068115,91067249,-0.0931689,-0.0886525,0.00835729,0.491345,0.0,0.0,0.0,-1.0
91168236,91167374,-0.16493,0.0338206,-0.0115413,0.489309,0.0,0.0,0.0,-1.0
91268380,91267501,-0.150191,-0.00108988,-0.023293,0.490327,0.0,0.0,0.0,-1.0
91371030,91370172,-0.376742,-0.103328,-0.0171918,0.490327,0.0,0.0,0.0,-1.0
91471165,91470298,-0.107956,-0.0485544,-0.0126628,0.482182,0.0,0.0,0.0,-1.0
91568729,91567872,-0.164462,-0.0501285,-0.0202679,0.486255,0.0,0.0,0.0,-1.0
91668853,91667997,-0.101055,0.109922,-0.0259961,0.485236,0.0,0.0,0.0,-1.0
91768982,91768121,-0.0938349,-0.0608435,-0.0275606,0.478109,0.0,0.0,0.0,-1.0
91871667,91870797,-0.199169,0.0292513,-0.0179768,0.480145,0.0,0.0,0.0,-1.0
91969232,91968370,-0.0176673,-0.00947621,-0.0127788,0.476073,0.0,0.0,0.0,-1.0
92069361,92068495,-0.0543966,0.0695478,-0.020977,0.458764,0.0,0.0,0.0,-1.0
92172030,92171170,-0.289079,0.00466163,-0.0271542,0.4608,0.0,0.0,0.0,-1.0
92269603,92268744,0.138991,-0.11646,-0.0327708,0.464873,0.0,0.0,0.0,-1.0
92372285,92371417,-0.185963,-0.0471089,-0.0151652,0.4608,0.0,0.0,0.0,-1.0
92469865,92468995,-0.0282202,-0.0393939,-0.0288359,0.462836,0.0,0.0,0.0,-1.0
92569974,92569117,-0.0175207,0.00436261,-0.0253839,0.462836,0.0,0.0,0.0,-1.0
92670126,92669241,-0.078192,-0.0170506,-0.00368951,0.4608,0.0,0.0,0.0,-1.0
92770235,92769370,-0.0368198,-0.181003,-0.00564452,0.455709,0.0,0.0,0.0,-1.0
92872900,92872041,-0.324557,0.0102695,0.00397947,0.453673,0.0,0.0,0.0,-1.0
92970484,92969618,-0.247269,-0.0243322,0.00859138,0.450618,0.0,0.0,0.0,-1.0
93070600,93069740,-0.361434,-0.0578213,0.0145454,0.436364,0.0,0.0,0.0,-1.0
93168273,93167406,-0.245427,-0.0701965,0.0183519,0.4384,0.0,0.0,0.0,-1.0
93273405,93272538,-0.248099,-0.0282752,0.0169895,0.437382,0.0,0.0,0.0,-1.0
93368510,93367654,-0.277198,-0.01666,0.0179368,0.440436,0.0,0.0,0.0,-1.0
93471110,93470236,-0.429045,-0.0260283,0.0173875,0.450618,0.0,0.0,0.0,-1.0
93571226,93570362,-0.211674,-0.0585052,0.00965621,0.441455,0.0,0.0,0.0,-1.0
93668886,93668027,-0.124919,-0.081299,-0.0100795,0.432291,0.0,0.0,0.0,-1.0
93771466,93770609,-0.096004,-0.07631,0.00350579,0.429236,0.0,0.0,0.0,-1.0
93869149,93868289,0.239577,-0.0421482,-0.0123806,0.418036,0.0,0.0,0.0,-1.0
93974277,93973408,-0.122045,-0.101589,-0.00699935,0.420073,0.0,0.0,0.0,-1.0
94069395,94068525,0.168059,0.0473722,-0.0102346,0.418036,0.0,0.0,0.0,-1.0
94169511,94168649,0.128755,-0.0151381,-0.00972743,0.420073,0.0,0.0,0.0,-1.0
94274644,94273781,0.139937,-0.0774972,-0.0102166,0.425164,0.0,0.0,0.0,-1.0
94369757,94368897,0.201048,-0.0150284,-0.00393379,0.435345,0.0,0.0,0.0,-1.0
94474895,94474030,0.0212852,0.0669422,-0.00690381,0.444509,0.0,0.0,0.0,-1.0
94570005,94569146,0.172507,-0.0668396,-0.0122313,0.452655,0.0,0.0,0.0,-1.0
94670144,94669285,0.144563,-0.00931285,-0.0120771,0.472,0.0,0.0,0.0,-1.0
94767706,94766846,-0.00831272,0.095983,-0.0194596,0.474036,0.0,0.0,0.0,-1.0
94870378,94869519,0.248608,0.0171913,-0.0210417,0.475055,0.0,0.0,0.0,-1.0
94972969,94972102,0.151951,0.00545082,-0.00800628,0.475055,0.0,0.0,0.0,-1.0
95070623,95069768,0.0998713,0.0679369,-0.0156018,0.473018,0.0,0.0,0.0,-1.0
95170751,95169892,0.287849,-0.0613623,-0.00908026,0.464873,0.0,0.0,0.0,-1.0
95268337,95267467,0.067149,0.0585319,-0.00719921,0.459782,0.0,0.0,0.0,-1.0
95370996,95370140,0.150715,0.0614262,0.00205032,0.4496,0.0,0.0,0.0,-1.0
95468576,95467715,0.0642385,-0.0827188,-0.00195488,0.451636,0.0,0.0,0.0,-1.0
95571252,95570389,0.125775,-0.0275519,-0.0195955,0.451636,0.0,0.0,0.0,-1.0
95671373,95670513,0.0358473,-0.0218242,-0.000542803,0.461818,0.0,0.0,0.0,-1.0
95768954,95768088,-0.31948,0.0435972,0.00455978,0.470982,0.0,0.0,0.0,-1.0
95871622,95870762,-0.0769839,-0.0826811,0.00455495,0.469964,0.0,0.0,0.0,-1.0
