timestamp,q[0],q[1],q[2],q[3],delta_q_reset[0],delta_q_reset[1],delta_q_reset[2],delta_q_reset[3],quat_reset_counter
16967939,0.998449,-0.000257249,0.0103484,0.0547069,0.999995,4.34169e-11,4.30293e-10,0.00304261,3
16972942,0.998429,0.000701848,0.0101226,0.0551116,0.999995,4.34169e-11,4.30293e-10,0.00304261,3
17018000,0.998482,-0.000106464,0.007467,0.0545783,0.999995,4.34169e-11,4.30293e-10,0.00304261,3
17068064,0.998453,0.00212717,0.00867661,0.0548784,0.999995,4.34169e-11,4.30293e-10,0.00304261,3
17118128,0.998432,0.00203481,0.00970272,0.055102,0.999995,4.34169e-11,4.30293e-10,0.00304261,3
17168193,0.998444,0.00221804,0.0096468,0.0548866,0.999995,4.34169e-11,4.30293e-10,0.00304261,3
17218257,0.998466,0.00156918,0.00885956,0.0546271,0.999995,4.34169e-11,4.30293e-10,0.00304261,3
17268321,0.998479,0.00237399,0.00852335,0.0544176,0.999995,4.34169e-11,4.30293e-10,0.00304261,3
17318386,0.998452,0.0040139,0.00810113,0.0548813,0.999995,4.34169e-11,4.30293e-10,0.00304261,3
17368450,0.998418,0.00582834,0.00901586,0.0551849,0.999995,4.34169e-11,4.30293e-10,0.00304261,3
17418514,0.998453,0.00770436,0.00847559,0.0544133,0.999995,4.34169e-11,4.30293e-10,0.00304261,3
17468578,0.998383,0.00789141,0.00906847,0.0555605,0.999995,4.34169e-11,4.30293e-10,0.00304261,3
17518643,0.998376,0.00989579,0.00917069,0.0553437,0.999995,4.34169e-11,4.30293e-10,0.00304261,3
17568707,0.998391,0.0074089,0.0114867,0.0550273,0.999995,4.34169e-11,4.30293e-10,0.00304261,3
17618771,0.998448,0.00897105,0.00789871,0.0544022,0.999995,4.34169e-11,4.30293e-10,0.00304261,3
17668835,0.998504,0.00435044,0.007909,0.0539362,0.999995,4.34169e-11,4.30293e-10,0.00304261,3
17718899,0.998534,0.00407683,0.00648176,0.0535879,0.999995,4.34169e-11,4.30293e-10,0.00304261,3
17768964,0.998556,0.0025845,0.00731822,0.053151,0.999995,4.34169e-11,4.30293e-10,0.00304261,3
17819032,0.998519,-0.00029755,0.0138321,0.0526189,0.999995,4.34169e-11,4.30293e-10,0.00304261,3
17869092,0.998517,0.00360955,0.00852791,0.0536448,0.999995,4.34169e-11,4.30293e-10,0.00304261,3
17919156,0.998533,0.00233997,0.00717108,0.0536221,0.999995,4.34169e-11,4.30293e-10,0.00304261,3
17969223,0.998518,0.00286834,0.0055813,0.0540619,0.999995,4.34169e-11,4.30293e-10,0.00304261,3
18019300,0.99852,0.00425143,0.00549378,0.0539311,0.999995,4.34169e-11,4.30293e-10,0.00304261,3
18069350,0.998483,0.000174056,0.011574,0.0538317,0.999995,4.34169e-11,4.30293e-10,0.00304261,3
18114410,0.998493,0.00254565,0.00899465,0.0540795,0.999995,4.34169e-11,4.30293e-10,0.00304261,3
18169478,0.998525,0.000185237,0.00526606,0.0540341,0.999995,4.34169e-11,4.30293e-10,0.00304261,3
18219542,0.998525,-0.00395543,0.00842903,0.0534881,0.999995,4.34169e-11,4.30293e-10,0.00304261,3
18269606,0.998539,-0.00442974,0.0060622,0.053519,0.999995,4.34169e-11,4.30293e-10,0.00304261,3
18319671,0.998539,-0.00729282,0.00706203,0.0530809,0.999995,4.34169e-11,4.30293e-10,0.00304261,3
18369735,0.998581,-0.00581795,0.00501797,0.0526966,0.999995,4.34169e-11,4.30293e-10,0.00304261,3
18419799,0.99857,-0.00506714,0.00400208,0.0530709,0.999995,4.34169e-11,4.30293e-10,0.00304261,3
18464857,0.99855,-0.00538055,0.00755027,0.0530218,0.999995,4.34169e-11,4.30293e-10,0.00304261,3
18519928,0.998508,-0.00489428,0.00790046,0.0538064,0.999995,4.34169e-11,4.30293e-10,0.00304261,3
18569992,0.998535,-0.00285372,0.00740623,0.0535187,0.999995,4.34169e-11,4.30293e-10,0.00304261,3
18615050,0.998579,-0.00143255,0.00683971,0.0528338,0.999995,4.34169e-11,4.30293e-10,0.00304261,3
18670120,0.998599,-0.000637458,0.00852287,0.0522197,0.999995,4.34169e-11,4.30293e-10,0.00304261,3
18720185,0.998638,0.000558405,0.00495931,0.0519369,0.999995,4.34169e-11,4.30293e-10,0.00304261,3
18770256,0.99864,-0.00385861,0.00687457,0.051537,0.999995,4.34169e-11,4.30293e-10,0.00304261,3
18815311,0.998659,-0.00338211,0.00423528,0.0514935,0.999995,4.34169e-11,4.30293e-10,0.00304261,3
18870378,0.998611,-0.00523338,0.00600931,0.0520851,0.999995,4.34169e-11,4.30293e-10,0.00304261,3
18920442,0.998595,-0.00639429,0.00842544,0.0519235,0.999995,4.34169e-11,4.30293e-10,0.00304261,3
18965500,0.998612,-0.00490252,0.00531184,0.0521815,0.999995,4.34169e-11,4.30293e-10,0.00304261,3
19020570,0.99863,-0.00102586,0.00574968,0.0519941,0.999995,4.34169e-11,4.30293e-10,0.00304261,3
19070641,0.998643,0.00433054,0.00402162,0.05174,0.999995,4.34169e-11,4.30293e-10,0.00304261,3
19115693,0.99864,0.00400676,0.00359729,0.0518556,0.999995,4.34169e-11,4.30293e-10,0.00304261,3
19165757,0.998683,0.00469063,0.00216069,0.051045,0.999995,4.34169e-11,4.30293e-10,0.00304261,3
19220828,0.998703,0.000893876,0.00065513,0.0509096,0.999995,4.34169e-11,4.30293e-10,0.00304261,3
19265886,0.998694,0.00107223,-0.00181647,0.0510503,0.999995,4.34169e-11,4.30293e-10,0.00304261,3
19315950,0.998727,-0.00296995,0.00121459,0.0503503,0.999995,4.34169e-11,4.30293e-10,0.00304261,3
19371020,0.998711,-0.00357787,0.00527291,0.0503601,0.999995,4.34169e-11,4.30293e-10,0.00304261,3
19421090,0.998708,0.000312888,0.00515081,0.050563,0.999995,4.34169e-11,4.30293e-10,0.00304261,3
19466143,0.998694,-0.00184581,0.00819152,0.0503904,0.999995,4.34169e-11,4.30293e-10,0.00304261,3
19516229,0.99871,0.000650586,0.00552965,0.0504795,0.999995,4.34169e-11,4.30293e-10,0.00304261,3
19571289,0.998722,0.00111721,0.00297035,0.0504417,0.999995,4.34169e-11,4.30293e-10,0.00304261,3
19616336,0.998739,-0.000787489,0.00497016,0.0499568,0.999995,4.34169e-11,4.30293e-10,0.00304261,3
19666402,0.998778,-0.000579525,0.00328009,0.0493174,0.999995,4.34169e-11,4.30293e-10,0.00304261,3
19721480,0.998764,-0.00268577,0.00549137,0.0493251,0.999995,4.34169e-11,4.30293e-10,0.00304261,3
19766530,0.998769,-0.00240833,0.00544121,0.0492438,0.999995,4.34169e-11,4.30293e-10,0.00304261,3
19816593,0.99872,-0.00544968,0.00366752,0.0501496,0.999995,4.34169e-11,4.30293e-10,0.00304261,3
19866657,0.998715,-0.00390827,0.00332317,0.0504163,0.999995,4.34169e-11,4.30293e-10,0.00304261,3
19921728,0.998717,-0.00408947,0.0012435,0.0504678,0.999995,4.34169e-11,4.30293e-10,0.00304261,3
19966786,0.998707,-0.00179825,-0.0017573,0.0507681,0.999995,4.34169e-11,4.30293e-10,0.00304261,3
20016850,0.998726,-0.00192409,-0.00192372,0.0503905,0.999995,4.34169e-11,4.30293e-10,0.00304261,3
20071921,0.99873,0.000327537,-0.00248013,0.0503289,0.999995,4.34169e-11,4.30293e-10,0.00304261,3
20116978,0.998751,0.00244978,-0.00143923,0.0498934,0.999995,4.34169e-11,4.30293e-10,0.00304261,3
20167043,0.998743,0.00470405,-0.00276311,0.0498235,0.999995,4.34169e-11,4.30293e-10,0.00304261,3
20217107,0.998746,0.00301472,-0.00248137,0.0499128,0.999995,4.34169e-11,4.30293e-10,0.00304261,3
20267171,0.998764,0.00355718,-0.00267575,0.0495004,0.999995,4.34169e-11,4.30293e-10,0.00304261,3
20317246,0.998766,0.00318742,-0.0046404,0.049347,0.999995,4.34169e-11,4.30293e-10,0.00304261,3
20367300,0.998815,0.00104753,-0.000324149,0.0486612,0.999995,4.34169e-11,4.30293e-10,0.00304261,3
20417364,0.998825,0.00327729,-0.000700085,0.0483404,0.999995,4.34169e-11,4.30293e-10,0.00304261,3
20467428,0.998845,0.00163717,0.00456958,0.0477945,0.999995,4.34169e-11,4.30293e-10,0.00304261,3
20517494,0.998832,0.0023502,0.00803011,0.0475778,0.999995,4.34169e-11,4.30293e-10,0.00304261,3
20567557,0.998805,0.00212061,0.00499927,0.048576,0.999995,4.34169e-11,4.30293e-10,0.00304261,3
20617622,0.998816,-0.000241387,-0.000391643,0.0486478,0.999995,4.34169e-11,4.30293e-10,0.00304261,3
20667686,0.998788,-0.00423741,-0.00519731,0.0487526,0.999995,4.34169e-11,4.30293e-10,0.00304261,3
20717750,0.998702,-0.00865146,-0.0102203,0.0491463,0.999995,4.34169e-11,4.30293e-10,0.00304261,3
20767807,0.998588,-0.00901703,-0.0173187,0.0494097,0.999995,4.34169e-11,4.30293e-10,0.00304261,3
20817879,0.998525,-0.0127279,-0.0185727,0.0494062,0.999995,4.34169e-11,4.30293e-10,0.00304261,3
20867943,0.998476,-0.00883249,-0.0224826,0.049613,0.999995,4.34169e-11,4.30293e-10,0.00304261,3
20918009,0.99853,-0.00569519,-0.0207801,0.0497363,0.999995,4.34169e-11,4.30293e-10,0.00304261,3
20968072,0.998595,-0.00236307,-0.0165011,0.0503005,0.999995,4.34169e-11,4.30293e-10,0.00304261,3
21018142,0.99859,0.00432051,-0.0148493,0.050779,0.999995,4.34169e-11,4.30293e-10,0.00304261,3
21068200,0.99866,0.00584655,-0.00713128,0.0509283,0.999995,4.34169e-11,4.30293e-10,0.00304261,3
21118280,0.998658,0.00926066,-0.00250076,0.0508891,0.999995,4.34169e-11,4.30293e-10,0.00304261,3
21168329,0.998654,0.00835678,0.00273948,0.0511228,0.999995,4.34169e-11,4.30293e-10,0.00304261,3
21218400,0.998648,0.00464878,0.00955059,0.0508792,0.999995,4.34169e-11,4.30293e-10,0.00304261,3
21268457,0.998658,0.00389012,0.00596217,0.0513,0.999995,4.34169e-11,4.30293e-10,0.00304261,3
21318522,0.99867,-0.000570967,0.00533825,0.0512801,0.999995,4.34169e-11,4.30293e-10,0.00304261,3
21368586,0.998673,-0.00186671,0.00371558,0.0513386,0.999995,4.34169e-11,4.30293e-10,0.00304261,3
21418650,0.998653,-0.00213486,0.00267849,0.0517774,0.999995,4.34169e-11,4.30293e-10,0.00304261,3
21468715,0.998652,-0.00427046,0.00693549,0.0512641,0.999995,4.34169e-11,4.30293e-10,0.00304261,3
21518779,0.998649,0.000559696,0.00630736,0.0515727,0.999995,4.34169e-11,4.30293e-10,0.00304261,3
21568850,0.99868,0.00249829,0.00515254,0.0510525,0.999995,4.34169e-11,4.30293e-10,0.00304261,3
21618909,0.998676,0.00595872,0.00517748,0.0508256,0.999995,4.34169e-11,4.30293e-10,0.00304261,3
21668972,0.998664,0.00994733,0.00391209,0.0505657,0.999995,4.34169e-11,4.30293e-10,0.00304261,3
21719042,0.998659,0.00831062,0.00788211,0.0504846,0.999995,4.34169e-11,4.30293e-10,0.00304261,3
21769100,0.998674,0.00755723,0.00828909,0.0502439,0.999995,4.34169e-11,4.30293e-10,0.00304261,3
21819165,0.998683,0.00514655,0.00371438,0.0509043,0.999995,4.34169e-11,4.30293e-10,0.00304261,3
21869232,0.998694,-0.000777814,0.00499432,0.0508393,0.999995,4.34169e-11,4.30293e-10,0.00304261,3
21919294,0.99867,-0.00137633,0.00106749,0.0515294,0.999995,4.34169e-11,4.30293e-10,0.00304261,3
21969358,0.99865,-0.00384856,0.00282251,0.0517282,0.999995,4.34169e-11,4.30293e-10,0.00304261,3
22019422,0.998631,-0.00354644,0.00487215,0.0519642,0.999995,4.34169e-11,4.30293e-10,0.00304261,3
22069487,0.998622,-0.00153826,0.00531414,0.0521855,0.999995,4.34169e-11,4.30293e-10,0.00304261,3
22119551,0.998612,-0.00329537,0.00709111,0.05209,0.999995,4.34169e-11,4.30293e-10,0.00304261,3
22169616,0.998631,-0.00123382,0.00508951,0.0520368,0.999995,4.34169e-11,4.30293e-10,0.00304261,3
22219679,0.998665,-0.00199309,0.00277817,0.0515374,0.999995,4.34169e-11,4.30293e-10,0.00304261,3
22269743,0.998664,0.0012502,-0.00236775,0.0516043,0.999995,4.34169e-11,4.30293e-10,0.00304261,3
22314801,0.998668,-3.031e-05,-0.00557903,0.051304,0.999995,4.34169e-11,4.30293e-10,0.00304261,3
22369872,0.998644,0.00173101,-0.0114317,0.0507571,0.999995,4.34169e-11,4.30293e-10,0.00304261,3
22419937,0.99864,0.000478065,-0.0136662,0.0503029,0.999995,4.34169e-11,4.30293e-10,0.00304261,3
22464994,0.998631,0.00226427,-0.0158218,0.0498004,0.999995,4.34169e-11,4.30293e-10,0.00304261,3
22520065,0.998638,0.00316278,-0.0166979,0.0493286,0.999995,4.34169e-11,4.30293e-10,0.00304261,3
22570132,0.998759,0.00208212,-0.0121377,0.0482501,0.999995,4.34169e-11,4.30293e-10,0.00304261,3
22620222,0.99874,0.00817358,-0.0109823,0.0482914,0.999995,4.34169e-11,4.30293e-10,0.00304261,3
22665268,0.998792,0.00918217,-0.00604749,0.047899,0.999995,4.34169e-11,4.30293e-10,0.00304261,3
22720323,0.99878,0.0114271,-0.00119784,0.0480184,0.999995,4.34169e-11,4.30293e-10,0.00304261,3
22770387,0.998783,0.0119815,0.00256184,0.0477841,0.999995,4.34169e-11,4.30293e-10,0.00304261,3
22815444,0.99877,0.00572528,0.0122922,0.0476924,0.999995,4.34169e-11,4.30293e-10,0.00304261,3
22870515,0.998759,0.00137568,0.013412,0.0479503,0.999995,4.34169e-11,4.30293e-10,0.00304261,3
22920580,0.998824,0.00266182,0.00256825,0.0483527,0.999995,4.34169e-11,4.30293e-10,0.00304261,3
22965637,0.9988,0.00132751,0.000514939,0.0489566,0.999995,4.34169e-11,4.30293e-10,0.00304261,3
23015707,0.998758,0.00646062,-0.00498313,0.0491546,0.999995,4.34169e-11,4.30293e-10,0.00304261,3
23070772,0.998715,0.00837107,-0.00530817,0.0496945,0.999995,4.34169e-11,4.30293e-10,0.00304261,3
23115830,0.998715,0.00773911,-0.00377296,0.0499533,0.999995,4.34169e-11,4.30293e-10,0.00304261,3
23165895,0.998702,0.00892664,-0.00332789,0.0500379,0.999995,4.34169e-11,4.30293e-10,0.00304261,3
23220965,0.998773,0.00666948,0.00122415,0.0490627,0.999995,4.34169e-11,4.30293e-10,0.00304261,3
23271035,0.998782,0.00112878,0.00601476,0.0489562,0.999995,4.34169e-11,4.30293e-10,0.00304261,3
23316088,0.998794,-0.00157387,0.00572511,0.0487316,0.999995,4.34169e-11,4.30293e-10,0.00304261,3
23366155,0.99877,-0.00900902,0.00668921,0.0482945,0.999995,4.34169e-11,4.30293e-10,0.00304261,3
23421225,0.998724,-0.0133682,0.00361427,0.0485651,0.999995,4.34169e-11,4.30293e-10,0.00304261,3
23466292,0.998746,-0.0129373,-0.000960882,0.0483536,0.999995,4.34169e-11,4.30293e-10,0.00304261,3
23516357,0.998637,-0.016209,-0.00480782,0.0493774,0.999995,4.34169e-11,4.30293e-10,0.00304261,3
23571416,0.998575,-0.0162377,-0.0117896,0.0494518,0.999995,4.34169e-11,4.30293e-10,0.00304261,3
23616474,0.998466,-0.0171795,-0.0187911,0.0491698,0.999995,4.34169e-11,4.30293e-10,0.00304261,3
23666538,0.998343,-0.0121869,-0.0266108,0.0495364,0.999995,4.34169e-11,4.30293e-10,0.00304261,3
23716609,0.998312,-0.0064437,-0.028854,0.0499872,0.999995,4.34169e-11,4.30293e-10,0.00304261,3
23771673,0.998444,-0.00191804,-0.0232012,0.0506619,0.999995,4.34169e-11,4.30293e-10,0.00304261,3
23816731,0.998387,0.00340272,-0.0231664,0.0517141,0.999995,4.34169e-11,4.30293e-10,0.00304261,3
23866795,0.998333,0.00333365,-0.0235422,0.0525873,0.999995,4.34169e-11,4.30293e-10,0.00304261,3
23921866,0.998301,-0.0026454,-0.022878,0.0535153,0.999995,4.34169e-11,4.30293e-10,0.00304261,3
23966924,0.998328,-0.00800055,-0.0217581,0.0529483,0.999995,4.34169e-11,4.30293e-10,0.00304261,3
24016988,0.99837,-0.0130169,-0.022289,0.0508985,0.999995,4.34169e-11,4.30293e-10,0.00304261,3
24067053,0.998497,-0.0160011,-0.022669,0.0472604,0.999995,4.34169e-11,4.30293e-10,0.00304261,3
24117117,0.998624,-0.0145233,-0.0228601,0.0449125,0.999995,4.34169e-11,4.30293e-10,0.00304261,3
24167182,0.998705,-0.00727478,-0.0229226,0.0448241,0.999995,4.34169e-11,4.30293e-10,0.00304261,3
24217246,0.998741,-0.00244856,-0.0251259,0.0433547,0.999995,4.34169e-11,4.30293e-10,0.00304261,3
24267310,0.998873,-0.000857109,-0.0249144,0.0403899,0.999995,4.34169e-11,4.30293e-10,0.00304261,3
24317375,0.998982,0.00275644,-0.0249389,0.0374852,0.999995,4.34169e-11,4.30293e-10,0.00304261,3
24367439,0.999144,0.00368194,-0.0244137,0.0332075,0.999995,4.34169e-11,4.30293e-10,0.00304261,3
24417503,0.999308,0.000521013,-0.0237769,0.0286022,0.999995,4.34169e-11,4.30293e-10,0.00304261,3
24467571,0.999396,-0.00492713,-0.0255742,0.0230018,0.999995,4.34169e-11,4.30293e-10,0.00304261,3
24517632,0.999513,-0.00942968,-0.0241651,0.0173596,0.999995,4.34169e-11,4.30293e-10,0.00304261,3
24567696,0.999688,-0.0116282,-0.0196015,0.0102222,0.999995,4.34169e-11,4.30293e-10,0.00304261,3
24617760,0.999745,-0.0134824,-0.0180639,0.00137388,0.999995,4.34169e-11,4.30293e-10,0.00304261,3
24667825,0.999728,-0.0122124,-0.0183826,-0.00759753,0.999995,4.34169e-11,4.30293e-10,0.00304261,3
24717889,0.999591,-0.0101772,-0.0219645,-0.0152109,0.999995,4.34169e-11,4.30293e-10,0.00304261,3
24767954,0.999395,-0.00825535,-0.0255691,-0.0220977,0.999995,4.34169e-11,4.30293e-10,0.00304261,3
24818018,0.999261,-0.00594097,-0.0264007,-0.0272959,0.999995,4.34169e-11,4.30293e-10,0.00304261,3
24868085,0.999169,-0.00453932,-0.0260163,-0.031039,0.999995,4.34169e-11,4.30293e-10,0.00304261,3
24918146,0.999107,-0.00125173,-0.0265458,-0.0328529,0.999995,4.34169e-11,4.30293e-10,0.00304261,3
24968211,0.99912,0.000858393,-0.0261033,-0.0328266,0.999995,4.34169e-11,4.30293e-10,0.00304261,3
25018281,0.999193,0.00342915,-0.024739,-0.0314548,0.999995,4.34169e-11,4.30293e-10,0.00304261,3
25068345,0.999305,0.00402455,-0.0236599,-0.0285127,0.999995,4.34169e-11,4.30293e-10,0.00304261,3
25118404,0.999381,0.00204908,-0.0245195,-0.0251396,0.999995,4.34169e-11,4.30293e-10,0.00304261,3
25168468,0.99945,-0.0021026,-0.0249644,-0.0217287,0.999995,4.34169e-11,4.30293e-10,0.00304261,3
25218532,0.999526,-0.00883222,-0.022888,-0.0185884,0.999995,4.34169e-11,4.30293e-10,0.00304261,3
25268597,0.999599,-0.0141116,-0.018998,-0.0155477,0.999995,4.34169e-11,4.30293e-10,0.00304261,3
25318661,0.999552,-0.0198141,-0.0177103,-0.0137775,0.999995,4.34169e-11,4.30293e-10,0.00304261,3
25368734,0.999606,-0.0175383,-0.0181721,-0.0122486,0.999995,4.34169e-11,4.30293e-10,0.00304261,3
25418793,0.999683,-0.0102489,-0.0201353,-0.0111529,0.999995,4.34169e-11,4.30293e-10,0.00304261,3
25468854,0.999731,-0.00438233,-0.0205796,-0.00972646,0.999995,4.34169e-11,4.30293e-10,0.00304261,3
25518919,0.999811,-0.00151512,-0.0174821,-0.00841029,0.999995,4.34169e-11,4.30293e-10,0.00304261,3
25568983,0.999895,0.000695559,-0.0125115,-0.0072928,0.999995,4.34169e-11,4.30293e-10,0.00304261,3
25619047,0.999913,0.0034693,-0.0108901,-0.00664393,0.999995,4.34169e-11,4.30293e-10,0.00304261,3
25669112,0.999912,0.00599341,-0.00993565,-0.00640029,0.999995,4.34169e-11,4.30293e-10,0.00304261,3
25719176,0.999858,0.00817852,-0.0137901,-0.00526505,0.999995,4.34169e-11,4.30293e-10,0.00304261,3
25769240,0.999788,0.00618549,-0.0191355,-0.00449472,0.999995,4.34169e-11,4.30293e-10,0.00304261,3
25819305,0.999711,0.00441608,-0.0231559,-0.00463412,0.999995,4.34169e-11,4.30293e-10,0.00304261,3
25869369,0.99981,-0.000747107,-0.0187374,-0.0054013,0.999995,4.34169e-11,4.30293e-10,0.00304261,3
25919436,0.999912,-0.00418268,-0.0107172,-0.00664254,0.999995,4.34169e-11,4.30293e-10,0.00304261,3
25969498,0.999951,-0.00288731,-0.00494537,-0.00807232,0.999995,4.34169e-11,4.30293e-10,0.00304261,3
26019566,0.99995,0.00151436,-0.00401188,-0.00899967,0.999995,4.34169e-11,4.30293e-10,0.00304261,3
26069627,0.999881,0.0104485,-0.00585367,-0.00975467,0.999995,4.34169e-11,4.30293e-10,0.00304261,3
26119691,0.999728,0.0202401,-0.0050485,-0.0104643,0.999995,4.34169e-11,4.30293e-10,0.00304261,3
26164749,0.999675,0.022625,-0.00201642,-0.0115592,0.999995,4.34169e-11,4.30293e-10,0.00304261,3
26219820,0.999789,0.0166367,-0.00217612,-0.0118594,0.999995,4.34169e-11,4.30293e-10,0.00304261,3
26269884,0.99992,0.00166335,-0.000494459,-0.0125653,0.999995,4.34169e-11,4.30293e-10,0.00304261,3
26314944,0.999784,-0.0158149,0.00370257,-0.0129921,0.999995,4.34169e-11,4.30293e-10,0.00304261,3
26370013,0.999643,-0.0211988,0.00932505,-0.0133362,0.999995,4.34169e-11,4.30293e-10,0.00304261,3
26420078,0.999678,-0.0190378,0.0109764,-0.0127119,0.999995,4.34169e-11,4.30293e-10,0.00304261,3
26470142,0.999867,-0.0104731,0.00552426,-0.0111776,0.999995,4.34169e-11,4.30293e-10,0.00304261,3
26515200,0.999931,-0.00699501,-0.00065517,-0.00941854,0.999995,4.34169e-11,4.30293e-10,0.00304261,3
26570277,0.999967,-4.6004e-05,-0.00228633,-0.00781352,0.999995,4.34169e-11,4.30293e-10,0.00304261,3
26620335,0.999978,-0.0031043,-0.000173035,-0.00580233,0.999995,4.34169e-11,4.30293e-10,0.00304261,3
26665393,0.999954,-0.00886119,0.00108736,-0.00357459,0.999995,4.34169e-11,4.30293e-10,0.00304261,3
26720464,0.999978,-0.00647364,-0.00103662,-0.000844176,0.999995,4.34169e-11,4.30293e-10,0.00304261,3
26770528,0.999981,-0.0026346,-0.00532626,0.00161204,0.999995,4.34169e-11,4.30293e-10,0.00304261,3
26815586,0.999961,0.000903785,-0.00772526,0.0041277,0.999995,4.34169e-11,4.30293e-10,0.00304261,3
26865653,0.99992,0.00723073,-0.00804526,0.00653882,0.999995,4.34169e-11,4.30293e-10,0.00304261,3
26920721,0.999942,0.00546195,-0.00173647,0.00911148,0.999995,4.34169e-11,4.30293e-10,0.00304261,3
26970786,0.999928,-0.000974678,0.00405836,0.0112863,0.999995,4.34169e-11,4.30293e-10,0.00304261,3
27015844,0.999881,-0.000886084,0.00804752,0.0131332,0.999995,4.34169e-11,4.30293e-10,0.00304261,3
27070914,0.999846,0.00439925,0.00814193,0.0149337,0.999995,4.34169e-11,4.30293e-10,0.00304261,3
27120979,0.999694,0.0173498,0.00473834,0.0169788,0.999995,4.34169e-11,4.30293e-10,0.00304261,3
27166050,0.999483,0.0259272,0.00216012,0.0188921,0.999995,4.34169e-11,4.30293e-10,0.00304261,3
27216101,0.999582,0.0187079,0.00298759,0.021827,0.999995,4.34169e-11,4.30293e-10,0.00304261,3
27271201,0.999658,-0.00380498,0.00252357,0.0257707,0.999995,4.34169e-11,4.30293e-10,0.00304261,3
27316237,0.999441,-0.0161897,0.00163299,0.0292067,0.999995,4.34169e-11,4.30293e-10,0.00304261,3
27366295,0.999302,-0.0167465,-0.00289347,0.0332694,0.999995,4.34169e-11,4.30293e-10,0.00304261,3
27421365,0.999167,-0.0131559,-0.00794646,0.0377968,0.999995,4.34169e-11,4.30293e-10,0.00304261,3
27466426,0.999112,-0.00511969,-0.00894311,0.0408491,0.999995,4.34169e-11,4.30293e-10,0.00304261,3
27516488,0.998999,-0.0005286,-0.00888214,0.043839,0.999995,4.34169e-11,4.30293e-10,0.00304261,3
27566555,0.998925,0.00256416,-0.00743918,0.0456903,0.999995,4.34169e-11,4.30293e-10,0.00304261,3
27621623,0.998754,0.00561667,-0.0105669,0.0484414,0.999995,4.34169e-11,4.30293e-10,0.00304261,3
27666681,0.99862,0.0102247,-0.00866698,0.0507857,0.999995,4.34169e-11,4.30293e-10,0.00304261,3
27716747,0.998577,0.00765617,-0.00453671,0.0525887,0.999995,4.34169e-11,4.30293e-10,0.00304261,3
27771816,0.998492,0.00620049,-0.000286735,0.0545516,0.999995,4.34169e-11,4.30293e-10,0.00304261,3
27816874,0.998385,0.0138953,0.0037623,0.0549588,0.999995,4.34169e-11,4.30293e-10,0.00304261,3
27866938,0.998349,0.0131328,0.00557506,0.0556347,0.999995,4.34169e-11,4.30293e-10,0.00304261,3
27917003,0.998351,0.0104728,0.00408871,0.0562865,0.999995,4.34169e-11,4.30293e-10,0.00304261,3
27967067,0.998354,0.00331121,0.00102434,0.0572544,0.999995,4.34169e-11,4.30293e-10,0.00304261,3
28017132,0.998276,0.00979517,-0.00471705,0.0576772,0.999995,4.34169e-11,4.30293e-10,0.00304261,3
28067196,0.998121,0.0219033,-0.00598635,0.0569131,0.999995,4.34169e-11,4.30293e-10,0.00304261,3
28122273,0.998081,0.0286858,-0.00815188,0.0542673,0.999995,4.34169e-11,4.30293e-10,0.00304261,3
28167328,0.998495,0.0188444,-0.00799876,0.0508815,0.999995,4.34169e-11,4.30293e-10,0.00304261,3
28217392,0.998847,0.00597411,-0.00960232,0.0466625,0.999995,4.34169e-11,4.30293e-10,0.00304261,3
28267454,0.999019,-0.00439936,-0.0128802,0.0421348,0.999995,4.34169e-11,4.30293e-10,0.00304261,3
28317518,0.999195,-0.0080789,-0.0144099,0.0365649,0.999995,4.34169e-11,4.30293e-10,0.00304261,3
28367583,0.999436,-0.00244738,-0.0131585,0.0308109,0.999995,4.34169e-11,4.30293e-10,0.00304261,3
28417650,0.999646,0.00480424,-0.00945456,0.0243892,0.999995,4.34169e-11,4.30293e-10,0.00304261,3
28467711,0.999794,0.00750723,-0.00731561,0.0174044,0.999995,4.34169e-11,4.30293e-10,0.00304261,3
28517776,0.999911,0.00384802,-0.00716047,0.0106033,0.999995,4.34169e-11,4.30293e-10,0.00304261,3
28567840,0.999946,-0.00113853,-0.00956328,0.00383406,0.999995,4.34169e-11,4.30293e-10,0.00304261,3
28617905,0.999832,-0.00749807,-0.016569,-0.00210203,0.999995,4.34169e-11,4.30293e-10,0.00304261,3
28667971,0.999649,-0.0117555,-0.0221101,-0.00870642,0.999995,4.34169e-11,4.30293e-10,0.00304261,3
28718040,0.999482,-0.00910167,-0.0276254,-0.0137567,0.999995,4.34169e-11,4.30293e-10,0.00304261,3
28768103,0.999466,-0.00693991,-0.0259738,-0.018575,0.999995,4.34169e-11,4.30293e-10,0.00304261,3
28818162,0.999528,-0.00633196,-0.0202491,-0.0222411,0.999995,4.34169e-11,4.30293e-10,0.00304261,3
28868237,0.999561,-0.00174971,-0.0159789,-0.0249082,0.999995,4.34169e-11,4.30293e-10,0.00304261,3
28918294,0.999584,0.000100798,-0.0106703,-0.0267892,0.999995,4.34169e-11,4.30293e-10,0.00304261,3
28968356,0.999531,0.00300222,-0.0128082,-0.0276675,0.999995,4.34169e-11,4.30293e-10,0.00304261,3
29018422,0.999478,0.00180524,-0.0142389,-0.0289465,0.999995,4.34169e-11,4.30293e-10,0.00304261,3
29068484,0.999459,-0.00080802,-0.014379,-0.0295855,0.999995,4.34169e-11,4.30293e-10,0.00304261,3
29118549,0.99946,-0.00306491,-0.0121159,-0.0303928,0.999995,4.34169e-11,4.30293e-10,0.00304261,3
29168613,0.999495,-0.000183073,-0.00878618,-0.0305238,0.999995,4.34169e-11,4.30293e-10,0.00304261,3
29218678,0.99949,0.0018363,-0.00657636,-0.0312087,0.999995,4.34169e-11,4.30293e-10,0.00304261,3
29268742,0.999449,0.00178027,-0.00964612,-0.031727,0.999995,4.34169e-11,4.30293e-10,0.00304261,3
29318806,0.999412,-0.00452278,-0.0113124,-0.0320394,0.999995,4.34169e-11,4.30293e-10,0.00304261,3
29368876,0.999384,-0.0101433,-0.011671,-0.0315158,0.999995,4.34169e-11,4.30293e-10,0.00304261,3
29418935,0.999459,-0.00763819,-0.00921827,-0.0306291,0.999995,4.34169e-11,4.30293e-10,0.00304261,3
29469000,0.999537,0.000682072,-0.00473746,-0.0300477,0.999995,4.34169e-11,4.30293e-10,0.00304261,3
29519065,0.999547,0.00672946,-0.00340519,-0.0291447,0.999995,4.34169e-11,4.30293e-10,0.00304261,3
29569130,0.999591,0.00541625,-0.00243214,-0.0279802,0.999995,4.34169e-11,4.30293e-10,0.00304261,3
29619194,0.999645,0.00268243,-0.00659653,-0.0256865,0.999995,4.34169e-11,4.30293e-10,0.00304261,3
29669257,0.99968,0.00502658,-0.00383155,-0.0245014,0.999995,4.34169e-11,4.30293e-10,0.00304261,3
29719321,0.999698,0.00850396,-0.000697162,-0.0230551,0.999995,4.34169e-11,4.30293e-10,0.00304261,3
29769386,0.999679,0.0126072,-0.00054358,-0.0219892,0.999995,4.34169e-11,4.30293e-10,0.00304261,3
29819450,0.999657,0.0164472,-0.00418351,-0.0199664,0.999995,4.34169e-11,4.30293e-10,0.00304261,3
29869533,0.999598,0.0206653,-0.00706468,-0.0180928,0.999995,4.34169e-11,4.30293e-10,0.00304261,3
29919579,0.999709,0.0167262,-0.00622526,-0.0162277,0.999995,4.34169e-11,4.30293e-10,0.00304261,3
29969644,0.999806,0.0128955,-0.00452167,-0.0141746,0.999995,4.34169e-11,4.30293e-10,0.00304261,3
30014701,0.9999,0.0068408,-0.001413,-0.0122719,0.999995,4.34169e-11,4.30293e-10,0.00304261,3
30069772,0.999917,0.0058824,0.000528297,-0.0114693,0.999995,4.34169e-11,4.30293e-10,0.00304261,3
30119836,0.99993,0.00256778,-0.0029276,-0.0112169,0.999995,4.34169e-11,4.30293e-10,0.00304261,3
30164894,0.999893,-0.00215076,-0.00885842,-0.011458,0.999995,4.34169e-11,4.30293e-10,0.00304261,3
30219965,0.999832,-0.00249109,-0.0136349,-0.0119989,0.999995,4.34169e-11,4.30293e-10,0.00304261,3
30270029,0.999817,-0.000888756,-0.0145413,-0.0123863,0.999995,4.34169e-11,4.30293e-10,0.00304261,3
30320093,0.999864,-0.000437005,-0.0100792,-0.0130802,0.999995,4.34169e-11,4.30293e-10,0.00304261,3
30365152,0.999864,0.001606,-0.00753389,-0.0145869,0.999995,4.34169e-11,4.30293e-10,0.00304261,3
30420229,0.999863,-0.000277361,-0.00532887,-0.0156562,0.999995,4.34169e-11,4.30293e-10,0.00304261,3
30470287,0.999848,-0.00238887,-0.00544485,-0.0164153,0.999995,4.34169e-11,4.30293e-10,0.00304261,3
30515345,0.999817,-0.00182869,-0.00750603,-0.0175027,0.999995,4.34169e-11,4.30293e-10,0.00304261,3
30570415,0.999752,-0.00755462,-0.0102648,-0.0182673,0.999995,4.34169e-11,4.30293e-10,0.00304261,3
30620486,0.99971,-0.0100534,-0.00913101,-0.0198811,0.999995,4.34169e-11,4.30293e-10,0.00304261,3
30665537,0.999672,-0.0112802,-0.00926365,-0.0210621,0.999995,4.34169e-11,4.30293e-10,0.00304261,3
30715602,0.999601,-0.0144378,-0.00825468,-0.0228544,0.999995,4.34169e-11,4.30293e-10,0.00304261,3
30770673,0.999615,-0.0133877,-0.00407848,-0.0239781,0.999995,4.34169e-11,4.30293e-10,0.00304261,3
30820737,0.999633,-0.0122009,-0.00274214,-0.0240463,0.999995,4.34169e-11,4.30293e-10,0.00304261,3
30865795,0.999626,-0.0118428,-0.00370987,-0.0243819,0.999995,4.34169e-11,4.30293e-10,0.00304261,3
30920866,0.999483,-0.0199507,-0.00723852,-0.0241574,0.999995,4.34169e-11,4.30293e-10,0.00304261,3
30970934,0.999436,-0.0207754,-0.0110557,-0.0239679,0.999995,4.34169e-11,4.30293e-10,0.00304261,3
31015988,0.999487,-0.0167188,-0.0122952,-0.0243774,0.999995,4.34169e-11,4.30293e-10,0.00304261,3
31066052,0.999477,-0.0180545,-0.0106071,-0.0246624,0.999995,4.34169e-11,4.30293e-10,0.00304261,3
31121123,0.999242,-0.0288734,-0.00802693,-0.0248363,0.999995,4.34169e-11,4.30293e-10,0.00304261,3
31166181,0.99929,-0.0267872,-0.00438804,-0.0261121,0.999995,4.34169e-11,4.30293e-10,0.00304261,3
31216245,0.999296,-0.0264781,-0.00384808,-0.0263154,0.999995,4.34169e-11,4.30293e-10,0.00304261,3
31271316,0.999301,-0.0254038,-0.00876884,-0.0259866,0.999995,4.34169e-11,4.30293e-10,0.00304261,3
31316374,0.99942,-0.0184305,-0.011709,-0.0261359,0.999995,4.34169e-11,4.30293e-10,0.00304261,3
31366438,0.999511,-0.0139729,-0.0121928,-0.0251835,0.999995,4.34169e-11,4.30293e-10,0.00304261,3
31416523,0.999608,-0.00730571,-0.0101868,-0.0250514,0.999995,4.34169e-11,4.30293e-10,0.00304261,3
31471576,0.999654,-0.00526353,-0.0095051,-0.0239643,0.999995,4.34169e-11,4.30293e-10,0.00304261,3
31516631,0.999678,0.0004822,-0.00915265,-0.0236557,0.999995,4.34169e-11,4.30293e-10,0.00304261,3
31566695,0.999691,0.00178383,-0.0103132,-0.0225262,0.999995,4.34169e-11,4.30293e-10,0.00304261,3
31621769,0.999706,0.00361988,-0.0112384,-0.0211805,0.999995,4.34169e-11,4.30293e-10,0.00304261,3
31666824,0.999705,0.00714124,-0.0111937,-0.0203267,0.999995,4.34169e-11,4.30293e-10,0.00304261,3
31716888,0.999707,0.00719784,-0.011991,-0.0197349,0.999995,4.34169e-11,4.30293e-10,0.00304261,3
31766953,0.999744,0.00136191,-0.0132988,-0.0182377,0.999995,4.34169e-11,4.30293e-10,0.00304261,3
31817017,0.999765,-0.00658809,-0.0118005,-0.0169283,0.999995,4.34169e-11,4.30293e-10,0.00304261,3
31867081,0.999747,-0.0123526,-0.0107229,-0.015422,0.999995,4.34169e-11,4.30293e-10,0.00304261,3
31917156,0.999758,-0.0127186,-0.0108157,-0.0143168,0.999995,4.34169e-11,4.30293e-10,0.00304261,3
31972218,0.999783,-0.0111047,-0.0111034,-0.0137091,0.999995,4.34169e-11,4.30293e-10,0.00304261,3
32017281,0.999725,-0.0168094,-0.00961839,-0.0131951,0.999995,4.34169e-11,4.30293e-10,0.00304261,3
32067339,0.999639,-0.0220325,-0.00732115,-0.0135374,0.999995,4.34169e-11,4.30293e-10,0.00304261,3
32117403,0.999475,-0.0284694,-0.00548399,-0.0144826,0.999995,4.34169e-11,4.30293e-10,0.00304261,3
32167467,0.999336,-0.0323923,-0.00451394,-0.0160834,0.999995,4.34169e-11,4.30293e-10,0.00304261,3
32217535,0.999322,-0.0315343,-0.00575363,-0.0180984,0.999995,4.34169e-11,4.30293e-10,0.00304261,3
32267596,0.999357,-0.0296834,-0.00670733,-0.0189782,0.999995,4.34169e-11,4.30293e-10,0.00304261,3
32317660,0.999422,-0.0261158,-0.0103181,-0.0191866,0.999995,4.34169e-11,4.30293e-10,0.00304261,3
32367725,0.999497,-0.0222916,-0.0126157,-0.0187051,0.999995,4.34169e-11,4.30293e-10,0.00304261,3
32417805,0.999493,-0.0203823,-0.0154637,-0.0189581,0.999995,4.34169e-11,4.30293e-10,0.00304261,3
32467856,0.99954,-0.0175908,-0.0155714,-0.0191825,0.999995,4.34169e-11,4.30293e-10,0.00304261,3
32517918,0.999575,-0.0163262,-0.0141772,-0.0195271,0.999995,4.34169e-11,4.30293e-10,0.00304261,3
32567982,0.999674,-0.0129966,-0.00966567,-0.0197252,0.999995,4.34169e-11,4.30293e-10,0.00304261,3
32618047,0.99976,-0.00655866,-0.00744556,-0.019531,0.999995,4.34169e-11,4.30293e-10,0.00304261,3
32668111,0.999788,-0.00163362,-0.00643805,-0.0194965,0.999995,4.34169e-11,4.30293e-10,0.00304261,3
32718175,0.999786,0.00173296,-0.00741036,-0.0192171,0.999995,4.34169e-11,4.30293e-10,0.00304261,3
32768245,0.999771,0.00108644,-0.00896767,-0.0193797,0.999995,4.34169e-11,4.30293e-10,0.00304261,3
32818328,0.999767,0.000248597,-0.00972767,-0.0192669,0.999995,4.34169e-11,4.30293e-10,0.00304261,3
32868369,0.999766,-0.00243958,-0.00832647,-0.0198283,0.999995,4.34169e-11,4.30293e-10,0.00304261,3
32918433,0.999778,-0.00447916,-0.00583054,-0.019734,0.999995,4.34169e-11,4.30293e-10,0.00304261,3
32968497,0.999781,-0.00493606,-0.00157399,-0.0202745,0.999995,4.34169e-11,4.30293e-10,0.00304261,3
33018561,0.999798,-0.00408533,0.000581738,-0.0196827,0.999995,4.34169e-11,4.30293e-10,0.00304261,3
33068633,0.999807,0.000678206,0.00187136,-0.0195214,0.999995,4.34169e-11,4.30293e-10,0.00304261,3
33118690,0.999808,0.0065872,0.000373195,-0.0184554,0.999995,4.34169e-11,4.30293e-10,0.00304261,3
33168754,0.999813,0.00751341,-0.00183815,-0.0177056,0.999995,4.34169e-11,4.30293e-10,0.00304261,3
33218819,0.999845,0.00357923,-0.00544334,-0.0163669,0.999995,4.34169e-11,4.30293e-10,0.00304261,3
33268883,0.999861,0.000607831,-0.0064827,-0.0153521,0.999995,4.34169e-11,4.30293e-10,0.00304261,3
33318948,0.999877,-0.00567118,-0.00300915,-0.0143056,0.999995,4.34169e-11,4.30293e-10,0.00304261,3
33369012,0.999838,-0.0121159,0.000378385,-0.0132773,0.999995,4.34169e-11,4.30293e-10,0.00304261,3
33419076,0.999789,-0.0164109,-0.000152646,-0.0123304,0.999995,4.34169e-11,4.30293e-10,0.00304261,3
33469141,0.99986,-0.0122229,-0.0014286,-0.0113005,0.999995,4.34169e-11,4.30293e-10,0.00304261,3
33519205,0.999909,-0.00838133,-0.00135486,-0.0104454,0.999995,4.34169e-11,4.30293e-10,0.00304261,3
33569276,0.999913,-0.00892298,-0.00057819,-0.00968622,0.999995,4.34169e-11,4.30293e-10,0.00304261,3
33619334,0.99987,-0.0132673,0.00218381,-0.00887081,0.999995,4.34169e-11,4.30293e-10,0.00304261,3
33669399,0.999772,-0.0185398,0.00690583,-0.00807578,0.999995,4.34169e-11,4.30293e-10,0.00304261,3
33719462,0.999737,-0.0174042,0.0126392,-0.00800629,0.999995,4.34169e-11,4.30293e-10,0.00304261,3
33769527,0.999752,-0.00789518,0.0188571,-0.00887986,0.999995,4.34169e-11,4.30293e-10,0.00304261,3
33819591,0.999653,0.0032933,0.0241468,-0.00999438,0.999995,4.34169e-11,4.30293e-10,0.00304261,3
33864649,0.999578,0.00981644,0.024874,-0.011322,0.999995,4.34169e-11,4.30293e-10,0.00304261,3
33919720,0.999428,0.0146102,0.026905,-0.0143928,0.999995,4.34169e-11,4.30293e-10,0.00304261,3
33969784,0.999318,0.0192776,0.026779,-0.0165519,0.999995,4.34169e-11,4.30293e-10,0.00304261,3
34014842,0.999453,0.0181654,0.0210965,-0.0178364,0.999995,4.34169e-11,4.30293e-10,0.00304261,3
34069913,0.999658,0.00709505,0.0152019,-0.0200826,0.999995,4.34169e-11,4.30293e-10,0.00304261,3
34119980,0.999652,0.00534543,0.0121265,-0.0228268,0.999995,4.34169e-11,4.30293e-10,0.00304261,3
34170042,0.99951,0.0129819,0.0132206,-0.0252387,0.999995,4.34169e-11,4.30293e-10,0.00304261,3
34215100,0.999198,0.0255866,0.0142533,-0.0272941,0.999995,4.34169e-11,4.30293e-10,0.00304261,3
34270170,0.99895,0.0339008,0.0104516,-0.0289889,0.999995,4.34169e-11,4.30293e-10,0.00304261,3
34320235,0.999016,0.0324154,0.00417323,-0.0299688,0.999995,4.34169e-11,4.30293e-10,0.00304261,3
34365301,0.999033,0.0297182,0.0100366,-0.0307942,0.999995,4.34169e-11,4.30293e-10,0.00304261,3
34420364,0.999188,0.0209377,0.0154074,-0.0307893,0.999995,4.34169e-11,4.30293e-10,0.00304261,3
34470428,0.999329,0.0124867,0.0159225,-0.0305422,0.999995,4.34169e-11,4.30293e-10,0.00304261,3
34515486,0.999407,0.00583136,0.0156882,-0.030095,0.999995,4.34169e-11,4.30293e-10,0.00304261,3
34565550,0.999433,-0.00189461,0.0152786,-0.0299403,0.999995,4.34169e-11,4.30293e-10,0.00304261,3
34620624,0.999417,-0.00563662,0.0144551,-0.0304155,0.999995,4.34169e-11,4.30293e-10,0.00304261,3
34670685,0.999396,-0.00795285,0.0130191,-0.0312204,0.999995,4.34169e-11,4.30293e-10,0.00304261,3
34715743,0.999422,-0.00425558,0.0107667,-0.0319628,0.999995,4.34169e-11,4.30293e-10,0.00304261,3
34770814,0.999427,-0.0018991,0.00876473,-0.0326468,0.999995,4.34169e-11,4.30293e-10,0.00304261,3
34820878,0.999371,-0.00080511,0.011087,-0.0336692,0.999995,4.34169e-11,4.30293e-10,0.00304261,3
34865936,0.999368,0.00307106,0.00969418,-0.034068,0.999995,4.34169e-11,4.30293e-10,0.00304261,3
34916000,0.999282,0.0062584,0.0134842,-0.034847,0.999995,4.34169e-11,4.30293e-10,0.00304261,3
34971071,0.99921,0.0105458,0.0153162,-0.0351206,0.999995,4.34169e-11,4.30293e-10,0.00304261,3
35016130,0.999184,0.015293,0.0118381,-0.0354609,0.999995,4.34169e-11,4.30293e-10,0.00304261,3
35066193,0.999186,0.016097,0.00984186,-0.0356674,0.999995,4.34169e-11,4.30293e-10,0.00304261,3
35121270,0.999107,0.0185996,0.0110089,-0.0362941,0.999995,4.34169e-11,4.30293e-10,0.00304261,3
35171329,0.99904,0.0212685,0.0107627,-0.0367667,0.999995,4.34169e-11,4.30293e-10,0.00304261,3
35216390,0.998992,0.0220884,0.0122373,-0.0371067,0.999995,4.34169e-11,4.30293e-10,0.00304261,3
35266451,0.998989,0.0222358,0.0118814,-0.0372231,0.999995,4.34169e-11,4.30293e-10,0.00304261,3
35321521,0.999061,0.0198211,0.0106379,-0.0370383,0.999995,4.34169e-11,4.30293e-10,0.00304261,3
35366579,0.999065,0.0190263,0.0104578,-0.0374004,0.999995,4.34169e-11,4.30293e-10,0.00304261,3
35416643,0.999133,0.0147398,0.0112944,-0.0372571,0.999995,4.34169e-11,4.30293e-10,0.00304261,3
35471714,0.999163,0.0124445,0.00964876,-0.0377533,0.999995,4.34169e-11,4.30293e-10,0.00304261,3
35516773,0.999164,0.0101432,0.0112915,-0.0379686,0.999995,4.34169e-11,4.30293e-10,0.00304261,3
35566836,0.999168,0.00995906,0.0103644,-0.0381761,0.999995,4.34169e-11,4.30293e-10,0.00304261,3
35616902,0.99913,0.00950329,0.0104238,-0.0392419,0.999995,4.34169e-11,4.30293e-10,0.00304261,3
35666965,0.999122,0.00879305,0.010314,-0.0396466,0.999995,4.34169e-11,4.30293e-10,0.00304261,3
35717029,0.999071,0.0105781,0.00929414,-0.0407384,0.999995,4.34169e-11,4.30293e-10,0.00304261,3
35767097,0.998984,0.0101936,0.013236,-0.0418625,0.999995,4.34169e-11,4.30293e-10,0.00304261,3
35822164,0.998907,0.012536,0.0130352,-0.043106,0.999995,4.34169e-11,4.30293e-10,0.00304261,3
35867224,0.998777,0.0162817,0.0122811,-0.0450406,0.999995,4.34169e-11,4.30293e-10,0.00304261,3
35917287,0.998672,0.0202373,0.0124541,-0.0457097,0.999995,4.34169e-11,4.30293e-10,0.00304261,3
35967351,0.998566,0.0232209,0.0118398,-0.0467688,0.999995,4.34169e-11,4.30293e-10,0.00304261,3
36017415,0.998557,0.0224588,0.0139547,-0.0467526,0.999995,4.34169e-11,4.30293e-10,0.00304261,3
36067480,0.998601,0.0220367,0.0123459,-0.0464538,0.999995,4.34169e-11,4.30293e-10,0.00304261,3
36117544,0.998638,0.0184817,0.0113522,-0.0474496,0.999995,4.34169e-11,4.30293e-10,0.00304261,3
36167608,0.998724,0.0127026,0.0111253,-0.0475966,0.999995,4.34169e-11,4.30293e-10,0.00304261,3
36217673,0.998743,0.00952193,0.010104,-0.0481666,0.999995,4.34169e-11,4.30293e-10,0.00304261,3
36267737,0.998713,0.00289184,0.0134437,-0.0488184,0.999995,4.34169e-11,4.30293e-10,0.00304261,3
36317802,0.998711,-0.000704207,0.0136721,-0.0488858,0.999995,4.34169e-11,4.30293e-10,0.00304261,3
36367865,0.99872,-0.00320735,0.0104483,-0.0493777,0.999995,4.34169e-11,4.30293e-10,0.00304261,3
36417929,0.998688,-0.00689019,0.0123347,-0.0492244,0.999995,4.34169e-11,4.30293e-10,0.00304261,3
36467994,0.998718,-0.00395022,0.0111638,-0.0492118,0.999995,4.34169e-11,4.30293e-10,0.00304261,3
36518058,0.998772,-0.00222135,0.00907062,-0.0486587,0.999995,4.34169e-11,4.30293e-10,0.00304261,3
36568123,0.998776,-2.20936e-05,0.0101277,-0.0484157,0.999995,4.34169e-11,4.30293e-10,0.00304261,3
36618187,0.9988,0.00551919,0.00842114,-0.0479368,0.999995,4.34169e-11,4.30293e-10,0.00304261,3
36668252,0.998834,0.00948445,0.00789927,-0.0466694,0.999995,4.34169e-11,4.30293e-10,0.00304261,3
36718316,0.998816,0.0146785,0.00530119,-0.0460669,0.999995,4.34169e-11,4.30293e-10,0.00304261,3
36768387,0.998833,0.0149931,0.00616057,-0.0454877,0.999995,4.34169e-11,4.30293e-10,0.00304261,3
36818444,0.998891,0.0137893,0.00521293,-0.0447062,0.999995,4.34169e-11,4.30293e-10,0.00304261,3
36868508,0.998891,0.0122728,0.0055269,-0.0451087,0.999995,4.34169e-11,4.30293e-10,0.00304261,3
36918579,0.998892,0.00759759,0.00856583,-0.0456401,0.999995,4.34169e-11,4.30293e-10,0.00304261,3
36968637,0.998903,0.00489074,0.00836395,-0.0458145,0.999995,4.34169e-11,4.30293e-10,0.00304261,3
37018701,0.998865,-0.000676867,0.0102531,-0.0465211,0.999995,4.34169e-11,4.30293e-10,0.00304261,3
37068766,0.998826,-0.00620187,0.0118265,-0.0465739,0.999995,4.34169e-11,4.30293e-10,0.00304261,3
37118830,0.998869,-0.00734635,0.00852856,-0.0461968,0.999995,4.34169e-11,4.30293e-10,0.00304261,3
37168894,0.998825,-0.0111461,0.00909901,-0.0462735,0.999995,4.34169e-11,4.30293e-10,0.00304261,3
37218958,0.99883,-0.0103846,0.00962259,-0.0462425,0.999995,4.34169e-11,4.30293e-10,0.00304261,3
37269022,0.998895,-0.0086621,0.00684667,-0.0456778,0.999995,4.34169e-11,4.30293e-10,0.00304261,3
37319088,0.99883,-0.00955191,0.0119626,-0.0458827,0.999995,4.34169e-11,4.30293e-10,0.00304261,3
37369151,0.998878,-0.00419316,0.0121083,-0.0455822,0.999995,4.34169e-11,4.30293e-10,0.00304261,3
37419218,0.998917,-0.00111512,0.0104736,-0.0453236,0.999995,4.34169e-11,4.30293e-10,0.00304261,3
37469293,0.998923,0.00303618,0.00838209,-0.0455409,0.999995,4.34169e-11,4.30293e-10,0.00304261,3
37519344,0.998971,0.00724324,0.00332003,-0.0446453,0.999995,4.34169e-11,4.30293e-10,0.00304261,3
37569408,0.998974,0.00700435,0.00507396,-0.0444628,0.999995,4.34169e-11,4.30293e-10,0.00304261,3
37619473,0.998946,0.00987494,0.00467825,-0.0445858,0.999995,4.34169e-11,4.30293e-10,0.00304261,3
37669537,0.99896,0.00985015,0.00574082,-0.0441542,0.999995,4.34169e-11,4.30293e-10,0.00304261,3
37714595,0.998919,0.0108118,0.00595218,-0.0448069,0.999995,4.34169e-11,4.30293e-10,0.00304261,3
37769665,0.998954,0.00817733,0.00303776,-0.044893,0.999995,4.34169e-11,4.30293e-10,0.00304261,3
37819732,0.998978,0.00495458,-0.00163006,-0.0448872,0.999995,4.34169e-11,4.30293e-10,0.00304261,3
37869794,0.998954,0.00126029,-0.00956288,-0.0447079,0.999995,4.34169e-11,4.30293e-10,0.00304261,3
37919858,0.998903,-0.00257061,-0.0118335,-0.0452304,0.999995,4.34169e-11,4.30293e-10,0.00304261,3
37969923,0.998775,-0.0027298,-0.01693,-0.0464211,0.999995,4.34169e-11,4.30293e-10,0.00304261,3
38019987,0.998728,-0.0028821,-0.0191314,-0.0465696,0.999995,4.34169e-11,4.30293e-10,0.00304261,3
38065045,0.998709,-0.000706885,-0.0183742,-0.0473598,0.999995,4.34169e-11,4.30293e-10,0.00304261,3
38120115,0.998727,0.000640043,-0.0174312,-0.0473354,0.999995,4.34169e-11,4.30293e-10,0.00304261,3
38170181,0.998773,0.00453075,-0.0186827,-0.04565,0.999995,4.34169e-11,4.30293e-10,0.00304261,3
38215253,0.998851,0.00335853,-0.0165028,-0.044873,0.999995,4.34169e-11,4.30293e-10,0.00304261,3
38270308,0.998887,0.00426338,-0.0178064,-0.043474,0.999995,4.34169e-11,4.30293e-10,0.00304261,3
38320373,0.998871,0.00682422,-0.0193356,-0.0428517,0.999995,4.34169e-11,4.30293e-10,0.00304261,3
38365430,0.998988,0.0052724,-0.0144644,-0.0422573,0.999995,4.34169e-11,4.30293e-10,0.00304261,3
38415494,0.999012,0.00871545,-0.0150261,-0.0409156,0.999995,4.34169e-11,4.30293e-10,0.00304261,3
38470565,0.999108,0.00923793,-0.00931943,-0.0401361,0.999995,4.34169e-11,4.30293e-10,0.00304261,3
38520629,0.999219,0.00673294,0.000778995,-0.0389164,0.999995,4.34169e-11,4.30293e-10,0.00304261,3
38565687,0.999203,0.0084831,0.00522829,-0.0386466,0.999995,4.34169e-11,4.30293e-10,0.00304261,3
38620758,0.999133,0.00523657,0.0149491,-0.0384901,0.999995,4.34169e-11,4.30293e-10,0.00304261,3
38670825,0.999105,0.00206024,0.0168315,-0.0387511,0.999995,4.34169e-11,4.30293e-10,0.00304261,3
38715880,0.99921,0.00080208,0.0090022,-0.0387046,0.999995,4.34169e-11,4.30293e-10,0.00304261,3
38765945,0.999223,-0.00161785,0.00541404,-0.0389955,0.999995,4.34169e-11,4.30293e-10,0.00304261,3
38821015,0.99923,-0.00240452,0.00277251,-0.0390525,0.999995,4.34169e-11,4.30293e-10,0.00304261,3
38866073,0.999248,-0.00304832,0.00215413,-0.0385993,0.999995,4.34169e-11,4.30293e-10,0.00304261,3
38916137,0.999243,-0.00190804,0.00579464,-0.0384225,0.999995,4.34169e-11,4.30293e-10,0.00304261,3
38966202,0.999239,0.000279385,0.00811343,-0.0381563,0.999995,4.34169e-11,4.30293e-10,0.00304261,3
39021280,0.999208,0.00106305,0.0126208,-0.0377303,0.999995,4.34169e-11,4.30293e-10,0.00304261,3
39066330,0.999207,0.00288591,0.0115368,-0.0380068,0.999995,4.34169e-11,4.30293e-10,0.00304261,3
39116394,0.999242,0.00242773,0.00738309,-0.0381525,0.999995,4.34169e-11,4.30293e-10,0.00304261,3
39171468,0.999256,0.00136579,0.000337213,-0.0385459,0.999995,4.34169e-11,4.30293e-10,0.00304261,3
39216523,0.999228,-0.00181072,-0.00532775,-0.0388816,0.999995,4.34169e-11,4.30293e-10,0.00304261,3
39266587,0.999141,-0.00456212,-0.0123849,-0.0392833,0.999995,4.34169e-11,4.30293e-10,0.00304261,3
39321658,0.999038,-0.00639553,-0.0178487,-0.0395373,0.999995,4.34169e-11,4.30293e-10,0.00304261,3
39366715,0.999033,-0.00855683,-0.0162895,-0.0399275,0.999995,4.34169e-11,4.30293e-10,0.00304261,3
39416780,0.999001,-0.00712808,-0.0172755,-0.0405946,0.999995,4.34169e-11,4.30293e-10,0.00304261,3
39466844,0.999052,-0.00747736,-0.0157043,-0.0398948,0.999995,4.34169e-11,4.30293e-10,0.00304261,3
39516908,0.999088,-0.00535402,-0.0152964,-0.0394941,0.999995,4.34169e-11,4.30293e-10,0.00304261,3
39566973,0.99913,-0.0054486,-0.0147559,-0.0386129,0.999995,4.34169e-11,4.30293e-10,0.00304261,3
39617044,0.999192,-0.00351792,-0.0155355,-0.0368991,0.999995,4.34169e-11,4.30293e-10,0.00304261,3
39672110,0.999198,-0.00190171,-0.0172117,-0.0360968,0.999995,4.34169e-11,4.30293e-10,0.00304261,3
39717169,0.999251,-0.00255426,-0.0142702,-0.035888,0.999995,4.34169e-11,4.30293e-10,0.00304261,3
39767230,0.999266,0.000781452,-0.0148077,-0.0353168,0.999995,4.34169e-11,4.30293e-10,0.00304261,3
39817294,0.999294,0.000891358,-0.0115004,-0.0357687,0.999995,4.34169e-11,4.30293e-10,0.00304261,3
39867358,0.99931,0.00360682,-0.00721057,-0.0362628,0.999995,4.34169e-11,4.30293e-10,0.00304261,3
39917422,0.9993,0.00381432,-0.00368436,-0.0370269,0.999995,4.34169e-11,4.30293e-10,0.00304261,3
39967487,0.999316,2.41975e-06,0.000869895,-0.0369803,0.999995,4.34169e-11,4.30293e-10,0.00304261,3
40017551,0.999291,-0.000960762,0.00379883,-0.0374393,0.999995,4.34169e-11,4.30293e-10,0.00304261,3
40067615,0.999265,-0.0043668,0.00577547,-0.0376423,0.999995,4.34169e-11,4.30293e-10,0.00304261,3
40117687,0.999299,-0.00345524,0.00156798,-0.03725,0.999995,4.34169e-11,4.30293e-10,0.00304261,3
40167744,0.999305,-0.00528486,-0.000335966,-0.0369046,0.999995,4.34169e-11,4.30293e-10,0.00304261,3
40217808,0.999311,-0.00170925,-0.00293255,-0.0369497,0.999995,4.34169e-11,4.30293e-10,0.00304261,3
40267872,0.999306,-0.00309625,-0.00320978,-0.0369791,0.999995,4.34169e-11,4.30293e-10,0.00304261,3
40317940,0.999292,-0.00231593,-0.00803611,-0.0366866,0.999995,4.34169e-11,4.30293e-10,0.00304261,3
40368001,0.999256,-0.00473778,-0.0110726,-0.0366328,0.999995,4.34169e-11,4.30293e-10,0.00304261,3
40418065,0.999223,-0.00694033,-0.0112862,-0.0371124,0.999995,4.34169e-11,4.30293e-10,0.00304261,3
40468136,0.999192,-0.00821161,-0.0134308,-0.0369719,0.999995,4.34169e-11,4.30293e-10,0.00304261,3
40518193,0.999205,-0.0110402,-0.0096143,-0.0370916,0.999995,4.34169e-11,4.30293e-10,0.00304261,3
40568258,0.999233,-0.0106927,-0.00715891,-0.0369863,0.999995,4.34169e-11,4.30293e-10,0.00304261,3
40618325,0.999229,-0.0134171,-0.00320862,-0.0367724,0.999995,4.34169e-11,4.30293e-10,0.00304261,3
40668386,0.999268,-0.0115004,-0.00253547,-0.0363876,0.999995,4.34169e-11,4.30293e-10,0.00304261,3
40718450,0.999257,-0.0129112,-0.00267661,-0.0362146,0.999995,4.34169e-11,4.30293e-10,0.00304261,3
40768532,0.999269,-0.0119484,-0.00108128,-0.0362942,0.999995,4.34169e-11,4.30293e-10,0.00304261,3
40818579,0.99929,-0.0103385,-0.000853577,-0.0362338,0.999995,4.34169e-11,4.30293e-10,0.00304261,3
40868643,0.999335,-0.00894695,-0.00132196,-0.035333,0.999995,4.34169e-11,4.30293e-10,0.00304261,3
40918711,0.999356,-0.0077445,-0.00406399,-0.034803,0.999995,4.34169e-11,4.30293e-10,0.00304261,3
40968774,0.999325,-0.0110751,-0.000620999,-0.0350247,0.999995,4.34169e-11,4.30293e-10,0.00304261,3
41018836,0.99929,-0.0115007,-0.00178323,-0.0358334,0.999995,4.34169e-11,4.30293e-10,0.00304261,3
41068900,0.999257,-0.0122117,-0.00276301,-0.036465,0.999995,4.34169e-11,4.30293e-10,0.00304261,3
41118965,0.999202,-0.0144119,0.000766535,-0.0372387,0.999995,4.34169e-11,4.30293e-10,0.00304261,3
41169029,0.99923,-0.013905,0.00015626,-0.0366851,0.999995,4.34169e-11,4.30293e-10,0.00304261,3
41219097,0.999195,-0.0170486,0.0035022,-0.0361528,0.999995,4.34169e-11,4.30293e-10,0.00304261,3
41269158,0.999154,-0.0175324,0.00907798,-0.036068,0.999995,4.34169e-11,4.30293e-10,0.00304261,3
41319228,0.999183,-0.0160709,0.0113322,-0.0352963,0.999995,4.34169e-11,4.30293e-10,0.00304261,3
41369288,0.999154,-0.0164647,0.0128111,-0.0354347,0.999995,4.34169e-11,4.30293e-10,0.00304261,3
41419350,0.999278,-0.0114538,0.00747901,-0.0354369,0.999995,4.34169e-11,4.30293e-10,0.00304261,3
41469415,0.999291,-0.0112007,0.00426298,-0.0356972,0.999995,4.34169e-11,4.30293e-10,0.00304261,3
41519479,0.999329,-0.0071725,-0.00352175,-0.0357422,0.999995,4.34169e-11,4.30293e-10,0.00304261,3
41564538,0.99931,-0.00787904,-0.00534854,-0.035894,0.999995,4.34169e-11,4.30293e-10,0.00304261,3
41619607,0.999282,-0.00545229,-0.00865137,-0.0364748,0.999995,4.34169e-11,4.30293e-10,0.00304261,3
41669672,0.999231,-0.00481156,-0.0129018,-0.0367201,0.999995,4.34169e-11,4.30293e-10,0.00304261,3
41719736,0.999213,-0.00542443,-0.0128134,-0.037159,0.999995,4.34169e-11,4.30293e-10,0.00304261,3
41769800,0.999213,-0.0059155,-0.01278,-0.0370895,0.999995,4.34169e-11,4.30293e-10,0.00304261,3
41819864,0.999236,-0.0093217,-0.00987968,-0.0366334,0.999995,4.34169e-11,4.30293e-10,0.00304261,3
41869929,0.999239,-0.0081429,-0.0117415,-0.0362983,0.999995,4.34169e-11,4.30293e-10,0.00304261,3
41914986,0.999244,-0.0115438,-0.00781078,-0.0363039,0.999995,4.34169e-11,4.30293e-10,0.00304261,3
41970057,0.999242,-0.0121303,-0.00652662,-0.0364131,0.999995,4.34169e-11,4.30293e-10,0.00304261,3
42020121,0.999244,-0.0124817,-0.00826594,-0.0358859,0.999995,4.34169e-11,4.30293e-10,0.00304261,3
42065179,0.999261,-0.0130012,-0.00513513,-0.0357958,0.999995,4.34169e-11,4.30293e-10,0.00304261,3
42120250,0.999299,-0.0115813,-0.00388462,-0.0353965,0.999995,4.34169e-11,4.30293e-10,0.00304261,3
42170314,0.999361,-0.0100593,-0.00197478,-0.0342426,0.999995,4.34169e-11,4.30293e-10,0.00304261,3
42215372,0.999391,-0.00870395,-0.00221656,-0.0337156,0.999995,4.34169e-11,4.30293e-10,0.00304261,3
42265438,0.999413,-0.00750638,-0.000478386,-0.0334378,0.999995,4.34169e-11,4.30293e-10,0.00304261,3
42320507,0.999427,-0.00651856,-0.000587106,-0.0332185,0.999995,4.34169e-11,4.30293e-10,0.00304261,3
42370571,0.999394,-0.00952777,-0.00126412,-0.0334513,0.999995,4.34169e-11,4.30293e-10,0.00304261,3
42415629,0.999386,-0.00968273,-0.000836889,-0.0336735,0.999995,4.34169e-11,4.30293e-10,0.00304261,3
42470699,0.999377,-0.0115631,3.87964e-05,-0.0333589,0.999995,4.34169e-11,4.30293e-10,0.00304261,3
42520764,0.999396,-0.0129239,-0.00130754,-0.032221,0.999995,4.34169e-11,4.30293e-10,0.00304261,3
42565821,0.999357,-0.0166746,-0.000712921,-0.0317421,0.999995,4.34169e-11,4.30293e-10,0.00304261,3
42615886,0.999326,-0.0191424,-0.00544969,-0.0308375,0.999995,4.34169e-11,4.30293e-10,0.00304261,3
42670956,0.99915,-0.0250293,-0.0125187,-0.0302804,0.999995,4.34169e-11,4.30293e-10,0.00304261,3
42716017,0.998954,-0.0312347,-0.0142888,-0.0301923,0.999995,4.34169e-11,4.30293e-10,0.00304261,3
42766078,0.998818,-0.0328033,-0.019875,-0.029874,0.999995,4.34169e-11,4.30293e-10,0.00304261,3
42821149,0.998752,-0.0357162,-0.018952,-0.0293295,0.999995,4.34169e-11,4.30293e-10,0.00304261,3
42871218,0.998807,-0.0366155,-0.0136436,-0.0292956,0.999995,4.34169e-11,4.30293e-10,0.00304261,3
42916279,0.998932,-0.0350321,-0.0115102,-0.0278577,0.999995,4.34169e-11,4.30293e-10,0.00304261,3
42966336,0.999155,-0.0306584,-0.00657544,-0.0265906,0.999995,4.34169e-11,4.30293e-10,0.00304261,3
43021406,0.999389,-0.02455,-0.0034351,-0.0246485,0.999995,4.34169e-11,4.30293e-10,0.00304261,3
43066464,0.999572,-0.0174406,-0.00188914,-0.0234221,0.999995,4.34169e-11,4.30293e-10,0.00304261,3
43116528,0.999679,-0.0121639,0.00113278,-0.022213,0.999995,4.34169e-11,4.30293e-10,0.00304261,3
43171602,0.99975,-0.00481517,0.00262819,-0.0216716,0.999995,4.34169e-11,4.30293e-10,0.00304261,3
43216658,0.999781,-0.00233104,0.00193838,-0.0207134,0.999995,4.34169e-11,4.30293e-10,0.00304261,3
43266721,0.999763,0.0016513,0.00608362,-0.0208325,0.999995,4.34169e-11,4.30293e-10,0.00304261,3
43316789,0.999735,0.000476155,0.00969294,-0.0208587,0.999995,4.34169e-11,4.30293e-10,0.00304261,3
43371856,0.999711,0.00265863,0.010672,-0.0213798,0.999995,4.34169e-11,4.30293e-10,0.00304261,3
43416913,0.999721,0.00171575,0.00857616,-0.0219484,0.999995,4.34169e-11,4.30293e-10,0.00304261,3
43466980,0.999726,0.000727356,0.00615936,-0.0225603,0.999995,4.34169e-11,4.30293e-10,0.00304261,3
43522048,0.999717,-0.00215995,0.00229661,-0.0235935,0.999995,4.34169e-11,4.30293e-10,0.00304261,3
43567106,0.999685,-0.00477082,-0.00145058,-0.0245939,0.999995,4.34169e-11,4.30293e-10,0.00304261,3
43617170,0.99964,-0.00621763,-0.00701627,-0.0251355,0.999995,4.34169e-11,4.30293e-10,0.00304261,3
43667244,0.999575,-0.00990251,-0.0101131,-0.0254688,0.999995,4.34169e-11,4.30293e-10,0.00304261,3
43717300,0.999534,-0.00861486,-0.0130508,-0.0262059,0.999995,4.34169e-11,4.30293e-10,0.00304261,3
43767363,0.99948,-0.0101601,-0.0155751,-0.0263406,0.999995,4.34169e-11,4.30293e-10,0.00304261,3
43817429,0.999492,-0.00725257,-0.0156162,-0.0268241,0.999995,4.34169e-11,4.30293e-10,0.00304261,3
43867492,0.999535,-0.00693024,-0.0132428,-0.026574,0.999995,4.34169e-11,4.30293e-10,0.00304261,3
43917556,0.999593,-0.00661876,-0.00938282,-0.0261093,0.999995,4.34169e-11,4.30293e-10,0.00304261,3
43967627,0.999622,-0.00478957,-0.00868229,-0.0256301,0.999995,4.34169e-11,4.30293e-10,0.00304261,3
44017691,0.999657,-0.00709026,-0.00208235,-0.0251339,0.999995,4.34169e-11,4.30293e-10,0.00304261,3
44067748,0.999659,-0.00715421,0.00269746,-0.0249567,0.999995,4.34169e-11,4.30293e-10,0.00304261,3
44117813,0.999626,-0.0106869,0.00747562,-0.0240241,0.999995,4.34169e-11,4.30293e-10,0.00304261,3
44167877,0.999621,-0.00903309,0.0105615,-0.0237708,0.999995,4.34169e-11,4.30293e-10,0.00304261,3
44217941,0.999631,-0.00922938,0.00908438,-0.0238614,0.999995,4.34169e-11,4.30293e-10,0.00304261,3
44268005,0.999685,-0.00714231,0.00563972,-0.0234051,0.999995,4.34169e-11,4.30293e-10,0.00304261,3
44318070,0.999688,-0.0075503,0.00201142,-0.0237421,0.999995,4.34169e-11,4.30293e-10,0.00304261,3
44368134,0.999696,-0.00433833,-0.00594738,-0.0235092,0.999995,4.34169e-11,4.30293e-10,0.00304261,3
44418198,0.999675,-0.00521042,-0.00897921,-0.0232748,0.999995,4.34169e-11,4.30293e-10,0.00304261,3
44468289,0.999631,-0.00373002,-0.0126831,-0.0237298,0.999995,4.34169e-11,4.30293e-10,0.00304261,3
44518331,0.999649,-0.00435683,-0.01241,-0.0229782,0.999995,4.34169e-11,4.30293e-10,0.00304261,3
44568391,0.999655,-0.00180178,-0.0129473,-0.0227659,0.999995,4.34169e-11,4.30293e-10,0.00304261,3
44618455,0.999691,-0.00421323,-0.00893548,-0.0228319,0.999995,4.34169e-11,4.30293e-10,0.00304261,3
44668519,0.999713,-0.00432479,-0.00589614,-0.022809,0.999995,4.34169e-11,4.30293e-10,0.00304261,3
44718585,0.999698,-0.00508997,-0.0036448,-0.023762,0.999995,4.34169e-11,4.30293e-10,0.00304261,3
44768648,0.999654,-0.00987763,0.00398561,-0.0240501,0.999995,4.34169e-11,4.30293e-10,0.00304261,3
44818712,0.999632,-0.00870354,0.00766705,-0.0245408,0.999995,4.34169e-11,4.30293e-10,0.00304261,3
44868776,0.999579,-0.009449,0.0124318,-0.0244383,0.999995,4.34169e-11,4.30293e-10,0.00304261,3
44918840,0.999584,-0.00764334,0.0127035,-0.0247458,0.999995,4.34169e-11,4.30293e-10,0.00304261,3
44968904,0.999646,-0.00473758,0.00812759,-0.0248933,0.999995,4.34169e-11,4.30293e-10,0.00304261,3
45018984,0.999694,0.00142717,0.00220726,-0.0246157,0.999995,4.34169e-11,4.30293e-10,0.00304261,3
45069033,0.999678,0.00465541,-0.00328308,-0.0247321,0.999995,4.34169e-11,4.30293e-10,0.00304261,3
45119100,0.999624,0.00891631,-0.00714376,-0.0249194,0.999995,4.34169e-11,4.30293e-10,0.00304261,3
45169162,0.99961,0.00934419,-0.0090597,-0.0246961,0.999995,4.34169e-11,4.30293e-10,0.00304261,3
45219226,0.999577,0.00949121,-0.0124727,-0.0245038,0.999995,4.34169e-11,4.30293e-10,0.00304261,3
45269290,0.999557,0.00579819,-0.0163041,-0.0242169,0.999995,4.34169e-11,4.30293e-10,0.00304261,3
45319354,0.999568,0.00151309,-0.0164175,-0.0243473,0.999995,4.34169e-11,4.30293e-10,0.00304261,3
45369426,0.999528,0.000814818,-0.0182187,-0.024721,0.999995,4.34169e-11,4.30293e-10,0.00304261,3
45414476,0.999563,-0.00120398,-0.0156277,-0.0250601,0.999995,4.34169e-11,4.30293e-10,0.00304261,3
45469565,0.999601,0.000450305,-0.0135059,-0.0247998,0.999995,4.34169e-11,4.30293e-10,0.00304261,3
45519612,0.999658,0.00196746,-0.00990773,-0.0241093,0.999995,4.34169e-11,4.30293e-10,0.00304261,3
45569675,0.999647,0.00807276,-0.00983386,-0.0233068,0.999995,4.34169e-11,4.30293e-10,0.00304261,3
45619742,0.999665,0.00916344,-0.00681458,-0.0232139,0.999995,4.34169e-11,4.30293e-10,0.00304261,3
45669803,0.999649,0.0122595,-0.00696467,-0.0224444,0.999995,4.34169e-11,4.30293e-10,0.00304261,3
45719869,0.999643,0.0121679,-0.00807359,-0.0223882,0.999995,4.34169e-11,4.30293e-10,0.00304261,3
45764925,0.999646,0.0119715,-0.00721569,-0.0226583,0.999995,4.34169e-11,4.30293e-10,0.00304261,3
45819997,0.999686,0.00863067,-0.00595494,-0.0227533,0.999995,4.34169e-11,4.30293e-10,0.00304261,3
45870060,0.99968,0.00701948,-0.00710287,-0.0232301,0.999995,4.34169e-11,4.30293e-10,0.00304261,3
45915118,0.999684,0.00354446,-0.00791571,-0.0235821,0.999995,4.34169e-11,4.30293e-10,0.00304261,3
45970196,0.999654,0.00223355,-0.0115478,-0.023516,0.999995,4.34169e-11,4.30293e-10,0.00304261,3
46020253,0.999593,0.00105961,-0.015566,-0.0238728,0.999995,4.34169e-11,4.30293e-10,0.00304261,3
46065312,0.999594,0.000756355,-0.0147438,-0.0243636,0.999995,4.34169e-11,4.30293e-10,0.00304261,3
46115375,0.999595,-0.000850755,-0.0146396,-0.0243951,0.999995,4.34169e-11,4.30293e-10,0.00304261,3
46170445,0.999614,-0.00044604,-0.013299,-0.0244087,0.999995,4.34169e-11,4.30293e-10,0.00304261,3
46220510,0.999631,0.0035073,-0.0123512,-0.0239242,0.999995,4.34169e-11,4.30293e-10,0.00304261,3
46265567,0.999628,0.00689901,-0.0120269,-0.0234983,0.999995,4.34169e-11,4.30293e-10,0.00304261,3
46320638,0.999641,0.00904985,-0.0115937,-0.0224161,0.999995,4.34169e-11,4.30293e-10,0.00304261,3
46370702,0.99968,0.00777306,-0.00739809,-0.0229105,0.999995,4.34169e-11,4.30293e-10,0.00304261,3
46415759,0.999693,0.00645229,-0.00787279,-0.0225925,0.999995,4.34169e-11,4.30293e-10,0.00304261,3
46465824,0.999728,0.00472016,-0.00174619,-0.0227624,0.999995,4.34169e-11,4.30293e-10,0.00304261,3
46520894,0.999729,0.00281977,0.00268218,-0.0229462,0.999995,4.34169e-11,4.30293e-10,0.00304261,3
46565952,0.999716,-0.00259698,0.00686749,-0.0226928,0.999995,4.34169e-11,4.30293e-10,0.00304261,3
46616016,0.999665,-0.00447725,0.0103208,-0.023296,0.999995,4.34169e-11,4.30293e-10,0.00304261,3
46671087,0.999632,-0.0103981,0.00982799,-0.0230659,0.999995,4.34169e-11,4.30293e-10,0.00304261,3
46721151,0.999653,-0.0118431,0.00507703,-0.0229576,0.999995,4.34169e-11,4.30293e-10,0.00304261,3
46766209,0.999603,-0.0154639,0.00220525,-0.0234663,0.999995,4.34169e-11,4.30293e-10,0.00304261,3
46816279,0.9996,-0.0150459,-0.0033147,-0.0237116,0.999995,4.34169e-11,4.30293e-10,0.00304261,3
46871344,0.999579,-0.0156679,-0.0066606,-0.023511,0.999995,4.34169e-11,4.30293e-10,0.00304261,3
46916401,0.999575,-0.0124653,-0.0120601,-0.0234307,0.999995,4.34169e-11,4.30293e-10,0.00304261,3
46966465,0.999611,-0.0102486,-0.0111577,-0.0234195,0.999995,4.34169e-11,4.30293e-10,0.00304261,3
47021536,0.999653,-0.00495314,-0.0110214,-0.0233982,0.999995,4.34169e-11,4.30293e-10,0.00304261,3
47066593,0.999682,-0.00402262,-0.00830687,-0.0234772,0.999995,4.34169e-11,4.30293e-10,0.00304261,3
47116658,0.999722,-0.000955621,-0.00426108,-0.0231627,0.999995,4.34169e-11,4.30293e-10,0.00304261,3
47166722,0.999717,-0.000571002,0.00150977,-0.0237344,0.999995,4.34169e-11,4.30293e-10,0.00304261,3
47221792,0.999659,0.000112198,0.0107286,-0.0237973,0.999995,4.34169e-11,4.30293e-10,0.00304261,3
47266850,0.99958,0.000447107,0.0157503,-0.0243068,0.999995,4.34169e-11,4.30293e-10,0.00304261,3
47316914,0.999638,-0.000407494,0.0125366,-0.0238199,0.999995,4.34169e-11,4.30293e-10,0.00304261,3
47371986,0.999685,-0.000803708,0.00691348,-0.0240998,0.999995,4.34169e-11,4.30293e-10,0.00304261,3
47417042,0.999657,-0.00595212,0.0070912,-0.024494,0.999995,4.34169e-11,4.30293e-10,0.00304261,3
