timestamp,timestamp_sample,control[0],control[1],control[2],control[3],control[4],control[5],control[6],control[7]
119666074,119665819,-0.0895459,-0.010809359,0.0013288707,0.0,0.0,0.0,0.0,-1.0
119667321,119667060,-0.08719604,-0.0136351995,0.00014986716,0.0,0.0,0.0,0.0,-1.0
119766454,119766205,-0.082977265,0.007204921,0.00820962,0.0,0.0,0.0,0.0,-1.0
119868280,119868031,-0.1570891,-0.0029914058,-0.0048004254,0.0,0.0,0.0,0.0,-1.0
119966372,119966128,-0.033689942,-0.043316677,-0.003318861,0.0,0.0,0.0,0.0,-1.0
120068202,120067952,-0.23150754,0.038897265,0.00876687,0.0,0.0,0.0,0.0,-1.0
120170069,120169810,-0.08864139,0.013199186,0.0079413485,0.0,0.0,0.0,0.0,-1.0
120266878,120266632,-0.050826468,-0.05451981,-0.009984497,0.0,0.0,0.0,0.0,-1.0
120368719,120368462,-0.1515648,0.020300556,-0.002959983,0.0,0.0,0.0,0.0,-1.0
120467018,120466772,-0.13764374,0.061763763,0.009694415,0.0,0.0,0.0,0.0,-1.0
120568620,120568378,-0.08048305,0.03663045,0.0059702382,0.02052071,0.0,0.0,0.0,-1.0
120666721,120666477,0.03169303,-0.07003334,-0.008577443,0.054319523,0.0,0.0,0.0,-1.0
120768557,120768300,-0.26783198,0.06706524,0.009752695,0.21230769,0.0,0.0,0.0,-1.0
120869137,120868884,-0.07147089,-0.012348849,0.0013273893,0.22859171,0.0,0.0,0.0,-1.0
120967267,120967022,-0.09577112,0.011649748,0.014105393,0.23164497,0.0,0.0,0.0,-1.0
121069053,121068805,-0.093280494,0.04398315,0.004693289,0.23062722,0.0,0.0,0.0,-1.0
121167157,121166905,-0.18132395,-0.094852865,-0.0027159813,0.22960947,0.0,0.0,0.0,-1.0
121267868,121267621,-0.19898024,0.02499156,0.013522527,0.23266272,0.0,0.0,0.0,-1.0
121369550,121369309,-0.16689073,0.06433076,0.0075468784,0.29678106,0.0,0.0,0.0,-1.0
121467656,121467408,-0.058855716,-0.0949476,-0.008401917,0.30390534,0.0,0.0,0.0,-1.0
121569484,121569233,-0.18238112,0.015660735,-0.0038865402,0.3130651,0.0,0.0,0.0,-1.0
121667585,121667330,-0.09964276,-0.039229818,0.011718191,0.3130651,0.0,0.0,0.0,-1.0
121769408,121769161,-0.22949192,0.025703423,0.0010158378,0.33036685,0.0,0.0,0.0,-1.0
121867515,121867255,-0.12814341,-0.053473175,0.0032476536,0.35173965,0.0,0.0,0.0,-1.0
121968079,121967835,-0.13986817,-0.10771525,0.010019213,0.38634318,0.0,0.0,0.0,-1.0
122070061,122069818,-0.09859742,-0.042163167,0.0069701616,0.40771598,0.0,0.0,0.0,-1.0
122168015,122167757,0.0099923825,-0.005419248,0.0019385717,0.45249707,0.0,0.0,0.0,-1.0
122269829,122269581,0.055096243,0.0013424194,0.028409405,0.47997633,0.0,0.0,0.0,-1.0
122367967,122367725,-0.0643382,-0.088200085,0.035347827,0.4932071,0.0,0.0,0.0,-1.0
122469761,122469505,0.060084794,-0.008460063,0.036747783,0.49422488,0.0,0.0,0.0,-1.0
122566602,122566360,0.057439942,-0.0862806,0.038474716,0.50033134,0.0,0.0,0.0,-1.0
122668444,122668185,-0.024524916,-0.090217456,0.06411887,0.50440234,0.0,0.0,0.0,-1.0
122766528,122766282,0.03055475,-0.06736425,0.028135654,0.50542015,0.0,0.0,0.0,-1.0
122868477,122868229,0.044106662,-0.10500494,0.01885104,0.50440234,0.0,0.0,0.0,-1.0
122968937,122968688,0.010050406,-0.06512068,0.009692237,0.5064379,0.0,0.0,0.0,-1.0
123067041,123066788,0.084334016,-0.06926416,0.023066591,0.5064379,0.0,0.0,0.0,-1.0
123168862,123168610,0.0041219806,-0.087953866,0.05046654,0.5064379,0.0,0.0,0.0,-1.0
123266959,123266713,0.010782522,-0.08267116,0.044075653,0.5175385,0.0,0.0,0.0,-1.0
123368783,123368533,0.026602793,-0.073413305,0.038724333,0.5418935,0.0,0.0,0.0,-1.0
123468129,123467876,-0.0071612895,-0.075701736,0.046288602,0.55928993,0.0,0.0,0.0,-1.0
123567469,123567216,0.03551945,-0.049876794,0.028435703,0.5732071,0.0,0.0,0.0,-1.0
123669322,123669077,0.04734144,-0.03638555,0.029560117,0.5766864,0.0,0.0,0.0,-1.0
123767379,123767136,-0.041783664,-0.046355717,0.025838273,0.5894438,0.0,0.0,0.0,-1.0
123869212,123868960,0.053980995,-0.07864524,0.004321225,0.60452074,0.0,0.0,0.0,-1.0
123967494,123967234,0.10049376,-0.09957449,0.004650509,0.60452074,0.0,0.0,0.0,-1.0
124069146,124068888,-0.104804225,-0.047341388,-0.0013993877,0.60568047,0.0,0.0,0.0,-1.0
124165998,124165752,0.017555624,-0.04948299,-0.013480242,0.60568047,0.0,0.0,0.0,-1.0
124267810,124267564,-0.0014315705,-0.052481726,-0.0070366045,0.60568047,0.0,0.0,0.0,-1.0
124369629,124369386,0.0036025045,-0.07605338,0.0016075146,0.60452074,0.0,0.0,0.0,-1.0
124467743,124467501,-0.03813848,-0.04100862,0.0060430528,0.60452074,0.0,0.0,0.0,-1.0
124568311,124568069,0.023220511,-0.057552945,0.0037358976,0.60452074,0.0,0.0,0.0,-1.0
124666411,124666167,0.0064861868,-0.056649767,0.0060469294,0.60452074,0.0,0.0,0.0,-1.0
124768381,124768135,-0.015005316,-0.030847203,0.0058239973,0.60452074,0.0,0.0,0.0,-1.0
124870102,124869856,-0.0051615583,-0.026146224,0.009468738,0.60452074,0.0,0.0,0.0,-1.0
124968173,124967920,-0.008147144,-0.10962253,0.01110534,0.5894438,0.0,0.0,0.0,-1.0
125066263,125066011,0.044900607,-0.07367353,0.0056753657,0.588284,0.0,0.0,0.0,-1.0
125166847,125166599,0.07736365,-0.07363823,0.0028301182,0.588284,0.0,0.0,0.0,-1.0
125268700,125268454,0.01264697,-0.061821472,0.00012723432,0.588284,0.0,0.0,0.0,-1.0
125366763,125366516,0.02325069,-0.071874864,0.0042046956,0.588284,0.0,0.0,0.0,-1.0
125469846,125469584,0.05689426,-0.056318425,0.0065327412,0.588284,0.0,0.0,0.0,-1.0
125566805,125566553,0.013066611,-0.072252646,0.00849032,0.588284,0.0,0.0,0.0,-1.0
125668524,125668264,0.044966355,-0.04154679,0.05242799,0.49592432,0.0,0.0,0.0,-1.0
125769104,125768851,-0.06186877,-0.06247166,0.032875933,0.4851178,0.0,0.0,0.0,-1.0
125867198,125866942,0.01278849,-0.048063423,0.0196951,0.4793173,0.0,0.0,0.0,-1.0
125969011,125968766,0.011272454,-0.032486565,0.012581957,0.47144872,0.0,0.0,0.0,-1.0
126067116,126066866,0.009027842,-0.06918062,0.0065656505,0.45919567,0.0,0.0,0.0,-1.0
126168941,126168688,-0.044219323,-0.023120478,0.0022186644,0.44747034,0.0,0.0,0.0,-1.0
126267035,126266786,-0.008908052,-0.050711013,-0.011785606,0.4675593,0.0,0.0,0.0,-1.0
126367743,126367497,0.054054413,-0.0463055,-0.008712784,0.50186193,0.0,0.0,0.0,-1.0
126469444,126469197,0.008315709,-0.07233051,-0.01087557,0.52676755,0.0,0.0,0.0,-1.0
126567536,126567291,-0.023364624,-0.050986648,-0.0036662437,0.5492254,0.0,0.0,0.0,-1.0
126669355,126669115,-0.018564932,-0.057199154,0.0017059103,0.56663215,0.0,0.0,0.0,-1.0
126767459,126767214,-0.02486058,-0.07255368,-0.0016567002,0.5841143,0.0,0.0,0.0,-1.0
126868044,126867799,-0.014996684,-0.061167233,-0.0010735899,0.6010387,0.0,0.0,0.0,-1.0
126969866,126969619,-0.0880105,-0.03570727,0.0131111285,0.6179174,0.0,0.0,0.0,-1.0
127067972,127067718,0.011588058,-0.056964234,0.015544931,0.60380155,0.0,0.0,0.0,-1.0
127169852,127169606,0.002082073,-0.051543117,0.012469214,0.58187145,0.0,0.0,0.0,-1.0
127267887,127267640,0.007936579,-0.024394074,0.015011162,0.56500864,0.0,0.0,0.0,-1.0
127367274,127367018,-0.032538254,-0.026991665,0.015917048,0.5606969,0.0,0.0,0.0,-1.0
127466761,127466515,-0.029546833,-0.030393021,0.011555606,0.5596927,0.0,0.0,0.0,-1.0
127568393,127568146,-0.045688182,-0.02889559,0.011877734,0.56100714,0.0,0.0,0.0,-1.0
127666486,127666241,0.0049017835,-0.04949842,0.009268548,0.56321687,0.0,0.0,0.0,-1.0
127769566,127769311,-0.039633516,-0.030919414,0.012449986,0.56953007,0.0,0.0,0.0,-1.0
127868913,127868653,-0.014020919,-0.018620977,0.015038062,0.5778756,0.0,0.0,0.0,-1.0
127968454,127968202,-0.00071379245,-0.0419602,0.01738916,0.5767177,0.0,0.0,0.0,-1.0
128068814,128068572,-0.012708662,-0.027659753,0.01876263,0.5730805,0.0,0.0,0.0,-1.0
128166921,128166671,-0.04551437,-0.041013297,0.012276666,0.57229996,0.0,0.0,0.0,-1.0
128268748,128268502,-0.0870194,-0.02419381,0.015866356,0.5720715,0.0,0.0,0.0,-1.0
128370582,128370322,-0.008459275,-0.035382718,0.017190348,0.5711863,0.0,0.0,0.0,-1.0
128467422,128467176,0.002940556,-0.03599467,0.00911647,0.56890655,0.0,0.0,0.0,-1.0
128569262,128569002,0.039266504,-0.036921427,0.012630167,0.5673841,0.0,0.0,0.0,-1.0
128667350,128667097,0.021406619,-0.06789231,0.015053258,0.5680921,0.0,0.0,0.0,-1.0
128769292,128769044,0.037092328,-0.06310431,0.013652623,0.5679699,0.0,0.0,0.0,-1.0
128867303,128867050,-0.061277427,-0.021760656,0.010321846,0.57042384,0.0,0.0,0.0,-1.0
128967846,128967602,-0.023664225,-0.028036598,0.008026231,0.56826276,0.0,0.0,0.0,-1.0
129065952,129065702,0.048480533,-0.07229042,0.0011736157,0.56578374,0.0,0.0,0.0,-1.0
129167762,129167520,0.029151548,-0.06053142,0.0056116465,0.5661454,0.0,0.0,0.0,-1.0
129269616,129269368,0.045422558,-0.065449156,-0.0012554803,0.56412697,0.0,0.0,0.0,-1.0
129367696,129367448,0.045689102,-0.027043676,0.0045651826,0.5649607,0.0,0.0,0.0,-1.0
129469523,129469271,0.00024070639,-0.04926086,0.0027011828,0.5650093,0.0,0.0,0.0,-1.0
129566449,129566204,0.062029004,-0.07654721,0.0076263705,0.5646468,0.0,0.0,0.0,-1.0
129668204,129667951,0.10619855,-0.076812066,0.0062885443,0.5635965,0.0,0.0,0.0,-1.0
129770023,129769775,0.009294015,-0.06265239,0.015244453,0.5634117,0.0,0.0,0.0,-1.0
129868116,129867874,-0.009275475,-0.02991365,0.019360455,0.56169397,0.0,0.0,0.0,-1.0
129969944,129969699,-0.02002213,-0.03282166,0.02611685,0.5606175,0.0,0.0,0.0,-1.0
130068052,130067797,0.042274453,-0.07473536,0.021661548,0.5601812,0.0,0.0,0.0,-1.0
130168629,130168381,0.05098954,-0.0643927,0.02702832,0.5612082,0.0,0.0,0.0,-1.0
130266726,130266478,-0.0012254546,-0.08120009,0.03150767,0.5608682,0.0,0.0,0.0,-1.0
130368598,130368354,0.025026586,-0.0932666,0.029483264,0.56288224,0.0,0.0,0.0,-1.0
130466659,130466408,-0.0036847477,-0.03509051,0.036163475,0.5631855,0.0,0.0,0.0,-1.0
130568466,130568223,-0.00683473,-0.06975101,0.029209306,0.56330585,0.0,0.0,0.0,-1.0
130669060,130668808,-0.00014018372,-0.059374988,0.024559405,0.5627493,0.0,0.0,0.0,-1.0
130767148,130766905,0.00440498,-0.068781815,0.03108595,0.561657,0.0,0.0,0.0,-1.0
130868989,130868738,-0.04623237,-0.014949808,0.024353908,0.56200135,0.0,0.0,0.0,-1.0
130967075,130966826,0.030757995,-0.07973611,0.027701909,0.5625172,0.0,0.0,0.0,-1.0
131068912,131068661,-0.07664152,-0.044514995,0.02937048,0.5649165,0.0,0.0,0.0,-1.0
131165818,131165571,0.07136937,-0.050428715,0.026155166,0.5652794,0.0,0.0,0.0,-1.0
131267580,131267336,0.016852235,-0.039821967,0.028274283,0.56548244,0.0,0.0,0.0,-1.0
131369406,131369155,-0.0069501414,-0.049531877,0.03475094,0.56654686,0.0,0.0,0.0,-1.0
131467654,131467409,-0.04394465,-0.018454166,0.028450755,0.5658117,0.0,0.0,0.0,-1.0
131569332,131569078,0.03420908,-0.06511004,0.03055662,0.5648536,0.0,0.0,0.0,-1.0
131667443,131667197,0.0051480364,-0.05243748,0.040374804,0.5622784,0.0,0.0,0.0,-1.0
131768011,131767759,-0.034692954,-0.06750928,0.03545805,0.560645,0.0,0.0,0.0,-1.0
131869825,131869581,0.02890379,-0.069824055,0.035814475,0.55881554,0.0,0.0,0.0,-1.0
131967957,131967710,-0.037339203,-0.0055262162,0.042819854,0.55840856,0.0,0.0,0.0,-1.0
132069751,132069504,0.012874766,-0.05502308,0.042123202,0.5577379,0.0,0.0,0.0,-1.0
132167847,132167602,-0.07622916,-0.018712467,0.038288713,0.5581077,0.0,0.0,0.0,-1.0
132268563,132268316,0.024456218,-0.028065052,0.041002437,0.55978626,0.0,0.0,0.0,-1.0
132366526,132366283,-0.06264756,-0.039769582,0.03617797,0.56224513,0.0,0.0,0.0,-1.0
132468368,132468114,0.03473842,-0.0648802,0.044519555,0.5643254,0.0,0.0,0.0,-1.0
132566458,132566206,-0.050777547,-0.07379599,0.041525904,0.5679276,0.0,0.0,0.0,-1.0
132668273,132668029,0.07541696,-0.06993795,0.042866386,0.5686929,0.0,0.0,0.0,-1.0
132768885,132768634,0.0097021125,-0.061282948,0.047922287,0.567542,0.0,0.0,0.0,-1.0
132866966,132866710,0.024627805,-0.054111157,0.048552107,0.56622237,0.0,0.0,0.0,-1.0
132968785,132968534,-0.009639255,-0.06227677,0.047256507,0.5661442,0.0,0.0,0.0,-1.0
133066972,133066731,-0.00489555,-0.057865158,0.049166556,0.5662721,0.0,0.0,0.0,-1.0
133168718,133168469,-0.01350783,-0.02551058,0.050452583,0.56818736,0.0,0.0,0.0,-1.0
133268057,133267800,-0.012894716,-0.06603471,0.054381106,0.56685567,0.0,0.0,0.0,-1.0
133367387,133367138,0.083557874,-0.09071259,0.04361095,0.5671091,0.0,0.0,0.0,-1.0
133469209,133468961,-0.034715015,-0.0252308,0.04172072,0.56769466,0.0,0.0,0.0,-1.0
133567351,133567108,0.015114474,-0.06149578,0.03788302,0.5688198,0.0,0.0,0.0,-1.0
133669135,133668884,-0.027109122,-0.0338704,0.04104566,0.5684492,0.0,0.0,0.0,-1.0
133767230,133766982,-0.0157277,-0.028993541,0.03761359,0.56660134,0.0,0.0,0.0,-1.0
133867875,133867629,-0.021702599,-0.016271852,0.03257562,0.564979,0.0,0.0,0.0,-1.0
133965905,133965663,-0.05403225,-0.055361833,0.020327171,0.56253856,0.0,0.0,0.0,-1.0
134067741,134067491,0.008992493,-0.048306376,0.017241322,0.5617452,0.0,0.0,0.0,-1.0
134169557,134169311,0.04587281,-0.062089805,0.019975772,0.5669649,0.0,0.0,0.0,-1.0
134267653,134267409,-0.03099144,-0.046348307,0.016584935,0.5774723,0.0,0.0,0.0,-1.0
134369480,134369233,0.05559747,-0.062223963,0.022543432,0.5722669,0.0,0.0,0.0,-1.0
134466342,134466098,-0.03066358,-0.070418976,0.032428257,0.56317645,0.0,0.0,0.0,-1.0
134568162,134567915,0.06805568,-0.0740236,0.028304309,0.5572792,0.0,0.0,0.0,-1.0
134670027,134669783,-0.028674988,-0.041384827,0.03367079,0.56021833,0.0,0.0,0.0,-1.0
134768084,134767836,-0.028052188,-0.042573545,0.023667626,0.56818503,0.0,0.0,0.0,-1.0
134869913,134869663,-0.026999945,-0.0052030487,0.038193557,0.5769422,0.0,0.0,0.0,-1.0
134966937,134966692,-0.013265862,-0.03626002,0.04061755,0.58460736,0.0,0.0,0.0,-1.0
135068584,135068340,0.056269795,-0.06989691,0.04242968,0.59316885,0.0,0.0,0.0,-1.0
135166682,135166439,-0.101595774,-0.041875586,0.048505176,0.5895789,0.0,0.0,0.0,-1.0
135268510,135268264,-0.0017078979,-0.05090441,0.052714296,0.56704485,0.0,0.0,0.0,-1.0
135366606,135366362,0.060500465,-0.06849312,0.051748794,0.5586785,0.0,0.0,0.0,-1.0
135468507,135468255,-0.05234085,-0.038194414,0.048792187,0.5575499,0.0,0.0,0.0,-1.0
135566543,135566284,-0.022949621,-0.05100805,0.049240097,0.56362605,0.0,0.0,0.0,-1.0
135667119,135666869,-0.01601523,-0.041225936,0.055553786,0.5678023,0.0,0.0,0.0,-1.0
135769091,135768841,0.035665557,-0.077268094,0.052775852,0.57220435,0.0,0.0,0.0,-1.0
135867032,135866789,0.058235813,-0.074313454,0.050891828,0.57831705,0.0,0.0,0.0,-1.0
135970113,135969858,0.06642902,-0.062354982,0.0537472,0.5743853,0.0,0.0,0.0,-1.0
136066958,136066712,0.093579434,-0.08562004,0.0502352,0.56971496,0.0,0.0,0.0,-1.0
136167541,136167294,-0.002508684,-0.0114119435,0.050087426,0.571773,0.0,0.0,0.0,-1.0
136269381,136269136,-0.025838822,-0.084785424,0.060699303,0.5772298,0.0,0.0,0.0,-1.0
136367517,136367265,0.043107253,-0.07344736,0.058894295,0.58128196,0.0,0.0,0.0,-1.0
136466814,136466558,-0.072273456,-0.048126727,0.0657212,0.5665434,0.0,0.0,0.0,-1.0
136567538,136567289,-0.051807553,0.0031784675,0.05479043,0.556374,0.0,0.0,0.0,-1.0
136668003,136667757,-0.023395859,-0.069483794,0.064906515,0.55758286,0.0,0.0,0.0,-1.0
136769799,136769551,-0.07146063,-0.008775476,0.065437526,0.56217504,0.0,0.0,0.0,-1.0
136867892,136867643,0.05501075,-0.08914038,0.06737404,0.56826395,0.0,0.0,0.0,-1.0
136969715,136969467,0.028145205,-0.07321622,0.07449221,0.56187046,0.0,0.0,0.0,-1.0
137067818,137067568,-0.095038995,-0.074021176,0.077941306,0.56199086,0.0,0.0,0.0,-1.0
137168394,137168148,-0.009523553,-0.082954235,0.07473698,0.56065434,0.0,0.0,0.0,-1.0
137266506,137266249,-0.09130336,-0.043796506,0.07401189,0.5605589,0.0,0.0,0.0,-1.0
137368411,137368161,0.026252687,-0.04457071,0.07433273,0.5549122,0.0,0.0,0.0,-1.0
137466416,137466170,-0.08243937,-0.066117555,0.08937737,0.55635124,0.0,0.0,0.0,-1.0
137568250,137567993,-0.088838175,-0.04612784,0.0824117,0.5585083,0.0,0.0,0.0,-1.0
137670061,137669817,0.032851547,-0.027126646,0.07017769,0.5564815,0.0,0.0,0.0,-1.0
137766923,137766673,-0.039977543,-0.050084002,0.08126395,0.56522286,0.0,0.0,0.0,-1.0
137868749,137868500,-0.10289449,-0.05625487,0.0818646,0.57197607,0.0,0.0,0.0,-1.0
137966861,137966600,-0.08536084,-0.038393315,0.06683709,0.5581514,0.0,0.0,0.0,-1.0
138068666,138068420,0.01217622,-0.08928616,0.06546247,0.5492508,0.0,0.0,0.0,-1.0
138166813,138166566,-0.11792532,-0.027846951,0.06938028,0.5554789,0.0,0.0,0.0,-1.0
138268600,138268343,-0.030372085,-0.06281152,0.07253399,0.562752,0.0,0.0,0.0,-1.0
138369185,138368932,0.010300719,-0.056202095,0.067950435,0.62726,0.0,0.0,0.0,-1.0
138467276,138467026,-0.018898841,-0.075881615,0.07880127,0.6535212,0.0,0.0,0.0,-1.0
138569138,138568893,-0.04269864,-0.07195017,0.08084583,0.614592,0.0,0.0,0.0,-1.0
138667206,138666949,-0.03561141,-0.050733887,0.08841977,0.55354595,0.0,0.0,0.0,-1.0
138769020,138768773,-0.04068815,-0.04313836,0.07950384,0.54077196,0.0,0.0,0.0,-1.0
138869602,138869352,-0.019313794,0.006298824,0.072720654,0.55689937,0.0,0.0,0.0,-1.0
138967761,138967523,-0.014957857,-0.04453075,0.06839482,0.5642466,0.0,0.0,0.0,-1.0
139069531,139069277,-0.03177823,-0.045049913,0.059706874,0.56985635,0.0,0.0,0.0,-1.0
139167619,139167374,-0.0040903906,-0.03666316,0.06331262,0.5737354,0.0,0.0,0.0,-1.0
139269642,139269387,-0.0012920415,-0.054817867,0.057147235,0.62560433,0.0,0.0,0.0,-1.0
139367558,139367298,-0.017137734,-0.032416184,0.060918856,0.5830031,0.0,0.0,0.0,-1.0
139468145,139467895,0.040348623,-0.05422392,0.050283134,0.5700914,0.0,0.0,0.0,-1.0
139569953,139569703,-0.11813152,-0.037864063,0.049281515,0.5735577,0.0,0.0,0.0,-1.0
139668049,139667802,-0.005198582,-0.034116138,0.047194444,0.5884573,0.0,0.0,0.0,-1.0
139769882,139769632,-0.093993284,-0.045651425,0.04286759,0.6004278,0.0,0.0,0.0,-1.0
139867997,139867732,-0.03312317,-0.027273187,0.047414932,0.61105305,0.0,0.0,0.0,-1.0
139968551,139968304,-0.0143977,0.009216392,0.049026396,0.60110414,0.0,0.0,0.0,-1.0
140066832,140066579,0.04481249,-0.046808485,0.06253215,0.5834322,0.0,0.0,0.0,-1.0
140168473,140168228,0.06367164,-0.060604524,0.06913579,0.57674736,0.0,0.0,0.0,-1.0
140270304,140270053,-0.013398814,-0.06502452,0.0639613,0.577076,0.0,0.0,0.0,-1.0
140368392,140368149,0.06510549,-0.09148145,0.06045756,0.57962334,0.0,0.0,0.0,-1.0
140468983,140468731,0.040650558,-0.12185472,0.05484976,0.5822668,0.0,0.0,0.0,-1.0
140567075,140566830,0.0070434753,-0.11528339,0.049882587,0.5885826,0.0,0.0,0.0,-1.0
140668945,140668693,0.100184746,-0.12295855,0.021674862,0.57651407,0.0,0.0,0.0,-1.0
140766999,140766753,0.021990288,-0.055256937,0.028241215,0.57168293,0.0,0.0,0.0,-1.0
140868929,140868681,0.08048921,-0.16050753,0.019628603,0.5673597,0.0,0.0,0.0,-1.0
140966932,140966676,0.025644418,-0.10738002,-0.0014125981,0.5660796,0.0,0.0,0.0,-1.0
141067511,141067258,0.06704073,-0.10967684,0.0015962229,0.5702777,0.0,0.0,0.0,-1.0
141169327,141169082,0.02959371,0.019451058,-0.0053219297,0.5669482,0.0,0.0,0.0,-1.0
141267474,141267229,0.073480666,-0.116325825,0.0021952644,0.5586112,0.0,0.0,0.0,-1.0
141369257,141369001,0.06704147,-0.033449624,-0.0012782364,0.5553395,0.0,0.0,0.0,-1.0
141467354,141467103,0.061820727,-0.11315704,-0.005724936,0.5546546,0.0,0.0,0.0,-1.0
141567936,141567687,-0.05833357,-0.056902375,-0.008686724,0.5651341,0.0,0.0,0.0,-1.0
141669836,141669586,-0.028440636,-0.15684742,-0.010140529,0.56117225,0.0,0.0,0.0,-1.0
141767861,141767609,0.09092085,-0.09281466,-0.020773165,0.5212184,0.0,0.0,0.0,-1.0
141869678,141869431,0.02420309,-0.13478868,-0.017547099,0.5297938,0.0,0.0,0.0,-1.0
141967805,141967563,-0.029291375,-0.03185012,-0.025564702,0.59366155,0.0,0.0,0.0,-1.0
142068364,142068112,0.044199657,-0.09935365,-0.025951225,0.60906726,0.0,0.0,0.0,-1.0
142166453,142166211,0.007892675,-0.07334421,-0.03509337,0.5964702,0.0,0.0,0.0,-1.0
142268286,142268042,0.07846382,-0.04012288,-0.021018261,0.57158923,0.0,0.0,0.0,-1.0
142370102,142369858,-0.057977468,-0.053176224,-0.005559414,0.5587856,0.0,0.0,0.0,-1.0
142468251,142467995,0.012974483,-0.06444544,-0.010507718,0.568756,0.0,0.0,0.0,-1.0
142570044,142569781,0.06369818,-0.093762845,-0.0041047763,0.5650619,0.0,0.0,0.0,-1.0
142668125,142667879,-0.02267397,-0.06996288,0.0005211533,0.5733567,0.0,0.0,0.0,-1.0
142768910,142768654,-0.055195346,-0.13119297,0.0038203802,0.5783567,0.0,0.0,0.0,-1.0
142866806,142866560,0.027852826,-0.081890546,-0.01370146,0.5681339,0.0,0.0,0.0,-1.0
142968629,142968384,0.0010035103,-0.14297822,-0.007854312,0.5772108,0.0,0.0,0.0,-1.0
143066737,143066484,0.02078455,-0.037581626,-0.016431576,0.5802551,0.0,0.0,0.0,-1.0
143168567,143168307,0.071513526,-0.15250404,-0.0046407576,0.57426625,0.0,0.0,0.0,-1.0
143269158,143268907,-0.05008247,-0.03415532,-0.002814813,0.5457088,0.0,0.0,0.0,-1.0
143367239,143366989,-0.021917826,-0.05088326,0.014720276,0.5926733,0.0,0.0,0.0,-1.0
143469080,143468829,-0.038329817,-0.054749176,0.015071856,0.6239672,0.0,0.0,0.0,-1.0
143567313,143567062,-0.03871986,-0.14381953,0.018239615,0.5926772,0.0,0.0,0.0,-1.0
143668998,143668738,-0.08830114,-0.031440884,0.012475311,0.57951856,0.0,0.0,0.0,-1.0
143769561,143769316,0.096715845,-0.102347694,-0.0014926909,0.57608247,0.0,0.0,0.0,-1.0
143867671,143867416,-0.046565015,-0.05955108,-0.009299823,0.5645755,0.0,0.0,0.0,-1.0
143969488,143969239,0.021861427,-0.018404506,-0.0054697515,0.60969836,0.0,0.0,0.0,-1.0
144067615,144067372,-0.0017415034,-0.07604128,0.012825007,0.5794896,0.0,0.0,0.0,-1.0
144169412,144169162,0.0998268,-0.057229523,0.006829078,0.5787839,0.0,0.0,0.0,-1.0
144267512,144267260,-0.013606892,-0.072483234,0.012247739,0.5799538,0.0,0.0,0.0,-1.0
144368222,144367967,-0.017742064,-0.08072834,0.0047424897,0.5790095,0.0,0.0,0.0,-1.0
144469914,144469666,-0.06977033,-0.043500226,-0.0011262429,0.5859183,0.0,0.0,0.0,-1.0
144568031,144567768,0.007162339,-0.06679338,-0.006090108,0.59681505,0.0,0.0,0.0,-1.0
144667362,144667107,0.054861147,-0.06778661,-0.0043794634,0.60615534,0.0,0.0,0.0,-1.0
144767932,144767688,0.010840822,-0.023764906,-0.0060782023,0.59473014,0.0,0.0,0.0,-1.0
144868522,144868278,0.032694455,-0.07103196,0.005118546,0.5776459,0.0,0.0,0.0,-1.0
144966623,144966376,-0.040449686,-0.015946701,0.013191719,0.5763313,0.0,0.0,0.0,-1.0
145068447,145068196,-0.010098482,-0.057839707,0.016698413,0.5341417,0.0,0.0,0.0,-1.0
145170362,145170115,0.07125749,-0.12464754,0.02011868,0.49678373,0.0,0.0,0.0,-1.0
145268365,145268115,0.062052377,-0.085361764,0.016726589,0.5212926,0.0,0.0,0.0,-1.0
145368950,145368696,-0.014718851,-0.039449006,0.011332419,0.5906528,0.0,0.0,0.0,-1.0
145467039,145466795,0.017144645,-0.08079406,0.008279376,0.6211224,0.0,0.0,0.0,-1.0
145568880,145568620,-0.012119535,-0.15401708,-0.001929516,0.60731137,0.0,0.0,0.0,-1.0
145666969,145666718,-0.06014221,-0.08175676,0.002303221,0.5903923,0.0,0.0,0.0,-1.0
145768792,145768541,-0.061244417,-0.08690991,-0.0050754976,0.5841786,0.0,0.0,0.0,-1.0
145866882,145866640,-0.015843213,-0.07994417,-0.0067709433,0.5818437,0.0,0.0,0.0,-1.0
145967524,145967277,-0.029500773,-0.027960986,-0.007059728,0.5824809,0.0,0.0,0.0,-1.0
146069294,146069046,-0.017993849,-0.024468599,-0.0006649563,0.57426053,0.0,0.0,0.0,-1.0
146167396,146167145,0.025908483,-0.10287838,-0.0017230364,0.56899136,0.0,0.0,0.0,-1.0
146269241,146268987,0.005402935,-0.07662864,0.0008024691,0.5685842,0.0,0.0,0.0,-1.0
146367320,146367073,-0.021332655,-0.091149226,-0.005346402,0.5718002,0.0,0.0,0.0,-1.0
146467892,146467649,0.036927465,-0.027779808,-0.006004577,0.57618225,0.0,0.0,0.0,-1.0
146565993,146565748,-0.065334395,-0.08079644,0.0052621835,0.58582926,0.0,0.0,0.0,-1.0
146669084,146668817,0.005656019,-0.0409738,0.00635699,0.5986936,0.0,0.0,0.0,-1.0
146769678,146769429,0.017025627,-0.05212215,0.014105142,0.5850259,0.0,0.0,0.0,-1.0
146867787,146867536,0.010698768,-0.02956287,0.02289148,0.5743567,0.0,0.0,0.0,-1.0
146969570,146969323,-0.024768118,-0.065629035,0.027148588,0.56847245,0.0,0.0,0.0,-1.0
147066589,147066339,0.049720146,-0.0620218,0.022846159,0.5686602,0.0,0.0,0.0,-1.0
147168251,147167999,-0.01804905,-0.11903429,0.020269135,0.57625186,0.0,0.0,0.0,-1.0
147266343,147266100,0.078068204,-0.058894634,0.0065413886,0.5723225,0.0,0.0,0.0,-1.0
147368168,147367922,-0.07055798,-0.10313585,0.005528533,0.5697587,0.0,0.0,0.0,-1.0
147470003,147469745,-0.047917284,-0.11603495,3.8565104e-06,0.5734957,0.0,0.0,0.0,-1.0
147566855,147566607,0.045036364,-0.058106937,0.0005591934,0.57469285,0.0,0.0,0.0,-1.0
147668672,147668426,-0.060623165,-0.07931018,0.0062984033,0.56931764,0.0,0.0,0.0,-1.0
147766774,147766525,0.039841395,-0.07161145,2.3562367e-05,0.55144376,0.0,0.0,0.0,-1.0
147868730,147868488,-0.0057871975,-0.08808062,0.0020363957,0.54558617,0.0,0.0,0.0,-1.0
147970418,147970172,0.033660095,-0.13301642,-2.3847999e-05,0.5521797,0.0,0.0,0.0,-1.0
148068529,148068273,0.061950333,-0.14173846,-0.0032890474,0.5548999,0.0,0.0,0.0,-1.0
148169154,148168906,-0.021243267,-0.071006715,-0.012681758,0.5609185,0.0,0.0,0.0,-1.0
148267204,148266952,0.0026288803,-0.10937143,-0.008784073,0.569238,0.0,0.0,0.0,-1.0
148369049,148368800,-0.1016005,-0.03906901,-0.014050411,0.5811187,0.0,0.0,0.0,-1.0
148467128,148466875,0.011322354,-0.06321206,-0.017167484,0.5818044,0.0,0.0,0.0,-1.0
148568947,148568699,-0.09670406,-0.015726838,-0.003055806,0.5673231,0.0,0.0,0.0,-1.0
148665913,148665662,0.013256501,-0.107770115,-0.0036721344,0.5572118,0.0,0.0,0.0,-1.0
148767673,148767430,-0.036728058,-0.057157394,-0.006048494,0.56133187,0.0,0.0,0.0,-1.0
148869461,148869207,0.07758245,-0.13437371,-0.0075436216,0.56722915,0.0,0.0,0.0,-1.0
148967551,148967302,-0.0690119,-0.13613783,-0.0036368594,0.57450104,0.0,0.0,0.0,-1.0
149069374,149069126,0.043936193,-0.12183502,-0.0067286883,0.56748354,0.0,0.0,0.0,-1.0
149167477,149167229,-0.089754954,-0.04933181,-0.0074835704,0.5686485,0.0,0.0,0.0,-1.0
149268054,149267807,0.012190625,-0.147947,-0.011385107,0.56676006,0.0,0.0,0.0,-1.0
149366186,149365936,-0.0016178212,-0.057215054,-0.013622096,0.5701543,0.0,0.0,0.0,-1.0
149468096,149467854,-0.0058086365,-0.16331084,-0.0071165985,0.574286,0.0,0.0,0.0,-1.0
149569798,149569553,0.035818238,-0.014433071,-0.01835439,0.5758059,0.0,0.0,0.0,-1.0
149667898,149667652,-0.012553614,-0.07333772,-0.004942639,0.57613945,0.0,0.0,0.0,-1.0
149768479,149768234,-0.022103807,-0.07606408,-0.0032337971,0.58103293,0.0,0.0,0.0,-1.0
149866587,149866334,-0.083566785,-0.07251773,0.0011282243,0.5855706,0.0,0.0,0.0,-1.0
149968405,149968156,0.021658685,-0.09026294,-0.002776454,0.59132797,0.0,0.0,0.0,-1.0
150066502,150066256,-0.02168957,-0.07005719,0.00489864,0.5802203,0.0,0.0,0.0,-1.0
150168326,150168079,-0.002581768,-0.11013299,0.0061077694,0.5888939,0.0,0.0,0.0,-1.0
150268972,150268714,0.034383394,-0.10809152,0.0037744427,0.5748244,0.0,0.0,0.0,-1.0
150367001,150366759,0.013735453,-0.07865936,0.013347709,0.56593555,0.0,0.0,0.0,-1.0
150468886,150468631,-0.027624965,-0.0761521,0.014621555,0.5683009,0.0,0.0,0.0,-1.0
150567119,150566872,0.014258363,-0.12100851,0.013080866,0.57076204,0.0,0.0,0.0,-1.0
150668751,150668506,-0.08919477,-0.12706229,-0.0061317254,0.6060257,0.0,0.0,0.0,-1.0
150766890,150766643,-0.008718516,-0.094907925,-0.011370746,0.5923928,0.0,0.0,0.0,-1.0
150867436,150867187,-0.05008891,-0.12455196,-0.026749974,0.5664798,0.0,0.0,0.0,-1.0
150969263,150969011,-0.011725536,-0.11547741,-0.017524878,0.6133758,0.0,0.0,0.0,-1.0
151067417,151067173,-0.033047833,-0.13892978,0.0065993275,0.55994874,0.0,0.0,0.0,-1.0
151169189,151168941,0.003339879,-0.10658068,0.002311501,0.58776045,0.0,0.0,0.0,-1.0
151268533,151268281,-0.017522844,-0.09247683,0.0066183684,0.5622099,0.0,0.0,0.0,-1.0
151368018,151367769,0.020390667,-0.11462501,-0.0008790107,0.5725599,0.0,0.0,0.0,-1.0
151467213,151466957,-0.084208876,-0.033315625,-0.0044221426,0.5854126,0.0,0.0,0.0,-1.0
151567777,151567533,-0.08546659,-0.022054784,-0.015576091,0.5767429,0.0,0.0,0.0,-1.0
151670850,151670603,-0.04015074,-0.0445765,-0.017344005,0.5699005,0.0,0.0,0.0,-1.0
151767702,151767459,-0.012401683,-0.05241937,0.0016813356,0.56984425,0.0,0.0,0.0,-1.0
151869543,151869288,-0.0019750209,-0.02373,0.0059189727,0.57173616,0.0,0.0,0.0,-1.0
151966388,151966141,0.003411377,-0.07229256,0.020521743,0.5680748,0.0,0.0,0.0,-1.0
152068220,152067965,0.048186902,-0.09419259,0.02187323,0.56911564,0.0,0.0,0.0,-1.0
152166489,152166234,-0.11548832,-0.057520226,0.020690715,0.5695205,0.0,0.0,0.0,-1.0
152268128,152267886,-0.022583008,-0.032117188,0.019675832,0.5738273,0.0,0.0,0.0,-1.0
152369983,152369712,-0.06395876,-0.039258443,0.009396596,0.58535427,0.0,0.0,0.0,-1.0
152468060,152467809,0.066777855,-0.07325338,0.010603426,0.59742445,0.0,0.0,0.0,-1.0
152568639,152568391,0.08875574,-0.085963346,0.008413902,0.60830575,0.0,0.0,0.0,-1.0
152666734,152666490,0.08446441,-0.03469201,0.021428227,0.59317565,0.0,0.0,0.0,-1.0
152768571,152768316,0.049199197,-0.14593926,0.017188689,0.5962189,0.0,0.0,0.0,-1.0
152866657,152866412,0.044682313,-0.07766098,0.015600741,0.5867076,0.0,0.0,0.0,-1.0
152967339,152967089,0.037238,-0.1098358,0.0076199383,0.5850049,0.0,0.0,0.0,-1.0
153069140,153068897,0.053064298,-0.08064099,0.00662386,0.57543206,0.0,0.0,0.0,-1.0
153167164,153166917,-0.04869313,-0.09117563,0.008735153,0.5727264,0.0,0.0,0.0,-1.0
153268989,153268741,-0.038405556,-0.07260958,0.0010435792,0.57047,0.0,0.0,0.0,-1.0
153367094,153366852,-0.036758292,-0.111351445,0.0034670525,0.5693789,0.0,0.0,0.0,-1.0
153468935,153468684,0.03156741,-0.07520391,0.0002563323,0.568878,0.0,0.0,0.0,-1.0
153568261,153568006,-0.021184688,-0.11993288,0.002105749,0.574902,0.0,0.0,0.0,-1.0
153667603,153667346,-0.039249804,-0.14561369,0.0035019936,0.5695795,0.0,0.0,0.0,-1.0
153769473,153769231,-0.0052849203,-0.1362379,-0.006120498,0.5699384,0.0,0.0,0.0,-1.0
153867519,153867268,-0.16678624,-0.08380698,-0.0013587995,0.57859236,0.0,0.0,0.0,-1.0
153969343,153969090,-0.05070596,-0.069609374,-0.007112957,0.5820625,0.0,0.0,0.0,-1.0
154067439,154067189,-0.0037003206,-0.1272745,0.007602916,0.5876074,0.0,0.0,0.0,-1.0
154168017,154167771,-0.05951492,-0.057459887,0.015286514,0.5737399,0.0,0.0,0.0,-1.0
154266119,154265870,-0.013099573,-0.08698703,0.013456588,0.56114393,0.0,0.0,0.0,-1.0
154367946,154367694,0.056788396,-0.096029006,0.013943822,0.55932224,0.0,0.0,0.0,-1.0
154467283,154467035,-0.021103028,-0.111708134,0.016257526,0.5658877,0.0,0.0,0.0,-1.0
154567883,154567642,-0.05043634,-0.09285418,0.009910807,0.56593037,0.0,0.0,0.0,-1.0
154668451,154668203,0.01637601,-0.06848289,0.0063943975,0.55535984,0.0,0.0,0.0,-1.0
154766543,154766298,0.010733477,-0.13684681,0.0010678511,0.56454146,0.0,0.0,0.0,-1.0
154868560,154868311,0.029944558,-0.11133214,0.0016784896,0.5720629,0.0,0.0,0.0,-1.0
154970187,154969945,0.024319962,-0.12826642,0.0022930328,0.5803806,0.0,0.0,0.0,-1.0
155068291,155068043,-0.09027092,-0.06475634,0.006405089,0.61087507,0.0,0.0,0.0,-1.0
155168880,155168627,-0.04298148,-0.043052856,0.012105265,0.5994526,0.0,0.0,0.0,-1.0
155266979,155266725,-0.080732204,-0.06453811,0.016618667,0.59152424,0.0,0.0,0.0,-1.0
155368864,155368612,-0.029724937,-0.048481584,0.012650253,0.56445754,0.0,0.0,0.0,-1.0
155466889,155466647,-0.07461081,-0.055173375,0.012793904,0.60187316,0.0,0.0,0.0,-1.0
155568722,155568475,0.03924556,-0.21414019,0.0041418215,0.6085947,0.0,0.0,0.0,-1.0
155667004,155666748,-0.05675714,-0.09518515,0.0031195828,0.5566612,0.0,0.0,0.0,-1.0
155767407,155767152,0.0716048,-0.11317181,0.004071568,0.56925374,0.0,0.0,0.0,-1.0
155869227,155868977,-0.0853944,-0.068438984,0.008302826,0.5638968,0.0,0.0,0.0,-1.0
155967335,155967083,-0.058913365,-0.0662425,0.011547379,0.56423944,0.0,0.0,0.0,-1.0
156069143,156068898,0.038417242,-0.14829554,0.0004507931,0.5665691,0.0,0.0,0.0,-1.0
156167312,156167068,-0.05672579,-0.089611374,0.0033793163,0.6310416,0.0,0.0,0.0,-1.0
156269081,156268826,-0.0051589925,-0.10622631,0.0077926125,0.7008607,0.0,0.0,0.0,-1.0
156365923,156365678,-0.07301075,-0.0561183,0.005230682,0.63087887,0.0,0.0,0.0,-1.0
156467851,156467605,0.011826669,-0.1246419,0.0026071237,0.5542393,0.0,0.0,0.0,-1.0
156569577,156569326,0.07736973,-0.09560294,0.007854551,0.5345919,0.0,0.0,0.0,-1.0
156667680,156667429,-0.10425289,-0.1252375,0.013846656,0.48621464,0.0,0.0,0.0,-1.0
156769506,156769248,0.017704403,-0.18362571,0.0052537234,0.5239308,0.0,0.0,0.0,-1.0
156866349,156866101,-0.0021900546,-0.074016415,-0.0011861738,0.5874561,0.0,0.0,0.0,-1.0
156968171,156967928,0.009440546,-0.18624415,0.016477799,0.57891846,0.0,0.0,0.0,-1.0
157066280,157066028,0.01603093,-0.12895288,0.0038708868,0.57427156,0.0,0.0,0.0,-1.0
157168097,157167851,0.0018115254,-0.019289123,0.005940724,0.560685,0.0,0.0,0.0,-1.0
157270012,157269761,0.055277333,-0.17559999,0.008160845,0.5728666,0.0,0.0,0.0,-1.0
157368028,157367774,-0.039111834,-0.12268693,-0.0047350335,0.5739271,0.0,0.0,0.0,-1.0
157468604,157468356,-0.02481343,-0.08901647,0.004872024,0.5783408,0.0,0.0,0.0,-1.0
157566697,157566454,-0.050906967,-0.12262392,-0.0075493716,0.57227105,0.0,0.0,0.0,-1.0
157668526,157668278,-0.0111262165,-0.06350836,-0.0056700767,0.56572545,0.0,0.0,0.0,-1.0
157770348,157770102,-0.019988194,-0.0737253,0.012786321,0.56749433,0.0,0.0,0.0,-1.0
157869700,157869447,-0.012134326,-0.17821056,0.0088262465,0.5673828,0.0,0.0,0.0,-1.0
157969044,157968787,-0.028313208,-0.07831693,0.0076568793,0.5744305,0.0,0.0,0.0,-1.0
158067175,158066924,0.023456661,-0.09553465,0.021290552,0.58460253,0.0,0.0,0.0,-1.0
158168955,158168706,0.052465174,-0.03143912,0.011401641,0.58034706,0.0,0.0,0.0,-1.0
158267055,158266805,-0.09333778,-0.059861083,0.024343193,0.5687699,0.0,0.0,0.0,-1.0
158368880,158368631,-0.10451398,-0.031496193,0.015488286,0.5665174,0.0,0.0,0.0,-1.0
158466994,158466726,0.08020696,-0.12894383,0.010749331,0.56916845,0.0,0.0,0.0,-1.0
158567555,158567309,-0.052583415,-0.1293145,0.011884405,0.5751687,0.0,0.0,0.0,-1.0
158669446,158669184,1.8172905e-05,-0.009629582,0.0018813395,0.5787098,0.0,0.0,0.0,-1.0
158767479,158767231,-0.04018682,-0.13390249,0.0015566075,0.5716114,0.0,0.0,0.0,-1.0
158869326,158869079,0.034797102,-0.08880686,-0.005901281,0.572412,0.0,0.0,0.0,-1.0
158967405,158967154,0.014317669,0.018939823,-0.0020683128,0.5784105,0.0,0.0,0.0,-1.0
159067985,159067737,0.060228907,-0.081360154,0.0025561268,0.5815972,0.0,0.0,0.0,-1.0
159169994,159169746,0.0019060757,-0.18343762,0.010051167,0.58680546,0.0,0.0,0.0,-1.0
159267907,159267660,-0.051896222,0.0086902995,-0.0035022593,0.5863978,0.0,0.0,0.0,-1.0
159369735,159369484,-0.049347285,-0.12692523,0.009597016,0.5782978,0.0,0.0,0.0,-1.0
159467829,159467581,-0.026897859,-0.04246579,0.0058409404,0.5807869,0.0,0.0,0.0,-1.0
159568423,159568167,0.030856108,-0.12505719,0.005539334,0.5801417,0.0,0.0,0.0,-1.0
159666531,159666284,0.014923657,-0.041241575,0.006589866,0.58720136,0.0,0.0,0.0,-1.0
159768332,159768090,0.0645412,-0.06961561,0.011394434,0.59715945,0.0,0.0,0.0,-1.0
159870163,159869912,-0.04979082,-0.0782746,0.0141096255,0.64056414,0.0,0.0,0.0,-1.0
159968375,159968132,-0.051498987,-0.04828221,0.005213544,0.58541465,0.0,0.0,0.0,-1.0
160068834,160068590,0.0416019,-0.051688746,0.011717268,0.5719857,0.0,0.0,0.0,-1.0
160166973,160166731,-0.05194839,-0.05256581,0.012651406,0.58216476,0.0,0.0,0.0,-1.0
160268760,160268513,-0.00235043,-0.09355746,0.015007447,0.5895489,0.0,0.0,0.0,-1.0
160366856,160366611,0.063117355,-0.15507713,0.013730821,0.591766,0.0,0.0,0.0,-1.0
160468706,160468455,0.034110095,-0.10461059,0.010472866,0.58516085,0.0,0.0,0.0,-1.0
160566780,160566534,0.048021223,-0.08521486,0.00081148715,0.5812332,0.0,0.0,0.0,-1.0
160667360,160667116,0.037258547,-0.06385146,0.0012547628,0.58724445,0.0,0.0,0.0,-1.0
160769289,160769044,0.02696337,-0.06209051,0.0031124274,0.5829498,0.0,0.0,0.0,-1.0
160867294,160867038,0.018227164,-0.0693334,0.012546525,0.58091646,0.0,0.0,0.0,-1.0
160969109,160968863,-0.027745921,-0.033942338,0.012154187,0.5273301,0.0,0.0,0.0,-1.0
161068458,161068205,0.017884787,-0.068065874,0.0011373439,0.49616188,0.0,0.0,0.0,-1.0
161169055,161168802,0.00077386433,-0.059238527,-0.0029353572,0.49551114,0.0,0.0,0.0,-1.0
161267146,161266889,0.045270413,-0.08461994,0.004418616,0.4889055,0.0,0.0,0.0,-1.0
161367715,161367472,0.010940016,-0.0612271,0.006688446,0.53434765,0.0,0.0,0.0,-1.0
161469545,161469291,-0.022770818,-0.07910645,0.00048694527,0.60195935,0.0,0.0,0.0,-1.0
161567689,161567448,0.042814836,-0.075016625,0.0025667523,0.59744185,0.0,0.0,0.0,-1.0
161669473,161669214,0.081260756,-0.08285942,-0.0040013096,0.5953431,0.0,0.0,0.0,-1.0
161767563,161767311,0.019975798,-0.07607075,0.0023673682,0.5930556,0.0,0.0,0.0,-1.0
161868161,161867910,-0.00036779873,-0.058672547,-0.0008188324,0.586289,0.0,0.0,0.0,-1.0
161966242,161965991,0.011767113,-0.056123693,-0.0009922499,0.5363087,0.0,0.0,0.0,-1.0
162068059,162067815,0.04976652,-0.0658554,-0.0017608176,0.5840051,0.0,0.0,0.0,-1.0
162169887,162169639,0.010722413,-0.08142457,0.0016394127,0.5751399,0.0,0.0,0.0,-1.0
162267997,162267739,-0.034938518,-0.031668518,-0.00275312,0.58305883,0.0,0.0,0.0,-1.0
162368649,162368402,-0.032451063,-0.0608092,-0.0014579161,0.5818175,0.0,0.0,0.0,-1.0
162466672,162466428,0.022396129,-0.07270182,0.0038759958,0.5807861,0.0,0.0,0.0,-1.0
162568488,162568243,-0.034721058,-0.052081116,0.0083212,0.57834214,0.0,0.0,0.0,-1.0
162666774,162666528,-0.028652791,-0.037882,0.006046191,0.574953,0.0,0.0,0.0,-1.0
162768416,162768166,-0.029904373,-0.033625584,0.010900083,0.5450975,0.0,0.0,0.0,-1.0
162868994,162868747,0.020333538,-0.06557885,0.012590293,0.5470242,0.0,0.0,0.0,-1.0
162967092,162966847,0.013575383,-0.037523046,0.018853966,0.58092576,0.0,0.0,0.0,-1.0
163068931,163068670,-0.02511149,-0.038664468,0.024215141,0.57643414,0.0,0.0,0.0,-1.0
163167065,163166819,-0.038819432,-0.035729885,0.017435875,0.57100475,0.0,0.0,0.0,-1.0
163268865,163268592,0.017964618,-0.061234307,0.019961724,0.5690145,0.0,0.0,0.0,-1.0
163366939,163366691,-0.06537301,-0.042708557,0.01659644,0.56515765,0.0,0.0,0.0,-1.0
163467676,163467431,0.008118044,-0.06218992,0.014172693,0.5711646,0.0,0.0,0.0,-1.0
163569341,163569097,-0.025348589,-0.040076237,0.01648748,0.5729844,0.0,0.0,0.0,-1.0
163667451,163667203,0.0108920215,-0.066252165,0.0072255693,0.5736111,0.0,0.0,0.0,-1.0
163770519,163770264,-0.016475305,-0.04782641,0.006507494,0.5745522,0.0,0.0,0.0,-1.0
163867360,163867118,0.023846867,-0.038829375,0.011112104,0.5744425,0.0,0.0,0.0,-1.0
163967966,163967717,-0.035347603,-0.03449566,0.009160279,0.5743415,0.0,0.0,0.0,-1.0
164066048,164065799,-0.05006831,-0.04711864,-0.0044141253,0.5443477,0.0,0.0,0.0,-1.0
164167886,164167633,0.0231055,-0.064163536,-0.0030019095,0.5765156,0.0,0.0,0.0,-1.0
164266077,164265826,-0.050742224,-0.05928207,0.0037796337,0.587147,0.0,0.0,0.0,-1.0
164367789,164367545,-0.11655167,-0.029376002,-0.001672415,0.5770285,0.0,0.0,0.0,-1.0
164468384,164468128,0.041812327,-0.08648997,-0.008113189,0.58373356,0.0,0.0,0.0,-1.0
164566473,164566226,-0.014857445,-0.05071781,0.0030210828,0.5914181,0.0,0.0,0.0,-1.0
164668295,164668049,0.01789567,-0.07266505,0.0061557633,0.6054075,0.0,0.0,0.0,-1.0
164766394,164766150,-0.045783363,-0.021795748,0.012045078,0.58942884,0.0,0.0,0.0,-1.0
164868281,164868027,0.028756486,-0.093366414,0.01870482,0.572167,0.0,0.0,0.0,-1.0
164966316,164966071,-0.027328776,-0.039074358,0.02685956,0.56887907,0.0,0.0,0.0,-1.0
165066979,165066731,0.054284547,-0.08678301,0.027674824,0.5682892,0.0,0.0,0.0,-1.0
165168744,165168500,-0.055679347,-0.05770249,0.02218288,0.5721055,0.0,0.0,0.0,-1.0
165266820,165266576,-0.04720053,-0.06974538,0.022758044,0.5769351,0.0,0.0,0.0,-1.0
165368647,165368400,-0.039862562,-0.12729496,0.009682294,0.57825446,0.0,0.0,0.0,-1.0
165466756,165466513,-0.061601013,-0.053944744,-0.0007819928,0.5471776,0.0,0.0,0.0,-1.0
165568571,165568323,-0.011287529,-0.09507082,0.002396031,0.5670378,0.0,0.0,0.0,-1.0
165669153,165668907,-0.04004791,-0.10649991,0.0020766011,0.5899059,0.0,0.0,0.0,-1.0
165767257,165767002,0.012672821,-0.14643398,-0.00092034205,0.59130126,0.0,0.0,0.0,-1.0
165869130,165868884,-0.04647569,-0.12561546,-0.0055883504,0.57967377,0.0,0.0,0.0,-1.0
165967175,165966925,0.07881974,-0.09921395,-0.016420446,0.53104633,0.0,0.0,0.0,-1.0
166069005,166068749,-0.09021822,-0.053025145,-0.010630325,0.57399803,0.0,0.0,0.0,-1.0
166169578,166169331,0.048746146,-0.09239838,-0.00489411,0.5908897,0.0,0.0,0.0,-1.0
166267680,166267430,-0.013536245,-0.044906836,-0.004268468,0.5754034,0.0,0.0,0.0,-1.0
166369500,166369255,-0.0011346255,-0.08486866,0.0017175605,0.579588,0.0,0.0,0.0,-1.0
166467607,166467353,0.048990037,-0.06782754,0.010451828,0.57255775,0.0,0.0,0.0,-1.0
166569429,166569177,-0.051372234,-0.047289655,0.013451641,0.5724518,0.0,0.0,0.0,-1.0
166667543,166667293,0.03284783,-0.08788954,0.0014501372,0.5295269,0.0,0.0,0.0,-1.0
166768103,166767857,-0.08564318,-0.024334712,0.014940393,0.5275927,0.0,0.0,0.0,-1.0
166869931,166869681,0.063509464,-0.0753575,0.008997068,0.57669824,0.0,0.0,0.0,-1.0
166968183,166967939,-0.022598539,-0.043969918,0.008315657,0.5808766,0.0,0.0,0.0,-1.0
167069870,167069628,-0.0052401624,-0.07867716,0.0075675584,0.5808822,0.0,0.0,0.0,-1.0
167167951,167167702,0.023249757,-0.08660465,0.014185195,0.58501875,0.0,0.0,0.0,-1.0
167268530,167268285,-0.04721233,-0.03763036,0.013976147,0.57599485,0.0,0.0,0.0,-1.0
167366637,167366384,0.017680034,-0.05139664,0.011919298,0.56792045,0.0,0.0,0.0,-1.0
167468448,167468205,-0.047685217,-0.05302728,0.014843533,0.57598805,0.0,0.0,0.0,-1.0
167566561,167566307,0.02597105,-0.06557072,0.0064499327,0.5691115,0.0,0.0,0.0,-1.0
167668469,167668222,0.0697524,-0.07705092,0.009711353,0.5703801,0.0,0.0,0.0,-1.0
167769108,167768861,-0.008198493,-0.07432467,0.015789125,0.5653157,0.0,0.0,0.0,-1.0
167867061,167866810,0.010128789,-0.05406487,0.0044229114,0.5299574,0.0,0.0,0.0,-1.0
167968912,167968657,0.00018129189,-0.0711497,0.00375226,0.4893209,0.0,0.0,0.0,-1.0
168066992,168066738,0.006763686,-0.065899916,0.0023528817,0.5488871,0.0,0.0,0.0,-1.0
168168799,168168557,-0.031177444,-0.06306014,0.014238159,0.61427677,0.0,0.0,0.0,-1.0
168267020,168266753,-0.02140185,-0.08679541,0.007172021,0.6532625,0.0,0.0,0.0,-1.0
168367483,168367238,-0.017463634,-0.067357145,0.015700117,0.59723663,0.0,0.0,0.0,-1.0
168469315,168469064,-0.05974254,-0.063029595,0.024697084,0.57191694,0.0,0.0,0.0,-1.0
168567510,168567260,-0.010396397,-0.04450193,0.025939923,0.57289624,0.0,0.0,0.0,-1.0
168669240,168668988,-0.064065166,-0.06267933,0.02684319,0.55050075,0.0,0.0,0.0,-1.0
168767330,168767082,-0.020907182,-0.047414064,0.022994189,0.5774453,0.0,0.0,0.0,-1.0
168867955,168867712,0.06723814,-0.08913459,0.029335137,0.5895295,0.0,0.0,0.0,-1.0
168966010,168965765,0.036748353,-0.08161511,0.029889148,0.57640547,0.0,0.0,0.0,-1.0
169067832,169067587,-0.05500959,-0.06534945,0.032756444,0.5727979,0.0,0.0,0.0,-1.0
169169667,169169415,-0.08245104,-0.065618195,0.033522654,0.57143795,0.0,0.0,0.0,-1.0
169269009,169268755,-0.09357361,-0.0013025355,0.032161478,0.57107997,0.0,0.0,0.0,-1.0
169368458,169368210,-0.055562634,-0.041671123,0.03671598,0.5720908,0.0,0.0,0.0,-1.0
169466443,169466195,-0.058941673,-0.048802268,0.033630975,0.5750307,0.0,0.0,0.0,-1.0
169568259,169568015,-0.051032554,-0.06760064,0.039297346,0.58509034,0.0,0.0,0.0,-1.0
169670084,169669838,0.013396498,-0.09074205,0.04321023,0.59169424,0.0,0.0,0.0,-1.0
169768184,169767937,-0.00914011,-0.07579614,0.043048654,0.6466821,0.0,0.0,0.0,-1.0
169870036,169869786,-0.030055026,-0.07219672,0.05212322,0.6904312,0.0,0.0,0.0,-1.0
169966872,169966630,-0.011531876,-0.04546708,0.05224257,0.6372909,0.0,0.0,0.0,-1.0
170068701,170068449,-0.039588194,-0.053748474,0.052781742,0.573875,0.0,0.0,0.0,-1.0
170166821,170166573,-0.007999161,-0.049080513,0.055230904,0.5671862,0.0,0.0,0.0,-1.0
170268610,170268364,0.02667471,-0.047632772,0.046920575,0.5471198,0.0,0.0,0.0,-1.0
170370450,170370189,0.009693451,-0.050210517,0.04798754,0.5492881,0.0,0.0,0.0,-1.0
170467468,170467225,0.0014937557,-0.08454775,0.047928687,0.512436,0.0,0.0,0.0,-1.0
170569125,170568869,0.011539465,-0.094939575,0.042394932,0.57230717,0.0,0.0,0.0,-1.0
170667213,170666967,-0.058281094,-0.065393955,0.03893345,0.6332115,0.0,0.0,0.0,-1.0
170769037,170768791,0.016665367,-0.075700775,0.03280325,0.66061395,0.0,0.0,0.0,-1.0
170867143,170866890,-0.04230715,-0.039653778,0.026829395,0.59441966,0.0,0.0,0.0,-1.0
170968966,170968724,-0.016677434,-0.053455114,0.025716167,0.5640621,0.0,0.0,0.0,-1.0
171065825,171065571,0.0626835,-0.07913738,0.017353373,0.56695986,0.0,0.0,0.0,-1.0
171167645,171167395,0.016553912,-0.11069933,0.00925177,0.57178694,0.0,0.0,0.0,-1.0
171269625,171269378,-0.04234378,-0.030707477,0.0031181346,0.5830809,0.0,0.0,0.0,-1.0
171367559,171367317,0.08768874,-0.092159204,-0.008132715,0.5936215,0.0,0.0,0.0,-1.0
171469434,171469184,0.061068043,-0.10519358,-0.012155987,0.6060306,0.0,0.0,0.0,-1.0
171567499,171567240,-0.07711646,-0.008446999,-0.0142215965,0.58882457,0.0,0.0,0.0,-1.0
171668080,171667825,-0.03151251,-0.06386229,-0.00506544,0.5729387,0.0,0.0,0.0,-1.0
171766177,171765922,0.0019112494,-0.06750746,-0.007190255,0.5673472,0.0,0.0,0.0,-1.0
171867991,171867745,-0.073409624,-0.05824004,-0.0023920343,0.56991285,0.0,0.0,0.0,-1.0
171971068,171970814,-0.0501106,-0.060168687,-0.005025195,0.5765546,0.0,0.0,0.0,-1.0
172068032,172067782,-0.0077847885,-0.04846799,0.0013808873,0.5817441,0.0,0.0,0.0,-1.0
172168495,172168249,-0.032347973,-0.13988295,0.0009834972,0.58383965,0.0,0.0,0.0,-1.0
172266595,172266348,0.008502375,-0.13906626,-0.016081316,0.5805172,0.0,0.0,0.0,-1.0
172368475,172368226,-0.04410562,-0.08541052,-0.005210647,0.57963574,0.0,0.0,0.0,-1.0
172466517,172466270,0.031685717,-0.12987725,-0.0031095815,0.5826863,0.0,0.0,0.0,-1.0
172568339,172568095,-0.0047817295,-0.015347191,-0.0063362275,0.5824801,0.0,0.0,0.0,-1.0
172668961,172668718,0.07852014,-0.08577647,0.008357307,0.57349813,0.0,0.0,0.0,-1.0
172767021,172766775,-0.017823715,-0.06878871,0.02758908,0.5729555,0.0,0.0,0.0,-1.0
172868942,172868691,-0.032982685,-0.057705723,0.02497499,0.57989466,0.0,0.0,0.0,-1.0
172966948,172966704,-0.013688453,-0.14330162,0.020179287,0.57825696,0.0,0.0,0.0,-1.0
173068773,173068522,0.02219197,-0.04429068,0.010144217,0.5826587,0.0,0.0,0.0,-1.0
173166870,173166620,-0.03559514,-0.09633768,0.0016980263,0.5859306,0.0,0.0,0.0,-1.0
173267453,173267204,0.03959904,-0.05438054,0.004229246,0.58110744,0.0,0.0,0.0,-1.0
173369282,173369035,0.0656985,-0.10364126,-0.0011404058,0.5739198,0.0,0.0,0.0,-1.0
173467366,173467124,-0.078772746,-0.05670271,-0.0058882283,0.5711296,0.0,0.0,0.0,-1.0
173569208,173568950,-0.00464853,-0.0774467,-0.011293454,0.56838316,0.0,0.0,0.0,-1.0
173667401,173667157,-0.04318639,-0.116142124,-0.01860666,0.5708925,0.0,0.0,0.0,-1.0
173769127,173768873,-0.008454269,-0.07696531,-0.013707327,0.5765104,0.0,0.0,0.0,-1.0
173865974,173865728,0.07520666,-0.094853,-0.011910592,0.5676778,0.0,0.0,0.0,-1.0
173967813,173967557,-0.011483109,-0.054958932,0.0017085171,0.5597662,0.0,0.0,0.0,-1.0
174069624,174069377,-0.09669448,-0.05811887,0.00087203254,0.5637523,0.0,0.0,0.0,-1.0
174167723,174167475,0.010875184,-0.11324807,0.0058489707,0.56794494,0.0,0.0,0.0,-1.0
174269558,174269300,-0.031215973,-0.12035465,-0.0059094266,0.56723195,0.0,0.0,0.0,-1.0
174366407,174366156,0.026386812,-0.15139942,-0.0043743015,0.56672066,0.0,0.0,0.0,-1.0
174468262,174468007,0.010249473,-0.13091263,0.010293827,0.5733554,0.0,0.0,0.0,-1.0
174566335,174566080,0.0460475,-0.08606258,-0.0039473297,0.5769633,0.0,0.0,0.0,-1.0
174668164,174667912,0.024806269,-0.016098587,0.0058055623,0.5697422,0.0,0.0,0.0,-1.0
174766420,174766164,-0.021020995,-0.04427671,0.014818593,0.5569087,0.0,0.0,0.0,-1.0
174868070,174867824,-0.07560604,-0.0354565,0.020851156,0.5555703,0.0,0.0,0.0,-1.0
174968658,174968407,-0.0062437463,-0.06691254,0.020319704,0.5660371,0.0,0.0,0.0,-1.0
175066750,175066505,-0.03034946,-0.11467804,0.027820887,0.5729698,0.0,0.0,0.0,-1.0
175168579,175168329,-0.036080543,-0.06510445,0.015205216,0.5748911,0.0,0.0,0.0,-1.0
175266670,175266428,0.037129782,-0.10534544,0.012397331,0.5755778,0.0,0.0,0.0,-1.0
175368508,175368252,0.014296934,-0.07657557,0.0212432,0.5823412,0.0,0.0,0.0,-1.0
175469093,175468834,-0.038907968,-0.029454121,0.016342442,0.5883222,0.0,0.0,0.0,-1.0
175567353,175567097,0.06645718,-0.012813663,0.009359994,0.5919099,0.0,0.0,0.0,-1.0
175669001,175668756,0.035787713,-0.04888246,0.014308573,0.58144194,0.0,0.0,0.0,-1.0
175767101,175766855,0.006048443,-0.07437537,0.01475649,0.5803045,0.0,0.0,0.0,-1.0
175868933,175868679,-0.021437347,-0.13711417,0.01681935,0.5802031,0.0,0.0,0.0,-1.0
175967030,175966779,-0.019860083,-0.048050214,-0.00148563,0.5846918,0.0,0.0,0.0,-1.0
176067613,176067361,0.0124149695,-0.08684824,0.003536497,0.5939211,0.0,0.0,0.0,-1.0
176169438,176169185,-0.048924226,-0.037573006,0.0028231244,0.601582,0.0,0.0,0.0,-1.0
176267537,176267286,0.06889281,-0.011187412,0.0007524979,0.58853,0.0,0.0,0.0,-1.0
176369472,176369225,-0.09565715,-0.09024942,0.01829168,0.588206,0.0,0.0,0.0,-1.0
176467458,176467212,0.008792759,-0.002070528,0.007886399,0.60515803,0.0,0.0,0.0,-1.0
176568034,176567790,0.020506972,-0.13104035,0.013265803,0.5859203,0.0,0.0,0.0,-1.0
176669864,176669614,0.0015547707,-0.0029016063,0.0036127875,0.59948415,0.0,0.0,0.0,-1.0
176767958,176767709,-0.013811022,-0.07174459,0.010054444,0.6249764,0.0,0.0,0.0,-1.0
176869780,176869533,-0.034043692,-0.08896883,0.008512129,0.5675851,0.0,0.0,0.0,-1.0
176967884,176967632,0.03989468,-0.062006064,0.0021459355,0.577425,0.0,0.0,0.0,-1.0
177065991,177065733,-0.05194774,-0.107158415,0.006930986,0.5795719,0.0,0.0,0.0,-1.0
177166640,177166386,0.0051673655,-0.14777304,-0.0011703515,0.58032316,0.0,0.0,0.0,-1.0
177268380,177268136,-0.08519891,-0.022156972,-0.002398928,0.5826292,0.0,0.0,0.0,-1.0
177370217,177369962,-0.0734783,-0.07747258,-0.001395953,0.5838599,0.0,0.0,0.0,-1.0
177468310,177468059,0.043604676,-0.10240393,0.0039672595,0.58598703,0.0,0.0,0.0,-1.0
177568898,177568641,0.039347447,-0.07938221,-0.0014118998,0.5879642,0.0,0.0,0.0,-1.0
177667005,177666758,-0.05588339,-0.019020837,0.007999256,0.58775055,0.0,0.0,0.0,-1.0
177768808,177768564,0.025195127,-0.06318028,0.006994206,0.5795709,0.0,0.0,0.0,-1.0
177866915,177866664,-0.046414163,-0.07554919,0.002652753,0.5772811,0.0,0.0,0.0,-1.0
177968773,177968532,0.0070064645,-0.09049155,-0.009247414,0.5825406,0.0,0.0,0.0,-1.0
178070567,178070319,0.05368774,-0.06672252,-0.009539973,0.58544815,0.0,0.0,0.0,-1.0
178167419,178167167,0.010773468,-0.14218485,-0.0070995786,0.58569145,0.0,0.0,0.0,-1.0
178269248,178268994,0.0029095074,-0.087326676,-0.0082729785,0.5865104,0.0,0.0,0.0,-1.0
178367339,178367089,0.04073704,-0.13356842,-0.015975919,0.58369917,0.0,0.0,0.0,-1.0
178469157,178468914,-0.04836326,-0.038160216,-0.008204834,0.5870998,0.0,0.0,0.0,-1.0
178567330,178567071,0.027797094,-0.10962578,-0.0010653989,0.5915157,0.0,0.0,0.0,-1.0
178667845,178667595,-0.03303708,-0.073488995,-0.0014316061,0.6002275,0.0,0.0,0.0,-1.0
178766026,178765779,0.005406075,-0.009987791,-6.4200896e-05,0.59316087,0.0,0.0,0.0,-1.0
178867758,178867517,0.0044002673,-0.05180872,0.013122285,0.5767334,0.0,0.0,0.0,-1.0
178969597,178969342,-0.008930157,-0.06649352,0.015436743,0.57252103,0.0,0.0,0.0,-1.0
179067838,179067591,0.02573133,-0.12624905,0.017122338,0.57642365,0.0,0.0,0.0,-1.0
179169520,179169264,-0.06991169,-0.04959296,0.013825498,0.5791231,0.0,0.0,0.0,-1.0
179266370,179266120,0.025080081,-0.09078356,0.0094091045,0.57633024,0.0,0.0,0.0,-1.0
179368201,179367946,-0.019014847,-0.11491057,0.009379951,0.58881253,0.0,0.0,0.0,-1.0
179466296,179466047,0.06977174,-0.017562767,-0.0021808017,0.58435756,0.0,0.0,0.0,-1.0
179568157,179567912,-0.0143342065,-0.087634146,0.0030270899,0.58329356,0.0,0.0,0.0,-1.0
179669941,179669690,0.0648322,-0.10491407,0.0045973808,0.5843826,0.0,0.0,0.0,-1.0
179768048,179767789,-0.010521572,-0.14993456,0.004535458,0.5837363,0.0,0.0,0.0,-1.0
179868738,179868494,0.10715815,-0.089184806,0.0015065732,0.63851064,0.0,0.0,0.0,-1.0
179966719,179966470,0.03137873,-0.2158118,0.007676776,0.6364948,0.0,0.0,0.0,-1.0
180068542,180068296,-0.001835813,-0.12674573,-0.0018728686,0.6246462,0.0,0.0,0.0,-1.0
180170365,180170117,0.048662763,-0.1632306,0.0033003567,0.6439481,0.0,0.0,0.0,-1.0
180268458,180268216,-0.05761782,-0.0058936626,-0.0016667622,0.6174848,0.0,0.0,0.0,-1.0
180369054,180368802,0.038629103,-0.113957755,0.008326228,0.5633397,0.0,0.0,0.0,-1.0
180467143,180466896,-0.047923505,-0.009986632,-0.00667582,0.57738745,0.0,0.0,0.0,-1.0
180568974,180568721,0.05205246,-0.10741154,0.0065922257,0.582634,0.0,0.0,0.0,-1.0
180667177,180666919,-0.027813444,-0.05428705,0.0069353106,0.58628416,0.0,0.0,0.0,-1.0
180768898,180768645,-0.004369715,-0.07066048,0.0074117198,0.6005735,0.0,0.0,0.0,-1.0
180867003,180866742,0.0428719,-0.13739601,0.0046877163,0.5918728,0.0,0.0,0.0,-1.0
180967569,180967324,-0.06655549,-0.07694885,0.00088999135,0.5953441,0.0,0.0,0.0,-1.0
181069400,181069148,0.024182437,-0.09691046,-0.008300459,0.5908341,0.0,0.0,0.0,-1.0
181167496,181167248,-0.046285603,-0.045498937,-0.0026359535,0.5925686,0.0,0.0,0.0,-1.0
181269325,181269072,0.030482087,-0.037375048,-0.005239328,0.5955871,0.0,0.0,0.0,-1.0
181367419,181367169,0.015360248,-0.06656479,0.005709117,0.5963829,0.0,0.0,0.0,-1.0
181468069,181467820,0.07471264,-0.05486821,0.011507022,0.5954422,0.0,0.0,0.0,-1.0
181566107,181565850,-0.06895651,-0.030806169,0.010323321,0.5932452,0.0,0.0,0.0,-1.0
181667918,181667673,-0.057970975,-0.11438499,0.0022322715,0.58928084,0.0,0.0,0.0,-1.0
181769742,181769497,0.06806151,-0.10864989,0.0013396675,0.5861231,0.0,0.0,0.0,-1.0
181867840,181867599,-0.010210648,-0.0844767,-0.00268389,0.59088403,0.0,0.0,0.0,-1.0
181968443,181968196,0.019036705,-0.06952379,0.0018851655,0.58234495,0.0,0.0,0.0,-1.0
182066531,182066283,-0.09864958,0.0041823294,0.0051947897,0.5802172,0.0,0.0,0.0,-1.0
182168365,182168104,-0.052044526,-0.10798194,0.014587012,0.59135,0.0,0.0,0.0,-1.0
182266476,182266229,0.09646243,-0.04974392,0.001624571,0.60806197,0.0,0.0,0.0,-1.0
182368283,182368025,0.05895075,-0.057072513,0.0067460113,0.59512705,0.0,0.0,0.0,-1.0
182468894,182468642,-0.020446984,-0.05923798,0.0105163595,0.594742,0.0,0.0,0.0,-1.0
182567180,182566935,0.09151706,-0.09536525,0.0130125275,0.60169107,0.0,0.0,0.0,-1.0
182668774,182668524,0.059259184,-0.16087201,0.011229655,0.60114783,0.0,0.0,0.0,-1.0
182766870,182766627,-0.030671645,-0.07750538,0.011221857,0.5991719,0.0,0.0,0.0,-1.0
182868702,182868452,-0.055180438,-0.03342109,0.0011964886,0.59956336,0.0,0.0,0.0,-1.0
182966797,182966549,0.077657975,-0.07391739,0.002465484,0.60458267,0.0,0.0,0.0,-1.0
183067380,183067133,0.018745244,-0.04516062,0.009088666,0.6007766,0.0,0.0,0.0,-1.0
183169209,183168955,-0.0886164,-0.004019802,0.017171696,0.60837376,0.0,0.0,0.0,-1.0
183267299,183267054,-0.022817831,-0.04550512,0.013175882,0.6029547,0.0,0.0,0.0,-1.0
183369277,183369029,-0.057278413,-0.07751023,0.019040894,0.6059485,0.0,0.0,0.0,-1.0
183467223,183466976,0.099375784,-0.09399223,0.0053103827,0.6088999,0.0,0.0,0.0,-1.0
183569059,183568800,0.011715833,-0.12564898,0.008028196,0.6131603,0.0,0.0,0.0,-1.0
183665900,183665656,0.023438126,-0.08623389,0.0061541833,0.60013056,0.0,0.0,0.0,-1.0
183767739,183767481,0.048546277,-0.061968368,0.0030397088,0.5995256,0.0,0.0,0.0,-1.0
183867073,183866822,-0.020374306,-0.038522623,0.0023992604,0.593621,0.0,0.0,0.0,-1.0
183967651,183967403,-0.009266128,-0.028770156,-0.003999179,0.60648423,0.0,0.0,0.0,-1.0
184069519,184069262,-0.055786286,-0.036179278,-0.0062732645,0.62377125,0.0,0.0,0.0,-1.0
184166440,184166189,0.03097417,-0.03472484,-0.0040794928,0.68574214,0.0,0.0,0.0,-1.0
184269408,184269152,0.08281499,-0.031437784,0.0018952086,0.62471336,0.0,0.0,0.0,-1.0
184369991,184369740,-0.013200518,-0.0463297,0.00854369,0.5804474,0.0,0.0,0.0,-1.0
184468090,184467831,-0.07913579,-0.019957291,0.005020526,0.5747205,0.0,0.0,0.0,-1.0
184566176,184565929,0.01843922,-0.059590343,0.005609253,0.5160373,0.0,0.0,0.0,-1.0
184668024,184667765,-0.044411276,-0.046632394,0.008107206,0.460377,0.0,0.0,0.0,-1.0
184768584,184768335,-0.05314901,-0.13129689,0.0075985016,0.46340078,0.0,0.0,0.0,-1.0
184866675,184866433,0.026297446,-0.04070928,-0.012706595,0.5271335,0.0,0.0,0.0,-1.0
184969850,184969591,0.03539891,-0.093110256,-0.004803628,0.60706455,0.0,0.0,0.0,-1.0
185070359,185070113,0.06149796,-0.05630317,-0.00056390185,0.64907014,0.0,0.0,0.0,-1.0
185168439,185168183,-0.020706372,-0.048560716,0.0001717146,0.6026133,0.0,0.0,0.0,-1.0
185269004,185268762,0.08691067,-0.08400034,0.0057772463,0.59974796,0.0,0.0,0.0,-1.0
185367109,185366860,-0.035207804,-0.05069903,0.012205459,0.59248734,0.0,0.0,0.0,-1.0
185468936,185468684,-0.00966484,-0.1298502,0.00837975,0.5920335,0.0,0.0,0.0,-1.0
185567026,185566783,0.05678422,-0.069912165,-0.0065783816,0.59312624,0.0,0.0,0.0,-1.0
185668904,185668650,0.07950209,-0.04945401,-0.0011203488,0.5919554,0.0,0.0,0.0,-1.0
185767000,185766744,-0.015056232,-0.043937672,0.0077935047,0.59384465,0.0,0.0,0.0,-1.0
185867537,185867287,-0.01884136,-0.0138938585,0.0101228375,0.5974496,0.0,0.0,0.0,-1.0
185969354,185969111,0.007849794,-0.12699988,0.013717229,0.5942949,0.0,0.0,0.0,-1.0
186067663,186067413,-0.049395617,-0.055749953,0.0024467858,0.60133183,0.0,0.0,0.0,-1.0
186169280,186169034,-0.0015004459,-0.04297165,-0.0011234988,0.59850353,0.0,0.0,0.0,-1.0
186267390,186267143,-0.0003169691,-0.052737035,0.0035851197,0.60208756,0.0,0.0,0.0,-1.0
186367964,186367715,-0.056716416,-0.010222477,0.0040045944,0.6056698,0.0,0.0,0.0,-1.0
186469792,186469540,0.042572845,-0.07233347,0.0067447023,0.5941134,0.0,0.0,0.0,-1.0
186569227,186568970,0.027518416,-0.05093481,0.0068910993,0.5870561,0.0,0.0,0.0,-1.0
186669710,186669461,0.063886635,-0.09846516,0.009768086,0.57665306,0.0,0.0,0.0,-1.0
186767808,186767561,-0.011721845,-0.05569209,0.020491369,0.5953823,0.0,0.0,0.0,-1.0
186866066,186865816,-0.048179504,-0.13803343,0.021400297,0.595543,0.0,0.0,0.0,-1.0
186966492,186966240,-0.005174603,-0.08308791,0.002637129,0.5872559,0.0,0.0,0.0,-1.0
187068327,187068064,0.016054563,-0.11086954,-0.0014665098,0.59030265,0.0,0.0,0.0,-1.0
187166407,187166163,-0.019594772,-0.031410363,0.0072258404,0.59389746,0.0,0.0,0.0,-1.0
187268237,187267987,0.010020296,-0.047430106,0.003957518,0.599224,0.0,0.0,0.0,-1.0
187370071,187369808,0.01925931,-0.012547262,-0.0027570676,0.603726,0.0,0.0,0.0,-1.0
187466923,187466668,0.03982299,-0.029395817,0.0066384138,0.5898152,0.0,0.0,0.0,-1.0
187568735,187568491,-0.03304385,-0.022415403,0.0154220145,0.5819551,0.0,0.0,0.0,-1.0
187667032,187666783,0.031455915,-0.13022465,0.007092078,0.58849347,0.0,0.0,0.0,-1.0
187768657,187768414,0.014205646,0.014038713,0.008068342,0.5950946,0.0,0.0,0.0,-1.0
187866756,187866512,0.052134894,-0.07465293,0.0141647095,0.58979744,0.0,0.0,0.0,-1.0
187967344,187967095,-0.010097174,-0.0100524565,0.008295121,0.5898819,0.0,0.0,0.0,-1.0
188069165,188068920,-0.04229282,-0.13074143,0.013983197,0.58945364,0.0,0.0,0.0,-1.0
188167273,188167024,-0.03533698,-0.03205958,0.006116839,0.596549,0.0,0.0,0.0,-1.0
188269095,188268841,-0.011069701,-0.023506794,0.008615217,0.59284216,0.0,0.0,0.0,-1.0
188367195,188366941,-0.04984937,-0.042829346,0.008271613,0.59059596,0.0,0.0,0.0,-1.0
188467867,188467620,-0.043167945,-0.10596711,0.0007341371,0.5887536,0.0,0.0,0.0,-1.0
188569597,188569346,0.029061811,-0.03127583,-0.00590089,0.5963552,0.0,0.0,0.0,-1.0
188667687,188667444,0.008095575,-0.12842964,0.0057463343,0.5933488,0.0,0.0,0.0,-1.0
188769531,188769272,-0.012171935,-0.08949486,-0.0042808233,0.59106386,0.0,0.0,0.0,-1.0
188867616,188867367,-0.07332894,-0.030518394,-0.008614006,0.58622694,0.0,0.0,0.0,-1.0
188969441,188969195,-0.009770211,-0.06531685,-0.01114635,0.5868457,0.0,0.0,0.0,-1.0
189066297,189066048,-0.02556566,-0.058773547,-0.012649739,0.59455216,0.0,0.0,0.0,-1.0
189168119,189167871,-0.019856682,-0.075148255,-0.009813759,0.6009985,0.0,0.0,0.0,-1.0
189266351,189266098,-0.020918567,-0.04417768,0.0011689315,0.6104227,0.0,0.0,0.0,-1.0
189368043,189367794,0.026977587,-0.004692929,-0.00038032158,0.60684294,0.0,0.0,0.0,-1.0
189469873,189469620,0.017308835,-0.05879482,0.0055718725,0.58835775,0.0,0.0,0.0,-1.0
189569218,189568961,0.068745285,-0.069470316,0.010014053,0.5839871,0.0,0.0,0.0,-1.0
189668555,189668299,-0.029136678,-0.045996085,0.0068883165,0.5859099,0.0,0.0,0.0,-1.0
189766645,189766397,0.044016887,-0.09097527,0.00290885,0.5904175,0.0,0.0,0.0,-1.0
189868466,189868221,0.008488103,-0.11794085,0.0026476816,0.5957635,0.0,0.0,0.0,-1.0
189966570,189966319,-0.027547449,-0.025349485,-0.012254198,0.5946946,0.0,0.0,0.0,-1.0
190068493,190068237,0.09184451,-0.16393633,-0.0019035833,0.5928153,0.0,0.0,0.0,-1.0
190168973,190168725,0.022035573,-0.059565168,-0.009440766,0.5916215,0.0,0.0,0.0,-1.0
190267067,190266824,-0.0959904,-0.028641695,-0.008178725,0.59922296,0.0,0.0,0.0,-1.0
190369113,190368867,-0.0080033755,-0.050409876,-0.009012182,0.6030778,0.0,0.0,0.0,-1.0
190466994,190466746,0.03556101,0.010688329,0.0023794028,0.59576374,0.0,0.0,0.0,-1.0
