timestamp,timestamp_sample,device_id,x,y,z,temperature,error_count
119658308,119658131,3932170,0.025566347,-0.03520699,-0.020346552,36.603428,0
119659558,119659379,3932170,0.009374327,-0.036059204,-0.03520699,36.603428,0
120662558,120662378,3932170,-0.43643886,0.18274613,0.0386691,36.701347,0
121659400,121659218,3932170,0.52235246,0.16580842,0.13257216,36.554466,0
122659947,122659768,3932170,0.10961571,0.3864247,-0.120800994,36.701347,0
123660329,123660153,3932170,-0.3871171,0.022849923,0.26956517,36.750305,0
124658359,124658178,3932170,0.25017735,0.06716492,-0.09044095,36.603428,0
125660098,125659920,3932170,0.33182988,0.06780408,-0.04724448,36.701347,0
126660926,126660709,3932170,-0.10279802,-0.14465404,0.16782354,36.848225,0
127661237,127661059,3932170,-0.2862898,0.059441756,0.15536883,36.554466,0
128659249,128659068,3932170,-0.1397627,0.0026098979,0.08852348,36.701347,0
129659813,129659638,3932170,0.15318502,-0.10839066,-0.17283916,36.701347,0
130660259,130660080,3932170,0.058909122,-0.16245283,-0.25699505,36.897186,0
131658285,131658108,3932170,-0.23068301,0.14013554,0.32527852,36.750305,0
132658774,132658597,3932170,0.10487529,-0.07078683,0.063010395,36.603428,0
133661906,133661720,3932170,-0.43936834,-0.10396981,0.22903186,36.750305,0
134661034,134660858,3932170,0.68597704,-0.08713864,0.21885858,36.750305,0
135659052,135658870,3932170,-0.7512245,0.06588661,0.14769892,36.848225,0
136660814,136660625,3932170,-0.4879444,0.29422605,-0.07451525,36.750305,0
137661580,137661401,3932170,0.23782028,-0.036272254,-0.083197154,36.848225,0
138661821,138661645,3932170,0.03158509,-0.30599722,0.009321064,36.50551,0
139659829,139659650,3932170,-0.30088395,-0.8068846,0.17848507,36.848225,0
140660469,140660294,3932170,0.3379019,-1.0223343,-0.17156084,36.897186,0
141660839,141660662,3932170,0.037390783,0.5208078,0.08287758,36.750305,0
142658858,142658674,3932170,-0.018482339,0.71479243,0.07307714,36.897186,0
143660608,143660429,3932170,0.35228297,-0.63740104,0.20596889,36.848225,0
144661453,144661274,3932170,0.5680523,-1.0358099,-0.21182784,36.554466,0
145661653,145661477,3932170,0.21188112,-0.6137521,-0.22407839,36.603428,0
146660882,146660704,3932170,-0.3700196,-0.624245,0.29230857,36.946144,0
147660241,147660059,3932170,1.1678494,-0.0034621095,-0.12010857,36.848225,0
148661890,148661715,3932170,-0.17672738,0.74525905,0.016777916,36.848225,0
149658658,149658480,3932170,-0.4037885,-0.2192847,0.264878,36.750305,0
150660423,150660235,3932170,-0.54743946,0.94334495,0.16484967,36.848225,0
151662346,151662197,3932170,0.050866377,-0.029028457,-0.14547518,36.750305,0
152661428,152661250,3932170,0.7813715,-0.6101835,-0.2292449,36.946144,0
153659447,153659269,3932170,0.2612561,0.40954092,0.026152244,36.554466,0
154661258,154661079,3932170,0.4686631,-0.11313109,-0.07057377,36.848225,0
155661699,155661522,3932170,0.2016013,-0.11755193,-0.09629991,36.897186,0
156658465,156658287,3932170,0.73636407,0.83921534,-0.20112193,36.701347,0
157660222,157660044,3932170,-0.94494283,-0.49332398,-0.017789917,36.946144,0
158660898,158660719,3932170,-0.55143416,0.3628291,0.21683459,36.897186,0
159661235,159661058,3932170,0.3009372,-1.0528009,0.07009441,36.750305,0
160659252,160659071,3932170,0.10173275,-0.7509582,-0.094116114,36.848225,0
161661005,161660826,3932170,0.525495,-0.27100328,-0.23132218,36.897186,0
162661510,162661329,3932170,-0.031798143,-0.06775082,0.094595484,36.946144,0
163658275,163658094,3932170,0.17773938,-0.12074772,-0.06961503,36.848225,0
164660025,164659848,3932170,0.15957662,-0.6295713,-0.07062703,36.701347,0
165660673,165660488,3932170,-0.22844596,0.5771603,-0.017417075,36.848225,0
166658546,166658367,3932170,0.42418832,-0.25353295,-0.34408042,36.848225,0
167659061,167658877,3932170,0.2213087,0.024501082,-0.13795175,37.093025,0
168660814,168660636,3932170,-0.18546255,0.011771172,0.25784728,36.897186,0
169661367,169661186,3932170,-0.23441145,0.10652645,-0.03914847,36.750305,0
170659326,170659149,3932170,-0.46951532,0.04511395,0.45923552,36.848225,0
171659836,171659660,3932170,-0.05320996,0.48000818,0.17757958,36.897186,0
172661679,172661501,3932170,0.34514567,-0.13385049,-0.32810146,36.848225,0
173662097,173661921,3932170,-0.07211841,0.19222696,0.39633167,36.848225,0
174660112,174659931,3932170,0.54887754,-0.5620336,-0.13028185,36.946144,0
175660622,175660442,3932170,0.39707732,-0.1399225,-0.14109427,37.044064,0
176661397,176661220,3932170,0.18961707,-0.17225327,-0.09044095,36.750305,0
177659132,177658956,3932170,-0.43388224,-0.49641323,-0.008948222,36.603428,0
178659638,178659463,3932170,-0.34546527,-0.8449678,0.13422333,36.750305,0
179661471,179661290,3932170,0.29406628,0.35041875,-0.1443966,36.848225,0
180661907,180661724,3932170,-0.19302592,0.746058,0.013315806,36.848225,0
181659916,181659737,3932170,-0.40187103,0.4878911,0.09523465,36.750305,0
182660431,182660249,3932170,0.62067634,0.27441213,-0.31489217,36.897186,0
183661214,183661002,3932170,0.34882975,-0.61572284,-0.2568619,36.946144,0
184658943,184658764,3932170,-0.22844596,1.0265954,0.21102889,36.701347,0
185660695,185660517,3932170,0.4879444,-0.53982276,-0.18359834,36.897186,0
186661227,186661046,3932170,0.59122175,0.5025918,-0.37103164,36.848225,0
187657986,187657807,3932170,0.22061628,0.3438674,-0.174224,36.848225,0
188659719,188659543,3932170,-0.40772998,0.58525634,0.36868805,36.701347,0
189660228,189660050,3932170,-0.11584751,0.9291237,0.19014971,36.554466,0
190662163,190661983,3932170,0.28884646,0.505468,-0.06791061,36.750305,0
191658747,191658570,3932170,0.40890178,-0.115954034,-0.0018109496,36.848225,0
192660498,192660323,3932170,0.05752428,0.6308496,-0.040480047,36.603428,0
193661060,193660880,3932170,0.035473306,0.7984157,-0.06066681,36.701347,0
194661514,194661337,3932170,-0.104928546,0.7145794,0.025832662,36.897186,0
195659649,195659474,3932170,-0.20208067,0.691836,0.077924095,36.946144,0
196660164,196659982,3932170,0.28133634,-0.083942845,-0.19062907,36.750305,0
197661990,197661811,3932170,0.023009712,0.18663433,0.4475176,36.848225,0
198658677,198658500,3932170,-0.25150895,0.004314321,0.62301993,36.897186,0
199660430,199660254,3932170,0.54509586,-0.064874604,0.35318846,36.848225,0
200660938,200660762,3932170,-0.058749337,0.44821003,-0.16117452,36.848225,0
201659143,201658961,3932170,-0.3064233,0.44501424,-0.02311624,36.848225,0
202659457,202659281,3932170,0.5400891,0.36112466,-0.30679616,36.897186,0
203661214,203661035,3932170,0.1357147,-0.13917682,0.14812502,36.848225,0
204661749,204661573,3932170,-0.4788364,1.0735203,0.19643478,36.701347,0
205658492,205658317,3932170,0.015180019,0.5945774,-0.08335695,36.848225,0
206660282,206660106,3932170,0.28581047,-1.2946692,0.14823157,36.701347,0
207660751,207660571,3932170,-0.38717037,0.2066613,0.3882889,36.750305,0
208662696,208662518,3932170,0.22929817,0.057417754,-0.14892398,36.897186,0
209659264,209659088,3932170,0.180296,0.46813047,-0.22461101,36.750305,0
210661025,210660843,3932170,0.31526503,-0.4814463,-0.08868326,36.946144,0
211661533,211661350,3932170,0.094595484,0.14982946,-0.03158509,36.848225,0
212658292,212658115,3932170,-0.26088327,0.27558392,0.036858153,36.750305,0
213660053,213659872,3932170,-0.4000068,-0.75154406,0.096033596,36.897186,0
214660557,214660378,3932170,-0.06599313,-0.21049626,0.41790327,36.897186,0
215661227,215661048,3932170,-0.021465078,-0.11558119,-0.13166669,36.701347,0
216659107,216658925,3932170,0.45864964,0.28277445,-0.06998788,36.750305,0
217660830,217660652,3932170,-0.22525017,-0.06775082,0.23286682,36.848225,0
218661338,218661161,3932170,-0.07360977,0.5770538,0.060720075,36.848225,0
219659629,219659449,3932170,0.10796455,0.34285536,-0.1438107,36.848225,0
220659854,220659679,3932170,-0.2066613,0.55553544,0.312229,36.750305,0
221661613,221661436,3932170,-0.066046394,-1.0826283,0.13459617,36.701347,0
222662161,222662011,3932170,-0.14847124,0.21185447,-0.33289513,36.848225,0
223658934,223658758,3932170,0.3506318,-0.118084565,-0.49785134,36.848225,0
224660645,224660462,3932170,0.026525084,-0.9238506,-0.15536883,36.897186,0
225661153,225660970,3932170,-0.20612867,-0.4428837,-0.3641074,37.093025,0
226659397,226659219,3932170,-0.1041296,-0.1433846,-0.061678812,36.946144,0
227659666,227659490,3932170,-0.14620754,0.37310886,-0.10162623,36.750305,0
228661423,228661246,3932170,-0.07131946,0.7778029,0.3337474,36.848225,0
229658250,229658070,3932170,-0.4651477,-0.7912784,-0.0034621095,36.946144,0
230659954,230659771,3932170,0.18668759,-0.41428134,-0.09267801,36.848225,0
231660454,231660275,3932170,-0.23835292,-0.1160073,0.035153728,36.750305,0
232660973,232660782,3932170,-0.19925772,-0.79490036,0.053902384,36.946144,0
233659219,233659042,3932170,-0.39931437,0.024341293,0.14839134,36.848225,0
234659490,234659303,3932170,-0.37880805,0.3054646,0.053316485,36.897186,0
235661235,235661059,3932170,-0.16831179,-0.8821455,0.29923278,36.701347,0
236661773,236661597,3932170,-0.24426514,0.88720554,0.10748518,36.750305,0
237659760,237659580,3932170,0.16980316,-0.35606465,0.06263755,36.701347,0
238660271,238660093,3932170,0.21837921,-0.06620619,0.10146644,36.897186,0
239662023,239661845,3932170,0.70877373,-1.019245,-0.2743056,36.848225,0
240658946,240658764,3932170,0.68485856,-0.035899412,0.06572682,36.701347,0
241659294,241659118,3932170,0.053795855,0.5529255,0.059388492,37.044064,0
242661062,242660886,3932170,0.16990969,0.09853696,-0.05864281,36.897186,0
243659145,243658965,3932170,0.54232615,0.54440343,-0.35926044,36.848225,0
244659573,244659396,3932170,-0.22008364,-0.5137238,-0.02514024,36.848225,0
245660086,245659906,3932170,1.0341054,-0.81982756,-0.13331784,36.897186,0
246661837,246661661,3932170,0.80326265,0.5249091,0.12767194,36.897186,0
247660026,247659844,3932170,0.2998187,0.092624746,-0.10950919,36.848225,0
248660367,248660184,3932170,-0.36016592,0.5703959,-0.2885269,36.848225,0
249660875,249660693,3932170,-0.11707257,-0.7662447,-0.040480047,36.848225,0
250658890,250658711,3932170,0.74557865,-0.73796195,-0.24256071,36.848225,0
254658482,254658331,3932170,-0.43263054,0.09700564,0.25346637,36.848225,0
255660219,255660043,3932170,-0.3358779,0.08703211,0.2695119,36.946144,0
256660691,256660514,3932170,-0.36362803,-0.549996,0.32581115,36.946144,0
257662452,257662271,3932170,0.33332124,-0.4427239,0.096939065,36.897186,0
258659451,258659271,3932170,-0.43798348,-0.27686223,0.3178749,36.750305,0
259660971,259660794,3932170,-0.24282703,-0.744247,0.07078683,36.848225,0
260661483,260661305,3932170,-0.024660872,1.014984,0.179284,36.848225,0
261659591,261659408,3932170,0.7637946,-0.0010652645,-0.0747283,36.897186,0
262660007,262659828,3932170,-0.3100985,-0.0036751623,-0.12990901,36.897186,0
263660512,263660336,3932170,0.033662356,-0.7008375,0.060933128,36.750305,0
264662280,264662100,3932170,0.32213596,0.54887754,-0.051931642,37.093025,0
265659245,265659059,3932170,0.2773416,-0.7441938,-0.08293083,36.848225,0
266660844,266660666,3932170,0.6164153,0.67942566,-0.21411815,37.093025,0
267661312,267661132,3932170,-0.45225805,-0.38434744,0.37625143,36.848225,0
268660648,268660464,3932170,-0.021198763,0.26493126,-0.16266587,36.848225,0
269659831,269659655,3932170,-0.26248118,-0.8171111,-0.04000068,36.848225,0
270660353,270660170,3932170,0.16543557,0.6630739,-0.04245079,36.946144,0
271662105,271661924,3932170,-0.009747171,-0.0026098979,-0.10146644,37.044064,0
272660276,272660096,3932170,0.021678133,0.2622681,0.043888897,37.044064,0
273660631,273660455,3932170,-0.013848438,0.05613944,0.102957815,36.603428,0
274661140,274660961,3932170,-0.08543421,-0.57614833,-0.08372978,37.093025,0
275659277,275659100,3932170,0.19169433,0.87399626,-0.024660872,36.897186,0
276659978,276659797,3932170,0.35766253,-0.96145445,-0.16554211,36.897186,0
277660297,277660121,3932170,0.06338324,0.21571605,0.124209836,37.093025,0
278658324,278658140,3932170,-0.09033443,0.3899933,0.10535466,36.946144,0
279660073,279659891,3932170,0.47164583,-0.84155893,0.17992318,36.897186,0
280660585,280660407,3932170,0.16783242,-1.1685951,-0.30860713,36.897186,0
281661095,281660918,3932170,-0.049907643,0.68821406,0.09901634,36.897186,0
282659118,282658934,3932170,-0.5435512,0.80113214,0.054115433,36.946144,0
283661156,283660952,3932170,-0.057257965,-0.73560953,-0.035064958,37.093025,0
284661378,284661204,3932170,0.13161343,-0.5417935,-0.048309747,36.848225,0
285661894,285661716,3932170,-0.005645902,-0.37017938,0.044528052,36.897186,0
286659921,286659739,3932170,-0.29555765,0.17779265,0.114782244,37.044064,0
287660419,287660244,3932170,-0.042024683,-0.0670584,0.07728494,36.946144,0
288660949,288660759,3932170,-0.39441416,-0.56890446,0.49801114,36.946144,0
289658959,289658779,3932170,-0.40176448,0.90531504,0.027057717,36.848225,0
290659581,290659404,3932170,-0.040320262,-0.7253386,-0.17694043,36.848225,0
291662472,291662292,3932170,-0.30887344,0.6653642,0.3768373,36.946144,0
292657991,292657814,3932170,-0.14689998,-0.16479641,0.16852483,36.897186,0
293659752,293659575,3932170,0.294013,-0.31521174,0.024074977,37.044064,0
294660535,294660355,3932170,0.32517198,-0.90936303,-0.15962988,37.044064,0
295660778,295660599,3932170,-0.17880465,0.5545767,0.3119627,37.093025,0
296658791,296658616,3932170,0.20948426,0.48267132,-0.03520699,36.848225,0
297660633,297660452,3932170,0.124795735,1.1052651,0.061252706,36.848225,0
298661071,298660889,3932170,0.17662086,-0.751118,-0.006231797,36.897186,0
299661579,299661402,3932170,-0.63740104,-0.33300167,0.08894958,37.141983,0
300659602,300659423,3932170,0.21262679,0.8534899,0.06711166,37.141983,0
301661565,301661412,3932170,0.17437048,0.0904809,-0.20120183,36.946144,0
302661872,302661694,3932170,0.41252366,-0.14535533,-0.699719,36.946144,0
303658643,303658465,3932170,-0.17773938,0.08106662,-1.2366122,37.093025,0
304661735,304661557,3932170,0.1979794,-0.3042928,-1.1371698,37.044064,0
305660916,305660739,3932170,0.5594236,-0.2388323,-0.3700196,37.044064,0
306661432,306661253,3932170,0.25246766,-0.65678877,-0.080853574,36.946144,0
307659465,307659272,3932170,0.0757403,-1.5322231,0.0046871635,36.946144,0
308660161,308659982,3932170,-0.21007015,0.20330572,0.3904727,36.897186,0
309661726,309661547,3932170,0.032810148,0.13060142,-0.20192088,36.946144,0
310658501,310658318,3932170,0.08069378,0.9024388,-0.015393071,36.946144,0
311660322,311660146,3932170,0.011398329,0.66813385,-0.075580515,37.141983,0
312660770,312660594,3932170,-0.30999196,0.69311434,0.033396043,37.093025,0
313661286,313661108,3932170,0.03882889,-0.74009246,0.2782471,37.141983,0
314659304,314659128,3932170,-0.91607416,-0.4362791,0.28575718,37.141983,0
315660034,315659855,3932170,0.29571742,0.7440872,-0.10391655,37.044064,0
316661580,316661405,3932170,0.06695187,0.30621028,-0.15920377,36.946144,0
317659606,317659425,3932170,0.3309244,1.0338391,-0.23371904,37.044064,0
318660208,318660022,3932170,0.1304949,0.17044231,-0.13550164,37.239902,0
319660638,319660456,3932170,-0.41550642,-0.22210763,-0.010386328,37.044064,0
320662396,320662220,3932170,0.30360037,0.60075593,-0.14476945,37.093025,0
321659172,321658994,3932170,-0.4159325,-0.4023504,0.0018642128,36.897186,0
322661137,322660950,3932170,-0.30871364,-0.59660137,0.15393071,37.239902,0
323661445,323661270,3932170,-0.3339604,1.1271563,0.095767274,37.093025,0
324659467,324659291,3932170,-0.89151984,0.16016252,-0.12112057,37.093025,0
325660026,325659843,3932170,-0.43356264,0.30828753,0.28756815,37.093025,0
326660501,326660325,3932170,0.6227536,-0.75053203,0.036218993,37.093025,0
327658529,327658346,3932170,-0.08894958,0.8845424,0.012090752,36.946144,0
328659049,328658865,3932170,0.62030345,-0.26913908,-0.2273807,37.093025,0
329660894,329660709,3932170,-0.17811221,-0.5294364,-0.07648599,37.141983,0
330661319,330661139,3932170,0.22429143,0.6346313,0.00314253,37.141983,0
331659338,331659160,3932170,0.30631682,0.1475924,-0.08713864,37.141983,0
332659860,332659680,3932170,-0.21917816,-0.5340703,-0.015020229,37.141983,0
333660622,333660441,3932170,0.07515441,-0.07797737,-0.093903065,36.946144,0
334662138,334661958,3932170,-0.05267733,-0.0664725,-0.082025364,37.239902,0
335660168,335659991,3932170,0.27174896,0.92326474,-0.13928333,37.044064,0
336660756,336660580,3932170,0.0034088462,0.8293616,0.091186635,37.044064,0
337661188,337661013,3932170,-0.63670856,0.3571832,0.2644519,37.093025,0
338659212,338659035,3932170,0.30152312,0.14897723,0.011451593,37.093025,0
339659730,339659553,3932170,0.14311829,-0.5201154,-0.0025033716,37.093025,0
340661682,340661528,3932170,-1.0546118,0.937699,-0.025632925,37.044064,0
341662020,341661836,3932170,-0.42173818,-0.8386294,-0.19675434,37.141983,0
342660034,342659856,3932170,0.43819654,-0.23105587,0.3850931,37.141983,0
343660689,343660509,3932170,0.22370553,0.8143414,-0.18184064,37.093025,0
344661071,344660892,3932170,0.18684739,-0.41673148,-0.08149273,37.239902,0
345659101,345658919,3932170,0.30823427,0.30013826,-0.05842976,36.946144,0
346659609,346659430,3932170,-0.16096146,-0.04841627,0.15856463,37.044064,0
347661603,347661420,3932170,-0.024554348,1.0139186,-0.18136127,37.239902,0
348659401,348659218,3932170,-0.13198626,-0.48032773,0.19776635,37.093025,0
349659914,349659736,3932170,-0.14077471,-0.24703483,0.37662426,37.093025,0
350660437,350660258,3932170,0.18572886,0.5522864,-0.13901702,37.093025,0
351660954,351660772,3932170,0.06530071,-0.62807995,-0.09033443,37.093025,0
352658988,352658809,3932170,-0.08106662,-0.1719337,-0.35057855,37.044064,0
353660748,353660559,3932170,-0.0839961,0.4337757,0.050813116,37.093025,0
354661398,354661220,3932170,-0.70099723,0.37896782,-0.01832255,37.141983,0
355663021,355662843,3932170,-0.20719394,0.33113745,0.0644485,37.093025,0
356659796,356659618,3932170,-0.26535738,-0.3708718,0.12671322,37.093025,0
357661565,357661383,3932170,0.38780954,-0.8188155,-0.05219796,37.044064,0
358658368,358658188,3932170,-0.62578964,0.15856463,0.20186761,37.141983,0
359658863,359658676,3932170,-0.4420315,-0.11275824,0.2560363,37.239902,0
360660621,360660443,3932170,0.5208611,0.32192293,-0.2810168,37.093025,0
361661251,361661063,3932170,-0.5655489,0.6385195,0.018056232,37.141983,0
362661659,362661479,3932170,-0.2434662,-0.1635181,0.04479437,37.239902,0
363659680,363659503,3932170,-0.05491438,0.83543366,0.19499665,37.28886,0
364660213,364660022,3932170,-0.14626081,-0.2848517,-0.0964597,37.093025,0
365660999,365660813,3932170,0.3087669,-0.6349509,-0.17150758,37.093025,0
366659988,366659808,3932170,0.05550028,0.6632337,0.17566212,37.239902,0
367660504,367660328,3932170,-0.4192881,0.6498113,-0.24394555,37.044064,0
368662351,368662164,3932170,-0.5703959,0.9895774,-0.021038974,36.946144,0
369661547,369661372,3932170,-0.58909124,0.15877767,-0.08926916,37.28886,0
370659571,370659387,3932170,0.078190416,0.6915697,-0.1272991,37.141983,0
371661345,371661157,3932170,0.7600129,-0.22860576,0.04479437,37.239902,0
372662076,372661891,3932170,0.7413176,0.021252027,-0.2308428,37.239902,0
373658625,373658448,3932170,0.11451593,-0.23547672,-0.29870015,36.946144,0
374660396,374660215,3932170,0.54866445,-0.6941796,-0.10381003,37.093025,0
375661018,375660842,3932170,0.061039653,0.68176925,-0.24043019,37.239902,0
376660181,376660004,3932170,-0.26956517,-0.06013418,0.12463594,37.093025,0
377659451,377659275,3932170,-0.10855045,0.08937569,-0.32373387,37.141983,0
378661220,378661043,3932170,-0.4055462,0.8137556,0.4213121,37.141983,0
379658216,379658035,3932170,0.17166738,-0.82877576,0.24836642,37.141983,0
380658513,380658337,3932170,0.21401164,-0.58024955,-0.08996159,37.141983,0
381660289,381660107,3932170,-0.5347095,0.7326356,0.10780477,37.141983,0
382660800,382660623,3932170,-0.0015978967,0.27686223,0.031798143,37.239902,0
383662565,383662389,3932170,0.22391859,-0.45199174,-0.13693975,37.141983,0
384659345,384659166,3932170,-0.21065605,-0.5093562,0.010759171,37.28886,0
385659862,385659686,3932170,0.4101801,-0.7742875,-0.06897587,37.141983,0
386661935,386661714,3932170,-0.30968127,0.14856002,0.090014845,37.141983,0
387658405,387658229,3932170,-0.4003264,0.19680761,0.3635215,37.239902,0
388660179,388659999,3932170,0.09092032,0.021571605,0.06657903,37.044064,0
389660722,389660538,3932170,0.21236047,0.24580978,0.7042996,37.044064,0
390661226,390661041,3932170,0.3426423,-0.06460829,1.0505638,37.141983,0
391659238,391659061,3932170,0.020346552,-0.24501082,0.21630195,37.38678,0
392658515,392658332,3932170,0.06572682,-0.690824,0.20980383,37.141983,0
393661717,393661532,3932170,-0.06593987,-0.9948505,-0.17955032,37.141983,0
394659550,394659373,3932170,0.12101404,-0.22269353,-0.24218789,37.239902,0
395660069,395659891,3932170,-0.23973776,0.83010733,0.19718045,37.28886,0
396661845,396661666,3932170,-0.34445328,0.16740632,0.0094808545,37.141983,0
397659884,397659708,3932170,0.34685013,-0.36666405,0.027537087,37.28886,0
398659137,398658954,3932170,-0.3167564,1.182923,0.29406628,37.38678,0
399660899,399660724,3932170,0.12825784,-0.3396063,-0.08564726,37.239902,0
400661525,400661344,3932170,-0.35776907,0.20293288,-0.2773416,37.141983,0
401659447,401659270,3932170,0.07643273,0.46860984,-0.07595336,37.141983,0
402659974,402659790,3932170,0.26264095,-0.8888567,-0.015073493,37.239902,0
403660492,403660316,3932170,-0.49332398,0.7278419,0.33752906,37.141983,0
404658766,404658590,3932170,0.6511961,0.36565202,0.093903065,37.239902,0
405659038,405658862,3932170,0.14785871,-0.16389094,-0.22775355,37.28886,0
406660802,406660625,3932170,0.10594056,-0.41747713,0.06721819,37.141983,0
407658894,407658715,3932170,-1.0187124,-0.27073696,0.18104169,37.141983,0
408659347,408659171,3932170,0.3045591,-0.6559898,0.04873585,37.141983,0
409659890,409659707,3932170,0.43611926,0.70424634,-0.17102821,37.4847,0
410659148,410658965,3932170,0.5311941,-0.7435546,0.024234766,37.239902,0
411662373,411662194,3932170,0.92550176,-0.18647455,-0.10769823,36.946144,0
412658936,412658758,3932170,0.13156016,0.7059508,0.29454562,37.141983,0
413660706,413660527,3932170,-0.34232274,0.10594056,-0.7025952,37.239902,0
414661268,414661089,3932170,-0.32069787,0.009693907,-1.2588763,37.141983,0
415659256,415659074,3932170,0.83016056,0.5045625,-0.20570257,37.28886,0
416659780,416659599,3932170,0.41428134,-0.31771514,-0.11909657,37.141983,0
417661550,417661367,3932170,0.08878979,-0.29017803,0.0064981133,37.141983,0
418662235,418662055,3932170,0.08527442,-0.01155812,-0.10535466,37.43574,0
419660093,419659916,3932170,-0.112438664,0.08996159,0.051612064,37.239902,0
420660613,420660434,3932170,-0.1077515,0.1737979,0.017789917,37.28886,0
421661181,421661002,3932170,-0.03009372,0.26652917,-0.04756406,37.141983,0
422660453,422660275,3932170,-0.2601376,0.7329552,0.09161274,37.4847,0
423659676,423659500,3932170,-0.095554225,0.087671265,0.82893556,37.28886,0
424661445,424661269,3932170,-0.14604776,-0.7309845,0.3761449,37.4847,0
429659059,429658883,3932170,0.03888215,-0.63910544,-0.059601545,37.141983,0
430659584,430659406,3932170,-0.05837649,-0.9695505,-0.84134585,37.141983,0
431661360,431661175,3932170,0.074888095,-0.19915119,-0.7127685,37.38678,0
432663278,432663102,3932170,0.85503453,0.6735135,-0.13944313,37.38678,0
433659901,433659723,3932170,-0.104822025,-0.75681716,-0.108710244,37.38678,0
434660434,434660245,3932170,-0.52160674,-0.91223925,0.18114823,36.946144,0
435662195,435662014,3932170,-0.2611496,-0.411778,-0.10567424,37.28886,0
436658982,436658796,3932170,0.44267067,-0.4058125,0.009001484,37.239902,0
437660738,437660562,3932170,0.1989914,0.79628515,-0.1894573,37.38678,0
438661266,438661085,3932170,-0.0065513765,0.49055427,0.27601004,37.38678,0
439661862,439661680,3932170,0.34807515,0.4882107,0.119522676,37.141983,0
440659810,440659632,3932170,0.34988612,-1.0925353,0.023861924,37.28886,0
441660331,441660155,3932170,-0.11435614,-0.5072789,-0.042663842,37.28886,0
442662103,442661925,3932170,-0.22727418,1.2992498,0.10828413,37.239902,0
443659137,443658959,3932170,-0.22338596,-0.8850217,-0.07451525,37.38678,0
444659404,444659227,3932170,-0.026045717,0.8000136,0.06455503,37.38678,0
445661177,445660997,3932170,-0.1206412,0.6201437,0.039254997,37.43574,0
446661738,446661560,3932170,-0.5564942,0.89322424,0.24756747,37.43574,0
447659724,447659545,3932170,0.114782244,-1.0555706,-0.25300032,37.38678,0
448660255,448660067,3932170,0.080747046,-0.81199783,-0.08032094,37.239902,0
449662020,449661837,3932170,-0.046871636,0.27180225,0.25539714,37.38678,0
450659014,450658828,3932170,0.05235775,-0.15909725,-0.21241374,37.239902,0
451660565,451660387,3932170,0.765286,-0.20501015,-0.30013826,37.38678,0
452661096,452660915,3932170,-0.778442,-0.20490362,0.031052459,37.141983,0
453661703,453661509,3932170,0.8621185,0.14231934,0.13347764,37.38678,0
454659639,454659461,3932170,-0.5025918,0.62435156,0.27089676,37.38678,0
455660161,455659982,3932170,0.026897928,0.7190535,0.385679,37.58262,0
456661953,456661757,3932170,-0.10540792,-0.24426514,-0.07302388,37.141983,0
457658894,457658715,3932170,-0.23648871,-0.6247243,-0.12495553,37.28886,0
458660481,458660302,3932170,0.27334687,0.2027731,-0.23558325,37.141983,0
459661003,459660825,3932170,-0.0020772656,-0.90531504,0.3066364,37.38678,0
460659040,460658862,3932170,-0.008681906,0.12740563,-0.16367789,37.38678,0
461660798,461660623,3932170,0.14183997,-0.033129726,-0.052304488,37.239902,0
462660075,462659898,3932170,0.25353295,-0.6544985,0.0366451,37.38678,0
463661848,463661669,3932170,0.34706318,-0.16138756,-0.10407634,37.141983,0
464658775,464658595,3932170,-0.2253567,-0.17939055,0.0018109496,37.28886,0
465660395,465660219,3932170,-0.053476278,-0.008149273,-0.12128036,37.38678,0
466660929,466660742,3932170,0.22759376,-0.13358417,0.37310886,37.38678,0
467661502,467661326,3932170,-0.18093517,-0.76331526,0.1978196,37.38678,0
468659483,468659299,3932170,0.1514806,0.23473103,-0.015819177,37.239902,0
469659998,469659818,3932170,0.19792613,-0.1280448,-0.06269082,37.093025,0
470661761,470661585,3932170,-0.14812502,0.38780954,0.1351288,37.43574,0
471658691,471658512,3932170,-0.07914915,0.16080166,-0.028389297,37.239902,0
472660321,472660140,3932170,0.56490976,-0.38472027,-0.27760792,37.141983,0
473660839,473660659,3932170,0.17875138,0.06269082,-0.22498386,37.044064,0
474658886,474658710,3932170,-0.1144094,-0.27079022,-0.06881608,37.28886,0
475659666,475659487,3932170,-0.07893609,-0.20042951,0.1645301,37.141983,0
476659915,476659733,3932170,0.17097494,-0.04974785,-0.10018813,37.239902,0
477661688,477661511,3932170,0.14524882,-0.30216226,-0.04873585,37.38678,0
478658541,478658363,3932170,-0.14748587,0.0076699043,0.41891524,37.43574,0
479660236,479660055,3932170,0.30477217,-0.22104238,-0.14652713,37.43574,0
480660774,480660599,3932170,0.07542073,0.03158509,0.18210696,37.141983,0
481662526,481662349,3932170,0.3841876,-0.72986597,0.22205438,37.38678,0
482659513,482659362,3932170,-0.26012427,-0.14614096,0.051931642,37.28886,0
483659832,483659652,3932170,-0.9790846,0.43441486,0.10966898,37.141983,0
484661650,484661474,3932170,0.000106526444,0.020399814,0.017523602,37.38678,0
485659732,485659551,3932170,-0.018855182,-0.048948903,-0.029667616,37.28886,0
486660198,486660015,3932170,0.07440872,0.056991648,0.0505468,37.28886,0
487660680,487660497,3932170,-0.11052119,-0.03009372,-0.05400891,37.38678,0
