timestamp,time_utc_usec,lat,lon,alt,alt_ellipsoid,s_variance_m_s,c_variance_rad,eph,epv,hdop,vdop,noise_per_ms,jamming_indicator,vel_m_s,vel_n_m_s,vel_e_m_s,vel_d_m_s,cog_rad,timestamp_time_relative,heading,heading_offset,fix_type,vel_ned_valid,satellites_used
119471020,1630027502600173,340337069,1087637285,440011,412108,0.22500001,0.78582394,1.019,1.8960001,0.65999997,1.24,109,11,0.023000002,-0.016,0.017,-0.024,2.3634186,0,nan,0.0,3,1,17
119671942,1630027502800173,340337069,1087637286,439939,412036,0.24400002,0.7858326,0.98700005,1.835,0.65999997,1.24,109,11,0.029000001,-0.021000002,0.020000001,0.047000002,2.3634186,0,nan,0.0,3,1,17
120473051,1630027503600173,340337082,1087637288,439279,411375,0.27,0.7858673,0.92,1.7030001,0.65999997,1.24,109,12,0.056,-0.049000002,-0.026,-0.049000002,2.3634186,0,nan,0.0,3,1,17
121662980,1630027504800173,340337099,1087637293,438548,410645,0.25500003,0.7859261,0.84900004,1.5530001,0.78,1.5899999,86,8,0.023000002,0.021000002,-0.008,-0.026,2.3634186,0,nan,0.0,3,1,15
122660046,1630027505800174,340337091,1087637298,437940,410037,0.17400001,0.70998734,0.82600003,1.514,0.78,1.5899999,86,10,0.24000001,-0.003,0.24000001,-0.015000001,1.9346648,0,nan,0.0,3,1,15
123661036,1630027506800174,340337088,1087637312,437449,409545,0.21000001,0.71003014,0.80600005,1.47,0.78,1.5899999,86,9,0.115,0.093,-0.068,0.058000002,1.9346648,0,nan,0.0,3,1,15
124659452,1630027507800175,340337102,1087637324,437082,409178,0.28300002,0.73810756,0.78900003,1.437,0.85999995,1.87,87,3,0.085,0.071,-0.046000004,-0.41900003,1.2024391,0,nan,0.0,3,1,14
125664973,1630027508800175,340337072,1087637307,438093,410190,0.326,0.38504717,0.76900005,1.411,0.71,1.4599999,87,4,0.46500003,-0.46400002,-0.035,-1.325,3.2865603,0,nan,0.0,3,1,16
126664000,1630027509800175,340337052,1087637327,438038,410135,0.284,0.72038233,0.75200003,1.3850001,0.71,1.4599999,87,3,0.16000001,-0.13100001,0.093,0.47800002,2.910751,0,nan,0.0,3,1,16
127659946,1630027510800176,340337073,1087637343,437390,409486,0.22900002,0.73184794,0.735,1.363,0.71,1.4599999,93,3,0.177,0.11800001,-0.132,0.158,1.8140304,0,nan,0.0,3,1,16
128661952,1630027511800176,340337076,1087637331,437070,409167,0.14,0.7318884,0.726,1.348,0.65,1.16,93,2,0.128,-0.042000003,-0.12100001,0.043,1.8140304,0,nan,0.0,3,1,16
129658993,1630027512800176,340337079,1087637326,436882,408979,0.17,0.7319221,0.712,1.33,0.65,1.16,93,4,0.062000003,-0.059000004,-0.018000001,0.032,1.8140304,0,nan,0.0,3,1,16
130659943,1630027513800177,340337081,1087637324,436551,408648,0.20500001,0.7319598,0.707,1.3180001,0.66999996,1.15,99,3,0.120000005,-0.018000001,-0.119,-0.016,1.8140304,0,nan,0.0,3,1,15
131661944,1630027514800177,340337097,1087637330,436072,408168,0.21700001,0.73199093,0.69900006,1.3060001,0.85999995,1.87,99,3,0.17500001,-0.075,-0.158,-0.058000002,1.8140304,0,nan,0.0,3,1,14
132661948,1630027515800178,340337102,1087637332,435734,407830,0.17400001,0.73202527,0.70400006,1.3280001,0.85999995,1.87,99,3,0.142,-0.120000005,-0.07700001,0.057000004,1.8140304,0,nan,0.0,3,1,14
133663219,1630027516800178,340337095,1087637325,435405,407502,0.165,0.7155263,0.711,1.3540001,0.85999995,1.87,99,3,0.18800001,-0.054,-0.18,0.091000006,2.8087187,0,nan,0.0,3,1,14
134664008,1630027517800178,340337084,1087637344,435069,407166,0.158,0.31634632,0.712,1.3720001,0.85999995,1.87,99,3,0.57500005,-0.21100001,0.535,-0.060000002,2.1326935,0,nan,0.0,3,1,14
135662947,1630027518800179,340337077,1087637424,434607,406703,0.185,0.57241786,0.702,1.3640001,0.79999995,1.53,99,3,0.11400001,0.068,0.091000006,0.007,1.8592826,0,nan,0.0,3,1,15
136468938,1630027519600179,340337075,1087637453,434405,406502,0.16900001,0.36036944,0.69600004,1.3560001,0.78,1.5899999,99,3,0.53000003,-0.080000006,0.52400005,0.069000006,1.7905774,0,nan,0.0,3,1,15
137663238,1630027520800179,340337059,1087637518,434759,406855,0.155,0.28310183,0.69000006,1.3360001,0.72999996,1.3199999,88,2,0.69600004,-0.31300002,0.62100005,-0.13800001,1.9307336,0,nan,0.0,3,1,16
138472994,1630027521600180,340337048,1087637540,435292,407389,0.17300001,0.7252735,0.74,1.4310001,0.65,1.14,88,4,0.124000005,0.017,0.123,-0.091000006,1.6928236,0,nan,0.0,3,1,16
139472948,1630027522600180,340337066,1087637542,435763,407860,0.21800001,0.72531605,0.78900003,1.521,0.78,1.5899999,88,3,0.105000004,0.025,0.102000006,-0.143,1.6928236,0,nan,0.0,3,1,15
140472941,1630027523600180,340337029,1087637546,435874,407970,0.19900002,0.12429275,0.67,1.2870001,0.79999995,1.62,94,5,1.195,-1.192,-0.09,-0.24800001,3.1968274,0,nan,0.0,3,1,14
141663944,1630027524800181,340336902,1087637530,436384,408481,0.224,0.12676081,0.66300005,1.2720001,0.7,1.1999999,94,4,1.1860001,-1.176,-0.15100001,-0.34600002,3.2775683,0,nan,0.0,3,1,14
142471837,1630027525600181,340336826,1087637525,436455,408552,0.208,0.11869339,0.66200006,1.2650001,0.90999997,2.08,94,8,1.2620001,-1.2550001,-0.14,-0.16800001,3.260039,0,nan,0.0,3,1,12
143466957,1630027526600182,340336715,1087637525,436191,408288,0.19600001,0.18220662,0.66300005,1.2780001,0.90999997,2.08,95,4,0.89400005,-0.89400005,0.007,0.023000002,3.1605155,0,nan,0.0,3,1,12
144470971,1630027527600182,340336707,1087637538,436048,408144,0.30800003,0.5481955,0.66,1.2720001,0.78,1.5899999,95,4,0.108,-0.083000004,-0.069000006,-0.18900001,3.0705352,0,nan,0.0,3,1,15
145463986,1630027528600182,340336657,1087637541,435793,407890,0.157,0.15557726,0.65800005,1.269,0.83,1.63,95,5,0.947,-0.9250001,-0.202,0.178,3.3208106,0,nan,0.0,3,1,13
146663294,1630027529800183,340336641,1087637537,435435,407532,0.15900001,0.5566714,0.656,1.263,0.79999995,1.62,95,8,0.26500002,-0.259,-0.056,0.024,3.373928,0,nan,0.0,3,1,14
147659290,1630027530800183,340336564,1087637521,435449,407545,0.21100001,0.13235843,0.657,1.2700001,0.85999995,1.87,112,9,1.133,-1.1190001,-0.18200001,-0.202,3.3275602,0,nan,0.0,3,1,14
148656199,1630027531800183,340336487,1087637491,435392,407488,0.21100001,0.1287936,0.65500003,1.271,0.79999995,1.5899999,111,9,1.1750001,-1.1290001,-0.32700002,-0.125,3.462963,0,nan,0.0,3,1,14
149654549,1630027532800184,340336403,1087637477,435166,407262,0.16600001,0.18987104,0.65500003,1.268,0.78,1.5899999,111,8,0.757,-0.75500005,-0.061000004,0.069000006,3.2362573,0,nan,0.0,3,1,15
150653983,1630027533800184,340336281,1087637456,434999,407096,0.2,0.08093685,0.657,1.2720001,0.79999995,1.5899999,111,5,1.9080001,-1.8320001,-0.531,-0.007,3.3902383,0,nan,0.0,3,1,14
151655255,1630027534800185,340336189,1087637436,435001,407097,0.24900001,0.50110126,0.671,1.3100001,0.88,1.9,111,3,0.15100001,-0.15,0.020000001,-0.022000002,3.2876368,0,nan,0.0,3,1,13
152664407,1630027535800185,340336170,1087637438,434969,407066,0.19500001,0.2726548,0.68100005,1.3390001,0.79999995,1.5899999,111,4,0.67200005,-0.619,0.26000002,0.059000004,2.7994168,0,nan,0.0,3,1,14
153662198,1630027536800185,340336044,1087637478,434481,406577,0.21200001,0.10133276,0.68600005,1.3510001,0.79999995,1.5899999,104,6,1.6300001,-1.626,0.123,0.041,3.0384994,0,nan,0.0,3,1,14
154655948,1630027537800186,340335929,1087637475,435117,407214,0.24000001,0.13791487,0.85700005,1.6880001,0.78,1.5899999,104,5,1.143,-1.143,0.022000002,-0.27600002,3.0929127,0,nan,0.0,3,1,15
155659947,1630027538800186,340335810,1087637504,434827,406924,0.22000001,0.10266498,0.697,1.371,0.83,1.63,104,7,1.562,-1.5450001,0.22800002,-0.26700002,3.0127034,0,nan,0.0,3,1,13
156659092,1630027539800186,340335666,1087637534,434763,406860,0.254,0.09184899,0.70400006,1.381,0.83,1.63,104,5,1.7010001,-1.6890001,0.20400001,-0.712,3.0144851,0,nan,0.0,3,1,13
157657946,1630027540800187,340335527,1087637564,434756,406852,0.23,0.111282535,0.70100003,1.366,0.79999995,1.62,104,4,1.4810001,-1.475,0.13800001,-0.432,3.0337877,0,nan,0.0,3,1,14
158667047,1630027541800187,340335401,1087637581,435160,407257,0.21000001,0.10857605,0.694,1.3470001,0.66999996,1.16,104,4,1.4150001,-1.4130001,0.089,-0.44200003,3.0729444,0,nan,0.0,3,1,15
159663945,1630027542800188,340335312,1087637613,435220,407317,0.273,0.22594753,0.68600005,1.3340001,0.83,1.63,111,5,0.74700004,-0.70900005,0.23300001,-0.36400002,2.8297036,0,nan,0.0,3,1,13
160658991,1630027543800188,340335243,1087637637,435472,407569,0.30200002,0.4147899,0.684,1.3240001,0.83,1.63,111,4,0.38500002,-0.377,0.081,-0.455,3.0001895,0,nan,0.0,3,1,13
161472944,1630027544600188,340335219,1087637634,435908,408005,0.178,0.4084674,0.67800003,1.3080001,0.65,1.0699999,111,7,0.141,-0.116000004,0.080000006,0.064,2.9159975,0,nan,0.0,3,1,16
162661003,1630027545800189,340335195,1087637611,436654,408750,0.19700001,0.408558,0.683,1.3160001,0.63,1.06,111,8,0.126,0.065000005,-0.108,-0.086,2.9159975,0,nan,0.0,3,1,17
163663938,1630027546800189,340335202,1087637604,436788,408885,0.16100001,0.7177727,0.65900004,1.273,0.79999995,1.62,110,5,0.19700001,0.19600001,-0.020000001,-0.069000006,1.0034808,0,nan,0.0,3,1,14
164656198,1630027547800189,340335203,1087637599,437057,409154,0.18800001,0.75629497,0.657,1.276,0.66999996,1.16,110,9,0.067,-0.059000004,0.032,-0.006,0.4959941,0,nan,0.0,3,1,15
165660952,1630027548800190,340335135,1087637600,436885,408982,0.172,0.18261169,0.65400004,1.271,0.65,1.0699999,110,5,0.771,-0.771,-0.026,0.19100001,3.1520555,0,nan,0.0,3,1,16
166467253,1630027549600190,340335132,1087637602,436529,408625,0.22000001,0.37534788,0.65000004,1.261,0.79999995,1.62,110,5,0.35700002,0.35500002,-0.039,0.119,3.731134,0,nan,0.0,3,1,14
167664372,1630027550800191,340335142,1087637603,436071,408167,0.26700002,0.37547877,0.64900005,1.2590001,0.66999996,1.16,110,5,0.043,0.009000001,-0.042000003,0.12900001,3.731134,0,nan,0.0,3,1,15
168662248,1630027551800191,340335135,1087637597,435703,407800,0.26700002,0.37561193,0.652,1.2620001,0.66999996,1.16,110,10,0.027,-0.027,-0.003,0.135,3.731134,0,nan,0.0,3,1,15
169657954,1630027552800191,340335126,1087637590,435476,407573,0.30800003,0.37572607,0.646,1.2440001,0.66999996,1.16,110,10,0.082,0.074,0.037,0.316,3.731134,0,nan,0.0,3,1,15
170659034,1630027553800192,340335109,1087637593,435441,407538,0.296,0.37583676,0.646,1.241,0.71,1.17,110,9,0.119,-0.038000003,0.113000005,0.35300002,3.731134,0,nan,0.0,3,1,14
171463025,1630027554600192,340335094,1087637597,435701,407798,0.19900002,0.7234749,0.65500003,1.2520001,0.65,1.0699999,110,10,0.275,-0.25800002,0.097,0.036000002,3.7110543,0,nan,0.0,3,1,16
172659146,1630027555800192,340334987,1087637597,436217,408314,0.231,0.24668011,0.656,1.243,0.65,1.06,110,9,0.702,-0.698,0.078,0.039,3.0609581,0,nan,0.0,3,1,16
173655335,1630027556800193,340334921,1087637604,436188,408285,0.21000001,0.18435144,0.665,1.25,0.81,1.5999999,110,7,0.855,-0.855,-0.021000002,0.027,3.142507,0,nan,0.0,3,1,14
174463942,1630027557600193,340334854,1087637603,436397,408494,0.24800001,0.30375624,0.669,1.2570001,0.66999996,1.14,109,5,0.56600004,-0.56600004,-0.007,-0.031000001,3.1158683,0,nan,0.0,3,1,15
175660939,1630027558800193,340334797,1087637608,436401,408498,0.252,0.5885571,0.68500006,1.271,0.68,1.18,109,4,0.30800003,-0.307,-0.017,0.123,3.1639621,0,nan,0.0,3,1,15
176650526,1630027559800194,340334760,1087637614,436610,408707,0.28100002,0.18932423,0.702,1.284,0.68,1.18,109,4,0.934,-0.934,0.015000001,-0.10700001,3.0874293,0,nan,0.0,3,1,15
177659981,1630027560800194,340334675,1087637621,437202,409298,0.34600002,0.33255258,0.77000004,1.391,0.7,1.22,109,5,0.73600006,-0.725,0.127,-0.40100002,3.0455122,0,nan,0.0,3,1,14
178663941,1630027561800195,340334596,1087637625,437633,409730,0.317,0.17340283,0.85800004,1.5220001,0.68,1.1899999,109,5,0.97700006,-0.96300006,-0.16700001,-0.29000002,3.256033,0,nan,0.0,3,1,15
179663088,1630027562800195,340334483,1087637618,437715,409812,0.273,0.11698488,0.75900006,1.3440001,0.76,1.66,109,5,1.559,-1.5550001,-0.108,-0.25500003,3.187039,0,nan,0.0,3,1,14
180666189,1630027563800195,340334326,1087637626,438056,410153,0.321,0.14789553,0.76600003,1.3690001,0.79999995,1.7199999,109,7,1.5300001,-1.5280001,-0.09200001,-0.48000002,3.1629808,0,nan,0.0,3,1,13
181657227,1630027564800196,340334172,1087637634,438406,410503,0.36,0.13906957,0.786,1.4590001,0.79999995,1.7199999,109,5,1.3570001,-1.3570001,0.021000002,-0.36800003,3.1175218,0,nan,0.0,3,1,13
182461024,1630027565600196,340334066,1087637636,438555,410652,0.349,0.16628397,0.809,1.5370001,0.77,1.4599999,109,6,1.2140001,-1.2040001,0.15100001,-0.35700002,3.0746934,0,nan,0.0,3,1,14
183661140,1630027566800196,340333951,1087637635,438638,410734,0.356,0.34925693,0.82100004,1.5830001,0.77,1.4599999,109,10,0.48600003,-0.48600003,0.0050000004,-0.53800005,3.1313984,0,nan,0.0,3,1,14
184661230,1630027567800197,340333888,1087637629,439110,411207,0.326,0.22332849,0.81000006,1.575,0.79999995,1.7199999,109,10,0.693,-0.671,-0.17500001,-0.62,3.27055,0,nan,0.0,3,1,13
185659972,1630027568800197,340333793,1087637622,438877,410973,0.231,0.15260339,0.795,1.536,0.79999995,1.7199999,109,6,1.0660001,-1.057,-0.13700001,0.081,3.23627,0,nan,0.0,3,1,13
186662946,1630027569800198,340333732,1087637622,438511,410607,0.261,0.2171872,0.78800005,1.5170001,0.71999997,1.17,109,5,0.66400003,-0.66,-0.072000004,-0.11400001,3.2232606,0,nan,0.0,3,1,15
187663000,1630027570800198,340333665,1087637623,438330,410427,0.23600002,0.25777623,0.78000003,1.4810001,0.77,1.4599999,109,6,0.601,-0.59800005,-0.051000003,-0.058000002,3.2162433,0,nan,0.0,3,1,14
188660017,1630027571800198,340333572,1087637627,438326,410422,0.22700001,0.18062621,0.77500004,1.47,0.71999997,1.17,109,10,0.90400004,-0.90200007,0.069000006,0.08800001,3.098111,0,nan,0.0,3,1,15
189467993,1630027572600199,340333546,1087637630,437840,409936,0.19100001,0.23429771,0.763,1.46,0.71999997,1.17,109,9,0.596,-0.58900005,0.093,0.162,2.9797294,0,nan,0.0,3,1,15
190667357,1630027573800199,340333444,1087637639,437868,409965,0.223,0.17182241,0.757,1.4480001,0.71999997,1.17,109,9,1.0500001,-1.049,0.016,-0.063,3.092353,0,nan,0.0,3,1,15
191460020,1630027574600199,340333354,1087637640,438159,410256,0.26200002,0.1154818,0.748,1.429,0.75,1.3299999,109,16,1.2160001,-1.212,0.1,-0.21000001,3.0792627,0,nan,0.0,3,1,14
192665994,1630027575800200,340333244,1087637651,438018,410115,0.209,0.14761871,0.74300003,1.417,0.71999997,1.17,109,8,1.074,-1.064,0.148,0.192,3.0183396,0,nan,0.0,3,1,15
193472945,1630027576600200,340333190,1087637652,438278,410375,0.187,0.23269375,0.73300004,1.393,0.71999997,1.17,92,13,0.605,-0.59900004,0.085,0.08800001,3.036254,0,nan,0.0,3,1,15
194471964,1630027577600200,340333124,1087637649,437782,409879,0.179,0.16779175,0.72300005,1.3750001,0.77,1.4599999,92,10,0.85800004,-0.85600007,-0.061000004,0.367,3.1907012,0,nan,0.0,3,1,14
195474328,1630027578600201,340333073,1087637648,437457,409553,0.18200001,0.2694619,0.711,1.355,0.77,1.4599999,92,12,0.563,-0.55,-0.12200001,-0.013,3.2552261,0,nan,0.0,3,1,14
196471025,1630027579600201,340333040,1087637646,437378,409475,0.30600002,0.6896696,0.708,1.3560001,0.77,1.4599999,99,8,0.09200001,0.09200001,-0.002,0.034,3.153772,0,nan,0.0,3,1,14
197468103,1630027580600202,340333045,1087637647,437051,409148,0.289,0.68972063,0.702,1.3520001,0.83,1.4599999,99,12,0.19000001,-0.178,-0.067,-0.11800001,3.153772,0,nan,0.0,3,1,13
198464959,1630027581600202,340333037,1087637641,437124,409221,0.26200002,0.68976825,0.693,1.335,0.87,1.7199999,99,14,0.123,-0.119,-0.031000001,-0.108,3.153772,0,nan,0.0,3,1,12
199662111,1630027582800202,340333018,1087637637,437407,409503,0.26200002,0.68982774,0.68100005,1.3230001,0.87,1.7199999,99,10,0.094000004,-0.086,-0.038000003,-0.068,3.153772,0,nan,0.0,3,1,12
200666939,1630027583800203,340332998,1087637615,437481,409578,0.15400001,0.28140482,0.683,1.3330001,0.79999995,1.7199999,99,11,0.77800006,-0.27100003,-0.72900003,-0.028,4.170475,0,nan,0.0,3,1,13
201664326,1630027584800203,340332956,1087637493,437310,409407,0.177,0.19263269,0.683,1.327,0.79999995,1.7199999,99,8,1.23,-0.365,-1.174,-0.063,4.321076,0,nan,0.0,3,1,13
202469985,1630027585600203,340332939,1087637408,437199,409296,0.20400001,0.24025871,0.68100005,1.3160001,0.71999997,1.37,99,6,0.85300004,-0.27400002,-0.80700004,-0.142,4.448562,0,nan,0.0,3,1,15
203663937,1630027586800204,340332914,1087637281,436776,408872,0.17300001,0.33219182,0.67800003,1.3130001,0.71999997,1.37,118,9,0.739,0.09900001,-0.73200005,0.11400001,4.5283537,0,nan,0.0,3,1,15
204462953,1630027587600204,340332896,1087637209,436678,408775,0.22200002,0.24534301,0.68500006,1.315,0.75,1.38,109,4,1.291,-0.42200002,-1.22,-0.15900001,4.385171,0,nan,0.0,3,1,14
205665186,1630027588800205,340332876,1087637042,436372,408469,0.19600001,0.26053402,0.694,1.317,0.75,1.42,109,8,1.0580001,0.120000005,-1.052,0.060000002,4.6671605,0,nan,0.0,3,1,14
206659939,1630027589800205,340332874,1087636941,436171,408268,0.18100001,0.26054555,0.697,1.32,0.76,1.28,108,7,0.99100006,0.019000001,-0.99000007,0.19100001,4.7192307,0,nan,0.0,3,1,14
207667066,1630027590800205,340332868,1087636836,435965,408061,0.18200001,0.24138409,0.707,1.3240001,0.7,1.36,108,6,1.1190001,0.020000001,-1.1190001,-0.017,4.6570296,0,nan,0.0,3,1,16
208660090,1630027591800206,340332869,1087636727,435832,407928,0.21400002,0.26860842,0.721,1.3280001,0.7,1.24,108,8,1.0120001,-0.27400002,-0.97400004,0.187,4.5445685,0,nan,0.0,3,1,16
209660942,1630027592800206,340332851,1087636609,435859,407956,0.19900002,0.32744524,0.726,1.3130001,0.7,1.24,108,3,0.91600007,-0.10700001,-0.91,0.054,4.5414853,0,nan,0.0,3,1,16
210664945,1630027593800206,340332840,1087636492,435828,407924,0.177,0.2748471,0.74200004,1.3100001,0.65,1.09,108,3,1.1810001,-0.223,-1.1600001,0.043,4.5213375,0,nan,0.0,3,1,17
211662941,1630027594800207,340332829,1087636371,435698,407794,0.19100001,0.30653375,0.75600004,1.3110001,0.75,1.5999999,108,3,0.93900007,-0.026,-0.938,-0.123,4.5754347,0,nan,0.0,3,1,15
212655949,1630027595800207,340332822,1087636262,435664,407761,0.178,0.23828892,0.76100004,1.3060001,0.72999996,1.36,108,6,0.9990001,-0.149,-0.98800004,-0.040000003,4.604544,0,nan,0.0,3,1,15
213467098,1630027596600208,340332813,1087636178,435286,407382,0.18200001,0.2874934,0.76100004,1.297,0.7,1.31,108,10,0.94000006,-0.041,-0.93900007,0.18100001,4.6856866,0,nan,0.0,3,1,15
214662017,1630027597800208,340332779,1087636038,434897,406993,0.185,0.31778046,0.75900006,1.289,0.7,1.31,108,4,0.99500006,0.102000006,-0.99000007,0.16000001,4.5548854,0,nan,0.0,3,1,15
215461980,1630027598600208,340332773,1087635944,434439,406536,0.13700001,0.15943304,0.754,1.273,0.65999997,1.13,108,2,1.197,-0.133,-1.189,0.277,4.6215434,0,nan,0.0,3,1,16
216662964,1630027599800209,340332752,1087635782,434124,406220,0.179,0.17361784,0.754,1.268,0.65999997,1.13,108,3,1.4020001,-0.030000001,-1.4020001,-0.033,4.651661,0,nan,0.0,3,1,16
217665943,1630027600800209,340332738,1087635655,433793,405890,0.165,0.20844413,0.75500005,1.271,0.65999997,1.13,108,8,1.031,-0.069000006,-1.029,0.055000003,4.61724,0,nan,0.0,3,1,16
218666251,1630027601800209,340332731,1087635540,433312,405408,0.13900001,0.21164666,0.753,1.2550001,0.65999997,1.13,108,7,1.125,0.002,-1.125,0.10700001,4.687092,0,nan,0.0,3,1,16
219467979,1630027602600210,340332726,1087635452,432990,405086,0.143,0.26716137,0.74600005,1.238,0.65999997,1.13,108,8,0.85700005,0.058000002,-0.855,-0.0050000004,4.7432547,0,nan,0.0,3,1,16
220660988,1630027603800210,340332722,1087635342,432497,404593,0.14,0.1562965,0.72900003,1.207,0.65999997,1.13,108,3,1.3110001,-0.09200001,-1.307,0.1,4.6490984,0,nan,0.0,3,1,16
221469019,1630027604600210,340332718,1087635247,432251,404348,0.158,0.2962365,0.71900004,1.194,0.63,1.13,108,3,0.72400004,-0.108,-0.716,0.011000001,4.6281605,0,nan,0.0,3,1,17
222665990,1630027605800211,340332714,1087635222,431927,404024,0.201,0.7566728,0.70600003,1.179,0.63,1.13,108,4,0.133,-0.019000001,-0.13100001,-0.026,4.641638,0,nan,0.0,3,1,17
223469668,1630027606600211,340332718,1087635215,431873,403969,0.20300001,0.7567023,0.694,1.174,0.68,1.29,108,3,0.044000003,0.044000003,0.006,0.017,4.641638,0,nan,0.0,3,1,16
224473958,1630027607600212,340332739,1087635229,431936,404033,0.16600001,0.7810402,0.67200005,1.1650001,0.68,1.29,108,3,0.15300001,0.1,0.115,-0.12200001,5.865229,0,nan,0.0,3,1,16
225471940,1630027608600212,340332707,1087635217,431995,404092,0.16100001,0.16378449,0.65900004,1.159,0.63,1.13,108,12,0.822,-0.80100006,-0.18400002,-0.031000001,3.4220672,0,nan,0.0,3,1,17
226469009,1630027609600212,340332698,1087635222,431899,403996,0.14600001,0.5932655,0.646,1.149,0.68,1.29,107,7,0.22100002,0.10300001,0.19600001,-0.087000005,1.8021704,0,nan,0.0,3,1,16
227471992,1630027610600213,340332650,1087635237,431845,403941,0.17400001,0.11350364,0.638,1.136,0.63,1.13,107,11,1.3360001,-1.335,0.042000003,0.009000001,3.0753806,0,nan,0.0,3,1,17
228471072,1630027611600213,340332533,1087635243,431731,403828,0.18100001,0.1401063,0.633,1.1270001,0.68,1.29,107,12,1.228,-1.2240001,0.09900001,-0.033,3.074409,0,nan,0.0,3,1,16
229470944,1630027612600213,340332434,1087635250,431576,403673,0.19500001,0.5214778,0.63100004,1.1220001,0.63,1.13,107,9,0.356,-0.34600002,0.083000004,0.074,3.0902493,0,nan,0.0,3,1,17
230470937,1630027613600214,340332383,1087635254,431403,403500,0.17,0.18947695,0.63000005,1.113,0.68,1.29,107,14,0.883,-0.883,0.013,0.042000003,3.1606915,0,nan,0.0,3,1,16
231666289,1630027614800214,340332312,1087635252,431326,403423,0.209,0.26629692,0.629,1.108,0.7,1.36,107,14,0.596,-0.583,-0.12100001,-0.011000001,3.2327015,0,nan,0.0,3,1,16
232467140,1630027615600215,340332239,1087635246,431320,403417,0.21100001,0.15862843,0.629,1.102,0.75,1.5999999,107,12,0.97300005,-0.96900004,-0.093,-0.032,3.2258062,0,nan,0.0,3,1,15
233467975,1630027616600215,340332152,1087635236,431294,403391,0.21800001,0.14353989,0.63000005,1.0990001,0.7,1.36,102,16,1.033,-1.031,-0.065000005,-0.001,3.2269309,0,nan,0.0,3,1,16
234662947,1630027617800215,340332022,1087635218,431293,403389,0.19100001,0.14558053,0.629,1.092,0.7,1.36,102,16,1.0600001,-1.0530001,-0.12200001,0.008,3.263104,0,nan,0.0,3,1,16
235663478,1630027618800216,340331934,1087635201,431414,403510,0.21200001,0.18349884,0.633,1.092,0.74,1.36,102,16,0.767,-0.75600004,-0.127,0.040000003,3.317054,0,nan,0.0,3,1,15
236658949,1630027619800216,340331839,1087635181,431524,403620,0.2,0.12400285,0.63500005,1.0890001,0.78999996,1.36,102,16,1.215,-1.2010001,-0.18100001,-0.135,3.3104322,0,nan,0.0,3,1,14
237663077,1630027620800216,340331735,1087635170,431366,403462,0.18100001,0.14892597,0.63600004,1.087,0.82,1.62,102,17,1.0940001,-1.093,-0.055000003,0.066,3.2021074,0,nan,0.0,3,1,13
238655944,1630027621800217,340331632,1087635159,431247,403343,0.16700001,0.13148403,0.634,1.0840001,0.82,1.62,102,14,1.1010001,-1.0990001,-0.072000004,0.055000003,3.2080722,0,nan,0.0,3,1,13
239658997,1630027622800217,340331546,1087635147,431295,403392,0.23900001,0.25767463,0.633,1.0840001,0.76,1.25,102,15,0.583,-0.57900006,-0.063,-0.061000004,3.2244852,0,nan,0.0,3,1,15
240659379,1630027623800218,340331529,1087635143,431874,403970,0.13900001,0.38598233,0.81900007,1.399,0.76,1.25,102,14,0.18900001,-0.015000001,0.18800001,0.0050000004,1.7238859,0,nan,0.0,3,1,15
241654118,1630027624800218,340331462,1087635143,432591,404687,0.20500001,0.0933992,0.88900006,1.5200001,0.76,1.25,102,13,1.7420001,-1.7420001,-0.007,-0.120000005,3.1042836,0,nan,0.0,3,1,15
242657769,1630027625800218,340331284,1087635156,432644,404741,0.163,0.09446105,0.633,1.0840001,0.79999995,1.48,102,15,1.5840001,-1.577,0.155,0.046000004,3.0313952,0,nan,0.0,3,1,14
243662010,1630027626800219,340331156,1087635170,432534,404631,0.24300002,0.08484534,0.634,1.0890001,0.79999995,1.48,102,14,1.863,-1.8570001,0.155,-0.044000003,3.0510874,0,nan,0.0,3,1,14
244658235,1630027627800219,340331016,1087635183,432324,404421,0.19000001,0.16057901,0.64000005,1.1,0.82,1.62,102,17,1.0300001,-1.0300001,-0.008,0.11400001,3.096327,0,nan,0.0,3,1,13
245663138,1630027628800219,340330930,1087635202,432300,404397,0.165,0.2031017,0.647,1.1110001,0.82,1.62,102,15,0.99700004,-0.87100005,0.485,-0.071,2.7752793,0,nan,0.0,3,1,13
246663003,1630027629800220,340330855,1087635245,432277,404374,0.15100001,0.20182063,0.652,1.1220001,0.82,1.62,103,19,0.86,-0.80700004,0.29700002,0.066,2.7152677,0,nan,0.0,3,1,13
247662978,1630027630800220,340330795,1087635293,432182,404279,0.136,0.20542455,0.651,1.121,0.82,1.62,103,15,0.90000004,-0.65300006,0.619,-0.030000001,2.4408138,0,nan,0.0,3,1,13
248662252,1630027631800221,340330743,1087635343,431978,404075,0.15900001,0.30426043,0.65400004,1.121,0.82,1.62,103,8,0.674,-0.569,0.36200002,-0.045,2.4936185,0,nan,0.0,3,1,13
249661065,1630027632800221,340330713,1087635355,431843,403939,0.17,0.5304083,0.66200006,1.1290001,0.82,1.62,103,9,0.43500003,-0.397,0.17600001,0.0050000004,2.7534044,0,nan,0.0,3,1,13
250661940,1630027633800221,340330576,1087635380,431775,403872,0.165,0.10531438,0.67200005,1.1420001,0.82,1.62,103,13,1.8770001,-1.8330001,0.39900002,0.18100001,2.9925992,0,nan,0.0,3,1,13
254472990,1630027637600223,340330163,1087635409,432118,404214,0.314,0.26757798,0.73,1.2800001,0.78999996,1.36,109,6,1.023,-1.0220001,-0.042000003,-0.172,3.1767316,0,nan,0.0,3,1,14
255464952,1630027638600223,340330093,1087635413,432350,404447,0.246,0.5209509,0.748,1.309,0.78999996,1.36,109,5,0.55200005,-0.546,0.078,0.134,3.0936706,0,nan,0.0,3,1,14
256470960,1630027639600223,340330039,1087635412,432313,404410,0.215,0.3714914,0.777,1.3620001,0.82,1.62,109,8,0.86200005,-0.859,0.080000006,-0.014,3.1043828,0,nan,0.0,3,1,13
257667223,1630027640800224,340329965,1087635419,432267,404363,0.179,0.45307592,0.81200004,1.414,0.83,1.62,110,4,0.619,-0.55200005,0.27800003,0.14500001,2.8499937,0,nan,0.0,3,1,13
258476996,1630027641600224,340329902,1087635427,432381,404478,0.25300002,0.3983028,0.81500006,1.3970001,0.78999996,1.36,109,13,0.70400006,-0.702,-0.048,0.008,3.0841808,0,nan,0.0,3,1,14
259481943,1630027642600224,340329820,1087635433,432491,404588,0.187,0.24498855,0.836,1.424,0.83,1.62,110,9,1.1340001,-1.1340001,0.007,0.038000003,3.114537,0,nan,0.0,3,1,13
260661406,1630027643800225,340329671,1087635447,432710,404807,0.23400001,0.2719546,0.85700005,1.4350001,0.9,1.62,109,8,1.075,-1.0730001,-0.055000003,0.015000001,3.1463037,0,nan,0.0,3,1,12
261471093,1630027644600225,340329592,1087635449,432693,404790,0.33200002,0.36556354,0.87900007,1.4610001,0.9,1.62,110,4,1.1,-1.088,0.157,-0.124000005,3.0629675,0,nan,0.0,3,1,12
262468071,1630027645600226,340329511,1087635486,432620,404717,0.26700002,0.37665793,0.906,1.498,0.83,1.62,117,7,0.90800005,-0.82500005,0.379,-0.060000002,2.7136197,0,nan,0.0,3,1,13
263470106,1630027646600226,340329458,1087635513,432588,404685,0.26000002,0.7508614,0.92600006,1.5250001,0.91999996,1.64,117,6,0.42100003,-0.404,0.119,0.048,2.887031,0,nan,0.0,3,1,11
264662948,1630027647800226,340329388,1087635526,432711,404808,0.22800002,0.19289778,0.943,1.5460001,1.01,1.64,117,7,2.0270002,-2.0080001,0.279,0.087000005,3.0010288,0,nan,0.0,3,1,11
265460970,1630027648600227,340329216,1087635545,432502,404599,0.293,0.18934605,0.96500003,1.588,1.25,1.9699999,116,5,2.2770002,-2.2240002,0.49,0.22000001,3.0192657,0,nan,0.0,3,1,10
266665954,1630027649800227,340328995,1087635553,432578,404675,0.21900001,0.12443168,1.006,1.6470001,1.01,1.64,117,9,2.5370002,-2.535,0.097,0.17,3.1121871,0,nan,0.0,3,1,11
267665978,1630027650800227,340328809,1087635553,432652,404749,0.26500002,0.22225109,1.0270001,1.6890001,0.94,1.49,116,3,1.539,-1.5380001,0.036000002,0.13900001,3.1388745,0,nan,0.0,3,1,12
268466060,1630027651600228,340328682,1087635579,433503,405600,0.21100001,0.20068231,1.0350001,1.695,0.94,1.49,109,3,1.378,-1.363,0.20500001,0.104,3.036097,0,nan,0.0,3,1,12
269473132,1630027652600228,340328516,1087635576,433891,405987,0.316,0.27260593,1.033,1.695,0.91999996,1.36,109,7,1.095,-1.0730001,0.21900001,0.07700001,3.0881445,0,nan,0.0,3,1,12
270656954,1630027653800229,340328454,1087635608,434470,406567,0.26500002,0.46511015,1.0600001,1.7390001,0.97999996,1.75,109,6,0.632,-0.609,0.16700001,-0.15300001,2.9009016,0,nan,0.0,3,1,13
271658461,1630027654800229,340328402,1087635647,434672,406769,0.24100001,0.30111256,1.062,1.7570001,0.97999996,1.75,109,4,0.95400006,-0.95000005,0.082,-0.003,2.8529887,0,nan,0.0,3,1,13
272470368,1630027655600229,340328273,1087635662,435140,407237,0.317,0.17068481,1.07,1.7750001,0.78,1.4699999,109,7,1.7540001,-1.7540001,0.003,-0.128,3.103325,0,nan,0.0,3,1,14
273467025,1630027656600230,340328229,1087635691,435406,407503,0.22100002,0.50850743,1.07,1.7930001,0.97999996,1.75,109,8,0.124000005,0.083000004,0.09200001,-0.034,3.047955,0,nan,0.0,3,1,13
274664946,1630027657800230,340328229,1087635699,435102,407199,0.307,0.5086397,1.0660001,1.7850001,0.97999996,1.75,109,4,0.193,0.069000006,-0.18100001,0.18300001,3.047955,0,nan,0.0,3,1,13
275664943,1630027658800230,340328147,1087635707,434946,407043,0.208,0.1787402,1.059,1.7770001,0.97999996,1.75,109,4,1.355,-1.3540001,-0.053000003,0.25500003,3.1018913,0,nan,0.0,3,1,13
276660138,1630027659800231,340328094,1087635725,434588,406685,0.24000001,0.38052106,1.0660001,1.8030001,0.97999996,1.75,108,4,0.087000005,-0.087000005,0.002,0.104,3.1438537,0,nan,0.0,3,1,13
277665990,1630027660800231,340328052,1087635765,434784,406881,0.224,0.20182532,1.0730001,1.8370001,0.89,1.74,108,3,1.1190001,-1.11,0.141,-0.003,3.0683563,0,nan,0.0,3,1,14
278461949,1630027661600231,340327984,1087635788,434653,406750,0.193,0.22997488,1.074,1.8510001,0.97999996,1.75,109,2,0.99500006,-0.99100006,0.089,0.27600002,3.0960946,0,nan,0.0,3,1,13
279467251,1630027662600232,340327869,1087635813,434640,406737,0.24700001,0.17341313,1.097,1.9060001,0.97999996,1.75,109,3,1.5220001,-1.4950001,0.28500003,0.11100001,3.0550606,0,nan,0.0,3,1,13
280467123,1630027663600232,340327772,1087635904,435010,407107,0.326,0.3973692,1.13,1.9970001,0.97999996,1.75,109,3,0.716,-0.574,0.42800003,-0.003,2.5380611,0,nan,0.0,3,1,13
281667662,1630027664800232,340327693,1087635910,435071,407168,0.286,0.21922033,1.1700001,2.1100001,0.78,1.4699999,109,2,1.3490001,-1.345,0.11100001,-0.027,3.0769377,0,nan,0.0,3,1,14
282467069,1630027665600233,340327586,1087635917,435408,407505,0.252,0.29012904,1.1880001,2.1460001,0.78,1.4699999,109,3,1.1350001,-1.1350001,-0.015000001,0.127,3.1403687,0,nan,0.0,3,1,14
283661945,1630027666800233,340327457,1087635924,435334,407431,0.216,0.30063313,1.2210001,2.2310002,0.78,1.4699999,109,9,1.024,-1.021,0.074,0.17500001,3.0743828,0,nan,0.0,3,1,14
284661982,1630027667800234,340327347,1087635935,435082,407179,0.19800001,0.17281656,1.238,2.275,0.97999996,1.75,109,4,1.3900001,-1.389,0.046000004,0.209,3.1251671,0,nan,0.0,3,1,13
285662998,1630027668800234,340327200,1087635945,435177,407274,0.24800001,0.15992713,1.246,2.2930002,0.78,1.4699999,109,5,1.562,-1.557,-0.132,-0.028,3.193209,0,nan,0.0,3,1,14
286658982,1630027669800234,340327055,1087635957,435593,407690,0.24100001,0.15617293,1.2160001,2.232,0.78,1.4699999,109,6,1.1930001,-1.189,-0.09,-0.097,3.1761718,0,nan,0.0,3,1,14
287662858,1630027670800235,340326952,1087635975,435905,408002,0.27400002,0.20720008,1.2110001,2.2440002,0.97999996,1.75,109,2,0.96900004,-0.966,-0.081,-0.2,3.1529658,0,nan,0.0,3,1,13
288664947,1630027671800235,340326855,1087635980,436643,408740,0.24400002,0.2884434,1.205,2.2470002,0.78,1.4699999,109,4,0.72800004,-0.72400004,-0.078,-0.079,3.211745,0,nan,0.0,3,1,14
289665579,1630027672800235,340326704,1087635973,437779,409876,0.208,0.08952107,1.1630001,2.1660001,0.78,1.4699999,109,3,1.9460001,-1.9430001,-0.112,-0.32700002,3.2161105,0,nan,0.0,3,1,14
290662943,1630027673800236,340326561,1087635966,437880,409977,0.172,0.121982455,1.125,2.0960002,0.97999996,1.75,109,3,1.539,-1.5330001,-0.13700001,0.023000002,3.225191,0,nan,0.0,3,1,13
291661083,1630027674800236,340326431,1087635962,437714,409811,0.20600002,0.1264683,1.0990001,2.0410001,0.89,1.74,109,3,1.4350001,-1.4250001,-0.17,-0.104,3.2253628,0,nan,0.0,3,1,14
292660949,1630027675800236,340326302,1087635962,437491,409588,0.19000001,0.111207485,1.072,1.9810001,0.84999996,1.73,109,3,1.5580001,-1.547,-0.18800001,-0.11000001,3.2408593,0,nan,0.0,3,1,15
293662348,1630027676800237,340326178,1087635946,437239,409336,0.209,0.094756715,1.047,1.9360001,0.84999996,1.73,109,8,1.5710001,-1.5660001,-0.11800001,-0.17500001,3.262737,0,nan,0.0,3,1,15
294658943,1630027677800237,340326081,1087635929,437243,409340,0.20600002,0.35658732,1.026,1.8950001,0.84999996,1.73,109,9,0.499,-0.499,0.015000001,-0.003,3.2619584,0,nan,0.0,3,1,15
295666005,1630027678800238,340326055,1087635930,436895,408992,0.163,0.15934524,1.0150001,1.8730001,0.84999996,1.73,109,8,0.89000005,-0.883,-0.113000005,0.185,3.265413,0,nan,0.0,3,1,15
296654974,1630027679800238,340325917,1087635920,436462,408559,0.171,0.074755065,0.99500006,1.8340001,0.84999996,1.73,109,3,1.8740001,-1.858,-0.24200001,0.059000004,3.239709,0,nan,0.0,3,1,15
297660983,1630027680800238,340325725,1087635903,436357,408454,0.19700001,0.061835617,0.96700007,1.7850001,0.84999996,1.73,109,3,2.1230001,-2.114,-0.19600001,-0.24200001,3.2323546,0,nan,0.0,3,1,15
298660950,1630027681800239,340325627,1087635879,436186,408283,0.19500001,0.12263434,0.95000005,1.7580001,0.84999996,1.73,110,3,1.1060001,-1.1010001,-0.10700001,0.057000004,3.255443,0,nan,0.0,3,1,15
299659954,1630027682800239,340325449,1087635853,436328,408425,0.20500001,0.07873546,0.93600005,1.743,0.84999996,1.73,110,3,2.0340002,-2.015,-0.28100002,-0.097,3.2544625,0,nan,0.0,3,1,15
300661976,1630027683800239,340325321,1087635831,435972,408069,0.162,0.09165282,0.91800004,1.7140001,0.84999996,1.73,110,2,1.434,-1.4050001,-0.287,0.083000004,3.2944453,0,nan,0.0,3,1,15
301664950,1630027684800240,340325287,1087635808,435598,407695,0.266,0.19030249,0.90000004,1.6910001,0.84999996,1.73,110,3,0.119,0.037,-0.11400001,0.11100001,3.296679,0,nan,0.0,3,1,15
302661943,1630027685800240,340325272,1087635800,435463,407561,0.15100001,0.62184966,0.88000005,1.6560001,0.71999997,1.4599999,110,3,0.127,-0.127,-0.001,0.069000006,3.4339561,0,nan,0.0,3,1,16
303652969,1630027686800240,340325274,1087635806,435263,407360,0.25100002,0.6218957,0.87100005,1.6470001,0.84999996,1.7199999,110,2,0.101,-0.008,0.1,0.096,3.4339561,0,nan,0.0,3,1,15
304659965,1630027687800241,340325282,1087635796,435208,407305,0.27400002,0.78068906,0.85700005,1.631,0.84999996,1.7199999,110,3,0.194,0.116000004,-0.156,0.245,4.177857,0,nan,0.0,3,1,15
305662015,1630027688800241,340325278,1087635778,435188,407285,0.16000001,0.7754237,0.85200006,1.6340001,0.84999996,1.7199999,110,3,0.186,-0.17,-0.075,0.12900001,3.8664649,0,nan,0.0,3,1,15
306662983,1630027689800241,340325269,1087635771,434991,407088,0.25100002,0.57543856,0.846,1.618,0.84999996,1.7199999,110,3,0.264,0.24800001,-0.09200001,0.09,4.951609,0,nan,0.0,3,1,15
307661981,1630027690800242,340325375,1087635742,434565,406662,0.24100001,0.106600694,0.84300005,1.605,0.84999996,1.7199999,110,2,1.3620001,1.3490001,-0.18400002,0.28800002,6.1120152,0,nan,0.0,3,1,15
308658265,1630027691800242,340325493,1087635716,434365,406462,0.282,0.11270202,0.846,1.5970001,0.84999996,1.7199999,110,3,1.4070001,1.4000001,-0.14,0.13900001,6.154122,0,nan,0.0,3,1,15
309666619,1630027692800242,340325625,1087635709,434088,406185,0.238,0.09114458,0.84400004,1.582,0.84999996,1.7199999,110,5,1.58,1.5790001,-0.056,0.193,6.2515674,0,nan,0.0,3,1,15
310460991,1630027693600243,340325752,1087635710,433830,405927,0.24700001,0.09415004,0.84800005,1.5870001,0.84999996,1.7199999,128,7,1.733,1.7320001,0.037,0.22900002,0.0145302145,0,nan,0.0,3,1,15
311470941,1630027694600243,340325901,1087635712,433565,405662,0.326,0.08167111,0.84900004,1.58,0.84999996,1.7199999,120,4,2.079,2.078,-0.038000003,0.33900002,0.0036020104,0,nan,0.0,3,1,15
312471968,1630027695600243,340326060,1087635725,433395,405492,0.263,0.12714112,0.851,1.565,0.84999996,1.7199999,112,3,1.3470001,1.33,0.215,0.22600001,0.10970197,0,nan,0.0,3,1,15
313666942,1630027696800244,340326209,1087635753,433120,405217,0.26700002,0.24016254,0.86100006,1.5630001,0.84999996,1.7199999,111,3,0.86800003,0.81100005,0.31100002,0.10300001,0.18180728,0,nan,0.0,3,1,15
314664941,1630027697800244,340326304,1087635781,433181,405278,0.223,0.19920751,0.86500007,1.5510001,0.84999996,1.7199999,111,6,1.018,0.915,0.44500002,-0.016,0.30766106,0,nan,0.0,3,1,15
315656966,1630027698800245,340326423,1087635803,433141,405238,0.25800002,0.09269461,0.87000006,1.5450001,0.71,1.3,111,7,1.9280001,1.9280001,-0.006,-0.056,0.035265073,0,nan,0.0,3,1,16
316466752,1630027699600245,340326524,1087635814,433511,405608,0.19600001,0.168193,0.87500006,1.5430001,0.71,1.3,111,3,1.33,1.3240001,0.12100001,-0.40600002,0.0989935,0,nan,0.0,4,1,16
317469943,1630027700600245,340326675,1087635829,433786,405883,0.25800002,0.1249914,0.88400006,1.5450001,0.71,1.3,111,3,1.963,1.9620001,-0.059000004,-0.21300001,0.03171909,0,nan,0.0,4,1,16
318471942,1630027701600246,340326828,1087635845,433747,405844,0.291,0.1595058,0.90200007,1.5680001,0.84999996,1.7199999,111,3,1.2320001,1.2060001,0.25,0.29500002,0.13538396,0,nan,0.0,4,1,15
319665061,1630027702800246,340326931,1087635879,433751,405848,0.27600002,0.22528762,0.91300005,1.5860001,0.71,1.3,111,6,1.0680001,0.98200005,0.42100003,0.058000002,0.35507903,0,nan,0.0,4,1,16
320660943,1630027703800246,340327058,1087635942,433572,405669,0.30900002,0.11700164,0.93600005,1.6340001,0.72999996,1.3199999,111,7,2.115,2.108,0.17500001,0.108,0.19008555,0,nan,0.0,4,1,15
321660143,1630027704800247,340327292,1087635954,433674,405771,0.19900002,0.10192949,0.9480001,1.649,0.72999996,1.3199999,111,5,1.8420001,1.8220001,0.27100003,-0.26200002,0.082405545,0,nan,0.0,4,1,15
322666606,1630027705800247,340327352,1087635981,433976,406073,0.29700002,0.58201075,0.9710001,1.692,0.68,1.27,111,5,0.284,0.28300002,0.015000001,0.031000001,0.22101156,0,nan,0.0,4,1,16
323664096,1630027706800247,340327394,1087635992,434100,406197,0.316,0.30452782,0.998,1.728,0.72999996,1.3199999,111,3,1.098,1.087,-0.15200001,-0.025,6.225372,0,nan,0.0,4,1,15
324659952,1630027707800248,340327439,1087636008,434326,406423,0.291,0.42836365,1.0320001,1.8030001,0.72999996,1.3199999,111,3,0.716,0.155,0.69900006,-0.18900001,1.063312,0,nan,0.0,4,1,15
325660622,1630027708800248,340327466,1087636046,434587,406684,0.277,0.46795347,1.0680001,1.8800001,0.72999996,1.3199999,111,2,0.55600005,0.35500002,0.42800003,-0.257,0.8387591,0,nan,0.0,4,1,15
326660949,1630027709800249,340327522,1087636107,434617,406714,0.215,0.4679475,1.105,1.9740001,0.72999996,1.3199999,111,2,0.49300003,0.49300003,-0.009000001,-0.1,0.38396022,0,nan,0.0,4,1,15
327468562,1630027710600249,340327624,1087636096,434480,406577,0.34,0.14725815,1.143,2.066,0.72999996,1.3199999,111,2,1.728,1.728,0.042000003,0.13700001,6.274273,0,nan,0.0,4,1,15
328465943,1630027711600249,340327724,1087636104,434383,406480,0.439,0.36642176,1.1780001,2.161,0.71,1.3,111,4,0.68100005,0.648,0.21100001,0.231,0.2065337,0,nan,0.0,4,1,16
329467121,1630027712600249,340327804,1087636111,434700,406797,0.27400002,0.27224833,1.2080001,2.226,0.71,1.3,112,8,1.0320001,1.028,0.086,-0.101,0.048032332,0,nan,0.0,4,1,16
330667097,1630027713800250,340327894,1087636118,434950,407047,0.33800003,0.16124748,1.218,2.219,0.71,1.3,112,2,1.342,1.3410001,0.05,0.061000004,0.05085767,0,nan,0.0,4,1,16
331465944,1630027714600250,340327993,1087636122,435015,407112,0.291,0.20303431,1.2310001,2.2440002,0.71,1.3,112,3,1.167,1.167,0.002,-0.036000002,0.00669613,0,nan,0.0,4,1,16
332664253,1630027715800251,340328120,1087636142,434912,407009,0.314,0.20063554,1.225,2.209,0.71,1.3,111,2,1.2390001,1.2390001,-0.001,0.113000005,0.013470974,0,nan,0.0,4,1,16
333664944,1630027716800251,340328236,1087636164,434873,406970,0.321,0.14012846,1.2260001,2.1990001,0.71,1.3,111,2,1.616,1.6150001,0.055000003,0.179,0.046727873,0,nan,0.0,4,1,16
334662951,1630027717800251,340328349,1087636196,435220,407317,0.27100003,0.22721465,1.2210001,2.1650002,0.71,1.3,112,2,1.21,1.2080001,0.067,-0.059000004,0.10232202,0,nan,0.0,4,1,16
335659396,1630027718800252,340328447,1087636203,435772,407869,0.367,0.20049015,1.23,2.1790001,0.71,1.3,112,2,1.445,1.4330001,0.187,-0.007,0.08111749,0,nan,0.0,4,1,16
336659942,1630027719800252,340328511,1087636213,436191,408288,0.305,0.55397093,1.2420001,2.226,0.84999996,1.7199999,111,2,0.49300003,0.46500003,-0.165,0.061000004,6.2823944,0,nan,0.0,4,1,15
337662944,1630027720800252,340328564,1087636186,436015,408112,0.38900003,0.7137262,1.2720001,2.3100002,0.84999996,1.7199999,111,3,0.541,0.46,-0.286,0.264,5.9207754,0,nan,0.0,4,1,15
338660022,1630027721800253,340328587,1087636177,436667,408764,0.28100002,0.31170654,1.3000001,2.381,0.9,1.7199999,111,2,1.069,1.064,-0.104,-0.148,6.269316,0,nan,0.0,4,1,14
339662996,1630027722800253,340328727,1087636153,436816,408913,0.36200002,0.23429036,1.3290001,2.4550002,0.71999997,1.4599999,111,4,1.3110001,1.2160001,-0.49100003,0.36600003,6.055887,0,nan,0.0,4,1,16
340468059,1630027723600253,340328808,1087636119,436834,408931,0.38000003,0.17726523,1.3410001,2.4850001,0.74,1.4699999,111,3,1.9900001,1.9900001,-0.025,0.22100002,6.2112317,0,nan,0.0,4,1,15
341665020,1630027724800254,340328985,1087636093,437850,409947,0.37800002,0.2764673,1.355,2.503,0.74,1.4699999,111,2,1.118,1.1040001,0.171,0.15100001,0.05822575,0,nan,0.0,4,1,15
342466946,1630027725600254,340329021,1087636070,438080,410177,0.298,0.3877385,1.3560001,2.4840002,0.71999997,1.4599999,111,4,1.087,0.73600006,-0.8,0.33200002,5.580413,0,nan,0.0,4,1,16
343473949,1630027726600254,340329129,1087635993,438428,410525,0.28100002,0.16812861,1.342,2.4250002,0.78,1.61,111,3,2.204,2.157,-0.45200002,-0.134,6.0129647,0,nan,0.0,4,1,14
344666950,1630027727800255,340329258,1087635961,438819,410916,0.41900003,0.74689233,1.266,2.2310002,0.78,1.61,111,3,0.33400002,0.33100003,0.047000002,0.27600002,6.2387385,0,nan,0.0,4,1,14
345659945,1630027728800255,340329287,1087635963,438847,410943,0.47400004,0.51724887,1.264,2.1980002,0.71999997,1.4,111,3,0.748,0.739,0.113000005,0.18100001,0.1320399,0,nan,0.0,4,1,15
346463945,1630027729600255,340329335,1087635974,438674,410771,0.587,0.6484542,1.284,2.2220001,0.78,1.61,111,5,0.65400004,0.61700004,0.21800001,0.164,0.26703274,0,nan,0.0,4,1,14
347660946,1630027730800256,340329402,1087635974,438799,410896,0.34100002,0.29894,1.2950001,2.232,0.87,1.63,111,5,1.179,1.1780001,-0.063,0.109000005,6.256771,0,nan,0.0,4,1,12
348662942,1630027731800256,340329475,1087635976,438466,410563,0.32700002,0.60243165,1.2850001,2.1850002,0.83,1.41,111,5,0.564,0.56200004,-0.047000002,0.16100001,6.2240343,0,nan,0.0,4,1,13
349469294,1630027732600256,340329544,1087635964,438533,410629,0.38300002,0.3296466,1.2900001,2.167,0.87,1.63,111,4,1.35,1.3470001,-0.089,0.048,6.187471,0,nan,0.0,4,1,12
350464952,1630027733600257,340329672,1087635944,437964,410061,0.34500003,0.32990667,1.3000001,2.13,0.87,1.63,111,9,1.406,1.371,-0.31,0.105000004,6.117454,0,nan,0.0,4,1,12
351666940,1630027734800257,340329829,1087635915,437221,409317,0.284,0.27592975,1.261,1.973,0.83,1.61,111,11,1.1570001,1.1500001,-0.125,0.060000002,6.243622,0,nan,0.0,4,1,13
352467996,1630027735600258,340329918,1087635913,436936,409033,0.404,0.25398538,1.251,1.9360001,0.83,1.61,111,14,1.1110001,1.097,0.177,0.17300001,0.1064108,0,nan,0.0,4,1,13
353470989,1630027736600258,340330012,1087635904,436592,408689,0.36100003,0.20104064,1.223,1.8880001,0.83,1.61,111,6,1.046,1.021,0.22600001,0.13900001,0.15495417,0,nan,0.0,4,1,13
354464692,1630027737600258,340330098,1087635891,436536,408633,0.37800002,0.46239933,1.2010001,1.8100001,0.83,1.61,111,9,0.70900005,0.54,-0.45900002,-0.20700002,6.2281346,0,nan,0.0,4,1,13
355468489,1630027738600259,340330138,1087635867,436440,408537,0.294,0.31864494,1.1850001,1.8100001,0.83,1.61,111,13,0.86200005,0.80600005,-0.305,0.20400001,5.9152813,0,nan,0.0,4,1,13
356656607,1630027739800259,340330337,1087635823,436352,408449,0.29900002,0.13959894,1.1600001,1.7670001,0.78999996,1.37,111,14,2.036,2.0180001,-0.27600002,0.115,6.2039394,0,nan,0.0,4,1,14
357467151,1630027740600259,340330457,1087635816,436494,408590,0.26200002,0.19111094,1.1350001,1.7240001,0.94,1.5699999,111,18,1.1850001,1.184,-0.037,0.076000005,6.2289605,0,nan,0.0,4,1,13
358466943,1630027741600260,340330479,1087635830,437128,409225,0.25300002,0.4606594,1.093,1.6730001,0.78999996,1.37,111,14,0.12100001,0.106000006,0.058000002,-0.012,0.24517146,0,nan,0.0,4,1,14
359665088,1630027742800260,340330487,1087635818,437064,409161,0.23600002,0.5233661,1.046,1.6100001,0.78999996,1.37,111,8,0.15400001,0.15300001,0.018000001,-0.006,0.29146057,0,nan,0.0,4,1,14
360473134,1630027743600260,340330499,1087635805,437219,409316,0.22800002,0.3874273,1.018,1.554,0.78999996,1.37,111,14,0.467,0.462,-0.068,-0.015000001,6.212308,0,nan,0.0,4,1,14
361667393,1630027744800261,340330613,1087635770,437173,409270,0.23500001,0.12782511,0.98800004,1.514,0.83,1.61,111,14,1.5270001,1.511,-0.22000001,0.086,6.152354,0,nan,0.0,4,1,13
362469011,1630027745600261,340330706,1087635748,437372,409469,0.25800002,0.17086703,0.97400004,1.5050001,0.78999996,1.37,112,17,1.098,1.075,-0.223,-0.125,6.1531816,0,nan,0.0,4,1,14
363471018,1630027746600261,340330831,1087635719,437327,409424,0.23200001,0.1484879,0.96000004,1.4810001,0.83,1.61,112,13,1.3980001,1.386,-0.18100001,-0.11400001,6.164346,0,nan,0.0,4,1,13
364662941,1630027747800262,340330908,1087635722,437585,409682,0.25500003,0.6225898,0.94000006,1.4410001,0.78999996,1.37,112,15,0.223,0.20500001,0.086,-0.049000002,0.12908699,0,nan,0.0,4,1,14
365667355,1630027748800262,340330934,1087635720,437644,409741,0.284,0.28937992,0.924,1.404,0.76,1.26,111,14,0.55,0.54,0.10700001,0.101,0.18908478,0,nan,0.0,4,1,15
366663278,1630027749800262,340330991,1087635713,437993,410089,0.279,0.1967951,0.91800004,1.3900001,0.79999995,1.48,111,11,0.84700006,0.846,-0.048,-0.141,6.2545185,0,nan,0.0,4,1,14
367461959,1630027750600263,340331079,1087635689,437875,409971,0.30800003,0.17328064,0.91600007,1.3840001,0.79999995,1.48,104,10,1.383,1.368,-0.202,0.071,6.116892,0,nan,0.0,4,1,14
368468709,1630027751600263,340331163,1087635672,437753,409850,0.344,0.73373485,0.91300005,1.378,0.78999996,1.37,104,11,0.28800002,0.286,0.031000001,0.055000003,6.18708,0,nan,0.0,4,1,14
369470955,1630027752600263,340331180,1087635648,437528,409625,0.186,0.6823723,0.91400003,1.376,0.83,1.61,103,13,0.22200002,0.014,-0.22100002,0.011000001,5.545648,0,nan,0.0,4,1,13
370473184,1630027753600264,340331193,1087635641,437492,409588,0.34500003,0.25791463,0.90800005,1.365,0.71,1.14,103,13,1.0680001,1.001,-0.37100002,0.208,5.8807197,0,nan,0.0,4,1,15
371467414,1630027754600264,340331299,1087635583,437352,409448,0.163,0.22554575,0.90400004,1.3640001,0.83,1.61,103,8,1.131,0.69900006,-0.88900006,0.177,5.718019,0,nan,0.0,4,1,13
372662944,1630027755800265,340331347,1087635467,436978,409075,0.165,0.38141116,0.89300007,1.3440001,0.76,1.26,103,14,0.83800006,0.393,-0.74100006,0.21300001,5.275843,0,nan,0.0,4,1,15
373470034,1630027756600265,340331374,1087635421,437072,409169,0.19700001,0.7653263,0.89100003,1.3260001,0.76,1.26,103,15,0.36200002,0.303,-0.19800001,0.031000001,5.5530567,0,nan,0.0,4,1,15
374470946,1630027757600265,340331398,1087635400,437487,409584,0.22600001,0.6316006,0.882,1.3000001,0.76,1.26,103,12,0.23400001,0.21800001,-0.08400001,0.029000001,6.254576,0,nan,0.0,4,1,15
375466941,1630027758600266,340331498,1087635344,437399,409496,0.257,0.112773925,0.878,1.2870001,0.78999996,1.37,104,8,2.4850001,2.253,-1.0480001,-0.017,5.8258963,0,nan,0.0,4,1,14
376463424,1630027759600266,340331665,1087635257,437243,409339,0.215,0.24771388,0.87600005,1.2800001,0.78999996,1.37,104,11,1.172,1.034,-0.55,0.017,5.868922,0,nan,0.0,4,1,14
377657953,1630027760800266,340331837,1087635196,436979,409076,0.223,0.13977556,0.87100005,1.2820001,0.83,1.61,104,13,1.429,1.391,-0.33,-0.07300001,6.0137563,0,nan,0.0,4,1,13
378661003,1630027761800267,340331957,1087635148,436842,408939,0.254,0.1677682,0.87200004,1.286,0.83,1.61,104,7,1.4310001,1.373,-0.404,-0.108,5.9743285,0,nan,0.0,4,1,13
379464227,1630027762600267,340332056,1087635118,436669,408765,0.289,0.1764889,0.873,1.3000001,0.83,1.61,104,11,1.3410001,1.296,-0.342,0.053000003,6.0444865,0,nan,0.0,4,1,13
380462049,1630027763600267,340332174,1087635075,436524,408621,0.252,0.19278523,0.87200004,1.302,0.83,1.61,97,9,1.233,1.192,-0.316,0.11100001,5.9904785,0,nan,0.0,4,1,13
381463953,1630027764600268,340332283,1087635046,436207,408304,0.286,0.22808783,0.874,1.32,0.68,1.28,97,4,1.348,1.2440001,-0.518,0.046000004,5.9926,0,nan,0.0,4,1,16
382469983,1630027765600268,340332398,1087635002,436020,408116,0.19700001,0.16248858,0.87100005,1.312,0.68,1.28,97,8,1.1550001,1.0710001,-0.43,0.116000004,5.9113317,0,nan,0.0,4,1,16
383465971,1630027766600268,340332479,1087634967,435897,407994,0.155,0.541546,0.841,1.2820001,0.68,1.28,97,8,0.33900002,0.33100003,-0.072000004,-0.141,5.9502144,0,nan,0.0,4,1,16
384658963,1630027767800269,340332493,1087634965,435995,408091,0.23900001,0.60709184,0.82900006,1.2600001,0.71999997,1.4599999,97,8,0.28500003,0.28,-0.055000003,0.060000002,6.011374,0,nan,0.0,4,1,16
385467134,1630027768600269,340332532,1087634947,436028,408124,0.22800002,0.32231483,0.823,1.2470001,0.77,1.61,97,6,0.648,0.629,-0.156,0.006,6.005518,0,nan,0.0,4,1,14
386462160,1630027769600269,340332548,1087634940,435802,407899,0.316,0.5273653,0.81100005,1.2340001,0.77,1.61,97,6,0.035,0.027,0.022000002,0.031000001,5.9673142,0,nan,0.0,4,1,14
387662993,1630027770800270,340332557,1087634936,435713,407810,0.22800002,0.52744913,0.80200005,1.2210001,0.65999997,1.25,97,6,0.033,0.033,0.0,-0.024,5.9673142,0,nan,0.0,4,1,17
388663993,1630027771800270,340332563,1087634930,435721,407817,0.238,0.5275165,0.79300004,1.2110001,0.61,1.09,97,5,0.083000004,-0.079,-0.023000002,0.09900001,5.9673142,0,nan,0.0,4,1,18
389666439,1630027772800271,340332560,1087634923,435855,407952,0.215,0.52757776,0.786,1.205,0.65,1.1,97,3,0.127,-0.11400001,0.055000003,0.079,5.9673142,0,nan,0.0,4,1,17
390665940,1630027773800271,340332562,1087634922,436162,408259,0.26700002,0.5276397,0.768,1.197,0.61,1.04,97,6,0.065000005,0.065000005,0.002,0.083000004,5.9673142,0,nan,0.0,4,1,18
391661972,1630027774800271,340332573,1087634925,435989,408085,0.29000002,0.5851344,0.748,1.1910001,0.7,1.31,97,4,0.142,0.034,0.13800001,0.497,0.08082462,0,nan,0.0,4,1,15
392661177,1630027775800272,340332578,1087634937,435774,407870,0.23500001,0.5396352,0.735,1.1980001,0.65999997,1.14,98,6,0.344,-0.028,0.34300002,0.296,0.9307366,0,nan,0.0,4,1,16
393465025,1630027776600272,340332592,1087634985,435730,407826,0.16100001,0.3294103,0.725,1.2090001,0.63,1.13,98,2,0.541,0.223,0.49300003,0.058000002,1.192648,0,nan,0.0,4,1,17
394466970,1630027777600272,340332609,1087635074,435732,407828,0.16000001,0.21164769,0.72700006,1.2340001,0.66999996,1.25,121,3,1.0840001,0.063,1.082,0.13000001,1.5020037,0,nan,0.0,4,1,17
395471008,1630027778600273,340332620,1087635182,435847,407943,0.17300001,0.18268482,0.72300005,1.25,0.63,1.13,113,3,0.94200003,-0.124000005,0.934,0.104,1.6593456,0,nan,0.0,4,1,17
396466980,1630027779600273,340332620,1087635292,435716,407813,0.15100001,0.256477,0.71800005,1.274,0.68,1.28,105,8,0.77900004,-0.246,0.739,0.08800001,1.8129128,0,nan,0.0,4,1,16
397660983,1630027780800273,340332604,1087635404,435619,407716,0.19800001,0.5159907,0.726,1.3230001,0.68,1.28,105,4,0.44900003,-0.28,0.351,-0.023000002,1.8887473,0,nan,0.0,4,1,16
398470948,1630027781600274,340332590,1087635451,435595,407691,0.19100001,0.26243606,0.73800004,1.3520001,0.63,1.13,105,2,1.0020001,-0.09,0.998,-0.07,1.7482728,0,nan,0.0,4,1,17
399471942,1630027782600274,340332575,1087635565,435790,407886,0.164,0.43923777,0.74100006,1.36,0.63,1.13,105,8,0.423,0.105000004,0.409,-0.17600001,1.5548204,0,nan,0.0,4,1,17
400469944,1630027783600274,340332630,1087635571,435625,407721,0.23600002,0.2846475,0.744,1.365,0.63,1.13,105,8,0.6,0.59300005,0.096,0.066,0.06550761,0,nan,0.0,4,1,17
401471112,1630027784600275,340332624,1087635592,435739,407835,0.18200001,0.45388263,0.753,1.386,0.63,1.13,105,3,0.49400002,-0.23300001,0.43500003,0.10700001,1.7637088,0,nan,0.0,4,1,17
402468986,1630027785600275,340332620,1087635731,435573,407669,0.16700001,0.14863886,0.757,1.388,0.7,1.31,105,4,1.5710001,0.024,1.5710001,0.126,1.5749167,0,nan,0.0,4,1,15
403469345,1630027786600275,340332619,1087635906,435003,407100,0.15400001,0.11181155,0.74600005,1.345,0.7,1.31,105,3,1.7630001,-0.179,1.7540001,0.046000004,1.6819892,0,nan,0.0,4,1,15
404465030,1630027787600276,340332612,1087636023,435073,407170,0.21300001,0.24945134,0.74500006,1.3330001,0.63,1.13,105,3,0.63500005,0.52400005,0.358,-0.12200001,0.77636904,0,nan,0.0,4,1,17
405660943,1630027788800276,340332732,1087636053,434831,406927,0.19800001,0.28979376,0.74300003,1.3210001,0.63,1.13,98,3,0.554,0.505,0.22700001,0.036000002,0.24114515,0,nan,0.0,4,1,17
406660962,1630027789800276,340332727,1087636123,434685,406782,0.15,0.12775321,0.72700006,1.274,0.68,1.28,98,3,1.3920001,-0.27600002,1.3640001,-0.008,1.8478287,0,nan,0.0,4,1,16
407466939,1630027790600277,340332720,1087636285,434414,406510,0.158,0.13086793,0.71400005,1.2370001,0.68,1.28,98,7,1.5400001,-0.172,1.531,-0.024,1.6831871,0,nan,0.0,4,1,16
408466758,1630027791600277,340332731,1087636347,434433,406530,0.22000001,0.22728357,0.702,1.212,0.68,1.28,98,7,0.68600005,0.64900005,0.22000001,0.032,0.3953556,0,nan,0.0,4,1,16
409465148,1630027792600277,340332743,1087636460,434378,406475,0.163,0.1027224,0.70400006,1.207,0.78,1.41,98,7,2.3830001,-0.33400002,2.3600001,0.009000001,1.691922,0,nan,0.0,4,1,15
410467997,1630027793600278,340332727,1087636738,434459,406555,0.15300001,0.2215212,0.712,1.2290001,0.68,1.28,98,9,1.3900001,0.216,1.373,-0.125,1.5699543,0,nan,0.0,4,1,16
411661048,1630027794800278,340332734,1087636813,434342,406439,0.23700002,0.30025318,0.721,1.268,0.68,1.28,98,10,0.79700005,0.49,0.629,0.24300002,1.1039549,0,nan,0.0,4,1,16
412466567,1630027795600278,340332745,1087636959,434137,406233,0.17,0.10453928,0.72300005,1.2820001,0.68,1.28,98,7,2.2,-0.18300001,2.193,0.18300001,1.6398069,0,nan,0.0,4,1,16
413657954,1630027796800279,340332721,1087637104,434204,406300,0.303,0.6122461,0.73,1.312,0.68,1.28,98,6,0.22700001,-0.21000001,0.086,0.273,1.9397573,0,nan,0.0,4,1,16
414663948,1630027797800279,340332693,1087637113,434887,406984,0.19700001,0.6656469,0.72200006,1.292,0.65999997,1.25,98,6,0.148,-0.14400001,-0.035,0.003,2.8441508,0,nan,0.0,4,1,17
415661120,1630027798800280,340332674,1087637064,434674,406771,0.26700002,0.28997004,0.72200006,1.2750001,0.79999995,1.48,98,8,1.1850001,-0.46300003,-1.09,0.282,4.105461,0,nan,0.0,4,1,14
416468445,1630027799600280,340332659,1087637003,434676,406773,0.324,0.5799301,0.73600006,1.2880001,0.75,1.5799999,111,9,0.49100003,-0.42000002,-0.25500003,0.124000005,3.945869,0,nan,0.0,4,1,15
417471037,1630027800600280,340332720,1087636966,434860,406957,0.24700001,0.13701026,0.76600003,1.322,0.7,1.35,104,6,1.3330001,1.314,-0.22600001,-0.035,6.028276,0,nan,0.0,4,1,16
418475845,1630027801600281,340332767,1087636928,435167,407264,0.30800003,0.7245553,0.76500005,1.309,0.71999997,1.4599999,104,4,0.259,-0.25500003,-0.048,0.098000005,5.592253,0,nan,0.0,4,1,16
419469349,1630027802600281,340332769,1087636898,434976,407073,0.21100001,0.7245989,0.77000004,1.302,0.71999997,1.4599999,103,7,0.19900002,-0.119,-0.15900001,0.096,5.592253,0,nan,0.0,4,1,16
420473010,1630027803600281,340332782,1087636879,435019,407116,0.266,0.64837146,0.771,1.2800001,0.71999997,1.4599999,103,4,0.21800001,0.216,0.030000001,-0.27,6.0518756,0,nan,0.0,4,1,16
421468939,1630027804600282,340332810,1087636870,435072,407169,0.24800001,0.2224717,0.777,1.271,0.71999997,1.4599999,103,8,0.768,0.734,-0.22500001,-0.008,5.999039,0,nan,0.0,4,1,16
422471054,1630027805600282,340333012,1087636817,435056,407153,0.289,0.07129093,0.78300005,1.268,0.66999996,1.25,103,10,2.676,2.6450002,-0.407,0.034,6.1055355,0,nan,0.0,4,1,17
423470971,1630027806600282,340333136,1087636792,435350,407446,0.25,0.3634147,0.78300005,1.2670001,0.66999996,1.25,103,5,0.15200001,0.14500001,0.045,-0.047000002,6.1963,0,nan,0.0,4,1,17
424477025,1630027807600283,340333171,1087636800,435566,407662,0.294,0.2789467,0.79700005,1.3060001,0.71999997,1.4599999,103,8,0.63500005,0.61800003,0.14600001,-0.008,0.21799685,0,nan,0.0,4,1,16
429469592,1630027812600284,340333299,1087637411,435918,408015,0.208,0.269619,0.85,1.4590001,0.71,1.3,89,10,0.90300006,-0.093,0.89900005,0.35500002,1.6737906,0,nan,0.0,4,1,15
430471946,1630027813600285,340333284,1087637517,435743,407840,0.187,0.25834432,0.83900005,1.4810001,0.71,1.3,90,6,1.001,-0.25800002,0.96700007,-0.177,1.7396417,0,nan,0.0,4,1,15
431476312,1630027814600285,340333257,1087637559,436178,408275,0.30400002,0.53431666,0.81700003,1.4410001,0.65999997,1.14,96,9,0.34,-0.317,0.12100001,-0.19100001,2.655627,0,nan,0.0,4,1,16
432662940,1630027815800285,340333274,1087637566,436086,408183,0.36200002,0.15919444,0.808,1.4070001,0.65999997,1.14,96,6,1.116,1.056,0.363,0.017,0.21333334,0,nan,0.0,4,1,16
433468074,1630027816600286,340333371,1087637597,436048,408145,0.289,0.14642091,0.80700004,1.393,0.71,1.29,96,14,1.1680001,1.065,0.47900003,-0.187,0.33018643,0,nan,0.0,4,1,15
434666301,1630027817800286,340333473,1087637642,436074,408171,0.23600002,0.18817912,0.78700006,1.386,0.77,1.61,96,11,0.80300003,0.75000006,0.287,0.108,0.31386986,0,nan,0.0,4,1,14
435472956,1630027818600286,340333536,1087637679,436175,408272,0.272,0.08916398,0.78700006,1.3870001,0.71,1.29,96,6,1.6930001,1.6,0.551,-0.042000003,0.3528061,0,nan,0.0,4,1,15
436469947,1630027819600287,340333666,1087637745,436073,408169,0.22700001,0.094651826,0.77900004,1.3850001,0.71999997,1.37,96,8,1.427,1.3640001,0.42000002,0.12200001,0.31983855,0,nan,0.0,4,1,15
437472944,1630027820600287,340333755,1087637805,436135,408232,0.185,0.1216175,0.768,1.3670001,0.65999997,1.06,96,6,1.148,1.052,0.45900002,0.008,0.438848,0,nan,0.0,4,1,16
438470958,1630027821600287,340333834,1087637847,435884,407981,0.25100002,0.11933444,0.74600005,1.3360001,0.62,0.97999996,96,5,1.1750001,1.1680001,0.126,0.051000003,0.18158667,0,nan,0.0,4,1,17
439663942,1630027822800288,340333998,1087637903,436070,408167,0.273,0.11916776,0.75200003,1.342,0.65999997,1.06,102,7,1.4280001,1.414,0.20400001,-0.095000006,0.20585616,0,nan,0.0,4,1,16
440653184,1630027823800288,340334113,1087637924,435910,408007,0.294,0.12696066,0.74600005,1.343,0.68,1.14,102,7,1.345,1.3330001,0.17500001,0.043,0.13458006,0,nan,0.0,4,1,15
441661962,1630027824800289,340334238,1087637943,435517,407614,0.31500003,0.16849566,0.744,1.3360001,0.68,1.14,102,8,1.0020001,0.984,0.19000001,0.086,0.1481554,0,nan,0.0,3,1,15
442662020,1630027825800289,340334362,1087637963,435080,407177,0.284,0.096756,0.75000006,1.34,0.68,1.14,102,10,1.825,1.82,0.14400001,0.12100001,0.08673379,0,nan,0.0,3,1,15
443661945,1630027826800289,340334413,1087637983,434921,407017,0.29200003,0.43049502,0.757,1.3570001,0.77,1.61,102,13,0.42400002,0.33400002,0.261,-0.038000003,0.4527534,0,nan,0.0,3,1,14
444656966,1630027827800290,340334571,1087637991,434734,406831,0.266,0.07329562,0.762,1.365,0.81,1.7099999,102,13,2.4280002,2.423,-0.14400001,-0.095000006,6.275993,0,nan,0.0,3,1,13
445661517,1630027828800290,340334714,1087637995,434742,406839,0.272,0.117254704,0.758,1.3700001,0.78999996,1.6999999,102,5,1.2270001,1.218,0.15300001,0.033,0.09458829,0,nan,0.0,3,1,13
446658338,1630027829800290,340334846,1087638004,434670,406767,0.254,0.07725054,0.767,1.3800001,0.77,1.51,103,4,2.0010002,1.996,0.142,-0.171,0.05426211,0,nan,0.0,3,1,14
447461016,1630027830600291,340334969,1087638007,434872,406969,0.26000002,0.13387826,0.768,1.378,0.74,1.4699999,103,3,1.3440001,1.342,0.075,-0.216,0.048917912,0,nan,0.0,4,1,15
448656643,1630027831800291,340335111,1087638032,434753,406850,0.24400002,0.16044636,0.76500005,1.3560001,0.83,1.66,109,9,0.89400005,0.855,0.259,0.16800001,0.15985017,0,nan,0.0,4,1,13
449663812,1630027832800291,340335154,1087638059,434503,406600,0.28,0.45709768,0.76400006,1.3520001,0.74,1.27,109,7,0.337,0.272,0.19900002,0.075,0.51117843,0,nan,0.0,4,1,15
450655943,1630027833800292,340335171,1087638076,434282,406379,0.29200003,0.63839185,0.771,1.3670001,0.77,1.51,109,9,0.25500003,0.193,0.16600001,0.002,0.5869556,0,nan,0.0,4,1,14
451469002,1630027834600292,340335185,1087638090,434247,406344,0.20600002,0.6384299,0.77000004,1.3690001,0.74,1.4699999,117,2,0.13100001,0.019000001,-0.13000001,-0.039,0.5869556,0,nan,0.0,4,1,15
452468943,1630027835600292,340335193,1087638066,434304,406400,0.33100003,0.45378578,0.771,1.3750001,0.69,1.25,117,3,0.19700001,-0.083000004,-0.179,-0.109000005,4.9393253,0,nan,0.0,4,1,16
