timestamp,timestamp_sample,baro_device_id,baro_alt_meter,baro_temp_celcius,baro_pressure_pa,rho
119625072,119607349,3997730,413.19272,33.05,96459.5,1.1460984
119685333,119662694,3997730,413.30106,33.05,96458.25,1.1460836
119846984,119823495,3997730,413.4305,33.05,96456.75,1.1460657
120067429,120049728,3997730,413.58112,33.05,96455.0,1.146045
120228108,120210504,3997730,413.6023,33.05,96454.75,1.146042
120459301,120439136,3997730,413.6023,33.05,96454.75,1.146042
120620099,120599951,3997730,413.5177,33.05,96455.75,1.1460539
120851230,120828580,3997730,413.38828,33.05,96457.25,1.1460717
121062306,121042089,3997730,413.53888,33.059998,96455.5,1.1460509
121223153,121202972,3997730,413.58112,33.05,96455.0,1.146045
121434237,121416473,3997730,413.21387,33.059998,96459.25,1.1460955
121655304,121632487,3997730,413.56,33.059998,96455.25,1.146048
121866514,121846227,3997730,413.68948,33.059998,96453.75,1.1460301
122027478,122007203,3997730,413.4728,33.05,96456.25,1.1460599
122238493,122220788,3997730,413.4728,33.05,96456.25,1.1460599
122459626,122436877,3997730,413.62607,33.059998,96454.49,1.1460389
122620478,122597786,3997730,413.86386,33.05,96451.74,1.1460062
122831733,122811619,3997730,413.58112,33.05,96455.0,1.146045
123042718,123025089,3997730,413.49658,33.059998,96456.0,1.1460569
123263997,123241315,3997730,413.6472,33.059998,96454.26,1.1460361
123424736,123402100,3997730,413.7344,33.059998,96453.25,1.1460241
123636006,123615800,3997730,413.66837,33.059998,96453.99,1.1460329
123847245,123829593,3997730,413.7344,33.059998,96453.25,1.1460241
124068541,124045832,3997730,413.68948,33.059998,96453.75,1.1460301
124229614,124206847,3997730,413.4094,33.059998,96457.0,1.1460687
124441242,124420586,3997730,413.66837,33.059998,96454.0,1.146033
124611604,124593965,3997730,413.77667,33.059998,96452.75,1.1460183
124832972,124810230,3997730,414.36063,33.059998,96446.0,1.145938
125043978,125023843,3997730,414.29718,33.059998,96446.75,1.145947
125255145,125237448,3997730,414.01447,33.059998,96450.0,1.1459856
125415848,125398234,3997730,414.44785,33.059998,96444.99,1.145926
125637007,125614330,3997730,414.83887,33.059998,96440.5,1.1458727
125848157,125827996,3997730,415.2511,33.059998,96435.74,1.1458161
126059236,126041584,3997730,415.4017,33.059998,96434.0,1.1457955
126220173,126202521,3997730,415.38055,33.059998,96434.24,1.1457983
126441244,126418534,3997730,415.53116,33.059998,96432.49,1.1457776
126652398,126632154,3997730,415.14273,33.059998,96437.0,1.1458311
126863392,126845753,3997730,415.0133,33.059998,96438.49,1.1458489
127044551,127014288,3997730,415.07138,33.059998,96437.805,1.1458406
127255898,127235641,3997730,415.1639,33.07,96436.74,1.145828
127426694,127402450,3997730,415.03705,33.059998,96438.195,1.1458453
127647961,127625286,3997730,414.64334,33.059998,96442.74,1.1458993
127859158,127838860,3997730,414.42667,33.059998,96445.24,1.145929
128019951,127999837,3997730,414.88116,33.059998,96440.0,1.1458668
128231445,128213318,3997730,414.94724,33.059998,96439.24,1.1458577
128452249,128429513,3997730,414.88116,33.059998,96440.0,1.1458668
128663394,128643230,3997730,414.60107,33.059998,96443.24,1.1459053
128824236,128803954,3997730,414.96835,33.059998,96439.0,1.1458548
129035340,129017657,3997730,415.18503,33.059998,96436.5,1.1458251
129256430,129233806,3997730,414.62222,33.07,96442.99,1.1459023
129468107,129447461,3997730,414.60107,33.059998,96443.24,1.1459053
129628550,129608315,3997730,414.96835,33.07,96438.99,1.1458547
129839869,129822177,3997730,414.92606,33.07,96439.49,1.1458607
130061116,130038364,3997730,414.81775,33.07,96440.75,1.1458757
130221752,130199133,3997730,414.40555,33.07,96445.49,1.145932
130432860,130412719,3997730,414.92606,33.07,96439.49,1.1458607
130643944,130626312,3997730,414.73056,33.07,96441.75,1.1458875
130865054,130842355,3997730,415.07672,33.07,96437.74,1.1458399
131025898,131003212,3997730,414.96835,33.07,96438.99,1.1458547
131236996,131216849,3997730,414.79663,33.07,96441.0,1.1458787
131448172,131430449,3997730,415.05554,33.07,96438.0,1.145843
131608893,131591274,3997730,414.96835,33.07,96439.0,1.1458548
131830177,131807473,3997730,414.86002,33.07,96440.25,1.1458697
132041362,132021137,3997730,414.47162,33.07,96444.74,1.1459231
132252272,132234617,3997730,414.73056,33.07,96441.75,1.1458875
132413164,132395507,3997730,414.83887,33.07,96440.5,1.1458727
132634165,132611512,3997730,414.55615,33.07,96443.74,1.1459112
132845636,132825232,3997730,414.88116,33.07,96440.0,1.1458668
133056596,133038958,3997730,414.96835,33.07,96438.99,1.1458547
133217381,133199677,3997730,414.96835,33.07,96439.0,1.1458548
133438416,133415675,3997730,415.18503,33.07,96436.5,1.1458251
133650247,133629392,3997730,414.86002,33.07,96440.25,1.1458697
133820559,133802871,3997730,414.86002,33.07,96440.25,1.1458697
134041582,134018959,3997730,415.1639,33.07,96436.75,1.1458281
134252842,134232669,3997730,414.96835,33.079998,96439.0,1.1458548
134463774,134446140,3997730,414.92606,33.07,96439.49,1.1458607
134644706,134622019,3997730,415.14273,33.07,96437.0,1.1458311
134855693,134835519,3997730,414.98947,33.079998,96438.74,1.1458517
135066797,135049165,3997730,415.01065,33.07,96438.5,1.1458489
135227726,135209982,3997730,415.03442,33.079998,96438.24,1.1458459
135448979,135426219,3997730,415.09784,33.07,96437.5,1.1458371
135660228,135640022,3997730,415.1639,33.079998,96436.74,1.145828
135821234,135800939,3997730,415.27222,33.079998,96435.5,1.1458132
136032449,136014684,3997730,414.9023,33.079998,96439.75,1.1458638
136253592,136230906,3997730,414.68826,33.07,96442.24,1.1458933
136464830,136444632,3997730,415.20615,33.079998,96436.24,1.145822
136635810,136611498,3997730,415.07138,33.079998,96437.805,1.1458406
136856895,136834222,3997730,414.92606,33.07,96439.49,1.1458607
137068107,137047860,3997730,415.1639,33.079998,96436.74,1.145828
137228877,137208714,3997730,415.444,33.079998,96433.5,1.1457895
137440059,137422299,3997730,414.88116,33.079998,96440.0,1.1458668
137661071,137638442,3997730,415.29337,33.079998,96435.24,1.1458102
137821936,137799196,3997730,415.14273,33.079998,96437.0,1.1458311
138032922,138012717,3997730,415.09784,33.079998,96437.5,1.1458371
138244248,138226315,3997730,414.94724,33.079998,96439.24,1.1458577
138465276,138442543,3997730,414.94724,33.079998,96439.24,1.1458577
138626013,138603363,3997730,415.09784,33.079998,96437.5,1.1458371
138847382,138829688,3997730,414.9023,33.079998,96439.75,1.1458638
139068632,139045921,3997730,415.18503,33.079998,96436.5,1.1458251
139229380,139206737,3997730,414.88116,33.079998,96440.0,1.1458668
139440489,139420268,3997730,414.9023,33.079998,96439.75,1.1458638
139651704,139634054,3997730,414.88116,33.079998,96440.0,1.1458668
139812589,139794978,3997730,414.79663,33.079998,96441.0,1.1458787
140043797,140023641,3997730,415.14273,33.079998,96437.0,1.1458311
140254949,140237279,3997730,415.09784,33.09,96437.5,1.1458371
140415919,140398176,3997730,415.35944,33.079998,96434.5,1.1458014
140637118,140614383,3997730,415.14273,33.079998,96437.0,1.1458311
140848351,140828133,3997730,414.88116,33.079998,96440.0,1.1458668
141059430,141041702,3997730,415.5761,33.079998,96431.99,1.1457716
141220171,141202549,3997730,415.33563,33.079998,96434.75,1.1458044
141441414,141418645,3997730,415.444,33.079998,96433.5,1.1457895
141652582,141632313,3997730,415.444,33.079998,96433.5,1.1457895
141863609,141845915,3997730,415.7928,33.079998,96429.5,1.1457419
142024493,142006805,3997730,415.8139,33.079998,96429.26,1.1457391
142245620,142222999,3997730,415.53116,33.09,96432.5,1.1457776
142456853,142436679,3997730,415.9011,33.079998,96428.25,1.1457272
142668226,142650424,3997730,415.51004,33.079998,96432.74,1.1457804
142829123,142811388,3997730,415.8562,33.079998,96428.75,1.1457331
143050208,143027578,3997730,415.83502,33.079998,96429.0,1.145736
143261351,143241068,3997730,415.7928,33.079998,96429.49,1.1457419
143422241,143401849,3997730,415.4889,33.079998,96433.0,1.1457835
143633227,143615502,3997730,415.70554,33.079998,96430.5,1.1457539
143854385,143831632,3997730,415.5761,33.09,96431.99,1.1457716
144066160,144045245,3997730,415.5761,33.079998,96432.0,1.1457716
144256458,144233690,3997730,415.3145,33.09,96435.0,1.1458074
144467659,144447406,3997730,415.7928,33.09,96429.5,1.1457419
144628454,144608278,3997730,415.8139,33.09,96429.25,1.145739
144839763,144821946,3997730,415.98563,33.09,96427.25,1.1457152
145060727,145038105,3997730,415.92224,33.09,96428.0,1.1457242
145221653,145198899,3997730,416.20233,33.09,96424.75,1.1456856
145432712,145412566,3997730,416.28952,33.09,96423.75,1.1456736
145643860,145626207,3997730,416.03058,33.09,96426.74,1.1457092
145824764,145794516,3997730,415.85355,33.09,96428.8,1.1457336
146035721,146015575,3997730,416.03058,33.079998,96426.74,1.1457092
146246758,146229095,3997730,415.87732,33.09,96428.5,1.1457301
146467987,146445210,3997730,415.92224,33.09,96428.0,1.1457242
146629015,146606171,3997730,415.74783,33.079998,96430.0,1.1457479
146840119,146819985,3997730,416.0517,33.09,96426.5,1.1457063
147051260,147033620,3997730,415.9434,33.09,96427.75,1.1457212
147212066,147194401,3997730,416.16003,33.09,96425.25,1.1456915
147433525,147410511,3997730,416.57227,33.09,96420.49,1.145635
147654349,147636715,3997730,416.28952,33.09,96423.75,1.1456736
147815333,147797637,3997730,416.20233,33.09,96424.75,1.1456856
148036501,148013757,3997730,416.2261,33.09,96424.5,1.1456826
148247526,148227264,3997730,416.11777,33.09,96425.74,1.1456974
148458622,148440923,3997730,416.0517,33.09,96426.5,1.1457063
148619594,148601920,3997730,416.18118,33.09,96425.0,1.1456885
148840739,148818120,3997730,415.9434,33.09,96427.75,1.1457212
149052040,149031773,3997730,416.3344,33.09,96423.25,1.1456677
149262906,149245269,3997730,416.6145,33.09,96419.99,1.145629
149423822,149406163,3997730,416.48508,33.09,96421.5,1.1456469
149644986,149622309,3997730,416.03058,33.09,96426.75,1.1457093
149856124,149835974,3997730,415.8562,33.09,96428.75,1.1457331
150027091,150002811,3997730,415.95657,33.09,96427.6,1.1457194
150248304,150225582,3997730,415.51004,33.09,96432.75,1.1457806
150459462,150439224,3997730,416.3556,33.09,96423.0,1.1456647
150620154,150600032,3997730,416.48508,33.09,96421.5,1.1456469
150831214,150813536,3997730,416.89725,33.09,96416.75,1.1455905
151052597,151029663,3997730,416.3344,33.09,96423.25,1.1456677
151263780,151243502,3997730,416.00943,33.09,96426.99,1.1457121
151424460,151404323,3997730,415.63953,33.09,96431.25,1.1457628
151635704,151617967,3997730,415.42282,33.09,96433.75,1.1457925
151856683,151834039,3997730,415.35944,33.09,96434.5,1.1458014
152068830,152047735,3997730,415.3145,33.09,96435.0,1.1458074
152238758,152221118,3997730,415.22733,33.09,96436.0,1.1458192
152460389,152437183,3997730,415.46774,33.09,96433.25,1.1457865
152630861,152610623,3997730,415.53116,33.09,96432.49,1.1457776
152842217,152824410,3997730,415.3145,33.09,96435.0,1.1458074
153063160,153040411,3997730,415.444,33.09,96433.5,1.1457895
153223858,153201241,3997730,416.07285,33.09,96426.25,1.1457033
153435059,153414933,3997730,416.03058,33.09,96426.74,1.1457092
153646330,153628658,3997730,416.44278,33.09,96422.0,1.1456529
153827305,153804600,3997730,416.07285,33.09,96426.25,1.1457033
154038431,154018289,3997730,415.6633,33.09,96430.99,1.1457597
154249812,154232054,3997730,415.3383,33.09,96434.74,1.1458043
154410616,154392858,3997730,415.3145,33.09,96435.0,1.1458074
154631665,154608954,3997730,415.8562,33.09,96428.75,1.1457331
154842672,154822538,3997730,415.55493,33.09,96432.25,1.1457746
155013567,154989407,3997730,415.5761,33.09,96432.0,1.1457716
155234772,155212125,3997730,415.7928,33.09,96429.5,1.1457419
155445723,155425556,3997730,415.53116,33.09,96432.49,1.1457776
155657030,155639283,3997730,415.92224,33.09,96428.0,1.1457242
155817869,155800167,3997730,416.00943,33.09,96426.99,1.1457121
156038905,156016280,3997730,415.66064,33.09,96431.0,1.1457598
156250269,156229965,3997730,415.63953,33.09,96431.25,1.1457628
156461265,156443546,3997730,415.83502,33.09,96429.0,1.145736
156622183,156604524,3997730,415.76898,33.09,96429.75,1.1457449
156843365,156820673,3997730,416.03058,33.09,96426.75,1.1457093
157054921,157034131,3997730,416.5062,33.09,96421.25,1.145644
157225325,157207566,3997730,416.11777,33.09,96425.75,1.1456975
157446494,157423639,3997730,416.13892,33.09,96425.5,1.1456945
157657445,157637178,3997730,415.98563,33.09,96427.25,1.1457152
157868624,157850845,3997730,416.18118,33.09,96425.0,1.1456885
158049543,158026804,3997730,416.63568,33.09,96419.75,1.1456262
158260638,158240470,3997730,416.0517,33.09,96426.5,1.1457063
158421338,158401187,3997730,416.0755,33.09,96426.24,1.1457033
158632490,158614824,3997730,416.094,33.09,96426.0,1.1457003
158853587,158830889,3997730,416.16003,33.09,96425.25,1.1456915
159064799,159044545,3997730,415.9011,33.09,96428.25,1.1457272
159235775,159211496,3997730,416.1125,33.09,96425.8,1.145698
159457009,159434253,3997730,416.3767,33.09,96422.75,1.1456618
159617803,159595128,3997730,416.09662,33.09,96425.99,1.1457003
159828989,159808777,3997730,416.7255,33.09,96418.74,1.1456141
160040152,160022520,3997730,416.3767,33.09,96422.75,1.1456618
160261434,160238663,3997730,416.3556,33.09,96423.0,1.1456647
160422425,160399613,3997730,416.5511,33.09,96420.74,1.1456379
160633534,160613371,3997730,416.74664,33.09,96418.49,1.1456112
160864694,160834484,3997730,416.94482,33.09,96416.195,1.1455839
161025615,161002992,3997730,416.93954,33.079998,96416.25,1.1455846
161237224,161216676,3997730,416.96066,33.09,96416.0,1.1455816
161468069,161445380,3997730,416.83118,33.09,96417.5,1.1455994
161628900,161606126,3997730,417.13507,33.09,96414.0,1.1455578
161839959,161819720,3997730,416.57227,33.09,96420.49,1.145635
162051060,162033362,3997730,416.7889,33.09,96417.99,1.1456052
162211677,162194065,3997730,417.1562,33.09,96413.74,1.1455548
162432825,162410174,3997730,417.17734,33.09,96413.5,1.1455519
162653935,162636292,3997730,416.98447,33.09,96415.74,1.1455785
162814751,162797083,3997730,417.22226,33.09,96413.0,1.145546
163046073,163025899,3997730,417.30945,33.09,96412.0,1.145534
163257102,163239417,3997730,417.00558,33.09,96415.5,1.1455756
163418146,163400414,3997730,417.09277,33.09,96414.49,1.1455636
163639341,163616651,3997730,416.7678,33.09,96418.24,1.1456082
163850446,163830254,3997730,417.43893,33.09,96410.51,1.1455163
164061678,164044019,3997730,417.069,33.09,96414.75,1.1455667
164222437,164204828,3997730,416.96066,33.1,96416.0,1.1455816
164443728,164420977,3997730,417.22226,33.09,96413.0,1.145546
164654783,164634529,3997730,417.20114,33.09,96413.24,1.1455488
164865671,164848061,3997730,417.24338,33.09,96412.74,1.1455429
165026701,165008895,3997730,417.3306,33.09,96411.74,1.1455309
165247552,165224902,3997730,417.24338,33.09,96412.74,1.1455429
165458734,165438604,3997730,417.85114,33.09,96405.75,1.1454598
165669753,165652104,3997730,417.89343,33.09,96405.25,1.1454538
165830631,165812903,3997730,417.6107,33.09,96408.5,1.1454924
166061741,166041587,3997730,417.8062,33.09,96406.25,1.1454657
166222667,166202479,3997730,417.28833,33.09,96412.24,1.1455369
166433864,166416209,3997730,417.1139,33.09,96414.24,1.1455607
166655019,166632338,3997730,417.17996,33.09,96413.49,1.1455518
166826003,166805858,3997730,417.20114,33.09,96413.24,1.1455488
167037123,167019512,3997730,417.0267,33.09,96415.25,1.1455727
167258079,167235457,3997730,416.89725,33.09,96416.75,1.1455905
167469109,167448986,3997730,416.6145,33.09,96419.99,1.145629
167629795,167609658,3997730,416.5511,33.09,96420.74,1.1456379
167841139,167823371,3997730,416.59338,33.09,96420.24,1.145632
168062332,168039576,3997730,416.5511,33.09,96420.74,1.1456379
168222977,168200273,3997730,416.3344,33.09,96423.25,1.1456677
168434062,168413945,3997730,416.094,33.09,96426.0,1.1457003
168645139,168627466,3997730,416.5273,33.1,96421.0,1.145641
168866262,168843555,3997730,416.0517,33.1,96426.5,1.1457063
169027151,169004390,3997730,416.0517,33.09,96426.5,1.1457063
169238155,169217990,3997730,415.8139,33.09,96429.25,1.145739
169449359,169431620,3997730,415.74783,33.1,96430.0,1.1457479
169670651,169647962,3997730,415.8562,33.09,96428.75,1.1457331
169831600,169808832,3997730,415.5761,33.09,96431.99,1.1457716
170042713,170022422,3997730,415.55493,33.1,96432.25,1.1457746
170253862,170236127,3997730,415.61835,33.1,96431.5,1.1457658
170414714,170397005,3997730,415.46774,33.09,96433.25,1.1457865
170645739,170625601,3997730,415.53116,33.09,96432.49,1.1457776
170856715,170839095,3997730,415.46774,33.09,96433.25,1.1457865
171017713,170999917,3997730,415.18503,33.1,96436.49,1.145825
171238810,171216074,3997730,415.5761,33.1,96432.0,1.1457716
171449965,171429770,3997730,415.38055,33.1,96434.25,1.1457984
171661224,171643566,3997730,415.33563,33.1,96434.75,1.1458044
171822219,171804328,3997730,415.55493,33.1,96432.25,1.1457746
172043306,172020573,3997730,415.66064,33.1,96431.0,1.1457598
172254465,172234284,3997730,416.03058,33.09,96426.75,1.1457093
172465592,172447815,3997730,415.83502,33.09,96429.0,1.145736
172646485,172616298,3997730,415.4704,33.1,96433.2,1.1457859
172857784,172837531,3997730,415.4017,33.1,96434.0,1.1457955
173068867,173051172,3997730,415.66064,33.1,96431.0,1.1457598
173229728,173212084,3997730,415.55493,33.09,96432.25,1.1457746
173450887,173428235,3997730,415.68442,33.09,96430.75,1.1457568
173661981,173641833,3997730,415.8139,33.1,96429.25,1.145739
173822999,173802654,3997730,415.1639,33.09,96436.76,1.1458282
174033936,174016293,3997730,415.63953,33.1,96431.24,1.1457627
174255229,174232467,3997730,415.76898,33.09,96429.75,1.1457449
174466445,174446323,3997730,415.79013,33.09,96429.51,1.145742
174627473,174607204,3997730,415.2511,33.1,96435.74,1.1458161
174838462,174820757,3997730,415.09784,33.1,96437.5,1.1458371
175059606,175036845,3997730,415.4017,33.1,96434.0,1.1457955
175270626,175250317,3997730,415.4017,33.09,96434.0,1.1457955
175431343,175411113,3997730,415.1639,33.09,96436.74,1.145828
175642501,175624887,3997730,415.01065,33.1,96438.5,1.1458489
175863660,175841041,3997730,414.7094,33.09,96442.0,1.1458905
176034544,176014399,3997730,414.96835,33.09,96439.0,1.1458548
176245726,176228033,3997730,415.07672,33.09,96437.74,1.1458399
176426817,176396450,3997730,414.96835,33.1,96438.99,1.1458547
176637928,176617692,3997730,415.05554,33.09,96438.0,1.145843
176869207,176846566,3997730,415.03442,33.09,96438.24,1.1458459
177029898,177007271,3997730,415.5761,33.09,96432.0,1.1457716
177241120,177220851,3997730,415.27222,33.09,96435.5,1.1458132
177451988,177434355,3997730,415.2511,33.09,96435.74,1.1458161
177613187,177595150,3997730,415.29337,33.09,96435.25,1.1458102
177834066,177811416,3997730,415.51004,33.09,96432.74,1.1457804
178045239,178024898,3997730,415.01065,33.09,96438.5,1.1458489
178256306,178238608,3997730,415.22733,33.09,96436.0,1.1458192
178417290,178399556,3997730,415.33563,33.09,96434.75,1.1458044
178638472,178615790,3997730,415.444,33.09,96433.5,1.1457895
178849651,178829357,3997730,414.98947,33.09,96438.74,1.1458517
179060712,179043024,3997730,415.42282,33.09,96433.75,1.1457925
179221595,179203962,3997730,415.1639,33.09,96436.76,1.1458282
179452755,179432520,3997730,415.05554,33.09,96438.0,1.145843
179664047,179646296,3997730,415.38055,33.09,96434.25,1.1457984
179844951,179822286,3997730,415.33563,33.09,96434.75,1.1458044
180056268,180036019,3997730,415.444,33.09,96433.5,1.1457895
180267422,180249771,3997730,415.3145,33.09,96435.0,1.1458074
180428302,180410683,3997730,414.94724,33.09,96439.24,1.1458577
180649475,180626783,3997730,415.38055,33.09,96434.25,1.1457984
180860704,180840563,3997730,415.70554,33.09,96430.5,1.1457539
181021706,181001470,3997730,415.61835,33.09,96431.5,1.1457658
181232763,181215151,3997730,415.42282,33.09,96433.75,1.1457925
181453928,181431245,3997730,415.51004,33.09,96432.75,1.1457806
181665076,181644832,3997730,415.83502,33.09,96429.0,1.145736
181825828,181805566,3997730,415.7928,33.09,96429.5,1.1457419
182036841,182019162,3997730,415.7267,33.09,96430.25,1.1457509
182258043,182235320,3997730,415.9434,33.09,96427.75,1.1457212
182469240,182449037,3997730,415.55493,33.09,96432.24,1.1457746
182630087,182609941,3997730,415.68442,33.09,96430.75,1.1457568
182841338,182823685,3997730,415.8562,33.09,96428.75,1.1457331
183062629,183039813,3997730,415.98563,33.09,96427.25,1.1457152
183223302,183200615,3997730,416.03058,33.09,96426.75,1.1457093
183434450,183414234,3997730,416.094,33.079998,96426.0,1.1457003
183645340,183627718,3997730,416.24722,33.09,96424.25,1.1456796
183866886,183843916,3997730,416.20233,33.09,96424.75,1.1456856
184037429,184017230,3997730,416.74664,33.09,96418.49,1.1456112
184248634,184230922,3997730,416.5273,33.09,96421.0,1.145641
184409371,184391728,3997730,416.70172,33.09,96418.99,1.1456171
184630482,184607799,3997730,417.069,33.09,96414.75,1.1455667
184841540,184821425,3997730,417.069,33.09,96414.75,1.1455667
185052815,185035201,3997730,417.43893,33.079998,96410.5,1.1455163
185213778,185196111,3997730,416.8761,33.09,96416.99,1.1455934
185434972,185412305,3997730,417.09277,33.079998,96414.5,1.1455637
185646061,185625939,3997730,417.22226,33.09,96413.0,1.145546
185857040,185839430,3997730,416.93954,33.079998,96416.25,1.1455846
186038047,186007792,3997730,416.99768,33.09,96415.59,1.1455767
186249092,186228915,3997730,417.1562,33.09,96413.74,1.1455548
186419958,186395773,3997730,416.85764,33.09,96417.2,1.1455959
186641065,186618428,3997730,417.1139,33.09,96414.24,1.1455607
186852205,186831962,3997730,417.22226,33.09,96413.0,1.145546
187063494,187045753,3997730,416.98447,33.09,96415.75,1.1455786
187224494,187206709,3997730,417.09277,33.09,96414.5,1.1455637
187445636,187422967,3997730,416.7889,33.079998,96417.99,1.1456052
187666840,187642610,3997730,416.94482,33.079998,96416.195,1.1455839
187827571,187809923,3997730,416.93954,33.09,96416.25,1.1455846
188048636,188025956,3997730,417.39664,33.079998,96411.0,1.1455221
188259755,188239615,3997730,417.1139,33.09,96414.24,1.1455607
188420759,188400496,3997730,417.35175,33.079998,96411.5,1.1455281
188631842,188614136,3997730,417.4178,33.079998,96410.75,1.1455193
188853133,188830244,3997730,416.96066,33.079998,96416.0,1.1455816
189064077,189043863,3997730,417.22226,33.09,96413.0,1.145546
189224746,189204589,3997730,416.81006,33.09,96417.75,1.1456023
189435906,189418250,3997730,416.89725,33.09,96416.75,1.1455905
189656988,189634365,3997730,416.89725,33.09,96416.75,1.1455905
189828015,189807800,3997730,417.069,33.09,96414.75,1.1455667
190039218,190021593,3997730,417.30945,33.079998,96412.0,1.145534
190260512,190237794,3997730,417.1139,33.09,96414.24,1.1455607
190421353,190398547,3997730,417.1139,33.09,96414.24,1.1455607
190632559,190612310,3997730,417.3306,33.09,96411.75,1.145531
190843599,190825926,3997730,417.37286,33.09,96411.25,1.1455251
191064725,191041991,3997730,417.41516,33.079998,96410.76,1.1455193
191225513,191202868,3997730,417.09277,33.079998,96414.49,1.1455636
191446850,191422576,3997730,417.431,33.09,96410.59,1.1455173
191668056,191645387,3997730,417.43893,33.09,96410.49,1.1455162
191828792,191806173,3997730,417.17734,33.09,96413.5,1.1455519
192039956,192019832,3997730,417.22226,33.079998,96413.0,1.145546
192250968,192233359,3997730,417.13507,33.09,96414.0,1.1455578
192411826,192394166,3997730,417.20114,33.09,96413.24,1.1455488
192632815,192610109,3997730,417.09277,33.09,96414.5,1.1455637
192843926,192823644,3997730,417.39664,33.09,96411.0,1.1455221
193055188,193037336,3997730,417.48123,33.09,96410.0,1.1455103
193215938,193198312,3997730,417.50497,33.09,96409.74,1.1455072
193437138,193414500,3997730,417.67673,33.079998,96407.75,1.1454835
193648505,193628199,3997730,417.22226,33.09,96413.0,1.145546
193859555,193841938,3997730,417.09277,33.09,96414.49,1.1455636
194020479,194002806,3997730,417.87225,33.09,96405.5,1.1454568
194241606,194218988,3997730,417.1562,33.09,96413.74,1.1455548
194452708,194432532,3997730,417.26456,33.09,96412.5,1.14554
194663800,194646190,3997730,417.09277,33.09,96414.49,1.1455636
194824659,194807005,3997730,417.069,33.09,96414.75,1.1455667
195045771,195023108,3997730,417.26456,33.09,96412.5,1.14554
195256914,195236720,3997730,417.32797,33.09,96411.76,1.1455312
195468089,195450376,3997730,417.37286,33.09,96411.24,1.1455251
195629213,195611381,3997730,417.4178,33.09,96410.74,1.1455191
195850183,195827514,3997730,417.13507,33.09,96413.99,1.1455578
196061341,196041163,3997730,417.22226,33.09,96413.0,1.145546
196222183,196202055,3997730,417.74277,33.09,96407.0,1.1454747
196433339,196415698,3997730,417.37286,33.079998,96411.25,1.1455251
196654571,196631919,3997730,417.39664,33.09,96411.0,1.1455221
196865969,196845694,3997730,417.4178,33.09,96410.75,1.1455193
197026681,197006570,3997730,417.30945,33.09,96412.0,1.145534
197238100,197220036,3997730,417.20114,33.09,96413.24,1.1455488
197458909,197436274,3997730,417.37286,33.09,96411.26,1.1455252
197671150,197649908,3997730,417.52347,33.09,96409.5,1.1455044
197861085,197838419,3997730,417.65558,33.09,96408.0,1.1454865
198022069,197999250,3997730,417.39664,33.09,96411.0,1.1455221
198233224,198212985,3997730,417.65558,33.09,96407.99,1.1454865
198444427,198426592,3997730,417.71902,33.09,96407.25,1.1454777
198665563,198642858,3997730,417.74277,33.09,96407.0,1.1454747
198826389,198803735,3997730,417.5684,33.09,96409.0,1.1454984
199067673,199044916,3997730,417.98062,33.09,96404.25,1.145442
199228492,199205811,3997730,417.58954,33.09,96408.75,1.1454954
199439768,199419568,3997730,417.58954,33.09,96408.75,1.1454954
199650870,199633256,3997730,417.82736,33.09,96406.0,1.1454628
199811776,199794135,3997730,417.43893,33.09,96410.5,1.1455163
200032901,200010264,3997730,417.85114,33.09,96405.75,1.1454598
200244117,200223972,3997730,417.50497,33.1,96409.75,1.1455073
200455042,200437408,3997730,417.6107,33.09,96408.5,1.1454924
200616410,200598196,3997730,417.58954,33.1,96408.75,1.1454954
200837032,200814391,3997730,417.78506,33.1,96406.5,1.1454687
201048210,201028020,3997730,417.91455,33.09,96405.01,1.145451
201259357,201241643,3997730,418.23953,33.09,96401.25,1.1454064
201420130,201402509,3997730,418.2184,33.09,96401.49,1.1454092
201641359,201618652,3997730,417.65558,33.09,96407.99,1.1454865
201862637,201838338,3997730,417.77716,33.09,96406.6,1.1454699
202023557,202005882,3997730,417.78506,33.09,96406.49,1.1454686
202244812,202222000,3997730,417.4178,33.09,96410.74,1.1455191
202455788,202435663,3997730,417.78506,33.09,96406.49,1.1454686
202617383,202596458,3997730,417.85114,33.09,96405.75,1.1454598
202847921,202825225,3997730,417.8062,33.09,96406.25,1.1454657
203059030,203038899,3997730,417.63446,33.1,96408.24,1.1454895
203219768,203199639,3997730,417.70053,33.09,96407.49,1.1454805
203431112,203413324,3997730,418.11008,33.09,96402.75,1.1454241
203652128,203629453,3997730,417.67673,33.09,96407.74,1.1454835
203863095,203842878,3997730,417.48123,33.1,96410.0,1.1455103
204023847,204003645,3997730,417.74277,33.1,96406.99,1.1454746
204234961,204217303,3997730,417.69788,33.09,96407.5,1.1454806
204456314,204433522,3997730,417.98062,33.09,96404.25,1.145442
204667426,204647236,3997730,417.93567,33.09,96404.75,1.1454479
204828324,204808086,3997730,418.0678,33.09,96403.25,1.1454301
205039463,205021811,3997730,417.85114,33.1,96405.75,1.1454598
205220508,205190265,3997730,417.86435,33.1,96405.59,1.145458
205431681,205411502,3997730,417.71902,33.1,96407.25,1.1454777
205642831,205625183,3997730,417.89343,33.09,96405.25,1.1454538
205863877,205841170,3997730,417.70053,33.1,96407.49,1.1454805
206024589,206001944,3997730,417.58954,33.1,96408.75,1.1454954
206235696,206215570,3997730,417.91455,33.1,96405.0,1.1454508
206446799,206429155,3997730,417.58954,33.09,96408.75,1.1454954
206667972,206645298,3997730,417.89343,33.1,96405.25,1.1454538
206828944,206806244,3997730,417.67673,33.1,96407.75,1.1454835
207040118,207019904,3997730,417.46005,33.1,96410.25,1.1455133
207251104,207233480,3997730,417.24338,33.1,96412.74,1.1455429
207412070,207394290,3997730,417.6107,33.1,96408.5,1.1454924
207633416,207610650,3997730,417.4178,33.1,96410.75,1.1455193
207844524,207824238,3997730,417.58954,33.09,96408.75,1.1454954
208055997,208037955,3997730,417.37286,33.1,96411.24,1.1455251
208216478,208198840,3997730,417.35175,33.1,96411.5,1.1455281
208437838,208415076,3997730,417.54727,33.1,96409.24,1.1455013
208648917,208628695,3997730,417.67673,33.1,96407.74,1.1454835
208860183,208842422,3997730,417.74277,33.1,96406.99,1.1454746
209021030,209003356,3997730,417.5684,33.1,96409.0,1.1454984
209241949,209219325,3997730,417.71902,33.1,96407.25,1.1454777
209463185,209445561,3997730,417.58954,33.1,96408.75,1.1454954
209623987,209606299,3997730,417.76395,33.1,96406.75,1.1454717
209845305,209822620,3997730,417.93567,33.1,96404.75,1.1454479
210056452,210036316,3997730,417.93567,33.1,96404.75,1.1454479
210267614,210249966,3997730,417.70053,33.1,96407.49,1.1454805
210428539,210410878,3997730,417.69788,33.1,96407.5,1.1454806
210659731,210639579,3997730,417.71902,33.1,96407.25,1.1454777
210820427,210800302,3997730,418.04666,33.1,96403.5,1.1454331
211031581,211013880,3997730,417.82736,33.1,96406.0,1.1454628
211252818,211230121,3997730,418.0678,33.1,96403.25,1.1454301
211463891,211443617,3997730,417.87225,33.1,96405.5,1.1454568
211624776,211604631,3997730,418.32675,33.1,96400.25,1.1453944
211835964,211818214,3997730,418.08893,33.1,96403.0,1.1454271
212057095,212034377,3997730,418.3479,33.1,96400.0,1.1453915
212218386,212195238,3997730,418.23953,33.1,96401.25,1.1454064
212439365,212421623,3997730,418.11008,33.1,96402.75,1.1454241
212660371,212637732,3997730,418.3479,33.1,96400.0,1.1453915
212821320,212798491,3997730,418.13123,33.1,96402.5,1.1454211
213032210,213011973,3997730,418.52225,33.1,96398.0,1.1453677
213243186,213225560,3997730,418.155,33.1,96402.25,1.1454182
213464378,213441741,3997730,417.8062,33.1,96406.25,1.1454657
213625409,213602661,3997730,418.17615,33.1,96402.0,1.1454152
213836398,213816268,3997730,418.155,33.1,96402.25,1.1454182
214047575,214029971,3997730,417.82736,33.1,96406.0,1.1454628
214208372,214190672,3997730,417.98062,33.1,96404.25,1.145442
214429474,214406714,3997730,417.98062,33.1,96404.26,1.145442
214640720,214620476,3997730,418.23953,33.1,96401.25,1.1454064
214851913,214834212,3997730,418.19727,33.1,96401.75,1.1454122
215012791,214995055,3997730,417.8062,33.1,96406.25,1.1454657
215233625,215211005,3997730,417.91455,33.1,96405.0,1.1454508
215444694,215424553,3997730,417.89343,33.1,96405.25,1.1454538
215655819,215638192,3997730,417.87225,33.1,96405.49,1.1454567
215816892,215799212,3997730,417.85114,33.1,96405.75,1.1454598
216038156,216015481,3997730,417.85114,33.1,96405.75,1.1454598
216249237,216229119,3997730,417.82736,33.1,96406.0,1.1454628
216460474,216442804,3997730,417.95944,33.1,96404.5,1.145445
216621409,216603785,3997730,417.98062,33.1,96404.26,1.145442
216842744,216820035,3997730,418.02286,33.1,96403.75,1.145436
217053922,217033745,3997730,417.89343,33.1,96405.25,1.1454538
217215559,217194837,3997730,418.45624,33.1,96398.75,1.1453766
217446144,217423456,3997730,418.08893,33.1,96403.0,1.1454271
217657542,217637192,3997730,417.91455,33.1,96405.0,1.1454508
217868450,217850839,3997730,417.67673,33.1,96407.75,1.1454835
218029494,218011709,3997730,417.95944,33.1,96404.5,1.145445
218250541,218227909,3997730,418.02286,33.1,96403.75,1.145436
218462178,218441559,3997730,417.65558,33.1,96407.99,1.1454865
218632730,218615047,3997730,417.8062,33.1,96406.25,1.1454657
218853847,218831064,3997730,417.91455,33.1,96405.0,1.1454508
219064840,219044662,3997730,418.17615,33.1,96401.99,1.1454152
219225834,219205637,3997730,417.76395,33.11,96406.75,1.1454717
219437002,219419386,3997730,417.8062,33.1,96406.25,1.1454657
219658001,219635327,3997730,417.43893,33.11,96410.5,1.1455163
219828781,219808663,3997730,417.71902,33.11,96407.25,1.1454777
220039984,220022337,3997730,417.71902,33.1,96407.25,1.1454777
220260929,220238293,3997730,417.54727,33.1,96409.24,1.1455013
220421783,220399074,3997730,417.85114,33.1,96405.75,1.1454598
220633170,220612913,3997730,417.46005,33.11,96410.25,1.1455133
220844135,220826485,3997730,417.63184,33.11,96408.25,1.1454895
221065486,221042721,3997730,417.5684,33.11,96409.0,1.1454984
221226322,221203635,3997730,417.89343,33.11,96405.25,1.1454538
221437453,221417309,3997730,417.93567,33.11,96404.75,1.1454479
221648512,221630881,3997730,417.71902,33.1,96407.25,1.1454777
221809427,221791755,3997730,417.48123,33.1,96410.0,1.1455103
222030466,222007813,3997730,417.87225,33.1,96405.5,1.1454568
222241612,222221408,3997730,417.50497,33.11,96409.74,1.1455072
222452874,222435227,3997730,417.63184,33.11,96408.25,1.1454895
222613646,222596010,3997730,417.58954,33.11,96408.75,1.1454954
222834816,222812063,3997730,417.48123,33.11,96410.0,1.1455103
223045810,223025599,3997730,417.70053,33.11,96407.49,1.1454805
223216670,223192471,3997730,417.8115,33.11,96406.2,1.1454651
223437775,223415156,3997730,417.37286,33.1,96411.24,1.1455251
223648861,223628704,3997730,417.78506,33.11,96406.5,1.1454687
223860047,223842340,3997730,417.70053,33.11,96407.49,1.1454805
224020789,224003143,3997730,417.70053,33.11,96407.49,1.1454805
224242074,224219373,3997730,417.54727,33.11,96409.25,1.1455014
224453417,224433057,3997730,417.39398,33.11,96411.01,1.1455222
224624036,224606371,3997730,417.76395,33.11,96406.75,1.1454717
224845464,224822629,3997730,417.50497,33.11,96409.75,1.1455073
225056548,225036220,3997730,417.91455,33.11,96404.99,1.1454508
225227532,225203271,3997730,417.7243,33.11,96407.195,1.1454769
225448561,225425911,3997730,417.54727,33.11,96409.25,1.1455014
225659995,225639724,3997730,417.65558,33.11,96407.99,1.1454865
225820722,225800573,3997730,417.74277,33.11,96406.99,1.1454746
226031797,226014130,3997730,417.65558,33.11,96407.99,1.1454865
226253057,226230389,3997730,417.58954,33.11,96408.75,1.1454954
226465071,226443892,3997730,417.63446,33.11,96408.24,1.1454895
226634974,226617361,3997730,417.82736,33.11,96406.0,1.1454628
226856328,226833360,3997730,417.3306,33.11,96411.74,1.1455309
227067455,227047181,3997730,417.70053,33.11,96407.49,1.1454805
227229640,227208043,3997730,417.70053,33.12,96407.49,1.1454805
227469602,227449451,3997730,417.76395,33.11,96406.75,1.1454717
227630475,227610273,3997730,417.78506,33.11,96406.49,1.1454686
227841456,227823747,3997730,417.5684,33.12,96409.0,1.1454984
228062539,228039822,3997730,417.78506,33.12,96406.5,1.1454687
228223202,228200573,3997730,417.65558,33.12,96407.99,1.1454865
228434454,228414298,3997730,417.65558,33.11,96407.99,1.1454865
228665682,228643006,3997730,417.74277,33.12,96407.0,1.1454747
228826513,228803783,3997730,417.85114,33.12,96405.75,1.1454598
229037648,229017403,3997730,417.98062,33.11,96404.25,1.145442
229248682,229231024,3997730,417.39664,33.12,96411.0,1.1455221
229429506,229399336,3997730,417.84586,33.12,96405.8,1.1454604
229640462,229620339,3997730,417.59216,33.11,96408.74,1.1454953
229851633,229833935,3997730,417.76395,33.12,96406.74,1.1454716
230012425,229994761,3997730,417.41516,33.12,96410.76,1.1455193
230233614,230210889,3997730,417.67673,33.12,96407.75,1.1454835
230444463,230424341,3997730,417.58954,33.12,96408.75,1.1454954
230655975,230637866,3997730,417.63184,33.12,96408.25,1.1454895
230816482,230798845,3997730,417.67673,33.12,96407.75,1.1454835
231037858,231015093,3997730,417.50497,33.12,96409.74,1.1455072
231249040,231228865,3997730,417.98062,33.12,96404.25,1.145442
231460714,231442492,3997730,417.71902,33.12,96407.25,1.1454777
231620908,231603287,3997730,418.08893,33.12,96403.0,1.1454271
231842048,231819337,3997730,417.70053,33.12,96407.49,1.1454805
232053160,232033020,3997730,417.91455,33.12,96405.0,1.1454508
232264154,232246511,3997730,417.89343,33.12,96405.25,1.1454538
232425139,232407478,3997730,417.70053,33.12,96407.49,1.1454805
232646262,232623495,3997730,418.11008,33.12,96402.75,1.1454241
232857491,232837371,3997730,418.0678,33.12,96403.25,1.1454301
233068648,233050995,3997730,417.71902,33.12,96407.25,1.1454777
233229703,233211995,3997730,417.87225,33.12,96405.5,1.1454568
233450928,233428264,3997730,417.85114,33.12,96405.75,1.1454598
233662203,233642056,3997730,417.85114,33.12,96405.75,1.1454598
233823032,233802840,3997730,418.00174,33.12,96404.0,1.145439
234034152,234016386,3997730,417.91455,33.12,96405.0,1.1454508
234255469,234232576,3997730,418.11008,33.12,96402.75,1.1454241
234466526,234446279,3997730,417.65558,33.12,96407.99,1.1454865
234627251,234607042,3997730,417.74277,33.12,96406.99,1.1454746
234838413,234820718,3997730,417.85114,33.13,96405.75,1.1454598
235059579,235036878,3997730,418.0678,33.13,96403.25,1.1454301
235220473,235197853,3997730,417.98062,33.13,96404.25,1.145442
235431570,235411337,3997730,417.78506,33.12,96406.5,1.1454687
235642809,235624963,3997730,417.39664,33.13,96411.0,1.1455221
235863716,235841067,3997730,417.85114,33.13,96405.75,1.1454598
236024786,236001910,3997730,418.02286,33.13,96403.75,1.145436
236235792,236215642,3997730,417.82736,33.13,96406.0,1.1454628
236446935,236429260,3997730,417.69788,33.13,96407.5,1.1454806
236607728,236590108,3997730,417.76395,33.13,96406.75,1.1454717
236829033,236806340,3997730,417.85114,33.13,96405.75,1.1454598
237040160,237020026,3997730,417.98062,33.13,96404.25,1.145442
237251553,237233691,3997730,417.71902,33.13,96407.25,1.1454777
237412177,237394542,3997730,417.87225,33.13,96405.49,1.1454567
237633437,237610701,3997730,417.54727,33.13,96409.25,1.1455014
237844537,237824419,3997730,417.74277,33.13,96406.99,1.1454746
238055630,238038014,3997730,418.3479,33.13,96400.0,1.1453915
238236824,238214134,3997730,417.93567,33.13,96404.75,1.1454479
238447909,238427726,3997730,417.76395,33.13,96406.74,1.1454716
238658993,238641333,3997730,418.0678,33.13,96403.25,1.1454301
238819890,238802181,3997730,417.85114,33.13,96405.75,1.1454598
239051263,239031010,3997730,417.95944,33.13,96404.5,1.145445
239262427,239244707,3997730,417.98062,33.13,96404.25,1.145442
239423036,239405427,3997730,417.91455,33.14,96405.0,1.1454508
239644358,239621637,3997730,417.83002,33.13,96405.99,1.1454626
239855744,239835344,3997730,417.83002,33.13,96405.99,1.1454626
240066945,240049259,3997730,417.95944,33.14,96404.5,1.145445
240247858,240217609,3997730,417.793,33.14,96406.4,1.1454675
240458688,240438562,3997730,417.91455,33.14,96405.0,1.1454508
240619690,240599550,3997730,417.65558,33.14,96408.0,1.1454865
240830838,240813126,3997730,418.3056,33.13,96400.5,1.1453974
241052062,241029434,3997730,417.74277,33.14,96406.99,1.1454746
241263079,241242919,3997730,418.2184,33.14,96401.49,1.1454092
241424108,241403768,3997730,417.87225,33.14,96405.5,1.1454568
241635168,241617520,3997730,418.00174,33.14,96404.0,1.145439
241856166,241833482,3997730,417.98062,33.14,96404.25,1.145442
242067285,242047054,3997730,418.11008,33.14,96402.75,1.1454241
242228024,242207870,3997730,418.35052,33.14,96399.99,1.1453913
242439305,242421648,3997730,418.26334,33.14,96401.0,1.1454034
242660372,242637734,3997730,418.26334,33.14,96401.0,1.1454034
242821391,242798722,3997730,418.19727,33.14,96401.75,1.1454122
243032336,243012211,3997730,418.13123,33.14,96402.5,1.1454211
243263769,243233550,3997730,417.98325,33.14,96404.2,1.1454414
243424659,243401865,3997730,417.6107,33.14,96408.5,1.1454924
243635704,243615530,3997730,418.23953,33.14,96401.25,1.1454064
243846850,243829234,3997730,418.08893,33.14,96403.0,1.1454271
244028255,243997717,3997730,418.07043,33.14,96403.2,1.1454295
244249088,244231328,3997730,418.00174,33.14,96404.0,1.145439
244470447,244447597,3997730,418.13123,33.149998,96402.5,1.1454211
244631074,244608385,3997730,417.82736,33.149998,96406.0,1.1454628
244842355,244822113,3997730,418.02286,33.14,96403.75,1.145436
245053437,245035740,3997730,417.78506,33.149998,96406.5,1.1454687
245214330,245196669,3997730,418.13123,33.14,96402.5,1.1454211
245435331,245412682,3997730,417.58954,33.149998,96408.75,1.1454954
245646533,245626290,3997730,417.70053,33.149998,96407.49,1.1454805
245857673,245840051,3997730,417.52347,33.14,96409.5,1.1455044
246018700,246000943,3997730,417.83002,33.149998,96405.99,1.1454626
246239662,246216943,3997730,417.6107,33.149998,96408.5,1.1454924
246450700,246430440,3997730,417.70053,33.149998,96407.49,1.1454805
246661575,246643930,3997730,417.89343,33.149998,96405.25,1.1454538
246822396,246804714,3997730,418.02286,33.149998,96403.75,1.145436
247043480,247020846,3997730,417.5684,33.149998,96409.0,1.1454984
247254593,247234394,3997730,417.87225,33.149998,96405.51,1.1454569
247465611,247447947,3997730,417.65558,33.149998,96408.0,1.1454865
247626400,247608775,3997730,417.67673,33.149998,96407.74,1.1454835
247847501,247824755,3997730,417.83002,33.149998,96405.99,1.1454626
248058730,248038520,3997730,417.95682,33.149998,96404.51,1.145445
248269949,248252236,3997730,417.71902,33.149998,96407.25,1.1454777
248430536,248412926,3997730,417.93567,33.149998,96404.75,1.1454479
248651990,248628968,3997730,417.74277,33.149998,96406.99,1.1454746
248822723,248802511,3997730,417.4178,33.16,96410.75,1.1455193
249034201,249016192,3997730,418.00174,33.149998,96404.0,1.145439
249254926,249232296,3997730,417.98062,33.149998,96404.25,1.145442
249416550,249393161,3997730,417.87225,33.149998,96405.49,1.1454567
249636931,249619301,3997730,417.91455,33.149998,96404.99,1.1454508
249858264,249835490,3997730,417.74277,33.149998,96406.99,1.1454746
250019099,249996387,3997730,417.87225,33.16,96405.51,1.1454569
250230386,250210113,3997730,417.78506,33.149998,96406.5,1.1454687
250441508,250423736,3997730,418.39282,33.149998,96399.5,1.1453855
250664083,250639964,3997730,418.2184,33.16,96401.5,1.1454093
250833488,250813307,3997730,417.58954,33.16,96408.75,1.1454954
251044693,251027065,3997730,417.87225,33.16,96405.49,1.1454567
251265868,251243113,3997730,418.08893,33.16,96403.0,1.1454271
251426688,251404017,3997730,417.71902,33.16,96407.25,1.1454777
254664209,254646589,3997730,417.93567,33.16,96404.75,1.1454479
254825778,254807400,3997730,417.70053,33.17,96407.49,1.1454805
255046266,255023510,3997730,417.71902,33.17,96407.25,1.1454777
255257611,255237309,3997730,417.83002,33.17,96405.99,1.1454626
255468615,255450908,3997730,417.8062,33.17,96406.25,1.1454657
255629497,255611775,3997730,417.91455,33.17,96405.0,1.1454508
255850440,255827689,3997730,417.63446,33.17,96408.24,1.1454895
256061627,256041420,3997730,417.82736,33.17,96406.0,1.1454628
256222438,256202278,3997730,418.02286,33.17,96403.75,1.145436
256433544,256415919,3997730,418.0678,33.17,96403.25,1.1454301
256654768,256632036,3997730,417.89343,33.17,96405.25,1.1454538
256865681,256845567,3997730,417.85114,33.17,96405.75,1.1454598
257026810,257006511,3997730,417.85114,33.17,96405.75,1.1454598
257237637,257219987,3997730,417.95944,33.17,96404.5,1.145445
257458754,257435990,3997730,417.87225,33.17,96405.49,1.1454567
257619574,257596932,3997730,418.02286,33.17,96403.75,1.145436
257830792,257810651,3997730,417.93567,33.17,96404.75,1.1454479
258042121,258024379,3997730,417.93567,33.17,96404.75,1.1454479
258263309,258240590,3997730,418.0678,33.17,96403.25,1.1454301
258424113,258401489,3997730,417.8062,33.18,96406.25,1.1454657
258645465,258621234,3997730,417.94888,33.18,96404.6,1.1454462
258866808,258844067,3997730,417.87225,33.17,96405.51,1.1454569
259027835,259005067,3997730,418.04666,33.18,96403.5,1.1454331
259239276,259218921,3997730,418.0678,33.18,96403.25,1.1454301
259450244,259432594,3997730,418.11008,33.18,96402.75,1.1454241
259611201,259593468,3997730,418.17615,33.18,96401.99,1.1454152
259832234,259809601,3997730,417.95944,33.18,96404.5,1.145445
260043188,260023045,3997730,417.93567,33.18,96404.75,1.1454479
260254848,260236833,3997730,418.32675,33.18,96400.25,1.1453944
260415450,260397752,3997730,418.155,33.18,96402.25,1.1454182
260637087,260614117,3997730,418.3479,33.18,96400.0,1.1453915
260847783,260827642,3997730,418.2184,33.18,96401.49,1.1454092
261058874,261041121,3997730,418.2184,33.18,96401.5,1.1454093
261219674,261202038,3997730,417.95944,33.18,96404.5,1.145445
261440695,261418074,3997730,418.02286,33.18,96403.75,1.145436
261652015,261631811,3997730,418.5857,33.18,96397.25,1.1453588
261863244,261845420,3997730,418.19727,33.18,96401.74,1.1454122
262023951,262006335,3997730,418.17615,33.19,96401.99,1.1454152
262245117,262222446,3997730,418.13123,33.18,96402.5,1.1454211
262466310,262448686,3997730,418.17615,33.18,96402.0,1.1454152
262627133,262609456,3997730,418.26334,33.18,96401.0,1.1454034
262848565,262825813,3997730,418.36902,33.19,96399.75,1.1453885
263059836,263039690,3997730,418.3479,33.18,96400.0,1.1453915
263220814,263200660,3997730,418.19727,33.19,96401.75,1.1454122
263431806,263414163,3997730,418.39282,33.19,96399.5,1.1453855
263653075,263630394,3997730,418.155,33.19,96402.25,1.1454182
263864222,263844079,3997730,418.23953,33.19,96401.25,1.1454064
264035001,264010852,3997730,418.33203,33.19,96400.195,1.1453938
264256232,264233495,3997730,418.02286,33.19,96403.75,1.145436
264417313,264394362,3997730,418.13123,33.19,96402.5,1.1454211
264638438,264620620,3997730,418.54343,33.19,96397.75,1.1453648
264859438,264836645,3997730,418.97678,33.19,96392.74,1.1453053
265020105,264997482,3997730,418.7178,33.19,96395.74,1.1453409
265231376,265211215,3997730,419.2595,33.19,96389.49,1.1452667
265442419,265424791,3997730,418.8473,33.19,96394.24,1.145323
265664816,265640838,3997730,418.7601,33.19,96395.24,1.145335
265834377,265814198,3997730,418.54343,33.19,96397.75,1.1453648
266045370,266027672,3997730,418.95563,33.19,96392.99,1.1453083
266266672,266243878,3997730,418.6729,33.19,96396.25,1.1453469
266427420,266404658,3997730,418.6729,33.19,96396.25,1.1453469
266648545,266624376,3997730,419.14584,33.19,96390.805,1.1452823
266809466,266791726,3997730,419.01904,33.2,96392.25,1.1452994
267050592,267026457,3997730,419.1115,33.19,96391.195,1.1452868
267211460,267193783,3997730,419.06393,33.19,96391.75,1.1452935
267432610,267409907,3997730,418.7601,33.2,96395.24,1.145335
267643750,267623524,3997730,418.7601,33.19,96395.24,1.145335
267814658,267790510,3997730,419.1115,33.2,96391.195,1.1452868
268035908,268013128,3997730,418.97678,33.2,96392.75,1.1453053
268247165,268226967,3997730,418.93448,33.2,96393.24,1.1453111
268458373,268440643,3997730,418.56454,33.2,96397.5,1.1453618
268619297,268601498,3997730,419.06393,33.2,96391.75,1.1452935
268840580,268817748,3997730,419.34668,33.2,96388.5,1.1452549
269051608,269031417,3997730,419.38898,33.2,96388.0,1.1452489
269262805,269245143,3997730,419.47617,33.2,96387.0,1.145237
269423651,269406039,3997730,419.3678,33.21,96388.24,1.1452518
269644763,269622132,3997730,419.06393,33.2,96391.75,1.1452935
269866175,269841867,3997730,419.07715,33.2,96391.6,1.1452917
270026879,270009249,3997730,418.95563,33.2,96393.0,1.1453083
270249236,270225469,3997730,419.1723,33.2,96390.5,1.1452786
270469405,270451758,3997730,419.3018,33.21,96389.0,1.1452608
270630306,270612625,3997730,419.23837,33.21,96389.75,1.1452696
270851558,270828799,3997730,419.32556,33.21,96388.74,1.1452577
271062593,271042461,3997730,419.06393,33.21,96391.75,1.1452935
271223528,271203248,3997730,419.45502,33.21,96387.25,1.14524
271434491,271416774,3997730,419.1723,33.21,96390.5,1.1452786
271665470,271645233,3997730,418.8896,33.21,96393.75,1.1453172
271826425,271806241,3997730,419.60562,33.21,96385.5,1.1452192
272037505,272019868,3997730,419.34668,33.21,96388.5,1.1452549
272258679,272235905,3997730,419.51846,33.21,96386.5,1.145231
272469728,272449501,3997730,419.7351,33.21,96384.0,1.1452013
272630393,272610250,3997730,419.62677,33.21,96385.25,1.1452162
272841630,272823929,3997730,419.5845,33.21,96385.75,1.1452222
273062766,273040064,3997730,419.38898,33.219997,96388.0,1.1452489
273223662,273201020,3997730,419.4101,33.21,96387.74,1.1452458
273434592,273414443,3997730,419.38898,33.21,96388.0,1.1452489
273666205,273635845,3997730,419.43915,33.21,96387.41,1.1452419
273827001,273804344,3997730,419.38898,33.21,96387.99,1.1452488
274048481,274024137,3997730,419.40744,33.219997,96387.8,1.1452465
274209222,274191606,3997730,419.38898,33.219997,96387.99,1.1452488
274430593,274407867,3997730,419.3018,33.219997,96388.99,1.1452607
274641646,274621494,3997730,419.15112,33.219997,96390.75,1.1452816
274852785,274835152,3997730,419.21457,33.219997,96390.0,1.1452726
275013621,274995990,3997730,419.04282,33.219997,96392.0,1.1452965
275235349,275212161,3997730,418.8922,33.21,96393.74,1.1453171
275456038,275438424,3997730,418.8922,33.219997,96393.74,1.1453171
275617136,275599364,3997730,418.91333,33.219997,96393.49,1.1453141
275838343,275815628,3997730,418.6306,33.219997,96396.75,1.1453528
276049428,276029317,3997730,418.56454,33.219997,96397.5,1.1453618
276260630,276242974,3997730,418.52225,33.219997,96398.0,1.1453677
276421505,276403798,3997730,418.39282,33.219997,96399.5,1.1453855
276642544,276619879,3997730,418.23953,33.23,96401.24,1.1454062
276853696,276833454,3997730,418.52225,33.219997,96398.0,1.1453677
277064774,277047112,3997730,418.36902,33.219997,96399.75,1.1453885
277225604,277207969,3997730,418.3056,33.219997,96400.5,1.1453974
277457139,277436838,3997730,418.19727,33.219997,96401.75,1.1454122
277668318,277650501,3997730,418.26334,33.23,96401.0,1.1454034
277849223,277826591,3997730,418.2184,33.23,96401.49,1.1454092
278060282,278040133,3997730,418.28445,33.23,96400.75,1.1454004
278221162,278201038,3997730,418.3056,33.23,96400.49,1.1453973
278432296,278414615,3997730,418.36902,33.23,96399.75,1.1453885
278653458,278630665,3997730,418.17615,33.23,96402.0,1.1454152
278864537,278844423,3997730,418.4351,33.23,96399.0,1.1453795
279025579,279005251,3997730,418.11008,33.23,96402.75,1.1454241
279236555,279218883,3997730,418.54343,33.23,96397.75,1.1453648
279457741,279434994,3997730,418.17615,33.23,96402.0,1.1454152
279618604,279595926,3997730,417.93567,33.23,96404.75,1.1454479
279829639,279809480,3997730,418.04666,33.239998,96403.5,1.1454331
280040751,280023099,3997730,418.26334,33.23,96401.0,1.1454034
280261953,280239287,3997730,418.2184,33.239998,96401.5,1.1454093
280422930,280400235,3997730,417.87225,33.239998,96405.5,1.1454568
280634047,280613868,3997730,417.8062,33.23,96406.25,1.1454657
280845321,280827676,3997730,417.71902,33.239998,96407.25,1.1454777
281066629,281044006,3997730,417.76395,33.239998,96406.75,1.1454717
281227525,281204844,3997730,417.69788,33.239998,96407.5,1.1454806
281438771,281418458,3997730,418.02286,33.239998,96403.75,1.145436
281649657,281632047,3997730,417.67673,33.239998,96407.75,1.1454835
281810427,281792805,3997730,417.82736,33.239998,96406.0,1.1454628
282041479,282021359,3997730,418.11008,33.239998,96402.75,1.1454241
282252573,282234946,3997730,417.85114,33.239998,96405.75,1.1454598
282413504,282395877,3997730,417.72165,33.239998,96407.24,1.1454775
282634809,282612143,3997730,417.50497,33.239998,96409.75,1.1455073
282856079,282838464,3997730,417.82736,33.25,96406.0,1.1454628
283016882,282999257,3997730,417.8062,33.25,96406.25,1.1454657
283238052,283215293,3997730,417.8062,33.239998,96406.25,1.1454657
283449227,283429069,3997730,418.00174,33.25,96404.0,1.145439
283660391,283642761,3997730,417.54727,33.25,96409.25,1.1455014
283821184,283803557,3997730,417.46005,33.25,96410.25,1.1455133
284042331,284019649,3997730,417.63446,33.25,96408.24,1.1454895
284253463,284233173,3997730,417.54727,33.25,96409.25,1.1455014
284464349,284446641,3997730,417.41516,33.25,96410.76,1.1455193
284625059,284607405,3997730,417.43893,33.25,96410.5,1.1455163
284846401,284823520,3997730,417.4178,33.25,96410.74,1.1455191
285057262,285037073,3997730,417.65558,33.25,96407.99,1.1454865
285268588,285250838,3997730,417.72165,33.25,96407.24,1.1454775
285429439,285411763,3997730,417.58954,33.25,96408.75,1.1454954
285650607,285627881,3997730,417.76395,33.25,96406.75,1.1454717
285861632,285841431,3997730,417.58954,33.25,96408.75,1.1454954
286022384,286002236,3997730,417.52347,33.26,96409.5,1.1455044
286233524,286215885,3997730,417.98062,33.26,96404.25,1.145442
286454569,286431916,3997730,417.58954,33.25,96408.75,1.1454954
286625381,286605219,3997730,417.93567,33.26,96404.75,1.1454479
286836436,286818744,3997730,417.82736,33.26,96406.0,1.1454628
287057567,287034929,3997730,417.58954,33.26,96408.75,1.1454954
287268776,287248603,3997730,417.50497,33.26,96409.74,1.1455072
287429946,287409601,3997730,417.67673,33.26,96407.75,1.1454835
287640919,287623207,3997730,417.83002,33.26,96405.99,1.1454626
287862079,287839331,3997730,417.8062,33.26,96406.25,1.1454657
288022751,288000118,3997730,417.74277,33.25,96407.0,1.1454747
288233843,288213730,3997730,417.89343,33.27,96405.25,1.1454538
288444898,288427293,3997730,417.98062,33.26,96404.25,1.145442
288666209,288643506,3997730,418.00174,33.26,96404.0,1.145439
288827102,288804466,3997730,417.67673,33.26,96407.75,1.1454835
289038177,289017937,3997730,417.87225,33.26,96405.5,1.1454568
289249251,289231596,3997730,418.3056,33.27,96400.5,1.1453974
289410078,289392420,3997730,418.26334,33.26,96400.99,1.1454033
289631404,289608647,3997730,418.28445,33.26,96400.75,1.1454004
289842595,289822262,3997730,418.50113,33.27,96398.25,1.1453707
290053776,290036103,3997730,418.32675,33.27,96400.25,1.1453944
290214515,290196909,3997730,418.52225,33.26,96398.0,1.1453677
290435773,290413111,3997730,418.08893,33.27,96403.0,1.1454271
290647108,290626880,3997730,418.39282,33.27,96399.5,1.1453855
290817884,290793735,3997730,418.6095,33.27,96396.99,1.1453557
291039180,291016497,3997730,418.39282,33.27,96399.5,1.1453855
291250307,291230128,3997730,418.54343,33.28,96397.75,1.1453648
291461363,291443707,3997730,418.52225,33.27,96398.0,1.1453677
291642410,291619763,3997730,418.4351,33.27,96399.0,1.1453795
291853473,291833290,3997730,418.65173,33.27,96396.5,1.1453499
292024456,292000119,3997730,418.64383,33.27,96396.6,1.145351
292245416,292222679,3997730,418.6729,33.28,96396.25,1.1453469
292456545,292436375,3997730,418.47736,33.28,96398.5,1.1453737
292667513,292649845,3997730,418.805,33.27,96394.74,1.145329
292828612,292810759,3997730,418.50113,33.28,96398.25,1.1453707
293049428,293026770,3997730,418.41394,33.28,96399.25,1.1453825
293260449,293240321,3997730,418.95563,33.27,96392.99,1.1453083
293421421,293401215,3997730,418.805,33.28,96394.74,1.145329
293632423,293614724,3997730,418.82614,33.28,96394.49,1.145326
293853660,293830942,3997730,419.10623,33.28,96391.25,1.1452875
294065250,294044561,3997730,418.7178,33.28,96395.74,1.1453409
294235822,294218093,3997730,419.01904,33.28,96392.25,1.1452994
294456946,294434228,3997730,418.93448,33.28,96393.25,1.1453112
294668044,294647825,3997730,418.8922,33.28,96393.74,1.1453171
294828747,294808571,3997730,419.06393,33.28,96391.75,1.1452935
295039994,295022365,3997730,418.805,33.28,96394.74,1.145329
295261246,295238605,3997730,418.6306,33.28,96396.75,1.1453528
295422161,295399523,3997730,418.8684,33.28,96393.99,1.14532
295633373,295613204,3997730,418.8473,33.29,96394.24,1.145323
295844406,295826732,3997730,419.10623,33.28,96391.25,1.1452875
296065531,296042864,3997730,418.82614,33.29,96394.49,1.145326
296226432,296203707,3997730,419.10623,33.29,96391.25,1.1452875
296437550,296417281,3997730,418.8473,33.29,96394.25,1.1453232
296648710,296631058,3997730,419.04282,33.29,96392.0,1.1452965
296809557,296791894,3997730,419.19342,33.29,96390.25,1.1452756
297030773,297008101,3997730,418.8473,33.29,96394.24,1.145323
297242047,297221882,3997730,418.8684,33.29,96394.0,1.1453202
297453112,297435375,3997730,419.21457,33.29,96390.0,1.1452726
297613906,297596243,3997730,419.34668,33.29,96388.5,1.1452549
297835164,297812322,3997730,419.56335,33.29,96386.0,1.1452252
298045930,298025774,3997730,419.3678,33.29,96388.24,1.1452518
298257326,298239416,3997730,418.9979,33.29,96392.5,1.1453024
298417925,298400220,3997730,418.7601,33.29,96395.24,1.145335
298639155,298616323,3997730,419.04282,33.3,96392.0,1.1452965
298850200,298829931,3997730,419.15112,33.3,96390.75,1.1452816
299061402,299043551,3997730,419.06393,33.3,96391.75,1.1452935
299242065,299219445,3997730,419.08508,33.3,96391.49,1.1452904
299453128,299432905,3997730,419.49728,33.3,96386.74,1.145234
299664225,299646476,3997730,419.51846,33.3,96386.5,1.145231
299825036,299807375,3997730,419.3018,33.3,96388.99,1.1452607
300056295,300036040,3997730,419.08508,33.3,96391.49,1.1452904
300267406,300249702,3997730,418.805,33.3,96394.74,1.145329
300448327,300418064,3997730,419.13,33.3,96391.0,1.1452845
300659536,300639278,3997730,418.91333,33.309998,96393.49,1.1453141
300820375,300800213,3997730,419.13,33.3,96391.0,1.1452845
301031608,301013937,3997730,418.95563,33.309998,96393.0,1.1453083
301252766,301230122,3997730,418.78387,33.309998,96394.99,1.145332
301464111,301443796,3997730,418.50113,33.309998,96398.25,1.1453707
301625987,301604784,3997730,418.7178,33.309998,96395.74,1.1453409
301856220,301833544,3997730,418.65173,33.309998,96396.5,1.1453499
302068007,302047323,3997730,418.97678,33.309998,96392.74,1.1453053
302228483,302208317,3997730,418.7601,33.309998,96395.24,1.145335
302439538,302421917,3997730,418.7601,33.309998,96395.24,1.145335
302660852,302638181,3997730,418.39282,33.309998,96399.5,1.1453855
302821644,302798967,3997730,418.47736,33.309998,96398.5,1.1453737
303032764,303012605,3997730,418.5857,33.309998,96397.25,1.1453588
303243890,303226187,3997730,418.69403,33.309998,96396.0,1.1453439
303464979,303442315,3997730,418.50113,33.32,96398.25,1.1453707
303625681,303603043,3997730,418.69403,33.32,96396.0,1.1453439
303837063,303816771,3997730,418.26334,33.32,96401.0,1.1454034
304048365,304030510,3997730,418.52225,33.309998,96398.0,1.1453677
304229171,304206535,3997730,418.6095,33.32,96397.0,1.1453558
304440363,304420219,3997730,418.6306,33.32,96396.75,1.1453528
304651724,304633890,3997730,418.54343,33.32,96397.75,1.1453648
304812374,304794733,3997730,418.45624,33.32,96398.75,1.1453766
305033581,305010847,3997730,418.50113,33.32,96398.25,1.1453707
305244599,305224488,3997730,418.56454,33.32,96397.5,1.1453618
305415747,305391531,3997730,418.3479,33.32,96400.0,1.1453915
305637001,305614285,3997730,418.26334,33.32,96401.0,1.1454034
305848212,305827943,3997730,418.52225,33.32,96398.0,1.1453677
306059179,306041550,3997730,418.23953,33.32,96401.25,1.1454064
306240096,306209852,3997730,418.6095,33.32,96396.99,1.1453557
306451183,306431017,3997730,418.50113,33.32,96398.25,1.1453707
306662159,306644524,3997730,418.155,33.329998,96402.25,1.1454182
306822916,306805302,3997730,418.26334,33.329998,96401.0,1.1454034
307044082,307021337,3997730,418.82614,33.329998,96394.49,1.145326
307255009,307234889,3997730,418.8684,33.329998,96394.0,1.1453202
307467426,307448506,3997730,418.8684,33.329998,96393.99,1.14532
307647245,307624480,3997730,418.8922,33.329998,96393.74,1.1453171
307858628,307838062,3997730,418.65173,33.329998,96396.5,1.1453499
308019032,307998831,3997730,418.7178,33.329998,96395.74,1.1453409
308230404,308212629,3997730,418.93448,33.329998,96393.24,1.1453111
308461571,308441393,3997730,418.8684,33.329998,96393.99,1.14532
308622307,308602144,3997730,418.73895,33.329998,96395.49,1.1453379
308833587,308815898,3997730,418.95563,33.329998,96392.99,1.1453083
309054636,309031985,3997730,419.06393,33.329998,96391.75,1.1452935
309265718,309245521,3997730,418.7601,33.329998,96395.24,1.145335
309426627,309406464,3997730,418.82614,33.34,96394.49,1.145326
309657880,309627421,3997730,419.33612,33.34,96388.6,1.145256
309828546,309808350,3997730,418.93448,33.329998,96393.25,1.1453112
310039710,310021990,3997730,418.6306,33.34,96396.75,1.1453528
310261111,310238347,3997730,418.8896,33.34,96393.75,1.1453172
310421843,310399219,3997730,419.00052,33.34,96392.49,1.1453023
310632944,310612799,3997730,418.6729,33.34,96396.25,1.1453469
310844015,310826377,3997730,418.8473,33.34,96394.24,1.145323
311065374,311042653,3997730,418.78387,33.34,96394.99,1.145332
311226363,311203456,3997730,418.69403,33.34,96396.0,1.1453439
311437229,311417096,3997730,418.39282,33.34,96399.5,1.1453855
311648518,311630877,3997730,418.78387,33.35,96394.99,1.145332
311809406,311791765,3997730,419.06393,33.34,96391.75,1.1452935
312030959,312007874,3997730,419.19342,33.34,96390.25,1.1452756
312251765,312234083,3997730,418.7178,33.35,96395.74,1.1453409
312412634,312394903,3997730,418.47736,33.35,96398.5,1.1453737
312633759,312610999,3997730,418.69403,33.35,96396.0,1.1453439
312844874,312824600,3997730,418.52225,33.35,96398.0,1.1453677
