timestamp,timestamp_sample,xyz[0],xyz[1],xyz[2]
119666053,119665819,-0.0054145856,-0.0014246923,-0.0058680563
119667303,119667060,-0.012248765,0.0025358084,2.6961383e-05
119686963,119686733,-0.021051146,0.004145561,0.03591654
119708080,119707845,-0.041652367,0.01236327,-0.09404891
119727951,119727718,-0.0100609325,-0.009876774,-0.011086118
119749055,119748822,-0.035754308,0.01926862,0.07625315
119766437,119766205,0.0065166927,-0.005686486,-0.039979067
119787553,119787317,-0.031103108,0.015671266,-0.048465386
119808650,119808424,0.018285291,-0.017368691,-0.0023397126
119829760,119829536,-0.037251666,0.015631305,0.06859217
119847155,119846922,0.0767932,-0.015733697,-0.06817094
119868261,119868031,0.00030687472,-0.0035290504,0.023958886
119889423,119889189,-0.0422169,0.009045987,-0.010555862
119906859,119906633,0.025218023,-0.0031759208,0.015410338
119928008,119927783,0.095071845,-0.041023422,-0.0041432884
119948970,119948743,-0.095274776,0.028324427,-0.039406113
119970086,119969854,-0.075128846,0.045080677,-0.00466312
119987467,119987238,0.15893522,-0.060135305,0.032666758
120008572,120008347,-0.096076764,-0.0073849442,-0.06254285
120029692,120029460,-0.16539368,0.057936046,0.008795684
120047069,120046842,0.18363272,-0.034734447,0.02238263
120068178,120067952,0.034180004,-0.06462265,-0.042736653
120089307,120089074,-0.15135247,0.034128964,-0.045593966
120110402,120110172,-0.10485139,0.07623116,0.045687523
120127780,120127555,0.17658521,-0.067894965,-0.0026765866
120150146,120149913,0.040843874,-0.06253838,-0.062285412
120170051,120169810,-0.1460833,0.058478333,-0.037329588
120187501,120187269,0.060827803,-0.0053358413,0.059357256
120208507,120208269,0.14604193,-0.07526881,-0.014924813
120229616,120229382,0.009821609,-0.025261305,-0.075393125
120249483,120249251,-0.11895036,0.08940425,-0.014962463
120268109,120267873,0.021911794,-0.01098684,0.059670713
120287974,120287743,0.11451707,-0.094885625,-0.016812338
120309091,120308860,-0.008024497,-0.01498177,-0.07827863
120326461,120326236,-0.081229225,0.09062884,0.026137533
120347575,120347346,0.041151177,-0.018153869,0.059953324
120368699,120368462,0.0917412,-0.10758247,0.013820003
120389804,120389579,-0.0027141941,-0.0457251,-0.05674569
120407177,120406950,-0.086668916,0.100165084,-0.008850282
120428332,120428104,0.04234806,0.022797318,0.0434643
120449476,120449251,0.103654586,-0.098421045,0.030753601
120467001,120466772,-0.068881966,0.009203045,-0.046823315
120487891,120487664,-0.1170153,0.106071234,-0.030978013
120509000,120508774,0.012422963,0.06693765,0.014754771
120530115,120529885,0.15255775,-0.06380839,0.023299865
120547496,120547268,-0.03170683,-0.05226201,-0.025173604
120568603,120568378,-0.17438507,0.08172136,-0.028635308
120589711,120589488,-0.124248005,0.12527291,0.0097141415
120607101,120606872,0.1930956,-0.094462745,0.0070068594
120628215,120627982,0.1500742,-0.13350579,-0.03557172
120649364,120649135,-0.04495682,-0.03747477,-0.038096476
120666702,120666477,-0.1887533,0.14222527,0.04299557
120687837,120687611,-0.038199775,0.06058718,0.042074624
120708952,120708723,0.1403642,-0.061867647,-0.00081686856
120728918,120728688,0.23223764,-0.15193002,-0.05949317
120747427,120747195,0.0006430552,-0.019817997,-0.041964512
120768540,120768300,-0.1601196,0.04753388,-0.046850614
120788394,120788168,-0.2410021,0.07105802,-0.07735559
120807029,120806796,-0.09814681,-0.00067055714,-0.055738978
120826945,120826718,-0.026275529,-0.020812431,-0.02955009
120847996,120847772,-0.18170606,0.0628545,0.039483905
120869115,120868884,-0.20855719,-0.021624632,-0.007208384
120886491,120886267,-0.17135707,-0.063615665,-0.04630411
120907619,120907377,-0.14772537,-0.039059576,0.0008183411
120929960,120929729,0.046249647,-0.0010909768,0.03931269
120949831,120949598,-0.0074139815,0.0104730455,-0.009650811
120967247,120967022,-0.011127248,0.008394316,-0.06756394
120988401,120988174,-0.0750522,0.01767313,-0.06178629
121009632,121009402,-0.03767143,-0.020350158,-0.0005374541
121026814,121026586,0.019763427,-0.0072452803,0.026250653
121047944,121047715,0.03866063,0.009120816,-0.007945245
121069034,121068805,0.014123759,0.064001955,-0.018145133
121090141,121089915,-0.098206505,0.029034995,-0.028734593
121107533,121107299,-0.038403843,-0.025062189,-0.03188749
121128648,121128412,-0.036454104,-0.030930458,-0.0141374115
121149745,121149519,0.06779071,-0.03869248,-0.017046884
121167136,121166905,0.050736416,0.032354735,0.022507688
121188248,121188016,0.0020986726,0.0031463336,-0.011670505
121209349,121209123,-0.03778686,0.046089076,0.00221024
121226742,121226514,-0.031867556,0.053589694,-0.02260652
121247882,121247655,-0.011203499,-0.013861696,-0.028911699
121269096,121268865,-0.006452691,-0.043003783,-0.048124593
121286379,121286150,-0.039845433,-0.030476624,-0.006058331
121307455,121307225,0.057524204,-0.02261308,0.01353138
121328571,121328332,-0.039034013,0.041385543,0.013214722
121348433,121348205,-0.014527272,0.03475777,0.016381955
121367068,121366830,-0.0296663,0.036617704,-0.0118900165
121386932,121386699,-0.073898934,0.008339136,-0.006221221
121408033,121407806,0.012771361,-0.07597761,0.0007523052
121429138,121428914,0.078193955,-0.017679153,0.005846831
121446529,121446299,-0.012677453,0.004646734,0.030203948
121467635,121467408,-0.0543229,0.087884374,0.048425026
121488743,121488517,-0.07873786,0.005132246,-0.0021641268
121509920,121509690,0.1358633,-0.07044526,-0.039748892
121527338,121527109,-0.012028888,-0.037440293,-0.008890861
121548529,121548304,-0.046853542,0.1077436,0.007664254
121569466,121569233,-0.04246751,0.035872478,0.0264631
121586842,121586616,0.07025613,-0.08763532,-0.013038345
121607948,121607726,-0.049236372,-0.07437433,-0.02290042
121629073,121628836,0.048943672,-0.0025155686,0.012699492
121650179,121649949,-0.050389703,0.04488912,0.00088438124
121667568,121667330,-0.020395167,0.08356962,-0.047985706
121688667,121688440,-0.08269069,0.025391554,-0.030241437
121709776,121709550,0.10710139,0.002470898,0.009098146
121727169,121726935,0.12522322,-0.009096285,0.028996252
121748281,121748052,-0.045152206,-0.02916368,0.0052165375
121769389,121769161,-0.03832641,-0.12007985,0.0023082756
121790551,121790324,0.05136558,0.003029833,-0.03371124
121808019,121807785,-0.022928387,0.07751383,-0.006362635
121828999,121828765,-0.0012634133,0.010823691,-0.005308144
121848859,121848625,-0.02060808,0.034484696,0.0047961427
121867494,121867255,-0.037783764,0.074397616,-0.006231005
121887349,121887121,-0.059634052,-0.008402567,0.029064078
121908455,121908230,-0.054501943,-0.006240488,0.002559636
121929568,121929340,-0.13378191,-0.003554497,0.008460402
121946954,121946724,-0.03994719,-0.026006462,-0.006635699
121968060,121967835,-0.09495557,0.057734083,-0.042380787
121989169,121988945,-0.21996768,0.018108679,-0.027291464
122006559,122006332,-0.15539603,0.0021488543,-0.025579855
122027677,122027451,-0.29670253,0.0089679565,-0.003602726
122048786,122048560,-0.249084,-0.021375744,0.031184748
122070043,122069818,-0.36975425,0.004452663,-0.027728135
122087463,122087235,-0.39290464,-0.0003009671,-0.00018143358
122108421,122108189,-0.4633152,-0.024400568,0.01931074
122127016,122126780,-0.4418829,-0.010256129,0.0056346823
122146900,122146673,-0.46226132,-0.07554616,0.019789571
122167997,122167757,-0.56062245,-0.051057693,-0.0044162753
122189110,122188886,-0.5582054,-0.045452725,-0.02465257
122210209,122209976,-0.54655856,0.0318316,-0.026987618
122227586,122227361,-0.5052564,0.024737312,-0.019440876
122248698,122248471,-0.45453122,-0.004680626,-0.0627227
122269811,122269581,-0.2479889,-0.04476091,-0.09522967
122287203,122286966,-0.06829694,0.029126918,-0.13626699
122308301,122308075,0.16319929,0.046148296,-0.14822537
122329494,122329257,0.42899427,0.13914791,-0.13042839
122349448,122349218,0.510729,0.21384989,-0.12955676
122367949,122367725,0.5813096,0.23241435,-0.109408505
122389025,122388789,0.5756072,0.28013697,-0.09603592
122408895,122408657,0.5437303,0.16531716,-0.13503617
122427534,122427301,0.51395947,-0.03048769,-0.11299778
122447386,122447160,0.42018768,-0.13510147,-0.117364146
122469740,122469505,0.23686577,-0.094377875,-0.07508136
122489612,122489374,0.12701823,-0.046633344,-0.08164862
122506981,122506756,0.10792779,0.028975239,-0.067368686
122529347,122529116,0.11070429,0.05265631,-0.065595955
122549218,122548979,0.25309196,0.07070618,-0.01688246
122566585,122566360,0.27465296,0.10902541,-0.060966466
122587716,122587488,0.3451296,0.058007315,-0.02305789
122608941,122608703,0.16211812,0.096353315,-0.099674866
122629921,122629689,-0.06454166,-0.009498521,-0.12508364
122647303,122647074,-0.03716159,0.0061857626,-0.042065058
122668425,122668185,0.09434676,0.15832713,-0.15760976
122689524,122689293,0.12294797,-0.06202124,-0.08541507
122708161,122707925,0.09727252,0.10620529,-0.08992395
122728018,122727789,0.051583767,0.056298092,-0.014364354
122749132,122748898,-0.13258375,0.031203061,-0.05239949
122766511,122766282,-0.15033709,0.010731718,0.037925173
122787646,122787419,-0.08482021,-0.07379937,0.035210565
122808728,122808502,0.04373627,-0.014787209,0.102426104
122827365,122827132,0.18798552,-0.06788902,0.12905158
122847238,122846999,-0.033887878,-0.112634055,0.091638565
122868454,122868229,0.11034057,0.05865247,0.0654608
122887203,122886958,-0.006143931,-0.041564632,0.046855483
122910559,122910325,-0.13453813,0.1016581,0.06889896
122927939,122927710,0.18401162,0.05988327,0.14245181
122949051,122948822,0.16397946,-0.024867343,0.09428736
122968919,122968688,0.38331768,-0.05822594,0.08345026
122987545,122987314,0.032408938,-0.1529684,0.029397532
123007413,123007182,0.18595137,-0.0690166,-0.0035932637
123028520,123028293,0.07361651,0.030199267,0.027597688
123049633,123049402,0.011788197,0.061237585,0.032990225
123067015,123066788,0.0147324735,0.012304495,0.011239764
123088127,123087899,-0.031555515,-0.019598812,0.0032425916
123109245,123109010,0.20519105,-0.11728719,-0.036137298
123126640,123126414,0.14019653,-0.06703638,-0.038139988
123147845,123147619,0.11143711,-0.048970945,-0.07860632
123168838,123168610,0.26802886,0.03528721,-0.105599925
123189972,123189742,0.17380945,0.103377976,-0.10712959
123207333,123207105,0.24722023,0.03272142,-0.12059925
123228455,123228227,0.30495378,0.059717398,-0.109983966
123249557,123249326,0.15175994,0.095784895,-0.12312606
123266941,123266713,0.088800445,0.055468388,-0.04271126
123288050,123287819,0.09368769,0.018224362,-0.063042596
123309163,123308931,0.039659504,0.015086638,-0.069181554
123330327,123330098,-0.0854541,0.06651308,-0.08015958
123347653,123347423,-0.20952818,0.08419455,-0.05095946
123368764,123368533,-0.17286813,0.0002859518,0.0108210165
123389865,123389638,-0.11425346,-0.018759964,-0.019417634
123408589,123408355,-0.09814748,-0.14660405,0.015213757
123428552,123428317,-0.18037422,-0.08951101,0.0066231973
123449513,123449282,-0.21629265,-0.096041955,0.023952965
123468110,123467876,-0.12761873,-0.08714031,-0.020434411
123488011,123487770,-0.11135749,-0.059753858,-0.015748847
123509090,123508858,-0.22050692,-0.033873677,0.013556625
123527711,123527479,-0.321134,-0.02311206,0.067300744
123547578,123547347,-0.31895813,-0.030498175,0.063713044
123567445,123567216,-0.18476076,-0.101330206,0.07277956
123587316,123587084,-0.2346736,-0.10268284,0.069844715
123609660,123609434,-0.15475196,-0.11351364,0.06569427
123627053,123626821,-0.20539026,-0.071377955,0.08268192
123648154,123647929,-0.164663,-0.06586473,0.058560535
123669302,123669077,-0.2325946,-0.008291175,0.078289285
123686778,123686550,-0.18090145,0.015164424,0.100222625
123707756,123707532,-0.10986231,-0.025822114,0.09743073
123728873,123728643,0.048448842,-0.037046164,0.0828988
123749983,123749751,0.11015641,0.03385034,0.11584516
123767361,123767136,0.10009719,0.11182323,0.09539921
123788475,123788247,0.21068211,0.0597485,0.11283941
123809589,123809357,0.0378091,0.035364926,0.11301687
123826967,123826740,0.10413058,-0.05062506,0.1122555
123848073,123847850,0.0023160214,0.009482667,0.14038955
123869189,123868960,0.031892315,0.004507692,0.14809059
123890299,123890071,-0.1289944,0.07303537,0.14423466
123907680,123907454,0.0064922627,-0.028955163,0.1241559
123928794,123928566,0.018917333,0.009410436,0.14740324
123950049,123949816,0.087206215,0.030215047,0.14671159
123967465,123967234,0.08492798,0.032104664,0.14561142
123988398,123988168,0.14878355,-0.010410889,0.1596558
124009514,124009279,0.3458627,-0.015488631,0.16695142
124029375,124029146,0.34191594,-0.08225545,0.1326907
124048010,124047772,0.35543284,-0.023657551,0.13389505
124069125,124068888,0.32625094,-0.04279284,0.13418674
124089007,124088782,0.19853073,-0.051723957,0.12506148
124106369,124106140,0.20556697,-0.122926004,0.13264242
124127493,124127264,0.13211323,-0.17789625,0.1341553
124148582,124148355,-0.058235854,-0.24573155,0.11771697
124169691,124169464,-0.10389174,-0.26760605,0.11875015
124187079,124186850,-0.08744767,-0.2223467,0.08988164
124208296,124208068,-0.029608198,-0.30346453,0.10995691
124229440,124229214,0.06507598,-0.30215347,0.08540204
124246684,124246453,0.024888596,-0.35900667,0.10033712
124267790,124267564,0.07244909,-0.3702748,0.090620846
124288906,124288673,0.09019829,-0.37237772,0.048916742
124310043,124309820,0.13502249,-0.3791474,0.034649875
124327395,124327167,0.16199537,-0.36115095,0.051436715
124348540,124348308,0.12116159,-0.3514168,0.021480622
124369611,124369386,0.103521235,-0.3338881,0.03011345
124387012,124386786,0.034103725,-0.30865887,0.03797382
124408106,124407882,9.409639e-05,-0.2752499,-0.011627654
124429232,124428999,-0.01672477,-0.29933873,0.02937672
124450335,124450101,-0.036783107,-0.28473827,0.017242631
124467725,124467501,-0.021253966,-0.28587994,-0.005259606
124488917,124488690,0.04932373,-0.27016014,-0.01922479
124509937,124509707,-0.018113164,-0.230434,-0.0005209406
124527320,124527089,0.01880008,-0.20061252,-0.015648128
124548427,124548203,-0.018444877,-0.16392823,-0.00729459
124568293,124568069,-0.057934172,-0.14291781,-0.0035281559
124586922,124586693,0.038207542,-0.14485995,-0.007236307
124608074,124607846,0.036711235,-0.08068747,-0.00160585
124627902,124627671,0.031185325,-0.077077195,0.004067062
124649012,124648781,0.052142285,-0.082141414,-0.0018265335
124666393,124666167,0.015004206,-0.0671868,-0.014882465
124687501,124687276,0.049311765,-0.07147307,-0.0061826254
124708619,124708385,0.030933635,-0.026230242,-0.006205314
124729722,124729496,-0.010557807,-0.031133424,-0.012175591
124747161,124746931,0.004275317,-0.028361816,0.002536549
124768363,124768135,-0.018321712,0.016237022,-0.0119269425
124789330,124789101,-0.01969104,0.049587436,-0.010079873
124806714,124806489,-0.08862268,0.14009109,-0.0039048863
124827829,124827594,-0.1731211,0.22813608,-0.021985337
124848940,124848706,-0.24677321,0.32642823,-0.017788358
124870084,124869856,-0.448096,0.5176107,-0.024636483
124887435,124887203,-0.64036417,0.66233784,-0.002152787
124908578,124908349,-0.7564177,0.7885114,-0.023503426
124929644,124929418,-0.7400849,0.8193382,-0.05223516
124947057,124946823,-0.6774163,0.7918685,-0.0100453235
124968152,124967920,-0.47998875,0.65436274,-0.025370972
124989265,124989038,-0.3396891,0.50063926,-0.01601496
125006654,125006424,-0.2176659,0.39523375,0.0003514957
125027850,125027623,-0.13577813,0.27678496,-0.014069955
125048861,125048626,-0.1496652,0.18903543,0.0034432183
125069962,125069736,-0.12784539,0.09296838,0.014125199
125087354,125087121,-0.15474352,0.08894076,-0.0035276434
125108456,125108230,-0.15201508,0.035300955,0.014349973
125127086,125126858,-0.15127786,0.05145628,-0.01027279
125146959,125146727,-0.15939224,0.0698033,-8.164597e-05
125166825,125166599,-0.12835681,0.047730435,0.013045886
125187938,125187703,-0.0439139,0.044364855,0.009603025
125209042,125208815,-0.028823629,0.060248096,0.024652401
125226434,125226201,0.0017458834,0.02126292,0.012043905
125247533,125247307,-0.05688343,0.052083276,0.020746203
125268680,125268454,-0.069426686,0.042830214,0.023513254
125289823,125289595,-0.038539488,0.048004385,0.01316702
125307289,125307063,-0.057846475,0.01883024,0.002251428
125328253,125328022,-0.053684972,0.022138027,0.018738117
125349373,125349145,-0.030115379,0.03650377,0.009019209
125366741,125366516,-0.041405357,0.017478913,0.0019165159
125387862,125387625,0.007896609,0.015491819,0.004198468
125408976,125408735,-0.0086471895,0.015669487,-0.00041325614
125430076,125429846,-0.008546639,-0.023623222,0.0026487857
125447455,125447229,0.021825973,-0.044360995,-0.00021694483
125469825,125469584,-0.011064845,-0.041590873,-0.009196558
125489684,125489452,-0.010584062,-0.03716535,-0.00024152883
125507057,125506833,0.04096425,-0.026103534,-0.021866105
125529408,125529181,-0.012697086,0.014317695,0.0007340544
125549318,125549087,0.0043230443,0.0017622976,0.0074647116
125570552,125570306,-0.002765687,0.03292592,0.013361607
125590265,125590033,-0.02636334,0.0099276425,0.02431924
125608898,125608659,-0.009026822,0.026839156,0.01628245
125630005,125629767,0.029000431,0.017043037,-0.08306318
125647384,125647152,0.028647745,-0.017264182,-0.03990389
125668504,125668264,0.10437032,-0.0021275743,0.040810294
125688369,125688133,0.14988789,0.014768808,0.06909095
125708246,125708001,0.26510984,0.040205963,0.07455313
125728096,125727868,0.32285818,0.09156182,0.069783516
125747965,125747734,0.32873878,0.15231335,0.10112186
125766596,125766359,0.30804932,0.21080689,0.14406256
125786460,125786228,0.24264264,0.25317958,0.13064285
125807601,125807374,0.19942547,0.23059326,0.14168094
125828748,125828523,0.14901155,0.1987575,0.14642467
125849966,125849734,0.12554812,0.12915789,0.17662345
125867174,125866942,0.10483543,0.048136313,0.14531235
125888283,125888052,0.12748717,0.013447009,0.12998658
125909392,125909163,0.124563105,-0.019867525,0.13782153
125926780,125926550,0.105775036,0.008243561,0.11323387
125947913,125947687,0.07575566,-0.025763713,0.04892344
125968993,125968766,0.15369008,-0.030995788,0.097935714
125990106,125989875,0.14110237,0.018579058,0.088678144
126007497,126007260,0.13562219,0.014130884,0.095909394
126028598,126028370,0.13265005,0.052466154,0.11637368
126049707,126049480,0.0706872,0.06587077,0.13284948
126067093,126066866,0.11703009,0.05259879,0.08836441
126088232,126088005,0.085873365,0.056691047,0.08375119
126109447,126109218,0.085291095,0.056292754,0.10753197
126130431,126130200,0.07966592,0.052310795,0.121457115
126147802,126147578,0.09846642,0.03582164,0.07652102
126168922,126168688,0.11008578,0.027459128,0.06181771
126190034,126189798,0.08993108,0.029771348,0.06879968
126207431,126207189,0.052777074,0.037441727,0.09394333
126228533,126228293,0.06956935,0.033464592,0.065857336
126248396,126248160,0.06478798,0.013264534,0.084699474
126269496,126269270,0.07631965,0.0069719674,0.092799686
126286881,126286655,0.081094675,-0.016737368,0.061243765
126308001,126307764,0.08522043,-0.02873985,0.034173645
126329114,126328875,0.059130695,0.0029489456,0.048589896
126346526,126346301,0.043487474,0.018668782,0.07117054
126367725,126367497,0.032825314,0.019114263,0.04222377
126388892,126388660,0.057624392,0.029867519,0.025864245
126409827,126409602,0.04062448,0.062359877,0.0048128064
126427208,126426973,0.039741036,0.06859865,0.044553388
126448310,126448083,0.00047840126,0.07499832,0.042435244
126469427,126469197,0.033994496,0.055324223,0.030560413
126486809,126486579,0.054728344,0.041322514,0.0011164977
126507912,126507687,0.04856973,0.07179868,0.006202365
126529023,126528797,0.019523885,0.063222274,0.008733648
126550147,126549910,0.012314485,0.045937713,0.0049734046
126567517,126567291,0.013979109,0.03319049,-0.014109627
126588626,126588401,0.017446011,0.024754513,-0.017461328
126609745,126609511,0.00075246027,0.039965175,-0.01778187
126627225,126626991,0.0056359363,0.01725939,-0.030285496
126648385,126648161,0.0036636551,0.027351521,-0.03901575
126669338,126669115,0.018806525,0.015314045,-0.039442923
126690456,126690225,0.057404067,0.00819373,-0.042645372
126707837,126707609,-0.0087477565,0.0014934676,-0.0262825
126728955,126728719,0.019207615,0.008782958,-0.028518226
126750062,126749829,0.032545615,-0.021351134,-0.050086718
126767439,126767214,-0.055718582,-0.022809539,-0.008140528
126788554,126788323,-0.039989337,-0.07979053,-0.01560585
126808422,126808196,-0.07137041,-0.14697878,-0.0070128175
126827054,126826818,-0.10366701,-0.19061287,-0.005057908
126846911,126846686,-0.1322265,-0.21691711,0.0047366507
126868026,126867799,-0.15005471,-0.24414358,0.0013953687
126889147,126888916,-0.1532305,-0.25708523,-0.01341046
126906660,126906436,-0.15908264,-0.2730707,-0.017026715
126927810,126927584,-0.098506086,-0.2511438,-0.017174909
126948743,126948512,-0.10868574,-0.22899306,-0.03528491
126969848,126969619,-0.049283653,-0.22486605,-0.058142908
126987285,126987052,-0.09005809,-0.17017229,-0.039219286
127008367,127008137,-0.08565976,-0.14262435,-0.05985163
127029453,127029224,-0.08905412,-0.12505226,-0.05124134
127046833,127046608,-0.09825817,-0.110002585,-0.059815817
127067954,127067718,-0.10551317,-0.114419885,-0.059925176
127089057,127088827,-0.1017491,-0.09139284,-0.03712933
127110170,127109939,-0.03483088,-0.101410076,-0.030386273
127127549,127127322,0.0314404,-0.10392278,-0.04053607
127148657,127148432,0.013850952,-0.08258387,-0.032903526
127169834,127169606,-0.028680675,-0.07566819,-0.031311892
127187294,127187065,-0.04129929,-0.06482481,-0.032103024
127208282,127208041,-0.063015684,-0.07026955,-0.024012273
127229372,127229146,-0.045155022,-0.085990205,-0.03741069
127246764,127246531,-0.035665058,-0.05625338,-0.03303702
127267868,127267640,-0.012824698,-0.047347575,-0.03378181
127288981,127288750,-0.010732668,-0.035357397,-0.030200547
127308851,127308618,-0.010530558,-0.0070385975,-0.03916194
127327490,127327248,-0.02819593,0.02447052,-0.034071065
127348587,127348355,0.008128076,0.007789056,-0.048956335
127367253,127367018,0.041249298,0.018429933,-0.026956335
127387087,127386853,0.0769539,-0.005272546,-0.039121106
127406954,127406718,0.083254606,-0.015654549,-0.034859616
127428064,127427839,0.05704426,-0.02076682,-0.031815864
127449348,127449116,0.013814085,-0.015150166,-0.04099673
127466742,127466515,-0.009494841,0.0046133846,0.0020390714
127487656,127487431,0.0124191325,0.022419134,-0.011887702
127508767,127508541,0.056149915,0.006037811,-0.023847885
127529880,127529651,0.09756891,0.0011070454,-0.03257609
127547259,127547035,0.03923796,-4.152175e-05,0.0077437162
127568375,127568146,0.06709079,-0.027663443,0.005681594
127589483,127589254,0.026431227,-0.022020169,-0.009703818
127606909,127606682,-0.041167554,-0.011977216,0.029337889
127627975,127627749,-0.028088698,-0.026107453,0.022039942
127649097,127648863,-0.020215558,-0.00132671,0.0026279103
127670262,127670035,-0.0022846705,0.014516825,0.001357928
127687665,127687443,-0.045712586,0.033110008,0.0044268942
127708908,127708672,-0.035526972,0.021755328,0.004544347
127729804,127729575,0.022590054,0.011697231,0.00053224864
127747201,127746971,0.005204678,0.033924125,0.013029405
127769547,127769311,0.070324294,-0.019036304,0.00929385
127789431,127789196,0.029128509,-0.008388544,-0.007193644
127810535,127810287,-0.07576818,0.0083822,-0.0033746217
127829147,127828914,-0.0677677,0.010202162,-0.008908164
127849030,127848784,-0.041162394,-0.0027169113,-0.014280294
127870122,127869891,0.0065730703,-0.036152832,-0.009079489
127887513,127887276,0.007880449,-0.011589208,0.012131647
127907372,127907144,0.01696052,0.0027095904,0.006668727
127928491,127928255,0.03627782,-0.017353673,-0.008816043
127949697,127949470,-0.0022738962,-0.0079428265,-0.024793694
127968433,127968202,-0.037448406,-0.007938241,-0.010309392
127988084,127987858,-0.07997138,0.004000419,-0.0014951503
128009204,128008970,-0.052519012,7.936109e-05,-0.015042396
128026586,128026352,-0.04319553,0.027578736,0.020070836
128047690,128047462,0.040474933,-0.006245942,-0.0011471257
128068796,128068572,0.043638617,-0.020556405,-0.016190745
128089910,128089681,0.043737046,-0.033356696,-0.013152152
128107295,128107066,0.012932721,-0.017667396,0.008187562
128128403,128128176,-0.0072460775,-0.005322189,-0.00028239284
128149528,128149304,0.020194339,-0.024459558,-0.014900013
128166896,128166671,-0.033153232,0.011383685,0.015561288
128188010,128187780,-0.09789264,0.04076603,-0.0010299091
128209190,128208960,-0.037089366,0.05152081,0.00010616324
128226599,128226374,-0.04605779,0.05752115,0.015220853
128247818,128247593,-0.0022243236,0.012270062,0.014611355
128268728,128268502,0.12026757,-0.015861822,-0.0044529787
128289836,128289604,0.060620863,-0.001529453,-0.011331984
128307216,128306986,-0.0004182537,-0.012959869,0.019221388
128328325,128328099,-0.020713648,0.0063426928,0.009262996
128350689,128350452,-0.033806395,-0.022497365,-0.01687399
128370562,128370322,-0.0075601633,0.0036596938,-0.0118366685
128387953,128387716,-0.058021903,0.03044581,0.012810189
128410293,128410059,-0.005963251,0.019288125,-0.009217449
128428912,128428680,-0.00527535,0.014054364,0.0009642326
128447545,128447307,-0.03303824,-0.00091506174,0.019190919
128467403,128467176,-0.057583988,-0.021617312,0.02452782
128489941,128489706,-0.0062184674,-0.043133784,0.006741185
128509796,128509566,-0.010011917,-0.014564974,4.6815276e-05
128527006,128526779,-0.03235151,-0.008170571,0.011824082
128548116,128547889,-0.011148912,0.014758998,0.013481906
128569243,128569002,-0.051451173,0.024035564,0.0053624753
128586608,128586383,0.012762059,0.054867312,0.018974576
128608968,128608737,0.013436258,0.040652774,0.009444751
128628878,128628643,0.029820116,0.052783374,0.0032810073
128649938,128649713,0.011233055,0.05456946,0.015940875
128668578,128668343,0.045977734,0.019061456,0.0029304703
128688441,128688208,0.05367855,-0.0020369203,0.00761204
128709545,128709318,0.04396636,0.008533324,0.01776088
128726940,128726708,0.04019383,0.022027735,0.0054120203
128748070,128747839,0.04520655,0.005459589,-0.0057941717
128769274,128769044,0.038705997,0.0083786715,-0.005877321
128786538,128786308,0.036226854,-0.0038513856,0.014131292
128807644,128807415,0.024976538,0.00442849,0.007846205
128828765,128828525,-0.03911907,0.049690865,-0.0011713961
128846146,128845911,-0.029706303,0.040656853,0.0313151
128867281,128867050,0.03686982,-0.0061145695,0.0039007654
128888358,128888129,0.12266391,-0.03609577,-0.0120006595
128909472,128909240,0.10678078,0.006434535,-0.002158502
128930581,128930349,-0.008942673,0.032873593,0.0054817786
128947961,128947735,0.04180618,-0.008129412,0.011114361
128969082,128968853,0.01737412,-0.003788443,-0.0038983345
128988970,128988746,0.01796276,-0.009787086,-0.0025476918
129007566,129007338,0.06320039,-0.011514684,0.024443146
129027499,129027274,0.05268674,0.009805068,0.015201145
129048708,129048483,0.018073304,0.007553533,0.018982358
129070911,129070671,-0.06334504,0.008091433,0.009533353
129087037,129086810,-0.09082122,0.02068232,0.035014246
129108146,129107921,-0.030030215,-0.017695947,0.03447462
129130513,129130275,0.032781195,-0.013161335,0.026822738
129146641,129146414,0.061393235,-0.000118393385,0.012854602
129167744,129167520,0.09029777,0.015327338,0.0074705365
129190113,129189880,-0.008264415,0.049206167,0.04911468
129209974,129209745,-0.013691598,0.01586572,0.039189667
129227357,129227130,0.03766486,0.018467717,0.00030424265
129249717,129249485,-0.012955855,0.02287352,0.024615906
129269596,129269368,0.023919962,0.012748611,0.033233713
129286979,129286755,0.009101253,0.00032816143,-0.009329443
129309460,129309228,-0.0078094243,-0.00048297425,0.002899204
129329196,129328956,-0.0067849834,0.014013071,0.004983428
129350305,129350077,-0.016961962,0.0045896415,0.0070966403
129367678,129367448,0.03662281,0.003798512,-0.00079378823
129388788,129388561,0.04665904,0.021210615,0.013265653
129409899,129409666,0.009607636,0.018858155,-0.008458188
129427287,129427050,-0.016301772,0.0083190035,0.030065134
129448397,129448162,-0.018462328,0.022146378,0.021825233
129469504,129469271,-0.04992899,0.022753553,0.0054305224
129488139,129487904,-0.04395233,0.016718432,0.031298462
129508013,129507768,-0.057495955,0.028143851,0.02258049
129527878,129527636,-0.0032732878,-0.006102318,0.034708988
129546497,129546259,0.04287755,0.004243191,-0.008108536
129566432,129566204,0.040625263,0.001578289,-0.018522782
129587641,129587414,0.029948147,0.009457381,0.0086717345
129608576,129608350,0.010921173,-0.0052647134,0.012115146
129629682,129629457,-0.07635034,-0.0009515419,0.009764229
129647078,129646845,-0.027465675,-0.014993522,-0.028360726
129668181,129667951,-0.09715221,0.0015769255,-0.009927855
129689287,129689061,-0.110520154,0.023444975,-0.008178009
129706675,129706446,-0.0238626,0.023135288,-0.049480386
129727780,129727557,0.020861402,0.038372107,-0.05704083
129748902,129748665,0.08696398,0.034822658,-0.04263798
129770005,129769775,0.10391723,0.032873213,-0.045111522
129787385,129787159,0.071262814,-0.0047225016,-0.058900498
129808504,129808280,0.036225315,-0.016006937,-0.05132346
129829656,129829428,-0.05924645,0.0024322902,-0.039376337
129847138,129846897,-0.05790062,-0.0029293618,-0.048425708
129868098,129867874,-0.02630414,-0.00864263,-0.054486327
129889230,129888991,0.042249203,-0.010824088,-0.07145024
129910334,129910098,0.08198465,-0.02275018,-0.07124334
129927704,129927478,0.07751749,-0.0048582526,-0.05888112
129948816,129948588,0.005643237,0.012000122,-0.061189685
129969925,129969699,0.02877878,-0.0034102204,-0.0685163
129987308,129987082,-0.048733585,0.0059956554,-0.043161735
130008425,130008197,-0.007428923,-0.031071356,-0.039050937
130029541,130029302,0.060464554,-0.054569483,-0.05378556
130049423,130049196,-0.0037093067,-0.016493144,-0.047578458
130068035,130067797,-0.061784174,-0.016332133,-0.029387662
130088019,130087782,-0.11641169,5.3586664e-06,-0.02731768
130109111,130108882,-0.10352079,0.009925864,-0.025221182
130126571,130126347,-0.007835368,-0.02520931,-0.050202817
130147498,130147268,0.046511326,-0.008978406,-0.041651186
130168609,130168381,0.04291376,0.00037607417,-0.03636315
130189711,130189488,0.026202727,0.007955686,-0.024863653
130208351,130208116,-0.01581186,-0.024805596,-0.038852364
130228226,130227986,-0.048102885,-0.013199705,-0.03201014
130249319,130249092,-0.05231863,-0.01479664,-0.047630526
130266707,130266478,-0.085247695,0.010454278,-0.040809367
130287825,130287588,-0.045426097,0.010702344,-0.039745264
130308943,130308713,-0.023186563,0.007559093,-0.037548937
130326315,130326081,0.006886422,-0.012316536,-0.022105832
130347432,130347202,0.01878271,0.008947277,-0.009162432
130368579,130368354,-0.014661536,0.032609455,-0.014911272
130387307,130387068,-0.0691516,-0.035437282,-0.020096479
130407029,130406800,-0.07489204,-0.011243229,-0.027387936
130428132,130427906,-0.048777446,-0.0024922502,-0.0051672934
130449248,130449014,0.0556633,-0.04970907,0.0027804356
130470353,130470124,0.12501355,-0.06918382,0.0011188393
130487750,130487518,0.078163266,-0.007055632,-0.041062217
130508852,130508619,-0.009981041,0.021924123,-0.007365327
130529962,130529732,-0.10129211,0.04325785,-0.01946698
130547341,130547113,-0.12788306,0.045812134,0.0005981655
130568447,130568223,-0.08735425,0.06583199,0.0061735404
130588321,130588092,-0.053616334,0.044839274,0.017627282
130609434,130609203,0.00945526,0.016592015,0.0039566276
130628070,130627841,-0.011874437,0.030309208,0.038788993
130648043,130647818,0.04349403,-0.03298136,0.026737351
130669039,130668808,0.04922193,-0.023943046,0.03504431
130686420,130686194,0.046309732,0.010133886,-0.0055565154
130707526,130707299,-0.012794914,0.005471681,0.021997288
130729883,130729652,0.01032849,0.009049858,0.027612474
130749757,130749523,0.034752425,0.011995889,0.012370152
130767130,130766905,0.03594952,-0.0074767726,0.0053015817
130789492,130789260,0.035940547,0.011549853,0.017017419
130809361,130809128,-0.014713045,0.015193785,0.01610716
130826732,130826508,-0.005143184,-0.026327247,0.04327124
130849104,130848865,0.006627682,-0.045894526,0.019733608
130868970,130868738,-0.018924728,-0.013269208,0.03690088
130890068,130889838,-0.032730024,0.019247532,0.047263112
130907563,130907334,-0.12183264,0.045731254,0.030614719
130928721,130928493,-0.017419536,0.00890646,0.043554105
130949668,130949441,-0.02812603,0.008467898,0.02355466
130967058,130966826,-0.041668706,-0.0024148626,0.020183055
130988178,130987938,-0.050064012,-0.024450978,0.019189782
131009272,131009045,-0.07337283,-0.03101471,0.009923414
131027911,131027675,-0.06457002,-0.02903458,0.03362563
131047772,131047541,-0.04349176,0.0023413429,0.032071844
131068892,131068661,-0.024847675,-0.00095975475,0.0057303477
131089995,131089760,0.0151693,0.0011585192,-0.0066034743
131107375,131107145,-0.045061298,0.02382593,0.026135238
131128499,131128254,0.03155203,0.00540495,0.027399033
131147123,131146886,0.023961805,-0.011869161,0.042125456
131167064,131166832,-0.011269791,-0.024820032,0.03725893
131186957,131186728,-0.0182361,-0.03458782,0.03116281
131207954,131207727,-0.05305314,-0.020476548,0.009547349
131229071,131228838,-0.07542128,-0.014902211,0.016050907
131246467,131246240,-0.04861138,0.008257335,0.014219891
131267562,131267336,-0.057731614,0.052322097,0.010886311
131288665,131288441,-0.00823427,0.03237815,0.005308304
131309782,131309550,0.0095125,0.013901785,-0.0008812252
131327171,131326935,0.032286555,0.024427688,-0.013377588
131348274,131348047,0.015749646,0.019394012,-0.014527838
131369387,131369155,-0.008032509,0.044065658,-0.020859394
131386767,131386539,-0.044540137,0.021744007,0.0113600595
131407875,131407649,-0.0066530616,-0.0077171265,-0.0074448013
131429027,131428797,-0.009799898,0.014810177,-0.014804446
131450258,131450028,0.0700303,-0.02694684,-0.014565433
131467637,131467409,0.049367037,-0.034307454,0.010810898
131488605,131488375,0.005175523,-0.041401275,0.0014989743
131509699,131509473,-0.051801704,-0.015331772,0.0015886325
131527089,131526863,-0.1273278,0.0033110948,-0.0014788584
131548207,131547967,-0.064681455,-0.0018648555,0.010294592
131569313,131569078,-0.070265345,0.009014746,0.0011125673
131590415,131590187,-0.0126490705,-0.009541443,-0.0011930477
131607800,131607571,0.02067403,-0.022805806,-0.022288721
131628910,131628681,0.00047315442,0.003171449,-0.017618403
131650024,131649791,0.0071469843,0.0127079375,-0.0023505038
131667424,131667197,-0.006000387,0.025937691,-0.043526605
131688513,131688281,-0.015596382,0.025711821,-0.042649012
131708473,131708243,-0.012101308,0.023583924,-0.046420954
131729615,131729390,0.018988783,0.020484935,-0.045712616
131746881,131746648,0.0157521,0.05535555,-0.008469609
131767992,131767759,0.027376711,0.0376909,-0.012316145
131789092,131788864,0.04391758,0.0017494584,-0.03551434
131806481,131806252,0.04149085,-0.0062854555,-0.006151064
131827591,131827362,0.015850443,0.022874868,-0.017060999
131848697,131848472,-0.04471223,0.04414745,-0.008375454
131869807,131869581,-0.02145158,0.019518746,-0.006383798
131887207,131886967,0.034241952,0.003080814,-0.029577522
131908302,131908076,0.07371824,-0.016104728,-0.04312957
131926933,131926703,0.09263244,-0.016948737,-0.029820384
131946798,131946570,0.07389024,-0.022684535,-0.020253517
131967938,131967710,0.046975713,-0.037569515,-0.035851207
131989104,131988877,0.026786884,-0.025820078,-0.032051772
132010337,132010100,0.042618267,-0.026870487,-0.025349455
132027550,132027325,-0.010282339,0.024188131,-0.012181219
132048622,132048399,-0.045576967,0.0144324545,-0.018747061
132069733,132069504,0.013871237,-0.0003230943,-0.024132352
132087119,132086890,0.019416107,0.021421842,-0.024174444
132108227,132107998,0.078000784,0.0077430992,-0.037341096
132130578,132130350,0.065102264,0.023251373,-0.036474586
132146720,132146493,0.05933157,-0.026986675,0.0024056141
132167829,132167602,0.08655869,-0.01897801,-0.0009848402
132190187,132189955,0.067705885,0.016844038,-0.030809715
132208808,132208580,-0.0042091827,0.027895402,-0.015982753
132227429,132227205,-0.048868947,0.015169739,0.0034169091
132247332,132247108,-0.057502106,-0.005669079,0.0033411328
132268545,132268316,-0.006092096,-0.0331546,-0.00818165
132289531,132289297,0.03224107,-0.030255158,-0.015122765
132306908,132306680,0.06487231,0.015485296,-0.013875346
132329266,132329031,0.13459302,-0.010252121,-0.0330922
132349135,132348904,0.15538777,-0.0562404,-0.04073815
132366508,132366283,0.091140844,-0.0063808747,0.017677383
132387628,132387394,0.04197761,0.008267043,0.013400085
132408741,132408506,0.009651428,-0.015731089,-0.0039132913
132429839,132429613,-0.027795577,-0.00016140907,-0.017415782
132447230,132446997,-0.02378668,0.00078337244,-0.012873918
132468349,132468114,-0.028755724,0.020979794,-0.016431872
132489444,132489218,-0.027737658,0.027165316,-0.0049970997
132508087,132507852,0.07342588,-0.020158935,-0.028281529
132528039,132527806,0.119154386,-0.05663291,-0.026344657
132549253,132549016,0.10251436,-0.036960497,-0.033763945
132566439,132566206,0.075854406,0.0040281797,0.00039514503
132587543,132587316,-0.030710127,-0.0028935007,-0.015685067
132608654,132608427,-0.02647356,0.017005442,-0.01949035
132629761,132629536,-0.020305233,0.037251964,0.003751159
132647165,132646928,0.002448388,-0.0058146794,-0.008025736
132668254,132668029,0.024811598,-0.027436476,0.00037698942
132689367,132689141,-0.0067602303,-0.051880877,0.0046145255
132710477,132710249,-0.017464783,-0.022449737,0.017777013
132727865,132727634,-0.007083457,-0.002085218,-0.020290198
132748976,132748745,-0.016001077,0.006633897,-0.009632121
132768865,132768634,-0.0031132284,-0.0074739647,-0.021920402
132787514,132787280,-0.020088412,0.015401587,-0.0063591395
132807468,132807244,0.024632262,-0.0036950079,-0.011051053
132828443,132828216,-0.010019335,0.0020847875,0.014216251
132849555,132849325,0.008701346,-0.045557644,0.016638968
132866948,132866710,0.070660345,3.2164167e-05,-0.016973708
132888044,132887820,0.040842097,0.025121193,-0.011581378
132909168,132908933,0.038631212,-0.018429007,-0.0025340754
132926543,132926315,0.037656434,-0.012187553,-0.0051177116
132947650,132947424,-0.03103237,0.019125639,0.003191825
132968767,132968534,-0.11078145,0.034718994,-0.0050179916
132989870,132989644,-0.10762228,0.016508663,-0.0044164094
133007254,133007030,-0.13426602,-0.0019714483,0.021168577
133028370,133028138,0.018440487,-0.02043812,0.012320031
133049488,133049263,0.024645697,-0.014557919,-0.00085138937
133066955,133066731,0.07526862,-0.013366382,-0.010064879
133087971,133087745,0.08337166,0.04273112,-0.027197313
133109097,133108864,0.06583122,0.04225876,-0.049765773
133130213,133129977,0.053149078,0.014498823,-0.026111891
133147579,133147347,0.033108253,0.0016556117,-0.0013077086
133168697,133168469,-0.0063161915,0.0009541825,-0.010029544
133189794,133189566,-0.0029403344,0.052435976,-0.0022508542
133208433,133208201,-0.017403912,0.031709988,-0.010082496
133228300,133228064,0.013796343,-0.012293608,-0.022925185
133249402,133249172,0.0571952,0.003988631,-0.0008637125
133268038,133267800,0.0888697,-0.035136715,-0.02554693
133287896,133287666,0.10470869,-0.04226708,0.003366242
133309028,133308792,0.023263799,-0.027086537,0.022733616
133326506,133326268,0.017243275,0.0015764611,0.021203935
133346398,133346169,-0.020723123,0.031738285,0.008830534
133367368,133367138,-0.0736694,0.029622944,0.024699405
133388477,133388247,-0.070991546,-0.012611713,0.038929116
133409580,133409357,-0.056063198,0.0037674685,0.028768105
133426991,133426746,-0.05163093,-0.009359678,0.019349704
133448075,133447851,-0.036064878,0.009628552,0.025379429
133469186,133468961,-0.009747226,0.035604935,0.028942596
133486584,133486350,-0.07046702,0.074096836,0.04468518
133507683,133507456,-0.03738634,0.03857755,0.049881104
133528799,133528566,-0.021010377,0.045898702,0.030886507
133546181,133545951,-0.035882007,0.040624883,0.038572278
133567332,133567108,-0.01669241,0.020601561,0.042728707
133588421,133588196,0.015953427,-0.008286983,0.016844064
133609624,133609396,0.04737478,-0.029109651,0.014606594
133626894,133626667,-0.019233227,-0.014452355,0.03610146
133648003,133647774,0.008280724,0.020417357,0.029416947
133670367,133670130,-0.008475994,0.021357452,0.016416922
133690231,133689997,-0.02547548,0.028912902,0.028051108
133707606,133707379,-0.009942201,0.037647948,0.026577462
133729960,133729730,0.009824027,0.032048788,0.034258734
133749847,133749617,0.007118576,-0.0029250756,0.050588623
133767212,133766982,0.04455797,-0.029020617,0.026012724
133789574,133789339,-0.03861649,-0.005816178,0.060319953
133809443,133809208,-0.07422389,0.024297383,0.055840064
133830552,133830312,-0.070794456,0.004009647,0.07194762
133847926,133847696,0.014250052,-0.06373696,0.029567426
133869121,133868890,0.017833974,-0.050508916,0.03514606
133889092,133888861,-0.00013654612,-0.012153365,0.044874225
133907550,133907306,0.00813096,-0.017065985,0.054340262
133928642,133928412,0.008066437,-0.012518961,0.036106747
133948514,133948284,-0.055483617,0.027498623,0.03196353
133969615,133969388,-0.16469763,0.059663042,0.03418925
133987004,133986772,-0.34502774,0.04942905,0.051917065
134008128,134007887,-0.4706846,0.009104867,0.06331295
134029224,134028994,-0.647163,0.011924984,0.083482824
134046612,134046378,-0.6525791,-0.03337302,0.04303505
134067722,134067491,-0.6481714,-0.050868582,0.049246073
134088826,134088600,-0.6149625,-0.028501486,0.033343684
134109957,134109721,-0.5722938,0.012268966,0.04098184
134127354,134127122,-0.56385076,0.05406463,0.03095876
134148541,134148317,-0.6048786,0.07548795,0.024202958
134169539,134169311,-0.7832323,0.11488945,0.019599581
134186936,134186699,-0.8393378,0.1295232,0.04478047
134208034,134207805,-0.8429702,0.11544403,0.031313952
134229138,134228915,-0.77900994,0.061254423,0.01883428
134250253,134250025,-0.7405029,0.046294536,0.013506717
134267635,134267409,-0.74863774,0.058270395,0.025749637
134288743,134288519,-0.7226558,0.067846544,0.030226856
134309859,134309629,-0.7909685,0.08064431,0.013447928
134327245,134327013,-0.83660406,0.102676384,0.04088898
134348375,134348145,-0.84953064,0.10432594,0.021479607
134369462,134369233,-0.742761,0.1310443,-0.0053494438
134390575,134390344,-0.52987933,0.10067129,-0.0074805827
134408031,134407800,-0.35617957,0.1108647,0.008206143
134427989,134427766,-0.011297179,0.12460226,-0.0012829183
134448939,134448705,0.24540104,0.19441289,-0.019383552
134467565,134467333,0.41696316,0.26931646,-0.030111732
134487428,134487204,0.48261157,0.31688026,-0.051120635
134508540,134508310,0.53572917,0.2789071,-0.048905876
134529647,134529419,0.59397876,0.21966796,-0.02783696
134547027,134546804,0.59381735,0.14925063,-0.01930355
134568142,134567915,0.58235216,0.07937817,-0.010831753
134589252,134589023,0.62221426,-0.0013592226,-0.0068405354
134606633,134606408,0.66887844,-0.052020293,-0.010480583
134627742,134627513,0.79119843,-0.0861584,-0.030291812
134648862,134648630,0.7935843,-0.08990336,-0.0386468
134670008,134669783,0.85352015,-0.09815325,-0.038640987
134687481,134687252,0.7879801,-0.08967017,-0.014101399
134708492,134708263,0.82270867,-0.11648538,-0.014883695
134729571,134729343,0.8972677,-0.15067917,-0.019842701
134746957,134746726,0.8255905,-0.1476827,-0.0058683176
134768066,134767836,0.88703763,-0.16105235,0.01641432
134789172,134788946,0.85962355,-0.17379631,0.0014622468
134810282,134810058,0.84805554,-0.18359095,-0.024230117
134827667,134827440,0.82508755,-0.15919185,-0.019036615
134848775,134848550,0.8224405,-0.1827046,-0.04322852
134869891,134869663,0.83296096,-0.224807,-0.040723123
134887270,134887045,0.8482631,-0.16919464,-0.012925725
134908426,134908200,0.8532164,-0.22344516,-0.030537011
134929502,134929270,0.8646869,-0.22063687,-0.036429517
134947070,134946843,0.8198828,-0.21066876,-0.02330919
134966918,134966692,0.77205765,-0.21983655,-0.036659762
134987851,134987627,0.79687226,-0.16192909,-0.016820664
135008968,135008738,0.6608526,-0.15185902,-0.010434249
135026351,135026122,0.76076216,-0.15508096,-0.062390767
135047458,135047231,0.76645124,-0.14452115,-0.04578804
135068566,135068340,0.7792365,-0.15749253,-0.016230045
135089680,135089451,0.8242891,-0.21105777,-0.02310406
135107066,135106835,0.7938095,-0.18764597,-0.037098277
135128172,135127945,0.7956415,-0.13329531,-0.041111086
135149289,135149056,0.7741356,-0.15800051,-0.07296737
135166665,135166439,0.73295027,-0.16057783,-0.03287029
135187834,135187610,0.6122761,-0.13455051,-0.046835206
135208965,135208734,0.4233284,-0.06319526,-0.0213505
135230141,135229915,0.14939235,0.0031096183,-0.017350186
135247396,135247168,-0.047148313,0.015235969,-0.013996639
135268493,135268264,-0.17028955,0.021335496,-0.05433835
135289600,135289373,-0.29484087,0.03647849,-0.043010436
135306985,135306758,-0.3613762,0.062559396,-0.058802962
135328105,135327870,-0.41266003,0.09500462,-0.06476753
135349219,135348978,-0.5048428,0.11783417,-0.030339735
135370316,135370087,-0.55084425,0.12550631,-0.041559353
135387701,135387472,-0.6128893,0.12229346,-0.029418292
135408814,135408587,-0.6348432,0.12450482,-0.023748366
135429941,135429715,-0.679849,0.14514104,-0.04706837
135447304,135447076,-0.7196353,0.17213126,-0.036577925
135468480,135468255,-0.7439946,0.15054841,-0.023275044
135488387,135488162,-0.7807143,0.13983902,-0.025607305
135509590,135509363,-0.80832916,0.1360654,-0.036915943
135528027,135527791,-0.7994624,0.14548184,-0.061640214
135547896,135547667,-0.8183606,0.15502155,-0.06478106
135566520,135566284,-0.76434404,0.118824124,-0.011297208
135586383,135586153,-0.77368337,0.06650977,-0.016802177
135607496,135607263,-0.7236137,0.04015498,0.0042205756
135628597,135628372,-0.6025761,-0.03753596,-0.013828774
135649727,135649500,-0.5751951,-0.0024946807,-0.032068033
135667100,135666869,-0.5471195,-0.010813453,-0.029898249
135688211,135687976,-0.5200623,-0.06110118,-0.03742492
135709317,135709086,-0.6024389,-0.057953216,-0.042565163
135726703,135726468,-0.677584,-0.024037143,-0.010890448
135747883,135747657,-0.79280865,-0.0025158594,-0.0045288126
135769073,135768841,-0.7479254,0.0058523226,-0.0093398085
135790033,135789800,-0.7699221,0.024999138,-0.002400244
135807416,135807185,-0.7159743,-0.0034363766,-0.022495952
135828518,135828295,-0.72421676,0.012628763,-0.019037822
135849638,135849405,-0.75455135,0.012407048,0.008652826
135867015,135866789,-0.7690924,-0.011181469,0.0056883288
135888124,135887899,-0.7904248,0.01995551,0.024669012
135910529,135910297,-0.83770895,0.027322214,0.029485188
135930349,135930119,-0.775739,0.08588309,0.011708798
135947731,135947503,-0.6466787,0.0872583,-0.0062772785
135970094,135969858,-0.41950503,0.054388165,-0.011843714
135989954,135989718,-0.068489745,0.002104095,-0.0024435285
136007399,136007176,0.15956487,-0.058483157,-0.006885818
136028557,136028323,0.3732108,-0.09002526,-0.0034278391
136049576,136049341,0.4507004,-0.11177688,0.0018508359
136069426,136069196,0.41008776,-0.12301824,0.027595736
136088059,136087821,0.4428406,-0.14174666,0.015144789
136109168,136108934,0.47708625,-0.13789059,0.021167843
136129042,136128805,0.49209327,-0.15559134,-0.0015243611
136146416,136146187,0.56971794,-0.20050985,-0.0028899745
136167523,136167294,0.67384404,-0.1960093,0.008318211
136188640,136188409,0.7790168,-0.12675652,-0.0037770648
136209739,136209513,0.8776683,-0.025016226,-0.029713212
136227130,136226898,0.86670446,0.032753855,-0.0100555215
136248269,136248041,0.9081905,0.045611657,-0.027404726
136269363,136269136,0.9933971,0.06277241,-0.036046784
136286793,136286563,0.9551584,0.08108449,-0.06091227
136308010,136307776,0.8762443,0.04598286,-0.040497724
136329012,136328781,0.89014035,0.032514893,-0.021701176
136346337,136346106,0.83521676,0.018757988,-0.037938222
136367497,136367265,0.82717043,-0.0017363611,-0.012349661
136388552,136388326,0.82495975,-0.014400503,0.0070589967
136409661,136409436,0.7853461,-0.04789404,-0.016907932
136427061,136426821,0.6968063,-0.015691882,-0.027670395
136448155,136447930,0.565463,-0.023020627,-0.036129225
136469269,136469040,0.3655598,-0.0025386289,-0.0276513
136490383,136490150,0.13919315,-0.0019394081,-0.023860296
136507763,136507537,-0.13238227,-0.001685691,0.009619575
136528872,136528639,-0.29084337,-0.03768263,0.01172285
136550031,136549796,-0.40145415,-0.07841986,-0.02280389
136567520,136567289,-0.4995025,-0.0779146,0.021463132
136588471,136588249,-0.5318562,-0.07315226,0.0073388857
136608336,136608112,-0.55829644,-0.019624617,-0.0334597
136629501,136629272,-0.6484302,0.039255094,-0.020228082
136648080,136647853,-0.61235213,0.027559394,-0.017267913
136667985,136667757,-0.6413339,0.04028514,-0.021676745
136689060,136688830,-0.7247297,0.0729751,0.0016137225
136706502,136706268,-0.74492365,0.07639774,-0.002730668
136727552,136727325,-0.8706362,0.087694995,-0.015573901
136748669,136748435,-0.86488557,0.087947376,0.0016637115
136769780,136769551,-0.8391092,0.055891212,-0.014216819
136787157,136786929,-0.89079666,0.07291125,0.0023351724
136808303,136808076,-0.84184337,0.060175907,-0.030617703
136829455,136829229,-0.85846835,0.061107688,-0.027779955
136846967,136846742,-0.840235,0.085022956,-0.034715626
136869123,136868888,-0.8632236,0.13940935,-0.02322299
136888988,136888757,-0.790288,0.09230762,0.0033112844
136910089,136909863,-0.5786191,0.08704153,0.0019456518
136927484,136927250,-0.32885635,0.0319303,-0.033387873
136948594,136948360,-0.05690584,0.10793065,-0.032821395
136969697,136969467,0.10300135,0.12232795,-0.038708936
136987080,136986851,0.2812755,0.09269026,-0.049844682
137008210,137007965,0.40076646,0.03396759,-0.035509855
137029312,137029086,0.4531473,-0.00053946767,-0.01280694
137046688,137046456,0.461467,-0.035622545,-0.03756202
137067795,137067568,0.45057592,-0.119753696,-0.041885428
137088942,137088711,0.2960877,-0.19122386,-0.045477882
137106416,137106181,0.12611733,-0.20953766,-0.013075394
137127411,137127173,0.043989528,-0.18104799,-0.017200818
137148517,137148280,0.046011575,-0.14591594,-0.012713276
137169624,137169390,0.045613993,-0.09489938,-0.017305085
137187016,137186778,-0.0001345673,-0.049272187,-0.0026101752
137206885,137206658,-0.014923134,-0.042661656,0.00041410184
137227977,137227752,-0.01663346,-0.012339613,-0.006678994
137249092,137248862,0.06050209,-0.030666674,-0.05040575
137266487,137266249,0.10551635,-0.039091688,-0.0040888353
137287587,137287356,0.08616832,-0.00976773,-0.005937274
137308691,137308467,-0.031003721,0.0067732343,-0.020944128
137329807,137329577,-0.12117527,0.022360675,-0.020533776
137347196,137346963,-0.12580022,0.024827134,0.00015811058
137368392,137368161,-0.051802166,0.029933833,0.0064254203
137389652,137389422,0.12438756,0.03416011,-0.028349366
137406795,137406565,0.31275243,0.066452585,-0.025025588
137427905,137427678,0.5088234,0.0770292,-0.02937796
137450272,137450030,0.604719,0.08283244,-0.03946633
137470141,137469896,0.68571913,0.12744589,-0.025074659
137487506,137487279,0.73195344,0.060625214,-0.040620133
137508618,137508389,0.6811099,0.0642051,0.0014957198
137529737,137529503,0.6396341,0.041676834,0.012966391
137547113,137546883,0.68130714,0.00127965,0.014493713
137568232,137567993,0.6492805,-0.020386292,-0.006055519
137589339,137589106,0.57223,-0.050501026,0.008500704
137610446,137610218,0.4588334,-0.053017274,0.019379133
137629127,137628894,0.29963246,-0.03461979,0.021826694
137649092,137648859,0.22386561,-0.036951,0.04804017
137670043,137669817,0.13752589,-0.03448844,0.051465143
137688714,137688481,0.2666424,-0.031921614,0.025442073
137708553,137708312,0.4111314,-0.042811632,0.027215928
137728419,137728181,0.5878441,-0.048282444,0.014573085
137747050,137746809,0.64767885,-0.03155577,0.011316748
137766904,137766673,0.7320861,-0.0046890895,-0.0049109785
137788018,137787787,0.7347529,0.014866053,0.009438605
137809131,137808898,0.6654827,0.027323062,0.020548409
137826506,137826278,0.64088386,0.03491573,0.01692795
137847620,137847390,0.65755326,0.004447426,0.027931688
137868731,137868500,0.7208943,-0.018011797,-0.0034628736
137889849,137889621,0.7144743,-0.05445994,-0.0071781687
137907363,137907135,0.6897421,-0.09352924,0.015632587
137928520,137928295,0.6205927,-0.06736291,0.03510148
137949438,137949212,0.40492514,-0.022247726,0.032083727
137966842,137966600,0.17971644,0.05300836,0.052373514
137987979,137987751,-0.039825328,0.0758048,0.015576451
138009043,138008816,-0.2556937,0.10643651,0.014458309
138030157,138029926,-0.45327565,0.13740416,0.03786074
138047542,138047311,-0.5093486,0.1466661,0.059716664
138068649,138068420,-0.4734199,0.13620974,0.04644424
138089758,138089530,-0.51364774,0.12812248,0.017656295
138107147,138106920,-0.5012971,0.09719234,0.04165553
138128251,138128025,-0.39193,0.06334201,0.04761565
138149364,138149134,-0.21404928,0.011267698,0.008162118
138169292,138169063,-0.0885387,-0.03017454,0.007327923
138188011,138187776,0.02014356,-0.058508128,-0.008237297
138208968,138208738,-0.049966343,-0.035549868,0.014195328
138230083,138229849,-0.20372055,0.06412214,0.03335675
138247460,138247232,-0.35795662,0.13965489,-0.016934458
138268579,138268343,-0.54649943,0.1502431,-0.0018544421
138288438,138288211,-0.6665844,0.14717726,0.017161839
138307066,138306838,-0.7013444,0.12711686,0.006596111
138326934,138326705,-0.6354617,0.07724746,0.028141167
138349296,138349059,-0.5696626,-0.07870895,0.005041954
138369166,138368932,-0.64292854,-0.13460468,0.02183506
138386549,138386320,-0.6163468,-0.19846302,0.0037664701
138408951,138408715,-0.63547677,-0.14163125,-0.00069333357
138428792,138428557,-0.680804,-0.097310916,-0.013686319
138450023,138449795,-0.5815209,-0.033499226,-0.010193054
138467257,138467026,-0.44927585,-0.019752646,-0.028463794
138488364,138488134,-0.22671208,-0.01212365,-0.024265781
138509471,138509243,-0.072344564,-0.05988781,-0.028641561
138526855,138526627,-0.05346427,-0.074308455,-0.02716398
138547975,138547743,-0.053367928,-0.017074462,-0.032187376
138569121,138568893,-0.13547204,-3.9249986e-05,-0.028241536
138586511,138586283,-0.20619915,-0.004586071,-0.0020343363
138607600,138607367,-0.19081087,-0.02355819,-0.038853925
138628680,138628453,-0.22698025,-0.007994114,0.017069465
138649789,138649562,-0.12062837,-0.06840625,-0.0034650823
138667182,138666949,-0.036547307,-0.050674446,-0.05370638
138688297,138688071,0.039775092,-0.08485864,-0.052682556
138709455,138709231,0.043878,-0.053577088,-0.018739967
138726949,138726716,0.07328106,-0.06931086,-0.012252003
138747884,138747660,0.04367464,-0.028982008,0.012412336
138769003,138768773,0.07415627,-0.064436615,-0.0042808005
138788867,138788638,0.078238316,-0.06785346,0.011434778
138807505,138807270,0.056914076,-0.039347596,0.018130902
138827373,138827133,0.02363646,-0.06851009,-0.014001255
138848472,138848242,-0.0036925143,-0.07492876,-0.0024652008
138869583,138869352,-0.024188748,-0.058860175,0.028643351
138886964,138886736,-0.020655273,-0.027092025,0.01640877
138908070,138907846,0.025321389,-0.016733773,0.035450075
138929187,138928956,0.009484823,-0.027186703,0.009924456
138946568,138946341,0.0049401065,0.023827547,0.046906803
138967744,138967523,0.006578672,0.019510603,0.041706715
138988908,138988674,0.06608457,0.011474161,0.0047418773
139009898,139009670,0.0582533,-0.003149793,0.016216418
139027286,139027054,0.06468075,-0.030685809,0.04798264
139048403,139048166,0.00023791219,-0.00036759974,0.06821906
139069512,139069277,-0.029523777,0.010199202,0.07208792
139086885,139086660,-0.021575969,0.005105732,0.045283273
139109244,139109006,0.052313626,0.017265795,0.034486532
139129118,139128881,0.029090961,0.010258248,0.037933704
139150222,139149991,0.04348786,0.0031494412,0.05449377
139167602,139167374,0.08414054,-0.017479373,0.041980453
139188722,139188487,0.06293769,0.0018295198,0.05887982
139209818,139209592,0.049217124,0.011908792,0.033630803
139227210,139226977,-0.029477993,0.010628969,0.07893118
139248396,139248167,-0.007547571,-0.0238285,0.0673299
139269621,139269387,0.0049973684,0.018744484,0.053727735
139286810,139286582,0.038847882,0.05637616,0.050559897
139307936,139307702,-0.006871525,0.08770354,0.05971552
139329042,139328802,0.03411727,0.03537696,0.0294036
139346422,139346185,0.06934577,0.004877471,0.047025874
139367537,139367298,0.07028199,0.008482718,0.020144526
139387397,139387167,-0.0007416405,0.04684604,0.055166695
139408503,139408277,-0.021192428,0.009367238,0.053145945
139429634,139429408,0.018242959,0.00021496741,0.04157949
139446999,139446769,0.024894297,0.023753604,0.048796248
139468126,139467895,0.033350807,0.0130510805,0.05265724
139489217,139488988,0.061936922,0.0096052885,0.057182517
139506681,139506453,0.11531272,-0.0013200287,0.03064598
139527825,139527601,0.18264963,-0.007967463,0.02950286
139548815,139548592,0.20798106,-0.07705592,0.05052313
139569934,139569703,0.21365754,-0.18561682,0.054070808
139587319,139587086,0.08623135,-0.24998356,0.09461629
139608424,139608200,0.06633758,-0.41701058,0.07979708
139629533,139629305,0.019332813,-0.5418553,0.06633417
139646920,139646690,-0.035691723,-0.6142511,0.06400818
139668031,139667802,-0.076024,-0.640014,0.06206243
139689188,139688960,-0.0189182,-0.65049964,0.07123333
139710262,139710034,0.09762103,-0.6979955,0.08843401
139727671,139727444,0.22466327,-0.73766714,0.0728972
139748743,139748514,0.2733753,-0.7821284,0.081655376
139769863,139769632,0.36637342,-0.8338833,0.083422
139787315,139787091,0.34015125,-0.87031364,0.06686629
139808528,139808294,0.24391925,-0.8716817,0.039050233
139829455,139829228,0.13102756,-0.8600627,0.05629564
139846842,139846613,-0.018349873,-0.83796114,0.04384192
139867969,139867732,-0.12484501,-0.821808,0.06275598
139889065,139888833,-0.09495004,-0.8125121,0.049306367
139908928,139908700,-0.13853402,-0.79343927,0.03213129
139927557,139927326,-0.19712928,-0.77184784,0.04294582
139947436,139947201,-0.2713965,-0.6951411,0.039484985
139968532,139968304,-0.27780053,-0.5836253,0.033320405
139989687,139989463,-0.34004062,-0.4037549,-0.0016960386
140007026,140006799,-0.3588041,-0.24451292,-0.018657792
140028198,140027966,-0.3934954,-0.060268372,-0.011283553
140049307,140049074,-0.36441568,0.09180684,-0.013908433
140066813,140066579,-0.40404475,0.22038704,-0.031983756
140087744,140087514,-0.39909977,0.34104708,-0.042977102
140108855,140108624,-0.32898688,0.4591175,-0.0557947
140129960,140129733,-0.30518258,0.5468067,-0.058206275
140147347,140147118,-0.20231044,0.5516802,-0.067903936
140168456,140168228,-0.1746448,0.6167451,-0.0549942
140189577,140189354,-0.09344284,0.61928403,-0.04587142
140206961,140206729,-0.0463193,0.67048925,-0.02574608
140228059,140227831,-0.015868459,0.7124159,-0.018915141
140249176,140248941,-0.018508606,0.7148697,-0.009324072
140270285,140270053,-0.006731051,0.72428566,-0.022051405
140287662,140287436,-0.0106915645,0.7845493,-0.04205669
140308776,140308551,0.00977452,0.77920276,-0.041981
140329993,140329752,0.05161337,0.81254804,-0.027674973
140347449,140347224,0.08015296,0.8179886,-0.019737015
140368375,140368149,0.07446492,0.87960017,-0.003430513
140389499,140389261,0.057421092,0.8719545,0.02643761
140409360,140409128,0.091314726,0.8764408,0.014867757
140427993,140427754,0.098286,0.86414814,-0.0068330634
140447852,140447623,0.1031919,0.8926809,0.0053776675
140468965,140468731,0.10713768,0.83824927,0.013373653
140486354,140486124,0.1785076,0.82399195,0.015798638
140507453,140507227,0.1830301,0.78387874,0.04686068
140528567,140528336,0.24545814,0.72152597,0.04262914
140549704,140549480,0.31710866,0.5845585,0.078778826
140567057,140566830,0.3922328,0.4832438,0.043972366
140588233,140587995,0.3965349,0.32584247,0.053450473
140609428,140609203,0.22031893,0.08593416,0.09074262
140626666,140626437,0.16216584,-0.1480909,0.10192618
140647773,140647544,0.030938381,-0.3154701,0.14987692
140668923,140668693,-0.07409396,-0.4393363,0.16710392
140689993,140689764,-0.086005524,-0.5548891,0.17849995
140707385,140707149,-0.018478274,-0.5846416,0.12761022
140728489,140728258,-0.036766037,-0.5416925,0.10965614
140749597,140749369,-0.043083295,-0.37571684,0.11198761
140766981,140766753,0.061493162,-0.25660664,0.075114906
140788095,140787867,0.14189377,-0.022477187,0.07740292
140809211,140808975,0.047535773,0.16779248,0.073903814
140830313,140830085,0.013675567,0.32262337,0.097274505
140847707,140847479,0.011698126,0.38170263,0.04637715
140868910,140868681,0.008291178,0.4455064,0.08401909
140889923,140889687,-0.012603927,0.36797154,0.09643315
140907333,140907108,0.15186808,0.25761312,0.07628317
140928415,140928181,0.13831946,0.077329434,0.097273
140949521,140949291,0.19525413,-0.12521543,0.09348591
