timestamp,timestamp_sample,accel_device_id,gyro_device_id,delta_angle[0],delta_angle[1],delta_angle[2],delta_velocity[0],delta_velocity[1],delta_velocity[2],delta_angle_dt,delta_velocity_dt,delta_velocity_clipping
119665663,119665501,4259850,4325386,-0.00021221448,9.5343e-05,5.529954e-05,-0.00220474,-0.004087714,-0.048628956,4988,5005,0
119670681,119670488,4259850,4325386,-0.000108247375,0.0001412747,0.0004100938,0.0012327648,-0.004374585,-0.055032447,4987,5669,0
120169738,120169271,4259850,4325386,-0.0004028281,-8.0046564e-05,-0.0006926179,-0.010404572,0.0053904112,-0.05991655,4991,5878,0
120667175,120667052,4259850,4325386,-0.0014497931,0.00061823986,-7.395067e-05,-0.003838536,0.007098772,-0.044770826,4984,4935,0
121165490,121165381,4259850,4325386,0.0011258848,0.0010436004,0.0005742206,-0.012077351,-0.012845171,-0.05916888,4998,4989,0
121664886,121664112,4259850,4325386,0.000333743,0.00029150612,-0.0006137922,-0.0035065832,-0.006241115,-0.05149649,4953,4936,0
122168243,122168040,4259850,4325386,-0.0027048234,-0.0001788322,0.00034385588,-0.004696067,-0.0011359147,-0.055064164,4977,4945,0
122666824,122666666,4259850,4325386,0.00095664675,0.00061689067,-0.0011534182,-0.018819565,-0.008824771,-0.035054356,4995,4994,0
123165575,123165460,4259850,4325386,0.00068163837,0.00031687948,1.12913485e-05,0.0016774855,0.00040966322,-0.04961703,5008,5025,0
123669498,123669347,4259850,4325386,-0.0011467972,-0.0003535158,0.00029717817,-0.001824071,-0.008951046,-0.050211344,4956,4934,0
124168200,124168083,4259850,4325386,0.00025822647,-0.0014994629,6.4143715e-05,-0.0002477355,-0.014135835,-0.043726016,4985,4932,0
124666878,124666768,4259850,4325386,0.00016082972,-0.00011308047,0.00010957651,-0.0016059655,0.007888341,-0.05944344,4989,4937,0
125165776,125165628,4259850,4325386,-0.0014007258,0.00046328234,0.00034656626,-0.0052766036,-0.013666233,-0.053756636,4969,4939,0
125664441,125664326,4259850,4325386,0.0012166147,-0.00032943167,-0.0004978552,0.005593399,-0.008941708,-0.040630862,4983,4933,0
126167849,126167721,4259850,4325386,0.0012533269,-0.00049863657,-0.00044457172,0.0051833335,-0.0063458607,-0.032740895,4969,4924,0
126666563,126665885,4259850,4325386,0.00032429275,-3.2678734e-05,-0.00012010374,0.0057413755,0.0009417296,-0.05226264,4943,5920,0
127170078,127169942,4259850,4325386,-0.00023108421,-0.00039483325,-0.00014890495,0.0078022396,0.008226633,-0.047410987,5002,4991,0
127668567,127668424,4259850,4325386,0.00050217164,-7.4712974e-05,-0.0001721042,0.0030828684,-0.0015129918,-0.039927743,4987,4936,0
128172388,128172201,4259850,4325386,-0.002073464,0.00059103617,0.00071217533,-0.00729903,0.00044896975,-0.055746235,4996,4964,0
128665614,128665502,4259850,4325386,0.0013672113,-0.00031356353,-0.0005662997,0.0014757067,-0.012918374,-0.045563295,4996,4936,0
129164880,129164765,4259850,4325386,0.0012781714,-0.00011035391,-0.0006751694,-0.0033536488,-0.01268994,-0.05180266,4985,4930,0
129668644,129668533,4259850,4325386,-0.0017757803,0.000578435,0.00087810465,-0.006156141,0.0044971216,-0.051341783,4973,4743,0
130168142,130167605,4259850,4325386,-0.00069801946,0.00026215776,0.0005345449,-0.0044726026,0.0035810203,-0.05008872,4961,4955,0
130666218,130666102,4259850,4325386,-0.00026787183,-0.00015662778,0.0010005834,-0.009321106,-0.004470469,-0.056034144,4995,5012,0
131169681,131169525,4259850,4325386,0.0017885154,-0.0007053646,-0.0007639296,0.0055306153,-0.0044029416,-0.04109313,4985,4937,0
131663386,131663274,4259850,4325386,-2.3356006e-05,0.0004429155,0.00017811924,0.0052505615,0.0072583673,-0.04594504,4976,4933,0
132167053,132166922,4259850,4325386,0.0011648985,-0.0004247486,-0.0004922246,0.012200773,0.007993302,-0.04169787,4985,4927,0
132665968,132665818,4259850,4325386,0.00072675647,-0.00018654567,-0.0007227655,-0.0035661329,-0.024787318,-0.043998536,4961,4939,0
133164624,133164514,4259850,4325386,-0.0006959451,0.0002663201,0.000376286,0.0045563667,0.00092148,-0.04491336,5019,4911,0
133668097,133667971,4259850,4325386,0.0011152073,-0.00036916617,-0.00063292537,0.0011698996,-0.011198799,-0.045747235,5009,4898,0
134166776,134166534,4259850,4325386,-0.0029052168,0.0004044051,-0.00056038686,0.008053013,-0.01405507,-0.0477552,4990,5453,0
134670408,134670300,4259850,4325386,0.0042855525,-0.00088671135,-0.0002809873,-0.008262917,-0.014866346,-0.049919862,4987,4976,0
135168715,135168581,4259850,4325386,0.0042739296,-0.000701401,-0.00086098607,0.00084680493,-0.013050869,-0.054451562,4988,4974,0
135667564,135667362,4259850,4325386,-0.0023886592,-0.00045233808,-0.0006373531,0.0072316304,-0.012449215,-0.052093834,4988,5868,0
136166440,136166326,4259850,4325386,0.003252328,-0.0008110755,9.350364e-05,0.0019347775,0.010527936,-0.057703737,4972,4935,0
136665336,136664923,4259850,4325386,-0.0031946874,0.00047492338,-0.00012286747,0.0025271536,0.0018416569,-0.04469462,4987,4937,0
137168809,137168690,4259850,4325386,-0.000135261,-0.00016404525,8.664802e-05,-0.007021488,-0.004604572,-0.051444124,4988,4934,0
137668656,137667811,4259850,4325386,-0.000538542,8.2905404e-05,0.0010846384,0.0045433803,0.011875405,-0.046258487,4967,4928,0
138166411,138166265,4259850,4325386,0.00037111997,-0.00052467966,-0.00042064057,-0.0005787165,-0.0032309098,-0.042870145,4999,4885,0
138670174,138670022,4259850,4325386,-0.00089072145,-0.00010370477,0.0002917792,0.0025091704,-0.008200664,-0.051226746,4992,4968,0
139169151,139168929,4259850,4325386,-0.00031346382,0.00025748546,0.0009969845,-0.0066734515,0.006848084,-0.050615393,4998,4998,0
139667269,139667131,4259850,4325386,0.00047846654,-0.003323804,-6.738325e-05,0.00786596,0.0013473105,-0.04417932,4986,4932,0
140165471,140165361,4259850,4325386,0.00041400082,0.0030373305,-0.0010312087,-0.00024436746,-0.013652046,-0.046336163,4987,4966,0
140668757,140668632,4259850,4325386,-0.0015470854,-0.0016469397,0.0017876438,0.0091878325,0.011746621,-0.040579524,4984,3738,0
141167521,141167412,4259850,4325386,0.00029656713,-0.0035239481,-0.00034599175,0.0004116591,-0.019339707,-0.044415418,4989,4952,0
141666330,141666186,4259850,4325386,0.0003961401,0.0026989921,-0.00010180058,0.0072232396,7.105604e-05,-0.045794163,4979,4994,0
142170369,142170219,4259850,4325386,0.00019361192,-0.0043330593,-0.0010380507,-0.0011593561,-0.026290234,-0.045535754,4964,4978,0
142664011,142663859,4259850,4325386,-1.1884418e-05,0.004799217,8.64004e-05,-0.0004989873,0.0071355794,-0.05041926,4983,4943,0
143167687,143167540,4259850,4325386,-0.0036668556,0.001875166,0.0006219985,-0.007385595,0.018304324,-0.05500821,5008,4899,0
143666633,143666520,4259850,4325386,0.0029494471,-0.0020128533,-0.000502629,0.01227273,0.0023764123,-0.043772437,4959,4934,0
144165325,144165087,4259850,4325386,0.0001279195,0.0002539462,-0.00057073537,-0.00061624695,-0.017243091,-0.05038076,4995,4992,0
144668986,144668875,4259850,4325386,-0.0012815684,-0.003427746,0.001362472,-0.002544454,0.00902173,-0.0540416,5010,4901,0
145168101,145167897,4259850,4325386,0.0006894576,0.004210066,-0.0004186284,-0.017831119,-0.021851989,-0.044648312,4996,5003,0
145666543,145666411,4259850,4325386,0.00090422976,-0.0024295938,-0.00069501775,-0.003781092,-0.020004984,-0.045139395,4990,4931,0
146165318,146165200,4259850,4325386,-5.0788058e-05,0.0010335541,0.00032585792,-0.0021044628,-0.0065085203,-0.054290596,4996,4973,0
146669363,146669114,4259850,4325386,-0.0003296369,-0.0040711206,-0.0008691819,-0.0076946826,-0.023681123,-0.050078657,4987,4983,0
147167914,147167739,4259850,4325386,-0.0020771201,0.0046751583,-0.00075628015,0.006219069,-0.010931435,-0.043765526,4989,4987,0
147667129,147667016,4259850,4325386,0.002369926,-2.5732912e-05,0.0008418143,-0.00919317,0.001261283,-0.052334573,4984,4926,0
148165909,148165797,4259850,4325386,-0.00041949502,-0.0033564682,0.0004984946,-0.0057461825,-0.0043275384,-0.043168925,4988,4978,0
148669934,148669669,4259850,4325386,-0.0003424018,0.003452762,-0.0002956033,0.0041332804,0.0008035758,-0.04517773,4998,4954,0
149168527,149168397,4259850,4325386,0.0019136064,-0.002238579,-2.6655995e-05,-0.007334463,-0.008237789,-0.04581778,4990,4934,0
149667272,149667126,4259850,4325386,0.0024252045,-0.001998943,-0.0011706408,0.003141552,-0.013159221,-0.040716704,4988,4934,0
150166028,150165911,4259850,4325386,-0.0019091816,-0.00032255487,0.00027871315,-0.0011914098,-0.00064008276,-0.053828306,4984,4971,0
150668290,150668178,4259850,4325386,0.0017956372,0.0042200456,-0.0012536908,-0.003875692,-0.008737822,-0.04653486,4983,4952,0
151167565,151167457,4259850,4325386,-0.0005006409,-0.0028111048,-0.0002604489,-0.0028023429,-0.003230761,-0.04474543,4983,4974,0
151671615,151671228,4259850,4325386,0.0007452576,-0.0008748948,-0.0016348528,0.009264741,0.0023716833,-0.05293448,4990,5925,0
152170378,152170204,4259850,4325386,-0.0011228434,0.00039091153,-0.0003624718,-0.010138132,-0.011858977,-0.05290229,4977,4932,0
152669382,152668936,4259850,4325386,-0.00096094195,-0.0017889551,0.00064134557,-0.010419675,0.010769559,-0.05515364,4988,4941,0
153167675,153167566,4259850,4325386,0.000955722,0.0036611138,-0.00065062655,-0.006031266,-0.011082763,-0.052804556,4983,4934,0
153667285,153667006,4259850,4325386,-0.00064895494,0.00054707367,0.00026409666,-0.014975313,-0.0018768313,-0.058498196,4991,4989,0
154165813,154165661,4259850,4325386,0.00044984915,-0.0019046647,-0.00027627274,0.0036603839,0.007920623,-0.046915635,5020,4902,0
154669531,154669394,4259850,4325386,4.928673e-05,-0.00018114076,0.0009943694,-0.0135945855,0.0010619572,-0.050731108,4988,4941,0
155168337,155168177,4259850,4325386,0.00044819532,-0.0016570449,-0.0005704018,0.0019339509,-0.0040856646,-0.04301904,4982,4982,0
155667146,155667032,4259850,4325386,0.0013372601,-0.0019518809,-0.0007447267,0.009286998,-0.0142255565,-0.04145182,4999,4719,0
156171169,156171012,4259850,4325386,0.0013756454,-0.002289998,0.0004153665,-0.004006624,0.0070485855,-0.05814847,5277,6127,0
156664649,156664520,4259850,4325386,0.0028669033,0.0027733531,-0.00023736515,-0.00017486521,-0.008269673,-0.039575025,4990,4934,0
157168463,157168286,4259850,4325386,-0.00029755407,-0.0009841456,-0.00016179,-0.0025088952,0.006244501,-0.034778118,4989,3860,0
157667567,157667311,4259850,4325386,-0.0025619632,-0.00049110927,0.00014783084,-0.0021725208,0.008006456,-0.054249976,4961,4935,0
158165597,158165478,4259850,4325386,-1.8618734e-05,-0.0032589687,-0.00059314544,-0.003594727,-0.015329344,-0.043188103,4986,4935,0
158669281,158669118,4259850,4325386,-0.00030020293,0.00043170562,-0.0005831343,0.010268927,-0.008512676,-0.043209367,4993,4948,0
159168939,159168752,4259850,4325386,0.0019236613,0.0016156929,0.0004800375,-0.00071881263,0.008278766,-0.052809786,4983,4978,0
159667351,159667175,4259850,4325386,0.0006420315,-0.003554239,-0.000500346,-0.002251622,-0.011017434,-0.039416377,4990,4937,0
160166066,160165953,4259850,4325386,0.00033017536,0.0035018027,-0.0003599404,0.011437519,0.0066431356,-0.04675076,4986,4964,0
160665125,160664905,4259850,4325386,-0.0003311507,-0.002998276,3.8932507e-05,-0.008334094,-0.010091018,-0.05770947,4963,4935,0
161168612,161168501,4259850,4325386,-0.00046885049,0.00036266074,0.0008439969,0.0016383083,0.015782366,-0.04578718,4987,4986,0
161670390,161670277,4259850,4325386,-0.0016588403,0.00042058786,0.0012482192,0.0045958506,0.02006553,-0.05442444,4990,4938,0
162169164,162169056,4259850,4325386,0.00059149583,7.7042944e-07,-0.00031070525,-0.014153263,-0.024945553,-0.04871008,4987,4931,0
162668162,162668048,4259850,4325386,0.0004990457,-0.0004930433,-0.0006686979,0.00701346,0.0021866444,-0.04690269,4976,4933,0
163166884,163166766,4259850,4325386,0.000316564,-0.00019187502,-0.0003582886,0.009382145,0.010292022,-0.038360562,4994,4349,0
163665716,163665400,4259850,4325386,-0.0005122753,0.00033128605,0.0009300144,-0.0027375002,0.0014384015,-0.061389375,4991,5924,0
164164946,164164775,4259850,4325386,0.00018807943,-0.00020268472,-1.2045623e-05,-0.008438325,-0.011851985,-0.05881844,4988,5649,0
164669098,164668944,4259850,4325386,-0.0010891403,-0.0037512507,0.00064810633,-0.009432872,-0.004790339,-0.058752164,4989,4984,0
165168336,165168221,4259850,4325386,0.00083540275,0.0039870306,5.1522893e-05,-0.0008143656,0.0058511286,-0.05291687,4988,4952,0
165667114,165667003,4259850,4325386,0.0005308315,0.0028390966,0.00014443838,-0.0044354517,0.0027024047,-0.040998425,4988,3942,0
166166301,166166129,4259850,4325386,0.00067562977,-0.0048444676,-0.00052723935,-0.005414342,-0.01879745,-0.041837074,4983,4983,0
166664693,166664562,4259850,4325386,-0.0009820354,0.00053645566,0.0005232164,-0.011407762,-0.0075848866,-0.050467983,4948,4934,0
167163474,167163343,4259850,4325386,0.0006042232,-0.00018626932,-0.000351735,0.010083057,0.011263474,-0.04285657,4977,4965,0
167667319,167667165,4259850,4325386,-0.00068090967,0.00044411398,0.0006372475,-0.011761739,-0.0115155615,-0.05321619,4956,4956,0
168166120,168165893,4259850,4325386,0.00023418374,0.00044205686,-0.00029409918,0.0057666507,0.0022406853,-0.054986794,4988,5784,0
168669776,168669662,4259850,4325386,0.0008902075,-9.587957e-05,-0.0008966993,0.0068513975,-0.006323156,-0.041445248,4991,4937,0
169169323,169168685,4259850,4325386,0.0008704982,-5.3795666e-05,-0.00020381052,0.0031983466,-0.0010755718,-0.047154162,4953,5669,0
169667336,169667220,4259850,4325386,0.0006659069,-0.000279945,-0.0004937546,-0.0033185582,-0.010056929,-0.04439488,4987,4934,0
170166129,170166002,4259850,4325386,0.00044874102,-0.00016969745,-0.0005602855,0.006856814,-0.0028551205,-0.047624465,4967,4935,0
170664899,170664787,4259850,4325386,0.00047014444,0.00037516508,0.00058594026,0.0038989456,0.018440168,-0.045137268,4991,4956,0
171168745,171168552,4259850,4325386,-0.0007224928,-0.00087913783,0.00060220493,-0.0018716691,-0.009347334,-0.060960114,4990,5878,0
171667847,171667350,4259850,4325386,0.0009689497,0.0021262567,-0.0002680117,0.005694414,-0.0071558757,-0.052937843,4996,5923,0
172166253,172166107,4259850,4325386,0.0010502029,0.0029071842,-0.0006303454,-0.0022083204,-0.009309283,-0.05256882,4972,4966,0
172669498,172669379,4259850,4325386,-0.0015178178,0.00094299484,0.00044280506,0.0011528771,0.020600308,-0.046493944,4977,4673,0
173168770,173168659,4259850,4325386,0.0014982232,-0.0036453411,-0.001038596,0.0062764906,-0.010552379,-0.045468044,4986,4922,0
173667566,173667448,4259850,4325386,0.0005086675,-0.00023755952,0.00055541703,0.0044588386,0.0007355948,-0.046803787,4992,4992,0
174166187,174165724,4259850,4325386,0.0013663073,0.0030539804,-0.0014665492,0.00016891731,-0.01822322,-0.04425784,4987,4934,0
174664719,174664509,4259850,4325386,0.0022415211,-0.0038580967,-0.0010924046,0.0016515828,-0.015855005,-0.050768428,4993,5758,0
175167979,175167861,4259850,4325386,0.00036725134,0.00024071742,-0.000393591,0.0024111122,-0.0006652573,-0.04132756,4989,4935,0
175666744,175666616,4259850,4325386,-0.00027499578,0.0010002492,0.000513348,-0.008385407,-0.00028199807,-0.054590527,4984,4982,0
176165515,176165379,4259850,4325386,-0.00032601654,-0.0037169422,0.00022188619,-0.00019647162,-0.0019811844,-0.044619773,4987,4940,0
176669596,176669151,4259850,4325386,-0.00056723703,-0.0011650694,0.00017923095,0.0026976217,0.0054384694,-0.047765076,4991,4920,0
177168070,177167930,4259850,4325386,-0.0005228271,-0.00029849543,0.0004124408,-0.003074689,-0.0064725685,-0.051236287,4986,4935,0
177666825,177666708,4259850,4325386,0.001219119,-0.0023480935,-0.0007424494,-0.0023277714,-0.013271143,-0.050337393,4955,4934,0
178165767,178165639,4259850,4325386,-0.00062624976,0.0031776973,0.00021465085,-0.0024176443,-0.003446519,-0.055510208,4991,4935,0
178664831,178664720,4259850,4325386,-0.00081305654,-0.0039578746,0.0009003236,-0.010919445,0.011232213,-0.054628797,4988,4966,0
179168754,179168642,4259850,4325386,0.0014036328,0.00042382535,-0.0009588006,0.0057507767,-0.0050588017,-0.04230965,4987,4959,0
179667615,179667485,4259850,4325386,-0.00056007283,0.0018947145,-0.0003782386,-0.005414764,-0.020093398,-0.046266776,4968,4935,0
180166282,180166050,4259850,4325386,0.0008141854,-0.002215442,-0.0001134986,0.0035586813,0.001561849,-0.04618403,4986,4937,0
180669927,180669817,4259850,4325386,0.00042902143,0.0036672342,-0.0005205706,-0.007983374,-0.0114913415,-0.051640645,4986,4971,0
181167339,181167163,4259850,4325386,0.0009293003,-0.0042369165,-0.00059830886,0.011202573,-0.001290657,-0.046038836,4990,4935,0
181666291,181665882,4259850,4325386,-0.0004655079,0.0019943377,0.000962003,0.009018648,0.020404676,-0.051996153,4967,4936,0
182164836,182164705,4259850,4325386,-2.477959e-05,0.001824974,0.0002433803,0.010788537,0.008498317,-0.045802433,5019,4912,0
182668591,182668468,4259850,4325386,-0.0014260549,0.0033856141,0.0010071885,0.003538314,0.017063182,-0.054720618,5026,4905,0
183167369,183167210,4259850,4325386,0.00010905384,0.0023795574,-9.485122e-05,0.01192495,0.013218468,-0.04838903,4987,4935,0
183670089,183669982,4259850,4325386,0.0001221794,-0.001456534,0.00095197646,0.005961884,0.011953984,-0.04660291,4988,4972,0
184169130,184168960,4259850,4325386,9.149961e-05,-0.004415993,-0.00033408045,0.0071713543,-0.0027825013,-0.047114797,4998,4934,0
184668198,184668055,4259850,4325386,0.00075894536,0.0039099837,-0.00079379656,-0.004227176,-0.014808258,-0.035917822,4944,4935,0
185166958,185166821,4259850,4325386,-5.6762678e-05,0.00045709024,0.00014202834,-0.004150432,0.002923349,-0.05413801,4988,4989,0
185665849,185665708,4259850,4325386,0.001263325,-0.0019634734,-0.0008320094,-0.0060632443,-0.026549889,-0.04922572,5000,4933,0
186169493,186169370,4259850,4325386,4.4541943e-05,-0.0033548067,9.5567615e-05,0.006350098,0.006314467,-0.052738763,4980,4933,0
186668619,186668155,4259850,4325386,-0.0016102869,0.0040674508,0.0005929857,-0.010172592,0.0015067402,-0.061784275,4991,5973,0
187167048,187166930,4259850,4325386,0.0007808378,-0.0041746898,-0.00050544715,-0.003534935,-0.018346775,-0.04538095,4988,4936,0
187665933,187665789,4259850,4325386,-0.0006533406,0.0015899385,0.0007985143,-0.004222354,0.0031434174,-0.052313242,4976,4980,0
188164622,188164503,4259850,4325386,0.00024392213,-0.0025558542,-3.4624663e-05,0.008205947,0.0045751976,-0.043375824,5000,4934,0
188668381,188668256,4259850,4325386,5.397527e-05,0.0026968205,-0.0007954384,-0.0031835616,-0.024073109,-0.045627605,4931,4936,0
189167211,189167043,4259850,4325386,-0.00033601592,-0.0036588847,0.00078087905,0.007214666,0.015790412,-0.05577934,4989,4986,0
189665521,189665321,4259850,4325386,-0.00025773933,0.004297062,-2.774437e-05,0.00577123,0.005923606,-0.058280226,4988,5921,0
190169472,190169241,4259850,4325386,-0.00032746498,-0.0019378033,-0.00037390026,-0.002638084,-0.007889214,-0.035323378,4996,3943,0
190667999,190667869,4259850,4325386,0.00038082933,0.0034419287,-0.00076462555,-0.0031907314,-0.014446392,-0.04720631,4987,4976,0
191166783,191166656,4259850,4325386,0.0009607992,-0.003639997,-0.00041462528,-0.002747344,-0.0047166385,-0.038962204,4994,4993,0
191665544,191665432,4259850,4325386,-0.00024977734,-0.0018490537,-0.000120225886,-0.0054300586,-0.015484302,-0.05203091,4990,4969,0
192164337,192164210,4259850,4325386,0.00013884822,0.000166982,0.0005014004,-0.010569306,-0.0037823876,-0.05189638,4988,4939,0
192668235,192668052,4259850,4325386,0.00029369345,0.0034126649,-0.00047081846,-0.008023649,-0.0063794893,-0.045460396,4987,4779,0
193166889,193166759,4259850,4325386,6.73481e-05,-0.004384543,-0.00052782305,0.007383456,-0.009705765,-0.044467002,4987,4935,0
193665962,193665780,4259850,4325386,0.0011930295,0.0025378587,-0.0013369239,0.009169201,0.00052832684,-0.04287741,4955,4935,0
194169419,194169311,4259850,4325386,0.00036909475,-8.8705165e-05,-0.00068468065,0.0045422204,-0.005052674,-0.049509168,4937,4924,0
194668227,194668105,4259850,4325386,0.00044665099,0.0033582174,-0.0005439679,-0.0021548364,-0.008031198,-0.049048048,5042,4887,0
195166933,195166420,4259850,4325386,-0.0012496893,-0.0039820992,0.000939226,-0.0026944058,0.009598436,-0.051169276,4990,4930,0
195665789,195665649,4259850,4325386,-0.00052425,0.004746124,-0.00021651002,0.0080187945,-0.00018999889,-0.04789264,4988,4934,0
196169540,196169418,4259850,4325386,-0.0001792468,-0.0040626787,0.0006753103,-0.013772483,-0.019699583,-0.05318496,4987,4978,0
196668607,196668361,4259850,4325386,-0.00083379605,0.00026408664,0.0009788111,-0.0074562477,-0.0029528055,-0.05762725,4981,5796,0
197167091,197166978,4259850,4325386,-0.00084532204,0.00047471668,0.0009868558,-0.00039116133,0.0006371157,-0.046562612,4986,4935,0
197671210,197670748,4259850,4325386,-0.00031577,9.527449e-05,0.0013132743,0.0026452867,-0.0026875548,-0.045739915,4977,5008,0
198169986,198169875,4259850,4325386,0.0006322628,-0.00060980004,0.0018522218,-0.009906321,-0.020689437,-0.044727575,4980,4791,0
198663545,198663324,4259850,4325386,0.00014955956,0.0002910396,0.0034064068,0.0005284175,0.009682642,-0.05033934,4993,4934,0
199167200,199167087,4259850,4325386,0.0003266316,-0.00023279566,0.002693062,0.0010552384,-0.017413672,-0.04371903,4987,4788,0
199666164,199665949,4259850,4325386,2.6629966e-06,1.8782672e-05,0.0019546878,-0.0066188253,-0.020816935,-0.05229365,4969,4928,0
200169747,200169637,4259850,4325386,-0.0019827676,-0.00024149517,0.0010990707,-0.010838886,-0.0069550048,-0.053584445,4989,4998,0
200668585,200668442,4259850,4325386,0.00065012946,0.0023357011,-0.0009782539,0.0026951516,0.015898326,-0.051399626,4980,4926,0
201167418,201167288,4259850,4325386,0.0017405928,-0.00058386155,0.00022925895,0.0016305831,9.492699e-05,-0.043775175,4974,4676,0
201666103,201665977,4259850,4325386,-5.658319e-05,0.0025598914,0.00067384366,0.0004976674,0.01027251,-0.046924975,4988,4950,0
202165401,202164760,4259850,4325386,0.000602361,-0.0024979904,-0.00015007918,0.0019009358,0.011499473,-0.043157775,4988,4934,0
202668669,202668528,4259850,4325386,-0.00079915795,0.0031372989,0.0003724654,0.0011229534,0.023866342,-0.052958116,4984,4931,0
203166966,203166855,4259850,4325386,-0.00012969808,-0.00032152675,0.00025398456,-0.013266628,-0.0012325527,-0.052141976,4988,4933,0
203665791,203665677,4259850,4325386,0.001015115,-0.000786144,-0.00034401705,0.011380022,0.0008955052,-0.044752833,4939,4663,0
204169544,204169404,4259850,4325386,0.001728606,-0.0041845,-0.0006178903,0.0038336695,0.0006676195,-0.047912024,4988,4933,0
204667913,204667740,4259850,4325386,0.00057809195,0.0037904591,-0.00043352298,0.007418756,0.0036780334,-0.04883817,4977,4932,0
205171056,205170927,4259850,4325386,-0.00094645296,-0.0031096379,0.00085388025,-0.0056438716,0.0049081366,-0.048868943,4998,4769,0
205665319,205665206,4259850,4325386,-0.0018397091,0.0045058476,0.0008617333,0.0041436725,0.02618921,-0.05154098,4995,5011,0
206168619,206168468,4259850,4325386,0.0010414162,-0.0010736706,-0.00061297906,-0.0067458223,-0.021736486,-0.043844398,4985,4935,0
206667357,206667249,4259850,4325386,-0.00026775306,-0.0032536413,0.0014431414,0.0015986454,0.0040761726,-0.056738403,4987,4932,0
207166294,207166145,4259850,4325386,-0.00045623866,-0.0030193932,0.0003272914,0.00040065916,-0.0066391523,-0.047601882,4942,4933,0
207669911,207669799,4259850,4325386,0.0007101986,0.0004462702,-0.0010826109,0.00047029703,-0.018784538,-0.046305206,4988,4932,0
208168697,208168583,4259850,4325386,0.0017968785,-0.0007733117,-0.0008068162,0.0086006215,0.001699217,-0.045377433,4992,4930,0
208667822,208667675,4259850,4325386,-0.00025563745,0.0005703862,0.000117724245,-0.009973869,-0.015857399,-0.049778566,4961,4952,0
209166260,209166139,4259850,4325386,-2.6085398e-05,0.00031097938,0.0003384972,-0.0003087003,0.0012726345,-0.040470656,4987,4932,0
209665361,209664923,4259850,4325386,-0.00024395854,0.0027263942,-0.00013124834,-0.01037209,-0.012500081,-0.053455953,4992,4960,0
210168840,210168702,4259850,4325386,-0.0013872233,-0.00020288891,0.00039851436,-0.007909411,0.0008263003,-0.052044697,4964,4992,0
210667641,210667499,4259850,4325386,-0.00027142218,-0.0024302576,0.0007490321,-0.008486938,-0.0053468663,-0.05111944,5007,4891,0
211166490,211166301,4259850,4325386,-0.00027875442,-0.002498493,-0.00050697755,-0.0047111255,-0.010227014,-0.04807061,5004,4987,0
211670163,211670018,4259850,4325386,3.082372e-05,0.00093295303,-0.00016561757,0.012370095,0.011062121,-0.04707492,4988,4934,0
212168961,212168799,4259850,4325386,0.00028048342,0.0019192571,-8.451399e-05,-0.009975226,-0.016692009,-0.051840235,4990,4984,0
212667712,212667578,4259850,4325386,0.00083710713,0.002292691,-0.00057599513,-0.0028685178,-0.011515213,-0.045544792,4988,4955,0
213166483,213166359,4259850,4325386,-0.0009945729,0.0013661323,0.0004063021,-0.013652122,-0.013046358,-0.049129654,4988,4935,0
213665288,213665139,4259850,4325386,3.2668962e-05,-0.0032445593,-4.832872e-05,0.011663279,0.010973483,-0.043886587,4988,4936,0
214168027,214167916,4259850,4325386,-0.00085572765,0.0039180294,0.00026149992,0.006175728,0.0068266047,-0.049437623,4974,4934,0
214667248,214666815,4259850,4325386,0.0011544825,-0.0016366378,-9.3995666e-05,0.007617447,-0.004026727,-0.04113828,4998,4997,0
215166147,215165969,4259850,4325386,4.614317e-05,0.000594468,0.0005456657,-0.009669847,-0.012055831,-0.062101424,4986,5920,0
215670575,215669876,4259850,4325386,0.00032608962,-0.0015186785,-3.1617998e-05,-0.0007386692,-0.000688426,-0.06344747,4900,5925,0
216163678,216163530,4259850,4325386,0.0013225371,-0.0012016527,-0.0008168086,-0.0009070319,-0.01180549,-0.04366101,4987,4964,0
216667047,216666861,4259850,4325386,-0.00048642917,0.00035427822,0.0004455505,-0.010266459,-0.013801283,-0.053289283,4976,4941,0
217165799,217165593,4259850,4325386,0.000120741235,-0.0011829098,0.00062139,-0.01187994,-0.012141736,-0.04662587,4995,4934,0
217669474,217669349,4259850,4325386,0.00061566266,-0.0023012285,-0.00045916642,-0.010314396,-0.012958933,-0.04125346,4988,4930,0
218168292,218168144,4259850,4325386,-0.00057997386,0.0007634365,0.0001620443,0.0040486273,0.0077421507,-0.047512297,4961,4967,0
218667070,218666911,4259850,4325386,-0.00054554053,0.0029855575,0.0005037901,0.0015961848,0.01093014,-0.04943092,4988,4955,0
219170790,219170679,4259850,4325386,0.0012901328,0.0019429751,-0.0007859033,-0.0028167223,-0.01473706,-0.04255313,4988,4797,0
219669729,219669616,4259850,4325386,-8.4167195e-06,0.001988158,-0.00047460568,0.003596478,-0.0015942727,-0.041308016,5008,4901,0
220168471,220168347,4259850,4325386,0.0007527239,-0.0033989248,0.00018588701,0.01222539,0.020037606,-0.05059355,4990,4934,0
220667216,220667021,4259850,4325386,-0.00032125076,0.0020708404,-0.00043014015,0.016114902,0.0112204235,-0.045243457,4987,4928,0
221165915,221165801,4259850,4325386,-0.001465858,0.004755045,0.00059247325,0.004469293,0.01862592,-0.049685426,4982,4967,0
221670059,221669843,4259850,4325386,-0.00013721116,-0.0038326199,-0.00012982084,-0.01425239,-0.011003689,-0.052314248,5261,6135,0
222168483,222168350,4259850,4325386,0.0010125941,-0.0002690571,-0.0007733025,-0.0020907547,-0.006177568,-0.04279987,4988,4992,0
222667292,222667169,4259850,4325386,-0.00027479336,0.00071309914,-0.0024898662,0.0039334595,0.006460842,-0.04325319,4994,4936,0
223166294,223166160,4259850,4325386,-0.00026256405,-0.0003521762,-0.0014249259,-0.008410498,0.000609158,-0.053443514,4973,4932,0
223664805,223664693,4259850,4325386,0.00080244464,-0.0007666142,-0.0029987746,-0.0091385925,-0.032077216,-0.046068713,4987,4934,0
224168694,224168462,4259850,4325386,-0.0006008186,-0.00062379777,-0.00065182004,0.0022691682,0.016800653,-0.045262583,4987,4935,0
224667592,224667451,4259850,4325386,-0.0005591617,-0.0041471245,8.4323285e-05,-0.011805408,-0.027330069,-0.05256401,4977,4994,0
225166137,225166021,4259850,4325386,-8.73697e-05,0.0045819273,-0.000926768,0.00699108,0.0148077365,-0.044266682,4987,4943,0
225669645,225669532,4259850,4325386,-0.0013209383,-0.0024421986,-0.0005071455,-0.00032069275,0.0080336025,-0.044367414,4958,3950,0
226167886,226167682,4259850,4325386,-0.00029763902,-0.0003489505,-0.000695782,0.010926423,0.0029423265,-0.04695987,4956,4932,0
226666484,226666354,4259850,4325386,-0.00030397315,-0.00091019284,-0.000390662,0.01676342,0.012902218,-0.04698031,4988,4932,0
227165384,227165137,4259850,4325386,0.00052114006,0.002316249,-0.00061703316,0.002749271,0.0022304305,-0.048985578,4990,4940,0
227669070,227668905,4259850,4325386,-0.00036059806,0.00067741616,0.00017562119,-0.0007299722,-0.001093869,-0.054281566,4990,4998,0
228168085,228167967,4259850,4325386,-0.00019273265,-0.0018254836,-0.00028986475,-0.005483789,-0.011096847,-0.06059893,5266,5850,0
228666649,228666465,4259850,4325386,0.0014366907,0.0029814942,-0.0003635189,0.0046580327,-0.0054125767,-0.048635114,4989,4999,0
229170582,229170439,4259850,4325386,-0.0024582744,-0.00063664047,0.0011297786,-0.0074152653,0.005699114,-0.054275528,4998,4683,0
229664448,229664278,4259850,4325386,0.00019271114,-0.0044657197,-0.0005157611,0.004732993,-2.4207797e-05,-0.048352998,4980,4935,0
230167514,230167354,4259850,4325386,-0.0011780221,0.0038108476,0.00048854767,-0.00097548927,0.010291863,-0.052887615,4951,4931,0
230666339,230666212,4259850,4325386,-0.0004088697,-0.00152639,0.00035904607,-0.011055535,-0.0069460715,-0.052609123,5002,4936,0
231164972,231164857,4259850,4325386,-0.0013506521,-0.0025941906,0.0013789614,0.00032126394,0.021572867,-0.052144654,4988,4934,0
231668836,231668629,4259850,4325386,0.0002910259,-0.00071127526,-0.00015103849,-0.0009888922,-0.0077430625,-0.052070975,4983,5799,0
232167770,232167635,4259850,4325386,0.00072182034,0.0016477423,-0.0006174889,0.008164015,-0.0029618198,-0.046492368,4965,4933,0
232666350,232666190,4259850,4325386,-0.0012981731,-0.0038684926,0.00089505524,-0.007586382,-0.0012149464,-0.048119616,4986,4968,0
233170081,233169968,4259850,4325386,-0.00013992265,0.0003964624,0.0004112614,0.004279392,0.0027669943,-0.052293524,4996,4930,0
233664086,233663953,4259850,4325386,0.0010051157,-0.0007272413,-0.00055403047,0.0150185665,0.014143248,-0.04227007,4965,4937,0
234167641,234167517,4259850,4325386,0.000306789,-0.0003268421,0.00032140705,-0.0019887756,-0.012079986,-0.043784246,4984,4986,0
234666409,234666298,4259850,4325386,0.00047539858,0.0015596679,0.00060267135,0.005751148,0.016001001,-0.04729193,4987,4984,0
235165398,235165255,4259850,4325386,4.6867473e-05,0.0026946065,-0.000979653,-0.000608149,-0.019344259,-0.042566773,4923,4648,0
235668968,235668858,4259850,4325386,0.00032420328,-0.005056042,-0.0008027263,-0.00013525091,-0.022649145,-0.04437119,4998,4969,0
236166337,236166182,4259850,4325386,-0.0013737865,0.00013276606,0.0004675669,-0.0073848236,-0.008691017,-0.0509903,4990,4935,0
236670072,236669949,4259850,4325386,0.0010041407,0.003451308,-0.0005084429,-0.0053918036,-0.014871845,-0.04921988,4988,4935,0
237168511,237168397,4259850,4325386,0.00025768572,0.0029739342,0.00018993932,0.008528293,0.020129493,-0.050708197,4978,4937,0
237667114,237666963,4259850,4325386,0.00039459343,-0.00057959126,-0.00039340765,-0.006501608,-0.020318743,-0.04299062,4970,4934,0
238166232,238165748,4259850,4325386,-0.00027352985,0.0008100951,0.0003797364,0.01604735,0.024446478,-0.043924104,4982,4936,0
238669638,238669515,4259850,4325386,-0.00061249547,-0.00021095622,0.0004540268,-0.008028229,-0.008753411,-0.051052406,4988,4990,0
239167922,239167795,4259850,4325386,0.00023282775,0.0035227593,-0.0019918084,0.0017219937,-0.008802177,-0.045878924,4981,4933,0
239666725,239666609,4259850,4325386,0.0018817262,-0.0035475215,-0.0013357179,-0.005647055,-0.021501062,-0.04525798,4966,4936,0
240165466,240165357,4259850,4325386,0.00068723114,-0.000299981,0.0003677937,0.0016884598,0.0029565068,-0.058921892,4988,4976,0
240664851,240664140,4259850,4325386,0.0041749384,0.00014591582,-0.00080386974,0.0052753873,-0.008882039,-0.048237134,4988,4964,0
241168264,241168076,4259850,4325386,-0.001462051,-0.0040033204,0.00017828909,-0.009308479,-0.008425111,-0.051404417,4998,4998,0
241666961,241666804,4259850,4325386,-0.00025785802,0.003939916,0.0002859401,-0.006067871,-0.010880672,-0.04300432,4998,4970,0
242170834,242170460,4259850,4325386,0.00011532197,-0.002709346,0.000115482304,-0.005240311,-0.011311342,-0.043591768,4990,4947,0
242669351,242669238,4259850,4325386,-0.00019800714,-1.7366456e-05,0.00015146082,0.0034545346,0.007252781,-0.05262988,4988,4933,0
243168174,243168052,4259850,4325386,2.3105487e-05,-0.0044481265,-8.916249e-05,0.0006004914,-0.011869722,-0.042671002,5021,4886,0
243666942,243666830,4259850,4325386,-0.0028199696,0.0053537902,0.0009920788,-0.0066067236,0.017263686,-0.051467586,5018,4912,0
244166309,244166135,4259850,4325386,0.0007472342,0.00027585265,-0.000662172,-0.012463607,-0.030873822,-0.047016613,5041,4915,0
244665054,244664899,4259850,4325386,-0.00025813375,-0.0033929094,-0.00037024324,0.0005588072,0.0010423907,-0.040690795,4985,4511,0
245169055,245168901,4259850,4325386,-0.00019256683,0.0005025834,-0.0010432104,0.004754582,-0.009098017,-0.044685654,5044,4932,0
245667695,245667584,4259850,4325386,0.0016876253,-0.0029187193,0.00084961683,-0.0056375065,-0.0049937847,-0.047653157,4977,4935,0
246166314,246166195,4259850,4325386,-0.0031795192,0.0022121524,-0.0005849704,-0.006368322,-0.023710933,-0.04255718,4986,4933,0
246670277,246670163,4259850,4325386,0.002877729,0.0028191134,-0.0003310406,-0.0011570508,0.0017396931,-0.044848908,4958,4960,0
247167872,247167744,4259850,4325386,-0.0003561779,0.00013782813,0.00078049547,-0.009499005,0.0024086286,-0.050428003,4989,4934,0
247666289,247666165,4259850,4325386,0.0006115723,-3.65755e-05,-0.0004687055,-0.0007015587,-0.011092343,-0.047849223,4927,4935,0
248165560,248165394,4259850,4325386,0.0011111066,-0.002695101,0.00039736848,0.0095602535,0.010888165,-0.04619839,4993,4991,0
248664243,248664122,4259850,4325386,-0.0021124633,0.0029045262,-0.0006484495,-0.0046341107,-0.011441505,-0.046317052,4988,4935,0
249168036,249167855,4259850,4325386,-0.00020530958,-0.003301384,0.0007184199,0.004042159,0.0035763474,-0.048458535,4984,4793,0
249667252,249667135,4259850,4325386,5.9387272e-05,-0.0036654954,0.00033210046,0.0010697852,0.010877001,-0.050032657,4988,4935,0
250171045,250170911,4259850,4325386,-0.00046638623,0.0038051005,-0.0001960619,-0.0031767727,0.0023675216,-0.034992136,4993,3820,0
250665012,250664840,4259850,4325386,-0.0006765737,-0.0018510001,0.0003397995,-0.019546624,-0.027887924,-0.05134432,4965,4934,0
251163589,251163478,4259850,4325386,-0.00086065294,0.0019696783,0.0009871413,-0.0033929795,-0.00042594617,-0.05309287,4988,4938,0
254665043,254664930,4259850,4325386,0.0014873279,-0.00035775994,-0.00072739064,0.009039683,-0.0038671866,-0.044366185,4954,4937,0
255165427,255163925,4259850,4325386,-0.00054261024,0.0030468714,4.7926344e-05,-0.003533783,-0.000972327,-0.048815142,4967,4934,0
255668090,255667978,4259850,4325386,0.00078963704,-0.00065090077,-0.0010127551,0.011559495,4.5307033e-06,-0.043739874,4966,4931,0
256166925,256166801,4259850,4325386,-0.0005702052,-0.0005749364,-0.0001855363,-0.005214393,-0.00031364508,-0.043905415,5034,4921,0
256665860,256665706,4259850,4325386,0.0012943904,-0.0028980714,0.00011434822,0.009255804,0.0012904033,-0.04376218,5002,5002,0
257169492,257169305,4259850,4325386,-0.0011137244,0.0018860056,0.00042507547,-0.002160323,-0.010848337,-0.04939911,4989,4934,0
257668487,257668351,4259850,4325386,0.0011264224,-0.0016437623,-0.0008177676,0.0046655457,-0.02238994,-0.042991254,5249,4938,0
258167037,258166864,4259850,4325386,-0.0013636362,0.0045896606,0.00079233776,0.0006326583,0.023547603,-0.06079039,4987,5916,0
258665898,258665705,4259850,4325386,0.0010548561,-0.001334124,-0.00039118147,0.005730718,-0.00612652,-0.04284487,4997,4929,0
259164880,259164750,4259850,4325386,-0.00025747105,0.0010836637,3.0717776e-05,-0.005623225,-0.014799919,-0.04841087,4999,4932,0
259668626,259668204,4259850,4325386,0.00093049323,-0.0038117697,-0.00054673204,0.0018991103,-0.007426301,-0.05750197,4995,5866,0
260166116,260165980,4259850,4325386,-0.0002706577,-1.3073282e-05,0.00030227742,-0.004532965,-0.013488437,-0.04557283,4988,4934,0
260669889,260669749,4259850,4325386,-0.00021249522,0.004094403,-0.00029832486,-0.0070710303,-0.012144718,-0.051889177,4987,4995,0
261163697,261163543,4259850,4325386,0.0004515905,-0.004138995,0.00016917937,0.0015932721,0.0056922,-0.043569524,4988,4758,0
261667427,261667312,4259850,4325386,0.003515296,0.0003741413,3.1922893e-05,-0.013182066,-0.009919059,-0.05049819,4988,4938,0
262166761,262166243,4259850,4325386,-0.0013057542,-0.0026130816,0.0006772569,0.0030621053,0.017253963,-0.04540817,4959,4960,0
262665181,262665013,4259850,4325386,-0.0013543447,0.0007252922,0.0002750199,-0.0011900245,0.0004915467,-0.04760941,4987,4933,0
263168752,263168643,4259850,4325386,0.0010173001,0.0018150299,-0.00017875238,-0.00081623386,-0.009695246,-0.041426774,4988,4934,0
263667538,263667425,4259850,4325386,-0.00078976876,-0.0033995693,0.00022760022,0.0065693306,0.008591287,-0.04725766,4986,4955,0
264166586,264166467,4259850,4325386,0.00049300824,-0.0039413525,0.0002282912,0.009638946,0.011264803,-0.052851792,5245,4934,0
264670093,264669977,4259850,4325386,-0.00033652724,0.0034242047,2.5388852e-05,-0.0010333325,0.0009664401,-0.04786148,4987,4015,0
265163969,265163845,4259850,4325386,0.00036130677,0.0033607574,-0.00092450914,0.002835418,-0.025429418,-0.046845637,4964,4967,0
265667984,265667807,4259850,4325386,-0.0013505255,-0.0034386795,0.000823352,-0.010618419,-0.0064044036,-0.048860643,4972,4685,0
266166454,266166325,4259850,4325386,-0.0026229348,-0.00034179978,5.9268714e-05,-0.008640356,-0.007025323,-0.056073993,4993,4988,0
266668836,266668664,4259850,4325386,-0.0023674902,0.0043543857,0.00089361076,-0.0054142973,0.013603098,-0.053759456,5016,4914,0
267167561,267167377,4259850,4325386,-0.0009016044,-0.0034468444,0.00045067107,-0.009505471,-0.0052699926,-0.05629247,4991,4993,0
267666423,267666312,4259850,4325386,-0.001038839,-0.0021501128,0.00050201017,0.004540777,0.021257129,-0.048860546,4986,4978,0
268170074,268169964,4259850,4325386,-6.117644e-05,-0.0038334036,-0.0002185995,-0.005755025,-0.017320713,-0.04063243,5030,4921,0
268669231,268668709,4259850,4325386,-5.8150677e-06,0.0024550168,0.00025902863,-0.0005511622,0.014784551,-0.045783088,4991,4932,0
269167594,269167488,4259850,4325386,0.00072208315,0.00368125,-0.00036654976,0.0026872032,-0.0006920213,-0.045706306,4988,4969,0
269666614,269666382,4259850,4325386,-0.0019750292,-0.0039050828,-0.00030242867,-0.0054622362,-0.0071455576,-0.04418823,4996,4992,0
270165256,270165094,4259850,4325386,0.002275488,0.0011348806,0.0010085133,-0.003463306,0.005269306,-0.05235351,4981,4940,0
270669051,270668820,4259850,4325386,-0.0020330895,0.004137207,0.00021779833,-0.0045694686,0.003180654,-0.061391614,4988,5924,0
271167104,271166608,4259850,4325386,0.0026157491,-0.0045550494,-0.0002894654,-0.006321368,-0.024354484,-0.06221031,4992,6050,0
271669987,271669874,4259850,4325386,-0.00033673446,0.00061414,-9.65695e-05,-0.002957323,0.010020666,-0.058756735,4985,4974,0
272163786,272163669,4259850,4325386,0.00067050493,0.004206276,-0.0005338739,0.006922341,0.013915277,-0.043966554,4987,4933,0
272668108,272667748,4259850,4325386,0.00031772704,0.0002496546,0.00018960051,0.006895908,0.006778501,-0.045143336,4969,4963,0
273166337,273166220,4259850,4325386,-0.00061133027,-0.0027807113,0.0008027905,-0.004761502,0.0046414034,-0.04908669,4988,4933,0
273670181,273669992,4259850,4325386,5.6601108e-05,9.841833e-05,-9.254521e-05,-0.007237308,-0.0063223587,-0.051025655,4988,4944,0
274164049,274163867,4259850,4325386,-0.0011989722,0.00021739959,0.0005292153,-0.0069421027,0.005123232,-0.053244576,4961,4963,0
274667665,274667552,4259850,4325386,-0.0008096416,-0.0034734528,0.0006018553,-0.0031500682,-0.0043011047,-0.05548051,4976,4931,0
275166539,275166400,4259850,4325386,0.00097193266,0.00211455,0.00024990572,-0.009516691,-0.006248666,-0.048550528,4995,4972,0
275664774,275664664,4259850,4325386,0.00019367665,0.003913974,-0.00074162026,0.004885467,-0.007680005,-0.052533004,4987,4963,0
276168555,276168436,4259850,4325386,0.00082793843,0.0022059868,-0.00042687377,0.011795181,0.009709123,-0.046919327,4988,4965,0
276667639,276667453,4259850,4325386,-0.0008759747,-0.0035425867,0.0011848606,0.0057456796,0.018526282,-0.049210895,4956,4949,0
277166165,277166003,4259850,4325386,0.00039253678,0.0010723072,-0.00043393244,-0.001100466,0.009926506,-0.0444076,4994,4935,0
277669941,277669767,4259850,4325386,0.00044304613,0.00093968306,-7.7871046e-05,-0.00582967,-0.009922606,-0.061925657,4988,5792,0
278168662,278168550,4259850,4325386,-0.00058977463,-0.0028093217,9.5978525e-05,-0.009974187,-0.014066731,-0.049894944,4960,4938,0
278667554,278667334,4259850,4325386,0.00035464315,0.0019112561,-0.0007300992,-0.0024636276,-0.0068872897,-0.054871652,4991,4988,0
279166290,279166112,4259850,4325386,-0.0010500244,0.0036492392,-0.0011921312,0.00037242976,-0.025114277,-0.042478662,4982,4674,0
279665767,279665348,4259850,4325386,0.0027665608,-0.0033904046,-8.399271e-05,0.005640979,0.00522057,-0.048375893,4991,4932,0
280169329,280169215,4259850,4325386,0.0013715862,0.0041099,-0.0006835992,0.002938504,0.002268373,-0.05243107,4984,4933,0
280668219,280668084,4259850,4325386,-0.003002135,-0.0036783493,0.0009978401,-0.0036226716,0.0056706243,-0.05235756,4987,4933,0
281166806,281166681,4259850,4325386,0.0014020954,0.0022896011,-0.0010047439,-0.0028572297,-0.03187255,-0.045705978,4991,4938,0
281666231,281666112,4259850,4325386,-0.00065980555,0.0024205605,-0.00023079981,0.0048425016,0.0013793283,-0.04647075,5003,4944,0
282170344,282170227,4259850,4325386,0.0010103884,-0.00032173988,4.2526968e-05,-0.0017097979,-0.007057755,-0.053460874,4988,4941,0
282664283,282664171,4259850,4325386,-0.001851259,0.0036838686,0.00094861496,0.00011373559,0.019474853,-0.051111106,5040,4932,0
283168047,283167920,4259850,4325386,-0.00066823367,0.0021806143,0.00083243905,-0.010138977,0.012028876,-0.052768376,5014,4902,0
283666737,283666573,4259850,4325386,-0.00040848905,-0.00414204,0.00031939958,0.0023361228,0.0060462565,-0.043059118,4988,4970,0
284165838,284165357,4259850,4325386,0.00022533989,-0.0016951715,-1.490298e-05,-0.0028284225,-0.00780171,-0.044853114,4979,4989,0
284669354,284669169,4259850,4325386,-0.00048807552,-0.0019574156,0.0003660185,0.0054515935,0.011023771,-0.045169134,4983,4976,0
285168096,285167908,4259850,4325386,0.00059299334,-0.0021095695,-0.0003034988,-0.0009303663,-0.001029066,-0.048292536,4989,5833,0
285667321,285667187,4259850,4325386,0.00079285447,-0.001496656,-0.0003036207,-0.002674125,-0.0060027195,-0.04492533,4983,4944,0
286166110,286165969,4259850,4325386,0.001277903,0.0032005326,-0.0008712356,0.0026584782,-0.017062925,-0.047843263,4988,4975,0
286665108,286664923,4259850,4325386,-0.0001750613,8.2830804e-05,0.00018905895,-0.0019687805,0.008431089,-0.06366286,4984,5913,0
287168647,287168521,4259850,4325386,9.3839604e-05,-0.0033345919,0.00034532355,0.0044108727,0.0061024665,-0.049398314,4988,4934,0
287667438,287667309,4259850,4325386,0.0006171306,-0.0013394454,-0.0009856051,-0.003941161,-0.027060714,-0.045041,4991,4931,0
288166207,288166093,4259850,4325386,-0.00035365886,-0.0028490466,0.00083944487,-0.004920167,0.0024848399,-0.055046573,4995,4974,0
288670339,288670100,4259850,4325386,0.00053449266,-0.0028647352,0.00058397476,0.0060723727,-0.012515357,-0.04519935,4958,4967,0
289168811,289168690,4259850,4325386,0.00020608534,3.953726e-05,-0.00029099744,-0.00081068557,-0.011523881,-0.046315666,4991,4963,0
289667559,289667419,4259850,4325386,0.0017639432,0.004362362,-0.00092164055,0.009794061,0.004242199,-0.0430007,4988,4934,0
290166603,290166420,4259850,4325386,-0.0007058432,-0.004459818,0.0002973341,-0.012465041,-0.010508701,-0.049939014,4950,4744,0
290668835,290668478,4259850,4325386,-0.00058956945,-0.0032578507,3.2653257e-05,0.00879799,0.01036936,-0.05481059,4991,5925,0
291167666,291167533,4259850,4325386,-0.0001865384,0.001459274,-0.00014058198,-0.013243638,-0.014837028,-0.054072104,4954,4770,0
291671627,291671230,4259850,4325386,0.0005880276,0.0032129853,-0.0007100975,0.0011897582,-0.019542698,-0.04714263,5003,4935,0
292164980,292164822,4259850,4325386,0.00021654679,0.0026410467,-0.00047403085,-0.0052918643,-0.027723875,-0.0470327,4989,4961,0
292663752,292663606,4259850,4325386,0.00041135526,0.00035077732,-0.0005021857,0.005268287,0.0032390663,-0.040258326,4962,4782,0
293167153,293166999,4259850,4325386,7.9881895e-05,-0.0022290088,-6.2776303e-06,-0.0075470977,-0.0032758978,-0.04798009,4989,4968,0
293665851,293665707,4259850,4325386,-0.0011074367,-0.0016099284,9.7232485e-05,-0.00034656955,-0.009142731,-0.051220197,4966,4933,0
294164651,294164490,4259850,4325386,-0.0013708853,0.002586536,0.00087422965,-0.0017546519,0.0127538275,-0.054939333,4991,4976,0
294668370,294668258,4259850,4325386,-0.0010541918,-0.0033902307,0.00044322206,-0.011091732,-0.016509201,-0.049256753,4989,4932,0
295167261,295167109,4259850,4325386,-0.0012434482,-0.0032051902,0.00039271056,-0.01081758,-0.005712008,-0.05229069,5004,4729,0
295665962,295665821,4259850,4325386,0.0005317762,0.0030605667,0.00012383692,0.008289838,0.015574439,-0.04869853,4987,4934,0
296169247,296169131,4259850,4325386,-0.00014984545,0.0011572631,-0.00012263459,-0.0047318563,-0.013673214,-0.050278775,4947,4664,0
296667938,296667827,4259850,4325386,-0.001284684,0.0023110812,0.0004613252,-0.012349006,-0.014696682,-0.053326868,4984,4936,0
297166751,297166614,4259850,4325386,0.00018367237,0.0029902419,0.00036974673,0.0014391401,0.011053454,-0.044800747,4982,4976,0
297666423,297665615,4259850,4325386,0.0007163067,0.0040676543,-0.00085943623,0.005930039,-0.004585714,-0.04950884,4967,4932,0
298169274,298169162,4259850,4325386,0.00023302076,-0.003948431,-0.0006405375,0.010001512,-0.0021934751,-0.043267578,4987,4965,0
298668061,298667946,4259850,4325386,-7.643108e-06,-0.003331517,8.701324e-06,0.0016323624,-0.002625424,-0.06056683,4989,4994,0
299166838,299166728,4259850,4325386,-0.00086685806,0.004693232,0.0008664394,0.006805774,0.025709039,-0.048782997,4978,4762,0
299670634,299670497,4259850,4325386,0.00047501788,-0.0027312369,-0.0006675084,0.0036146343,-0.002962355,-0.045936108,4988,4933,0
300164528,300164346,4259850,4325386,-0.0018355473,-0.002619148,0.00071346783,-0.008387093,0.0058754096,-0.054509185,4978,4981,0
300668212,300668064,4259850,4325386,-0.00037441243,0.0044641895,5.33432e-05,-0.008632516,-0.01444985,-0.05368963,4989,4933,0
301167033,301166844,4259850,4325386,0.001206808,-0.004210472,0.0004802828,0.008158448,0.015482734,-0.05632197,4988,5691,0
301670652,301670304,4259850,4325386,-0.0012456633,0.00049003446,-0.00012381234,-0.0057982276,0.00908917,-0.052178726,4968,4965,0
302169580,302169434,4259850,4325386,-0.0011963352,-1.2699645e-05,-0.0012647985,-0.016287757,-0.012945733,-0.05111613,4969,4970,0
302668324,302668181,4259850,4325386,-0.00075585296,0.00014451369,-0.0023253607,-0.011303551,-0.016956614,-0.05416422,4984,4934,0
303167288,303167134,4259850,4325386,0.00081603514,-0.0003378462,-0.006071122,-0.004442366,-0.0130446395,-0.042741746,4986,4956,0
303665881,303665747,4259850,4325386,0.00112667,-0.000470083,-0.008291161,-0.0033535608,-0.021344615,-0.0432287,4989,4966,0
304164929,304164795,4259850,4325386,0.00030865739,2.7234855e-06,-0.0023380187,8.9645706e-05,-0.0044056037,-0.054465186,5254,4930,0
304668415,304668298,4259850,4325386,0.00011730033,-0.00056353834,-0.0047522527,-0.0040093744,-0.013235744,-0.052496694,4988,4964,0
305167226,305167103,4259850,4325386,0.0004824725,-4.2674463e-05,-0.0052255094,0.003673839,0.014567764,-0.046883438,4975,4940,0
305666367,305666189,4259850,4325386,-0.0005578701,-0.00034337668,-0.0009874769,-0.004672957,-0.02062972,-0.06317514,4988,5919,0
306170017,306169635,4259850,4325386,-0.00041283836,5.9438193e-05,-0.00034816362,-0.0018035747,0.011692688,-0.051436186,4972,4937,0
306668532,306668424,4259850,4325386,0.0015032098,-0.004254743,-0.0011514729,-0.000930623,-0.013394314,-0.05169573,4992,4885,0
307166898,307166753,4259850,4325386,-0.0005857162,0.0041856887,0.0002887959,0.00043105756,0.0041269874,-0.054520626,5043,4940,0
307666119,307665982,4259850,4325386,-7.999618e-05,-0.004367457,-0.00013568847,-0.0057796864,-0.013307435,-0.03519977,4988,4767,0
308165424,308165312,4259850,4325386,0.00059200986,0.00023150072,0.00032941785,-0.008982918,-0.0109475,-0.05243455,4988,4923,0
308669403,308669084,4259850,4325386,0.00057210063,0.0010130507,-0.0008563246,-0.0077064876,-0.015813112,-0.04800862,4981,4937,0
309168178,309168050,4259850,4325386,5.5914195e-05,-0.0028994852,-0.0001596113,-0.00810895,-0.015957838,-0.047262248,4984,4991,0
309666901,309666736,4259850,4325386,-0.0009064771,0.0011422316,-0.000106083666,-0.017504841,-0.01150445,-0.054270424,4991,4934,0
310171050,310170869,4259850,4325386,-0.0005509866,0.002290258,9.4828945e-05,0.0006186129,0.008948605,-0.054841846,4988,4995,0
310664918,310664762,4259850,4325386,0.00015652724,0.0027450877,-0.00018353501,-0.0083194235,-0.007158332,-0.040886413,4995,4193,0
311168585,311168434,4259850,4325386,0.00031478627,-0.0024695857,-0.00064162555,-0.0024572758,-0.017028587,-0.05104485,4988,4934,0
311667342,311667217,4259850,4325386,0.0005921507,0.0044334293,-0.00050280493,-0.002284433,-0.010457278,-0.04375641,4988,4932,0
312166123,312166004,4259850,4325386,0.0003935182,-0.0035491565,-0.00021563857,-0.0034351698,0.000605153,-0.043453854,4992,5155,0
312669927,312669802,4259850,4325386,-0.00037657065,0.0025760243,-0.00046312605,-0.010986598,-0.027979944,-0.050369356,5002,4937,0
313168987,313168871,4259850,4325386,-9.1380134e-05,0.0013753569,-0.0005075747,0.010560495,0.010439508,-0.042631153,5277,4785,0
313667465,313667336,4259850,4325386,0.00011254551,-0.0028210755,0.00036047274,-0.0032603552,0.0029327967,-0.05037935,4773,4934,0
314166446,314166121,4259850,4325386,-9.078672e-05,-0.0021740322,-0.00036514003,-0.012593788,-0.014067021,-0.04052538,4987,4774,0
314665392,314665157,4259850,4325386,-0.0034071312,-0.0031314732,0.00019447866,-0.0016412043,-0.00046423127,-0.04537192,4954,4962,0
315168793,315168677,4259850,4325386,0.0031775434,-0.0024806322,-0.0011921788,0.0037877203,-0.009433682,-0.045370676,4990,4942,0
315667653,315667476,4259850,4325386,-0.00079858163,0.0041843853,-4.2025138e-05,-0.0059971716,-0.016294714,-0.047970567,4983,4934,0
316166752,316166599,4259850,4325386,-0.00029238494,-0.004091483,-0.0003371259,0.005976955,0.0071568424,-0.052638147,4993,4936,0
316670125,316670014,4259850,4325386,-7.67864e-05,0.0018092488,0.00045210499,0.00562409,0.024509257,-0.0492781,4986,4960,0
317168913,317168794,4259850,4325386,9.551234e-05,-0.0006299832,0.00048019757,-0.0032033504,0.002765922,-0.05817119,4988,4969,0
317667931,317667736,4259850,4325386,0.000116127245,0.00409903,0.00042396272,-0.0021449723,0.013117926,-0.048063993,4964,4945,0
318166048,318165915,4259850,4325386,-0.0012579064,0.002912395,0.0005207446,-0.015318949,0.0002866924,-0.052545507,4988,4964,0
318665057,318664874,4259850,4325386,0.0009543554,-0.00035935454,-0.0010113966,-0.0014532396,-0.017251723,-0.04682157,4965,4971,0
319168644,319168470,4259850,4325386,0.00010969588,0.0028908954,-0.00015403701,-0.002204129,0.003143426,-0.043054376,4994,4932,0
319667407,319667247,4259850,4325386,-0.0024552005,-0.0023214852,-0.00040027665,-0.008303142,-0.016654817,-0.048763987,4987,4989,0
320166423,320166203,4259850,4325386,-0.0020539789,0.00047846968,-0.0004935445,0.0008376301,-0.009952013,-0.051798336,4997,4996,0
320670465,320670331,4259850,4325386,0.00052648183,0.0023528938,0.00011353663,-0.0028399054,0.005980897,-0.05174339,4971,4971,0
321163419,321163305,4259850,4325386,-0.00024667298,0.003906199,-0.00011770056,-0.0059161163,-0.00667754,-0.045947254,5240,4935,0
321668084,321666823,4259850,4325386,0.00078294263,-0.001282026,-0.0005632736,0.0098858895,0.0001346492,-0.05087931,4989,4989,0
322165231,322165107,4259850,4325386,-0.00089785724,-0.0043047904,3.6743797e-05,0.0075104428,0.0068377317,-0.03299601,4988,4966,0
322668988,322668877,4259850,4325386,0.0010085644,-0.0027032366,8.025569e-05,0.00034786147,-0.0076476866,-0.04893653,4988,4934,0
323167907,323167726,4259850,4325386,0.00062309677,-0.003199995,-3.096336e-05,0.002930279,0.012092669,-0.06015662,4993,5919,0
323666834,323666722,4259850,4325386,-0.0007854801,0.0048155654,0.0004203675,-0.0014031541,0.017854404,-0.050423913,5258,4933,0
324170355,324170223,4259850,4325386,0.002384296,-0.0032473686,0.00012735471,0.0026478763,-0.0005027438,-0.05416933,4993,4932,0
324664181,324664014,4259850,4325386,-0.005280784,0.00090382557,0.0005608238,-0.00468417,-0.00022322958,-0.052274905,4988,4956,0
325168189,325168048,4259850,4325386,0.005401416,-0.00057366345,-0.00069185905,-0.01114498,-0.026834503,-0.051217105,5013,4904,0
325666727,325666590,4259850,4325386,0.00019392754,-0.00030395875,-0.00084096205,0.007773474,-0.008557461,-0.044067364,5012,4909,0
326165481,326165372,4259850,4325386,-0.0029052838,0.0007214265,-0.00026165272,0.0062412424,0.0076856185,-0.04715744,5011,4910,0
326669708,326669498,4259850,4325386,0.0038110914,-0.004469582,-0.00083787774,0.0052341293,-0.004104709,-0.0489722,4969,4943,0
327168096,327167908,4259850,4325386,-0.0011031816,0.0044921846,0.00015713021,0.004242211,0.0086516505,-0.052499417,4991,4991,0
327667144,327666689,4259850,4325386,0.00080077566,0.0030909884,-0.00020892006,-0.0041283993,0.0007434238,-0.044234738,4975,4937,0
328165762,328165627,4259850,4325386,-0.0025916276,-0.0017241141,0.0004613359,-0.010850727,-0.0043408466,-0.053792078,4971,4936,0
328664368,328664255,4259850,4325386,0.0006192068,-0.00028095907,-0.0004852525,-0.012867067,-0.03176747,-0.048847258,4987,4984,0
329168631,329168525,4259850,4325386,0.00019457714,0.0040860293,0.00018623304,-0.0024582727,0.004009731,-0.044271085,4988,4934,0
329667419,329667308,4259850,4325386,0.00077536213,-0.0034110763,-0.0005246485,0.0013864579,-0.007997416,-0.050202213,4980,4958,0
330166544,330166320,4259850,4325386,-0.0012437943,-0.0005215779,0.00085578125,-0.0061421166,0.0042570313,-0.051907156,4979,4964,0
330670041,330669863,4259850,4325386,1.9053337e-05,0.0037275339,0.0002070931,0.0015603626,0.0029896337,-0.040322915,4984,4933,0
331169017,331168650,4259850,4325386,0.00037302007,-0.003028147,-6.275671e-05,-0.0010075073,0.00104127,-0.0425486,4991,4935,0
331667556,331667433,4259850,4325386,-0.0010247986,0.0011065741,6.4674896e-06,-0.012675528,-0.004218195,-0.057391685,4988,4946,0
332166047,332165902,4259850,4325386,6.306666e-05,0.000104719875,-0.00081903656,0.0027389862,-0.0019312006,-0.045795046,4993,4994,0
332664699,332664554,4259850,4325386,0.0005215312,-0.001947435,-0.0003525559,0.0009170745,0.0022458627,-0.042068936,4967,4933,0
333167937,333167826,4259850,4325386,0.0013441351,0.0005151321,-0.00074343244,0.0061574914,-0.015077432,-0.043765385,5041,4931,0
333667700,333666813,4259850,4325386,-0.00022911778,0.0015799234,0.00024793128,-0.0039901272,-0.0039389017,-0.062466633,4930,5920,0
334170512,334170328,4259850,4325386,-0.00064763083,0.003647022,0.0003547733,-0.011712758,0.0014696737,-0.056880407,4988,4941,0
334668354,334668224,4259850,4325386,-0.0008839141,0.00011547597,0.00019194376,-0.005280362,0.0062058177,-0.059736796,5050,5923,0
335166030,335165900,4259850,4325386,-0.0004503817,-0.00319731,0.00032913496,-0.014032955,-0.014941692,-0.053472735,4988,4934,0
335669862,335669685,4259850,4325386,0.0011411982,0.0041285744,-5.9231017e-05,0.002383542,0.00704656,-0.054890003,4999,4997,0
336168590,336168455,4259850,4325386,-0.0006045557,-0.003671794,0.00013363665,0.0067867762,0.009729149,-0.05404269,4987,4929,0
336667651,336667243,4259850,4325386,-5.8032024e-06,0.0037914962,-0.00024061784,-0.004462169,-0.007027832,-0.052357126,4988,4921,0
337166274,337166157,4259850,4325386,0.0020117008,0.0016811525,-0.00079324347,0.008797486,-0.004660258,-0.045121126,4982,4934,0
337670060,337669940,4259850,4325386,0.0015850343,-0.00025504624,-0.00096582324,-0.004373288,-0.026056984,-0.04792675,4988,4935,0
338163701,338163591,4259850,4325386,-0.00032866249,-0.003297208,2.2045665e-06,-0.007893997,-0.011161979,-0.05401556,4992,4934,0
338667005,338666864,4259850,4325386,0.00025145136,0.0015844048,-0.0002421928,-0.012046039,-0.01800767,-0.05524204,4948,4935,0
339166122,339165732,4259850,4325386,-0.0015982335,0.004591397,0.000960708,-0.0068886364,0.012738985,-0.05633139,4996,4995,0
339669609,339669423,4259850,4325386,-0.0010330242,-0.0027175352,0.00096057646,-0.00837099,-0.0025904062,-0.054507535,4988,4934,0
340168334,340168204,4259850,4325386,-0.0015073245,-0.003648905,0.0011641533,-0.0017807645,0.010942187,-0.051627558,4987,4934,0
340667106,340666990,4259850,4325386,-0.0036152394,0.0052025463,0.00053800934,0.0034766141,0.020421306,-0.055158745,4990,4976,0
341165889,341165776,4259850,4325386,0.00092213816,0.0031653692,-0.0009560821,0.0004397042,-0.0074293483,-0.049662292,4984,4932,0
341669674,341669544,4259850,4325386,-0.003949506,-0.0038221607,0.0006974802,-0.008773528,-0.004267303,-0.055482607,4988,4932,0
342163472,342163343,4259850,4325386,0.0017990422,-0.00028319305,0.00093191786,0.0050811707,0.01895023,-0.052364644,4795,4946,0
342667276,342667113,4259850,4325386,0.0034393598,-0.0043889005,-0.00033195788,0.0019563902,-0.0072883135,-0.050451323,4987,4934,0
343170659,343170387,4259850,4325386,-0.0017536016,0.0030779243,-0.0005629026,-0.005096394,-0.01296713,-0.04412682,4988,4963,0
343669492,343669333,4259850,4325386,-0.00083092845,0.004477111,0.00050434103,-0.003929026,0.0141473515,-0.052665338,4963,4770,0
344168088,344167954,4259850,4325386,-0.002780883,-0.0027917014,0.00053667324,-0.011253965,-0.0057836585,-0.050934933,4982,4935,0
344666897,344666786,4259850,4325386,0.00014428869,-0.0010706403,0.00025169144,-0.00459354,0.0007419616,-0.044727817,5036,4925,0
345170703,345170545,4259850,4325386,0.00072234,-0.0037434874,-0.00060450303,-0.0004655726,-0.019117191,-0.04691366,5022,4916,0
345664430,345664306,4259850,4325386,-0.00043657678,0.0025132922,4.6806326e-05,-0.005944186,-0.0021936093,-0.047985177,4982,4980,0
346168282,346168101,4259850,4325386,0.00036300273,-0.0019894983,-0.00044788164,-0.0007455979,-0.011596183,-0.0559029,4992,5922,0
346666991,346666862,4259850,4325386,-0.00015232358,0.00044904248,-0.0011215258,-0.0052741766,-0.032121018,-0.042521458,4988,4970,0
347166114,347165906,4259850,4325386,0.00017590619,-0.0008932434,-7.804894e-05,-0.01212028,-0.021401344,-0.06310255,5245,6026,0
347669530,347669418,4259850,4325386,0.00046310425,0.004196981,-0.0009601441,-0.009942178,-0.017898377,-0.050919026,4983,4938,0
348168381,348168205,4259850,4325386,-0.00022809072,-0.0039999173,1.7836752e-05,0.006781686,0.004082115,-0.055295207,4980,5923,0
348666653,348666542,4259850,4325386,0.0009016245,-0.0038051389,-0.0005982291,0.009333493,-0.0066808355,-0.046479546,4994,4934,0
349166022,349165909,4259850,4325386,0.00018504013,0.0030143051,-0.00040518565,0.01665748,0.0036834637,-0.043104988,4992,4933,0
349664703,349664559,4259850,4325386,-0.00028166288,-0.0030886293,0.000420442,0.011828616,0.013086439,-0.043245837,4992,4975,0
350168682,350168509,4259850,4325386,-0.00040743867,0.0041695302,4.570413e-05,0.0019915104,0.004661267,-0.048574768,4970,4969,0
350666803,350666693,4259850,4325386,-0.00046508844,0.0035870918,-1.8802913e-05,-0.005695079,-0.007889039,-0.04807276,4958,4966,0
351165797,351165637,4259850,4325386,-0.001083622,0.00048716282,0.0008254512,-0.00791835,0.0073307795,-0.053703845,4961,4934,0
351669327,351669216,4259850,4325386,0.00036628646,-0.0020589787,8.231565e-05,-0.0015749803,0.0056671067,-0.041019864,4988,4985,0
352168134,352168023,4259850,4325386,-0.001053734,-0.0023793944,0.0012210825,0.0071370625,0.0189575,-0.045266792,5010,4885,0
352667058,352666942,4259850,4325386,-0.0005552259,-0.0014910746,0.0007158705,-0.0094166035,-0.006301114,-0.049796183,4960,4758,0
353165677,353165569,4259850,4325386,-0.0011266175,0.004054637,-0.00016376254,-0.011909594,-0.016277736,-0.05030895,4988,4935,0
353669876,353669489,4259850,4325386,-0.0002737604,0.0026771694,-0.0004133409,0.001032823,-0.0045990692,-0.055447653,4956,4934,0
354168432,354168286,4259850,4325386,0.0015251962,-0.0016702865,-0.0002948949,-0.0041999635,0.0057824133,-0.050013103,4961,4963,0
354667029,354666915,4259850,4325386,-0.0038765555,0.0012832345,0.0001715087,0.0034527988,0.0063086734,-0.054063983,4994,4981,0
355170802,355170683,4259850,4325386,0.00456182,-0.0046350094,-0.000693368,0.0039877086,-0.009496075,-0.046383083,4989,5027,0
