timestamp,ref_timestamp,ref_lat,ref_lon,x,y,z,delta_xy[0],delta_xy[1],delta_z,vx,vy,vz,z_deriv,delta_vxy[0],delta_vxy[1],delta_vz,ax,ay,az,heading,delta_heading,ref_alt,dist_bottom,eph,epv,evh,evv,vxy_max,vz_max,hagl_min,hagl_max,xy_valid,z_valid,v_xy_valid,v_z_valid,xy_reset_counter,z_reset_counter,vxy_reset_counter,vz_reset_counter,heading_reset_counter,xy_global,z_global,dist_bottom_valid
119662072,96664643,34.033727299999995,108.76369659999999,-1.8402677,3.0631866,0.15826817,0.41876858,-0.16357535,0.0,-0.1244635,-0.011606621,0.0028769313,0.023754956,0.32971656,-0.14711706,-0.03377322,0.06787588,-0.063410535,-0.021628149,-3.0938616,0.08665951,442.85767,0.1,0.37025413,0.40150124,0.1432193,0.10454679,inf,inf,inf,inf,1,1,1,1,2,0,2,1,3,1,1,1
119676801,96664643,34.033727299999995,108.76369659999999,-1.8423005,3.0628107,0.15837441,0.41876858,-0.16357535,0.0,-0.12566383,-0.01140312,0.0028845228,0.023600448,0.32971656,-0.14711706,-0.03377322,-0.30992907,0.25620237,-0.09764271,-3.092805,0.08665951,442.85767,0.1,0.37106848,0.39954457,0.14366952,0.10444588,inf,inf,inf,inf,1,1,1,1,2,0,2,1,3,1,1,1
119766205,96664643,34.033727299999995,108.76369659999999,-1.8565897,3.0600917,0.16033253,0.41876858,-0.16357535,0.0,-0.12422383,-0.005510425,0.0030901306,0.023567505,0.32971656,-0.14711706,-0.03377322,-0.52730286,0.13728419,-0.055018246,-3.0931413,0.08665951,442.85767,0.10193887,0.35927123,0.3985723,0.13829188,0.103029385,inf,inf,inf,inf,1,1,1,1,2,0,2,1,3,1,1,1
119865548,96664643,34.033727299999995,108.76369659999999,-1.8726792,3.057572,0.16516502,0.41876858,-0.16357535,0.0,-0.110253155,-0.013199428,0.0034171618,0.026129823,0.32971656,-0.14711706,-0.03377322,-0.8800449,-1.0525727,0.2629023,-3.0936673,0.08665951,442.85767,0.10463549,0.36709648,0.4000102,0.14293408,0.10430055,inf,inf,inf,inf,1,1,1,1,2,0,2,1,3,1,1,1
119969854,96664643,34.033727299999995,108.76369659999999,-1.8883842,3.0554683,0.17008168,0.41876858,-0.16357535,0.0,-0.11294009,-0.003401455,0.0049612015,0.029526474,0.32971656,-0.14711706,-0.03377322,1.7963995,-0.6831153,-0.011966838,-3.0937638,0.08665951,442.85767,0.10592282,0.35592324,0.3971406,0.13795435,0.10279445,inf,inf,inf,inf,1,1,1,1,2,0,2,1,3,1,1,1
120059260,96664643,34.033727299999995,108.76369659999999,-1.9020755,3.053606,0.1747917,0.41876858,-0.16357535,0.0,-0.10131069,-0.0062749903,0.007937612,0.034216847,0.32971656,-0.14711706,-0.03377322,1.9201492,-1.8336502,0.38209784,-3.093699,0.08665951,442.85767,0.10238236,0.36289757,0.397904,0.14196503,0.10388123,inf,inf,inf,inf,1,1,1,1,2,0,2,1,3,1,1,1
120168607,96664643,34.033727299999995,108.76369659999999,-1.9179195,3.051468,0.17894807,0.41876858,-0.16357535,0.0,-0.097497486,-0.0041462053,0.00872962,0.035069145,0.32971656,-0.14711706,-0.03377322,1.9220186,-1.69147,-0.09127479,-3.0938256,0.08665951,442.85767,0.1,0.35217586,0.3957273,0.13762324,0.10257018,inf,inf,inf,inf,1,1,1,1,2,0,2,1,3,1,1,1
120267873,96664643,34.033727299999995,108.76369659999999,-1.933135,3.0485666,0.18126045,0.41876858,-0.16357535,0.0,-0.10588457,0.006252963,0.007970863,0.032808926,0.32971656,-0.14711706,-0.03377322,0.3322427,0.5166514,-0.33980244,-3.0930986,0.08665951,442.85767,0.1,0.35990083,0.39973462,0.14210252,0.10411628,inf,inf,inf,inf,1,1,1,1,2,0,2,1,3,1,1,1
120367215,96664643,34.033727299999995,108.76369659999999,-1.9463081,3.0452497,0.18092662,0.41876858,-0.16357535,0.0,-0.101327546,-0.0001937732,0.010870381,0.03171956,0.32971656,-0.14711706,-0.03377322,-2.1157553,0.8670235,-0.4677317,-3.0934563,0.08665951,442.85767,0.1,0.34895942,0.39691308,0.13738567,0.10265582,inf,inf,inf,inf,1,1,1,1,2,0,2,1,3,1,1,1
120466772,96664643,34.033727299999995,108.76369659999999,-1.9577893,3.0419075,0.17922887,0.41876858,-0.16357535,0.0,-0.08595662,-0.0035859041,0.013828281,0.029900584,0.32971656,-0.14711706,-0.03377322,-0.6127096,-0.73062485,0.2886365,-3.0937288,0.08665951,442.85767,0.1,0.35666564,0.3983666,0.14185993,0.10393582,inf,inf,inf,inf,1,1,1,1,2,0,2,1,3,1,1,1
120560928,96664643,34.033727299999995,108.76369659999999,-1.9678452,3.038918,0.17744745,0.41876858,-0.16357535,0.0,-0.08485153,0.010968762,0.006452132,0.018335287,0.32971656,-0.14711706,-0.03377322,0.9706668,0.38713756,0.45715138,-3.0933409,0.08665951,442.85767,0.1,0.34491602,0.39492407,0.13663675,0.10229253,inf,inf,inf,inf,1,1,1,1,2,0,2,1,3,1,1,1
120660269,96664643,34.033727299999995,108.76369659999999,-1.9784274,3.034642,0.17401952,0.41876858,-0.16357535,0.0,-0.08439307,0.011316396,0.004288082,0.010730435,0.32971656,-0.14711706,-0.03377322,0.38361993,1.4527698,-0.15214688,-3.093165,0.08665951,442.85767,0.1,0.3525543,0.39634812,0.14127347,0.103570364,inf,inf,inf,inf,1,1,1,1,2,0,2,1,3,1,1,1
120759651,96664643,34.033727299999995,108.76369659999999,-1.9868222,3.0303786,0.17145543,0.41876858,-0.16357535,0.0,-0.077782795,0.011090723,0.0037452753,0.006315633,0.32971656,-0.14711706,-0.03377322,0.37627497,-0.42431664,0.7694803,-3.0926714,0.08665951,442.85767,0.1,0.341952,0.39614296,0.13677005,0.10239818,inf,inf,inf,inf,1,1,1,1,2,0,2,1,3,1,1,1
120868884,96664643,34.033727299999995,108.76369659999999,-1.9936894,3.025358,0.16948096,0.41876858,-0.16357535,0.0,-0.06901277,-0.002717816,0.009216858,0.00902218,0.32971656,-0.14711706,-0.03377322,2.124427,-1.7132778,-0.2329422,-3.092713,0.08665951,442.85767,0.1,0.3503912,0.3982656,0.14439286,0.1038983,inf,inf,inf,inf,1,1,1,1,2,0,2,1,3,1,1,1
120958290,96664643,34.033727299999995,108.76369659999999,-1.9981049,3.0217822,0.16944882,0.41876858,-0.16357535,0.0,-0.06075525,0.0049360516,0.005221242,0.0046098963,0.32971656,-0.14711706,-0.03377322,1.6617618,0.6511317,-0.31491837,-3.0924668,0.08665951,442.85767,0.1,0.339259,0.39486957,0.14289539,0.10232676,inf,inf,inf,inf,1,1,1,1,2,0,2,1,3,1,1,1
121067565,96664643,34.033727299999995,108.76369659999999,-2.0018601,3.0176435,0.17075527,0.41876858,-0.16357535,0.0,-0.06393496,0.005007768,0.013257844,0.013340298,0.32971656,-0.14711706,-0.03377322,-2.7144673,0.8678825,3.1644804,-3.093947,0.08665951,442.85767,0.1,0.3477394,0.39696634,0.15542525,0.1038813,inf,inf,inf,inf,1,1,1,1,2,0,2,1,3,1,1,1
121166905,96664643,34.033727299999995,108.76369659999999,-2.0044396,3.0149453,0.17186745,0.41876858,-0.16357535,0.0,-0.04383881,0.0070502744,0.0028148752,0.0032128617,0.32971656,-0.14711706,-0.03377322,2.1985345,1.3668985,-2.276034,-3.0940673,0.08665951,442.85767,0.1,0.3357416,0.39424402,0.1556831,0.10253323,inf,inf,inf,inf,1,1,1,1,2,0,2,1,3,1,1,1
121266373,96664643,34.033727299999995,108.76369659999999,-2.0061967,3.0131445,0.17370145,0.41876858,-0.16357535,0.0,-0.053413067,0.0022189487,0.013478159,0.014793643,0.32971656,-0.14711706,-0.03377322,-0.63287205,-0.660322,-0.18927127,-3.0954623,0.08665951,442.85767,0.1,0.34355074,0.3956967,0.16959836,0.10394357,inf,inf,inf,inf,1,1,1,1,2,0,2,1,3,1,1,1
121365584,96664643,34.033727299999995,108.76369659999999,-2.0079472,3.012338,0.17301072,0.41876858,-0.16357535,0.0,-0.05301624,0.010368684,0.017715562,0.017226692,0.32971656,-0.14711706,-0.03377322,-3.4836712,-0.31016985,3.368102,-3.095638,0.08665951,442.85767,0.1,0.33282375,0.3961103,0.16964981,0.10323871,inf,inf,inf,inf,1,1,1,1,2,0,2,1,3,1,1,1
121464924,96664643,34.033727299999995,108.76369659999999,-2.009449,3.0124285,0.17071564,0.41876858,-0.16357535,0.0,-0.032384276,0.009700411,0.0026215287,-0.0008910655,0.32971656,-0.14711706,-0.03377322,0.5875391,0.07532634,-1.3684897,-3.0934222,0.08665951,442.85767,0.100938156,0.3409521,0.3976103,0.18448438,0.104680926,inf,inf,inf,inf,1,1,1,1,2,0,2,1,3,1,1,1
121564265,96664643,34.033727299999995,108.76369659999999,-2.0096545,3.0136216,0.17008199,0.41876858,-0.16357535,0.0,-0.04058849,0.02161965,0.015292715,0.010881673,0.32971656,-0.14711706,-0.03377322,-3.2770998,0.6889089,2.2190115,-3.09351,0.08665951,442.85767,0.10157181,0.33134103,0.3960703,0.18355362,0.104049265,inf,inf,inf,inf,1,1,1,1,2,0,2,1,3,1,1,1
121663604,96664643,34.033727299999995,108.76369659999999,-2.0090528,3.0152907,0.17196988,0.41876858,-0.16357535,0.0,-0.0221715,0.021249244,0.0027803094,-0.00010069023,0.32971656,-0.14711706,-0.03377322,0.61543447,0.52374035,-0.59335077,-3.0945647,0.08665951,442.85767,0.1,0.3400636,0.39760458,0.19843926,0.10549591,inf,inf,inf,inf,1,1,1,1,2,0,2,1,3,1,1,1
121762985,96664643,34.033727299999995,108.76369659999999,-2.0065837,3.0164807,0.17289835,0.41876858,-0.16357535,0.0,-0.04051218,0.01821247,0.021302657,0.01866007,0.32971656,-0.14711706,-0.03377322,-2.9817514,-1.216568,2.118904,-3.0934806,0.08665951,442.85767,0.1,0.3285721,0.3948387,0.1875965,0.10394866,inf,inf,inf,inf,1,1,1,1,2,0,2,1,3,1,1,1
121862289,96664643,34.033727299999995,108.76369659999999,-2.0025601,3.017132,0.17347498,0.41876858,-0.16357535,0.0,-0.008258123,0.025668932,0.007630029,0.004982945,0.32971656,-0.14711706,-0.03377322,3.3424964,0.89886594,-0.22424339,-3.094031,0.08665951,442.85767,0.1,0.3374408,0.3963708,0.20147142,0.105385035,inf,inf,inf,inf,1,1,1,1,2,0,2,1,3,1,1,1
121961626,96664643,34.033727299999995,108.76369659999999,-1.9976289,3.0191748,0.17562592,0.41876858,-0.16357535,0.0,-0.021682588,0.04936159,0.003011884,0.0024920607,0.32971656,-0.14711706,-0.03377322,-1.2132676,0.10368355,0.8663383,-3.09347,0.08665951,442.85767,0.10571545,0.32710952,0.39429623,0.19174379,0.10425267,inf,inf,inf,inf,1,1,1,1,2,0,2,1,3,1,1,1
122061045,96664643,34.033727299999995,108.76369659999999,-1.9907901,3.024912,0.17679994,0.41876858,-0.16357535,0.0,-0.008403777,0.110042274,-0.022836111,-0.020846147,0.32971656,-0.14711706,-0.03377322,-0.4483639,0.49681172,-0.68161887,-3.0927124,0.08665951,442.85767,0.10494207,0.33634534,0.3984086,0.20469303,0.10595455,inf,inf,inf,inf,1,1,1,1,2,0,2,1,3,1,1,1
122165274,96664643,34.033727299999995,108.76369659999999,-1.9847732,3.0379605,0.17511104,0.41876858,-0.16357535,0.0,-0.00703366,0.16648653,-0.03965131,-0.036297455,0.32971656,-0.14711706,-0.03377322,0.8228243,0.17984219,0.2955253,-3.0925941,0.08665951,442.85767,0.106630966,0.32487187,0.39562362,0.19016553,0.10430855,inf,inf,inf,inf,1,1,1,1,2,0,2,1,3,1,1,1
122264615,96664643,34.033727299999995,108.76369659999999,-1.9793905,3.0540144,0.17318428,0.41876858,-0.16357535,0.0,-0.007350763,0.16674645,-0.013252025,-0.009031206,0.32971656,-0.14711706,-0.03377322,-0.4851437,0.045280408,1.5320172,-3.0960727,0.08665951,442.85767,0.10855773,0.33416814,0.3971963,0.20205465,0.105687715,inf,inf,inf,inf,1,1,1,1,2,0,2,1,3,1,1,1
122354225,96664643,34.033727299999995,108.76369659999999,-1.9752375,3.0688124,0.17321864,0.41876858,-0.16357535,0.0,0.020408874,0.1720756,0.061509304,0.063459076,0.32971656,-0.14711706,-0.03377322,-1.3966732,-0.62939894,2.4667966,-3.1069856,0.08665951,442.85767,0.10852337,0.3219632,0.39381167,0.18696384,0.1038119,inf,inf,inf,inf,1,1,1,1,2,0,2,1,3,1,1,1
122468261,96664643,34.033727299999995,108.76369659999999,-1.9704787,3.0919855,0.17524937,0.41876858,-0.16357535,0.0,0.019297332,0.22325718,0.021656437,0.019466482,0.32971656,-0.14711706,-0.03377322,-0.6295878,1.9744056,1.3980225,-3.1182413,0.08665951,442.85767,0.10649264,0.33220544,0.39604205,0.19872317,0.1052085,inf,inf,inf,inf,1,1,1,1,2,0,2,1,3,1,1,1
122557680,96664643,34.033727299999995,108.76369659999999,-1.9663706,3.1089425,0.1758541,0.41876858,-0.16357535,0.0,0.04582788,0.21543378,0.04374313,0.039800864,0.32971656,-0.14711706,-0.03377322,-1.0089662,-1.6387855,0.7468198,-3.122267,0.08665951,442.85767,0.105887905,0.3199594,0.3926987,0.18389907,0.103357874,inf,inf,inf,inf,1,1,1,1,2,0,2,1,3,1,1,1
122666942,96664643,34.033727299999995,108.76369659999999,-1.9628983,3.1206632,0.17252167,0.41876858,-0.16357535,0.0,0.025126465,0.15380251,-0.003951616,-0.009789755,0.32971656,-0.14711706,-0.03377322,3.9701574,0.7012561,2.906937,-3.1306283,0.08665951,442.85767,0.10922034,0.3302295,0.39492783,0.19479373,0.10484815,inf,inf,inf,inf,1,1,1,1,2,0,2,1,3,1,1,1
122766282,96664643,34.033727299999995,108.76369659999999,-1.9611076,3.133067,0.17084832,0.41876858,-0.16357535,0.0,0.04208035,0.17387983,0.06572585,0.05651445,0.32971656,-0.14711706,-0.03377322,-2.468087,-1.6344374,0.50928724,-3.1331992,0.08665951,442.85767,0.11089368,0.31903595,0.3922782,0.18191698,0.10330761,inf,inf,inf,inf,1,1,1,1,2,0,2,1,3,1,1,1
122865687,96664643,34.033727299999995,108.76369659999999,-1.9628701,3.1441295,0.16589332,0.41876858,-0.16357535,0.0,0.015660748,0.12700325,0.028087195,0.014086935,0.32971656,-0.14711706,-0.03377322,2.8413594,3.4608088,4.077674,-3.1257608,0.08665951,442.85767,0.11584869,0.32846546,0.39637637,0.19101088,0.1049088,inf,inf,inf,inf,1,1,1,1,2,0,2,1,3,1,1,1
122964977,96664643,34.033727299999995,108.76369659999999,-1.9637975,3.1520386,0.16246806,0.41876858,-0.16357535,0.0,0.0058695115,0.061006527,-0.010270297,-0.029059043,0.32971656,-0.14711706,-0.03377322,0.77514666,0.119631596,-0.35965368,-3.1150696,0.08665951,442.85767,0.119273946,0.31712952,0.39369622,0.1783087,0.10336167,inf,inf,inf,inf,1,1,1,1,2,0,2,1,3,1,1,1
123064303,96664643,34.033727299999995,108.76369659999999,-1.9636927,3.15448,0.15679538,0.41876858,-0.16357535,0.0,0.03619182,0.05751196,-0.004443073,-0.026962094,0.32971656,-0.14711706,-0.03377322,0.6244335,0.5207868,-2.176031,-3.1124444,0.08665951,442.85767,0.124946624,0.3265397,0.39530107,0.18672955,0.10469648,inf,inf,inf,inf,1,1,1,1,2,0,2,1,3,1,1,1
123163834,96664643,34.033727299999995,108.76369659999999,-1.9623715,3.1539192,0.15504189,0.41876858,-0.16357535,0.0,0.040833015,-0.006558106,-0.0020035147,-0.023721926,0.32971656,-0.14711706,-0.03377322,1.0647255,1.9099883,0.06805531,-3.1170905,0.08665951,442.85767,0.12670012,0.31551522,0.3927141,0.17529954,0.10321813,inf,inf,inf,inf,1,1,1,1,2,0,2,1,3,1,1,1
123258017,96664643,34.033727299999995,108.76369659999999,-1.9601862,3.1484554,0.15479612,0.41876858,-0.16357535,0.0,0.040417854,-0.05333024,0.003326913,-0.015812797,0.32971656,-0.14711706,-0.03377322,-2.4534628,-1.1175742,1.7686414,-3.1251864,0.08665951,442.85767,0.12694588,0.32395753,0.39364347,0.1823736,0.10436806,inf,inf,inf,inf,1,1,1,1,2,0,2,1,3,1,1,1
123367292,96664643,34.033727299999995,108.76369659999999,-1.9609648,3.1415746,0.15881737,0.41876858,-0.16357535,0.0,0.049759638,-0.051819805,0.028596498,0.014611185,0.32971656,-0.14711706,-0.03377322,1.1312546,-2.1266537,-0.81824946,-3.1309881,0.08665951,442.85767,0.12292464,0.31392357,0.3916939,0.17216258,0.10306492,inf,inf,inf,inf,1,1,1,1,2,0,2,1,3,1,1,1
123466631,96664643,34.033727299999995,108.76369659999999,-1.9631078,3.1356854,0.16587228,0.41876858,-0.16357535,0.0,0.07006625,-0.067768306,0.02595383,0.016867133,0.32971656,-0.14711706,-0.03377322,2.3949895,-0.5052304,-1.836546,-3.1325233,0.08665951,442.85767,0.11586973,0.32334596,0.39329088,0.17953482,0.104420155,inf,inf,inf,inf,1,1,1,1,2,0,2,1,3,1,1,1
123565974,96664643,34.033727299999995,108.76369659999999,-1.9626609,3.130625,0.16901912,0.41876858,-0.16357535,0.0,0.09130975,-0.064625196,-0.0085944915,-0.015220478,0.32971656,-0.14711706,-0.03377322,2.3883214,-0.37671742,-0.9391362,-3.1301908,0.08665951,442.85767,0.11272289,0.31246653,0.39071462,0.1690502,0.10295991,inf,inf,inf,inf,1,1,1,1,2,0,2,1,3,1,1,1
123665391,96664643,34.033727299999995,108.76369659999999,-1.9592249,3.1266406,0.16576748,0.41876858,-0.16357535,0.0,0.11436642,-0.04690959,-0.05543443,-0.0614628,0.32971656,-0.14711706,-0.03377322,-0.7558196,0.54427755,0.1135049,-3.1232598,0.08665951,442.85767,0.11597453,0.32187206,0.3948034,0.17604357,0.10457375,inf,inf,inf,inf,1,1,1,1,2,0,2,1,3,1,1,1
123764655,96664643,34.033727299999995,108.76369659999999,-1.9521694,3.12348,0.15760149,0.41876858,-0.16357535,0.0,0.13499327,-0.053675376,-0.12536077,-0.1296833,0.32971656,-0.14711706,-0.03377322,-2.459499,-0.9978717,0.9949949,-3.1116288,0.08665951,442.85767,0.124140516,0.31123883,0.39221177,0.16635826,0.10309981,inf,inf,inf,inf,1,1,1,1,2,0,2,1,3,1,1,1
123863994,96664643,34.033727299999995,108.76369659999999,-1.9420849,3.1216035,0.14078252,0.41876858,-0.16357535,0.0,0.14668807,-0.02606899,-0.21945368,-0.2231603,0.32971656,-0.14711706,-0.03377322,-1.8373475,-0.4118764,-0.2176023,-3.0974467,0.08665951,442.85767,0.14095949,0.3206485,0.39383918,0.17303501,0.10442945,inf,inf,inf,inf,1,1,1,1,2,0,2,1,3,1,1,1
123963493,96664643,34.033727299999995,108.76369659999999,-1.9292809,3.1224678,0.11579344,0.41876858,-0.16357535,0.0,0.18268026,-0.0014146448,-0.3125122,-0.31438392,0.32971656,-0.14711706,-0.03377322,0.40956533,2.0773838,-0.65498143,-3.0835273,0.08665951,442.85767,0.16594857,0.3100001,0.39126673,0.16368987,0.10294272,inf,inf,inf,inf,1,1,1,1,2,0,2,1,3,1,1,1
124062674,96664643,34.033727299999995,108.76369659999999,-1.9138842,3.1230798,0.08205861,0.41876858,-0.16357535,0.0,0.19643982,-0.017198721,-0.41054228,-0.4103274,0.32971656,-0.14711706,-0.03377322,0.70973855,1.8231003,-0.9282356,-3.0694249,0.08665951,442.85767,0.1996834,0.31939608,0.3928891,0.17010072,0.10427293,inf,inf,inf,inf,1,1,1,1,2,0,2,1,3,1,1,1
124162051,96664643,34.033727299999995,108.76369659999999,-1.8977942,3.1255524,0.042308595,0.41876858,-0.16357535,0.0,0.197888,-0.018879753,-0.5025261,-0.49666288,0.32971656,-0.14711706,-0.03377322,0.8932497,-1.0661845,-1.7086352,-3.05797,0.08665951,442.85767,0.23943341,0.30872053,0.39033526,0.16107339,0.10279305,inf,inf,inf,inf,1,1,1,1,2,0,2,1,3,1,1,1
124261354,96664643,34.033727299999995,108.76369659999999,-1.8828777,3.128505,-0.0020402346,0.41876858,-0.16357535,0.0,0.17919448,-0.053708255,-0.56821454,-0.5550047,0.32971656,-0.14711706,-0.03377322,0.8021318,1.1990267,-1.8107119,-3.0516858,0.08665951,442.85767,0.28378224,0.31808576,0.39443308,0.16721936,0.104391746,inf,inf,inf,inf,1,1,1,1,2,0,2,1,3,1,1,1
124360694,96664643,34.033727299999995,108.76369659999999,-1.8718699,3.121985,-0.059090324,0.41876858,-0.16357535,0.0,0.13303445,-0.11283487,-0.6487526,-0.6344389,0.32971656,-0.14711706,-0.03377322,0.2121816,-2.622189,-2.233835,-3.0494976,0.08665951,442.85767,0.34083232,0.3076179,0.39186245,0.15872315,0.10294133,inf,inf,inf,inf,1,1,1,1,2,0,2,1,3,1,1,1
124460035,96664643,34.033727299999995,108.76369659999999,-1.8672954,3.1072977,-0.12581931,0.41876858,-0.16357535,0.0,0.057670034,-0.15058121,-0.716048,-0.7026463,0.32971656,-0.14711706,-0.03377322,0.35548452,-0.24871252,-2.1778278,-3.0497875,0.08665951,442.85767,0.4075613,0.31695995,0.39350525,0.16459928,0.10427677,inf,inf,inf,inf,1,1,1,1,2,0,2,1,3,1,1,1
124564342,96664643,34.033727299999995,108.76369659999999,-1.8709229,3.0913146,-0.20045179,0.41876858,-0.16357535,0.0,-0.04646789,-0.20225576,-0.77805656,-0.76285464,0.32971656,-0.14711706,-0.03377322,-1.951633,0.40481052,0.28903946,-3.052232,0.08665951,442.85767,0.4821938,0.30654833,0.39095846,0.1564606,0.10282457,inf,inf,inf,inf,1,1,1,1,2,0,2,1,3,1,1,1
124663682,96664643,34.033727299999995,108.76369659999999,-1.884562,3.0740712,-0.27578595,0.41876858,-0.16357535,0.0,-0.15669234,-0.2639456,-0.8362226,-0.81798935,0.32971656,-0.14711706,-0.03377322,-0.69559324,-1.2892679,-1.4157073,-3.053844,0.08665951,442.85767,0.55752796,0.31585974,0.39258802,0.16212724,0.104149476,inf,inf,inf,inf,1,1,1,1,2,0,2,1,3,1,1,1
124763151,96664643,34.033727299999995,108.76369659999999,-1.9057925,3.0581708,-0.3485473,0.41876858,-0.16357535,0.0,-0.2741304,-0.308764,-0.88416624,-0.8553304,0.32971656,-0.14711706,-0.03377322,-1.6911714,-1.4926465,-1.68655,-3.0551252,0.08665951,442.85767,0.6302893,0.3056199,0.390055,0.15448819,0.10270904,inf,inf,inf,inf,1,1,1,1,2,0,2,1,3,1,1,1
124867335,96664643,34.033727299999995,108.76369659999999,-1.93709,3.0389538,-0.42808303,0.41876858,-0.16357535,0.0,-0.35560924,-0.31525242,-0.94235444,-0.90188956,0.32971656,-0.14711706,-0.03377322,-0.1871659,0.8105816,-1.8956704,-3.0538118,0.08665951,442.85767,0.70982504,0.31490967,0.3941472,0.15999915,0.104289524,inf,inf,inf,inf,1,1,1,1,2,0,2,1,3,1,1,1
124966671,96664643,34.033727299999995,108.76369659999999,-1.9727354,3.022315,-0.51025015,0.41876858,-0.16357535,0.0,-0.40642297,-0.30372277,-0.97845745,-0.9292527,0.32971656,-0.14711706,-0.03377322,-0.5629225,0.45231462,0.05440225,-3.0517972,0.08665951,442.85767,0.7919922,0.30504343,0.39180696,0.15313865,0.10298824,inf,inf,inf,inf,1,1,1,1,2,0,2,1,3,1,1,1
125066011,96664643,34.033727299999995,108.76369659999999,-2.0138671,3.0041053,-0.5982962,0.41876858,-0.16357535,0.0,-0.44406953,-0.27497083,-0.98753905,-0.9347469,0.32971656,-0.14711706,-0.03377322,0.21873765,1.3428836,-1.6265624,-3.051198,0.08665951,442.85767,0.88003826,0.31435487,0.39346313,0.15850513,0.104326986,inf,inf,inf,inf,1,1,1,1,2,0,2,1,3,1,1,1
125165351,96664643,34.033727299999995,108.76369659999999,-2.0623379,2.990324,-0.69603574,0.41876858,-0.16357535,0.0,-0.43855676,-0.20751248,-0.9973865,-0.9505335,0.32971656,-0.14711706,-0.03377322,0.9724767,1.1954262,-1.4012111,-3.0509772,0.08665951,442.85767,0.9777777,0.30443338,0.39118257,0.1516886,0.10301919,inf,inf,inf,inf,1,1,1,1,2,0,2,1,3,1,1,1
125264705,96664643,34.033727299999995,108.76369659999999,-2.1143496,2.981625,-0.80053455,0.41876858,-0.16357535,0.0,-0.43578058,-0.13350916,-1.0071331,-0.97079486,0.32971656,-0.14711706,-0.03377322,1.2614018,1.880958,-1.1454445,-3.0505185,0.08665951,442.85767,1.0822766,0.31374723,0.39283928,0.15682985,0.10431947,inf,inf,inf,inf,1,1,1,1,2,0,2,1,3,1,1,1
125359068,96664643,34.033727299999995,108.76369659999999,-2.160849,2.9802995,-0.90227264,0.41876858,-0.16357535,0.0,-0.43178597,-0.059637483,-1.0161628,-0.98964953,0.32971656,-0.14711706,-0.03377322,-0.9565577,0.60349905,0.3364338,-3.0509365,0.08665951,442.85767,1.1840147,0.30399492,0.3898047,0.14959356,0.10275735,inf,inf,inf,inf,1,1,1,1,2,0,2,1,3,1,1,1
125468339,96664643,34.033727299999995,108.76369659999999,-2.211879,2.988373,-1.0234625,0.41876858,-0.16357535,0.0,-0.4166814,0.03302333,-1.0317035,-1.0170367,0.32971656,-0.14711706,-0.03377322,1.1385641,2.2336059,-0.86307734,-3.0512297,0.08665951,442.85767,1.3052045,0.3142056,0.3921077,0.15510674,0.104234144,inf,inf,inf,inf,1,1,1,1,2,0,2,1,3,1,1,1
125567814,96664643,34.033727299999995,108.76369659999999,-2.250196,3.004734,-1.1358865,0.41876858,-0.16357535,0.0,-0.39631596,0.11155593,-1.0512238,-1.0466293,0.32971656,-0.14711706,-0.03377322,1.9136275,1.7078651,-0.9406434,-3.051369,0.08665951,442.85767,1.4176285,0.30396628,0.38979292,0.14848854,0.102900274,inf,inf,inf,inf,1,1,1,1,2,0,2,1,3,1,1,1
125667020,96664643,34.033727299999995,108.76369659999999,-2.282246,3.028646,-1.2490953,0.41876858,-0.16357535,0.0,-0.37626526,0.17419292,-1.0388539,-1.0429038,0.32971656,-0.14711706,-0.03377322,2.0875425,1.6538666,-0.6506736,-3.0531707,0.08665951,442.85767,1.5308373,0.3132434,0.39393127,0.15340957,0.104461245,inf,inf,inf,inf,1,1,1,1,2,0,2,1,3,1,1,1
125766359,96664643,34.033727299999995,108.76369659999999,-2.3150613,3.052382,-1.3590056,0.41876858,-0.16357535,0.0,-0.3464898,0.2003644,-0.9093237,-0.92467636,0.32971656,-0.14711706,-0.03377322,-1.159169,-1.1081567,2.8445568,-3.0432355,0.08665951,442.85767,1.6407475,0.30375013,0.39200962,0.14783219,0.10339397,inf,inf,inf,inf,1,1,1,1,2,0,2,1,3,1,1,0
125865700,96664643,34.033727299999995,108.76369659999999,-2.3472202,3.0764868,-1.4546051,0.41876858,-0.16357535,0.0,-0.3221594,0.24110363,-0.73758304,-0.76335305,0.32971656,-0.14711706,-0.03377322,1.1067456,0.63914174,1.4759132,-3.0284772,0.08665951,442.85767,1.7363471,0.31307468,0.39370772,0.15257971,0.10468308,inf,inf,inf,inf,1,1,1,1,2,0,2,1,3,1,1,0
125965040,96664643,34.033727299999995,108.76369659999999,-2.3824217,3.100995,-1.5320584,0.41876858,-0.16357535,0.0,-0.29715052,0.25588208,-0.55162376,-0.5869763,0.32971656,-0.14711706,-0.03377322,-0.07930254,2.6257594,2.2667108,-2.9635928,0.053357307,442.85767,1.8138003,0.30318758,0.39156628,0.14559662,0.10343872,inf,inf,inf,inf,1,1,1,1,2,0,2,1,4,1,1,0
126064426,96664643,34.033727299999995,108.76369659999999,-2.4178898,3.1249075,-1.5909638,0.41876858,-0.16357535,0.0,-0.25877464,0.26505432,-0.36519724,-0.4085417,0.32971656,-0.14711706,-0.03377322,0.11245506,2.6969092,2.641712,-2.9498663,0.053357307,442.85767,1.8727058,0.31241462,0.3932715,0.14946337,0.104725555,inf,inf,inf,inf,1,1,1,1,2,0,2,1,4,1,1,0
126163721,96664643,34.033727299999995,108.76369659999999,-2.4478965,3.1496558,-1.6286912,0.41876858,-0.16357535,0.0,-0.22441013,0.2458793,-0.14698797,-0.19656171,0.32971656,-0.14711706,-0.03377322,-0.6582589,-2.965404,3.2895749,-2.9339104,0.053357307,442.85767,1.9104332,0.3018234,0.39068523,0.14253946,0.103223875,inf,inf,inf,inf,1,1,1,1,2,0,2,1,4,1,1,0
126263063,96664643,34.033727299999995,108.76369659999999,-2.4727955,3.174619,-1.6435637,0.41876858,-0.16357535,0.0,-0.18431295,0.24427536,0.07912147,0.024510507,0.32971656,-0.14711706,-0.03377322,1.4652848,0.108411126,1.699378,-2.9207823,0.053357307,442.85767,1.9253057,0.31082514,0.39236635,0.14716072,0.10455358,inf,inf,inf,inf,1,1,1,1,2,0,2,1,4,1,1,0
126362512,96664643,34.033727299999995,108.76369659999999,-2.4961967,3.1937356,-1.6345078,0.41876858,-0.16357535,0.0,-0.14718741,0.23151161,0.28327212,0.22609934,0.32971656,-0.14711706,-0.03377322,-0.29181433,1.1677624,2.6153238,-2.9112506,0.053357307,442.85767,1.9162498,0.30054048,0.39225206,0.14133023,0.103374556,inf,inf,inf,inf,1,1,1,1,2,0,2,1,4,1,1,0
126461742,96664643,34.033727299999995,108.76369659999999,-2.5164204,3.2079105,-1.6065782,0.41876858,-0.16357535,0.0,-0.100033365,0.20329235,0.4193018,0.36186978,0.32971656,-0.14711706,-0.03377322,-0.69855493,-0.9979172,1.7869205,-2.9049208,0.053357307,442.85767,1.8883202,0.3093627,0.39395982,0.14642385,0.10474836,inf,inf,inf,inf,1,1,1,1,2,0,2,1,4,1,1,0
126561090,96664643,34.033727299999995,108.76369659999999,-2.5302846,3.2181926,-1.5679578,0.41876858,-0.16357535,0.0,-0.047320113,0.17766233,0.5053681,0.44719914,0.32971656,-0.14711706,-0.03377322,0.07865711,-1.0439866,2.3481767,-2.902274,0.053357307,442.85767,1.8496997,0.2992254,0.3913807,0.14126034,0.1033343,inf,inf,inf,inf,1,1,1,1,2,0,2,1,4,1,1,0
126665389,96664643,34.033727299999995,108.76369659999999,-2.537275,3.2257633,-1.5215278,0.41876858,-0.16357535,0.0,0.015619042,0.1470551,0.5390983,0.47972625,0.32971656,-0.14711706,-0.03377322,-0.14255883,-0.5428674,1.224743,-2.903305,0.053357307,442.85767,1.8032697,0.3079052,0.39306778,0.147096,0.104746304,inf,inf,inf,inf,1,1,1,1,2,0,2,1,4,1,1,0
126764730,96664643,34.033727299999995,108.76369659999999,-2.5371451,3.2317514,-1.4745929,0.41876858,-0.16357535,0.0,0.08139542,0.118192874,0.52722126,0.46853697,0.32971656,-0.14711706,-0.03377322,2.2674513,-2.2321172,-0.8073892,-2.9060462,0.053357307,442.85767,1.7563349,0.2978911,0.39051223,0.14246985,0.103368305,inf,inf,inf,inf,1,1,1,1,2,0,2,1,4,1,1,0
126864070,96664643,34.033727299999995,108.76369659999999,-2.5314474,3.2369373,-1.4273905,0.41876858,-0.16357535,0.0,0.122516625,0.10257776,0.48946765,0.43373176,0.32971656,-0.14711706,-0.03377322,1.935978,1.6010685,-2.3376744,-2.9101439,0.053357307,442.85767,1.7091324,0.30646977,0.39219669,0.1490865,0.10482641,inf,inf,inf,inf,1,1,1,1,2,0,2,1,4,1,1,0
126963410,96664643,34.033727299999995,108.76369659999999,-2.520279,3.2441733,-1.38485,0.41876858,-0.16357535,0.0,0.1582745,0.07927919,0.41406733,0.36168954,0.32971656,-0.14711706,-0.03377322,1.615844,0.15901363,-1.777506,-2.9147403,0.053357307,442.85767,1.666592,0.29704165,0.3900192,0.14545107,0.10371555,inf,inf,inf,inf,1,1,1,1,2,0,2,1,4,1,1,0
127062751,96664643,34.033727299999995,108.76369659999999,-2.5050743,3.2528207,-1.3513309,0.41876858,-0.16357535,0.0,0.16928317,0.06361555,0.31732988,0.2682801,0.32971656,-0.14711706,-0.03377322,-1.127556,-3.197886,0.79322946,-2.9199183,0.053357307,442.85767,1.6330729,0.30563387,0.3941893,0.15243177,0.10547425,inf,inf,inf,inf,1,1,1,1,2,0,2,1,4,1,1,0
127162114,96664643,34.033727299999995,108.76369659999999,-2.4885368,3.2575688,-1.3356061,0.41876858,-0.16357535,0.0,0.1723069,0.053139053,0.22240865,0.16820255,0.32971656,-0.14711706,-0.03377322,-0.9765393,-0.59276104,-0.858767,-2.924804,0.053357307,442.85767,1.6173481,0.29568836,0.39161244,0.1478549,0.10411269,inf,inf,inf,inf,1,1,1,1,2,0,2,1,4,1,1,0
127266399,96664643,34.033727299999995,108.76369659999999,-2.4711466,3.2594986,-1.3314561,0.41876858,-0.16357535,0.0,0.17067176,0.047864478,0.16905935,0.10572557,0.32971656,-0.14711706,-0.03377322,0.49022758,1.8293281,0.59725773,-2.928493,0.053357307,442.85767,1.613198,0.30425438,0.39331234,0.15506482,0.10563012,inf,inf,inf,inf,1,1,1,1,2,0,2,1,4,1,1,0
127365739,96664643,34.033727299999995,108.76369659999999,-2.4534073,3.265736,-1.3287332,0.41876858,-0.16357535,0.0,0.1601143,0.037015446,0.14924762,0.08069058,0.32971656,-0.14711706,-0.03377322,-1.0350631,0.12823829,0.6719902,-2.9316626,0.053357307,442.85767,1.6104752,0.29440096,0.39074105,0.15010442,0.10426997,inf,inf,inf,inf,1,1,1,1,2,0,2,1,4,1,1,0
127465265,96664643,34.033727299999995,108.76369659999999,-2.435883,3.2751105,-1.3249959,0.41876858,-0.16357535,0.0,0.14453211,0.027456459,0.1475299,0.07662616,0.32971656,-0.14711706,-0.03377322,-1.5718775,-2.7981167,0.92777574,-2.9336162,0.053357307,442.85767,1.6067379,0.30297598,0.3924335,0.15735082,0.10580454,inf,inf,inf,inf,1,1,1,1,2,0,2,1,4,1,1,0
127564419,96664643,34.033727299999995,108.76369659999999,-2.419549,3.2819843,-1.3164219,0.41876858,-0.16357535,0.0,0.13880762,0.01806378,0.15027352,0.081678934,0.32971656,-0.14711706,-0.03377322,1.109084,-0.98567283,-0.11773241,-2.9347165,0.053357307,442.85767,1.5981638,0.29319045,0.39232552,0.1518149,0.104693435,inf,inf,inf,inf,1,1,1,1,2,0,2,1,4,1,1,0
127663762,96664643,34.033727299999995,108.76369659999999,-2.4047024,3.286415,-1.3049233,0.41876858,-0.16357535,0.0,0.13164,0.012495056,0.15010642,0.0858653,0.32971656,-0.14711706,-0.03377322,0.98579,-0.8823022,-1.3551899,-2.9355495,0.053357307,442.85767,1.5866653,0.30179524,0.3940273,0.15877953,0.10623466,inf,inf,inf,inf,1,1,1,1,2,0,2,1,4,1,1,0
127768067,96664643,34.033727299999995,108.76369659999999,-2.388392,3.2872505,-1.2879324,0.41876858,-0.16357535,0.0,0.11727467,-0.0026154565,0.16060323,0.10444975,0.32971656,-0.14711706,-0.03377322,-0.4733064,-0.013774639,1.3447381,-2.9363382,0.053357307,442.85767,1.5696744,0.2920583,0.39143488,0.15291841,0.104855135,inf,inf,inf,inf,1,1,1,1,2,0,2,1,4,1,1,0
127867408,96664643,34.033727299999995,108.76369659999999,-2.3727605,3.2851667,-1.2689505,0.41876858,-0.16357535,0.0,0.10541717,-0.011671753,0.1522543,0.10607001,0.32971656,-0.14711706,-0.03377322,-1.7464048,-0.03482608,0.9336155,-2.9367778,0.053357307,442.85767,1.5506924,0.3007094,0.39313215,0.15980186,0.10641283,inf,inf,inf,inf,1,1,1,1,2,0,2,1,4,1,1,0
127966936,96664643,34.033727299999995,108.76369659999999,-2.357519,3.2800107,-1.2538096,0.41876858,-0.16357535,0.0,0.096140966,-0.016616004,0.12921467,0.089449234,0.32971656,-0.14711706,-0.03377322,-1.7370093,1.0529613,0.6487657,-2.9372027,0.053357307,442.85767,1.5355515,0.2910337,0.39056954,0.15379606,0.105043866,inf,inf,inf,inf,1,1,1,1,2,0,2,1,4,1,1,0
128061123,96664643,34.033727299999995,108.76369659999999,-2.3442256,3.2734835,-1.2408793,0.41876858,-0.16357535,0.0,0.09092702,-0.034733854,0.10256655,0.06881898,0.32971656,-0.14711706,-0.03377322,1.0036715,0.11883506,-0.7716978,-2.936711,0.053357307,442.85767,1.5226213,0.2988406,0.39160392,0.15991512,0.106404394,inf,inf,inf,inf,1,1,1,1,2,0,2,1,4,1,1,0
128160463,96664643,34.033727299999995,108.76369659999999,-2.3309662,3.2654521,-1.2260777,0.41876858,-0.16357535,0.0,0.07764733,-0.02834804,0.08486332,0.059908893,0.32971656,-0.14711706,-0.03377322,0.79339594,4.290441,-0.8497085,-2.9366157,0.053357307,442.85767,1.5078197,0.28927368,0.39151055,0.15381056,0.10529805,inf,inf,inf,inf,1,1,1,1,2,0,2,1,4,1,1,0
128259804,96664643,34.033727299999995,108.76369659999999,-2.317788,3.2569814,-1.2132205,0.41876858,-0.16357535,0.0,0.0661678,-0.04251241,0.07285697,0.05549215,0.32971656,-0.14711706,-0.03377322,0.06503152,4.775182,0.010235182,-2.93614,0.053357307,442.85767,1.4949625,0.29798058,0.39323777,0.16048238,0.1068904,inf,inf,inf,inf,1,1,1,1,2,0,2,1,4,1,1,0
128369077,96664643,34.033727299999995,108.76369659999999,-2.3049061,3.247226,-1.2013328,0.41876858,-0.16357535,0.0,0.053949453,-0.04238645,0.05508232,0.04453338,0.32971656,-0.14711706,-0.03377322,-1.0607345,3.20594,0.6189142,-2.9351535,0.053357307,442.85767,1.4830748,0.28934464,0.3913441,0.1545689,0.10570697,inf,inf,inf,inf,1,1,1,1,2,0,2,1,4,1,1,0
128458483,96664643,34.033727299999995,108.76369659999999,-2.2953086,3.2393582,-1.1949257,0.41876858,-0.16357535,0.0,0.041031923,-0.0544031,0.042911753,0.03558199,0.32971656,-0.14711706,-0.03377322,-2.0943723,-0.346775,0.936989,-2.9341254,0.053357307,442.85767,1.4766676,0.29727337,0.39241418,0.16038188,0.1070948,inf,inf,inf,inf,1,1,1,1,2,0,2,1,4,1,1,0
128567772,96664643,34.033727299999995,108.76369659999999,-2.285972,3.2326539,-1.1843888,0.41876858,-0.16357535,0.0,0.03094941,-0.051839158,0.029968238,0.030097805,0.32971656,-0.14711706,-0.03377322,-1.1427505,-0.8986931,-0.38992333,-2.932819,0.053357307,442.85767,1.4661307,0.28865123,0.3905444,0.15429574,0.10590346,inf,inf,inf,inf,1,1,1,1,2,0,2,1,4,1,1,0
128667097,96664643,34.033727299999995,108.76369659999999,-2.2795284,3.228972,-1.1742549,0.41876858,-0.16357535,0.0,0.02482621,-0.037837677,0.024942955,0.031789415,0.32971656,-0.14711706,-0.03377322,0.33619317,3.1022317,-1.7180742,-2.931802,0.053357307,442.85767,1.4559969,0.29755932,0.39228615,0.16059205,0.10750886,inf,inf,inf,inf,1,1,1,1,2,0,2,1,4,1,1,0
128766546,96664643,34.033727299999995,108.76369659999999,-2.2763598,3.2252836,-1.1663415,0.41876858,-0.16357535,0.0,0.008215969,-0.0331222,0.025236303,0.035939816,0.32971656,-0.14711706,-0.03377322,-0.85565734,2.0224988,-0.014346769,-2.930729,0.053357307,442.85767,1.4480835,0.28807652,0.38975862,0.1538509,0.10610184,inf,inf,inf,inf,1,1,1,1,2,0,2,1,4,1,1,0
128865783,96664643,34.033727299999995,108.76369659999999,-2.275615,3.221769,-1.1594503,0.41876858,-0.16357535,0.0,-0.007070381,-0.04112228,0.020899862,0.034742415,0.32971656,-0.14711706,-0.03377322,-2.0924253,-1.5672853,1.4792981,-2.928609,0.053357307,442.85767,1.4411923,0.29704976,0.39149368,0.15991299,0.1077049,inf,inf,inf,inf,1,1,1,1,2,0,2,1,4,1,1,0
128965118,96664643,34.033727299999995,108.76369659999999,-2.2750223,3.2179449,-1.1542966,0.41876858,-0.16357535,0.0,-0.014258334,-0.039099578,0.00439308,0.02043937,0.32971656,-0.14711706,-0.03377322,-1.839671,-1.9414682,0.7148086,-2.926093,0.053357307,442.85767,1.4360386,0.28734544,0.39139944,0.15283862,0.10651041,inf,inf,inf,inf,1,1,1,1,2,0,2,1,4,1,1,0
129069425,96664643,34.033727299999995,108.76369659999999,-2.2745497,3.2138643,-1.151508,0.41876858,-0.16357535,0.0,-0.021703707,-0.027548077,-0.0011575496,0.015590063,0.32971656,-0.14711706,-0.03377322,-0.66016394,0.90166324,1.2959644,-2.924323,0.053357307,442.85767,1.43325,0.29634523,0.39317635,0.15873893,0.10812545,inf,inf,inf,inf,1,1,1,1,2,0,2,1,4,1,1,0
129158835,96664643,34.033727299999995,108.76369659999999,-2.274577,3.2110105,-1.1473942,0.41876858,-0.16357535,0.0,-0.02309828,-0.041846074,-0.0062036146,0.012981564,0.32971656,-0.14711706,-0.03377322,0.6056892,-0.22428714,0.24007943,-2.9221177,0.053357307,442.85767,1.4291362,0.28594592,0.3899705,0.15140446,0.10647053,inf,inf,inf,inf,1,1,1,1,2,0,2,1,4,1,1,0
129268106,96664643,34.033727299999995,108.76369659999999,-2.275287,3.2076051,-1.1445433,0.41876858,-0.16357535,0.0,-0.023871437,-0.03516174,-0.014687626,0.005456959,0.32971656,-0.14711706,-0.03377322,1.5438733,0.8940028,-1.3746718,-2.9202826,0.053357307,442.85767,1.4262853,0.29585826,0.3924175,0.15784511,0.10831479,inf,inf,inf,inf,1,1,1,1,2,0,2,1,4,1,1,0
129367448,96664643,34.033727299999995,108.76369659999999,-2.2755985,3.2041037,-1.1412742,0.41876858,-0.16357535,0.0,-0.032402214,-0.03873616,-0.011090444,0.010753232,0.32971656,-0.14711706,-0.03377322,0.13595851,0.99096286,1.0083255,-2.919389,0.053357307,442.85767,1.4230162,0.2862822,0.38989058,0.15105169,0.106856614,inf,inf,inf,inf,1,1,1,1,2,0,2,1,4,1,1,0
129466787,96664643,34.033727299999995,108.76369659999999,-2.275936,3.1998963,-1.1370423,0.41876858,-0.16357535,0.0,-0.03054524,-0.03949103,-0.015055704,0.0094648935,0.32971656,-0.14711706,-0.03377322,0.7260159,-0.7322459,0.33007464,-2.9185033,0.053357307,442.85767,1.4187843,0.29536185,0.39168125,0.15659378,0.10847228,inf,inf,inf,inf,1,1,1,1,2,0,2,1,4,1,1,0
129566204,96664643,34.033727299999995,108.76369659999999,-2.2764919,3.1972835,-1.1344211,0.41876858,-0.16357535,0.0,-0.026166974,-0.04545848,-0.022453124,0.0031427601,0.32971656,-0.14711706,-0.03377322,2.4507146,1.063643,-2.0011163,-2.9183412,0.053357307,442.85767,1.4161631,0.28578213,0.38916478,0.14980443,0.106991306,inf,inf,inf,inf,1,1,1,1,2,0,2,1,4,1,1,0
129665467,96664643,34.033727299999995,108.76369659999999,-2.2773144,3.1948946,-1.1321087,0.41876858,-0.16357535,0.0,-0.027172057,-0.032892548,-0.023395663,0.0032198436,0.32971656,-0.14711706,-0.03377322,1.3420755,3.5716536,-0.61751306,-2.9199922,0.053357307,442.85767,1.4138507,0.2948807,0.3909579,0.1552035,0.10860258,inf,inf,inf,inf,1,1,1,1,2,0,2,1,4,1,1,0
129764808,96664643,34.033727299999995,108.76369659999999,-2.277347,3.1943648,-1.1301346,0.41876858,-0.16357535,0.0,-0.025555607,-0.053490832,-0.023355082,0.004451476,0.32971656,-0.14711706,-0.03377322,-1.2055032,0.0724425,1.2517079,-2.9230275,0.053357307,442.85767,1.4118766,0.28526852,0.3908743,0.1485244,0.1073657,inf,inf,inf,inf,1,1,1,1,2,0,2,1,4,1,1,0
129864148,96664643,34.033727299999995,108.76369659999999,-2.2771122,3.1944344,-1.1300979,0.41876858,-0.16357535,0.0,-0.022722544,-0.0487932,-0.030110694,-0.0026397398,0.32971656,-0.14711706,-0.03377322,-1.2282618,-0.84532815,0.29278025,-2.9263678,0.053357307,442.85767,1.4118398,0.29437554,0.39270362,0.1537572,0.10898042,inf,inf,inf,inf,1,1,1,1,2,0,2,1,4,1,1,0
129963489,96664643,34.033727299999995,108.76369659999999,-2.2738001,3.195917,-1.130437,0.41876858,-0.16357535,0.0,-0.006830627,-0.052144013,-0.03273668,-0.005957333,0.32971656,-0.14711706,-0.03377322,1.2245071,-0.62077624,-1.3386717,-2.9310133,0.053357307,442.85767,1.412179,0.2847699,0.39016742,0.1471834,0.10746076,inf,inf,inf,inf,1,1,1,1,2,0,2,1,4,1,1,0
130062830,96664643,34.033727299999995,108.76369659999999,-2.2694087,3.1972065,-1.1315838,0.41876858,-0.16357535,0.0,-0.0022473743,-0.04369015,-0.031227168,-0.005978192,0.32971656,-0.14711706,-0.03377322,1.0471712,2.4661388,-1.202366,-2.9368615,0.053357307,442.85767,1.4133258,0.29387578,0.39199856,0.15229885,0.10906595,inf,inf,inf,inf,1,1,1,1,2,0,2,1,4,1,1,0
130167136,96664643,34.033727299999995,108.76369659999999,-2.2641826,3.1977024,-1.1314907,0.41876858,-0.16357535,0.0,0.0061880876,-0.055730943,-0.027549924,-0.0022039246,0.32971656,-0.14711706,-0.03377322,1.8863825,0.11501528,-0.7679635,-2.9422119,0.053357307,442.85767,1.4132327,0.2840993,0.38944864,0.14562868,0.10750238,inf,inf,inf,inf,1,1,1,1,2,0,2,1,4,1,1,0
130266478,96664643,34.033727299999995,108.76369659999999,-2.2577908,3.1984763,-1.1292756,0.41876858,-0.16357535,0.0,0.0039221966,-0.04988873,-0.023931177,0.0029708715,0.32971656,-0.14711706,-0.03377322,0.05583524,-0.74553984,-0.84623563,-2.947255,0.053357307,442.85767,1.4110175,0.29317304,0.39127907,0.15060435,0.1091003,inf,inf,inf,inf,1,1,1,1,2,0,2,1,4,1,1,0
130365858,96664643,34.033727299999995,108.76369659999999,-2.2520525,3.198661,-1.1254967,0.41876858,-0.16357535,0.0,0.012449992,-0.053013906,-0.019921219,0.009425027,0.32971656,-0.14711706,-0.03377322,2.2592578,-0.6314497,-1.3007586,-2.9508352,0.053357307,442.85767,1.4072387,0.28368497,0.38876188,0.14445645,0.10756573,inf,inf,inf,inf,1,1,1,1,2,0,2,1,4,1,1,0
130465157,96664643,34.033727299999995,108.76369659999999,-2.247295,3.1978557,-1.1203034,0.41876858,-0.16357535,0.0,0.007481075,-0.061601333,-0.019712642,0.012931217,0.32971656,-0.14711706,-0.03377322,1.4283786,0.9110976,-1.7089412,-2.9538972,0.053357307,442.85767,1.4020454,0.29275027,0.39306533,0.14932536,0.109423414,inf,inf,inf,inf,1,1,1,1,2,0,2,1,4,1,1,0
130564499,96664643,34.033727299999995,108.76369659999999,-2.2421212,3.1966734,-1.1176257,0.41876858,-0.16357535,0.0,0.010425952,-0.055772364,-0.027289854,0.0061413236,0.32971656,-0.14711706,-0.03377322,0.74661225,-2.3928962,-1.0378803,-2.9545376,0.053357307,442.85767,1.3993677,0.28332898,0.39051658,0.14316523,0.107857525,inf,inf,inf,inf,1,1,1,1,2,0,2,1,4,1,1,0
130664020,96664643,34.033727299999995,108.76369659999999,-2.2372942,3.194536,-1.116934,0.41876858,-0.16357535,0.0,0.011816182,-0.05956754,-0.026538523,0.0062135775,0.32971656,-0.14711706,-0.03377322,1.9960748,1.1093388,-1.7077622,-2.9547818,0.053357307,442.85767,1.3986759,0.2923773,0.392391,0.1479682,0.10944886,inf,inf,inf,inf,1,1,1,1,2,0,2,1,4,1,1,0
130758211,96664643,34.033727299999995,108.76369659999999,-2.233537,3.1907601,-1.1182314,0.41876858,-0.16357535,0.0,0.003099213,-0.06130702,-0.02832743,0.0024856203,0.32971656,-0.14711706,-0.03377322,0.50020826,1.0088334,0.7737701,-2.9542947,0.053357307,442.85767,1.3999734,0.28202698,0.38916725,0.14139983,0.10764387,inf,inf,inf,inf,1,1,1,1,2,0,2,1,4,1,1,0
130867487,96664643,34.033727299999995,108.76369659999999,-2.2298021,3.1846147,-1.1204587,0.41876858,-0.16357535,0.0,-0.0043085576,-0.0770019,-0.022639476,0.005339208,0.32971656,-0.14711706,-0.03377322,-0.8228576,-1.7606499,1.0879287,-2.9529724,0.053357307,442.85767,1.4022007,0.29191366,0.3917153,0.14674081,0.10944851,inf,inf,inf,inf,1,1,1,1,2,0,2,1,4,1,1,0
130966826,96664643,34.033727299999995,108.76369659999999,-2.2269573,3.177375,-1.1216314,0.41876858,-0.16357535,0.0,-0.0033675353,-0.0786187,-0.020334754,0.0055206725,0.32971656,-0.14711706,-0.03377322,1.2233413,-0.16225757,-0.21649604,-2.9513085,0.053357307,442.85767,1.4033734,0.28256476,0.38918182,0.1408615,0.10786186,inf,inf,inf,inf,1,1,1,1,2,0,2,1,4,1,1,0
131066166,96664643,34.033727299999995,108.76369659999999,-2.2254534,3.1689363,-1.1234342,0.41876858,-0.16357535,0.0,-0.013222632,-0.09462871,-0.007483464,0.014954052,0.32971656,-0.14711706,-0.03377322,-0.50823903,-3.908215,-0.05904404,-2.9492917,0.053357307,442.85767,1.4051762,0.2915606,0.39106134,0.1455038,0.10943351,inf,inf,inf,inf,1,1,1,1,2,0,2,1,4,1,1,0
131165571,96664643,34.033727299999995,108.76369659999999,-2.221961,3.1619225,-1.1241355,0.41876858,-0.16357535,0.0,-0.015674448,-0.10139576,-0.0023373622,0.017303009,0.32971656,-0.14711706,-0.03377322,0.639224,-3.1470041,-0.22668903,-2.947555,0.053357307,442.85767,1.4058775,0.28209066,0.390952,0.13961755,0.10807818,inf,inf,inf,inf,1,1,1,1,2,0,2,1,4,1,1,0
131264849,96664643,34.033727299999995,108.76369659999999,-2.2177565,3.1562908,-1.1250101,0.41876858,-0.16357535,0.0,-0.017982062,-0.090065084,-0.0025234064,0.014212881,0.32971656,-0.14711706,-0.03377322,0.056896616,0.28448594,-0.24263903,-2.9472744,0.053357307,442.85767,1.4067521,0.29104483,0.39286354,0.14416228,0.10964488,inf,inf,inf,inf,1,1,1,1,2,0,2,1,4,1,1,0
131364188,96664643,34.033727299999995,108.76369659999999,-2.2115686,3.1508486,-1.1264684,0.41876858,-0.16357535,0.0,-0.019247064,-0.098396,0.0016220185,0.014958005,0.32971656,-0.14711706,-0.03377322,-0.35840118,-1.7718961,0.32020986,-2.9464886,0.053357307,442.85767,1.4082104,0.28159997,0.3902978,0.13846014,0.10801527,inf,inf,inf,inf,1,1,1,1,2,0,2,1,4,1,1,0
131463671,96664643,34.033727299999995,108.76369659999999,-2.2045162,3.145596,-1.127087,0.41876858,-0.16357535,0.0,-0.022307526,-0.09895144,0.0022605855,0.0132967625,0.32971656,-0.14711706,-0.03377322,0.9416035,-0.3989085,0.20805824,-2.945505,0.053357307,442.85767,1.408829,0.29051194,0.39221352,0.14299446,0.10957601,inf,inf,inf,inf,1,1,1,1,2,0,2,1,4,1,1,0
131562868,96664643,34.033727299999995,108.76369659999999,-2.1975026,3.1414802,-1.1280147,0.41876858,-0.16357535,0.0,-0.028691363,-0.08282955,-0.004794335,0.004181868,0.32971656,-0.14711706,-0.03377322,-0.47642654,0.9721786,-0.21934757,-2.9454188,0.053357307,442.85767,1.4097567,0.28112578,0.38965508,0.13742183,0.10793834,inf,inf,inf,inf,1,1,1,1,2,0,2,1,4,1,1,0
131662218,96664643,34.033727299999995,108.76369659999999,-2.1909866,3.1376524,-1.1310599,0.41876858,-0.16357535,0.0,-0.031786945,-0.082113355,-0.011251231,-0.005539583,0.32971656,-0.14711706,-0.03377322,0.44493148,-1.6418058,0.049097862,-2.9455874,0.053357307,442.85767,1.4128019,0.28999674,0.39155686,0.14194833,0.109488755,inf,inf,inf,inf,1,1,1,1,2,0,2,1,4,1,1,0
131766516,96664643,34.033727299999995,108.76369659999999,-2.1862226,3.1340206,-1.136555,0.41876858,-0.16357535,0.0,-0.046491936,-0.07644594,-0.013934702,-0.012879846,0.32971656,-0.14711706,-0.03377322,-2.572375,-0.98704964,1.4547434,-2.9468284,0.053357307,442.85767,1.4182969,0.28066513,0.38900632,0.13653843,0.10785002,inf,inf,inf,inf,1,1,1,1,2,0,2,1,4,1,1,0
131865856,96664643,34.033727299999995,108.76369659999999,-2.1830912,3.1308768,-1.142901,0.41876858,-0.16357535,0.0,-0.046297457,-0.061539616,-0.015169424,-0.018697433,0.32971656,-0.14711706,-0.03377322,-0.8355401,0.60257006,1.0217477,-2.947892,0.053357307,442.85767,1.4246429,0.28949764,0.39337164,0.14105242,0.10966273,inf,inf,inf,inf,1,1,1,1,2,0,2,1,4,1,1,0
131965202,96664643,34.033727299999995,108.76369659999999,-2.1800778,3.1302388,-1.1493716,0.41876858,-0.16357535,0.0,-0.058977753,-0.062730476,-0.007282191,-0.015252979,0.32971656,-0.14711706,-0.03377322,-2.1195328,-2.4232008,1.7701629,-2.9489152,0.053357307,442.85767,1.4311136,0.28024462,0.3907806,0.13590448,0.10801907,inf,inf,inf,inf,1,1,1,1,2,0,2,1,4,1,1,0
132069504,96664643,34.033727299999995,108.76369659999999,-2.1780944,3.1315613,-1.154064,0.41876858,-0.16357535,0.0,-0.054231968,-0.042643294,-0.0053544636,-0.016235465,0.32971656,-0.14711706,-0.03377322,1.6288053,1.0745492,-0.60598505,-2.9502478,0.053357307,442.85767,1.435806,0.28904453,0.3927228,0.14037153,0.1095592,inf,inf,inf,inf,1,1,1,1,2,0,2,1,4,1,1,0
132158915,96664643,34.033727299999995,108.76369659999999,-2.1754777,3.1334894,-1.1583233,0.41876858,-0.16357535,0.0,-0.06288928,-0.03406425,0.0036355692,-0.010398238,0.32971656,-0.14711706,-0.03377322,0.3225648,3.2408469,0.245832,-2.9514668,0.053357307,442.85767,1.4400653,0.27905408,0.38947552,0.13470186,0.10769381,inf,inf,inf,inf,1,1,1,1,2,0,2,1,4,1,1,0
132268316,96664643,34.033727299999995,108.76369659999999,-2.1714003,3.1368678,-1.1605232,0.41876858,-0.16357535,0.0,-0.064838715,-0.02333033,0.014918016,-0.00043363322,0.32971656,-0.14711706,-0.03377322,0.95732385,1.6748538,0.6406126,-2.9513123,0.053357307,442.85767,1.4422652,0.28867108,0.39209142,0.13977169,0.1094432,inf,inf,inf,inf,1,1,1,1,2,0,2,1,4,1,1,0
132357591,96664643,34.033727299999995,108.76369659999999,-2.1675932,3.1394503,-1.1602347,0.41876858,-0.16357535,0.0,-0.07612609,-0.0328534,0.02593216,0.010830219,0.32971656,-0.14711706,-0.03377322,-1.9494175,1.1756636,1.5981892,-2.9517875,0.053357307,442.85767,1.4419767,0.27874455,0.38885993,0.13418716,0.10757882,inf,inf,inf,inf,1,1,1,1,2,0,2,1,4,1,1,0
132466865,96664643,34.033727299999995,108.76369659999999,-2.1623478,3.1430361,-1.1576729,0.41876858,-0.16357535,0.0,-0.06902931,-0.022083668,0.032848924,0.019390495,0.32971656,-0.14711706,-0.03377322,0.42664093,1.8099685,1.3657227,-2.95182,0.053357307,442.85767,1.4394149,0.28832617,0.39145806,0.13902922,0.109294824,inf,inf,inf,inf,1,1,1,1,2,0,2,1,4,1,1,0
132566206,96664643,34.033727299999995,108.76369659999999,-2.1572025,3.1462379,-1.1543792,0.41876858,-0.16357535,0.0,-0.07585719,-0.029655108,0.039767884,0.02756654,0.32971656,-0.14711706,-0.03377322,-1.3867954,1.5113475,1.2392961,-2.9521928,0.053357307,442.85767,1.4361212,0.2793648,0.38890645,0.13400663,0.10763482,inf,inf,inf,inf,1,1,1,1,2,0,2,1,4,1,1,0
132665546,96664643,34.033727299999995,108.76369659999999,-2.1522179,3.1494918,-1.1519368,0.41876858,-0.16357535,0.0,-0.07720835,-0.027623555,0.037177153,0.02492224,0.32971656,-0.14711706,-0.03377322,0.18740457,3.7276635,-0.24805564,-2.9521644,0.053357307,442.85767,1.4336787,0.28807244,0.3932909,0.13842505,0.10941135,inf,inf,inf,inf,1,1,1,1,2,0,2,1,4,1,1,0
132764883,96664643,34.033727299999995,108.76369659999999,-2.1491807,3.1523883,-1.1513529,0.41876858,-0.16357535,0.0,-0.07953654,-0.039253425,0.031165596,0.01738638,0.32971656,-0.14711706,-0.03377322,-0.32618225,-0.9049008,-0.3320288,-2.952168,0.053357307,442.85767,1.4330949,0.27921638,0.3906991,0.13354366,0.107743554,inf,inf,inf,inf,1,1,1,1,2,0,2,1,4,1,1,0
132864269,96664643,34.033727299999995,108.76369659999999,-2.147829,3.1543877,-1.1489253,0.41876858,-0.16357535,0.0,-0.07991518,-0.039539963,0.025193911,0.012330001,0.32971656,-0.14711706,-0.03377322,-0.4028623,2.1534326,-0.5723219,-2.953488,0.053357307,442.85767,1.4306673,0.28790003,0.39264122,0.13800365,0.10924498,inf,inf,inf,inf,1,1,1,1,2,0,2,1,4,1,1,0
132963567,96664643,34.033727299999995,108.76369659999999,-2.1480908,3.156119,-1.1468076,0.41876858,-0.16357535,0.0,-0.0782355,-0.041434593,0.019420985,0.007412352,0.32971656,-0.14711706,-0.03377322,2.0511873,-0.47434363,-1.3398275,-2.9537668,0.053357307,442.85767,1.4285495,0.2791351,0.3900584,0.13323078,0.10758062,inf,inf,inf,inf,1,1,1,1,2,0,2,1,4,1,1,0
133063046,96664643,34.033727299999995,108.76369659999999,-2.1500645,3.1574116,-1.1449099,0.41876858,-0.16357535,0.0,-0.08970191,-0.057149325,0.021862404,0.010623057,0.32971656,-0.14711706,-0.03377322,1.0395217,-0.29133597,-1.2406471,-2.9544065,0.053357307,442.85767,1.4266518,0.28780055,0.39199805,0.13769796,0.10907159,inf,inf,inf,inf,1,1,1,1,2,0,2,1,4,1,1,0
133167215,96664643,34.033727299999995,108.76369659999999,-2.1516147,3.157394,-1.1432343,0.41876858,-0.16357535,0.0,-0.09888172,-0.057528175,0.026757622,0.01584118,0.32971656,-0.14711706,-0.03377322,-0.7449321,-1.1368175,0.6121767,-2.9551132,0.053357307,442.85767,1.4249762,0.27908474,0.38942415,0.1330031,0.10741219,inf,inf,inf,inf,1,1,1,1,2,0,2,1,4,1,1,0
133266555,96664643,34.033727299999995,108.76369659999999,-2.152618,3.1565864,-1.143035,0.41876858,-0.16357535,0.0,-0.1033516,-0.060975812,0.02118858,0.0094653675,0.32971656,-0.14711706,-0.03377322,-0.07692989,2.3861845,-0.48716423,-2.955098,0.053357307,442.85767,1.424777,0.28773403,0.39135182,0.13764645,0.108900055,inf,inf,inf,inf,1,1,1,1,2,0,2,1,4,1,1,0
133365895,96664643,34.033727299999995,108.76369659999999,-2.1565282,3.1537647,-1.1420035,0.41876858,-0.16357535,0.0,-0.09768366,-0.06510448,0.017857965,0.0062392633,0.32971656,-0.14711706,-0.03377322,2.3766408,1.8052455,-1.6625236,-2.952632,0.053357307,442.85767,1.4237455,0.27914184,0.38880283,0.13303064,0.10725718,inf,inf,inf,inf,1,1,1,1,2,0,2,1,4,1,1,0
133465237,96664643,34.033727299999995,108.76369659999999,-2.1631517,3.149502,-1.1415249,0.41876858,-0.16357535,0.0,-0.10052583,-0.08492458,0.022122292,0.009905215,0.32971656,-0.14711706,-0.03377322,0.627033,-1.0699921,-0.6934738,-2.950126,0.053357307,442.85767,1.4232669,0.28779104,0.39318562,0.13751458,0.10899917,inf,inf,inf,inf,1,1,1,1,2,0,2,1,4,1,1,0
133564579,96664643,34.033727299999995,108.76369659999999,-2.1682382,3.1452482,-1.1399146,0.41876858,-0.16357535,0.0,-0.107419,-0.08710258,0.022774035,0.011088638,0.32971656,-0.14711706,-0.03377322,0.26536557,0.6110306,-0.6629774,-2.9476275,0.053357307,442.85767,1.4216566,0.27917135,0.39059767,0.1328885,0.10733684,inf,inf,inf,inf,1,1,1,1,2,0,2,1,4,1,1,0
133668884,96664643,34.033727299999995,108.76369659999999,-2.1729164,3.1403828,-1.138849,0.41876858,-0.16357535,0.0,-0.107533805,-0.08120649,0.014772649,0.0031915137,0.32971656,-0.14711706,-0.03377322,0.47527066,3.326342,-0.87506235,-2.9446278,0.053357307,442.85767,1.420591,0.28780833,0.39254594,0.13737506,0.108802415,inf,inf,inf,inf,1,1,1,1,2,0,2,1,4,1,1,0
133758290,96664643,34.033727299999995,108.76369659999999,-2.1750116,3.1345696,-1.1368979,0.41876858,-0.16357535,0.0,-0.098496884,-0.09847765,0.01026173,0.00047466412,0.32971656,-0.14711706,-0.03377322,1.1751997,-0.40414676,-0.512129,-2.940389,0.053357307,442.85767,1.4186399,0.27838618,0.38928488,0.132308,0.106940486,inf,inf,inf,inf,1,1,1,1,2,0,2,1,4,1,1,0
133867629,96664643,34.033727299999995,108.76369659999999,-2.1758535,3.1256988,-1.1352127,0.41876858,-0.16357535,0.0,-0.09435585,-0.08507633,-0.000870547,-0.008552874,0.32971656,-0.14711706,-0.03377322,1.5175245,3.795822,-1.5439589,-2.9347055,0.053357307,442.85767,1.4169546,0.28785208,0.39189366,0.13752347,0.10861088,inf,inf,inf,inf,1,1,1,1,2,0,2,1,4,1,1,0
133966906,96664643,34.033727299999995,108.76369659999999,-2.1793647,3.1163836,-1.1369128,0.41876858,-0.16357535,0.0,-0.094106466,-0.07624224,-0.0140263,-0.022238446,0.32971656,-0.14711706,-0.03377322,-0.60105926,1.0375086,-0.2253559,-2.928624,0.053357307,442.85767,1.4186548,0.27925867,0.38930863,0.13295768,0.10695422,inf,inf,inf,inf,1,1,1,1,2,0,2,1,4,1,1,0
134066245,96664643,34.033727299999995,108.76369659999999,-2.1858962,3.110476,-1.1410553,0.41876858,-0.16357535,0.0,-0.10926801,-0.01673977,-0.017689079,-0.027426444,0.32971656,-0.14711706,-0.03377322,-0.35811114,2.494526,0.27716008,-2.9218209,0.053357307,442.85767,1.4227973,0.28788677,0.39368796,0.13752718,0.108675025,inf,inf,inf,inf,1,1,1,1,2,0,2,1,4,1,1,0
134165678,96664643,34.033727299999995,108.76369659999999,-2.1923769,3.11168,-1.1442177,0.41876858,-0.16357535,0.0,-0.11941995,0.081787966,-0.019017437,-0.028703956,0.32971656,-0.14711706,-0.03377322,-2.4184363,2.3763535,1.3836703,-2.917042,0.053357307,442.85767,1.4259597,0.27931955,0.3910661,0.13300547,0.107015945,inf,inf,inf,inf,1,1,1,1,2,0,2,1,4,1,1,0
134264927,96664643,34.033727299999995,108.76369659999999,-2.2004912,3.126492,-1.1469418,0.41876858,-0.16357535,0.0,-0.14136823,0.22890177,-0.020890474,-0.030230692,0.32971656,-0.14711706,-0.03377322,0.71083784,0.4982378,-1.024932,-2.9136002,0.053357307,442.85767,1.4286838,0.28794408,0.39300007,0.1375511,0.10845763,inf,inf,inf,inf,1,1,1,1,2,0,2,1,4,1,1,0
134364266,96664643,34.033727299999995,108.76369659999999,-2.2119815,3.1626914,-1.1515087,0.41876858,-0.16357535,0.0,-0.16889155,0.4693275,-0.023898935,-0.034991454,0.32971656,-0.14711706,-0.03377322,1.7215071,3.2753232,-1.2773713,-2.9136124,0.053357307,442.85767,1.4332507,0.27937067,0.39039096,0.13303238,0.106799886,inf,inf,inf,inf,1,1,1,1,2,0,2,1,4,1,1,0
134463648,96664643,34.033727299999995,108.76369659999999,-2.2265341,3.2220964,-1.1575181,0.41876858,-0.16357535,0.0,-0.18571648,0.6711798,-0.021265397,-0.034803692,0.32971656,-0.14711706,-0.03377322,-0.3283841,1.3919067,1.5974098,-2.918402,0.053357307,442.85767,1.4392601,0.28799155,0.3923006,0.13771236,0.10821902,inf,inf,inf,inf,1,1,1,1,2,0,2,1,4,1,1,0
134562950,96664643,34.033727299999995,108.76369659999999,-2.2408442,3.3071387,-1.1632838,0.41876858,-0.16357535,0.0,-0.20091787,0.91146064,-0.002392814,-0.01863179,0.32971656,-0.14711706,-0.03377322,0.583466,2.821383,0.55340636,-2.9252481,0.053357307,442.85767,1.4450258,0.2794422,0.3896976,0.13334768,0.106548846,inf,inf,inf,inf,1,1,1,1,2,0,2,1,4,1,1,0
134662308,96664643,34.033727299999995,108.76369659999999,-2.2560601,3.4145815,-1.1664381,0.41876858,-0.16357535,0.0,-0.19258136,1.0806619,0.021639409,0.0029566062,0.32971656,-0.14711706,-0.03377322,2.3498867,0.47662023,-1.3294078,-2.9251852,0.053357307,442.85767,1.4481801,0.28806317,0.39407164,0.1381454,0.108214766,inf,inf,inf,inf,1,1,1,1,2,0,2,1,4,1,1,0
134761627,96664643,34.033727299999995,108.76369659999999,-2.2700477,3.5266767,-1.1665015,0.41876858,-0.16357535,0.0,-0.1815278,1.183622,0.04647394,0.025823217,0.32971656,-0.14711706,-0.03377322,0.46312007,1.8342688,-0.84021133,-2.9266648,0.053357307,442.85767,1.4482435,0.27947515,0.3914348,0.13374071,0.10655328,inf,inf,inf,inf,1,1,1,1,2,0,2,1,4,1,1,0
134860968,96664643,34.033727299999995,108.76369659999999,-2.282257,3.638855,-1.1659833,0.41876858,-0.16357535,0.0,-0.16002986,1.2134545,0.053907633,0.030658772,0.32971656,-0.14711706,-0.03377322,0.960653,1.2448151,-1.046683,-2.9285011,0.053357307,442.85767,1.4477253,0.28809288,0.39332607,0.13845174,0.10796377,inf,inf,inf,inf,1,1,1,1,2,0,2,1,4,1,1,0
134960454,96664643,34.033727299999995,108.76369659999999,-2.2948346,3.7479503,-1.1663474,0.41876858,-0.16357535,0.0,-0.14076012,1.1533254,0.04477976,0.018638214,0.32971656,-0.14711706,-0.03377322,0.10850222,-0.43638745,-1.5416102,-2.9330635,0.053357307,442.85767,1.4480894,0.2793922,0.39068207,0.13370451,0.106304005,inf,inf,inf,inf,1,1,1,1,2,0,2,1,4,1,1,0
135064618,96664643,34.033727299999995,108.76369659999999,-2.307857,3.8505535,-1.1681818,0.41876858,-0.16357535,0.0,-0.112491705,1.0077826,0.020967156,-0.007500626,0.32971656,-0.14711706,-0.03377322,0.86978304,0.75551337,-1.4684749,-2.9395716,0.053357307,442.85767,1.4499238,0.28799868,0.3925561,0.13826081,0.107704245,inf,inf,inf,inf,1,1,1,1,2,0,2,1,4,1,1,0
135163959,96664643,34.033727299999995,108.76369659999999,-2.319624,3.9326353,-1.1690413,0.41876858,-0.16357535,0.0,-0.09495377,0.7837284,0.00027374498,-0.026562832,0.32971656,-0.14711706,-0.03377322,-0.5459908,-3.52892,1.1804078,-2.9464736,0.053357307,442.85767,1.4507833,0.27925268,0.38993877,0.13369279,0.106057584,inf,inf,inf,inf,1,1,1,1,2,0,2,1,4,1,1,0
135263297,96664643,34.033727299999995,108.76369659999999,-2.330939,3.9960527,-1.1706566,0.41876858,-0.16357535,0.0,-0.07695578,0.5781841,-0.03497461,-0.05799453,0.32971656,-0.14711706,-0.03377322,-0.6353867,-1.7296343,-0.1250538,-2.9508853,0.053357307,442.85767,1.4523985,0.2878617,0.39429194,0.13819656,0.10769877,inf,inf,inf,inf,1,1,1,1,2,0,2,1,4,1,1,0
135362636,96664643,34.033727299999995,108.76369659999999,-2.3388398,4.0359817,-1.1733816,0.41876858,-0.16357535,0.0,-0.05491804,0.3632019,-0.02156819,-0.0416453,0.32971656,-0.14711706,-0.03377322,0.012048581,1.5050024,-0.37571198,-2.9522362,0.053357307,442.85767,1.4551235,0.27915385,0.39165857,0.13352926,0.10602405,inf,inf,inf,inf,1,1,1,1,2,0,2,1,4,1,1,0
135462014,96664643,34.033727299999995,108.76369659999999,-2.3438203,4.05508,-1.1732918,0.41876858,-0.16357535,0.0,-0.028096491,0.19288778,0.01271987,-0.004741298,0.32971656,-0.14711706,-0.03377322,2.263633,2.2048717,-1.1297772,-2.9521554,0.053357307,442.85767,1.4550338,0.2877673,0.39354166,0.1381718,0.1073649,inf,inf,inf,inf,1,1,1,1,2,0,2,1,4,1,1,0
135566284,96664643,34.033727299999995,108.76369659999999,-2.3457813,4.0634212,-1.1745831,0.41876858,-0.16357535,0.0,-0.01960469,0.06605531,0.0519297,0.031561967,0.32971656,-0.14711706,-0.03377322,-1.4385834,-2.1958108,1.4915681,-2.9538124,0.053357307,442.85767,1.456325,0.27898145,0.39091754,0.13349438,0.10571004,inf,inf,inf,inf,1,1,1,1,2,0,2,1,4,1,1,0
135665625,96664643,34.033727299999995,108.76369659999999,-2.3457148,4.0647035,-1.1771537,0.41876858,-0.16357535,0.0,-0.01193066,0.017854705,0.07224997,0.0455677,0.32971656,-0.14711706,-0.03377322,-2.0048094,0.4740844,1.449167,-2.9560692,0.053357307,442.85767,1.4588957,0.28758448,0.39278093,0.13806736,0.107069075,inf,inf,inf,inf,1,1,1,1,2,0,2,1,4,1,1,0
135765101,96664643,34.033727299999995,108.76369659999999,-2.3408885,4.0688906,-1.1778976,0.41876858,-0.16357535,0.0,-0.0059295427,0.05544463,0.07447717,0.043023903,0.32971656,-0.14711706,-0.03377322,-1.183956,1.2868899,0.79931885,-2.9574788,0.053357307,442.85767,1.4596395,0.2787631,0.3901907,0.13354573,0.10547305,inf,inf,inf,inf,1,1,1,1,2,0,2,1,4,1,1,0
135859341,96664643,34.033727299999995,108.76369659999999,-2.3345559,4.080525,-1.1778454,0.41876858,-0.16357535,0.0,-0.014510293,0.14137387,0.07282753,0.03758891,0.32971656,-0.14711706,-0.03377322,-1.1897423,0.28704724,0.3265111,-2.9573514,0.053357307,442.85767,1.4595873,0.28647926,0.3938411,0.13769387,0.10693446,inf,inf,inf,inf,1,1,1,1,2,0,2,1,4,1,1,0
135968613,96664643,34.033727299999995,108.76369659999999,-2.3284006,4.1104884,-1.1759043,0.41876858,-0.16357535,0.0,-0.024616862,0.295775,0.0685076,0.031640906,0.32971656,-0.14711706,-0.03377322,0.06952132,0.6121056,-0.24932314,-2.957415,0.053357307,442.85767,1.4576463,0.2785418,0.38947135,0.13377427,0.10527439,inf,inf,inf,inf,1,1,1,1,2,0,2,1,4,1,1,0
136067958,96664643,34.033727299999995,108.76369659999999,-2.324841,4.151702,-1.1749737,0.41876858,-0.16357535,0.0,-0.054429077,0.41689238,0.06812001,0.029684128,0.32971656,-0.14711706,-0.03377322,-1.0505637,-2.264394,-0.7405784,-2.9558961,0.053357307,442.85767,1.4567157,0.2871551,0.3937974,0.13842283,0.10691866,inf,inf,inf,inf,1,1,1,1,2,0,2,1,4,1,1,0
136167294,96664643,34.033727299999995,108.76369659999999,-2.322748,4.2097993,-1.1736381,0.41876858,-0.16357535,0.0,-0.08496716,0.551734,0.06912313,0.02914058,0.32971656,-0.14711706,-0.03377322,-0.37099457,0.4373874,-0.6279432,-2.954551,0.053357307,442.85767,1.4553801,0.27837616,0.3912053,0.13388744,0.10533295,inf,inf,inf,inf,1,1,1,1,2,0,2,1,4,1,1,0
