timestamp,timestamp_sample,control[0],control[1],control[2],control[3],control[4],control[5],control[6],control[7]
382793211,382792956,-0.017942438,0.012442896,-0.0008479139,0.0,0.0,0.0,0.0,-1.0
382794449,382794203,-0.015797017,0.0137086725,-0.0011676501,0.0,0.0,0.0,0.0,-1.0
382893848,382893605,-0.013081663,0.027235085,-0.011463466,0.0,0.0,0.0,0.0,-1.0
382995530,382995281,-0.04138222,0.053753328,-0.0003810735,0.0,0.0,0.0,0.0,-1.0
383097320,383097066,-0.043362986,0.024527082,-0.016672343,0.0,0.0,0.0,0.0,-1.0
383195386,383195132,-0.08343025,0.028971951,-0.0034419138,0.0,0.0,0.0,0.0,-1.0
383295915,383295670,-0.023360558,0.014270572,0.011595824,0.0,0.0,0.0,0.0,-1.0
383393979,383393731,-0.016402809,0.010258897,-0.00060180336,0.0,0.0,0.0,0.0,-1.0
383495756,383495515,-0.0001556383,0.023336045,-0.0012528355,0.0,0.0,0.0,0.0,-1.0
383593820,383593576,-0.048443303,0.01505107,0.0012369923,0.0,0.0,0.0,0.0,-1.0
383695641,383695396,0.017557433,0.022469575,0.0016408386,0.0,0.0,0.0,0.0,-1.0
383797404,383797147,-0.06671713,0.01948535,-0.0022274675,0.0,0.0,0.0,0.0,-1.0
383894226,383893964,-0.024002424,0.007018322,0.004201503,0.0,0.0,0.0,0.0,-1.0
383996184,383995942,-0.0062421057,0.032243434,-0.0051011955,0.0,0.0,0.0,0.0,-1.0
384094054,384093810,-0.053702343,0.0047415374,-0.004102944,0.0,0.0,0.0,0.0,-1.0
384195838,384195594,0.029170843,0.015572947,0.006565202,0.0,0.0,0.0,0.0,-1.0
384293906,384293657,-0.041674558,0.019802501,-0.01040548,0.0,0.0,0.0,0.0,-1.0
384395687,384395440,-0.01111523,-3.7197045e-05,0.009038982,0.0149816405,0.0,0.0,0.0,-1.0
384496241,384495992,-0.047378834,0.04591326,-0.00853243,0.0374541,0.0,0.0,0.0,-1.0
384594308,384594061,-0.01880016,-0.0027321703,0.008852616,0.04494492,0.0,0.0,0.0,-1.0
384696069,384695828,-0.011177074,-0.014083297,0.016048199,0.04619339,0.0,0.0,0.0,-1.0
384794269,384794026,-0.028949084,-0.047591325,-0.001848854,0.04619339,0.0,0.0,0.0,-1.0
384895913,384895673,0.03518856,-0.03263184,0.005267753,0.04619339,0.0,0.0,0.0,-1.0
384993981,384993735,0.040600277,0.012954861,0.011515693,0.04619339,0.0,0.0,0.0,-1.0
385095774,385095519,0.10413047,0.08990458,0.008724985,0.04744186,0.0,0.0,0.0,-1.0
385196314,385196064,0.06013716,0.084419765,-0.0057835826,0.04494492,0.0,0.0,0.0,-1.0
385294370,385294123,0.071124226,0.03278534,-0.014535809,0.17789474,0.0,0.0,0.0,-1.0
385396184,385395938,-0.09743267,0.09019916,-0.00065933994,0.23157895,0.0,0.0,0.0,-1.0
385494223,385493969,0.14495966,-0.031343218,-0.0024598886,0.23473684,0.0,0.0,0.0,-1.0
385596110,385595868,0.1382008,-0.0768646,-0.005005703,0.23473684,0.0,0.0,0.0,-1.0
385694065,385693817,0.041292664,0.021684758,-0.0022239361,0.24105264,0.0,0.0,0.0,-1.0
385794609,385794357,0.03346264,-0.026388057,-0.0022658263,0.30105263,0.0,0.0,0.0,-1.0
385896391,385896142,0.09489206,0.011824392,-0.00070873636,0.3326316,0.0,0.0,0.0,-1.0
385994452,385994203,0.03259468,0.036675178,-0.0003745644,0.33473685,0.0,0.0,0.0,-1.0
386096234,386095987,-0.04409356,0.030523354,0.014633647,0.33473685,0.0,0.0,0.0,-1.0
386194305,386194050,-0.007539625,-0.043575473,-0.003080143,0.33578947,0.0,0.0,0.0,-1.0
386296071,386295832,-0.11765225,0.07706251,0.0036074107,0.3336842,0.0,0.0,0.0,-1.0
386394225,386393975,-0.019521814,-0.006294227,0.0011870515,0.4168421,0.0,0.0,0.0,-1.0
386494678,386494436,-0.03981573,0.031039013,-0.009458002,0.42000002,0.0,0.0,0.0,-1.0
386596479,386596224,0.004478909,0.02452037,-0.0009676137,0.46421054,0.0,0.0,0.0,-1.0
386694530,386694282,-0.046681557,0.015261272,-0.0040349313,0.48210526,0.0,0.0,0.0,-1.0
386796338,386796092,0.0017627164,-0.009549169,-0.012595543,0.50526315,0.0,0.0,0.0,-1.0
386894376,386894127,-0.019608371,-0.0077239065,0.0017493257,0.5141983,0.0,0.0,0.0,-1.0
386996151,386995911,-0.029131569,0.066584654,-0.010121903,0.5153978,0.0,0.0,0.0,-1.0
387094243,387093992,-0.026352352,-0.014248854,-0.009252703,0.51899636,0.0,0.0,0.0,-1.0
387194818,387194565,-0.0018928081,-0.056865882,-0.0065994873,0.5031579,0.0,0.0,0.0,-1.0
387296548,387296301,0.00023823563,0.005858697,-0.00031118377,0.52019584,0.0,0.0,0.0,-1.0
387394611,387394361,-0.06601975,-0.018238794,-0.005158927,0.53459,0.0,0.0,0.0,-1.0
387496394,387496148,-0.054361854,-0.007874412,-0.003275132,0.5537821,0.0,0.0,0.0,-1.0
387594476,387594226,-0.037957262,0.0070182486,-0.007390235,0.5717748,0.0,0.0,0.0,-1.0
387696255,387696012,-0.07286348,0.017769467,0.0059152422,0.57297426,0.0,0.0,0.0,-1.0
387794301,387794052,-0.02290955,0.06683575,-0.0044940347,0.58137083,0.0,0.0,0.0,-1.0
387894839,387894595,0.011235529,-0.04339884,-0.013421068,0.5837699,0.0,0.0,0.0,-1.0
387996649,387996402,0.006219971,-0.036113933,-0.02423357,0.5849694,0.0,0.0,0.0,-1.0
388094687,388094440,-0.03992101,-0.028542835,-0.03522791,0.5837699,0.0,0.0,0.0,-1.0
388196468,388196226,-0.03643474,-0.02197042,-0.020771695,0.5837699,0.0,0.0,0.0,-1.0
388294696,388294447,0.026499132,-0.048263736,-0.011607101,0.5837699,0.0,0.0,0.0,-1.0
388396318,388396070,0.01983697,-0.072656795,-0.0067736567,0.5921665,0.0,0.0,0.0,-1.0
388493152,388492892,-0.0334263,-0.031060966,-0.0028520268,0.5921665,0.0,0.0,0.0,-1.0
388594917,388594674,0.05962965,-0.042843807,-0.0033932936,0.5897674,0.0,0.0,0.0,-1.0
388696713,388696461,-0.102751136,0.061531037,-0.0029420287,0.5897674,0.0,0.0,0.0,-1.0
388794765,388794519,-0.05724747,-0.0060105403,0.008065977,0.5897674,0.0,0.0,0.0,-1.0
388896552,388896305,-0.015959332,0.006623783,-0.0038043414,0.5897674,0.0,0.0,0.0,-1.0
388994617,388994367,-0.03092737,0.06297144,-0.006552503,0.5897674,0.0,0.0,0.0,-1.0
389095295,389095043,-0.02205729,-0.016193062,-0.0076283715,0.5885679,0.0,0.0,0.0,-1.0
389193227,389192971,0.04270421,-0.027625065,-0.012714324,0.5885679,0.0,0.0,0.0,-1.0
389295041,389294798,-0.015424867,-0.018269334,-0.01337792,0.5897674,0.0,0.0,0.0,-1.0
389396840,389396587,-0.010100412,-0.04567034,-0.018996786,0.5873684,0.0,0.0,0.0,-1.0
389494852,389494599,0.02859063,-0.01818362,-0.0250505,0.5873684,0.0,0.0,0.0,-1.0
389596630,389596384,-0.022816066,0.03151896,-0.01927734,0.595765,0.0,0.0,0.0,-1.0
389694692,389694444,-0.0019414085,-0.060745817,-0.01960414,0.6161567,0.0,0.0,0.0,-1.0
389795238,389794989,0.019305639,-0.034689467,-0.022427404,0.62935126,0.0,0.0,0.0,-1.0
389893377,389893130,-0.038522936,-0.013755061,-0.0341413,0.63534886,0.0,0.0,0.0,-1.0
389995078,389994832,-0.032619074,-0.049741585,-0.022532491,0.63534886,0.0,0.0,0.0,-1.0
390096878,390096619,0.014256717,0.014028758,-0.028810676,0.63534886,0.0,0.0,0.0,-1.0
390194925,390194678,0.09792823,-0.0510317,-0.028993644,0.63055074,0.0,0.0,0.0,-1.0
390296732,390296489,-0.010689417,-0.087474614,-0.03297402,0.63175035,0.0,0.0,0.0,-1.0
390394780,390394524,-0.03058994,-0.009853022,-0.019874882,0.62935126,0.0,0.0,0.0,-1.0
390495316,390495071,-0.0028621468,-0.04526158,-0.022193274,0.6233537,0.0,0.0,0.0,-1.0
390593376,390593128,-0.00914044,-0.03015205,-0.015373384,0.6221542,0.0,0.0,0.0,-1.0
390695215,390694966,-0.030013612,-0.035162684,-0.013321659,0.6233537,0.0,0.0,0.0,-1.0
390796954,390796698,-0.004379134,-0.057110325,-0.013324556,0.6233537,0.0,0.0,0.0,-1.0
390895004,390894757,-0.020567218,-0.029403854,-0.015560742,0.6221542,0.0,0.0,0.0,-1.0
390996797,390996542,-0.042156246,-0.061306532,-0.02616333,0.6101591,0.0,0.0,0.0,-1.0
391093611,391093361,-0.033851665,-0.037122868,-0.030742124,0.58017135,0.0,0.0,0.0,-1.0
391195388,391195146,0.022478042,-0.0005855461,-0.02627921,0.57657284,0.0,0.0,0.0,-1.0
391293453,391293207,-0.010104879,-0.06697944,-0.022092897,0.57657284,0.0,0.0,0.0,-1.0
391395241,391394991,-0.020749766,-0.018211901,-0.015393016,0.57417375,0.0,0.0,0.0,-1.0
391497067,391496815,-0.012712584,-0.07015328,-0.01577518,0.57417375,0.0,0.0,0.0,-1.0
391596330,391596079,0.0003785024,-0.057000745,-0.022854008,0.57537335,0.0,0.0,0.0,-1.0
391695640,391695385,-0.0033588293,-0.056121875,-0.019002674,0.57537335,0.0,0.0,0.0,-1.0
391793847,391793595,0.025465261,-0.05558041,-0.012497368,0.57537335,0.0,0.0,0.0,-1.0
391895469,391895225,0.09072943,-0.026330873,-0.00931585,0.57537335,0.0,0.0,0.0,-1.0
391993538,391993287,-0.008774554,-0.047770757,-0.011873965,0.58137083,0.0,0.0,0.0,-1.0
392095318,392095070,0.0116483625,0.011620363,-0.016084177,0.5837699,0.0,0.0,0.0,-1.0
392197113,392196860,0.01192901,-0.050860927,-0.027888104,0.5825704,0.0,0.0,0.0,-1.0
392295163,392294918,-0.041488867,-0.04590868,-0.033671252,0.5825704,0.0,0.0,0.0,-1.0
392395709,392395459,0.024669135,-0.057866294,-0.03880532,0.5837699,0.0,0.0,0.0,-1.0
392493781,392493534,-0.07557782,-0.07739395,-0.03890564,0.5837699,0.0,0.0,0.0,-1.0
392595681,392595437,-0.017112663,-0.03470123,-0.032408968,0.5837699,0.0,0.0,0.0,-1.0
392693609,392693365,-0.006493885,-0.055360034,-0.038571525,0.5837699,0.0,0.0,0.0,-1.0
392795403,392795150,-0.008986656,-0.0733706,-0.03594365,0.5837699,0.0,0.0,0.0,-1.0
392897182,392896934,0.008951421,-0.049514856,-0.03110956,0.5825704,0.0,0.0,0.0,-1.0
392995252,392994996,0.024744842,-0.09683193,-0.027076952,0.58017135,0.0,0.0,0.0,-1.0
393095801,393095556,0.0014534973,-0.023112765,-0.027113028,0.58137083,0.0,0.0,0.0,-1.0
393193853,393193599,-0.014870801,-0.09022503,-0.024529263,0.58137083,0.0,0.0,0.0,-1.0
393295700,393295454,0.08204998,-0.04524745,-0.029816525,0.58137083,0.0,0.0,0.0,-1.0
393393777,393393533,-0.02397054,-0.110452406,-0.022162808,0.58137083,0.0,0.0,0.0,-1.0
393495473,393495229,-0.038238868,-0.06664025,-0.026388528,0.5921665,0.0,0.0,0.0,-1.0
393597281,393597014,0.017115444,-0.051573627,-0.030213375,0.5969645,0.0,0.0,0.0,-1.0
393695327,393695074,0.03154403,-0.13807228,-0.028836144,0.61855567,0.0,0.0,0.0,-1.0
393795876,393795620,0.014351327,-0.1217514,-0.029259361,0.6233537,0.0,0.0,0.0,-1.0
393893928,393893678,-0.087604046,-0.042462017,-0.026256062,0.6233537,0.0,0.0,0.0,-1.0
393995704,393995458,-0.03467991,-0.027373591,-0.021104833,0.6233537,0.0,0.0,0.0,-1.0
394093772,394093523,-0.010024421,-0.0064531243,-0.02255674,0.62455326,0.0,0.0,0.0,-1.0
394195614,394195372,-0.022006499,-0.13986096,-0.018332528,0.6233537,0.0,0.0,0.0,-1.0
394297348,394297093,-0.0025364973,-0.06517449,-0.006658293,0.6221542,0.0,0.0,0.0,-1.0
394394165,394393918,-0.035234388,-0.072346345,-0.021335443,0.6221542,0.0,0.0,0.0,-1.0
394495957,394495698,0.055804465,-0.15798722,-0.0150386905,0.6221542,0.0,0.0,0.0,-1.0
394595260,394595000,0.024647625,-0.103438124,-0.018956276,0.6221542,0.0,0.0,0.0,-1.0
394695786,394695542,-0.07492337,0.0034578517,-0.015710674,0.60536104,0.0,0.0,0.0,-1.0
394793848,394793602,-0.085005604,0.007917127,-0.00895203,0.56817627,0.0,0.0,0.0,-1.0
394895630,394895388,0.025826506,-0.11334793,-0.0035585144,0.5633782,0.0,0.0,0.0,-1.0
394997473,394997222,-0.04373058,-0.118984796,0.0035453937,0.5609792,0.0,0.0,0.0,-1.0
395094239,395093991,0.061368793,-0.07627738,-0.006073176,0.5357895,0.0,0.0,0.0,-1.0
395196027,395195777,-0.023488643,-0.07060961,-0.006233544,0.5357895,0.0,0.0,0.0,-1.0
395294258,395294008,0.0987057,-0.14555895,-0.001927947,0.5357895,0.0,0.0,0.0,-1.0
395395866,395395621,-0.049949583,-0.030781964,0.01850527,0.5357895,0.0,0.0,0.0,-1.0
395493936,395493691,-0.020450085,-0.061463635,-0.005584167,0.5357895,0.0,0.0,0.0,-1.0
395595717,395595476,-0.040955126,-0.06406098,0.009904232,0.5357895,0.0,0.0,0.0,-1.0
395696263,395696012,-0.013212191,-0.06718476,0.013982916,0.5357895,0.0,0.0,0.0,-1.0
395794340,395794097,-0.01047165,-0.03378657,0.0052792155,0.536989,0.0,0.0,0.0,-1.0
395896103,395895854,-0.01020131,-0.07523136,-0.009080684,0.536989,0.0,0.0,0.0,-1.0
395994164,395993916,-0.04817189,-0.04348347,-0.004863052,0.53818846,0.0,0.0,0.0,-1.0
396096089,396095844,0.008659064,-0.02534841,-0.0054930686,0.539388,0.0,0.0,0.0,-1.0
396194007,396193761,-0.05147786,-0.081085704,-0.0056920247,0.53818846,0.0,0.0,0.0,-1.0
396295804,396295549,-0.0019337938,-0.044640087,-0.002963958,0.56937575,0.0,0.0,0.0,-1.0
396397588,396397341,0.060212526,-0.05693023,-0.005715065,0.6137576,0.0,0.0,0.0,-1.0
396494396,396494155,-0.11888147,-0.077942565,-0.016443456,0.6449449,0.0,0.0,0.0,-1.0
396596221,396595966,-0.12751377,-0.14337423,-0.0011907906,0.65454096,0.0,0.0,0.0,-1.0
396694253,396693995,-0.02675023,-0.024426023,0.0080271615,0.6533415,0.0,0.0,0.0,-1.0
396796040,396795795,0.033522785,-0.1255262,0.012386348,0.652142,0.0,0.0,0.0,-1.0
396894218,396893961,0.09605638,-0.07511025,0.02694765,0.652142,0.0,0.0,0.0,-1.0
396994630,396994385,-0.016161928,-0.07018622,0.011304521,0.652142,0.0,0.0,0.0,-1.0
397096423,397096168,-0.09103715,-0.094830684,0.0042543914,0.652142,0.0,0.0,0.0,-1.0
397194468,397194228,-0.10908884,-0.015497232,0.01038646,0.652142,0.0,0.0,0.0,-1.0
397296268,397296017,-0.053869925,-0.12830323,0.024621192,0.652142,0.0,0.0,0.0,-1.0
397395609,397395361,0.013443204,-0.17192303,0.026433885,0.652142,0.0,0.0,0.0,-1.0
397496104,397495858,0.034714755,-0.007454972,0.021844996,0.652142,0.0,0.0,0.0,-1.0
397594167,397593920,0.039494965,-0.05973322,0.013996396,0.65094244,0.0,0.0,0.0,-1.0
397694842,397694598,-0.0785729,-0.06716927,-0.0057536867,0.6221542,0.0,0.0,0.0,-1.0
397796495,397796247,0.020049183,-0.03121812,-0.005505817,0.6233537,0.0,0.0,0.0,-1.0
397894553,397894308,-0.009771358,-0.11200251,-0.016060362,0.62455326,0.0,0.0,0.0,-1.0
397996337,397996092,0.03268108,-0.0872584,-0.013770344,0.6221542,0.0,0.0,0.0,-1.0
398094406,398094153,0.019789273,-0.0282899,-0.017298587,0.6209547,0.0,0.0,0.0,-1.0
398196186,398195937,0.040645186,-0.04445454,-0.013214333,0.6173562,0.0,0.0,0.0,-1.0
398294253,398294002,0.022742065,-0.014721245,-0.017614476,0.6161567,0.0,0.0,0.0,-1.0
398394787,398394543,-0.022360194,-0.06269376,-0.025063032,0.60176253,0.0,0.0,0.0,-1.0
398497879,398497629,0.10740581,-0.11710945,-0.031309746,0.5825704,0.0,0.0,0.0,-1.0
398594631,398594387,0.05975464,-0.057983387,-0.028926509,0.58017135,0.0,0.0,0.0,-1.0
398696416,398696171,-0.044356305,0.006613735,-0.027752258,0.58017135,0.0,0.0,0.0,-1.0
398794661,398794415,-0.01829932,-0.03806365,-0.032880772,0.58017135,0.0,0.0,0.0,-1.0
398896270,398896017,-0.032231294,-0.011995592,-0.03018134,0.58017135,0.0,0.0,0.0,-1.0
398994334,398994077,-0.091666035,-0.056499183,-0.034346785,0.58017135,0.0,0.0,0.0,-1.0
399094864,399094621,0.09644784,-0.08224012,-0.039974783,0.5837699,0.0,0.0,0.0,-1.0
399196652,399196405,-0.009049816,-0.13555072,-0.01928836,0.59816396,0.0,0.0,0.0,-1.0
399294789,399294544,0.0068267393,-0.044120066,-0.018693412,0.59936357,0.0,0.0,0.0,-1.0
399396498,399396250,-0.0217986,-0.10540406,-0.030667849,0.61135864,0.0,0.0,0.0,-1.0
399494570,399494319,-0.03379496,-0.076759264,-0.03093181,0.60776013,0.0,0.0,0.0,-1.0
399595256,399595006,-0.03650801,-0.10148658,-0.029670402,0.595765,0.0,0.0,0.0,-1.0
399693165,399692915,-0.049571134,-0.12605405,-0.023990357,0.59456545,0.0,0.0,0.0,-1.0
399794982,399794735,-0.0070343516,-0.12228209,-0.024899242,0.59456545,0.0,0.0,0.0,-1.0
399896737,399896486,-0.012429207,-0.06532204,-0.025182351,0.595765,0.0,0.0,0.0,-1.0
399994792,399994545,-0.023646424,-0.06341598,-0.017808711,0.5969645,0.0,0.0,0.0,-1.0
400096624,400096376,-0.012490344,-0.05573063,-0.026748352,0.57417375,0.0,0.0,0.0,-1.0
400195889,400195635,-0.036386587,-0.08302818,-0.023065928,0.5633782,0.0,0.0,0.0,-1.0
400295194,400294935,-0.024821542,-0.05418363,-0.019284848,0.5633782,0.0,0.0,0.0,-1.0
400394603,400394356,-0.00410422,-0.060888506,-0.01542113,0.5633782,0.0,0.0,0.0,-1.0
400495025,400494779,-0.011557939,-0.061243296,-0.018565187,0.5633782,0.0,0.0,0.0,-1.0
400598059,400597806,0.005028262,-0.027988866,-0.019913906,0.5645777,0.0,0.0,0.0,-1.0
400694868,400694624,0.016530188,-0.05659373,-0.0106839,0.5645777,0.0,0.0,0.0,-1.0
400796664,400796412,-0.06341025,-0.06347801,-0.024102064,0.5837699,0.0,0.0,0.0,-1.0
400894715,400894469,-0.03677154,-0.100322545,-0.024705997,0.60176253,0.0,0.0,0.0,-1.0
400995264,400995013,0.0652793,-0.04271018,-0.036504127,0.60776013,0.0,0.0,0.0,-1.0
401093329,401093077,-0.061135165,-0.045657903,-0.02606115,0.60776013,0.0,0.0,0.0,-1.0
401195239,401194991,0.024214985,-0.059077054,-0.028220085,0.6161567,0.0,0.0,0.0,-1.0
401296901,401296642,-0.07377157,-0.053309217,-0.025684884,0.63534886,0.0,0.0,0.0,-1.0
401394979,401394734,-0.017225858,-0.08866929,-0.032526284,0.64974296,0.0,0.0,0.0,-1.0
401496737,401496492,-0.005015002,-0.057579003,-0.03454314,0.64974296,0.0,0.0,0.0,-1.0
401594810,401594550,0.0033609145,-0.070780605,-0.032821406,0.64974296,0.0,0.0,0.0,-1.0
401695338,401695092,0.01746497,-0.09021169,-0.029323045,0.6425459,0.0,0.0,0.0,-1.0
401793404,401793154,-0.009384102,-0.03697761,-0.030508671,0.59456545,0.0,0.0,0.0,-1.0
401895181,401894937,0.00640389,-0.094711825,-0.030941797,0.56937575,0.0,0.0,0.0,-1.0
401997030,401996782,-0.033860106,-0.024550479,-0.02532678,0.54538554,0.0,0.0,0.0,-1.0
402095023,402094782,0.0039883265,-0.08138765,-0.033011016,0.54538554,0.0,0.0,0.0,-1.0
402196825,402196567,-0.0678228,0.0068942173,-0.024409916,0.5465851,0.0,0.0,0.0,-1.0
402293824,402293579,0.016373826,-0.05680781,-0.022986637,0.539388,0.0,0.0,0.0,-1.0
402395425,402395172,0.026447678,-0.09091769,-0.030808086,0.5357895,0.0,0.0,0.0,-1.0
402493483,402493232,-0.032733373,-0.0041088955,-0.024232715,0.539388,0.0,0.0,0.0,-1.0
402595288,402595045,-0.046848122,-0.052142993,-0.031666245,0.5873684,0.0,0.0,0.0,-1.0
402697050,402696801,0.009828895,-0.13207813,-0.035339527,0.6401469,0.0,0.0,0.0,-1.0
402795128,402794888,-0.0036454839,-0.06828773,-0.026564408,0.6401469,0.0,0.0,0.0,-1.0
402895703,402895455,-0.0754126,-0.0718582,-0.04228994,0.6401469,0.0,0.0,0.0,-1.0
402993713,402993466,-0.02785576,-0.047486484,-0.046120454,0.6401469,0.0,0.0,0.0,-1.0
403095670,403095423,0.0058636316,-0.05343026,-0.058134757,0.6401469,0.0,0.0,0.0,-1.0
403193559,403193311,0.0046979836,-0.085810475,-0.04314901,0.6401469,0.0,0.0,0.0,-1.0
403295345,403295095,-0.040511988,-0.044699766,-0.0357442,0.6401469,0.0,0.0,0.0,-1.0
403397131,403396880,-0.036440972,-0.0043701255,-0.030625224,0.6221542,0.0,0.0,0.0,-1.0
403495200,403494947,-0.032689802,-0.07441839,-0.034388356,0.6173562,0.0,0.0,0.0,-1.0
403597046,403596794,0.0036016959,0.017544108,-0.02496136,0.61855567,0.0,0.0,0.0,-1.0
403693802,403693546,0.031428315,-0.120139726,-0.02960519,0.6173562,0.0,0.0,0.0,-1.0
403795575,403795328,-0.039326377,0.056226823,-0.024452193,0.6173562,0.0,0.0,0.0,-1.0
403893765,403893517,-0.04018753,-0.058661807,-0.028108163,0.6161567,0.0,0.0,0.0,-1.0
403995427,403995178,0.03518011,-0.021762036,-0.017915128,0.6173562,0.0,0.0,0.0,-1.0
404097214,404096960,-0.06806694,-0.06950258,-0.013893499,0.6173562,0.0,0.0,0.0,-1.0
404195324,404195071,0.033971526,-0.12191272,-0.025293013,0.6173562,0.0,0.0,0.0,-1.0
404295812,404295563,0.03762391,-0.08818668,-0.019006254,0.6173562,0.0,0.0,0.0,-1.0
404393911,404393669,6.8681955e-05,-0.09474906,-0.0275259,0.6173562,0.0,0.0,0.0,-1.0
404495658,404495408,0.0072561274,-0.09872827,-0.035052806,0.6161567,0.0,0.0,0.0,-1.0
404593717,404593469,-0.059862405,-0.07663433,-0.023763072,0.6173562,0.0,0.0,0.0,-1.0
404695593,404695349,-0.027722234,-0.05083436,-0.031006815,0.61495715,0.0,0.0,0.0,-1.0
404797295,404797039,-0.04123764,-0.08200588,-0.029143348,0.61495715,0.0,0.0,0.0,-1.0
404895346,404895099,-0.053828996,-0.04988018,-0.021963082,0.6101591,0.0,0.0,0.0,-1.0
404995889,404995642,-0.027075691,0.0044887355,-0.028253933,0.60776013,0.0,0.0,0.0,-1.0
405093948,405093704,-0.05000858,-0.06138861,-0.023029312,0.6065605,0.0,0.0,0.0,-1.0
405195740,405195489,-0.07439592,-0.023889601,-0.017600808,0.60536104,0.0,0.0,0.0,-1.0
405293794,405293547,0.00044938579,-0.008197494,-0.01691212,0.59096694,0.0,0.0,0.0,-1.0
405395607,405395365,-0.06494636,0.0060448055,-0.021857774,0.59096694,0.0,0.0,0.0,-1.0
405496182,405495938,0.050103597,-0.15661566,-0.019704727,0.5861689,0.0,0.0,0.0,-1.0
405594243,405593991,0.008374453,-0.13131079,-0.018962868,0.57417375,0.0,0.0,0.0,-1.0
405695968,405695721,0.024805652,-0.032396927,-0.01902348,0.57417375,0.0,0.0,0.0,-1.0
405794030,405793784,-0.029120164,-0.01633532,-0.022230422,0.55138314,0.0,0.0,0.0,-1.0
405895826,405895569,0.092663325,-0.08392121,-0.02697658,0.5597797,0.0,0.0,0.0,-1.0
405993877,405993627,-0.021235017,-0.10844253,-0.02874617,0.5597797,0.0,0.0,0.0,-1.0
406095667,406095417,0.0016007726,-0.047029607,-0.035934877,0.5633782,0.0,0.0,0.0,-1.0
406196210,406195956,0.048495136,-0.057890374,-0.030712387,0.57417375,0.0,0.0,0.0,-1.0
406294296,406294045,-0.035579965,-0.08876754,-0.03271842,0.59816396,0.0,0.0,0.0,-1.0
406396046,406395800,0.029911445,-0.20114055,-0.03149856,0.6089596,0.0,0.0,0.0,-1.0
406494125,406493883,0.013735596,-0.059329797,-0.047476772,0.6173562,0.0,0.0,0.0,-1.0
406596075,406595825,0.036153402,-0.114871465,-0.04448576,0.6341493,0.0,0.0,0.0,-1.0
406693954,406693706,-0.13178335,0.0011494866,-0.046165448,0.6341493,0.0,0.0,0.0,-1.0
406795739,406795496,-0.021504778,-0.05141345,-0.051829565,0.6329498,0.0,0.0,0.0,-1.0
406896293,406896039,0.06559434,-0.13726315,-0.04532418,0.63055074,0.0,0.0,0.0,-1.0
406994337,406994094,-0.049137473,-0.016121702,-0.035791766,0.63055074,0.0,0.0,0.0,-1.0
407096137,407095889,-0.09074375,-0.06891219,-0.04104432,0.62935126,0.0,0.0,0.0,-1.0
407194183,407193940,-0.052961677,-0.043836396,-0.032930646,0.62935126,0.0,0.0,0.0,-1.0
407295989,407295727,-0.09342778,-0.08729406,-0.039290823,0.62935126,0.0,0.0,0.0,-1.0
407394198,407393947,0.035292774,-0.11215008,-0.029806327,0.62935126,0.0,0.0,0.0,-1.0
407495836,407495585,0.027723812,-0.11687624,-0.032665733,0.6173562,0.0,0.0,0.0,-1.0
407596358,407596114,-0.058446556,-0.033486743,-0.036293745,0.6173562,0.0,0.0,0.0,-1.0
407694429,407694181,0.019806491,-0.09689634,-0.025129605,0.6173562,0.0,0.0,0.0,-1.0
407797456,407797206,-0.05528403,-0.0626346,-0.030364178,0.6173562,0.0,0.0,0.0,-1.0
407894262,407894019,0.04315739,-0.11704262,-0.022832751,0.6173562,0.0,0.0,0.0,-1.0
407996052,407995804,-0.044158496,-0.053923175,-0.025437806,0.6197552,0.0,0.0,0.0,-1.0
408094117,408093864,-0.046588946,-0.097145386,-0.025108656,0.6197552,0.0,0.0,0.0,-1.0
408194754,408194510,-0.057536557,-0.070168585,-0.023456488,0.6197552,0.0,0.0,0.0,-1.0
408296448,408296198,0.032341976,-0.071584836,-0.018257767,0.6197552,0.0,0.0,0.0,-1.0
408394496,408394253,-0.047301568,-0.05426458,-0.018138314,0.6197552,0.0,0.0,0.0,-1.0
408496287,408496037,0.030660762,-0.013904359,-0.014788036,0.61855567,0.0,0.0,0.0,-1.0
408594341,408594098,-0.08104514,-0.009835852,-0.012167954,0.61855567,0.0,0.0,0.0,-1.0
408696149,408695903,0.015638936,-0.10978061,-0.013913869,0.6197552,0.0,0.0,0.0,-1.0
408795449,408795200,-0.03281419,-0.05123247,-0.011304116,0.6197552,0.0,0.0,0.0,-1.0
408894737,408894491,0.06670512,-0.056306556,-0.028838944,0.61855567,0.0,0.0,0.0,-1.0
408996602,408996359,-0.023289246,-0.010060799,-0.021979997,0.61855567,0.0,0.0,0.0,-1.0
409094582,409094336,-0.039271925,-0.04998398,-0.020648902,0.57417375,0.0,0.0,0.0,-1.0
409197612,409197360,-0.032643486,-0.020427058,-0.021558246,0.5273929,0.0,0.0,0.0,-1.0
409294420,409294177,-0.016956005,-0.002193487,-0.027159257,0.5273929,0.0,0.0,0.0,-1.0
409396220,409395963,-0.050872624,-0.040158436,-0.029878572,0.5285924,0.0,0.0,0.0,-1.0
409494281,409494022,-0.005876132,-0.081508055,-0.021161167,0.5285924,0.0,0.0,0.0,-1.0
409594810,409594565,-0.0060426947,-0.04147923,-0.014871096,0.5297919,0.0,0.0,0.0,-1.0
409696597,409696350,-0.035041668,-0.040575936,-0.014775092,0.5861689,0.0,0.0,0.0,-1.0
409794699,409794444,-0.0036455065,-0.02283313,-0.02717557,0.6233537,0.0,0.0,0.0,-1.0
409896493,409896246,0.019284014,-0.101951845,-0.028565504,0.6233537,0.0,0.0,0.0,-1.0
409994500,409994256,0.018131958,0.00976232,-0.029738266,0.64974296,0.0,0.0,0.0,-1.0
410095229,410094977,0.041630924,-0.07379161,-0.036801144,0.652142,0.0,0.0,0.0,-1.0
410193106,410192860,-0.012074397,-0.061225764,-0.037436735,0.652142,0.0,0.0,0.0,-1.0
410294889,410294645,-0.039803658,-0.04822908,-0.0478865,0.652142,0.0,0.0,0.0,-1.0
410396682,410396429,0.034036238,-0.030574962,-0.042158555,0.652142,0.0,0.0,0.0,-1.0
410494734,410494490,0.008001467,-0.022721797,-0.040293273,0.652142,0.0,0.0,0.0,-1.0
410597839,410597586,0.022982098,-0.0350749,-0.045277126,0.652142,0.0,0.0,0.0,-1.0
410694578,410694335,0.04444524,-0.039123457,-0.0409123,0.6377478,0.0,0.0,0.0,-1.0
410795178,410794925,0.0028739148,-0.0007537835,-0.039205566,0.6233537,0.0,0.0,0.0,-1.0
410893330,410893082,-0.009813468,0.011938237,-0.027966985,0.62455326,0.0,0.0,0.0,-1.0
410994969,410994723,0.053990815,-0.018953633,-0.024326049,0.6233537,0.0,0.0,0.0,-1.0
411096753,411096508,0.012000797,-0.036888838,-0.028012518,0.60416156,0.0,0.0,0.0,-1.0
411194814,411194569,-0.0063710087,-0.022321614,-0.032541916,0.60176253,0.0,0.0,0.0,-1.0
411296629,411296383,-0.07131797,-0.058094434,-0.036955524,0.59936357,0.0,0.0,0.0,-1.0
411394679,411394437,0.044231974,0.0071450854,-0.033708744,0.60056305,0.0,0.0,0.0,-1.0
411495216,411494963,0.009045716,-0.025295038,-0.034015484,0.5861689,0.0,0.0,0.0,-1.0
411593267,411593018,-0.027423372,-0.059471216,-0.04413715,0.5849694,0.0,0.0,0.0,-1.0
411695172,411694926,-0.057865452,-0.019813562,-0.04892311,0.5849694,0.0,0.0,0.0,-1.0
411794363,411794109,0.00063950644,0.018519394,-0.04797803,0.5861689,0.0,0.0,0.0,-1.0
411894892,411894648,0.0169388,-0.069452934,-0.041835476,0.5849694,0.0,0.0,0.0,-1.0
411997931,411997677,0.05023757,-0.06950762,-0.041794356,0.5861689,0.0,0.0,0.0,-1.0
412094787,412094537,0.04125887,-0.004714371,-0.03572495,0.5861689,0.0,0.0,0.0,-1.0
412196546,412196298,0.041437086,-0.082669914,-0.03430039,0.5861689,0.0,0.0,0.0,-1.0
412293341,412293097,0.0147304125,-0.026159823,-0.024312923,0.5861689,0.0,0.0,0.0,-1.0
412395154,412394909,-0.018075587,-0.050907303,-0.023364913,0.5873684,0.0,0.0,0.0,-1.0
412493264,412493013,0.043752596,-0.025415301,-0.023638215,0.5873684,0.0,0.0,0.0,-1.0
412594976,412594727,-0.087677844,-0.027117133,-0.022710448,0.5897674,0.0,0.0,0.0,-1.0
412696768,412696511,0.039240874,-0.03414059,-0.013166729,0.5897674,0.0,0.0,0.0,-1.0
412794827,412794572,0.053420655,-0.0061005964,-0.024114184,0.59096694,0.0,0.0,0.0,-1.0
412895369,412895117,0.032715593,-0.063327536,-0.030144831,0.59096694,0.0,0.0,0.0,-1.0
412993435,412993194,-0.03616486,-0.05203685,-0.029642493,0.59096694,0.0,0.0,0.0,-1.0
413095231,413094979,-0.03226856,-0.009474073,-0.029039247,0.59096694,0.0,0.0,0.0,-1.0
413197000,413196745,0.042807434,-0.092950374,-0.031993505,0.59816396,0.0,0.0,0.0,-1.0
413295094,413294851,0.026031457,-0.11064975,-0.0258974,0.60176253,0.0,0.0,0.0,-1.0
413398090,413397833,-0.0036257708,-0.04821897,-0.03149145,0.6437454,0.0,0.0,0.0,-1.0
413493656,413493410,0.015016065,-0.024803266,-0.035131205,0.64734393,0.0,0.0,0.0,-1.0
413596695,413596441,0.01910312,-0.036604706,-0.032031577,0.6533415,0.0,0.0,0.0,-1.0
413693502,413693256,0.028994737,-0.074284956,-0.028017363,0.6641371,0.0,0.0,0.0,-1.0
413795298,413795042,-0.00257595,0.010896862,-0.030739114,0.6641371,0.0,0.0,0.0,-1.0
413897098,413896851,-0.01807999,-0.07271016,-0.028893659,0.66173804,0.0,0.0,0.0,-1.0
413995127,413994885,0.0031982572,-0.07829214,-0.033300105,0.64974296,0.0,0.0,0.0,-1.0
414095811,414095564,-0.011118665,-0.018180499,-0.026932137,0.6437454,0.0,0.0,0.0,-1.0
414193732,414193489,0.011391808,-0.044282243,-0.03175253,0.60536104,0.0,0.0,0.0,-1.0
414296770,414296518,-0.008387679,-0.007990838,-0.025274772,0.5825704,0.0,0.0,0.0,-1.0
414393728,414393483,-0.024652023,-0.024380604,-0.025675463,0.5633782,0.0,0.0,0.0,-1.0
414495373,414495122,0.0012422322,-0.11160117,-0.0123838475,0.5645777,0.0,0.0,0.0,-1.0
414594670,414594422,-0.03785308,-0.028872946,-0.015677357,0.5657772,0.0,0.0,0.0,-1.0
414695223,414694967,-0.035316296,-0.024167646,-0.02266167,0.5657772,0.0,0.0,0.0,-1.0
414795755,414795507,0.027711207,-0.058474697,-0.026540417,0.5669768,0.0,0.0,0.0,-1.0
414893812,414893568,-0.0044807782,-0.037935853,-0.021662883,0.5669768,0.0,0.0,0.0,-1.0
414995609,414995359,0.039699975,-0.0102240965,-0.021690663,0.5669768,0.0,0.0,0.0,-1.0
415093656,415093414,0.070844896,-0.08116379,-0.028931042,0.5669768,0.0,0.0,0.0,-1.0
415195578,415195328,-0.03987482,-0.010904599,-0.027277596,0.5777723,0.0,0.0,0.0,-1.0
415297231,415296983,0.0047108633,-0.019607646,-0.017195135,0.59096694,0.0,0.0,0.0,-1.0
415395295,415395043,0.050519068,-0.041862346,-0.01831825,0.5897674,0.0,0.0,0.0,-1.0
415495829,415495587,0.018272983,0.02689631,-0.020079724,0.5897674,0.0,0.0,0.0,-1.0
415593891,415593647,-0.048002895,-0.038885318,-0.025667334,0.5897674,0.0,0.0,0.0,-1.0
415695686,415695433,-0.05569581,-0.023532284,-0.02890995,0.63534886,0.0,0.0,0.0,-1.0
415793739,415793493,0.010354974,-0.014990115,-0.023002075,0.6377478,0.0,0.0,0.0,-1.0
415895520,415895277,0.02585776,-0.008214416,-0.009435751,0.6389473,0.0,0.0,0.0,-1.0
415993668,415993419,-0.002228332,0.003241647,-0.0055194795,0.6377478,0.0,0.0,0.0,-1.0
416094127,416093881,-0.011390368,-0.030157639,-0.012471533,0.6377478,0.0,0.0,0.0,-1.0
416195913,416195666,-0.0033861506,-0.08582955,-0.015449727,0.6377478,0.0,0.0,0.0,-1.0
416293969,416293726,-0.035295613,-0.017885968,-0.011861286,0.63654834,0.0,0.0,0.0,-1.0
416397002,416396753,0.039597854,-0.047855742,-0.01939046,0.6341493,0.0,0.0,0.0,-1.0
416493818,416493572,0.007868564,-0.07377407,-0.017602973,0.6233537,0.0,0.0,0.0,-1.0
416595603,416595356,0.105529465,-0.027226647,-0.015597786,0.61135864,0.0,0.0,0.0,-1.0
416696144,416695901,0.0003334711,-0.023557954,-0.009294839,0.5969645,0.0,0.0,0.0,-1.0
416794258,416794008,0.015483527,-0.021181364,-0.01587639,0.5969645,0.0,0.0,0.0,-1.0
416895994,416895745,-0.06143378,0.00222897,-0.012906664,0.5969645,0.0,0.0,0.0,-1.0
416994050,416993806,0.018886553,-0.04786787,-0.014365378,0.5969645,0.0,0.0,0.0,-1.0
417095838,417095590,-0.06677245,-0.0018676129,-0.019866541,0.5969645,0.0,0.0,0.0,-1.0
417193895,417193651,0.025184765,-0.039408695,-0.019412355,0.595765,0.0,0.0,0.0,-1.0
417295681,417295435,0.02243338,0.00010165206,-0.0117810415,0.5969645,0.0,0.0,0.0,-1.0
417393740,417393496,0.02753659,0.0098477695,-0.020798478,0.5969645,0.0,0.0,0.0,-1.0
417494285,417494039,0.0032433695,0.024271037,-0.025883099,0.5969645,0.0,0.0,0.0,-1.0
417596136,417595894,0.09297516,-0.020681338,-0.0128124915,0.59816396,0.0,0.0,0.0,-1.0
417694128,417693884,-0.05073732,-0.018735098,-0.018823382,0.5969645,0.0,0.0,0.0,-1.0
417795927,417795669,0.049147625,-0.034762237,-0.011016704,0.5969645,0.0,0.0,0.0,-1.0
417894146,417893902,0.024992865,-0.031709563,-0.021529261,0.59816396,0.0,0.0,0.0,-1.0
417995774,417995516,-0.033784468,-0.046944845,-0.010286622,0.60056305,0.0,0.0,0.0,-1.0
418095077,418094819,0.0137638645,-0.0034118455,-0.020105138,0.59936357,0.0,0.0,0.0,-1.0
418194371,418194119,-0.025116589,-0.04181771,-0.020426534,0.6281518,0.0,0.0,0.0,-1.0
418296156,418295913,0.012047214,-0.0682919,-0.015254039,0.62935126,0.0,0.0,0.0,-1.0
418394225,418393966,0.026243607,0.059555292,-0.014634417,0.62935126,0.0,0.0,0.0,-1.0
418495994,418495748,0.06743945,0.0017486766,-0.012842443,0.62935126,0.0,0.0,0.0,-1.0
418594058,418593809,-0.039562717,0.0012477046,-0.016970476,0.62935126,0.0,0.0,0.0,-1.0
418694782,418694535,-0.029405462,-0.03541964,-0.022955356,0.62935126,0.0,0.0,0.0,-1.0
418796389,418796146,0.015702218,-0.050076947,-0.025013188,0.62935126,0.0,0.0,0.0,-1.0
418894453,418894203,0.015337934,0.008499092,-0.036145125,0.62935126,0.0,0.0,0.0,-1.0
418996229,418995981,0.07037619,-0.08430635,-0.050048925,0.62935126,0.0,0.0,0.0,-1.0
419094289,419094044,0.013378533,-0.065924935,-0.0586299,0.62935126,0.0,0.0,0.0,-1.0
419196072,419195827,-0.033336747,-0.016185913,-0.056951754,0.62935126,0.0,0.0,0.0,-1.0
419294135,419293888,0.030410063,-0.053918704,-0.03881965,0.62935126,0.0,0.0,0.0,-1.0
419394680,419394431,0.028504107,0.016377218,-0.036989994,0.63055074,0.0,0.0,0.0,-1.0
419496568,419496324,-0.005273093,-0.02677634,-0.03538547,0.62935126,0.0,0.0,0.0,-1.0
419594563,419594315,0.029590555,-0.05201877,-0.027105052,0.62935126,0.0,0.0,0.0,-1.0
419696309,419696061,-0.088272795,-0.030079667,-0.032917984,0.62935126,0.0,0.0,0.0,-1.0
419794370,419794122,0.013216859,-0.064407386,-0.035902355,0.62935126,0.0,0.0,0.0,-1.0
419896160,419895910,-0.00863408,-0.05332694,-0.026398798,0.62935126,0.0,0.0,0.0,-1.0
419994271,419994009,-0.008104993,-0.068282716,-0.029184649,0.62935126,0.0,0.0,0.0,-1.0
420094763,420094511,-0.02447999,0.012838131,-0.017964417,0.63055074,0.0,0.0,0.0,-1.0
420196540,420196295,-0.042947464,-0.06290977,-0.01859891,0.62935126,0.0,0.0,0.0,-1.0
420294681,420294424,0.016787762,-0.07282289,-0.024833307,0.62935126,0.0,0.0,0.0,-1.0
420393916,420393659,-0.014368485,-0.06277753,-0.009482897,0.63055074,0.0,0.0,0.0,-1.0
420494446,420494202,0.042255756,-0.12660187,-0.020387627,0.63055074,0.0,0.0,0.0,-1.0
420596237,420595985,0.0246954,-0.03667698,-0.02717284,0.6485435,0.0,0.0,0.0,-1.0
420694306,420694046,-0.040869124,-0.0050528245,-0.011472129,0.6485435,0.0,0.0,0.0,-1.0
420794837,420794589,-0.055624433,-0.06467644,-0.016221736,0.64734393,0.0,0.0,0.0,-1.0
420896620,420896374,-0.061084196,-0.008027288,-0.02086638,0.6461444,0.0,0.0,0.0,-1.0
420994697,420994445,0.026101187,-0.016654665,-0.025116948,0.6461444,0.0,0.0,0.0,-1.0
421096552,421096311,-0.0076319478,-0.04672087,-0.028630197,0.64734393,0.0,0.0,0.0,-1.0
421194522,421194280,0.0009797161,-0.06748991,-0.015443774,0.60536104,0.0,0.0,0.0,-1.0
421296323,421296064,-0.047225405,0.023178844,-0.017788585,0.59936357,0.0,0.0,0.0,-1.0
421393301,421393053,-0.01075142,-0.026406795,-0.022237701,0.59816396,0.0,0.0,0.0,-1.0
421494920,421494669,-0.01764318,-0.016706556,-0.028251762,0.59816396,0.0,0.0,0.0,-1.0
421596699,421596453,0.013845915,0.025610918,-0.017212993,0.59816396,0.0,0.0,0.0,-1.0
421694771,421694518,-0.04460724,0.014618146,-0.019801287,0.5969645,0.0,0.0,0.0,-1.0
421796553,421796311,0.023980517,0.038784653,-0.02326722,0.5969645,0.0,0.0,0.0,-1.0
421894607,421894363,-0.03148676,-0.029052297,-0.028749626,0.59816396,0.0,0.0,0.0,-1.0
421995147,421994903,0.009717991,-0.05967892,-0.039898243,0.59816396,0.0,0.0,0.0,-1.0
422093219,422092965,0.0020724668,-0.036531515,-0.042618595,0.5969645,0.0,0.0,0.0,-1.0
422196388,422196138,0.019876884,-0.018306304,-0.0457189,0.5969645,0.0,0.0,0.0,-1.0
422296774,422296532,-0.03287834,-0.023045901,-0.038434017,0.5969645,0.0,0.0,0.0,-1.0
422394841,422394594,0.06207983,-0.04265826,-0.042277586,0.59816396,0.0,0.0,0.0,-1.0
422496621,422496377,-0.012245723,-0.024303282,-0.04374827,0.59816396,0.0,0.0,0.0,-1.0
422594679,422594438,0.026696743,-0.03285245,-0.042985525,0.59816396,0.0,0.0,0.0,-1.0
422695267,422695027,0.033307157,-0.045241866,-0.047207844,0.60416156,0.0,0.0,0.0,-1.0
422793288,422793042,-0.008773826,-0.03672389,-0.065869816,0.60536104,0.0,0.0,0.0,-1.0
422895072,422894826,-0.012555445,-0.04000803,-0.0724803,0.6197552,0.0,0.0,0.0,-1.0
422996974,422996725,-0.014189779,-0.05406653,-0.07913142,0.6233537,0.0,0.0,0.0,-1.0
423094924,423094673,-0.0034277367,0.04880838,-0.08506748,0.6233537,0.0,0.0,0.0,-1.0
423196704,423196456,-0.063772954,-0.002243405,-0.07947941,0.6233537,0.0,0.0,0.0,-1.0
423294768,423294517,-0.020443516,-0.007986944,-0.081255026,0.64974296,0.0,0.0,0.0,-1.0
423395358,423395113,-0.042321723,-0.016660519,-0.08446786,0.64974296,0.0,0.0,0.0,-1.0
423493377,423493127,-0.048438374,-0.055723608,-0.085430875,0.64974296,0.0,0.0,0.0,-1.0
423596403,423596150,-0.033390414,0.016252404,-0.06562045,0.64974296,0.0,0.0,0.0,-1.0
423696935,423696690,0.005456406,-0.025481371,-0.050681956,0.64974296,0.0,0.0,0.0,-1.0
423795088,423794834,-0.036512595,-0.06727358,-0.0411817,0.64974296,0.0,0.0,0.0,-1.0
423896790,423896539,-0.029962452,-0.03793169,-0.026399678,0.64974296,0.0,0.0,0.0,-1.0
423993612,423993355,-0.0042755264,-0.054278266,-0.010834122,0.6401469,0.0,0.0,0.0,-1.0
424095385,424095139,-0.0056251343,-0.03780675,0.0042010145,0.6377478,0.0,0.0,0.0,-1.0
424193447,424193202,0.001250704,0.016745737,0.010552976,0.61135864,0.0,0.0,0.0,-1.0
424295234,424294984,-0.033841394,-0.005478589,0.016463088,0.60056305,0.0,0.0,0.0,-1.0
424397023,424396772,-0.020445386,0.01332572,0.031547956,0.5969645,0.0,0.0,0.0,-1.0
424495091,424494830,-0.025441144,-0.030514028,0.024704311,0.5825704,0.0,0.0,0.0,-1.0
424596977,424596725,0.029637722,-0.025030393,0.025947839,0.58017135,0.0,0.0,0.0,-1.0
424693677,424693434,-0.004909387,-0.021460311,0.032141335,0.58017135,0.0,0.0,0.0,-1.0
424795464,424795220,0.011081022,-0.06260559,0.018947184,0.58137083,0.0,0.0,0.0,-1.0
424893712,424893464,-0.01604491,-0.0120695615,0.005336874,0.5849694,0.0,0.0,0.0,-1.0
424996560,424996308,-0.030542284,-0.03441084,0.0021870856,0.6161567,0.0,0.0,0.0,-1.0
425097098,425096855,-0.034596283,-0.04368543,-0.018370211,0.6197552,0.0,0.0,0.0,-1.0
425195161,425194909,-0.043806016,-0.004403189,-0.0225507,0.6197552,0.0,0.0,0.0,-1.0
425295698,425295452,-0.069541715,-0.0066283206,-0.029318273,0.6197552,0.0,0.0,0.0,-1.0
425393829,425393580,-0.04010118,-0.0033613022,-0.025773507,0.6197552,0.0,0.0,0.0,-1.0
425495567,425495322,0.036590908,-0.05835222,-0.015032254,0.6197552,0.0,0.0,0.0,-1.0
425593607,425593358,0.026958914,-0.06836604,-0.01734019,0.6197552,0.0,0.0,0.0,-1.0
425695544,425695298,0.015713504,0.0029090834,-0.0029677083,0.6197552,0.0,0.0,0.0,-1.0
425797183,425796930,-0.0055418867,0.031678934,0.011181282,0.6197552,0.0,0.0,0.0,-1.0
425895243,425894988,0.019497022,-0.032544535,-0.0003745721,0.6173562,0.0,0.0,0.0,-1.0
425994539,425994290,-0.009681179,0.015686188,0.0028345375,0.6173562,0.0,0.0,0.0,-1.0
426093841,426093592,-0.07311025,-0.060714565,0.0071407673,0.6173562,0.0,0.0,0.0,-1.0
426195659,426195413,0.045928255,-0.015502814,-0.00038101763,0.60776013,0.0,0.0,0.0,-1.0
426293683,426293437,-0.051994815,-0.06770844,-0.0115229385,0.60776013,0.0,0.0,0.0,-1.0
426395469,426395221,-0.00455276,-0.013925092,-0.011219303,0.60776013,0.0,0.0,0.0,-1.0
426496143,426495892,-0.06417105,0.0027283737,-0.0152907735,0.6089596,0.0,0.0,0.0,-1.0
426595330,426595066,-0.022001721,-0.0033104306,-0.023024693,0.60776013,0.0,0.0,0.0,-1.0
426695853,426695610,-0.07314988,0.0016229302,-0.027216995,0.5873684,0.0,0.0,0.0,-1.0
426793925,426793671,-0.01709095,-0.024900315,-0.02695412,0.5873684,0.0,0.0,0.0,-1.0
426895695,426895455,0.023514953,-0.007271034,-0.03510614,0.5873684,0.0,0.0,0.0,-1.0
426993782,426993538,-0.06943003,-0.0047998424,-0.036079377,0.5873684,0.0,0.0,0.0,-1.0
427095549,427095300,0.024747124,0.007947608,-0.038958963,0.5705753,0.0,0.0,0.0,-1.0
427197336,427197085,-0.025394289,-0.02463551,-0.036119457,0.5717748,0.0,0.0,0.0,-1.0
427294237,427293985,0.05869838,-0.031704612,-0.02878997,0.5717748,0.0,0.0,0.0,-1.0
427395941,427395692,0.0029805023,-0.00975293,-0.03354487,0.57297426,0.0,0.0,0.0,-1.0
427494052,427493807,0.0005310004,-0.03538406,-0.033942416,0.57297426,0.0,0.0,0.0,-1.0
427595777,427595534,-0.008311274,0.026432326,-0.03480797,0.57297426,0.0,0.0,0.0,-1.0
427693835,427693594,0.0021098536,-0.013527252,-0.027057525,0.57297426,0.0,0.0,0.0,-1.0
427796882,427796621,-0.06924046,0.037966825,-0.02985143,0.59816396,0.0,0.0,0.0,-1.0
427896201,427895954,-0.011752082,0.0024982137,-0.029238101,0.61135864,0.0,0.0,0.0,-1.0
427994235,427993983,-0.06905041,-0.017473582,-0.029313935,0.6197552,0.0,0.0,0.0,-1.0
428096068,428095820,-0.017297713,0.011897639,-0.026636234,0.63175035,0.0,0.0,0.0,-1.0
428194075,428193829,0.06633591,-0.022334186,-0.028448245,0.652142,0.0,0.0,0.0,-1.0
428295858,428295613,-0.068030365,-0.00832815,-0.026329236,0.652142,0.0,0.0,0.0,-1.0
428394147,428393902,0.06390589,-0.0871706,-0.028829003,0.652142,0.0,0.0,0.0,-1.0
428495707,428495458,-0.018891567,-0.015280899,-0.03284597,0.652142,0.0,0.0,0.0,-1.0
428596258,428596003,-0.030346274,-0.05744283,-0.027661161,0.652142,0.0,0.0,0.0,-1.0
428694310,428694062,0.005969421,-0.016514305,-0.027115118,0.6485435,0.0,0.0,0.0,-1.0
428796095,428795846,0.023926299,-0.049249224,-0.023914838,0.6437454,0.0,0.0,0.0,-1.0
428894180,428893932,-0.023465216,-0.0015474766,-0.020300368,0.6401469,0.0,0.0,0.0,-1.0
428995934,428995691,-0.04225625,-0.04023565,-0.024865568,0.6401469,0.0,0.0,0.0,-1.0
429094004,429093753,-0.027764732,-0.0013266249,-0.021237891,0.6389473,0.0,0.0,0.0,-1.0
429194710,429194466,-0.0005663277,-0.04005599,-0.021673983,0.6377478,0.0,0.0,0.0,-1.0
429296338,429296087,0.0331247,-0.05600981,-0.0050440514,0.6377478,0.0,0.0,0.0,-1.0
429395675,429395426,-0.02657652,-0.037176806,-0.014032181,0.5861689,0.0,0.0,0.0,-1.0
429496170,429495925,-0.07606167,0.031036867,-0.0002801091,0.5861689,0.0,0.0,0.0,-1.0
429594254,429594002,-0.06447934,0.03640371,-0.008641195,0.54538554,0.0,0.0,0.0,-1.0
429696013,429695772,-0.00041130383,-0.0015592593,-0.003076424,0.54538554,0.0,0.0,0.0,-1.0
429794073,429793832,-0.007033911,-0.0014016873,-0.0048080026,0.5429866,0.0,0.0,0.0,-1.0
429894617,429894374,-0.03046108,-0.040667336,-0.0055890135,0.5429866,0.0,0.0,0.0,-1.0
429996543,429996296,-0.000901462,-0.051068164,-0.013070524,0.539388,0.0,0.0,0.0,-1.0
430094495,430094248,0.038278986,-0.04580556,-0.029630437,0.53459,0.0,0.0,0.0,-1.0
430196252,430196004,0.008064201,0.0018040066,-0.03960474,0.53099144,0.0,0.0,0.0,-1.0
430294310,430294065,0.0153851425,-0.0016387962,-0.052907713,0.5297919,0.0,0.0,0.0,-1.0
430396090,430395849,-0.012273779,-0.04685317,-0.064698115,0.5297919,0.0,0.0,0.0,-1.0
430494156,430493911,0.0037229399,0.0079009645,-0.06582998,0.53099144,0.0,0.0,0.0,-1.0
430594703,430594453,-0.04874599,-0.015754487,-0.016955113,0.60536104,0.0,0.0,0.0,-1.0
430696482,430696237,-0.024658274,-0.026875712,-0.008788394,0.62935126,0.0,0.0,0.0,-1.0
430794704,430794454,0.019370144,-0.041085575,-0.013039803,0.66173804,0.0,0.0,0.0,-1.0
430896332,430896085,0.002938115,-0.021477893,-0.011333379,0.6737332,0.0,0.0,0.0,-1.0
430994392,430994143,-0.04738525,-0.025632497,-0.0151307965,0.6725337,0.0,0.0,0.0,-1.0
431096185,431095934,-0.03772984,-0.01706735,-0.016440358,0.67133415,0.0,0.0,0.0,-1.0
431194235,431193988,-0.06010765,-0.04572875,-0.024622414,0.67133415,0.0,0.0,0.0,-1.0
431294775,431294531,0.0036297126,-0.061513063,-0.022721352,0.62935126,0.0,0.0,0.0,-1.0
431396618,431396367,-0.023390675,-0.050100893,-0.015715268,0.6137576,0.0,0.0,0.0,-1.0
431495905,431495656,0.040280633,-0.057240523,-0.046667222,0.595765,0.0,0.0,0.0,-1.0
431596476,431596231,-0.035657387,-0.02000623,-0.040071797,0.56817627,0.0,0.0,0.0,-1.0
431694470,431694223,-0.025011612,-0.040891055,-0.03360477,0.56817627,0.0,0.0,0.0,-1.0
431796251,431796006,-0.029427674,-0.028857632,-0.041274615,0.56817627,0.0,0.0,0.0,-1.0
431894329,431894067,-0.03688196,-0.03940115,-0.06728534,0.56817627,0.0,0.0,0.0,-1.0
431994852,431994610,0.016544413,-0.024607595,-0.085631795,0.56817627,0.0,0.0,0.0,-1.0
432096648,432096395,0.026021453,-0.029462682,-0.083695866,0.56817627,0.0,0.0,0.0,-1.0
432195954,432195699,-0.030704059,-0.03075631,-0.04945998,0.6137576,0.0,0.0,0.0,-1.0
432296490,432296242,-0.03863806,-0.026477795,-0.0984414,0.60776013,0.0,0.0,0.0,-1.0
432394641,432394390,-0.02132242,-0.016072111,-0.07638777,0.6137576,0.0,0.0,0.0,-1.0
432496335,432496085,-0.036082726,-0.023330562,-0.11083869,0.6101591,0.0,0.0,0.0,-1.0
432593161,432592910,-0.03864869,-0.027062282,-0.111184955,0.6101591,0.0,0.0,0.0,-1.0
432695112,432694868,-0.046688814,-0.07747339,-0.11130813,0.61135864,0.0,0.0,0.0,-1.0
432796727,432796475,-0.08551736,-0.025054269,-0.07499895,0.61135864,0.0,0.0,0.0,-1.0
432894782,432894534,-0.09286564,0.018587705,-0.053553864,0.6437454,0.0,0.0,0.0,-1.0
432996563,432996320,-0.009603078,-0.005505471,-0.03872829,0.65094244,0.0,0.0,0.0,-1.0
433094629,433094382,-0.0022653667,-0.019099398,-0.00879615,0.65694004,0.0,0.0,0.0,-1.0
433195180,433194928,-0.029342674,-0.02140483,-0.008419416,0.6281518,0.0,0.0,0.0,-1.0
433293233,433292983,0.0071612685,-0.023793424,-0.0063784393,0.63055074,0.0,0.0,0.0,-1.0
433395003,433394762,-0.0031800887,0.010994462,-0.00083390484,0.6329498,0.0,0.0,0.0,-1.0
433496962,433496706,-0.020009018,-0.00057864405,0.0053555295,0.62935126,0.0,0.0,0.0,-1.0
433594858,433594612,0.0404985,-0.06283475,0.03585382,0.62575275,0.0,0.0,0.0,-1.0
433696640,433696397,-0.0025761956,-0.077508055,0.039892424,0.6173562,0.0,0.0,0.0,-1.0
433794705,433794458,0.0087531265,-0.012113163,0.03364678,0.59456545,0.0,0.0,0.0,-1.0
433895252,433895001,-0.028276596,-0.00936896,0.024510384,0.5897674,0.0,0.0,0.0,-1.0
433993318,433993068,0.007413177,-0.043184053,0.012287646,0.57297426,0.0,0.0,0.0,-1.0
434095092,434094846,-0.029463096,-0.018686827,0.0004977915,0.57417375,0.0,0.0,0.0,-1.0
434196885,434196631,0.0029835727,-0.02955993,-0.0060185143,0.56817627,0.0,0.0,0.0,-1.0
434295046,434294797,-0.047822427,0.017944498,-0.013047454,0.56817627,0.0,0.0,0.0,-1.0
434396723,434396476,-0.018032756,-0.0042407946,-0.09386548,0.5537821,0.0,0.0,0.0,-1.0
434494799,434494538,0.04246618,0.031284604,-0.075697325,0.55498165,0.0,0.0,0.0,-1.0
434595328,434595080,-0.03855791,0.004125399,-0.092577375,0.5573806,0.0,0.0,0.0,-1.0
434693388,434693140,-0.009419946,0.01752336,-0.09844687,0.54538554,0.0,0.0,0.0,-1.0
434795167,434794920,-0.019517275,-0.01776532,-0.09553282,0.52379435,0.0,0.0,0.0,-1.0
434896967,434896710,-0.02681946,-0.019035803,-0.08056165,0.52259487,0.0,0.0,0.0,-1.0
434996267,434996016,-0.028666975,-0.04690693,-0.04701904,0.5669768,0.0,0.0,0.0,-1.0
435095685,435095434,-0.0975776,0.0082312785,0.009637001,0.6953243,0.0,0.0,0.0,-1.0
435193619,435193373,0.017862665,-0.067187086,0.010403261,0.7277111,0.0,0.0,0.0,-1.0
435295400,435295158,-0.012407575,0.0057688183,0.0061414456,0.7517013,0.0,0.0,0.0,-1.0
435393468,435393218,-0.032170653,-0.029494403,-0.004784205,0.7517013,0.0,0.0,0.0,-1.0
435495254,435495002,0.0024142994,-0.026881007,-0.0065537365,0.7337087,0.0,0.0,0.0,-1.0
435597037,435596787,0.022141946,-0.06578333,0.0043753968,0.6893268,0.0,0.0,0.0,-1.0
435695096,435694850,-0.009643589,-0.042231698,-0.0002313092,0.62575275,0.0,0.0,0.0,-1.0
435795659,435795413,-0.068141654,0.013831271,0.0024521518,0.5537821,0.0,0.0,0.0,-1.0
435893778,435893530,0.006773766,-0.050662156,-0.0027772416,0.5,0.0,0.0,0.0,-1.0
435995481,435995236,0.00057121634,-0.044462617,0.00075782125,0.5021053,0.0,0.0,0.0,-1.0
436093541,436093297,0.0072366414,0.0049208547,0.0012471139,0.5031579,0.0,0.0,0.0,-1.0
436195512,436195268,-0.0027462833,-0.038994268,-0.0056262,0.50421053,0.0,0.0,0.0,-1.0
436297133,436296885,-0.023061022,-0.009275482,-0.010618333,0.50631577,0.0,0.0,0.0,-1.0
436395182,436394932,-0.029966721,-0.0096046245,-0.014638323,0.54778457,0.0,0.0,0.0,-1.0
436495718,436495470,-0.052790023,-0.0073911976,-0.020382259,0.5885679,0.0,0.0,0.0,-1.0
436593780,436593530,0.0069689215,-0.008129316,-0.029525029,0.5873684,0.0,0.0,0.0,-1.0
436695574,436695331,-0.003770373,-0.0106414575,-0.040692396,0.5897674,0.0,0.0,0.0,-1.0
436793625,436793377,-0.0023382246,-0.01769511,-0.04757326,0.5897674,0.0,0.0,0.0,-1.0
436895402,436895159,-0.0024861107,-0.08614922,-0.048564386,0.5885679,0.0,0.0,0.0,-1.0
436997358,436997110,0.029343273,-0.048093457,-0.048085622,0.5873684,0.0,0.0,0.0,-1.0
437095264,437095005,-0.06577396,-0.04424118,-0.034578882,0.5873684,0.0,0.0,0.0,-1.0
437195801,437195550,0.03759952,-0.021649329,-0.025452016,0.5897674,0.0,0.0,0.0,-1.0
437293857,437293608,-0.023376282,0.008286115,-0.014710783,0.59456545,0.0,0.0,0.0,-1.0
437395651,437395393,-0.0013883235,-0.01908937,-0.012336216,0.6437454,0.0,0.0,0.0,-1.0
437493701,437493454,0.0449526,-0.048973717,-0.015797092,0.6773317,0.0,0.0,0.0,-1.0
437595481,437595238,0.031798933,-0.043967288,-0.013874398,0.6773317,0.0,0.0,0.0,-1.0
437697285,437697024,-0.008757476,-0.014316496,-0.008068772,0.6761322,0.0,0.0,0.0,-1.0
437794208,437793955,-0.025735874,-0.0241598,-0.020608803,0.6761322,0.0,0.0,0.0,-1.0
437895880,437895628,0.0073646777,-0.029310307,-0.022516826,0.6761322,0.0,0.0,0.0,-1.0
437993949,437993699,0.01924701,-0.038120545,-0.02175074,0.6761322,0.0,0.0,0.0,-1.0
438095713,438095471,-0.03421425,0.005094929,-0.029106379,0.652142,0.0,0.0,0.0,-1.0
438193775,438193532,-0.0006584167,-0.08625017,-0.043564953,0.6401469,0.0,0.0,0.0,-1.0
438295569,438295321,-0.043878473,0.0219167,-0.037883986,0.62575275,0.0,0.0,0.0,-1.0
438396119,438395863,0.033584494,-0.024813028,-0.03686172,0.60176253,0.0,0.0,0.0,-1.0
438494162,438493920,0.012468913,-0.01367349,-0.03808925,0.57417375,0.0,0.0,0.0,-1.0
438596104,438595852,-0.026027296,-0.010466462,-0.036999542,0.5621787,0.0,0.0,0.0,-1.0
438694016,438693765,-0.010738157,-0.05105048,-0.044725504,0.5633782,0.0,0.0,0.0,-1.0
438795793,438795549,0.016374897,-0.05596949,-0.042851496,0.5621787,0.0,0.0,0.0,-1.0
438893853,438893610,-0.024431122,-0.0018655346,-0.04417812,0.5633782,0.0,0.0,0.0,-1.0
438995636,438995396,-0.053999282,-0.025716847,-0.052582454,0.5621787,0.0,0.0,0.0,-1.0
439096184,439095938,-0.02857988,0.00031032498,-0.050514698,0.5633782,0.0,0.0,0.0,-1.0
439194249,439193998,0.0015677323,-0.058171075,-0.05978921,0.56937575,0.0,0.0,0.0,-1.0
439296026,439295783,-0.012691666,-0.095010914,-0.046789464,0.5825704,0.0,0.0,0.0,-1.0
439394135,439393888,-0.016873194,0.009883688,-0.044271443,0.59816396,0.0,0.0,0.0,-1.0
439495876,439495628,0.0068318783,-0.056674834,-0.025658868,0.5969645,0.0,0.0,0.0,-1.0
439593934,439593688,0.011848475,-0.091776416,-0.0086862035,0.595765,0.0,0.0,0.0,-1.0
439695729,439695476,-0.09367875,-0.018941317,-0.011024192,0.59456545,0.0,0.0,0.0,-1.0
439797534,439797267,0.0026111307,-0.054525025,-0.016423412,0.595765,0.0,0.0,0.0,-1.0
439894327,439894076,-0.036870442,-0.044935413,-0.01445992,0.595765,0.0,0.0,0.0,-1.0
439996128,439995864,-0.08446424,-0.058471806,-0.027841723,0.60536104,0.0,0.0,0.0,-1.0
440094172,440093922,0.0018273281,-0.03544242,-0.021556107,0.6173562,0.0,0.0,0.0,-1.0
440196022,440195778,0.028984202,-0.041868925,-0.034560647,0.6161567,0.0,0.0,0.0,-1.0
440294012,440293766,-0.00760725,-0.017140258,-0.040519267,0.6137576,0.0,0.0,0.0,-1.0
440395803,440395552,0.017055834,-0.056214403,-0.046043117,0.6161567,0.0,0.0,0.0,-1.0
440496504,440496258,-0.04726628,-0.047385152,-0.04680351,0.6437454,0.0,0.0,0.0,-1.0
440594401,440594156,-0.04907041,-0.037990753,-0.046477277,0.64974296,0.0,0.0,0.0,-1.0
440696185,440695939,0.030491132,-0.02999442,-0.037256964,0.64974296,0.0,0.0,0.0,-1.0
440794257,440794000,0.0009825272,-0.0648898,-0.039565258,0.64974296,0.0,0.0,0.0,-1.0
440896030,440895784,-0.008760587,-0.01399489,-0.037860025,0.6485435,0.0,0.0,0.0,-1.0
440994138,440993889,0.0018523955,-0.047959313,-0.036018614,0.6389473,0.0,0.0,0.0,-1.0
441094640,441094393,-0.009236877,-0.035310023,-0.03728695,0.6377478,0.0,0.0,0.0,-1.0
441196420,441196172,-0.0047167223,-0.019208498,-0.044702977,0.63654834,0.0,0.0,0.0,-1.0
441294608,441294360,-0.054602426,0.008865859,-0.0351531,0.6377478,0.0,0.0,0.0,-1.0
441396274,441396026,-0.018891513,-0.096530095,-0.03189899,0.6377478,0.0,0.0,0.0,-1.0
441494350,441494104,-0.041949347,-0.08036318,-0.04370018,0.6233537,0.0,0.0,0.0,-1.0
441596124,441595884,-0.0421029,-0.009785919,-0.030119084,0.62575275,0.0,0.0,0.0,-1.0
441694166,441693923,-0.017246602,-0.02342935,-0.023981329,0.62575275,0.0,0.0,0.0,-1.0
441794708,441794465,-0.08092921,-0.0403003,-0.024637237,0.62575275,0.0,0.0,0.0,-1.0
441897749,441897495,-0.040212445,-0.018546106,-0.021902377,0.595765,0.0,0.0,0.0,-1.0
441994567,441994316,-0.03627891,-0.017394178,-0.011629194,0.595765,0.0,0.0,0.0,-1.0
442096485,442096236,-0.005638251,-0.0725437,-6.8408175e-05,0.5657772,0.0,0.0,0.0,-1.0
442194404,442194156,-0.030457329,0.024404127,-0.00069071684,0.5669768,0.0,0.0,0.0,-1.0
442296186,442295943,0.0330902,-0.014053973,-0.0006126433,0.5669768,0.0,0.0,0.0,-1.0
442394254,442394001,-0.025161786,-0.042918935,-0.016205294,0.56817627,0.0,0.0,0.0,-1.0
442494789,442494546,-0.050556097,-0.046928693,-0.024546009,0.5669768,0.0,0.0,0.0,-1.0
442597824,442597571,-0.025559297,-0.023651792,-0.012895228,0.5669768,0.0,0.0,0.0,-1.0
442694633,442694389,-0.057481818,-0.033754542,-0.022866001,0.56817627,0.0,0.0,0.0,-1.0
442796471,442796219,0.02130476,-0.053273257,-0.016516376,0.5837699,0.0,0.0,0.0,-1.0
442894539,442894292,-0.056743715,-0.02904746,-0.022374297,0.62935126,0.0,0.0,0.0,-1.0
442996284,442996019,0.07146647,-0.059038866,-0.027180344,0.62935126,0.0,0.0,0.0,-1.0
443094342,443094083,-0.021537371,-0.054796327,-0.024117788,0.6281518,0.0,0.0,0.0,-1.0
443194869,443194622,0.0054205856,-0.12306278,-0.03418605,0.62695223,0.0,0.0,0.0,-1.0
443296657,443296407,-0.039521866,0.0374739,-0.029844638,0.62695223,0.0,0.0,0.0,-1.0
443394711,443394467,-0.061681658,-0.015155767,-0.037095632,0.62695223,0.0,0.0,0.0,-1.0
443496499,443496252,-0.017842976,-0.06282209,-0.036666743,0.62695223,0.0,0.0,0.0,-1.0
443595805,443595555,-0.0032455036,-0.08459654,-0.03749748,0.62695223,0.0,0.0,0.0,-1.0
443695248,443694994,-0.06445277,-0.032215457,-0.0414575,0.62695223,0.0,0.0,0.0,-1.0
443794410,443794161,-0.014678703,-0.022024943,-0.042220503,0.62695223,0.0,0.0,0.0,-1.0
443894946,443894700,-0.06975199,-0.007284455,-0.027147826,0.62695223,0.0,0.0,0.0,-1.0
443996972,443996721,-0.09867047,-0.05978963,-0.03187855,0.62455326,0.0,0.0,0.0,-1.0
444094794,444094546,-0.05155227,-0.038417436,-0.038752064,0.6101591,0.0,0.0,0.0,-1.0
444196578,444196330,0.0005941746,-0.08601996,-0.02858402,0.61135864,0.0,0.0,0.0,-1.0
444294645,444294399,0.00835877,-0.06471029,-0.033474356,0.6101591,0.0,0.0,0.0,-1.0
444395194,444394936,-0.067147516,-0.030020261,-0.033341236,0.6101591,0.0,0.0,0.0,-1.0
444493290,444493042,-0.019933518,-0.054798033,-0.02872129,0.6101591,0.0,0.0,0.0,-1.0
444595030,444594779,-0.017070027,0.012675404,-0.018332612,0.60776013,0.0,0.0,0.0,-1.0
444696809,444696563,-0.024349403,-0.10562759,-0.024390899,0.6065605,0.0,0.0,0.0,-1.0
444795015,444794769,-0.0524184,-0.015791966,-0.024852257,0.59816396,0.0,0.0,0.0,-1.0
444896665,444896414,-0.05877028,-0.026957229,-0.014242475,0.595765,0.0,0.0,0.0,-1.0
444995962,444995712,-0.050702117,-0.008730965,-0.00825966,0.595765,0.0,0.0,0.0,-1.0
445095261,445095012,-0.049954575,0.038054995,-0.002335393,0.58017135,0.0,0.0,0.0,-1.0
445193324,445193073,-0.04387489,-0.05144577,-0.003435757,0.57417375,0.0,0.0,0.0,-1.0
445295112,445294868,-0.03866318,-0.080735914,-0.008068551,0.5669768,0.0,0.0,0.0,-1.0
445398144,445397893,-0.0046175662,0.0061447225,-0.008971502,0.5537821,0.0,0.0,0.0,-1.0
445494961,445494714,-0.03883429,-0.071457736,-0.014009491,0.55498165,0.0,0.0,0.0,-1.0
445595598,445595349,-0.11187235,-0.0728944,-0.010653242,0.55498165,0.0,0.0,0.0,-1.0
445694803,445694547,-0.04678246,-0.047564756,-0.008162653,0.5261934,0.0,0.0,0.0,-1.0
445795343,445795091,-0.05539196,-0.07257392,-0.012976392,0.5031579,0.0,0.0,0.0,-1.0
445893402,445893158,-0.0696414,-0.10660622,-0.019204948,0.50421053,0.0,0.0,0.0,-1.0
445995181,445994936,-0.048755594,-0.08999974,-0.00382166,0.5621787,0.0,0.0,0.0,-1.0
446096975,446096719,-0.041731667,-0.1059487,-0.008410261,0.5873684,0.0,0.0,0.0,-1.0
446195038,446194779,-0.009267507,-0.07843974,-0.0067767315,0.62575275,0.0,0.0,0.0,-1.0
446296821,446296565,-0.07218029,-0.07862754,-0.014191305,0.6437454,0.0,0.0,0.0,-1.0
446393698,446393447,0.06845813,-0.14966829,-0.023710448,0.65094244,0.0,0.0,0.0,-1.0
446495422,446495170,-0.04964833,-0.080677815,-0.0228505,0.65094244,0.0,0.0,0.0,-1.0
446593472,446593228,-0.067721695,-0.055223327,-0.02779998,0.64974296,0.0,0.0,0.0,-1.0
446695261,446695012,-0.05325782,-0.066149615,-0.03662599,0.64974296,0.0,0.0,0.0,-1.0
446797113,446796866,-0.070952974,-0.054992605,-0.03328764,0.62455326,0.0,0.0,0.0,-1.0
446895108,446894857,-0.008562124,-0.11369128,-0.034481753,0.59816396,0.0,0.0,0.0,-1.0
446996906,446996644,-0.09150921,-0.03555344,-0.039332062,0.5717748,0.0,0.0,0.0,-1.0
447093709,447093461,-0.00077028293,-0.092649154,-0.04020023,0.54538554,0.0,0.0,0.0,-1.0
447195542,447195290,-0.03358145,0.016443254,-0.03540994,0.54418606,0.0,0.0,0.0,-1.0
447293554,447293306,-0.06423981,-0.056286335,-0.027976789,0.54778457,0.0,0.0,0.0,-1.0
447395338,447395090,-0.015628265,-0.0782083,-0.012234365,0.54778457,0.0,0.0,0.0,-1.0
447498376,447498122,-0.05483394,0.0015776058,-0.011853249,0.55018353,0.0,0.0,0.0,-1.0
447595178,447594936,-0.007960596,-0.07228403,-0.0069409134,0.55138314,0.0,0.0,0.0,-1.0
447695724,447695478,-0.03962851,-0.018751118,-0.0046077613,0.5669768,0.0,0.0,0.0,-1.0
447793780,447793540,0.009674543,-0.07846168,-0.007600014,0.5669768,0.0,0.0,0.0,-1.0
447895569,447895324,-0.05742987,-0.09181642,-0.015075831,0.56817627,0.0,0.0,0.0,-1.0
447993689,447993438,-0.090473756,-0.07204827,-0.023350347,0.60416156,0.0,0.0,0.0,-1.0
448095417,448095168,-0.005227734,-0.11121892,-0.015602747,0.6329498,0.0,0.0,0.0,-1.0
448198448,448198200,-0.0024685329,-0.108100004,-0.005785504,0.63175035,0.0,0.0,0.0,-1.0
448294158,448293916,0.01690729,-0.06816828,-0.0013847979,0.63055074,0.0,0.0,0.0,-1.0
448397046,448396798,-0.088258855,-0.050827067,-0.019756515,0.62935126,0.0,0.0,0.0,-1.0
448493860,448493618,-0.02774185,-0.087489076,-0.006473019,0.63055074,0.0,0.0,0.0,-1.0
448595653,448595402,0.03302966,-0.09209703,0.0019547064,0.6401469,0.0,0.0,0.0,-1.0
448693708,448693462,0.013365966,-0.05113353,-0.0012535268,0.6401469,0.0,0.0,0.0,-1.0
448795493,448795246,0.015595326,-0.07777259,-0.007408298,0.6401469,0.0,0.0,0.0,-1.0
448898533,448898274,-0.01926525,-0.0972219,-0.013248414,0.6401469,0.0,0.0,0.0,-1.0
448995335,448995091,-0.076952465,-0.067351766,-0.01624542,0.6389473,0.0,0.0,0.0,-1.0
449095996,449095749,-0.018168015,-0.00057240215,-0.013514457,0.6377478,0.0,0.0,0.0,-1.0
449193940,449193696,-0.030918218,-0.08250694,-0.03298459,0.6377478,0.0,0.0,0.0,-1.0
449295732,449295481,0.027399803,-0.067349866,-0.02331601,0.6389473,0.0,0.0,0.0,-1.0
449395034,449394782,-0.023746872,-0.046098836,-0.009923665,0.6377478,0.0,0.0,0.0,-1.0
449495591,449495349,-0.04973414,0.010358285,-0.010741985,0.6377478,0.0,0.0,0.0,-1.0
449596114,449595866,-0.027181163,-0.071323544,-0.0142170405,0.6101591,0.0,0.0,0.0,-1.0
449694175,449693929,0.0040629334,-0.04625976,-0.013724199,0.59936357,0.0,0.0,0.0,-1.0
449795962,449795711,-0.09256327,0.002315924,-0.014902686,0.59936357,0.0,0.0,0.0,-1.0
449894096,449893851,-0.052677196,0.010622269,-0.014306965,0.59336597,0.0,0.0,0.0,-1.0
449995816,449995560,0.05494321,-0.0869062,-0.008321694,0.59336597,0.0,0.0,0.0,-1.0
450095121,450094860,0.0026857988,-0.10959723,-0.009120459,0.5885679,0.0,0.0,0.0,-1.0
450195698,450195455,-0.038920406,0.010095765,-0.0064484905,0.58017135,0.0,0.0,0.0,-1.0
450296202,450295947,0.013620693,-0.066631556,-0.009670489,0.58017135,0.0,0.0,0.0,-1.0
450394293,450394042,0.0066421214,-0.11678878,-0.0021392736,0.57897186,0.0,0.0,0.0,-1.0
450496036,450495789,0.01493854,-0.025488889,-0.007897135,0.58017135,0.0,0.0,0.0,-1.0
450594092,450593849,0.025716767,-0.04964473,-0.0072450275,0.5777723,0.0,0.0,0.0,-1.0
450695933,450695686,-0.014333506,-0.034341607,-0.013968973,0.57897186,0.0,0.0,0.0,-1.0
450793944,450793694,-0.077088825,-0.018870797,-0.0044040065,0.56937575,0.0,0.0,0.0,-1.0
450895719,450895479,0.017793545,-0.05837934,-0.010603102,0.56937575,0.0,0.0,0.0,-1.0
450996264,450996025,-0.022896495,-0.052033164,-0.016455395,0.5717748,0.0,0.0,0.0,-1.0
451094333,451094088,-0.027719535,-0.05675067,-0.013465803,0.59936357,0.0,0.0,0.0,-1.0
451196116,451195870,0.021852098,-0.08511451,-0.025869526,0.59936357,0.0,0.0,0.0,-1.0
451294171,451293928,-0.045703903,-0.026361665,-0.027225427,0.60056305,0.0,0.0,0.0,-1.0
451395969,451395714,0.07127387,-0.11885971,-0.028767347,0.6197552,0.0,0.0,0.0,-1.0
451494072,451493822,-0.06592897,-0.022627164,-0.026651269,0.64974296,0.0,0.0,0.0,-1.0
451595814,451595557,0.00288511,-0.08685983,-0.019880855,0.6485435,0.0,0.0,0.0,-1.0
451696353,451696105,-0.008721977,-0.097525895,-0.024019465,0.64974296,0.0,0.0,0.0,-1.0
451794556,451794314,-0.0010587894,-0.043024413,-0.035173584,0.65094244,0.0,0.0,0.0,-1.0
451896199,451895944,0.0013593532,-0.08632179,-0.033464607,0.65094244,0.0,0.0,0.0,-1.0
451994259,451994009,-0.017235769,-0.10303807,-0.029079055,0.64974296,0.0,0.0,0.0,-1.0
452096040,452095789,0.010854708,-0.056318164,-0.016075488,0.64974296,0.0,0.0,0.0,-1.0
452195343,452195094,-0.068491936,-0.0021470685,-0.014506131,0.6485435,0.0,0.0,0.0,-1.0
