timestamp,x,y,z,r,flaps,aux1,aux2,aux3,aux4,aux5,aux6,mode_switch,return_switch,rattitude_switch,posctl_switch,loiter_switch,acro_switch,offboard_switch,kill_switch,arm_switch,transition_switch,gear_switch,mode_slot,data_source,stab_switch,man_switch
382789625,0.021686748,0.02507837,0.0,1.0,0.0,0.0,0.0,0.0,0.0,0.0,0.0,0,0,0,0,3,0,0,3,0,0,0,1,1,0,0
382812760,0.021686748,0.02507837,0.0,1.0,0.0,0.0,0.0,0.0,0.0,0.0,0.0,0,0,0,0,3,0,0,3,0,0,0,1,1,0,0
382991015,0.021686748,0.02507837,0.0,1.0,0.0,0.0,0.0,0.0,0.0,0.0,0.0,0,0,0,0,3,0,0,3,0,0,0,1,1,0,0
383189688,0.019277109,0.02507837,0.0,0.93990386,0.0,0.0,0.0,0.0,0.0,0.0,0.0,0,0,0,0,3,0,0,3,0,0,0,1,1,0,0
383390657,0.021686748,0.02507837,0.0,0.0,0.0,0.0,0.0,0.0,0.0,0.0,0.0,0,0,0,0,3,0,0,3,0,0,0,1,1,0,0
383591743,0.019277109,0.02507837,0.0,0.0,0.0,0.0,0.0,0.0,0.0,0.0,0.0,0,0,0,0,3,0,0,3,0,0,0,1,1,0,0
383794707,0.019277109,0.02507837,0.0,0.0,0.0,0.0,0.0,0.0,0.0,0.0,0.0,0,0,0,0,3,0,0,3,0,0,0,1,1,0,0
383986362,0.019277109,0.02507837,0.0,0.0,0.0,0.0,0.0,0.0,0.0,0.0,0.0,0,0,0,0,3,0,0,3,0,0,0,1,1,0,0
384188318,0.019277109,0.02507837,0.0,0.0,0.0,0.0,0.0,0.0,0.0,0.0,0.0,0,0,0,0,3,0,0,3,0,0,0,1,1,0,0
384388366,0.021686748,0.02507837,0.020807834,0.0,0.0,0.0,0.0,0.0,0.0,0.0,0.0,0,0,0,0,3,0,0,3,0,0,0,1,1,0,0
384590273,0.019277109,0.02507837,0.044063646,0.0,0.0,0.0,0.0,0.0,0.0,0.0,0.0,0,0,0,0,3,0,0,3,0,0,0,1,1,0,0
384790711,0.021686748,0.02507837,0.04528764,0.0,0.0,0.0,0.0,0.0,0.0,0.0,0.0,0,0,0,0,3,0,0,3,0,0,0,1,1,0,0
384989196,0.021686748,0.021943573,0.046511628,0.0,0.0,0.0,0.0,0.0,0.0,0.0,0.0,0,0,0,0,3,0,0,3,0,0,0,1,1,0,0
385190480,0.019277109,0.02507837,0.05140759,0.0,0.0,0.0,0.0,0.0,0.0,0.0,0.0,0,0,0,0,3,0,0,3,0,0,0,1,1,0,0
385391417,0.021686748,0.02507837,0.17747858,0.0,0.0,0.0,0.0,0.0,0.0,0.0,0.0,0,0,0,0,3,0,0,3,0,0,0,1,1,0,0
385593328,0.021686748,0.02507837,0.17992656,0.0,0.0,0.0,0.0,0.0,0.0,0.0,0.0,0,0,0,0,3,0,0,3,0,0,0,1,1,0,0
385793572,0.021686748,0.02507837,0.2753978,0.0,0.0,0.0,0.0,0.0,0.0,0.0,0.0,0,0,0,0,3,0,0,3,0,0,0,1,1,0,0
385992126,0.019277109,0.02507837,0.29620564,0.0,0.0,0.0,0.0,0.0,0.0,0.0,0.0,0,0,0,0,3,0,0,3,0,0,0,1,1,0,0
386190683,0.021686748,0.02507837,0.29742962,0.0,0.0,0.0,0.0,0.0,0.0,0.0,0.0,0,0,0,0,3,0,0,3,0,0,0,1,1,0,0
386392598,0.019277109,0.02507837,0.39167687,0.0,0.0,0.0,0.0,0.0,0.0,0.0,0.0,0,0,0,0,3,0,0,3,0,0,0,1,1,0,0
386590556,0.021686748,0.02507837,0.45532435,0.0,0.0,0.0,0.0,0.0,0.0,0.0,0.0,0,0,0,0,3,0,0,3,0,0,0,1,1,0,0
386791616,0.021686748,0.02507837,0.49816403,0.0,0.0,0.0,0.0,0.0,0.0,0.0,0.0,0,0,0,0,3,0,0,3,0,0,0,1,1,0,0
386992908,0.019277109,0.02507837,0.5067319,0.0,0.0,0.0,0.0,0.0,0.0,0.0,0.0,0,0,0,0,3,0,0,3,0,0,0,1,1,0,0
387193801,0.021686748,0.02507837,0.49571604,0.0,0.0,0.0,0.0,0.0,0.0,0.0,0.0,0,0,0,0,3,0,0,3,0,0,0,1,1,0,0
387395052,0.021686748,0.02507837,0.5263158,0.0,0.0,0.0,0.0,0.0,0.0,0.0,0.0,0,0,0,0,3,0,0,3,0,0,0,1,1,0,0
387593662,0.021686748,0.031347964,0.5630355,0.0,0.0,0.0,0.0,0.0,0.0,0.0,0.0,0,0,0,0,3,0,0,3,0,0,0,1,1,0,0
387787970,0.031325303,0.031347964,0.5752754,0.0,0.0,0.0,0.0,0.0,0.0,0.0,0.0,0,0,0,0,3,0,0,3,0,0,0,1,1,0,0
387988128,0.084337346,0.03448276,0.5764994,0.0,0.0,0.0,0.0,0.0,0.0,0.0,0.0,0,0,0,0,3,0,0,3,0,0,0,1,1,0,0
388186733,0.09879518,0.031347964,0.5752754,0.0,0.0,0.0,0.0,0.0,0.0,0.0,0.0,0,0,0,0,3,0,0,3,0,0,0,1,1,0,0
388385422,0.10120482,0.03448276,0.58384335,0.0,0.0,0.0,0.0,0.0,0.0,0.0,0.0,0,0,0,0,3,0,0,3,0,0,0,1,1,0,0
388581745,0.12289157,0.03448276,0.5813953,0.0,0.0,0.0,0.0,0.0,0.0,0.0,0.0,0,0,0,0,3,0,0,3,0,0,0,1,1,0,0
388782740,0.13012049,0.03448276,0.5813953,0.0,0.0,0.0,0.0,0.0,0.0,0.0,0.0,0,0,0,0,3,0,0,3,0,0,0,1,1,0,0
388984335,0.13253012,0.031347964,0.5813953,0.0,0.0,0.0,0.0,0.0,0.0,0.0,0.0,0,0,0,0,3,0,0,3,0,0,0,1,1,0,0
389184758,0.13012049,0.03448276,0.58017135,0.0,0.0,0.0,0.0,0.0,0.0,0.0,0.0,0,0,0,0,3,0,0,3,0,0,0,1,1,0,0
389386587,0.0939759,0.031347964,0.57894737,0.0,0.0,0.0,0.0,0.0,0.0,0.0,0.0,0,0,0,0,3,0,0,3,0,0,0,1,1,0,0
389586905,0.021686748,0.028213166,0.5875153,0.0,0.0,0.0,0.0,0.0,0.0,0.0,0.0,0,0,0,0,3,0,0,3,0,0,0,1,1,0,0
389788737,0.019277109,0.02507837,0.621787,0.0,0.0,0.0,0.0,0.0,0.0,0.0,0.0,0,0,0,0,3,0,0,3,0,0,0,1,1,0,0
389989114,0.021686748,0.02507837,0.627907,0.0,0.0,0.0,0.0,0.0,0.0,0.0,0.0,0,0,0,0,3,0,0,3,0,0,0,1,1,0,0
390190374,0.021686748,0.09404389,0.623011,0.0,0.0,0.0,0.0,0.0,0.0,0.0,0.0,0,0,0,0,3,0,0,3,0,0,0,1,1,0,0
390389362,0.13012049,0.20062695,0.61566705,0.0,0.0,0.0,0.0,0.0,0.0,0.0,0.0,0,0,0,0,3,0,0,3,0,0,0,1,1,0,0
390589837,0.1493976,0.19122256,0.61444306,0.0,0.0,0.0,0.0,0.0,0.0,0.0,0.0,0,0,0,0,3,0,0,3,0,0,0,1,1,0,0
390788602,0.14457831,0.19749217,0.61566705,0.0,0.0,0.0,0.0,0.0,0.0,0.0,0.0,0,0,0,0,3,0,0,3,0,0,0,1,1,0,0
390987204,0.14698794,0.19749217,0.6022032,0.0,0.0,0.0,0.0,0.0,0.0,0.0,0.0,0,0,0,0,3,0,0,3,0,0,0,1,1,0,0
391188780,0.14698794,0.14420062,0.5679315,0.0,0.0,0.0,0.0,0.0,0.0,0.0,0.0,0,0,0,0,3,0,0,3,0,0,0,1,1,0,0
391389199,0.14698794,0.06896552,0.56548345,0.0,0.0,0.0,0.0,0.0,0.0,0.0,0.0,0,0,0,0,3,0,0,3,0,0,0,1,1,0,0
391590523,0.14216867,0.03448276,0.5667075,0.0,0.0,0.0,0.0,0.0,0.0,0.0,0.0,0,0,0,0,3,0,0,3,0,0,0,1,1,0,0
391791493,0.13493976,0.03448276,0.5667075,0.0,0.0,0.0,0.0,0.0,0.0,0.0,0.0,0,0,0,0,3,0,0,3,0,0,0,1,1,0,0
391990058,0.13012049,0.031347964,0.5740514,0.0,0.0,0.0,0.0,0.0,0.0,0.0,0.0,0,0,0,0,3,0,0,3,0,0,0,1,1,0,0
392191365,0.12771085,0.031347964,0.5740514,0.0,0.0,0.0,0.0,0.0,0.0,0.0,0.0,0,0,0,0,3,0,0,3,0,0,0,1,1,0,0
392392234,0.14457831,0.03448276,0.5752754,0.0,0.0,0.0,0.0,0.0,0.0,0.0,0.0,0,0,0,0,3,0,0,3,0,0,0,1,1,0,0
392593627,0.15421687,0.04075235,0.5752754,0.0,0.0,0.0,0.0,0.0,0.0,0.0,0.0,0,0,0,0,3,0,0,3,0,0,0,1,1,0,0
392794349,0.19036144,0.03448276,0.5752754,0.0,0.0,0.0,0.0,0.0,0.0,0.0,0.0,0,0,0,0,3,0,0,3,0,0,0,1,1,0,0
392973198,0.19036144,0.03448276,0.5716034,0.0,0.0,0.0,0.0,0.0,0.0,0.0,0.0,0,0,0,0,3,0,0,3,0,0,0,1,1,0,0
393174389,0.22650602,0.03448276,0.5728274,0.0,0.0,0.0,0.0,0.0,0.0,0.0,0.0,0,0,0,0,3,0,0,3,0,0,0,1,1,0,0
393375292,0.20722891,0.031347964,0.5728274,0.0024038462,0.0,0.0,0.0,0.0,0.0,0.0,0.0,0,0,0,0,3,0,0,3,0,0,0,1,1,0,0
393577186,0.15903614,0.031347964,0.5887393,0.0,0.0,0.0,0.0,0.0,0.0,0.0,0.0,0,0,0,0,3,0,0,3,0,0,0,1,1,0,0
393777387,0.12289157,0.03448276,0.61566705,0.0,0.0,0.0,0.0,0.0,0.0,0.0,0.0,0,0,0,0,3,0,0,3,0,0,0,1,1,0,0
393995878,0.118072286,0.028213166,0.6168911,0.0,0.0,0.0,0.0,0.0,0.0,0.0,0.0,0,0,0,0,3,0,0,3,0,0,0,1,1,0,0
394174896,0.14457831,0.03448276,0.61566705,0.0,0.0,0.0,0.0,0.0,0.0,0.0,0.0,0,0,0,0,3,0,0,3,0,0,0,1,1,0,0
394373249,0.17108434,0.05015674,0.61444306,0.0,0.0,0.0,0.0,0.0,0.0,0.0,0.0,0,0,0,0,3,0,0,3,0,0,0,1,1,0,0
394574979,0.17108434,0.06896552,0.61444306,0.0,0.0,0.0,0.0,0.0,0.0,0.0,0.0,0,0,0,0,3,0,0,3,0,0,0,1,1,0,0
394775356,0.062650606,0.047021944,0.55936354,0.0,0.0,0.0,0.0,0.0,0.0,0.0,0.0,0,0,0,0,3,0,0,3,0,0,0,1,1,0,0
394977168,0.05060241,0.03448276,0.5520196,0.0,0.0,0.0,0.0,0.0,0.0,0.0,0.0,0,0,0,0,3,0,0,3,0,0,0,1,1,0,0
395177632,0.045783132,0.053291537,0.5263158,0.0,0.0,0.0,0.0,0.0,0.0,0.0,0.0,0,0,0,0,3,0,0,3,0,0,0,1,1,0,0
395376226,0.021686748,0.06896552,0.5263158,0.036057692,0.0,0.0,0.0,0.0,0.0,0.0,0.0,0,0,0,0,3,0,0,3,0,0,0,1,1,0,0
395577958,0.019277109,0.028213166,0.5263158,0.05528846,0.0,0.0,0.0,0.0,0.0,0.0,0.0,0,0,0,0,3,0,0,3,0,0,0,1,1,0,0
395778483,0.024096385,0.031347964,0.5275398,0.040865384,0.0,0.0,0.0,0.0,0.0,0.0,0.0,0,0,0,0,3,0,0,3,0,0,0,1,1,0,0
395980153,0.22891566,0.03448276,0.5287638,0.0072115385,0.0,0.0,0.0,0.0,0.0,0.0,0.0,0,0,0,0,3,0,0,3,0,0,0,1,1,0,0
396180710,0.24819277,0.03448276,0.5287638,0.0,0.0,0.0,0.0,0.0,0.0,0.0,0.0,0,0,0,0,3,0,0,3,0,0,0,1,1,0,0
396381834,0.19759037,0.02507837,0.60587513,0.0,0.0,0.0,0.0,0.0,0.0,0.0,0.0,0,0,0,0,3,0,0,3,0,0,0,1,1,0,0
396580405,0.20481928,0.028213166,0.6474908,0.0,0.0,0.0,0.0,0.0,0.0,0.0,0.0,0,0,0,0,3,0,0,3,0,0,0,1,1,0,0
396779008,0.1493976,0.031347964,0.64504284,0.0,0.0,0.0,0.0,0.0,0.0,0.0,0.0,0,0,0,0,3,0,0,3,0,0,0,1,1,0,0
396978326,0.16144578,0.028213166,0.64504284,0.0,0.0,0.0,0.0,0.0,0.0,0.0,0.0,0,0,0,0,3,0,0,3,0,0,0,1,1,0,0
397178687,0.15421687,0.028213166,0.64504284,0.0,0.0,0.0,0.0,0.0,0.0,0.0,0.0,0,0,0,0,3,0,0,3,0,0,0,1,1,0,0
397377308,0.15903614,0.028213166,0.64504284,0.0,0.0,0.0,0.0,0.0,0.0,0.0,0.0,0,0,0,0,3,0,0,3,0,0,0,1,1,0,0
397575853,0.16385542,0.03448276,0.64381886,0.0,0.0,0.0,0.0,0.0,0.0,0.0,0.0,0,0,0,0,3,0,0,3,0,0,0,1,1,0,0
397774303,0.20481928,0.037617553,0.61566705,0.0,0.0,0.0,0.0,0.0,0.0,0.0,0.0,0,0,0,0,3,0,0,3,0,0,0,1,1,0,0
397976444,0.20240964,0.05015674,0.61444306,0.0,0.0,0.0,0.0,0.0,0.0,0.0,0.0,0,0,0,0,3,0,0,3,0,0,0,1,1,0,0
398176523,0.25301206,0.11912226,0.60954714,0.0,0.0,0.0,0.0,0.0,0.0,0.0,0.0,0,0,0,0,3,0,0,3,0,0,0,1,1,0,0
398378556,0.21445782,0.05956113,0.59363526,0.0,0.0,0.0,0.0,0.0,0.0,0.0,0.0,0,0,0,0,3,0,0,3,0,0,0,1,1,0,0
398578796,0.2,0.09404389,0.5716034,0.0,0.0,0.0,0.0,0.0,0.0,0.0,0.0,0,0,0,0,3,0,0,3,0,0,0,1,1,0,0
398780646,0.20722891,0.122257054,0.5716034,0.0,0.0,0.0,0.0,0.0,0.0,0.0,0.0,0,0,0,0,3,0,0,3,0,0,0,1,1,0,0
398980866,0.13975903,0.028213166,0.5716034,0.0,0.0,0.0,0.0,0.0,0.0,0.0,0.0,0,0,0,0,3,0,0,3,0,0,0,1,1,0,0
399179380,0.06746988,0.028213166,0.58996326,0.014423077,0.0,0.0,0.0,0.0,0.0,0.0,0.0,0,0,0,0,3,0,0,3,0,0,0,1,1,0,0
399381323,0.021686748,0.02507837,0.6034272,0.0,0.0,0.0,0.0,0.0,0.0,0.0,0.0,0,0,0,0,3,0,0,3,0,0,0,1,1,0,0
399581814,0.019277109,0.02507837,0.5875153,0.0,0.0,0.0,0.0,0.0,0.0,0.0,0.0,0,0,0,0,3,0,0,3,0,0,0,1,1,0,0
399780196,0.019277109,0.02507837,0.5862913,0.0024038462,0.0,0.0,0.0,0.0,0.0,0.0,0.0,0,0,0,0,3,0,0,3,0,0,0,1,1,0,0
399977195,0.019277109,0.0846395,0.5887393,0.0,0.0,0.0,0.0,0.0,0.0,0.0,0.0,0,0,0,0,3,0,0,3,0,0,0,1,1,0,0
400175620,0.021686748,0.15360501,0.55446756,0.0,0.0,0.0,0.0,0.0,0.0,0.0,0.0,0,0,0,0,3,0,0,3,0,0,0,1,1,0,0
400376145,0.021686748,0.18495297,0.55446756,0.0,0.0,0.0,0.0,0.0,0.0,0.0,0.0,0,0,0,0,3,0,0,3,0,0,0,1,1,0,0
400574606,0.021686748,0.21003135,0.55569154,0.0,0.0,0.0,0.0,0.0,0.0,0.0,0.0,0,0,0,0,3,0,0,3,0,0,0,1,1,0,0
400776616,0.021686748,0.3260188,0.5752754,0.0,0.0,0.0,0.0,0.0,0.0,0.0,0.0,0,0,0,0,3,0,0,3,0,0,0,1,1,0,0
400974661,0.021686748,0.14106584,0.5997552,0.0,0.0,0.0,0.0,0.0,0.0,0.0,0.0,0,0,0,0,3,0,0,3,0,0,0,1,1,0,0
401183125,0.021686748,0.02507837,0.60832316,0.0,0.0,0.0,0.0,0.0,0.0,0.0,0.0,0,0,0,0,3,0,0,3,0,0,0,1,1,0,0
401376667,0.021686748,0.02507837,0.6425949,0.0,0.0,0.0,0.0,0.0,0.0,0.0,0.0,0,0,0,0,3,0,0,3,0,0,0,1,1,0,0
401577668,0.024096385,0.031347964,0.6425949,0.0,0.0,0.0,0.0,0.0,0.0,0.0,0.0,0,0,0,0,3,0,0,3,0,0,0,1,1,0,0
401779643,0.055421688,0.03448276,0.5862913,0.0,0.0,0.0,0.0,0.0,0.0,0.0,0.0,0,0,0,0,3,0,0,3,0,0,0,1,1,0,0
401979804,0.118072286,0.03448276,0.5361077,0.0,0.0,0.0,0.0,0.0,0.0,0.0,0.0,0,0,0,0,3,0,0,3,0,0,0,1,1,0,0
402181009,0.110843375,0.037617553,0.5373317,0.0,0.0,0.0,0.0,0.0,0.0,0.0,0.0,0,0,0,0,3,0,0,3,0,0,0,1,1,0,0
402379735,0.16867469,0.03448276,0.5263158,0.0,0.0,0.0,0.0,0.0,0.0,0.0,0.0,0,0,0,0,3,0,0,3,0,0,0,1,1,0,0
402580659,0.15903614,0.028213166,0.57894737,0.0,0.0,0.0,0.0,0.0,0.0,0.0,0.0,0,0,0,0,3,0,0,3,0,0,0,1,1,0,0
402779382,0.14698794,0.028213166,0.63280296,0.0,0.0,0.0,0.0,0.0,0.0,0.0,0.0,0,0,0,0,3,0,0,3,0,0,0,1,1,0,0
402977825,0.15421687,0.03448276,0.63280296,0.0,0.0,0.0,0.0,0.0,0.0,0.0,0.0,0,0,0,0,3,0,0,3,0,0,0,1,1,0,0
403179115,0.16626506,0.09717868,0.63280296,0.0,0.0,0.0,0.0,0.0,0.0,0.0,0.0,0,0,0,0,3,0,0,3,0,0,0,1,1,0,0
403380049,0.16626506,0.09090909,0.61444306,0.0,0.0,0.0,0.0,0.0,0.0,0.0,0.0,0,0,0,0,3,0,0,3,0,0,0,1,1,0,0
403581301,0.18313253,0.09717868,0.6107711,0.0,0.0,0.0,0.0,0.0,0.0,0.0,0.0,0,0,0,0,3,0,0,3,0,0,0,1,1,0,0
403782218,0.19518073,0.11285266,0.60954714,0.0,0.0,0.0,0.0,0.0,0.0,0.0,0.0,0,0,0,0,3,0,0,3,0,0,0,1,1,0,0
403983489,0.18313253,0.08777429,0.60954714,0.0,0.0,0.0,0.0,0.0,0.0,0.0,0.0,0,0,0,0,3,0,0,3,0,0,0,1,1,0,0
404184260,0.17349398,0.09717868,0.60954714,0.0,0.0,0.0,0.0,0.0,0.0,0.0,0.0,0,0,0,0,3,0,0,3,0,0,0,1,1,0,0
404382846,0.15180723,0.05956113,0.60954714,0.0,0.0,0.0,0.0,0.0,0.0,0.0,0.0,0,0,0,0,3,0,0,3,0,0,0,1,1,0,0
404584150,0.1373494,0.031347964,0.60954714,0.0,0.0,0.0,0.0,0.0,0.0,0.0,0.0,0,0,0,0,3,0,0,3,0,0,0,1,1,0,0
404785148,0.13975903,0.03448276,0.6070991,0.0,0.0,0.0,0.0,0.0,0.0,0.0,0.0,0,0,0,0,3,0,0,3,0,0,0,1,1,0,0
404986744,0.15903614,0.05015674,0.5997552,0.0,0.0,0.0,0.0,0.0,0.0,0.0,0.0,0,0,0,0,3,0,0,3,0,0,0,1,1,0,0
405187184,0.13253012,0.031347964,0.5973072,0.0,0.0,0.0,0.0,0.0,0.0,0.0,0.0,0,0,0,0,3,0,0,3,0,0,0,1,1,0,0
405385951,0.118072286,0.03448276,0.5826193,0.0,0.0,0.0,0.0,0.0,0.0,0.0,0.0,0,0,0,0,3,0,0,3,0,0,0,1,1,0,0
405584566,0.14698794,0.05956113,0.56548345,0.0,0.0,0.0,0.0,0.0,0.0,0.0,0.0,0,0,0,0,3,0,0,3,0,0,0,1,1,0,0
405786204,0.14457831,0.0815047,0.5422277,0.0,0.0,0.0,0.0,0.0,0.0,0.0,0.0,0,0,0,0,3,0,0,3,0,0,0,1,1,0,0
405986798,0.15903614,0.10971787,0.5532436,0.0,0.0,0.0,0.0,0.0,0.0,0.0,0.0,0,0,0,0,3,0,0,3,0,0,0,1,1,0,0
406185231,0.17108434,0.11912226,0.56548345,0.0,0.0,0.0,0.0,0.0,0.0,0.0,0.0,0,0,0,0,3,0,0,3,0,0,0,1,1,0,0
406383919,0.12289157,0.03448276,0.6009792,0.0,0.0,0.0,0.0,0.0,0.0,0.0,0.0,0,0,0,0,3,0,0,3,0,0,0,1,1,0,0
406582718,0.15903614,0.09090909,0.626683,0.0,0.0,0.0,0.0,0.0,0.0,0.0,0.0,0,0,0,0,3,0,0,3,0,0,0,1,1,0,0
406783713,0.1493976,0.037617553,0.625459,0.0,0.0,0.0,0.0,0.0,0.0,0.0,0.0,0,0,0,0,3,0,0,3,0,0,0,1,1,0,0
406984541,0.15421687,0.075235106,0.623011,0.0,0.0,0.0,0.0,0.0,0.0,0.0,0.0,0,0,0,0,3,0,0,3,0,0,0,1,1,0,0
407183147,0.13975903,0.03448276,0.621787,0.0,0.0,0.0,0.0,0.0,0.0,0.0,0.0,0,0,0,0,3,0,0,3,0,0,0,1,1,0,0
407384636,0.10361446,0.03448276,0.61933905,0.0,0.0,0.0,0.0,0.0,0.0,0.0,0.0,0,0,0,0,3,0,0,3,0,0,0,1,1,0,0
407585464,0.09638554,0.037617553,0.60954714,0.0,0.0,0.0,0.0,0.0,0.0,0.0,0.0,0,0,0,0,3,0,0,3,0,0,0,1,1,0,0
407787257,0.084337346,0.03448276,0.60954714,0.0,0.0,0.0,0.0,0.0,0.0,0.0,0.0,0,0,0,0,3,0,0,3,0,0,0,1,1,0,0
407987599,0.021686748,0.02507837,0.6119951,0.0,0.0,0.0,0.0,0.0,0.0,0.0,0.0,0,0,0,0,3,0,0,3,0,0,0,1,1,0,0
408186204,0.021686748,0.02507837,0.6119951,0.0,0.0,0.0,0.0,0.0,0.0,0.0,0.0,0,0,0,0,3,0,0,3,0,0,0,1,1,0,0
408384883,0.021686748,0.028213166,0.6119951,0.0,0.0,0.0,0.0,0.0,0.0,0.0,0.0,0,0,0,0,3,0,0,3,0,0,0,1,1,0,0
408586552,0.021686748,0.03448276,0.6107711,0.0,0.0,0.0,0.0,0.0,0.0,0.0,0.0,0,0,0,0,3,0,0,3,0,0,0,1,1,0,0
408786948,0.021686748,0.05015674,0.6119951,0.0,0.0,0.0,0.0,0.0,0.0,0.0,0.0,0,0,0,0,3,0,0,3,0,0,0,1,1,0,0
408988261,0.021686748,0.106583074,0.60465115,0.0,0.0,0.0,0.0,0.0,0.0,0.0,0.0,0,0,0,0,3,0,0,3,0,0,0,1,1,0,0
409187552,0.021686748,0.106583074,0.5177479,0.012019231,0.0,0.0,0.0,0.0,0.0,0.0,0.0,0,0,0,0,3,0,0,3,0,0,0,1,1,0,0
409387658,0.026506023,0.1630094,0.51897186,0.0,0.0,0.0,0.0,0.0,0.0,0.0,0.0,0,0,0,0,3,0,0,3,0,0,0,1,1,0,0
409586267,0.07951807,0.2413793,0.52019584,0.0,0.0,0.0,0.0,0.0,0.0,0.0,0.0,0,0,0,0,3,0,0,3,0,0,0,1,1,0,0
409788354,0.026506023,0.14733543,0.61566705,0.009615385,0.0,0.0,0.0,0.0,0.0,0.0,0.0,0,0,0,0,3,0,0,3,0,0,0,1,1,0,0
409988608,0.021686748,0.1724138,0.64504284,0.0,0.0,0.0,0.0,0.0,0.0,0.0,0.0,0,0,0,0,3,0,0,3,0,0,0,1,1,0,0
410190447,0.021686748,0.1661442,0.64504284,0.0,0.0,0.0,0.0,0.0,0.0,0.0,0.0,0,0,0,0,3,0,0,3,0,0,0,1,1,0,0
410369196,0.021686748,0.1724138,0.64504284,0.0,0.0,0.0,0.0,0.0,0.0,0.0,0.0,0,0,0,0,3,0,0,3,0,0,0,1,1,0,0
410591952,0.021686748,0.1630094,0.64504284,0.0,0.0,0.0,0.0,0.0,0.0,0.0,0.0,0,0,0,0,3,0,0,3,0,0,0,1,1,0,0
410792740,0.045783132,0.09717868,0.61566705,0.0,0.0,0.0,0.0,0.0,0.0,0.0,0.0,0,0,0,0,3,0,0,3,0,0,0,1,1,0,0
410989734,0.057831325,0.075235106,0.61566705,0.0,0.0,0.0,0.0,0.0,0.0,0.0,0.0,0,0,0,0,3,0,0,3,0,0,0,1,1,0,0
411190095,0.10120482,0.05642633,0.59363526,0.0,0.0,0.0,0.0,0.0,0.0,0.0,0.0,0,0,0,0,3,0,0,3,0,0,0,1,1,0,0
411388615,0.12771085,0.043887146,0.5911873,0.0,0.0,0.0,0.0,0.0,0.0,0.0,0.0,0,0,0,0,3,0,0,3,0,0,0,1,1,0,0
411587245,0.12771085,0.031347964,0.5764994,0.0,0.0,0.0,0.0,0.0,0.0,0.0,0.0,0,0,0,0,3,0,0,3,0,0,0,1,1,0,0
411788625,0.13253012,0.031347964,0.5752754,0.0,0.0,0.0,0.0,0.0,0.0,0.0,0.0,0,0,0,0,3,0,0,3,0,0,0,1,1,0,0
411987643,0.13493976,0.031347964,0.5777234,0.0,0.0,0.0,0.0,0.0,0.0,0.0,0.0,0,0,0,0,3,0,0,3,0,0,0,1,1,0,0
412187962,0.15421687,0.06583072,0.5777234,0.0,0.0,0.0,0.0,0.0,0.0,0.0,0.0,0,0,0,0,3,0,0,3,0,0,0,1,1,0,0
412389306,0.13975903,0.06269593,0.57894737,0.0,0.0,0.0,0.0,0.0,0.0,0.0,0.0,0,0,0,0,3,0,0,3,0,0,0,1,1,0,0
412585215,0.1493976,0.075235106,0.5813953,0.0,0.0,0.0,0.0,0.0,0.0,0.0,0.0,0,0,0,0,3,0,0,3,0,0,0,1,1,0,0
412784036,0.11566265,0.037617553,0.5826193,0.0,0.0,0.0,0.0,0.0,0.0,0.0,0.0,0,0,0,0,3,0,0,3,0,0,0,1,1,0,0
412985796,0.118072286,0.031347964,0.5826193,0.0,0.0,0.0,0.0,0.0,0.0,0.0,0.0,0,0,0,0,3,0,0,3,0,0,0,1,1,0,0
413183797,0.11566265,0.028213166,0.58996326,0.0,0.0,0.0,0.0,0.0,0.0,0.0,0.0,0,0,0,0,3,0,0,3,0,0,0,1,1,0,0
413382390,0.062650606,0.03448276,0.6364749,0.0,0.0,0.0,0.0,0.0,0.0,0.0,0.0,0,0,0,0,3,0,0,3,0,0,0,1,1,0,0
413581195,0.062650606,0.047021944,0.6462668,0.0,0.0,0.0,0.0,0.0,0.0,0.0,0.0,0,0,0,0,3,0,0,3,0,0,0,1,1,0,0
413781832,0.028915662,0.04075235,0.65728277,0.0048076925,0.0,0.0,0.0,0.0,0.0,0.0,0.0,0,0,0,0,3,0,0,3,0,0,0,1,1,0,0
413983089,0.084337346,0.11598746,0.6425949,0.0,0.0,0.0,0.0,0.0,0.0,0.0,0.0,0,0,0,0,3,0,0,3,0,0,0,1,1,0,0
414184006,0.05060241,0.11912226,0.5973072,0.0,0.0,0.0,0.0,0.0,0.0,0.0,0.0,0,0,0,0,3,0,0,3,0,0,0,1,1,0,0
414386169,0.019277109,0.106583074,0.55569154,0.0,0.0,0.0,0.0,0.0,0.0,0.0,0.0,0,0,0,0,3,0,0,3,0,0,0,1,1,0,0
414586436,0.019277109,0.15047021,0.5569155,0.0,0.0,0.0,0.0,0.0,0.0,0.0,0.0,0,0,0,0,3,0,0,3,0,0,0,1,1,0,0
414787488,0.024096385,0.18495297,0.55813956,0.0,0.0,0.0,0.0,0.0,0.0,0.0,0.0,0,0,0,0,3,0,0,3,0,0,0,1,1,0,0
414988435,0.021686748,0.15360501,0.55813956,0.0,0.0,0.0,0.0,0.0,0.0,0.0,0.0,0,0,0,0,3,0,0,3,0,0,0,1,1,0,0
415189838,0.019277109,0.10344828,0.58017135,0.0,0.0,0.0,0.0,0.0,0.0,0.0,0.0,0,0,0,0,3,0,0,3,0,0,0,1,1,0,0
415388749,0.021686748,0.10971787,0.5813953,0.0,0.0,0.0,0.0,0.0,0.0,0.0,0.0,0,0,0,0,3,0,0,3,0,0,0,1,1,0,0
415587379,0.019277109,0.07210031,0.5813953,0.0,0.0,0.0,0.0,0.0,0.0,0.0,0.0,0,0,0,0,3,0,0,3,0,0,0,1,1,0,0
415787878,0.021686748,0.075235106,0.63035494,0.0,0.0,0.0,0.0,0.0,0.0,0.0,0.0,0,0,0,0,3,0,0,3,0,0,0,1,1,0,0
415989390,0.038554218,0.10031348,0.63035494,0.0,0.0,0.0,0.0,0.0,0.0,0.0,0.0,0,0,0,0,3,0,0,3,0,0,0,1,1,0,0
416189856,0.021686748,0.09717868,0.63035494,0.0,0.0,0.0,0.0,0.0,0.0,0.0,0.0,0,0,0,0,3,0,0,3,0,0,0,1,1,0,0
416388486,0.026506023,0.08777429,0.626683,0.0,0.0,0.0,0.0,0.0,0.0,0.0,0.0,0,0,0,0,3,0,0,3,0,0,0,1,1,0,0
416587091,0.0746988,0.122257054,0.6034272,0.0,0.0,0.0,0.0,0.0,0.0,0.0,0.0,0,0,0,0,3,0,0,3,0,0,0,1,1,0,0
416788780,0.05060241,0.14733543,0.5887393,0.0,0.0,0.0,0.0,0.0,0.0,0.0,0.0,0,0,0,0,3,0,0,3,0,0,0,1,1,0,0
416987632,0.0939759,0.19122256,0.5887393,0.0,0.0,0.0,0.0,0.0,0.0,0.0,0.0,0,0,0,0,3,0,0,3,0,0,0,1,1,0,0
417187904,0.118072286,0.11285266,0.5875153,0.0,0.0,0.0,0.0,0.0,0.0,0.0,0.0,0,0,0,0,3,0,0,3,0,0,0,1,1,0,0
417389624,0.13012049,0.053291537,0.5887393,0.0,0.0,0.0,0.0,0.0,0.0,0.0,0.0,0,0,0,0,3,0,0,3,0,0,0,1,1,0,0
417590056,0.15180723,0.03448276,0.58996326,0.0,0.0,0.0,0.0,0.0,0.0,0.0,0.0,0,0,0,0,3,0,0,3,0,0,0,1,1,0,0
417788683,0.17590362,0.04075235,0.58996326,0.0,0.0,0.0,0.0,0.0,0.0,0.0,0.0,0,0,0,0,3,0,0,3,0,0,0,1,1,0,0
417990050,0.1373494,0.031347964,0.5924113,0.0,0.0,0.0,0.0,0.0,0.0,0.0,0.0,0,0,0,0,3,0,0,3,0,0,0,1,1,0,0
418188617,0.13012049,0.03448276,0.62056303,0.0,0.0,0.0,0.0,0.0,0.0,0.0,0.0,0,0,0,0,3,0,0,3,0,0,0,1,1,0,0
418389446,0.14698794,0.0815047,0.621787,0.0,0.0,0.0,0.0,0.0,0.0,0.0,0.0,0,0,0,0,3,0,0,3,0,0,0,1,1,0,0
418588047,0.1493976,0.11598746,0.621787,0.0,0.0,0.0,0.0,0.0,0.0,0.0,0.0,0,0,0,0,3,0,0,3,0,0,0,1,1,0,0
418786723,0.16867469,0.20689656,0.621787,0.0,0.0,0.0,0.0,0.0,0.0,0.0,0.0,0,0,0,0,3,0,0,3,0,0,0,1,1,0,0
418988335,0.15903614,0.1598746,0.621787,0.0,0.0,0.0,0.0,0.0,0.0,0.0,0.0,0,0,0,0,3,0,0,3,0,0,0,1,1,0,0
419189284,0.15180723,0.13793103,0.621787,0.0,0.0,0.0,0.0,0.0,0.0,0.0,0.0,0,0,0,0,3,0,0,3,0,0,0,1,1,0,0
419390536,0.15421687,0.14733543,0.623011,0.0,0.0,0.0,0.0,0.0,0.0,0.0,0.0,0,0,0,0,3,0,0,3,0,0,0,1,1,0,0
419566184,0.15180723,0.1598746,0.621787,0.0,0.0,0.0,0.0,0.0,0.0,0.0,0.0,0,0,0,0,3,0,0,3,0,0,0,1,1,0,0
419787746,0.13493976,0.15360501,0.621787,0.0,0.0,0.0,0.0,0.0,0.0,0.0,0.0,0,0,0,0,3,0,0,3,0,0,0,1,1,0,0
419986312,0.14698794,0.14106584,0.621787,0.0,0.0,0.0,0.0,0.0,0.0,0.0,0.0,0,0,0,0,3,0,0,3,0,0,0,1,1,0,0
420181929,0.12289157,0.07210031,0.621787,0.0,0.0,0.0,0.0,0.0,0.0,0.0,0.0,0,0,0,0,3,0,0,3,0,0,0,1,1,0,0
420383910,0.07951807,0.03448276,0.623011,0.0,0.0,0.0,0.0,0.0,0.0,0.0,0.0,0,0,0,0,3,0,0,3,0,0,0,1,1,0,0
420582432,0.057831325,0.031347964,0.6413709,0.0,0.0,0.0,0.0,0.0,0.0,0.0,0.0,0,0,0,0,3,0,0,3,0,0,0,1,1,0,0
420782745,0.019277109,0.028213166,0.64014685,0.0,0.0,0.0,0.0,0.0,0.0,0.0,0.0,0,0,0,0,3,0,0,3,0,0,0,1,1,0,0
420981222,0.019277109,0.02507837,0.63892287,0.0,0.0,0.0,0.0,0.0,0.0,0.0,0.0,0,0,0,0,3,0,0,3,0,0,0,1,1,0,0
421182632,0.019277109,0.02507837,0.5973072,0.0,0.0,0.0,0.0,0.0,0.0,0.0,0.0,0,0,0,0,3,0,0,3,0,0,0,1,1,0,0
421383452,0.019277109,0.02507837,0.58996326,0.0,0.0,0.0,0.0,0.0,0.0,0.0,0.0,0,0,0,0,3,0,0,3,0,0,0,1,1,0,0
421585425,0.019277109,0.018808777,0.58996326,0.0,0.0,0.0,0.0,0.0,0.0,0.0,0.0,0,0,0,0,3,0,0,3,0,0,0,1,1,0,0
421785578,0.021686748,0.0,0.5887393,0.0,0.0,0.0,0.0,0.0,0.0,0.0,0.0,0,0,0,0,3,0,0,3,0,0,0,1,1,0,0
421987578,0.021686748,0.0,0.58996326,0.0,0.0,0.0,0.0,0.0,0.0,0.0,0.0,0,0,0,0,3,0,0,3,0,0,0,1,1,0,0
422187819,0.021686748,-0.0060975607,0.5887393,0.0,0.0,0.0,0.0,0.0,0.0,0.0,0.0,0,0,0,0,3,0,0,3,0,0,0,1,1,0,0
422389991,0.024096385,0.0,0.58996326,0.0,0.0,0.0,0.0,0.0,0.0,0.0,0.0,0,0,0,0,3,0,0,3,0,0,0,1,1,0,0
422590224,0.021686748,0.02507837,0.5911873,0.0,0.0,0.0,0.0,0.0,0.0,0.0,0.0,0,0,0,0,3,0,0,3,0,0,0,1,1,0,0
422788486,0.021686748,0.028213166,0.5960832,0.0,0.0,0.0,0.0,0.0,0.0,0.0,0.0,0,0,0,0,3,0,0,3,0,0,0,1,1,0,0
422991326,0.021686748,0.031347964,0.61566705,0.0,0.0,0.0,0.0,0.0,0.0,0.0,0.0,0,0,0,0,3,0,0,3,0,0,0,1,1,0,0
423189430,0.021686748,0.021943573,0.61566705,0.0,0.0,0.0,0.0,0.0,0.0,0.0,0.0,0,0,0,0,3,0,0,3,0,0,0,1,1,0,0
423389252,0.021686748,0.021943573,0.6425949,0.0,0.0,0.0,0.0,0.0,0.0,0.0,0.0,0,0,0,0,3,0,0,3,0,0,0,1,1,0,0
423590531,0.021686748,0.028213166,0.6425949,0.0,0.0,0.0,0.0,0.0,0.0,0.0,0.0,0,0,0,0,3,0,0,3,0,0,0,1,1,0,0
423791494,0.021686748,0.02507837,0.6425949,0.0,0.0,0.0,0.0,0.0,0.0,0.0,0.0,0,0,0,0,3,0,0,3,0,0,0,1,1,0,0
423992699,0.021686748,0.02507837,0.63035494,0.0,0.0,0.0,0.0,0.0,0.0,0.0,0.0,0,0,0,0,3,0,0,3,0,0,0,1,1,0,0
424193570,0.021686748,0.02507837,0.5924113,0.0,0.0,0.0,0.0,0.0,0.0,0.0,0.0,0,0,0,0,3,0,0,3,0,0,0,1,1,0,0
424394933,0.021686748,0.02507837,0.5862913,0.0,0.0,0.0,0.0,0.0,0.0,0.0,0.0,0,0,0,0,3,0,0,3,0,0,0,1,1,0,0
424595759,0.021686748,0.02507837,0.5716034,0.0,0.0,0.0,0.0,0.0,0.0,0.0,0.0,0,0,0,0,3,0,0,3,0,0,0,1,1,0,0
424794362,0.021686748,0.021943573,0.5728274,0.0,0.0,0.0,0.0,0.0,0.0,0.0,0.0,0,0,0,0,3,0,0,3,0,0,0,1,1,0,0
424973156,0.019277109,0.02507837,0.60832316,0.0,0.0,0.0,0.0,0.0,0.0,0.0,0.0,0,0,0,0,3,0,0,3,0,0,0,1,1,0,0
425194374,0.021686748,0.02507837,0.6132191,0.0,0.0,0.0,0.0,0.0,0.0,0.0,0.0,0,0,0,0,3,0,0,3,0,0,0,1,1,0,0
425373044,0.021686748,0.02507837,0.6119951,0.0,0.0,0.0,0.0,0.0,0.0,0.0,0.0,0,0,0,0,3,0,0,3,0,0,0,1,1,0,0
425574105,0.021686748,0.028213166,0.6119951,0.0,0.0,0.0,0.0,0.0,0.0,0.0,0.0,0,0,0,0,3,0,0,3,0,0,0,1,1,0,0
425775718,0.021686748,0.028213166,0.6119951,0.0,0.0,0.0,0.0,0.0,0.0,0.0,0.0,0,0,0,0,3,0,0,3,0,0,0,1,1,0,0
425976257,0.021686748,0.0846395,0.60954714,0.0,0.0,0.0,0.0,0.0,0.0,0.0,0.0,0,0,0,0,3,0,0,3,0,0,0,1,1,0,0
426194996,0.021686748,0.13793103,0.5985312,0.0,0.0,0.0,0.0,0.0,0.0,0.0,0.0,0,0,0,0,3,0,0,3,0,0,0,1,1,0,0
426373305,0.021686748,0.20062695,0.5997552,0.0,0.0,0.0,0.0,0.0,0.0,0.0,0.0,0,0,0,0,3,0,0,3,0,0,0,1,1,0,0
426574650,0.019277109,0.26959246,0.5997552,0.0,0.0,0.0,0.0,0.0,0.0,0.0,0.0,0,0,0,0,3,0,0,3,0,0,0,1,1,0,0
426773366,0.019277109,0.2633229,0.57894737,0.0,0.0,0.0,0.0,0.0,0.0,0.0,0.0,0,0,0,0,3,0,0,3,0,0,0,1,1,0,0
426974005,0.019277109,0.23824452,0.57894737,0.0,0.0,0.0,0.0,0.0,0.0,0.0,0.0,0,0,0,0,3,0,0,3,0,0,0,1,1,0,0
427175415,0.026506023,0.037617553,0.5630355,0.0,0.0,0.0,0.0,0.0,0.0,0.0,0.0,0,0,0,0,3,0,0,3,0,0,0,1,1,0,0
427396345,0.077108435,0.031347964,0.56425947,0.0,0.0,0.0,0.0,0.0,0.0,0.0,0.0,0,0,0,0,3,0,0,3,0,0,0,1,1,0,0
427575036,0.09638554,0.031347964,0.56425947,0.0,0.0,0.0,0.0,0.0,0.0,0.0,0.0,0,0,0,0,3,0,0,3,0,0,0,1,1,0,0
427783907,0.14457831,0.028213166,0.58996326,0.0,0.0,0.0,0.0,0.0,0.0,0.0,0.0,0,0,0,0,3,0,0,3,0,0,0,1,1,0,0
427977037,0.12771085,0.028213166,0.6119951,0.0,0.0,0.0,0.0,0.0,0.0,0.0,0.0,0,0,0,0,3,0,0,3,0,0,0,1,1,0,0
428178988,0.10843374,0.028213166,0.64504284,0.0,0.0,0.0,0.0,0.0,0.0,0.0,0.0,0,0,0,0,3,0,0,3,0,0,0,1,1,0,0
428379498,0.0939759,0.028213166,0.64504284,0.0,0.0,0.0,0.0,0.0,0.0,0.0,0.0,0,0,0,0,3,0,0,3,0,0,0,1,1,0,0
428580526,0.045783132,0.031347964,0.64504284,0.0,0.0,0.0,0.0,0.0,0.0,0.0,0.0,0,0,0,0,3,0,0,3,0,0,0,1,1,0,0
428781379,0.021686748,0.02507837,0.6364749,0.0,0.0,0.0,0.0,0.0,0.0,0.0,0.0,0,0,0,0,3,0,0,3,0,0,0,1,1,0,0
428979910,0.021686748,0.02507837,0.63280296,0.0,0.0,0.0,0.0,0.0,0.0,0.0,0.0,0,0,0,0,3,0,0,3,0,0,0,1,1,0,0
429181859,0.021686748,0.02507837,0.63035494,0.0,0.0,0.0,0.0,0.0,0.0,0.0,0.0,0,0,0,0,3,0,0,3,0,0,0,1,1,0,0
429382236,0.021686748,0.02507837,0.5777234,0.0,0.0,0.0,0.0,0.0,0.0,0.0,0.0,0,0,0,0,3,0,0,3,0,0,0,1,1,0,0
429580697,0.021686748,0.02507837,0.5361077,0.0,0.0,0.0,0.0,0.0,0.0,0.0,0.0,0,0,0,0,3,0,0,3,0,0,0,1,1,0,0
429782116,0.021686748,0.02507837,0.53365976,0.0,0.0,0.0,0.0,0.0,0.0,0.0,0.0,0,0,0,0,3,0,0,3,0,0,0,1,1,0,0
429980734,0.021686748,0.02507837,0.52998775,0.0,0.0,0.0,0.0,0.0,0.0,0.0,0.0,0,0,0,0,3,0,0,3,0,0,0,1,1,0,0
430181590,0.021686748,0.02507837,0.5214198,-0.07424594,0.0,0.0,0.0,0.0,0.0,0.0,0.0,0,0,0,0,3,0,0,3,0,0,0,1,1,0,0
430380308,0.021686748,0.02507837,0.52019584,-0.13225058,0.0,0.0,0.0,0.0,0.0,0.0,0.0,0,0,0,0,3,0,0,3,0,0,0,1,1,0,0
430578792,0.021686748,0.02507837,0.5973072,-0.046403714,0.0,0.0,0.0,0.0,0.0,0.0,0.0,0,0,0,0,3,0,0,3,0,0,0,1,1,0,0
430777338,0.021686748,0.02507837,0.65483475,0.0,0.0,0.0,0.0,0.0,0.0,0.0,0.0,0,0,0,0,3,0,0,3,0,0,0,1,1,0,0
430980063,0.021686748,0.02507837,0.6658507,0.0,0.0,0.0,0.0,0.0,0.0,0.0,0.0,0,0,0,0,3,0,0,3,0,0,0,1,1,0,0
431180212,0.021686748,0.02507837,0.66462666,0.0,0.0,0.0,0.0,0.0,0.0,0.0,0.0,0,0,0,0,3,0,0,3,0,0,0,1,1,0,0
431380937,0.021686748,0.02507837,0.60587513,0.0,0.0,0.0,0.0,0.0,0.0,0.0,0.0,0,0,0,0,3,0,0,3,0,0,0,1,1,0,0
431581739,0.021686748,0.02507837,0.55936354,-0.03712297,0.0,0.0,0.0,0.0,0.0,0.0,0.0,0,0,0,0,3,0,0,3,0,0,0,1,1,0,0
431784412,0.021686748,0.02507837,0.55936354,-0.06728538,0.0,0.0,0.0,0.0,0.0,0.0,0.0,0,0,0,0,3,0,0,3,0,0,0,1,1,0,0
431984516,0.021686748,0.02507837,0.55936354,-0.19257541,0.0,0.0,0.0,0.0,0.0,0.0,0.0,0,0,0,0,3,0,0,3,0,0,0,1,1,0,0
432185569,0.021686748,0.02507837,0.60587513,-0.1276102,0.0,0.0,0.0,0.0,0.0,0.0,0.0,0,0,0,0,3,0,0,3,0,0,0,1,1,0,0
432386511,0.021686748,0.02507837,0.60587513,-0.21345708,0.0,0.0,0.0,0.0,0.0,0.0,0.0,0,0,0,0,3,0,0,3,0,0,0,1,1,0,0
432587865,0.021686748,0.02507837,0.6022032,-0.34106728,0.0,0.0,0.0,0.0,0.0,0.0,0.0,0,0,0,0,3,0,0,3,0,0,0,1,1,0,0
432788838,0.021686748,0.02507837,0.6034272,-0.29930395,0.0,0.0,0.0,0.0,0.0,0.0,0.0,0,0,0,0,3,0,0,3,0,0,0,1,1,0,0
432987131,0.021686748,0.02507837,0.64381886,-0.27842227,0.0,0.0,0.0,0.0,0.0,0.0,0.0,0,0,0,0,3,0,0,3,0,0,0,1,1,0,0
433189105,0.021686748,0.02507837,0.621787,-0.19721578,0.0,0.0,0.0,0.0,0.0,0.0,0.0,0,0,0,0,3,0,0,3,0,0,0,1,1,0,0
433388495,0.021686748,0.02507837,0.626683,-0.19025522,0.0,0.0,0.0,0.0,0.0,0.0,0.0,0,0,0,0,3,0,0,3,0,0,0,1,1,0,0
433586838,0.021686748,0.02507837,0.61444306,-0.016241299,0.0,0.0,0.0,0.0,0.0,0.0,0.0,0,0,0,0,3,0,0,3,0,0,0,1,1,0,0
433787385,0.021686748,0.028213166,0.5862913,0.0,0.0,0.0,0.0,0.0,0.0,0.0,0.0,0,0,0,0,3,0,0,3,0,0,0,1,1,0,0
433984040,0.021686748,0.028213166,0.56425947,0.0,0.0,0.0,0.0,0.0,0.0,0.0,0.0,0,0,0,0,3,0,0,3,0,0,0,1,1,0,0
434184692,0.038554218,0.03448276,0.55936354,0.0,0.0,0.0,0.0,0.0,0.0,0.0,0.0,0,0,0,0,3,0,0,3,0,0,0,1,1,0,0
434386490,0.021686748,0.03448276,0.54467565,-0.1786543,0.0,0.0,0.0,0.0,0.0,0.0,0.0,0,0,0,0,3,0,0,3,0,0,0,1,1,0,0
434585065,0.021686748,0.031347964,0.5483476,-0.18561485,0.0,0.0,0.0,0.0,0.0,0.0,0.0,0,0,0,0,3,0,0,3,0,0,0,1,1,0,0
434783174,0.021686748,0.03448276,0.5140759,-0.23433875,0.0,0.0,0.0,0.0,0.0,0.0,0.0,0,0,0,0,3,0,0,3,0,0,0,1,1,0,0
434980510,0.045783132,0.06583072,0.55813956,-0.17401393,0.0,0.0,0.0,0.0,0.0,0.0,0.0,0,0,0,0,3,0,0,3,0,0,0,1,1,0,0
435180919,0.0746988,0.031347964,0.7221542,0.0,0.0,0.0,0.0,0.0,0.0,0.0,0.0,0,0,0,0,3,0,0,3,0,0,0,1,1,0,0
435378250,0.062650606,0.031347964,0.746634,0.0,0.0,0.0,0.0,0.0,0.0,0.0,0.0,0,0,0,0,3,0,0,3,0,0,0,1,1,0,0
435578203,0.038554218,0.11912226,0.68298656,0.0,0.0,0.0,0.0,0.0,0.0,0.0,0.0,0,0,0,0,3,0,0,3,0,0,0,1,1,0,0
435776278,0.038554218,0.14420062,0.54467565,0.0,0.0,0.0,0.0,0.0,0.0,0.0,0.0,0,0,0,0,3,0,0,3,0,0,0,1,1,0,0
435975062,0.05060241,0.17554858,0.49082008,0.0,0.0,0.0,0.0,0.0,0.0,0.0,0.0,0,0,0,0,3,0,0,3,0,0,0,1,1,0,0
436173754,0.08915663,0.23824452,0.49326804,0.0,0.0,0.0,0.0,0.0,0.0,0.0,0.0,0,0,0,0,3,0,0,3,0,0,0,1,1,0,0
436394065,0.10843374,0.26959246,0.5520196,0.0,0.0,0.0,0.0,0.0,0.0,0.0,0.0,0,0,0,0,3,0,0,3,0,0,0,1,1,0,0
436592668,0.072289154,0.19122256,0.58017135,0.0,0.0,0.0,0.0,0.0,0.0,0.0,0.0,0,0,0,0,3,0,0,3,0,0,0,1,1,0,0
436792894,0.057831325,0.14106584,0.57894737,0.0,0.0,0.0,0.0,0.0,0.0,0.0,0.0,0,0,0,0,3,0,0,3,0,0,0,1,1,0,0
436993785,0.10361446,0.106583074,0.57894737,0.0,0.0,0.0,0.0,0.0,0.0,0.0,0.0,0,0,0,0,3,0,0,3,0,0,0,1,1,0,0
437196364,0.11566265,0.03448276,0.5813953,0.0,0.0,0.0,0.0,0.0,0.0,0.0,0.0,0,0,0,0,3,0,0,3,0,0,0,1,1,0,0
437374374,0.12771085,0.031347964,0.6364749,0.0,0.0,0.0,0.0,0.0,0.0,0.0,0.0,0,0,0,0,3,0,0,3,0,0,0,1,1,0,0
437574572,0.12771085,0.031347964,0.6707466,0.0,0.0,0.0,0.0,0.0,0.0,0.0,0.0,0,0,0,0,3,0,0,3,0,0,0,1,1,0,0
437776564,0.1373494,0.031347964,0.66952264,0.0,0.0,0.0,0.0,0.0,0.0,0.0,0.0,0,0,0,0,3,0,0,3,0,0,0,1,1,0,0
437976645,0.15421687,0.03448276,0.66952264,0.0,0.0,0.0,0.0,0.0,0.0,0.0,0.0,0,0,0,0,3,0,0,3,0,0,0,1,1,0,0
438178530,0.17590362,0.06583072,0.63280296,0.0,0.0,0.0,0.0,0.0,0.0,0.0,0.0,0,0,0,0,3,0,0,3,0,0,0,1,1,0,0
438378857,0.15903614,0.043887146,0.59363526,0.0,0.0,0.0,0.0,0.0,0.0,0.0,0.0,0,0,0,0,3,0,0,3,0,0,0,1,1,0,0
438580312,0.106024094,0.075235106,0.5532436,0.0,0.0,0.0,0.0,0.0,0.0,0.0,0.0,0,0,0,0,3,0,0,3,0,0,0,1,1,0,0
438779299,0.11566265,0.10344828,0.5532436,0.0,0.0,0.0,0.0,0.0,0.0,0.0,0.0,0,0,0,0,3,0,0,3,0,0,0,1,1,0,0
438979893,0.15180723,0.11912226,0.5532436,0.0,0.0,0.0,0.0,0.0,0.0,0.0,0.0,0,0,0,0,3,0,0,3,0,0,0,1,1,0,0
439181473,0.11325301,0.09090909,0.5605875,0.0,0.0,0.0,0.0,0.0,0.0,0.0,0.0,0,0,0,0,3,0,0,3,0,0,0,1,1,0,0
439382113,0.09638554,0.04075235,0.58996326,0.0,0.0,0.0,0.0,0.0,0.0,0.0,0.0,0,0,0,0,3,0,0,3,0,0,0,1,1,0,0
439583289,0.08192771,0.031347964,0.5875153,0.0,0.0,0.0,0.0,0.0,0.0,0.0,0.0,0,0,0,0,3,0,0,3,0,0,0,1,1,0,0
439783948,0.021686748,0.02507837,0.5875153,0.0,0.0,0.0,0.0,0.0,0.0,0.0,0.0,0,0,0,0,3,0,0,3,0,0,0,1,1,0,0
439986615,0.021686748,0.018808777,0.5973072,0.0,0.0,0.0,0.0,0.0,0.0,0.0,0.0,0,0,0,0,3,0,0,3,0,0,0,1,1,0,0
440186264,0.021686748,0.02507837,0.60832316,0.0,0.0,0.0,0.0,0.0,0.0,0.0,0.0,0,0,0,0,3,0,0,3,0,0,0,1,1,0,0
440387412,0.021686748,0.02507837,0.60954714,0.0,0.0,0.0,0.0,0.0,0.0,0.0,0.0,0,0,0,0,3,0,0,3,0,0,0,1,1,0,0
440588687,0.021686748,0.02507837,0.6413709,0.0,0.0,0.0,0.0,0.0,0.0,0.0,0.0,0,0,0,0,3,0,0,3,0,0,0,1,1,0,0
440789841,0.021686748,0.02507837,0.6425949,0.0,0.0,0.0,0.0,0.0,0.0,0.0,0.0,0,0,0,0,3,0,0,3,0,0,0,1,1,0,0
440990557,0.021686748,0.02507837,0.63035494,0.0,0.0,0.0,0.0,0.0,0.0,0.0,0.0,0,0,0,0,3,0,0,3,0,0,0,1,1,0,0
441191792,0.021686748,0.031347964,0.63035494,0.0,0.0,0.0,0.0,0.0,0.0,0.0,0.0,0,0,0,0,3,0,0,3,0,0,0,1,1,0,0
441390516,0.021686748,0.031347964,0.627907,0.0,0.0,0.0,0.0,0.0,0.0,0.0,0.0,0,0,0,0,3,0,0,3,0,0,0,1,1,0,0
441591281,0.072289154,0.03448276,0.61811507,0.0,0.0,0.0,0.0,0.0,0.0,0.0,0.0,0,0,0,0,3,0,0,3,0,0,0,1,1,0,0
441792658,0.110843375,0.043887146,0.61566705,0.0,0.0,0.0,0.0,0.0,0.0,0.0,0.0,0,0,0,0,3,0,0,3,0,0,0,1,1,0,0
441993468,0.10361446,0.04075235,0.58384335,0.0,0.0,0.0,0.0,0.0,0.0,0.0,0.0,0,0,0,0,3,0,0,3,0,0,0,1,1,0,0
442172302,0.11325301,0.04075235,0.55813956,0.0,0.0,0.0,0.0,0.0,0.0,0.0,0.0,0,0,0,0,3,0,0,3,0,0,0,1,1,0,0
442373674,0.11325301,0.03448276,0.55936354,0.0,0.0,0.0,0.0,0.0,0.0,0.0,0.0,0,0,0,0,3,0,0,3,0,0,0,1,1,0,0
442594219,0.110843375,0.05015674,0.55936354,0.0,0.0,0.0,0.0,0.0,0.0,0.0,0.0,0,0,0,0,3,0,0,3,0,0,0,1,1,0,0
442795995,0.10361446,0.05956113,0.5813953,0.0,0.0,0.0,0.0,0.0,0.0,0.0,0.0,0,0,0,0,3,0,0,3,0,0,0,1,1,0,0
442995454,0.06746988,0.03448276,0.62056303,0.0,0.0,0.0,0.0,0.0,0.0,0.0,0.0,0,0,0,0,3,0,0,3,0,0,0,1,1,0,0
443195188,0.0746988,0.03448276,0.61933905,0.0,0.0,0.0,0.0,0.0,0.0,0.0,0.0,0,0,0,0,3,0,0,3,0,0,0,1,1,0,0
443373875,0.072289154,0.03448276,0.61933905,0.0,0.0,0.0,0.0,0.0,0.0,0.0,0.0,0,0,0,0,3,0,0,3,0,0,0,1,1,0,0
443575606,0.06746988,0.05015674,0.61933905,0.0,0.0,0.0,0.0,0.0,0.0,0.0,0.0,0,0,0,0,3,0,0,3,0,0,0,1,1,0,0
443775970,0.09879518,0.08777429,0.61933905,0.0,0.0,0.0,0.0,0.0,0.0,0.0,0.0,0,0,0,0,3,0,0,3,0,0,0,1,1,0,0
443994771,0.11566265,0.03448276,0.6022032,0.0,0.0,0.0,0.0,0.0,0.0,0.0,0.0,0,0,0,0,3,0,0,3,0,0,0,1,1,0,0
444193769,0.13012049,0.053291537,0.6022032,0.0,0.0,0.0,0.0,0.0,0.0,0.0,0.0,0,0,0,0,3,0,0,3,0,0,0,1,1,0,0
444395004,0.14698794,0.03448276,0.6022032,0.0,0.0,0.0,0.0,0.0,0.0,0.0,0.0,0,0,0,0,3,0,0,3,0,0,0,1,1,0,0
444594270,0.06506024,0.03448276,0.5997552,0.0,0.0,0.0,0.0,0.0,0.0,0.0,0.0,0,0,0,0,3,0,0,3,0,0,0,1,1,0,0
444794167,0.12771085,0.053291537,0.58996326,0.0,0.0,0.0,0.0,0.0,0.0,0.0,0.0,0,0,0,0,3,0,0,3,0,0,0,1,1,0,0
444972617,0.14698794,0.06583072,0.5875153,0.0,0.0,0.0,0.0,0.0,0.0,0.0,0.0,0,0,0,0,3,0,0,3,0,0,0,1,1,0,0
445178103,0.08192771,0.028213166,0.56548345,0.0,0.0,0.0,0.0,0.0,0.0,0.0,0.0,0,0,0,0,3,0,0,3,0,0,0,1,1,0,0
445394754,0.10361446,0.031347964,0.54467565,0.0,0.0,0.0,0.0,0.0,0.0,0.0,0.0,0,0,0,0,3,0,0,3,0,0,0,1,1,0,0
445596434,0.06506024,0.028213166,0.5458996,0.0,0.0,0.0,0.0,0.0,0.0,0.0,0.0,0,0,0,0,3,0,0,3,0,0,0,1,1,0,0
445795624,0.040963855,0.028213166,0.49204406,0.0,0.0,0.0,0.0,0.0,0.0,0.0,0.0,0,0,0,0,3,0,0,3,0,0,0,1,1,0,0
445995363,0.026506023,0.031347964,0.5532436,0.01923077,0.0,0.0,0.0,0.0,0.0,0.0,0.0,0,0,0,0,3,0,0,3,0,0,0,1,1,0,0
446171836,0.021686748,0.02507837,0.61811507,0.0,0.0,0.0,0.0,0.0,0.0,0.0,0.0,0,0,0,0,3,0,0,3,0,0,0,1,1,0,0
446392625,0.021686748,0.02507837,0.64381886,0.0,0.0,0.0,0.0,0.0,0.0,0.0,0.0,0,0,0,0,3,0,0,3,0,0,0,1,1,0,0
446590195,0.019277109,0.021943573,0.6425949,0.0,0.0,0.0,0.0,0.0,0.0,0.0,0.0,0,0,0,0,3,0,0,3,0,0,0,1,1,0,0
446789733,0.021686748,0.03448276,0.6022032,0.0,0.0,0.0,0.0,0.0,0.0,0.0,0.0,0,0,0,0,3,0,0,3,0,0,0,1,1,0,0
446988378,0.053012047,0.04075235,0.5630355,0.0,0.0,0.0,0.0,0.0,0.0,0.0,0.0,0,0,0,0,3,0,0,3,0,0,0,1,1,0,0
447189692,0.110843375,0.053291537,0.53488374,0.0,0.0,0.0,0.0,0.0,0.0,0.0,0.0,0,0,0,0,3,0,0,3,0,0,0,1,1,0,0
447388770,0.0939759,0.06896552,0.5385557,0.0,0.0,0.0,0.0,0.0,0.0,0.0,0.0,0,0,0,0,3,0,0,3,0,0,0,1,1,0,0
447589201,0.10120482,0.07210031,0.5422277,0.0,0.0,0.0,0.0,0.0,0.0,0.0,0.0,0,0,0,0,3,0,0,3,0,0,0,1,1,0,0
447787731,0.1373494,0.09717868,0.55813956,0.0,0.0,0.0,0.0,0.0,0.0,0.0,0.0,0,0,0,0,3,0,0,3,0,0,0,1,1,0,0
447986320,0.12289157,0.031347964,0.62056303,0.0,0.0,0.0,0.0,0.0,0.0,0.0,0.0,0,0,0,0,3,0,0,3,0,0,0,1,1,0,0
448185025,0.0746988,0.028213166,0.62423503,0.0,0.0,0.0,0.0,0.0,0.0,0.0,0.0,0,0,0,0,3,0,0,3,0,0,0,1,1,0,0
448386721,0.110843375,0.03448276,0.621787,0.0,0.0,0.0,0.0,0.0,0.0,0.0,0.0,0,0,0,0,3,0,0,3,0,0,0,1,1,0,0
448587297,0.1373494,0.03448276,0.63280296,0.0,0.0,0.0,0.0,0.0,0.0,0.0,0.0,0,0,0,0,3,0,0,3,0,0,0,1,1,0,0
448788482,0.12048193,0.031347964,0.63280296,0.0,0.0,0.0,0.0,0.0,0.0,0.0,0.0,0,0,0,0,3,0,0,3,0,0,0,1,1,0,0
448987871,0.12771085,0.03448276,0.6315789,0.0,0.0,0.0,0.0,0.0,0.0,0.0,0.0,0,0,0,0,3,0,0,3,0,0,0,1,1,0,0
449186700,0.13975903,0.06583072,0.63035494,0.0,0.0,0.0,0.0,0.0,0.0,0.0,0.0,0,0,0,0,3,0,0,3,0,0,0,1,1,0,0
449386444,0.1493976,0.05642633,0.63035494,0.0,0.0,0.0,0.0,0.0,0.0,0.0,0.0,0,0,0,0,3,0,0,3,0,0,0,1,1,0,0
449587858,0.13012049,0.043887146,0.5960832,0.0,0.0,0.0,0.0,0.0,0.0,0.0,0.0,0,0,0,0,3,0,0,3,0,0,0,1,1,0,0
449788654,0.0939759,0.06269593,0.5887393,0.0,0.0,0.0,0.0,0.0,0.0,0.0,0.0,0,0,0,0,3,0,0,3,0,0,0,1,1,0,0
449985917,0.12048193,0.06583072,0.58506733,0.0,0.0,0.0,0.0,0.0,0.0,0.0,0.0,0,0,0,0,3,0,0,3,0,0,0,1,1,0,0
450186135,0.09879518,0.047021944,0.5716034,0.0,0.0,0.0,0.0,0.0,0.0,0.0,0.0,0,0,0,0,3,0,0,3,0,0,0,1,1,0,0
450384648,0.072289154,0.037617553,0.57037944,0.0,0.0,0.0,0.0,0.0,0.0,0.0,0.0,0,0,0,0,3,0,0,3,0,0,0,1,1,0,0
450585853,0.10843374,0.07836991,0.56915545,0.0,0.0,0.0,0.0,0.0,0.0,0.0,0.0,0,0,0,0,3,0,0,3,0,0,0,1,1,0,0
450786663,0.08674699,0.05956113,0.5618115,0.0,0.0,0.0,0.0,0.0,0.0,0.0,0.0,0,0,0,0,3,0,0,3,0,0,0,1,1,0,0
450985430,0.12289157,0.05956113,0.5630355,0.0,0.0,0.0,0.0,0.0,0.0,0.0,0.0,0,0,0,0,3,0,0,3,0,0,0,1,1,0,0
451187827,0.12289157,0.03448276,0.5911873,0.0,0.0,0.0,0.0,0.0,0.0,0.0,0.0,0,0,0,0,3,0,0,3,0,0,0,1,1,0,0
451387539,0.12771085,0.05015674,0.6119951,0.0,0.0,0.0,0.0,0.0,0.0,0.0,0.0,0,0,0,0,3,0,0,3,0,0,0,1,1,0,0
451588711,0.13493976,0.05956113,0.6425949,0.0,0.0,0.0,0.0,0.0,0.0,0.0,0.0,0,0,0,0,3,0,0,3,0,0,0,1,1,0,0
451789729,0.14698794,0.043887146,0.64381886,0.0,0.0,0.0,0.0,0.0,0.0,0.0,0.0,0,0,0,0,3,0,0,3,0,0,0,1,1,0,0
451990882,0.13493976,0.047021944,0.6425949,0.0,0.0,0.0,0.0,0.0,0.0,0.0,0.0,0,0,0,0,3,0,0,3,0,0,0,1,1,0,0
452191776,0.12048193,0.03448276,0.64014685,0.0,0.0,0.0,0.0,0.0,0.0,0.0,0.0,0,0,0,0,3,0,0,3,0,0,0,1,1,0,0
452370550,0.031325303,0.03448276,0.59363526,0.0,0.0,0.0,0.0,0.0,0.0,0.0,0.0,0,0,0,0,3,0,0,3,0,0,0,1,1,0,0
452594520,0.021686748,0.037617553,0.56548345,0.0,0.0,0.0,0.0,0.0,0.0,0.0,0.0,0,0,0,0,3,0,0,3,0,0,0,1,1,0,0
452772649,0.021686748,0.05015674,0.56548345,0.0,0.0,0.0,0.0,0.0,0.0,0.0,0.0,0,0,0,0,3,0,0,3,0,0,0,1,1,0,0
452974102,0.021686748,0.06269593,0.55936354,0.0,0.0,0.0,0.0,0.0,0.0,0.0,0.0,0,0,0,0,3,0,0,3,0,0,0,1,1,0,0
453174990,0.021686748,0.03448276,0.52019584,0.0,0.0,0.0,0.0,0.0,0.0,0.0,0.0,0,0,0,0,3,0,0,3,0,0,0,1,1,0,0
453376638,0.0,0.03448276,0.5226438,0.0,0.0,0.0,0.0,0.0,0.0,0.0,0.0,0,0,0,0,3,0,0,3,0,0,0,1,1,0,0
453574746,0.0,0.02507837,0.5716034,0.0,0.0,0.0,0.0,0.0,0.0,0.0,0.0,0,0,0,0,3,0,0,3,0,0,0,1,1,0,0
453796928,0.0072289156,0.02507837,0.6487148,0.0,0.0,0.0,0.0,0.0,0.0,0.0,0.0,0,0,0,0,3,0,0,3,0,0,0,1,1,0,0
453994436,0.014457831,0.02507837,0.6499388,0.0,0.0,0.0,0.0,0.0,0.0,0.0,0.0,0,0,0,0,3,0,0,3,0,0,0,1,1,0,0
454193247,0.019277109,0.053291537,0.6474908,0.0,0.0,0.0,0.0,0.0,0.0,0.0,0.0,0,0,0,0,3,0,0,3,0,0,0,1,1,0,0
454391977,0.021686748,0.09717868,0.6462668,0.0,0.0,0.0,0.0,0.0,0.0,0.0,0.0,0,0,0,0,3,0,0,3,0,0,0,1,1,0,0
454590269,0.021686748,0.09717868,0.6462668,0.0,0.0,0.0,0.0,0.0,0.0,0.0,0.0,0,0,0,0,3,0,0,3,0,0,0,1,1,0,0
454788503,0.021686748,0.11912226,0.6462668,0.0,0.0,0.0,0.0,0.0,0.0,0.0,0.0,0,0,0,0,3,0,0,3,0,0,0,1,1,0,0
454987145,0.021686748,0.15360501,0.6413709,0.0,0.0,0.0,0.0,0.0,0.0,0.0,0.0,0,0,0,0,3,0,0,3,0,0,0,1,1,0,0
455188465,0.021686748,0.106583074,0.6352509,0.0,0.0,0.0,0.0,0.0,0.0,0.0,0.0,0,0,0,0,3,0,0,3,0,0,0,1,1,0,0
455396052,0.024096385,0.06896552,0.5997552,0.0,0.0,0.0,0.0,0.0,0.0,0.0,0.0,0,0,0,0,3,0,0,3,0,0,0,1,1,0,0
455590622,0.021686748,0.12852664,0.5813953,0.0,0.0,0.0,0.0,0.0,0.0,0.0,0.0,0,0,0,0,3,0,0,3,0,0,0,1,1,0,0
455791733,0.021686748,0.075235106,0.5483476,0.0,0.0,0.0,0.0,0.0,0.0,0.0,0.0,0,0,0,0,3,0,0,3,0,0,0,1,1,0,0
455992738,0.021686748,0.19435737,0.5507956,0.0,0.0,0.0,0.0,0.0,0.0,0.0,0.0,0,0,0,0,3,0,0,3,0,0,0,1,1,0,0
456193833,0.021686748,0.19749217,0.5532436,0.0,0.0,0.0,0.0,0.0,0.0,0.0,0.0,0,0,0,0,3,0,0,3,0,0,0,1,1,0,0
456372734,0.021686748,0.23197491,0.55446756,0.0,0.0,0.0,0.0,0.0,0.0,0.0,0.0,0,0,0,0,3,0,0,3,0,0,0,1,1,0,0
456595805,0.026506023,0.23197491,0.55446756,0.0,0.0,0.0,0.0,0.0,0.0,0.0,0.0,0,0,0,0,3,0,0,3,0,0,0,1,1,0,0
456774558,0.021686748,0.1598746,0.55446756,0.0,0.0,0.0,0.0,0.0,0.0,0.0,0.0,0,0,0,0,3,0,0,3,0,0,0,1,1,0,0
456973235,0.062650606,0.03448276,0.57037944,0.0,0.0,0.0,0.0,0.0,0.0,0.0,0.0,0,0,0,0,3,0,0,3,0,0,0,1,1,0,0
457175095,0.16385542,0.028213166,0.58384335,0.0,0.0,0.0,0.0,0.0,0.0,0.0,0.0,0,0,0,0,3,0,0,3,0,0,0,1,1,0,0
457375363,0.15903614,0.031347964,0.6022032,0.0,0.0,0.0,0.0,0.0,0.0,0.0,0.0,0,0,0,0,3,0,0,3,0,0,0,1,1,0,0
457573914,0.22168675,0.031347964,0.62056303,0.0,0.0,0.0,0.0,0.0,0.0,0.0,0.0,0,0,0,0,3,0,0,3,0,0,0,1,1,0,0
457775796,0.21445782,0.031347964,0.64504284,0.0,0.0,0.0,0.0,0.0,0.0,0.0,0.0,0,0,0,0,3,0,0,3,0,0,0,1,1,0,0
457976276,0.21445782,0.03448276,0.64381886,0.0,0.0,0.0,0.0,0.0,0.0,0.0,0.0,0,0,0,0,3,0,0,3,0,0,0,1,1,0,0
458177789,0.12048193,0.03448276,0.64381886,0.0,0.0,0.0,0.0,0.0,0.0,0.0,0.0,0,0,0,0,3,0,0,3,0,0,0,1,1,0,0
458378333,0.06746988,0.043887146,0.64381886,0.0,0.0,0.0,0.0,0.0,0.0,0.0,0.0,0,0,0,0,3,0,0,3,0,0,0,1,1,0,0
458579963,0.06987952,0.08777429,0.61933905,0.0,0.0,0.0,0.0,0.0,0.0,0.0,0.0,0,0,0,0,3,0,0,3,0,0,0,1,1,0,0
458780552,0.0746988,0.09090909,0.6119951,0.0,0.0,0.0,0.0,0.0,0.0,0.0,0.0,0,0,0,0,3,0,0,3,0,0,0,1,1,0,0
458981782,0.062650606,0.09090909,0.5728274,0.0,0.0,0.0,0.0,0.0,0.0,0.0,0.0,0,0,0,0,3,0,0,3,0,0,0,1,1,0,0
459182567,0.019277109,0.043887146,0.57037944,0.0,0.0,0.0,0.0,0.0,0.0,0.0,0.0,0,0,0,0,3,0,0,3,0,0,0,1,1,0,0
459379444,0.019277109,0.037617553,0.57037944,0.0,0.0,0.0,0.0,0.0,0.0,0.0,0.0,0,0,0,0,3,0,0,3,0,0,0,1,1,0,0
459579925,0.057831325,0.075235106,0.57037944,0.0,0.0,0.0,0.0,0.0,0.0,0.0,0.0,0,0,0,0,3,0,0,3,0,0,0,1,1,0,0
459781228,0.021686748,0.031347964,0.57037944,0.0,0.0,0.0,0.0,0.0,0.0,0.0,0.0,0,0,0,0,3,0,0,3,0,0,0,1,1,0,0
459979866,0.07951807,0.13479623,0.57037944,0.0,0.0,0.0,0.0,0.0,0.0,0.0,0.0,0,0,0,0,3,0,0,3,0,0,0,1,1,0,0
460180666,0.110843375,0.20689656,0.5716034,0.0,0.0,0.0,0.0,0.0,0.0,0.0,0.0,0,0,0,0,3,0,0,3,0,0,0,1,1,0,0
460381983,0.06987952,0.20376176,0.5716034,0.0,0.0,0.0,0.0,0.0,0.0,0.0,0.0,0,0,0,0,3,0,0,3,0,0,0,1,1,0,0
460580469,0.062650606,0.14733543,0.6107711,0.0,0.0,0.0,0.0,0.0,0.0,0.0,0.0,0,0,0,0,3,0,0,3,0,0,0,1,1,0,0
460781313,0.060240965,0.14733543,0.6119951,0.0,0.0,0.0,0.0,0.0,0.0,0.0,0.0,0,0,0,0,3,0,0,3,0,0,0,1,1,0,0
460982787,0.06746988,0.14106584,0.6119951,0.0,0.0,0.0,0.0,0.0,0.0,0.0,0.0,0,0,0,0,3,0,0,3,0,0,0,1,1,0,0
461183567,0.062650606,0.0846395,0.60954714,0.0,0.0,0.0,0.0,0.0,0.0,0.0,0.0,0,0,0,0,3,0,0,3,0,0,0,1,1,0,0
461385501,0.091566265,0.09717868,0.60954714,0.0,0.0,0.0,0.0,0.0,0.0,0.0,0.0,0,0,0,0,3,0,0,3,0,0,0,1,1,0,0
461585704,0.12048193,0.13166144,0.60832316,0.0,0.0,0.0,0.0,0.0,0.0,0.0,0.0,0,0,0,0,3,0,0,3,0,0,0,1,1,0,0
461787119,0.118072286,0.0815047,0.60465115,0.0,0.0,0.0,0.0,0.0,0.0,0.0,0.0,0,0,0,0,3,0,0,3,0,0,0,1,1,0,0
461985646,0.13975903,0.03448276,0.60465115,0.0,0.0,0.0,0.0,0.0,0.0,0.0,0.0,0,0,0,0,3,0,0,3,0,0,0,1,1,0,0
462184299,0.15903614,0.03448276,0.60587513,0.0,0.0,0.0,0.0,0.0,0.0,0.0,0.0,0,0,0,0,3,0,0,3,0,0,0,1,1,0,0
462385129,0.17108434,0.075235106,0.60587513,0.0,0.0,0.0,0.0,0.0,0.0,0.0,0.0,0,0,0,0,3,0,0,3,0,0,0,1,1,0,0
462587595,0.15903614,0.06583072,0.60465115,0.0,0.0,0.0,0.0,0.0,0.0,0.0,0.0,0,0,0,0,3,0,0,3,0,0,0,1,1,0,0
462787762,0.16626506,0.043887146,0.6034272,0.0,0.0,0.0,0.0,0.0,0.0,0.0,0.0,0,0,0,0,3,0,0,3,0,0,0,1,1,0,0
462989085,0.17590362,0.06269593,0.6022032,0.0,0.0,0.0,0.0,0.0,0.0,0.0,0.0,0,0,0,0,3,0,0,3,0,0,0,1,1,0,0
463187668,0.13493976,0.03448276,0.6034272,0.0,0.0,0.0,0.0,0.0,0.0,0.0,0.0,0,0,0,0,3,0,0,3,0,0,0,1,1,0,0
463386211,0.12530121,0.05015674,0.5985312,0.0,0.0,0.0,0.0,0.0,0.0,0.0,0.0,0,0,0,0,3,0,0,3,0,0,0,1,1,0,0
463586265,0.06987952,0.09090909,0.5667075,0.0,0.0,0.0,0.0,0.0,0.0,0.0,0.0,0,0,0,0,3,0,0,3,0,0,0,1,1,0,0
463785325,0.060240965,0.10344828,0.5569155,0.0,0.0,0.0,0.0,0.0,0.0,0.0,0.0,0,0,0,0,3,0,0,3,0,0,0,1,1,0,0
463984004,0.062650606,0.13479623,0.5532436,0.0,0.0,0.0,0.0,0.0,0.0,0.0,0.0,0,0,0,0,3,0,0,3,0,0,0,1,1,0,0
464182750,0.10361446,0.15047021,0.5569155,0.0,0.0,0.0,0.0,0.0,0.0,0.0,0.0,0,0,0,0,3,0,0,3,0,0,0,1,1,0,0
464381003,0.019277109,0.08777429,0.5716034,0.0,0.0,0.0,0.0,0.0,0.0,0.0,0.0,0,0,0,0,3,0,0,3,0,0,0,1,1,0,0
464590134,0.031325303,0.075235106,0.6315789,0.0,0.0,0.0,0.0,0.0,0.0,0.0,0.0,0,0,0,0,3,0,0,3,0,0,0,1,1,0,0
464781243,0.019277109,0.05015674,0.63280296,0.0,0.0,0.0,0.0,0.0,0.0,0.0,0.0,0,0,0,0,3,0,0,3,0,0,0,1,1,0,0
464982081,0.019277109,0.06896552,0.63280296,0.0,0.0,0.0,0.0,0.0,0.0,0.0,0.0,0,0,0,0,3,0,0,3,0,0,0,1,1,0,0
465180671,0.06506024,0.09404389,0.61811507,0.0,0.0,0.0,0.0,0.0,0.0,0.0,0.0,0,0,0,0,3,0,0,3,0,0,0,1,1,0,0
465381860,0.0746988,0.122257054,0.61566705,0.0,0.0,0.0,0.0,0.0,0.0,0.0,0.0,0,0,0,0,3,0,0,3,0,0,0,1,1,0,0
465580428,0.10120482,0.13479623,0.5911873,0.0,0.0,0.0,0.0,0.0,0.0,0.0,0.0,0,0,0,0,3,0,0,3,0,0,0,1,1,0,0
465781351,0.14698794,0.106583074,0.5887393,0.0,0.0,0.0,0.0,0.0,0.0,0.0,0.0,0,0,0,0,3,0,0,3,0,0,0,1,1,0,0
465982507,0.13253012,0.10344828,0.5875153,0.0,0.0,0.0,0.0,0.0,0.0,0.0,0.0,0,0,0,0,3,0,0,3,0,0,0,1,1,0,0
466183503,0.13493976,0.09717868,0.5728274,0.0,0.0,0.0,0.0,0.0,0.0,0.0,0.0,0,0,0,0,3,0,0,3,0,0,0,1,1,0,0
466382199,0.12048193,0.0846395,0.5716034,0.0,0.0,0.0,0.0,0.0,0.0,0.0,0.0,0,0,0,0,3,0,0,3,0,0,0,1,1,0,0
466583441,0.118072286,0.09090909,0.5740514,0.0,0.0,0.0,0.0,0.0,0.0,0.0,0.0,0,0,0,0,3,0,0,3,0,0,0,1,1,0,0
466781958,0.043373495,0.031347964,0.5752754,0.0,0.0,0.0,0.0,0.0,0.0,0.0,0.0,0,0,0,0,3,0,0,3,0,0,0,1,1,0,0
466982946,0.09638554,0.03448276,0.6168911,0.0,0.0,0.0,0.0,0.0,0.0,0.0,0.0,0,0,0,0,3,0,0,3,0,0,0,1,1,0,0
467181545,0.091566265,0.03448276,0.61933905,0.0,0.0,0.0,0.0,0.0,0.0,0.0,0.0,0,0,0,0,3,0,0,3,0,0,0,1,1,0,0
467380128,0.11566265,0.05642633,0.61933905,0.0,0.0,0.0,0.0,0.0,0.0,0.0,0.0,0,0,0,0,3,0,0,3,0,0,0,1,1,0,0
467581383,0.15180723,0.06896552,0.61933905,0.0,0.0,0.0,0.0,0.0,0.0,0.0,0.0,0,0,0,0,3,0,0,3,0,0,0,1,1,0,0
467782350,0.14216867,0.0815047,0.61933905,0.0,0.0,0.0,0.0,0.0,0.0,0.0,0.0,0,0,0,0,3,0,0,3,0,0,0,1,1,0,0
467979163,0.08674699,0.03448276,0.61811507,0.0,0.0,0.0,0.0,0.0,0.0,0.0,0.0,0,0,0,0,3,0,0,3,0,0,0,1,1,0,0
468179382,0.08674699,0.03448276,0.61811507,0.0,0.0,0.0,0.0,0.0,0.0,0.0,0.0,0,0,0,0,3,0,0,3,0,0,0,1,1,0,0
468380703,0.10361446,0.04075235,0.61811507,0.0,0.0,0.0,0.0,0.0,0.0,0.0,0.0,0,0,0,0,3,0,0,3,0,0,0,1,1,0,0
468579673,0.06987952,0.031347964,0.61444306,0.0,0.0,0.0,0.0,0.0,0.0,0.0,0.0,0,0,0,0,3,0,0,3,0,0,0,1,1,0,0
468780257,0.036144577,0.028213166,0.6070991,0.0,0.0,0.0,0.0,0.0,0.0,0.0,0.0,0,0,0,0,3,0,0,3,0,0,0,1,1,0,0
468981508,0.024096385,0.028213166,0.6022032,0.0,0.0,0.0,0.0,0.0,0.0,0.0,0.0,0,0,0,0,3,0,0,3,0,0,0,1,1,0,0
469182369,0.021686748,0.02507837,0.5740514,-0.05336427,0.0,0.0,0.0,0.0,0.0,0.0,0.0,0,0,0,0,3,0,0,3,0,0,0,1,1,0,0
469384376,0.021686748,0.02507837,0.56425947,-0.07888631,0.0,0.0,0.0,0.0,0.0,0.0,0.0,0,0,0,0,3,0,0,3,0,0,0,1,1,0,0
469582303,0.021686748,0.02507837,0.5630355,-0.06960557,0.0,0.0,0.0,0.0,0.0,0.0,0.0,0,0,0,0,3,0,0,3,0,0,0,1,1,0,0
469783144,0.021686748,0.02507837,0.5630355,-0.18329467,0.0,0.0,0.0,0.0,0.0,0.0,0.0,0,0,0,0,3,0,0,3,0,0,0,1,1,0,0
469977369,0.021686748,0.02507837,0.5813953,-0.09280743,0.0,0.0,0.0,0.0,0.0,0.0,0.0,0,0,0,0,3,0,0,3,0,0,0,1,1,0,0
470175321,0.021686748,0.02507837,0.627907,-0.013921114,0.0,0.0,0.0,0.0,0.0,0.0,0.0,0,0,0,0,3,0,0,3,0,0,0,1,1,0,0
470373908,0.021686748,0.02507837,0.6670747,-0.032482598,0.0,0.0,0.0,0.0,0.0,0.0,0.0,0,0,0,0,3,0,0,3,0,0,0,1,1,0,0
470576639,0.021686748,0.02507837,0.69400245,-0.0487239,0.0,0.0,0.0,0.0,0.0,0.0,0.0,0,0,0,0,3,0,0,3,0,0,0,1,1,0,0
470776194,0.021686748,0.02507837,0.6413709,-0.027842227,0.0,0.0,0.0,0.0,0.0,0.0,0.0,0,0,0,0,3,0,0,3,0,0,0,1,1,0,0
470974743,0.021686748,0.02507837,0.62056303,-0.06264501,0.0,0.0,0.0,0.0,0.0,0.0,0.0,0,0,0,0,3,0,0,3,0,0,0,1,1,0,0
471173740,0.021686748,0.02507837,0.5777234,-0.15545243,0.0,0.0,0.0,0.0,0.0,0.0,0.0,0,0,0,0,3,0,0,3,0,0,0,1,1,0,0
471374639,0.021686748,0.02507837,0.5605875,-0.26914153,0.0,0.0,0.0,0.0,0.0,0.0,0.0,0,0,0,0,3,0,0,3,0,0,0,1,1,0,0
471575535,0.021686748,0.02507837,0.54467565,-0.24825986,0.0,0.0,0.0,0.0,0.0,0.0,0.0,0,0,0,0,3,0,0,3,0,0,0,1,1,0,0
471774075,0.021686748,0.02507837,0.54100364,-0.287703,0.0,0.0,0.0,0.0,0.0,0.0,0.0,0,0,0,0,3,0,0,3,0,0,0,1,1,0,0
471991916,0.021686748,0.02507837,0.5458996,-0.32946634,0.0,0.0,0.0,0.0,0.0,0.0,0.0,0,0,0,0,3,0,0,3,0,0,0,1,1,0,0
472191075,0.021686748,0.02507837,0.56425947,-0.33178654,0.0,0.0,0.0,0.0,0.0,0.0,0.0,0,0,0,0,3,0,0,3,0,0,0,1,1,0,0
472391159,0.021686748,0.02507837,0.5887393,-0.33410674,0.0,0.0,0.0,0.0,0.0,0.0,0.0,0,0,0,0,3,0,0,3,0,0,0,1,1,0,0
472591178,0.021686748,0.02507837,0.72337824,0.0,0.0,0.0,0.0,0.0,0.0,0.0,0.0,0,0,0,0,3,0,0,3,0,0,0,1,1,0,0
472771430,0.021686748,0.02507837,0.7319462,0.0,0.0,0.0,0.0,0.0,0.0,0.0,0.0,0,0,0,0,3,0,0,3,0,0,0,1,1,0,0
472971937,0.021686748,0.03448276,0.6413709,0.0,0.0,0.0,0.0,0.0,0.0,0.0,0.0,0,0,0,0,3,0,0,3,0,0,0,1,1,0,0
473176980,0.0746988,0.11598746,0.5875153,0.0,0.0,0.0,0.0,0.0,0.0,0.0,0.0,0,0,0,0,3,0,0,3,0,0,0,1,1,0,0
473377174,0.06746988,0.09404389,0.5373317,0.0,0.0,0.0,0.0,0.0,0.0,0.0,0.0,0,0,0,0,3,0,0,3,0,0,0,1,1,0,0
473577045,0.021686748,0.037617553,0.5422277,0.0,0.0,0.0,0.0,0.0,0.0,0.0,0.0,0,0,0,0,3,0,0,3,0,0,0,1,1,0,0
473783892,0.036144577,0.06269593,0.54345167,0.0,0.0,0.0,0.0,0.0,0.0,0.0,0.0,0,0,0,0,3,0,0,3,0,0,0,1,1,0,0
473993502,0.021686748,0.031347964,0.63035494,0.0,0.0,0.0,0.0,0.0,0.0,0.0,0.0,0,0,0,0,3,0,0,3,0,0,0,1,1,0,0
474191785,0.021686748,0.02507837,0.625459,-0.023201857,0.0,0.0,0.0,0.0,0.0,0.0,0.0,0,0,0,0,3,0,0,3,0,0,0,1,1,0,0
474391059,0.021686748,0.031347964,0.6119951,-0.12993039,0.0,0.0,0.0,0.0,0.0,0.0,0.0,0,0,0,0,3,0,0,3,0,0,0,1,1,0,0
474591884,0.021686748,0.031347964,0.59485924,-0.23201856,0.0,0.0,0.0,0.0,0.0,0.0,0.0,0,0,0,0,3,0,0,3,0,0,0,1,1,0,0
474768142,0.021686748,0.06269593,0.59485924,-0.225058,0.0,0.0,0.0,0.0,0.0,0.0,0.0,0,0,0,0,3,0,0,3,0,0,0,1,1,0,0
474987677,0.024096385,0.0815047,0.5887393,0.0,0.0,0.0,0.0,0.0,0.0,0.0,0.0,0,0,0,0,3,0,0,3,0,0,0,1,1,0,0
475187870,0.021686748,0.13793103,0.58996326,0.0,0.0,0.0,0.0,0.0,0.0,0.0,0.0,0,0,0,0,3,0,0,3,0,0,0,1,1,0,0
475387973,0.026506023,0.19749217,0.58996326,0.0,0.0,0.0,0.0,0.0,0.0,0.0,0.0,0,0,0,0,3,0,0,3,0,0,0,1,1,0,0
475587205,0.021686748,0.169279,0.5973072,0.0,0.0,0.0,0.0,0.0,0.0,0.0,0.0,0,0,0,0,3,0,0,3,0,0,0,1,1,0,0
475783992,0.038554218,0.17868339,0.5960832,0.0,0.0,0.0,0.0,0.0,0.0,0.0,0.0,0,0,0,0,3,0,0,3,0,0,0,1,1,0,0
475985096,0.021686748,0.122257054,0.59485924,0.0,0.0,0.0,0.0,0.0,0.0,0.0,0.0,0,0,0,0,3,0,0,3,0,0,0,1,1,0,0
476185806,0.024096385,0.13793103,0.5960832,0.0,0.0,0.0,0.0,0.0,0.0,0.0,0.0,0,0,0,0,3,0,0,3,0,0,0,1,1,0,0
476386648,0.024096385,0.14733543,0.5960832,0.0,0.0,0.0,0.0,0.0,0.0,0.0,0.0,0,0,0,0,3,0,0,3,0,0,0,1,1,0,0
476585181,0.021686748,0.14733543,0.5960832,0.0,0.0,0.0,0.0,0.0,0.0,0.0,0.0,0,0,0,0,3,0,0,3,0,0,0,1,1,0,0
476788112,0.05060241,0.15360501,0.5960832,0.0,0.0,0.0,0.0,0.0,0.0,0.0,0.0,0,0,0,0,3,0,0,3,0,0,0,1,1,0,0
476987503,0.021686748,0.06269593,0.5960832,0.0,0.0,0.0,0.0,0.0,0.0,0.0,0.0,0,0,0,0,3,0,0,3,0,0,0,1,1,0,0
477185999,0.021686748,0.031347964,0.6168911,0.0,0.0,0.0,0.0,0.0,0.0,0.0,0.0,0,0,0,0,3,0,0,3,0,0,0,1,1,0,0
477384651,0.021686748,0.028213166,0.61811507,0.0,0.0,0.0,0.0,0.0,0.0,0.0,0.0,0,0,0,0,3,0,0,3,0,0,0,1,1,0,0
477583186,0.021686748,0.02507837,0.61811507,0.0,0.0,0.0,0.0,0.0,0.0,0.0,0.0,0,0,0,0,3,0,0,3,0,0,0,1,1,0,0
477781915,0.021686748,0.02507837,0.64381886,0.0,0.0,0.0,0.0,0.0,0.0,0.0,0.0,0,0,0,0,3,0,0,3,0,0,0,1,1,0,0
477983199,0.021686748,0.02507837,0.64381886,0.0,0.0,0.0,0.0,0.0,0.0,0.0,0.0,0,0,0,0,3,0,0,3,0,0,0,1,1,0,0
478183977,0.021686748,0.031347964,0.6425949,0.0,0.0,0.0,0.0,0.0,0.0,0.0,0.0,0,0,0,0,3,0,0,3,0,0,0,1,1,0,0
478382551,0.021686748,0.031347964,0.6022032,0.0,0.0,0.0,0.0,0.0,0.0,0.0,0.0,0,0,0,0,3,0,0,3,0,0,0,1,1,0,0
478584515,0.024096385,0.053291537,0.5997552,0.0,0.0,0.0,0.0,0.0,0.0,0.0,0.0,0,0,0,0,3,0,0,3,0,0,0,1,1,0,0
478784814,0.021686748,0.037617553,0.5667075,0.0,0.0,0.0,0.0,0.0,0.0,0.0,0.0,0,0,0,0,3,0,0,3,0,0,0,1,1,0,0
478986040,0.021686748,0.10031348,0.5667075,0.0,0.0,0.0,0.0,0.0,0.0,0.0,0.0,0,0,0,0,3,0,0,3,0,0,0,1,1,0,0
479186954,0.024096385,0.09717868,0.5667075,0.0,0.0,0.0,0.0,0.0,0.0,0.0,0.0,0,0,0,0,3,0,0,3,0,0,0,1,1,0,0
479389592,0.021686748,0.06583072,0.56915545,0.0,0.0,0.0,0.0,0.0,0.0,0.0,0.0,0,0,0,0,3,0,0,3,0,0,0,1,1,0,0
479589641,0.024096385,0.06896552,0.58996326,0.0,0.0,0.0,0.0,0.0,0.0,0.0,0.0,0,0,0,0,3,0,0,3,0,0,0,1,1,0,0
479790542,0.0746988,0.0815047,0.58996326,0.0,0.0,0.0,0.0,0.0,0.0,0.0,0.0,0,0,0,0,3,0,0,3,0,0,0,1,1,0,0
479991303,0.072289154,0.09717868,0.58996326,0.0,0.0,0.0,0.0,0.0,0.0,0.0,0.0,0,0,0,0,3,0,0,3,0,0,0,1,1,0,0
480189882,0.06746988,0.09717868,0.5924113,0.0,0.0,0.0,0.0,0.0,0.0,0.0,0.0,0,0,0,0,3,0,0,3,0,0,0,1,1,0,0
480388739,0.08915663,0.09717868,0.60954714,0.0,0.0,0.0,0.0,0.0,0.0,0.0,0.0,0,0,0,0,3,0,0,3,0,0,0,1,1,0,0
480590077,0.021686748,0.122257054,0.621787,0.0,0.0,0.0,0.0,0.0,0.0,0.0,0.0,0,0,0,0,3,0,0,3,0,0,0,1,1,0,0
480788998,0.021686748,0.06269593,0.621787,0.0,0.0,0.0,0.0,0.0,0.0,0.0,0.0,0,0,0,0,3,0,0,3,0,0,0,1,1,0,0
480989382,0.021686748,0.031347964,0.63280296,0.0,0.0,0.0,0.0,0.0,0.0,0.0,0.0,0,0,0,0,3,0,0,3,0,0,0,1,1,0,0
481190643,0.026506023,0.037617553,0.63280296,0.0,0.0,0.0,0.0,0.0,0.0,0.0,0.0,0,0,0,0,3,0,0,3,0,0,0,1,1,0,0
481391936,0.091566265,0.106583074,0.63280296,0.0,0.0,0.0,0.0,0.0,0.0,0.0,0.0,0,0,0,0,3,0,0,3,0,0,0,1,1,0,0
481592733,0.0939759,0.06896552,0.6315789,0.0,0.0,0.0,0.0,0.0,0.0,0.0,0.0,0,0,0,0,3,0,0,3,0,0,0,1,1,0,0
481793595,0.0939759,0.106583074,0.6315789,0.0,0.0,0.0,0.0,0.0,0.0,0.0,0.0,0,0,0,0,3,0,0,3,0,0,0,1,1,0,0
481994978,0.09879518,0.09717868,0.6315789,0.0,0.0,0.0,0.0,0.0,0.0,0.0,0.0,0,0,0,0,3,0,0,3,0,0,0,1,1,0,0
482193678,0.062650606,0.0846395,0.61444306,0.0,0.0,0.0,0.0,0.0,0.0,0.0,0.0,0,0,0,0,3,0,0,3,0,0,0,1,1,0,0
482392090,0.07951807,0.13166144,0.59363526,0.0,0.0,0.0,0.0,0.0,0.0,0.0,0.0,0,0,0,0,3,0,0,3,0,0,0,1,1,0,0
482587966,0.08192771,0.13166144,0.5777234,0.0,0.0,0.0,0.0,0.0,0.0,0.0,0.0,0,0,0,0,3,0,0,3,0,0,0,1,1,0,0
482786680,0.03373494,0.028213166,0.5777234,0.0,0.0,0.0,0.0,0.0,0.0,0.0,0.0,0,0,0,0,3,0,0,3,0,0,0,1,1,0,0
482985481,0.077108435,0.028213166,0.57894737,0.0,0.0,0.0,0.0,0.0,0.0,0.0,0.0,0,0,0,0,3,0,0,3,0,0,0,1,1,0,0
483187311,0.10361446,0.031347964,0.57894737,0.0,0.0,0.0,0.0,0.0,0.0,0.0,0.0,0,0,0,0,3,0,0,3,0,0,0,1,1,0,0
483385795,0.10361446,0.037617553,0.5887393,0.0,0.0,0.0,0.0,0.0,0.0,0.0,0.0,0,0,0,0,3,0,0,3,0,0,0,1,1,0,0
483585970,0.10361446,0.037617553,0.6119951,0.0,0.0,0.0,0.0,0.0,0.0,0.0,0.0,0,0,0,0,3,0,0,3,0,0,0,1,1,0,0
483788064,0.084337346,0.075235106,0.6132191,0.0024038462,0.0,0.0,0.0,0.0,0.0,0.0,0.0,0,0,0,0,3,0,0,3,0,0,0,1,1,0,0
483966115,0.084337346,0.09090909,0.61566705,0.0,0.0,0.0,0.0,0.0,0.0,0.0,0.0,0,0,0,0,3,0,0,3,0,0,0,1,1,0,0
484190223,0.08192771,0.09717868,0.61566705,0.0,0.0,0.0,0.0,0.0,0.0,0.0,0.0,0,0,0,0,3,0,0,3,0,0,0,1,1,0,0
484390408,0.062650606,0.11285266,0.61566705,0.0,0.0,0.0,0.0,0.0,0.0,0.0,0.0,0,0,0,0,3,0,0,3,0,0,0,1,1,0,0
484591694,0.06746988,0.14733543,0.61444306,0.0,0.0,0.0,0.0,0.0,0.0,0.0,0.0,0,0,0,0,3,0,0,3,0,0,0,1,1,0,0
484792589,0.055421688,0.10344828,0.60954714,0.0,0.0,0.0,0.0,0.0,0.0,0.0,0.0,0,0,0,0,3,0,0,3,0,0,0,1,1,0,0
484993970,0.03373494,0.06269593,0.6022032,0.0,0.0,0.0,0.0,0.0,0.0,0.0,0.0,0,0,0,0,3,0,0,3,0,0,0,1,1,0,0
485193164,0.021686748,0.05956113,0.6022032,0.0,0.0,0.0,0.0,0.0,0.0,0.0,0.0,0,0,0,0,3,0,0,3,0,0,0,1,1,0,0
485393289,0.019277109,0.05015674,0.6022032,0.0,0.0,0.0,0.0,0.0,0.0,0.0,0.0,0,0,0,0,3,0,0,3,0,0,0,1,1,0,0
485591989,0.019277109,0.09090909,0.6034272,0.0,0.0,0.0,0.0,0.0,0.0,0.0,0.0,0,0,0,0,3,0,0,3,0,0,0,1,1,0,0
485793248,0.019277109,0.10971787,0.6034272,0.0,0.0,0.0,0.0,0.0,0.0,0.0,0.0,0,0,0,0,3,0,0,3,0,0,0,1,1,0,0
485994044,0.021686748,0.07836991,0.6034272,0.0,0.0,0.0,0.0,0.0,0.0,0.0,0.0,0,0,0,0,3,0,0,3,0,0,0,1,1,0,0
486195868,0.021686748,0.06583072,0.6034272,0.0,0.0,0.0,0.0,0.0,0.0,0.0,0.0,0,0,0,0,3,0,0,3,0,0,0,1,1,0,0
486374721,0.021686748,0.037617553,0.6034272,0.0,0.0,0.0,0.0,0.0,0.0,0.0,0.0,0,0,0,0,3,0,0,3,0,0,0,1,1,0,0
486575027,0.024096385,0.05015674,0.6034272,0.0,0.0,0.0,0.0,0.0,0.0,0.0,0.0,0,0,0,0,3,0,0,3,0,0,0,1,1,0,0
486773794,0.021686748,0.05956113,0.6034272,0.0,0.0,0.0,0.0,0.0,0.0,0.0,0.0,0,0,0,0,3,0,0,3,0,0,0,1,1,0,0
486975303,0.019277109,0.037617553,0.6034272,0.0,0.0,0.0,0.0,0.0,0.0,0.0,0.0,0,0,0,0,3,0,0,3,0,0,0,1,1,0,0
487174011,0.019277109,0.03448276,0.6034272,0.0,0.0,0.0,0.0,0.0,0.0,0.0,0.0,0,0,0,0,3,0,0,3,0,0,0,1,1,0,0
487374489,0.021686748,0.05956113,0.6034272,0.0,0.0,0.0,0.0,0.0,0.0,0.0,0.0,0,0,0,0,3,0,0,3,0,0,0,1,1,0,0
487596107,0.026506023,0.13793103,0.6034272,0.0,0.0,0.0,0.0,0.0,0.0,0.0,0.0,0,0,0,0,3,0,0,3,0,0,0,1,1,0,0
487775004,0.045783132,0.10344828,0.6034272,0.0,0.0,0.0,0.0,0.0,0.0,0.0,0.0,0,0,0,0,3,0,0,3,0,0,0,1,1,0,0
487975137,0.031325303,0.047021944,0.60465115,0.0,0.0,0.0,0.0,0.0,0.0,0.0,0.0,0,0,0,0,3,0,0,3,0,0,0,1,1,0,0
488177116,0.057831325,0.03448276,0.6034272,0.0,0.0,0.0,0.0,0.0,0.0,0.0,0.0,0,0,0,0,3,0,0,3,0,0,0,1,1,0,0
488377495,0.043373495,0.031347964,0.6034272,0.0,0.0,0.0,0.0,0.0,0.0,0.0,0.0,0,0,0,0,3,0,0,3,0,0,0,1,1,0,0
488579372,0.021686748,0.031347964,0.60465115,0.0,0.0,0.0,0.0,0.0,0.0,0.0,0.0,0,0,0,0,3,0,0,3,0,0,0,1,1,0,0
488779471,0.021686748,0.053291537,0.60465115,0.0,0.0,0.0,0.0,0.0,0.0,0.0,0.0,0,0,0,0,3,0,0,3,0,0,0,1,1,0,0
488978033,0.021686748,0.031347964,0.60465115,0.0,0.0,0.0,0.0,0.0,0.0,0.0,0.0,0,0,0,0,3,0,0,3,0,0,0,1,1,0,0
489176774,0.021686748,0.031347964,0.60465115,0.0,0.0,0.0,0.0,0.0,0.0,0.0,0.0,0,0,0,0,3,0,0,3,0,0,0,1,1,0,0
489375362,0.021686748,0.028213166,0.6034272,0.0,0.0,0.0,0.0,0.0,0.0,0.0,0.0,0,0,0,0,3,0,0,3,0,0,0,1,1,0,0
489576758,0.031325303,0.031347964,0.6034272,0.0,0.0,0.0,0.0,0.0,0.0,0.0,0.0,0,0,0,0,3,0,0,3,0,0,0,1,1,0,0
489775226,0.021686748,0.1598746,0.6034272,0.0,0.0,0.0,0.0,0.0,0.0,0.0,0.0,0,0,0,0,3,0,0,3,0,0,0,1,1,0,0
489976196,0.045783132,0.122257054,0.60465115,0.0,0.0,0.0,0.0,0.0,0.0,0.0,0.0,0,0,0,0,3,0,0,3,0,0,0,1,1,0,0
490174686,0.053012047,0.15673982,0.6034272,0.0,0.0,0.0,0.0,0.0,0.0,0.0,0.0,0,0,0,0,3,0,0,3,0,0,0,1,1,0,0
490376477,0.038554218,0.13479623,0.6034272,0.0,0.0,0.0,0.0,0.0,0.0,0.0,0.0,0,0,0,0,3,0,0,3,0,0,0,1,1,0,0
490576832,0.072289154,0.1724138,0.6034272,0.0,0.0,0.0,0.0,0.0,0.0,0.0,0.0,0,0,0,0,3,0,0,3,0,0,0,1,1,0,0
490778524,0.019277109,0.1598746,0.60465115,0.0,0.0,0.0,0.0,0.0,0.0,0.0,0.0,0,0,0,0,3,0,0,3,0,0,0,1,1,0,0
490979205,0.021686748,0.15673982,0.60465115,0.0,0.0,0.0,0.0,0.0,0.0,0.0,0.0,0,0,0,0,3,0,0,3,0,0,0,1,1,0,0
491175479,0.06506024,0.12852664,0.60465115,0.0,0.0,0.0,0.0,0.0,0.0,0.0,0.0,0,0,0,0,3,0,0,3,0,0,0,1,1,0,0
491376161,0.17590362,0.03448276,0.6034272,0.0,0.0,0.0,0.0,0.0,0.0,0.0,0.0,0,0,0,0,3,0,0,3,0,0,0,1,1,0,0
491574780,0.1879518,0.031347964,0.6034272,0.0,0.0,0.0,0.0,0.0,0.0,0.0,0.0,0,0,0,0,3,0,0,3,0,0,0,1,1,0,0
491776821,0.17831326,0.028213166,0.6034272,0.0,0.0,0.0,0.0,0.0,0.0,0.0,0.0,0,0,0,0,3,0,0,3,0,0,0,1,1,0,0
491977054,0.15421687,0.028213166,0.6034272,0.0,0.0,0.0,0.0,0.0,0.0,0.0,0.0,0,0,0,0,3,0,0,3,0,0,0,1,1,0,0
492185994,0.10361446,0.028213166,0.6034272,0.0,0.0,0.0,0.0,0.0,0.0,0.0,0.0,0,0,0,0,3,0,0,3,0,0,0,1,1,0,0
492379166,0.11566265,0.031347964,0.60465115,0.0,0.0,0.0,0.0,0.0,0.0,0.0,0.0,0,0,0,0,3,0,0,3,0,0,0,1,1,0,0
492581410,0.08192771,0.03448276,0.6034272,0.0,0.0,0.0,0.0,0.0,0.0,0.0,0.0,0,0,0,0,3,0,0,3,0,0,0,1,1,0,0
492781449,0.031325303,0.031347964,0.6034272,0.0,0.0,0.0,0.0,0.0,0.0,0.0,0.0,0,0,0,0,3,0,0,3,0,0,0,1,1,0,0
492982693,0.057831325,0.03448276,0.6034272,0.0,0.0,0.0,0.0,0.0,0.0,0.0,0.0,0,0,0,0,3,0,0,3,0,0,0,1,1,0,0
493181324,0.045783132,0.04075235,0.6034272,0.0,0.0,0.0,0.0,0.0,0.0,0.0,0.0,0,0,0,0,3,0,0,3,0,0,0,1,1,0,0
493382122,0.021686748,0.075235106,0.6034272,0.0,0.0,0.0,0.0,0.0,0.0,0.0,0.0,0,0,0,0,3,0,0,3,0,0,0,1,1,0,0
493583501,0.045783132,0.13166144,0.6034272,0.0,0.0,0.0,0.0,0.0,0.0,0.0,0.0,0,0,0,0,3,0,0,3,0,0,0,1,1,0,0
493784371,0.021686748,0.122257054,0.6034272,0.0,0.0,0.0,0.0,0.0,0.0,0.0,0.0,0,0,0,0,3,0,0,3,0,0,0,1,1,0,0
493986357,0.021686748,0.13479623,0.6034272,0.0,0.0,0.0,0.0,0.0,0.0,0.0,0.0,0,0,0,0,3,0,0,3,0,0,0,1,1,0,0
494186510,0.021686748,0.1630094,0.60465115,0.0,0.0,0.0,0.0,0.0,0.0,0.0,0.0,0,0,0,0,3,0,0,3,0,0,0,1,1,0,0
