timestamp,timestamp_sample,device_id,x,y,z,temperature,error_count
382784465,382784266,3670026,-0.007137272,0.032117724,0.0033555832,24.975521,0
382785709,382785508,3670026,-0.005965481,0.044687845,-0.0041012685,24.90208,0
383788653,383788456,3670026,0.04804343,-0.022104237,0.05816344,24.897184,0
384785497,384785300,3670026,0.06189187,0.07009441,0.07829694,24.90208,0
385788349,385788151,3670026,0.22359902,0.14695323,0.20490362,24.887392,0
386787576,386787378,3670026,-0.19377162,-0.10892329,-0.17220001,24.95104,0
387785564,387785366,3670026,0.015339809,0.02524677,0.5113269,24.916769,0
388786025,388785829,3670026,-0.37390783,0.4384096,-0.16990969,24.926561,0
389787736,389787539,3670026,0.6437393,-0.2883671,-0.00079894834,24.965729,0
390788218,390788021,3670026,0.31968588,-0.30940607,0.17731327,24.906977,0
391786314,391786117,3670026,-0.7664045,0.57598853,-0.5682121,24.926561,0
392786659,392786461,3670026,-0.113876775,-0.78552604,0.47580037,24.965729,0
393788366,393788169,3670026,-0.047883637,-0.22391859,-0.4126302,24.95104,0
394785110,394784913,3670026,0.2292449,-0.20793962,0.7215569,24.931456,0
395788064,395787867,3670026,-0.23877904,0.090281166,0.13528858,24.926561,0
396787294,396787090,3670026,0.43414855,-0.47207195,-0.46557385,24.936352,0
397787796,397787599,3670026,0.24719462,-0.03446131,0.24181503,24.90208,0
398785876,398785678,3670026,0.56027585,-0.009960223,0.36357477,24.926561,0
399787448,399787252,3670026,-0.455294,0.8864598,-0.4003264,24.887392,0
400787927,400787726,3670026,0.8411861,0.33657032,0.063489765,24.921665,0
401784664,401784467,3670026,0.33065808,-0.084262416,0.07925568,24.960833,0
402786370,402786172,3670026,-0.29960564,0.0055926386,0.036751624,24.906977,0
403786838,403786640,3670026,0.3548396,0.8495484,0.2414422,24.946144,0
404788549,404788349,3670026,-0.37151098,0.47233826,-0.36559877,24.980415,0
405785449,405785251,3670026,0.18684739,0.5051484,0.047404267,24.936352,0
406786998,406786802,3670026,0.20911142,-0.30796796,0.04016047,24.906977,0
407788749,407788552,3670026,0.7575096,-0.21417142,0.5481851,24.941248,0
408786693,408786496,3670026,0.23925841,-0.060933128,0.19936426,24.892288,0
409785924,409785727,3670026,0.6178001,-0.3225621,1.0788999,25.0,0
410787627,410787431,3670026,-0.08596685,-0.081226416,0.44565338,24.921665,0
411785612,411785416,3670026,0.62962455,-0.02924151,0.7421165,24.941248,0
412786265,412786068,3670026,0.13347764,0.18173413,0.10194581,24.892288,0
413786548,413786351,3670026,0.060560286,-0.043196473,-0.19973709,24.872705,0
414788284,414788081,3670026,-0.62733424,-0.002876214,-0.47404268,24.970625,0
415785000,415784803,3670026,0.09299759,0.0,0.07861652,24.931456,0
416786730,416786533,3670026,0.7132478,-0.41513357,0.28357342,24.906977,0
417787182,417786980,3670026,0.20234698,-0.3549994,0.6128466,24.965729,0
418785165,418784967,3670026,0.008042747,0.27233487,0.03787015,24.926561,0
419785687,419785490,3670026,-0.0,0.037390783,-0.5020059,24.906977,0
420786144,420785946,3670026,-0.8248342,0.62408525,-0.72006553,24.95104,0
421787805,421787609,3670026,0.811412,-0.10290454,0.54440343,24.946144,0
422784554,422784353,3670026,-0.20873857,-0.23558325,-0.1645301,24.921665,0
423786304,423786100,3670026,-0.08894958,-0.00958738,-0.5346562,24.95104,0
424786768,424786571,3670026,-0.35244274,-0.0670584,-0.49449578,24.931456,0
425788439,425788239,3670026,0.046978164,-0.18040255,0.7886686,24.936352,0
426785178,426784982,3670026,-0.29582396,0.070307456,0.31148332,24.877602,0
427788130,427787932,3670026,-0.16106798,0.32053807,0.15393071,24.941248,0
428787356,428787157,3670026,0.4315919,0.13262543,-0.15275893,24.897184,0
429785343,429785144,3670026,-0.008841695,0.1943575,0.26312032,24.906977,0
430785871,430785674,3670026,0.0012250541,-0.11851067,-0.16921726,24.946144,0
431787516,431787318,3670026,-0.35329494,0.30514503,-0.63441825,24.892288,0
432787984,432787785,3670026,0.04346279,0.24261399,-1.3501163,24.892288,0
433785965,433785768,3670026,0.43329632,-0.06615292,0.19094865,24.887392,0
434786432,434786235,3670026,0.3358779,-0.17715348,-0.3764112,24.892288,0
435788141,435787944,3670026,0.09379654,0.32767534,-0.119043306,24.872705,0
436784885,436784686,3670026,-0.47697216,0.46147257,-0.42908853,24.887392,0
437786670,437786470,3670026,0.14434333,-0.35808864,0.16596821,24.838434,0
438787061,438786861,3670026,0.026312033,-0.13592774,0.22013691,24.887392,0
439788769,439788569,3670026,0.33481264,0.037071202,-0.09145295,24.90208,0
440786750,440786552,3670026,0.3098322,0.018908445,-0.115155086,24.887392,0
441787217,441787019,3670026,0.060720075,-0.37518615,0.3887683,24.887392,0
442787681,442787485,3670026,-0.3100985,0.15073492,0.064661555,24.877602,0
443785668,443785470,3670026,0.8263789,-0.25768748,0.41715756,24.882498,0
444786277,444786079,3670026,0.5343899,0.13480923,-0.09278453,24.862913,0
445787852,445787656,3670026,-0.18908444,-0.048309747,0.15797873,24.833538,0
446788309,446788109,3670026,-0.08138621,0.39121836,0.28192222,24.872705,0
447786290,447786091,3670026,0.1272991,0.19536951,-0.54706657,24.838434,0
448786755,448786557,3670026,0.6205698,-0.40240365,0.6907175,24.877602,0
449787224,449787023,3670026,0.5589975,0.4416054,0.619185,24.794369,0
450785208,450785006,3670026,-0.44309676,0.4475176,-0.060080916,24.833538,0
451785783,451785585,3670026,0.106100336,-0.5807822,0.011025487,24.813953,0
452787375,452787178,3670026,0.13246563,-0.6081595,0.2954511,24.789474,0
453787840,453787643,3670026,-0.27553064,-0.09464875,0.4802745,24.828642,0
454785826,454785629,3670026,-0.007456851,0.18093517,-0.00628506,24.843328,0
455786312,455786114,3670026,0.18338528,-0.32756883,0.4913,24.86781,0
456789235,456789039,3670026,0.48900968,-0.07717841,0.08665926,24.843328,0
457784735,457784539,3670026,-0.840973,0.8523714,-0.2647182,24.877602,0
458786582,458786383,3670026,0.12985574,-0.21688785,-0.30637005,24.779682,0
459788152,459787953,3670026,0.5029646,-0.112438664,0.37156427,24.774786,0
460788617,460788420,3670026,-0.0029827405,0.30216226,0.18562233,24.833538,0
461785358,461785160,3670026,-0.075793564,0.24543694,0.46237805,24.877602,0
462787071,462786866,3670026,0.22013691,0.2292449,-0.65034395,24.789474,0
463785046,463784847,3670026,-0.14897723,1.0948255,-0.3532417,24.85312,0
464785510,464785312,3670026,-0.022050975,0.033023197,0.45609298,24.843328,0
465786125,465785928,3670026,0.11084077,0.51697284,-0.17528927,24.813953,0
466788921,466788724,3670026,-0.24080303,-0.42301652,0.51771855,24.823746,0
467788146,467787948,3670026,-0.012250541,0.05539375,0.21678132,24.799265,0
468786132,468785934,3670026,0.384667,-0.4954545,0.6348976,24.833538,0
469787839,469787642,3670026,0.46578687,-0.35574508,-0.25971147,24.833538,0
470788300,470788101,3670026,-0.32996565,0.43569317,-0.20165457,24.809057,0
471785040,471784842,3670026,0.25768748,0.32815474,-0.847844,24.804161,0
472786933,472786736,3670026,-0.16921726,0.3513775,-0.09922939,24.843328,0
473787217,473787016,3670026,0.28698224,0.2310026,0.19947077,24.784578,0
474787707,474787511,3670026,0.1413606,-0.17949706,-0.25614282,24.799265,0
475785663,475785461,3670026,0.12985574,0.3426423,0.6005961,24.809057,0
476786233,476786035,3670026,-0.083090626,0.19728698,-0.111160345,24.828642,0
477787825,477787629,3670026,-0.30679616,0.09784454,-0.29321405,24.789474,0
478784574,478784370,3670026,-0.2485262,-0.23595607,-0.50834423,24.81885,0
479786476,479786277,3670026,-0.31920648,0.43958136,-0.38780954,24.750305,0
480786749,480786539,3670026,-0.15899073,0.174224,-0.17001621,24.794369,0
481788440,481788244,3670026,-0.2257828,0.4645086,-0.32868737,24.809057,0
482785185,482784985,3670026,-0.35835496,0.47366983,0.6648316,24.794369,0
483787028,483786829,3670026,0.38408113,0.11627362,0.23345272,24.76989,0
484787353,484787154,3670026,-0.36458677,0.3280482,-0.9363142,24.804161,0
485785332,485785135,3670026,-0.015765915,-0.573059,0.17715348,24.76989,0
486785799,486785599,3670026,-0.09688581,0.0964597,-0.5344964,24.838434,0
487787500,487787304,3670026,-0.1383246,0.12298479,-0.28277445,24.74541,0
488789215,488789015,3670026,-0.2457565,-0.19377162,-0.06721819,24.823746,0
489785964,489785766,3670026,0.321337,-0.23728766,0.11616709,24.725826,0
490786454,490786253,3670026,-0.05965481,0.09912286,0.18764634,24.764994,0
491788115,491787918,3670026,-0.1548362,0.35467982,-0.45396245,24.725826,0
492784854,492784657,3670026,0.10950919,-0.016831178,0.40165797,24.760098,0
493786559,493786361,3670026,-0.1129713,-0.3461044,-0.3144661,24.72093,0
494787022,494786824,3670026,-0.66797405,0.16650084,0.18274613,24.764994,0
495788736,495788537,3670026,-0.13177322,-0.08266452,-0.03542004,24.730722,0
496785465,496785268,3670026,-0.030200249,-0.049321745,-0.20122847,24.760098,0
497787243,497787044,3670026,-0.32016525,0.43228433,-0.6349509,24.794369,0
498788875,498788677,3670026,-0.22567628,-0.18764634,0.24043019,24.81885,0
499786871,499786658,3670026,-0.15243936,0.040746365,0.0073503247,24.764994,0
500786117,500785917,3670026,-0.08010789,0.35681033,-0.1546764,24.784578,0
501787786,501787585,3670026,0.4495949,-0.15627429,0.17337179,24.74541,0
502788244,502788046,3670026,0.39617184,-0.13507554,0.6923154,24.774786,0
503786270,503786071,3670026,0.3493535,-0.2666357,0.23632893,24.711138,0
504786815,504786619,3670026,0.15627429,-0.16378441,-0.1645301,24.735619,0
505787151,505786953,3670026,0.11483551,0.30083066,-0.51553476,24.735619,0
506785178,506784982,3670026,-0.0027164244,0.16303873,-0.9040899,24.706242,0
507785595,507785395,3670026,-0.27217507,0.07765778,-0.95186704,24.730722,0
508788538,508788340,3670026,-0.08138621,0.4250405,-0.28149614,24.681763,0
509787760,509787562,3670026,-0.5289038,0.25076327,-0.37790257,24.750305,0
510785739,510785543,3670026,0.5565474,-0.16383767,0.1818939,24.716034,0
511787565,511787365,3670026,-0.46557385,0.6329269,-0.11158645,24.706242,0
512787909,512787707,3670026,0.23787355,-0.21805963,0.116699725,24.72093,0
513784645,513784446,3670026,-0.8409198,0.3367301,0.25028387,24.760098,0
514786346,514786149,3670026,0.107858025,-0.081226416,0.107858025,24.774786,0
515786808,515786611,3670026,0.08692558,-0.09880328,0.015020229,24.730722,0
516788512,516788314,3670026,0.14604776,-0.041065942,0.24857947,24.706242,0
517785249,517785052,3670026,-0.5651228,0.44805023,-0.32692966,24.740515,0
518788361,518788163,3670026,-0.5136173,0.27510455,-0.00095873803,24.760098,0
519787415,519787217,3670026,0.5634717,-0.24666199,-0.062158182,24.691555,0
520785408,520785208,3670026,-0.03584615,0.064182185,0.010652645,24.701345,0
521787101,521786903,3670026,0.033129726,0.13907027,-0.042930156,24.67197,0
522787569,522787361,3670026,0.13060142,0.50637347,0.101786025,24.730722,0
523788020,523787822,3670026,0.048363008,-0.06727145,-0.34003243,24.696451,0
524785999,524785801,3670026,-0.69774824,0.37358826,-0.5182512,24.691555,0
525786589,525786392,3670026,0.03025351,-0.20634173,0.17720675,24.760098,0
526788174,526787972,3670026,0.5413141,-0.16783242,0.3358246,24.691555,0
527784899,527784702,3670026,0.17614149,-0.115740985,0.7214503,24.691555,0
528787843,528787646,3670026,0.29832733,-0.042291,0.81988084,24.647491,0
529787114,529786917,3670026,0.1522263,-0.20469058,-0.258806,24.6377,0
530788765,530788569,3670026,-0.1919074,0.050866377,-0.3311907,24.750305,0
531785504,531785306,3670026,0.6015016,0.1331048,0.51324445,24.725826,0
532787361,532787164,3670026,0.1555286,0.026631612,-0.31846082,24.676867,0
533787703,533787504,3670026,0.24053672,0.1836516,0.62147534,24.6377,0
534785651,534785449,3670026,-0.36096486,0.053582802,-0.23089607,24.681763,0
535786108,535785910,3670026,-0.1290568,0.49960902,-0.43196473,24.691555,0
536786567,536786370,3670026,0.1149953,0.59202075,-1.1971974,24.696451,0
537789511,537789313,3670026,-0.26743466,0.053795855,-0.3864247,24.701345,0
538786247,538786050,3670026,0.14711303,-0.16522253,-0.26407906,24.725826,0
539786889,539786691,3670026,0.84645915,-0.11893678,0.11483551,24.716034,0
540788410,540788212,3670026,0.5838715,0.25481126,0.4079963,24.652388,0
541785157,541784953,3670026,0.019228024,0.016564863,-0.054701332,24.691555,0
542786855,542786651,3670026,-0.806565,0.32218924,-0.5684784,24.642595,0
543787366,543787167,3670026,0.81796336,0.010013486,0.4765993,24.691555,0
544787769,544787573,3670026,0.66861326,0.11930962,0.19968382,24.676867,0
545785753,545785550,3670026,0.36842173,-0.74467313,0.15531556,24.667074,0
546786213,546786014,3670026,0.44192496,-0.41646516,0.91346425,24.667074,0
547789152,547788954,3670026,0.124849,-0.10620687,0.25497106,24.62301,0
548784654,548784450,3670026,-0.5248025,0.29784796,-1.0230267,24.618114,0
549786352,549786154,3670026,-0.44235107,0.3409379,-0.9541574,24.657282,0
550788136,550787938,3670026,-0.24916537,0.28756815,-0.37678406,24.681763,0
551788514,551788315,3670026,0.25949842,0.37678406,-0.15845808,24.701345,0
552785262,552785065,3670026,-0.73769563,0.21880533,-0.68917286,24.72093,0
553786951,553786752,3670026,-0.24399883,-0.09241169,-0.36650425,24.706242,0
554787410,554787213,3670026,-0.5711948,0.20777984,-0.36218992,24.711138,0
555785448,555785251,3670026,0.687788,-0.3032275,0.49087387,24.667074,0
556785848,556785651,3670026,0.5767875,-0.93061507,0.18716696,24.642595,0
557788853,557788656,3670026,0.1908954,0.1923335,0.51723915,24.593636,0
558788011,558787813,3670026,0.12341089,0.042077947,0.076752305,24.686659,0
559785988,559785792,3670026,-0.12133362,-0.52650696,-0.31894016,24.706242,0
560786473,560786275,3670026,-0.3346528,0.33854106,-0.90110725,24.6377,0
561785672,561785471,3670026,0.4440555,-0.10892329,0.5632053,24.662178,0
562784889,562784691,3670026,-0.010759171,0.09832391,0.34173685,24.67197,0
563786605,563786409,3670026,0.514576,-0.48107344,0.8111456,24.667074,0
564787185,564786988,3670026,0.17390442,0.6382,-0.19020297,24.652388,0
565788757,565788560,3670026,-0.27798077,-0.05667207,-0.063596286,24.696451,0
566785490,566785291,3670026,-0.65311366,0.23813987,-0.4814463,24.711138,0
567787213,567787012,3670026,0.41412157,-0.15185346,0.40650493,24.711138,0
568787655,568787458,3670026,-0.39766324,-0.00165116,-0.45023403,24.642595,0
569785628,569785431,3670026,0.16362463,-0.3002448,-0.4427239,24.667074,0
570787337,570787134,3670026,-0.052943643,0.37955374,-0.31467912,24.652388,0
571786634,571786438,3670026,0.33348104,0.19835223,-0.5813681,24.647491,0
572789491,572789295,3670026,0.17092168,0.46115297,0.55377775,24.608324,0
573786236,573786032,3670026,-0.19643478,0.11851067,-0.8505604,24.652388,0
574786688,574786492,3670026,0.16117452,-0.23840618,-0.18801917,24.632803,0
575788394,575788197,3670026,0.28943238,0.036378782,0.3216566,24.618114,0
576785134,576784931,3670026,-0.09534117,0.3541472,0.6917828,24.67197,0
577785590,577785390,3670026,-0.06338324,-0.32565135,-0.4025102,24.681763,0
578787468,578787272,3670026,-0.092145376,0.22945797,-0.612314,24.647491,0
579788996,579788797,3670026,0.1010936,0.25864622,0.3048787,24.593636,0
580785734,580785529,3670026,-0.40975398,0.20383836,-0.5229916,24.667074,0
581786201,581785995,3670026,-0.17891116,-0.045593318,0.5383314,24.618114,0
582787893,582787691,3670026,0.33161685,0.115527935,0.3556918,24.681763,0
583785896,583785698,3670026,0.44165865,-0.54190004,0.8971125,24.730722,0
584786323,584786126,3670026,0.29369342,-0.20213392,-0.0628506,24.681763,0
585786919,585786719,3670026,0.31798145,-0.31771514,0.7805193,24.618114,0
586788498,586788288,3670026,0.50333744,-0.43313652,0.09725865,24.642595,0
587785226,587785028,3670026,-0.0505468,-0.0053795855,-0.14056164,24.603428,0
588786962,588786765,3670026,-0.33449304,-0.113663726,-0.2056493,24.608324,0
589788622,589788425,3670026,0.32474586,0.15627429,-0.45364287,24.618114,0
590786598,590786402,3670026,-0.3369964,0.098590225,-0.128897,24.578947,0
591785819,591785620,3670026,-0.41113883,0.31052458,-0.7897871,24.652388,0
592787670,592787473,3670026,0.3888215,0.12703279,0.09076054,24.564259,0
593785517,593785320,3670026,0.28687572,0.035100464,0.44107276,24.667074,0
594785953,594785757,3670026,-0.5048821,-0.21028322,0.21097563,24.711138,0
595786415,595786217,3670026,0.106952555,-0.46472162,-0.10466223,24.62301,0
596788163,596787962,3670026,0.664725,-0.6745787,0.72725606,24.632803,0
597784854,597784653,3670026,0.44309676,0.21699436,-0.07259777,24.657282,0
598786591,598786394,3670026,0.39462724,0.34738275,0.32431978,24.598532,0
599787182,599786984,3670026,0.27947214,-0.01917476,0.5530853,24.662178,0
600786233,600786035,3670026,-0.21678132,0.35984635,-0.1753958,24.686659,0
601785447,601785250,3670026,-0.44858286,0.6287191,-0.6288256,24.608324,0
602787147,602786950,3670026,-0.04974785,-0.1538242,-0.5098888,24.618114,0
603787703,603787507,3670026,0.19036275,0.21955101,-0.4475176,24.657282,0
604785586,604785387,3670026,-0.24160199,0.013635385,-0.44900897,24.569155,0
605786049,605785847,3670026,-0.24314661,0.21331921,-1.0636666,24.58874,0
606790237,606790036,3670026,0.36250952,0.1427987,-0.3979828,24.627907,0
607788232,607788036,3670026,0.17182717,-0.123623945,-0.60512346,24.6377,0
608786182,608785983,3670026,0.14626081,0.20106867,0.23164175,24.608324,0
609786647,609786447,3670026,0.48815745,-0.20676784,0.0515588,24.681763,0
610788432,610788234,3670026,-0.509729,0.3206446,0.13081448,24.686659,0
611785078,611784879,3670026,0.13273194,0.05566007,-0.3764112,24.613218,0
612786780,612786580,3670026,-0.056991648,0.21907164,-0.2308428,24.67197,0
613787240,613787040,3670026,-0.07174556,0.16767263,0.119629204,24.613218,0
614788936,614788739,3670026,0.082717784,0.0747283,-0.23249397,24.6377,0
615785673,615785476,3670026,0.13646038,-0.095181376,-0.10684603,24.632803,0
616788618,616788417,3670026,0.07105315,0.40219063,0.16128105,24.613218,0
617787865,617787668,3670026,-0.1572863,-0.05225122,0.44852963,24.667074,0
618784568,618784370,3670026,0.20964405,-0.15957662,0.6999853,24.62301,0
619786271,619786072,3670026,0.24058999,-0.107538454,-0.19600865,24.681763,0
620786730,620786530,3670026,0.4293016,-0.05070659,0.30770165,24.657282,0
621788429,621788231,3670026,0.17172062,0.021358553,-0.131933,24.593636,0
622785168,622784969,3670026,0.37039247,0.046658583,0.076166406,24.569155,0
623786874,623786667,3670026,-0.38083205,0.16261263,-0.19265309,24.642595,0
624787384,624787182,3670026,-0.6375075,0.59958416,-0.40448093,24.58874,0
625785300,625785103,3670026,0.015978966,-0.08868326,-0.19094865,24.569155,0
626785758,626785562,3670026,-0.50376356,0.19707392,-0.35478634,24.520195,0
627787459,627787262,3670026,-0.12181299,0.4118845,-0.060027655,24.652388,0
628789162,628788963,3670026,0.077711046,0.19829899,0.50083405,24.681763,0
629787147,629786947,3670026,-0.25784728,0.22599587,-0.2434662,24.613218,0
630786354,630786157,3670026,-0.34823495,0.023169503,0.5299158,24.627907,0
631788180,631787984,3670026,-0.2801113,-0.060400497,0.028336035,24.608324,0
632786033,632785834,3670026,0.004527374,-0.2326005,0.7013701,24.696451,0
633786490,633786293,3670026,0.08436895,0.026791401,0.215503,24.559364,0
634786953,634786753,3670026,-0.5606487,0.8671253,-0.39702407,24.62301,0
635788660,635788463,3670026,0.17566212,-0.25326663,0.27371973,24.647491,0
636785390,636785188,3670026,-0.47409597,0.48469532,-0.2714294,24.62301,0
637787089,637786889,3670026,-0.09869675,-0.6720221,0.8039551,24.662178,0
638788877,638788680,3670026,-0.3326821,0.7297594,-0.49667954,24.57405,0
639785526,639785323,3670026,0.09560748,-0.091772534,-0.45018077,24.554468,0
640785982,640785782,3670026,-0.4720187,0.31350735,-1.0512563,24.613218,0
641787678,641787482,3670026,0.035047203,0.5162272,-0.44741106,24.647491,0
642788136,642787940,3670026,-0.49524143,0.074142404,-0.7260843,24.603428,0
643786113,643785917,3670026,0.077231675,0.57795924,0.7536746,24.608324,0
644786578,644786377,3670026,0.05965481,0.31595746,-0.8695754,24.627907,0
645787139,645786942,3670026,0.19888487,-0.025832662,-0.96683407,24.598532,0
646785018,646784821,3670026,-0.028868668,0.04234426,-0.31276166,24.58874,0
647786709,647786510,3670026,0.32192293,0.16729979,0.18013622,24.62301,0
648788406,648788209,3670026,0.5478122,-0.45369613,0.27888626,24.67197,0
649787623,649787427,3670026,-0.5663479,0.62051654,-0.7282681,24.583843,0
650785611,650785414,3670026,-0.63644224,0.24501082,-0.36304215,24.598532,0
651787299,651787102,3670026,0.26812705,0.3208044,0.037763625,24.569155,0
652787879,652787682,3670026,-0.6224873,0.6181197,-0.4501275,24.564259,0
653785739,653785540,3670026,0.81961447,-0.4315919,0.65934545,24.578947,0
654786238,654786042,3670026,0.42397526,-0.15632756,0.67511135,24.627907,0
655789135,655788938,3670026,0.08548747,0.038402785,0.29529133,24.534883,0
656788361,656788165,3670026,0.6625945,-0.25571674,0.7952732,24.578947,0
657785087,657784886,3670026,-0.5138303,-0.4316984,-0.098004326,24.544676,0
658786784,658786586,3670026,-0.24799357,0.26988477,-0.3099387,24.657282,0
659787388,659787190,3670026,0.6499711,-0.504456,0.96150774,24.544676,0
660785215,660785019,3670026,0.436066,-0.40165797,0.8115718,24.510405,0
661785675,661785477,3670026,-0.8671253,0.6625945,-0.6764429,24.58874,0
662787399,662787202,3670026,0.45907572,-0.85093325,0.3867443,24.583843,0
663787892,663787696,3670026,0.19750004,0.013315806,-0.02162487,24.564259,0
664785812,664785609,3670026,0.32027176,-0.2702576,0.1959554,24.593636,0
665786265,665786067,3670026,0.16287895,-0.03286341,0.18343854,24.554468,0
666788137,666787939,3670026,-0.34711644,0.50594735,-0.358568,24.569155,0
667784697,667784500,3670026,0.057417754,-0.34823495,0.21789984,24.53978,0
668786403,668786204,3670026,-0.4068778,0.36069855,-1.0487529,24.627907,0
669786872,669786667,3670026,0.8297878,-0.716923,0.32959282,24.510405,0
670788614,670788417,3670026,0.70653665,0.53801185,0.56938386,24.510405,0
671785291,671785090,3670026,-0.33710295,0.4770787,-0.4486361,24.6377,0
672786989,672786789,3670026,-0.45444182,0.4248275,-0.92070806,24.569155,0
673787630,673787433,3670026,0.49002165,-0.6068812,0.51926315,24.559364,0
674785421,674785224,3670026,0.059388492,-0.10444918,-0.2130529,24.53978,0
675785878,675785680,3670026,0.0716923,0.14413029,-0.844808,24.569155,0
676787579,676787379,3670026,0.25529063,-0.23435818,-0.6694122,24.481028,0
677788061,677787864,3670026,0.3396063,-0.59867865,0.12516858,24.569155,0
678786013,678785814,3670026,0.28895298,-0.22407839,0.5699165,24.583843,0
679786469,679786271,3670026,-0.062051654,0.61865234,0.12117383,24.62301,0
680788170,680787968,3670026,0.39446744,0.18056233,0.32160333,24.564259,0
681784903,681784703,3670026,-0.10327739,0.051132694,-0.035153728,24.549572,0
682786599,682786401,3670026,0.49390987,-0.06114618,1.0492855,24.57405,0
683787065,683786861,3670026,-0.015765915,-0.64571005,0.16554211,24.6377,0
684787553,684787355,3670026,0.499396,0.01768339,0.06306366,24.569155,0
685785506,685785311,3670026,-0.1542503,0.062903866,-0.52363074,24.529987,0
686787196,686786992,3670026,0.08431568,-0.07286409,0.43990096,24.559364,0
687788885,687788689,3670026,0.19430424,0.17028253,0.10290454,24.520195,0
688785650,688785452,3670026,0.2647182,-0.094595484,0.8821455,24.578947,0
689786078,689785880,3670026,0.15824504,0.26045716,0.19606192,24.57405,0
690787775,690787579,3670026,0.47713193,-0.3119627,0.3202185,24.559364,0
691788303,691788103,3670026,-0.1433846,-0.19212045,-0.35068506,24.520195,0
692786226,692786030,3670026,-0.34743598,0.13331784,-0.31899345,24.57405,0
693786666,693786469,3670026,-0.01155812,-0.07637946,-0.30482543,24.578947,0
694789606,694789409,3670026,-0.1470065,0.2855974,0.5278918,24.549572,0
695785099,695784902,3670026,-0.060560286,-0.09592707,0.35222968,24.618114,0
696786804,696786606,3670026,-0.2722816,-0.3905792,-0.43532032,24.598532,0
697788496,697788298,3670026,0.19909793,-0.22887208,-0.13640712,24.593636,0
698787787,698787589,3670026,0.10855045,0.009001484,-0.24543694,24.495716,0
699785690,699785493,3670026,-0.23089607,0.735139,-0.43180496,24.505508,0
700786143,700785946,3670026,0.45518753,-0.27212182,-0.2670618,24.578947,0
701787842,701787644,3670026,-0.03009372,0.03270362,-0.019068234,24.564259,0
702784577,702784378,3670026,-0.035899412,0.036432046,-0.02593919,24.5153,0
