timestamp,ref_timestamp,ref_lat,ref_lon,x,y,z,delta_xy[0],delta_xy[1],delta_z,vx,vy,vz,z_deriv,delta_vxy[0],delta_vxy[1],delta_vz,ax,ay,az,heading,delta_heading,ref_alt,dist_bottom,eph,epv,evh,evv,vxy_max,vz_max,hagl_min,hagl_max,xy_valid,z_valid,v_xy_valid,v_z_valid,xy_reset_counter,z_reset_counter,vxy_reset_counter,vz_reset_counter,heading_reset_counter,xy_global,z_global,dist_bottom_valid
382791713,14540891,34.0362371,108.7609191,-5.9266677,2.273844,1.7044882,0.21387814,-0.081331484,0.0,-0.03436847,-0.01471378,0.019258864,0.051407926,0.12404698,-0.14793324,-0.19150206,0.0011067883,0.116062164,-0.033125382,-1.674245,-0.020353785,420.56393,0.1,0.31270018,0.39133048,0.14033286,0.09641588,inf,inf,inf,inf,1,1,1,1,2,0,2,1,4,1,1,1
382801681,14540891,34.0362371,108.7609191,-5.927118,2.273634,1.7048113,0.21387814,-0.081331484,0.0,-0.033807613,-0.015656421,0.01967461,0.051586818,0.12404698,-0.14793324,-0.19150206,0.03076163,-0.17356911,0.020071538,-1.6740277,-0.020353785,420.56393,0.1,0.31358853,0.39195576,0.14078909,0.09656596,inf,inf,inf,inf,1,1,1,1,2,0,2,1,4,1,1,1
382891101,14540891,34.0362371,108.7609191,-5.9323735,2.271485,1.7083334,0.21387814,-0.081331484,0.0,-0.029841045,-0.015258242,0.021017652,0.051534783,0.12404698,-0.14793324,-0.19150206,-0.24184592,-0.26640645,0.20879984,-1.6735634,-0.020353785,420.56393,0.1,0.30286515,0.38895383,0.13537836,0.09523221,inf,inf,inf,inf,1,1,1,1,2,0,2,1,4,1,1,1
382995281,14540891,34.0362371,108.7609191,-5.9385166,2.2690537,1.7122473,0.21387814,-0.081331484,0.0,-0.033437997,-0.022315007,0.026607715,0.055519905,0.12404698,-0.14793324,-0.19150206,-0.56845677,-0.29647705,-0.32119295,-1.6739584,-0.020353785,420.56393,0.1,0.31142122,0.3902579,0.13986197,0.09622902,inf,inf,inf,inf,1,1,1,1,2,0,2,1,4,1,1,1
383094583,14540891,34.0362371,108.7609191,-5.947481,2.2636893,1.7130066,0.21387814,-0.081331484,0.0,-0.029774942,-0.016337138,0.014531589,0.03908081,0.12404698,-0.14793324,-0.19150206,0.22504732,0.2443,0.8111003,-1.6734928,-0.020353785,420.56393,0.1,0.30207676,0.39034012,0.13536908,0.09534708,inf,inf,inf,inf,1,1,1,1,2,0,2,1,4,1,1,1
383193885,14540891,34.0362371,108.7609191,-5.9547687,2.2591817,1.7142769,0.21387814,-0.081331484,0.0,-0.024511343,-0.014131552,0.007890362,0.02897594,0.12404698,-0.14793324,-0.19150206,-0.47625688,0.034471683,0.35233048,-1.6730958,-0.020353785,420.56393,0.1,0.2933137,0.38805398,0.13117075,0.09421794,inf,inf,inf,inf,1,1,1,1,2,0,2,1,4,1,1,1
383293187,14540891,34.0362371,108.7609191,-5.96287,2.2546618,1.7142998,0.21387814,-0.081331484,0.0,-0.029686717,-0.016014295,0.019399587,0.036293194,0.12404698,-0.14793324,-0.19150206,-0.23431255,-0.3541314,0.1336112,-1.6734822,-0.020353785,420.56393,0.1,0.30139002,0.38933113,0.13565019,0.09523463,inf,inf,inf,inf,1,1,1,1,2,0,2,1,4,1,1,1
383392490,14540891,34.0362371,108.7609191,-5.9691544,2.2508492,1.7146125,0.21387814,-0.081331484,0.0,-0.030580923,-0.019223731,0.018768663,0.032314856,0.12404698,-0.14793324,-0.19150206,-0.24503298,0.41260064,-1.5506855,-1.672792,-0.020353785,420.56393,0.1,0.3099779,0.39064437,0.140139,0.096235625,inf,inf,inf,inf,1,1,1,1,2,0,2,1,4,1,1,1
383486827,14540891,34.0362371,108.7609191,-5.979178,2.2472756,1.7142031,0.21387814,-0.081331484,0.0,-0.030623231,-0.02083495,0.018611914,0.02883372,0.12404698,-0.14793324,-0.19150206,0.3925639,-0.010463655,-0.427365,-1.6720855,-0.020353785,420.56393,0.1,0.29980424,0.39011782,0.13511148,0.09520656,inf,inf,inf,inf,1,1,1,1,2,0,2,1,4,1,1,1
383586149,14540891,34.0362371,108.7609191,-5.987803,2.2439888,1.7139304,0.21387814,-0.081331484,0.0,-0.028446259,-0.015717888,0.020526802,0.02774281,0.12404698,-0.14793324,-0.19150206,0.2697692,0.18073542,0.71772885,-1.6715696,-0.020353785,420.56393,0.1,0.3083481,0.39144182,0.13957992,0.09621413,inf,inf,inf,inf,1,1,1,1,2,0,2,1,4,1,1,1
383695396,14540891,34.0362371,108.7609191,-6.001228,2.2380953,1.7140003,0.21387814,-0.081331484,0.0,-0.03215155,-0.019703727,0.01863508,0.023256779,0.12404698,-0.14793324,-0.19150206,0.5862798,1.0795414,-0.12447083,-1.6713583,-0.020353785,420.56393,0.1,0.29989755,0.389731,0.13568904,0.095241696,inf,inf,inf,inf,1,1,1,1,2,0,2,1,4,1,1,1
383794664,14540891,34.0362371,108.7609191,-6.0110188,2.233506,1.715163,0.21387814,-0.081331484,0.0,-0.029199507,-0.017640742,0.017333562,0.020981973,0.12404698,-0.14793324,-0.19150206,-0.18354131,-0.44962814,-0.18427497,-1.6707877,-0.020353785,420.56393,0.1,0.3085088,0.3910691,0.14018781,0.096250966,inf,inf,inf,inf,1,1,1,1,2,0,2,1,4,1,1,1
383893964,14540891,34.0362371,108.7609191,-6.0270867,2.2296782,1.7137495,0.21387814,-0.081331484,0.0,-0.03808781,-0.02667503,0.019647958,0.019951819,0.12404698,-0.14793324,-0.19150206,-0.5307992,-0.094262,0.5424469,-1.6707007,-0.020353785,420.56393,0.1,0.29917303,0.38876095,0.13563254,0.095134385,inf,inf,inf,inf,1,1,1,1,2,0,2,1,4,1,1,1
383993451,14540891,34.0362371,108.7609191,-6.040339,2.226591,1.7131809,0.21387814,-0.081331484,0.0,-0.03659262,-0.016179847,0.015639085,0.01388327,0.12404698,-0.14793324,-0.19150206,0.16116837,-0.28409183,-0.4020982,-1.6700485,-0.020353785,420.56393,0.1,0.2903917,0.38652217,0.13120697,0.09401911,inf,inf,inf,inf,1,1,1,1,2,0,2,1,4,1,1,1
384087603,14540891,34.0362371,108.7609191,-6.0547147,2.2245817,1.711318,0.21387814,-0.081331484,0.0,-0.038643505,-0.02278733,0.014550259,0.009860527,0.12404698,-0.14793324,-0.19150206,0.071453944,-1.0049576,0.38871837,-1.6694124,-0.020353785,420.56393,0.1,0.29767627,0.3872013,0.13519394,0.09489015,inf,inf,inf,inf,1,1,1,1,2,0,2,1,4,1,1,1
384186908,14540891,34.0362371,108.7609191,-6.0672293,2.2227242,1.7094082,0.21387814,-0.081331484,0.0,-0.041547645,-0.015530331,0.01817391,0.010907693,0.12404698,-0.14793324,-0.19150206,-0.43336737,0.47971177,0.61336577,-1.6697414,-0.020353785,420.56393,0.1,0.30625978,0.38852283,0.1398546,0.09589779,inf,inf,inf,inf,1,1,1,1,2,0,2,1,4,1,1,1
384291172,14540891,34.0362371,108.7609191,-6.083151,2.219472,1.7067857,0.21387814,-0.081331484,0.0,-0.039163083,-0.019080523,0.011242237,0.001014781,0.12404698,-0.14793324,-0.19150206,0.87426686,0.40419006,-0.27215633,-1.6685433,-0.020353785,420.56393,0.1,0.2969381,0.38866374,0.13526353,0.095035136,inf,inf,inf,inf,1,1,1,1,2,0,2,1,4,1,1,1
384390474,14540891,34.0362371,108.7609191,-6.095925,2.21672,1.7057283,0.21387814,-0.081331484,0.0,-0.044735912,-0.016986728,0.014662023,0.0034737214,0.12404698,-0.14793324,-0.19150206,-0.6781201,-0.5527765,0.13008665,-1.6690387,-0.020353785,420.56393,0.1,0.30553365,0.3900142,0.13974008,0.09604982,inf,inf,inf,inf,1,1,1,1,2,0,2,1,4,1,1,1
384489777,14540891,34.0362371,108.7609191,-6.1117024,2.213986,1.7048872,0.21387814,-0.081331484,0.0,-0.03975612,-0.014677153,0.0094532445,-0.0023414628,0.12404698,-0.14793324,-0.19150206,0.83605015,1.4071633,-0.449435,-1.6678194,-0.020353785,420.56393,0.1,0.29621825,0.387761,0.13534538,0.0949452,inf,inf,inf,inf,1,1,1,1,2,0,2,1,4,1,1,1
384589099,14540891,34.0362371,108.7609191,-6.1245694,2.2117028,1.7042556,0.21387814,-0.081331484,0.0,-0.046898734,-0.020011391,0.013659483,0.0015278802,0.12404698,-0.14793324,-0.19150206,-0.43696204,-0.34864375,-0.26238352,-1.6681461,-0.020353785,420.56393,0.1,0.3048272,0.3891155,0.1398253,0.09596048,inf,inf,inf,inf,1,1,1,1,2,0,2,1,4,1,1,1
384688381,14540891,34.0362371,108.7609191,-6.1412334,2.2094717,1.7028077,0.21387814,-0.081331484,0.0,-0.047173843,-0.019258266,0.01449338,0.0012971407,0.12404698,-0.14793324,-0.19150206,0.10778999,-0.123551555,0.34979975,-1.6670291,-0.020353785,420.56393,0.1,0.2955889,0.38688758,0.13530388,0.0948686,inf,inf,inf,inf,1,1,1,1,2,0,2,1,4,1,1,1
384787799,14540891,34.0362371,108.7609191,-6.1542497,2.207608,1.7022195,0.21387814,-0.081331484,0.0,-0.046134938,-0.020567136,0.013278646,-4.9703645e-05,0.12404698,-0.14793324,-0.19150206,0.18571861,-0.99922657,-0.048476584,-1.6662704,-0.020353785,420.56393,0.1,0.304212,0.38823903,0.1397915,0.09588261,inf,inf,inf,inf,1,1,1,1,2,0,2,1,4,1,1,1
384886986,14540891,34.0362371,108.7609191,-6.1710124,2.2038662,1.7038141,0.21387814,-0.081331484,0.0,-0.048263133,-0.017559916,0.015202663,0.0038939067,0.12404698,-0.14793324,-0.19150206,-0.37077472,-0.68671846,0.20726815,-1.666351,-0.020353785,420.56393,0.1,0.2948802,0.38602602,0.13516396,0.09478482,inf,inf,inf,inf,1,1,1,1,2,0,2,1,4,1,1,1
384986287,14540891,34.0362371,108.7609191,-6.1847754,2.2006316,1.7056178,0.21387814,-0.081331484,0.0,-0.04830272,-0.01490791,0.015351428,0.005966377,0.12404698,-0.14793324,-0.19150206,-0.3740407,0.6347893,0.34353226,-1.6662364,-0.020353785,420.56393,0.1,0.3035076,0.38976845,0.13966136,0.09604237,inf,inf,inf,inf,1,1,1,1,2,0,2,1,4,1,1,1
385095519,14540891,34.0362371,108.7609191,-6.202112,2.1959777,1.705713,0.21387814,-0.081331484,0.0,-0.05254045,-0.010102676,0.012361747,0.0028967413,0.12404698,-0.14793324,-0.19150206,0.43763423,-0.33296916,-0.02179343,-1.6661495,-0.020353785,420.56393,0.1,0.294904,0.3857733,0.13540679,0.094842434,inf,inf,inf,inf,1,1,1,1,2,0,2,1,4,1,1,1
385194821,14540891,34.0362371,108.7609191,-6.2153096,2.1923165,1.7054373,0.21387814,-0.081331484,0.0,-0.049247324,-0.012245183,0.012252439,0.002507221,0.12404698,-0.14793324,-0.19150206,2.3939953,0.21217138,0.31554136,-1.6654025,-0.020353785,420.56393,0.1,0.30357826,0.3895169,0.13989738,0.096098505,inf,inf,inf,inf,1,1,1,1,2,0,2,1,4,1,1,1
385294123,14540891,34.0362371,108.7609191,-6.2330103,2.188881,1.7028759,0.21387814,-0.081331484,0.0,-0.04554207,-0.015039645,0.0072776456,-0.0048552263,0.12404698,-0.14793324,-0.19150206,3.5625448,-0.36303365,-0.12935647,-1.6647397,-0.020353785,420.56393,0.1,0.2941863,0.3872977,0.1352889,0.09500179,inf,inf,inf,inf,1,1,1,1,2,0,2,1,4,1,1,1
385393425,14540891,34.0362371,108.7609191,-6.246862,2.1861773,1.7025418,0.21387814,-0.081331484,0.0,-0.05151656,-0.01658058,0.0109201055,-0.0009894099,0.12404698,-0.14793324,-0.19150206,0.6973353,-2.0755002,0.503368,-1.6649818,-0.020353785,420.56393,0.1,0.3028655,0.38867265,0.139854,0.09601836,inf,inf,inf,inf,1,1,1,1,2,0,2,1,4,1,1,1
385492727,14540891,34.0362371,108.7609191,-6.2651467,2.182614,1.70091,0.21387814,-0.081331484,0.0,-0.058209524,-0.009440425,0.005192932,-0.0076531116,0.12404698,-0.14793324,-0.19150206,-0.13546155,0.22093794,0.7848053,-1.6647263,-0.020353785,420.56393,0.1,0.29344526,0.386464,0.13534859,0.094923556,inf,inf,inf,inf,1,1,1,1,2,0,2,1,4,1,1,1
385592128,14540891,34.0362371,108.7609191,-6.2796435,2.1797574,1.7005498,0.21387814,-0.081331484,0.0,-0.058442827,-0.010396371,-0.00021311414,-0.012593254,0.12404698,-0.14793324,-0.19150206,-0.5140298,2.4141774,-2.8996332,-1.6647402,-0.020353785,420.56393,0.10021603,0.30213,0.38782752,0.14007445,0.095936246,inf,inf,inf,inf,1,1,1,1,2,0,2,1,4,1,1,1
385686366,14540891,34.0362371,108.7609191,-6.2969894,2.1771417,1.699939,0.21387814,-0.081331484,0.0,-0.061265316,-0.018439751,0.0035854238,-0.0084842425,0.12404698,-0.14793324,-0.19150206,0.69062656,-1.2881845,-0.85333246,-1.6646427,-0.020353785,420.56393,0.10082686,0.2918755,0.38739038,0.1351579,0.094932914,inf,inf,inf,inf,1,1,1,1,2,0,2,1,4,1,1,1
385795602,14540891,34.0362371,108.7609191,-6.314667,2.1743214,1.6979549,0.21387814,-0.081331484,0.0,-0.06744962,-0.01023365,0.004593086,-0.008140178,0.12404698,-0.14793324,-0.19150206,-0.015600998,-0.10125275,1.477518,-1.6641152,-0.020353785,420.56393,0.10281098,0.28388318,0.38351536,0.13156252,0.093755014,inf,inf,inf,inf,1,1,1,1,2,0,2,1,4,1,1,1
385894901,14540891,34.0362371,108.7609191,-6.333499,2.1705022,1.6960685,0.21387814,-0.081331484,0.0,-0.06491144,-0.006328362,-0.0054083085,-0.018570026,0.12404698,-0.14793324,-0.19150206,-0.7616635,-0.11016577,-1.0069368,-1.663942,-0.020353785,420.56393,0.10469735,0.29207447,0.38719693,0.13630107,0.09501966,inf,inf,inf,inf,1,1,1,1,2,0,2,1,4,1,1,1
385994203,14540891,34.0362371,108.7609191,-6.3478084,2.1675732,1.6957008,0.21387814,-0.081331484,0.0,-0.06219793,-0.004577463,-0.0004222251,-0.012571912,0.12404698,-0.14793324,-0.19150206,-0.96423817,0.08853987,-0.1167328,-1.6643668,-0.020353785,420.56393,0.10506511,0.30079636,0.38859317,0.14118019,0.09603989,inf,inf,inf,inf,1,1,1,1,2,0,2,1,4,1,1,1
386093506,14540891,34.0362371,108.7609191,-6.3657885,2.1637104,1.693944,0.21387814,-0.081331484,0.0,-0.06431354,-0.01723322,0.007656808,-0.0049043773,0.12404698,-0.14793324,-0.19150206,-0.1936131,-1.7912778,0.53782874,-1.6655737,-0.020353785,420.56393,0.106821895,0.29133102,0.38640222,0.13670659,0.094947286,inf,inf,inf,inf,1,1,1,1,2,0,2,1,4,1,1,1
386192810,14540891,34.0362371,108.7609191,-6.379958,2.160852,1.6934884,0.21387814,-0.081331484,0.0,-0.057877347,-0.001278545,-0.0048300195,-0.016578306,0.12404698,-0.14793324,-0.19150206,2.7605991,4.3119626,-3.6477811,-1.6649251,-0.020353785,420.56393,0.10727751,0.3000667,0.38778657,0.14161447,0.0959634,inf,inf,inf,inf,1,1,1,1,2,0,2,1,4,1,1,1
386292108,14540891,34.0362371,108.7609191,-6.3974524,2.1580796,1.6929886,0.21387814,-0.081331484,0.0,-0.06523212,-0.019405507,0.0073521743,-0.0039054947,0.12404698,-0.14793324,-0.19150206,-1.8186597,-2.7917545,1.3004707,-1.6648763,-0.020353785,420.56393,0.10777724,0.2906022,0.38561165,0.13718612,0.09487347,inf,inf,inf,inf,1,1,1,1,2,0,2,1,4,1,1,1
386391529,14540891,34.0362371,108.7609191,-6.411178,2.1559808,1.6941754,0.21387814,-0.081331484,0.0,-0.06711012,0.0035499209,-0.00016667439,-0.009288638,0.12404698,-0.14793324,-0.19150206,0.49410143,2.088997,-0.17480685,-1.6655117,-0.020353785,420.56393,0.10659051,0.299355,0.38699898,0.14216857,0.095889635,inf,inf,inf,inf,1,1,1,1,2,0,2,1,4,1,1,1
386485747,14540891,34.0362371,108.7609191,-6.4284763,2.1531835,1.6943697,0.21387814,-0.081331484,0.0,-0.06264025,0.003574718,-0.0050747846,-0.013042588,0.12404698,-0.14793324,-0.19150206,1.4993447,3.096295,-1.3716971,-1.6635661,-0.020353785,420.56393,0.1063962,0.28904033,0.3865787,0.13713375,0.094889425,inf,inf,inf,inf,1,1,1,1,2,0,2,1,4,1,1,1
386594979,14540891,34.0362371,108.7609191,-6.444425,2.1499038,1.6962723,0.21387814,-0.081331484,0.0,-0.06645753,-0.0077644703,-0.00025706834,-0.0056150076,0.12404698,-0.14793324,-0.19150206,0.18085371,-1.2709106,0.66171896,-1.6632559,-0.020353785,420.56393,0.10449362,0.29866037,0.38859507,0.14277773,0.096060395,inf,inf,inf,inf,1,1,1,1,2,0,2,1,4,1,1,1
386684527,14540891,34.0362371,108.7609191,-6.458922,2.1466498,1.6993923,0.21387814,-0.081331484,0.0,-0.066388786,0.006479385,-0.0013788374,-0.0030352594,0.12404698,-0.14793324,-0.19150206,1.2242703,0.8681213,-1.3787874,-1.6621535,-0.020353785,420.56393,0.10980523,0.28833345,0.38581076,0.1376857,0.09481963,inf,inf,inf,inf,1,1,1,1,2,0,2,1,4,1,1,1
386788619,14540891,34.0362371,108.7609191,-6.471709,2.1438475,1.702946,0.21387814,-0.081331484,0.0,-0.07463411,-0.0029891997,0.004615175,0.0065277442,0.12404698,-0.14793324,-0.19150206,-2.6275826,-1.879896,0.3948499,-1.6602732,-0.020353785,420.56393,0.10895562,0.29707935,0.38721138,0.14272143,0.09583972,inf,inf,inf,inf,1,1,1,1,2,0,2,1,4,1,1,1
386887921,14540891,34.0362371,108.7609191,-6.4845266,2.1401625,1.708266,0.21387814,-0.081331484,0.0,-0.06950861,0.010206713,-0.0014905017,0.0057324385,0.12404698,-0.14793324,-0.19150206,-1.478272,-0.45172566,1.0619493,-1.6573509,-0.020353785,420.56393,0.11381638,0.28752878,0.3850624,0.13812314,0.09474388,inf,inf,inf,inf,1,1,1,1,2,0,2,1,4,1,1,1
386987223,14540891,34.0362371,108.7609191,-6.4949727,2.1381986,1.7135358,0.21387814,-0.081331484,0.0,-0.056523286,0.019200834,0.004681079,0.016330821,0.12404698,-0.14793324,-0.19150206,-0.9500752,-0.17034407,-0.6194886,-1.6572195,-0.020353785,420.56393,0.11335623,0.2962943,0.38645762,0.1431409,0.095761806,inf,inf,inf,inf,1,1,1,1,2,0,2,1,4,1,1,1
387086548,14540891,34.0362371,108.7609191,-6.507542,2.1345177,1.7228906,0.21387814,-0.081331484,0.0,-0.047284078,0.017470842,0.008194451,0.027191276,0.12404698,-0.14793324,-0.19150206,0.44019765,-0.18665911,-0.07848187,-1.656309,-0.020353785,420.56393,0.117652535,0.28683338,0.3843266,0.13839865,0.09467698,inf,inf,inf,inf,1,1,1,1,2,0,2,1,4,1,1,1
387185836,14540891,34.0362371,108.7609191,-6.5179915,2.132831,1.7307048,0.21387814,-0.081331484,0.0,-0.06618456,0.03083876,-0.004383705,0.019806448,0.12404698,-0.14793324,-0.19150206,1.2893906,0.78249925,0.3084137,-1.6571611,-0.020353785,420.56393,0.11363137,0.29562226,0.3857241,0.14335428,0.09569413,inf,inf,inf,inf,1,1,1,1,2,0,2,1,4,1,1,1
387290099,14540891,34.0362371,108.7609191,-6.5305853,2.1308227,1.7402748,0.21387814,-0.081331484,0.0,-0.0589244,0.02291613,0.022205146,0.051968176,0.12404698,-0.14793324,-0.19150206,0.92073387,-0.11303092,0.28406483,-1.6576304,-0.020353785,420.56393,0.11434555,0.28615013,0.38593805,0.13858047,0.0948467,inf,inf,inf,inf,1,1,1,1,2,0,2,1,4,1,1,1
387389397,14540891,34.0362371,108.7609191,-6.5406823,2.1274781,1.7485844,0.21387814,-0.081331484,0.0,-0.053875983,0.00532214,0.006605699,0.039503526,0.12404698,-0.14793324,-0.19150206,1.4140977,-0.08553633,-0.74367934,-1.6589735,-0.020353785,420.56393,0.10888481,0.29496244,0.38735586,0.14359945,0.09586823,inf,inf,inf,inf,1,1,1,1,2,0,2,1,4,1,1,1
387488895,14540891,34.0362371,108.7609191,-6.552478,2.123362,1.7548484,0.21387814,-0.081331484,0.0,-0.04725065,0.020122405,0.014437244,0.04838569,0.12404698,-0.14793324,-0.19150206,-0.10121418,0.85968393,-1.3234313,-1.660716,-0.020353785,420.56393,0.104141,0.28550565,0.3852183,0.13881284,0.09478107,inf,inf,inf,inf,1,1,1,1,2,0,2,1,4,1,1,1
387588000,14540891,34.0362371,108.7609191,-6.5617504,2.1213996,1.7597493,0.21387814,-0.081331484,0.0,-0.048174545,0.030330757,0.011711385,0.045188695,0.12404698,-0.14793324,-0.19150206,-0.2278545,1.7392845,-2.310276,-1.6620617,-0.020353785,420.56393,0.10111642,0.2943457,0.38663808,0.14379959,0.09580202,inf,inf,inf,inf,1,1,1,1,2,0,2,1,4,1,1,1
387687302,14540891,34.0362371,108.7609191,-6.5720205,2.1196122,1.7653017,0.21387814,-0.081331484,0.0,-0.03186751,0.06279387,0.000876627,0.034697097,0.12404698,-0.14793324,-0.19150206,0.44645607,2.722587,-2.6349251,-1.6621449,-0.020353785,420.56393,0.10275769,0.28487217,0.3845194,0.13885948,0.09471739,inf,inf,inf,inf,1,1,1,1,2,0,2,1,4,1,1,1
387786604,14540891,34.0362371,108.7609191,-6.5799,2.1225429,1.7683965,0.21387814,-0.081331484,0.0,-0.03464077,0.08045602,0.0017205931,0.03423013,0.12404698,-0.14793324,-0.19150206,1.7648998,0.59257627,-1.390436,-1.6606965,-0.020353785,420.56393,0.1,0.29373255,0.38593343,0.14377978,0.09573495,inf,inf,inf,inf,1,1,1,1,2,0,2,1,4,1,1,1
387885907,14540891,34.0362371,108.7609191,-6.5890384,2.125716,1.7724098,0.21387814,-0.081331484,0.0,-0.0396112,0.11079523,-0.015031476,0.01838674,0.12404698,-0.14793324,-0.19150206,-1.5689878,-0.74653625,0.35881528,-1.6598576,-0.020353785,420.56393,0.106307864,0.28424197,0.38381857,0.13886067,0.094650276,inf,inf,inf,inf,1,1,1,1,2,0,2,1,4,1,1,1
387995156,14540891,34.0362371,108.7609191,-6.599201,2.1347992,1.7732878,0.21387814,-0.081331484,0.0,-0.06408939,0.14453854,-0.037193872,-0.0037819974,0.12404698,-0.14793324,-0.19150206,-0.30066758,-0.52417856,0.6898063,-1.6543355,-0.020353785,420.56393,0.10844815,0.29404247,0.38583443,0.14430979,0.095813885,inf,inf,inf,inf,1,1,1,1,2,0,2,1,4,1,1,1
388094440,14540891,34.0362371,108.7609191,-6.610074,2.1426444,1.7718056,0.21387814,-0.081331484,0.0,-0.047714684,0.133705,-0.04681987,-0.01446154,0.12404698,-0.14793324,-0.19150206,-0.5166499,-1.2828257,0.83320713,-1.6460032,-0.020353785,420.56393,0.11097741,0.28450674,0.3860545,0.13937472,0.09496801,inf,inf,inf,inf,1,1,1,1,2,0,2,1,4,1,1,1
388193742,14540891,34.0362371,108.7609191,-6.620201,2.1525352,1.7663147,0.21387814,-0.081331484,0.0,-0.07915251,0.14319156,-0.0718662,-0.042345554,0.12404698,-0.14793324,-0.19150206,-4.936364,-1.3682377,0.5488721,-1.6429918,-0.020353785,420.56393,0.11646831,0.29346707,0.38749257,0.14429471,0.09598887,inf,inf,inf,inf,1,1,1,1,2,0,2,1,4,1,1,1
388293199,14540891,34.0362371,108.7609191,-6.634986,2.159215,1.761705,0.21387814,-0.081331484,0.0,-0.06409473,0.13357918,-0.07901223,-0.05000917,0.12404698,-0.14793324,-0.19150206,0.29475057,2.182752,-1.8917873,-1.6432337,-0.020353785,420.56393,0.121078014,0.2839063,0.38535056,0.13928278,0.09489936,inf,inf,inf,inf,1,1,1,1,2,0,2,1,4,1,1,1
388392347,14540891,34.0362371,108.7609191,-6.646938,2.1663985,1.7567021,0.21387814,-0.081331484,0.0,-0.051718995,0.11578596,-0.07093388,-0.043457583,0.12404698,-0.14793324,-0.19150206,1.2122499,0.6686756,-1.4611623,-1.6466919,-0.020353785,420.56393,0.12608099,0.29288375,0.3867822,0.14418268,0.09591723,inf,inf,inf,inf,1,1,1,1,2,0,2,1,4,1,1,1
388491649,14540891,34.0362371,108.7609191,-6.6601443,2.1689806,1.7540692,0.21387814,-0.081331484,0.0,-0.055430274,0.09340546,-0.073856294,-0.044909995,0.12404698,-0.14793324,-0.19150206,-0.53644973,-1.1645252,2.06769,-1.6531541,-0.020353785,420.56393,0.12871385,0.28333247,0.38465902,0.13904063,0.094831005,inf,inf,inf,inf,1,1,1,1,2,0,2,1,4,1,1,1
388585993,14540891,34.0362371,108.7609191,-6.6705623,2.1722085,1.7495234,0.21387814,-0.081331484,0.0,-0.05311528,0.07359171,-0.100861706,-0.07143629,0.12404698,-0.14793324,-0.19150206,1.8446203,-0.9946991,-0.22517323,-1.6567518,-0.020353785,420.56393,0.13325965,0.2913946,0.385468,0.14341912,0.09569617,inf,inf,inf,inf,1,1,1,1,2,0,2,1,4,1,1,1
388695218,14540891,34.0362371,108.7609191,-6.6810517,2.1699827,1.7447872,0.21387814,-0.081331484,0.0,-0.039020665,0.039177928,-0.08054378,-0.048940767,0.12404698,-0.14793324,-0.19150206,-0.5764775,-1.9709352,2.1302974,-1.6609708,-0.020353785,420.56393,0.13799584,0.28277946,0.38396454,0.13882521,0.09476036,inf,inf,inf,inf,1,1,1,1,2,0,2,1,4,1,1,1
388794519,14540891,34.0362371,108.7609191,-6.688859,2.166811,1.7416707,0.21387814,-0.081331484,0.0,-0.047795914,0.017603232,-0.06877288,-0.03663822,0.12404698,-0.14793324,-0.19150206,2.2893023,1.2973872,-2.6748667,-1.6649232,-0.020353785,420.56393,0.14111233,0.291781,0.38774818,0.14386693,0.09601844,inf,inf,inf,inf,1,1,1,1,2,0,2,1,4,1,1,1
388893854,14540891,34.0362371,108.7609191,-6.697289,2.1597354,1.7379737,0.21387814,-0.081331484,0.0,-0.08103803,-0.02283793,-0.041738115,-0.011364007,0.12404698,-0.14793324,-0.19150206,-2.340011,-1.0245389,1.0689838,-1.6668847,-0.020353785,420.56393,0.14480937,0.28215146,0.38559625,0.13855645,0.09491608,inf,inf,inf,inf,1,1,1,1,2,0,2,1,4,1,1,1
388993124,14540891,34.0362371,108.7609191,-6.705501,2.1498153,1.73404,0.21387814,-0.081331484,0.0,-0.083775304,-0.06640344,-0.02757191,-0.00047107443,0.12404698,-0.14793324,-0.19150206,-1.3640776,-1.8075454,2.6809359,-1.6665812,-0.020353785,420.56393,0.14874303,0.27340713,0.38350138,0.13361186,0.093820184,inf,inf,inf,inf,1,1,1,1,2,0,2,1,4,1,1,1
389092556,14540891,34.0362371,108.7609191,-6.7161717,2.1339602,1.7312962,0.21387814,-0.081331484,0.0,-0.09300013,-0.08897269,-0.019934766,0.0042780857,0.12404698,-0.14793324,-0.19150206,0.5603509,0.75384104,-1.2197846,-1.6651472,-0.020353785,420.56393,0.15148687,0.2818567,0.3848808,0.13824387,0.09484637,inf,inf,inf,inf,1,1,1,1,2,0,2,1,4,1,1,1
389191729,14540891,34.0362371,108.7609191,-6.7272964,2.116249,1.7311319,0.21387814,-0.081331484,0.0,-0.12232491,-0.14345632,0.0028413376,0.024927797,0.12404698,-0.14793324,-0.19150206,-0.3284947,-0.44084856,-1.0075066,-1.6634703,-0.020353785,420.56393,0.15165114,0.27329913,0.38279778,0.13336767,0.09375322,inf,inf,inf,inf,1,1,1,1,2,0,2,1,4,1,1,1
389291030,14540891,34.0362371,108.7609191,-6.740015,2.0916297,1.7355013,0.21387814,-0.081331484,0.0,-0.13063167,-0.18422669,0.03952661,0.061452504,0.12404698,-0.14793324,-0.19150206,-0.8639266,-1.5532384,2.1422505,-1.6593742,-0.020353785,420.56393,0.14728177,0.2817668,0.38417092,0.13795415,0.0947771,inf,inf,inf,inf,1,1,1,1,2,0,2,1,4,1,1,1
389395297,14540891,34.0362371,108.7609191,-6.7547803,2.0655317,1.7410187,0.21387814,-0.081331484,0.0,-0.1445425,-0.20620044,0.050859097,0.07138402,0.12404698,-0.14793324,-0.19150206,-0.12128799,1.8146656,-1.2060515,-1.6560806,-0.020353785,420.56393,0.1417644,0.2907877,0.38794866,0.1425818,0.09603109,inf,inf,inf,inf,1,1,1,1,2,0,2,1,4,1,1,1
389494599,14540891,34.0362371,108.7609191,-6.769974,2.0361495,1.7474275,0.21387814,-0.081331484,0.0,-0.17141803,-0.2411182,0.058500655,0.07734193,0.12404698,-0.14793324,-0.19150206,1.4293486,0.44571483,-0.5760306,-1.65361,-0.020353785,420.56393,0.13535559,0.28170118,0.38579148,0.13754235,0.09493577,inf,inf,inf,inf,1,1,1,1,2,0,2,1,4,1,1,1
389593904,14540891,34.0362371,108.7609191,-6.786966,2.0073907,1.7553333,0.21387814,-0.081331484,0.0,-0.19490947,-0.2558836,0.08565304,0.10337383,0.12404698,-0.14793324,-0.19150206,-3.7117035,-0.9261581,1.0252548,-1.6519958,-0.020353785,420.56393,0.12744975,0.27327374,0.3837014,0.13285509,0.093842424,inf,inf,inf,inf,1,1,1,1,2,0,2,1,4,1,1,1
389688238,14540891,34.0362371,108.7609191,-6.8019648,1.9813842,1.7676529,0.21387814,-0.081331484,0.0,-0.22150974,-0.24573569,0.07795239,0.098289415,0.12404698,-0.14793324,-0.19150206,-1.6246597,0.5485965,-0.58066154,-1.6506032,-0.020353785,420.56393,0.115130186,0.2808916,0.3844864,0.13697346,0.09472127,inf,inf,inf,inf,1,1,1,1,2,0,2,1,4,1,1,1
389787539,14540891,34.0362371,108.7609191,-6.8200088,1.9559655,1.7779031,0.21387814,-0.081331484,0.0,-0.21037382,-0.2407982,0.043593425,0.06540442,0.12404698,-0.14793324,-0.19150206,2.716406,-1.2668581,0.6120637,-1.6481861,-0.020353785,420.56393,0.104879975,0.2898763,0.38590446,0.14156304,0.0957347,inf,inf,inf,inf,1,1,1,1,2,0,2,1,4,1,1,1
389886890,14540891,34.0362371,108.7609191,-6.8405604,1.9312886,1.7788479,0.21387814,-0.081331484,0.0,-0.23619753,-0.2149801,-0.047243766,-0.026443629,0.12404698,-0.14793324,-0.19150206,-2.2634897,1.4608817,-0.070840925,-1.6449562,-0.020353785,420.56393,0.10393512,0.2809304,0.38380107,0.13688277,0.0946573,inf,inf,inf,inf,1,1,1,1,2,0,2,1,4,1,1,1
389986144,14540891,34.0362371,108.7609191,-6.861978,1.9110556,1.7685778,0.21387814,-0.081331484,0.0,-0.22477303,-0.16739212,-0.15139376,-0.13325906,0.12404698,-0.14793324,-0.19150206,3.0525622,1.4296823,-2.3822548,-1.6418477,-0.020353785,420.56393,0.11420524,0.28993574,0.3875821,0.14172785,0.095912986,inf,inf,inf,inf,1,1,1,1,2,0,2,1,4,1,1,1
390095376,14540891,34.0362371,108.7609191,-6.887504,1.8866441,1.7516508,0.21387814,-0.081331484,0.0,-0.2558924,-0.14839719,-0.24678826,-0.22637255,0.12404698,-0.14793324,-0.19150206,-2.0180533,-0.49669334,-0.06969565,-1.6405187,-0.020353785,420.56393,0.13727415,0.28181845,0.38373193,0.13756847,0.09474244,inf,inf,inf,inf,1,1,1,1,2,0,2,1,4,1,1,1
390184942,14540891,34.0362371,108.7609191,-6.909571,1.8709394,1.726595,0.21387814,-0.081331484,0.0,-0.24414083,-0.11588477,-0.33729717,-0.3174688,0.12404698,-0.14793324,-0.19150206,3.917797,0.9770185,-1.7392348,-1.6389697,-0.020353785,420.56393,0.16232991,0.28997585,0.3868959,0.1420053,0.09584696,inf,inf,inf,inf,1,1,1,1,2,0,2,1,4,1,1,1
390289015,14540891,34.0362371,108.7609191,-6.9360094,1.853386,1.6937462,0.21387814,-0.081331484,0.0,-0.2264749,-0.10434155,-0.4011301,-0.37773585,0.12404698,-0.14793324,-0.19150206,-3.3247483,-1.8277109,1.2114651,-1.6399865,-0.020353785,420.56393,0.19517875,0.2809043,0.3847744,0.13734435,0.09476511,inf,inf,inf,inf,1,1,1,1,2,0,2,1,4,1,1,0
390388317,14540891,34.0362371,108.7609191,-6.958183,1.8394296,1.6510502,0.21387814,-0.081331484,0.0,-0.18666014,-0.09074817,-0.4805585,-0.45914572,0.12404698,-0.14793324,-0.19150206,1.183586,0.97973895,-2.0124981,-1.6410437,-0.020353785,420.56393,0.23787475,0.28996676,0.38620543,0.1424237,0.09578064,inf,inf,inf,inf,1,1,1,1,2,0,2,1,4,1,1,0
390487619,14540891,34.0362371,108.7609191,-6.9701166,1.8151776,1.6028084,0.21387814,-0.081331484,0.0,-0.12367846,-0.13022451,-0.5370066,-0.51554465,0.12404698,-0.14793324,-0.19150206,-0.8684003,-1.7478509,1.8701258,-1.6462127,-0.020353785,420.56393,0.2861166,0.28088325,0.38408002,0.13755299,0.094696365,inf,inf,inf,inf,1,1,1,1,2,0,2,1,4,1,1,0
390586921,14540891,34.0362371,108.7609191,-6.9759126,1.7913944,1.5458503,0.21387814,-0.081331484,0.0,-0.06295717,-0.15233882,-0.60582566,-0.58689684,0.12404698,-0.14793324,-0.19150206,-0.06699687,0.10418161,-1.7921042,-1.6532757,-0.020353785,420.56393,0.34307468,0.289964,0.38785636,0.1424488,0.09594995,inf,inf,inf,inf,1,1,1,1,2,0,2,1,4,1,1,0
390686287,14540891,34.0362371,108.7609191,-6.9671135,1.7599989,1.4792314,0.21387814,-0.081331484,0.0,0.01803607,-0.21152027,-0.6291445,-0.61749023,0.12404698,-0.14793324,-0.19150206,0.4301533,-0.9406335,0.43566617,-1.6574695,-0.020353785,420.56393,0.4096936,0.28084475,0.38571113,0.13754158,0.09486012,inf,inf,inf,inf,1,1,1,1,2,0,2,1,4,1,1,0
390795455,14540891,34.0362371,108.7609191,-6.950772,1.7233799,1.4018254,0.21387814,-0.081331484,0.0,0.11715112,-0.2655809,-0.676827,-0.67308646,0.12404698,-0.14793324,-0.19150206,4.4906263,1.3239666,-2.23978,-1.6605749,-0.020353785,420.56393,0.48709953,0.29087391,0.38776615,0.14282127,0.096022315,inf,inf,inf,inf,1,1,1,1,2,0,2,1,4,1,1,0
390894757,14540891,34.0362371,108.7609191,-6.924683,1.677699,1.3168994,0.21387814,-0.081331484,0.0,0.18559405,-0.33369073,-0.7120334,-0.72453016,0.12404698,-0.14793324,-0.19150206,-0.95255226,-2.3102326,1.0677418,-1.6648033,-0.020353785,420.56393,0.57202554,0.28157613,0.3856165,0.13769469,0.09492463,inf,inf,inf,inf,1,1,1,1,2,0,2,1,4,1,1,0
390984333,14540891,34.0362371,108.7609191,-6.896446,1.6356158,1.2411814,0.21387814,-0.081331484,0.0,0.2752656,-0.3652265,-0.7425176,-0.7640833,0.12404698,-0.14793324,-0.19150206,2.1798074,0.99752843,-1.3281312,-1.6632956,-0.020353785,420.56393,0.6477436,0.28976828,0.38643497,0.14198174,0.09578751,inf,inf,inf,inf,1,1,1,1,2,0,2,1,4,1,1,0
391088396,14540891,34.0362371,108.7609191,-6.8407836,1.5796547,1.1526414,0.21387814,-0.081331484,0.0,0.36902332,-0.4275436,-0.73268193,-0.76322365,0.12404698,-0.14793324,-0.19150206,2.835944,1.4625189,-0.8711255,-1.6602508,-0.020353785,420.56393,0.73628354,0.2806154,0.38431317,0.1370381,0.094704054,inf,inf,inf,inf,1,1,1,1,2,0,2,1,4,1,1,0
391187702,14540891,34.0362371,108.7609191,-6.784875,1.5248082,1.0723258,0.21387814,-0.081331484,0.0,0.43894026,-0.4595802,-0.6811197,-0.7177958,0.12404698,-0.14793324,-0.19150206,3.250878,1.0984504,-0.6195962,-1.6574609,-0.020353785,420.56393,0.81659913,0.28968596,0.38573235,0.14185692,0.09571596,inf,inf,inf,inf,1,1,1,1,2,0,2,1,4,1,1,0
391287000,14540891,34.0362371,108.7609191,-6.739429,1.4601927,1.0005944,0.21387814,-0.081331484,0.0,0.4765039,-0.49785852,-0.59709674,-0.63757855,0.12404698,-0.14793324,-0.19150206,-2.1024582,0.6940481,-0.7444182,-1.6583902,-0.020353785,420.56393,0.8883306,0.2805121,0.38362893,0.13674743,0.09463479,inf,inf,inf,inf,1,1,1,1,2,0,2,1,4,1,1,0
391386302,14540891,34.0362371,108.7609191,-6.691284,1.3964583,0.938279,0.21387814,-0.081331484,0.0,0.48125562,-0.5351777,-0.5148712,-0.55783933,0.12404698,-0.14793324,-0.19150206,-3.1771502,1.0488651,-0.09822551,-1.6596633,-0.020353785,420.56393,0.950646,0.28956503,0.38740677,0.14111006,0.09588595,inf,inf,inf,inf,1,1,1,1,2,0,2,1,4,1,1,0
391495562,14540891,34.0362371,108.7609191,-6.651604,1.3268138,0.8751695,0.21387814,-0.081331484,0.0,0.49445522,-0.5574925,-0.44097486,-0.48941877,0.12404698,-0.14793324,-0.19150206,-0.99042255,0.31270862,0.024644075,-1.6612437,-0.020353785,420.56393,1.0137554,0.28126037,0.3858842,0.1362718,0.0949472,inf,inf,inf,inf,1,1,1,1,2,0,2,1,4,1,1,0
391594837,14540891,34.0362371,108.7609191,-6.615367,1.2638961,0.82417774,0.21387814,-0.081331484,0.0,0.4896695,-0.5837942,-0.37894845,-0.43205008,0.12404698,-0.14793324,-0.19150206,3.2010078,-0.3521851,0.48655057,-1.6614612,-0.020353785,420.56393,1.0647472,0.27258268,0.383803,0.13123798,0.09384873,inf,inf,inf,inf,1,1,1,1,2,0,2,1,4,1,1,0
391694140,14540891,34.0362371,108.7609191,-6.592362,1.2010896,0.773859,0.21387814,-0.081331484,0.0,0.45632333,-0.59338963,-0.3237417,-0.38611263,0.12404698,-0.14793324,-0.19150206,2.458757,1.1373392,-0.6287725,-1.6621534,-0.020353785,420.56393,1.1150659,0.2810936,0.38520676,0.13548306,0.094873026,inf,inf,inf,inf,1,1,1,1,2,0,2,1,4,1,1,0
391793595,14540891,34.0362371,108.7609191,-6.567016,1.1382916,0.7301449,0.21387814,-0.081331484,0.0,0.42304394,-0.6082998,-0.26072857,-0.33070773,0.12404698,-0.14793324,-0.19150206,-1.4002858,-0.07065519,-0.15180556,-1.6629905,-0.020353785,420.56393,1.1587801,0.29012385,0.3866462,0.13977507,0.09588071,inf,inf,inf,inf,1,1,1,1,2,0,2,1,4,1,1,0
391892742,14540891,34.0362371,108.7609191,-6.5430207,1.0776796,0.68755776,0.21387814,-0.081331484,0.0,0.38408208,-0.63093436,-0.19882168,-0.28005138,0.12404698,-0.14793324,-0.19150206,-2.2443225,-0.13858855,1.598909,-1.6646259,-0.020353785,420.56393,1.2013671,0.28081042,0.3845128,0.1346771,0.09478507,inf,inf,inf,inf,1,1,1,1,2,0,2,1,4,1,1,0
391992044,14540891,34.0362371,108.7609191,-6.5187078,1.0171156,0.6522621,0.21387814,-0.081331484,0.0,0.3488636,-0.6385316,-0.15375373,-0.2430422,0.12404698,-0.14793324,-0.19150206,-0.7926897,-0.49936828,1.2043643,-1.6658942,-0.020353785,420.56393,1.2366629,0.2721524,0.38244563,0.12986724,0.09369031,inf,inf,inf,inf,1,1,1,1,2,0,2,1,4,1,1,0
392086383,14540891,34.0362371,108.7609191,-6.4993634,0.9662857,0.6232546,0.21387814,-0.081331484,0.0,0.3278392,-0.6316642,-0.118666,-0.21512596,0.12404698,-0.14793324,-0.19150206,0.85624707,0.9053628,-1.4667034,-1.6640941,-0.020353785,420.56393,1.2656703,0.2797333,0.38555333,0.13367519,0.09479567,inf,inf,inf,inf,1,1,1,1,2,0,2,1,4,1,1,0
392195614,14540891,34.0362371,108.7609191,-6.477814,0.9051362,0.5945934,0.21387814,-0.081331484,0.0,0.27547792,-0.65542746,-0.07916741,-0.18115523,0.12404698,-0.14793324,-0.19150206,-1.1842101,-0.9384056,1.7164127,-1.660312,-0.020353785,420.56393,1.2943316,0.28956053,0.38761944,0.13839465,0.09595639,inf,inf,inf,inf,1,1,1,1,2,0,2,1,4,1,1,0
392294918,14540891,34.0362371,108.7609191,-6.459696,0.8476337,0.57324225,0.21387814,-0.081331484,0.0,0.2752845,-0.65054727,-0.046874907,-0.15178621,0.12404698,-0.14793324,-0.19150206,0.5775289,-0.26387325,1.1159381,-1.6552818,-0.020353785,420.56393,1.3156826,0.28031978,0.38548395,0.13373156,0.0948621,inf,inf,inf,inf,1,1,1,1,2,0,2,1,4,1,1,0
392389253,14540891,34.0362371,108.7609191,-6.4411926,0.7906379,0.55748135,0.21387814,-0.081331484,0.0,0.23761873,-0.6490692,-0.03131113,-0.13751772,0.12404698,-0.14793324,-0.19150206,-2.279398,2.0703666,-1.4755181,-1.6515806,-0.020353785,420.56393,1.3314435,0.28833893,0.38631365,0.13766056,0.09572279,inf,inf,inf,inf,1,1,1,1,2,0,2,1,4,1,1,0
392488553,14540891,34.0362371,108.7609191,-6.4250274,0.732297,0.5451319,0.21387814,-0.081331484,0.0,0.23355773,-0.65454286,0.0017239088,-0.10358294,0.12404698,-0.14793324,-0.19150206,1.1090035,1.2996325,0.93371654,-1.6465449,-0.020353785,420.56393,1.343793,0.2792541,0.38419002,0.13305047,0.0946379,inf,inf,inf,inf,1,1,1,1,2,0,2,1,4,1,1,0
392587959,14540891,34.0362371,108.7609191,-6.407525,0.6723673,0.53397346,0.21387814,-0.081331484,0.0,0.22449948,-0.66990566,0.016304864,-0.0888511,0.12404698,-0.14793324,-0.19150206,1.2824471,-1.8844872,0.38240135,-1.6442778,-0.020353785,420.56393,1.3549515,0.2881274,0.38561258,0.13754353,0.09564395,inf,inf,inf,inf,1,1,1,1,2,0,2,1,4,1,1,0
392687159,14540891,34.0362371,108.7609191,-6.393472,0.61587757,0.522554,0.21387814,-0.081331484,0.0,0.20966797,-0.67978466,0.033066593,-0.074025825,0.12404698,-0.14793324,-0.19150206,2.5249746,-0.8290334,-0.5696404,-1.6425198,-0.020353785,420.56393,1.3663709,0.2790746,0.3858307,0.132993,0.094799206,inf,inf,inf,inf,1,1,1,1,2,0,2,1,4,1,1,0
392786461,14540891,34.0362371,108.7609191,-6.37787,0.5554547,0.5116421,0.21387814,-0.081331484,0.0,0.19884603,-0.6924666,0.058522988,-0.051804814,0.12404698,-0.14793324,-0.19150206,-2.6148849,0.316255,1.1878964,-1.6427721,-0.020353785,420.56393,1.3772829,0.28793755,0.38727143,0.13742352,0.09580977,inf,inf,inf,inf,1,1,1,1,2,0,2,1,4,1,1,0
392890728,14540891,34.0362371,108.7609191,-6.366231,0.49504423,0.49908227,0.21387814,-0.081331484,0.0,0.17813124,-0.703064,0.061684616,-0.05476009,0.12404698,-0.14793324,-0.19150206,1.6713806,0.41794446,-1.4290975,-1.6432378,-0.020353785,420.56393,1.3898427,0.27888128,0.38513902,0.13280663,0.09472343,inf,inf,inf,inf,1,1,1,1,2,0,2,1,4,1,1,0
392990036,14540891,34.0362371,108.7609191,-6.3544493,0.43333468,0.4864131,0.21387814,-0.081331484,0.0,0.17938368,-0.7203097,0.083122775,-0.040248066,0.12404698,-0.14793324,-0.19150206,-0.78946227,0.121677645,0.90974796,-1.6457034,-0.020353785,420.56393,1.4025118,0.28773373,0.38657182,0.13728349,0.095731914,inf,inf,inf,inf,1,1,1,1,2,0,2,1,4,1,1,0
393089332,14540891,34.0362371,108.7609191,-6.3410892,0.3661196,0.46915394,0.21387814,-0.081331484,0.0,0.13008773,-0.7526251,0.10426847,-0.031317584,0.12404698,-0.14793324,-0.19150206,-0.45835033,-1.0970987,0.5375432,-1.6481444,-0.020353785,420.56393,1.419771,0.27867964,0.38445058,0.13290131,0.09464836,inf,inf,inf,inf,1,1,1,1,2,0,2,1,4,1,1,0
393188684,14540891,34.0362371,108.7609191,-6.3289113,0.29453352,0.4555117,0.21387814,-0.081331484,0.0,0.120676816,-0.7799474,0.13739076,-0.008753904,0.12404698,-0.14793324,-0.19150206,-0.9856909,0.025152069,-0.5661749,-1.6509607,-0.020353785,420.56393,1.4334133,0.28753132,0.3858827,0.1373601,0.095655665,inf,inf,inf,inf,1,1,1,1,2,0,2,1,4,1,1,0
393287937,14540891,34.0362371,108.7609191,-6.3221135,0.21739885,0.4472233,0.21387814,-0.081331484,0.0,0.07966984,-0.8356472,0.18431614,0.030260663,0.12404698,-0.14793324,-0.19150206,1.2736202,-1.9730976,1.5274462,-1.6530155,-0.020353785,420.56393,1.4417017,0.2784378,0.38377202,0.13276401,0.0945749,inf,inf,inf,inf,1,1,1,1,2,0,2,1,4,1,1,0
393387360,14540891,34.0362371,108.7609191,-6.3170075,0.1355843,0.44492003,0.21387814,-0.081331484,0.0,0.06498293,-0.8652661,0.21577744,0.056984577,0.12404698,-0.14793324,-0.19150206,-0.99800277,-0.626511,1.4308646,-1.6565706,-0.020353785,420.56393,1.4440049,0.2872764,0.38755772,0.13709815,0.09582468,inf,inf,inf,inf,1,1,1,1,2,0,2,1,4,1,1,0
393486540,14540891,34.0362371,108.7609191,-6.312797,0.04756956,0.44976723,0.21387814,-0.081331484,0.0,0.023615379,-0.91465485,0.23872775,0.07952625,0.12404698,-0.14793324,-0.19150206,-4.887549,-0.8686024,0.89621025,-1.6592939,-0.020353785,420.56393,1.4391577,0.27815828,0.38542625,0.13255633,0.09473946,inf,inf,inf,inf,1,1,1,1,2,0,2,1,4,1,1,0
393595772,14540891,34.0362371,108.7609191,-6.310909,-0.053809978,0.4605549,0.21387814,-0.081331484,0.0,0.029889934,-0.9491102,0.23713961,0.08131667,0.12404698,-0.14793324,-0.19150206,2.4899254,2.2936425,-1.9032162,-1.6596136,-0.020353785,420.56393,1.42837,0.270379,0.3839472,0.12849222,0.09379152,inf,inf,inf,inf,1,1,1,1,2,0,2,1,4,1,1,0
393695074,14540891,34.0362371,108.7609191,-6.313722,-0.14933206,0.47185302,0.21387814,-0.081331484,0.0,0.0162669,-0.97042805,0.21007253,0.059608974,0.12404698,-0.14793324,-0.19150206,4.5558095,-0.645046,-1.7342051,-1.6602548,-0.020353785,420.56393,1.4170719,0.278736,0.38534814,0.13288692,0.09481423,inf,inf,inf,inf,1,1,1,1,2,0,2,1,4,1,1,0
393794377,14540891,34.0362371,108.7609191,-6.317172,-0.24617077,0.47644377,0.21387814,-0.081331484,0.0,-0.015187917,-0.9800661,0.14864804,0.00050638284,0.12404698,-0.14793324,-0.19150206,2.6588469,0.89932704,-2.0982132,-1.6598158,-0.020353785,420.56393,1.4124812,0.2701315,0.38327044,0.12858073,0.09372043,inf,inf,inf,inf,1,1,1,1,2,0,2,1,4,1,1,0
393893678,14540891,34.0362371,108.7609191,-6.316523,-0.3453498,0.47281805,0.21387814,-0.081331484,0.0,-0.007735486,-0.9768045,0.0830514,-0.06483246,0.12404698,-0.14793324,-0.19150206,1.6701329,1.5831114,-1.3362952,-1.6594446,-0.020353785,420.56393,1.4161069,0.2784905,0.3846635,0.13313833,0.09473972,inf,inf,inf,inf,1,1,1,1,2,0,2,1,4,1,1,0
393988015,14540891,34.0362371,108.7609191,-6.3164525,-0.4386595,0.46150547,0.21387814,-0.081331484,0.0,-0.015592612,-0.9725881,0.026152352,-0.12418556,0.12404698,-0.14793324,-0.19150206,0.57007164,2.503935,-2.674725,-1.6609604,-0.020353785,420.56393,1.4274194,0.28646037,0.38548183,0.137413,0.09559551,inf,inf,inf,inf,1,1,1,1,2,0,2,1,4,1,1,0
394087342,14540891,34.0362371,108.7609191,-6.316162,-0.5332499,0.44369495,0.21387814,-0.081331484,0.0,-0.0026809708,-0.97072524,-0.026295478,-0.17850699,0.12404698,-0.14793324,-0.19150206,3.269792,-0.77634877,-0.86532867,-1.6617625,-0.020353785,420.56393,1.44523,0.27742633,0.3857038,0.13318016,0.09475233,inf,inf,inf,inf,1,1,1,1,2,0,2,1,4,1,1,0
394186645,14540891,34.0362371,108.7609191,-6.3166037,-0.62748903,0.41922605,0.21387814,-0.081331484,0.0,-0.029863946,-0.9715378,-0.0877949,-0.24236208,0.12404698,-0.14793324,-0.19150206,-2.3935869,-0.41378987,-0.519478,-1.6643971,-0.020353785,420.56393,1.4696989,0.2862817,0.3871547,0.13809331,0.095763914,inf,inf,inf,inf,1,1,1,1,2,0,2,1,4,1,1,0
394295851,14540891,34.0362371,108.7609191,-6.3164473,-0.73404586,0.38459614,0.21387814,-0.081331484,0.0,-0.03385253,-0.98392314,-0.15874042,-0.31653595,0.12404698,-0.14793324,-0.19150206,-2.3950188,-0.121755145,0.46741614,-1.6664243,-0.020353785,420.56393,1.5043288,0.27809465,0.38563636,0.13424909,0.094828784,inf,inf,inf,inf,1,1,1,1,2,0,2,1,4,1,1,0
394395153,14540891,34.0362371,108.7609191,-6.315816,-0.83174664,0.34916306,0.21387814,-0.081331484,0.0,-0.009426376,-0.99351484,-0.22670016,-0.3841777,0.12404698,-0.14793324,-0.19150206,1.5974865,-0.7504839,0.2407294,-1.6665335,-0.020353785,420.56393,1.5397619,0.26949432,0.38355938,0.1299284,0.09373481,inf,inf,inf,inf,1,1,1,1,2,0,2,1,4,1,1,0
394494455,14540891,34.0362371,108.7609191,-6.3130746,-0.93058294,0.3133653,0.21387814,-0.081331484,0.0,-0.0035199951,-1.001394,-0.3111504,-0.4615444,0.12404698,-0.14793324,-0.19150206,2.4480379,1.9600343,-3.2414265,-1.6666082,-0.020353785,420.56393,1.5755596,0.2779067,0.38496146,0.13462184,0.09475467,inf,inf,inf,inf,1,1,1,1,2,0,2,1,4,1,1,0
394593757,14540891,34.0362371,108.7609191,-6.30955,-1.0304171,0.26808977,0.21387814,-0.081331484,0.0,0.022240974,-1.0117296,-0.37187117,-0.5185317,0.12404698,-0.14793324,-0.19150206,3.7470884,1.999782,-1.745524,-1.6682489,-0.020353785,420.56393,1.6208352,0.2692622,0.3828804,0.13030814,0.09366177,inf,inf,inf,inf,1,1,1,1,2,0,2,1,4,1,1,0
394693060,14540891,34.0362371,108.7609191,-6.300898,-1.1317282,0.21344134,0.21387814,-0.081331484,0.0,0.030630754,-1.0365744,-0.42966974,-0.5763185,0.12404698,-0.14793324,-0.19150206,-1.9836457,-0.25982472,-0.18580993,-1.6706554,-0.020353785,420.56393,1.6754836,0.27769244,0.38426012,0.13503993,0.094676696,inf,inf,inf,inf,1,1,1,1,2,0,2,1,4,1,1,0
394787416,14540891,34.0362371,108.7609191,-6.29382,-1.2283633,0.15307634,0.21387814,-0.081331484,0.0,0.052153606,-1.0278324,-0.47271183,-0.6232808,0.12404698,-0.14793324,-0.19150206,4.268653,2.853799,-2.4831836,-1.6719575,-0.020353785,420.56393,1.7358487,0.28574187,0.38742453,0.13939272,0.09577352,inf,inf,inf,inf,1,1,1,1,2,0,2,1,4,1,1,0
394886710,14540891,34.0362371,108.7609191,-6.2806425,-1.3285445,0.08876437,0.21387814,-0.081331484,0.0,0.061491422,-1.0035685,-0.46384713,-0.6165726,0.12404698,-0.14793324,-0.19150206,0.94929963,-0.9882148,1.0442326,-1.6182481,0.057721924,420.56393,1.8001606,0.27653742,0.38527307,0.13256787,0.09467862,inf,inf,inf,inf,1,1,1,1,2,0,2,1,5,1,1,0
394996074,14540891,34.0362371,108.7609191,-6.2670183,-1.4367323,0.02037675,0.21387814,-0.081331484,0.0,0.073945075,-0.98033303,-0.42401478,-0.57874054,0.12404698,-0.14793324,-0.19150206,-2.4020472,0.86238503,-1.3429186,-1.6274445,0.057721924,420.56393,1.8685482,0.26891932,0.38378748,0.12568168,0.09379429,inf,inf,inf,inf,1,1,1,1,2,0,2,1,5,1,1,0
395085302,14540891,34.0362371,108.7609191,-6.257795,-1.5327744,-0.036813237,0.21387814,-0.081331484,0.0,0.11536876,-0.962552,-0.3477122,-0.5098285,0.12404698,-0.14793324,-0.19150206,1.5767324,-1.0702285,3.5240276,-1.6329609,0.057721924,420.56393,1.9257382,0.27625483,0.38457438,0.1272814,0.09477336,inf,inf,inf,inf,1,1,1,1,2,0,2,1,5,1,1,0
395194537,14540891,34.0362371,108.7609191,-6.244622,-1.643176,-0.09465968,0.21387814,-0.081331484,0.0,0.11580099,-0.89921,-0.2556744,-0.42316672,0.12404698,-0.14793324,-0.19150206,2.1082618,0.09820052,-0.06989655,-1.6397344,0.057721924,420.56393,1.9835846,0.2687135,0.383106,0.12182107,0.09399592,inf,inf,inf,inf,1,1,1,1,2,0,2,1,5,1,1,0
395294008,14540891,34.0362371,108.7609191,-6.2305403,-1.7373794,-0.13786873,0.21387814,-0.081331484,0.0,0.11237556,-0.84471047,-0.16911173,-0.34142423,0.12404698,-0.14793324,-0.19150206,0.53855664,-0.5395722,-0.1425809,-1.6426425,0.057721924,420.56393,2.0267937,0.27665415,0.3844926,0.12433292,0.09523376,inf,inf,inf,inf,1,1,1,1,2,0,2,1,5,1,1,0
395388173,14540891,34.0362371,108.7609191,-6.2161317,-1.821293,-0.16783585,0.21387814,-0.081331484,0.0,0.142612,-0.819081,-0.06853007,-0.24345295,0.12404698,-0.14793324,-0.19150206,-0.072428256,0.74036086,0.2645315,-1.6399536,0.057721924,420.56393,2.0567608,0.2840879,0.3876633,0.12685078,0.096568,inf,inf,inf,inf,1,1,1,1,2,0,2,1,5,1,1,0
395487477,14540891,34.0362371,108.7609191,-6.198069,-1.9047663,-0.18596348,0.21387814,-0.081331484,0.0,0.15844935,-0.7681103,0.02318159,-0.14930362,0.12404698,-0.14793324,-0.19150206,0.813507,1.0172472,0.893171,-1.6314162,0.057721924,420.56393,2.0748885,0.27523905,0.38552254,0.12259015,0.09573757,inf,inf,inf,inf,1,1,1,1,2,0,2,1,5,1,1,0
395586777,14540891,34.0362371,108.7609191,-6.1781697,-1.982689,-0.1943379,0.21387814,-0.081331484,0.0,0.18356813,-0.7249698,0.11542499,-0.053915944,0.12404698,-0.14793324,-0.19150206,-0.93497825,-0.37944594,0.7807387,-1.6182891,0.057721924,420.56393,2.083263,0.26716357,0.3834522,0.11871221,0.09490923,inf,inf,inf,inf,1,1,1,1,2,0,2,1,5,1,1,0
395696012,14540891,34.0362371,108.7609191,-6.15299,-2.068499,-0.1905446,0.21387814,-0.081331484,0.0,0.2073254,-0.68230456,0.21140707,0.047739156,0.12404698,-0.14793324,-0.19150206,2.8871648,-0.122638784,0.41960797,-1.6021978,0.057721924,420.56393,2.0794697,0.27548647,0.38546067,0.12277676,0.0965095,inf,inf,inf,inf,1,1,1,1,2,0,2,1,5,1,1,0
395785392,14540891,34.0362371,108.7609191,-6.131393,-2.132499,-0.18016331,0.21387814,-0.081331484,0.0,0.213778,-0.6271787,0.2953757,0.1346044,0.12404698,-0.14793324,-0.19150206,0.4478762,1.4900457,-0.45543006,-1.5887341,0.057721924,420.56393,2.0690882,0.2826162,0.38630238,0.12632784,0.09775898,inf,inf,inf,inf,1,1,1,1,2,0,2,1,5,1,1,0
395889658,14540891,34.0362371,108.7609191,-6.107514,-2.2025647,-0.15628499,0.21387814,-0.081331484,0.0,0.2212394,-0.59510434,0.41477266,0.25696546,0.12404698,-0.14793324,-0.19150206,0.05097705,-0.6863464,-1.1303991,-1.5766989,0.057721924,420.56393,2.04521,0.27412486,0.38418457,0.123293385,0.09699939,inf,inf,inf,inf,1,1,1,1,2,0,2,1,5,1,1,0
395988950,14540891,34.0362371,108.7609191,-6.0844917,-2.267275,-0.12310305,0.21387814,-0.081331484,0.0,0.23705806,-0.6029552,0.5495791,0.39352933,0.12404698,-0.14793324,-0.19150206,1.3661121,-0.05691562,2.8240786,-1.5681754,0.057721924,420.56393,2.012028,0.28193235,0.38563085,0.12753816,0.098489076,inf,inf,inf,inf,1,1,1,1,2,0,2,1,5,1,1,0
396088386,14540891,34.0362371,108.7609191,-6.059086,-2.3272495,-0.07109699,0.21387814,-0.081331484,0.0,0.2149955,-0.61308396,0.66409594,0.51610225,0.12404698,-0.14793324,-0.19150206,1.3628336,-0.38132977,0.82325846,-1.5622877,0.057721924,420.56393,1.960022,0.2734822,0.38352352,0.124626026,0.09773486,inf,inf,inf,inf,1,1,1,1,2,0,2,1,5,1,1,0
396187556,14540891,34.0362371,108.7609191,-6.0339246,-2.3892152,-0.0056407386,0.21387814,-0.081331484,0.0,0.22039942,-0.6500508,0.7883917,0.64902365,0.12404698,-0.14793324,-0.19150206,-2.3756454,-1.6803664,2.8505514,-1.5582334,0.057721924,420.56393,1.8945657,0.28123176,0.3873409,0.12904125,0.09952127,inf,inf,inf,inf,1,1,1,1,2,0,2,1,5,1,1,0
396286860,14540891,34.0362371,108.7609191,-6.0146117,-2.4538503,0.07506968,0.21387814,-0.081331484,0.0,0.21849085,-0.7056698,0.8941066,0.76561344,0.12404698,-0.14793324,-0.19150206,0.23212652,0.596956,0.16062307,-1.5545152,0.057721924,420.56393,1.8138553,0.27284983,0.38520846,0.12595755,0.09873165,inf,inf,inf,inf,1,1,1,1,2,0,2,1,5,1,1,0
396396089,14540891,34.0362371,108.7609191,-5.9940214,-2.531531,0.17419352,0.21387814,-0.081331484,0.0,0.1899627,-0.7865278,0.95462734,0.8371727,0.12404698,-0.14793324,-0.19150206,-0.5480179,0.17346512,-1.4591303,-1.5522563,0.057721924,420.56393,1.7147315,0.26573208,0.3837344,0.12343709,0.09811852,inf,inf,inf,inf,1,1,1,1,2,0,2,1,5,1,1,0
396485463,14540891,34.0362371,108.7609191,-5.9758015,-2.5939043,0.26131,0.21387814,-0.081331484,0.0,0.19410501,-0.8305981,0.9174863,0.8125866,0.12404698,-0.14793324,-0.19150206,-3.1848087,-2.2099195,-1.9243726,-1.5493631,0.057721924,420.56393,1.627615,0.2723203,0.38458148,0.127652,0.09954018,inf,inf,inf,inf,1,1,1,1,2,0,2,1,5,1,1,0
396594697,14540891,34.0362371,108.7609191,-5.9530425,-2.678981,0.35738674,0.21387814,-0.081331484,0.0,0.22346623,-0.9023835,0.80017203,0.70690304,0.12404698,-0.14793324,-0.19150206,1.8418622,-1.7222526,-2.3492284,-1.5482101,0.057721924,420.56393,1.5315382,0.2652302,0.3831121,0.12547629,0.0989452,inf,inf,inf,inf,1,1,1,1,2,0,2,1,5,1,1,0
396693995,14540891,34.0362371,108.7609191,-5.930406,-2.7598877,0.4350341,0.21387814,-0.081331484,0.0,0.19919024,-0.94620395,0.66533697,0.58504474,0.12404698,-0.14793324,-0.19150206,-7.09438,-2.1978939,-0.7083193,-1.5537617,0.057721924,420.56393,1.4538908,0.27261364,0.3845943,0.13110302,0.10069508,inf,inf,inf,inf,1,1,1,1,2,0,2,1,5,1,1,0
396793298,14540891,34.0362371,108.7609191,-5.9084597,-2.8460262,0.49249253,0.21387814,-0.081331484,0.0,0.23082396,-0.9441583,0.52963567,0.45477673,0.12404698,-0.14793324,-0.19150206,7.134035,3.0286376,-3.4088476,-1.5606042,0.057721924,420.56393,1.3964324,0.2805034,0.38614073,0.13723733,0.10249645,inf,inf,inf,inf,1,1,1,1,2,0,2,1,5,1,1,0
396892741,14540891,34.0362371,108.7609191,-5.8894534,-2.9276657,0.5402494,0.21387814,-0.081331484,0.0,0.16679837,-0.96875095,0.40435696,0.33787757,0.12404698,-0.14793324,-0.19150206,-3.8140838,0.5123872,-0.30767548,-1.5694261,0.057721924,420.56393,1.3486755,0.27221054,0.38399795,0.1349209,0.10175218,inf,inf,inf,inf,1,1,1,1,2,0,2,1,5,1,1,0
396986936,14540891,34.0362371,108.7609191,-5.8730664,-3.0097275,0.56802297,0.21387814,-0.081331484,0.0,0.16321066,-0.96900254,0.25711188,0.19243021,0.12404698,-0.14793324,-0.19150206,-1.3532348,3.0886092,-1.894211,-1.5745273,0.057721924,420.56393,1.320902,0.27940756,0.38729012,0.14060707,0.103605896,inf,inf,inf,inf,1,1,1,1,2,0,2,1,5,1,1,0
397096168,14540891,34.0362371,108.7609191,-5.8499045,-3.1058266,0.58717513,0.21387814,-0.081331484,0.0,0.15718286,-0.98539996,0.100271784,0.040470287,0.12404698,-0.14793324,-0.19150206,-1.13378,-4.279501,1.226117,-1.574195,0.057721924,420.56393,1.3017498,0.27203503,0.38575718,0.13869803,0.10307501,inf,inf,inf,inf,1,1,1,1,2,0,2,1,5,1,1,0
397185540,14540891,34.0362371,108.7609191,-5.8333993,-3.1872604,0.5849246,0.21387814,-0.081331484,0.0,0.15156664,-0.98834735,-0.041945565,-0.102146566,0.12404698,-0.14793324,-0.19150206,-0.74656826,1.2593952,-4.0568595,-1.5732175,0.057721924,420.56393,1.3040004,0.2793928,0.3867472,0.14445141,0.104730405,inf,inf,inf,inf,1,1,1,1,2,0,2,1,5,1,1,0
397294772,14540891,34.0362371,108.7609191,-5.8212976,-3.2967374,0.55830294,0.21387814,-0.081331484,0.0,0.1387206,-0.9975085,-0.20823357,-0.27553543,0.12404698,-0.14793324,-0.19150206,-1.174317,-2.032824,-1.0589479,-1.5721427,0.057721924,420.56393,1.330622,0.27204233,0.38522157,0.14192145,0.10413902,inf,inf,inf,inf,1,1,1,1,2,0,2,1,5,1,1,0
397394074,14540891,34.0362371,108.7609191,-5.8114285,-3.3978674,0.5185754,0.21387814,-0.081331484,0.0,0.11702893,-0.98615205,-0.34665644,-0.42013,0.12404698,-0.14793324,-0.19150206,-0.15958041,1.7930564,-3.4417431,-1.5741224,0.057721924,420.56393,1.3703496,0.26421252,0.3831036,0.13827442,0.10322646,inf,inf,inf,inf,1,1,1,1,2,0,2,1,5,1,1,0
397493376,14540891,34.0362371,108.7609191,-5.7959256,-3.5060894,0.4751353,0.21387814,-0.081331484,0.0,0.118700914,-1.0215056,-0.4490792,-0.51912177,0.12404698,-0.14793324,-0.19150206,-7.207836,-2.566436,0.5210453,-1.5742308,0.057721924,420.56393,1.4137896,0.27215096,0.3847005,0.14450456,0.105149284,inf,inf,inf,inf,1,1,1,1,2,0,2,1,5,1,1,0
397592678,14540891,34.0362371,108.7609191,-5.782671,-3.6140165,0.41853768,0.21387814,-0.081331484,0.0,0.07990996,-1.0151945,-0.55955124,-0.6288188,0.12404698,-0.14793324,-0.19150206,-3.86311,-1.1817594,1.3143642,-1.5733494,0.057721924,420.56393,1.4703872,0.2642347,0.3825701,0.14031143,0.104169495,inf,inf,inf,inf,1,1,1,1,2,0,2,1,5,1,1,0
397692061,14540891,34.0362371,108.7609191,-5.768685,-3.7209241,0.35646734,0.21387814,-0.081331484,0.0,0.11674515,-1.0552424,-0.6341109,-0.69943035,0.12404698,-0.14793324,-0.19150206,3.1149414,-1.6999055,-0.7264424,-1.5657932,0.057721924,420.56393,1.5324576,0.27234092,0.3865372,0.14639556,0.10632203,inf,inf,inf,inf,1,1,1,1,2,0,2,1,5,1,1,0
397796247,14540891,34.0362371,108.7609191,-5.757043,-3.8367803,0.28585032,0.21387814,-0.081331484,0.0,0.07286733,-1.0910321,-0.67516124,-0.7373791,0.12404698,-0.14793324,-0.19150206,1.270119,1.5143216,-1.7757835,-1.5568433,0.057721924,420.56393,1.6030747,0.28112176,0.38827634,0.15248397,0.10824655,inf,inf,inf,inf,1,1,1,1,2,0,2,1,5,1,1,0
397885624,14540891,34.0362371,108.7609191,-5.752537,-3.9490166,0.2242009,0.21387814,-0.081331484,0.0,0.066286035,-1.1357305,-0.6913197,-0.74969625,0.12404698,-0.14793324,-0.19150206,3.517373,-1.0830494,0.593738,-1.5497267,0.057721924,420.56393,1.6647241,0.27164155,0.3853793,0.1467716,0.10689642,inf,inf,inf,inf,1,1,1,1,2,0,2,1,5,1,1,0
397985098,14540891,34.0362371,108.7609191,-5.748309,-4.075821,0.15511152,0.21387814,-0.081331484,0.0,0.0292122,-1.1860276,-0.709663,-0.7624352,0.12404698,-0.14793324,-0.19150206,-2.5503428,-2.4724042,1.2101344,-1.542115,0.057721924,420.56393,1.7338134,0.28050232,0.38712192,0.15266278,0.108797364,inf,inf,inf,inf,1,1,1,1,2,0,2,1,5,1,1,0
398089188,14540891,34.0362371,108.7609191,-5.7524686,-4.2140093,0.07935649,0.21387814,-0.081331484,0.0,0.02037755,-1.2559116,-0.71413577,-0.76418304,0.12404698,-0.14793324,-0.19150206,0.15362674,-0.106074296,-1.4162385,-1.5334756,0.057721924,420.56393,1.8095684,0.27190778,0.38488573,0.14719167,0.10761447,inf,inf,inf,inf,1,1,1,1,2,0,2,1,5,1,1,0
398188490,14540891,34.0362371,108.7609191,-5.7566247,-4.351217,0.0094248215,0.21387814,-0.081331484,0.0,0.0046189986,-1.3326224,-0.69481134,-0.74076045,0.12404698,-0.14793324,-0.19150206,4.1106086,0.40147105,-1.1191832,-1.5274111,0.057721924,420.56393,1.8795002,0.28089416,0.3890449,0.15293132,0.10974672,inf,inf,inf,inf,1,1,1,1,2,0,2,1,5,1,1,0
398287792,14540891,34.0362371,108.7609191,-5.757502,-4.499178,-0.058989577,0.21387814,-0.081331484,0.0,-0.017332628,-1.416873,-0.65918946,-0.7023769,0.12404698,-0.14793324,-0.19150206,0.269316,-0.61521524,0.28698152,-1.5247822,0.057721924,420.56393,1.9479145,0.27221072,0.38676506,0.14714032,0.108467504,inf,inf,inf,inf,1,1,1,1,2,0,2,1,5,1,1,0
398387094,14540891,34.0362371,108.7609191,-5.7593737,-4.6519747,-0.12270489,0.21387814,-0.081331484,0.0,-0.016680755,-1.496223,-0.62311816,-0.6621855,0.12404698,-0.14793324,-0.19150206,-2.9265397,-2.9145043,1.9836551,-1.5208154,0.057721924,420.56393,2.0116298,0.28129837,0.38860238,0.15246864,0.11031208,inf,inf,inf,inf,1,1,1,1,2,0,2,1,5,1,1,0
398496379,14540891,34.0362371,108.7609191,-5.75377,-4.8396463,-0.18269928,0.21387814,-0.081331484,0.0,-0.025176415,-1.5808032,-0.58455527,-0.6134451,0.12404698,-0.14793324,-0.19150206,1.0317959,0.7231542,-0.22049524,-1.5158372,0.057721924,420.56393,2.0716243,0.27338395,0.3869657,0.14701936,0.10919126,inf,inf,inf,inf,1,1,1,1,2,0,2,1,5,1,1,0
398590663,14540891,34.0362371,108.7609191,-5.750269,-5.0036206,-0.22832814,0.21387814,-0.081331484,0.0,-0.0068424004,-1.6389586,-0.5259536,-0.54622173,0.12404698,-0.14793324,-0.19150206,-3.9225512,0.058633577,0.13394526,-1.5120757,0.057721924,420.56393,2.117253,0.2816545,0.38818026,0.15169582,0.11078678,inf,inf,inf,inf,1,1,1,1,2,0,2,1,5,1,1,0
398689967,14540891,34.0362371,108.7609191,-5.744021,-5.181908,-0.2631552,0.21387814,-0.081331484,0.0,0.0077575776,-1.7011212,-0.4681069,-0.47260097,0.12404698,-0.14793324,-0.19150206,3.6786566,1.0665776,-1.0801619,-1.5078758,0.057721924,420.56393,2.15208,0.27275154,0.38587746,0.1456357,0.10937365,inf,inf,inf,inf,1,1,1,1,2,0,2,1,5,1,1,0
398789422,14540891,34.0362371,108.7609191,-5.739106,-5.362613,-0.29592305,0.21387814,-0.081331484,0.0,-0.0023061556,-1.7538141,-0.41711307,-0.41068572,0.12404698,-0.14793324,-0.19150206,1.7212924,0.1414471,1.6826689,-1.5069474,0.057721924,420.56393,2.184848,0.28196004,0.387768,0.15078217,0.111201964,inf,inf,inf,inf,1,1,1,1,2,0,2,1,5,1,1,0
398888569,14540891,34.0362371,108.7609191,-5.7303576,-5.5393085,-0.31897163,0.21387814,-0.081331484,0.0,0.021213556,-1.7871588,-0.36298004,-0.34287512,0.12404698,-0.14793324,-0.19150206,0.65559036,-0.4288057,0.23173344,-1.5054097,0.057721924,420.56393,2.2078967,0.27296713,0.3854608,0.1446476,0.10973244,inf,inf,inf,inf,1,1,1,1,2,0,2,1,5,1,1,0
398987871,14540891,34.0362371,108.7609191,-5.720684,-5.7187104,-0.34285015,0.21387814,-0.081331484,0.0,0.044548,-1.8247079,-0.3296321,-0.30235198,0.12404698,-0.14793324,-0.19150206,-1.1326275,-2.0340016,0.15511233,-1.5040473,0.057721924,420.56393,2.231775,0.28220367,0.38977358,0.1494986,0.111773446,inf,inf,inf,inf,1,1,1,1,2,0,2,1,5,1,1,0
399092139,14540891,34.0362371,108.7609191,-5.712053,-5.91908,-0.3624478,0.21387814,-0.081331484,0.0,0.07566142,-1.826745,-0.3128708,-0.27555382,0.12404698,-0.14793324,-0.19150206,3.9379199,1.9237615,-0.56565607,-1.5002631,0.057721924,420.56393,2.2513728,0.27316913,0.38741845,0.14348023,0.11025712,inf,inf,inf,inf,1,1,1,1,2,0,2,1,5,1,1,0
399191440,14540891,34.0362371,108.7609191,-5.702578,-6.1084027,-0.38574943,0.21387814,-0.081331484,0.0,0.07960397,-1.8310561,-0.3167752,-0.27694288,0.12404698,-0.14793324,-0.19150206,-1.925375,-0.26333874,0.31541228,-1.5007554,0.057721924,420.56393,2.2746744,0.28242084,0.38938954,0.14831483,0.11205343,inf,inf,inf,inf,1,1,1,1,2,0,2,1,5,1,1,0
399290747,14540891,34.0362371,108.7609191,-5.6994214,-6.301497,-0.41631532,0.21387814,-0.081331484,0.0,0.060933482,-1.8244907,-0.32561937,-0.28983417,0.12404698,-0.14793324,-0.19150206,0.048607726,-1.2165372,0.072172284,-1.4998705,0.057721924,420.56393,2.3052402,0.27332386,0.3870135,0.14264661,0.110547796,inf,inf,inf,inf,1,1,1,1,2,0,2,1,5,1,1,0
399390057,14540891,34.0362371,108.7609191,-5.697778,-6.4885726,-0.45073378,0.21387814,-0.081331484,0.0,0.034549493,-1.7555902,-0.34627578,-0.3164523,0.12404698,-0.14793324,-0.19150206,-1.632763,1.8302982,-0.51411515,-1.4990317,0.057721924,420.56393,2.3396587,0.28259504,0.38898435,0.14744109,0.11233619,inf,inf,inf,inf,1,1,1,1,2,0,2,1,5,1,1,0
399489346,14540891,34.0362371,108.7609191,-5.698066,-6.663316,-0.484605,0.21387814,-0.081331484,0.0,0.035861254,-1.7071214,-0.36866003,-0.34134266,0.12404698,-0.14793324,-0.19150206,1.4990027,0.8514425,-0.7686447,-1.49916,0.057721924,420.56393,2.37353,0.27343202,0.3865876,0.14164883,0.11076099,inf,inf,inf,inf,1,1,1,1,2,0,2,1,5,1,1,0
399588770,14540891,34.0362371,108.7609191,-5.7000117,-6.831545,-0.52481896,0.21387814,-0.081331484,0.0,-0.007990966,-1.6383305,-0.39843097,-0.37691686,0.12404698,-0.14793324,-0.19150206,-1.3399099,2.0478268,-0.661349,-1.50008,0.057721924,420.56393,2.413744,0.2827069,0.39099747,0.14641656,0.11280149,inf,inf,inf,inf,1,1,1,1,2,0,2,1,5,1,1,0
399687950,14540891,34.0362371,108.7609191,-5.7056475,-6.9966354,-0.5756637,0.21387814,-0.081331484,0.0,-7.6475495e-05,-1.5713005,-0.39418107,-0.38732034,0.12404698,-0.14793324,-0.19150206,1.7005094,1.2321922,0.6809882,-1.5010889,0.057721924,420.56393,2.4645886,0.2734972,0.38854456,0.1407869,0.11119055,inf,inf,inf,inf,1,1,1,1,2,0,2,1,5,1,1,0
399787252,14540891,34.0362371,108.7609191,-5.7126307,-7.153115,-0.62701875,0.21387814,-0.081331484,0.0,-0.062383536,-1.5023767,-0.39564586,-0.40182373,0.12404698,-0.14793324,-0.19150206,-3.124458,-0.11710131,0.40584794,-1.5033004,0.057721924,420.56393,2.5159438,0.28276828,0.39057732,0.14549778,0.11294984,inf,inf,inf,inf,1,1,1,1,2,0,2,1,5,1,1,0
399896486,14540891,34.0362371,108.7609191,-5.7138867,-7.3222027,-0.6871032,0.21387814,-0.081331484,0.0,-0.05591666,-1.436555,-0.38687012,-0.41010544,0.12404698,-0.14793324,-0.19150206,1.9755642,1.1492654,-1.3640963,-1.5042061,0.057721924,420.56393,2.576028,0.27441525,0.38879335,0.14032967,0.11151114,inf,inf,inf,inf,1,1,1,1,2,0,2,1,5,1,1,0
