timestamp,timestamp_sample,accel_device_id,gyro_device_id,delta_angle[0],delta_angle[1],delta_angle[2],delta_velocity[0],delta_velocity[1],delta_velocity[2],delta_angle_dt,delta_velocity_dt,delta_velocity_clipping
382792816,382792650,4259850,4325386,3.5012417e-05,9.4718096e-05,5.7281668e-05,-0.0023798628,-0.00041209994,-0.047839466,4988,4916,0
382797744,382797635,4259850,4325386,-0.00010501769,-5.510462e-06,3.767192e-05,-0.0019891115,-0.00023244995,-0.047818866,4985,4932,0
383296983,383296840,4259850,4325386,0.00016827516,2.6579955e-05,1.4554447e-05,0.0012597439,-0.0042532575,-0.04720012,4990,4917,0
383795724,383795545,4259850,4325386,0.0008744325,-0.00015058498,-0.00021528787,0.00048364117,-0.00019202424,-0.048397716,4991,4962,0
384294059,384293930,4259850,4325386,0.00024738372,-1.8624449e-05,6.1081987e-06,-0.006359623,0.0019676387,-0.048943732,4958,4965,0
384792563,384792450,4259850,4325386,0.0002685358,0.00072656653,-0.00062312296,-0.0011695275,-0.0049171704,-0.049055684,4964,4917,0
385291275,385291155,4259850,4325386,-0.0025621476,-5.499335e-05,0.00055340066,-0.0024782666,0.0056361575,-0.05083327,4988,4976,0
385794956,385794844,4259850,4325386,-0.001248276,0.00071865396,0.00024089728,-0.0038214459,-0.0017482745,-0.047568407,4987,4916,0
386293748,386293636,4259850,4325386,0.00045991526,-0.00091188663,-0.00022355231,0.0114814835,-0.0068770237,-0.04279922,4976,4919,0
386797377,386797242,4259850,4325386,-0.00044861628,0.0004381318,-0.00026029928,-0.010450596,0.00044090665,-0.049519256,4991,4910,0
387296086,387295943,4259850,4325386,-0.0001063322,-0.00049471244,0.00020231839,0.0067495196,-0.0037345858,-0.05407138,4984,4984,0
387794762,387794648,4259850,4325386,7.99388e-05,-0.0014072182,-0.00017771528,-0.010103472,0.00029508458,-0.05440008,4982,4916,0
388293660,388293523,4259850,4325386,-0.0003795287,-0.0004122353,-2.7149687e-05,-0.013826733,-0.0035383708,-0.05347556,5027,4921,0
388792659,388792553,4259850,4325386,0.00012452202,-0.0006764237,-0.0010032451,-0.001918514,0.0028772485,-0.049618248,4987,4955,0
389296022,389295808,4259850,4325386,0.0001339389,0.00014073768,-0.00058577704,-0.0071792128,0.0033393733,-0.04986918,4992,4916,0
389794758,389794614,4259850,4325386,-0.00023391632,0.00026714042,0.0005892462,-0.013438833,-0.009994353,-0.05839646,4979,4915,0
390293313,390293151,4259850,4325386,0.0015067051,-0.0005186907,0.0003297103,-0.015019121,-0.00844215,-0.05761539,4986,4915,0
390797169,390797043,4259850,4325386,0.00021009897,0.00042447294,0.00066088897,-0.008335217,0.012478621,-0.05296667,5031,4916,0
391290673,391290558,4259850,4325386,-0.00064618967,0.001005637,0.0015074987,-0.004999707,-6.3979205e-05,-0.046631552,4985,4961,0
391794618,391794251,4259850,4325386,-0.0005218414,-4.573284e-06,-0.00029316143,-0.004411156,-0.0093685435,-0.04589132,4955,4919,0
392293064,392292953,4259850,4325386,0.0005110321,8.7752574e-05,0.00044945203,0.00023385101,-0.004076524,-0.046607066,4986,4919,0
392791893,392791754,4259850,4325386,-0.00017437294,-0.00025023147,0.0013422344,-0.003548701,0.01699681,-0.048431586,4967,4969,0
393295517,393295347,4259850,4325386,-0.00084109505,-0.0007657368,0.00040517419,-0.014732536,-0.0011934782,-0.05425029,4986,5883,0
393794160,393794051,4259850,4325386,0.00027626095,0.0011295087,0.0002541739,-0.012772938,0.007247918,-0.057659455,4986,4914,0
394292870,394292759,4259850,4325386,0.0008290935,-0.00043271802,0.00027671093,-0.005629248,0.0011165469,-0.057111718,4986,4953,0
394791770,394791646,4259850,4325386,-0.000124649,0.0010686583,0.00019465848,0.012318198,0.011200254,-0.042003818,4965,4966,0
395290703,395290542,4259850,4325386,-0.00043383674,0.0010847857,-0.00032771993,-0.015963016,-0.012664187,-0.047604367,4971,4976,0
395793982,395793852,4259850,4325386,-0.0003817979,-0.00052576896,0.00031269534,0.006203533,0.0024831162,-0.040847424,4986,4916,0
396292758,396292558,4259850,4325386,0.00035449918,-0.0006353156,-0.00041855822,-0.004753272,0.009552987,-0.040659178,4983,4917,0
396791870,396791759,4259850,4325386,-0.0006520046,0.0006606774,-0.0012953219,-0.024501448,-0.0142799895,-0.058736753,4987,4942,0
397295813,397295493,4259850,4325386,0.0004362588,-0.000183388,-0.00028663516,0.006494953,-0.010590486,-0.05454434,4984,4953,0
397794441,397794297,4259850,4325386,-0.00035791175,-0.0014389381,-0.0003916168,-0.0017831482,-0.012316263,-0.046382543,4983,4916,0
398293258,398293040,4259850,4325386,0.00045143135,-5.7720004e-05,0.00025929644,0.0033848048,-0.012252874,-0.05319715,4972,6020,0
398791182,398791062,4259850,4325386,0.0010331464,-0.0012347379,0.00013868969,-0.0026917814,-0.002793011,-0.042666126,4987,4920,0
399294432,399294303,4259850,4325386,1.1287779e-05,-0.00033984773,-0.0011485761,-0.012277572,-0.007999874,-0.05935746,5036,5661,0
399793067,399792957,4259850,4325386,-0.00012779144,0.00010734075,0.00070735934,0.008225636,0.008736908,-0.0494722,4982,4916,0
400291777,400291668,4259850,4325386,0.0008655431,-0.00013135232,-0.0011849427,-0.0019989442,-0.013011872,-0.048838913,4994,4883,0
400796545,400795904,4259850,4325386,0.0015440063,0.00080467353,6.736663e-05,-0.0046552108,-0.0063262912,-0.040875405,4996,4916,0
401294815,401294704,4259850,4325386,-0.0005784474,-0.00021973539,-0.0006851771,0.006003058,-0.0073320246,-0.053906087,4989,4912,0
401793641,401793430,4259850,4325386,0.0006919942,-0.0009490375,3.4950976e-05,-0.009665452,-0.00945359,-0.060634363,4961,5999,0
402292073,402291961,4259850,4325386,-0.00031182397,-0.001268591,0.0002481665,-0.005906006,-0.0020277393,-0.039519746,4987,4915,0
402790790,402790679,4259850,4325386,-0.00036177927,-0.0007631597,-0.0003612755,0.007050396,-0.00045595868,-0.044253793,5001,4896,0
403294472,403294355,4259850,4325386,0.002363561,-0.000775188,-0.0008337776,0.010312493,-0.019001,-0.042817038,4987,4945,0
403793325,403793197,4259850,4325386,0.0008666284,-0.00056059996,-0.0008383247,0.01034469,-0.028047113,-0.04460147,4984,4978,0
404296942,404296751,4259850,4325386,-0.0006792661,0.0006333172,0.0006737152,-0.006331541,0.008181615,-0.055647403,4987,4988,0
404795563,404795453,4259850,4325386,-0.0005422062,0.00022315691,0.00060230744,0.0010998042,-0.0066349367,-0.04592344,4987,4960,0
405293986,405293819,4259850,4325386,-0.00022436221,-0.00019823092,-0.00025010345,-0.008488942,-0.00662181,-0.04598695,4966,4915,0
405792571,405792362,4259850,4325386,-3.281692e-05,0.00014588966,-0.0008428824,-0.008792083,-0.0065029627,-0.053732418,4987,5607,0
406291185,406291067,4259850,4325386,0.0004708208,-0.0009942628,-6.3115716e-05,-0.0014561589,0.0015463025,-0.047338918,4989,5001,0
406795478,406795370,4259850,4325386,-3.8289825e-05,9.444852e-05,0.000611881,0.008408546,0.0049951538,-0.04495092,4957,4766,0
407294158,407293962,4259850,4325386,-0.00046651874,0.00025401037,0.00024618427,-0.0050571435,0.006219467,-0.05282223,4988,4917,0
407797846,407797652,4259850,4325386,0.00084516767,0.00039804762,0.00023724372,-0.0065564653,-0.0023574238,-0.04914696,4990,4973,0
408296643,408296477,4259850,4325386,-0.00018496078,-9.642529e-05,0.0003794283,-0.008651936,0.005377052,-0.048295464,4972,4915,0
408795516,408795060,4259850,4325386,0.0010579781,-0.00016590836,-0.00033691106,-0.0058345688,-0.0012395576,-0.06288494,4991,5634,0
409293867,409293760,4259850,4325386,0.00039953503,-0.00042438446,0.00041906952,0.0074935867,0.007369474,-0.033408146,4987,4978,0
409792650,409792465,4259850,4325386,-0.0012917263,0.00062119676,-0.00015612335,0.0030529117,-0.009802807,-0.0434495,4986,4993,0
410291378,410291202,4259850,4325386,-0.0004675404,0.0008252349,0.0015447072,-0.00081592036,0.013124795,-0.066830374,4957,5898,0
410794995,410794857,4259850,4325386,-0.00096024515,-0.0005115237,-0.00035724443,0.0012239951,0.004606583,-0.043102235,4987,4916,0
411293675,411293561,4259850,4325386,-0.0010186355,-0.00023309779,0.000384304,0.0005221566,0.011317642,-0.0497324,4986,4924,0
411792427,411792275,4259850,4325386,0.00042282316,-0.00013325276,-0.0005597073,-0.0085296715,-0.015354707,-0.0494071,4996,5380,0
412291369,412291183,4259850,4325386,0.0008771881,-0.0011971052,-0.0010365691,-0.0060897754,-0.022361716,-0.043819513,4996,4959,0
412795310,412795061,4259850,4325386,-0.0014451147,-1.1552356e-05,0.00025168568,-0.0038489413,-0.00462366,-0.04160826,4980,4982,0
413293504,413293375,4259850,4325386,2.5400788e-05,0.00085313374,-0.00027394592,-0.010470781,-0.0062367576,-0.0520516,4994,4875,0
413792174,413792066,4259850,4325386,-0.0005909199,0.0001777395,0.000686728,-0.00460672,0.008549613,-0.05850491,4987,4914,0
414295384,414295258,4259850,4325386,5.7265068e-05,0.0009024768,1.8665205e-05,0.00047526154,-0.0017880196,-0.047333978,4987,4914,0
414794112,414793965,4259850,4325386,0.0006408733,0.00088095124,0.00082829443,-0.008176724,0.017348409,-0.049311966,4989,4919,0
415297760,415297647,4259850,4325386,-0.0010937806,4.593121e-05,0.0011172402,-0.010179676,0.010998483,-0.05029486,4961,4962,0
415791690,415791500,4259850,4325386,-0.00030988618,0.0007457919,0.000414204,-0.0032011238,0.008739607,-0.0543293,4893,4642,0
416290634,416290471,4259850,4325386,0.00048502965,-7.6947224e-05,0.00034602016,-0.004982195,0.0019868382,-0.055535007,4967,4973,0
416793891,416793763,4259850,4325386,0.000340541,0.00061302044,0.0010876376,-0.009259593,0.009931084,-0.049397368,4962,4918,0
417292578,417292467,4259850,4325386,-0.0016643546,-0.0005685714,-0.00044970296,0.00077078014,0.0006312839,-0.041217133,4988,4918,0
417795492,417795382,4259850,4325386,-1.6806634e-05,-0.00079736183,-0.00043458006,-0.0049250256,-0.021640668,-0.040697195,4984,4916,0
418294071,418293920,4259850,4325386,-0.00020327533,0.00039093758,-0.0002529385,-0.0071585695,-0.0039349766,-0.042034883,4995,4918,0
418792861,418792692,4259850,4325386,0.0014403926,0.00037849817,5.1284307e-05,0.0007236503,-0.009653654,-0.045944963,4964,4914,0
419291514,419291320,4259850,4325386,0.00027841039,4.8141334e-05,-0.0009034235,0.004177183,-0.004768391,-0.044054996,4988,4962,0
419794752,419794643,4259850,4325386,-0.00047978104,0.0005109039,0.0011583207,-0.011187382,0.019998483,-0.055064004,4956,4965,0
420293658,420293509,4259850,4325386,-0.0012099661,0.00054526847,0.001589462,-0.005364948,0.015582862,-0.053065807,5045,4929,0
420792091,420791982,4259850,4325386,-0.0005744966,-0.00011206031,0.000331047,-0.0028049464,0.010657061,-0.05156752,4988,4921,0
421295686,421295560,4259850,4325386,0.0007964078,-0.0009059248,-0.0010735913,-0.0042975596,-0.0063641253,-0.043337755,4987,4915,0
421794383,421794265,4259850,4325386,-0.0007746462,-0.00015337813,-0.0003468284,-0.0039712354,-0.019890673,-0.04172169,4986,4921,0
422293255,422293083,4259850,4325386,0.00084884546,-0.00062037684,0.00010386846,-0.004753874,-0.0030378157,-0.042093758,4953,4916,0
422791819,422791675,4259850,4325386,0.000912005,0.00025694282,0.0010835195,-0.0007229461,0.011726392,-0.049661893,4991,4982,0
423290567,423290417,4259850,4325386,-0.00023823233,0.00020681927,0.00046982864,-0.0006095386,0.0075455625,-0.05676949,5029,4920,0
423795407,423794078,4259850,4325386,-8.568094e-05,0.00033497927,-0.00022047816,-0.016436512,0.011687879,-0.07141809,4998,5908,0
424292938,424292826,4259850,4325386,-0.00013466041,-0.0004708078,-0.0009095647,0.0013322785,-0.005034499,-0.03891454,4967,4967,0
424796094,424795961,4259850,4325386,-0.0005693274,0.0008710721,0.00073339854,0.00079918065,0.008342289,-0.047820617,4986,4957,0
425294881,425294664,4259850,4325386,0.00024977585,-0.00044251815,0.00044074017,-0.008713427,0.008178839,-0.06498142,4985,5904,0
425794538,425794413,4259850,4325386,3.6325342e-05,-9.7068754e-05,-0.0005667713,0.012443872,0.0054917536,-0.041581735,4987,4997,0
426293228,426293117,4259850,4325386,-0.00068103353,0.0012743555,0.00096783496,0.00050360913,0.025687816,-0.051909592,4942,4916,0
426791937,426791821,4259850,4325386,0.00039791467,0.00044173468,-4.3118896e-05,-0.0004814539,-0.0018698636,-0.0471984,4986,4978,0
427295716,427295574,4259850,4325386,-0.0021387243,6.5198285e-05,0.0007737519,-0.005121,0.009501259,-0.046410874,4981,4983,0
427794612,427794415,4259850,4325386,0.00013378944,-0.00045496548,-0.00017804622,0.0038810123,0.010216628,-0.052673362,4964,5900,0
428293027,428292919,4259850,4325386,-0.00023537065,0.0010013792,0.00047838388,0.001342242,0.016088815,-0.05335597,4986,4914,0
428796861,428796657,4259850,4325386,-0.0010169466,0.00078304904,0.0012677059,-0.003937574,0.018003892,-0.05327328,4988,4921,0
429294426,429294287,4259850,4325386,0.0006893708,-0.0005638564,-0.0016258549,-0.0093389675,-0.023639107,-0.050705124,4993,4995,0
429793174,429793057,4259850,4325386,-0.00017869231,0.00024043658,-0.00058980635,-0.00065965956,-0.009380709,-0.039906107,4911,4912,0
430292218,430292057,4259850,4325386,-0.00032425657,0.0001816194,-0.0012426338,-0.005215465,-0.018886527,-0.04412551,4967,4917,0
430795513,430795367,4259850,4325386,-0.0007088885,0.00014355681,-0.0005765341,0.0027394763,0.0017513409,-0.04864741,4989,4915,0
431294175,431294067,4259850,4325386,-0.0005431413,0.0002860396,0.00051839976,-0.008821993,0.011238973,-0.06053551,4987,4915,0
431793983,431792774,4259850,4325386,2.6433941e-05,4.8832346e-05,-0.0004893927,0.0027685815,-0.009850464,-0.049025986,4989,5881,0
432296634,432296520,4259850,4325386,8.268297e-05,0.00019707915,-0.0020895991,0.0029734084,-0.0023948227,-0.049465217,4931,4915,0
432795299,432795164,4259850,4325386,-2.8109664e-05,-0.0009999184,-0.0041039307,-0.005892721,0.000688928,-0.052828144,4939,4913,0
433293986,433293868,4259850,4325386,-0.0004973829,-4.7008783e-05,-0.003230496,-0.009833148,0.0057914774,-0.056753103,4987,4910,0
433792694,433792572,4259850,4325386,0.0003836144,-0.0005247778,-0.00097617396,-0.0043460447,-0.017731426,-0.04076278,4987,4914,0
434291438,434291330,4259850,4325386,0.00026008138,-0.00023621181,0.0007108587,0.0005936944,0.0016029199,-0.03699502,4973,3928,0
434795349,434795208,4259850,4325386,5.157334e-07,-0.00012167831,-0.0017079237,-0.0048706713,0.00953276,-0.037062418,4922,4910,0
435293837,435293670,4259850,4325386,0.00032739315,-0.00069893396,-0.0007948975,0.0034983158,-0.01521745,-0.05173116,4980,4913,0
435792586,435792475,4259850,4325386,0.0011968443,-0.00045920906,-0.00037916953,0.0019537378,-0.0011474625,-0.043256614,4990,4915,0
436296226,436296064,4259850,4325386,0.00089202984,-0.00078628503,0.000437036,0.008321385,-0.0011782846,-0.03432795,4987,4966,0
436790105,436789980,4259850,4325386,-0.0012031177,0.0004597688,0.0017156339,-0.0036617632,0.0026747235,-0.050210785,5020,4913,0
437293580,437293470,4259850,4325386,4.765512e-05,-0.0007646763,-0.0013847101,-6.178677e-05,-0.0119862985,-0.045152057,4988,4916,0
437792284,437792173,4259850,4325386,-0.00030747513,0.00039607586,0.000696584,-0.003921855,0.021439018,-0.06185584,4987,4914,0
438295989,438295866,4259850,4325386,0.00050704164,-0.0006850777,-0.0008700971,-0.003062559,-0.012146879,-0.04674636,4990,4972,0
438794698,438794585,4259850,4325386,0.0002990681,3.37138e-05,-0.00011862897,-0.005814728,-0.008673574,-0.045062713,4897,4910,0
439293440,439293277,4259850,4325386,-0.0002576141,0.00014246975,-0.00065026945,-0.0012064598,-0.008996829,-0.043805383,4994,4782,0
439797332,439796962,4259850,4325386,-0.00019293833,0.0011628858,0.00057955185,-0.003597313,0.010907772,-0.058918577,4989,5694,0
440290791,440290677,4259850,4325386,-0.0005261832,-0.00064435904,0.00030116434,-0.0035531302,0.000110859066,-0.052492723,4986,4952,0
440795172,440794528,4259850,4325386,-0.00037249574,0.0003979781,0.0008115163,-0.00864669,0.017646652,-0.057313554,4941,4958,0
441293739,441293569,4259850,4325386,0.0007683124,-0.00050028315,-0.0013571128,0.00619662,-0.011381656,-0.055612713,4987,5899,0
441792460,441792323,4259850,4325386,-0.00045547774,-0.00028467076,0.000102325095,-0.0021951385,0.019016325,-0.049301885,4975,4977,0
442295605,442295463,4259850,4325386,0.00053657097,-0.00096902,-0.0003604241,-0.0033220928,-0.008316404,-0.04253004,4987,4961,0
442794329,442794167,4259850,4325386,0.00057712157,-0.00010367623,-0.00062292576,0.001605959,-0.0012205486,-0.044709228,4987,4969,0
443293103,443292985,4259850,4325386,0.00062647206,0.00027461792,-3.6550322e-05,0.0052999505,0.00014159258,-0.04699409,4924,4639,0
443791713,443791574,4259850,4325386,-0.00057743693,0.00021907684,0.0002926634,-0.00095218915,-0.0001308032,-0.053106192,4988,4916,0
444295566,444295268,4259850,4325386,-0.00084358925,-3.9196286e-05,0.0006022894,-0.0027056898,-0.0013084143,-0.0538441,4991,5628,0
444794078,444793967,4259850,4325386,-0.0005025304,5.8483315e-06,0.00024708905,0.003398484,0.006665282,-0.053812616,4988,4979,0
445292840,445292666,4259850,4325386,-0.00010722735,0.0002542195,0.00020670188,-0.011029144,-0.00018379274,-0.04914672,4981,4982,0
445796823,445796620,4259850,4325386,0.00019141471,0.00044214632,-0.00069948763,-0.002506083,-0.005015148,-0.04287733,4978,4986,0
446295179,446295065,4259850,4325386,-0.0007704138,0.0007017504,0.0005247131,0.0035647186,0.0006045641,-0.045003947,4988,4982,0
446793966,446793772,4259850,4325386,0.00011461613,0.0006669847,0.0009984652,0.0018281536,0.011402808,-0.053539805,4992,4930,0
447292742,447292586,4259850,4325386,-0.00014254202,0.00030880878,0.00031770446,-0.0105033675,0.00886066,-0.047737364,4940,4948,0
447795454,447795258,4259850,4325386,0.00023831667,-0.0003792364,0.00026477856,0.0004248596,-0.0070325905,-0.030374048,4970,3929,0
448294342,448294183,4259850,4325386,-0.0005542183,-7.270347e-05,-0.00022315625,-0.011585254,0.0025311862,-0.050218157,4976,4982,0
448792856,448792738,4259850,4325386,-0.00030152305,7.41872e-05,-0.00052880356,-0.010602152,-0.00092046935,-0.055936173,4944,4754,0
449292143,449292027,4259850,4325386,0.00052222575,0.00011073469,0.0004213133,-0.0071653677,-0.011467445,-0.051394943,5240,4988,0
449795570,449795461,4259850,4325386,0.0009835216,0.0002783522,-0.0005303994,0.0032281205,0.0064753545,-0.04198977,4987,4974,0
450294277,450294164,4259850,4325386,-0.0005172918,0.00031698312,0.00020060601,-0.016603446,-0.006549612,-0.04998689,4987,4938,0
450793067,450792955,4259850,4325386,0.0007530343,-0.00048701293,-0.0013636866,0.0044959644,-0.007904198,-0.04119937,4987,4915,0
451291887,451291723,4259850,4325386,9.623843e-05,-0.00039090388,0.00011683177,-0.0019722157,0.004963708,-0.04637574,4774,4915,0
451795424,451795267,4259850,4325386,0.00035287932,-0.0012278665,-0.00097382785,0.011869544,-0.011986833,-0.04567021,4994,4981,0
452294245,452293964,4259850,4325386,-0.0008894619,0.00014347759,-0.00045276867,0.0036242357,0.0020193164,-0.04565183,4931,4917,0
452793833,452793665,4259850,4325386,3.9362505e-05,0.0005284651,0.0009965639,-0.009634535,0.00848107,-0.047085598,4970,4918,0
453297745,453297630,4259850,4325386,-0.0003030715,0.0002850548,0.0012905691,-0.0055781286,0.0066078743,-0.04148953,5260,4920,0
453796266,453796057,4259850,4325386,-0.000109734065,-0.00035990847,-0.00012853449,0.011336676,-0.006618107,-0.054635633,4987,5722,0
454294881,454294761,4259850,4325386,0.00014656862,0.00017285983,0.00034509922,-0.013912565,0.0034693307,-0.060362548,4987,4966,0
454793106,454792967,4259850,4325386,0.00032084415,-0.00031247034,-0.00033434635,0.0028168485,0.0009375864,-0.04674302,4987,4910,0
455291785,455291667,4259850,4325386,-0.0020305857,0.00012016702,-1.5442456e-05,-0.016159035,-0.0005816049,-0.05773406,4987,4915,0
455795477,455795363,4259850,4325386,-0.00039919748,0.0004453804,0.00019648384,0.00075438444,0.013839142,-0.046204496,4992,4677,0
456294201,456294062,4259850,4325386,0.0004413306,-0.00014404637,-0.0009824071,0.0015544682,-0.017527184,-0.040085245,4977,4915,0
456798183,456798004,4259850,4325386,-0.00070170243,0.0002448864,0.0011475635,-0.0026766656,0.0142364325,-0.04563288,4962,4916,0
457291605,457291496,4259850,4325386,0.00056447205,-0.00096836884,-0.00019673904,-0.00072319165,-0.014365441,-0.040050197,5016,4904,0
457790286,457790171,4259850,4325386,-0.0004337446,0.0009587053,0.0010560716,0.0036068975,0.02251612,-0.040304597,4986,3929,0
458294032,458293922,4259850,4325386,3.3215267e-05,0.0003632717,0.00013605405,-0.0070536016,0.0021548553,-0.050019875,4964,4904,0
458793090,458792946,4259850,4325386,-0.0007809126,-0.0005516397,0.00021281163,-0.00453591,0.005883276,-0.051041666,5048,4935,0
459291604,459291428,4259850,4325386,-0.00060627004,0.0004829609,-0.00023248921,-0.009050086,0.007308218,-0.060067587,4990,5920,0
459795095,459794955,4259850,4325386,-0.0007653034,0.0015202641,0.00063983246,-0.005653731,0.0020727804,-0.0489258,4987,4921,0
460293804,460293659,4259850,4325386,0.0010970776,-0.00078840833,-0.00062905526,0.00011180652,-0.0062176525,-0.0432905,4987,4964,0
460797532,460797397,4259850,4325386,-0.0004741697,-0.00039621064,-0.00041443598,0.010360435,-0.0020396968,-0.040653285,4915,4633,0
461291209,461291064,4259850,4325386,0.0008238209,-0.000709188,0.00015212545,-0.007405026,-0.011751361,-0.050757512,4987,4912,0
461794874,461794755,4259850,4325386,-0.0005188219,-0.00030276595,-0.0015808954,-0.0049341507,0.0005405408,-0.050750513,4988,4915,0
462293649,462293467,4259850,4325386,-0.000611036,-0.0004038012,-0.001035413,-0.0014436378,0.0057450254,-0.043039262,4996,4725,0
462792315,462792197,4259850,4325386,-0.00078355416,0.00032672542,-0.00064220885,-0.011935306,-0.008121074,-0.05554318,5023,4901,0
463296265,463296060,4259850,4325386,-0.00028820973,0.000305856,-0.00025449065,0.0051357197,0.0011488873,-0.04349436,4958,4952,0
463794667,463794556,4259850,4325386,0.00060701906,1.1082864e-05,0.00014834071,-0.013526048,-0.0065420675,-0.045730203,4979,4922,0
464297419,464297246,4259850,4325386,-9.242268e-05,-0.00049017067,0.00023449968,-0.007858112,-0.008537097,-0.054109905,4988,5737,0
464791108,464790963,4259850,4325386,0.00023100294,-0.00018175002,-9.678324e-05,0.0072706454,-0.004902252,-0.04920123,4978,4905,0
465294868,465294674,4259850,4325386,-0.00027724443,-0.00089085684,0.000116724324,-0.0027078902,-0.0037689677,-0.0457144,4938,4934,0
465793880,465793691,4259850,4325386,-0.0003833416,0.0005246588,-0.00015267411,-0.014038975,-0.010543877,-0.051868428,4990,4914,0
466292389,466292229,4259850,4325386,5.3025662e-05,-0.00028208632,0.00025507354,-0.009201386,-0.0055763097,-0.040888667,4991,4915,0
466795888,466795747,4259850,4325386,-0.00087448483,0.0006946491,0.00033858477,0.004098792,0.00834074,-0.041179817,4987,4917,0
467294568,467294455,4259850,4325386,0.00066928705,0.00056922826,0.0007898565,-0.0029638186,0.003657953,-0.05622472,4992,4911,0
467793337,467793199,4259850,4325386,-0.00053064054,0.0005684235,0.00013924719,0.0054846257,-0.009659427,-0.045010213,4964,4914,0
468291987,468291856,4259850,4325386,0.0006042742,-0.00057153363,-0.001584776,-0.00327272,-0.015453786,-0.043792047,4983,4774,0
468790669,468790558,4259850,4325386,-0.0010483725,0.00047054407,0.0005094678,-0.0070203124,-0.013652663,-0.049656074,4986,4978,0
469294673,469294249,4259850,4325386,-0.00021197494,2.1887643e-05,-0.0005785238,-0.0020428505,-0.0038663226,-0.04110837,4949,4914,0
469793124,469792951,4259850,4325386,-0.00034093508,2.5174084e-05,-0.0015477292,0.00031941707,-0.020705326,-0.05203823,4987,5899,0
470296329,470296195,4259850,4325386,-0.0002325073,-8.544217e-05,-0.0007390758,0.00028578684,0.0019636971,-0.051079463,4991,4915,0
470795007,470794893,4259850,4325386,0.0006085697,1.0251307e-05,-0.00051283994,-0.0030525983,0.0049613207,-0.05269465,4985,4914,0
471293724,471293597,4259850,4325386,-0.00020253217,-0.0008196063,-0.0019265767,0.004048854,-0.0070504583,-0.04064944,4986,4912,0
471793355,471792572,4259850,4325386,-0.0006469882,-7.265149e-05,-0.0045500183,-0.0061345976,-0.008992349,-0.034739263,5259,4973,0
472290681,472290511,4259850,4325386,-0.00022512041,-9.145401e-06,-0.004469551,-0.0031589298,0.003762204,-0.044271696,4961,4915,0
472795124,472794483,4259850,4325386,0.00026639117,-0.00066217687,-0.002066696,-0.013141306,-0.016579023,-0.06615676,4986,5170,0
473293134,473293016,4259850,4325386,0.0001643655,0.0002096017,0.0016562818,-0.0067916014,0.002213419,-0.04757586,4989,4914,0
473796689,473796540,4259850,4325386,-9.564784e-05,5.7553272e-05,0.0020706279,-0.0066568684,0.007541297,-0.04792515,4974,4918,0
474295349,474295240,4259850,4325386,-0.00062547735,-0.0006278004,-0.00037961465,-0.010950801,0.00041997494,-0.05354447,4985,4956,0
474794607,474794494,4259850,4325386,0.00013796207,0.00041535898,-0.0030336613,-0.004588368,0.00027368148,-0.04497756,4994,4730,0
475293354,475293241,4259850,4325386,5.323666e-05,-8.748564e-05,-0.0008667072,-0.008951454,-0.016068542,-0.0477857,4989,4913,0
475792534,475792350,4259850,4325386,0.0009617944,-0.00014192144,-0.00025138524,0.01197402,0.003173683,-0.052798495,4991,5901,0
476291295,476291179,4259850,4325386,-3.1524985e-05,-0.00014487996,0.00047848755,-0.013110845,-0.0018838766,-0.050659098,4975,4981,0
476795126,476794986,4259850,4325386,-0.00062238326,-0.0004992453,3.7113015e-05,-0.0041908175,-0.0016967845,-0.046143398,4987,4707,0
477293582,477293466,4259850,4325386,0.0003794744,-0.0004695028,-0.0011012516,0.0035588322,-0.024931822,-0.04305964,4978,4917,0
477792444,477792273,4259850,4325386,-0.00012763283,0.0002930065,0.0004641723,-0.007036261,0.0028152068,-0.063789345,4982,5688,0
478296376,478295836,4259850,4325386,0.00058302324,8.333046e-05,-0.0002476969,0.00412511,-0.013565492,-0.060898717,4988,5892,0
478794755,478794582,4259850,4325386,0.00014017701,0.00016256847,-0.00047329912,0.0067876773,0.0026272808,-0.03987907,4972,4973,0
479293368,479293239,4259850,4325386,-0.00039511168,0.00021045883,0.00074469973,-0.004065182,0.00030437158,-0.0481044,4987,4916,0
479792059,479791942,4259850,4325386,0.0014103089,-0.0012720122,-0.00087510014,0.007513787,-0.011262316,-0.03968792,4987,4952,0
480295753,480295632,4259850,4325386,5.6012326e-05,0.00038238894,-4.1322746e-05,0.006204374,0.00626655,-0.048897807,4987,4990,0
480794446,480794335,4259850,4325386,-0.00068978895,-0.00061694154,-0.000644982,-0.007326956,-0.02713936,-0.04643725,4985,4766,0
481293439,481293265,4259850,4325386,0.00011721199,-0.0005616443,0.00016487451,0.006102288,0.0043887743,-0.050144043,4976,4977,0
481797024,481796729,4259850,4325386,0.0003266355,-5.0414666e-05,-0.00017367843,0.00181235,-0.0016239595,-0.055277288,4988,5821,0
482290548,482290441,4259850,4325386,-0.00083967,0.0015682899,0.0014004944,-0.0036922472,0.024667049,-0.05275099,4986,4880,0
482794407,482794154,4259850,4325386,-0.000999147,0.0009329999,-0.0012710748,-0.0013084039,-0.007863286,-0.04184366,4972,4933,0
483293248,483293131,4259850,4325386,-3.792514e-05,-0.00050330657,5.8120448e-05,-0.0045707324,0.0068025915,-0.04432887,4914,4912,0
483791868,483791744,4259850,4325386,0.0005272672,0.00046395583,0.00084861665,-0.0024422258,0.00024280399,-0.048338767,5018,4726,0
484295369,484295227,4259850,4325386,-0.00034896337,-3.8266633e-05,0.0009819507,-0.006510873,0.024735242,-0.053741198,4987,4914,0
484794043,484793930,4259850,4325386,0.00030278528,-0.00081196683,-0.0008678098,-0.016278345,-0.014147563,-0.051316854,4985,4919,0
485292796,485292638,4259850,4325386,0.00013760146,-0.00027931915,-0.00047829674,-0.00047702115,-0.0045009153,-0.046798464,4977,4934,0
485791462,485791339,4259850,4325386,-0.00045188007,0.0008945264,0.0015129873,-0.006805226,0.024096772,-0.053931978,4991,4912,0
486295336,486294575,4259850,4325386,-0.0007781372,0.00073425757,0.0010056887,0.003162585,0.0060986546,-0.057652082,4986,5900,0
486793717,486793571,4259850,4325386,0.00048084516,0.00019232467,0.00046362806,-0.0034808053,0.00553854,-0.048405856,5009,4899,0
487292277,487292101,4259850,4325386,0.00043176618,0.0005935562,0.00017877374,0.0036053192,0.015129144,-0.050164443,4988,4946,0
487795242,487795124,4259850,4325386,-0.0005503377,-0.0007295226,-0.00032254698,-0.0073105027,-0.0068102404,-0.045049444,4981,4976,0
488294198,488294019,4259850,4325386,1.1492213e-05,-0.00023127341,-0.00023085487,0.0010671524,-0.0080705,-0.040807996,4964,4958,0
488796885,488796731,4259850,4325386,0.00022028871,0.00039779814,0.00011659322,0.0005127515,0.00462796,-0.048057154,4966,4917,0
489290348,489290234,4259850,4325386,-0.0007433038,0.00027308692,0.0003216632,-0.0072590276,0.0062336405,-0.05328943,4984,4993,0
489793633,489793479,4259850,4325386,0.0012196058,0.00027275167,0.00021754866,-0.008440153,0.0034679063,-0.05301595,4965,4916,0
490292261,490292126,4259850,4325386,0.0012187848,-0.0005268783,-7.0420596e-05,-0.0016646154,-0.006507648,-0.042296685,4942,4915,0
490795932,490795818,4259850,4325386,0.00021795748,0.0003532057,-0.00029575086,0.0043064402,-0.0028748743,-0.043227077,4989,4916,0
491294628,491294519,4259850,4325386,-0.0011823693,-0.00061445095,0.0007723169,-0.0053461757,0.0101029035,-0.04192867,4986,3934,0
491793340,491793224,4259850,4325386,-0.00015534561,-0.00013468711,-0.0006802196,0.00072733447,-0.014970595,-0.043245763,4988,4865,0
492296569,492296460,4259850,4325386,-0.0011139576,-8.018295e-05,0.00048663284,-0.0051052403,0.002385684,-0.04899475,4987,4915,0
492790345,492790231,4259850,4325386,0.00035602666,0.0016034981,-0.00046139717,0.0011511423,-0.009103049,-0.04483314,5000,4918,0
493294433,493294317,4259850,4325386,0.00030009655,-0.0001966327,-0.0004196051,-0.0043264185,-0.0076860436,-0.046807833,4987,4914,0
493792987,493792850,4259850,4325386,-0.00013508885,0.00017283148,0.0016661382,-0.011008718,0.0027961389,-0.05228569,5267,4914,0
494291387,494291270,4259850,4325386,6.001483e-05,0.00017305385,0.0007528693,-0.0013059442,0.00021112274,-0.05228791,4987,4913,0
494795133,494794960,4259850,4325386,-0.0019190661,-2.2413182e-05,-0.0009223521,0.0017472131,-0.0136532,-0.047735084,4983,4911,0
495293773,495293663,4259850,4325386,-0.00023340479,-0.00020374263,-0.00026639085,-0.00027242897,-0.021423819,-0.04707931,4988,4987,0
495796993,495796855,4259850,4325386,-0.00045546104,0.00072536775,0.0002717232,-0.0103866905,0.016799118,-0.054397065,4996,4989,0
496290769,496290611,4259850,4325386,0.00015437203,0.00012758154,-0.0005408653,0.0015810032,-0.003982472,-0.04444709,4988,4976,0
496793872,496793714,4259850,4325386,-0.00020894718,-0.00015964908,0.0002108041,0.0070830686,0.0046252757,-0.04366527,4988,4951,0
497292526,497292414,4259850,4325386,-0.00040187582,3.7276328e-05,0.00017385205,-0.01385921,-0.00053621654,-0.055404063,4984,4964,0
497796219,497796099,4259850,4325386,0.000716397,0.00038150727,-8.2023435e-05,0.0026884514,0.00707217,-0.051365666,4982,5001,0
498295072,498294925,4259850,4325386,0.00027566127,-0.0007833179,-0.0012973183,-0.0004877942,-0.013082832,-0.041882988,4962,4915,0
498798647,498798501,4259850,4325386,0.00021266179,0.00022106608,1.9363002e-05,-0.009559831,0.0021970195,-0.0520856,4992,4916,0
499293054,499292907,4259850,4325386,-0.0001769189,-0.00017376091,0.00035996566,0.0018381863,0.010004997,-0.042673647,4961,4915,0
499791549,499791419,4259850,4325386,-0.00018782099,-9.719592e-06,-0.00036451983,0.0018333666,-0.0057374095,-0.043805502,4993,4907,0
500294819,500294666,4259850,4325386,2.1562282e-05,0.00021989502,-0.00048194642,-0.0025520322,-0.010170419,-0.047959737,4948,4950,0
500793433,500793306,4259850,4325386,0.00015860946,-6.741483e-07,-0.000501374,0.003076111,-0.023514586,-0.04553901,4985,4913,0
501292117,501292008,4259850,4325386,-0.001423446,0.000654661,0.0013906696,-0.009016717,0.004278713,-0.053090293,4987,4915,0
501796639,501795701,4259850,4325386,-0.00016233294,-1.632972e-05,0.0008567197,-0.008454182,0.0049956883,-0.06454466,4990,5825,0
502294508,502294400,4259850,4325386,-0.00042820867,-0.0001025584,0.00012310504,0.0017710037,-0.0004665861,-0.04272758,4985,4963,0
502793431,502793286,4259850,4325386,-0.00018767382,0.00079502666,7.136878e-05,0.0020735536,0.0026247504,-0.046982273,4965,4991,0
503291963,503291805,4259850,4325386,-0.00050434755,0.0005913229,0.00041966536,0.001225962,-0.005149311,-0.04559354,4986,4950,0
503795363,503795200,4259850,4325386,-0.0006166716,-6.870172e-05,0.00022016087,0.0023150463,0.0033150762,-0.047583114,4971,4972,0
504293825,504293702,4259850,4325386,-0.00032445847,0.0002502417,0.0006646218,-0.002574223,0.006735632,-0.048310604,4990,4953,0
504792513,504792401,4259850,4325386,0.0002675456,-0.00049470924,-0.00069168146,-0.00238158,-0.017562844,-0.046742592,4987,4926,0
505291752,505291615,4259850,4325386,-0.00020082456,-0.00030783776,-0.0009439745,-0.015148262,-0.0020297968,-0.054319873,4989,4919,0
505795517,505795405,4259850,4325386,0.00021266419,-0.00010474756,-0.0022343823,-0.008977479,0.007208091,-0.058124147,4984,4915,0
506294601,506294492,4259850,4325386,0.00024773323,0.00045093455,-0.0025324612,-0.0027647696,0.012038362,-0.047269057,4961,4912,0
506793313,506793203,4259850,4325386,-0.0009039732,-2.6784485e-07,-0.0024467432,-0.0068445913,-0.011511661,-0.049734846,4988,4740,0
507293519,507292447,4259850,4325386,0.000112580194,-1.9689542e-05,-0.0030136884,-0.006175199,-6.0302988e-05,-0.058953363,4989,5950,0
507791264,507791146,4259850,4325386,-8.683055e-05,0.0004792707,-0.0017944559,-0.00835482,0.012826506,-0.053385116,4987,4956,0
508294983,508294837,4259850,4325386,7.113812e-05,0.00058278,-0.00015164408,0.0017595382,-0.00517103,-0.042330682,4987,4990,0
508793697,508793583,4259850,4325386,-0.00046164863,0.00027810066,0.00040540946,-0.00742065,-0.0126290815,-0.041961662,4958,4911,0
509292366,509292240,4259850,4325386,-0.00021214448,8.354836e-05,3.8930943e-06,-0.0040251683,-0.0075412374,-0.05267665,4986,4910,0
509796542,509795931,4259850,4325386,0.00027039173,0.00016401512,-0.0011542881,0.008740138,0.0031616467,-0.051615875,4988,5657,0
510289784,510289675,4259850,4325386,-0.0003883966,0.00045543473,-0.0017896857,-0.005433964,0.009191106,-0.048085466,4932,4747,0
510792461,510792290,4259850,4325386,-0.00037789968,0.00033932654,0.00063183624,-0.0029560816,0.018463535,-0.05165423,4984,4657,0
511291359,511291209,4259850,4325386,-3.3304146e-05,-0.00016528928,0.00012642657,-0.013290246,-0.0003514348,-0.05609609,4964,4963,0
511794942,511794823,4259850,4325386,-0.0010596833,-0.00036161262,-0.0005569842,0.003930166,-0.0026689332,-0.04057541,4982,4914,0
512293522,512293383,4259850,4325386,-0.0006064473,0.00011526044,0.000830805,-0.009056984,0.004603074,-0.049413163,4983,4915,0
512797195,512797075,4259850,4325386,-0.00022558811,0.00026186815,0.0004496006,0.005535882,0.005940193,-0.04395181,4985,4916,0
513295887,513295775,4259850,4325386,0.0009199042,-6.7332585e-06,-0.00038499455,0.004008618,-0.010122415,-0.043413542,4986,4912,0
513789908,513789691,4259850,4325386,-0.0015815259,0.0021700854,0.00058970175,0.010075393,0.015179158,-0.042321764,4968,4956,0
514293310,514293187,4259850,4325386,-0.0025961653,0.0012553746,-7.942013e-05,-0.01363443,-6.841312e-06,-0.0544149,4990,4954,0
514792001,514791887,4259850,4325386,-0.00039414203,0.0009924107,6.0034236e-05,-0.006057149,-0.012159196,-0.04866133,4986,4875,0
515295771,515295572,4259850,4325386,-8.701387e-05,0.00095454924,0.001088903,-0.0037932943,0.012339312,-0.057127874,4987,4955,0
515793906,515793774,4259850,4325386,0.0017995478,0.00040836204,0.00018602319,-0.008995627,0.005906429,-0.056804243,4987,4980,0
516292602,516292483,4259850,4325386,0.00021991595,-0.00038466658,-0.0008949396,0.014106804,-0.020421175,-0.04204983,4992,4679,0
516795862,516795671,4259850,4325386,0.00014475003,9.6298e-06,1.2058533e-05,0.0069118496,-0.0058301413,-0.042745017,4991,4920,0
517294489,517294374,4259850,4325386,0.00070209557,-0.00067688513,-0.0011111685,0.0023156498,0.00651663,-0.040460672,4990,4968,0
517792940,517792770,4259850,4325386,-0.00047479133,0.000108089655,-0.0013278284,-0.0013195322,-0.017484933,-0.04419526,4905,4910,0
518291435,518291323,4259850,4325386,-0.00027790442,-0.00031385446,-5.2463343e-05,0.0010816399,-0.0033329623,-0.039250918,4987,4914,0
518795141,518795013,4259850,4325386,0.001124903,9.4875206e-05,-4.626068e-05,0.009795779,0.006529667,-0.04382547,4988,4916,0
519293832,519293716,4259850,4325386,0.0008073274,-0.0006665963,-0.0015034263,0.0040802616,-0.007635436,-0.045712166,4986,4983,0
519792595,519792461,4259850,4325386,8.196383e-05,0.0001538013,-1.621173e-05,-0.011894761,-0.010400949,-0.057370096,4965,4915,0
520296243,520296107,4259850,4325386,0.00074716995,-0.00048508914,-0.0008759758,0.004424712,0.0049420134,-0.044983335,4988,4915,0
520789933,520789821,4259850,4325386,0.001140839,-0.0007258428,-0.0012172204,0.010337797,-0.012162099,-0.040886194,4987,4914,0
521293625,521293512,4259850,4325386,0.00035106225,-3.1378953e-05,0.0014290663,0.004030104,-0.0037711675,-0.04195079,4977,4948,0
521792530,521792392,4259850,4325386,-0.0002668079,0.00017790338,0.0001965624,-0.007806939,-0.0010547969,-0.045956433,5022,4915,0
522291415,522291270,4259850,4325386,-0.00015536054,-0.00012427832,0.0010724558,-0.010004876,-0.0020594522,-0.045490477,4980,4914,0
522794982,522794803,4259850,4325386,-0.00039825359,0.0007245335,-0.0008755143,0.0040585296,-0.0024715718,-0.049888737,4992,5969,0
523293454,523293307,4259850,4325386,-0.00020334827,0.00072109525,0.0006962107,0.002354935,0.012698578,-0.05774108,4988,4967,0
523797568,523797450,4259850,4325386,-0.0002676738,0.0006154433,0.00053173554,0.00258547,0.015557359,-0.054497745,4984,4915,0
524291333,524291223,4259850,4325386,0.0008312941,-0.00091681856,-6.793921e-05,0.00627969,-0.011099704,-0.04449853,4986,4935,0
524790479,524790362,4259850,4325386,-0.00024532655,0.00018976121,-6.023722e-05,-0.005937361,0.016144633,-0.0494654,4988,4915,0
525294176,525294052,4259850,4325386,-0.0028725911,0.0017106145,0.0014276766,0.0004562365,0.011736895,-0.051148243,4988,4915,0
525793084,525792970,4259850,4325386,-0.000231967,-0.0013296303,-0.0006290737,-0.011952654,-0.009545346,-0.048821483,5049,4934,0
526291581,526291459,4259850,4325386,-0.0001897369,-0.0008626097,-0.0004810492,-0.0079430565,-0.002146145,-0.052089874,4985,4914,0
526795343,526795233,4259850,4325386,0.0006804599,0.00085231883,0.00017723552,-0.0065836115,0.0058946237,-0.05065586,4981,4911,0
527293985,527293851,4259850,4325386,-0.0007004269,-0.0006465605,-0.0008208313,0.0021135134,-0.016416743,-0.036597,4989,4638,0
527794135,527792550,4259850,4325386,1.9174753e-05,-0.0004579396,-0.0011527763,-0.002705687,-0.019319493,-0.056852907,4987,5899,0
528291594,528291415,4259850,4325386,0.0003980985,-0.00026323897,-0.0003144565,-0.002640862,-0.01247107,-0.044973236,4967,4970,0
528796941,528795537,4259850,4325386,0.00094063714,-0.000617821,-0.0010916158,0.0026111999,-0.0049172915,-0.0570057,4911,5899,0
529294648,529294530,4259850,4325386,0.00029852163,0.00028845065,0.0012399664,-0.01242303,0.025107753,-0.05931086,4987,4913,0
529792982,529792844,4259850,4325386,0.0008502151,-0.00031229563,0.0002637256,-0.0054885265,0.010375444,-0.053579465,4985,4918,0
530296640,530296531,4259850,4325386,0.0008519436,-0.00080211763,-0.0007795777,0.0069635175,-0.005413052,-0.037832405,4973,4914,0
530795347,530795236,4259850,4325386,-0.0003201811,-0.00065845175,0.00020603907,-0.0024257775,-0.007587688,-0.039114762,4981,4681,0
531294210,531294044,4259850,4325386,-0.00014089631,-0.0008961924,-0.0002027486,-0.011752609,-0.019782422,-0.042095188,4970,4927,0
531792780,531792638,4259850,4325386,-0.00032667568,0.00070190756,-0.00020990655,0.0008689008,0.0011690338,-0.043726984,4987,4976,0
532291796,532291343,4259850,4325386,-0.00021780454,-0.0019191158,-0.00054679235,-0.0028367713,-0.0061611463,-0.05324897,4990,5923,0
532795139,532795029,4259850,4325386,-0.00010075722,0.00023930348,0.0004693053,-0.015426697,0.013393634,-0.06743509,4987,5677,0
533293880,533293732,4259850,4325386,-0.0006630042,-0.00031787346,0.0009881473,-0.013794446,0.0056460635,-0.0528985,4977,4917,0
533792561,533792436,4259850,4325386,-6.642759e-05,0.00017397183,0.00025540698,0.0019385605,0.0074765203,-0.04227684,4990,4911,0
534296281,534296125,4259850,4325386,-0.0006724395,0.00085603085,0.0015802403,-0.00013445473,0.02042438,-0.05938488,4990,4962,0
534790009,534789884,4259850,4325386,-1.24756825e-05,-7.0099272e-06,-6.837829e-05,-0.0041792155,0.010360614,-0.051032927,4972,4917,0
535293793,535293677,4259850,4325386,-0.000109719724,-0.0005890764,-0.0028415124,0.0031565388,-0.012655213,-0.032268815,4987,4963,0
535793414,535792449,4259850,4325386,-6.533027e-05,0.00025948326,-0.0014931129,0.0010957267,-0.014581291,-0.056518037,5021,4915,0
536291053,536290930,4259850,4325386,0.0004006521,-0.00031883837,-0.000634212,0.0032936954,-0.0011899248,-0.040681645,4987,4969,0
536794728,536794619,4259850,4325386,-0.0018310159,-0.0002639736,-0.00365092,0.00071610545,0.005027152,-0.042299774,4983,4913,0
537293439,537293320,4259850,4325386,-0.0005279509,0.00024655773,-0.003120374,-0.009426143,0.0062939585,-0.04945869,4981,4872,0
537797187,537797038,4259850,4325386,-1.0025719e-05,3.3001914e-05,-0.0013874293,0.008028516,0.0009332729,-0.042549886,4963,4914,0
538290876,538290729,4259850,4325386,-0.0021409504,0.0013908593,0.0020472424,-0.011047067,0.025896667,-0.06657668,4991,4915,0
538794561,538794414,4259850,4325386,0.00012426292,0.0013889984,0.0012188898,-0.006237468,0.014239402,-0.053746395,4987,4731,0
539293284,539293118,4259850,4325386,0.00015770445,1.5101945e-05,-2.040458e-05,-0.008832985,0.0025715104,-0.040673167,4988,4907,0
539792171,539791949,4259850,4325386,-0.00039274912,0.00038855834,0.00011563668,-0.009654627,-0.00059705076,-0.06028172,4981,5905,0
540295918,540295802,4259850,4325386,-6.29683e-05,8.6572116e-05,-0.00012479942,0.012104883,-0.010812753,-0.044172216,4987,4988,0
540794889,540794763,4259850,4325386,0.00071769673,-0.0007670778,-0.0010678205,-0.004623568,-0.023727685,-0.046181258,5029,4923,0
541293865,541293689,4259850,4325386,-0.0008828883,-0.0006797657,-0.000583851,-0.018237967,0.0058573196,-0.061469678,5265,6119,0
541792239,541792112,4259850,4325386,-0.00025000056,-0.0001528876,-0.0024416398,0.0055867857,-0.0027526538,-0.037802823,4987,4912,0
542290939,542290815,4259850,4325386,-0.00021168834,-0.0005012766,-0.00012353949,-0.0077650314,0.0025681779,-0.054907694,4987,4955,0
542794770,542794566,4259850,4325386,-0.00016481763,0.00022392446,0.0003072172,0.011594475,-0.013095399,-0.044916566,4968,4916,0
543293801,543293562,4259850,4325386,-0.0014047205,0.0013656911,0.0008074622,-0.005453968,0.0070493724,-0.04474646,4936,3930,0
543792045,543791916,4259850,4325386,-1.0449012e-05,-0.00047147096,0.0006870215,-0.0040776185,-0.003297309,-0.043749083,4997,4926,0
544295705,544295595,4259850,4325386,0.0012517172,-0.00052138034,0.00011403245,-0.006788341,-0.013114879,-0.04480817,4987,4914,0
544794417,544794298,4259850,4325386,0.00023398841,0.00049707416,-0.0007065166,-0.0048750783,-0.009982788,-0.049285084,4987,4922,0
545293690,545293547,4259850,4325386,-0.000734498,0.00043351087,-0.00015069837,-0.0143921785,-0.006964049,-0.046290673,4987,4959,0
545792537,545792400,4259850,4325386,0.0008212523,-0.00043364425,0.0011641759,-0.014871406,0.0058631143,-0.047840804,5045,4933,0
546291420,546291233,4259850,4325386,0.00014659292,-0.00038619974,-0.0015539267,-0.01087534,-0.009219797,-0.049317885,4981,4974,0
546794765,546794639,4259850,4325386,0.0003792919,0.00014052595,-0.00019644112,0.009093372,-0.007448477,-0.04299224,4988,4927,0
547293507,547293341,4259850,4325386,0.00026615727,0.000542378,0.0005754425,-0.01641817,-0.0036093227,-0.057710465,4988,5582,0
547798244,547797033,4259850,4325386,0.0012536241,-0.0010293863,-0.00076605286,-0.009109851,-0.010506197,-0.057307452,4990,5862,0
548295846,548295731,4259850,4325386,-0.00055362517,0.0005986875,0.001077299,-0.007933475,0.02111109,-0.05399205,4977,4962,0
548789889,548789690,4259850,4325386,-0.00013237173,-0.0007468623,-0.00031568663,-0.016144438,-0.0052971505,-0.050555352,4959,4967,0
549293317,549293135,4259850,4325386,-0.000502925,-0.00023159482,0.00085121085,-0.007231257,0.0020108006,-0.058377195,4987,5778,0
549791956,549791839,4259850,4325386,3.4595596e-05,-0.0010069368,0.00050865783,-0.019123804,0.0040131956,-0.044961467,4982,4642,0
550295713,550295599,4259850,4325386,0.00044992217,-0.0009635673,-7.74037e-06,-0.013609023,-0.010956011,-0.048968665,4977,4976,0
550794533,550794398,4259850,4325386,0.00035398564,-0.00015935548,7.715995e-05,-0.00015916908,0.009269442,-0.048874807,4989,4919,0
551298084,551297938,4259850,4325386,0.00021089171,0.0002846426,-1.813342e-05,0.00085315155,-0.0029729926,-0.04388439,4997,4915,0
551796900,551796734,4259850,4325386,0.00055355945,6.8659494e-05,-0.0003778705,-0.0033832947,-0.004823949,-0.050419055,4997,5725,0
552290212,552290060,4259850,4325386,0.00066717196,-0.00065188966,-0.0004243336,-0.0029648512,-0.01245719,-0.04297627,5245,4907,0
552793616,552793476,4259850,4325386,-0.00039260034,-0.0004929905,-0.0006828513,0.0029879925,-0.0014523681,-0.037752606,4987,4771,0
553291932,553291778,4259850,4325386,-0.000689999,0.00020754643,0.0009702509,-0.00553134,0.017678127,-0.04909563,4974,4916,0
553796061,553795371,4259850,4325386,0.00021012477,0.00020053181,8.058412e-05,-0.0020029338,-0.010641403,-0.053020336,4990,5955,0
554294181,554294071,4259850,4325386,-0.0002648664,0.0015608189,-0.00042336326,0.0032896877,-0.008571033,-0.046358466,4988,4915,0
554792950,554792773,4259850,4325386,-0.0013218868,0.0012292712,0.0012557878,-0.0070714257,0.017963285,-0.05365941,4957,4914,0
555296614,555296504,4259850,4325386,0.00019544586,-0.001183279,-0.0003156067,-0.008749303,0.003407213,-0.042995755,5030,4914,0
555790574,555790428,4259850,4325386,0.00010400084,0.00023648315,-0.00010665698,-0.0033126192,-0.017407645,-0.04780553,5232,4916,0
556293980,556293864,4259850,4325386,-4.137099e-05,-2.8212773e-06,0.0003411946,-0.003414507,0.0010252772,-0.04368031,4987,4935,0
556792679,556792566,4259850,4325386,-0.0013293559,0.00045401035,0.0015547782,-0.005454757,0.018363709,-0.051956236,4987,4767,0
557291497,557291382,4259850,4325386,0.00021919288,-0.00064544973,-0.0004770772,-0.008813979,-0.014635432,-0.04613527,4974,4780,0
557795339,557795160,4259850,4325386,0.00031041243,-2.800375e-05,-0.00034075495,-0.0020379396,-0.003004052,-0.04682293,4983,4974,0
558293280,558293160,4259850,4325386,5.8383335e-05,0.00048769807,0.00042671376,-0.0004977447,-0.019204842,-0.033977732,4985,3779,0
558796472,558796350,4259850,4325386,-0.00014369625,-0.000792586,-0.00061640184,-0.004044004,-0.0049866075,-0.045227308,4987,4918,0
559290231,559290077,4259850,4325386,0.00058298087,-0.00029670927,-0.0011196996,0.0019127285,-0.0107796285,-0.04505708,4987,4914,0
559794060,559793866,4259850,4325386,-0.00041096617,-0.00022777684,0.00091820897,-0.004886203,0.010636555,-0.04777304,4981,4910,0
560292713,560292571,4259850,4325386,0.0011727192,-0.00057282625,0.0005056478,0.01392363,-0.004598059,-0.044214226,4976,4968,0
560791345,560791160,4259850,4325386,0.0011293646,-0.0010123261,-0.0015045166,-0.0078707235,-0.008965385,-0.048112202,4950,4917,0
561294956,561294846,4259850,4325386,0.0019304679,-0.0010583727,0.0005143392,-0.0020057485,0.018413339,-0.056162745,4987,4935,0
561794951,561793550,4259850,4325386,0.000386996,-0.00044184492,-0.00052012556,0.0032176098,-0.013295097,-0.04891997,4988,5840,0
562297351,562297237,4259850,4325386,-1.0502002e-05,0.00035029795,0.0003226237,0.0010409772,0.013289941,-0.04823273,4989,4949,0
562791378,562791230,4259850,4325386,0.00012462004,-0.0002614869,-0.0009514569,0.0018777385,-0.004567524,-0.03924507,5008,4617,0
563294808,563294641,4259850,4325386,-0.0013704175,-8.479716e-05,-0.0002066674,-0.0023373852,-0.003952937,-0.050513275,4986,5710,0
563793454,563793343,4259850,4325386,0.0004561128,-0.0008630246,-0.0015024084,-0.0022482036,-0.019373218,-0.044911545,4983,4923,0
564297173,564297050,4259850,4325386,-4.7328413e-06,-0.00014625602,-0.000740716,-0.0029067304,-0.0043366537,-0.045729227,4988,4917,0
564796082,564795943,4259850,4325386,0.00045513705,2.515983e-05,0.0011549707,-0.010107397,5.23458e-05,-0.049831633,4992,4915,0
565294098,565293985,4259850,4325386,-0.00023165271,-0.00018978417,0.001367757,-0.010292522,0.0077496604,-0.04689049,4984,4954,0
565797281,565797127,4259850,4325386,-0.00039511835,-0.00018528097,-0.0003993747,0.00024154369,-0.0012370067,-0.044621672,4987,4788,0
566290998,566290885,4259850,4325386,-0.0007888542,0.0010121103,0.001268361,-0.005524838,0.017250765,-0.05506072,4990,4988,0
566794742,566794630,4259850,4325386,0.00042400428,-0.00014196204,-0.00067263393,0.003136611,-0.01004818,-0.044847306,4991,4971,0
567293401,567293252,4259850,4325386,-0.0002405073,-0.00068965036,-0.0006796582,-0.00884205,-0.026757851,-0.04997649,4959,4915,0
567797060,567796927,4259850,4325386,0.00073550234,-0.0008913557,-0.0003229192,-0.0050965296,-0.003924808,-0.050846513,4992,4968,0
568295735,568295623,4259850,4325386,-0.00022671346,-0.0007113604,0.00010836104,-0.0072999746,0.00677567,-0.055261586,4948,4916,0
568794496,568794325,4259850,4325386,0.0010877384,-0.0003514497,-0.00059034,-0.005857026,-0.015623988,-0.051268965,4984,4916,0
569293136,569293027,4259850,4325386,-2.4896413e-05,0.00011215241,9.8830176e-05,-0.012312059,0.008155757,-0.055214424,4986,4961,0
569791344,569791235,4259850,4325386,-1.3905009e-05,-0.0008006374,-0.0001646471,-0.011079226,-0.013607922,-0.047165964,4992,4942,0
570290175,570290028,4259850,4325386,-0.00092764467,7.6158867e-06,0.00017015924,-0.0037906521,-0.0009126855,-0.042962357,4993,4965,0
570793235,570793123,4259850,4325386,0.00020037293,-0.00061518216,-0.0013748747,-0.0061047627,-0.0135753825,-0.04645502,4987,4915,0
571291938,571291826,4259850,4325386,0.0003960885,-0.0009215499,-0.00182606,-0.0073766694,-0.0143304225,-0.04655548,4988,4914,0
571795626,571795513,4259850,4325386,-0.0012659827,-8.162632e-05,-0.0013027502,-0.018152853,0.015124339,-0.059845813,4993,4982,0
572294458,572294313,4259850,4325386,-0.00036436194,0.0005922314,-0.00028460348,0.00043356445,0.019481285,-0.056458786,4938,4941,0
572798118,572797909,4259850,4325386,0.0006549013,-0.0006062698,-0.0012703257,-0.003922135,-0.004453831,-0.041601427,4993,4917,0
573291851,573291619,4259850,4325386,-0.0003763939,7.768876e-06,-0.0022637064,-0.0015454418,-0.0006110581,-0.045000546,4992,4980,0
573795562,573795417,4259850,4325386,0.0001473631,0.00039870446,-0.0032872441,-0.005342572,0.0037092345,-0.049119093,5008,4918,0
574294614,574294507,4259850,4325386,0.00013517046,-7.793428e-06,-0.0023375703,-0.0035507,-0.00056038494,-0.049712062,4987,4967,0
574793389,574793210,4259850,4325386,5.7310564e-05,0.0006445513,0.0009592091,-0.0028811698,0.013223216,-0.06151342,4993,4929,0
575292281,575292103,4259850,4325386,0.00018608183,0.00013635778,0.0007981965,0.008102262,0.007649907,-0.035214778,4941,4751,0
575797014,575796100,4259850,4325386,0.0011534807,-0.0005482416,0.00054826564,-0.00087164016,0.01000392,-0.049166083,4987,5720,0
576295136,576294965,4259850,4325386,-0.0007972851,-0.00069287623,-0.00021454375,0.001086067,0.010650692,-0.046420913,5027,4920,0
576794236,576793006,4259850,4325386,0.0005053267,-0.0004833441,-0.001541061,-0.0007561126,-0.030124739,-0.05545762,4990,4948,0
577291816,577291706,4259850,4325386,-0.0006863407,0.0008365197,0.001045408,-0.010599241,-0.003351207,-0.05233136,4987,4916,0
577795771,577795599,4259850,4325386,0.000427511,0.0007712878,-0.00020778977,0.0060449573,0.012861741,-0.045416467,4974,4915,0
578294272,578294095,4259850,4325386,7.674142e-05,8.1876104e-05,-0.00196104,0.010545297,0.00026120414,-0.03612564,4985,5528,0
578792925,578792799,4259850,4325386,-0.0005156836,-0.001135634,0.00027400217,-0.00012546967,0.0031780363,-0.052126847,4989,4982,0
579296604,579296486,4259850,4325386,0.00034598203,-8.739764e-05,-0.00045890512,-0.0024763118,-0.015888108,-0.051088326,4988,4794,0
579795415,579795283,4259850,4325386,-0.0004850983,0.0016043935,0.0009293376,0.0011872961,0.0077429404,-0.05490743,4964,4990,0
580294030,580293889,4259850,4325386,0.0011184118,-0.00011013635,-0.00018388926,-0.00067092205,-0.016406959,-0.04698311,4983,4981,0
580792705,580792592,4259850,4325386,-0.0006007397,0.00015478792,0.00081499293,-0.0024221714,-0.00040256794,-0.045226615,4988,4916,0
581291915,581291795,4259850,4325386,-0.00036450548,-0.00024136362,-0.00081536866,-0.0064733922,-0.008645359,-0.0499276,4987,4914,0
581795595,581795480,4259850,4325386,0.00034672732,-0.0005180009,-0.001077412,-0.0010690972,-0.0074152737,-0.04267852,4987,4947,0
582294320,582294182,4259850,4325386,4.2791802e-05,0.00012531005,0.00031230593,-0.0033669223,0.013457973,-0.04661106,4982,4990,0
582793041,582792930,4259850,4325386,0.00027752403,0.0002495694,-0.0006468866,0.0028066623,0.007081444,-0.047544714,4957,4915,0
583296739,583296572,4259850,4325386,-0.0004988348,-2.9125795e-05,0.00015447052,-0.0061279447,-0.0030510437,-0.05830752,4987,5888,0
583790398,583790287,4259850,4325386,-0.00044090263,-0.00034623625,0.00064584956,-0.0014949968,0.0032427083,-0.048613902,4981,4962,0
584294208,584294095,4259850,4325386,0.00041536722,-0.0009393615,-0.00034145455,-0.0014688565,-0.0019171727,-0.059573907,4994,4985,0
584793069,584792854,4259850,4325386,-0.00076409505,0.00097114255,0.001224064,-0.0058341385,0.010322839,-0.056917533,4989,4995,0
585291758,585291600,4259850,4325386,-0.00084096496,-0.00013705673,-0.0011042701,-0.0051995656,-0.02866002,-0.047316503,4968,4916,0
585794704,585794571,4259850,4325386,0.0005270086,-0.001590428,-0.0012988794,-0.0024194717,-0.010245138,-0.04206279,4963,4753,0
586292914,586292772,4259850,4325386,-0.00022193725,0.0011184533,0.0003618981,0.0015767863,-0.0067802984,-0.04484204,4987,4916,0
586796572,586796460,4259850,4325386,-0.00064635143,0.0012733879,0.0012293077,-0.0049622636,0.024114674,-0.05305351,4987,4915,0
587290305,587290177,4259850,4325386,4.607328e-05,-0.0008841088,-0.00069949863,-0.004060022,-0.0041894093,-0.041518617,4981,4916,0
587795039,587794909,4259850,4325386,-0.00088896626,-0.00017058663,5.7111152e-05,-0.00044631495,0.01225401,-0.05030117,5035,4921,0
588293671,588293563,4259850,4325386,-0.00038498698,0.00046169167,0.0011614811,-0.0066256383,0.020764094,-0.053431492,4987,4913,0
588792390,588792277,4259850,4325386,-8.720249e-06,0.00035675432,0.0010707262,-0.010028015,0.0094216075,-0.0510007,5000,4914,0
589296240,589296120,4259850,4325386,0.0005637964,-0.0005800748,6.587157e-05,0.003735871,-0.0009571863,-0.048983485,5008,4917,0
589795093,589794910,4259850,4325386,0.00015262396,-0.0005255047,0.00092217117,-0.006515118,0.01600662,-0.053894818,4951,4953,0
590293553,590293442,4259850,4325386,-8.9656816e-05,-0.0005028647,-0.0003755641,-0.003685472,0.011070996,-0.044444945,4932,4908,0
590792361,590792250,4259850,4325386,-0.000106982225,0.0006514802,-0.00041270538,-0.008321611,-0.0044651893,-0.048609518,4986,4964,0
591291105,591290761,4259850,4325386,-0.00010195947,0.00027928752,2.9266479e-05,-0.0043933834,0.0013044629,-0.055819094,4987,4914,0
591794721,591794577,4259850,4325386,-0.0007128596,0.0005207281,0.00025516038,0.0033797335,-0.01266626,-0.04472279,4963,4920,0
592292537,592292395,4259850,4325386,-0.00038099263,0.00034323984,0.00018853895,0.0056931013,0.008193646,-0.05118095,4976,4976,0
592795959,592795841,4259850,4325386,-0.0004027978,-0.00023314513,0.0004284896,-0.002245819,-0.004516471,-0.03997165,4983,4914,0
593294654,593294543,4259850,4325386,0.00020659658,0.0005113379,0.0010002465,-0.0028340954,0.011321978,-0.049937207,4987,4983,0
593794450,593794274,4259850,4325386,0.00029271565,-0.0001763485,-0.00032155053,0.0012694258,-0.00804131,-0.041618217,4974,4738,0
594293083,594292951,4259850,4325386,-0.0013581319,0.000738407,-0.00016654421,-0.00060608453,0.00887194,-0.046847694,4995,4797,0
594791757,594791645,4259850,4325386,-0.00023372727,0.00023210917,7.544764e-05,0.00021049415,0.019730257,-0.04804723,4984,4991,0
595295094,595294951,4259850,4325386,-0.0001837103,0.00011474897,-0.00011034896,-0.0018442507,0.0072381883,-0.046602905,4968,4919,0
595793724,595793586,4259850,4325386,-0.00027894168,-0.0008608874,0.00037675124,-0.003123155,-0.0090141315,-0.04857558,5037,4910,0
596292349,596292238,4259850,4325386,-0.0012268216,0.0003797256,9.0677124e-05,-0.0070298933,0.0019869339,-0.04473789,4986,4501,0
596796043,596795927,4259850,4325386,0.00036708184,0.0023522442,0.0009778141,-0.00975734,0.011963391,-0.053119257,4987,4901,0
597294758,597294644,4259850,4325386,-0.00018652483,0.001249292,0.0005940598,0.0074602272,0.0017474153,-0.05487616,4973,4994,0
597793221,597793011,4259850,4325386,0.0014887656,-0.00061798404,-0.00015882017,-0.007517116,0.0015663444,-0.051163394,4990,5001,0
598291685,598291535,4259850,4325386,-0.0005877356,0.00022342146,0.00039527062,0.0036077683,-0.0029854495,-0.044870842,4987,4928,0
598795502,598795374,4259850,4325386,0.0010660689,-0.00015055416,-0.00011387345,-0.003918915,0.005672087,-0.044025637,5022,4915,0
599293464,599293262,4259850,4325386,0.0002669386,-8.241706e-05,0.00036854605,-0.00916176,-0.0055352836,-0.05234768,4972,4970,0
599791831,599791679,4259850,4325386,-0.00015459089,0.0006922122,0.00017584789,-0.00306489,0.009108696,-0.05203884,4991,4913,0
600295474,600295364,4259850,4325386,-0.0023050192,0.00035922707,-0.0006933868,0.00019872507,-0.00439524,-0.0529235,4987,4913,0
600794525,600794067,4259850,4325386,-0.00031426022,-0.0009653328,-0.00080443925,-0.005049704,-0.0043380223,-0.04300704,4987,4963,0
601292896,601292787,4259850,4325386,-0.00014918567,-0.0005457129,-0.00010138801,0.0019659651,-0.013338023,-0.0399724,4953,4953,0
601791116,601790999,4259850,4325386,-0.00021641905,0.00047776356,0.00022016808,3.713986e-05,-0.005855626,-0.044352494,4998,4991,0
602294910,602294793,4259850,4325386,-0.00025517392,-0.00010836183,0.00046711354,-0.008497939,-0.0034288736,-0.05263457,5029,4918,0
602793582,602793434,4259850,4325386,-5.178522e-05,0.00020879183,0.0011674033,-0.018035516,0.01451228,-0.05625109,4968,4915,0
603297228,603297004,4259850,4325386,0.0010484476,0.0001452913,-0.00039164114,-0.0013707614,0.008219202,-0.052763063,4991,4915,0
603795332,603795220,4259850,4325386,-0.0006717353,5.633577e-05,-0.0007529731,-0.0022114096,-0.0107430555,-0.043831684,4974,4982,0
604294294,604294143,4259850,4325386,0.00072472065,9.349935e-05,-0.0022373127,0.0068680295,-0.0075920215,-0.0433063,4981,4726,0
604792713,604792606,4259850,4325386,-0.000100622434,0.00043256846,-0.00093344564,-0.0010103966,0.0039361594,-0.04813354,4984,4981,0
605291941,605291807,4259850,4325386,0.0003986592,0.0006738645,-0.0021927808,-0.0014964083,0.0024249314,-0.051522203,4981,4917,0
605795649,605795502,4259850,4325386,-0.0005404399,-0.000104202954,-0.0025852998,-0.0026948613,0.0025170867,-0.04796755,4994,4878,0
606293947,606293797,4259850,4325386,0.0003275843,0.000102651065,-0.0027153138,0.0017892871,-0.0006723575,-0.04186865,4957,4915,0
606798824,606797391,4259850,4325386,-9.868234e-05,-0.0005185761,-0.0028549333,-0.0032690354,-0.018564025,-0.06309097,4989,6137,0
607296201,607296088,4259850,4325386,-0.00041564868,4.404335e-05,-0.00088032754,-0.0015231605,0.014166256,-0.0559343,4956,4915,0
607795768,607794793,4259850,4325386,-0.00028585718,0.0003821195,0.00049006223,-0.0077277524,-0.0013654353,-0.056158222,4988,5777,0
608293607,608293492,4259850,4325386,-0.00038111053,0.001121741,0.00035132738,0.010145994,0.015961383,-0.051627923,4980,4990,0
608792649,608792492,4259850,4325386,-0.00036272247,0.0003262332,-0.0002476426,0.005011437,-0.004388457,-0.05695074,5286,5845,0
609291004,609290895,4259850,4325386,0.0003988295,-0.001167944,-0.0005397469,0.003579356,-0.01330285,-0.037760336,4986,4990,0
609794692,609794583,4259850,4325386,-0.0005578406,0.00021978635,0.0012526326,-0.004273081,-0.0016636497,-0.052267384,4987,4914,0
610293521,610293363,4259850,4325386,0.00014789561,0.0003474639,0.00076833623,-0.0076057417,0.016198136,-0.055098347,4923,4914,0
610797402,610797177,4259850,4325386,0.0006449851,-0.0009607169,-0.0012933243,-0.0018495406,-0.02542217,-0.046516743,4994,4998,0
611295073,611294856,4259850,4325386,-0.0005357653,-7.055368e-05,-0.00019090174,-0.0015356148,-0.0016178681,-0.053821128,4971,5899,0
611793531,611793379,4259850,4325386,-2.9140758e-05,0.000687409,0.000387098,0.005640359,0.017342838,-0.048337005,4987,4936,0
612292198,612292084,4259850,4325386,-0.00051271706,0.00047891162,0.00039375632,-0.006755749,0.009171252,-0.053904243,4931,4723,0
