timestamp,q[0],q[1],q[2],q[3],delta_q_reset[0],delta_q_reset[1],delta_q_reset[2],delta_q_reset[3],quat_reset_counter
382791713,0.66961837,-0.0006220465,-0.020731395,-0.7424157,0.9999482,-8.0382534e-10,-4.3538806e-10,-0.010176716,4
382796695,0.6696313,-0.00065025565,-0.020699296,-0.74240494,0.9999482,-8.0382534e-10,-4.3538806e-10,-0.010176716,4
382841372,0.66950035,-0.0005962781,-0.020755103,-0.7425216,0.9999482,-8.0382534e-10,-4.3538806e-10,-0.010176716,4
382891101,0.6698712,-0.00054994883,-0.02066815,-0.7421894,0.9999482,-8.0382534e-10,-4.3538806e-10,-0.010176716,4
382945630,0.6695835,-0.0005316616,-0.020749526,-0.7424468,0.9999482,-8.0382534e-10,-4.3538806e-10,-0.010176716,4
382995281,0.669725,-0.0005253118,-0.020959638,-0.74231327,0.9999482,-8.0382534e-10,-4.3538806e-10,-0.010176716,4
383039967,0.6698535,-0.00041710315,-0.020876037,-0.7421997,0.9999482,-8.0382534e-10,-4.3538806e-10,-0.010176716,4
383094583,0.6698975,-0.00044843263,-0.020777695,-0.74216276,0.9999482,-8.0382534e-10,-4.3538806e-10,-0.010176716,4
383144285,0.6695937,-0.0006776313,-0.020464847,-0.7424453,0.9999482,-8.0382534e-10,-4.3538806e-10,-0.010176716,4
383193885,0.6700446,-0.00020551628,-0.020863323,-0.7420276,0.9999482,-8.0382534e-10,-4.3538806e-10,-0.010176716,4
383243536,0.6699977,-0.00067446445,-0.020520419,-0.74207926,0.9999482,-8.0382534e-10,-4.3538806e-10,-0.010176716,4
383293187,0.66990113,-0.00035034554,-0.020660987,-0.74216276,0.9999482,-8.0382534e-10,-4.3538806e-10,-0.010176716,4
383342838,0.670238,-0.0004206382,-0.020739214,-0.7418563,0.9999482,-8.0382534e-10,-4.3538806e-10,-0.010176716,4
383392490,0.67015725,-0.00044813592,-0.02060989,-0.74193287,0.9999482,-8.0382534e-10,-4.3538806e-10,-0.010176716,4
383442249,0.67025006,-0.00037982647,-0.020749507,-0.74184513,0.9999482,-8.0382534e-10,-4.3538806e-10,-0.010176716,4
383491791,0.67039293,-0.00053441076,-0.02050165,-0.7417229,0.9999482,-8.0382534e-10,-4.3538806e-10,-0.010176716,4
383541444,0.67042017,-0.0003323465,-0.020771291,-0.7416909,0.9999482,-8.0382534e-10,-4.3538806e-10,-0.010176716,4
383591138,0.6705491,-0.00036405333,-0.02073742,-0.74157524,0.9999482,-8.0382534e-10,-4.3538806e-10,-0.010176716,4
383645710,0.6707294,-0.0005418762,-0.020615082,-0.7414155,0.9999482,-8.0382534e-10,-4.3538806e-10,-0.010176716,4
383695396,0.67068887,-0.000417782,-0.020585995,-0.74145305,0.9999482,-8.0382534e-10,-4.3538806e-10,-0.010176716,4
383740046,0.67072636,-0.0003139312,-0.020893414,-0.74141055,0.9999482,-8.0382534e-10,-4.3538806e-10,-0.010176716,4
383794664,0.67090076,-0.00035649008,-0.020879524,-0.74125314,0.9999482,-8.0382534e-10,-4.3538806e-10,-0.010176716,4
383844314,0.6709533,-0.00057124486,-0.020497356,-0.74121606,0.9999482,-8.0382534e-10,-4.3538806e-10,-0.010176716,4
383893964,0.67093265,-0.0002789512,-0.020707855,-0.74122906,0.9999482,-8.0382534e-10,-4.3538806e-10,-0.010176716,4
383943618,0.67110634,-0.00049149414,-0.020683127,-0.7410724,0.9999482,-8.0382534e-10,-4.3538806e-10,-0.010176716,4
383993451,0.6711745,-0.00053356634,-0.020684019,-0.74101055,0.9999482,-8.0382534e-10,-4.3538806e-10,-0.010176716,4
384042918,0.67107296,-0.00030835197,-0.020698126,-0.74110234,0.9999482,-8.0382534e-10,-4.3538806e-10,-0.010176716,4
384092569,0.6713566,-0.00028599243,-0.020601366,-0.740848,0.9999482,-8.0382534e-10,-4.3538806e-10,-0.010176716,4
384142220,0.6714536,-0.00058584614,-0.020410432,-0.74076533,0.9999482,-8.0382534e-10,-4.3538806e-10,-0.010176716,4
384191870,0.67124504,-0.00042316815,-0.020784894,-0.74094397,0.9999482,-8.0382534e-10,-4.3538806e-10,-0.010176716,4
384241600,0.67144763,-0.0002094878,-0.020668263,-0.7407637,0.9999482,-8.0382534e-10,-4.3538806e-10,-0.010176716,4
384291172,0.67173165,-0.00046940957,-0.020426616,-0.7405128,0.9999482,-8.0382534e-10,-4.3538806e-10,-0.010176716,4
384345789,0.67175996,-0.0004739215,-0.02038811,-0.7404881,0.9999482,-8.0382534e-10,-4.3538806e-10,-0.010176716,4
384395440,0.6716272,-0.00033104204,-0.020658359,-0.7406011,0.9999482,-8.0382534e-10,-4.3538806e-10,-0.010176716,4
384440126,0.67186874,-0.00032352365,-0.020736407,-0.7403799,0.9999482,-8.0382534e-10,-4.3538806e-10,-0.010176716,4
384494745,0.67198735,-0.000345826,-0.020686004,-0.7402736,0.9999482,-8.0382534e-10,-4.3538806e-10,-0.010176716,4
384544393,0.6720123,-0.0002883042,-0.020399999,-0.74025893,0.9999482,-8.0382534e-10,-4.3538806e-10,-0.010176716,4
384594061,0.6719148,-0.00014393292,-0.02049307,-0.74034494,0.9999482,-8.0382534e-10,-4.3538806e-10,-0.010176716,4
384643696,0.67191064,-0.00017738364,-0.020499073,-0.7403485,0.9999482,-8.0382534e-10,-4.3538806e-10,-0.010176716,4
384693348,0.671968,-0.00012077334,-0.02047194,-0.74029726,0.9999482,-8.0382534e-10,-4.3538806e-10,-0.010176716,4
384742997,0.6721449,-3.243062e-05,-0.020523528,-0.74013525,0.9999482,-8.0382534e-10,-4.3538806e-10,-0.010176716,4
384792790,0.6722993,-9.5314235e-06,-0.020486252,-0.7399959,0.9999482,-8.0382534e-10,-4.3538806e-10,-0.010176716,4
384842298,0.6723496,2.4388934e-05,-0.020599594,-0.7399472,0.9999482,-8.0382534e-10,-4.3538806e-10,-0.010176716,4
384891950,0.67238045,0.00013005367,-0.02068975,-0.73991656,0.9999482,-8.0382534e-10,-4.3538806e-10,-0.010176716,4
384941601,0.67239076,0.00018587062,-0.020745225,-0.7399056,0.9999482,-8.0382534e-10,-4.3538806e-10,-0.010176716,4
384991263,0.67241085,0.0002922168,-0.020705463,-0.7398885,0.9999482,-8.0382534e-10,-4.3538806e-10,-0.010176716,4
385045989,0.6724991,-0.00059352146,-0.020199424,-0.7398221,0.9999482,-8.0382534e-10,-4.3538806e-10,-0.010176716,4
385095519,0.6726173,-0.0007196481,-0.020140816,-0.7397161,0.9999482,-8.0382534e-10,-4.3538806e-10,-0.010176716,4
385140206,0.67270494,-2.528316e-06,-0.02018699,-0.73963547,0.9999482,-8.0382534e-10,-4.3538806e-10,-0.010176716,4
385194821,0.6728931,-0.0009864786,-0.019790493,-0.73947436,0.9999482,-8.0382534e-10,-4.3538806e-10,-0.010176716,4
385244472,0.67304164,-0.0010065512,-0.0198106,-0.73933864,0.9999482,-8.0382534e-10,-4.3538806e-10,-0.010176716,4
385294123,0.6731378,-0.00087429973,-0.019552227,-0.7392581,0.9999482,-8.0382534e-10,-4.3538806e-10,-0.010176716,4
385343777,0.6727523,-0.0001856311,-0.020534547,-0.7395828,0.9999482,-8.0382534e-10,-4.3538806e-10,-0.010176716,4
385393425,0.67304826,-0.00025896425,-0.019812727,-0.7393331,0.9999482,-8.0382534e-10,-4.3538806e-10,-0.010176716,4
385443076,0.67325246,-0.00043646505,-0.019109055,-0.7391656,0.9999482,-8.0382534e-10,-4.3538806e-10,-0.010176716,4
385492727,0.6731422,-0.00027445785,-0.019370776,-0.7392593,0.9999482,-8.0382534e-10,-4.3538806e-10,-0.010176716,4
385542378,0.67318386,-0.00027273994,-0.019868536,-0.7392082,0.9999482,-8.0382534e-10,-4.3538806e-10,-0.010176716,4
385592128,0.67313755,8.0396705e-05,-0.020101791,-0.7392441,0.9999482,-8.0382534e-10,-4.3538806e-10,-0.010176716,4
385641680,0.67315453,0.00035221677,-0.019936547,-0.7392331,0.9999482,-8.0382534e-10,-4.3538806e-10,-0.010176716,4
385691331,0.6731777,-0.00027404932,-0.01978988,-0.73921585,0.9999482,-8.0382534e-10,-4.3538806e-10,-0.010176716,4
385745947,0.67342246,4.3433294e-05,-0.019879779,-0.73899055,0.9999482,-8.0382534e-10,-4.3538806e-10,-0.010176716,4
385795602,0.67336833,-0.0002718713,-0.019562049,-0.73904836,0.9999482,-8.0382534e-10,-4.3538806e-10,-0.010176716,4
385840294,0.6732183,6.8583795e-05,-0.02016491,-0.73916876,0.9999482,-8.0382534e-10,-4.3538806e-10,-0.010176716,4
385894901,0.67343175,0.00039834183,-0.01990544,-0.7389813,0.9999482,-8.0382534e-10,-4.3538806e-10,-0.010176716,4
385944553,0.6733221,2.7935404e-05,-0.01989767,-0.73908156,0.9999482,-8.0382534e-10,-4.3538806e-10,-0.010176716,4
385994203,0.67327464,8.037818e-06,-0.019290825,-0.7391408,0.9999482,-8.0382534e-10,-4.3538806e-10,-0.010176716,4
386043855,0.67326677,0.0006504602,-0.019633016,-0.73913866,0.9999482,-8.0382534e-10,-4.3538806e-10,-0.010176716,4
386093506,0.67282873,-0.00021355512,-0.019262897,-0.7395475,0.9999482,-8.0382534e-10,-4.3538806e-10,-0.010176716,4
386143323,0.6728432,0.0005520732,-0.018512275,-0.7395533,0.9999482,-8.0382534e-10,-4.3538806e-10,-0.010176716,4
386192810,0.6730674,0.00041517016,-0.019087669,-0.7393347,0.9999482,-8.0382534e-10,-4.3538806e-10,-0.010176716,4
386242457,0.67302996,0.0005194183,-0.018600192,-0.73938113,0.9999482,-8.0382534e-10,-4.3538806e-10,-0.010176716,4
386292108,0.67308515,0.0002768729,-0.018673364,-0.73932916,0.9999482,-8.0382534e-10,-4.3538806e-10,-0.010176716,4
386341768,0.6729497,0.00064301596,-0.019289851,-0.7394365,0.9999482,-8.0382534e-10,-4.3538806e-10,-0.010176716,4
386391529,0.67284894,0.00065138884,-0.018180318,-0.7395562,0.9999482,-8.0382534e-10,-4.3538806e-10,-0.010176716,4
386446028,0.6730346,0.0013830563,-0.016383003,-0.73942834,0.9999482,-8.0382534e-10,-4.3538806e-10,-0.010176716,4
386490712,0.67367893,0.00037415876,-0.016049389,-0.7388498,0.9999482,-8.0382534e-10,-4.3538806e-10,-0.010176716,4
386540364,0.67391354,0.0010115867,-0.015465044,-0.73864776,0.9999482,-8.0382534e-10,-4.3538806e-10,-0.010176716,4
386594979,0.67367953,0.00090047426,-0.015533373,-0.73885983,0.9999482,-8.0382534e-10,-4.3538806e-10,-0.010176716,4
386644635,0.67380416,0.0012198228,-0.013880085,-0.7387786,0.9999482,-8.0382534e-10,-4.3538806e-10,-0.010176716,4
386694282,0.6740377,0.0011850636,-0.0129755335,-0.7385821,0.9999482,-8.0382534e-10,-4.3538806e-10,-0.010176716,4
386743937,0.6743436,0.0015922541,-0.012813096,-0.73830485,0.9999482,-8.0382534e-10,-4.3538806e-10,-0.010176716,4
386793584,0.6749603,0.0016126328,-0.012383824,-0.7377484,0.9999482,-8.0382534e-10,-4.3538806e-10,-0.010176716,4
386843276,0.6755103,0.0015504799,-0.0107824,-0.7372702,0.9999482,-8.0382534e-10,-4.3538806e-10,-0.010176716,4
386892886,0.6754756,0.00296073,-0.010060097,-0.73730785,0.9999482,-8.0382534e-10,-4.3538806e-10,-0.010176716,4
386942711,0.67584467,0.0044405176,-0.008989983,-0.7369759,0.9999482,-8.0382534e-10,-4.3538806e-10,-0.010176716,4
386992188,0.6758623,0.0046793753,-0.0077928845,-0.7369719,0.9999482,-8.0382534e-10,-4.3538806e-10,-0.010176716,4
387041880,0.6760778,0.004964941,-0.007975283,-0.73677045,0.9999482,-8.0382534e-10,-4.3538806e-10,-0.010176716,4
387091531,0.6763815,0.005582171,-0.007685039,-0.7364902,0.9999482,-8.0382534e-10,-4.3538806e-10,-0.010176716,4
387146108,0.67603105,0.005736148,-0.006202956,-0.73682475,0.9999482,-8.0382534e-10,-4.3538806e-10,-0.010176716,4
387190820,0.6759495,0.006901367,-0.004804131,-0.7369,0.9999482,-8.0382534e-10,-4.3538806e-10,-0.010176716,4
387240468,0.6761982,0.007900709,-0.003640658,-0.73666847,0.9999482,-8.0382534e-10,-4.3538806e-10,-0.010176716,4
387295059,0.675757,0.007649518,-0.0043746815,-0.7370718,0.9999482,-8.0382534e-10,-4.3538806e-10,-0.010176716,4
387344710,0.67550004,0.006830729,-0.00567665,-0.73730654,0.9999482,-8.0382534e-10,-4.3538806e-10,-0.010176716,4
387394361,0.6749536,0.006584456,-0.0051964764,-0.7378126,0.9999482,-8.0382534e-10,-4.3538806e-10,-0.010176716,4
387444012,0.67484075,0.007521637,-0.005350744,-0.7379057,0.9999482,-8.0382534e-10,-4.3538806e-10,-0.010176716,4
387493851,0.6743618,0.0071769585,-0.0036293427,-0.7383573,0.9999482,-8.0382534e-10,-4.3538806e-10,-0.010176716,4
387543355,0.67423356,0.008256512,-0.00501174,-0.7384551,0.9999482,-8.0382534e-10,-4.3538806e-10,-0.010176716,4
387592965,0.6740986,0.008207888,-0.005047204,-0.73857856,0.9999482,-8.0382534e-10,-4.3538806e-10,-0.010176716,4
387642616,0.6739748,0.0083661545,-0.0053756884,-0.73868746,0.9999482,-8.0382534e-10,-4.3538806e-10,-0.010176716,4
387692268,0.67390996,0.009633319,-0.0068152123,-0.7387193,0.9999482,-8.0382534e-10,-4.3538806e-10,-0.010176716,4
387742090,0.674053,0.010649989,-0.0056741624,-0.7385844,0.9999482,-8.0382534e-10,-4.3538806e-10,-0.010176716,4
387791570,0.67429376,0.009349464,-0.0051593604,-0.7383861,0.9999482,-8.0382534e-10,-4.3538806e-10,-0.010176716,4
387846187,0.6745515,0.0063750604,-0.00749583,-0.73816234,0.9999482,-8.0382534e-10,-4.3538806e-10,-0.010176716,4
387890871,0.67486435,0.0073916772,-0.009050808,-0.73784935,0.9999482,-8.0382534e-10,-4.3538806e-10,-0.010176716,4
387940522,0.67563665,0.0046905917,-0.0089700725,-0.73716533,0.9999482,-8.0382534e-10,-4.3538806e-10,-0.010176716,4
387995156,0.67696166,0.0015003077,-0.004573041,-0.7360026,0.9999482,-8.0382534e-10,-4.3538806e-10,-0.010176716,4
388044789,0.6783996,0.00078596646,-0.007480105,-0.73465466,0.9999482,-8.0382534e-10,-4.3538806e-10,-0.010176716,4
388094440,0.68002963,-0.00063695386,-0.015154128,-0.73302776,0.9999482,-8.0382534e-10,-4.3538806e-10,-0.010176716,4
388144093,0.68076384,-0.0046506193,-0.022153804,-0.7321532,0.9999482,-8.0382534e-10,-4.3538806e-10,-0.010176716,4
388193742,0.6811195,-0.0067593707,-0.025461111,-0.7316982,0.9999482,-8.0382534e-10,-4.3538806e-10,-0.010176716,4
388243394,0.68159544,-0.008367151,-0.025800608,-0.73122644,0.9999482,-8.0382534e-10,-4.3538806e-10,-0.010176716,4
388293199,0.6810054,-0.009364979,-0.02577202,-0.7317648,0.9999482,-8.0382534e-10,-4.3538806e-10,-0.010176716,4
388342695,0.6801329,-0.0100252265,-0.025321882,-0.7325828,0.9999482,-8.0382534e-10,-4.3538806e-10,-0.010176716,4
388392347,0.67971176,-0.011217735,-0.023852944,-0.7330056,0.9999482,-8.0382534e-10,-4.3538806e-10,-0.010176716,4
388441999,0.6783378,-0.010626113,-0.02417875,-0.7342754,0.9999482,-8.0382534e-10,-4.3538806e-10,-0.010176716,4
388491649,0.6773747,-0.008776456,-0.025338544,-0.73514926,0.9999482,-8.0382534e-10,-4.3538806e-10,-0.010176716,4
388546383,0.6760531,-0.008575007,-0.024166865,-0.7364067,0.9999482,-8.0382534e-10,-4.3538806e-10,-0.010176716,4
388590950,0.67545044,-0.011954822,-0.023000818,-0.7369496,0.9999482,-8.0382534e-10,-4.3538806e-10,-0.010176716,4
388640601,0.6751752,-0.014919778,-0.024443781,-0.7371014,0.9999482,-8.0382534e-10,-4.3538806e-10,-0.010176716,4
388695218,0.6743866,-0.016367674,-0.029313467,-0.73761475,0.9999482,-8.0382534e-10,-4.3538806e-10,-0.010176716,4
388744868,0.67384744,-0.018216256,-0.03372982,-0.73787546,0.9999482,-8.0382534e-10,-4.3538806e-10,-0.010176716,4
388794519,0.67287034,-0.01984492,-0.035985325,-0.7386182,0.9999482,-8.0382534e-10,-4.3538806e-10,-0.010176716,4
388839394,0.67235947,-0.02003143,-0.03285104,-0.7392242,0.9999482,-8.0382534e-10,-4.3538806e-10,-0.010176716,4
388893854,0.67203885,-0.022774206,-0.028632728,-0.7396117,0.9999482,-8.0382534e-10,-4.3538806e-10,-0.010176716,4
388943474,0.6721335,-0.023101702,-0.03015703,-0.7394548,0.9999482,-8.0382534e-10,-4.3538806e-10,-0.010176716,4
388993124,0.6721778,-0.022261072,-0.03194401,-0.7393653,0.9999482,-8.0382534e-10,-4.3538806e-10,-0.010176716,4
389042775,0.6725242,-0.022766996,-0.032207616,-0.73902345,0.9999482,-8.0382534e-10,-4.3538806e-10,-0.010176716,4
389092556,0.672663,-0.023745963,-0.03214317,-0.73886913,0.9999482,-8.0382534e-10,-4.3538806e-10,-0.010176716,4
389142076,0.6730445,-0.023243533,-0.031537395,-0.7385637,0.9999482,-8.0382534e-10,-4.3538806e-10,-0.010176716,4
389191729,0.673318,-0.02273515,-0.033749558,-0.7382324,0.9999482,-8.0382534e-10,-4.3538806e-10,-0.010176716,4
389246344,0.6738648,-0.024574993,-0.03678239,-0.7375293,0.9999482,-8.0382534e-10,-4.3538806e-10,-0.010176716,4
389291030,0.6747507,-0.025519263,-0.03719806,-0.73666584,0.9999482,-8.0382534e-10,-4.3538806e-10,-0.010176716,4
389340760,0.67519456,-0.02396899,-0.032961655,-0.73651296,0.9999482,-8.0382534e-10,-4.3538806e-10,-0.010176716,4
389395297,0.6760834,-0.02048989,-0.028098002,-0.7360041,0.9999482,-8.0382534e-10,-4.3538806e-10,-0.010176716,4
389444948,0.6762443,-0.016915206,-0.027175425,-0.73598176,0.9999482,-8.0382534e-10,-4.3538806e-10,-0.010176716,4
389494599,0.6771189,-0.014593873,-0.024737302,-0.73531294,0.9999482,-8.0382534e-10,-4.3538806e-10,-0.010176716,4
389539290,0.6774484,-0.011670334,-0.02058761,-0.73518956,0.9999482,-8.0382534e-10,-4.3538806e-10,-0.010176716,4
389593904,0.67779094,-0.008375039,-0.01723177,-0.7350051,0.9999482,-8.0382534e-10,-4.3538806e-10,-0.010176716,4
389643724,0.67837787,-0.005530442,-0.015894119,-0.7345205,0.9999482,-8.0382534e-10,-4.3538806e-10,-0.010176716,4
389693203,0.67840815,-0.0037411686,-0.010970049,-0.7345938,0.9999482,-8.0382534e-10,-4.3538806e-10,-0.010176716,4
389742854,0.67898303,-0.0026999686,-0.0071816463,-0.7341139,0.9999482,-8.0382534e-10,-4.3538806e-10,-0.010176716,4
389792503,0.67897236,-0.00045359146,-0.0056907083,-0.73414165,0.9999482,-8.0382534e-10,-4.3538806e-10,-0.010176716,4
389842156,0.6796128,0.00041595628,-0.0061825057,-0.7335449,0.9999482,-8.0382534e-10,-4.3538806e-10,-0.010176716,4
389891877,0.68066317,0.00083060516,-0.0070371483,-0.73256224,0.9999482,-8.0382534e-10,-4.3538806e-10,-0.010176716,4
389946423,0.6811103,0.0031729888,-0.007119613,-0.73213935,0.9999482,-8.0382534e-10,-4.3538806e-10,-0.010176716,4
389991110,0.6812888,0.0082988,-0.006542954,-0.7319385,0.9999482,-8.0382534e-10,-4.3538806e-10,-0.010176716,4
390040760,0.681847,0.01245719,-0.008624487,-0.7313379,0.9999482,-8.0382534e-10,-4.3538806e-10,-0.010176716,4
390095376,0.6819692,0.009221234,-0.01014419,-0.7312524,0.9999482,-8.0382534e-10,-4.3538806e-10,-0.010176716,4
390145033,0.6824739,0.004570969,-0.00865749,-0.7308445,0.9999482,-8.0382534e-10,-4.3538806e-10,-0.010176716,4
390194678,0.6826067,0.001947529,-0.0065254215,-0.73075426,0.9999482,-8.0382534e-10,-4.3538806e-10,-0.010176716,4
390239393,0.6826148,0.0043940707,-0.009161655,-0.73070776,0.9999482,-8.0382534e-10,-4.3538806e-10,-0.010176716,4
390293981,0.68257743,0.010497089,-0.018192474,-0.7305114,0.9999482,-8.0382534e-10,-4.3538806e-10,-0.010176716,4
390343678,0.68206614,0.013915104,-0.0266824,-0.73067117,0.9999482,-8.0382534e-10,-4.3538806e-10,-0.010176716,4
390393282,0.6814129,0.01463688,-0.034738764,-0.7309279,0.9999482,-8.0382534e-10,-4.3538806e-10,-0.010176716,4
390443126,0.680892,0.013332575,-0.044129696,-0.7309316,0.9999482,-8.0382534e-10,-4.3538806e-10,-0.010176716,4
390492584,0.6798635,0.011729696,-0.056155242,-0.73109144,0.9999482,-8.0382534e-10,-4.3538806e-10,-0.010176716,4
390542247,0.6783172,0.0101833185,-0.0658035,-0.7317459,0.9999482,-8.0382534e-10,-4.3538806e-10,-0.010176716,4
390591886,0.6773293,0.0087909745,-0.070033945,-0.73228616,0.9999482,-8.0382534e-10,-4.3538806e-10,-0.010176716,4
390646502,0.67644215,0.0059554745,-0.069700494,-0.7331661,0.9999482,-8.0382534e-10,-4.3538806e-10,-0.010176716,4
390691281,0.6759733,0.004792318,-0.0686031,-0.73371035,0.9999482,-8.0382534e-10,-4.3538806e-10,-0.010176716,4
390740840,0.67516106,0.004547649,-0.06698639,-0.73460853,0.9999482,-8.0382534e-10,-4.3538806e-10,-0.010176716,4
390795455,0.6747565,0.0050639953,-0.066283755,-0.7350405,0.9999482,-8.0382534e-10,-4.3538806e-10,-0.010176716,4
390845106,0.6737072,0.007567409,-0.06823335,-0.7358027,0.9999482,-8.0382534e-10,-4.3538806e-10,-0.010176716,4
390894757,0.67313516,0.010178202,-0.07022919,-0.7361069,0.9999482,-8.0382534e-10,-4.3538806e-10,-0.010176716,4
390939445,0.67309344,0.010573209,-0.07168308,-0.7359994,0.9999482,-8.0382534e-10,-4.3538806e-10,-0.010176716,4
390994062,0.6737033,0.012224406,-0.07190627,-0.73539376,0.9999482,-8.0382534e-10,-4.3538806e-10,-0.010176716,4
391043710,0.67406213,0.013473123,-0.073263414,-0.734909,0.9999482,-8.0382534e-10,-4.3538806e-10,-0.010176716,4
391093361,0.674849,0.0118253,-0.07454154,-0.7340863,0.9999482,-8.0382534e-10,-4.3538806e-10,-0.010176716,4
391143012,0.67543846,0.0070958603,-0.071555614,-0.7339021,0.9999482,-8.0382534e-10,-4.3538806e-10,-0.010176716,4
391192663,0.67589813,0.0010944044,-0.06585181,-0.73404646,0.9999482,-8.0382534e-10,-4.3538806e-10,-0.010176716,4
391242411,0.6757925,-0.0010380136,-0.061475143,-0.7345231,0.9999482,-8.0382534e-10,-4.3538806e-10,-0.010176716,4
391291965,0.675716,-0.00061247725,-0.058819517,-0.7348115,0.9999482,-8.0382534e-10,-4.3538806e-10,-0.010176716,4
391346581,0.6755135,-0.0019312823,-0.055252958,-0.735272,0.9999482,-8.0382534e-10,-4.3538806e-10,-0.010176716,4
391391267,0.67530656,-0.004841929,-0.051143378,-0.73574597,0.9999482,-8.0382534e-10,-4.3538806e-10,-0.010176716,4
391440920,0.674854,-0.008150244,-0.04739776,-0.7363825,0.9999482,-8.0382534e-10,-4.3538806e-10,-0.010176716,4
391495562,0.674427,-0.010492643,-0.043405414,-0.73699,0.9999482,-8.0382534e-10,-4.3538806e-10,-0.010176716,4
391545186,0.6741339,-0.0146186445,-0.04118668,-0.737315,0.9999482,-8.0382534e-10,-4.3538806e-10,-0.010176716,4
391594837,0.6742018,-0.01786784,-0.038259115,-0.7373391,0.9999482,-8.0382534e-10,-4.3538806e-10,-0.010176716,4
391639524,0.6740937,-0.019268878,-0.03798512,-0.73741686,0.9999482,-8.0382534e-10,-4.3538806e-10,-0.010176716,4
391694140,0.6738869,-0.020209724,-0.037394684,-0.73761076,0.9999482,-8.0382534e-10,-4.3538806e-10,-0.010176716,4
391743789,0.67355865,-0.021323102,-0.035175085,-0.7379884,0.9999482,-8.0382534e-10,-4.3538806e-10,-0.010176716,4
391793595,0.6735138,-0.022051172,-0.033460323,-0.73808765,0.9999482,-8.0382534e-10,-4.3538806e-10,-0.010176716,4
391843092,0.6732546,-0.022703804,-0.031140136,-0.7384058,0.9999482,-8.0382534e-10,-4.3538806e-10,-0.010176716,4
391892742,0.6728456,-0.023897292,-0.030798804,-0.7387552,0.9999482,-8.0382534e-10,-4.3538806e-10,-0.010176716,4
391942395,0.67296773,-0.023873102,-0.030341718,-0.73866355,0.9999482,-8.0382534e-10,-4.3538806e-10,-0.010176716,4
391992044,0.6723795,-0.023770543,-0.03021141,-0.73920774,0.9999482,-8.0382534e-10,-4.3538806e-10,-0.010176716,4
392041816,0.6726638,-0.023331199,-0.030232497,-0.7389622,0.9999482,-8.0382534e-10,-4.3538806e-10,-0.010176716,4
392091346,0.67304605,-0.021669611,-0.029378707,-0.73869914,0.9999482,-8.0382534e-10,-4.3538806e-10,-0.010176716,4
392140999,0.67355496,-0.021671556,-0.029655011,-0.738224,0.9999482,-8.0382534e-10,-4.3538806e-10,-0.010176716,4
392195614,0.67448795,-0.022154514,-0.030711554,-0.7373141,0.9999482,-8.0382534e-10,-4.3538806e-10,-0.010176716,4
392245264,0.6754414,-0.021618892,-0.03013043,-0.73648065,0.9999482,-8.0382534e-10,-4.3538806e-10,-0.010176716,4
392294918,0.6763916,-0.02021817,-0.030600127,-0.7356285,0.9999482,-8.0382534e-10,-4.3538806e-10,-0.010176716,4
392339604,0.6771533,-0.018323934,-0.033041194,-0.7348714,0.9999482,-8.0382534e-10,-4.3538806e-10,-0.010176716,4
392394219,0.6780929,-0.017369803,-0.034518916,-0.73395973,0.9999482,-8.0382534e-10,-4.3538806e-10,-0.010176716,4
392443869,0.67882377,-0.017743455,-0.03413293,-0.7332928,0.9999482,-8.0382534e-10,-4.3538806e-10,-0.010176716,4
392493534,0.67971605,-0.017927006,-0.03251552,-0.73253506,0.9999482,-8.0382534e-10,-4.3538806e-10,-0.010176716,4
392543171,0.68012595,-0.017220108,-0.030873302,-0.73224247,0.9999482,-8.0382534e-10,-4.3538806e-10,-0.010176716,4
392592961,0.6802843,-0.016767181,-0.031317867,-0.73208696,0.9999482,-8.0382534e-10,-4.3538806e-10,-0.010176716,4
392642476,0.6811333,-0.016052546,-0.03199673,-0.73128384,0.9999482,-8.0382534e-10,-4.3538806e-10,-0.010176716,4
392692124,0.68113667,-0.018214855,-0.032474034,-0.7312089,0.9999482,-8.0382534e-10,-4.3538806e-10,-0.010176716,4
392741774,0.6808213,-0.02138443,-0.03654592,-0.73122466,0.9999482,-8.0382534e-10,-4.3538806e-10,-0.010176716,4
392791426,0.68135786,-0.02331372,-0.041077565,-0.730425,0.9999482,-8.0382534e-10,-4.3538806e-10,-0.010176716,4
392841116,0.68088585,-0.02465794,-0.042013656,-0.73076767,0.9999482,-8.0382534e-10,-4.3538806e-10,-0.010176716,4
392895693,0.6804438,-0.027594108,-0.038344283,-0.7312759,0.9999482,-8.0382534e-10,-4.3538806e-10,-0.010176716,4
392945344,0.6799364,-0.028482623,-0.03783739,-0.7317402,0.9999482,-8.0382534e-10,-4.3538806e-10,-0.010176716,4
392994996,0.679831,-0.028154874,-0.03966715,-0.7317538,0.9999482,-8.0382534e-10,-4.3538806e-10,-0.010176716,4
393039682,0.67923677,-0.028200544,-0.04068208,-0.73224807,0.9999482,-8.0382534e-10,-4.3538806e-10,-0.010176716,4
393094297,0.6785838,-0.03170154,-0.039338846,-0.7327834,0.9999482,-8.0382534e-10,-4.3538806e-10,-0.010176716,4
393144130,0.678153,-0.034409955,-0.039460804,-0.73305345,0.9999482,-8.0382534e-10,-4.3538806e-10,-0.010176716,4
393193599,0.6771562,-0.034271885,-0.042448938,-0.7338141,0.9999482,-8.0382534e-10,-4.3538806e-10,-0.010176716,4
393243250,0.67696124,-0.035734423,-0.04650988,-0.73367804,0.9999482,-8.0382534e-10,-4.3538806e-10,-0.010176716,4
393292903,0.6766106,-0.03919932,-0.04890077,-0.7336691,0.9999482,-8.0382534e-10,-4.3538806e-10,-0.010176716,4
393342552,0.6757763,-0.04035213,-0.04915161,-0.73435843,0.9999482,-8.0382534e-10,-4.3538806e-10,-0.010176716,4
393392333,0.67551273,-0.03864419,-0.048614457,-0.7347284,0.9999482,-8.0382534e-10,-4.3538806e-10,-0.010176716,4
393441856,0.67475444,-0.03747314,-0.047885206,-0.7355333,0.9999482,-8.0382534e-10,-4.3538806e-10,-0.010176716,4
393491505,0.67437905,-0.036912788,-0.0470508,-0.73595965,0.9999482,-8.0382534e-10,-4.3538806e-10,-0.010176716,4
393541160,0.674301,-0.03554138,-0.045090612,-0.7362214,0.9999482,-8.0382534e-10,-4.3538806e-10,-0.010176716,4
393595772,0.674428,-0.03238319,-0.04356224,-0.7363428,0.9999482,-8.0382534e-10,-4.3538806e-10,-0.010176716,4
393645505,0.67397213,-0.02978196,-0.040994454,-0.73701704,0.9999482,-8.0382534e-10,-4.3538806e-10,-0.010176716,4
393695074,0.67440933,-0.026136741,-0.038059894,-0.7369127,0.9999482,-8.0382534e-10,-4.3538806e-10,-0.010176716,4
393739760,0.6744602,-0.022571145,-0.035437,-0.7371149,0.9999482,-8.0382534e-10,-4.3538806e-10,-0.010176716,4
393794377,0.6747616,-0.018862618,-0.03147233,-0.7371232,0.9999482,-8.0382534e-10,-4.3538806e-10,-0.010176716,4
393844049,0.6747228,-0.017604902,-0.031472985,-0.7371898,0.9999482,-8.0382534e-10,-4.3538806e-10,-0.010176716,4
393893678,0.67495614,-0.016518582,-0.0328895,-0.73693943,0.9999482,-8.0382534e-10,-4.3538806e-10,-0.010176716,4
393943530,0.674148,-0.015466278,-0.03292922,-0.73769975,0.9999482,-8.0382534e-10,-4.3538806e-10,-0.010176716,4
393992980,0.67429006,-0.015660888,-0.031763773,-0.737617,0.9999482,-8.0382534e-10,-4.3538806e-10,-0.010176716,4
394042644,0.67403704,-0.016678661,-0.030484421,-0.7378799,0.9999482,-8.0382534e-10,-4.3538806e-10,-0.010176716,4
394092337,0.6737417,-0.016996669,-0.030354565,-0.7381476,0.9999482,-8.0382534e-10,-4.3538806e-10,-0.010176716,4
394141953,0.6734924,-0.017691297,-0.028867593,-0.7384184,0.9999482,-8.0382534e-10,-4.3538806e-10,-0.010176716,4
394191631,0.67288184,-0.017328758,-0.028506469,-0.73899746,0.9999482,-8.0382534e-10,-4.3538806e-10,-0.010176716,4
394241254,0.672965,-0.016954971,-0.031651765,-0.7388023,0.9999482,-8.0382534e-10,-4.3538806e-10,-0.010176716,4
394295851,0.6723327,-0.01939121,-0.0372756,-0.7390557,0.9999482,-8.0382534e-10,-4.3538806e-10,-0.010176716,4
394345503,0.67237866,-0.018295951,-0.041759465,-0.73880196,0.9999482,-8.0382534e-10,-4.3538806e-10,-0.010176716,4
394395153,0.6723704,-0.017051274,-0.043587312,-0.7387337,0.9999482,-8.0382534e-10,-4.3538806e-10,-0.010176716,4
394439845,0.6721837,-0.01813437,-0.042785745,-0.73892474,0.9999482,-8.0382534e-10,-4.3538806e-10,-0.010176716,4
394494455,0.67226565,-0.020026175,-0.041521437,-0.73887336,0.9999482,-8.0382534e-10,-4.3538806e-10,-0.010176716,4
394544106,0.67193526,-0.021043101,-0.040989578,-0.73917526,0.9999482,-8.0382534e-10,-4.3538806e-10,-0.010176716,4
394593757,0.6716653,-0.019653482,-0.04048555,-0.73948663,0.9999482,-8.0382534e-10,-4.3538806e-10,-0.010176716,4
394643408,0.67083645,-0.019484587,-0.043484416,-0.740073,0.9999482,-8.0382534e-10,-4.3538806e-10,-0.010176716,4
394693060,0.67080057,-0.020107996,-0.048455242,-0.73977995,0.9999482,-8.0382534e-10,-4.3538806e-10,-0.010176716,4
394742823,0.67051154,-0.021173531,-0.047160085,-0.7400959,0.9999482,-8.0382534e-10,-4.3538806e-10,-0.010176716,4
394792361,0.6700087,-0.02107261,-0.044007037,-0.74074805,0.9999482,-8.0382534e-10,-4.3538806e-10,-0.010176716,4
394842015,0.6909289,-0.015663167,-0.041078836,-0.72158474,0.99958354,1.0005801e-09,-4.6689363e-10,0.028856954,5
394891663,0.6895352,-0.008186746,-0.033575878,-0.72342724,0.99958354,1.0005801e-09,-4.6689363e-10,0.028856954,5
394941316,0.6889358,-0.0013075996,-0.022792693,-0.72446275,0.99958354,1.0005801e-09,-4.6689363e-10,0.028856954,5
394996074,0.68679637,0.002544048,-0.015924789,-0.726671,0.99958354,1.0005801e-09,-4.6689363e-10,0.028856954,5
395045581,0.68571407,0.002289684,-0.015236937,-0.727708,0.99958354,1.0005801e-09,-4.6689363e-10,0.028856954,5
395090267,0.68450844,0.00048865186,-0.018975342,-0.72875786,0.99958354,1.0005801e-09,-4.6689363e-10,0.028856954,5
395139920,0.6833268,-0.00047297636,-0.024993684,-0.7296846,0.99958354,1.0005801e-09,-4.6689363e-10,0.028856954,5
395194537,0.68233895,-7.3805095e-06,-0.029622734,-0.7304356,0.99958354,1.0005801e-09,-4.6689363e-10,0.028856954,5
395244184,0.6815968,0.0009091063,-0.029947972,-0.73111427,0.99958354,1.0005801e-09,-4.6689363e-10,0.028856954,5
395294008,0.6812633,0.0020108507,-0.02401398,-0.73164177,0.99958354,1.0005801e-09,-4.6689363e-10,0.028856954,5
395343487,0.6815466,0.003900857,-0.022024097,-0.7314328,0.99958354,1.0005801e-09,-4.6689363e-10,0.028856954,5
395393138,0.6820353,0.0046715457,-0.023257552,-0.7309345,0.99958354,1.0005801e-09,-4.6689363e-10,0.028856954,5
395442819,0.68329674,0.005029719,-0.023965323,-0.72973007,0.99958354,1.0005801e-09,-4.6689363e-10,0.028856954,5
395492440,0.6857994,0.0062930887,-0.02303561,-0.72739875,0.99958354,1.0005801e-09,-4.6689363e-10,0.028856954,5
395542199,0.6880499,0.007076752,-0.019682843,-0.72536194,0.99958354,1.0005801e-09,-4.6689363e-10,0.028856954,5
395591751,0.69039243,0.008396355,-0.016242297,-0.723204,0.99958354,1.0005801e-09,-4.6689363e-10,0.028856954,5
395641400,0.6929146,0.0073899976,-0.013629708,-0.72085303,0.99958354,1.0005801e-09,-4.6689363e-10,0.028856954,5
395696012,0.6958909,0.0061812266,-0.012227249,-0.7180168,0.99958354,1.0005801e-09,-4.6689363e-10,0.028856954,5
395745661,0.6984156,0.005407182,-0.011774251,-0.71557516,0.99958354,1.0005801e-09,-4.6689363e-10,0.028856954,5
395790383,0.700985,0.004671473,-0.011353455,-0.71307045,0.99958354,1.0005801e-09,-4.6689363e-10,0.028856954,5
395839999,0.703077,0.0024903226,-0.012254196,-0.71100384,0.99958354,1.0005801e-09,-4.6689363e-10,0.028856954,5
395894613,0.70506144,0.00077493803,-0.01443939,-0.7089988,0.99958354,1.0005801e-09,-4.6689363e-10,0.028856954,5
395944267,0.7067824,-0.0062567256,-0.023143329,-0.70702475,0.99958354,1.0005801e-09,-4.6689363e-10,0.028856954,5
395993916,0.7078885,-0.01644877,-0.034540396,-0.7052874,0.99958354,1.0005801e-09,-4.6689363e-10,0.028856954,5
396043567,0.70855606,-0.026691219,-0.042083878,-0.70389265,0.99958354,1.0005801e-09,-4.6689363e-10,0.028856954,5
396093354,0.7091965,-0.034653414,-0.047086217,-0.7025827,0.99958354,1.0005801e-09,-4.6689363e-10,0.028856954,5
396142874,0.70973593,-0.03958716,-0.052480876,-0.701394,0.99958354,1.0005801e-09,-4.6689363e-10,0.028856954,5
396192520,0.7100333,-0.04275515,-0.056837,-0.7005672,0.99958354,1.0005801e-09,-4.6689363e-10,0.028856954,5
396242171,0.7106749,-0.04510076,-0.058418747,-0.69963884,0.99958354,1.0005801e-09,-4.6689363e-10,0.028856954,5
396291822,0.71116835,-0.04556152,-0.060300708,-0.69894755,0.99958354,1.0005801e-09,-4.6689363e-10,0.028856954,5
396341563,0.7117562,-0.045202006,-0.059744474,-0.69842,0.99958354,1.0005801e-09,-4.6689363e-10,0.028856954,5
396396089,0.7121067,-0.045548104,-0.05764015,-0.6982171,0.99958354,1.0005801e-09,-4.6689363e-10,0.028856954,5
396445740,0.7131213,-0.04178698,-0.053913385,-0.6977143,0.99958354,1.0005801e-09,-4.6689363e-10,0.028856954,5
396490425,0.7138673,-0.03590024,-0.048972823,-0.69764346,0.99958354,1.0005801e-09,-4.6689363e-10,0.028856954,5
396540077,0.7144875,-0.02952111,-0.046388227,-0.6974843,0.99958354,1.0005801e-09,-4.6689363e-10,0.028856954,5
396594697,0.7145635,-0.025127254,-0.04740007,-0.69751054,0.99958354,1.0005801e-09,-4.6689363e-10,0.028856954,5
396644347,0.7139583,-0.025318127,-0.04676481,-0.6981659,0.99958354,1.0005801e-09,-4.6689363e-10,0.028856954,5
396693995,0.71256095,-0.027034786,-0.04385919,-0.69971603,0.99958354,1.0005801e-09,-4.6689363e-10,0.028856954,5
396743646,0.711402,-0.028547278,-0.03997115,-0.70106673,0.99958354,1.0005801e-09,-4.6689363e-10,0.028856954,5
396793298,0.71021307,-0.025947213,-0.036896117,-0.70254034,0.99958354,1.0005801e-09,-4.6689363e-10,0.028856954,5
396842948,0.7087113,-0.022366615,-0.034003235,-0.70432365,0.99958354,1.0005801e-09,-4.6689363e-10,0.028856954,5
396892741,0.7072878,-0.020668974,-0.032785654,-0.7058626,0.99958354,1.0005801e-09,-4.6689363e-10,0.028856954,5
396942250,0.7063752,-0.020426216,-0.030712191,-0.70687604,0.99958354,1.0005801e-09,-4.6689363e-10,0.028856954,5
396991902,0.7059818,-0.02239261,-0.03261402,-0.7071243,0.99958354,1.0005801e-09,-4.6689363e-10,0.028856954,5
397041553,0.7052984,-0.023159958,-0.034859203,-0.70767415,0.99958354,1.0005801e-09,-4.6689363e-10,0.028856954,5
397096168,0.70557696,-0.02160996,-0.033522923,-0.70751005,0.99958354,1.0005801e-09,-4.6689363e-10,0.028856954,5
397145845,0.70581,-0.022220336,-0.030579109,-0.70739204,0.99958354,1.0005801e-09,-4.6689363e-10,0.028856954,5
397190505,0.7062045,-0.022531047,-0.030746864,-0.7069811,0.99958354,1.0005801e-09,-4.6689363e-10,0.028856954,5
397240155,0.7066225,-0.020327872,-0.03310105,-0.7065238,0.99958354,1.0005801e-09,-4.6689363e-10,0.028856954,5
397294772,0.706379,-0.018905321,-0.03409546,-0.7067594,0.99958354,1.0005801e-09,-4.6689363e-10,0.028856954,5
397344424,0.7062853,-0.019882621,-0.036270574,-0.70671797,0.99958354,1.0005801e-09,-4.6689363e-10,0.028856954,5
397394074,0.7054993,-0.024760243,-0.03177586,-0.7075649,0.99958354,1.0005801e-09,-4.6689363e-10,0.028856954,5
397443884,0.70558804,-0.026419207,-0.03380326,-0.70732236,0.99958354,1.0005801e-09,-4.6689363e-10,0.028856954,5
397493376,0.7054007,-0.026458908,-0.039565083,-0.7072089,0.99958354,1.0005801e-09,-4.6689363e-10,0.028856954,5
397543027,0.70508635,-0.029583061,-0.04434199,-0.7071152,0.99958354,1.0005801e-09,-4.6689363e-10,0.028856954,5
397592678,0.70540345,-0.033712506,-0.04063324,-0.70683694,0.99958354,1.0005801e-09,-4.6689363e-10,0.028856954,5
397642329,0.70646656,-0.031779364,-0.037156243,-0.70605564,0.99958354,1.0005801e-09,-4.6689363e-10,0.028856954,5
397692061,0.70829624,-0.02838903,-0.041222878,-0.7041387,0.99958354,1.0005801e-09,-4.6689363e-10,0.028856954,5
397741631,0.70968914,-0.030466437,-0.047934584,-0.7022219,0.99958354,1.0005801e-09,-4.6689363e-10,0.028856954,5
397796247,0.7110434,-0.036582187,-0.05237911,-0.70023966,0.99958354,1.0005801e-09,-4.6689363e-10,0.028856954,5
397845898,0.7118418,-0.040168393,-0.05230186,-0.6992369,0.99958354,1.0005801e-09,-4.6689363e-10,0.028856954,5
397890584,0.71346235,-0.040976446,-0.05222404,-0.69754225,0.99958354,1.0005801e-09,-4.6689363e-10,0.028856954,5
397940236,0.7147828,-0.039654955,-0.05194936,-0.69628614,0.99958354,1.0005801e-09,-4.6689363e-10,0.028856954,5
397994851,0.71615815,-0.040678315,-0.051525272,-0.6948439,0.99958354,1.0005801e-09,-4.6689363e-10,0.028856954,5
398044506,0.7176687,-0.04277043,-0.052672192,-0.6930714,0.99958354,1.0005801e-09,-4.6689363e-10,0.028856954,5
398094153,0.71895283,-0.044068683,-0.057267223,-0.69129246,0.99958354,1.0005801e-09,-4.6689363e-10,0.028856954,5
398143805,0.7200827,-0.04154509,-0.06418752,-0.689663,0.99958354,1.0005801e-09,-4.6689363e-10,0.028856954,5
398193455,0.720707,-0.041362964,-0.07177905,-0.68827206,0.99958354,1.0005801e-09,-4.6689363e-10,0.028856954,5
398243240,0.7215086,-0.03925754,-0.07888039,-0.68677664,0.99958354,1.0005801e-09,-4.6689363e-10,0.028856954,5
398292757,0.72203636,-0.038054507,-0.0812627,-0.68601155,0.99958354,1.0005801e-09,-4.6689363e-10,0.028856954,5
398342408,0.7227025,-0.03771551,-0.07703698,-0.68581635,0.99958354,1.0005801e-09,-4.6689363e-10,0.028856954,5
398392065,0.7233996,-0.037966315,-0.07250323,-0.6855618,0.99958354,1.0005801e-09,-4.6689363e-10,0.028856954,5
398441710,0.7241224,-0.0388998,-0.07010719,-0.6849954,0.99958354,1.0005801e-09,-4.6689363e-10,0.028856954,5
398496379,0.72496104,-0.039759807,-0.066856705,-0.68438363,0.99958354,1.0005801e-09,-4.6689363e-10,0.028856954,5
398545977,0.7256303,-0.037836064,-0.06423263,-0.68403465,0.99958354,1.0005801e-09,-4.6689363e-10,0.028856954,5
398590663,0.7265303,-0.0348307,-0.062763914,-0.68337494,0.99958354,1.0005801e-09,-4.6689363e-10,0.028856954,5
398640314,0.7270837,-0.032615267,-0.06310632,-0.68286395,0.99958354,1.0005801e-09,-4.6689363e-10,0.028856954,5
398694934,0.7278399,-0.029290529,-0.0627575,-0.6822409,0.99958354,1.0005801e-09,-4.6689363e-10,0.028856954,5
398744584,0.7283122,-0.02742263,-0.062235344,-0.68186235,0.99958354,1.0005801e-09,-4.6689363e-10,0.028856954,5
398794415,0.7288887,-0.024581315,-0.064582214,-0.6811361,0.99958354,1.0005801e-09,-4.6689363e-10,0.028856954,5
398843883,0.7289894,-0.022957655,-0.06829078,-0.6807231,0.99958354,1.0005801e-09,-4.6689363e-10,0.028856954,5
398893534,0.7292772,-0.021170627,-0.07154778,-0.68013793,0.99958354,1.0005801e-09,-4.6689363e-10,0.028856954,5
398943186,0.72951037,-0.016223205,-0.07389097,-0.6797732,0.99958354,1.0005801e-09,-4.6689363e-10,0.028856954,5
398992836,0.73016065,-0.013134243,-0.07272851,-0.67926687,0.99958354,1.0005801e-09,-4.6689363e-10,0.028856954,5
399042635,0.7304915,-0.013967087,-0.0663883,-0.67954373,0.99958354,1.0005801e-09,-4.6689363e-10,0.028856954,5
399092139,0.73125464,-0.017975727,-0.052496158,-0.67984396,0.99958354,1.0005801e-09,-4.6689363e-10,0.028856954,5
399141789,0.7312483,-0.020077279,-0.03908274,-0.6806948,0.99958354,1.0005801e-09,-4.6689363e-10,0.028856954,5
399196405,0.73137987,-0.014575321,-0.032714378,-0.6810293,0.99958354,1.0005801e-09,-4.6689363e-10,0.028856954,5
399246056,0.7315073,-0.008539567,-0.030800605,-0.68108416,0.99958354,1.0005801e-09,-4.6689363e-10,0.028856954,5
399290747,0.7316629,-0.0074670617,-0.028183911,-0.68104285,0.99958354,1.0005801e-09,-4.6689363e-10,0.028856954,5
399340393,0.7320377,-0.009414344,-0.024738738,-0.6807497,0.99958354,1.0005801e-09,-4.6689363e-10,0.028856954,5
399395050,0.7321356,-0.005726221,-0.020574596,-0.68082416,0.99958354,1.0005801e-09,-4.6689363e-10,0.028856954,5
399444660,0.7319018,-0.0004032803,-0.017070785,-0.6811962,0.99958354,1.0005801e-09,-4.6689363e-10,0.028856954,5
399494319,0.7318667,0.0015954135,-0.01442502,-0.68129325,0.99958354,1.0005801e-09,-4.6689363e-10,0.028856954,5
399543964,0.7319841,0.000439027,-0.011161833,-0.6812302,0.99958354,1.0005801e-09,-4.6689363e-10,0.028856954,5
399593758,0.7317509,0.0026484411,-0.011500006,-0.68147004,0.99958354,1.0005801e-09,-4.6689363e-10,0.028856954,5
399643264,0.73153764,0.0026314696,-0.011844295,-0.6816932,0.99958354,1.0005801e-09,-4.6689363e-10,0.028856954,5
399692915,0.73141634,0.002032146,-0.011934024,-0.68182385,0.99958354,1.0005801e-09,-4.6689363e-10,0.028856954,5
399742566,0.73089147,0.0019276058,-0.011251325,-0.6823983,0.99958354,1.0005801e-09,-4.6689363e-10,0.028856954,5
399792218,0.7307991,0.0023740665,-0.010131413,-0.6825133,0.99958354,1.0005801e-09,-4.6689363e-10,0.028856954,5
399841919,0.7306615,0.0013339091,-0.009604946,-0.68267107,0.99958354,1.0005801e-09,-4.6689363e-10,0.028856954,5
399896486,0.73025197,7.456632e-05,-0.008642385,-0.6831233,0.99958354,1.0005801e-09,-4.6689363e-10,0.028856954,5
399941214,0.7295154,0.001682086,-0.010459592,-0.6838825,0.99958354,1.0005801e-09,-4.6689363e-10,0.028856954,5
399990821,0.72922915,0.00394715,-0.013611787,-0.6841228,0.99958354,1.0005801e-09,-4.6689363e-10,0.028856954,5
400040506,0.72862405,0.0045203865,-0.015548332,-0.6847224,0.99958354,1.0005801e-09,-4.6689363e-10,0.028856954,5
400095089,0.7282801,0.011300231,-0.020161588,-0.6848897,0.99958354,1.0005801e-09,-4.6689363e-10,0.028856954,5
400144739,0.7271742,0.019499045,-0.027255949,-0.6856344,0.99958354,1.0005801e-09,-4.6689363e-10,0.028856954,5
400194390,0.72632265,0.025490634,-0.035947006,-0.6859399,0.99958354,1.0005801e-09,-4.6689363e-10,0.028856954,5
400244046,0.72573084,0.027403157,-0.039308537,-0.686308,0.99958354,1.0005801e-09,-4.6689363e-10,0.028856954,5
400293704,0.7257398,0.027423732,-0.038566865,-0.6863399,0.99958354,1.0005801e-09,-4.6689363e-10,0.028856954,5
400343343,0.72539496,0.02869116,-0.038928863,-0.68663204,0.99958354,1.0005801e-09,-4.6689363e-10,0.028856954,5
400393119,0.72477484,0.030298684,-0.04109498,-0.68709147,0.99958354,1.0005801e-09,-4.6689363e-10,0.028856954,5
400442645,0.7242404,0.03230623,-0.0433582,-0.6874243,0.99958354,1.0005801e-09,-4.6689363e-10,0.028856954,5
400492299,0.72391206,0.03197909,-0.04467221,-0.6877013,0.99958354,1.0005801e-09,-4.6689363e-10,0.028856954,5
400541947,0.72362334,0.0323473,-0.045696262,-0.6879207,0.99958354,1.0005801e-09,-4.6689363e-10,0.028856954,5
400596565,0.7236238,0.034102336,-0.045572884,-0.6878436,0.99958354,1.0005801e-09,-4.6689363e-10,0.028856954,5
400641273,0.7235696,0.03444767,-0.046398364,-0.6878282,0.99958354,1.0005801e-09,-4.6689363e-10,0.028856954,5
400690902,0.7234345,0.036317877,-0.049912047,-0.6876281,0.99958354,1.0005801e-09,-4.6689363e-10,0.028856954,5
400740551,0.7231957,0.039600074,-0.052672114,-0.68749225,0.99958354,1.0005801e-09,-4.6689363e-10,0.028856954,5
400795168,0.7225433,0.04852466,-0.059288714,-0.6870673,0.99958354,1.0005801e-09,-4.6689363e-10,0.028856954,5
400844818,0.72179866,0.05489,-0.067212336,-0.68664134,0.99958354,1.0005801e-09,-4.6689363e-10,0.028856954,5
400894469,0.72206837,0.05588935,-0.06877115,-0.68612254,0.99958354,1.0005801e-09,-4.6689363e-10,0.028856954,5
400944303,0.7228447,0.048791774,-0.06280661,-0.6864185,0.99958354,1.0005801e-09,-4.6689363e-10,0.028856954,5
400993771,0.7242051,0.039072633,-0.052826263,-0.6864472,0.99958354,1.0005801e-09,-4.6689363e-10,0.028856954,5
401043422,0.7245285,0.03308253,-0.045026176,-0.68697655,0.99958354,1.0005801e-09,-4.6689363e-10,0.028856954,5
401093077,0.7252185,0.029548524,-0.040664017,-0.68668157,0.99958354,1.0005801e-09,-4.6689363e-10,0.028856954,5
401142725,0.7254355,0.021864284,-0.034069214,-0.68709874,0.99958354,1.0005801e-09,-4.6689363e-10,0.028856954,5
401192457,0.7258273,0.012704509,-0.024888042,-0.68730927,0.99958354,1.0005801e-09,-4.6689363e-10,0.028856954,5
401242031,0.7261906,0.006559431,-0.01657674,-0.68726236,0.99958354,1.0005801e-09,-4.6689363e-10,0.028856954,5
401296642,0.726697,0.003980237,-0.014576608,-0.6867919,0.99958354,1.0005801e-09,-4.6689363e-10,0.028856954,5
401341328,0.7268299,0.0013373565,-0.014188813,-0.6866697,0.99958354,1.0005801e-09,-4.6689363e-10,0.028856954,5
401390979,0.72692853,-0.0009652579,-0.013443921,-0.68658084,0.99958354,1.0005801e-09,-4.6689363e-10,0.028856954,5
401440630,0.72739923,-0.0015864247,-0.01067467,-0.6861297,0.99958354,1.0005801e-09,-4.6689363e-10,0.028856954,5
401495246,0.7278006,-0.00079392135,-0.0093775205,-0.6857243,0.99958354,1.0005801e-09,-4.6689363e-10,0.028856954,5
401544897,0.72819114,0.00011417331,-0.010155489,-0.68529886,0.99958354,1.0005801e-09,-4.6689363e-10,0.028856954,5
401594550,0.728433,-0.0005920263,-0.010988702,-0.6850287,0.99958354,1.0005801e-09,-4.6689363e-10,0.028856954,5
401644202,0.7288245,-0.0010992854,-0.010628386,-0.6846173,0.99958354,1.0005801e-09,-4.6689363e-10,0.028856954,5
401693851,0.72870004,-0.002012795,-0.010342375,-0.684752,0.99958354,1.0005801e-09,-4.6689363e-10,0.028856954,5
401743632,0.7288734,-0.0016003771,-0.010853912,-0.68456066,0.99958354,1.0005801e-09,-4.6689363e-10,0.028856954,5
401793154,0.7289086,-0.0021338055,-0.013179606,-0.68448097,0.99958354,1.0005801e-09,-4.6689363e-10,0.028856954,5
401842803,0.72917813,-0.0037137626,-0.01646644,-0.68411577,0.99958354,1.0005801e-09,-4.6689363e-10,0.028856954,5
401892456,0.7289503,-0.0053842664,-0.019330027,-0.6842726,0.99958354,1.0005801e-09,-4.6689363e-10,0.028856954,5
401942105,0.7290653,-0.0064236135,-0.02301259,-0.684027,0.99958354,1.0005801e-09,-4.6689363e-10,0.028856954,5
401996782,0.7285452,-0.010125025,-0.026609028,-0.68440586,0.99958354,1.0005801e-09,-4.6689363e-10,0.028856954,5
402041407,0.72837645,-0.013148308,-0.029287903,-0.6844247,0.99958354,1.0005801e-09,-4.6689363e-10,0.028856954,5
402091058,0.72805095,-0.01691043,-0.030040508,-0.6846557,0.99958354,1.0005801e-09,-4.6689363e-10,0.028856954,5
402140709,0.72737086,-0.018260708,-0.031732436,-0.6852674,0.99958354,1.0005801e-09,-4.6689363e-10,0.028856954,5
402195326,0.7266196,-0.019027293,-0.034125596,-0.68592817,0.99958354,1.0005801e-09,-4.6689363e-10,0.028856954,5
402244977,0.72589934,-0.020042509,-0.034954514,-0.6866198,0.99958354,1.0005801e-09,-4.6689363e-10,0.028856954,5
402294630,0.72563374,-0.021485504,-0.035720594,-0.68681747,0.99958354,1.0005801e-09,-4.6689363e-10,0.028856954,5
402344279,0.7247859,-0.024115974,-0.037998058,-0.6875027,0.99958354,1.0005801e-09,-4.6689363e-10,0.028856954,5
402393929,0.72473276,-0.025356932,-0.040418133,-0.68737614,0.99958354,1.0005801e-09,-4.6689363e-10,0.028856954,5
402443621,0.7246512,-0.025364138,-0.043116547,-0.6872979,0.99958354,1.0005801e-09,-4.6689363e-10,0.028856954,5
402493232,0.7245208,-0.027207814,-0.044888843,-0.6872514,0.99958354,1.0005801e-09,-4.6689363e-10,0.028856954,5
402542983,0.72416675,-0.028004432,-0.045413602,-0.68755794,0.99958354,1.0005801e-09,-4.6689363e-10,0.028856954,5
402592533,0.72420263,-0.027995946,-0.045718987,-0.68750024,0.99958354,1.0005801e-09,-4.6689363e-10,0.028856954,5
402642245,0.7242046,-0.027154943,-0.045076046,-0.6875743,0.99958354,1.0005801e-09,-4.6689363e-10,0.028856954,5
402696801,0.7244005,-0.025765615,-0.042369127,-0.6875936,0.99958354,1.0005801e-09,-4.6689363e-10,0.028856954,5
402741526,0.72439563,-0.023820812,-0.041238718,-0.6877376,0.99958354,1.0005801e-09,-4.6689363e-10,0.028856954,5
402791141,0.7243316,-0.023254441,-0.03984902,-0.68790627,0.99958354,1.0005801e-09,-4.6689363e-10,0.028856954,5
402840833,0.72525555,-0.022907104,-0.03852312,-0.68701935,0.99958354,1.0005801e-09,-4.6689363e-10,0.028856954,5
402895455,0.7257703,-0.02309096,-0.036463168,-0.686582,0.99958354,1.0005801e-09,-4.6689363e-10,0.028856954,5
402945055,0.72644514,-0.022317793,-0.036352422,-0.68589944,0.99958354,1.0005801e-09,-4.6689363e-10,0.028856954,5
402989741,0.7274687,-0.02103356,-0.036642924,-0.68483883,0.99958354,1.0005801e-09,-4.6689363e-10,0.028856954,5
403044362,0.7286316,-0.019596118,-0.0391473,-0.6835053,0.99958354,1.0005801e-09,-4.6689363e-10,0.028856954,5
403094167,0.7296145,-0.018992092,-0.041392565,-0.68234056,0.99958354,1.0005801e-09,-4.6689363e-10,0.028856954,5
403143660,0.7297685,-0.01970312,-0.042086646,-0.68211323,0.99958354,1.0005801e-09,-4.6689363e-10,0.028856954,5
403193311,0.73018014,-0.01716059,-0.044144828,-0.6816111,0.99958354,1.0005801e-09,-4.6689363e-10,0.028856954,5
403242961,0.7302413,-0.014739573,-0.048338916,-0.68131775,0.99958354,1.0005801e-09,-4.6689363e-10,0.028856954,5
403292612,0.73043895,-0.01258142,-0.05142712,-0.68092287,0.99958354,1.0005801e-09,-4.6689363e-10,0.028856954,5
403342439,0.7297911,-0.012209704,-0.05296262,-0.68150634,0.99958354,1.0005801e-09,-4.6689363e-10,0.028856954,5
403396880,0.7291036,-0.012283532,-0.056801457,-0.6819317,0.99958354,1.0005801e-09,-4.6689363e-10,0.028856954,5
403441565,0.7286427,-0.013256776,-0.05938622,-0.6821857,0.99958354,1.0005801e-09,-4.6689363e-10,0.028856954,5
403491216,0.72797084,-0.014365666,-0.06044013,-0.68278784,0.99958354,1.0005801e-09,-4.6689363e-10,0.028856954,5
403540870,0.727051,-0.015811898,-0.059385307,-0.68382764,0.99958354,1.0005801e-09,-4.6689363e-10,0.028856954,5
403595483,0.7262548,-0.017366199,-0.05995893,-0.6845855,0.99958354,1.0005801e-09,-4.6689363e-10,0.028856954,5
403645134,0.72569925,-0.017408947,-0.06029784,-0.68514353,0.99958354,1.0005801e-09,-4.6689363e-10,0.028856954,5
403689820,0.7250768,-0.017971437,-0.061575294,-0.6856743,0.99958354,1.0005801e-09,-4.6689363e-10,0.028856954,5
403744436,0.7242312,-0.02010259,-0.06196759,-0.6864731,0.99958354,1.0005801e-09,-4.6689363e-10,0.028856954,5
403794087,0.7233533,-0.0199231,-0.06333887,-0.6872783,0.99958354,1.0005801e-09,-4.6689363e-10,0.028856954,5
403843738,0.72270006,-0.020255664,-0.06436921,-0.68785965,0.99958354,1.0005801e-09,-4.6689363e-10,0.028856954,5
403893517,0.72202426,-0.019247271,-0.0672293,-0.68832463,0.99958354,1.0005801e-09,-4.6689363e-10,0.028856954,5
403943041,0.7215605,-0.019751951,-0.06722267,-0.6887972,0.99958354,1.0005801e-09,-4.6689363e-10,0.028856954,5
403992692,0.72080356,-0.019881831,-0.06818435,-0.68949103,0.99958354,1.0005801e-09,-4.6689363e-10,0.028856954,5
404042343,0.72045976,-0.018068606,-0.067667305,-0.6899511,0.99958354,1.0005801e-09,-4.6689363e-10,0.028856954,5
404096960,0.72008556,-0.016693048,-0.06528541,-0.6906055,0.99958354,1.0005801e-09,-4.6689363e-10,0.028856954,5
404141678,0.7202288,-0.016990384,-0.06256682,-0.6907006,0.99958354,1.0005801e-09,-4.6689363e-10,0.028856954,5
404191295,0.71954936,-0.017438784,-0.058972143,-0.69171304,0.99958354,1.0005801e-09,-4.6689363e-10,0.028856954,5
404240949,0.7196317,-0.015897475,-0.057463504,-0.6917915,0.99958354,1.0005801e-09,-4.6689363e-10,0.028856954,5
404295563,0.7193355,-0.015366749,-0.05777112,-0.6920859,0.99958354,1.0005801e-09,-4.6689363e-10,0.028856954,5
404345214,0.7190296,-0.014704843,-0.05836044,-0.6923686,0.99958354,1.0005801e-09,-4.6689363e-10,0.028856954,5
404389904,0.7191019,-0.015453332,-0.054842994,-0.69256485,0.99958354,1.0005801e-09,-4.6689363e-10,0.028856954,5
404444702,0.7191469,-0.016655117,-0.051663183,-0.69273466,0.99958354,1.0005801e-09,-4.6689363e-10,0.028856954,5
404494166,0.7196934,-0.017434271,-0.04955889,-0.6923015,0.99958354,1.0005801e-09,-4.6689363e-10,0.028856954,5
404543817,0.71937823,-0.020323219,-0.04629644,-0.692776,0.99958354,1.0005801e-09,-4.6689363e-10,0.028856954,5
404593469,0.71972007,-0.022364566,-0.043682564,-0.69252783,0.99958354,1.0005801e-09,-4.6689363e-10,0.028856954,5
404643121,0.719456,-0.02239355,-0.04192636,-0.6929097,0.99958354,1.0005801e-09,-4.6689363e-10,0.028856954,5
404692902,0.7201625,-0.022436902,-0.040477503,-0.6922602,0.99958354,1.0005801e-09,-4.6689363e-10,0.028856954,5
404742422,0.72010875,-0.020847157,-0.0391252,-0.6924436,0.99958354,1.0005801e-09,-4.6689363e-10,0.028856954,5
404797039,0.72015166,-0.020156063,-0.037963074,-0.6924841,0.99958354,1.0005801e-09,-4.6689363e-10,0.028856954,5
404841723,0.7201069,-0.020926522,-0.037663125,-0.6925241,0.99958354,1.0005801e-09,-4.6689363e-10,0.028856954,5
404891375,0.7202613,-0.02131682,-0.036737654,-0.6924014,0.99958354,1.0005801e-09,-4.6689363e-10,0.028856954,5
404941035,0.7202721,-0.021831585,-0.03993086,-0.69219726,0.99958354,1.0005801e-09,-4.6689363e-10,0.028856954,5
404995642,0.72016543,-0.024407947,-0.04474423,-0.69192773,0.99958354,1.0005801e-09,-4.6689363e-10,0.028856954,5
405045293,0.71976966,-0.025165379,-0.045831736,-0.69224125,0.99958354,1.0005801e-09,-4.6689363e-10,0.028856954,5
405089979,0.7199509,-0.02536595,-0.046525992,-0.6919991,0.99958354,1.0005801e-09,-4.6689363e-10,0.028856954,5
405144595,0.71946186,-0.025408974,-0.046200402,-0.69252765,0.99958354,1.0005801e-09,-4.6689363e-10,0.028856954,5
405194246,0.71910787,-0.025236284,-0.044671994,-0.6930018,0.99958354,1.0005801e-09,-4.6689363e-10,0.028856954,5
405244037,0.7189493,-0.025026293,-0.041451506,-0.69337386,0.99958354,1.0005801e-09,-4.6689363e-10,0.028856954,5
405293547,0.718382,-0.02425145,-0.03899622,-0.6941315,0.99958354,1.0005801e-09,-4.6689363e-10,0.028856954,5
405343205,0.71811455,-0.0205203,-0.03636331,-0.6946712,0.99958354,1.0005801e-09,-4.6689363e-10,0.028856954,5
405392850,0.7182996,-0.017541984,-0.03353691,-0.6947037,0.99958354,1.0005801e-09,-4.6689363e-10,0.028856954,5
405442550,0.7183448,-0.018596873,-0.03135506,-0.6947315,0.99958354,1.0005801e-09,-4.6689363e-10,0.028856954,5
405497200,0.71875846,-0.018518392,-0.032399923,-0.6942576,0.99958354,1.0005801e-09,-4.6689363e-10,0.028856954,5
405541842,0.71896213,-0.018650046,-0.036148313,-0.693858,0.99958354,1.0005801e-09,-4.6689363e-10,0.028856954,5
405591454,0.7190263,-0.018546809,-0.04192558,-0.6934691,0.99958354,1.0005801e-09,-4.6689363e-10,0.028856954,5
405641137,0.71934366,-0.017299099,-0.043469258,-0.69307715,0.99958354,1.0005801e-09,-4.6689363e-10,0.028856954,5
405695721,0.71954656,-0.017786348,-0.042838864,-0.6928934,0.99958354,1.0005801e-09,-4.6689363e-10,0.028856954,5
405745402,0.719514,-0.017314173,-0.042186204,-0.6929792,0.99958354,1.0005801e-09,-4.6689363e-10,0.028856954,5
405790242,0.7194532,-0.016854081,-0.043127354,-0.6929958,0.99958354,1.0005801e-09,-4.6689363e-10,0.028856954,5
405844674,0.71934927,-0.017034665,-0.045831062,-0.6929257,0.99958354,1.0005801e-09,-4.6689363e-10,0.028856954,5
405894325,0.7200648,-0.01636686,-0.046854746,-0.69212973,0.99958354,1.0005801e-09,-4.6689363e-10,0.028856954,5
405944025,0.71989715,-0.014455037,-0.045571763,-0.6924322,0.99958354,1.0005801e-09,-4.6689363e-10,0.028856954,5
405993627,0.7206728,-0.011305206,-0.046140727,-0.6916459,0.99958354,1.0005801e-09,-4.6689363e-10,0.028856954,5
406043390,0.720691,-0.0089014135,-0.049892683,-0.69140154,0.99958354,1.0005801e-09,-4.6689363e-10,0.028856954,5
406092929,0.72138476,-0.00794898,-0.053442143,-0.6904237,0.99958354,1.0005801e-09,-4.6689363e-10,0.028856954,5
406142581,0.7220658,-0.009274171,-0.055745125,-0.6895125,0.99958354,1.0005801e-09,-4.6689363e-10,0.028856954,5
406192231,0.7225781,-0.009799792,-0.056904394,-0.6888736,0.99958354,1.0005801e-09,-4.6689363e-10,0.028856954,5
406241884,0.7229767,-0.008871934,-0.05760922,-0.68840915,0.99958354,1.0005801e-09,-4.6689363e-10,0.028856954,5
406291575,0.72339535,-0.009435673,-0.05915967,-0.6878301,0.99958354,1.0005801e-09,-4.6689363e-10,0.028856954,5
406341186,0.7242973,-0.011037807,-0.058214784,-0.68693715,0.99958354,1.0005801e-09,-4.6689363e-10,0.028856954,5
406395800,0.7253306,-0.013295235,-0.050472096,-0.6864193,0.99958354,1.0005801e-09,-4.6689363e-10,0.028856954,5
406445451,0.7260324,-0.013640578,-0.041562345,-0.6862678,0.99958354,1.0005801e-09,-4.6689363e-10,0.028856954,5
406490136,0.7267148,-0.013972429,-0.03663196,-0.6858197,0.99958354,1.0005801e-09,-4.6689363e-10,0.028856954,5
406544755,0.72795135,-0.015626717,-0.036456365,-0.6844806,0.99958354,1.0005801e-09,-4.6689363e-10,0.028856954,5
406594577,0.728178,-0.016094685,-0.03837479,-0.6841237,0.99958354,1.0005801e-09,-4.6689363e-10,0.028856954,5
406644055,0.7286022,-0.014600721,-0.041614953,-0.68351585,0.99958354,1.0005801e-09,-4.6689363e-10,0.028856954,5
406693706,0.72934705,-0.011311489,-0.047651652,-0.68238866,0.99958354,1.0005801e-09,-4.6689363e-10,0.028856954,5
406743365,0.72957814,-0.010181775,-0.053459343,-0.6817289,0.99958354,1.0005801e-09,-4.6689363e-10,0.028856954,5
406793008,0.7301749,-0.011931661,-0.055150826,-0.6809264,0.99958354,1.0005801e-09,-4.6689363e-10,0.028856954,5
406842729,0.73015815,-0.016132182,-0.051668823,-0.6811308,0.99958354,1.0005801e-09,-4.6689363e-10,0.028856954,5
406892310,0.73033357,-0.019353613,-0.04509602,-0.6813258,0.99958354,1.0005801e-09,-4.6689363e-10,0.028856954,5
406941971,0.7299442,-0.019545835,-0.04113191,-0.68198806,0.99958354,1.0005801e-09,-4.6689363e-10,0.028856954,5
406991612,0.729636,-0.019188074,-0.040445555,-0.68236893,0.99958354,1.0005801e-09,-4.6689363e-10,0.028856954,5
407041262,0.7297232,-0.019149711,-0.043439697,-0.6820926,0.99958354,1.0005801e-09,-4.6689363e-10,0.028856954,5
407095889,0.7293063,-0.017899392,-0.046866484,-0.6823456,0.99958354,1.0005801e-09,-4.6689363e-10,0.028856954,5
407145530,0.72846186,-0.019360198,-0.04605202,-0.6832626,0.99958354,1.0005801e-09,-4.6689363e-10,0.028856954,5
407190216,0.7281651,-0.021146113,-0.043829016,-0.6836721,0.99958354,1.0005801e-09,-4.6689363e-10,0.028856954,5
407244833,0.7276383,-0.022137724,-0.040954087,-0.68437946,0.99958354,1.0005801e-09,-4.6689363e-10,0.028856954,5
407294483,0.7273348,-0.021812122,-0.038639072,-0.684847,0.99958354,1.0005801e-09,-4.6689363e-10,0.028856954,5
407344134,0.72686434,-0.022697838,-0.038830116,-0.6853067,0.99958354,1.0005801e-09,-4.6689363e-10,0.028856954,5
407393947,0.726608,-0.023423804,-0.038563337,-0.68556917,0.99958354,1.0005801e-09,-4.6689363e-10,0.028856954,5
407443439,0.7260304,-0.022300584,-0.036941692,-0.68630743,0.99958354,1.0005801e-09,-4.6689363e-10,0.028856954,5
407493087,0.72571117,-0.017841721,-0.033995964,-0.68692744,0.99958354,1.0005801e-09,-4.6689363e-10,0.028856954,5
407542777,0.72509956,-0.015032373,-0.031588316,-0.6877549,0.99958354,1.0005801e-09,-4.6689363e-10,0.028856954,5
407592389,0.7251614,-0.014289258,-0.031410135,-0.6877138,0.99958354,1.0005801e-09,-4.6689363e-10,0.028856954,5
407642139,0.72472125,-0.013114274,-0.033349957,-0.6881097,0.99958354,1.0005801e-09,-4.6689363e-10,0.028856954,5
407691691,0.7243586,-0.012378436,-0.03431963,-0.68845737,0.99958354,1.0005801e-09,-4.6689363e-10,0.028856954,5
407741371,0.7241738,-0.009604604,-0.033310756,-0.6887457,0.99958354,1.0005801e-09,-4.6689363e-10,0.028856954,5
407795958,0.72406465,-0.0089029,-0.033494424,-0.68886083,0.99958354,1.0005801e-09,-4.6689363e-10,0.028856954,5
407845616,0.7234929,-0.009314398,-0.033346165,-0.689463,0.99958354,1.0005801e-09,-4.6689363e-10,0.028856954,5
407890295,0.7230883,-0.010240955,-0.032458853,-0.6899166,0.99958354,1.0005801e-09,-4.6689363e-10,0.028856954,5
407944914,0.7227058,-0.009478443,-0.027093494,-0.69055957,0.99958354,1.0005801e-09,-4.6689363e-10,0.028856954,5
407994562,0.72250116,-0.0057282406,-0.020351302,-0.69104636,0.99958354,1.0005801e-09,-4.6689363e-10,0.028856954,5
408044213,0.72187996,-0.0026696161,-0.014823019,-0.6918545,0.99958354,1.0005801e-09,-4.6689363e-10,0.028856954,5
408093864,0.7220737,-0.0027150386,-0.013361836,-0.69168186,0.99958354,1.0005801e-09,-4.6689363e-10,0.028856954,5
408143522,0.72148514,-0.0028897354,-0.013723169,-0.692288,0.99958354,1.0005801e-09,-4.6689363e-10,0.028856954,5
408193260,0.72107005,-0.0010101945,-0.013292201,-0.69273394,0.99958354,1.0005801e-09,-4.6689363e-10,0.028856954,5
408242817,0.7203564,-0.0011006298,-0.012097141,-0.6934978,0.99958354,1.0005801e-09,-4.6689363e-10,0.028856954,5
408292466,0.71964705,-0.0025531987,-0.011854218,-0.69423425,0.99958354,1.0005801e-09,-4.6689363e-10,0.028856954,5
408342122,0.71882886,-0.0029626105,-0.012539023,-0.69506776,0.99958354,1.0005801e-09,-4.6689363e-10,0.028856954,5
408391777,0.71798164,-0.0020438267,-0.011045931,-0.69597137,0.99958354,1.0005801e-09,-4.6689363e-10,0.028856954,5
408441476,0.71713775,-0.0026914205,-0.010843438,-0.69684196,0.99958354,1.0005801e-09,-4.6689363e-10,0.028856954,5
408496037,0.7161462,-0.0029569874,-0.0100391675,-0.6978719,0.99958354,1.0005801e-09,-4.6689363e-10,0.028856954,5
408540782,0.715474,-0.0029309734,-0.0118387565,-0.69853294,0.99958354,1.0005801e-09,-4.6689363e-10,0.028856954,5
408590384,0.71548486,-0.0037162045,-0.013221098,-0.69849324,0.99958354,1.0005801e-09,-4.6689363e-10,0.028856954,5
408644992,0.71524084,-0.0037363092,-0.012080881,-0.69876367,0.99958354,1.0005801e-09,-4.6689363e-10,0.028856954,5
408694641,0.7153148,-0.0036172864,-0.010098106,-0.69872004,0.99958354,1.0005801e-09,-4.6689363e-10,0.028856954,5
408744455,0.71522593,-0.0004899447,-0.010936262,-0.6988076,0.99958354,1.0005801e-09,-4.6689363e-10,0.028856954,5
408793943,0.7152221,0.0018656563,-0.014063194,-0.6987533,0.99958354,1.0005801e-09,-4.6689363e-10,0.028856954,5
408843594,0.7153772,0.0014608616,-0.015941717,-0.6985551,0.99958354,1.0005801e-09,-4.6689363e-10,0.028856954,5
408893246,0.71617824,-0.0012361631,-0.015289726,-0.69774884,0.99958354,1.0005801e-09,-4.6689363e-10,0.028856954,5
408942896,0.7163319,-0.001774917,-0.016077485,-0.6975723,0.99958354,1.0005801e-09,-4.6689363e-10,0.028856954,5
408992656,0.71662426,0.00041010918,-0.020110456,-0.69716936,0.99958354,1.0005801e-09,-4.6689363e-10,0.028856954,5
409042203,0.71692973,0.0037358715,-0.026968524,-0.6966136,0.99958354,1.0005801e-09,-4.6689363e-10,0.028856954,5
409091851,0.71741015,0.007886594,-0.029860951,-0.6959661,0.99958354,1.0005801e-09,-4.6689363e-10,0.028856954,5
409141500,0.71818596,0.012869933,-0.031997878,-0.69499606,0.99958354,1.0005801e-09,-4.6689363e-10,0.028856954,5
409196116,0.7193639,0.016162219,-0.031370666,-0.6937365,0.99958354,1.0005801e-09,-4.6689363e-10,0.028856954,5
