timestamp,time_utc_usec,lat,lon,alt,alt_ellipsoid,s_variance_m_s,c_variance_rad,eph,epv,hdop,vdop,noise_per_ms,jamming_indicator,vel_m_s,vel_n_m_s,vel_e_m_s,vel_d_m_s,cog_rad,timestamp_time_relative,heading,heading_offset,fix_type,vel_ned_valid,satellites_used
382542989,1611040313799860,340361823,1087609431,420180,392271,0.23200001,0.7034193,0.781,1.6380001,0.57,1.04,110,17,0.046000004,0.042000003,0.020000001,0.040000003,0.98044616,0,nan,0.0,4,1,20
382794888,1611040313999861,340361820,1087609430,420214,392304,0.26200002,0.70342946,0.77800006,1.628,0.57,1.04,110,17,0.017,0.016,0.008,0.058000002,0.98044616,0,nan,0.0,4,1,20
383743941,1611040314999860,340361804,1087609426,420322,392412,0.24400002,0.70346576,0.763,1.5830001,0.57,1.04,111,17,0.051000003,-0.049000002,0.014,-0.056,0.98044616,0,nan,0.0,4,1,20
384752145,1611040315999859,340361787,1087609422,420366,392456,0.23300001,0.70350695,0.74700004,1.5400001,0.57,1.04,111,11,0.022000002,-0.008,-0.020000001,0.052,0.98044616,0,nan,0.0,4,1,20
385740247,1611040316999859,340361773,1087609417,420374,392465,0.256,0.7035504,0.73,1.4920001,0.57,1.04,111,5,0.014,-0.014,0.003,-0.046000004,0.98044616,0,nan,0.0,4,1,20
386754960,1611040317999858,340361766,1087609411,420341,392432,0.252,0.7035965,0.71300006,1.4490001,0.57,1.04,111,7,0.025,0.025,-0.002,0.078,0.98044616,0,nan,0.0,4,1,20
387748089,1611040318999857,340361763,1087609406,420338,392429,0.24400002,0.70364016,0.69900006,1.4130001,0.57,1.04,111,9,0.037,0.014,0.034,0.105000004,0.98044616,0,nan,0.0,4,1,20
388754941,1611040319999857,340361759,1087609409,420348,392438,0.22500001,0.703672,0.688,1.3740001,0.57,1.04,111,5,0.071,0.018000001,0.069000006,-0.11800001,0.98044616,0,nan,0.0,4,1,20
389737947,1611040320999856,340361755,1087609396,420381,392472,0.186,0.60550004,0.698,1.381,0.57,1.04,95,3,0.272,-0.15300001,-0.22500001,0.12100001,2.781605,0,nan,0.0,4,1,20
390749995,1611040321999855,340361742,1087609370,420873,392964,0.24200001,0.48026678,0.693,1.368,0.59,1.05,89,3,0.344,0.115,-0.324,-0.87100005,4.7305717,0,nan,0.0,4,1,19
391742968,1611040322999855,340361764,1087609320,421437,393527,0.18300001,0.25045368,0.688,1.348,0.63,1.12,89,3,0.66300005,0.42600003,-0.508,-0.48600003,5.2958717,0,nan,0.0,4,1,18
392735980,1611040323999854,340361791,1087609260,421408,393499,0.162,0.33176774,0.68500006,1.327,0.59,1.05,89,2,0.512,0.125,-0.497,-0.031000001,5.045882,0,nan,0.0,4,1,19
393738940,1611040324999853,340361805,1087609177,421233,393324,0.21000001,0.18811087,0.679,1.304,0.59,1.05,89,3,0.96000004,0.075,-0.957,0.24800001,4.796887,0,nan,0.0,4,1,19
394747002,1611040325999853,340361808,1087609074,421270,393361,0.185,0.16792545,0.675,1.2830001,0.59,1.05,89,2,1.0040001,0.08400001,-1.0,-0.356,4.7759075,0,nan,0.0,4,1,19
395736935,1611040326999852,340361821,1087608966,421440,393531,0.201,0.29227194,0.674,1.271,0.61,1.11,89,2,0.744,0.15100001,-0.72900003,0.17300001,4.8688917,0,nan,0.0,4,1,19
396739972,1611040327999851,340361843,1087608905,420569,392660,0.27100003,0.25950024,0.671,1.2600001,0.63,1.13,89,3,0.744,0.11800001,-0.735,0.97700006,4.946532,0,nan,0.0,4,1,18
397738294,1611040328999851,340361857,1087608796,420690,392781,0.16700001,0.12240709,0.669,1.2470001,0.57,1.04,89,4,1.3000001,0.004,-1.3000001,-0.591,4.7824297,0,nan,0.0,4,1,20
398735516,1611040329999850,340361858,1087608645,421619,393709,0.164,0.10225884,0.665,1.2340001,0.57,1.04,95,3,1.6100001,0.049000002,-1.6090001,-0.335,4.7497144,0,nan,0.0,4,1,20
399738897,1611040330999849,340361857,1087608446,422111,394202,0.16100001,0.09213854,0.661,1.217,0.57,1.04,95,3,1.7500001,0.136,-1.7450001,-0.492,4.75219,0,nan,0.0,4,1,20
400751619,1611040331999848,340361852,1087608305,422421,394512,0.158,0.16873458,0.65500003,1.1910001,0.57,1.04,95,4,0.989,0.11100001,-0.98300004,-0.023000002,4.750828,0,nan,0.0,4,1,20
401744260,1611040332999848,340361882,1087608231,422300,394390,0.19500001,0.40469784,0.65400004,1.184,0.57,1.04,96,4,0.425,0.108,-0.411,-0.09900001,5.1793127,0,nan,0.0,4,1,20
402739940,1611040333999847,340361892,1087608184,422287,394377,0.22900002,0.4203421,0.65300006,1.179,0.57,1.04,102,3,0.4,0.07,-0.39400002,0.52000004,4.9138303,0,nan,0.0,4,1,20
403746967,1611040334999846,340361896,1087608111,421925,394016,0.157,0.20263517,0.646,1.151,0.57,1.04,102,12,0.92600006,0.025,-0.92600006,-0.119,4.688075,0,nan,0.0,4,1,20
404749940,1611040335999846,340361908,1087607997,422161,394251,0.15900001,0.1384601,0.642,1.13,0.57,1.04,102,11,1.273,0.18100001,-1.2600001,-0.30200002,4.844252,0,nan,0.0,4,1,20
405747064,1611040336999845,340361921,1087607857,422549,394639,0.201,0.1323492,0.64000005,1.1170001,0.57,1.04,102,4,1.294,-0.0050000004,-1.294,-0.1,4.748058,0,nan,0.0,4,1,20
406754950,1611040337999844,340361932,1087607710,422301,394391,0.16900001,0.10775156,0.64000005,1.108,0.57,1.04,102,9,1.3950001,0.14400001,-1.388,0.38200003,4.779554,0,nan,0.0,4,1,20
407743939,1611040338999844,340361948,1087607549,422416,394506,0.18,0.09434447,0.638,1.1,0.57,1.04,102,3,1.5610001,-0.021000002,-1.5610001,-0.17600001,4.7385287,0,nan,0.0,4,1,20
408755634,1611040339999843,340361936,1087607400,422738,394828,0.15300001,0.11515769,0.63600004,1.0910001,0.57,1.04,102,3,1.248,-0.22100002,-1.2290001,-0.179,4.5603385,0,nan,0.0,4,1,20
409748417,1611040340999842,340361900,1087607285,423039,395129,0.216,0.2039684,0.63600004,1.09,0.57,1.04,103,3,0.87600005,-0.298,-0.82400006,0.44000003,4.3884397,0,nan,0.0,4,1,20
410746511,1611040341999842,340361897,1087607215,422791,394881,0.178,0.2872838,0.637,1.092,0.57,1.04,102,4,0.60200006,0.12100001,-0.59000003,0.019000001,4.825122,0,nan,0.0,4,1,20
411736941,1611040342999841,340361920,1087607149,422919,395009,0.15300001,0.23042256,0.637,1.09,0.57,1.04,102,4,0.74700004,0.223,-0.71300006,-0.089,5.022366,0,nan,0.0,4,1,20
412746046,1611040343999840,340361928,1087607046,423015,395105,0.18100001,0.18100217,0.63900006,1.087,0.57,1.04,118,4,1.0500001,0.062000003,-1.049,0.058000002,4.7716265,0,nan,0.0,4,1,20
413737968,1611040344999840,340361924,1087606910,422875,394965,0.185,0.11867435,0.643,1.0890001,0.57,1.04,118,3,1.4300001,-0.127,-1.424,-0.043,4.6579485,0,nan,0.0,4,1,20
414741977,1611040345999839,340361908,1087606772,423341,395431,0.21400002,0.18050177,0.647,1.097,0.57,1.04,118,4,1.246,-0.33100003,-1.202,-0.367,4.525966,0,nan,0.0,4,1,20
415729942,1611040346999838,340361898,1087606658,423423,395513,0.21300001,0.22221863,0.652,1.11,0.57,1.04,117,3,0.86100006,0.009000001,-0.86100006,0.164,4.7034497,0,nan,0.0,4,1,20
416737940,1611040347999838,340361889,1087606583,423542,395633,0.215,0.3127979,0.65300006,1.12,0.57,1.04,110,4,0.588,-0.064,-0.58500004,-0.293,4.6119766,0,nan,0.0,4,1,20
417738960,1611040348999837,340361885,1087606521,423543,395633,0.21900001,0.2381931,0.657,1.121,0.57,1.04,110,3,0.76500005,0.054,-0.763,0.20700002,4.7862773,0,nan,0.0,4,1,20
418744940,1611040349999836,340361869,1087606425,423384,395474,0.185,0.1811931,0.657,1.118,0.59,1.06,110,3,1.105,-0.36200002,-1.044,0.075,4.479993,0,nan,0.0,4,1,19
419739940,1611040350999836,340361861,1087606286,423555,395645,0.17400001,0.1162953,0.65500003,1.11,0.57,1.04,110,3,1.4720001,0.058000002,-1.4710001,-0.23200001,4.727863,0,nan,0.0,4,1,20
420736979,1611040351999835,340361895,1087606119,423897,395987,0.21100001,0.12595987,0.656,1.1170001,0.57,1.04,110,4,1.6040001,0.43500003,-1.544,-0.43300003,5.0063066,0,nan,0.0,4,1,20
421741024,1611040352999834,340361927,1087605963,424321,396411,0.19700001,0.12913917,0.66200006,1.139,0.57,1.04,110,3,1.3800001,-0.051000003,-1.3790001,0.07300001,4.814728,0,nan,0.0,4,1,20
422735979,1611040353999834,340361923,1087605829,424730,396820,0.21900001,0.16139235,0.67,1.1680001,0.57,1.04,110,3,1.274,-0.268,-1.245,-0.15,4.5686545,0,nan,0.0,4,1,20
423735325,1611040354999833,340361887,1087605689,424764,396854,0.18400002,0.13116062,0.67200005,1.195,0.59999996,1.1,110,3,1.322,-0.397,-1.261,-0.164,4.3999157,0,nan,0.0,4,1,19
424741938,1611040355999832,340361851,1087605559,425025,397115,0.179,0.1502217,0.67600006,1.2270001,0.57,1.04,110,4,1.1750001,-0.34,-1.125,-0.056,4.42879,0,nan,0.0,4,1,20
425734080,1611040356999831,340361800,1087605451,424928,397018,0.22500001,0.16754845,0.68200004,1.2570001,0.57,1.04,110,4,1.1270001,-0.47400004,-1.023,0.033,4.2383304,0,nan,0.0,4,1,20
426733946,1611040357999831,340361743,1087605357,425193,397283,0.20300001,0.21286996,0.68500006,1.2800001,0.59999996,1.1,110,6,0.869,-0.38000003,-0.78200006,-0.08400001,4.174252,0,nan,0.0,4,1,19
427733027,1611040358999830,340361746,1087605297,424927,397017,0.296,0.39423445,0.688,1.302,0.59999996,1.1,110,6,0.53900003,0.27800003,-0.462,0.666,5.0825715,0,nan,0.0,4,1,19
428737186,1611040359999829,340361748,1087605221,424816,396905,0.22200002,0.20952171,0.693,1.3310001,0.59999996,1.1,110,5,0.90400004,0.1,-0.89900005,0.18100001,4.8050866,0,nan,0.0,4,1,19
429728940,1611040360999829,340361746,1087605132,425288,397378,0.23900001,0.27083495,0.70000005,1.3670001,0.65,1.1999999,109,3,0.688,0.020000001,-0.68700004,-0.38500002,4.7457266,0,nan,0.0,4,1,17
430736944,1611040361999828,340361736,1087605076,425113,397203,0.349,0.7527673,0.70600003,1.406,0.64,1.1999999,109,9,0.23900001,-0.089,-0.22200002,0.68200004,4.5100775,0,nan,0.0,4,1,18
431736045,1611040362999827,340361724,1087605032,424549,396639,0.29500002,0.6389694,0.71300006,1.452,0.64,1.1999999,109,8,0.30100003,-0.11800001,-0.277,0.28500003,4.3437796,0,nan,0.0,4,1,18
432736741,1611040363999827,340361701,1087605006,424283,396373,0.282,0.5224236,0.72,1.498,0.69,1.3,110,7,0.23200001,-0.23200001,0.001,0.351,3.9507515,0,nan,0.0,4,1,17
433727966,1611040364999826,340361673,1087605002,424211,396301,0.328,0.5610594,0.72700006,1.5430001,0.69,1.3,110,3,0.358,-0.351,0.067,-0.31300002,3.286043,0,nan,0.0,4,1,17
434733999,1611040365999825,340361647,1087605015,424185,396275,0.223,0.43369913,0.734,1.5830001,0.69,1.3,109,3,0.47200003,-0.37800002,0.28300002,0.307,2.5835695,0,nan,0.0,4,1,17
435735963,1611040366999825,340361627,1087605050,424030,396120,0.4,0.6254766,0.739,1.613,0.69,1.3,109,5,0.31300002,-0.177,0.25800002,-0.577,2.056879,0,nan,0.0,4,1,17
436737035,1611040367999824,340361601,1087605059,424432,396522,0.216,0.5972791,0.74500006,1.6400001,0.69,1.3,109,4,0.31500003,-0.172,-0.264,0.102000006,3.4208577,0,nan,0.0,4,1,17
437726977,1611040368999823,340361565,1087604987,423794,395884,0.25300002,0.19316813,0.749,1.6700001,0.69,1.3,109,3,0.95300007,-0.56700003,-0.76600003,0.47800002,4.123269,0,nan,0.0,4,1,17
438733048,1611040369999823,340361488,1087604951,424249,396339,0.266,0.16652046,0.758,1.705,0.69,1.3,109,4,1.187,-1.177,-0.15,-0.56100005,3.3399014,0,nan,0.0,4,1,17
439732100,1611040370999822,340361373,1087604904,424049,396139,0.17400001,0.1447508,0.767,1.7400001,0.69,1.3,109,4,1.307,-1.2700001,-0.30900002,0.286,3.4047298,0,nan,0.0,4,1,17
440746211,1611040371999821,340361259,1087604866,423910,395999,0.18,0.17073263,0.777,1.774,0.69,1.3,109,4,1.195,-1.1830001,-0.165,0.081,3.3480246,0,nan,0.0,4,1,17
441738975,1611040372999821,340361151,1087604852,424073,396163,0.21100001,0.18490785,0.77800006,1.7780001,0.69,1.3,99,3,1.041,-1.029,-0.16000001,-0.216,3.2721367,0,nan,0.0,4,1,17
442747015,1611040373999820,340361051,1087604837,424243,396332,0.18200001,0.17555235,0.78300005,1.7900001,0.59999996,1.06,99,6,1.1810001,-1.1800001,-0.034,0.15400001,3.2267487,0,nan,0.0,4,1,19
443736940,1611040374999819,340360941,1087604837,424259,396349,0.20300001,0.17463642,0.785,1.7980001,0.64,1.15,99,5,1.131,-1.13,0.021000002,-0.128,3.1469634,0,nan,0.0,4,1,18
444736952,1611040375999819,340360826,1087604819,424462,396551,0.23900001,0.16490829,0.79,1.8130001,0.64,1.15,99,2,1.3050001,-1.291,-0.18800001,-0.39800003,3.2639155,0,nan,0.0,4,1,18
445739941,1611040376999818,340360692,1087604786,424718,396808,0.17400001,0.13089567,0.794,1.8210001,0.64,1.15,99,3,1.4790001,-1.4360001,-0.35700002,0.12100001,3.368161,0,nan,0.0,4,1,18
446738420,1611040377999817,340360568,1087604762,424488,396578,0.18,0.18780091,0.79600006,1.8180001,0.64,1.15,99,4,1.001,-1.001,0.030000001,0.030000001,3.2104478,0,nan,0.0,4,1,18
447738946,1611040378999817,340360497,1087604751,424460,396550,0.202,0.23848982,0.799,1.835,0.64,1.15,99,5,0.8,-0.77300006,-0.209,0.42900002,3.3252814,0,nan,0.0,4,1,18
448745986,1611040379999816,340360421,1087604733,424279,396368,0.165,0.24619457,0.799,1.8310001,0.61,1.11,99,9,0.74200004,-0.74200004,-0.007,0.15100001,3.2914424,0,nan,0.0,4,1,19
449738978,1611040380999815,340360332,1087604720,424440,396530,0.23,0.14508188,0.79700005,1.838,0.61,1.11,99,9,1.2340001,-1.2260001,-0.14500001,-0.45700002,3.2628713,0,nan,0.0,4,1,19
450731964,1611040381999814,340360213,1087604691,424588,396678,0.17300001,0.13840827,0.79600006,1.8390001,0.61,1.11,99,3,1.3820001,-1.371,-0.18,0.119,3.2978818,0,nan,0.0,4,1,19
451727939,1611040382999814,340360083,1087604671,424547,396637,0.16000001,0.110456474,0.79,1.797,0.61,1.11,99,3,1.498,-1.496,-0.085,0.22200002,3.23065,0,nan,0.0,4,1,19
452737213,1611040383999813,340359936,1087604655,424971,397061,0.22000001,0.10706723,0.78000003,1.7550001,0.61,1.11,99,3,1.6060001,-1.6060001,-0.018000001,-0.64000005,3.1931162,0,nan,0.0,4,1,19
453732942,1611040384999812,340359791,1087604665,424893,396983,0.164,0.11170107,0.768,1.7010001,0.61,1.11,99,3,1.4430001,-1.417,0.273,0.62700003,3.0006795,0,nan,0.0,4,1,19
454742981,1611040385999812,340359673,1087604709,424665,396755,0.21700001,0.13376708,0.75500005,1.6420001,0.61,1.11,99,3,1.189,-1.144,0.32500002,-0.393,2.821374,0,nan,0.0,4,1,19
455748039,1611040386999811,340359582,1087604730,425214,397304,0.268,0.19085279,0.748,1.5970001,0.61,1.11,99,5,0.83400005,-0.827,0.105000004,-0.92600006,2.966423,0,nan,0.0,4,1,19
456738778,1611040387999810,340359510,1087604721,425362,397452,0.16000001,0.24485868,0.739,1.5480001,0.61,1.11,99,5,0.702,-0.68,-0.17400001,0.194,3.3002625,0,nan,0.0,4,1,19
457731938,1611040388999810,340359458,1087604684,424871,396961,0.17300001,0.18453191,0.73,1.5090001,0.61,1.11,99,6,0.82500005,-0.80300003,-0.18800001,0.49300003,3.4858918,0,nan,0.0,4,1,19
458732981,1611040389999809,340359373,1087604679,424939,397029,0.224,0.1172788,0.72300005,1.4790001,0.61,1.11,99,4,1.1700001,-1.169,0.053000003,-0.55700004,3.122734,0,nan,0.0,4,1,19
459731945,1611040390999808,340359284,1087604690,425325,397415,0.22900002,0.19933788,0.71500003,1.4490001,0.61,1.11,99,3,0.81600004,-0.808,0.117000006,-0.462,2.947156,0,nan,0.0,4,1,19
460749839,1611040391999808,340359231,1087604698,425040,397130,0.17300001,0.24465501,0.708,1.414,0.61,1.11,99,4,0.6,-0.58500004,0.134,0.052,2.950442,0,nan,0.0,4,1,19
461733997,1611040392999807,340359190,1087604676,424671,396761,0.158,0.27852994,0.703,1.391,0.61,1.11,99,4,0.56600004,-0.48100004,-0.298,0.106000006,3.5988708,0,nan,0.0,4,1,19
462730427,1611040393999806,340359144,1087604650,424689,396779,0.223,0.2764865,0.697,1.3690001,0.61,1.11,99,3,0.61800003,-0.606,-0.120000005,-0.22200002,3.4036589,0,nan,0.0,4,1,19
463738485,1611040394999806,340359065,1087604629,424775,396865,0.21000001,0.16275178,0.69600004,1.366,0.61,1.11,99,4,1.1290001,-1.118,-0.15100001,-0.17300001,3.2809203,0,nan,0.0,4,1,19
464732939,1611040395999805,340358977,1087604621,424643,396733,0.15300001,0.19415164,0.69100004,1.3470001,0.64,1.15,99,3,0.78700006,-0.777,-0.128,0.43100002,3.289485,0,nan,0.0,4,1,18
465744951,1611040396999804,340358915,1087604612,424487,396577,0.179,0.298889,0.68700004,1.33,0.61,1.11,99,3,0.528,-0.521,-0.089,-0.036000002,3.292836,0,nan,0.0,4,1,19
466748231,1611040397999804,340358849,1087604599,424543,396632,0.164,0.19510302,0.68100005,1.3100001,0.57,1.04,99,3,0.76000005,-0.725,-0.22900002,0.21900001,3.4103706,0,nan,0.0,4,1,20
467735938,1611040398999803,340358782,1087604589,424382,396472,0.187,0.21114783,0.675,1.291,0.57,1.04,99,3,0.78800005,-0.78700006,0.039,-0.031000001,3.1976552,0,nan,0.0,4,1,20
468736984,1611040399999802,340358702,1087604596,424623,396713,0.20300001,0.1374363,0.67200005,1.2830001,0.57,1.04,99,3,1.0250001,-1.0250001,0.0050000004,-0.374,3.1192334,0,nan,0.0,4,1,20
469736771,1611040400999802,340358622,1087604628,424958,397048,0.16800001,0.17886308,0.66700006,1.273,0.57,1.04,99,4,0.82100004,-0.689,0.44700003,0.031000001,2.6756377,0,nan,0.0,4,1,20
470736963,1611040401999801,340358571,1087604686,424809,396899,0.164,0.23885162,0.66300005,1.2600001,0.57,1.04,99,3,0.67600006,-0.21900001,0.64000005,-0.038000003,2.1358364,0,nan,0.0,4,1,20
471738974,1611040402999800,340358548,1087604771,425381,397471,0.133,0.19990355,0.657,1.24,0.57,1.04,99,3,0.776,-0.015000001,0.776,-0.155,1.7627689,0,nan,0.0,4,1,20
472750939,1611040403999800,340358547,1087604867,425292,397382,0.19700001,0.2331943,0.652,1.218,0.57,1.04,99,3,0.73300004,0.20600002,0.703,0.49100003,1.3857559,0,nan,0.0,4,1,20
473734939,1611040404999799,340358574,1087604955,425640,397730,0.14500001,0.15683196,0.648,1.1980001,0.56,0.98999995,99,4,1.0270001,0.28500003,0.98600006,-0.158,1.2279426,0,nan,0.0,4,1,21
474741961,1611040405999798,340358602,1087605062,425486,397576,0.136,0.16410859,0.64400005,1.1800001,0.56,0.98999995,99,4,1.1110001,0.485,0.9990001,0.135,1.1633149,0,nan,0.0,4,1,21
475736938,1611040406999797,340358644,1087605168,425405,397495,0.16100001,0.16403215,0.64000005,1.1630001,0.56,0.98999995,99,4,0.97400004,0.42200002,0.878,0.22800002,1.1096495,0,nan,0.0,4,1,21
476740986,1611040407999797,340358649,1087605265,425115,397205,0.16700001,0.16470812,0.64000005,1.151,0.58,1.0,99,5,1.014,-0.124000005,1.0070001,0.17500001,1.6092454,0,nan,0.0,4,1,20
477742016,1611040408999796,340358634,1087605360,424964,397054,0.147,0.21220951,0.638,1.138,0.57,1.04,99,4,0.845,-0.027,0.84400004,0.165,1.6739519,0,nan,0.0,4,1,20
478751938,1611040409999795,340358634,1087605452,424965,397055,0.158,0.22122328,0.642,1.1370001,0.57,1.04,99,5,0.83900005,0.080000006,0.836,-0.416,1.4928836,0,nan,0.0,4,1,20
479737977,1611040410999795,340358652,1087605541,424786,396876,0.16000001,0.19986062,0.64100003,1.131,0.59,1.06,99,5,0.86,0.104,0.85400003,0.323,1.4010315,0,nan,0.0,4,1,19
480749148,1611040411999794,340358658,1087605636,424401,396491,0.147,0.15780918,0.643,1.131,0.57,1.04,91,4,1.0020001,-0.021000002,1.0020001,0.273,1.5897555,0,nan,0.0,4,1,20
481743013,1611040412999793,340358654,1087605742,424247,396337,0.14600001,0.21534902,0.642,1.1220001,0.61,1.06,91,4,0.89400005,0.056,0.892,-0.25,1.5757556,0,nan,0.0,4,1,20
482750276,1611040413999793,340358653,1087605865,424602,396693,0.13100001,0.113817975,0.642,1.1140001,0.56,0.98999995,91,4,1.327,-0.004,1.327,-0.254,1.5713661,0,nan,0.0,4,1,21
483738938,1611040414999792,340358657,1087606008,424542,396632,0.15400001,0.12222313,0.63900006,1.1060001,0.59,1.05,92,4,1.4410001,0.089,1.439,0.17600001,1.5105914,0,nan,0.0,4,1,20
484759936,1611040415999791,340358668,1087606170,424427,396517,0.148,0.13253367,0.63900006,1.102,0.56,0.98999995,98,3,1.575,0.043,1.575,-0.098000005,1.5131816,0,nan,0.0,4,1,21
485742996,1611040416999791,340358663,1087606330,424558,396648,0.162,0.12119339,0.64000005,1.0990001,0.56,0.98999995,98,4,1.368,-0.034,1.368,-0.172,1.6096189,0,nan,0.0,4,1,21
486750153,1611040417999790,340358654,1087606469,424668,396759,0.156,0.14908253,0.63900006,1.098,0.53,0.88,98,4,1.192,-0.156,1.182,-0.15200001,1.6909382,0,nan,0.0,4,1,22
487746942,1611040418999789,340358643,1087606585,424845,396935,0.162,0.16207442,0.638,1.0990001,0.53,0.88,98,3,1.026,-0.294,0.98300004,-0.194,1.7767036,0,nan,0.0,4,1,22
488756012,1611040419999789,340358628,1087606693,424934,397024,0.149,0.17165679,0.63500005,1.097,0.53,0.88,98,4,0.9620001,-0.068,0.96000004,-0.171,1.6996739,0,nan,0.0,4,1,22
489744941,1611040420999788,340358630,1087606795,425057,397148,0.15,0.2520917,0.637,1.1,0.53,0.88,98,4,0.84900004,0.193,0.82600003,-0.14400001,1.462914,0,nan,0.0,4,1,22
490749410,1611040421999787,340358641,1087606892,425156,397246,0.16000001,0.17488094,0.63500005,1.1060001,0.53,0.88,98,4,0.94900006,-0.215,0.924,-0.15100001,1.6354558,0,nan,0.0,4,1,22
491737087,1611040422999787,340358622,1087606996,425145,397236,0.143,0.15308893,0.632,1.105,0.53,0.88,98,4,1.0610001,-0.326,1.01,-0.089,1.8370178,0,nan,0.0,4,1,22
492744974,1611040423999786,340358608,1087607139,424955,397046,0.15200001,0.12085776,0.628,1.105,0.53,0.88,98,4,1.5250001,-0.086,1.5230001,0.165,1.6181175,0,nan,0.0,4,1,22
493736941,1611040424999785,340358616,1087607304,424841,396932,0.156,0.12690009,0.62700003,1.1170001,0.56,0.98999995,98,4,1.4360001,0.14400001,1.429,0.051000003,1.4959173,0,nan,0.0,4,1,21
494737008,1611040425999785,340358607,1087607455,424755,396846,0.142,0.12405242,0.62600005,1.115,0.56,0.98999995,98,3,1.3280001,-0.178,1.3160001,0.093,1.7146628,0,nan,0.0,4,1,21
495738951,1611040426999784,340358584,1087607595,424644,396735,0.13800001,0.12590753,0.624,1.107,0.56,0.98999995,98,4,1.3670001,-0.13700001,1.36,0.23900001,1.7211765,0,nan,0.0,4,1,21
496751297,1611040427999783,340358579,1087607752,424609,396699,0.143,0.12574154,0.623,1.102,0.56,0.98999995,98,5,1.4510001,0.028,1.45,-0.057000004,1.5835061,0,nan,0.0,4,1,21
497739939,1611040428999783,340358581,1087607897,424567,396658,0.13800001,0.14293024,0.623,1.0890001,0.56,0.98999995,98,4,1.314,-0.096,1.3110001,-0.10700001,1.6007192,0,nan,0.0,4,1,21
498733937,1611040429999782,340358565,1087608038,424587,396678,0.148,0.15683459,0.62,1.082,0.56,0.98999995,98,3,1.205,-0.14,1.197,0.1,1.7180488,0,nan,0.0,4,1,21
499731947,1611040430999781,340358559,1087608180,424622,396713,0.149,0.14793393,0.619,1.082,0.56,0.98999995,98,4,1.3290001,0.034,1.3290001,-0.056,1.5816205,0,nan,0.0,4,1,21
500751968,1611040431999781,340358582,1087608314,424839,396930,0.155,0.15359648,0.619,1.0830001,0.56,0.98999995,98,3,1.1750001,0.19800001,1.1580001,-0.14500001,1.3641032,0,nan,0.0,4,1,21
501736638,1611040432999780,340358584,1087608431,424945,397036,0.15900001,0.1902161,0.62100005,1.087,0.56,0.98999995,98,3,1.1060001,-0.155,1.095,-0.208,1.6501646,0,nan,0.0,4,1,21
502749943,1611040433999779,340358574,1087608537,425177,397267,0.147,0.19665183,0.623,1.0910001,0.56,0.98999995,98,4,0.892,-0.025,0.892,-0.15300001,1.6541221,0,nan,0.0,4,1,21
503734951,1611040434999779,340358580,1087608631,425391,397481,0.142,0.214635,0.62200004,1.0860001,0.56,0.98999995,98,4,0.83400005,0.21800001,0.80500007,-0.135,1.392204,0,nan,0.0,4,1,21
504736961,1611040435999778,340358610,1087608717,425278,397368,0.16100001,0.2076329,0.623,1.09,0.56,0.98999995,98,4,0.78700006,0.29200003,0.731,0.142,1.2133379,0,nan,0.0,4,1,21
505736935,1611040436999777,340358650,1087608795,425032,397123,0.19600001,0.18520804,0.62200004,1.093,0.56,0.98999995,98,4,0.869,0.448,0.74500006,0.446,1.0099264,0,nan,0.0,4,1,21
506736043,1611040437999776,340358701,1087608867,424884,396975,0.14600001,0.18774575,0.619,1.0810001,0.56,0.98999995,98,4,0.81900007,0.55200005,0.605,0.049000002,0.8439965,0,nan,0.0,4,1,21
507740665,1611040438999776,340358756,1087608930,424524,396614,0.21200001,0.2564388,0.615,1.0680001,0.56,0.98999995,98,8,0.62,0.462,0.41400003,0.34100002,0.7933254,0,nan,0.0,4,1,21
508742940,1611040439999775,340358819,1087609005,424268,396358,0.20600002,0.1368249,0.61600006,1.0660001,0.59999996,1.1,98,7,1.2240001,1.023,0.671,0.591,0.68499124,0,nan,0.0,4,1,19
509735329,1611040440999774,340358938,1087609068,423907,395998,0.16600001,0.0960542,0.619,1.072,0.57,1.03,98,6,1.654,1.5450001,0.59000003,-0.10700001,0.38757983,0,nan,0.0,4,1,20
510730968,1611040441999774,340359074,1087609119,424317,396408,0.185,0.13105659,0.62100005,1.07,0.57,1.03,98,3,1.4030001,1.3460001,0.397,-0.24800001,0.29120922,0,nan,0.0,4,1,20
511737962,1611040442999773,340359205,1087609159,424559,396650,0.21000001,0.13195543,0.625,1.074,0.61,1.12,98,3,1.3240001,1.279,0.34100002,-0.342,0.22627495,0,nan,0.0,4,1,18
512744947,1611040443999772,340359335,1087609172,424965,397055,0.17300001,0.10600798,0.73,1.246,0.56,0.98999995,98,3,1.1910001,1.1680001,-0.23300001,0.054,6.189359,0,nan,0.0,4,1,21
513738951,1611040444999772,340359445,1087609125,424790,396881,0.21800001,0.1508029,0.62600005,1.0610001,0.59999996,1.1,98,5,1.243,1.176,-0.404,0.17300001,5.930762,0,nan,0.0,4,1,19
514751939,1611040445999771,340359561,1087609099,424731,396821,0.23200001,0.13172506,0.67200005,1.139,0.58,1.03,98,3,1.197,1.1850001,-0.172,0.28300002,6.099498,0,nan,0.0,4,1,20
515738276,1611040446999770,340359707,1087609084,424745,396835,0.18900001,0.10254664,0.814,1.3820001,0.56,0.98999995,98,3,1.5530001,1.5500001,-0.10300001,0.11000001,6.198996,0,nan,0.0,4,1,21
516740972,1611040447999770,340359852,1087609100,425262,397353,0.19800001,0.09236962,0.63500005,1.0760001,0.59,1.05,98,3,1.7420001,1.7220001,0.26200002,-0.416,0.15916651,0,nan,0.0,4,1,19
517736010,1611040448999769,340359989,1087609127,425923,398013,0.22800002,0.119471624,0.638,1.074,0.59,1.05,98,3,1.394,1.3870001,0.14400001,-0.097,0.14042604,0,nan,0.0,4,1,19
518737596,1611040449999768,340360106,1087609150,426043,398133,0.21000001,0.12344905,0.64500004,1.0810001,0.57,1.03,98,2,1.284,1.269,0.19700001,0.052,0.1452119,0,nan,0.0,4,1,20
519733969,1611040450999768,340360212,1087609166,425848,397939,0.172,0.13602851,0.647,1.09,0.62,1.0699999,98,3,1.146,1.146,0.034,-0.030000001,0.08477413,0,nan,0.0,4,1,18
520748024,1611040451999767,340360305,1087609165,426311,398402,0.19100001,0.1377461,0.64900005,1.093,0.56,0.98999995,98,2,1.054,1.054,-0.016,-0.57900006,6.267018,0,nan,0.0,4,1,21
521732938,1611040452999766,340360399,1087609154,426993,399084,0.193,0.16975997,0.652,1.092,0.59,1.06,98,4,0.89400005,0.87500006,-0.187,-0.546,6.15629,0,nan,0.0,4,1,19
522738942,1611040453999766,340360477,1087609146,426699,398790,0.282,0.31741428,0.656,1.0960001,0.58,1.02,98,4,0.46400002,0.46400002,0.026,0.591,6.187722,0,nan,0.0,4,1,20
523738008,1611040454999765,340360555,1087609133,425630,397720,0.26500002,0.21800767,0.657,1.0940001,0.58,1.02,98,4,0.72700006,0.72700006,-0.020000001,0.61300004,6.137718,0,nan,0.0,4,1,20
524740940,1611040455999764,340360635,1087609125,425222,397312,0.21100001,0.14843798,0.65800005,1.0960001,0.57,1.03,98,3,1.0660001,1.0580001,0.134,0.28500003,0.03192626,0,nan,0.0,4,1,20
525733943,1611040456999764,340360725,1087609139,424703,396794,0.261,0.13531607,0.657,1.0960001,0.57,1.03,98,4,1.1730001,1.1730001,0.004,0.60200006,0.055409316,0,nan,0.0,4,1,20
526745140,1611040457999763,340360832,1087609144,424572,396662,0.19100001,0.13616481,0.65800005,1.1,0.57,1.03,98,4,1.1730001,1.172,0.038000003,-0.172,0.02269277,0,nan,0.0,4,1,20
527735938,1611040458999762,340360923,1087609156,424336,396426,0.259,0.21227409,0.657,1.095,0.58,1.03,98,4,0.81100005,0.81100005,0.035,0.65900004,0.12524499,0,nan,0.0,4,1,20
528734941,1611040459999762,340361016,1087609177,424041,396132,0.201,0.1311505,0.656,1.0910001,0.56,0.98999995,98,3,1.1240001,1.1010001,0.22200002,-0.008,0.16700934,0,nan,0.0,4,1,21
529735943,1611040460999761,340361127,1087609192,424391,396481,0.186,0.12655644,0.656,1.0910001,0.59999996,1.1,99,5,1.3470001,1.342,-0.113000005,-0.509,6.2738624,0,nan,0.0,4,1,19
530743942,1611040461999760,340361243,1087609214,424748,396838,0.192,0.15255363,0.657,1.0940001,0.58,1.03,99,4,1.041,1.013,0.24000001,0.179,0.18872279,0,nan,0.0,4,1,20
531735142,1611040462999760,340361332,1087609243,424352,396442,0.252,0.1303829,0.65800005,1.1,0.57,1.03,99,4,1.12,1.116,0.09,0.61800003,0.13388821,0,nan,0.0,4,1,20
532740015,1611040463999759,340361414,1087609249,424081,396171,0.24000001,0.19194502,0.66,1.11,0.57,1.03,99,3,0.82500005,0.82500005,0.007,0.18,6.272608,0,nan,0.0,4,1,20
533738942,1611040464999758,340361496,1087609245,424828,396919,0.19500001,0.2679958,0.66300005,1.12,0.57,1.03,99,3,0.56700003,0.56600004,0.032,-0.384,6.2088413,0,nan,0.0,4,1,20
534732938,1611040465999758,340361557,1087609247,425144,397235,0.224,0.25518006,0.66800004,1.1340001,0.58,1.03,99,3,0.72,0.69000006,0.20500001,-0.65900004,0.12683673,0,nan,0.0,4,1,20
535734974,1611040466999757,340361615,1087609249,425518,397608,0.20700002,0.2890169,0.671,1.139,0.56,0.98999995,99,3,0.49600002,0.49300003,0.062000003,0.13100001,0.044079512,0,nan,0.0,4,1,21
536747081,1611040467999756,340361654,1087609262,426169,398259,0.17400001,0.47153473,0.671,1.139,0.57,1.03,99,4,0.34300002,0.34100002,0.034,-0.067,0.14006232,0,nan,0.0,4,1,20
537735011,1611040468999756,340361676,1087609273,425843,397933,0.29700002,0.7736165,0.674,1.146,0.56,0.98999995,99,3,0.13100001,0.09,0.095000006,0.859,0.1988307,0,nan,0.0,4,1,21
538744943,1611040469999755,340361680,1087609265,425458,397549,0.21100001,0.40201074,0.67,1.138,0.56,0.98999995,99,3,0.38700002,0.13100001,-0.365,-0.497,5.224811,0,nan,0.0,4,1,21
539731005,1611040470999754,340361699,1087609203,426039,398130,0.20500001,0.21514097,0.666,1.133,0.56,0.98999995,99,3,0.744,0.24700001,-0.702,0.416,4.997669,0,nan,0.0,4,1,21
540744947,1611040471999754,340361716,1087609096,425994,398085,0.16100001,0.13797525,0.66200006,1.1320001,0.57,1.03,99,3,1.3520001,0.377,-1.299,-0.101,4.9925127,0,nan,0.0,4,1,20
541739951,1611040472999753,340361743,1087608954,426411,398501,0.15200001,0.12258948,0.65900004,1.13,0.56,0.98999995,99,4,1.2980001,0.354,-1.2490001,-0.16900001,4.960656,0,nan,0.0,4,1,21
542740942,1611040473999752,340361763,1087608831,426211,398301,0.18200001,0.16338916,0.656,1.12,0.56,0.98999995,99,4,1.335,0.19600001,-1.3210001,0.18400002,4.8856797,0,nan,0.0,4,1,21
543734185,1611040474999751,340361774,1087608667,426454,398544,0.17300001,0.10750425,0.65400004,1.1170001,0.57,1.03,99,4,1.651,0.179,-1.641,-0.54700005,4.8140016,0,nan,0.0,4,1,20
544742956,1611040475999751,340361794,1087608494,426482,398572,0.16100001,0.086926475,0.646,1.09,0.56,0.98999995,99,3,1.5180001,0.17400001,-1.5070001,0.07300001,4.831004,0,nan,0.0,4,1,21
545733940,1611040476999750,340361819,1087608340,425981,398072,0.178,0.122671336,0.64000005,1.075,0.56,0.98999995,99,3,1.2340001,0.27800003,-1.202,0.32200003,4.917973,0,nan,0.0,4,1,21
546730940,1611040477999749,340361836,1087608197,426000,398090,0.16000001,0.13581017,0.637,1.0660001,0.56,0.98999995,99,3,1.217,0.157,-1.207,-0.238,4.8467674,0,nan,0.0,4,1,21
547739944,1611040478999749,340361853,1087608060,426001,398092,0.18,0.15275365,0.634,1.0600001,0.56,0.98999995,99,3,1.235,0.208,-1.217,-0.22000001,4.852623,0,nan,0.0,4,1,21
548736941,1611040479999748,340361872,1087607926,426094,398184,0.17300001,0.14608876,0.633,1.059,0.57,1.03,99,8,1.1270001,0.19100001,-1.11,-0.231,4.8957963,0,nan,0.0,4,1,20
549740997,1611040480999747,340361892,1087607787,426023,398113,0.158,0.13093932,0.63000005,1.049,0.56,0.98999995,99,10,1.3050001,0.07700001,-1.3030001,-0.101,4.813408,0,nan,0.0,4,1,21
550751494,1611040481999747,340361889,1087607644,426172,398262,0.172,0.13011186,0.63000005,1.049,0.56,0.98999995,99,11,1.258,-0.108,-1.2540001,-0.264,4.6521325,0,nan,0.0,4,1,21
551732080,1611040482999746,340361894,1087607507,426665,398755,0.215,0.18383744,0.63000005,1.046,0.56,0.98999995,99,3,0.87100005,-0.015000001,-0.87100005,-0.80600005,4.7030187,0,nan,0.0,4,1,21
552737829,1611040483999745,340361900,1087607402,426966,399056,0.157,0.19279361,0.63100004,1.049,0.56,0.98999995,99,3,0.86,0.23900001,-0.82600003,0.041,4.880242,0,nan,0.0,4,1,21
553735947,1611040484999745,340361925,1087607299,426346,398436,0.208,0.14296846,0.63100004,1.047,0.56,0.98999995,99,3,1.0250001,0.252,-0.994,0.84900004,4.940131,0,nan,0.0,4,1,21
554741161,1611040485999744,340361946,1087607171,425755,397845,0.16100001,0.14533322,0.634,1.0500001,0.56,0.98999995,99,3,1.0890001,0.26500002,-1.056,0.423,4.933591,0,nan,0.0,4,1,21
555741250,1611040486999743,340361957,1087607052,425431,397522,0.164,0.15139492,0.633,1.0500001,0.56,0.98999995,99,4,1.0380001,0.119,-1.031,0.307,4.805046,0,nan,0.0,4,1,21
556749169,1611040487999743,340361960,1087606916,425430,397520,0.16700001,0.12804624,0.633,1.056,0.56,0.98999995,99,3,1.3720001,0.113000005,-1.3670001,-0.042000003,4.7631617,0,nan,0.0,4,1,21
557733942,1611040488999742,340361964,1087606753,425644,397734,0.158,0.10152598,0.632,1.0600001,0.56,0.98999995,99,4,1.5050001,0.033,-1.5040001,-0.32000002,4.7388744,0,nan,0.0,4,1,21
558738972,1611040489999741,340361968,1087606557,425924,398014,0.19100001,0.100585416,0.633,1.0600001,0.56,0.98999995,99,3,1.7670001,-0.026,-1.7670001,-0.266,4.7114196,0,nan,0.0,4,1,21
559737037,1611040490999741,340361960,1087606368,426379,398469,0.18800001,0.099595994,0.634,1.069,0.56,0.98999995,99,3,1.6200001,-0.21800001,-1.605,-0.215,4.610118,0,nan,0.0,4,1,21
560739008,1611040491999740,340361926,1087606212,426472,398562,0.19800001,0.13066511,0.638,1.08,0.56,0.98999995,99,3,1.3490001,-0.54,-1.2370001,-0.085,4.3749123,0,nan,0.0,4,1,21
561735177,1611040492999739,340361886,1087606090,426855,398945,0.22500001,0.15216862,0.63900006,1.085,0.56,0.98999995,99,4,1.115,-0.48100004,-1.006,-0.62600005,4.2904525,0,nan,0.0,4,1,21
562744938,1611040493999739,340361862,1087605991,427092,399182,0.18300001,0.19366138,0.63900006,1.0890001,0.56,0.98999995,99,4,0.84000003,-0.055000003,-0.83800006,-0.22600001,4.570368,0,nan,0.0,4,1,21
563733943,1611040494999738,340361882,1087605892,427104,399194,0.193,0.18545084,0.638,1.092,0.56,0.98999995,99,4,0.95500004,0.27800003,-0.91400003,0.132,4.9927373,0,nan,0.0,4,1,21
564736986,1611040495999737,340361892,1087605773,427312,399402,0.194,0.18743944,0.63900006,1.0990001,0.56,0.98999995,99,3,0.95900005,0.07,-0.957,-0.324,4.732606,0,nan,0.0,4,1,21
565742984,1611040496999737,340361879,1087605653,427375,399465,0.202,0.19974996,0.642,1.1120001,0.56,0.98999995,99,3,0.915,-0.053000003,-0.91300005,0.268,4.6046176,0,nan,0.0,4,1,21
566757936,1611040497999736,340361856,1087605559,426748,398838,0.22100002,0.20019084,0.646,1.1290001,0.56,0.98999995,99,3,0.85800004,-0.32000002,-0.79600006,0.537,4.4114256,0,nan,0.0,4,1,21
567737940,1611040498999735,340361822,1087605470,426640,398730,0.18200001,0.15970461,0.651,1.144,0.56,0.98999995,99,3,1.0300001,-0.26700002,-0.99500006,0.076000005,4.3609743,0,nan,0.0,4,1,21
568738950,1611040499999735,340361796,1087605353,426862,398951,0.194,0.14161792,0.65300006,1.1570001,0.56,0.98999995,99,4,1.264,-0.257,-1.2370001,-0.272,4.507379,0,nan,0.0,4,1,21
569735942,1611040500999734,340361770,1087605230,427369,399459,0.22200002,0.14906962,0.65800005,1.1730001,0.58,0.98999995,99,4,1.2570001,-0.54,-1.1350001,-0.335,4.3913264,0,nan,0.0,4,1,20
570736382,1611040501999733,340361723,1087605126,427472,399562,0.216,0.18538415,0.66400003,1.207,0.59999996,1.1,99,3,0.96000004,-0.483,-0.82900006,0.135,4.18638,0,nan,0.0,4,1,19
571737165,1611040502999733,340361669,1087605047,427489,399579,0.20400001,0.28681833,0.67,1.246,0.59999996,1.1,99,3,0.71400005,-0.52000004,-0.48900002,0.095000006,4.0124636,0,nan,0.0,4,1,19
572740949,1611040503999732,340361601,1087604990,427949,400039,0.25,0.17715667,0.67600006,1.2800001,0.58,1.03,99,3,1.0320001,-0.65800005,-0.795,-0.55200005,3.882885,0,nan,0.0,4,1,20
573731044,1611040504999731,340361528,1087604944,428470,400559,0.187,0.26834628,0.68200004,1.3110001,0.62,1.11,99,4,0.832,-0.804,-0.21100001,-0.001,3.5539155,0,nan,0.0,4,1,19
574742974,1611040505999731,340361456,1087604931,428432,400521,0.231,0.23200747,0.688,1.3490001,0.58,1.03,99,3,0.84900004,-0.84800005,-0.015000001,-0.23500001,3.1892211,0,nan,0.0,4,1,20
575734939,1611040506999730,340361384,1087604931,429092,401181,0.23200001,0.36935076,0.69200003,1.3700001,0.56,0.98999995,99,3,0.47500002,-0.47300002,-0.043,-0.19000001,3.1513069,0,nan,0.0,4,1,21
576730971,1611040507999729,340361331,1087604907,428613,400703,0.261,0.21029559,0.69500005,1.3850001,0.61,1.06,99,4,1.019,-0.813,-0.61300004,1.065,3.6878042,0,nan,0.0,4,1,19
577733942,1611040508999729,340361213,1087604865,428801,400891,0.216,0.11270027,0.70000005,1.406,0.61,1.06,99,3,1.682,-1.595,-0.53300005,-0.52900004,3.444686,0,nan,0.0,4,1,19
578734373,1611040509999728,340361081,1087604834,428914,401004,0.17,0.12804748,0.70500004,1.432,0.63,1.0799999,99,3,1.442,-1.4300001,-0.18200001,0.42700002,3.2865365,0,nan,0.0,4,1,19
579729091,1611040510999727,340360952,1087604821,428837,400926,0.20300001,0.13860008,0.712,1.4540001,0.63,1.0799999,99,4,1.3750001,-1.3690001,-0.13000001,-0.18400002,3.2187872,0,nan,0.0,4,1,19
580741890,1611040511999727,340360817,1087604819,429554,401644,0.252,0.12613615,0.716,1.468,0.58,1.0,99,4,1.434,-1.434,-0.0050000004,-0.90300006,3.1377375,0,nan,0.0,4,1,20
581734951,1611040512999726,340360699,1087604795,430376,402466,0.23700002,0.14469546,0.716,1.4720001,0.58,1.0,99,3,1.3180001,-1.268,-0.36100003,-0.54300004,3.386595,0,nan,0.0,4,1,20
582736942,1611040513999725,340360586,1087604787,430799,402888,0.162,0.15525192,0.71400005,1.465,0.58,1.0,99,3,1.121,-1.1190001,-0.069000006,0.208,3.1963742,0,nan,0.0,4,1,20
583735940,1611040514999724,340360489,1087604790,430407,402496,0.19600001,0.21121939,0.712,1.455,0.56,0.98999995,99,4,0.83800006,-0.83500004,0.069000006,0.73300004,3.0514817,0,nan,0.0,4,1,21
584736070,1611040515999724,340360400,1087604791,430033,402123,0.164,0.17996071,0.71300006,1.455,0.56,0.98999995,99,5,0.984,-0.98200005,-0.062000003,0.133,3.1875799,0,nan,0.0,4,1,21
585740045,1611040516999723,340360306,1087604780,430036,402126,0.185,0.1827323,0.71500003,1.46,0.56,0.98999995,99,3,1.031,-1.031,-0.003,-0.035,3.17943,0,nan,0.0,4,1,21
586749937,1611040517999722,340360201,1087604775,429815,401904,0.16900001,0.12814085,0.71500003,1.447,0.56,0.98999995,99,3,1.36,-1.36,-0.042000003,0.124000005,3.1741114,0,nan,0.0,4,1,21
587737089,1611040518999722,340360080,1087604761,429523,401613,0.16800001,0.14607462,0.71400005,1.437,0.56,0.98999995,99,3,1.235,-1.2310001,-0.097,0.277,3.235522,0,nan,0.0,4,1,21
588740954,1611040519999721,340359979,1087604755,429318,401408,0.155,0.1649823,0.71300006,1.4280001,0.56,0.98999995,99,3,0.934,-0.9250001,0.125,0.18100001,3.0995896,0,nan,0.0,4,1,21
589735102,1611040520999720,340359891,1087604760,429012,401102,0.17,0.15705502,0.708,1.4070001,0.56,0.98999995,99,4,1.023,-1.021,-0.048,0.257,3.1271083,0,nan,0.0,4,1,21
590731936,1611040521999720,340359798,1087604727,428597,400687,0.135,0.15508297,0.703,1.376,0.56,0.98999995,99,4,1.0480001,-0.95900005,-0.42100003,0.23600002,3.482963,0,nan,0.0,4,1,21
591735939,1611040522999719,340359698,1087604691,428392,400482,0.193,0.1821279,0.70000005,1.3620001,0.56,0.98999995,99,3,1.005,-0.95900005,-0.303,-0.23900001,3.3982525,0,nan,0.0,4,1,21
592747004,1611040523999718,340359610,1087604679,428600,400690,0.19900002,0.140425,0.697,1.3460001,0.56,0.98999995,99,3,1.0680001,-1.046,0.215,-0.28,3.0348525,0,nan,0.0,4,1,21
593737945,1611040524999718,340359510,1087604684,428390,400480,0.165,0.15681486,0.69600004,1.3410001,0.61,1.05,99,3,1.202,-1.1930001,-0.149,0.377,3.1650567,0,nan,0.0,4,1,20
594737371,1611040525999717,340359397,1087604666,428014,400104,0.155,0.15004665,0.698,1.332,0.56,0.98999995,99,3,1.2080001,-1.138,-0.407,0.22800002,3.3639605,0,nan,0.0,4,1,21
595737101,1611040526999716,340359283,1087604642,427578,399668,0.16000001,0.13422611,0.698,1.327,0.56,0.98999995,99,4,1.3000001,-1.3000001,-0.011000001,0.266,3.2374187,0,nan,0.0,4,1,21
596738951,1611040527999716,340359154,1087604639,427204,399294,0.17600001,0.102300555,0.69500005,1.315,0.56,0.98999995,99,4,1.5960001,-1.59,0.14600001,0.132,3.084084,0,nan,0.0,4,1,21
597733001,1611040528999715,340359029,1087604658,426984,399074,0.19800001,0.12867144,0.69100004,1.3050001,0.56,0.98999995,99,3,1.2570001,-1.2060001,0.35500002,-0.314,2.9210062,0,nan,0.0,4,1,21
598745983,1611040529999714,340358929,1087604685,427415,399505,0.193,0.1637892,0.68500006,1.2880001,0.56,0.98999995,99,4,0.95600003,-0.95000005,0.104,-0.23300001,3.01369,0,nan,0.0,4,1,21
599738948,1611040530999714,340358848,1087604681,427506,399596,0.17400001,0.18502374,0.67700005,1.266,0.56,0.98999995,99,6,0.74500006,-0.72800004,-0.157,-0.102000006,3.3055363,0,nan,0.0,4,1,21
600739946,1611040531999713,340358786,1087604637,427590,399680,0.165,0.19507876,0.671,1.25,0.56,0.98999995,99,6,0.92100006,-0.794,-0.467,-0.066,3.7255225,0,nan,0.0,4,1,21
601732934,1611040532999712,340358718,1087604591,427268,399358,0.18,0.25156477,0.66700006,1.233,0.56,0.98999995,99,5,0.67,-0.65400004,-0.143,0.526,3.539821,0,nan,0.0,4,1,21
602744969,1611040533999712,340358631,1087604588,427075,399165,0.16100001,0.16923307,0.66200006,1.222,0.56,0.98999995,99,4,0.79300004,-0.76900005,0.19100001,-0.019000001,3.053313,0,nan,0.0,4,1,21
603740935,1611040534999711,340358563,1087604615,427146,399236,0.18900001,0.18143761,0.657,1.2140001,0.58,1.03,99,3,0.767,-0.666,0.38000003,-0.16100001,2.7382944,0,nan,0.0,4,1,20
604751500,1611040535999710,340358503,1087604672,427525,399615,0.163,0.17886622,0.652,1.202,0.56,0.98999995,99,4,0.79700005,-0.605,0.51900005,0.016,2.4608982,0,nan,0.0,4,1,21
605743056,1611040536999710,340358447,1087604743,427477,399567,0.172,0.20506606,0.647,1.1930001,0.58,1.03,99,4,0.78400004,-0.42100003,0.661,0.22000001,2.24391,0,nan,0.0,4,1,20
606742318,1611040537999709,340358416,1087604817,427173,399263,0.19900002,0.216765,0.646,1.1860001,0.56,0.98999995,99,4,0.82900006,0.033,0.82900006,0.629,1.775519,0,nan,0.0,4,1,21
607737142,1611040538999708,340358410,1087604900,427105,399195,0.158,0.27310616,0.64400005,1.172,0.56,0.98999995,99,3,0.63900006,-0.14400001,0.62200004,-0.069000006,1.6854095,0,nan,0.0,4,1,21
608744943,1611040539999708,340358417,1087604971,426805,398895,0.14600001,0.24946304,0.643,1.1600001,0.56,0.98999995,99,5,0.70500004,0.132,0.693,-0.11000001,1.385093,0,nan,0.0,4,1,21
609741491,1611040540999707,340358436,1087605051,426651,398741,0.171,0.21722193,0.64100003,1.1470001,0.56,0.98999995,99,4,0.795,0.356,0.711,0.354,1.2378825,0,nan,0.0,4,1,21
610762053,1611040541999706,340358455,1087605163,426468,398558,0.19500001,0.19327007,0.642,1.1420001,0.56,0.98999995,99,3,1.315,0.277,1.286,-0.356,1.3757951,0,nan,0.0,4,1,21
611748942,1611040542999706,340358483,1087605289,426659,398749,0.16100001,0.1667231,0.652,1.1520001,0.58,1.02,99,4,1.169,0.303,1.1290001,0.018000001,1.3103031,0,nan,0.0,4,1,20
612755073,1611040543999705,340358522,1087605401,426569,398659,0.123,0.17027903,0.64900005,1.1370001,0.56,0.98999995,99,5,1.0500001,0.514,0.91600007,-0.279,1.1154704,0,nan,0.0,4,1,21
613742993,1611040544999704,340358566,1087605495,426540,398630,0.126,0.17427443,0.64500004,1.125,0.56,0.98999995,99,4,0.98,0.402,0.89400005,-0.023000002,1.1269126,0,nan,0.0,4,1,21
614756940,1611040545999704,340358576,1087605587,426288,398378,0.15100001,0.21788639,0.646,1.1190001,0.56,0.98999995,100,4,0.86800003,0.13900001,0.85700005,0.075,1.4542366,0,nan,0.0,4,1,21
615749940,1611040546999703,340358587,1087605699,426071,398161,0.13900001,0.13901931,0.64100003,1.1090001,0.56,0.98999995,99,4,1.164,0.21000001,1.1450001,-0.106000006,1.4374298,0,nan,0.0,4,1,21
616758959,1611040547999702,340358589,1087605833,426125,398215,0.133,0.1455512,0.64000005,1.102,0.56,0.98999995,100,3,1.141,0.148,1.131,-0.057000004,1.4935138,0,nan,0.0,4,1,21
617747994,1611040548999701,340358601,1087605955,426160,398250,0.133,0.14708064,0.637,1.093,0.56,0.98999995,100,4,1.0810001,0.157,1.069,-0.11000001,1.4258378,0,nan,0.0,4,1,21
618756939,1611040549999701,340358606,1087606069,426302,398392,0.14500001,0.15607624,0.633,1.087,0.56,0.98999995,100,4,1.0810001,0.046000004,1.08,-0.119,1.5206813,0,nan,0.0,4,1,21
619749950,1611040550999700,340358612,1087606202,426294,398385,0.13900001,0.12551378,0.63100004,1.085,0.56,0.98999995,100,4,1.4120001,-0.043,1.411,0.08400001,1.5851055,0,nan,0.0,4,1,21
620747957,1611040551999699,340358596,1087606337,426161,398251,0.18100001,0.15801948,0.633,1.0860001,0.56,0.98999995,100,4,1.1580001,-0.28800002,1.121,-0.031000001,1.793705,0,nan,0.0,4,1,21
621743940,1611040552999699,340358578,1087606470,426180,398271,0.14400001,0.13471097,0.63000005,1.09,0.56,0.98999995,100,4,1.274,-0.279,1.243,-0.105000004,1.7413762,0,nan,0.0,4,1,21
622750943,1611040553999698,340358576,1087606612,426273,398363,0.14500001,0.11774619,0.628,1.09,0.56,0.98999995,100,3,1.406,-0.038000003,1.4050001,-0.23500001,1.5965606,0,nan,0.0,4,1,21
623740085,1611040554999697,340358576,1087606755,426501,398591,0.14400001,0.12619376,0.628,1.092,0.56,0.98999995,100,4,1.2980001,0.059000004,1.297,-0.293,1.5418295,0,nan,0.0,4,1,21
624746268,1611040555999697,340358582,1087606891,426574,398664,0.15400001,0.15051772,0.63000005,1.097,0.56,0.98999995,100,4,1.246,0.016,1.246,0.115,1.5511966,0,nan,0.0,4,1,21
625743940,1611040556999696,340358581,1087607024,426083,398173,0.19100001,0.16726431,0.629,1.1,0.56,0.98999995,100,4,1.151,-0.049000002,1.1500001,0.74,1.5977948,0,nan,0.0,4,1,21
626737338,1611040557999695,340358584,1087607139,425674,397764,0.165,0.19525364,0.628,1.102,0.56,0.98999995,100,8,1.047,0.083000004,1.044,0.41200003,1.5265101,0,nan,0.0,4,1,21
627738941,1611040558999695,340358580,1087607265,424820,396910,0.209,0.16137086,0.629,1.108,0.56,0.98999995,100,8,1.1860001,0.042000003,1.1850001,0.966,1.5985337,0,nan,0.0,4,1,21
628745938,1611040559999694,340358566,1087607396,424650,396741,0.15900001,0.1577947,0.63000005,1.1140001,0.56,0.98999995,100,7,1.167,0.008,1.167,0.143,1.5943642,0,nan,0.0,4,1,21
629729034,1611040560999693,340358570,1087607520,424642,396733,0.156,0.1628537,0.632,1.1170001,0.56,0.98999995,100,4,1.098,0.162,1.0860001,-0.134,1.4676914,0,nan,0.0,4,1,21
630744937,1611040561999693,340358570,1087607647,424582,396672,0.158,0.16576962,0.634,1.1220001,0.56,0.98999995,100,3,1.123,-0.11400001,1.1170001,-0.15400001,1.634697,0,nan,0.0,4,1,21
631739047,1611040562999692,340358562,1087607765,424819,396910,0.16600001,0.14400257,0.63600004,1.121,0.56,0.98999995,100,5,1.1630001,-0.257,1.1340001,-0.256,1.7524576,0,nan,0.0,4,1,21
632739361,1611040563999691,340358539,1087607890,424832,396922,0.172,0.13313371,0.634,1.1240001,0.56,0.98999995,100,4,1.2980001,-0.35000002,1.25,-0.015000001,1.830386,0,nan,0.0,4,1,21
633738318,1611040564999691,340358518,1087608029,425020,397111,0.177,0.1300724,0.63500005,1.128,0.56,0.98999995,100,4,1.3920001,-0.22000001,1.3740001,-0.58500004,1.7612896,0,nan,0.0,4,1,21
634747957,1611040565999690,340358493,1087608165,425232,397323,0.15200001,0.14729042,0.633,1.1240001,0.56,0.98999995,100,5,1.176,-0.41200003,1.102,-0.09,1.8835734,0,nan,0.0,4,1,21
635738939,1611040566999689,340358464,1087608268,425217,397307,0.16000001,0.24318911,0.63000005,1.118,0.56,0.98999995,100,4,0.74600005,-0.23600002,0.708,0.18200001,1.9480823,0,nan,0.0,4,1,21
636741863,1611040567999689,340358462,1087608324,425015,397105,0.19800001,0.36347914,0.629,1.115,0.56,0.98999995,100,3,0.45400003,0.317,0.326,0.085,1.1257386,0,nan,0.0,4,1,21
637735986,1611040568999688,340358492,1087608353,424924,397015,0.21400002,0.5078243,0.628,1.1220001,0.56,0.98999995,100,4,0.34100002,0.23200001,0.24900001,0.149,0.73877513,0,nan,0.0,4,1,21
638737826,1611040569999687,340358508,1087608399,424811,396901,0.148,0.22306338,0.628,1.123,0.56,0.98999995,100,4,0.8,-0.067,0.79800004,0.040000003,1.5319287,0,nan,0.0,4,1,21
639736975,1611040570999687,340358516,1087608508,424809,396899,0.15400001,0.17334889,0.629,1.1320001,0.56,0.98999995,100,4,1.0630001,0.081,1.0600001,-0.104,1.5049261,0,nan,0.0,4,1,21
640740947,1611040571999686,340358521,1087608622,425040,397131,0.163,0.17396447,0.628,1.1320001,0.56,0.98999995,100,5,1.103,-0.015000001,1.103,-0.32500002,1.5521926,0,nan,0.0,4,1,21
641742002,1611040572999685,340358531,1087608738,425286,397376,0.13700001,0.16097154,0.629,1.133,0.56,0.98999995,100,4,1.024,0.053000003,1.0220001,-0.068,1.4977773,0,nan,0.0,4,1,21
642745051,1611040573999685,340358537,1087608840,425265,397356,0.157,0.22372712,0.63000005,1.1290001,0.56,0.98999995,100,4,0.87500006,0.044000003,0.874,0.13900001,1.5163699,0,nan,0.0,4,1,21
643739066,1611040574999684,340358539,1087608910,424945,397036,0.141,0.3176513,0.628,1.121,0.56,0.98999995,100,3,0.514,-0.019000001,0.514,0.060000002,1.6078956,0,nan,0.0,4,1,21
644742058,1611040575999683,340358546,1087608967,425084,397174,0.13800001,0.3015126,0.62600005,1.113,0.56,0.98999995,100,4,0.51500005,0.007,0.51500005,-0.045,1.4962908,0,nan,0.0,4,1,21
645735017,1611040576999682,340358546,1087609028,424832,396923,0.18400002,0.6207354,0.62200004,1.1010001,0.57,1.03,100,3,0.25500003,-0.148,0.20700002,0.19800001,1.8069928,0,nan,0.0,4,1,20
646747603,1611040577999682,340358533,1087609069,425006,397097,0.238,0.46286464,0.625,1.102,0.56,0.98999995,100,3,0.36900002,-0.261,0.261,-0.27600002,2.1757138,0,nan,0.0,4,1,21
647740530,1611040578999681,340358563,1087609115,424774,396865,0.21000001,0.2118189,0.628,1.1040001,0.59999996,1.09,100,3,0.83400005,0.64500004,0.528,0.66,0.6737337,0,nan,0.0,4,1,19
648735977,1611040579999680,340358664,1087609169,425204,397295,0.19500001,0.115051225,0.72800004,1.2750001,0.59,1.06,100,4,1.4480001,1.4210001,0.279,-0.42900002,0.3017941,0,nan,0.0,4,1,19
649736943,1611040580999680,340358776,1087609187,426275,398366,0.21900001,0.14758836,0.632,1.105,0.61,1.12,100,3,1.0550001,1.036,-0.19900002,-0.80700004,6.211038,0,nan,0.0,4,1,18
650741267,1611040581999679,340358867,1087609156,426974,399064,0.22500001,0.1846279,0.637,1.113,0.59999996,1.09,100,3,1.001,0.82000005,-0.574,-0.47200003,5.7966003,0,nan,0.0,4,1,19
651740039,1611040582999678,340358952,1087609115,427397,399488,0.23300001,0.1510359,0.642,1.118,0.57,1.03,100,3,1.138,1.082,-0.35200003,-0.012,5.90297,0,nan,0.0,4,1,20
652752007,1611040583999678,340359055,1087609080,427282,399372,0.2,0.13400167,0.646,1.1190001,0.61,1.12,100,4,1.2240001,1.2040001,-0.22000001,0.277,6.03267,0,nan,0.0,4,1,18
653738938,1611040584999677,340359168,1087609048,427227,399318,0.21700001,0.19555105,0.647,1.128,0.59,1.05,100,3,0.80600005,0.763,-0.26000002,0.317,5.9848847,0,nan,0.0,4,1,19
654738100,1611040585999676,340359239,1087609025,427034,399125,0.172,0.24227054,0.648,1.1340001,0.59999996,1.09,100,3,0.679,0.652,-0.19100001,0.062000003,6.006466,0,nan,0.0,4,1,19
655737003,1611040586999676,340359313,1087609014,427065,399156,0.21000001,0.14295205,0.646,1.13,0.57,1.03,100,3,1.0680001,1.067,-0.040000003,-0.003,6.2145166,0,nan,0.0,4,1,20
656734062,1611040587999675,340359421,1087609009,426824,398915,0.21300001,0.13288395,0.646,1.131,0.59999996,1.09,100,3,1.171,1.1700001,-0.030000001,0.28500003,6.2690997,0,nan,0.0,4,1,19
657747122,1611040588999674,340359521,1087609006,426705,398796,0.23300001,0.15199652,0.64500004,1.1290001,0.56,0.98999995,100,3,1.064,1.057,-0.12200001,0.37100002,6.1986485,0,nan,0.0,4,1,21
658746957,1611040589999674,340359617,1087608998,426553,398643,0.26000002,0.15848479,0.648,1.133,0.59999996,1.09,100,3,1.0070001,0.99500006,-0.157,0.36400002,6.127646,0,nan,0.0,4,1,19
659736941,1611040590999673,340359729,1087608982,426390,398481,0.20700002,0.11705137,0.651,1.139,0.58,1.0,100,3,1.2670001,1.251,-0.19700001,0.24200001,6.145127,0,nan,0.0,4,1,20
660747943,1611040591999672,340359844,1087608983,426416,398507,0.16800001,0.11184558,0.652,1.141,0.58,1.02,100,3,1.394,1.394,-0.036000002,-0.101,0.009221622,0,nan,0.0,4,1,20
661736966,1611040592999672,340359991,1087608989,426465,398556,0.18,0.08536911,0.65300006,1.1400001,0.58,1.02,100,5,1.6880001,1.6880001,0.004,0.158,0.019481888,0,nan,0.0,4,1,20
662736113,1611040593999671,340360148,1087608984,426751,398842,0.22200002,0.0860648,0.65500003,1.1400001,0.61,1.12,100,3,1.8390001,1.838,-0.055000003,-0.45700002,6.2371597,0,nan,0.0,4,1,18
663741173,1611040594999670,340360296,1087608972,427034,399125,0.22800002,0.12864263,0.657,1.1400001,0.61,1.12,100,3,1.4990001,1.4890001,0.17,-0.18900001,6.210061,0,nan,0.0,4,1,18
664751940,1611040595999670,340360437,1087608982,426987,399078,0.16800001,0.10223301,0.656,1.1450001,0.59,1.05,100,4,1.506,1.493,0.19800001,0.060000002,0.11957966,0,nan,0.0,4,1,19
665737830,1611040596999669,340360572,1087609023,426814,398904,0.231,0.10352437,0.657,1.1450001,0.56,0.98999995,100,3,1.7120001,1.6830001,0.31800002,0.29500002,0.22269161,0,nan,0.0,4,1,21
666741330,1611040597999668,340360704,1087609050,426323,398413,0.2,0.14713387,0.657,1.1450001,0.57,1.03,100,4,1.166,1.1450001,0.21900001,0.328,0.16733623,0,nan,0.0,4,1,20
667737010,1611040598999668,340360811,1087609054,426164,398254,0.17,0.11596822,0.65800005,1.1420001,0.59999996,1.09,100,4,1.258,1.2570001,-0.043,-0.28300002,0.0007572983,0,nan,0.0,4,1,19
668749026,1611040599999667,340360921,1087609054,426128,398218,0.194,0.1166201,0.65300006,1.1350001,0.59999996,1.09,100,4,1.297,1.2950001,-0.074,0.179,6.244766,0,nan,0.0,4,1,19
669735985,1611040600999666,340361026,1087609036,425897,397987,0.20600002,0.15283498,0.65400004,1.1350001,0.57,1.03,100,3,1.0300001,1.0150001,-0.17400001,0.18200001,6.119914,0,nan,0.0,4,1,20
670753945,1611040601999666,340361118,1087609013,425832,397923,0.24200001,0.13929263,0.65500003,1.144,0.59999996,1.09,100,4,1.1600001,1.138,-0.224,0.013,6.102699,0,nan,0.0,4,1,19
671740466,1611040602999665,340361240,1087608994,425767,397857,0.18400002,0.14702566,0.65500003,1.1470001,0.57,1.03,100,3,1.373,1.3440001,-0.28,0.13900001,6.163791,0,nan,0.0,4,1,20
672744937,1611040603999664,340361379,1087608978,425763,397853,0.21000001,0.113724604,0.65800005,1.1500001,0.57,1.03,100,3,1.4360001,1.4330001,-0.085,-0.113000005,6.182488,0,nan,0.0,4,1,20
673739973,1611040604999664,340361498,1087608949,426160,398251,0.179,0.12574504,0.66200006,1.156,0.59,1.05,100,4,1.2670001,1.19,-0.43300003,-0.44700003,5.979695,0,nan,0.0,4,1,19
674743996,1611040605999663,340361603,1087608916,426433,398524,0.22200002,0.13793686,0.665,1.1630001,0.57,1.03,100,3,1.136,1.0830001,-0.344,-0.009000001,6.008044,0,nan,0.0,4,1,20
675743200,1611040606999662,340361677,1087608881,426694,398784,0.23300001,0.22376186,0.669,1.171,0.58,1.03,100,3,0.703,0.59900004,-0.36900002,-0.080000006,5.816293,0,nan,0.0,4,1,20
676749938,1611040607999662,340361713,1087608840,426892,398982,0.19100001,0.3097886,0.669,1.1700001,0.56,0.98999995,100,3,0.505,0.124000005,-0.49,0.14,5.123826,0,nan,0.0,4,1,21
677744086,1611040608999661,340361717,1087608803,427392,399483,0.17300001,0.39827538,0.666,1.1620001,0.56,0.98999995,100,3,0.45900002,-0.15200001,-0.43300003,-0.064,4.3893213,0,nan,0.0,4,1,21
678747312,1611040609999660,340361694,1087608718,427272,399363,0.13700001,0.11557273,0.65900004,1.143,0.56,0.98999995,100,3,1.3720001,-0.101,-1.368,-0.032,4.501624,0,nan,0.0,4,1,21
679743940,1611040610999659,340361679,1087608523,427263,399353,0.13100001,0.076194964,0.651,1.123,0.57,1.03,100,3,2.028,-0.112,-2.025,-0.095000006,4.63486,0,nan,0.0,4,1,20
680743940,1611040611999659,340361668,1087608311,427304,399394,0.20600002,0.11121342,0.64400005,1.105,0.56,0.98999995,100,3,1.608,-0.21000001,-1.5940001,-0.47300002,4.611233,0,nan,0.0,4,1,21
681741994,1611040612999658,340361670,1087608149,427440,399530,0.16700001,0.1227319,0.63900006,1.0890001,0.56,0.98999995,100,3,1.3210001,0.012,-1.3210001,-0.21000001,4.740606,0,nan,0.0,4,1,21
682752418,1611040613999657,340361671,1087608015,427539,399629,0.185,0.17222211,0.63900006,1.085,0.56,0.98999995,100,4,0.98,-0.19800001,-0.95900005,-0.16900001,4.585327,0,nan,0.0,4,1,21
683741947,1611040614999657,340361652,1087607926,427344,399434,0.162,0.20116508,0.64000005,1.0890001,0.56,0.98999995,100,3,0.75500005,-0.32700002,-0.68100005,0.134,4.3058805,0,nan,0.0,4,1,21
684743944,1611040615999656,340361625,1087607868,426989,399079,0.18,0.23407395,0.638,1.09,0.56,0.98999995,100,3,0.748,-0.57000005,-0.483,0.279,3.956454,0,nan,0.0,4,1,21
685741946,1611040616999655,340361597,1087607834,426655,398745,0.157,0.58493084,0.63500005,1.0830001,0.56,0.98999995,100,3,0.294,-0.23,-0.18400002,0.065000005,3.8365555,0,nan,0.0,4,1,21
686744939,1611040617999655,340361595,1087607818,426656,398746,0.224,0.5849778,0.63500005,1.0810001,0.56,0.98999995,100,3,0.115,0.052,-0.102000006,0.071,3.8365555,0,nan,0.0,4,1,21
687738438,1611040618999654,340361597,1087607807,426569,398659,0.23,0.5850331,0.633,1.077,0.56,0.98999995,100,3,0.09,-0.063,-0.064,0.25800002,3.8365555,0,nan,0.0,4,1,21
688748088,1611040619999653,340361577,1087607805,426280,398370,0.15300001,0.5432702,0.634,1.08,0.56,0.98999995,100,3,0.31300002,-0.312,0.030000001,0.039,3.1788568,0,nan,0.0,4,1,21
689741022,1611040620999653,340361562,1087607816,426185,398276,0.20500001,0.7726735,0.629,1.0660001,0.56,0.98999995,100,3,0.185,-0.025,0.18300001,0.36,2.5745728,0,nan,0.0,4,1,21
690739949,1611040621999652,340361584,1087607842,425869,397960,0.147,0.38634574,0.625,1.057,0.56,0.98999995,100,3,0.41500002,0.23600002,0.342,0.093,0.88771826,0,nan,0.0,4,1,21
691735959,1611040622999651,340361615,1087607871,425577,397667,0.22500001,0.5956247,0.62200004,1.049,0.57,1.03,100,3,0.26000002,0.259,0.020000001,0.606,0.63495255,0,nan,0.0,4,1,20
692743945,1611040623999651,340361630,1087607883,425184,397275,0.15300001,0.59648037,0.61800003,1.0400001,0.56,0.98999995,100,4,0.15200001,0.091000006,0.12200001,-0.036000002,0.6157015,0,nan,0.0,4,1,21
693737939,1611040624999650,340361636,1087607897,425358,397448,0.193,0.5965209,0.61300004,1.0300001,0.56,0.98999995,100,4,0.120000005,-0.011000001,0.120000005,0.115,0.6157015,0,nan,0.0,4,1,21
694754031,1611040625999649,340361628,1087607914,425155,397245,0.209,0.5111495,0.61200005,1.029,0.56,0.98999995,100,4,0.296,-0.21100001,0.20700002,-0.11100001,1.624393,0,nan,0.0,4,1,21
695738083,1611040626999649,340361603,1087607936,425116,397206,0.179,0.33470455,0.61,1.023,0.58,1.0,100,3,0.448,-0.42900002,0.132,0.351,2.6349661,0,nan,0.0,4,1,20
696741031,1611040627999648,340361568,1087607955,424480,396570,0.16800001,0.67759943,0.60800004,1.018,0.56,0.98999995,100,3,0.22500001,-0.224,-0.017,0.22000001,2.9571986,0,nan,0.0,4,1,21
697739945,1611040628999647,340361546,1087607954,424780,396870,0.178,0.4340447,0.606,1.0120001,0.56,0.98999995,100,2,0.347,-0.34100002,0.065000005,-0.156,3.0076258,0,nan,0.0,4,1,21
698729940,1611040629999647,340361513,1087607964,424494,396584,0.157,0.22110388,0.60300004,1.005,0.56,0.98999995,100,4,0.60200006,-0.58400005,0.14600001,0.28800002,2.8828502,0,nan,0.0,4,1,21
699739597,1611040630999646,340361468,1087607976,424299,396389,0.16600001,0.22712615,0.59800005,0.99200004,0.56,0.98999995,100,7,0.54800004,-0.48800004,0.24900001,0.09900001,2.752993,0,nan,0.0,4,1,21
700754150,1611040631999645,340361456,1087607975,424241,396332,0.136,0.62908524,0.59800005,0.9850001,0.56,0.98999995,100,6,0.038000003,-0.018000001,-0.034,0.001,2.919939,0,nan,0.0,4,1,21
701739124,1611040632999645,340361459,1087607972,424191,396282,0.18100001,0.62913376,0.59800005,0.98200005,0.56,0.98999995,100,9,0.024,-0.002,0.024,-0.011000001,2.919939,0,nan,0.0,4,1,21
702743969,1611040633999644,340361464,1087607969,424127,396217,0.25,0.629184,0.59900004,0.98100007,0.56,0.98999995,100,3,0.035,-0.035,0.006,-0.055000003,2.919939,0,nan,0.0,4,1,21
