timestamp,yaw_composite,yaw_variance,yaw[0],yaw[1],yaw[2],yaw[3],yaw[4],innov_vn[0],innov_vn[1],innov_vn[2],innov_vn[3],innov_vn[4],innov_ve[0],innov_ve[1],innov_ve[2],innov_ve[3],innov_ve[4],weight[0],weight[1],weight[2],weight[3],weight[4]
385413290,2.941,3.7360072,-2.5132742,-1.2566371,0.0,1.2566371,2.5132742,0.0,0.0,0.0,0.0,0.0,0.0,0.0,0.0,0.0,0.0,0.2,0.2,0.2,0.2,0.2
385423216,0.17177086,3.5828075,-2.5139942,-1.257356,-0.0007208334,1.255914,2.5125513,0.0,0.0,0.0,0.0,0.0,0.0,0.0,0.0,0.0,0.0,0.2,0.2,0.2,0.2,0.2
385612094,0.90388453,3.6771195,-2.5136461,-1.2569857,-0.0003627132,1.2562422,2.5128736,-0.02739323,-0.024023475,-0.010947582,-0.0062359916,-0.016399741,0.0010080524,-0.01164601,-0.01235141,-0.00013364572,0.008123023,0.19999275,0.19999363,0.2000033,0.20000845,0.20000188
385815459,-0.4307286,3.7374804,-2.5143728,-1.257739,-0.0011483488,1.2554632,2.5121315,-0.016622936,-0.0024433937,0.020048108,0.019768376,-0.002893947,0.00827593,-0.010766702,-0.0031645852,0.02057389,0.02764463,0.19999719,0.20000462,0.20000571,0.19999894,0.19999358
386014064,-0.27969542,3.629905,-2.5154238,-1.2587866,-0.0022047807,1.2543981,2.5110693,-0.010964519,-0.012812004,0.0007776171,0.011024914,0.0037684832,0.012339797,-0.002550321,-0.008908683,0.0020504175,0.015183616,0.19999403,0.20000488,0.20000905,0.20000073,0.19999132
386212667,-1.2013226,3.5563161,-2.5156403,-1.2590206,-0.0024286269,1.2541983,2.510874,-0.0020870334,-0.0074430825,-0.0028148834,0.0054023494,0.005852366,-0.0143213,-0.020928388,-0.028064154,-0.025867768,-0.017373485,0.20000483,0.20000535,0.19999853,0.19999376,0.19999751
386411474,-2.0125866,3.8069346,-2.5166013,-1.2600125,-0.0034135676,1.2532487,2.5099394,0.012719633,0.02111771,0.029115189,0.025658842,0.015526466,0.0062083094,0.00052804826,0.006760487,0.016291862,0.015950361,0.20001982,0.20001093,0.199987,0.19998106,0.20000121
386604910,-1.9953461,3.8250632,-2.5170126,-1.2604253,-0.0038293928,1.2528324,2.5095263,0.012719633,0.02111771,0.029115189,0.025658842,0.015526466,0.0062083094,0.00052804826,0.006760487,0.016291862,0.015950361,0.20001982,0.20001093,0.199987,0.19998106,0.20000121
386808479,-2.674723,3.5777972,-2.5157452,-1.2591865,-0.0025338954,1.254192,2.5108685,-0.013923902,-0.030244455,-0.041889325,-0.032763325,-0.015480847,0.008289455,0.01523059,0.0018524518,-0.013355673,-0.009375955,0.20004712,0.20000304,0.19995485,0.19996905,0.20002593
387017013,-2.5561073,3.5545816,-2.5111663,-1.2546139,0.00202673,1.2587513,2.5154393,-0.002495014,-0.006708772,0.0041984282,0.015154318,0.011016814,0.009043536,-0.0037939209,-0.011769057,-0.0038595996,0.00900413,0.2000467,0.20000774,0.19995825,0.19996642,0.20002091
387215771,-2.3344898,3.5830398,-2.5096343,-1.2531117,0.003575683,1.2603589,2.5170372,0.0043507614,-0.001569211,-0.019552356,-0.024746,-0.009973016,-0.018659608,-0.0016746465,-0.0020562597,-0.019277267,-0.029537918,0.20005426,0.20003086,0.199965,0.19994743,0.20000243
387409263,-2.3345876,3.5830948,-2.5098276,-1.2533042,0.0033830577,1.2601655,2.5168433,0.0043507614,-0.001569211,-0.019552356,-0.024746,-0.009973016,-0.018659608,-0.0016746465,-0.0020562597,-0.019277267,-0.029537918,0.20005426,0.20003086,0.199965,0.19994743,0.20000243
387607860,-2.1690896,3.6704369,-2.5140069,-1.257639,-0.0009789604,1.2559426,2.5127337,0.011632029,-0.009471697,-0.010728461,0.0096053835,0.023423307,-0.024300333,-0.029837744,-0.05162261,-0.05954844,-0.04265795,0.2001144,0.20007986,0.19993515,0.19987999,0.19999059
387806464,-2.0730624,3.7476153,-2.5159283,-1.2595649,-0.0029316454,1.2539773,2.5107882,-0.019941337,-0.010869785,-0.002855102,-0.00697734,-0.017537802,0.0063840863,0.0009069601,0.007843208,0.017609501,0.016705371,0.20010889,0.20008858,0.19994609,0.19987804,0.19997849
388005128,-1.8712772,3.9259315,-2.514817,-1.2586237,-0.0021007047,1.2549105,2.5118947,0.012783853,-0.004791608,-0.04124742,-0.046203382,-0.012803465,-0.024322534,0.008294076,0.0016617924,-0.035064954,-0.051121738,0.2001534,0.20016311,0.19994761,0.19980444,0.19993138
388213622,-1.3114623,3.5294807,-2.501265,-1.2485027,0.004566773,1.2628777,2.524119,0.13445374,0.021881733,-0.026972108,0.05554781,0.15545608,-0.043130144,-0.028512955,-0.13102949,-0.20929213,-0.15482853,0.20072979,0.20197429,0.20048398,0.1983305,0.1984814
388412209,-1.2861121,3.5178525,-2.4902403,-1.23882,0.01292504,1.2717602,2.5346491,0.09516683,0.010942031,-0.033251006,0.023765227,0.10346144,-0.04459025,-0.025788724,-0.09994157,-0.16516657,-0.13078156,0.20094872,0.2026877,0.20070034,0.19775556,0.19790773
388615775,-1.3602481,3.5266216,-2.499508,-1.2485076,0.0033221766,1.26263,2.5257235,-0.0034528463,-0.045527603,-0.053082805,-0.015474778,0.015369345,-0.023289233,-0.029242158,-0.07107189,-0.09132923,-0.06160971,0.20115322,0.20277797,0.2005509,0.19757451,0.19794336
388814447,-1.3700385,3.5266442,-2.5093026,-1.2583013,-0.0064706146,1.2528366,2.515929,-0.0034528463,-0.045527603,-0.053082805,-0.015474778,0.015369345,-0.023289233,-0.029242158,-0.07107189,-0.09132923,-0.06160971,0.20115322,0.20277797,0.2005509,0.19757451,0.19794336
389012986,-1.3778689,3.5221322,-2.5147524,-1.2644453,-0.013187716,1.246457,2.5103402,-0.053705264,0.013671709,0.072920874,0.042257924,-0.036458783,0.033417884,-0.006687819,0.044729546,0.11735682,0.110279396,0.20129678,0.2031148,0.20061223,0.19727874,0.19769746
389211629,-1.4037097,3.5014737,-2.510998,-1.2646581,-0.016442912,1.245292,2.5135415,-0.11705957,0.025156427,0.15915659,0.10005788,-0.071802095,0.082771115,-0.011189163,0.094336,0.2553631,0.248036,0.2022043,0.20500837,0.20084961,0.1955573,0.1963804
389405227,-1.4002959,3.5014954,-2.507566,-1.2612275,-0.0130125,1.2487235,2.516974,-0.11705957,0.025156427,0.15915659,0.10005788,-0.071802095,0.082771115,-0.011189163,0.094336,0.2553631,0.248036,0.2022043,0.20500837,0.20084961,0.1955573,0.1963804
389613842,-1.4412082,3.3955538,-2.4879255,-1.2588879,-0.023294125,1.2479515,2.5348883,-0.23443505,0.017260289,0.28309473,0.19702578,-0.12895122,0.09210563,-0.10165416,0.074260436,0.38663104,0.39650482,0.20639706,0.21335283,0.20156652,0.18791597,0.1907676
389807400,-1.5244236,3.3360436,-2.4739182,-1.2601968,-0.032123968,1.2498556,2.5510921,-0.1275325,0.11120538,0.38420042,0.31747127,-0.008113384,0.1663109,-0.037729755,0.12043735,0.4368034,0.46422905,0.21124381,0.21995735,0.20047541,0.1810565,0.18726702
390015935,-1.5135064,3.230668,-2.458116,-1.2593995,-0.041559752,1.2489126,2.5660374,-0.06717813,0.09361039,0.36474717,0.37906358,0.09951637,0.26250336,0.03555399,0.10949184,0.40074286,0.49612266,0.2151401,0.22749127,0.20068133,0.1742851,0.18240216
390209573,-1.5213664,3.1672585,-2.446248,-1.2581828,-0.046343304,1.2507541,2.5784345,0.013368979,0.09771383,0.32977128,0.40216455,0.1930683,0.20179795,-0.010839105,-0.0075298846,0.22534028,0.35916495,0.21823294,0.23256092,0.20026456,0.16951948,0.17942216
390408179,-1.4365307,3.1138642,-2.4388845,-1.2515209,-0.045979228,1.2474391,2.579295,-0.08178448,-0.088398226,0.061168674,0.17622295,0.07902686,0.30622518,0.1461412,0.080567986,0.20961024,0.3570447,0.21642993,0.23475458,0.20311622,0.16921052,0.17648885
390606781,-1.4062004,3.1069744,-2.4434123,-1.2541839,-0.05003089,1.2408569,2.5721457,-0.16579476,-0.16729447,-0.08663951,-0.026128517,-0.07960253,0.17412932,0.08824006,0.05468601,0.12469658,0.2032859,0.21515493,0.23466906,0.2043216,0.16996495,0.17588949
390805387,-1.4176829,3.1070216,-2.4549568,-1.2656937,-0.061532516,1.2293311,2.5605998,-0.16579476,-0.16729447,-0.08663951,-0.026128517,-0.07960253,0.17412932,0.08824006,0.05468601,0.12469658,0.2032859,0.21515493,0.23466906,0.2043216,0.16996495,0.17588949
391008955,-1.4790256,2.8885295,-2.4365942,-1.2832679,-0.10431515,1.2102385,2.5808816,-0.4944182,-0.27611527,-0.37665805,-0.6930376,-0.76639056,0.021728009,0.21559815,0.49370247,0.48561954,0.16956146,0.22545804,0.25318834,0.20300937,0.15342267,0.16492166
391207559,-1.7133361,2.8239765,-2.4325771,-1.3129413,-0.12880462,1.2281374,2.6165202,-0.038060024,0.2830758,0.10487369,-0.40879768,-0.4940104,0.04723054,0.37542695,0.8078128,0.7731253,0.24722967,0.24586372,0.26159686,0.18748143,0.13808869,0.16696934
391416093,-1.788091,2.6467927,-2.411995,-1.3265469,-0.14886115,1.2427982,2.6575768,-0.098468326,0.27248758,0.06828405,-0.5566281,-0.63444453,-0.1548231,0.22343011,0.7410275,0.69308305,0.05988258,0.26380822,0.27430865,0.17635845,0.1222598,0.1632649
391614697,-1.8785858,2.4799464,-2.4117908,-1.3576179,-0.18023506,1.2477398,2.682804,-0.040904924,0.34125462,0.1565552,-0.5031804,-0.58633417,-0.13222557,0.23723066,0.77802414,0.74815553,0.08501634,0.28403002,0.28413376,0.16256142,0.107504316,0.16177043
391813301,-1.8505996,2.1926892,-2.3909523,-1.3744999,-0.21913666,1.2355456,2.7110255,-0.31418818,0.046604693,-0.07813546,-0.6910105,-0.7926593,-0.12891942,0.1729362,0.6771933,0.69065785,0.08467919,0.29868776,0.30496985,0.15637524,0.09102925,0.14893794
392011907,-1.8213958,2.0450141,-2.378191,-1.3794497,-0.2386288,1.2244933,2.7221112,-0.23574753,0.08144614,0.026997894,-0.49790692,-0.6291902,-0.20904878,0.013122827,0.44496375,0.51456624,-0.0040284395,0.30383816,0.31765285,0.15505408,0.08317694,0.14027795
392205555,-1.8227352,2.0450327,-2.3795304,-1.3807894,-0.23996827,1.2231538,2.7207718,-0.23574753,0.08144614,0.026997894,-0.49790692,-0.6291902,-0.20904878,0.013122827,0.44496375,0.51456624,-0.0040284395,0.30383816,0.31765285,0.15505408,0.08317694,0.14027795
392409126,-1.799955,1.8225737,-2.3508015,-1.3865169,-0.26261678,1.2221558,2.7562659,-0.20289971,0.038642913,0.11703825,-0.1896759,-0.4026843,0.060570866,0.120281816,0.39475632,0.57392406,0.2765393,0.31615576,0.3370644,0.14853233,0.06995789,0.12828961
392607721,-1.7840402,1.7667888,-2.334581,-1.3789593,-0.2593171,1.2299482,2.77376,-0.16629502,0.047493607,0.14708926,-0.0994672,-0.31851253,0.036955565,0.06277031,0.29148382,0.48236012,0.24411333,0.31893194,0.34241506,0.14699899,0.06673408,0.12491997
392816253,-1.7771437,1.7268625,-2.3256888,-1.3764142,-0.2592263,1.2336864,2.784528,-0.11836569,0.07178268,0.19332674,0.0055621564,-0.22314861,0.043352872,0.035256863,0.22103101,0.42556214,0.24631971,0.32126355,0.34617305,0.1455482,0.06436993,0.12264532
393009890,-1.7567422,1.6555706,-2.3122938,-1.3749678,-0.2662716,1.2300484,2.7967343,-0.24645877,-0.059519798,0.07437278,-0.09685637,-0.33692563,0.21245247,0.19137865,0.36645052,0.58350796,0.42034516,0.32276696,0.35427597,0.14511324,0.060614873,0.11722896
393208494,-1.7507606,1.5905111,-2.3081899,-1.3821902,-0.28067204,1.2202293,2.8020298,-0.15944363,0.022961497,0.18982053,0.06020713,-0.21404323,0.22065985,0.16652167,0.31648418,0.5680914,0.44619963,0.32491738,0.36148208,0.14390695,0.05704674,0.11264679
393407297,-1.728877,1.4978049,-2.2970676,-1.3865979,-0.2993327,1.2050714,2.8116639,-0.22704011,-0.017528415,0.23127112,0.1454154,-0.23264761,0.29393983,0.1768325,0.31398338,0.66618615,0.5896969,0.3255078,0.37324655,0.14394692,0.05233413,0.1049646
393605702,-1.7162011,1.3765215,-2.2833202,-1.3950036,-0.32528678,1.1905503,2.8301017,-0.1431236,0.09409013,0.40654457,0.34811032,-0.12172752,0.32939297,0.1694417,0.3034705,0.7402639,0.68799114,0.32929808,0.3877158,0.14103831,0.04571987,0.09622799
393814237,-1.6775047,1.250819,-2.2603436,-1.394631,-0.3512087,1.1674798,2.8484585,-0.29217288,-0.046311222,0.3114499,0.2948565,-0.24327737,0.39089185,0.19670928,0.31130028,0.8081717,0.78938234,0.32700068,0.40678182,0.14213067,0.03958886,0.08449797
394007877,-1.657086,1.1565988,-2.2407641,-1.3939601,-0.36928225,1.1565716,2.8689682,-0.1954174,0.0303297,0.3658472,0.3714175,-0.14910519,0.30162388,0.12068474,0.21570742,0.68681514,0.68083835,0.32731763,0.42068526,0.14065276,0.0347355,0.0766088
394216579,-1.6351408,1.0805846,-2.2238503,-1.3933657,-0.38716272,1.1409739,2.8830204,-0.16035303,0.008275133,0.2958008,0.35552418,-0.08894931,0.397951,0.22881204,0.27081078,0.66463935,0.71219265,0.32503247,0.43371743,0.14087196,0.031031663,0.06934649
394415013,-1.6180397,1.0291631,-2.211927,-1.3929471,-0.40091592,1.1270405,2.890922,-0.15632974,-0.019370288,0.22339045,0.29207113,-0.090055585,0.36518937,0.2207675,0.24501693,0.5763971,0.6319755,0.32211387,0.44347072,0.14172584,0.028627863,0.064061716
394613617,-1.5988474,0.9922348,-2.1984923,-1.3878407,-0.40737408,1.1187856,2.8993912,-0.18099812,-0.059553623,0.14927891,0.20615193,-0.13097131,0.33478624,0.2148391,0.23893386,0.5273106,0.5697944,0.31880227,0.45119134,0.14306873,0.026984911,0.05995269
394807257,-1.603555,0.9922536,-2.203199,-1.392549,-0.4120801,1.11408,2.8946846,-0.18099812,-0.059553623,0.14927891,0.20615193,-0.13097131,0.33478624,0.2148391,0.23893386,0.5273106,0.5697944,0.31880227,0.45119134,0.14306873,0.026984911,0.05995269
395005940,-1.5876769,0.9238456,-2.185155,-1.3937085,-0.43334955,1.0966729,2.9079041,-0.021864858,0.06639939,0.1820398,0.17098103,-0.03327343,0.58248615,0.536357,0.5808,0.75352633,0.726663,0.31630132,0.4641183,0.14245248,0.023640325,0.053487573
395214423,-1.5871687,0.91716367,-2.1850457,-1.3959472,-0.4380916,1.0920095,2.9057946,-0.07813086,-0.045262963,0.00580699,0.011164673,-0.07614391,0.3349021,0.31364554,0.3248477,0.39229792,0.39395624,0.31561962,0.46560934,0.14270274,0.023352403,0.052715875
395408034,-1.5840322,0.9171845,-2.1819186,-1.392805,-0.43495935,1.0951406,2.9089334,-0.07813086,-0.045262963,0.00580699,0.011164673,-0.07614391,0.3349021,0.31364554,0.3248477,0.39229792,0.39395624,0.31561962,0.46560934,0.14270274,0.023352403,0.052715875
395616568,-1.5822824,0.94101363,-2.1744816,-1.3819911,-0.41498956,1.1182888,2.9157636,0.0490063,-0.0864607,-0.24714534,-0.21972904,0.07718837,0.37998933,0.447261,0.3717109,0.098219454,0.16252899,0.31848815,0.4592162,0.14181906,0.024657091,0.055819582
395815266,-1.5625408,0.93879557,-2.148738,-1.3576732,-0.38945904,1.147647,2.9441862,0.1520464,-0.06397352,-0.30970526,-0.24029785,0.21420904,0.24216163,0.3336048,0.20118487,-0.21738166,-0.09225309,0.320658,0.4575832,0.14042322,0.024663018,0.05667259
396008813,-1.5326403,0.9388159,-2.1188335,-1.3277757,-0.35954756,1.1775593,2.9740944,0.1520464,-0.06397352,-0.30970526,-0.24029785,0.21420904,0.24216163,0.3336048,0.20118487,-0.21738166,-0.09225309,0.320658,0.4575832,0.14042322,0.024663018,0.05667259
396207415,-1.531801,0.89759386,-2.098576,-1.3194109,-0.3576813,1.1946884,3.0063396,0.13427757,-0.15261129,-0.48427695,-0.39557356,0.2137511,0.098221004,0.22222283,0.048726946,-0.51056564,-0.34833997,0.32701606,0.4602488,0.13468777,0.022473754,0.055573616
396406019,-1.5208251,0.8424314,-2.0778358,-1.3126409,-0.36518633,1.1949463,3.0346725,0.084706694,-0.113786526,-0.34068656,-0.27464607,0.15211216,-0.020453304,0.059900284,-0.062212676,-0.4568101,-0.3273283,0.3289361,0.46742254,0.1316075,0.019992398,0.05204141
396614610,-1.5183811,0.840941,-2.0715804,-1.3072124,-0.35899147,1.2039926,3.0430048,0.009276211,-0.086258814,-0.20761184,-0.19854368,0.026170358,0.108891964,0.16197062,0.11420816,-0.09361714,-0.05062914,0.33054864,0.46662876,0.13050671,0.019878125,0.0524377
396813159,-1.5180886,0.8410982,-2.0705311,-1.3062711,-0.35772493,1.2056754,3.0442595,0.036588736,0.037927337,0.011967175,-0.04086245,-0.003631644,0.053382218,0.08664042,0.112570286,0.080331504,0.028290391,0.33088318,0.46641257,0.13028884,0.019872766,0.05254267
397006796,-1.5381548,0.8382572,-2.0874586,-1.3244251,-0.3758527,1.1901518,3.0287836,-0.11991389,-0.10893041,-0.1282013,-0.19191673,-0.16932812,0.22299117,0.25707024,0.29272443,0.27539045,0.2088384,0.33214402,0.4662594,0.129317,0.019663595,0.052615974
397215381,-1.5497428,0.83452296,-2.09607,-1.3347621,-0.38648337,1.1816504,3.0211072,0.11231395,0.13385046,0.14912383,0.12091622,0.088502675,0.41950113,0.4251501,0.44789046,0.47548163,0.4419629,0.33320764,0.46637517,0.1284324,0.019426208,0.05255862
397413958,-1.5463502,0.8304355,-2.0919476,-1.3320956,-0.38507152,1.1837198,3.0249248,-0.14887387,-0.13064134,-0.11391388,-0.13155481,-0.16439454,0.45170736,0.45272917,0.4688034,0.49575728,0.47399187,0.3332985,0.46708408,0.12821984,0.019220222,0.05217739
397612586,-1.5472192,0.8289752,-2.0934062,-1.3340592,-0.38778055,1.1804899,3.022624,-0.05461456,-0.04464204,-0.023884878,-0.014366418,-0.048931032,0.284733,0.27402753,0.27305406,0.2982179,0.30687815,0.33292708,0.46755245,0.12842496,0.019170415,0.05192511
397806184,-1.5448908,0.8289929,-2.0910735,-1.3317336,-0.38545167,1.1828189,3.0249472,-0.05461456,-0.04464204,-0.023884878,-0.014366418,-0.048931032,0.284733,0.27402753,0.27305406,0.2982179,0.30687815,0.33292708,0.46755245,0.12842496,0.019170415,0.05192511
398009765,-1.5042565,0.8124654,-2.0609307,-1.3053612,-0.3684658,1.1908468,3.0475655,0.09991625,0.119333446,0.21081008,0.32408118,0.182324,0.38166833,0.30204988,0.25419754,0.36137176,0.47393727,0.32712507,0.47358987,0.13171937,0.018683765,0.04888191
398208379,-1.4683908,0.78748107,-2.0319667,-1.2823616,-0.35700864,1.1965398,3.072174,-0.11799516,-0.04602105,0.10664433,0.205709,-0.054225717,0.48412418,0.38363254,0.3666504,0.57973486,0.65967774,0.32230356,0.4806729,0.13383976,0.017703427,0.045480303
398406976,-1.4223323,0.73353195,-1.9908838,-1.2559258,-0.35419366,1.1936761,3.109856,-0.22426581,-0.08244529,0.13405362,0.18701783,-0.20946398,0.62994224,0.52085674,0.5588298,0.8959928,0.9019264,0.31530792,0.4944389,0.13557309,0.015387258,0.039292853
398610523,-1.3993683,0.66485786,-1.9604509,-1.2474157,-0.3743621,1.1763093,3.1447866,-0.22225454,-0.0027383529,0.29034743,0.31245923,-0.25910974,0.47617662,0.3526411,0.4428903,0.9306021,0.8655316,0.31108427,0.51010776,0.13357303,0.01231469,0.03292036
398809129,-1.3831115,0.6028764,-1.9301852,-1.239953,-0.39391848,1.1646022,-3.099151,-0.2236039,0.03270235,0.34570572,0.32967806,-0.32000732,0.3465221,0.2382282,0.3651179,0.92052895,0.7787768,0.30916673,0.5239472,0.12947331,0.009623335,0.027789345
399007782,-1.3662113,0.52626294,-1.8901395,-1.2348379,-0.4299669,1.1402445,-3.0448692,-0.1994679,0.057795037,0.36983553,0.3604436,-0.31431448,0.6637732,0.5620806,0.68710196,1.2591362,1.1001744,0.30583724,0.54298085,0.12327325,0.006518173,0.021390446
399211302,-1.3732864,0.4703224,-1.8643445,-1.2421056,-0.46870714,1.1277385,-2.9949915,-0.048522674,0.19912012,0.4705366,0.40443408,-0.23056866,0.58983135,0.5350356,0.68126655,1.2311366,0.9794806,0.31029204,0.5544406,0.11310741,0.004389798,0.017770182
399409907,-1.3775977,0.44689864,-1.8561236,-1.2491865,-0.49218094,1.1137015,-2.9791183,-0.122158185,0.051885877,0.24638033,0.20284209,-0.26749924,0.37381053,0.34002602,0.4388641,0.8484103,0.64878225,0.3102864,0.56035584,0.10970161,0.0036373502,0.016018793
399608513,-1.3704233,0.4361974,-1.8448621,-1.246202,-0.5001158,1.1080631,-2.9686415,-0.020218756,0.05014572,0.15452766,0.20925975,-0.040357243,0.58167124,0.5395397,0.54614246,0.7357842,0.7295191,0.30802915,0.56416345,0.10950073,0.0033447058,0.014961986
399807113,-1.3591146,0.4383779,-1.8398716,-1.2397962,-0.49582475,1.1063296,-2.9751172,-0.13486277,-0.1731032,-0.16581358,-0.010806814,-0.013923831,0.5898292,0.5377439,0.4497863,0.39331496,0.6028962,0.30378488,0.5650782,0.1128457,0.0035283703,0.014763012
400015646,-1.3363705,0.4319612,-1.82559,-1.22862,-0.49272677,1.0908419,-2.9711266,0.27638492,0.14112118,0.08071357,0.37846267,0.56021833,0.43741775,0.35128617,0.15701914,-0.10442054,0.35504878,0.29447505,0.57032907,0.11810536,0.0035526387,0.013537807
400214251,-1.3165113,0.42772728,-1.8171139,-1.2195191,-0.48859197,1.0768105,-2.9757607,0.1527764,-0.066372424,-0.20737755,0.14009665,0.5425212,0.5663217,0.47872388,0.2209295,-0.24081922,0.3654765,0.2854933,0.5735549,0.12442261,0.0037607634,0.012768457
400403083,-1.3145188,0.4248177,-1.8219053,-1.2217978,-0.49037096,1.0688932,-2.9882278,0.08683265,-0.21303791,-0.45494154,-0.14470294,0.52938414,0.64300835,0.5873709,0.3022008,-0.36583102,0.28408182,0.28211492,0.57282007,0.12813832,0.0040594456,0.012867225
400606494,-1.3189782,0.39783314,-1.8146559,-1.2277343,-0.5114089,1.0497737,-2.9685376,0.24352954,-0.11747466,-0.47100556,-0.2981424,0.6520395,0.3146438,0.33192283,0.07173151,-0.77423203,-0.2216512,0.28165197,0.57810235,0.12521107,0.0034191315,0.01161543
400815031,-1.320548,0.3978519,-1.8162253,-1.229303,-0.51298827,1.0481949,-2.9701114,0.24352954,-0.11747466,-0.47100556,-0.2981424,0.6520395,0.3146438,0.33192283,0.07173151,-0.77423203,-0.2216512,0.28165197,0.57810235,0.12521107,0.0034191315,0.01161543
401008667,-1.3738918,0.32399762,-1.8095218,-1.266383,-0.58815587,1.017658,-2.899718,0.1490928,-0.26676026,-0.7991574,-1.0197268,0.42446792,0.20073038,0.3768525,0.24269736,-0.87318176,-0.6148837,0.30061236,0.58626246,0.10215955,0.0015697523,0.009395776
401207420,-1.3639157,0.28876004,-1.7839522,-1.2621098,-0.6095984,0.9926395,-2.8562675,0.4988334,0.079012096,-0.5088417,-0.90492094,0.73618364,0.19056183,0.4207601,0.34989968,-0.87308496,-0.7017558,0.2968331,0.5971687,0.097697616,0.0010147175,0.0072858157
401410839,-1.3649175,0.2511758,-1.7588004,-1.2667276,-0.6472978,0.9591068,-2.799829,0.39201835,-0.03557548,-0.6300707,-1.0688074,0.6746135,0.04624802,0.2698103,0.20187089,-1.0711931,-0.8655336,0.295715,0.60963506,0.08895905,0.0005023436,0.0051884716
401609443,-1.3926413,0.2235816,-1.7537749,-1.2868676,-0.6888345,0.94563794,-2.7549667,0.15394422,-0.26348835,-0.81240714,-1.1571109,0.55180657,0.16941008,0.32946754,0.2219139,-1.0606586,-0.65499365,0.3088335,0.6113523,0.075215876,0.00023665943,0.0043616802
401808050,-1.3794608,0.20223345,-1.7276214,-1.2815424,-0.71067935,0.9150569,-2.7122362,0.4193953,0.023730837,-0.47898898,-0.700682,0.8999272,0.07853326,0.18263695,0.041145384,-1.2416278,-0.6294068,0.3011429,0.6236856,0.07199502,0.00012534863,0.003050999
402006814,-1.3780822,0.20225583,-1.7262455,-1.2801648,-0.7092767,0.916467,-2.7108476,0.4193953,0.023730837,-0.47898898,-0.700682,0.8999272,0.07853326,0.18263695,0.041145384,-1.2416278,-0.6294068,0.3011429,0.6236856,0.07199502,0.00012534863,0.003050999
402215217,-1.3852804,0.17421299,-1.7066647,-1.2904993,-0.7535062,0.8783662,-2.6568666,0.33821943,-0.0040202886,-0.41476327,-0.49602547,0.8891486,0.20203796,0.23263085,0.06617266,-1.1327363,-0.32434118,0.3012338,0.6342085,0.06257658,4.0367504e-05,0.0019407483
402413792,-1.3952138,0.16591398,-1.708272,-1.3012521,-0.7746137,0.85955423,-2.6479099,0.1732932,-0.12252465,-0.4617362,-0.45107624,0.7110608,0.19378904,0.18833244,0.016196638,-1.0474057,-0.21151698,0.30151495,0.637254,0.05954257,2.685031e-05,0.0016616188
402607431,-1.3986574,0.16593339,-1.7117136,-1.3046979,-0.77803904,0.8561272,-2.6513488,0.1732932,-0.12252465,-0.4617362,-0.45107624,0.7110608,0.19378904,0.18833244,0.016196638,-1.0474057,-0.21151698,0.30151495,0.637254,0.05954257,2.685031e-05,0.0016616188
402816078,-1.4095088,0.15573896,-1.7082406,-1.3150846,-0.80249256,0.84261996,-2.6304564,0.05214999,-0.1396825,-0.3477394,-0.24032518,0.46480995,-0.013222128,-0.04829383,-0.18904755,-0.91995144,-0.21978751,0.3055146,0.6387746,0.054310713,1.4396655e-05,0.0013856601
403014567,-1.4102592,0.15270105,-1.7036633,-1.3160484,-0.80955166,0.8402853,-2.6204488,0.086407736,-0.05211741,-0.19542475,-0.050810035,0.4195123,-0.1140416,-0.15754125,-0.27684084,-0.82430494,-0.2296153,0.3067747,0.63919336,0.052721437,1.1547591e-05,0.0012989264
403213171,-1.4028798,0.1520009,-1.6950268,-1.3074825,-0.79982555,0.85344297,-2.6104205,-0.12196171,-0.2244015,-0.32548082,-0.16768193,0.150749,0.16740972,0.121863306,0.021039426,-0.3985557,0.10677135,0.30883723,0.6380125,0.05182653,1.10501e-05,0.0013127158
403406809,-1.3965997,0.15202028,-1.6887506,-1.3012002,-0.79355025,0.859714,-2.6041362,-0.12196171,-0.2244015,-0.32548082,-0.16768193,0.150749,0.16740972,0.121863306,0.021039426,-0.3985557,0.10677135,0.30883723,0.6380125,0.05182653,1.10501e-05,0.0013127158
403615428,-1.3943447,0.1512609,-1.68735,-1.2999574,-0.7947895,0.85436386,-2.6060772,0.2171905,0.18127389,0.14372621,0.21013096,0.32761988,0.1044991,0.086033225,0.052942514,-0.1059975,0.08740115,0.3067217,0.639837,0.052184388,1.0594196e-05,0.0012462663
403808985,-1.4035989,0.15127988,-1.6966033,-1.3092127,-0.80403537,0.8451203,-2.615334,0.2171905,0.18127389,0.14372621,0.21013096,0.32761988,0.1044991,0.086033225,0.052942514,-0.1059975,0.08740115,0.3067217,0.639837,0.052184388,1.0594196e-05,0.0012462663
404007588,-1.409914,0.15144394,-1.7034945,-1.315372,-0.8096865,0.83817136,-2.622833,0.04990057,0.03939257,0.0226726,0.028419768,0.08865231,0.14590544,0.14425611,0.14472699,0.087218106,0.13329917,0.3066256,0.63992745,0.052191503,1.0645444e-05,0.0012447189
404216121,-1.4172639,0.1509381,-1.7097939,-1.3223695,-0.81720626,0.8296642,-2.6255636,0.038315617,0.0936469,0.13808063,0.042648874,-0.087149,0.030619383,0.058613777,0.12950331,0.33015138,0.05593407,0.30734757,0.63976157,0.051642988,1.0150517e-05,0.0012377423
404414768,-1.4253558,0.14990652,-1.7155533,-1.3296849,-0.8259884,0.82155144,-2.6259463,0.034862325,0.11619258,0.17750213,-0.0072862804,-0.17340079,0.054520607,0.10727441,0.22124934,0.5266606,0.07074559,0.3091072,0.6390593,0.05059451,9.264701e-06,0.0012297321
404608366,-1.427648,0.14992598,-1.7178464,-1.3319771,-0.8282708,0.8192682,-2.628234,0.034862325,0.11619258,0.17750213,-0.0072862804,-0.17340079,0.054520607,0.10727441,0.22124934,0.5266606,0.07074559,0.3091072,0.6390593,0.05059451,9.264701e-06,0.0012297321
404806968,-1.428467,0.14898285,-1.7172569,-1.3328159,-0.8306476,0.81648844,-2.6242173,0.012251109,0.10164572,0.17621435,0.016229078,-0.20266168,-0.08030319,-0.033621073,0.07733965,0.41473478,-0.042406797,0.30950648,0.63911647,0.050154228,8.746019e-06,0.0012140865
405015502,-1.4309895,0.14667532,-1.7152108,-1.3347654,-0.83680654,0.8087056,-2.610294,-0.042183414,0.041234314,0.11887328,0.021961376,-0.2246952,0.10592055,0.1360805,0.22347307,0.5396246,0.16453338,0.31157044,0.6389423,0.04831767,7.0205297e-06,0.0011626136
405214129,-1.4333543,0.14566192,-1.7155577,-1.3369372,-0.84111226,0.8033232,-2.6053882,-0.017004274,0.065337956,0.15229881,0.12703344,-0.17308201,0.16173542,0.17348826,0.2381587,0.5482234,0.25204277,0.31240082,0.6389308,0.047524944,6.333006e-06,0.0011370385
405407745,-1.4369097,0.1445631,-1.7173268,-1.3407354,-0.84744614,0.7947702,-2.6020412,-0.047264606,0.03924138,0.13858238,0.16565806,-0.1942146,0.1605128,0.15931726,0.21054101,0.53560436,0.27968872,0.31250107,0.63946337,0.046928935,5.701785e-06,0.0011008256
405606349,-1.4400241,0.14458343,-1.7204374,-1.343852,-0.8505537,0.79166585,-2.605156,-0.047264606,0.03924138,0.13858238,0.16565806,-0.1942146,0.1605128,0.15931726,0.21054101,0.53560436,0.27968872,0.31250107,0.63946337,0.046928935,5.701785e-06,0.0011008256
405814883,-1.4357088,0.14288148,-1.7137433,-1.3402219,-0.85107857,0.78702533,-2.59145,-0.009217687,0.05887704,0.15260631,0.288858,-0.08573043,0.1120764,0.082387924,0.08883214,0.33731717,0.25824714,0.3120771,0.6406218,0.046253465,4.9037367e-06,0.0010427322
406013487,-1.4336884,0.14219774,-1.7111975,-1.3389192,-0.8516348,0.78331524,-2.5864043,-0.07400215,-0.010279994,0.080426276,0.23078215,-0.13849345,0.14412141,0.11079621,0.11012602,0.34125715,0.29102325,0.31104434,0.64172184,0.046219286,4.6347036e-06,0.0010098524
406212091,-1.4283212,0.14176437,-1.7054106,-1.3339607,-0.84788036,0.7849973,-2.5786965,-0.0628304,-0.00986281,0.058557928,0.13606629,-0.13227129,0.13697827,0.12158775,0.13596427,0.3310038,0.23609924,0.3104719,0.6423907,0.046143673,4.4491003e-06,0.0009892135
406415660,-1.4196594,0.14154013,-1.6965758,-1.3255291,-0.83997464,0.7920697,-2.5690978,-0.06585622,-0.017061487,0.040250488,0.07064911,-0.143986,-0.020181894,-0.023813963,0.0019249916,0.18505132,0.051398158,0.31016454,0.6426983,0.046151537,4.38835e-06,0.000981293
406609299,-1.413701,0.14156255,-1.6906259,-1.3195677,-0.8340029,0.7980413,-2.56312,-0.06585622,-0.017061487,0.040250488,0.07064911,-0.143986,-0.020181894,-0.023813963,0.0019249916,0.18505132,0.051398158,0.31016454,0.6426983,0.046151537,4.38835e-06,0.000981293
406807907,-1.40701,0.14118977,-1.6828167,-1.312499,-0.82783777,0.8045022,-2.5528376,0.07631055,0.12246637,0.17413789,0.18409462,-0.0042553907,0.18980289,0.1911869,0.22116494,0.39624393,0.24850118,0.31107447,0.64229417,0.045650486,4.1640133e-06,0.0009767723
407006529,-1.401556,0.14084443,-1.6766884,-1.3070974,-0.8232942,0.80824476,-2.5446627,-0.056129463,-0.0118162185,0.032771736,0.005207807,-0.14633954,0.14822423,0.1590302,0.19892228,0.37074685,0.1867944,0.3111685,0.6424578,0.045404132,3.9938104e-06,0.0009655794
407210076,-1.4047092,0.14045902,-1.6792511,-1.3105184,-0.8278163,0.8020308,-2.5449755,-0.08590284,-0.043018892,0.0047933757,0.0117114335,-0.16226813,0.24166012,0.24366868,0.27208626,0.43603885,0.294595,0.3108669,0.6429614,0.04522047,3.8069159e-06,0.0009474756
407408718,-1.4078397,0.14005026,-1.6821336,-1.3142757,-0.8327909,0.7945511,-2.5461924,-0.13359167,-0.08247112,-0.02150689,0.012496471,-0.21786764,0.14401925,0.14000285,0.1654563,0.3605019,0.21895218,0.3098942,0.6439153,0.04526252,3.6661497e-06,0.0009243815
407607285,-1.4137541,0.13972145,-1.6876853,-1.3205245,-0.8399837,0.7858728,-2.5503106,-0.06549456,-0.019541703,0.03786938,0.088457584,-0.13467935,0.12581599,0.1172694,0.13431132,0.30782342,0.202286,0.30944288,0.64443725,0.04520693,3.5483636e-06,0.000909477
407815818,-1.4157974,0.13891335,-1.6894109,-1.3239492,-0.84615916,0.77401376,-2.5491617,0.006053106,0.040172223,0.098640904,0.25609425,-0.005106166,0.25414705,0.2177217,0.19482088,0.3115399,0.36708927,0.30717382,0.6465827,0.04537999,3.2884655e-06,0.00086019817
408009457,-1.4167322,0.1385749,-1.6904235,-1.3256596,-0.8492046,0.7679229,-2.549314,0.075807184,0.09004118,0.12818417,0.30220276,0.109470166,0.24480355,0.20233679,0.16144335,0.19682586,0.342937,0.30581188,0.6477755,0.045573756,3.1938e-06,0.000835706
408208243,-1.4204317,0.1382159,-1.6943711,-1.3301895,-0.8548758,0.75927377,-2.552883,0.050031528,0.035889536,0.047681205,0.26444677,0.15474465,0.17678332,0.120636106,0.04824567,-0.03474462,0.26332784,0.30432287,0.64900756,0.045853622,3.1324178e-06,0.0008128649
408406666,-1.4240972,0.13820748,-1.6980499,-1.3338063,-0.85925025,0.75497663,-2.5569415,0.050031528,0.035889536,0.047681205,0.26444677,0.15474465,0.17678332,0.120636106,0.04824567,-0.03474462,0.26332784,0.30432287,0.64900756,0.045853622,3.1324178e-06,0.0008128649
408615202,-1.4252762,0.13641597,-1.700375,-1.3384624,-0.86758107,0.73485357,-2.5579488,0.03844066,-0.04408054,-0.100149214,0.18626739,0.30525798,0.37799442,0.29665756,0.1580987,-0.20952189,0.4225883,0.29813263,0.65402335,0.047114126,2.9282794e-06,0.00072698994
408813804,-1.4305834,0.1364358,-1.7056822,-1.3437698,-0.8728848,0.72955775,-2.563255,0.03844066,-0.04408054,-0.100149214,0.18626739,0.30525798,0.37799442,0.29665756,0.1580987,-0.20952189,0.4225883,0.29813263,0.65402335,0.047114126,2.9282794e-06,0.00072698994
409012615,-1.4171124,0.13144556,-1.6908585,-1.3357211,-0.8760862,0.7073535,-2.5409243,0.14921752,0.027696967,-0.052660167,0.37761286,0.5475621,0.27812463,0.1543287,-0.0544008,-0.6016859,0.35262674,0.28906235,0.66212404,0.04822763,2.244882e-06,0.00058374973
409216013,-1.3920509,0.12794288,-1.6665615,-1.3178693,-0.86925626,0.6884732,-2.5119674,0.45713478,0.3238075,0.22360879,0.60302424,0.86780703,0.31312734,0.19886798,-0.0036984682,-0.6028267,0.3560953,0.2760167,0.6727392,0.0507959,1.8218587e-06,0.00044637333
409414581,-1.385162,0.12487594,-1.6548935,-1.311635,-0.86937326,0.68520135,-2.4903188,0.05970308,-0.0771026,-0.18609095,0.14735305,0.472762,0.08891636,-0.018267214,-0.2120589,-0.8337009,0.11600399,0.27604908,0.6740541,0.049486123,1.3854859e-06,0.00040933304
409608221,-1.3815857,0.12489352,-1.6513124,-1.3080604,-0.86580205,0.6887691,-2.4867506,0.05970308,-0.0771026,-0.18609095,0.14735305,0.472762,0.08891636,-0.018267214,-0.2120589,-0.8337009,0.11600399,0.27604908,0.6740541,0.049486123,1.3854859e-06,0.00040933304
409806924,-1.3845905,0.122771405,-1.6512103,-1.3109138,-0.8717724,0.68305147,-2.4804459,-0.036390573,-0.18000063,-0.31593266,-0.13373181,0.34457865,0.18220627,0.11066735,-0.04373151,-0.679231,0.13342553,0.27714345,0.6740471,0.048413232,1.1703031e-06,0.0003950631
410010392,-1.3775581,0.12059149,-1.6418158,-1.3055698,-0.8716647,0.67683506,-2.464923,0.18347108,0.038246185,-0.12457308,-0.14727798,0.5030247,0.04197246,0.020141006,-0.07565719,-0.68640465,-0.10561484,0.2746718,0.6767099,0.048258763,9.72543e-07,0.000358516
410208997,-1.3682379,0.11524292,-1.6236892,-1.2985456,-0.8776445,0.6604924,-2.4263504,0.054300398,-0.09581772,-0.30237424,-0.6653644,0.28892976,-0.028490365,0.0267272,0.02283746,-0.5538369,-0.33540672,0.27289787,0.68048286,0.046324942,5.51703e-07,0.0002937832
410407600,-1.3470235,0.11234514,-1.6014942,-1.2817415,-0.86886895,0.65168345,-2.3981059,0.37036306,0.21806145,-0.0067312717,-0.5166153,0.57138324,-0.14500016,-0.05778694,-0.023046672,-0.58410823,-0.5188092,0.2645723,0.68745464,0.04773204,4.5027184e-07,0.00024058673
410616246,-1.3367996,0.1091958,-1.5868491,-1.2729229,-0.86706567,0.6458582,-2.372597,0.1737209,0.021270521,-0.21260637,-0.82707334,0.35194853,-0.029455006,0.07883233,0.14046872,-0.3937214,-0.44951993,0.2629895,0.6899146,0.046882026,3.2826438e-07,0.0002135666
410814749,-1.3329759,0.10592356,-1.5792444,-1.2709763,-0.87226343,0.63092023,-2.3549995,0.24770983,0.0953002,-0.14700784,-0.8583298,0.40632987,-0.013913751,0.1132482,0.19942716,-0.3130288,-0.4738928,0.26020366,0.6931759,0.04643383,2.416121e-07,0.00018633346
411008413,-1.3362381,0.105941564,-1.5825043,-1.2742388,-0.8755345,0.627638,-2.3582635,0.24770983,0.0953002,-0.14700784,-0.8583298,0.40632987,-0.013913751,0.1132482,0.19942716,-0.3130288,-0.4738928,0.26020366,0.6931759,0.04643383,2.416121e-07,0.00018633346
411206982,-1.3491985,0.102507606,-1.5889726,-1.2872381,-0.8950999,0.60452294,-2.3491905,0.09534329,-0.04849258,-0.28635043,-1.0662813,0.22248685,0.01825428,0.15967298,0.268726,-0.18602616,-0.4623719,0.26204884,0.69347465,0.04430604,1.556919e-07,0.00017030234
411415579,-1.3474818,0.0976446,-1.5812811,-1.2890433,-0.9091225,0.57204664,-2.325093,0.19510366,0.098649845,-0.07068761,-0.72555953,0.2604406,-0.072901666,0.045121193,0.15013385,-0.11921269,-0.44686025,0.25633287,0.6996342,0.043900054,9.0764125e-08,0.00013274844
411614120,-1.3429569,0.09658806,-1.5759726,-1.2855542,-0.90813893,0.56828856,-2.3171475,0.18925369,0.13054955,0.014523521,-0.52578515,0.19425711,-0.09078771,0.011379361,0.11383617,-0.006031871,-0.38510555,0.25429264,0.70148087,0.04410172,8.237821e-08,0.00012460504
411812724,-1.3393253,0.09604367,-1.5717571,-1.2825415,-0.9066765,0.56717,-2.3110259,0.054247156,0.03230168,-0.027505606,-0.40291253,0.011743501,-0.12541014,-0.04925251,0.03709513,0.046093464,-0.31864345,0.25312907,0.70254576,0.04420502,7.7559655e-08,0.00012006635
412016293,-1.3342083,0.09577441,-1.5662079,-1.2775613,-0.90232265,0.57089067,-2.304217,0.028343305,0.03211917,0.011692107,-0.2454513,-0.047567785,-0.04847622,0.009216547,0.083788574,0.1818459,-0.1701281,0.25296557,0.7027883,0.044127494,7.4891865e-08,0.00011864604
412214928,-1.3339527,0.09564751,-1.5658706,-1.2774805,-0.90256447,0.56991434,-2.303441,0.0067791343,0.0375226,0.061362118,-0.03808082,-0.09536892,-0.10340679,-0.07238859,-0.019257545,0.16051686,-0.13368326,0.25262564,0.70306194,0.044194706,7.4346104e-08,0.000117706506
412413501,-1.3412763,0.09545034,-1.5727106,-1.2846373,-0.91002995,0.56247175,-2.3093143,0.06432101,0.11666602,0.17229028,0.16090111,-0.069806054,-0.08299422,-0.064614296,-0.018013954,0.23965436,-0.05909133,0.25314915,0.7027603,0.043972474,7.246204e-08,0.000118038086
412607144,-1.3496053,0.09506851,-1.5801194,-1.2928828,-0.91919845,0.55222315,-2.3144543,0.008471495,0.07636853,0.15485772,0.20668723,-0.14882399,-0.016689777,-0.0073114634,0.03466499,0.34870762,0.045958996,0.25361726,0.7026242,0.04364138,6.8138576e-08,0.00011713547
412805757,-1.356655,0.09508955,-1.5871676,-1.2999336,-0.9262376,0.5451849,-2.321505,0.008471495,0.07636853,0.15485772,0.20668723,-0.14882399,-0.016689777,-0.0073114634,0.03466499,0.34870762,0.045958996,0.25361726,0.7026242,0.04364138,6.8138576e-08,0.00011713547
413014337,-1.367321,0.093928196,-1.5953714,-1.3101223,-0.9385748,0.53175145,-2.3244333,0.08767462,0.18091333,0.29044032,0.37988323,-0.12635116,-0.10545826,-0.0956167,-0.042723417,0.38632268,-0.013220787,0.25549012,0.70172036,0.042672943,5.8618017e-08,0.00011652543
413207921,-1.3689218,0.09298142,-1.5948348,-1.31183,-0.94295317,0.5237508,-2.3185093,-0.03162813,0.07176939,0.1985314,0.35389274,-0.25471842,0.039767623,0.038573384,0.08197522,0.54165053,0.16810977,0.25594276,0.70190555,0.042038992,4.993392e-08,0.00011267351
413416451,-1.3674021,0.092188664,-1.5920575,-1.3105056,-0.9434084,0.520538,-2.312462,-0.072856314,0.03166432,0.16495985,0.37921616,-0.28469127,-0.11775589,-0.1308564,-0.1020093,0.34640306,0.037352562,0.25593922,0.7022079,0.041742954,4.539735e-08,0.00010991599
413615055,-1.3648227,0.09125782,-1.5876334,-1.3082889,-0.94393075,0.51548725,-2.3030822,-0.06556525,0.036521666,0.17041971,0.42160973,-0.26249862,0.041876793,0.020350337,0.037500024,0.46275085,0.21222007,0.25573736,0.7028362,0.04132106,3.9046206e-08,0.000105322055
413813659,-1.3610418,0.09035179,-1.5816834,-1.3047403,-0.944138,0.5108907,-2.2927794,-0.008285582,0.08221878,0.20649034,0.4931065,-0.16729072,0.1167506,0.08423114,0.08262813,0.43891698,0.29695523,0.25589368,0.70322394,0.04078095,3.31754e-08,0.00010129233
414007300,-1.3609501,0.08981318,-1.580381,-1.3048811,-0.9460892,0.50589633,-2.2882035,-0.012149259,0.057142437,0.1557652,0.4163806,-0.12380242,0.10341418,0.0699141,0.058035016,0.3169645,0.26005816,0.25577602,0.70362663,0.04049888,2.9949085e-08,9.845921e-05
414205903,-1.3636987,0.08954129,-1.5827631,-1.30768,-0.9494048,0.5018247,-2.2896748,-0.11211141,-0.058481626,0.024334788,0.3003965,-0.17925957,-0.08744037,-0.12952805,-0.15866888,0.014886379,0.069501996,0.25580058,0.7036866,0.04041507,2.9150389e-08,9.783278e-05
414414441,-1.36444,0.089251235,-1.5824801,-1.3083322,-0.95117605,0.49898398,-2.2870975,0.1342204,0.17213863,0.23381814,0.46458152,0.09653954,0.08714926,0.04947412,0.019280672,0.12865615,0.21563447,0.2563676,0.70348716,0.040048312,2.6978972e-08,9.69169e-05
414613040,-1.3661711,0.089099795,-1.5839583,-1.3102548,-0.9537171,0.4949506,-2.2876568,-0.009879157,0.017807305,0.06499301,0.2585416,-0.030622602,0.09636283,0.0633502,0.034641623,0.10505128,0.20233285,0.25600532,0.7038478,0.04005139,2.6239604e-08,9.557878e-05
414811644,-1.3730304,0.08905991,-1.5905846,-1.3171097,-0.96089303,0.4872768,-2.2937098,0.23429278,0.24126825,0.25606576,0.33787957,0.2393857,0.08676016,0.07074952,0.054638743,0.059009075,0.13041103,0.25608552,0.7038499,0.039969385,2.569792e-08,9.517424e-05
415015213,-1.3722893,0.08910617,-1.5900582,-1.3163655,-0.95990217,0.48840606,-2.2936044,0.18236785,0.1697891,0.15068454,0.08879893,0.20208874,0.201406,0.20976102,0.21588027,0.17208087,0.16770315,0.25599962,0.70388025,0.040024877,2.60476e-08,9.531952e-05
415204055,-1.3688984,0.089125715,-1.5866636,-1.312976,-0.95650774,0.49179947,-2.2902117,0.18236785,0.1697891,0.15068454,0.08879893,0.20208874,0.201406,0.20976102,0.21588027,0.17208087,0.16770315,0.25599962,0.70388025,0.040024877,2.60476e-08,9.531952e-05
415407457,-1.3675344,0.088805735,-1.5854672,-1.3119104,-0.95573795,0.49106348,-2.2890248,0.20639244,0.1561614,0.0763895,-0.20966464,0.26783538,0.05657518,0.10037547,0.13505447,-0.020739555,-0.10050893,0.25522205,0.7044826,0.04020138,2.5987612e-08,9.385293e-05
415606060,-1.3657204,0.08823025,-1.5826119,-1.3106433,-0.95658463,0.48597017,-2.2831821,0.038155206,-0.026101448,-0.12437847,-0.4482816,0.12712893,-0.15693074,-0.10998696,-0.07713437,-0.2910083,-0.33769065,0.25431642,0.70546544,0.0401282,2.349219e-08,8.994865e-05
415809629,-1.3615707,0.08773622,-1.5777701,-1.3067632,-0.9539627,0.486225,-2.2764487,0.10495262,0.028602913,-0.08047633,-0.3810529,0.23342736,0.037894666,0.07474053,0.09034002,-0.1949526,-0.13469768,0.25392678,0.7059526,0.040032834,2.2002245e-08,8.781792e-05
416008439,-1.3597597,0.08705864,-1.575043,-1.3056935,-0.9552,0.47965616,-2.270736,0.14867225,0.058626823,-0.060082823,-0.3025257,0.32964563,-0.06473768,-0.046104133,-0.05851394,-0.43745917,-0.21269983,0.25249118,0.7073363,0.04008924,1.9885404e-08,8.328817e-05
416216768,-1.368603,0.08634924,-1.5824751,-1.314589,-0.9658792,0.46689495,-2.274934,0.04342623,-0.055927515,-0.18538351,-0.4388825,0.24809143,0.07111263,0.087955,0.069821775,-0.35446495,-0.0836553,0.25288272,0.70736414,0.039671592,1.773849e-08,8.154211e-05
416415371,-1.3708304,0.08555133,-1.5837225,-1.3173453,-0.97066665,0.45784816,-2.2732842,0.13738842,0.03012337,-0.110714614,-0.39865714,0.3558065,0.090477884,0.11122209,0.09496522,-0.3594625,-0.08197063,0.25196597,0.70834625,0.03960959,1.6044316e-08,7.8126264e-05
416609012,-1.3705977,0.084714524,-1.5821886,-1.3176695,-0.9734576,0.4501659,-2.2680688,0.118356004,0.01098536,-0.12379058,-0.3424102,0.3562011,0.029759765,0.034679353,-0.0010589957,-0.48459727,-0.106921196,0.2510936,0.709369,0.039462987,1.4117579e-08,7.440827e-05
416807728,-1.370275,0.083939575,-1.580514,-1.3178117,-0.97597647,0.44322616,-2.262721,0.10184839,-0.00020332634,-0.13088277,-0.3721826,0.3211099,-0.001514554,0.00966692,-0.015923321,-0.46415806,-0.14575458,0.25046125,0.7102072,0.03926038,1.2410682e-08,7.119077e-05
417006263,-1.3691182,0.08320867,-1.5782429,-1.317499,-0.978378,0.43452728,-2.256856,0.15927407,0.066013925,-0.055987135,-0.31002825,0.3527732,-0.11402002,-0.09724322,-0.11218986,-0.51001453,-0.2603902,0.24879925,0.7118121,0.03932182,1.0971795e-08,6.68516e-05
417209787,-1.3663585,0.08270589,-1.5749054,-1.3152487,-0.97763807,0.43162972,-2.2515771,0.14180298,0.0610548,-0.049940802,-0.33810717,0.2939052,0.0038757324,0.032453716,0.03731203,-0.27995175,-0.15470952,0.24775109,0.7127949,0.03938963,1.0253775e-08,6.440293e-05
417408391,-1.3610682,0.08226808,-1.568849,-1.3102899,-0.9741025,0.43235165,-2.2433352,0.07257911,0.008093543,-0.08797541,-0.4100242,0.17191818,-0.05698222,-0.014603376,0.01381439,-0.201231,-0.22827303,0.24721715,0.7134061,0.039314203,9.50665e-09,6.256176e-05
417617050,-1.3530668,0.08202516,-1.5606406,-1.3024772,-0.9660758,0.43889636,-2.2327423,0.07846795,0.03350047,-0.041462153,-0.36467934,0.12393868,-0.031493545,0.019096494,0.06532043,-0.04301995,-0.19909227,0.24684432,0.7138206,0.039273743,9.057757e-09,6.137715e-05
417810567,-1.3546034,0.081944086,-1.5620124,-1.3040626,-0.96792823,0.4366311,-2.233675,0.03641777,0.014962975,-0.023317192,-0.20912872,0.050947715,-0.013004601,0.01772976,0.048241854,0.009856224,-0.10816747,0.2467848,0.7139082,0.0392459,8.9164836e-09,6.10732e-05
418014154,-1.3548784,0.08195767,-1.562251,-1.304299,-0.9681483,0.4365266,-2.2338626,0.053754345,0.059019636,0.061757013,0.025306193,0.030972384,0.04062307,0.050455093,0.06511152,0.108940184,0.02403891,0.24689204,0.71383375,0.039213043,8.894575e-09,6.116615e-05
418212733,-1.3577803,0.08194574,-1.5651195,-1.3072207,-0.971136,0.43335083,-2.2366214,-0.029837785,-0.0072112326,0.02219357,0.08313416,-0.076843195,-0.043559134,-0.047356606,-0.043079138,0.054021,-0.008969545,0.24685821,0.7138665,0.039214183,8.870379e-09,6.10854e-05
418411463,-1.3568773,0.08183351,-1.5640985,-1.306393,-0.9705726,0.43321624,-2.2352073,-0.09627149,-0.0589875,-0.0020651743,0.20234966,-0.14850086,-0.0498994,-0.07844746,-0.09943771,0.01645267,0.05821836,0.24671708,0.71400464,0.039217535,8.7691125e-09,6.074477e-05
418609945,-1.3562868,0.08154058,-1.562643,-1.3056927,-0.97075117,0.43212318,-2.2318492,0.022143126,0.07043134,0.14622517,0.43679214,-0.039482802,-0.015658379,-0.058082342,-0.09219694,0.046945572,0.13689637,0.24731842,0.7137289,0.03889225,8.188494e-09,6.045775e-05
418808591,-1.3537356,0.08156106,-1.5600972,-1.3031399,-0.96819514,0.43467715,-2.229293,0.022143126,0.07043134,0.14622517,0.43679214,-0.039482802,-0.015658379,-0.058082342,-0.09219694,0.046945572,0.13689637,0.24731842,0.7137289,0.03889225,8.188494e-09,6.045775e-05
419017087,-1.3538845,0.08051259,-1.5577542,-1.3035337,-0.9726823,0.4248094,-2.222406,-0.15544549,-0.078434244,0.029744845,0.3401094,-0.2937913,0.041195273,0.0075268745,-0.004986286,0.28499967,0.20624727,0.24766171,0.7139715,0.038308777,6.7546275e-09,5.8110807e-05
419215737,-1.3405535,0.08001174,-1.54266,-1.2898278,-0.9604647,0.43635434,-2.2036138,0.09589447,0.17636445,0.27725217,0.45311385,-0.08613278,0.04772246,0.044941425,0.07212865,0.4401626,0.14565659,0.24933113,0.71303856,0.03757221,5.8881424e-09,5.8132508e-05
419409327,-1.3275728,0.07929705,-1.527837,-1.2769682,-0.94996625,0.4431327,-2.184176,-0.03780699,0.054644004,0.16169736,0.25304008,-0.27480096,0.065057516,0.086098194,0.14743567,0.62174803,0.121251464,0.24979295,0.71309257,0.037057992,4.99896e-09,5.644438e-05
419607931,-1.3226482,0.07851292,-1.5211366,-1.272057,-0.9466532,0.44296402,-2.1712973,-0.023897793,0.0736735,0.17945726,0.18535738,-0.2971055,0.015165806,0.057416916,0.14700162,0.6918235,0.027424932,0.25050244,0.7130023,0.03644052,4.1422874e-09,5.4784574e-05
419806535,-1.3412625,0.07743695,-1.5364417,-1.2903078,-0.9688506,0.41827732,-2.1809871,0.061264124,0.16153508,0.2644719,0.19603938,-0.2384355,0.043051243,0.103042364,0.21565294,0.8144884,0.01624477,0.25294688,0.7116846,0.035314232,3.2251841e-09,5.4275173e-05
420005237,-1.3491231,0.07745641,-1.5443044,-1.2981666,-0.9767339,0.41039714,-2.1888516,0.061264124,0.16153508,0.2644719,0.19603938,-0.2384355,0.043051243,0.103042364,0.21565294,0.8144884,0.01624477,0.25294688,0.7116846,0.035314232,3.2251841e-09,5.4275173e-05
420213673,-1.3655453,0.07461141,-1.5535588,-1.314626,-1.0018908,0.37379,-2.1806817,-0.035022795,0.06288722,0.14675516,-0.14609711,-0.38164058,0.039557576,0.14700532,0.3181281,1.0238578,-0.10347259,0.25633723,0.710476,0.03313684,1.6578363e-09,4.9980372e-05
420412277,-1.3800285,0.0730768,-1.5641959,-1.3290019,-1.020736,0.34970766,-2.1821194,0.045826375,0.13819292,0.21305618,-0.12959674,-0.29657412,-0.007962346,0.107961774,0.2876408,0.9991048,-0.17973578,0.25866708,0.7093655,0.031919107,1.1473462e-09,4.8293346e-05
420610881,-1.389205,0.07156586,-1.5686648,-1.3384396,-1.035352,0.32610586,-2.1728556,-0.2584059,-0.18001276,-0.11982292,-0.46607238,-0.5610373,0.20631337,0.31650734,0.48394322,1.1264482,0.030454755,0.26064992,0.70873266,0.030572163,6.9520834e-10,4.5143894e-05
420809484,-1.3949122,0.07070509,-1.5720115,-1.344122,-1.0437924,0.314547,-2.1704426,-0.0038412213,0.060192972,0.110697,-0.16531774,-0.24931061,0.037858248,0.12694192,0.26249647,0.798597,-0.1066221,0.26213282,0.70796424,0.029858818,5.4721244e-10,4.4220924e-05
421013054,-1.3989522,0.07032825,-1.5746516,-1.3477011,-1.0482469,0.31132126,-2.1702623,0.11679196,0.1574766,0.18694237,-0.031675786,-0.04796453,0.09955108,0.16496134,0.26235378,0.62973636,-0.014302969,0.2643097,0.7064126,0.029232733,4.8081444e-10,4.4936343e-05
421206693,-1.3970363,0.07012927,-1.5718672,-1.345814,-1.0474471,0.3111037,-2.165418,-0.20466843,-0.19185892,-0.19015768,-0.3733765,-0.28000373,0.10382533,0.14738965,0.20744693,0.38335705,0.012671232,0.2647906,0.7061624,0.029002508,4.4226603e-10,4.4599637e-05
421405343,-1.3983142,0.07000167,-1.5722108,-1.3470135,-1.0505941,0.3080475,-2.1656725,-0.3546003,-0.3634636,-0.3811804,-0.5039004,-0.3536998,0.09934604,0.11930692,0.1418544,0.1507566,0.04173827,0.2656058,0.70557135,0.028777912,4.214883e-10,4.488218e-05
421613886,-1.3961943,0.070078,-1.5704798,-1.344778,-1.0467104,0.31328622,-2.1631165,-0.03399189,-0.057522565,-0.08691564,-0.14637968,0.023160532,0.322361,0.32182157,0.31321347,0.19646227,0.2984016,0.26573518,0.7054357,0.028783938,4.2852163e-10,4.5157096e-05
421817400,-1.3925416,0.07003032,-1.5672612,-1.3415202,-1.0435203,0.3146333,-2.1601956,0.18961526,0.15474859,0.11549401,0.09341614,0.28766894,0.26981997,0.2558496,0.22621346,0.01843822,0.26616335,0.2643294,0.7065412,0.029085098,4.4161486e-10,4.420759e-05
422016006,-1.3937249,0.06995164,-1.568347,-1.3425407,-1.0443934,0.31490153,-2.1613202,-0.22544123,-0.26483306,-0.3040971,-0.25406858,-0.09904969,0.20516503,0.17424285,0.12144089,-0.15227127,0.23720753,0.2648742,0.7060845,0.028996652,4.4329415e-10,4.4722383e-05
422204873,-1.3877604,0.069716804,-1.5621638,-1.3367934,-1.0392628,0.3180753,-2.154183,-0.047610484,-0.08980065,-0.12591392,0.015510863,0.105985306,0.15135825,0.100559354,0.021427512,-0.31762516,0.22783267,0.26439542,0.70652676,0.029033728,4.3084813e-10,4.4051783e-05
422408247,-1.3732591,0.069381826,-1.5475466,-1.3228762,-1.0264248,0.32666126,-2.1382313,0.024466403,-0.018760324,-0.0521463,0.14609745,0.19304094,0.21388257,0.15096986,0.056050897,-0.32005358,0.31828582,0.2627906,0.7079017,0.029265298,4.1686274e-10,4.2404437e-05
422606861,-1.3701652,0.068902135,-1.5435243,-1.3200088,-1.0250525,0.32454866,-2.1314456,-0.032342285,-0.07166563,-0.09423742,0.20037124,0.1451523,0.076719165,-0.0038580894,-0.11991596,-0.5237111,0.22753847,0.26272136,0.70814216,0.029095028,3.7500403e-10,4.1445466e-05
422810420,-1.3664484,0.068312705,-1.5390842,-1.3169471,-1.0238997,0.31974623,-2.124012,-0.01595813,-0.048984677,-0.059188634,0.318548,0.1602094,0.17544782,0.08129406,-0.049943805,-0.4607184,0.36557448,0.26127496,0.709504,0.029181663,3.3886877e-10,3.9464307e-05
423009213,-1.352379,0.06782705,-1.5247236,-1.3035889,-1.012032,0.32620618,-2.107691,-0.07396774,-0.09780063,-0.09767829,0.28668553,0.07646851,0.22580194,0.13501918,0.011222959,-0.3482015,0.41789728,0.25937837,0.71115524,0.029428793,3.202116e-10,3.7578084e-05
423217561,-1.3343005,0.067269854,-1.5054572,-1.286162,-0.9978305,0.33430076,-2.0863523,0.083058,0.06062597,0.06070742,0.4228797,0.22488154,0.13321543,0.047453403,-0.06941676,-0.41059935,0.3151937,0.25819343,0.7123181,0.029452533,2.8627248e-10,3.587935e-05
423416163,-1.3188229,0.066881396,-1.4894027,-1.2714119,-0.9849049,0.34095576,-2.0676074,0.21315125,0.19123858,0.18717876,0.48080504,0.3392135,0.1702776,0.098522544,-0.00028181076,-0.3036145,0.319696,0.25639415,0.7139421,0.029629717,2.6185099e-10,3.398851e-05
423614766,-1.3149742,0.0666267,-1.4853358,-1.2682122,-0.98299515,0.33783963,-2.0618978,0.22487095,0.20033762,0.18772468,0.39637688,0.34136552,0.18657088,0.13035727,0.050565124,-0.22499764,0.29640257,0.2545904,0.7154945,0.029882666,2.4980454e-10,3.2459553e-05
423813537,-1.3227205,0.066458665,-1.4929273,-1.2763641,-0.991999,0.32563028,-2.0684125,0.16962057,0.14356387,0.12523496,0.27262133,0.27826035,0.13002288,0.08519614,0.019481659,-0.2329781,0.2111628,0.2534658,0.71646434,0.030038364,2.420914e-10,3.152388e-05
424007009,-1.3462994,0.0663079,-1.5162855,-1.3002312,-1.0166466,0.2984438,-2.0907207,0.15507773,0.12240535,0.09323403,0.18491654,0.27223104,0.0578686,0.020476103,-0.037892222,-0.30263174,0.11455977,0.25272658,0.7171255,0.030117204,2.3388752e-10,3.083413e-05
424205613,-1.3797672,0.06620417,-1.5499247,-1.334102,-1.0510175,0.2615527,-2.1241083,0.147386,0.114561334,0.083520085,0.14934975,0.25980127,0.21215785,0.1798346,0.1279118,-0.12375808,0.25660312,0.25140035,0.7181947,0.03037494,2.3482447e-10,3.0029732e-05
424409182,-1.4142109,0.06611372,-1.584469,-1.3688062,-1.0860826,0.22483858,-2.158454,0.0961567,0.057887852,0.017518312,0.030691415,0.21426237,0.17359686,0.1487751,0.10467148,-0.15256286,0.1944995,0.2505465,0.71888363,0.03054036,2.3514868e-10,2.951344e-05
424607886,-1.4416542,0.0660265,-1.612157,-1.3966438,-1.1143042,0.19430847,-2.186092,0.18723802,0.14808853,0.10576418,0.10349119,0.30491272,0.2105757,0.18833625,0.14725792,-0.10697329,0.22440374,0.24920414,0.71994674,0.03082025,2.3810068e-10,2.8776036e-05
424816329,-1.4611481,0.06596966,-1.6318095,-1.4163133,-1.1328549,0.17420965,-2.2039406,0.108290896,0.06781939,0.024932414,0.03542,0.23273236,0.05729282,0.03159964,-0.014282465,-0.2846086,0.07819593,0.2486504,0.7204344,0.030886801,2.3268808e-10,2.8313274e-05
425014925,-1.4599928,0.06579877,-1.6304336,-1.4155762,-1.1330589,0.17049824,-2.2013228,0.26300284,0.22136968,0.1784141,0.20687285,0.394786,0.003999591,-0.02613318,-0.078026175,-0.36684477,0.03458786,0.24751246,0.72141945,0.031040601,2.2408468e-10,2.7436345e-05
425208563,-1.4406965,0.065817654,-1.6111423,-1.3962773,-1.113785,0.18978369,-2.1820326,0.26300284,0.22136968,0.1784141,0.20687285,0.394786,0.003999591,-0.02613318,-0.078026175,-0.36684477,0.03458786,0.24751246,0.72141945,0.031040601,2.2408468e-10,2.7436345e-05
425407231,-1.4094362,0.065283544,-1.5786456,-1.3658,-1.0871913,0.20868634,-2.1471024,0.28244862,0.23898238,0.19839042,0.2931944,0.43386814,0.077430785,0.03231013,-0.039190292,-0.38112438,0.14294982,0.24578749,0.7230256,0.03116109,1.9832454e-10,2.5811476e-05
425605771,-1.3886536,0.065035455,-1.5572608,-1.3453071,-1.0678593,0.22460105,-2.1237383,0.1767621,0.12922102,0.0825347,0.15071252,0.33545697,-0.033069015,-0.075433254,-0.14465344,-0.4992025,0.021948278,0.2452543,0.72358465,0.031135956,1.8428227e-10,2.5145635e-05
425814334,-1.385821,0.064843215,-1.5541295,-1.3427006,-1.0659752,0.22420372,-2.119485,0.07536414,0.02576387,-0.025279373,0.009892523,0.23381518,0.079434454,0.04238051,-0.020674944,-0.37068844,0.11974609,0.24473336,0.724072,0.031169986,1.7720757e-10,2.467403e-05
426012920,-1.3935833,0.06459603,-1.5616401,-1.3509675,-1.0753764,0.21054994,-2.1255436,0.22093904,0.16671616,0.110271215,0.13872951,0.3923053,0.080072045,0.041459322,-0.02501887,-0.4025982,0.11973858,0.243319,0.72528267,0.03137456,1.6983281e-10,2.3737632e-05
426211611,-1.3971941,0.06430455,-1.5647324,-1.3551247,-1.0810537,0.19968891,-2.1264448,0.29242712,0.23381355,0.17045689,0.16416925,0.47051573,-0.054468513,-0.088896394,-0.15135491,-0.53836656,-0.029146135,0.24192187,0.72653013,0.031525277,1.5805608e-10,2.2705452e-05
426415082,-1.395618,0.06403088,-1.5629193,-1.3541607,-1.0813242,0.19451858,-2.1231005,0.27166337,0.2052705,0.12811393,0.035977542,0.45660898,0.02966851,0.007733524,-0.04115933,-0.4293732,0.017035961,0.24016032,0.72800845,0.03180953,1.5197038e-10,2.1685622e-05
426608721,-1.3864982,0.063776046,-1.553764,-1.3455704,-1.0736004,0.1983125,-2.1130173,0.2534296,0.18161556,0.08787772,-0.17427021,0.42085704,0.05269873,0.062090874,0.051501572,-0.2688073,-0.041860998,0.23853025,0.7293382,0.032110676,1.4941454e-10,2.0858213e-05
426807331,-1.3709307,0.063374124,-1.5380944,-1.3306369,-1.059766,0.2072767,-2.0960712,0.29927692,0.21919659,0.10300863,-0.3738133,0.44867134,0.031335652,0.07967919,0.11616713,-0.12582636,-0.16695309,0.23660645,0.73091483,0.03245884,1.4550824e-10,1.988992e-05
427005931,-1.3537257,0.062618375,-1.5202049,-1.3145492,-1.0462449,0.2109117,-2.0746179,0.2773684,0.19053628,0.05431059,-0.6264262,0.4064347,-0.15934443,-0.07327527,0.009209275,-0.14901876,-0.45712632,0.23346391,0.7335841,0.032933705,1.3149412e-10,1.8179164e-05
427209498,-1.338727,0.061358187,-1.5033805,-1.3008981,-1.0369362,0.2057241,-2.0509412,0.21812178,0.1256803,-0.030090101,-0.9327071,0.32084882,-0.2008026,-0.07281873,0.06149885,0.010986179,-0.60785353,0.23014294,0.73661906,0.033221837,1.04246424e-10,1.6104652e-05
427408101,-1.3297065,0.060056504,-1.4922152,-1.2928717,-1.033031,0.19703493,-2.032662,0.22564203,0.13480163,-0.02099429,-0.9675394,0.31801915,-0.10708159,0.02991581,0.17670304,0.17429975,-0.5357503,0.22807401,0.738709,0.03320236,8.043931e-11,1.4588882e-05
427616720,-1.3271397,0.058996923,-1.4883246,-1.2911118,-1.0336022,0.18553077,-2.0219588,0.20936222,0.12553696,-0.018614098,-0.9137067,0.29379487,-0.11803359,0.011647403,0.15177828,0.17105398,-0.52241033,0.22608466,0.7406781,0.03322401,6.386166e-11,1.3313273e-05
427815348,-1.3266283,0.058135517,-1.4861515,-1.2914228,-1.0372418,0.17159303,-2.0142424,0.07527372,0.0077129602,-0.11029996,-0.87384033,0.13754645,-0.2054488,-0.09304398,0.03034857,0.080557704,-0.55167854,0.2242367,0.7424844,0.03326666,5.197509e-11,1.2247854e-05
428008878,-1.3261704,0.05765524,-1.4852936,-1.2915457,-1.0387753,0.16471122,-2.0114539,0.24602981,0.20228766,0.11973184,-0.4856225,0.2660479,-0.13309789,-0.037694037,0.07132977,0.18624556,-0.41456562,0.22249241,0.7439533,0.03354267,4.894253e-11,1.16189585e-05
428207482,-1.3293197,0.057368513,-1.4881094,-1.2950288,-1.0431833,0.1571185,-2.0128875,0.1300258,0.11352898,0.070122585,-0.36724645,0.096599355,-0.13874811,-0.059111834,0.03778398,0.2321696,-0.3550514,0.22154218,0.7447735,0.03367309,4.676968e-11,1.1261405e-05
428406087,-1.3284519,0.057139695,-1.4872887,-1.2947718,-1.0438368,0.15213512,-2.011245,0.036120236,0.043500334,0.03281668,-0.28183824,-0.04943493,-0.34201658,-0.27092487,-0.17799598,0.10251397,-0.51437515,0.21946163,0.7463907,0.034136888,4.670034e-11,1.0716387e-05
428614620,-1.3304013,0.05699602,-1.4892915,-1.2969586,-1.0463281,0.14809902,-2.0130138,0.1482081,0.16843386,0.17716536,-0.040124536,0.040438324,-0.2262572,-0.16611654,-0.08349258,0.22157234,-0.35911703,0.21863344,0.7470266,0.034329478,4.681959e-11,1.0512339e-05
428813226,-1.334076,0.056876965,-1.4927695,-1.3007754,-1.0505861,0.14244676,-2.0157208,-0.005220808,0.017260045,0.03203159,-0.12356073,-0.10810652,-0.109656334,-0.06077975,0.008120954,0.28529483,-0.21202183,0.21825738,0.7473589,0.034373287,4.571895e-11,1.0370484e-05
429011828,-1.3401916,0.05682238,-1.4989369,-1.307018,-1.0569533,0.1353192,-2.0218277,0.08536674,0.103357166,0.11522579,-0.009262282,0.0031205267,-0.18559158,-0.14648652,-0.09132689,0.13118708,-0.26760507,0.21780404,0.7477003,0.034485333,4.5926013e-11,1.0267681e-05
429215397,-1.3446879,0.05678046,-1.5031989,-1.3115191,-1.0617194,0.13013066,-2.025432,-0.096895285,-0.088002525,-0.085433796,-0.2040858,-0.148694,0.045218885,0.076493084,0.11905533,0.27131915,-0.025638223,0.21791118,0.7476641,0.034414466,4.4735115e-11,1.0242172e-05
429414013,-1.3475082,0.05676063,-1.5060253,-1.3144531,-1.064824,0.12623702,-2.0281172,0.0049131922,0.0047072507,-0.0034772865,-0.14108342,-0.02126238,-0.16172916,-0.13310784,-0.096530795,0.0034766793,-0.23450053,0.21752486,0.747962,0.034503017,4.4731177e-11,1.0147384e-05
429612605,-1.3565788,0.05675915,-1.5150232,-1.3235061,-1.0739129,0.117191,-2.036944,0.0043741856,-0.0013936209,-0.01453997,-0.13641393,-0.00074537937,0.04020065,0.061456442,0.08705264,0.13519436,-0.019224286,0.21762408,0.7479003,0.03446538,4.435472e-11,1.0155127e-05
429806244,-1.3619545,0.056751736,-1.5203582,-1.3289423,-1.0794903,0.111063115,-2.042105,-0.011048047,-0.021715686,-0.040331222,-0.16682625,-0.0012707207,-0.13016915,-0.11152363,-0.0906589,-0.07490343,-0.18761379,0.21744046,0.7480506,0.034498915,4.4135844e-11,1.010041e-05
430005035,-1.3650472,0.056750666,-1.5234457,-1.3320982,-1.0827549,0.10725808,-2.045104,0.058386244,0.04402049,0.021611731,-0.10276132,0.08052224,-0.1164372,-0.10094136,-0.08515149,-0.09787947,-0.16941363,0.21722792,0.7482177,0.034544405,4.4057417e-11,1.00449515e-05
430208417,-1.3631243,0.05674428,-1.5215096,-1.330265,-1.081097,0.108099185,-2.043031,0.078824215,0.06096477,0.03479031,-0.09064757,0.112025104,-0.17677015,-0.16360283,-0.15178311,-0.18918777,-0.22715974,0.21692617,0.74845564,0.034608122,4.392438e-11,9.965561e-06
430416950,-1.3723097,0.05672547,-1.5305527,-1.3395274,-1.0906574,0.09744982,-2.0516443,-0.00049130246,-0.021829749,-0.051109947,-0.16681501,0.04589528,-0.30021855,-0.29165605,-0.28669605,-0.35655066,-0.34224698,0.21673732,0.74863076,0.034622077,4.3200152e-11,9.887029e-06
430610589,-1.4084039,0.056711443,-1.5665488,-1.3756784,-1.1269631,0.06031341,-2.0873277,0.061409637,0.037404925,0.006249383,-0.0935718,0.119623,-0.15893883,-0.15570962,-0.15829551,-0.2592774,-0.18997687,0.21660002,0.748758,0.034632128,4.2686306e-11,9.830386e-06
430809356,-1.4655917,0.056675874,-1.6234263,-1.4329141,-1.1845767,0.0012758758,-2.1434038,0.018750355,-0.0077439994,-0.04113984,-0.13433136,0.08636608,-0.42324728,-0.42326587,-0.43069375,-0.55478173,-0.44839984,0.21660514,0.7488162,0.034568857,4.122572e-11,9.763271e-06
431007797,-1.4866136,0.056648273,-1.644294,-1.4540138,-1.2059686,-0.021323573,-2.1637943,0.108421564,0.080445826,0.04553272,-0.046970427,0.18105295,-0.2200507,-0.22135633,-0.23083293,-0.36645377,-0.24330616,0.2164191,0.74899375,0.03457752,4.04539e-11,9.682336e-06
431206401,-1.4932601,0.05654844,-1.6503445,-1.4607563,-1.2148713,-0.03114193,-2.170302,0.07242895,0.041205734,0.0031232983,-0.08500165,0.15651345,-0.0774011,-0.08206916,-0.09673995,-0.25947696,-0.09517282,0.21631256,0.7491034,0.034574557,3.983956e-11,9.627706e-06
