timestamp,timestamp_sample,xyz[0],xyz[1],xyz[2]
427265866,427265635,0.00098886,-0.00168656,0.0125339
427268342,427268116,-0.00119201,0.000720008,0.0127291
427289572,427289320,0.00576326,0.00516256,0.025799
427306952,427306725,0.000325727,-0.0117592,-0.0353148
427327946,427327721,-0.0046927,0.000422635,-0.0554323
427349075,427348830,-0.0055464,0.002968,0.0277202
427366457,427366226,-0.000623697,0.00220137,0.0554122
427387567,427387325,-0.00369337,-0.00996354,-0.0299039
427407437,427407197,0.00762771,-0.0274176,-0.0501981
427426056,427425820,-0.0200457,0.013902,0.0369629
427445915,427445688,0.0360485,0.00047654,0.030441
427467029,427466802,-0.0220091,0.0200192,-0.0146236
427488148,427487914,0.0409592,-0.0209114,0.00389803
427505519,427505294,-0.0105662,-0.00708152,0.00230247
427526631,427526402,0.0526408,0.00155183,0.0711602
427547799,427547563,-0.076927,-0.000193092,-0.0385747
427568970,427568744,0.0384247,-0.00788642,-0.0307305
427586391,427586166,-0.010809,0.0181178,0.0267525
427607350,427607117,-0.01907,-0.0295712,-0.00956537
427628454,427628227,0.00746315,0.0132737,-0.00337433
427645842,427645611,0.00669753,-0.018637,-0.00862719
427666957,427666721,-0.045745,0.00136422,-0.0263173
427688058,427687831,0.0385851,0.0109499,0.0229489
427709176,427708946,0.0403036,0.00183542,0.0254163
427726554,427726326,-0.0393172,-0.0106174,-0.0481166
427747669,427747436,0.0350755,-0.0042535,0.0117268
427768771,427768546,0.0362803,0.00466975,0.0531996
427786161,427785931,-0.0231692,-0.00215443,-0.0566433
427807322,427807093,0.0149451,-0.00150229,-0.0218177
427828420,427828194,0.0172847,0.00931013,0.0516045
427845882,427845651,-0.0194238,-0.0117219,-0.0401627
427866888,427866658,0.00569254,-0.00474258,-0.0164281
427888016,427887783,0.00692941,0.0112878,0.0431595
427905373,427905142,-0.0223937,-0.00797842,-0.0430168
427926482,427926252,0.00760139,-0.0125669,-0.0250502
427947595,427947360,-0.0110369,0.0128074,0.0486912
427967456,427967228,0.003512,0.00102621,0.00267008
427986090,427985854,-0.00083617,-0.0230737,-0.0455433
428005957,428005723,-0.0237923,0.0195653,0.0448584
428027063,428026832,0.0402402,0.0172571,0.028457
428048171,428047942,-0.00102572,-0.0247674,-0.0435903
428065579,428065345,-0.0308764,0.00709996,0.017802
428086706,428086482,0.0524796,0.0293751,0.0353024
428107860,428107634,0.0216909,-0.0161291,-0.00522076
428129078,428128848,-0.08202,-0.0111915,-0.0356214
428146269,428146041,0.039767,0.0387967,0.025839
428167375,428167151,0.0502454,-0.0174183,0.015083
428188490,428188261,-0.0736971,-0.0284508,-0.0158342
428205874,428205646,0.0237093,0.0318881,-0.00679104
428226989,428226756,0.0623234,-0.0068737,0.0183725
428248094,428247866,-0.0533454,-0.0250866,0.0105037
428269222,428268979,-0.0334013,0.00883913,-0.0247962
428286588,428286360,0.055768,0.0163296,0.0247271
428307706,428307470,-0.0193403,-0.0273864,0.0279231
428328807,428328580,-0.0283347,-0.0113699,-0.0264957
428346198,428345966,0.0321005,0.0237847,0.0120914
428367347,428367118,0.00838165,-0.0154465,0.0470685
428388579,428388346,-0.0150332,-0.0311353,-0.0207021
428409526,428409295,0.0149457,0.00572584,-0.0404012
428426910,428426681,0.00202629,0.0216259,0.0477234
428448036,428447792,-0.0105622,-0.0131675,0.0103526
428469133,428468901,0.0283606,-0.0352342,-0.0457502
428486569,428486330,-0.0153905,0.0266094,0.0229658
428506384,428506152,-0.000217642,-0.00494164,0.0291909
428527563,428527336,0.0385718,-0.0538305,-0.0419907
428548606,428548375,-0.0273545,0.00913722,-0.0181424
428565997,428565767,-0.00238836,0.0441296,0.0411228
428587099,428586867,0.0613761,-0.0531634,-0.0316327
428608211,428607980,-0.0285189,-0.0361132,-0.0244312
428625591,428625364,-0.016067,0.0634178,0.0356558
428646802,428646571,0.0621419,-0.00912607,-0.0226593
428667996,428667770,-0.0104652,-0.0683679,-0.0280241
428685201,428684966,-0.011327,0.0517964,0.0449941
428706315,428706078,0.0580448,0.0320087,-0.0188622
428727424,428727191,0.00662034,-0.0600732,-0.0400062
428746049,428745813,-0.0311373,-0.00195665,0.0243999
428765910,428765680,0.0544801,0.0667639,0.0227649
428787015,428786791,0.00553903,-0.0152221,-0.0169304
428808126,428807901,-0.0679346,-0.0512021,-0.0266692
428829241,428829011,0.00135563,0.00649122,0.0167746
428846622,428846395,0.0192419,0.0141215,0.0083997
428867729,428867505,-0.0494161,-0.0200915,-0.0289692
428888848,428888618,-0.0038067,0.00385172,-0.0285495
428906278,428906052,0.0284786,0.0109154,0.0477542
428927483,428927253,-0.0604021,-0.0189596,0.0156533
428948460,428948224,-0.00855764,0.00661946,-0.0519694
428965836,428965605,0.0389143,0.00277306,0.035664
428986944,428986714,-0.0338049,-0.00286731,0.0269854
429008070,429007833,-0.0225203,-0.00228772,-0.0427359
429027921,429027692,0.0179978,0.00145167,-0.00361076
429046550,429046320,-0.00396629,-0.0135768,0.0499903
429066418,429066191,-0.010695,0.0044672,-0.0351697
429087528,429087297,0.00823241,0.0208928,-0.0410959
429108635,429108410,-0.0191482,0.01248,0.0452111
429126063,429125838,0.00472128,-0.0149186,-0.00484536
429147177,429146947,0.034086,-0.0274719,-0.0569751
429168256,429168029,-0.0267673,0.00774495,0.00818556
429185764,429185539,0.0194832,0.0131943,0.0154659
429206741,429206509,0.0631797,-0.0348433,-0.0386921
429227848,429227618,-0.0334343,-0.00502015,-0.0122573
429248952,429248725,-0.0414471,0.0430582,0.0483599
429266341,429266110,0.0724572,-0.0576419,-0.0291014
429287453,429287223,-0.0187036,-0.0413768,-0.038125
429308573,429308347,-0.0526097,0.0585162,0.0249228
429325944,429325714,0.0740487,-0.00137553,-0.00644399
429347058,429346826,-0.00435333,-0.0834572,-0.0398128
429368175,429367949,-0.0807953,0.000429236,0.0148185
429385549,429385320,0.0556174,0.0695789,0.00184623
429406663,429406435,0.0410813,-0.0542781,-0.0303314
429427763,429427539,-0.0858491,-0.0576805,-0.00267712
429446457,429446225,0.0257548,0.0718433,0.0217788
429466423,429466191,0.0581415,-0.00457758,-0.00869651
429487368,429487144,-0.0764274,-0.0681217,-0.0237118
429508477,429508254,-0.0306442,-0.00293356,-0.00128559
429525869,429525639,0.0606788,0.0511208,0.0271881
429546979,429546754,-0.024114,-0.0238863,-0.0150533
429568086,429567858,-0.0288559,-0.0356398,-0.0256741
429587952,429587726,0.0280352,0.0101781,0.0245874
429606585,429606353,0.00340023,-0.00370504,0.0181548
429626451,429626221,-0.0113595,-0.0251165,-0.0436434
429647555,429647331,0.0196609,0.00318037,-0.0271263
429668685,429668457,0.027338,0.0138921,0.0342088
429686062,429685831,-0.0285152,0.00142526,-0.0141666
429707190,429706956,0.00944737,-0.0158266,-0.0446844
429728441,429728210,0.00959924,-0.00751737,0.024879
429745659,429745433,-0.00712018,0.00458185,0.014852
429766799,429766574,0.0134272,0.00189069,-0.0579629
429787881,429787650,-0.0199322,0.00260436,-0.00743651
429808993,429808761,-0.0185231,0.0122967,0.0568382
429826369,429826146,0.0308234,-0.031388,-0.0431996
429847484,429847254,-0.0308741,-0.0190648,-0.030193
429868600,429868368,-0.0487611,0.0244117,0.0448831
429885981,429885750,0.0684322,-0.00890196,-0.0151865
429907121,429906891,-0.0254738,-0.029864,-0.0339593
429928202,429927969,-0.0706824,0.0194843,0.022105
429949344,429949117,0.0346996,0.0446018,0.0214056
429966696,429966464,0.0226208,-0.0641852,-0.0275254
429987947,429987711,-0.0949294,0.0158429,-0.00704724
430007842,430007613,0.036343,0.0630651,0.0218523
430026309,430026080,0.0344662,-0.0793628,-0.00214529
430047418,430047182,-0.0880241,-0.0293602,-0.0108932
430068525,430068290,-0.00172744,0.0742354,-0.0187942
430085913,430085672,0.0395083,-0.0138452,0.0117836
430107022,430106783,-0.048461,-0.0859252,0.00327396
430126892,430126652,-0.0146848,0.0308133,-0.0162654
430146756,430146520,0.0550477,0.0379099,0.0310574
430166624,430166390,-0.0303703,-0.0492195,0.00241653
430186485,430186257,-0.0215169,-0.00626786,-0.0385721
430207594,430207366,0.0186379,0.0501634,0.0156015
430228697,430228474,0.000612633,0.0202328,0.0291639
430246122,430245892,-0.0101808,-0.0459788,-0.0433139
430267378,430267142,0.0167644,-0.00437792,-0.00615176
430288303,430288080,0.0120994,0.035371,0.0433229
430305705,430305467,-0.0164714,0.000292345,-0.0338663
430326814,430326576,0.0103369,-0.0113357,-0.0415502
430347912,430347685,0.0162223,-0.00316685,0.0302672
430369025,430368795,-0.0226909,0.00682206,0.0459895
430386413,430386179,0.0261238,-0.0182447,-0.0632956
430407513,430407289,-0.00254324,-0.011334,-0.00338274
430428632,430428399,-0.0275514,0.010645,0.0614067
430446017,430445792,0.016215,0.014615,-0.0560808
430467123,430466894,-0.0060282,-0.0102399,-0.0226836
430488239,430488005,-0.0456855,0.0104329,0.0560501
430509340,430509114,0.0347386,0.00271926,0.0119011
430526824,430526595,0.00888406,-0.0276398,-0.0456901
430548029,430547790,-0.0562508,0.0231281,0.0282744
430568950,430568718,0.00981073,0.014741,0.0401396
430586329,430586103,0.0258332,-0.0412898,-0.036181
430607472,430607242,-0.0416769,0.00318886,0.00924447
430628564,430628323,-0.0110716,0.0486712,0.0417001
430645976,430645753,0.0503466,-0.0541626,-0.0337053
430667056,430666817,-0.0641161,-0.00239406,-0.0147925
430686938,430686707,-0.00802516,0.0771951,0.0292412
430708024,430707796,0.0678951,-0.00230967,0.000290413
430725418,430725192,-0.0864402,-0.0616833,0.00161643
430746520,430746290,-0.0104998,0.0446846,0.0262952
430767634,430767403,0.0716938,0.0741777,-0.00947861
430788777,430788552,0.0261056,-0.0422914,-0.0231448
430806245,430806017,-0.0356319,-0.00774621,0.00964046
430827235,430827007,0.0395645,0.0661244,0.0195635
430848346,430848117,0.0401644,-0.00978873,0.00718626
430865732,430865499,-0.041535,-0.0503518,-0.0298602
430886834,430886609,0.0295607,0.0310022,0.0129472
430907960,430907733,0.0379616,0.0311629,0.0297139
430929055,430928830,-0.0461096,-0.00475236,-0.0126546
430946453,430946227,0.0220498,-0.00139932,-0.0152538
430967554,430967330,0.0317841,0.00901386,0.0442845
430988657,430988433,-0.0290414,-0.00350132,0.0328569
431006045,431005819,0.00554273,0.00519673,-0.0503025
431027157,431026928,0.0380687,0.00476222,0.0178789
431048272,431048047,2.38662e-05,-0.0116769,0.0446126
431069489,431069260,-0.0338884,-0.00475469,-0.0306591
431086946,431086718,-0.00562449,0.017807,0.000423215
431107867,431107643,0.00155191,-0.00399597,0.061789
431128997,431128769,0.00879705,-0.0111758,0.00195922
431146372,431146137,0.0210596,-0.00191625,-0.0410586
431167489,431167263,-0.0399322,0.0145581,0.0431969
431188591,431188357,0.0127153,0.00379298,0.0286202
431206038,431205805,0.0209589,-0.0357714,-0.043845
431227081,431226852,-0.0296485,0.0123868,0.0110277
431246946,431246720,-0.000422587,0.0227669,0.0376381
431268059,431267830,0.0608929,-0.0535815,-0.0238916
431285440,431285214,-0.047451,0.010654,0.00144896
431306561,431306327,-0.0177669,0.0655724,0.0397222
431327769,431327539,0.0692625,-0.00839158,0.00230414
431348913,431348687,-0.019231,-0.0782444,-0.0216487
431366160,431365931,-0.0153871,0.0670311,0.00777484
431387275,431387040,0.0754125,0.0512915,-0.0104045
431408380,431408149,0.0138581,-0.0582146,-0.0149213
431425760,431425533,-0.0501342,0.000491777,0.0173842
431446872,431446644,0.0591522,0.0836175,0.00126542
431467982,431467755,0.037646,0.00568857,0.00429901
431485365,431485138,-0.0537795,-0.0526566,-0.0191074
431506477,431506248,0.0304616,0.0348463,0.00169719
431527583,431527358,0.0530468,0.0263833,0.0351915
431548693,431548469,-0.0485894,-0.0227445,0.00206734
431566102,431565871,0.00408362,0.00199967,-0.0171161
431587247,431587019,0.0232773,0.0381936,0.0390561
431608396,431608170,-0.000454435,0.00675695,0.0251799
431625875,431625644,-0.000744468,-0.037334,-0.0430835
431646805,431646571,0.0246942,-0.00189747,0.00604314
431667905,431667677,-0.00196597,0.0243833,0.056376
431685294,431685062,-0.0173895,-0.00305501,-0.0494267
431706421,431706174,0.0379888,-0.0282607,-0.0375809
431727515,431727282,-0.0252397,0.00261526,0.0420021
431746139,431745909,-0.0138942,0.0154759,0.0163762
431766024,431765777,0.0599628,-0.0351149,-0.0673539
431785882,431785646,-0.0345883,-0.00259672,0.0244386
431806982,431806754,-0.0226749,0.0269487,0.060462
431828120,431827897,0.0551609,-0.0024571,-0.0241164
431845512,431845284,-0.0373732,-0.0110846,-0.0240105
431866685,431866459,-0.0681001,0.0382279,0.0467533
431887838,431887615,0.0235063,0.0336611,0.0436965
431908806,431908579,0.106613,-0.0469588,-0.0244383
431926198,431925963,-0.101848,-0.00339989,-0.0403657
431947306,431947074,-0.113653,0.0917945,0.0305419
431968418,431968183,-0.00639215,0.0999307,0.0634143
431985800,431985568,0.168856,-0.150667,-0.00175967
432006906,432006678,0.212066,-0.228994,-0.0214497
432028018,432027788,0.269683,-0.217735,-0.00969147
432049183,432048950,0.292837,-0.131493,-0.00447149
432066506,432066282,0.271621,-0.0131129,-0.0391596
432087659,432087429,0.227184,0.0004753,-0.027569
432108738,432108504,0.0279895,0.106773,-0.00412615
432126183,432125957,0.000178876,0.0532754,0.0273159
432148585,432148354,-0.0334682,0.100754,0.0114065
432168343,432168109,0.0255233,0.034623,-0.0343685
432189442,432189217,0.288442,-0.107871,-0.0313876
432206833,432206601,0.305894,-0.120438,-0.000302926
432227999,432227770,0.189746,-0.042148,-0.0192696
432249055,432248821,-0.18191,0.0957984,0.0174578
432266441,432266206,-0.208445,0.0797785,-0.00925156
432287560,432287317,-0.136976,-0.00140529,0.0299312
432307429,432307193,0.0701224,-0.0458965,0.0196371
432326050,432325811,0.161606,-0.0326609,0.00191015
432345929,432345679,0.106282,-0.00164211,-0.00377738
432367016,432366789,-0.212339,0.0450875,0.0185039
432388127,432387900,-0.134363,-0.0290875,-0.00357173
432405573,432405345,-0.0526759,-0.0254771,-0.0247999
432426781,432426552,0.0693186,-0.0134086,-0.0171057
432447729,432447504,-0.0020762,0.0877252,0.0131786
432465118,432464888,0.000105885,0.0634855,0.00308275
432486243,432486002,0.0174404,0.0154252,0.0244137
432507333,432507108,0.0976185,-0.0580794,0.0106836
432528444,432528218,0.108128,-0.0346523,-0.0160273
432545845,432545605,0.129589,-0.00804359,-0.0263613
432566945,432566713,-0.0784409,0.0378629,-0.0374277
432588051,432587822,-0.0657841,0.0293379,0.0359246
432609161,432608933,0.0184816,-0.00102379,0.0267049
432626545,432626318,-0.0270581,-0.0210634,0.0282868
432647650,432647427,-0.183889,0.0126827,-0.0150405
432668804,432668574,-0.125737,0.0048258,-0.012367
432686256,432686029,-0.164408,0.0183805,-0.009221
432707260,432707034,0.13246,-0.0510123,-0.0229462
432728370,432728142,0.238487,-0.0366458,0.0316826
432749497,432749254,0.02256,0.0639957,0.027757
432766859,432766636,-0.0109364,0.0738814,0.0221126
432787982,432787750,-0.102999,0.0250839,-0.030818
432809092,432808860,0.0747388,-0.0726118,0.00496242
432826470,432826241,0.105768,-0.0799617,0.0052956
432847581,432847350,0.14128,-0.0254025,0.00343738
432868699,432868463,-0.232277,0.0460873,0.0167131
432886074,432885845,-0.251417,0.0728021,0.0117631
432905941,432905714,-0.321408,0.0516638,0.022925
432927059,432926825,-0.09261,-0.0694221,-0.00143407
432948257,432948024,0.187818,-0.0510668,-0.0492478
432965708,432965477,0.130795,-0.0399743,-0.0449589
432986658,432986428,-0.00612292,0.0641295,0.0386367
433007763,433007538,-0.0436979,0.0189314,0.0317516
433028875,433028647,0.0285172,-0.0379812,-0.00979763
433046262,433046032,0.023186,-0.0219177,-0.0051531
433067369,433067142,0.0423526,-0.0239455,-0.00497317
433088481,433088253,0.0594112,0.001523,-0.0214299
433105862,433105634,0.161158,-0.00978989,-0.0281719
433126973,433126747,-0.0665079,0.00618155,-0.0130187
433148084,433147857,-0.243049,0.0630794,0.0289229
433169202,433168967,-0.0790536,0.0283218,0.0343405
433186578,433186351,-0.11613,0.000154064,0.0347719
433207784,433207552,0.0831486,-0.00579079,-0.00387088
433228939,433228712,0.260353,-0.0428771,-0.0413617
433246182,433245956,0.211999,-0.0364195,-0.0191744
433267292,433267066,0.0986569,-0.0249625,-0.00100437
433288451,433288226,-0.0701433,0.0515079,0.0147665
433305793,433305561,-0.0944483,0.0547713,0.0161805
433326923,433326697,-0.166678,0.0637748,0.00837003
433348025,433347781,0.0225588,-0.0673342,-0.00113878
433369131,433368891,0.113219,-0.0805904,-0.00951419
433386502,433386276,0.118173,-0.0924294,-0.00638603
433406374,433406145,-0.0463349,0.0223494,0.0254682
433427482,433427254,-0.262531,0.112874,0.0212682
433448593,433448363,-0.109959,0.0133309,-0.0160335
433466024,433465800,-0.118409,-0.0342306,0.0134386
433487170,433486943,0.165254,-0.0810081,0.00787366
433508381,433508153,0.0863584,0.0593817,0.0223576
433525585,433525354,0.0186624,0.0546913,0.00375748
433546691,433546463,-0.0462108,0.0450026,-0.0343261
433567796,433567569,0.0777172,-0.0702262,-0.0377707
433588919,433588686,0.179335,-0.0914444,-0.00961845
433606292,433606067,0.228012,-0.0694048,-0.0162354
433627415,433627178,0.00978735,0.0965303,0.00696917
433648570,433648341,-0.160423,0.0818581,-0.019671
433665904,433665671,-0.1246,0.0844143,-0.00206066
433687013,433686782,-0.0171734,-0.0583519,0.00636055
433708125,433707892,0.0357727,-0.0797177,0.00679423
433729237,433729003,-0.0550395,0.0374433,0.0522271
433746656,433746427,-0.0414448,0.0426826,0.0569064
433767873,433767640,-0.164785,0.0899878,0.0448959
433788829,433788606,-0.0829912,-0.0103496,0.00630827
433806227,433805990,-0.0525064,-0.0456463,-0.037297
433827342,433827103,0.0611074,-0.134924,-0.0321314
433848443,433848211,0.0618494,-0.0219024,0.0117679
433865830,433865595,-0.0107699,0.0233077,0.0172409
433886938,433886706,-0.0985811,0.132133,0.0349076
433908064,433907820,0.0517542,0.0218387,-0.0225799
433925430,433925201,-0.00218401,0.00566387,0.0263107
433946553,433946314,0.241778,-0.105495,0.0127161
433966420,433966180,0.193112,-0.0441184,-0.00542049
433986303,433986069,0.057364,0.0494989,-0.0406426
434006209,434005973,-0.134346,0.0902973,-0.00772401
434026120,434025880,-0.0969523,0.0382716,-0.00653098
434047311,434047081,0.257482,-0.109027,-0.00506291
434068234,434068002,0.231738,-0.0464921,-0.0567896
434085632,434085401,0.191048,-0.00543791,-0.0585048
434106730,434106502,-0.158561,0.137214,0.0143154
434127839,434127610,-0.143328,0.0384539,-0.00425594
434148949,434148717,0.068711,-0.0948457,-0.00727389
434166327,434166101,0.153028,-0.0791197,-0.0178711
434187435,434187211,-0.073992,0.0352222,0.0163329
434208565,434208336,-0.262425,0.0316937,-0.0134911
434225936,434225706,-0.213196,0.0238428,-0.0420619
434247048,434246824,-0.0414613,-0.0562135,-0.00897666
434268159,434267927,0.151791,-0.0584886,0.00156644
434289333,434289100,-0.0687025,0.117189,0.0288764
434306785,434306557,-0.133868,0.0947224,0.0432389
434327759,434327531,-0.16697,0.0506155,0.0388203
434348872,434348642,0.144713,-0.136244,-0.0122666
434366260,434366030,0.0708972,-0.125877,-0.00260692
434387364,434387135,0.157689,-0.0370883,-0.0343098
434408476,434408246,-0.0750588,0.0907629,0.00182151
434429598,434429371,-0.0520092,0.00655807,0.0237532
434446970,434446739,0.0193612,0.0295627,0.0208366
434468148,434467917,0.131566,-0.0284794,0.01097
434487959,434487727,0.0981002,-0.0204238,-0.0446202
434506577,434506346,0.0649855,-0.0375311,-0.0783777
434526443,434526213,-0.0173085,0.0199505,-0.0455927
434547570,434547339,0.0126796,-0.0042914,0.0339182
434568778,434568552,0.0555534,0.00355739,0.0478734
434587299,434587065,0.0262631,0.0235591,0.0415776
434607163,434606931,-0.0590652,0.0345437,-0.00920542
434628266,434628037,-0.149869,-0.0202423,-0.0243274
434645691,434645462,-0.126953,-0.00243681,-0.0284613
434666762,434666532,-0.0203484,-0.0781848,-0.025114
434687870,434687642,0.154834,-0.0985452,0.0298909
434705256,434705026,0.156331,-0.097321,0.0390882
434726374,434726138,-0.0387976,0.0465417,0.0292445
434747480,434747246,-0.242267,0.110323,0.0116013
434768582,434768356,-0.119648,0.0351681,0.0156198
434785976,434785744,-0.160266,0.00209292,0.00914339
434807077,434806850,0.122439,-0.103786,0.0173393
434828313,434828079,0.145935,-0.057414,-0.0238738
434849461,434849232,-0.106585,0.0536037,-0.0224276
434866683,434866458,-0.121344,0.068395,-0.0110634
434887796,434887565,-0.0992475,0.0596666,0.00682069
434908909,434908675,0.220274,-0.0200058,0.0379072
434926293,434926065,0.165989,-0.0468088,0.0162094
434947404,434947170,0.199171,-0.0392257,-0.0439182
434968517,434968280,-0.0736851,0.0238676,-0.0329713
434988376,434988148,-0.104998,-0.0038419,0.0186972
435007011,435006774,-0.0138098,0.0506713,-0.00748117
435026865,435026642,0.0598794,0.0236748,0.000879954
435047983,435047752,0.118916,0.0123605,-0.00951684
435066612,435066382,0.124148,-0.0542773,-0.0275063
435086491,435086266,0.0909594,-0.0573976,-0.0126789
435108953,435108721,-0.134138,-0.00606002,0.00755162
435128705,435128470,-0.198913,0.0590709,0.0222122
435146085,435145852,-0.129907,0.0926115,0.028935
435167197,435166962,-0.0859744,0.0530996,-0.0114577
435188317,435188090,0.0746077,-0.105982,-0.0241787
435205684,435205458,0.126748,-0.101814,-0.0248344
435226796,435226566,0.0611181,-0.0811383,0.0147588
435247929,435247690,-0.20695,0.102423,0.0483129
435269013,435268787,-0.17713,0.0977216,0.0177177
435286403,435286172,-0.186066,0.0701628,-0.0171145
435307517,435307288,0.0698839,-0.130518,-0.00924896
435328620,435328392,0.10355,-0.0996349,0.015147
435347252,435347018,-0.0055205,-0.0314126,0.0366667
435367202,435366969,-0.232864,0.0926156,-0.0002972
435388431,435388205,-0.226505,0.0727394,-0.0102654
435405608,435405380,-0.21402,0.0426893,0.000726454
435426778,435426546,0.0874673,-0.103215,0.0152571
435447826,435447601,0.139809,-0.0619407,0.0110566
435466466,435466229,-0.0334278,0.0172264,0.0271724
435486336,435486098,-0.162107,0.116796,0.0506761
435507432,435507205,-0.112904,0.0279432,-0.0118106
435528547,435528316,0.1402,-0.0617831,-0.0274211
435545934,435545700,0.12568,-0.113805,-0.0330753
435567043,435566809,0.0508574,-0.000464265,-0.00690801
435586903,435586677,-0.15058,0.0646597,0.0388153
435608024,435607793,-0.179235,0.0396788,0.0333692
435625494,435625264,-0.168046,-0.0262943,0.0380876
435646621,435646395,0.10811,-0.0805099,-0.00578007
435667617,435667391,0.171534,-0.0330811,-0.0155617
435688730,435688501,-0.0384428,0.0577706,0.00171487
435706114,435705886,-0.0464551,0.0707832,-0.00757169
435727229,435726997,-0.00962848,0.00653076,-0.00626481
435748338,435748109,0.0903726,0.0177196,0.0247074
435765720,435765491,0.0334724,-0.0265361,0.0195249
435786913,435786688,0.15629,-0.0482851,-0.0321089
435807940,435807710,0.184133,-0.0645712,-0.0265169
435829048,435828821,-0.0628554,-0.0256418,0.00881303
435846440,435846207,-0.0313132,0.0636997,-0.00526723
435867549,435867316,-0.080164,0.0513444,0.0133724
435888771,435888543,0.0216333,0.0256303,-0.00213589
435906106,435905879,0.0562838,-0.0113407,0.0052376
435927326,435927096,0.0860443,-0.0803462,-0.0286761
435948261,435948031,-0.129833,-0.0225512,0.0223754
435969372,435969140,-0.227454,0.0640831,0.0548097
435986753,435986525,-0.202978,0.0582506,0.0284145
436007867,436007638,-0.0214172,-0.0232112,0.00333025
436028985,436028744,0.118788,-0.0768993,-0.0318972
436046400,436046172,0.0863774,-0.0754822,-0.0272845
436067469,436067241,-0.0932072,0.061652,0.0236938
436088586,436088349,-0.0196376,0.0389303,-0.00634285
436105962,436105733,-0.0376004,0.0196906,0.0099458
436127078,436126845,0.249488,-0.0964627,-0.0348745
436146949,436146716,0.146315,-0.0280136,0.0207438
436168132,436167906,-0.130732,0.153772,0.0245341
436185559,436185325,-0.109551,0.12184,-0.0105378
436206541,436206316,0.18232,-0.0654838,-0.0273231
436227654,436227426,0.228231,-0.0471137,0.000379371
436248804,436248578,-0.13968,0.0388297,0.00259143
436266155,436265922,-0.137118,0.0633286,-0.00683145
436287265,436287032,0.0568483,-0.0524079,-0.0206712
436308372,436308140,0.0597151,0.0283532,0.0227275
436325753,436325525,-0.0127848,0.033507,0.00138401
436346862,436346635,-0.252369,0.023282,-0.0290544
436367971,436367745,0.0225987,-0.113845,-0.0293389
436389087,436388855,0.0611317,0.0531707,-0.0192604
436406468,436406241,-0.128781,0.142138,0.0425757
436427582,436427355,-0.0617894,-0.0121539,0.036436
436448781,436448550,0.226531,-0.0361309,-0.0253199
436466256,436466029,0.0438926,0.00126316,-0.0511121
436487182,436486956,-0.0251556,-0.0529919,0.0176164
436508295,436508065,0.0156484,-0.0499935,-0.00523865
436529410,436529174,-0.164969,0.066367,0.081693
436546791,436546559,-0.0562564,0.0484625,0.0437675
436567909,436567670,-0.0158953,0.0192717,-0.0526002
436589015,436588779,0.117188,-0.0663111,-0.0230217
436606395,436606168,0.175088,-0.0256735,0.0265981
436627513,436627273,0.0144355,0.0927797,0.0253948
436647372,436647141,0.0225872,-0.10979,-0.0540059
436665998,436665768,0.183929,-0.118989,-0.0527667
436685865,436685639,0.0188091,0.0950278,0.0346751
436707014,436706785,-0.0529891,-0.0314835,0.0172846
436728224,436727994,0.100353,-0.0350849,-0.0350312
436745466,436745241,0.0239477,0.0390214,-0.0335269
436767831,436767597,0.0334692,-0.0880702,-0.0214517
436787708,436787464,-0.0419243,-0.0170097,-0.0121333
436808798,436808571,-0.140648,0.0784141,0.0425593
436826192,436825957,0.00457535,0.00824556,0.00132254
436847301,436847073,0.0663569,-0.0352769,-0.0423173
436868412,436868175,-0.0301555,0.0119492,0.0569417
436885794,436885560,-0.0266695,0.0602566,0.0397386
436906903,436906671,-0.00395378,-0.040375,-0.0168311
436928008,436927781,0.102635,-0.036075,-0.0193384
436945397,436945165,-0.0202459,0.0585515,0.00180617
436966577,436966343,-0.0852481,0.0185541,-0.00901011
436987715,436987482,0.226191,-0.127198,-0.0379059
437005184,437004951,0.140241,-0.0205782,-0.0188192
437026116,437025882,-0.148544,0.067051,0.0241
437047223,437046990,0.119414,-0.0363049,-0.0137048
437068321,437068096,-0.0931422,0.0982193,0.0311757
437085715,437085484,-0.101684,0.00831917,0.0348743
437106824,437106593,0.176964,-0.0600812,-0.0292771
437127936,437127704,-0.0790337,-0.00754748,0.00433389
437149052,437148813,0.0720531,-0.0472726,-0.0384219
437166426,437166199,0.0321277,-0.0108786,-0.0332937
437187545,437187309,-0.01885,0.0226399,0.0205519
437207410,437207179,-0.000372801,-0.0384695,0.000799272
437226053,437225820,0.0535945,-0.0256756,-0.0136373
437246043,437245817,0.108313,-0.0515109,-0.0109911
437267153,437266927,-0.0482801,-0.0139834,0.019145
437288128,437287892,-0.180067,0.0465684,0.0140457
437305508,437305277,-0.0817549,0.00636584,-0.000996563
437326641,437326410,0.242502,-0.0130306,0.00355425
437348989,437348745,-0.0961348,0.039732,-0.00875168
437368839,437368609,0.116237,-0.121167,-0.0397775
437386234,437385998,0.1643,-0.0658311,0.00648198
437407333,437407100,-0.179842,0.151117,0.0318597
437428449,437428221,0.12924,-0.0862756,-0.0364782
437445841,437445604,0.198316,-0.0491239,-0.0559489
437466961,437466708,-0.0839865,0.0389389,-0.0357717
437488052,437487817,0.155412,-0.142996,-0.04123
437509240,437509010,-0.227311,0.0493156,0.0532275
437526635,437526407,-0.0566522,-0.0385374,0.0514275
437547655,437547423,0.103312,0.0156956,-0.0480415
437568757,437568529,-0.061265,0.0705767,0.0116559
437586145,437585914,0.0404476,-0.00776253,-0.0216207
437607257,437607026,0.0812447,0.0232137,0.00144648
437628363,437628135,-0.111943,-0.00572442,0.0555765
437645749,437645518,-0.0311666,-0.0470299,-0.0107159
437666879,437666651,0.0105615,-0.00601503,-0.0377457
437687969,437687739,0.0161373,0.00735138,0.0163799
437705351,437705123,-0.0184608,0.0268272,0.0314153
437726465,437726234,-0.0133287,0.0157989,-0.0285678
437747577,437747344,0.079425,-0.0253365,0.00916142
437767477,437767253,-0.110212,0.0348746,0.0266466
437788674,437788450,-0.155414,-0.0161644,0.0208359
437806149,437805920,0.0127393,-0.0602449,0.0101893
437827039,437826815,0.106564,0.0424331,0.0281105
437848156,437847928,-0.0693026,0.0249063,-0.0304925
437865541,437865310,0.0670902,-0.0762193,-0.0179964
437886650,437886420,0.0646143,0.0451965,0.047889
437907754,437907531,-0.13469,-0.02942,0.0266094
437928868,437928640,0.0558931,-0.0511236,-0.0510967
437946252,437946025,-0.0508239,0.0331317,-0.00653771
437967359,437967134,-0.0124246,-0.038895,0.0144096
437989722,437989489,-0.0407134,0.0643747,0.0334038
438005856,438005629,-0.145675,0.0744344,0.0353687
438027000,438026773,0.0500248,-0.0298413,-0.0259839
438048108,438047876,-0.00152948,0.0250268,0.0104639
438069315,438069087,0.00338038,-0.05387,0.0216018
438086578,438086345,0.0236757,-0.0104634,-0.0178817
438107685,438107454,-0.0124954,0.0333314,0.0102579
438128801,438128567,0.0145962,0.0137762,-0.0113692
438146171,438145948,-0.0839899,0.041875,-0.011606
438167287,438167058,0.119068,-0.0401873,0.0170309
438188402,438188171,0.0439871,0.00764385,0.00334588
438209563,438209325,-0.104424,0.0133221,0.00516188
438226896,438226662,-0.0375004,-0.053332,-0.0123134
438248048,438247812,0.0222103,0.0860073,-0.0391676
438269115,438268883,0.00699765,-0.0730899,-0.039918
438286547,438286306,0.162858,-0.101994,-0.000745294
438307616,438307383,-0.111646,0.101384,0.0286432
438327556,438327328,0.026642,-0.129977,-0.00275809
438348761,438348532,-0.00866262,0.0143563,-0.0249099
438367221,438366984,-0.0241611,-0.0105075,0.00361564
438387073,438386847,0.0757811,-0.0340877,-0.0518781
438408192,438407962,-0.133509,0.0797074,0.0443663
438425577,438425346,-0.000338663,-0.0193523,-0.00317728
438446689,438446456,-0.0499396,-0.012803,0.00470017
438467791,438467564,0.0125693,-0.0329905,-0.0163635
438485191,438484952,0.000782836,-0.000831794,-0.00330536
438506297,438506061,-0.0249061,0.0419058,0.0245422
438527394,438527169,0.0286158,0.00797526,-0.0256274
438546045,438545818,0.0110954,-0.0203669,0.00253898
438565935,438565705,-0.0340087,-0.00204441,0.0117446
438587028,438586803,0.0758414,-0.0367201,0.0383181
438608236,438608008,-0.0481791,0.025504,0.00136996
438629232,438628995,-0.0136766,-0.0509814,-0.0219631
438646602,438646378,0.0407908,-0.00842826,-0.00276724
438667718,438667488,-0.135358,0.053301,0.0496757
438688829,438688598,0.137742,-0.0875247,0.00901724
438706216,438705983,0.0303117,0.0809646,-0.000626009
438727328,438727093,-0.00730863,-0.0179781,-0.0144755
438748433,438748203,-0.00861013,0.0888253,-0.0216157
438769547,438769313,0.0847714,-0.0675092,-0.00596873
438786925,438786697,0.169683,-0.0495755,-0.00573667
438808081,438807849,-0.068566,-0.0141671,0.0246291
438827906,438827675,0.0669286,-0.0331572,-0.0450783
438846576,438846348,-0.0158905,0.055809,-0.00372864
438866476,438866250,0.0600949,-0.0175406,-0.0232058
438887700,438887455,-0.0663862,0.0360951,0.0264524
438908622,438908394,-0.0183451,-0.00480019,0.00397266
438926000,438925775,0.0675606,-0.0319056,-0.0330573
438947159,438946929,-0.00945583,0.00278019,0.0179518
438968226,438967994,-0.00708457,0.0166119,-0.0172289
438985664,438985441,0.0134648,0.0272985,0.00608117
439006718,439006489,0.0398693,0.018382,0.00730835
439027828,439027599,-0.0329213,-0.0475953,-0.0230925
439048938,439048709,0.0402122,0.0152319,0.0187546
439066327,439066094,-0.0508864,0.0844236,0.0355905
439087432,439087204,0.0265898,-0.0871451,-0.00334458
439108541,439108314,0.00673581,0.0507775,0.00169426
439125970,439125738,-0.0488333,0.0585213,0.0189011
439147166,439146938,0.0357398,-0.0697326,-0.0353317
439168235,439168006,-0.106848,0.0611299,0.0440247
439185530,439185303,0.0341148,-0.0159029,0.0085185
439206688,439206460,-0.0497019,0.0655743,0.00436328
439227754,439227523,0.00257263,-0.0426137,-0.0126788
439246384,439246152,0.00132916,0.0420018,-0.0220198
439266258,439266025,-0.0846549,0.0392061,0.0406605
439287374,439287128,0.0949075,-0.00304144,0.012123
439308467,439308237,-0.040186,0.00563047,0.0240141
439329581,439329347,0.0910314,0.0058386,-0.0290228
439346957,439346732,-0.050435,0.0116266,0.0183189
439368074,439367842,0.0539337,-0.029575,-0.0140582
439387935,439387710,0.0760567,0.0148062,0.014949
439405422,439405183,-0.0421199,0.00160818,-0.0103113
439426616,439426391,-0.0366218,-0.00977402,-0.0198973
439447540,439447314,0.138932,-0.0151459,0.0224684
439468670,439468441,-0.0931759,0.00446237,0.028714
439486044,439485810,0.0111886,-0.0876264,-0.018894
439507159,439506929,0.0383402,0.0684608,-0.0137376
439528261,439528029,-0.0623929,-0.00624095,0.0196715
439545640,439545415,-0.0149057,-0.0960167,-0.0186731
439566748,439566524,-0.0847588,-0.0269281,-0.0233664
439587865,439587634,-0.0319795,-0.0467137,-0.0451488
439608971,439608743,-0.0357972,0.0701144,0.0270227
439626353,439626128,-0.0694101,0.110981,-0.00406503
439647485,439647258,0.105992,-0.0993012,-0.0172283
439668630,439668405,-0.132031,0.04953,0.0232254
439686114,439685888,-0.0581652,-0.03196,0.0544057
439707071,439706843,0.0102904,0.0188349,-0.0191254
439728220,439727984,-0.0410295,0.0380869,0.0121782
439749295,439749063,0.099787,-0.00161016,-0.0261541
439766699,439766471,-0.00927297,0.0088606,0.0202665
439787781,439787557,-0.00893464,-0.0230127,-0.0388773
439808901,439808667,0.00845251,-0.00092955,0.0144138
439826284,439826052,0.0190687,0.0258236,0.0282488
439847390,439847162,0.0932912,-0.0587461,-0.00418482
439868495,439868272,-0.0788762,0.0933205,0.035251
439885895,439885656,-0.0740288,0.0396575,-0.00848552
439906993,439906767,0.100401,-0.0152717,-0.0152773
439926871,439926645,-0.0336583,-0.0405179,0.0034641
439948069,439947844,-0.00810296,-0.0723987,-0.0183477
439965541,439965313,-0.0931757,0.0282786,0.0454174
439986476,439986242,0.0302011,-0.0201931,0.00214041
440006342,440006109,-0.0550198,0.0469826,0.0261552
440028688,440028465,-0.0145261,0.0268907,-0.0632794
440046079,440045847,-0.0385045,0.0218823,0.00214628
440067180,440066956,0.0413317,-0.0217801,0.0145504
440088292,440088064,-0.0300375,-0.0451016,0.0296407
440105682,440105453,-0.0251073,0.00586947,-0.001239
440126782,440126558,0.0422353,0.0020775,-0.0027435
440147894,440147668,0.00173631,0.0617479,-0.00658462
440169013,440168781,-0.0271964,0.00784377,0.027726
440186390,440186163,-0.0395696,0.0497378,0.00628735
440207560,440207335,0.0324877,-0.0879234,0.00761924
440228818,440228587,-0.0564578,0.0599176,0.00637527
440245993,440245767,-0.0372739,-0.00578979,0.0357747
440267103,440266877,-0.000953795,0.0922804,-0.0155263
440288234,440287997,0.0781079,-0.0355679,-0.0225259
440309333,440309100,-0.041561,0.0223876,0.0300492
440326704,440326480,0.0209713,-0.0348938,0.0100771
440347820,440347592,0.00668629,-0.0189201,0.0159519
440368942,440368706,-0.0166219,-0.024384,-0.0400078
440386311,440386086,-0.02322,0.0254636,0.0282951
440408672,440408440,0.0361108,-0.0291834,-0.00556172
440428549,440428309,0.00696402,0.020149,0.00415579
440445926,440445691,-0.0198718,0.0115599,-0.0282852
440468306,440468074,0.0437015,-0.00574419,-0.0220486
440487009,440486778,-0.0153749,-0.006804,0.014613
440508019,440507781,0.0162309,-0.0334494,-0.0010025
440525388,440525163,0.0153195,-0.0603819,-0.000639648
440547765,440547534,-0.00825209,-0.0164747,-0.00309746
440567617,440567386,-0.0519422,0.00748195,0.00903002
440588733,440588509,0.0299887,0.0216788,0.00427379
440606108,440605878,-0.0148647,0.0257499,-0.00458701
440627226,440626990,0.0134321,-0.0294949,-0.0204673
440648327,440648098,0.00558191,-0.00774869,0.0143074
440665710,440665483,0.0235095,0.0029999,0.0101547
440686831,440686594,-0.0145728,0.0148412,0.00292653
440707936,440707703,-0.0653825,0.0349749,0.0248054
440725321,440725090,0.00292207,-0.00609521,-0.00153851
440746548,440746321,-0.0226314,-0.000665246,0.0217427
440767694,440767470,0.0207806,-0.0272231,-0.004544
440788644,440788417,0.00796547,-0.0257711,0.00180956
440806039,440805805,0.00251427,0.00473883,0.0244221
440827165,440826939,-0.0134188,-0.0126562,-0.024994
440848248,440848022,-0.0530763,0.0326635,0.0223626
440869360,440869132,0.0349868,-0.0380623,-0.00941244
440886755,440886519,-0.0561764,0.022292,0.0151964
440907862,440907630,0.00417213,0.0516329,0.0306083
440928966,440928736,0.0352768,0.0089077,-0.0346581
440946392,440946167,-0.0190775,0.0104069,-0.0125658
440967458,440967233,0.0123892,-0.0504351,0.00547952
440988577,440988341,-0.0188663,-0.0121353,0.0120736
441008467,441008237,0.00013312,-0.00857826,0.0271699
441025930,441025701,-0.0215507,0.0103973,0.0234383
441046937,441046704,0.0334865,0.0170783,-0.0385665
441068042,441067814,-0.00430056,0.0289345,-0.00286163
441085426,441085199,0.00135322,-0.0284445,-0.0392288
441106535,441106309,0.0348651,0.0132211,0.0373123
441127647,441127418,-0.0222213,-0.0413037,0.0302048
441148761,441148531,-0.0171267,-0.0125793,-0.0500513
441166139,441165913,0.0066377,0.0456552,0.0243958
441187289,441187062,0.0210314,-0.0230055,-0.0295828
441208361,441208133,0.00936476,0.0271212,0.0217626
441225743,441225517,-0.0065088,-0.0488382,-0.00783673
441246864,441246628,0.0685908,0.00314857,0.00288911
441267968,441267740,-0.0267325,0.0315832,0.031331
441289207,441288977,-0.0194333,-0.0136204,0.00520085
441306644,441306414,-0.0129749,0.0616827,-0.0060998
441327575,441327345,0.0284238,-0.03213,-0.0194126
441348676,441348452,0.0156515,-0.0235426,-0.00786121
441367363,441367130,0.00351648,-0.00142378,0.0135002
441387181,441386949,-0.00887296,-0.0400334,-0.0226872
441408283,441408057,-0.0117163,0.0171116,0.0243561
441425671,441425443,0.0115518,-0.0168026,-0.00361935
441446782,441446553,-0.0872714,0.0405351,0.0356026
441467883,441467658,0.0342114,0.00759203,0.00661512
441486524,441486290,0.0774254,-0.0162722,-0.00636421
441506385,441506156,-0.0154255,0.00778004,0.00779319
441527493,441527267,0.000856991,-0.0425999,-0.0245799
441546168,441545937,-0.00513733,0.030331,0.0555738
441566127,441565894,-0.0149298,-0.0238674,0.0158456
441587098,441586870,-0.00212893,0.000449613,0.021593
441606969,441606741,-0.0181929,0.00792118,0.0273728
441628081,441627849,0.0371716,-0.0301117,0.0102576
441645509,441645282,-0.0248156,0.0328672,0.0130404
441666573,441666346,0.0192678,-0.0373902,-0.0280392
441687687,441687453,0.0440043,-0.0310932,-0.000667744
441708799,441708563,-0.042498,-0.00923132,0.0102143
441726178,441725948,-0.00779594,-0.020973,0.00939698
441747280,441747057,0.000529454,0.0273413,0.0320716
441768395,441768167,0.0336503,0.0167842,-0.0292292
441785782,441785556,-0.0459614,-0.00550966,0.0249524
441806886,441806662,0.0191517,0.00168191,0.018358
441828089,441827859,0.0357045,-0.0377435,-0.0138133
441849302,441849070,0.0153524,-0.0188132,0.0229957
441866545,441866321,-0.012957,0.016741,-0.019066
441887610,441887377,0.048755,0.0045219,-0.0183411
441908718,441908487,-0.00128758,-0.00396407,0.0154921
441926098,441925871,-0.00112354,0.0028812,-0.03937
441947231,441946992,0.0173092,-0.00419791,-0.0269732
441968317,441968092,-0.076413,0.0264236,0.0270163
441989426,441989202,-0.00314281,-0.0583081,0.0102806
442006816,442006586,-0.0487066,0.00891399,-0.000192424
442027922,442027696,0.000488241,0.0746059,0.027821
442049040,442048806,-0.0265155,0.0149884,-0.00672054
442066427,442066196,0.0367304,0.0187367,0.0130697
442087582,442087352,0.00494807,-0.00600248,-0.0272356
442107532,442107304,-0.0456234,-0.0263258,0.0257116
442126080,442125848,0.0160804,-0.0102122,0.0330888
442145892,442145663,0.0227182,-0.0138854,-0.0378678
442167009,442166774,-0.0288391,-0.0210374,0.00338339
442188110,442187883,-0.0390436,0.0170726,0.0168489
442205496,442205268,0.0571711,-0.00521933,-0.0297595
442226608,442226378,-0.0318698,0.0129846,0.0129052
442247713,442247488,-0.0772139,0.0162802,0.0240533
442266349,442266117,0.0668036,0.0026001,-0.02061
442286225,442285985,0.0107083,0.033954,0.00969928
442307317,442307092,-0.135163,0.0769095,0.0561402
442328428,442328202,0.0427323,-0.0384158,0.0210185
442345836,442345597,0.0557522,-0.0799797,0.00103852
442367067,442366832,-0.12071,0.0316842,0.0663021
442388236,442388011,-0.0415386,0.00627908,0.0498142
442409146,442408917,0.0797799,0.00945829,-0.0187925
442426534,442426307,-0.0369254,0.030343,-0.00986648
442447636,442447411,-0.0430188,0.0173915,0.00478757
442468750,442468521,0.0305117,0.0108551,-0.0197754
442486142,442485906,-0.0235538,0.00977128,0.0239323
442507241,442507016,-0.0179976,0.0340004,0.0056685
442528355,442528126,0.0382384,-0.00111191,-0.0342123
442549490,442549265,0.0589972,-0.0498068,-0.00517155
442566846,442566620,-0.0819125,0.00761187,0.0262058
442587961,442587730,0.0333649,-0.0235942,-0.0158325
442609095,442608865,0.0407134,0.017476,-0.0030295
442626493,442626268,-0.0398745,0.0226217,0.0705188
442646458,442646233,0.087529,-0.0409524,0.00519259
442667433,442667203,0.0121794,-0.0158647,-0.0207296
442686067,442685831,-0.0654982,0.0104041,0.0113578
442705927,442705698,0.0150803,-0.0114629,-0.00885921
442727066,442726838,0.0863616,-0.0381757,-0.0812665
442748146,442747918,0.0624505,0.0595358,-0.0106252
442765528,442765304,-0.0475327,-0.00410495,-0.0602006
442786644,442786412,-0.00815227,-0.0133933,-0.00810506
442807754,442807523,0.00330666,-0.0337284,-0.0111374
442828856,442828633,-0.128175,-0.00786495,0.0297765
442846249,442846018,-0.0380124,-0.0224131,-0.0333247
442867360,442867129,0.0377144,-0.0227686,0.0440221
442888492,442888266,0.000482534,0.0412341,0.060513
442905944,442905713,0.0336409,0.0342624,0.0413254
442926973,442926740,0.00117648,0.0207954,-0.0416815
442948067,442947841,0.0795734,-0.0146764,0.00376417
442965481,442965250,-0.0243264,-0.000497564,0.037046
442986566,442986339,0.0976911,-0.0397503,-0.0202735
443007672,443007447,0.0815644,-0.0334243,-0.0448129
443025069,443024832,-0.0140332,0.0236918,0.0286879
443046173,443045943,0.0611579,0.0125867,0.000298319
443067285,443067058,-0.0375255,-0.028506,-0.0679621
443088389,443088162,-0.0290262,-0.0695887,-0.103787
443105794,443105552,-0.12248,0.0274405,-0.0493624
443126884,443126655,0.00803751,0.0545889,-0.0349993
443148050,443147814,-0.0891862,0.0344961,-0.000318532
443167929,443167698,0.0362946,-0.0284332,-0.0569881
443185401,443185172,0.0307675,0.0184593,-0.0434172
443207597,443207370,0.0327215,-0.00225584,-0.0649105
443227463,443227238,-0.0624341,0.0410148,-0.0454518
443246096,443245864,0.0412077,0.00194725,-0.0576301
443265962,443265734,0.00512972,0.0240425,-0.0143358
443287071,443286843,-0.0464917,-0.0138677,0.0041031
443308183,443307952,-0.025979,0.00292652,0.0205504
443325617,443325393,0.0208388,-0.0438808,-0.012936
443346672,443346447,0.0357414,-0.0328152,0.0426536
443367787,443367557,-0.0662224,0.0206025,0.0959108
443388892,443388667,-0.0505841,-0.00354558,0.0919971
443406278,443406052,0.085882,-0.0125809,0.0312876
443427486,443427251,0.0322694,-0.00867259,0.0264148
443448614,443448388,-0.0240769,0.0151226,0.0870331
443465885,443465659,0.0605828,0.0545416,0.0203965
443488248,443488006,-0.00187516,-0.004732,0.00230137
443508119,443507878,-0.0617961,-0.0863933,-0.0428736
443529216,443528986,-0.0157148,-0.0681378,-0.00670056
443546600,443546372,-0.151452,-0.0215514,0.0512195
443567709,443567481,0.0367853,-0.00208572,0.0636969
443588823,443588590,-0.0423286,0.0419594,0.0463464
443606209,443605975,0.00417407,0.0184576,0.0844231
443627317,443627088,0.0094409,0.0236363,0.0943899
443648425,443648197,-0.0163809,0.000550136,0.0988598
443667061,443666824,0.0677277,0.0467121,0.0572558
443686944,443686709,0.208698,-0.0196255,0.0682227
443708102,443707872,0.108354,-0.0411036,0.0708827
443725569,443725339,0.0550311,0.0445205,0.0696031
443746538,443746297,-0.0761894,0.0223307,0.0119219
443766394,443766164,-0.0984629,-0.0436452,0.00942211
443785030,443784789,-0.0833943,-0.0512937,0.051855
443808608,443808383,0.128672,-0.0104214,0.0531157
443825999,443825769,0.102403,0.0385009,0.0349153
443847105,443846877,-0.0100245,0.112204,0.0253079
443868226,443867993,-0.0922694,0.0676186,0.0134617
443885608,443885372,0.0364823,0.0229524,0.0526714
443906708,443906482,0.0504867,-0.0737221,0.0520364
443927814,443927592,-0.0205148,-0.103905,0.0160844
443948940,443948703,-0.0449786,-0.00860461,-0.0165505
443966390,443966165,-0.0337109,0.0364612,0.0924802
443987537,443987313,0.0199083,0.0144998,0.0736977
444008535,444008306,-0.0599997,-0.0411909,0.0697566
444025918,444025692,-0.101424,-0.0526577,0.0429705
444047027,444046800,-0.0586421,-0.015576,0.0733134
444068140,444067911,-0.0261049,0.0545213,0.0889481
444089252,444089024,0.0195371,0.0747993,0.0328568
444106630,444106406,0.0348792,0.0434395,0.0118787
444127743,444127515,-0.0689007,0.0439188,0.0673172
444148850,444148625,-0.0971059,0.0138675,0.0609889
444166246,444166012,-0.0892289,-0.0183922,0.0162735
444187350,444187120,-0.121737,-0.0275971,0.0569312
444208480,444208256,-0.0845866,0.0668886,0.0765866
444228320,444228094,0.195182,0.100183,0.0612938
444247042,444246805,0.182006,0.132637,0.0477482
444266997,444266768,-0.0590779,0.121414,0.0765435
444287940,444287702,0.0397704,0.0709984,0.0710629
444306568,444306329,0.0849066,-0.00584279,0.0773759
444326427,444326199,0.108508,-0.217058,0.111414
444347586,444347360,-0.00568371,-0.28602,0.0572511
444368643,444368417,-0.0550827,-0.26696,0.0205904
444386097,444385868,-0.198354,-0.158183,0.04626
444407137,444406913,0.124203,0.0853278,0.0767947
444428249,444428022,0.191973,0.128769,0.0809413
444445641,444445407,0.0685516,0.0859369,0.0957481
444466744,444466517,-0.0194631,-0.0613274,0.103951
444487924,444487694,-0.035927,-0.0534457,0.011193
444509006,444508777,0.0156455,-0.0120162,-0.0848804
444526480,444526253,-0.176233,0.00792918,-0.0341819
444547456,444547231,-0.148397,0.124177,-0.0284338
444568589,444568362,0.0382987,0.174853,0.00248798
444585961,444585726,0.172643,0.104761,0.0560439
444607066,444606842,0.0833885,0.0437418,0.00488387
444628177,444627945,0.00706638,-0.0443758,-0.0783585
444649288,444649056,-0.161697,-0.0886188,-0.172026
444666665,444666440,-0.261977,-0.197692,-0.068829
444687778,444687553,-0.191806,-0.121131,-0.0653272
444708888,444708660,-0.044956,-0.131528,-0.0431988
444726269,444726045,0.121221,-0.0235325,-0.0721894
444747386,444747156,0.23026,-0.107128,-0.104233
444768551,444768315,0.122187,-0.167088,-0.0988305
444788450,444788222,0.0176682,-0.129328,-0.0931564
444805922,444805694,-0.0190604,-0.0513611,-0.0585006
444828104,444827869,0.0122589,-0.0479458,-0.0667439
444847979,444847751,0.0358392,0.0378678,-0.10138
444866599,444866364,0.0857228,0.0194437,-0.111745
444886460,444886232,0.0622633,0.0141652,-0.138695
444907576,444907342,-0.0155655,-0.0217063,-0.123004
444928735,444928510,-0.115686,-0.136045,-0.135825
444946066,444945840,-0.0765433,-0.112584,-0.1222
444967177,444966947,-0.043639,-0.148405,-0.137937
444988284,444988057,-0.0985191,-0.216165,-0.12855
445005665,445005441,-0.111733,-0.325197,-0.104933
445026782,445026551,0.00105383,-0.453919,-0.0824665
445047947,445047713,-0.0218648,-0.510991,-0.108317
445069149,445068923,-0.104566,-0.501963,-0.0826499
445086386,445086157,-0.079643,-0.39847,-0.102906
445107502,445107270,-0.124163,-0.316143,-0.11022
445128605,445128376,-0.104879,-0.279797,-0.1118
445145993,445145760,-0.128798,-0.191558,-0.088612
445167098,445166870,-0.0771979,-0.202252,-0.104037
445188209,445187980,0.0059974,-0.255749,-0.0727117
445205594,445205365,-0.0393488,-0.253122,-0.0464443
445226710,445226478,0.00104866,-0.252494,-0.0241137
445247820,445247585,0.0182251,-0.211533,-0.0378972
445265201,445264970,0.105336,-0.210559,-0.0310554
445286321,445286082,0.076361,-0.190872,-0.0386054
445307425,445307201,0.00528315,-0.137362,-0.0372359
445326148,445325915,0.00574952,-0.164918,-0.0555081
445346110,445345878,0.0268668,-0.10197,-0.0661547
445367026,445366794,0.0247774,-0.00273607,-0.0585936
445386889,445386662,0.00880425,0.0669822,-0.0793647
445408001,445407772,-0.031284,0.168748,-0.0701156
445425389,445425158,0.0587911,0.140705,-0.0566284
445446495,445446267,0.052871,0.123437,-0.0658643
445467601,445467377,0.129373,0.138677,-0.0515857
445488717,445488487,0.113672,0.18678,-0.0648189
445506100,445505872,0.0374288,0.219185,-0.00765083
445527210,445526981,0.091217,0.110889,0.0113706
445549562,445549334,0.0440311,0.0734199,-0.0204068
445565711,445565486,0.0251412,0.0421199,-0.000756923
445586911,445586684,-0.0874947,0.0496279,0.0210966
445608076,445607847,-0.0937845,0.0870231,0.011574
445629038,445628807,-0.0947618,0.209679,0.0327273
445646431,445646197,-0.0159792,0.234697,-0.0196561
445667532,445667300,-0.025756,0.200122,-0.0149271
445688644,445688412,-0.136271,0.253744,0.0277462
445706028,445705803,-0.11024,0.203418,0.00733214
445727134,445726906,0.0144631,0.235447,0.0246023
445748298,445748069,0.15768,0.319429,0.00527977
445769354,445769126,0.11093,0.323476,-0.0205253
445786737,445786510,0.0639894,0.366519,0.0500273
445807851,445807620,0.00648851,0.343743,0.0486664
445828959,445828730,-0.00469144,0.314285,0.0401966
445846372,445846140,-0.0790373,0.322214,0.0341003
445867637,445867394,-0.147468,0.265473,0.041408
445888563,445888334,-0.15226,0.252967,0.0322229
445905978,445905748,-0.0824032,0.185317,0.020453
445927071,445926830,-0.0862127,0.148088,0.0150852
445946927,445946698,-0.0542088,0.136657,0.0201024
445965572,445965324,-0.0567767,0.165575,0.0501652
445985429,445985196,0.0212887,0.116309,-0.00623186
446006533,446006303,-0.00499856,0.0915364,-0.0185087
446027634,446027412,-0.042796,0.0210213,0.0121037
446045031,446044796,0.00458702,0.0130339,0.011386
446066140,446065908,0.101991,0.0378305,0.0223822
446087246,446087016,0.196581,-0.0527383,0.00249367
446108434,446108211,0.192701,-0.123119,0.00585333
446125816,446125576,0.11621,-0.0562127,0.0411551
446147005,446146778,-0.00708177,-0.0441405,0.0257675
446167958,446167731,-0.0938924,0.087943,0.0102172
446189073,446188841,-0.18723,0.165272,-0.0078028
446206449,446206225,-0.199026,0.126261,0.0378099
446227561,446227336,-0.211747,0.122722,0.0406116
446249926,446249690,-0.140021,0.0452786,0.0586934
446266059,446265832,-0.0567706,0.000503909,0.000168663
446287163,446286940,-0.0115353,-0.0250859,0.0203762
446308279,446308050,0.0473843,-0.0736763,0.0262008
446329390,446329161,0.0940595,-0.0267486,0.0300575
446346774,446346544,0.072322,0.0624599,0.0908478
446367888,446367658,0.0574406,0.142661,0.0713386
446389093,446388862,0.0678191,0.162427,0.0465988
446406487,446406263,0.14494,0.106746,0.00950255
446427492,446427259,0.174122,0.0791999,0.0350863
446448600,446448369,0.0841368,0.0345948,0.0352502
446465983,446465754,-0.00463344,0.00805988,0.0979304
446487096,446486864,0.0351758,-0.0480376,0.10602
446506962,446506731,0.137091,-0.154972,0.0673816
446528089,446527843,0.178013,-0.203,0.068801
446545451,446545227,0.129584,-0.190314,0.0707965
446566564,446566337,0.0659441,-0.164774,0.0559928
446587683,446587452,-0.00371279,-0.136206,0.04869
446608781,446608556,-0.0391249,-0.0721752,0.0452661
446626176,446625947,-0.13026,0.0185154,0.0880275
446647280,446647046,-0.206103,0.0627003,0.0768791
446668465,446668239,-0.161527,0.0747765,0.0947588
446685944,446685708,0.00822028,0.0124612,0.0291691
446706944,446706708,0.160529,-0.089082,0.0078968
446727991,446727766,0.287959,-0.169866,0.0266903
446746624,446746394,0.205745,-0.22175,0.0783306
446766501,446766265,0.161751,-0.280232,0.120432
446787603,446787370,0.0790495,-0.323126,0.115227
446808707,446808483,0.0167056,-0.297226,0.0988211
446826107,446825867,0.0107347,-0.292027,0.0613828
446847245,446847020,0.104397,-0.257855,0.0456296
446868311,446868085,0.234228,-0.174536,0.0211218
446889431,446889200,0.276863,-0.0859141,0.0521702
446906805,446906579,0.208812,-0.0449175,0.091965
446927946,446927723,0.235272,-0.00215254,0.0909137
446947908,446947683,0.128741,0.0187258,0.0666361
446966415,446966188,0.172249,-0.00484771,0.0410226
446987525,446987294,0.150671,-0.0241823,0.0485419
447007392,447007162,0.178928,-0.016618,0.0614194
447026036,447025800,0.157837,-0.0153483,0.0734803
447045884,447045656,0.175287,-0.0322214,0.0512989
447066996,447066770,0.127113,-0.0815437,0.0405936
447088107,447087878,0.056851,-0.108437,0.0298431
447105492,447105261,0.0274254,-0.105805,0.0219875
447126595,447126371,-0.0636551,-0.0985033,0.0304576
447147709,447147481,-0.0974945,-0.0802997,0.0579053
447168816,447168591,-0.14201,-0.0215122,0.0524554
447186207,447185978,-0.0896294,-0.00386567,-0.00176755
447207399,447207170,-0.108209,0.0102593,-5.08135e-05
447228619,447228389,-0.0594678,0.064528,-0.00786889
447245816,447245580,-0.17936,0.0993128,0.0467465
447266921,447266690,-0.130342,0.113583,0.0549602
447288037,447287801,-0.0433812,0.0766138,0.0358273
447309135,447308910,0.0419808,0.0835959,0.0124358
447326529,447326295,0.169063,-0.0105337,-0.00332208
447347633,447347405,0.277623,-0.0235574,0.0071026
447368740,447368514,0.437925,-0.0484528,0.00564451
447386132,447385901,0.634481,-0.118486,-0.0530812
447407249,447407013,0.596275,-0.108722,-0.002345
447428350,447428119,0.568925,-0.163997,0.00816308
447445732,447445505,0.491815,-0.0728044,0.0122877
447466892,447466662,0.349212,-0.116214,0.00502347
447488085,447487858,0.0573364,-0.100592,0.011382
447505337,447505108,-0.183168,-0.11142,0.00415441
447526453,447526223,-0.444164,-0.000478012,0.00978806
447547570,447547329,-0.48873,0.0421943,-0.0016773
447567425,447567197,-0.377839,0.0219979,-0.0152923
447586074,447585825,-0.397893,0.0821122,-0.00130116
447605927,447605694,-0.448509,0.113699,0.0336867
447627031,447626803,-0.469643,0.0500123,0.0336362
447648142,447647912,-0.419207,-0.0629742,0.000284382
447665528,447665297,-0.392526,-0.184702,-0.00262121
447686634,447686405,-0.387086,-0.26782,0.00606518
447707740,447707516,-0.303724,-0.349535,0.00144998
447728916,447728687,-0.184038,-0.362098,0.00821679
447746328,447746100,-0.106248,-0.356084,-0.0587122
447767555,447767331,-0.0787358,-0.236078,-0.0645047
447788459,447788230,-0.102463,-0.176118,-0.0490644
447805843,447805615,-0.123805,-0.0816855,-0.0423537
447826952,447826725,-0.109126,-0.0388069,-0.0268145
447848066,447847835,-0.143642,-0.00568908,-0.0238645
447869176,447868946,-0.162367,0.0121998,-0.0231985
447886558,447886330,-0.0899309,-0.0261978,-0.0750808
447907667,447907440,0.013377,0.032099,-0.0903561
447928776,447928550,0.0940293,0.137485,-0.0715153
447946159,447945934,0.022581,0.413671,-0.0127978
447967273,447967044,0.0599623,0.613348,-0.0299276
447988402,447988171,0.0588718,0.796348,-0.0424641
448009553,448009322,-0.0634498,0.820594,-0.0246985
448027021,448026786,-0.0539045,0.807376,-0.0139923
448047991,448047760,-0.0871102,0.663651,-0.0346941
448069107,448068871,0.0237976,0.402606,-0.023446
448086486,448086253,0.0484137,0.284672,0.0253904
448107591,448107360,-0.0543307,0.126747,0.0245593
448127470,448127236,-0.079602,0.0608076,0.00638257
448147337,448147105,0.0236194,-0.0188105,-0.0612851
448165956,448165726,0.0224088,0.00341752,-0.0159891
448187073,448186838,-0.0762933,0.0435434,0.00901098
448208172,448207946,-0.0669007,0.0894332,0.0223353
448225607,448225378,-0.066336,0.0826738,0.0284675
448246687,448246455,0.0112192,0.125646,0.0292294
448267796,448267570,-0.00658577,0.11016,0.0119073
448285295,448285063,-0.0316027,0.0739559,-0.0106655
448306474,448306245,-0.0110491,0.0471395,0.0192334
448327383,448327156,0.000268761,0.0433802,0.0465916
448348492,448348265,0.0568332,0.0389156,0.035197
448365901,448365674,0.153652,-0.049609,-0.00180984
448386986,448386760,0.0863071,-0.058167,0.0390413
448408124,448407901,0.0181959,-0.00979134,0.0704041
448429214,448428980,0.0128958,-0.0474685,0.0745787
448446613,448446386,-0.0169404,-0.0519227,0.0365848
448467697,448467474,-0.0696323,0.00221484,0.0335669
448488814,448488584,-0.0384746,0.0644697,0.0187321
448506201,448505969,0.0408982,0.143036,0.0596088
448527305,448527080,0.286622,0.14621,0.0488051
448549732,448549500,0.610915,0.172343,0.007921
448568447,448568216,0.703639,0.108613,-0.0372943
448586908,448586683,0.693267,-0.0017383,0.00429676
448608034,448607793,0.588561,-0.0826956,0.0384286
448627894,448627662,0.499103,-0.159034,0.0367165
448646520,448646288,0.469413,-0.314233,-0.0146057
448667630,448667398,0.30603,-0.309031,0.00852645
448687494,448687266,0.0580762,-0.294316,0.0303203
448708612,448708377,-0.139802,-0.178828,-0.00102877
448725987,448725761,-0.31615,-0.125553,0.0160637
448748344,448748113,-0.345343,-0.115508,0.0204682
448768237,448768004,-0.142432,-0.095887,-0.0077492
448785591,448785365,-0.0857356,-0.0823608,-0.0102431
448808028,448807798,-0.0237339,-0.0976452,0.0132096
448828011,448827774,0.224497,-0.131229,-0.0497002
448848919,448848695,0.385051,-0.210367,-0.0233169
448866310,448866080,0.36206,-0.158353,-0.0055612
448887431,448887197,0.320995,-0.187911,-0.041939
448908531,448908300,0.268234,-0.205112,-0.0334699
448927169,448926930,0.0720609,-0.182897,-0.0211776
448947026,448946796,-0.145285,-0.131419,-0.00586901
448968133,448967906,-0.506749,-0.0196261,0.00800783
448985517,448985289,-0.736349,0.0929669,-0.0237146
449006633,449006403,-0.814548,0.136819,-0.0228545
449027742,449027509,-0.782081,0.177356,-0.0194641
449045126,449044894,-0.872597,0.30047,0.0482976
449066323,449066094,-0.740624,0.301201,0.0259463
449087412,449087182,-0.546975,0.172809,0.0111684
449107383,449107146,-0.349324,0.0712117,0.00326277
449129576,449129334,-0.192708,-0.115131,0.0201099
449146948,449146719,-0.0649115,-0.359947,-0.0298254
449168062,449167829,0.131355,-0.503353,0.0112529
449187925,449187697,0.211697,-0.581501,0.0284975
449206561,449206323,0.270621,-0.666799,-0.0287504
449226427,449226198,0.188689,-0.575649,0.0282361
449247527,449247301,0.0673982,-0.454341,0.0350308
449268640,449268411,0.0108771,-0.273212,0.0318304
449286036,449285804,0.0471611,-0.213993,-0.0438996
449307130,449306906,0.0546574,-0.145214,-0.0282262
449328246,449328016,0.0285009,-0.0521232,-0.000766298
449345702,449345478,-0.0870824,-0.0170269,0.0243849
449366852,449366625,-0.113683,-0.0624012,-0.00819758
449387848,449387620,-0.112122,-0.0836385,-0.0188004
449408961,449408731,-0.0791312,-0.0562507,-0.00286668
449426354,449426128,-0.0652519,0.0398507,0.0255164
449447453,449447225,0.0704041,0.26349,-0.0256758
449468573,449468339,0.120924,0.543159,-0.0456493
449485950,449485719,0.150981,0.71247,-0.0287771
449507062,449506829,0.0831728,0.827992,-0.0314811
449528177,449527949,0.0532092,0.83109,-0.0075617
449549280,449549050,-0.00845624,0.729004,0.0150835
449566664,449566434,-0.00845447,0.586001,0.00281875
449587773,449587544,-0.115014,0.405141,0.032046
449608925,449608700,-0.117112,0.174932,0.0633589
449626341,449626110,0.0106635,0.0898745,0.0338889
449647572,449647325,-0.0337728,-0.00483651,0.0615958
449668483,449668259,-0.14724,-0.0883613,0.0804946
449685877,449685643,-0.0422729,-0.228546,-0.0275703
449706991,449706760,-0.0646557,-0.351699,0.0490636
449728109,449727863,-0.197825,-0.42596,0.0878503
449746723,449746491,-0.152436,-0.486509,0.0608783
449766590,449766358,-0.0321733,-0.523159,0.0668281
449786489,449786260,-0.0307447,-0.460651,0.073713
449807561,449807336,-0.00177502,-0.390322,0.0318371
449828670,449828446,0.073328,-0.327248,0.019224
449846069,449845833,0.00931318,-0.255225,0.0563515
449867168,449866942,-0.108309,-0.138641,0.0702867
449888368,449888143,-0.187869,-0.0526801,0.0981005
449905803,449905565,-0.275323,0.00862868,0.0381631
449926774,449926547,-0.294927,0.0988176,0.0592034
449947884,449947657,-0.334353,0.0892298,0.0336715
449969020,449968789,-0.41897,0.0559218,0.051109
449986379,449986151,-0.398492,0.0706898,0.00126724
450007482,450007260,-0.247045,0.068339,-0.0177132
450028603,450028371,-0.197216,0.00947221,0.00922517
450045982,450045756,-0.215886,-0.0312381,0.0518518
450067087,450066864,-0.260357,-0.0262231,-0.00334284
450088206,450087974,-0.294793,-0.0274452,0.00948109
450109313,450109086,-0.354106,-0.0200384,0.0242953
450126700,450126471,-0.400339,-0.00787933,-0.000561912
450147846,450147615,-0.40392,-0.0414451,-0.0239464
450169020,450168785,-0.336185,-0.0161741,-0.00545434
