timestamp,timestamp_sample,accel_device_id,gyro_device_id,delta_angle[0],delta_angle[1],delta_angle[2],delta_velocity[0],delta_velocity[1],delta_velocity[2],delta_angle_dt,delta_velocity_dt,delta_velocity_clipping
427264469,427264120,3932170,3932170,7.52882e-05,-1.16491e-05,5.79517e-05,-0.000387782,-0.000582494,-0.0484392,4986,4986,0
427269461,427269108,3932170,3932170,3.33765e-05,8.13226e-05,3.55278e-05,-0.000375862,-0.00193592,-0.048793,4988,4988,0
427768367,427768116,3932170,3932170,0.000789803,-2.20936e-05,0.000236632,0.00188295,-0.00123484,-0.0480653,4990,4990,0
428267426,428267126,3932170,3932170,-8.15505e-05,-0.000177951,-0.000100985,-0.00355391,0.000483955,-0.048785,4992,4992,0
428766379,428766132,3932170,3932170,-0.000128776,0.000364361,0.000277584,-0.000466029,-0.00339781,-0.0466599,4985,4985,0
429265546,429265147,3932170,3932170,0.0004837,6.80797e-05,-1.51517e-05,0.00555874,-0.00561046,-0.0487611,4953,4953,0
429764716,429764336,3932170,3932170,0.000351133,2.13037e-05,-0.000480627,0.00149014,-0.00328949,-0.0483265,4969,4969,0
430268409,430268149,3932170,3932170,-6.83602e-05,-0.0002528,-0.000350095,-0.000995356,-0.00586581,-0.0479965,4993,4993,0
430767431,430767154,3932170,3932170,1.73397e-05,0.000715884,3.46091e-05,-0.000778701,-0.0093966,-0.0465037,4986,4986,0
431266408,431266162,3932170,3932170,0.000511038,-0.000213107,3.87323e-06,0.00586704,-0.00442986,-0.0492656,4991,4991,0
431765654,431765174,3932170,3932170,0.000785963,-0.000127118,-0.000614523,0.00388503,-0.00278279,-0.0478374,4994,4994,0
432264427,432264178,3932170,3932170,-0.00468601,0.00139863,0.000181403,-0.00131605,-0.00345588,-0.0488783,4980,4980,0
432763651,432763194,3932170,3932170,-0.00039575,0.0013078,0.000498339,-0.0146015,0.00566683,-0.0507361,4968,4968,0
433267714,433267338,3932170,3932170,-0.00224462,0.000831427,0.000563353,-0.00895371,-0.0104555,-0.0475873,4971,4971,0
433766451,433766197,3932170,3932170,-0.00187691,0.000436545,-0.000236586,0.00493587,0.00881272,-0.051419,4992,4992,0
434265505,434265200,3932170,3932170,0.00292257,-0.000429148,-8.05371e-05,-0.0097228,-0.0164784,-0.0431208,4990,4990,0
434764453,434764208,3932170,3932170,-0.00192058,0.000590885,4.71589e-05,0.00601045,0.00862845,-0.0508376,4990,4990,0
435268455,435268207,3932170,3932170,0.00138735,-0.000448549,-0.000311983,0.0105802,0.0066713,-0.0483595,4989,4989,0
435762472,435762225,3932170,3932170,0.00104704,-0.000381087,0.000264294,-0.00619442,0.00913837,-0.0477283,4989,4989,0
436266568,436266270,3932170,3932170,-0.00153149,-0.00125732,-0.000418704,0.0157276,0.0081823,-0.0451171,5033,5033,0
436765631,436765382,3932170,3932170,0.00163739,-0.0022723,-0.000948492,0.0173714,0.00438801,-0.0461449,4936,4936,0
437264513,437264241,3932170,3932170,-0.00133335,0.000440836,0.000298022,-0.013723,-0.0067825,-0.0502258,4992,4992,0
437768560,437768246,3932170,3932170,-0.00196523,0.000331997,-0.000552074,-9.01362e-05,0.00772741,-0.0516282,4996,4996,0
438267562,438267249,3932170,3932170,0.00147535,-0.00222483,-0.000506702,0.0229712,0.00341883,-0.0480346,4991,4991,0
438766503,438766254,3932170,3932170,0.00170299,-0.00144366,-7.43801e-05,0.0177705,0.00450617,-0.0413311,4991,4991,0
439265966,439265263,3932170,3932170,0.00151058,-0.00094264,0.000246093,0.0173785,0.0102049,-0.0452998,4990,4990,0
439764610,439764270,3932170,3932170,-0.000821276,0.00044262,0.000551863,-0.00453537,0.000894032,-0.0529959,4991,4991,0
440263826,440263536,3932170,3932170,0.000563947,0.0013765,-2.12519e-05,-0.0118884,0.00222064,-0.0568118,5015,5015,0
440767532,440767276,3932170,3932170,-0.000112929,-0.000162254,8.66987e-05,0.00683586,-0.00627635,-0.0527019,4990,4990,0
441266552,441266284,3932170,3932170,-0.000584827,0.000698662,0.000845396,-0.000839402,0.0152214,-0.0504526,4990,4990,0
441765545,441765292,3932170,3932170,0.000821672,-0.000275833,-0.000490426,0.00119311,-0.00304416,-0.0520516,4990,4990,0
442264548,442264301,3932170,3932170,0.000756707,-0.000189112,-0.000512091,-0.0057349,-0.00921579,-0.0490146,4991,4991,0
442763556,442763309,3932170,3932170,-0.000560255,-0.000220785,-0.000418293,0.00357084,-0.00633876,-0.042503,4985,4985,0
443262659,443262318,3932170,3932170,-0.000109728,0.000122142,9.40741e-05,-0.000435242,0.00342934,-0.0562483,4985,4985,0
443766821,443766493,3932170,3932170,-0.000383866,-0.000118438,0.000226414,0.000320261,-0.00773575,-0.0449339,4973,4973,0
444265583,444265324,3932170,3932170,-0.000532896,0.000982717,0.00136483,0.00246308,0.03263,-0.053444,4991,4991,0
444764600,444764334,3932170,3932170,-0.000159224,-0.000546383,-0.000370963,-0.00335737,0.00335451,-0.0512359,4993,4993,0
445268722,445268335,3932170,3932170,0.000202064,-0.00105771,-0.000498289,-0.00232581,0.00259177,-0.0443749,4996,4996,0
445767945,445767340,3932170,3932170,0.000850546,0.00138883,-0.000681847,-0.00258779,-0.0114405,-0.0450704,4990,4990,0
446266618,446266369,3932170,3932170,0.000548163,-0.000134267,-0.00026369,-0.00371845,-0.020827,-0.0476689,5013,5013,0
446766149,446765357,3932170,3932170,0.000345949,-0.00136633,0.00108268,-0.0011549,0.00082878,-0.0502447,4978,4978,0
447264818,447264574,3932170,3932170,-0.0023102,0.00164307,0.00130044,-0.00378943,0.0061166,-0.0548975,5011,5011,0
447763633,447763371,3932170,3932170,0.00033714,-0.00150652,-0.00120021,-0.00523862,-0.013959,-0.0458616,4990,4990,0
448267634,448267371,3932170,3932170,-0.000544334,0.000438479,0.000598292,-0.00434888,-0.00805721,-0.053315,4992,4992,0
448766625,448766378,3932170,3932170,-0.000545592,-0.000769341,-0.000317666,-0.00561121,-0.00812841,-0.0453597,4990,4990,0
449265674,449265386,3932170,3932170,-0.00117206,-0.000675839,0.000602218,-0.00552213,0.00448824,-0.0519978,4989,4989,0
449764682,449764395,3932170,3932170,-0.000151189,-0.00230123,-0.000112784,0.00611259,0.0132501,-0.0511787,4990,4990,0
450263661,450263405,3932170,3932170,-8.54065e-06,-0.000148506,-0.000517314,-0.00154856,-0.0176445,-0.0418856,4990,4990,0
450762878,450762528,3932170,3932170,-7.533e-05,0.00333403,8.70485e-05,-0.0126337,0.00203172,-0.0526603,4959,4959,0
451267031,451266699,3932170,3932170,0.000360195,-0.000716461,-9.99567e-05,0.00274317,-0.0120913,-0.0422129,5279,5279,0
451765677,451765418,3932170,3932170,0.000942889,-0.000580936,0.0011292,0.00501509,-0.000695769,-0.050839,4946,4946,0
452264876,452264433,3932170,3932170,0.00425695,-0.00126529,-0.00101194,0.00150988,0.0078534,-0.0552302,4989,4989,0
452768720,452768426,3932170,3932170,0.00122862,0.000758167,-8.91585e-05,-0.00301504,0.0251788,-0.058758,4990,4990,0
453262695,453262446,3932170,3932170,0.000519251,-0.000264221,-0.000570736,0.00286845,-0.0129513,-0.0441616,4984,4984,0
453766686,453766443,3932170,3932170,-0.00039161,-0.000470855,0.00126572,0.00377694,0.0144889,-0.0636737,4990,4990,0
454265811,454265537,3932170,3932170,0.00183548,0.00089264,-0.00110628,-0.00202387,0.00235378,-0.0515428,4960,4960,0
454765096,454764733,3932170,3932170,-0.000519621,0.000268967,0.000867951,-0.000680842,0.021309,-0.0562898,5263,5263,0
455268765,455268466,3932170,3932170,0.00217793,-0.00062449,-0.000807783,-0.00352515,0.00413897,-0.0503915,4988,4988,0
455767710,455767467,3932170,3932170,-0.00254412,0.00270105,0.00112103,-0.00533953,0.00508847,-0.0509496,4990,4990,0
456266731,456266478,3932170,3932170,-0.00192381,0.000329242,-0.00011304,-0.00739373,-0.0154327,-0.0429581,4992,4992,0
456765753,456765485,3932170,3932170,-0.0017281,0.00078162,-1.10237e-05,-0.00682135,0.00207842,-0.0541689,4991,4991,0
457264790,457264498,3932170,3932170,0.00199567,-0.000666789,-0.00206176,5.09825e-05,-0.0168869,-0.0404664,4993,4993,0
457763969,457763632,3932170,3932170,-0.00150006,0.000606694,0.000785455,0.000599113,0.0172306,-0.047357,4950,4950,0
458268093,458267744,3932170,3932170,0.00159939,-0.000596923,-0.00105054,0.00533772,-0.0266871,-0.0445996,4969,4969,0
458767663,458766510,3932170,3932170,-0.00142204,2.05164e-06,-0.000161049,-0.00960832,-0.0265363,-0.0516524,4974,4974,0
459265899,459265524,3932170,3932170,0.00125663,-0.001064,-0.000140717,0.0015209,-0.000908166,-0.0492451,4997,4997,0
459769979,459769524,3932170,3932170,-0.00197364,0.000903057,-0.000216075,-0.00981653,-0.0177971,-0.051689,4949,4949,0
460263827,460263534,3932170,3932170,-0.000826752,0.000810904,0.00011732,-0.0054997,0.0107918,-0.0582429,4990,4990,0
460763348,460762545,3932170,3932170,0.00112363,-0.00136706,-0.000861547,0.00296097,0.0091466,-0.0465051,4990,4990,0
461266818,461266595,3932170,3932170,0.00188942,-0.00137088,-0.00146107,0.00299119,-0.0226067,-0.0372386,4969,4969,0
461766884,461765783,3932170,3932170,0.00044737,-0.000372652,0.000589502,0.000591453,-0.00800468,-0.0455864,4962,4962,0
462264816,462264559,3932170,3932170,0.00216096,0.000859487,0.000295468,-0.00674367,-0.0119629,-0.0473318,4990,4990,0
462768805,462768558,3932170,3932170,-0.00167901,0.00137215,0.000783244,-0.0043114,0.0112252,-0.054556,4990,4990,0
463262869,463262579,3932170,3932170,-0.0029448,0.000322182,-0.000568163,-0.00668502,-0.0338008,-0.04291,4992,4992,0
463761831,463761586,3932170,3932170,0.00227762,-0.00157555,-0.0010587,0.00443807,-0.00989049,-0.0376186,4989,4989,0
464265880,464265585,3932170,3932170,0.00173703,-0.000891875,-0.000680115,-0.00174358,-0.00953107,-0.0434956,4988,4988,0
464764996,464764703,3932170,3932170,0.00107804,0.000336234,-0.000816929,0.00112826,0.0216303,-0.0477521,4966,4966,0
465264137,465263839,3932170,3932170,0.00129713,-0.00120663,0.000319076,0.00394989,0.0295446,-0.0591402,4964,4964,0
465767904,465767604,3932170,3932170,0.00157612,-0.000913384,-0.00114148,-0.000263574,-0.0292384,-0.0433045,4993,4993,0
466266980,466266610,3932170,3932170,0.00331445,-0.000593575,-2.114e-05,0.000733052,0.00449598,-0.0519491,4988,4988,0
466765930,466765681,3932170,3932170,0.000752215,0.000238607,-0.000793591,-0.00288879,-0.0298837,-0.045081,5041,5041,0
467265145,467264629,3932170,3932170,-0.00121873,0.00214189,0.00121793,0.00298122,0.0314753,-0.0562946,4989,4989,0
467763931,467763637,3932170,3932170,-0.000315394,0.0002889,-0.000721198,-0.0032879,-0.0349887,-0.0414856,4990,4990,0
468268598,468267714,3932170,3932170,-0.00189582,0.000432949,0.000755835,-0.00458662,-0.000786708,-0.0503712,4959,4959,0
468767137,468766842,3932170,3932170,-1.41901e-05,-0.000345045,8.00275e-05,-0.000122936,-0.00858335,-0.0437926,4960,4960,0
469265958,469265653,3932170,3932170,-0.000457504,0.00036448,-0.00041514,-9.7776e-05,-0.0152247,-0.0426598,4990,4990,0
469764992,469764662,3932170,3932170,-0.000366538,0.00018919,-0.000548553,-0.0107102,-0.0215394,-0.0419481,4990,4990,0
470268910,470268661,3932170,3932170,-0.00161985,0.00106846,0.000283959,0.000246288,0.00495657,-0.0468826,4986,4986,0
470763022,470762680,3932170,3932170,-8.4622e-05,-0.000113537,0.000396509,-0.00166228,-0.00679481,-0.0471365,4988,4988,0
471267060,471266683,3932170,3932170,0.00232744,-0.000405172,-0.0010381,-0.00167298,-0.0158525,-0.0417878,4990,4990,0
471766110,471765834,3932170,3932170,0.000342748,-4.64065e-05,-0.000228321,-0.00238998,0.0234436,-0.0491677,4977,4977,0
472265207,472264908,3932170,3932170,-0.00186506,0.000853468,0.000853778,0.0013712,0.0173398,-0.0590333,4976,4976,0
472768967,472768701,3932170,3932170,0.00231039,-0.000515557,-0.00154441,6.79883e-05,-0.0204134,-0.0423906,4992,4992,0
473268062,473267705,3932170,3932170,-0.000140114,0.000256612,0.000423527,-0.00195102,-0.00916889,-0.050529,4984,4984,0
473767097,473766771,3932170,3932170,-0.00154993,0.000685549,-1.16899e-05,-0.00231631,-0.00880964,-0.0531456,5047,5047,0
474265993,474265724,3932170,3932170,-0.00578055,0.000364226,0.000794293,-0.00210778,0.00668047,-0.058481,4991,4991,0
474765354,474764735,3932170,3932170,-3.03903e-05,-0.00179574,-0.000371419,-0.00115563,-0.00609307,-0.0470687,4991,4991,0
475264122,475263806,3932170,3932170,-0.00291118,0.00103292,0.000947355,-0.00935606,-0.00125771,-0.0559918,4958,4958,0
475768666,475767967,3932170,3932170,0.000633491,-0.00067958,0.000559959,-0.00328322,0.00843017,-0.0517067,5017,5017,0
476267005,476266750,3932170,3932170,-0.000209971,0.000975002,6.87176e-05,-0.00363672,-0.00521042,-0.0502573,4986,4986,0
476766007,476765759,3932170,3932170,0.00467723,-0.000513106,-0.00150797,-0.00243168,-0.0193962,-0.0439667,4990,4990,0
477265015,477264769,3932170,3932170,-2.64624e-06,0.000231581,-0.000310022,-0.00134471,-0.003468,-0.0529758,4991,4991,0
477764111,477763777,3932170,3932170,-0.00329029,-0.000370475,0.000851838,-0.00644672,0.0172455,-0.0565935,4988,4988,0
478263054,478262802,3932170,3932170,0.000466158,-0.000164244,-0.000139978,-0.00197264,0.0132356,-0.0453689,4989,4989,0
478767131,478766790,3932170,3932170,-0.0018166,-0.000807987,0.00130683,-0.0039286,0.0262723,-0.0580393,4976,4976,0
479266334,479266040,3932170,3932170,0.0018174,-0.000756185,-2.09971e-05,-0.00591633,-0.0304049,-0.0432588,4975,4975,0
479765066,479764804,3932170,3932170,0.00186659,0.000298046,0.000840828,-0.000860538,0.0303765,-0.0521004,4990,4990,0
480269081,480268802,3932170,3932170,-0.00676605,0.000677275,0.00169246,-0.00403343,0.00268701,-0.0537121,4933,4933,0
480768126,480767813,3932170,3932170,0.000936877,-0.00149295,-0.00105812,0.00182888,-0.00982406,-0.0440923,4990,4990,0
481267356,481266825,3932170,3932170,0.00128173,-0.000708768,0.00027865,-0.00136336,-0.00247885,-0.0472802,4992,4992,0
481766180,481765832,3932170,3932170,0.00269245,0.000239204,-0.000759596,0.00327322,0.0164828,-0.0489992,4990,4990,0
482265723,482264887,3932170,3932170,0.00544969,-0.000627825,-0.00162344,-0.000256627,-0.012166,-0.0454474,4968,4968,0
482764388,482764015,3932170,3932170,0.00143747,0.000754855,0.00093817,0.000604834,0.0287033,-0.0543048,4972,4972,0
483268140,483267850,3932170,3932170,-0.00119282,0.000252526,0.000672192,-0.00158934,0.0265388,-0.0533099,4993,4993,0
483767163,483766859,3932170,3932170,0.000770942,-0.000139882,-0.000231241,-0.00216331,-0.0216832,-0.0471207,4990,4990,0
484266121,484265873,3932170,3932170,-0.00460559,0.00137267,0.0014464,-0.00194261,0.00285394,-0.0483274,4994,4994,0
484765218,484764878,3932170,3932170,-0.00112269,0.000166205,0.00140259,-0.00497631,0.00687028,-0.0518742,4990,4990,0
485264169,485263888,3932170,3932170,-0.00052569,-0.000782709,-0.000490248,-0.00385108,0.00597326,-0.0457207,4990,4990,0
485763245,485762940,3932170,3932170,0.000990284,-1.96048e-05,-0.00142775,0.000411088,-0.025938,-0.0438544,5001,5001,0
486267285,486267036,3932170,3932170,-0.000695405,0.000807308,5.35235e-05,-0.00130912,0.00273173,-0.0503466,4967,4967,0
486766576,486766243,3932170,3932170,3.37327e-07,-0.000109354,0.000350897,-0.00160611,0.00211904,-0.054748,4976,4976,0
487265334,487265063,3932170,3932170,0.00102106,-0.000390556,5.79771e-05,0.00220147,0.01351,-0.045276,4994,4994,0
487769376,487769043,3932170,3932170,-0.0010733,-0.000233251,0.000615495,-0.00141406,0.00355481,-0.0482192,4993,4993,0
488263324,488263076,3932170,3932170,0.000846085,0.000278095,0.0010382,-0.000323829,-0.00021892,-0.0528328,5007,5007,0
488762526,488762073,3932170,3932170,-0.000432506,-0.000200277,-7.43495e-05,-0.00387582,-0.00342249,-0.0460377,4993,4993,0
489266357,489266069,3932170,3932170,-0.00171821,0.000400369,0.000209804,-0.00123268,-0.0071136,-0.0507757,4989,4989,0
489765880,489765139,3932170,3932170,-0.000903939,-0.000366238,-0.000649456,-0.000273132,0.00277143,-0.0493334,4966,4966,0
490264491,490264275,3932170,3932170,-0.000656238,-0.00101221,0.00143587,-0.000550643,-0.00806564,-0.0465523,4972,4972,0
490768346,490768092,3932170,3932170,0.00486257,0.000272781,0.000352933,0.00148573,0.00475261,-0.0480682,4944,4944,0
491267400,491267097,3932170,3932170,-0.00454943,0.000501975,-0.000178248,-0.00246975,0.0023707,-0.0470105,4989,4989,0
491766369,491766121,3932170,3932170,-0.000747709,-7.44777e-05,0.000136716,-0.000795462,-0.00209978,-0.0576403,4987,4987,0
492265369,492265117,3932170,3932170,-0.00133603,0.000431848,-0.000215775,0.000488162,-0.0104665,-0.0476688,4985,4985,0
492764376,492764129,3932170,3932170,0.00127268,-1.91909e-05,0.00073994,-0.00599969,-0.00721989,-0.0493942,4991,4991,0
493268475,493268226,3932170,3932170,0.000446548,-0.000178891,-0.000250404,-0.00252239,-0.00168846,-0.0474418,5025,5025,0
493767526,493767305,3932170,3932170,-0.00129731,0.000803367,0.000475595,0.000192993,0.00946408,-0.054398,4973,4973,0
494266414,494266149,3932170,3932170,0.00387986,-0.00055209,-0.000744371,0.000687087,-0.0122243,-0.043601,4993,4993,0
494765452,494765155,3932170,3932170,-0.00150928,-0.00013516,0.000636582,0.00275917,0.0039673,-0.0479812,4988,4988,0
495264501,495264170,3932170,3932170,0.00123211,-3.87204e-05,-0.000418513,-0.000551042,0.00643849,-0.0464365,4992,4992,0
495763423,495763175,3932170,3932170,0.00288441,-0.000920417,-0.000958525,0.0061111,-0.00378052,-0.0431087,4986,4986,0
496268100,496267183,3932170,3932170,0.00208299,-0.00110059,-0.000273326,-6.28701e-05,0.00580309,-0.0504554,4991,4991,0
496766437,496766190,3932170,3932170,-0.000264194,-0.000281231,-0.000532742,-0.00184469,0.0105112,-0.0469998,4989,4989,0
497266134,497265357,3932170,3932170,-0.000379857,-0.000977187,-0.000942497,-0.0052848,-0.0392336,-0.040005,4966,4966,0
497764459,497764205,3932170,3932170,0.0019792,-0.000472031,-0.000612743,-0.00131756,-0.0252118,-0.0435955,4990,4990,0
498268479,498268204,3932170,3932170,-0.00295356,0.000761918,0.00115697,-0.00284269,0.00935542,-0.0575092,4989,4989,0
498762471,498762224,3932170,3932170,-0.0010095,0.000490523,0.000238289,-0.000236095,-0.0150408,-0.049482,4990,4990,0
499266527,499266225,3932170,3932170,-0.00106096,0.000655839,0.000119652,0.00243968,0.0243906,-0.0512824,4990,4990,0
499765523,499765279,3932170,3932170,-0.000734186,-7.13093e-05,0.000331951,-0.00157981,-0.0171709,-0.0499674,4986,4986,0
500264601,500264334,3932170,3932170,0.00221483,-0.00172866,-0.00103974,0.00336401,-0.0185789,-0.0430091,4969,4969,0
500768642,500768388,3932170,3932170,0.000536949,-0.00182824,-0.000388755,-0.00289055,-0.00674747,-0.0450528,4979,4979,0
501267510,501267255,3932170,3932170,0.00198696,0.0019919,-0.00109207,-0.00111037,-0.018937,-0.0427515,4989,4989,0
501766640,501766298,3932170,3932170,0.00104457,4.91098e-05,0.000210247,0.0016186,0.00972492,-0.0497383,5023,5023,0
502265563,502265274,3932170,3932170,-0.00377951,0.00147982,0.000570113,-0.00396312,-0.0184773,-0.0476602,4989,4989,0
502764744,502764288,3932170,3932170,-3.22162e-05,-0.000326562,0.000866814,-0.00364835,-0.00111966,-0.0494216,4993,4993,0
503263553,503263309,3932170,3932170,0.000115089,-0.000148915,2.50873e-05,-0.0011268,-0.0113758,-0.0499647,4990,4990,0
503768000,503767295,3932170,3932170,0.0011161,-0.000575215,0.000488461,0.000648358,0.00726971,-0.0517008,4968,4968,0
504266690,504266435,3932170,3932170,-0.000287139,0.000289526,-3.67078e-05,-0.00540668,0.00060222,-0.0493624,4965,4965,0
504765577,504765315,3932170,3932170,-0.00106148,0.000833188,0.000677166,-0.00478906,0.0160928,-0.0501155,4990,4990,0
505269632,505269320,3932170,3932170,-0.00094062,0.00185294,0.000745624,-0.000440234,0.0225132,-0.0534658,4995,4995,0
505763581,505763335,3932170,3932170,0.00068125,5.40536e-05,0.000235781,0.00095918,0.000302326,-0.04574,4990,4990,0
506267595,506267338,3932170,3932170,-0.00178307,-0.000742859,-0.00092153,-0.00413252,-0.0370139,-0.0435903,4981,4981,0
506766615,506766346,3932170,3932170,-0.00224951,0.000681298,0.00103249,-0.00428983,0.0112412,-0.0548323,4991,4991,0
507265608,507265359,3932170,3932170,-0.00159638,-0.00123685,0.000898864,0.00163168,0.01222,-0.0569658,4974,4974,0
507764782,507764488,3932170,3932170,0.00195633,-0.000803326,-0.00107513,-0.00570669,-0.029087,-0.0418049,4959,4959,0
508268628,508268370,3932170,3932170,-0.000474027,0.000999849,4.1541e-05,0.000656286,0.0062865,-0.049695,4991,4991,0
508767681,508767377,3932170,3932170,-0.00274976,0.000599006,0.000909127,-0.00688874,-0.00975895,-0.0518633,4990,4990,0
509266635,509266388,3932170,3932170,-0.00055616,5.43236e-05,0.000264859,-0.00284959,0.000427568,-0.0472941,4953,4953,0
509765643,509765397,3932170,3932170,0.00181531,-7.50374e-05,-0.000160262,-0.000876492,0.0137212,-0.0491684,4987,4987,0
510265172,510264489,3932170,3932170,0.00140545,-0.00108127,-0.00160985,-0.00594269,-0.0304676,-0.0411641,5038,5038,0
510763723,510763423,3932170,3932170,0.000930214,-0.000476763,-0.000928718,0.00235464,-0.0220492,-0.0407107,4982,4982,0
511268457,511267560,3932170,3932170,-0.00174193,0.00023221,-0.000200038,-0.00577844,-0.029436,-0.0458265,5013,5013,0
511767033,511766705,3932170,3932170,-0.000294335,0.00176633,-0.000626128,-0.00669363,-0.0222627,-0.0461464,5267,5267,0
512265752,512265452,3932170,3932170,0.00159933,-0.000410359,0.000600376,-0.00209355,0.0125589,-0.0590176,5003,5003,0
512764752,512764449,3932170,3932170,-0.000868853,0.000526674,0.000358285,-0.000244995,0.0102918,-0.0482389,4990,4990,0
513263713,513263464,3932170,3932170,-0.00106564,-0.000614573,0.000256883,0.000162234,0.000838642,-0.0521562,4993,4993,0
513767720,513767460,3932170,3932170,-0.00225362,0.00030229,0.00107886,-0.00296301,0.0208607,-0.0566918,4989,4989,0
514266770,514266472,3932170,3932170,-0.00195768,0.000940897,0.000541439,-0.00484474,-0.00212734,-0.053202,4967,4967,0
514765930,514765628,3932170,3932170,-0.00109034,-0.000156994,0.00131999,0.00270898,0.0144751,-0.0506221,4958,4958,0
515265093,515264767,3932170,3932170,-7.3755e-05,-0.00203415,6.248e-05,0.00046623,0.0242009,-0.0529079,5264,5264,0
515768789,515768492,3932170,3932170,0.00335581,-0.00110445,-0.00145709,0.0027801,-0.00967944,-0.0441849,4988,4988,0
516262806,516262515,3932170,3932170,-0.000149641,-4.28882e-05,-0.000252982,-0.00104768,-0.019017,-0.0483235,4993,4993,0
516766925,516766516,3932170,3932170,-0.000448595,-0.000620232,-0.000117929,-0.00314419,-0.0241602,-0.0497933,4993,4993,0
517265774,517265523,3932170,3932170,0.00216644,0.00149123,-0.000654866,0.0076599,0.00536333,-0.0464919,4988,4988,0
517765232,517764547,3932170,3932170,-0.000388464,-0.0004235,-0.000169559,-0.00390834,0.00368173,-0.0470795,4965,4965,0
518268864,518268612,3932170,3932170,0.00272874,-0.000261937,-0.000315309,-0.00292794,0.00569473,-0.047031,4987,4987,0
518768252,518767785,3932170,3932170,-8.12652e-05,-9.89303e-05,0.000334062,0.000205869,-0.0134729,-0.0480589,4955,4955,0
519266815,519266556,3932170,3932170,0.00133165,-0.000155759,-0.000918306,-0.00246068,-0.0339355,-0.0443703,4991,4991,0
519765817,519765566,3932170,3932170,-0.00256948,5.86361e-05,-0.000286996,-0.00899209,-0.0153622,-0.0497855,4990,4990,0
520264853,520264577,3932170,3932170,0.000989756,0.000213279,-0.000911637,0.00140206,0.00811149,-0.0484517,4990,4990,0
520763920,520763588,3932170,3932170,-0.000738462,0.000333119,0.000564224,-0.00119345,-0.014944,-0.0486464,4984,4984,0
521267893,521267592,3932170,3932170,-0.00246863,0.00143286,0.00116756,-0.00580039,0.0102002,-0.0557933,4993,4993,0
521766954,521766661,3932170,3932170,0.000707333,-0.000285079,-0.00021131,-0.00139418,-0.0140645,-0.0487239,4965,4965,0
522266210,522265860,3932170,3932170,0.000794462,9.85754e-05,0.000163065,-9.73612e-05,0.0243278,-0.0534483,4974,4974,0
522764963,522764660,3932170,3932170,-0.00122513,0.000395624,0.000737465,-0.00126593,0.0284252,-0.0543778,4989,4989,0
523263875,523263631,3932170,3932170,0.0011508,-0.000423082,6.31531e-05,-0.00187361,-0.0182853,-0.0467155,4986,4986,0
523762885,523762643,3932170,3932170,-0.00187165,0.00030843,0.000728781,-0.000798481,-0.016112,-0.04721,4991,4991,0
524266895,524266646,3932170,3932170,0.00061096,-0.000322919,-0.000920723,-0.00646631,-0.0413198,-0.0409275,4992,4992,0
524765993,524765654,3932170,3932170,-0.000534504,0.000565918,-8.35902e-05,-0.00401925,-0.000846184,-0.046822,4982,4982,0
525265752,525264813,3932170,3932170,0.0016531,-0.000357759,-0.0013008,-0.00397013,-0.0150825,-0.0474238,4959,4959,0
525769165,525768917,3932170,3932170,-0.000788805,-0.000168015,0.000595244,-0.000331826,0.00623751,-0.05221,5012,5012,0
526267932,526267676,3932170,3932170,0.000647337,0.000601377,-0.000232317,-0.00232949,-0.0137521,-0.0491547,4989,4989,0
526762071,526761697,3932170,3932170,0.000829801,-9.27074e-05,-0.000723138,-0.00261891,-0.0112224,-0.0475128,4990,4990,0
527265991,527265698,3932170,3932170,-0.00254257,0.000698031,0.000837401,-0.00784574,0.0078451,-0.0572582,4990,4990,0
527764964,527764714,3932170,3932170,0.000557253,0.000700154,0.000154581,-0.00429094,0.00430535,-0.0463137,4995,4995,0
528264022,528263720,3932170,3932170,0.00115576,-0.000255876,-0.000745017,-0.00229716,0.00522587,-0.0521694,4989,4989,0
528768004,528767752,3932170,3932170,-0.0021674,0.000825116,0.00149235,-0.00313311,0.0157125,-0.0548106,4969,4969,0
529267351,529266944,3932170,3932170,-0.000621601,-0.000382712,0.000187437,-0.00409352,-0.00488563,-0.0516649,4966,4966,0
529765999,529765743,3932170,3932170,0.00240067,-0.000872033,-0.000946257,0.00633066,-0.0185236,-0.0415361,4985,4985,0
530265009,530264755,3932170,3932170,-0.00196483,0.00050423,0.000782748,-0.002875,-0.0099723,-0.0503594,4990,4990,0
530764048,530763766,3932170,3932170,0.000448723,-0.000190367,0.000298448,-0.00128357,-0.0081393,-0.0489234,4988,4988,0
531263044,531262798,3932170,3932170,0.00168075,-0.000297109,-0.000652264,0.000208057,-0.0032437,-0.0469901,5012,5012,0
531767499,531766779,3932170,3932170,0.00337546,-0.0007582,-0.00097864,0.00667832,-0.00557671,-0.0421715,4990,4990,0
532266112,532265867,3932170,3932170,-0.00153768,0.000236333,0.000655217,-0.0044473,-0.0100076,-0.0519317,4976,4976,0
532765222,532764999,3932170,3932170,-0.00130016,-0.00108937,0.00106954,0.000467968,0.0270859,-0.0565249,4968,4968,0
533269059,533268800,3932170,3932170,-0.0012827,0.00189165,-4.44212e-05,-0.00214283,-0.00569954,-0.0456767,4990,4990,0
533763149,533762822,3932170,3932170,0.00051234,0.00055558,-0.000486665,-0.000875375,0.00620626,-0.0456818,4991,4991,0
534267121,534266823,3932170,3932170,-0.00108347,-5.97575e-06,-0.000749361,0.00419369,0.00608048,-0.0457633,4989,4989,0
534766083,534765834,3932170,3932170,-0.000320265,-0.00222405,-5.34905e-05,-0.00333904,-0.00779163,-0.0444564,4990,4990,0
535265144,535264850,3932170,3932170,-0.00119891,0.00135956,0.000703644,-0.00302835,0.00121136,-0.0547462,4994,4994,0
535764175,535763929,3932170,3932170,0.00135905,-0.000386531,0.000287864,-0.00720493,-0.000115603,-0.0486501,4964,4964,0
536268291,536268040,3932170,3932170,0.0024988,-0.000368078,-0.000417995,-0.00213714,-0.0254582,-0.0496164,4976,4976,0
536767128,536766869,3932170,3932170,-0.00472654,0.000767001,0.000723251,-0.00154734,0.0243314,-0.0516429,4991,4991,0
537266168,537265887,3932170,3932170,-0.00102084,-0.00200078,-0.000429004,0.00237357,-0.000943512,-0.0505345,4997,4997,0
537765145,537764892,3932170,3932170,-0.000404587,0.000668539,-0.000217945,0.000945486,0.000418669,-0.0449216,4989,4989,0
538264352,538263906,3932170,3932170,0.00186827,-0.000134361,-0.00130879,-0.00261129,-0.0103131,-0.0447004,4992,4992,0
538768202,538767905,3932170,3932170,0.000702183,-5.5559e-05,0.000891338,0.00454808,0.0186005,-0.0512288,4990,4990,0
539268250,539267012,3932170,3932170,-0.000584096,-0.000182531,0.000159535,-0.00493843,-0.0296914,-0.0451957,4962,4962,0
539766395,539766145,3932170,3932170,0.000852439,-0.000234819,-0.000700409,0.00115121,0.00631236,-0.0458293,4967,4967,0
540265199,540264939,3932170,3932170,0.000583347,0.000124461,-0.000246516,-0.000708746,-0.00551404,-0.0439197,4990,4990,0
540764252,540763950,3932170,3932170,-4.19215e-05,0.000703563,0.000173717,0.000141602,1.1685e-05,-0.0509224,4990,4990,0
541263213,541262962,3932170,3932170,0.00117672,-6.80484e-05,-0.000180454,0.00116196,0.0170537,-0.0494751,4990,4990,0
541767285,541766966,3932170,3932170,-0.000430963,-0.000362877,0.00048903,-0.00279168,-0.00802441,-0.0524586,4991,4991,0
542266315,542266023,3932170,3932170,-0.000581166,0.000420427,0.000245256,-0.00165288,-0.0135961,-0.0538833,5029,5029,0
542765331,542765085,3932170,3932170,-4.0989e-05,-0.000363756,0.000456533,6.97072e-05,-0.000488363,-0.0532679,4973,4973,0
543264457,543264164,3932170,3932170,0.00207524,-0.0017089,-0.00137618,-0.000789482,-0.00113991,-0.0458066,4955,4955,0
543768264,543768001,3932170,3932170,-0.000555291,0.000511916,0.000516256,-0.0019525,-0.00622022,-0.0484945,4987,4987,0
544262328,544262022,3932170,3932170,0.000325544,0.000955919,-0.000944351,-0.00175331,-0.0210559,-0.0455822,4991,4991,0
544766508,544766027,3932170,3932170,0.00102066,-0.000942875,-0.000467633,-0.0032545,-0.00922468,-0.0452205,4993,4993,0
545265361,545265035,3932170,3932170,-0.000406736,0.000199972,0.000257656,-0.00100389,-0.00718612,-0.0536775,4990,4990,0
545764382,545764069,3932170,3932170,-0.00247573,0.000606977,-7.22689e-05,-0.00679506,-0.0262488,-0.0455659,4988,4988,0
546268307,546268061,3932170,3932170,0.00164413,9.2875e-05,-0.000382058,-0.00488068,-0.00807384,-0.0470183,4981,4981,0
546768014,546767212,3932170,3932170,-0.000394635,0.00081888,8.30727e-05,-0.0031077,-0.0234993,-0.0473633,4970,4970,0
547266336,547266075,3932170,3932170,0.00260307,-0.00193016,-0.0005905,0.00326685,-0.00974748,-0.0439431,4992,4992,0
547765389,547765084,3932170,3932170,0.00195152,-0.000952088,-0.000450419,0.00166507,-0.0106602,-0.0411993,4990,4990,0
548264344,548264097,3932170,3932170,-0.00500003,0.00073636,-0.0010816,-0.00439516,-0.0255725,-0.0458322,4989,4989,0
548763354,548763108,3932170,3932170,0.00148331,0.000143267,0.000601268,-0.00487673,0.00601051,-0.0486727,4989,4989,0
549267368,549267113,3932170,3932170,-0.00110211,9.62193e-05,3.2762e-05,-0.00526803,0.00601142,-0.0485953,4993,4993,0
549766384,549766137,3932170,3932170,5.64253e-05,-0.000661213,-0.00111599,-0.00548857,-0.0106417,-0.044567,4943,4943,0
550270599,550270311,3932170,3932170,0.00103875,-0.00280557,-0.000716185,-0.0022929,-0.00735627,-0.0447263,4989,4989,0
550764408,550764147,3932170,3932170,-0.000378892,-3.13782e-05,-0.000350228,-0.00253116,0.00314573,-0.0441888,4991,4991,0
551263520,551263214,3932170,3932170,-0.000450836,9.02447e-05,0.000574159,0.001292,-0.00748734,-0.0452185,5046,5046,0
551762423,551762171,3932170,3932170,-0.00047305,-0.000133689,-4.74589e-05,-0.000836807,0.00975085,-0.0482431,4990,4990,0
552266864,552266189,3932170,3932170,0.00181681,-0.000110444,-0.000593878,0.000265416,-0.0106644,-0.0501221,4989,4989,0
552765478,552765190,3932170,3932170,0.000313034,3.87302e-05,0.000502001,-0.00197603,-0.0105152,-0.051986,4993,4993,0
553265173,553264257,3932170,3932170,-0.000457118,0.000154867,0.000337469,-0.00191137,-0.00252342,-0.0474155,4964,4964,0
553768588,553768300,3932170,3932170,0.00039206,-0.00043174,-0.00110014,-0.0057999,-0.0235921,-0.0442733,4963,4963,0
554267474,554267212,3932170,3932170,0.00236014,-0.00205622,-0.000782664,0.000160161,-0.0210503,-0.0400835,4990,4990,0
554766538,554766224,3932170,3932170,-0.000110945,-5.59014e-05,-0.000346765,-0.00348107,0.00776369,-0.0455888,4990,4990,0
555265488,555265236,3932170,3932170,-0.000449542,-3.66727e-06,0.00022316,-0.00451135,-0.0169668,-0.0486651,4988,4988,0
555764590,555764254,3932170,3932170,0.000429048,-0.000580637,-0.000717842,-0.000656359,-0.00700523,-0.0453361,4996,4996,0
556268604,556268262,3932170,3932170,-0.000454325,0.000100809,-0.000692654,-0.00140289,-0.0225647,-0.0438466,5002,5002,0
556767513,556767265,3932170,3932170,-0.00263139,0.00091929,0.000931753,-0.00424759,0.0115309,-0.0550816,4988,4988,0
557266627,557266378,3932170,3932170,-0.000559023,0.000802503,0.000977018,0.000862995,0.028116,-0.0542972,4946,4946,0
557765560,557765293,3932170,3932170,0.000752285,0.00212391,-0.000933411,-0.00123416,-0.00915268,-0.0437774,4995,4995,0
558264612,558264301,3932170,3932170,-0.00167284,0.00106453,0.00101848,-0.00276271,0.0162558,-0.0595881,4985,4985,0
558763645,558763315,3932170,3932170,-0.00112299,0.000257449,0.00124699,-0.00245922,4.60522e-05,-0.0509181,4988,4988,0
559267566,559267316,3932170,3932170,0.00102617,-0.000301375,0.000187166,0.00113903,-0.00189497,-0.0495969,4990,4990,0
559766624,559766330,3932170,3932170,-0.000805013,-7.30642e-05,-0.000422175,-0.0020194,-0.00638559,-0.0440419,4991,4991,0
560265633,560265341,3932170,3932170,0.00159752,-0.000324836,-0.000308261,-0.00229386,0.000453356,-0.0464224,4961,4961,0
560765193,560764507,3932170,3932170,0.00239059,-0.00101332,-0.00070552,0.00380891,0.000584804,-0.0462404,4969,4969,0
561263628,561263372,3932170,3932170,0.0018151,-0.000611811,-0.00162557,0.00146044,-0.0149557,-0.0424017,4996,4996,0
561762642,561762379,3932170,3932170,-0.00203335,0.000369724,-0.000318285,-0.00774946,-0.0199671,-0.0505365,4990,4990,0
562266686,562266402,3932170,3932170,-0.00103336,0.00142845,0.000274944,-0.00616695,-0.0233324,-0.0483259,5010,5010,0
562765739,562765395,3932170,3932170,-7.6685e-05,0.00149176,-0.00020152,-0.00273692,-0.0155858,-0.0456216,4990,4990,0
563264658,563264408,3932170,3932170,-0.00185659,-0.000106078,-0.000803309,-0.00113278,-0.0257238,-0.0448861,4991,4991,0
563768710,563768412,3932170,3932170,0.000923079,-0.00132277,1.06865e-05,0.00372754,0.00203431,-0.0457766,4990,4990,0
564267752,564267503,3932170,3932170,-0.00096434,0.000638716,0.000119503,-0.00385388,-0.0200667,-0.0463112,4975,4975,0
564767055,564766692,3932170,3932170,0.000352223,0.000513716,0.000401141,-0.00155279,-0.003205,-0.0503306,4968,4968,0
565265728,565265475,3932170,3932170,-0.000961516,-2.24037e-05,0.000664269,-0.00342185,0.0203557,-0.0469964,4987,4987,0
565764714,565764472,3932170,3932170,-0.00145084,0.000279025,0.000160051,-0.00547282,-0.014705,-0.04796,5000,5000,0
566263908,566263479,3932170,3932170,-0.00258441,-0.000542048,-0.000798749,0.00106613,0.00380084,-0.0454621,4994,4994,0
566767745,566767478,3932170,3932170,-0.00114893,0.000348731,-4.7107e-05,-0.00624682,-0.00979466,-0.0480631,4990,4990,0
567267211,567266493,3932170,3932170,0.00125162,-0.000478015,0.000253032,0.00229441,0.0247341,-0.0479399,4983,4983,0
567765829,567765573,3932170,3932170,0.00218465,-0.000379868,-0.000773378,0.00689538,0.0139562,-0.0518161,4975,4975,0
568270160,568269734,3932170,3932170,-0.00176169,0.000828055,0.0011012,0.00039995,0.00877071,-0.0546257,4969,4969,0
568763781,568763527,3932170,3932170,-0.000817784,7.04826e-05,0.000209878,-0.00261656,-0.0200882,-0.0501408,4989,4989,0
569262791,569262545,3932170,3932170,0.00130325,-0.000522416,-0.000223136,-0.00100083,-0.00237791,-0.0452781,4949,4949,0
569766837,569766547,3932170,3932170,0.000293047,-0.000353369,5.46895e-05,-0.000912755,-0.0092594,-0.0447347,4990,4990,0
570265828,570265561,3932170,3932170,0.00387003,-0.00068234,-0.00184339,0.00239266,-0.012525,-0.0444405,4991,4991,0
570764905,570764574,3932170,3932170,-0.00175519,0.000647774,0.000464432,-0.00905983,0.00562932,-0.0571484,4990,4990,0
571268867,571268619,3932170,3932170,-0.000209334,-0.000903273,0.000896674,-0.00148973,0.00578191,-0.055679,4969,4969,0
571768156,571767816,3932170,3932170,0.00168769,0.000402659,-0.00067487,0.00130167,0.00161771,-0.0454306,4971,4971,0
572266864,572266606,3932170,3932170,0.00239864,4.32265e-05,0.000715881,-0.00305762,-0.0180663,-0.0464972,4993,4993,0
572765994,572765618,3932170,3932170,0.00110262,-0.000695766,0.000223395,0.000500871,-0.00335788,-0.0440891,4991,4991,0
573264925,573264630,3932170,3932170,0.00194614,-0.000979782,-0.000837754,-0.00262008,0.00472915,-0.0454896,4987,4987,0
573764281,573763641,3932170,3932170,0.00140205,-0.00201914,-0.000756923,-0.00145648,-0.0275484,-0.0406131,4934,4934,0
574262903,574262658,3932170,3932170,-0.000542844,0.00175595,0.000472654,-0.00414638,-0.00125271,-0.051483,4990,4990,0
574767486,574766752,3932170,3932170,-0.00168299,-0.00183434,0.00117381,-0.00485839,0.0276472,-0.0559444,4968,4968,0
575266150,575265886,3932170,3932170,2.66268e-05,0.000213141,-0.00013469,0.000134829,0.00238165,-0.0499907,4969,4969,0
575764940,575764686,3932170,3932170,0.000562321,0.00050508,0.000353926,0.000678064,-0.0182726,-0.0473509,4983,4983,0
576263950,576263703,3932170,3932170,-0.00255759,0.000481667,0.00126695,-0.00567149,0.00123365,-0.0522193,4991,4991,0
576763022,576762776,3932170,3932170,0.00188992,-0.000111296,-0.00156796,0.00156342,-0.00154139,-0.0468911,5037,5037,0
577266970,577266720,3932170,3932170,-0.000812206,-0.000405096,0.00091842,-0.00186948,0.00400122,-0.046119,4990,4990,0
577765985,577765734,3932170,3932170,-0.00189934,0.000876376,0.00149459,-0.000552776,0.0204108,-0.0510282,4990,4990,0
578265043,578264792,3932170,3932170,0.00492152,-0.000726625,0.000110512,0.000572757,-0.00964016,-0.0425502,4962,4962,0
578769284,578768940,3932170,3932170,-0.00120924,-0.000670936,-0.00107824,-1.3871e-07,-0.011191,-0.0425437,4959,4959,0
579263046,579262776,3932170,3932170,-0.00219132,-0.0037339,0.000781427,-0.00428722,0.0190963,-0.0461742,4991,4991,0
579767033,579766779,3932170,3932170,3.65427e-05,0.000402102,7.55585e-06,-0.00117703,-0.000322894,-0.0457296,4990,4990,0
580266078,580265805,3932170,3932170,0.00156362,0.000395413,-7.59148e-05,0.00160676,-0.00729774,-0.0527775,5002,5002,0
580765114,580764823,3932170,3932170,0.000900989,-0.000425878,-0.000843041,-0.0015152,-0.0227138,-0.0472512,5006,5006,0
581269121,581268856,3932170,3932170,0.000591131,-1.92648e-06,0.000424562,0.000424124,-0.00403445,-0.0511194,4989,4989,0
581763208,581762864,3932170,3932170,-0.00091926,-0.000144578,-6.26527e-05,-0.00111235,-0.00703984,-0.0542676,4976,4976,0
582267929,582267020,3932170,3932170,-0.000169925,-0.00054139,-0.00132028,-0.00176908,0.0173844,-0.0502987,4969,4969,0
582766156,582765853,3932170,3932170,0.000860466,0.000469427,0.00043358,-6.38732e-05,0.0119147,-0.0553098,4990,4990,0
583265235,583264867,3932170,3932170,-0.00145208,0.0005175,0.000777076,-0.00174014,0.0229377,-0.0546893,4987,4987,0
583764130,583763882,3932170,3932170,0.000728536,-0.000145069,0.0002022,0.00028973,-0.0119209,-0.0457402,4989,4989,0
584268141,584267887,3932170,3932170,0.00014672,0.00078773,0.000250561,-0.00325376,0.00155795,-0.0485829,4989,4989,0
584767160,584766902,3932170,3932170,0.000235372,-5.67492e-05,-0.00137783,-0.00219078,-0.0250795,-0.0425637,4992,4992,0
585266289,585265923,3932170,3932170,-0.00310272,0.000468476,0.000578763,0.00228094,0.0266497,-0.0574968,4972,4972,0
585765453,585765110,3932170,3932170,-0.00667935,-0.00034155,-0.000491368,-0.00270863,-0.0386384,-0.0435944,4970,4970,0
586264201,586263944,3932170,3932170,0.00292059,-0.00241637,-0.00019904,0.00232543,-0.0179256,-0.0395799,4991,4991,0
586763362,586762959,3932170,3932170,0.00213169,-0.000636113,0.000766014,-0.00405841,-0.0043057,-0.0470816,4981,4981,0
587267277,587266966,3932170,3932170,0.000585665,-0.000174646,-0.00068205,-0.00276001,-0.0308511,-0.0424256,4994,4994,0
587766396,587765981,3932170,3932170,0.000441162,-0.00171625,-7.77753e-05,0.00104816,0.0158467,-0.052227,4994,4994,0
588265280,588265033,3932170,3932170,0.000204952,0.00108077,-0.00137775,-0.00361531,-0.022218,-0.0446942,4987,4987,0
588769380,588769023,3932170,3932170,0.00214712,-0.000621102,-0.002672,-0.00195719,-0.0248015,-0.0425401,4959,4959,0
589268420,589268170,3932170,3932170,-0.00129786,0.000244532,-0.00178581,-0.00195815,0.00246904,-0.0469318,4916,4916,0
589762325,589762038,3932170,3932170,-0.00122246,0.000104273,-0.000652508,-0.00105929,0.0273391,-0.0603919,4993,4993,0
590266341,590266041,3932170,3932170,0.00106042,-0.000886038,0.000315011,0.00164464,-0.0112981,-0.0425251,4990,4990,0
590765300,590765055,3932170,3932170,0.000663147,0.000867812,0.00126767,0.00192559,0.0258749,-0.060097,4990,4990,0
591264336,591264070,3932170,3932170,-0.00204474,-0.000201815,0.000303595,-0.00371699,-0.014696,-0.051367,4991,4991,0
591768324,591768076,3932170,3932170,0.000280505,5.50068e-06,0.000150971,-0.000632326,-0.00359739,-0.0478447,4991,4991,0
592267433,592267091,3932170,3932170,-0.00200789,0.000571877,0.000744281,-0.000977285,0.0173352,-0.0505723,4983,4983,0
592766636,592766360,3932170,3932170,-0.00100089,0.000783226,-0.00074176,-0.00579469,-0.0131734,-0.0488769,5013,5013,0
593265400,593265122,3932170,3932170,0.00255457,0.00089366,0.0014449,0.000632753,0.0238957,-0.0556073,4992,4992,0
593764406,593764134,3932170,3932170,0.0001084,-8.65904e-06,-0.000528699,-0.00287635,-0.00529037,-0.0438533,4990,4990,0
594263463,594263151,3932170,3932170,0.000338115,-0.0004195,-0.00108252,0.00110022,-0.0091753,-0.0508229,4992,4992,0
594767400,594767154,3932170,3932170,-2.90133e-05,0.000530921,-0.0011442,0.000253277,-0.00476946,-0.0441476,4990,4990,0
595267808,595266175,3932170,3932170,-0.000990575,-0.00024146,0.000495181,-4.6298e-05,-0.00177629,-0.0483174,4994,4994,0
595765441,595765193,3932170,3932170,-0.00184592,0.00017659,-0.00174428,-0.00166437,0.00476884,-0.0424907,4988,4988,0
596271106,596269305,3932170,3932170,0.00195531,0.000796814,-0.000599205,0.00225284,0.00695872,-0.0522956,4961,4961,0
596763472,596763215,3932170,3932170,-0.00613395,0.00123801,0.000167319,-4.28627e-05,0.0115024,-0.0640074,4984,4984,0
597262585,597262279,3932170,3932170,-0.00176089,0.00148581,0.000839543,-0.00146772,-0.017387,-0.0506336,4983,4983,0
597766494,597766238,3932170,3932170,-0.00101082,0.000371319,0.000184012,-0.000512163,-0.00306188,-0.0498725,4987,4987,0
598265540,598265250,3932170,3932170,-0.000315779,-0.00141287,-0.00193833,-0.00477582,-0.0391665,-0.037945,4990,4990,0
598764516,598764267,3932170,3932170,-0.00711163,0.000412159,0.000918024,-0.00537875,0.00274919,-0.0516424,4991,4991,0
599268527,599268278,3932170,3932170,0.000420748,-0.000902519,-0.000654345,-0.00323591,-0.0101724,-0.0446901,4996,4996,0
599762782,599762483,3932170,3932170,-0.000598226,0.000688721,0.00164243,-0.00562795,0.0164837,-0.052393,4950,4950,0
600266572,600266303,3932170,3932170,0.00170408,-0.000210237,-0.000889173,-0.000118739,-0.00919526,-0.0367094,4991,4991,0
600765582,600765318,3932170,3932170,-0.00277171,0.000929798,0.000247216,-0.00763594,0.0133509,-0.0501345,4991,4991,0
601264656,601264333,3932170,3932170,-0.00166584,0.00079616,0.00116978,0.000949002,0.0186346,-0.0570885,4991,4991,0
601763983,601763351,3932170,3932170,-0.000777152,0.000646115,0.000833778,0.000449203,-0.00763426,-0.0511997,4992,4992,0
602267651,602267364,3932170,3932170,0.00394491,0.000675397,0.000287796,-0.00487015,0.000532305,-0.0592724,5000,5000,0
602767374,602766371,3932170,3932170,-0.000900582,-0.000229418,-0.000449219,-0.00269285,-0.00501475,-0.0549294,4991,4991,0
603265852,603265490,3932170,3932170,-0.00272342,0.0010393,0.000400987,-0.00754013,0.0185883,-0.0589204,4956,4956,0
603764661,603764401,3932170,3932170,0.000605392,0.000119206,0.00112006,-0.00258933,0.0201761,-0.0593361,4991,4991,0
604268664,604268402,3932170,3932170,-8.33515e-05,-0.00017564,0.00024073,-0.00586839,-0.0272756,-0.0477292,4986,4986,0
604767670,604767422,3932170,3932170,0.00175026,-0.00032321,-0.00126535,0.00107946,0.000267923,-0.0404863,4990,4990,0
605266685,605266438,3932170,3932170,-0.00115785,0.000450227,-0.000339923,-0.00180141,-0.004019,-0.0479486,4991,4991,0
605765733,605765459,3932170,3932170,-0.000604696,-0.000436996,0.000332354,7.67558e-05,0.0214383,-0.051269,4995,4995,0
606264723,606264474,3932170,3932170,0.00438307,0.00022422,9.05064e-05,0.0022882,-0.00981091,-0.0468643,4993,4993,0
606768927,606768611,3932170,3932170,0.00500861,0.00032706,-0.000840268,0.00207933,-0.00311042,-0.0452521,4968,4968,0
607268108,607267765,3932170,3932170,0.00565365,-0.00139244,-0.0013782,0.00854588,-0.0192058,-0.0470508,5265,5265,0
607766771,607766506,3932170,3932170,-0.00108405,-0.00042963,0.000932613,-0.000390469,-0.0142648,-0.0488993,4987,4987,0
608265926,608265526,3932170,3932170,-0.000525518,0.00156445,0.00109461,-0.000792488,0.0183728,-0.0558115,4992,4992,0
608764807,608764561,3932170,3932170,-0.000383782,0.000196878,0.000882436,-0.00138719,-0.00935505,-0.0462005,4997,4997,0
609268841,609268546,3932170,3932170,-0.00345244,0.000106092,0.000604092,-0.0018475,-0.00788788,-0.0516985,4989,4989,0
609767805,609767562,3932170,3932170,-0.00228284,-0.000290953,0.000242396,-0.00247268,0.00414141,-0.0505158,4991,4991,0
610267601,610266663,3932170,3932170,0.00496566,-0.00102126,-0.000627109,-0.000465404,-0.0251627,-0.0418637,4976,4976,0
610766207,610765857,3932170,3932170,-0.000535789,0.000496417,0.00109851,0.00301262,0.0288159,-0.0534114,5251,5251,0
611264863,611264609,3932170,3932170,-0.00198201,0.000380341,0.000565324,-0.000749437,-0.0179966,-0.0473545,4990,4990,0
611763925,611763625,3932170,3932170,-0.00371026,0.00292115,0.00102805,-0.00717684,-0.0118535,-0.0534003,4990,4990,0
612267887,612267637,3932170,3932170,-0.00331833,0.00128156,0.000884858,-0.00417832,0.020973,-0.061667,4996,4996,0
612762014,612761657,3932170,3932170,-0.000168087,0.000492842,0.000213303,-0.00408914,0.00666061,-0.0497279,4990,4990,0
613265953,613265665,3932170,3932170,-0.00145136,-0.000453168,-0.000289366,-0.00567468,-0.00493677,-0.0491292,4983,4983,0
613765094,613764760,3932170,3932170,0.00155448,-0.00168364,-0.000713732,-0.00269954,-0.0309945,-0.0430278,4970,4970,0
614264254,614263956,3932170,3932170,-0.00123489,0.00027704,0.000750868,-0.00118159,-0.00808639,-0.0506369,5247,5247,0
614762976,614762716,3932170,3932170,0.000892411,-0.00029952,0.000485887,0.000450782,0.000711834,-0.0491745,4994,4994,0
615266964,615266718,3932170,3932170,-0.000463641,-9.34842e-05,0.000120909,0.0041661,-0.0169798,-0.0481304,4990,4990,0
615766301,615765739,3932170,3932170,-0.00600736,-0.000421326,0.000232267,-0.000591549,-0.00229859,-0.0433146,4993,4993,0
616265057,616264751,3932170,3932170,-0.000395623,-0.000846006,-0.00112478,-0.00658945,-0.0285258,-0.0432969,4990,4990,0
616769395,616768818,3932170,3932170,1.09005e-05,0.00091089,-0.000322234,-0.00058698,0.00378404,-0.0482439,5035,5035,0
617268126,617267876,3932170,3932170,0.000921264,-0.0010218,0.000602972,-0.00217687,0.00574437,-0.0494494,4961,4961,0
617762548,617762048,3932170,3932170,-0.00107099,0.000912121,0.00162608,0.0051188,0.0141001,-0.0534853,4957,4957,0
618266065,618265807,3932170,3932170,-0.00426686,0.000757902,0.00100023,-0.00332902,0.00814889,-0.0538447,4990,4990,0
618765182,618764823,3932170,3932170,0.00110926,-0.000464887,-0.00108641,-0.000504013,-0.0201033,-0.0519643,4990,4990,0
619264098,619263844,3932170,3932170,0.00138863,-0.000788004,-0.000902698,9.66359e-05,-0.00166135,-0.0461856,4941,4941,0
619768189,619767849,3932170,3932170,0.0018158,0.000370371,-0.00123138,0.00136924,-0.0337382,-0.0423315,4987,4987,0
620267204,620266906,3932170,3932170,0.000565476,7.52023e-05,4.56281e-05,0.00320393,0.00251082,-0.0473312,4985,4985,0
620766256,620765986,3932170,3932170,-0.00284778,-0.000527112,2.33075e-05,-0.00562791,-0.0160014,-0.050684,4971,4971,0
621265476,621265120,3932170,3932170,-0.000314884,-0.000323502,-0.00116228,-0.00158092,-0.0156292,-0.052651,4963,4963,0
621764171,621763913,3932170,3932170,-0.00147386,0.000811357,-0.000317208,-0.00318206,0.0154211,-0.0562986,4989,4989,0
622263263,622262932,3932170,3932170,0.00140376,-0.000280202,-0.00177774,0.00368872,0.0158981,-0.051032,4993,4993,0
622767205,622766955,3932170,3932170,0.00161318,-0.000601156,-0.0016113,0.00111912,-0.0064422,-0.0439419,5009,5009,0
623266415,623265957,3932170,3932170,0.00232722,-0.000790482,-0.00356486,-0.000234849,-0.00577512,-0.046639,4991,4991,0
623765260,623764970,3932170,3932170,-0.000718195,0.000159846,-0.00255939,-0.000318203,2.80356e-05,-0.0492271,4989,4989,0
624269404,624269059,3932170,3932170,-0.000620151,0.000319483,-0.00114518,0.000662186,0.0226578,-0.0511103,5030,5030,0
624763600,624763228,3932170,3932170,-0.000598732,-0.000214272,-0.00162943,-0.00186786,-0.00976475,-0.049892,4951,4951,0
625267290,625267018,3932170,3932170,0.000297206,-0.000215659,-0.000967325,-0.00089216,0.00423836,-0.0494757,4997,4997,0
625766344,625766028,3932170,3932170,0.00210684,-0.000572442,-0.00149866,0.00417566,0.0049065,-0.0464122,4991,4991,0
626265306,626265047,3932170,3932170,0.00115713,-0.00049065,-0.000810522,-0.000823316,-0.0115157,-0.043473,4993,4993,0
626769383,626769054,3932170,3932170,-0.00278343,-0.000422428,0.00146385,-0.00223358,0.0130832,-0.053948,4991,4991,0
627268322,627268069,3932170,3932170,-0.00285542,0.00060478,0.00112873,-0.00383165,-0.00377513,-0.0503649,4984,4984,0
627767468,627767168,3932170,3932170,-0.000143854,-0.000645894,-7.70251e-05,-0.00470635,-0.0197672,-0.0497075,4979,4979,0
628266676,628266357,3932170,3932170,-0.00101186,0.00102781,5.75319e-05,-0.00440827,0.0133209,-0.0490171,4986,4986,0
628765385,628765123,3932170,3932170,-0.00157985,-0.000992846,-0.000232052,-0.00504201,-0.0185988,-0.0471243,4991,4991,0
629264456,629264137,3932170,3932170,-0.00436164,-0.000245681,-1.48968e-06,-0.00144346,-0.0024728,-0.0437172,4991,4991,0
629768659,629768147,3932170,3932170,0.000529933,0.000388878,0.000610793,-0.000664378,0.00503536,-0.0550747,4993,4993,0
630267497,630267161,3932170,3932170,0.00117043,-0.000731135,-0.000947701,0.00147954,-0.0120745,-0.0432268,4990,4990,0
630766599,630766179,3932170,3932170,-0.000167776,-0.000186649,-0.000315243,-0.0041963,0.00211197,-0.0496181,4985,4985,0
631265500,631265210,3932170,3932170,0.000531464,0.000349123,0.000569346,0.0025454,0.0192016,-0.0521953,4959,4959,0
631764842,631764459,3932170,3932170,-0.00031791,-0.00147708,0.000398267,-0.0011997,-0.00771556,-0.0488617,4973,4973,0
632263489,632263229,3932170,3932170,0.000748076,0.000296389,-0.000512711,0.00211946,-0.00652543,-0.0445468,4990,4990,0
632767527,632767243,3932170,3932170,-0.000689634,0.000454226,0.000569999,0.00376577,0.00430299,-0.0530816,4992,4992,0
633266609,633266254,3932170,3932170,-0.000780777,-0.000419987,-9.44367e-05,-0.000947227,0.000712051,-0.0467049,4990,4990,0
633765567,633765272,3932170,3932170,-8.89965e-06,-0.000524673,-6.77946e-05,-0.000603796,0.00107114,-0.0486207,4990,4990,0
634269543,634269282,3932170,3932170,0.000461626,0.000120188,-0.000790031,-0.00153316,-0.0164371,-0.0424836,4993,4993,0
634768589,634768297,3932170,3932170,-0.00173753,-0.00028715,-0.000223512,-0.000457194,0.0130205,-0.0512987,4978,4978,0
635267847,635267547,3932170,3932170,-0.000512512,0.000893885,0.000753356,-0.00597753,0.00613325,-0.0604668,5036,5036,0
635766598,635766331,3932170,3932170,-0.00301654,-4.45215e-05,0.000498902,-0.00650242,0.0059776,-0.0516515,4990,4990,0
636265707,636265370,3932170,3932170,0.00162482,0.000331272,-0.000504984,-0.00523212,-0.0211239,-0.0484699,4994,4994,0
636764629,636764366,3932170,3932170,-0.00117259,-0.00346678,0.000689927,-0.00702746,0.00281254,-0.0499527,4973,4973,0
637268833,637268375,3932170,3932170,0.000111655,0.000701853,0.000639753,0.00214756,0.0273435,-0.0547849,4989,4989,0
637767734,637767431,3932170,3932170,0.0012894,0.000389443,0.000319992,0.00202834,0.0269606,-0.0474504,5030,5030,0
638267320,638266411,3932170,3932170,0.000436578,-0.00010144,-3.60209e-05,-0.000174105,-0.00289182,-0.0493745,4985,4985,0
638765879,638765583,3932170,3932170,-0.000159306,0.000663261,-0.0003783,-0.0054383,-0.0268842,-0.0444561,4963,4963,0
639264707,639264444,3932170,3932170,0.000859606,-5.26017e-05,-0.000182783,0.00194797,-0.00546749,-0.0496641,4989,4989,0
639763765,639763462,3932170,3932170,0.000692983,-0.000614042,-0.000342123,-0.000527075,-0.00923057,-0.0412555,4991,4991,0
640267758,640267470,3932170,3932170,-0.000471126,-0.000285089,0.000177554,-0.00216388,-0.0192994,-0.0505829,4978,4978,0
640766732,640766488,3932170,3932170,-0.000549403,0.000339285,0.000342073,0.00504102,0.022744,-0.0525969,4990,4990,0
641265825,641265569,3932170,3932170,0.000995853,-0.00041593,5.62242e-05,0.000245026,0.0154182,-0.0480991,5053,5053,0
641769797,641769544,3932170,3932170,-0.000942864,-4.51156e-05,-0.000486267,-0.0022772,-0.00727936,-0.0418637,4974,4974,0
642264053,642263708,3932170,3932170,0.000349001,-0.000352129,-0.000150395,0.00016131,-0.00490364,-0.0493146,4965,4965,0
642762816,642762558,3932170,3932170,-0.001865,0.000898647,0.00112963,-0.00877613,-0.00990544,-0.051132,4994,4994,0
643266862,643266566,3932170,3932170,0.00134984,-0.000222842,0.000350032,-0.00256618,0.00521545,-0.0567169,4990,4990,0
643766053,643765588,3932170,3932170,-0.00202318,0.00188527,0.000579923,0.000568194,0.0167717,-0.0568374,4994,4994,0
644264845,644264602,3932170,3932170,0.00250537,-0.000465488,-0.000612274,0.00591895,-0.0212484,-0.044457,4991,4991,0
644768860,644768612,3932170,3932170,-0.00109168,0.000178563,0.000759412,-0.00286859,-0.0101062,-0.0509677,4991,4991,0
645262888,645262640,3932170,3932170,0.00247076,-8.19023e-05,-0.000599132,0.00732981,0.00102637,-0.0422671,4997,4997,0
645762242,645761811,3932170,3932170,0.00124213,-0.00038732,-0.000906155,-0.00269039,-0.014361,-0.0444025,4964,4964,0
646265963,646265664,3932170,3932170,0.000487499,-0.00104151,-0.00033075,-0.00193795,0.00550661,-0.0488028,4967,4967,0
646764986,646764681,3932170,3932170,0.00172597,-0.000255433,-0.00149861,-0.00429639,-0.0255341,-0.0462799,4990,4990,0
647264011,647263752,3932170,3932170,0.000471169,0.000396116,-0.00120822,0.000138859,-0.00262373,-0.0481836,5043,5043,0
647768021,647767708,3932170,3932170,0.000587034,8.75827e-05,0.000245672,0.00032311,-0.00404806,-0.051138,4990,4990,0
648267027,648266726,3932170,3932170,0.000297037,-0.000186686,-0.00038953,-0.00286358,-0.0105723,-0.0504778,4990,4990,0
648766062,648765751,3932170,3932170,0.000120941,5.7601e-05,-0.00107958,-0.00598989,-0.0224164,-0.0432209,4958,4958,0
649265198,649264893,3932170,3932170,0.00100555,0.000568315,0.00032869,-0.00607492,-0.0102019,-0.0517942,4947,4947,0
649764034,649763780,3932170,3932170,-0.0005387,0.00062565,0.000435511,-0.00143861,0.0146824,-0.0589412,4989,4989,0
650263113,650262801,3932170,3932170,0.00069714,-0.000509926,0.000525326,1.28706e-06,0.00550489,-0.0531693,4993,4993,0
650767137,650766807,3932170,3932170,-0.00329678,-0.000367787,0.00075852,-0.00243852,-0.00598765,-0.049858,4990,4990,0
651266214,651265828,3932170,3932170,0.000323746,0.00093798,-0.000261718,-0.00298526,0.00443327,-0.0514089,4992,4992,0
651765158,651764844,3932170,3932170,0.000342044,0.000542672,-0.000561639,-0.00340685,-0.0233362,-0.046966,4991,4991,0
652269189,652268853,3932170,3932170,-0.000828481,0.000100273,0.000904203,0.00302529,0.0338943,-0.0536793,4952,4952,0
652763354,652763011,3932170,3932170,0.00130386,-0.000227452,-0.00059062,-0.0022881,-0.0199049,-0.0471421,4965,4965,0
653267160,653266901,3932170,3932170,-0.000660623,-0.000343171,0.000612087,0.00480167,0.0251804,-0.0489425,4998,4998,0
653766174,653765909,3932170,3932170,-0.00051251,0.00145865,-0.00038173,-0.00249809,-0.0184555,-0.044775,4991,4991,0
654265177,654264927,3932170,3932170,-0.00152445,-0.00155194,0.000541761,-0.00684766,0.00265967,-0.0515348,4992,4992,0
654764193,654763944,3932170,3932170,0.00017952,-0.000162265,-0.000811861,0.000124511,-0.0222226,-0.0407012,4990,4990,0
655268251,655267954,3932170,3932170,0.000739165,0.000741831,0.000144236,-0.00222749,0.000953986,-0.0521462,4991,4991,0
655762308,655762040,3932170,3932170,-0.000948008,-0.000561946,-0.000101714,-0.00200676,0.00526401,-0.0489312,4970,4970,0
656266392,656266144,3932170,3932170,-0.00263331,0.000271612,0.00108214,-0.00187641,-0.000221555,-0.0476646,4969,4969,0
656765281,656765013,3932170,3932170,-0.000192131,4.50433e-05,-0.000142731,-0.00397575,-0.0145269,-0.0462997,4988,4988,0
657264297,657264028,3932170,3932170,-0.000240425,-0.000738974,-0.000720726,-0.00627558,-0.0178927,-0.0463699,4992,4992,0
657768334,657768082,3932170,3932170,0.00255929,-0.000735988,-0.000608914,9.77628e-05,-0.000214143,-0.050044,4990,4990,0
658267314,658267068,3932170,3932170,0.000608866,-0.000188629,-7.39241e-05,-0.00572575,-0.00641221,-0.0524363,5004,5004,0
658766376,658766075,3932170,3932170,-0.000720604,0.000258249,0.000354954,-0.00340972,0.00685912,-0.0546325,4986,4986,0
659265359,659265117,3932170,3932170,-0.00105127,5.78693e-05,-0.000544653,-0.00347201,-0.00797147,-0.0485749,4969,4969,0
659764649,659764219,3932170,3932170,0.000685258,-0.000494527,5.32841e-05,0.00329633,0.0137991,-0.0453399,4972,4972,0
660263385,660263132,3932170,3932170,-0.000553591,0.000440512,0.00102997,0.000980386,-0.00831228,-0.0513251,4985,4985,0
660767394,660767137,3932170,3932170,0.00100062,-0.000771207,0.000624,-0.00144554,0.0121008,-0.0558975,4989,4989,0
661266449,661266156,3932170,3932170,0.00021989,0.000124298,-0.00094595,-0.00525098,-0.0018335,-0.0459313,4989,4989,0
661765470,661765175,3932170,3932170,0.000325093,-0.000606908,0.00025831,-0.00213903,-0.0160873,-0.0475678,4985,4985,0
662269467,662269192,3932170,3932170,0.00109237,0.000141486,-0.000354824,-0.00212386,-0.021996,-0.0452903,4995,4995,0
662768522,662768204,3932170,3932170,-0.00370154,0.000161605,0.000697916,-0.00379061,-0.0178665,-0.0455775,4990,4990,0
663262694,663262335,3932170,3932170,0.00531971,-0.00151907,-0.0012659,0.00668376,-0.0099579,-0.0429361,4966,4966,0
663766785,663766494,3932170,3932170,0.000765351,0.00217258,-0.000219816,-0.00597516,-0.0096903,-0.0551092,5231,5231,0
664265522,664265262,3932170,3932170,0.00432355,0.00034373,0.000662146,-0.00143956,0.0122525,-0.0565841,4991,4991,0
664764549,664764298,3932170,3932170,-0.000502529,0.00101335,0.000943673,-0.00308688,0.0244886,-0.0555516,4940,4940,0
665268637,665268291,3932170,3932170,-0.000432596,-2.39355e-05,-0.000744094,-0.002158,-0.00539403,-0.0502206,4993,4993,0
665767621,665767344,3932170,3932170,-0.00034667,0.000313365,-0.000599049,-0.00369898,-0.00548849,-0.0431032,4986,4986,0
666266575,666266326,3932170,3932170,0.000673614,0.00209053,-0.000966578,-0.003752,-0.0284747,-0.0405674,4967,4967,0
666765715,666765471,3932170,3932170,-0.000414744,-3.83956e-05,0.000773935,-0.00250239,0.00510865,-0.0495602,4967,4967,0
667265555,667264615,3932170,3932170,9.37156e-05,0.000192699,-0.000262171,-0.00260455,0.00103971,-0.0501156,4967,4967,0
667763703,667763405,3932170,3932170,-0.000591138,3.68968e-05,-0.000893757,-0.00395185,-0.0155978,-0.0483845,5013,5013,0
668267635,668267391,3932170,3932170,0.00164312,-0.000516912,-0.000941888,0.00221387,-0.00682724,-0.0470892,4990,4990,0
668766704,668766411,3932170,3932170,-0.00169031,0.000928763,0.000852602,-0.00774654,-0.00374519,-0.0503948,4991,4991,0
669265681,669265429,3932170,3932170,0.00232943,-0.000826896,-0.000782483,0.000518791,-0.0226277,-0.0407868,4989,4989,0
669769707,669769443,3932170,3932170,-0.00220298,-0.000942108,0.000617125,-0.00382324,-0.0157956,-0.0491174,4997,4997,0
670263791,670263542,3932170,3932170,-7.25427e-05,1.56036e-05,0.000688356,0.000847082,-0.00184927,-0.0496571,4976,4976,0
670763080,670762735,3932170,3932170,-0.000243093,0.00114492,0.000246589,-0.000382757,-0.000977004,-0.0501451,4955,4955,0
671266813,671266495,3932170,3932170,-0.000981343,0.000164823,0.000294528,-0.00551893,-0.00551929,-0.047545,4990,4990,0
671766438,671765519,3932170,3932170,0.0018684,-0.000863775,-0.000640617,0.00177179,-0.0184649,-0.0471148,4994,4994,0
672264826,672264533,3932170,3932170,-0.00157739,0.000754887,0.00138139,-0.00219199,0.0235977,-0.0536793,4990,4990,0
672768792,672768545,3932170,3932170,0.000277353,-0.000468003,0.000914024,-0.000875009,0.00664815,-0.0490345,4970,4970,0
673267855,673267562,3932170,3932170,0.00169827,0.000398921,-0.000796888,0.00140648,-0.00468051,-0.0546821,4987,4987,0
673766991,673766729,3932170,3932170,0.000572805,-0.000164208,-0.000887602,-0.00549408,-0.0334906,-0.0442485,5023,5023,0
674266115,674265821,3932170,3932170,0.000424925,0.000258691,-0.000329004,-0.00216386,-0.00294557,-0.047191,4975,4975,0
674764925,674764619,3932170,3932170,-0.000645888,0.000302941,0.000170575,-0.00580923,-0.014734,-0.0458314,4988,4988,0
675263882,675263640,3932170,3932170,-0.000512707,0.000224428,0.000621503,-0.0011836,0.0080136,-0.0438874,4960,4960,0
675767939,675767648,3932170,3932170,0.00213191,8.93368e-05,-0.000227991,0.00139421,-0.0059497,-0.0506603,4989,4989,0
676266921,676266670,3932170,3932170,0.00107389,-0.000129781,-0.000570979,0.00169409,0.00342744,-0.0480626,4993,4993,0
676766001,676765687,3932170,3932170,0.00159008,-0.000924934,-0.000507979,0.00282469,-0.0123973,-0.0381034,4989,4989,0
677264996,677264745,3932170,3932170,-0.00137553,0.000888468,0.000191274,-0.00588403,-0.0162458,-0.0497588,4960,4960,0
