timestamp,roll,pitch,yaw,thrust_body[0],thrust_body[1],thrust_body[2]
427264903,-0.0132215,-0.0634561,3.9163e-05,0.0,0.0,-0.0
427269881,-0.0129071,-0.0640114,9.52104e-05,0.0,0.0,-0.0
427289802,-0.0134481,-0.0638128,-1.63459e-05,0.0,0.0,-0.0
427304894,-0.0133172,-0.0623088,0.000834385,0.0,0.0,-0.0
427324638,-0.0137052,-0.0620814,0.00116096,0.0,0.0,-0.0
427349503,-0.0127957,-0.0642088,-0.000810828,0.0,0.0,-0.0
427364406,-0.0134774,-0.0647459,-0.000311729,0.0,0.0,-0.0
427384242,-0.0141424,-0.0642338,0.000803152,0.0,0.0,-0.0
427403974,-0.0147284,-0.0623892,0.000878294,0.0,0.0,-0.0
427428770,-0.0115764,-0.0639861,0.000157441,0.0,0.0,-0.0
427443693,-0.0140767,-0.063994,-0.000253885,0.0,0.0,-0.0
427463608,-0.015794,-0.0643444,0.000469751,0.0,0.0,-0.0
427488442,-0.0151542,-0.0643288,-1.86722e-05,0.0,0.0,-0.0
427503334,-0.0158371,-0.0624353,-1.95595e-05,0.0,0.0,-0.0
427523195,-0.0135737,-0.0636047,-0.00110262,0.0,0.0,-0.0
427548090,-0.0115813,-0.0628258,0.000259716,0.0,0.0,-0.0
427567969,-0.0155139,-0.0632093,0.000517202,0.0,0.0,-0.0
427583008,-0.0132088,-0.0644033,-0.000443763,0.0,0.0,-0.0
427607739,-0.0140188,-0.0625209,3.84724e-05,0.0,0.0,-0.0
427627607,-0.0150894,-0.0645189,0.000767634,0.0,0.0,-0.0
427642522,-0.0125793,-0.0626555,2.55446e-05,0.0,0.0,-0.0
427667365,-0.0121731,-0.0630153,0.000256325,0.0,0.0,-0.0
427687097,-0.0165876,-0.0643519,0.000539774,0.0,0.0,-0.0
427706931,-0.0167065,-0.0638602,-0.000259299,0.0,0.0,-0.0
427726788,-0.0128913,-0.0629889,0.000539457,0.0,0.0,-0.0
427746665,-0.0168095,-0.0631234,0.000501193,0.0,0.0,-0.0
427766648,-0.0167674,-0.0630924,-0.00057477,0.0,0.0,-0.0
427786499,-0.0134776,-0.0631597,0.000399081,0.0,0.0,-0.0
427806354,-0.0161108,-0.0637318,0.000763475,0.0,0.0,-0.0
427826257,-0.0285186,-0.0644253,-0.000411889,0.0,0.0,-0.0
427846164,-0.0265045,-0.0630724,-0.000512034,0.0,0.0,-0.0
427866037,-0.0284101,-0.0630639,0.000544419,0.0,0.0,-0.0
427885942,-0.0277235,-0.0639165,-0.000258025,0.0,0.0,-0.0
427905747,-0.0271624,-0.0634212,-0.00100128,0.0,0.0,-0.0
427925552,-0.0287305,-0.0630583,0.00110018,0.0,0.0,-0.0
427945396,-0.0276363,-0.0645125,-0.000105006,0.0,0.0,-0.0
427965323,-0.0283748,-0.0631353,-0.000913383,0.0,0.0,-0.0
427985222,-0.0283313,-0.0616034,0.00135317,0.0,0.0,-0.0
428005005,-0.0268881,-0.0639913,0.000125976,0.0,0.0,-0.0
428024963,-0.0309321,-0.0634143,-0.000651609,0.0,0.0,-0.0
428044830,-0.0277857,-0.0613486,0.00104543,0.0,0.0,-0.0
428064711,-0.0269076,-0.0627074,0.000500517,0.0,0.0,-0.0
428084536,-0.0317638,-0.063548,-0.000303647,0.0,0.0,-0.0
428104536,-0.0282363,-0.0610836,-6.15675e-06,0.0,0.0,-0.0
428129461,-0.0244847,-0.061464,0.000854897,0.0,0.0,-0.0
428144204,-0.0308072,-0.0643105,-6.62001e-05,0.0,0.0,-0.0
428164001,-0.0172999,-0.0608419,-0.000291913,0.0,0.0,-0.0
428188831,-0.0252266,-0.0611829,-0.000138057,0.0,0.0,-0.0
428203710,-0.0301855,-0.0645177,0.000853581,0.0,0.0,-0.0
428223532,-0.0183519,-0.0608934,2.47794e-05,0.0,0.0,-0.0
428248373,-0.0270759,-0.0604186,-6.22048e-05,0.0,0.0,-0.0
428268334,-0.0274435,-0.0624552,0.000458566,0.0,0.0,-0.0
428283228,-0.0180075,-0.0623257,-0.000279366,0.0,0.0,-0.0
428308039,-0.0281629,-0.0611856,-0.000441782,0.0,0.0,-0.0
428327862,-0.0267607,-0.0618108,4.83323e-06,0.0,0.0,-0.0
428342821,-0.0169138,-0.0624178,0.000199845,0.0,0.0,-0.0
428367700,-0.0292359,-0.0614585,-0.00023976,0.0,0.0,-0.0
428387704,-0.0273963,-0.0599328,-0.000271197,0.0,0.0,-0.0
428407389,-0.0291728,-0.0623426,0.00109891,0.0,0.0,-0.0
428427230,-0.0288959,-0.062948,0.000475929,0.0,0.0,-0.0
428447129,-0.027584,-0.0615368,-0.000733515,0.0,0.0,-0.0
428467006,-0.0296054,-0.060718,0.000950683,0.0,0.0,-0.0
428486844,-0.0274215,-0.0624956,0.00113957,0.0,0.0,-0.0
428506769,-0.0281325,-0.0610431,-0.00079023,0.0,0.0,-0.0
428526666,-0.0305428,-0.0578508,0.000864158,0.0,0.0,-0.0
428546462,-0.0265669,-0.0622285,0.00118345,0.0,0.0,-0.0
428566298,-0.0287965,-0.0636928,-0.000733267,0.0,0.0,-0.0
428586155,-0.0317444,-0.0583482,7.80612e-05,0.0,0.0,-0.0
428605971,-0.0260549,-0.0598063,0.000974531,0.0,0.0,-0.0
428625843,-0.0281249,-0.0635386,-6.43598e-06,0.0,0.0,-0.0
428645972,-0.0312373,-0.0603321,-6.86338e-05,0.0,0.0,-0.0
428665794,-0.0261819,-0.0578609,0.00112243,0.0,0.0,-0.0
428685553,-0.0279463,-0.0624352,-0.000275931,0.0,0.0,-0.0
428705472,-0.0301914,-0.0625101,0.000294313,0.0,0.0,-0.0
428725324,-0.0269769,-0.056876,0.0010995,0.0,0.0,-0.0
428745149,-0.0263415,-0.0604835,0.000282228,0.0,0.0,-0.0
428764979,-0.0297461,-0.064368,-0.000421167,0.0,0.0,-0.0
428784945,-0.0263566,-0.0598661,0.000187148,0.0,0.0,-0.0
428804763,-0.0246655,-0.0588516,0.00088355,0.0,0.0,-0.0
428829610,-0.0269262,-0.0601577,0.000479849,0.0,0.0,-0.0
428844489,-0.027257,-0.0608437,-0.000161868,0.0,0.0,-0.0
428864249,-0.0261235,-0.0604258,0.000916254,0.0,0.0,-0.0
428889101,-0.0149172,-0.0619683,0.000885661,0.0,0.0,-0.0
428904074,-0.0159225,-0.0622273,-0.000359926,0.0,0.0,-0.0
428924041,-0.0243368,-0.0599637,-0.000598176,0.0,0.0,-0.0
428948878,-0.0150046,-0.0603389,0.000593114,0.0,0.0,-0.0
428968709,-0.0291933,-0.06167,0.00134219,0.0,0.0,-0.0
428983620,-0.0246379,-0.0616369,-0.000741363,0.0,0.0,-0.0
429008453,-0.0256539,-0.0619323,0.000156529,0.0,0.0,-0.0
429028243,-0.0281026,-0.0615865,0.00105886,0.0,0.0,-0.0
429043155,-0.0268636,-0.0599913,-0.00108448,0.0,0.0,-0.0
429068018,-0.0271682,-0.060557,-0.000663918,0.0,0.0,-0.0
429087910,-0.028419,-0.0622001,0.00153335,0.0,0.0,-0.0
429107681,-0.0260796,-0.0628433,0.000632967,0.0,0.0,-0.0
429122577,-0.0269225,-0.0617212,-0.000669148,0.0,0.0,-0.0
429147412,-0.0285625,-0.0592365,0.00111658,0.0,0.0,-0.0
429167351,-0.0257684,-0.0601569,0.00127326,0.0,0.0,-0.0
429182272,-0.0294726,-0.0597591,-0.000814786,0.0,0.0,-0.0
429207146,-0.0307161,-0.0591493,0.000479041,0.0,0.0,-0.0
429226989,-0.0131013,-0.0615985,0.00101413,0.0,0.0,-0.0
429246870,-0.0265482,-0.0628757,-0.000501521,0.0,0.0,-0.0
429266779,-0.0312907,-0.0572601,1.55721e-05,0.0,0.0,-0.0
429286676,-0.0270474,-0.0565616,0.00139671,0.0,0.0,-0.0
429306463,-0.0271846,-0.0625549,0.000590414,0.0,0.0,-0.0
429326177,-0.0307446,-0.0610421,-0.000778844,0.0,0.0,-0.0
429346054,-0.0157042,-0.0553583,0.000737316,0.0,0.0,-0.0
429366071,-0.0247308,-0.0608683,0.000376696,0.0,0.0,-0.0
429385858,-0.0309147,-0.0632828,-0.000473494,0.0,0.0,-0.0
429405702,-0.0301821,-0.0569595,0.000142492,0.0,0.0,-0.0
429425612,-0.0234087,-0.0588268,0.000645968,0.0,0.0,-0.0
429445554,-0.02962,-0.0643761,-0.000652082,0.0,0.0,-0.0
429465456,-0.0303447,-0.0599843,-0.000341654,0.0,0.0,-0.0
429485409,-0.0103868,-0.0562824,0.000511049,0.0,0.0,-0.0
429505157,-0.0153464,-0.0608564,0.000457715,0.0,0.0,-0.0
429530110,-0.029527,-0.0628556,0.00035937,0.0,0.0,-0.0
429545015,-0.0250392,-0.0593113,-0.000135099,0.0,0.0,-0.0
429564686,-0.0137226,-0.0597767,0.000602456,0.0,0.0,-0.0
429584541,-0.0291491,-0.0609384,-0.00033974,0.0,0.0,-0.0
429604351,-0.026999,-0.0579606,-0.000626097,0.0,0.0,-0.0
429624260,-0.0149007,-0.0572516,0.000931988,0.0,0.0,-0.0
429644073,-0.0170157,-0.0592776,0.00114163,0.0,0.0,-0.0
429668981,-0.0283011,-0.0606162,0.000377907,0.0,0.0,-0.0
429683930,-0.0262342,-0.0602767,-0.000150939,0.0,0.0,-0.0
429703763,-0.0274754,-0.0588562,0.00116801,0.0,0.0,-0.0
429728724,-0.0276231,-0.0578985,0.00118317,0.0,0.0,-0.0
429743648,-0.0269499,-0.0778423,-0.000957804,0.0,0.0,-0.0
429763386,-0.0271317,-0.0778229,0.00140919,0.0,0.0,-0.0
429788302,-0.0130083,-0.193912,0.00176148,0.0,0.0,-0.0
429808156,-0.0131727,-0.213407,-1.51038e-05,0.0,0.0,-0.0
429822968,-0.0152548,-0.21002,0.00175401,0.0,0.0,-0.0
429847808,-0.0126331,-0.162455,0.00149504,0.0,0.0,-0.0
429867639,-0.0118282,-0.165246,0.00040788,0.0,0.0,-0.0
429882497,-0.0296721,-0.115336,0.000298848,0.0,0.0,-0.0
429907362,-0.0271413,-0.0663863,0.000887396,0.0,0.0,-0.0
429927238,-0.0109103,-0.0687312,0.000462498,0.0,0.0,-0.0
429947238,-0.00470783,-0.0688764,-0.000561048,0.0,0.0,-0.0
429967048,-0.00476506,-0.0544604,9.16037e-05,0.0,0.0,-0.0
429986954,0.00320434,-0.060102,0.000759647,0.0,0.0,-0.0
430006919,-0.00478363,-0.061646,-0.00032362,0.0,0.0,-0.0
430026660,-0.017097,-0.0552041,-0.000294822,0.0,0.0,-0.0
430046588,-0.0104103,-0.0567878,7.85622e-06,0.0,0.0,-0.0
430066580,-0.016096,-0.0626501,0.000850897,0.0,0.0,-0.0
430086304,-0.0158968,-0.0595176,-0.00037672,0.0,0.0,-0.0
430106099,-0.0120225,-0.0550394,-0.000369277,0.0,0.0,-0.0
430126016,-0.0136034,-0.0606111,0.00044081,0.0,0.0,-0.0
430145837,-0.0170934,-0.0593538,-0.000778462,0.0,0.0,-0.0
430165703,-0.0125319,-0.0550388,-0.000843121,0.0,0.0,-0.0
430185531,-0.0136152,-0.0578212,0.00081923,0.0,0.0,-0.0
430205404,-0.0157995,-0.0614329,0.000227261,0.0,0.0,-0.0
430225286,-0.0139677,-0.0589207,-0.000459328,0.0,0.0,-0.0
430245304,-0.0147917,-0.0558108,0.000836139,0.0,0.0,-0.0
430265166,-0.0157403,-0.0572166,0.00120284,0.0,0.0,-0.0
430285015,-0.0149832,-0.0584773,-0.000230706,0.0,0.0,-0.0
430304846,-0.0135013,-0.0583522,-1.97395e-05,0.0,0.0,-0.0
430324628,-0.0156847,-0.0591505,0.00139236,0.0,0.0,-0.0
430344503,-0.0150223,-0.0605962,0.000125583,0.0,0.0,-0.0
430369300,-0.0137318,-0.0592758,-0.000871151,0.0,0.0,-0.0
430384246,-0.0163094,-0.0565591,0.00145664,0.0,0.0,-0.0
430404228,-0.0142882,-0.0568171,0.00109671,0.0,0.0,-0.0
430428999,-0.0123919,-0.0592194,-0.000421189,0.0,0.0,-0.0
430443908,-0.0154499,-0.0599744,0.00106024,0.0,0.0,-0.0
430463767,-0.0132884,-0.0597867,0.00140841,0.0,0.0,-0.0
430488540,-0.0113277,-0.0597885,7.73517e-05,0.0,0.0,-0.0
430508344,-0.0169608,-0.0583703,-0.000739221,0.0,0.0,-0.0
430523302,-0.0134166,-0.057583,0.00133819,0.0,0.0,-0.0
430548378,-0.0236826,-0.0598499,0.00100018,0.0,0.0,-0.0
430568056,-0.0281007,-0.0596727,-0.0010361,0.0,0.0,-0.0
430582958,-0.0252871,-0.0581116,0.000777056,0.0,0.0,-0.0
430607814,-0.0247193,-0.0573709,0.00107576,0.0,0.0,-0.0
430627665,-0.0148656,-0.0594563,-0.000770765,0.0,0.0,-0.0
430647548,-0.0189849,-0.0652181,-9.75532e-05,0.0,0.0,-0.0
430667410,-0.0127439,-0.0577374,0.00132966,0.0,0.0,-0.0
430687232,-0.0151643,-0.0624561,0.000501871,0.0,0.0,-0.0
430707136,-0.0184823,-0.0581004,-0.00019238,0.0,0.0,-0.0
430721984,-0.0102161,-0.0569046,0.00017862,0.0,0.0,-0.0
430746753,-0.0150253,-0.0578188,-0.000198734,0.0,0.0,-0.0
430766686,-0.0188577,-0.0608038,0.000319164,0.0,0.0,-0.0
430786565,-0.0162012,-0.0551009,0.000842409,0.0,0.0,-0.0
430806526,-0.0132462,-0.0579915,0.000622391,0.0,0.0,-0.0
430826385,-0.0170963,-0.0618597,-1.29722e-05,0.0,0.0,-0.0
430846149,-0.0164657,-0.0560775,-0.000143287,0.0,0.0,-0.0
430866070,-0.0121904,-0.0534046,0.000824798,0.0,0.0,-0.0
430886057,-0.0164291,-0.0567846,0.000731848,0.0,0.0,-0.0
430905858,-0.0158635,-0.0572395,-0.000559864,0.0,0.0,-0.0
430925704,-0.0127532,-0.056813,0.00022292,0.0,0.0,-0.0
430945535,-0.0167091,-0.0578928,0.000902579,0.0,0.0,-0.0
430965423,-0.0161926,-0.0573065,-0.000953014,0.0,0.0,-0.0
430985181,-0.0115859,-0.0552817,-0.00124798,0.0,0.0,-0.0
431005086,-0.0159697,-0.0554117,0.000982078,0.0,0.0,-0.0
431024911,-0.0163631,-0.0553691,0.000220216,0.0,0.0,-0.0
431044800,-0.0140114,-0.0562077,-0.00103858,0.0,0.0,-0.0
431069776,-0.013913,-0.0562889,-0.000537162,0.0,0.0,-0.0
431084741,-0.0141485,-0.0570462,0.000806661,0.0,0.0,-0.0
431104553,-0.014531,-0.0548318,-0.00112649,0.0,0.0,-0.0
431129349,-0.0164665,-0.055015,-0.000641423,0.0,0.0,-0.0
431144243,-0.0158695,-0.0560873,0.00133964,0.0,0.0,-0.0
431164132,-0.011659,-0.0576814,-0.000773146,0.0,0.0,-0.0
431188923,-0.015109,-0.0565517,-0.000633217,0.0,0.0,-0.0
431208828,-0.0153488,-0.0537609,0.000259461,0.0,0.0,-0.0
431223726,-0.0133365,-0.0563857,0.000290464,0.0,0.0,-0.0
431243528,-0.0162232,-0.0559363,-0.000739601,0.0,0.0,-0.0
431268345,-0.018028,-0.0541998,-0.000268281,0.0,0.0,-0.0
431283210,-0.0130421,-0.0572775,0.00085595,0.0,0.0,-0.0
431303153,-0.0158119,-0.0580178,-0.00105946,0.0,0.0,-0.0
431328005,-0.0181202,-0.055775,-0.000365754,0.0,0.0,-0.0
431348025,-0.0147984,-0.0510411,0.000653483,0.0,0.0,-0.0
431362872,-0.0172089,-0.0596164,0.000214349,0.0,0.0,-0.0
431387660,-0.018811,-0.0590894,0.00019803,0.0,0.0,-0.0
431407571,-0.0171271,-0.0521597,0.000481913,0.0,0.0,-0.0
431422488,-0.0160933,-0.0567803,-0.000171945,0.0,0.0,-0.0
431447139,-0.0173431,-0.0690404,0.000115497,0.0,0.0,-0.0
431467071,-0.0179024,-0.0559986,-0.000124064,0.0,0.0,-0.0
431486850,-0.0112029,-0.0626291,0.000309782,0.0,0.0,-0.0
431506782,-0.0156321,-0.0667366,0.000871851,0.0,0.0,-0.0
431526634,-0.0174145,-0.0564404,-0.000826922,0.0,0.0,-0.0
431546506,-0.012269,-0.0540903,-0.000601614,0.0,0.0,-0.0
431566388,-0.0145053,-0.0550581,0.000795462,0.0,0.0,-0.0
431586380,-0.0156213,-0.0577346,-0.000217529,0.0,0.0,-0.0
431606248,-0.0150979,-0.0553761,-0.000878412,0.0,0.0,-0.0
431626274,-0.0145073,-0.0531759,0.000732311,0.0,0.0,-0.0
431645961,-0.0163353,-0.0542418,0.000955371,0.0,0.0,-0.0
431665993,-0.0151798,-0.0561354,-0.000852401,0.0,0.0,-0.0
431685690,-0.0134929,-0.0556564,-0.00038765,0.0,0.0,-0.0
431705616,-0.0172838,-0.0542977,0.00144252,0.0,0.0,-0.0
431725518,-0.0139034,-0.0564529,0.000151011,0.0,0.0,-0.0
431745154,-0.0156147,-0.056021,-0.00149462,0.0,0.0,-0.0
431765000,-0.019182,-0.0527216,0.00186359,0.0,0.0,-0.0149816
431784868,-0.0136671,-0.0545804,0.00126787,0.0,0.0,-0.0224725
431804863,-0.0163123,-0.0557757,-0.00103058,0.0,0.0,-0.0411995
431824653,-0.0186198,-0.0538966,0.000558135,0.0,0.0,-0.0411995
431844572,-0.0138981,-0.0543802,0.00140391,0.0,0.0,-0.0411995
431864492,-0.0258957,-0.0560559,-0.000158871,0.0,0.0,-0.0524357
431884441,-0.0305013,-0.0538562,-0.00108919,0.0,0.0,-0.0524357
431909150,-0.0215352,-0.0527499,-0.00051685,0.0,0.0,-0.0986291
431924091,-0.00993144,-0.0558988,0.00174495,0.0,0.0,-0.0986291
431943918,-0.0136345,-0.0589413,0.0703912,0.0,0.0,-0.166316
431968769,-0.0121208,-0.0610757,0.0415528,0.0,0.0,-0.167368
431983647,-0.0263937,-0.0445712,0.00563631,0.0,0.0,-0.169474
432003525,-0.0259099,-0.0428425,0.00605835,0.0,0.0,-0.168421
432028365,-0.0280732,-0.0417171,0.00624837,0.0,0.0,-0.169474
432048246,-0.0308857,-0.0470139,0.0062881,0.0,0.0,-0.169474
432063067,-0.0265837,-0.0536994,0.00684598,0.0,0.0,-0.169474
432087907,-0.0219409,-0.0600907,0.00607548,0.0,0.0,-0.171579
432107816,-0.0126451,-0.0650002,0.00646447,0.0,0.0,-0.171579
432122670,-0.019644,-0.0533723,0.00614576,0.0,0.0,-0.171579
432147749,-0.0132508,-0.0592319,0.00659108,0.0,0.0,-0.169474
432167499,-0.018304,-0.0551918,0.00744242,0.0,0.0,-0.169474
432187358,-0.0339316,-0.0503315,0.00730286,0.0,0.0,-0.167368
432207239,-0.0354955,-0.0492592,0.00738639,0.0,0.0,-0.169474
432227098,-0.0214739,-0.0564126,0.00700833,0.0,0.0,-0.171579
432246983,-0.0025435,-0.0625179,0.00582854,0.0,0.0,-0.172632
432266782,0.0044161,-0.0707819,0.00561218,0.0,0.0,-0.172632
432286542,-0.00887005,-0.0519149,0.00569274,0.0,0.0,-0.172632
432306643,-0.0226337,-0.052632,0.00614653,0.0,0.0,-0.172632
432326362,-0.023919,-0.0574735,0.00829303,0.0,0.0,-0.172632
432346219,-0.0132141,-0.0585492,0.00551611,0.0,0.0,-0.172632
432366073,-0.00922123,-0.0662231,0.00745903,0.0,0.0,-0.172632
432385974,-0.020179,-0.059805,0.0060449,0.0,0.0,-0.172632
432405868,-0.0301943,-0.0484053,0.00761236,0.0,0.0,-0.171579
432425960,-0.0348287,-0.0516742,0.00665158,0.0,0.0,-0.171579
432445643,-0.0158774,-0.069563,0.00678782,0.0,0.0,-0.171579
432465511,-0.0137593,-0.0606611,0.0066301,0.0,0.0,-0.171579
432485428,-0.0210845,-0.0564617,0.00623577,0.0,0.0,-0.171579
432505262,-0.0230729,-0.0514049,0.00679681,0.0,0.0,-0.171579
432525054,-0.034783,-0.0487004,0.00667284,0.0,0.0,-0.169474
432544827,-0.0344034,-0.0510976,0.00665221,0.0,0.0,-0.169474
432564712,-0.0116344,-0.0564774,0.00779097,0.0,0.0,-0.169474
432584572,-0.00959178,-0.0605039,0.00678007,0.0,0.0,-0.169474
432609459,-0.0181888,-0.0557711,0.005259,0.0,0.0,-0.167368
432624368,-0.0285896,-0.054449,0.00770226,0.0,0.0,-0.167368
432644326,-0.00947523,-0.051349,0.00515887,0.0,0.0,-0.168421
432669204,-0.015817,-0.0590258,0.00736551,0.0,0.0,-0.167368
432684177,-0.00428816,-0.0648477,0.00655141,0.0,0.0,-0.167368
432704138,-0.015987,-0.0504592,0.0059468,0.0,0.0,-0.167368
432728733,-0.0196617,-0.0571843,0.00657961,0.0,0.0,-0.166316
432748636,-0.0122061,-0.0595843,0.0053908,0.0,0.0,-0.166316
432763554,-0.0188073,-0.0551987,0.00613402,0.0,0.0,-0.166316
432788413,-0.0101863,-0.0480416,0.00741471,0.0,0.0,-0.164211
432808166,-0.0223856,-0.0451963,0.00574631,0.0,0.0,-0.164211
432822989,-0.0192632,-0.0465864,0.00583484,0.0,0.0,-0.164211
432847819,-0.0130833,-0.0557471,0.0059826,0.0,0.0,-0.164211
432867690,0.00577478,-0.0591853,0.00615023,0.0,0.0,-0.164211
432887752,0.0053211,-0.0569971,0.00516587,0.0,0.0,-0.164211
432902565,0.00539363,-0.0584258,0.00644244,0.0,0.0,-0.164211
432927394,-0.0202135,-0.0457271,0.00599366,0.0,0.0,-0.164211
432947326,-0.0286688,-0.0499423,0.00777161,0.0,0.0,-0.163158
432962338,-0.0364419,-0.0448307,0.00635985,0.0,0.0,-0.163158
432987051,-0.0205509,-0.0552176,0.0067416,0.0,0.0,-0.163158
433006949,-0.0257825,-0.0497197,0.00459122,0.0,0.0,-0.164211
433026735,-0.0280755,-0.0464246,0.00552672,0.0,0.0,-0.164211
433046581,-0.0193138,-0.0464919,0.00607233,0.0,0.0,-0.164211
433066413,-0.0156137,-0.049093,0.00660857,0.0,0.0,-0.163158
433086248,-0.018839,-0.0516159,0.00755442,0.0,0.0,-0.163158
433106103,-0.0180233,-0.0494443,0.00634077,0.0,0.0,-0.163158
433126086,-0.00422334,-0.0491551,0.0065175,0.0,0.0,-0.163158
433145943,0.00238289,-0.0534077,0.00641272,0.0,0.0,-0.163158
433165806,-0.00396862,-0.0521552,0.00453078,0.0,0.0,-0.162105
433185672,-0.0100054,-0.0499093,0.00457272,0.0,0.0,-0.162105
433205565,-0.0162546,-0.0493844,0.00575749,0.0,0.0,-0.162105
433225493,-0.0299372,-0.0459929,0.00708928,0.0,0.0,-0.162105
433245392,-0.0286144,-0.045032,0.0078842,0.0,0.0,-0.162105
433265115,-0.0229674,-0.0459703,0.00498506,0.0,0.0,-0.162105
433284979,-0.0102514,-0.0510725,0.00554435,0.0,0.0,-0.162105
433309839,-0.011231,-0.0513349,0.00718971,0.0,0.0,-0.162105
433324707,-0.0026441,-0.0539128,0.00563491,0.0,0.0,-0.162105
433344631,-0.00860138,-0.0487035,0.0075778,0.0,0.0,-0.162105
433369461,-0.0190074,-0.0462868,0.00507888,0.0,0.0,-0.162105
433384353,-0.0213255,-0.0421328,0.00774412,0.0,0.0,-0.162105
433404181,-0.015568,-0.0479708,0.00460145,0.0,0.0,-0.162105
433424095,0.00502294,-0.0570767,0.00679413,0.0,0.0,-0.162105
433448888,-0.0219357,-0.0474305,0.00649533,0.0,0.0,-0.162105
433463875,-0.00236677,-0.0485061,0.00614786,0.0,0.0,-0.162105
433483823,-0.018852,-0.0397471,0.00590295,0.0,0.0,-0.162105
433508723,-0.0112917,-0.0644382,0.0062408,0.0,0.0,-0.162105
433523463,-0.0167395,-0.0517686,0.00560512,0.0,0.0,-0.162105
433543360,-0.0117424,-0.0551559,0.00610073,0.0,0.0,-0.162105
433568101,-0.0276282,-0.0415726,0.00554708,0.0,0.0,-0.162105
433588088,-0.0243943,-0.0443151,0.00737317,0.0,0.0,-0.162105
433603034,-0.029088,-0.0404709,0.00613697,0.0,0.0,-0.162105
433627790,-0.00385523,-0.0533268,0.00562288,0.0,0.0,-0.162105
433647666,-0.00409982,-0.0493947,0.0060575,0.0,0.0,-0.162105
433662507,-0.00727994,-0.0560195,0.00702637,0.0,0.0,-0.162105
433687360,-0.0191497,-0.0533311,0.00617366,0.0,0.0,-0.161053
433707124,-0.0169864,-0.0464244,0.00691439,0.0,0.0,-0.161053
433727018,-0.0140948,-0.0471307,0.00356576,0.0,0.0,-0.161053
433746904,-0.0021109,-0.0505929,0.00642426,0.0,0.0,-0.161053
433767003,-0.00444947,-0.0484519,0.00468108,0.0,0.0,-0.161053
433786790,-0.00633658,-0.0463818,0.00645861,0.0,0.0,-0.161053
433806630,-0.0198848,-0.0387388,0.00577365,0.0,0.0,-0.161053
433826538,-0.0322352,-0.0381035,0.00813352,0.0,0.0,-0.161053
433846350,-0.0331338,-0.0413783,0.00649554,0.0,0.0,-0.161053
433866112,-0.0215518,-0.0492364,0.00561616,0.0,0.0,-0.161053
433885944,-0.0101645,-0.0483917,0.00414512,0.0,0.0,-0.161053
433905815,-0.0150816,-0.0552823,0.00661416,0.0,0.0,-0.161053
433925751,-0.0277035,-0.0399436,0.0075928,0.0,0.0,-0.161053
433945671,-0.0351983,-0.03966,0.00751576,0.0,0.0,-0.161053
433965546,-0.027821,-0.0454294,0.0074586,0.0,0.0,-0.16
433985410,-0.0147927,-0.0517715,0.00706212,0.0,0.0,-0.16
434005325,-0.00554435,-0.0521122,0.00766405,0.0,0.0,-0.16
434025196,-0.0138221,-0.0456878,0.00812125,0.0,0.0,-0.16
434045236,-0.0309209,-0.0395705,0.00663166,0.0,0.0,-0.16
434064898,-0.0421663,-0.0389735,0.00807357,0.0,0.0,-0.16
434084816,-0.0225357,-0.0476948,0.00862209,0.0,0.0,-0.16
434104611,-0.00314158,-0.0537055,0.00764439,0.0,0.0,-0.16
434124522,-0.00467531,-0.0503724,0.00611506,0.0,0.0,-0.16
434149303,-0.0206331,-0.0404458,0.00736645,0.0,0.0,-0.16
434164142,-0.0257025,-0.0371092,0.00756341,0.0,0.0,-0.16
434184099,-0.0217127,-0.0446239,0.00704681,0.0,0.0,-0.16
434208840,0.000592699,-0.0461834,0.00857007,0.0,0.0,-0.16
434223746,-0.00397465,-0.0469968,0.00658913,0.0,0.0,-0.16
434243609,-0.0047679,-0.0449331,0.00986205,0.0,0.0,-0.16
434268467,-0.0260029,-0.0445026,0.00694819,0.0,0.0,-0.16
434288424,-0.00663803,-0.0533439,0.00713159,0.0,0.0,-0.16
434303475,-0.0156587,-0.0461176,0.00483159,0.0,0.0,-0.16
434328120,-0.0189925,-0.0407907,0.00749819,0.0,0.0,-0.16
434348014,-0.0318764,-0.0333337,0.00938841,0.0,0.0,-0.16
434362878,-0.0156155,-0.0328441,0.00699394,0.0,0.0,-0.16
434387683,-0.0236215,-0.0446467,0.00851874,0.0,0.0,-0.16
434407520,-0.0110306,-0.0473413,0.00747893,0.0,0.0,-0.16
434427540,-0.0130476,-0.0435627,0.00791189,0.0,0.0,-0.16
434447309,-0.0216948,-0.0410044,0.00828045,0.0,0.0,-0.16
434467174,-0.0282413,-0.0381598,0.00742278,0.0,0.0,-0.16
434487063,-0.0201447,-0.0380196,0.00941603,0.0,0.0,-0.16
434506882,-0.0130633,-0.0406152,0.00947908,0.0,0.0,-0.16
434526742,-0.029243,-0.0438266,0.0075473,0.0,0.0,-0.16
434546557,-0.0194554,-0.041272,0.006202,0.0,0.0,-0.16
434566626,-0.0326334,-0.043644,0.00756095,0.0,0.0,-0.16
434586636,-0.0313172,-0.0418472,0.00738262,0.0,0.0,-0.161053
434606305,-0.0244477,-0.0412879,0.00916858,0.0,0.0,-0.161053
434626132,-0.0195438,-0.0408871,0.00924186,0.0,0.0,-0.161053
434646003,-0.0123409,-0.0384782,0.00732846,0.0,0.0,-0.161053
434665943,-0.020578,-0.0384948,0.0103067,0.0,0.0,-0.161053
434685725,-0.0296851,-0.036531,0.00886652,0.0,0.0,-0.161053
434705539,-0.0364302,-0.0369294,0.00619703,0.0,0.0,-0.161053
434725484,-0.00986583,-0.044237,0.00701185,0.0,0.0,-0.161053
434745342,-0.0148078,-0.0477071,0.00788152,0.0,0.0,-0.161053
434765216,-0.00187974,-0.0464599,0.0078743,0.0,0.0,-0.161053
434785148,-0.0238774,-0.0406024,0.00818423,0.0,0.0,-0.161053
434804855,-0.0382781,-0.0355182,0.00716604,0.0,0.0,-0.161053
434824764,-0.0280048,-0.0342198,0.00868617,0.0,0.0,-0.161053
434849770,-0.00528484,-0.0442183,0.00971111,0.0,0.0,-0.161053
434864575,-0.0095952,-0.0435275,0.00824511,0.0,0.0,-0.161053
434884438,-0.00386095,-0.0443086,0.00779301,0.0,0.0,-0.161053
434909320,-0.0400771,-0.037654,0.00630447,0.0,0.0,-0.161053
434924207,-0.0246401,-0.0383331,0.00899096,0.0,0.0,-0.161053
434944077,-0.0322849,-0.037037,0.0110315,0.0,0.0,-0.161053
434968856,-0.00694052,-0.0405011,0.00974598,0.0,0.0,-0.161053
434988688,-0.0112016,-0.0361868,0.00791002,0.0,0.0,-0.161053
435003580,-0.0145008,-0.0431192,0.00838731,0.0,0.0,-0.161053
435028456,-0.0201122,-0.0415637,0.0107368,0.0,0.0,-0.161053
435048271,-0.0204267,-0.0423974,0.0113904,0.0,0.0,-0.161053
435063171,-0.029053,-0.0358243,0.009076,0.0,0.0,-0.161053
435083065,-0.0235239,-0.0355946,0.0109034,0.0,0.0,-0.16
435107990,-0.0173249,-0.03949,0.00820656,0.0,0.0,-0.16
435127773,-0.0163358,-0.0418162,0.00815309,0.0,0.0,-0.16
435142861,-0.0103606,-0.0451046,0.00933641,0.0,0.0,-0.158947
435167641,-0.0306934,-0.0373507,0.00927751,0.0,0.0,-0.16
435187567,-0.035247,-0.0304721,0.0103042,0.0,0.0,-0.16
435202452,-0.0207272,-0.0365258,0.00955883,0.0,0.0,-0.16
435227259,-0.0118324,-0.0370921,0.00786881,0.0,0.0,-0.16
435247058,0.0014204,-0.0475565,0.00860101,0.0,0.0,-0.16
435266777,-0.0181435,-0.0473609,0.0083859,0.0,0.0,-0.16
435286651,-0.024265,-0.0433164,0.0108162,0.0,0.0,-0.16
435306512,-0.038192,-0.0303641,0.0095299,0.0,0.0,-0.16
435326396,-0.0230969,-0.0333222,0.010602,0.0,0.0,-0.16
435346301,-0.0134601,-0.0384441,0.00778246,0.0,0.0,-0.161053
435366339,0.00155682,-0.0467605,0.0103516,0.0,0.0,-0.16
435386234,-0.00096616,-0.0441504,0.00981892,0.0,0.0,-0.16
435406014,-0.0270469,-0.0374365,0.0101638,0.0,0.0,-0.16
435426004,-0.0401042,-0.0295881,0.00960781,0.0,0.0,-0.16
435445796,-0.0278293,-0.0315437,0.00991919,0.0,0.0,-0.16
435465592,-0.00923872,-0.0382741,0.0105145,0.0,0.0,-0.16
435485376,-0.00511894,-0.0415668,0.00845357,0.0,0.0,-0.16
435505208,-0.00666331,-0.0390073,0.0111027,0.0,0.0,-0.16
435525077,-0.0202878,-0.0312265,0.00921144,0.0,0.0,-0.16
435545050,-0.0269688,-0.0315401,0.0127816,0.0,0.0,-0.16
435564842,-0.0240844,-0.035043,0.0104493,0.0,0.0,-0.16
435584720,-0.00669071,-0.0397055,0.0103964,0.0,0.0,-0.16
435604673,0.00406889,-0.041369,0.0081985,0.0,0.0,-0.16
435624520,-0.0122311,-0.0315263,0.00921864,0.0,0.0,-0.16
435644416,-0.0222632,-0.0313837,0.0114351,0.0,0.0,-0.16
435664311,-0.0265665,-0.0414085,0.0120248,0.0,0.0,-0.16
435689124,-0.0229784,-0.0379251,0.0118193,0.0,0.0,-0.16
435704039,-0.0247757,-0.0406576,0.0105773,0.0,0.0,-0.16
435723943,-0.0149557,-0.036351,0.0101294,0.0,0.0,-0.158947
435748725,-0.0284841,-0.0358965,0.00943998,0.0,0.0,-0.16
435763519,-0.0161324,-0.0337282,0.0114685,0.0,0.0,-0.16
435783399,-0.0242231,-0.0327952,0.0114153,0.0,0.0,-0.166316
435808172,-0.0166222,-0.0324691,0.0122615,0.0,0.0,-0.178947
435828222,-0.00858018,-0.0339439,0.009923,0.0,0.0,-0.18
435843031,-0.03318,-0.0359451,0.0111934,0.0,0.0,-0.18
435867871,-0.0219655,-0.034443,0.0117082,0.0,0.0,-0.177895
435887783,-0.0325084,-0.0342206,0.0109513,0.0,0.0,-0.178947
435902769,-0.0287013,-0.0369886,0.0111591,0.0,0.0,-0.178947
435927623,-0.0181494,-0.042259,0.0111825,0.0,0.0,-0.178947
435947415,-0.00205632,-0.036735,0.0119713,0.0,0.0,-0.178947
435967295,-0.00124809,-0.0405055,0.00934068,0.0,0.0,-0.178947
435987167,-0.00583339,-0.0384865,0.0114205,0.0,0.0,-0.178947
436007176,-0.0178967,-0.0321321,0.0110536,0.0,0.0,-0.178947
436026810,-0.0359431,-0.0302264,0.0143014,0.0,0.0,-0.178947
436046642,-0.0160186,-0.0340091,0.0116883,0.0,0.0,-0.18
436066466,-0.0210733,-0.0508443,0.0110441,0.0,0.0,-0.18
436086418,-0.023404,-0.0488087,0.0126896,0.0,0.0,-0.18
436106260,-0.0380195,-0.0301833,0.0121642,0.0,0.0,-0.18
436126242,-0.0451799,-0.0265338,0.0133236,0.0,0.0,-0.18
436146043,-0.0338542,-0.0318446,0.0105813,0.0,0.0,-0.18
436165936,-0.017128,-0.0438705,0.0111784,0.0,0.0,-0.18
436185931,-0.0254219,-0.0498455,0.0130887,0.0,0.0,-0.181053
436205680,-0.0301582,-0.0424608,0.0130346,0.0,0.0,-0.182105
436225495,-0.0442292,-0.0343174,0.0128091,0.0,0.0,-0.182105
436245364,-0.0244477,-0.0394214,0.0121457,0.0,0.0,-0.183158
436265288,-0.0145728,-0.0367399,0.0128748,0.0,0.0,-0.183158
436285077,-0.0327267,-0.0262662,0.0117953,0.0,0.0,-0.183158
436304973,-0.0367456,-0.0323324,0.0146586,0.0,0.0,-0.184211
436324843,-0.00921167,-0.0398489,0.0125234,0.0,0.0,-0.201053
436344725,0.00170979,-0.0376497,0.0117479,0.0,0.0,-0.215789
436364587,-0.0222964,-0.0303776,0.0148202,0.0,0.0,-0.225263
436389375,-0.010205,-0.0405556,0.0144848,0.0,0.0,-0.225263
436404287,-0.00612141,-0.0408266,0.0122179,0.0,0.0,-0.225263
436424207,-0.0138238,-0.0356257,0.0111825,0.0,0.0,-0.226316
436449136,-0.0365838,-0.0364652,0.0118647,0.0,0.0,-0.226316
436464102,-0.0195016,-0.0339402,0.013622,0.0,0.0,-0.226316
436483882,-0.0195677,-0.0324211,0.0130911,0.0,0.0,-0.227368
436508655,-0.00845981,-0.0297289,0.0143852,0.0,0.0,-0.237895
436528552,-0.0136582,-0.035032,0.00923697,0.0,0.0,-0.237895
436543486,-0.0196951,-0.0347509,0.00986043,0.0,0.0,-0.237895
436568371,-0.0163541,-0.0342935,0.0149438,0.0,0.0,-0.237895
436588180,-0.0357371,-0.0384713,0.0151744,0.0,0.0,-0.237895
436603002,-0.0323211,-0.0288605,0.0148641,0.0,0.0,-0.237895
436627860,-0.0224367,-0.0445921,0.011967,0.0,0.0,-0.237895
436647730,-0.034585,-0.0216554,0.0140703,0.0,0.0,-0.235789
436667597,-0.0317901,-0.0335145,0.0141742,0.0,0.0,-0.233684
436687419,-0.000583161,-0.040595,0.0122443,0.0,0.0,-0.232632
436707348,-0.0206443,-0.0251175,0.0131407,0.0,0.0,-0.232632
436727272,-0.0190054,-0.0327228,0.0127958,0.0,0.0,-0.232632
436742093,-0.0189191,-0.029352,0.0155699,0.0,0.0,-0.232632
436766986,-0.0168204,-0.0226268,0.0155708,0.0,0.0,-0.232632
436786868,-0.00787404,-0.0337893,0.0137792,0.0,0.0,-0.232632
436806743,-0.00137036,-0.0387982,0.0111438,0.0,0.0,-0.232632
436826520,-0.019244,-0.0310698,0.0144176,0.0,0.0,-0.232632
436846392,-0.0154715,-0.0296209,0.0148988,0.0,0.0,-0.232632
436866222,-0.0119155,-0.031426,0.0118673,0.0,0.0,-0.232632
436886037,-0.00693964,-0.0337208,0.0129725,0.0,0.0,-0.232632
436905913,-0.014727,-0.027341,0.0136171,0.0,0.0,-0.234737
436925830,-0.0231712,-0.0297163,0.0149913,0.0,0.0,-0.235789
436945798,9.01286e-05,-0.0440825,0.0144543,0.0,0.0,-0.235789
436965623,-0.0107754,-0.0312616,0.015543,0.0,0.0,-0.235789
436985553,-0.032265,-0.0211059,0.0138926,0.0,0.0,-0.235789
437005530,-0.0112004,-0.0370906,0.0134766,0.0,0.0,-0.236842
437025237,-0.00229972,-0.0319663,0.0126611,0.0,0.0,-0.236842
437045146,-0.0225846,-0.028634,0.0154426,0.0,0.0,-0.236842
437065151,-0.0110067,-0.0432876,0.0141311,0.0,0.0,-0.236842
437089736,-0.0245552,-0.0300463,0.014896,0.0,0.0,-0.236842
437104717,-0.0263839,-0.0294069,0.0144162,0.0,0.0,-0.236842
437124644,-0.0103833,-0.0350213,0.0135078,0.0,0.0,-0.236842
437149395,-0.0182008,-0.0295765,0.0155725,0.0,0.0,-0.236842
437164276,-0.0282103,-0.0298075,0.0156672,0.0,0.0,-0.236842
437184107,-0.0229326,-0.0375425,0.0133523,0.0,0.0,-0.236842
437203963,-0.0249851,-0.0342557,0.0147393,0.0,0.0,-0.236842
437228807,-0.0240834,-0.0325351,0.0159905,0.0,0.0,-0.237895
437243893,-0.0298118,-0.0291632,0.0156734,0.0,0.0,-0.237895
437263758,-0.0316152,-0.0257442,0.013576,0.0,0.0,-0.237895
437288595,-0.0210867,-0.026775,0.013256,0.0,0.0,-0.237895
437303408,-0.0153069,-0.0311695,0.0131983,0.0,0.0,-0.237895
437323250,-0.0399127,-0.0368398,0.0150536,0.0,0.0,-0.237895
437348091,-0.0161877,-0.0303735,0.0156068,0.0,0.0,-0.237895
437367907,-0.0328568,-0.0189382,0.0174068,0.0,0.0,-0.236842
437382814,-0.0364632,-0.0179179,0.0162772,0.0,0.0,-0.236842
437407675,-0.0150634,-0.0421609,0.0132037,0.0,0.0,-0.235789
437427567,-0.0389172,-0.0244883,0.0156373,0.0,0.0,-0.235789
437442433,-0.0362641,-0.0232994,0.0162996,0.0,0.0,-0.235789
437467329,-0.0221578,-0.0286234,0.0177113,0.0,0.0,-0.235789
437487121,-0.0375589,-0.0218308,0.0186989,0.0,0.0,-0.235789
437507058,-0.00791695,-0.0314418,0.0152488,0.0,0.0,-0.234737
437527071,-0.023208,-0.0165627,0.0135991,0.0,0.0,-0.234737
437546797,-0.0337713,-0.0249105,0.0153606,0.0,0.0,-0.235789
437566622,-0.0169902,-0.0277259,0.0143294,0.0,0.0,-0.237895
437586489,-0.0310606,-0.0219177,0.0172678,0.0,0.0,-0.237895
437606414,-0.0276818,-0.0326225,0.0164231,0.0,0.0,-0.237895
437626262,-0.015371,-0.0381653,0.0138721,0.0,0.0,-0.237895
437646212,-0.0247081,-0.0324706,0.0158556,0.0,0.0,-0.237895
437665998,-0.0254612,-0.0355793,0.0167602,0.0,0.0,-0.237895
437685843,-0.0264571,-0.023299,0.0150562,0.0,0.0,-0.237895
437705662,-0.0216664,-0.0251795,0.0149125,0.0,0.0,-0.24
437725556,-0.0255874,-0.0277723,0.0156626,0.0,0.0,-0.24
437745329,-0.031641,-0.0289446,0.0171663,0.0,0.0,-0.24
437765207,-0.0158801,-0.0341441,0.0168212,0.0,0.0,-0.24
437785229,-0.00710121,-0.0317672,0.0158063,0.0,0.0,-0.241053
437805130,-0.0319231,-0.0198996,0.0143129,0.0,0.0,-0.248421
437824952,-0.0367581,-0.0267324,0.0125043,0.0,0.0,-0.248421
437844785,-0.0197098,-0.0302733,0.0152671,0.0,0.0,-0.253684
437864633,-0.0364769,-0.019127,0.0168798,0.0,0.0,-0.253684
437884501,-0.0359938,-0.0297482,0.0149228,0.0,0.0,-0.253684
437904363,-0.0137843,-0.0336253,0.0136085,0.0,0.0,-0.254737
437929212,-0.026257,-0.0300194,0.015479,0.0,0.0,-0.256842
437944099,-0.0236345,-0.0295308,0.0161823,0.0,0.0,-0.255789
437963968,-0.0191246,-0.0268004,0.0156984,0.0,0.0,-0.256842
437988812,-0.0210259,-0.0348739,0.0138155,0.0,0.0,-0.256842
438003656,-0.0159505,-0.0351594,0.0135528,0.0,0.0,-0.256842
438023521,-0.022512,-0.027183,0.0153316,0.0,0.0,-0.256842
438048393,-0.0221032,-0.0301424,0.0151186,0.0,0.0,-0.26
438068407,-0.0242673,-0.0224592,0.0158588,0.0,0.0,-0.26
438083450,-0.0267436,-0.0337824,0.0156753,0.0,0.0,-0.262105
438108100,-0.0252081,-0.0302329,0.0148541,0.0,0.0,-0.262105
438128011,-0.0274861,-0.0296334,0.016695,0.0,0.0,-0.266316
438142818,-0.01847,-0.0419609,0.0167085,0.0,0.0,-0.269474
438167568,-0.0377538,-0.0265322,0.0160188,0.0,0.0,-0.277895
438187488,-0.023037,-0.0298935,0.0163648,0.0,0.0,-0.282105
438207281,-0.0132151,-0.0293073,0.0156241,0.0,0.0,-0.283158
438227253,-0.0293299,-0.0253267,0.016577,0.0,0.0,-0.283158
438247091,-0.0242129,-0.0335581,0.0177157,0.0,0.0,-0.285263
438266964,-0.0238891,-0.0228377,0.0173696,0.0,0.0,-0.285263
438286852,-0.0360191,-0.0263619,0.0166348,0.0,0.0,-0.285263
438306753,-0.0146414,-0.0373764,0.0149769,0.0,0.0,-0.287368
438326598,-0.0330494,-0.0155187,0.0165721,0.0,0.0,-0.290526
438346613,-0.0275519,-0.0223818,0.0160298,0.0,0.0,-0.298947
438366409,-0.0230942,-0.0164942,0.0155689,0.0,0.0,-0.298947
438386255,-0.0278978,-0.0202394,0.017173,0.0,0.0,-0.298947
438406104,-0.0144215,-0.0312146,0.0141575,0.0,0.0,-0.298947
438425981,-0.0286798,-0.0248327,0.0164714,0.0,0.0,-0.298947
438445723,-0.0183842,-0.027271,0.0157803,0.0,0.0,-0.298947
438465562,-0.0255599,-0.0229631,0.0171356,0.0,0.0,-0.298947
438485489,-0.0219777,-0.0258865,0.0154758,0.0,0.0,-0.298947
438505296,-0.0225276,-0.0263198,0.01553,0.0,0.0,-0.298947
438525226,-0.0251144,-0.0266034,0.016688,0.0,0.0,-0.298947
438545132,-0.0234326,-0.0260181,0.0166745,0.0,0.0,-0.297895
438564936,-0.00757117,-0.0274286,0.0171328,0.0,0.0,-0.297895
438584891,-0.0153785,-0.0237467,0.0157638,0.0,0.0,-0.297895
438604781,-0.0251021,-0.0277105,0.0157594,0.0,0.0,-0.297895
438629576,-0.0268396,-0.0262742,0.0156287,0.0,0.0,-0.296842
438644566,-0.0278284,-0.0261051,0.0166042,0.0,0.0,-0.296842
438664429,-0.0144808,-0.0373747,0.0155337,0.0,0.0,-0.296842
438689246,-0.0314933,-0.0287911,0.0153373,0.0,0.0,-0.296842
438704147,-0.0271583,-0.0344907,0.014729,0.0,0.0,-0.296842
438723977,-0.0178004,-0.028108,0.014813,0.0,0.0,-0.295789
438748681,-0.0206822,-0.0338232,0.0169875,0.0,0.0,-0.295789
438768590,-0.0316296,-0.0229961,0.0181002,0.0,0.0,-0.295789
438783492,-0.035251,-0.0218334,0.0172342,0.0,0.0,-0.294737
438808318,-0.0222491,-0.0229649,0.0156189,0.0,0.0,-0.294737
438828180,-0.0250297,-0.0247435,0.0169021,0.0,0.0,-0.295789
438843149,-0.0263082,-0.0298467,0.0172978,0.0,0.0,-0.295789
438863084,-0.0257853,-0.0273888,0.0175312,0.0,0.0,-0.296842
438888074,-0.0175985,-0.0328206,0.0158152,0.0,0.0,-0.295789
438907768,-0.0110529,-0.0276126,0.0172019,0.0,0.0,-0.294737
438922679,-0.0142232,-0.0263513,0.0180595,0.0,0.0,-0.294737
438947570,-0.0220276,-0.0257069,0.0173489,0.0,0.0,-0.293684
438967306,-0.0226471,-0.0304831,0.0180591,0.0,0.0,-0.293684
438982164,-0.0223221,-0.0329402,0.0175538,0.0,0.0,-0.293684
439006951,-0.0124701,-0.0338426,0.0177127,0.0,0.0,-0.293684
439026892,-0.0240673,-0.0261633,0.0181757,0.0,0.0,-0.293684
439046782,-0.0254338,-0.0300266,0.0168358,0.0,0.0,-0.292632
439066743,-0.0145199,-0.0352678,0.0160443,0.0,0.0,-0.292632
439086589,-0.0193389,-0.0203643,0.017039,0.0,0.0,-0.290526
439106408,-0.0247367,-0.0325047,0.0166394,0.0,0.0,-0.289474
439126351,-0.00481091,-0.024231,0.0164538,0.0,0.0,-0.289474
439146324,-0.0154934,-0.0325127,0.0178354,0.0,0.0,-0.289474
439166072,-0.00145389,-0.031426,0.01626,0.0,0.0,-0.289474
439186064,-0.0334117,-0.0212801,0.0173433,0.0,0.0,-0.289474
439205755,-0.0197904,-0.0444804,0.0167895,0.0,0.0,-0.288421
439225617,-0.0224176,-0.0244466,0.0167272,0.0,0.0,-0.288421
439245551,-0.0221971,-0.0322292,0.0179876,0.0,0.0,-0.288421
439265252,-0.0225042,-0.028649,0.0173637,0.0,0.0,-0.288421
439285161,-0.0315988,-0.0283183,0.0173987,0.0,0.0,-0.288421
439305153,-0.0165011,-0.0331044,0.0148341,0.0,0.0,-0.289474
439329925,-0.026443,-0.0299201,0.0174201,0.0,0.0,-0.289474
439344809,-0.021728,-0.0285127,0.0175932,0.0,0.0,-0.290526
439364687,-0.0234178,-0.022921,0.0181295,0.0,0.0,-0.290526
439384559,-0.0278318,-0.0359832,0.0175319,0.0,0.0,-0.290526
439404518,-0.010657,-0.0288762,0.018096,0.0,0.0,-0.289474
439424553,-0.00413238,-0.0286341,0.0188881,0.0,0.0,-0.289474
439444166,-0.0217412,-0.0346234,0.0185984,0.0,0.0,-0.288421
439469021,-0.00875725,-0.0207386,0.0168487,0.0,0.0,-0.288421
439483951,-0.0235137,-0.0277239,0.0170304,0.0,0.0,-0.288421
439503748,-0.0315925,-0.0221216,0.0183377,0.0,0.0,-0.295789
439528586,-0.0311123,-0.0326525,0.0177253,0.0,0.0,-0.298947
439543541,-0.025865,-0.0299466,0.0174906,0.0,0.0,-0.298947
439563383,-0.0200249,-0.0298817,0.0176465,0.0,0.0,-0.298947
439588193,-0.0203188,-0.0169418,0.0188236,0.0,0.0,-0.297895
439608133,-0.0195214,-0.037612,0.0176463,0.0,0.0,-0.296842
439622936,-0.0166234,-0.0455739,0.0179745,0.0,0.0,-0.296842
439647812,-0.0193776,-0.0372476,0.0187715,0.0,0.0,-0.292632
439667619,0.00260072,-0.0426423,0.0176731,0.0,0.0,-0.292632
439682685,-0.00324957,-0.0290657,0.0153616,0.0,0.0,-0.303158
439707466,-0.00951908,-0.0407898,0.0168376,0.0,0.0,-0.304211
439727293,-0.00994768,-0.0341913,0.01797,0.0,0.0,-0.304211
439747150,-0.0279513,-0.0366975,0.0197912,0.0,0.0,-0.314737
439767044,-0.0188248,-0.0412169,0.0174039,0.0,0.0,-0.314737
439786860,-0.0226574,-0.0293878,0.0193471,0.0,0.0,-0.313684
439806735,-0.0203874,-0.0385481,0.0186456,0.0,0.0,-0.313684
439826705,-0.0220653,-0.0343433,0.0191402,0.0,0.0,-0.313684
439846510,-0.0281789,-0.0308887,0.0187173,0.0,0.0,-0.313684
439866387,-0.0154976,-0.0345913,0.0169345,0.0,0.0,-0.313684
439886313,-0.0219581,-0.0255839,0.0184734,0.0,0.0,-0.313684
439906054,-0.0257674,-0.0319372,0.018481,0.0,0.0,-0.314737
439925930,-0.0219767,-0.0232945,0.0184577,0.0,0.0,-0.316842
439945820,-0.0228724,-0.0185666,0.019299,0.0,0.0,-0.318947
439965831,-0.0144177,-0.0201288,0.0157153,0.0,0.0,-0.32
439985579,-0.0249225,-0.0254539,0.0171829,0.0,0.0,-0.327368
440005496,-0.0150988,-0.0235118,0.0154773,0.0,0.0,-0.334737
440025307,-0.0227537,-0.0336909,0.0194631,0.0,0.0,-0.337895
440045282,-0.0172488,-0.0386161,0.0193129,0.0,0.0,-0.337895
440065042,-0.0241072,-0.035297,0.0194169,0.0,0.0,-0.337895
440084980,-0.0223719,-0.0220962,0.017332,0.0,0.0,-0.337895
440104781,-0.0180177,-0.0322824,0.0177894,0.0,0.0,-0.34
440124651,-0.0240136,-0.0309835,0.0179197,0.0,0.0,-0.34
440144421,-0.0245294,-0.0298825,0.0187986,0.0,0.0,-0.341053
440169252,-0.022792,-0.0444191,0.0182711,0.0,0.0,-0.341053
440184205,-0.0191024,-0.0363959,0.0189094,0.0,0.0,-0.345263
440204183,-0.0207769,-0.034515,0.0195711,0.0,0.0,-0.348421
440229142,-0.0150287,-0.0269137,0.0181532,0.0,0.0,-0.371579
440244052,-0.0176028,-0.0224413,0.0170939,0.0,0.0,-0.371579
440263934,-0.0249507,-0.0252871,0.0187939,0.0,0.0,-0.376842
440288700,-0.027918,-0.0337251,0.020635,0.0,0.0,-0.375789
440308610,-0.0195389,-0.0306027,0.0185654,0.0,0.0,-0.376842
440323545,-0.0218801,-0.027263,0.0181636,0.0,0.0,-0.377895
440348169,-0.0197493,-0.025525,0.0183787,0.0,0.0,-0.38
440368150,-0.0209234,-0.034784,0.0203832,0.0,0.0,-0.38
440382883,-0.0186092,-0.036454,0.0186085,0.0,0.0,-0.382105
440407722,-0.0250193,-0.0222674,0.0199754,0.0,0.0,-0.398947
440427581,-0.0240143,-0.0240981,0.0192375,0.0,0.0,-0.403158
440447429,-0.0175272,-0.0246671,0.0180525,0.0,0.0,-0.403158
440467345,-0.0233036,-0.0237207,0.0210042,0.0,0.0,-0.403158
440487460,-0.0187258,-0.0281073,0.0188371,0.0,0.0,-0.403158
440507166,-0.0217937,-0.0235817,0.0195438,0.0,0.0,-0.403158
440522060,-0.0233119,-0.0207411,0.0200275,0.0,0.0,-0.403158
440546950,-0.0217556,-0.0202684,0.0199044,0.0,0.0,-0.403158
440566765,-0.0191266,-0.0215943,0.0191218,0.0,0.0,-0.403158
440586526,-0.0226293,-0.0221378,0.0183498,0.0,0.0,-0.403158
440606386,-0.0223388,-0.0238292,0.0184322,0.0,0.0,-0.403158
440626227,-0.0244903,-0.0192813,0.0204137,0.0,0.0,-0.403158
440646095,-0.0228675,-0.0199923,0.0195129,0.0,0.0,-0.403158
440666060,-0.0227674,-0.0212586,0.0192075,0.0,0.0,-0.403158
440685902,-0.0213658,-0.0245844,0.0188054,0.0,0.0,-0.403158
440705798,-0.0176815,-0.0279346,0.0173349,0.0,0.0,-0.402105
440725692,-0.0237244,-0.0251556,0.0207284,0.0,0.0,-0.401053
440745590,-0.0210453,-0.0263935,0.0191597,0.0,0.0,-0.401053
440765492,-0.0227434,-0.0246574,0.0203221,0.0,0.0,-0.398947
440785305,-0.0236463,-0.0229911,0.0192075,0.0,0.0,-0.398947
440805193,-0.0214757,-0.0225106,0.0178242,0.0,0.0,-0.397895
440825064,-0.022951,-0.0224121,0.0204467,0.0,0.0,-0.397895
440844990,-0.0149332,-0.0253126,0.0189059,0.0,0.0,-0.397895
440869692,-0.0202776,-0.0234848,0.0186927,0.0,0.0,-0.397895
440884614,-0.0186835,-0.0245041,0.0188504,0.0,0.0,-0.397895
440904469,-0.0183967,-0.0273653,0.0195344,0.0,0.0,-0.397895
440929220,-0.0245486,-0.0291133,0.0203397,0.0,0.0,-0.397895
440944125,-0.02006,-0.0412901,0.0203133,0.0,0.0,-0.397895
440964087,-0.0190788,-0.0316428,0.0194898,0.0,0.0,-0.397895
440988898,-0.0191731,-0.0260787,0.0191655,0.0,0.0,-0.397895
441008791,-0.022447,-0.0198314,0.0187028,0.0,0.0,-0.397895
441023840,-0.0186294,-0.0214158,0.0179941,0.0,0.0,-0.397895
441043706,-0.0207804,-0.022455,0.0183106,0.0,0.0,-0.397895
441068446,-0.024963,-0.0246974,0.0193496,0.0,0.0,-0.397895
441083422,-0.0218244,-0.0231139,0.0208097,0.0,0.0,-0.405263
441103162,-0.0197912,-0.0264714,0.0180078,0.0,0.0,-0.406316
441128070,-0.0218801,-0.0194306,0.0169368,0.0,0.0,-0.406316
441147838,-0.0173802,-0.0184976,0.0198027,0.0,0.0,-0.406316
441162711,-0.0176304,-0.0220968,0.018055,0.0,0.0,-0.406316
441187527,-0.0204859,-0.0215223,0.0180287,0.0,0.0,-0.406316
441207422,-0.0234727,-0.0230821,0.0176147,0.0,0.0,-0.406316
441222304,-0.0184727,-0.0184866,0.0173066,0.0,0.0,-0.406316
441247250,-0.0227926,-0.0192706,0.017109,0.0,0.0,-0.406316
441267078,-0.0197044,-0.0247942,0.0149005,0.0,0.0,-0.406316
441287029,-0.0181954,-0.0219366,0.0161794,0.0,0.0,-0.407368
441307029,-0.0199931,-0.0289405,0.0153041,0.0,0.0,-0.408421
441326766,-0.0246874,-0.0223789,0.0166662,0.0,0.0,-0.411579
441346594,-0.0234174,-0.0200377,0.0165588,0.0,0.0,-0.411579
441366466,-0.022606,-0.0210978,0.0156669,0.0,0.0,-0.411579
441386348,-0.0208108,-0.0187138,0.0165964,0.0,0.0,-0.411579
441406095,-0.0191005,-0.0229577,0.0153837,0.0,0.0,-0.411579
441426024,-0.0230288,-0.0290796,0.0180635,0.0,0.0,-0.413684
441445776,-0.0128594,-0.0349021,0.0153407,0.0,0.0,-0.413684
441465714,-0.0203472,-0.0251611,0.0157668,0.0,0.0,-0.413684
441485634,-0.0271907,-0.0240746,0.0169413,0.0,0.0,-0.413684
441505440,-0.0181556,-0.0275475,0.0157616,0.0,0.0,-0.413684
441525300,-0.018901,-0.022894,0.0168985,0.0,0.0,-0.415789
441545253,-0.0206708,-0.0274528,0.0121279,0.0,0.0,-0.418947
441565202,-0.0232913,-0.0218744,0.0122604,0.0,0.0,-0.418947
441584960,-0.0181175,-0.024906,0.0119871,0.0,0.0,-0.418947
441605021,-0.0153201,-0.0272603,0.0111111,0.0,0.0,-0.418947
441624745,-0.0231281,-0.0249449,0.0112209,0.0,0.0,-0.418947
441644620,-0.0202398,-0.0313121,0.0103785,0.0,0.0,-0.418947
441664565,-0.0209218,-0.0340106,0.0117903,0.0,0.0,-0.418947
441684302,-0.0214849,-0.0252338,0.0106243,0.0,0.0,-0.42
441709047,-0.019313,-0.0203575,0.0100596,0.0,0.0,-0.422105
441723934,-0.0178603,-0.0281659,0.0100562,0.0,0.0,-0.421053
441743800,-0.0188641,-0.0225674,0.00970714,0.0,0.0,-0.422105
441768696,-0.0221458,-0.0267952,0.0101854,0.0,0.0,-0.422105
441783691,-0.0191007,-0.0249425,0.00860871,0.0,0.0,-0.422105
441803491,-0.019807,-0.0226035,0.010433,0.0,0.0,-0.422105
441828470,-0.0206893,-0.0307551,0.0105853,0.0,0.0,-0.422105
441848337,-0.0244215,-0.0175699,0.0105959,0.0,0.0,-0.429474
441863129,-0.0216353,-0.0180076,0.0113824,0.0,0.0,-0.429474
441888104,-0.0221952,-0.0198708,0.0113898,0.0,0.0,-0.434737
441907872,-0.0225961,-0.0228248,0.0102228,0.0,0.0,-0.434737
441922789,-0.0237882,-0.0217451,0.0115058,0.0,0.0,-0.434737
441947550,-0.022451,-0.0230959,0.0128264,0.0,0.0,-0.435789
441967368,-0.0151652,-0.0263286,0.0100091,0.0,0.0,-0.436842
441987193,-0.0226124,-0.0154347,0.0103753,0.0,0.0,-0.435789
442007063,-0.0180956,-0.0166072,0.0121222,0.0,0.0,-0.436842
442026960,-0.0186983,-0.0240572,0.0104366,0.0,0.0,-0.437895
442046835,-0.022337,-0.0223191,0.0105975,0.0,0.0,-0.437895
442066824,-0.023992,-0.0239606,0.0112754,0.0,0.0,-0.438947
442086679,-0.0243053,-0.0258399,0.0121191,0.0,0.0,-0.44
442106610,-0.0186391,-0.0233236,0.0107041,0.0,0.0,-0.447368
442126428,-0.0186775,-0.020907,0.0107802,0.0,0.0,-0.451579
442146259,-0.0207114,-0.0213471,0.0123163,0.0,0.0,-0.451579
442166083,-0.0202787,-0.0242608,0.0112333,0.0,0.0,-0.451579
442186148,-0.0140281,-0.0157954,0.0107045,0.0,0.0,-0.451579
442205776,-0.0207975,-0.0151225,0.0122203,0.0,0.0,-0.451579
442225696,-0.020044,-0.0171878,0.00977219,0.0,0.0,-0.451579
442245550,-0.0119727,-0.018357,0.00870389,0.0,0.0,-0.451579
442265442,-0.0220619,-0.0181736,0.00987672,0.0,0.0,-0.451579
442285256,-0.0232623,-0.0325465,0.00963367,0.0,0.0,-0.452632
442305176,-0.00935142,-0.0305532,0.00615583,0.0,0.0,-0.452632
442325035,-0.0250235,-0.021799,0.00607534,0.0,0.0,-0.452632
442344929,-0.0281171,-0.016929,0.00559798,0.0,0.0,-0.452632
442364944,-0.0107902,-0.0220055,0.000161766,0.0,0.0,-0.452632
442384792,-0.0147244,-0.0228815,0.00155047,0.0,0.0,-0.452632
442409617,-0.021879,-0.0244357,0.000187182,0.0,0.0,-0.452632
442424580,-0.0180891,-0.0294842,-0.000811195,0.0,0.0,-0.452632
442444284,-0.0161834,-0.0263576,0.00112551,0.0,0.0,-0.452632
442469199,-0.017133,-0.0281809,-0.000322364,0.0,0.0,-0.452632
442484075,-0.0157303,-0.0264611,-0.00165384,0.0,0.0,-0.453684
442503805,-0.0195745,-0.0375202,-0.000558284,0.0,0.0,-0.454737
442528637,-0.0209188,-0.0280626,-0.000308198,0.0,0.0,-0.454737
442548506,-0.028143,-0.0232889,0.0003007,0.0,0.0,-0.455789
442563532,-0.020105,-0.0215305,-0.00169415,0.0,0.0,-0.467368
442588401,-0.0160765,-0.0209497,-0.00298,0.0,0.0,-0.469474
442608107,-0.0245185,-0.0205021,-0.00343244,0.0,0.0,-0.470526
442623056,-0.0189291,-0.02264,-0.00671244,0.0,0.0,-0.470526
442643014,-0.0281902,-0.0239415,-0.00842077,0.0,0.0,-0.470526
442667786,-0.024855,-0.0225096,-0.00716235,0.0,0.0,-0.470526
442687683,-0.0223831,-0.0225472,-0.00922687,0.0,0.0,-0.470526
442702549,-0.0273528,-0.021148,-0.00718035,0.0,0.0,-0.470526
442727389,-0.0293253,-0.0182601,-0.00576553,0.0,0.0,-0.471579
442747322,-0.0278889,-0.0266302,-0.00532077,0.0,0.0,-0.471579
442762164,-0.0278721,-0.0236447,-0.0039775,0.0,0.0,-0.471579
442787067,-0.0245332,-0.0221335,-0.00414023,0.0,0.0,-0.473684
442806909,-0.0259488,-0.0174584,-0.00218501,0.0,0.0,-0.477895
442826854,-0.0151913,-0.0148949,-0.00406666,0.0,0.0,-0.477895
442846603,-0.0149386,-0.0111103,-0.00114461,0.0,0.0,-0.478947
442866364,-0.0241521,-0.00813395,-0.00358628,0.0,0.0,-0.478947
442886297,-0.0174742,-0.0149223,-0.007264,0.0,0.0,-0.478947
442906182,-0.022211,-0.0191014,-0.00998584,0.0,0.0,-0.48
442926233,-0.0228955,-0.0211989,-0.00763295,0.0,0.0,-0.48
442945995,-0.0270961,-0.0334047,-0.0102889,0.0,0.0,-0.478947
442965831,-0.0177129,-0.0274218,-0.013001,0.0,0.0,-0.48
442985769,-0.0301702,-0.0190435,-0.0116566,0.0,0.0,-0.48
443005628,-0.0330943,-0.0187931,-0.0104186,0.0,0.0,-0.48
443025420,-0.0226364,-0.0183739,-0.0143996,0.0,0.0,-0.48
443045278,-0.0269747,-0.018634,-0.0125518,0.0,0.0,-0.48
443065104,-0.0348471,-0.0119689,-0.00795189,0.0,0.0,-0.48
443085056,-0.0286672,-0.0125272,-0.00424305,0.0,0.0,-0.48
443109802,-0.0222939,-0.0138909,0.000312266,0.0,0.0,-0.48
443124717,-0.0185111,-0.022769,0.00191434,0.0,0.0,-0.48
443144560,-0.0269698,-0.01863,0.00544791,0.0,0.0,-0.48
443164478,-0.0352623,-0.0177912,0.00751516,0.0,0.0,-0.48
443184436,-0.031898,-0.0229612,0.00873525,0.0,0.0,-0.48
443204257,-0.0256212,-0.0255795,0.0121824,0.0,0.0,-0.48
443224134,-0.0221148,-0.0273834,0.0171497,0.0,0.0,-0.48
443249033,-0.0245655,-0.0275758,0.0178772,0.0,0.0,-0.48
443263926,-0.0282485,-0.028653,0.0191379,0.0,0.0,-0.48
443283783,-0.0246981,-0.0363386,0.0188053,0.0,0.0,-0.48
443308570,-0.0221762,-0.0265442,0.0200972,0.0,0.0,-0.48
443323364,-0.0271836,-0.0215331,0.0197338,0.0,0.0,-0.48
443343200,-0.0181578,-0.0218062,0.0151247,0.0,0.0,-0.482105
443368020,-0.0227908,-0.0204252,0.0122528,0.0,0.0,-0.487368
443388024,-0.0149508,-0.0205734,0.00722362,0.0,0.0,-0.487368
443402841,-0.0271713,-0.0182845,0.00727,0.0,0.0,-0.487368
443427811,-0.0255764,-0.0196332,0.00260502,0.0,0.0,-0.501053
443447719,-0.0237767,-0.0221276,-0.00265717,0.0,0.0,-0.501053
443462647,-0.027605,-0.0360184,-0.00194663,0.0,0.0,-0.503158
443487419,-0.0251847,-0.0430332,-0.0058112,0.0,0.0,-0.503158
443507297,-0.0246667,-0.0230632,-0.00262305,0.0,0.0,-0.504211
443527141,-0.0119866,-0.0262469,-0.00224694,0.0,0.0,-0.504211
443547031,0.00296985,-0.0126134,-0.00679004,0.0,0.0,-0.504211
443566803,-0.00104142,-0.0084924,-0.00892499,0.0,0.0,-0.504211
443586627,-0.000610374,-0.0100522,-0.0117612,0.0,0.0,-0.504211
443606454,-0.00123905,-0.00766898,-0.0153769,0.0,0.0,-0.504211
443626319,0.00488324,-0.0140311,-0.0203836,0.0,0.0,-0.504211
443646191,0.00720703,-0.0219564,-0.024896,0.0,0.0,-0.504211
443666206,-0.00114404,-0.022033,-0.0272363,0.0,0.0,-0.504211
443686045,-0.021861,-0.0194307,-0.032054,0.0,0.0,-0.504211
443705957,-0.0224688,-0.0169863,-0.0365859,0.0,0.0,-0.504211
443725908,-0.020736,-0.0263389,-0.040947,0.0,0.0,-0.504211
443745634,-0.0181091,-0.0301113,-0.0421419,0.0,0.0,-0.504211
443765505,-0.0186184,-0.0213695,-0.0416758,0.0,0.0,-0.504211
443785423,-0.0150614,-0.00870718,-0.0415451,0.0,0.0,-0.504211
443805272,-0.008773,-0.00788423,-0.0425221,0.0,0.0,-0.504211
443825076,-0.0168967,-0.0123407,-0.0451546,0.0,0.0,-0.504211
443845018,-0.0203769,-0.0328765,-0.0477619,0.0,0.0,-0.504211
443864780,-0.012486,-0.0315757,-0.0502959,0.0,0.0,-0.504211
443884634,-0.0174243,-0.0341108,-0.0520225,0.0,0.0,-0.504211
443904479,-0.0219052,-0.0276906,-0.053875,0.0,0.0,-0.504211
443924447,-0.0192611,-0.0128594,-0.0562128,0.0,0.0,-0.5106
443949332,-0.00649727,-0.0116949,-0.0575717,0.0,0.0,-0.5106
443964311,-0.00196728,-0.0143102,-0.0631101,0.0,0.0,-0.511799
443984177,-0.0136876,-0.0130903,-0.0644561,0.0,0.0,-0.515398
444008960,-0.0120501,-0.0204172,-0.0718224,0.0,0.0,-0.515398
444023876,-0.0072037,-0.0154694,-0.0728522,0.0,0.0,-0.515398
444043682,0.0011924,-0.00419621,-0.0750307,0.0,0.0,-0.517797
444068517,0.00746834,-0.00617567,-0.0784619,0.0,0.0,-0.520196
444088315,0.00989579,-0.0250063,-0.0805062,0.0,0.0,-0.521395
444103238,0.010932,-0.022316,-0.0828165,0.0,0.0,-0.527393
444128034,0.024656,-0.0308297,-0.084208,0.0,0.0,-0.505263
444147903,0.039433,-0.0367749,-0.0882809,0.0,0.0,-0.505263
444162844,0.0440112,-0.0304578,-0.088742,0.0,0.0,-0.504211
444187691,0.056098,-0.0298921,-0.0908779,0.0,0.0,-0.505263
444207500,0.0703725,-0.0389979,-0.0940997,0.0,0.0,-0.505263
444227384,0.0446237,-0.0496044,-0.0967305,0.0,0.0,-0.505263
444247421,0.0179312,-0.0732649,-0.0966381,0.0,0.0,-0.505263
444267333,0.0304815,-0.0835441,-0.101416,0.0,0.0,-0.505263
444286990,0.0250334,-0.0911195,-0.10661,0.0,0.0,-0.505263
444306930,0.0150012,-0.0881625,-0.110315,0.0,0.0,-0.506316
444326785,0.00825613,-0.0654996,-0.115387,0.0,0.0,-0.506316
444346658,0.00709859,-0.0317696,-0.11908,0.0,0.0,-0.508421
444366578,0.00982531,0.00549262,-0.120108,0.0,0.0,-0.508421
444386371,0.0356684,0.029599,-0.122797,0.0,0.0,-0.508421
444406182,0.0239153,0.0187956,-0.126439,0.0,0.0,-0.508421
444426072,-0.00934765,0.00795395,-0.131476,0.0,0.0,-0.508421
444445935,-0.0318068,-0.00193128,-0.136435,0.0,0.0,-0.508421
444465865,-0.0351878,-0.0059055,-0.142039,0.0,0.0,-0.508421
444485737,-0.0356163,0.0199867,-0.140628,0.0,0.0,-0.515398
444505604,-0.0336318,0.0222612,-0.140307,0.0,0.0,-0.535789
444525601,-0.00557048,0.0250552,-0.140326,0.0,0.0,-0.535789
444545314,0.01268,0.0105518,-0.136134,0.0,0.0,-0.535789
444565146,0.00739275,-0.000627342,-0.136109,0.0,0.0,-0.535789
444585013,-0.0136415,-0.0165969,-0.136175,0.0,0.0,-0.535789
444605001,-0.0346689,-0.0179678,-0.137281,0.0,0.0,-0.535789
444624761,-0.0417993,-0.0117499,-0.130484,0.0,0.0,-0.535789
444649620,-0.0125431,-0.00415073,-0.126961,0.0,0.0,-0.538188
444664614,0.0105719,0.0160635,-0.12455,0.0,0.0,-0.542987
444684430,0.0417107,0.0187548,-0.120011,0.0,0.0,-0.552583
444709224,0.0477447,0.0315432,-0.116543,0.0,0.0,-0.55858
444724191,0.0363209,0.0311718,-0.111944,0.0,0.0,-0.55978
444744017,0.0192858,0.0473031,-0.10904,0.0,0.0,-0.562179
444768934,-0.00288214,0.0711002,-0.101894,0.0,0.0,-0.562179
444788686,-0.00945628,0.0795323,-0.0979558,0.0,0.0,-0.562179
444803778,-0.00421188,0.0832871,-0.0967905,0.0,0.0,-0.562179
444828510,-0.00994393,0.107241,-0.0905781,0.0,0.0,-0.562179
444848331,-0.0141562,0.103013,-0.0851741,0.0,0.0,-0.562179
444863283,-0.0199989,0.102192,-0.079517,0.0,0.0,-0.562179
444883138,-0.0432004,0.0949651,-0.0731403,0.0,0.0,-0.562179
444907892,-0.0319684,0.0475487,-0.0652783,0.0,0.0,-0.560979
444927736,-0.0258126,-0.104287,-0.0570309,0.0,0.0,-0.55978
444942636,-0.0133932,-0.19081,-0.0519387,0.0,0.0,-0.55978
444967529,0.0124933,-0.359318,-0.0415275,0.0,0.0,-0.55978
444987387,0.0218331,-0.338666,-0.0361243,0.0,0.0,-0.55978
445002250,0.0213901,-0.306643,-0.0319462,0.0,0.0,-0.55978
445027069,0.00314387,-0.256321,-0.0259427,0.0,0.0,-0.55978
445046993,0.00910081,-0.241354,-0.0177234,0.0,0.0,-0.55978
445066944,0.0213671,-0.188459,-0.012631,0.0,0.0,-0.55978
445086692,0.0339434,-0.175517,-0.00599097,0.0,0.0,-0.55978
445106679,0.0578577,-0.168376,-0.000846123,0.0,0.0,-0.55978
445126610,0.0616171,-0.150808,0.00690503,0.0,0.0,-0.55978
445146427,0.076469,-0.147456,0.0106758,0.0,0.0,-0.55978
445166310,0.087123,-0.141852,0.0165206,0.0,0.0,-0.55978
445186253,0.0885709,-0.11574,0.0204755,0.0,0.0,-0.55978
445205925,0.0893137,-0.0826048,0.0232931,0.0,0.0,-0.55978
445225702,0.0890695,-0.0457691,0.0246532,0.0,0.0,-0.55978
445245574,0.0875341,-0.017453,0.027336,0.0,0.0,-0.55978
445265517,0.0740588,-0.00782581,0.027558,0.0,0.0,-0.55978
445285375,0.0620173,0.0157578,0.0319057,0.0,0.0,-0.55978
445305322,0.0568962,0.0391769,0.0343963,0.0,0.0,-0.55978
445325243,0.0547921,0.0697832,0.0365289,0.0,0.0,-0.55978
445345138,0.0545568,0.0940792,0.0399692,0.0,0.0,-0.55978
445364997,0.0505928,0.125304,0.043361,0.0,0.0,-0.55978
445384763,0.0476016,0.124866,0.0464245,0.0,0.0,-0.55978
445404587,0.0466925,0.187667,0.0499152,0.0,0.0,-0.55978
445424427,0.0428429,0.216242,0.052468,0.0,0.0,-0.55978
445444310,0.0376451,0.205846,0.0548788,0.0,0.0,-0.55978
445464163,0.0282992,0.210995,0.0565386,0.0,0.0,-0.55978
445489067,0.0176986,0.195161,0.0610317,0.0,0.0,-0.55978
445503953,0.0108671,0.182862,0.0588899,0.0,0.0,-0.55978
445523806,0.000211646,0.179237,0.0603339,0.0,0.0,-0.55978
445548624,-0.00853679,0.262179,0.0627117,0.0,0.0,-0.55978
445563537,-0.00470472,0.257105,0.0621287,0.0,0.0,-0.55978
445583367,-0.00138352,0.25274,0.0617016,0.0,0.0,-0.55978
445608447,0.00484627,0.247406,0.0612543,0.0,0.0,-0.55978
445628138,0.0175851,0.225028,0.0615118,0.0,0.0,-0.55978
445643048,0.0133237,0.237787,0.063247,0.0,0.0,-0.55978
445667883,0.0314182,0.24849,0.0612859,0.0,0.0,-0.55978
445687773,0.0416107,0.259831,0.0603741,0.0,0.0,-0.55978
445702619,0.0379653,0.480721,0.059624,0.0,0.0,-0.55978
445727456,0.0518058,0.505291,0.0582106,0.0,0.0,-0.55978
445747295,0.0419788,0.45627,0.0569188,0.0,0.0,-0.55978
445767283,0.0317317,0.427021,0.0550863,0.0,0.0,-0.55978
445787053,0.0184023,0.37777,0.0523778,0.0,0.0,-0.563378
445806910,0.0149443,0.330735,0.051249,0.0,0.0,-0.563378
445826719,0.0172039,0.285017,0.0492561,0.0,0.0,-0.563378
445846686,0.0265559,0.23924,0.0475653,0.0,0.0,-0.563378
445866607,0.0292258,0.20216,0.0471585,0.0,0.0,-0.566977
445886464,0.0577554,0.16956,0.0479778,0.0,0.0,-0.568176
445906286,0.0532125,0.145762,0.0464486,0.0,0.0,-0.568176
445926121,0.0757926,0.12233,0.044891,0.0,0.0,-0.570575
445946084,0.0824029,0.101456,0.044107,0.0,0.0,-0.572974
445966015,0.0887742,0.0787252,0.0429621,0.0,0.0,-0.574174
445985796,0.0869091,0.0536414,0.04192,0.0,0.0,-0.574174
446005660,0.0873638,0.0398384,0.0429564,0.0,0.0,-0.574174
446025544,0.0884804,0.0346678,0.0432447,0.0,0.0,-0.574174
446045397,0.0838897,0.0395628,0.0418497,0.0,0.0,-0.574174
446065165,0.0656115,0.0273138,0.0392427,0.0,0.0,-0.574174
446085023,0.0407628,0.0360085,0.0382933,0.0,0.0,-0.574174
446104866,0.0227297,0.057773,0.0377979,0.0,0.0,-0.574174
446124900,0.00367826,0.065619,0.0357629,0.0,0.0,-0.574174
446144826,-0.00584439,0.0589577,0.0362044,0.0,0.0,-0.574174
446164529,-0.00150252,0.0620349,0.0360235,0.0,0.0,-0.575373
446189553,0.0248051,0.0304464,0.0380386,0.0,0.0,-0.574174
446204487,0.0463619,0.0187268,0.0361435,0.0,0.0,-0.574174
446224299,0.0698894,0.0116002,0.0356803,0.0,0.0,-0.575373
446249211,0.0985854,-0.00943967,0.0329513,0.0,0.0,-0.574174
446264001,0.0981664,-0.00678531,0.0332472,0.0,0.0,-0.574174
446283844,0.1102,0.00337662,0.0300396,0.0,0.0,-0.575373
446308527,0.108279,0.00500876,0.0298028,0.0,0.0,-0.575373
446328388,0.107887,0.0129178,0.025236,0.0,0.0,-0.575373
446343352,0.115315,-0.009326,0.0204898,0.0,0.0,-0.575373
446368222,0.110082,-0.0212607,0.0174544,0.0,0.0,-0.575373
446388114,0.0993218,-0.0390946,0.0149085,0.0,0.0,-0.575373
446403105,0.0883304,-0.0486426,0.0136647,0.0,0.0,-0.575373
446427886,0.0783279,-0.08511,0.0117328,0.0,0.0,-0.574174
446447705,0.0663026,-0.140692,0.00949158,0.0,0.0,-0.575373
446462606,0.0698136,-0.14193,0.00527171,0.0,0.0,-0.575373
446487508,0.0376541,-0.153049,-3.14926e-05,0.0,0.0,-0.575373
446507375,0.019546,-0.13338,-0.00366552,0.0,0.0,-0.575373
446527207,-0.00645408,-0.100383,-0.0068407,0.0,0.0,-0.575373
446542009,-0.0162932,-0.0754821,-0.00813795,0.0,0.0,-0.58257
446566803,-0.033527,-0.0435052,-0.0139947,0.0,0.0,-0.58257
446586670,-0.0321337,-0.0155338,-0.0171241,0.0,0.0,-0.58257
446606601,-0.0185396,-0.00447992,-0.0215588,0.0,0.0,-0.58257
446626426,0.00110452,-0.0437847,-0.0254229,0.0,0.0,-0.58257
446646400,0.0221423,-0.126144,-0.0293644,0.0,0.0,-0.58257
446666319,0.0472828,-0.161606,-0.0341469,0.0,0.0,-0.58257
446686280,0.0444362,-0.210905,-0.0363296,0.0,0.0,-0.581371
446706165,0.0284779,-0.281297,-0.0373229,0.0,0.0,-0.581371
446725990,0.00103584,-0.293974,-0.0420547,0.0,0.0,-0.581371
446745768,-0.0154011,-0.270499,-0.0473159,0.0,0.0,-0.58257
446765653,-0.0225259,-0.240146,-0.0534276,0.0,0.0,-0.58257
446785447,-0.0385533,-0.197163,-0.0582573,0.0,0.0,-0.58257
446805233,0.100578,-0.206555,-0.0617667,0.0,0.0,-0.58257
446825107,0.272041,-0.212003,-0.0674096,0.0,0.0,-0.58257
446844960,0.241225,-0.170577,-0.0723794,0.0,0.0,-0.58257
446864891,0.229688,-0.15409,-0.0759507,0.0,0.0,-0.58257
446889761,0.125964,-0.0998354,-0.0775946,0.0,0.0,-0.58257
446904719,0.161311,-0.108229,-0.0835515,0.0,0.0,-0.58257
446924546,0.15701,-0.129735,-0.0855515,0.0,0.0,-0.58257
446944456,0.141096,-0.145116,-0.0883787,0.0,0.0,-0.58257
446964344,0.12804,-0.145762,-0.0929128,0.0,0.0,-0.58257
446984227,0.0866065,-0.145553,-0.0974779,0.0,0.0,-0.58257
447004077,0.0780313,-0.146681,-0.10152,0.0,0.0,-0.58257
447028850,0.0670708,-0.160025,-0.10216,0.0,0.0,-0.58257
447043777,0.0456681,-0.157585,-0.104412,0.0,0.0,-0.581371
447063600,0.0234552,-0.144635,-0.10613,0.0,0.0,-0.581371
447088354,-0.00545224,-0.126866,-0.109307,0.0,0.0,-0.581371
447103258,-0.0334398,-0.10847,-0.109104,0.0,0.0,-0.581371
447123161,-0.127382,-0.0512905,-0.111814,0.0,0.0,-0.581371
447148049,-0.128843,-0.0389927,-0.112557,0.0,0.0,-0.581371
447167900,-0.115197,-0.0369245,-0.11514,0.0,0.0,-0.581371
447182811,-0.109867,-0.0342786,-0.114345,0.0,0.0,-0.581371
447207731,-0.0967973,-0.0373943,-0.115432,0.0,0.0,-0.581371
447227643,-0.011145,-0.0471007,-0.116504,0.0,0.0,-0.581371
447242456,0.0882955,-0.065441,-0.120388,0.0,0.0,-0.581371
447267230,0.171978,-0.108137,-0.122632,0.0,0.0,-0.581371
