timestamp,yaw_composite,yaw_variance,yaw[0],yaw[1],yaw[2],yaw[3],yaw[4],innov_vn[0],innov_vn[1],innov_vn[2],innov_vn[3],innov_vn[4],innov_ve[0],innov_ve[1],innov_ve[2],innov_ve[3],innov_ve[4],weight[0],weight[1],weight[2],weight[3],weight[4]
431958249,2.941,3.73601,-2.51327,-1.25664,0.0,1.25664,2.51327,0.0,0.0,0.0,0.0,0.0,0.0,0.0,0.0,0.0,0.0,0.2,0.2,0.2,0.2,0.2
431968183,2.96215,3.75521,-2.51401,-1.25737,-0.000734181,1.2559,2.51254,0.0,0.0,0.0,0.0,0.0,0.0,0.0,0.0,0.0,0.0,0.2,0.2,0.2,0.2,0.2
432157123,1.49282,3.60795,-2.51278,-1.25604,0.000654975,1.25722,2.51376,-0.0483679,-0.0457551,-0.0282791,-0.0200911,-0.0325067,-0.00703491,-0.0245613,-0.0274924,-0.0117774,0.000866033,0.19997,0.199958,0.200004,0.200044,0.200024
432355614,1.95634,3.86199,-2.51369,-1.25691,-0.000129905,1.25646,2.51293,-0.0147731,-0.0237394,-0.0322502,-0.0285441,-0.0177442,0.0241874,0.0302241,0.0235613,0.0134095,0.0137958,0.199985,0.199937,0.199976,0.200049,0.200054
432554295,-2.41775,3.56128,-2.51291,-1.25637,0.000344357,1.25713,2.51378,-0.0142088,0.00163461,0.00761829,-0.00452712,-0.018014,0.0555982,0.0544522,0.0691677,0.0794032,0.0710178,0.200061,0.200032,0.199959,0.199942,0.200005
432757945,-2.306,3.59495,-2.51294,-1.25642,0.000286657,1.25709,2.51375,-0.0109096,-0.00431345,-0.00431157,-0.0109084,-0.0149859,0.0043735,0.00651531,0.0134513,0.0155961,0.00998473,0.200066,0.200042,0.19996,0.199933,0.199998
432956742,-1.99671,3.81831,-2.51295,-1.25648,0.000182442,1.257,2.51373,-0.0174178,0.00809273,0.0111114,-0.0125447,-0.0301734,-0.0142212,-0.00910359,0.0167451,0.0276009,0.00845658,0.200072,0.200072,0.199973,0.199911,0.199972
433160275,-1.4323,3.58282,-2.51186,-1.25543,0.00109961,1.25788,2.51472,-0.037554,-0.018942,-0.0152316,-0.0315595,-0.045354,-0.00803937,-0.00589027,0.0124786,0.0216824,0.00899629,0.200051,0.200126,0.200027,0.199891,0.199906
433358957,-1.14921,3.56243,-2.51199,-1.25557,0.00086532,1.2576,2.5145,-0.0345804,-0.0260136,-0.0161604,-0.0186354,-0.030021,0.0228249,0.015248,0.0210528,0.0322186,0.033315,0.200025,0.200157,0.200072,0.199888,0.199859
433557645,-0.503368,3.80625,-2.51209,-1.25546,0.00107847,1.25766,2.51436,-0.04871,-0.0560211,-0.0447416,-0.0304426,-0.0328957,0.0295885,0.0153453,0.00398494,0.0112023,0.027037,0.199957,0.20008,0.200092,0.199978,0.199894
433756406,0.267482,3.62274,-2.5122,-1.25539,0.00122954,1.25769,2.51424,0.0123321,0.028527,0.025908,0.00808662,-0.000306355,-0.0419653,-0.033944,-0.0160619,-0.0130244,-0.0290396,0.199903,0.200022,0.20011,0.200046,0.199918
433955002,0.139931,3.57092,-2.51165,-1.25486,0.00174947,1.25823,2.51479,-0.0122398,0.00183837,0.0107997,0.00226272,-0.0119748,0.000117321,-0.00473373,0.00715636,0.019352,0.0150041,0.199908,0.200036,0.200114,0.200034,0.199907
434153684,0.151767,3.57437,-2.51164,-1.25485,0.00178327,1.25826,2.51481,-0.0012963,-0.000318689,0.00295576,0.00400539,0.00137656,0.00344458,0.000318095,0.000280059,0.00338341,0.00534127,0.199909,0.200038,0.200115,0.200033,0.199906
434357338,0.0748384,3.55699,-2.51142,-1.25461,0.00201466,1.25848,2.51502,-0.0158431,-0.00958237,0.00881071,0.0139307,-0.00130143,0.012635,-0.00468045,-0.00407874,0.0135962,0.023936,0.199901,0.200053,0.200131,0.200028,0.199887
434556062,0.683737,3.88208,-2.51184,-1.25502,0.00178687,1.25834,2.51476,-0.0107246,-0.00706539,0.0108854,0.018337,0.00498537,-0.0222231,-0.0399199,-0.0419116,-0.0254582,-0.0132778,0.199935,0.200009,0.20007,0.200034,0.199951
434754697,-0.454483,3.75943,-2.51095,-1.25429,0.00221525,1.25874,2.51544,-0.0475182,-0.0231273,-0.0110474,-0.0279782,-0.0505117,0.0138384,0.00905927,0.0307848,0.0489816,0.0385067,0.199922,0.200134,0.200161,0.199966,0.199818
434958345,-1.06781,3.5858,-2.511,-1.25452,0.00202852,1.25877,2.51555,-0.00666091,0.0248019,0.0330489,0.00666917,-0.017875,-0.00187299,-0.000313692,0.0300945,0.0473365,0.0275699,0.200009,0.200178,0.200101,0.199884,0.199828
435157027,-1.14226,3.56286,-2.51063,-1.25424,0.00224531,1.25904,2.51592,-0.0186176,0.000908869,0.0209158,0.0137602,-0.0106722,0.00958276,-0.00511285,0.00891515,0.0322774,0.0326943,0.200027,0.200228,0.200113,0.199842,0.19979
435355771,-1.14781,3.56182,-2.51128,-1.25489,0.00161647,1.25842,2.51529,-0.0186176,0.000908869,0.0209158,0.0137602,-0.0106722,0.00958276,-0.00511285,0.00891515,0.0322774,0.0326943,0.200027,0.200228,0.200113,0.199842,0.19979
435554391,-0.965537,3.63273,-2.51072,-1.25434,0.00200852,1.25873,2.51571,-0.0259759,0.000362687,0.0160304,-0.000631092,-0.0265939,0.00603699,-0.00187553,0.0207301,0.0426179,0.0335329,0.199994,0.200286,0.200182,0.199827,0.199711
435753089,-0.966397,3.63229,-2.51073,-1.25434,0.0020409,1.25876,2.51572,-0.0259759,0.000362687,0.0160304,-0.000631092,-0.0265939,0.00603699,-0.00187553,0.0207301,0.0426179,0.0335329,0.199994,0.200286,0.200182,0.199827,0.199711
435961689,1.92223,3.90377,-2.51136,-1.25449,0.00256846,1.25924,2.51548,-0.041103,-0.0122338,0.0172406,0.00658204,-0.0294661,-0.0428259,-0.0644425,-0.0436592,-0.00921317,-0.00869838,0.19997,0.199983,0.200019,0.200029,0.199999
436160379,-0.5316,3.83475,-2.51164,-1.25496,0.00168096,1.25827,2.51488,-0.0502654,-0.0175686,0.0203221,0.0110399,-0.0325552,0.0231914,-0.00604744,0.0160305,0.0588639,0.0632974,0.199931,0.20015,0.200162,0.19995,0.199808
436354088,-0.524381,3.82814,-2.51072,-1.25403,0.00263161,1.25922,2.51581,-0.0502654,-0.0175686,0.0203221,0.0110399,-0.0325552,0.0231914,-0.00604744,0.0160305,0.0588639,0.0632974,0.199931,0.20015,0.200162,0.19995,0.199808
436552768,1.24371,3.55082,-2.5117,-1.25465,0.00242408,1.25892,2.51503,-0.0343031,-0.0105613,0.0277085,0.0276449,-0.0106547,-0.0179586,-0.050516,-0.0379922,0.00225335,0.0146602,0.199883,0.199952,0.200087,0.200101,0.199976
436756417,1.25354,3.55063,-2.51201,-1.25495,0.00214098,1.25864,2.51473,-0.0343031,-0.0105613,0.0277085,0.0276449,-0.0106547,-0.0179586,-0.050516,-0.0379922,0.00225335,0.0146602,0.199883,0.199952,0.200087,0.200101,0.199976
436955101,0.815694,3.74505,-2.51123,-1.25394,0.00299138,1.25917,2.51522,-0.0588332,-0.0419613,-0.00585676,-0.000393856,-0.0331072,0.0152004,-0.0173117,-0.0113047,0.0248658,0.0412696,0.199746,0.199937,0.200216,0.200196,0.199906
437153781,0.384731,3.69494,-2.51089,-1.25374,0.0029802,1.25917,2.51544,-0.0453491,-0.00461338,0.0372727,0.0224477,-0.0285676,0.00310575,-0.0277481,0.00147669,0.0503037,0.0513413,0.199752,0.200039,0.200273,0.200129,0.199807
437357430,0.746394,3.80973,-2.51061,-1.25308,0.003777,1.25967,2.51562,-0.0602418,-0.0273174,0.0178125,0.0128257,-0.0353745,-0.0218043,-0.0586114,-0.0386666,0.0103845,0.0208486,0.199624,0.199906,0.200318,0.20029,0.199862
437556111,0.504378,3.79825,-2.51047,-1.25308,0.00360298,1.25952,2.51566,-0.0337835,-0.00910157,0.0295412,0.028784,-0.0103059,0.0162138,-0.016454,-0.0030644,0.0377855,0.0497426,0.199631,0.199992,0.200364,0.200233,0.19978
437754793,0.914118,3.66531,-2.51167,-1.25414,0.00288183,1.25887,2.51471,-0.0420957,-0.00485538,0.0472662,0.0423063,-0.0128635,-0.0227006,-0.0654815,-0.0432752,0.0131081,0.0258869,0.199662,0.199871,0.200258,0.200288,0.19992
437958442,0.885947,3.68281,-2.51097,-1.25301,0.00396541,1.25949,2.5151,-0.0712398,-0.0327593,0.0114917,0.00039107,-0.0506746,-0.0191973,-0.0532875,-0.0272011,0.0228907,0.0278786,0.199461,0.19977,0.200397,0.200475,0.199897
438157128,1.05738,3.58629,-2.51009,-1.25233,0.00484017,1.26068,2.5163,-0.00149481,0.0250628,0.0579542,0.0517657,0.0150784,-0.00826587,-0.034282,-0.017049,0.0195126,0.0249851,0.199597,0.199776,0.200265,0.200387,0.199975
438355807,0.911641,3.6654,-2.51069,-1.25291,0.00411887,1.25986,2.51555,-0.056899,-0.0176595,0.0367565,0.0311893,-0.0266009,0.0015246,-0.0430323,-0.0194477,0.0395157,0.0525338,0.199551,0.199811,0.200332,0.200394,0.199912
438554488,1.42805,3.57444,-2.511,-1.25344,0.00397672,1.26018,2.51576,-0.0132634,0.017917,0.0669564,0.0661352,0.0166356,-0.0169382,-0.0584551,-0.0416059,0.010174,0.0254781,0.199753,0.199768,0.200104,0.200296,0.20008
438753169,1.43004,3.57489,-2.51027,-1.25271,0.00470941,1.26091,2.5165,-0.0132634,0.017917,0.0669564,0.0661352,0.0166356,-0.0169382,-0.0584551,-0.0416059,0.010174,0.0254781,0.199753,0.199768,0.200104,0.200296,0.20008
438961788,1.28237,3.54196,-2.51017,-1.25192,0.00563045,1.26122,2.5163,-0.0851491,-0.0316665,0.0195838,-0.00225597,-0.066853,-0.0169785,-0.0535749,-0.0139398,0.0469392,0.0450831,0.199486,0.199551,0.200237,0.200595,0.200131
439150684,1.28212,3.54199,-2.51071,-1.25245,0.00509795,1.26069,2.51576,-0.0851491,-0.0316665,0.0195838,-0.00225597,-0.066853,-0.0169785,-0.0535749,-0.0139398,0.0469392,0.0450831,0.199486,0.199551,0.200237,0.200595,0.200131
439354182,1.45379,3.58127,-2.51031,-1.25251,0.0050509,1.26111,2.51646,-0.0201837,0.0270139,0.069071,0.0478918,-0.00716463,0.00142759,-0.0275521,0.00842702,0.0594549,0.0551798,0.199689,0.199674,0.200109,0.200393,0.200134
439552864,1.02896,3.59642,-2.50988,-1.25199,0.005181,1.2609,2.51643,-0.0723336,-0.0220957,0.0261908,0.00579514,-0.054991,-0.00740268,-0.0419317,-0.0047678,0.0525513,0.0509564,0.199543,0.199755,0.200306,0.200433,0.199963
439751549,0.865026,3.69884,-2.51022,-1.25246,0.00454576,1.2603,2.51601,-0.050408,-0.00966608,0.0448645,0.0378733,-0.0209072,0.00520282,-0.0389972,-0.0138712,0.04567,0.0575227,0.199556,0.199838,0.200345,0.200374,0.199887
439960321,0.228363,3.59606,-2.50909,-1.25202,0.00475969,1.26106,2.51734,-0.0505856,0.00155038,0.0608227,0.0453639,-0.0234032,0.00341192,-0.042059,-0.00649558,0.0607927,0.066973,0.199793,0.200087,0.20026,0.200074,0.199786
440153878,0.230905,3.59704,-2.5087,-1.25163,0.00516048,1.26146,2.51773,-0.0505856,0.00155038,0.0608227,0.0453639,-0.0234032,0.00341192,-0.042059,-0.00649558,0.0607927,0.066973,0.199793,0.200087,0.20026,0.200074,0.199786
440357526,0.289083,3.62385,-2.50895,-1.25159,0.00493556,1.26079,2.51705,-0.0784265,-0.0259678,0.0294829,0.0113352,-0.0552954,-0.0151742,-0.0565003,-0.0193613,0.0448013,0.047435,0.1996,0.20008,0.20045,0.200197,0.199673
440556210,-0.190987,3.5817,-2.50887,-1.25197,0.00456188,1.26087,2.51741,-0.0368481,0.0201621,0.0772011,0.0555231,-0.0148814,0.00656363,-0.0349882,0.0064078,0.073379,0.0735536,0.199797,0.200203,0.200328,0.2,0.199673
440754993,-0.190818,3.5819,-2.50823,-1.25133,0.00519591,1.2615,2.51804,-0.0368481,0.0201621,0.0772011,0.0555231,-0.0148814,0.00656363,-0.0349882,0.0064078,0.073379,0.0735536,0.199797,0.200203,0.200328,0.2,0.199673
440953577,-0.570565,3.87194,-2.50798,-1.25139,0.00477868,1.26118,2.51813,-0.0585403,-0.00848147,0.0555281,0.0451121,-0.0253324,0.0111788,-0.0399408,-0.0081282,0.0625349,0.0745382,0.199838,0.200384,0.200399,0.199862,0.199517
441157224,-0.245211,3.60157,-2.50804,-1.25113,0.00482304,1.26077,2.51766,-0.0824164,-0.0253064,0.0370526,0.0185715,-0.0552399,-0.0172656,-0.0643393,-0.0245877,0.0469837,0.0515746,0.199639,0.200357,0.200581,0.200002,0.199421
441355904,-0.320312,3.64495,-2.50704,-1.25023,0.0056968,1.26172,2.51869,-0.0523273,1.63182e-05,0.0566903,0.0394951,-0.0278536,-0.0110629,-0.0537258,-0.0171535,0.0480261,0.0518783,0.199673,0.200389,0.200567,0.199961,0.19941
441554683,-0.469864,3.76461,-2.50624,-1.24962,0.00624691,1.26242,2.51954,-0.0571771,-0.00475469,0.0623748,0.051595,-0.0222585,-0.00290185,-0.0565524,-0.0233079,0.0507822,0.0635047,0.199737,0.200458,0.200545,0.199879,0.199381
441753266,0.32247,3.63914,-2.50511,-1.24782,0.00880683,1.26479,2.52103,-0.0524782,0.00113948,0.0549259,0.0346263,-0.0317015,-0.0298658,-0.0690752,-0.0301967,0.0329291,0.0331998,0.199653,0.200068,0.20039,0.200172,0.199717
441951948,0.323709,3.63905,-2.5037,-1.24641,0.0102207,1.2662,2.52244,-0.0524782,0.00113948,0.0549259,0.0346263,-0.0317015,-0.0298658,-0.0690752,-0.0301967,0.0329291,0.0331998,0.199653,0.200068,0.20039,0.200172,0.199717
442155597,-0.151887,3.56507,-2.50369,-1.24672,0.00954117,1.26562,2.52228,-0.0606714,-0.00594959,0.0572084,0.0416058,-0.031169,0.00711574,-0.041614,-0.0046159,0.0668185,0.07415,0.199694,0.200256,0.200464,0.200031,0.199555
442354374,0.258714,3.59756,-2.50377,-1.24615,0.0099916,1.26534,2.52167,-0.0916029,-0.0308123,0.0299208,0.00675938,-0.0683,-0.0349206,-0.0791081,-0.0349545,0.0364126,0.0365096,0.19937,0.20011,0.200699,0.20032,0.199501
442552961,0.177366,3.56636,-2.50046,-1.24327,0.0132695,1.2693,2.52565,-0.0135513,0.0368983,0.0895843,0.0718316,0.00815199,-0.0151446,-0.0542619,-0.0183819,0.0427625,0.0448709,0.199669,0.20012,0.200405,0.20013,0.199676
442756610,-0.0318061,3.54045,-2.49891,-1.24186,0.0145029,1.27055,2.5271,-0.0589344,-0.0105813,0.051746,0.0420089,-0.0263248,0.00169254,-0.0482316,-0.0176674,0.0509961,0.0630461,0.199677,0.200205,0.20045,0.200072,0.199596
442955298,-0.177875,3.57093,-2.49729,-1.24029,0.0153816,1.27105,2.52805,-0.0882728,-0.026412,0.0395677,0.0185877,-0.060361,0.00334583,-0.0460261,-0.00245202,0.0737135,0.0773835,0.199507,0.200406,0.200744,0.200053,0.19929
443154036,0.148847,3.54738,-2.49454,-1.23684,0.0187635,1.2737,2.53031,-0.102381,-0.0422664,0.0366485,0.0255406,-0.0603367,-0.0199728,-0.0835643,-0.0460954,0.0404974,0.0568095,0.199179,0.200234,0.200966,0.200362,0.199259
443352661,0.423964,3.70675,-2.50227,-1.24482,0.0117991,1.26761,2.52375,-0.0140287,0.0459269,0.109525,0.0891091,0.0128075,-0.0410581,-0.0886043,-0.0463224,0.027181,0.0306056,0.19957,0.200026,0.200446,0.200249,0.199708
443556305,-0.0762425,3.54392,-2.50204,-1.24502,0.0113051,1.26736,2.52395,-0.0498455,0.00733663,0.0610323,0.0371128,-0.0313386,0.00288314,-0.035091,0.00757113,0.0717606,0.0689373,0.199679,0.200225,0.20046,0.200059,0.199577
443754987,-0.53109,3.83652,-2.49389,-1.23733,0.018689,1.27502,2.53209,-0.0531577,-0.00887869,0.0648171,0.0662337,-0.00660854,0.0195962,-0.0436302,-0.021069,0.0559342,0.0811861,0.199796,0.200434,0.200471,0.199857,0.199441
443953669,0.108922,3.54,-2.48334,-1.22609,0.0301148,1.28587,2.54239,-0.0993415,-0.0618638,0.0243616,0.0404003,-0.0360062,0.00255565,-0.0760729,-0.0647774,0.0206814,0.0624573,0.199532,0.200188,0.200584,0.200173,0.199523
444152385,0.483823,3.73017,-2.47524,-1.21748,0.0389477,1.29433,2.5504,-0.0821392,-0.0225702,0.0495409,0.0346966,-0.0466099,-0.0308001,-0.0874007,-0.0482502,0.0323674,0.043279,0.199361,0.199983,0.200629,0.200406,0.199622
444360967,2.58787,3.53282,-2.46597,-1.20886,0.0493812,1.30654,2.5619,0.00135169,-0.00487928,0.0702297,0.122966,0.0805842,-0.0416949,-0.122878,-0.153821,-0.0921073,-0.0226938,0.200146,0.199658,0.199643,0.20012,0.200433
444554681,2.61359,3.53636,-2.45524,-1.19855,0.0583489,1.31511,2.57155,0.00135169,-0.00487928,0.0702297,0.122966,0.0805842,-0.0416949,-0.122878,-0.153821,-0.0921073,-0.0226938,0.200146,0.199658,0.199643,0.20012,0.200433
444753365,2.27325,3.62616,-2.44996,-1.19269,0.0652349,1.32204,2.57749,-0.058965,-0.0471742,0.00474276,0.0250183,-0.0143047,0.0403407,-0.0104479,-0.0148964,0.0330643,0.0672056,0.199977,0.199694,0.199835,0.200202,0.200292
444952045,2.36535,3.57106,-2.46249,-1.2054,0.0519632,1.3086,2.56451,0.00983089,0.0402403,0.0720533,0.0612717,0.0228859,-0.0678422,-0.0914508,-0.0697786,-0.0328823,-0.0316853,0.20009,0.199415,0.199549,0.200305,0.200641
445155694,2.28147,3.59766,-2.48421,-1.22688,0.0307931,1.28738,2.54296,-0.0464831,-0.0394737,-0.0109756,-0.000404723,-0.022311,-0.0281499,-0.0558529,-0.0577174,-0.0312206,-0.0129558,0.200059,0.199256,0.199481,0.200422,0.200782
445359345,2.27865,3.58612,-2.50654,-1.2491,0.00890512,1.26559,2.52089,-0.00218361,0.0083812,0.0238403,0.0227967,0.00675267,-0.0631545,-0.0759929,-0.0698819,-0.0533221,-0.0491735,0.200076,0.199135,0.19939,0.200486,0.200913
445558028,-1.48587,3.53315,-2.50654,-1.25808,-0.00757754,1.25348,2.51894,-0.20909,0.00685107,0.182267,0.0736693,-0.167313,0.0604953,-0.0539601,0.116857,0.335718,0.300478,0.20203,0.203755,0.200263,0.196436,0.197516
445756709,-1.34447,3.29339,-2.48775,-1.26437,-0.037569,1.23403,2.52966,-0.338386,0.0227934,0.294492,0.10031,-0.293277,0.10734,-0.0586917,0.232506,0.582995,0.504233,0.206794,0.21818,0.203856,0.18473,0.18644
445955389,-1.34861,3.0351,-2.45388,-1.26456,-0.0674406,1.21993,2.55522,-0.362883,0.0392128,0.345729,0.133772,-0.319556,0.145205,-0.0351404,0.283282,0.68633,0.596374,0.214018,0.238651,0.207296,0.168206,0.171829
446154271,-1.28436,2.82368,-2.42358,-1.25727,-0.0872826,1.206,2.57255,-0.384553,-0.0287259,0.285225,0.129588,-0.315028,0.136186,-0.0580983,0.202449,0.60754,0.560518,0.216287,0.256277,0.213064,0.156366,0.158006
446357724,-1.29568,2.67521,-2.40394,-1.25746,-0.102789,1.19971,2.58824,-0.213392,0.028985,0.318286,0.277242,-0.0862959,0.206616,-0.00267509,0.137825,0.485514,0.531757,0.220276,0.269866,0.214598,0.146271,0.148989
446556449,-1.27065,2.57949,-2.38261,-1.24761,-0.104814,1.20036,2.60328,-0.159178,-0.0207821,0.236223,0.291927,0.0155861,0.223327,0.00688261,0.0434193,0.325097,0.45014,0.221029,0.27882,0.217144,0.140605,0.142403
446755084,-1.25757,2.47959,-2.35713,-1.23655,-0.105151,1.20444,2.62388,0.015047,0.0685756,0.285262,0.410241,0.21916,0.271414,0.0605507,0.0185394,0.23051,0.410038,0.222802,0.288456,0.218671,0.134127,0.135944
446953922,-1.23211,2.42593,-2.33377,-1.22008,-0.096337,1.21404,2.64253,-0.0425094,-0.0288207,0.159397,0.311655,0.167005,0.203062,0.00462858,-0.0715002,0.0988474,0.297145,0.222854,0.293567,0.220236,0.131109,0.132235
447162383,-1.2197,2.42709,-2.32126,-1.20727,-0.0823223,1.22813,2.65601,-0.0425094,-0.0288207,0.159397,0.311655,0.167005,0.203062,0.00462858,-0.0715002,0.0988474,0.297145,0.222854,0.293567,0.220236,0.131109,0.132235
447356130,-1.21658,2.40479,-2.3091,-1.19905,-0.0766258,1.23565,2.66741,0.000365928,0.0197121,0.141365,0.228709,0.127685,0.0876076,-0.0351825,-0.0741421,0.0401063,0.158076,0.223812,0.295708,0.219912,0.129454,0.131114
447554780,-1.20238,2.30959,-2.29781,-1.19856,-0.090382,1.22455,2.67224,-0.369365,-0.25492,-0.229239,-0.346681,-0.447298,-0.034469,-0.00405237,0.111425,0.184329,0.0767884,0.223798,0.305594,0.222822,0.123699,0.124088
447753586,-1.20283,2.30962,-2.2982,-1.19899,-0.0907384,1.22419,2.67189,-0.369365,-0.25492,-0.229239,-0.346681,-0.447298,-0.034469,-0.00405237,0.111425,0.184329,0.0767884,0.223798,0.305594,0.222822,0.123699,0.124088
447952143,-1.22099,2.24544,-2.29317,-1.20315,-0.103897,1.21703,2.67677,-0.132965,0.0459099,0.00827019,-0.248694,-0.351439,-0.099072,0.0351075,0.254643,0.302618,0.0401245,0.226532,0.311907,0.221779,0.118949,0.120833
448155799,-1.25673,1.94681,-2.26843,-1.22066,-0.162061,1.1786,2.69752,-0.249725,0.0168071,0.0541423,-0.254532,-0.485029,-0.078218,0.0281228,0.313062,0.477274,0.171868,0.233865,0.343855,0.221254,0.098302,0.102725
448359442,-1.24888,1.81366,-2.2507,-1.22122,-0.18322,1.16219,2.70933,-0.381575,-0.152505,-0.0958543,-0.341338,-0.562154,0.0366482,0.105255,0.338063,0.50512,0.263946,0.234048,0.359442,0.223252,0.089843,0.0934155
448558232,-1.25335,1.80157,-2.24639,-1.21944,-0.181886,1.16635,2.7151,-0.0269391,0.0741272,0.0615484,-0.0944813,-0.161831,-0.0438933,0.0342962,0.159174,0.200798,0.0352541,0.235463,0.360854,0.222001,0.0886433,0.0930392
448756805,-1.26041,1.79544,-2.24345,-1.2186,-0.180923,1.17072,2.72024,0.0306226,0.0332813,-0.0629241,-0.181625,-0.101022,-0.00468606,0.111317,0.170931,0.0843871,-0.0573047,0.237152,0.361406,0.22042,0.0877967,0.0932249
448955487,-1.31431,1.71016,-2.23886,-1.23259,-0.203746,1.16946,2.73935,-0.258605,-0.31796,-0.50199,-0.63767,-0.434111,-0.0850833,0.0948264,0.134252,-0.0649967,-0.240379,0.246994,0.370779,0.211898,0.0797088,0.0906207
449154169,-1.31907,1.71017,-2.24361,-1.23736,-0.208487,1.16472,2.73464,-0.258605,-0.31796,-0.50199,-0.63767,-0.434111,-0.0850833,0.0948264,0.134252,-0.0649967,-0.240379,0.246994,0.370779,0.211898,0.0797088,0.0906207
449352908,-1.39175,1.61826,-2.24045,-1.25693,-0.235235,1.16831,2.75908,-0.251344,-0.321247,-0.541354,-0.710503,-0.459912,-0.00547615,0.20862,0.260319,0.0177909,-0.194263,0.261712,0.379751,0.198883,0.0705205,0.089134
449556500,-1.45069,1.51349,-2.23405,-1.27466,-0.259877,1.17246,2.78643,-0.0060865,0.0359328,-0.0695643,-0.276475,-0.200241,-0.0902699,0.0607619,0.182772,0.101648,-0.127101,0.276165,0.389735,0.186358,0.0613372,0.0864053
449755182,-1.44224,1.47767,-2.22843,-1.27445,-0.266767,1.16562,2.7899,-0.191356,-0.141817,-0.20199,-0.36354,-0.336955,-0.159417,-0.0549947,0.04733,0.0144904,-0.16196,0.275347,0.394701,0.187147,0.0593809,0.0834251
449953864,-1.43365,1.4777,-2.21983,-1.26586,-0.258133,1.17425,2.79852,-0.191356,-0.141817,-0.20199,-0.36354,-0.336955,-0.159417,-0.0549947,0.04733,0.0144904,-0.16196,0.275347,0.394701,0.187147,0.0593809,0.0834251
450152580,-1.43728,1.47982,-2.21636,-1.26292,-0.252912,1.18198,2.80467,0.0820958,0.113479,0.0857956,-0.00526468,0.00198247,0.097086,0.15286,0.211219,0.199824,0.101276,0.277139,0.393971,0.185562,0.0591679,0.0841596
450361163,-1.40004,1.43006,-2.19603,-1.2487,-0.249338,1.17961,2.81887,-0.182225,-0.120373,0.0926657,0.270276,0.0131399,0.284594,0.0853413,0.0212801,0.261143,0.469897,0.272371,0.401585,0.189701,0.0572672,0.0790753
450554877,-1.40366,1.43006,-2.19964,-1.25233,-0.252963,1.17596,2.81526,-0.182225,-0.120373,0.0926657,0.270276,0.0131399,0.284594,0.0853413,0.0212801,0.261143,0.469897,0.272371,0.401585,0.189701,0.0572672,0.0790753
450758566,-1.40608,1.27831,-2.19405,-1.27363,-0.302822,1.13151,2.81847,-0.136998,-0.0431453,0.326293,0.670884,0.229601,0.33627,-0.0237437,-0.156524,0.251002,0.653833,0.271392,0.422129,0.189524,0.0487688,0.0681872
450957226,-1.39943,0.771566,-2.10567,-1.3019,-0.442702,1.02719,2.91917,-0.0547271,0.0825165,0.60037,1.21236,0.501451,0.476385,-0.0440068,-0.277464,0.301719,0.995561,0.268309,0.505231,0.173918,0.0198262,0.0327159
451155890,-1.40603,0.600642,-2.07726,-1.32799,-0.525984,0.95198,2.94931,-0.118523,0.01625,0.498802,1.17631,0.421049,0.525834,0.0342962,-0.221252,0.331664,1.0773,0.257465,0.544056,0.166793,0.0114699,0.0202158
451354572,-1.40952,0.600609,-2.08066,-1.33146,-0.529824,0.948171,2.94457,-0.118523,0.01625,0.498802,1.17631,0.421049,0.525834,0.0342962,-0.221252,0.331664,1.0773,0.257465,0.544056,0.166793,0.0114699,0.0202158
451558221,-1.39659,0.512076,-2.0396,-1.32596,-0.559994,0.927138,2.98853,-0.104288,0.015302,0.400495,1.02879,0.351427,0.393788,-0.00632411,-0.23723,0.208683,0.896578,0.250953,0.567649,0.159561,0.0075379,0.0142989
451756911,-1.36689,0.407017,-1.97393,-1.30875,-0.59847,0.894664,3.05443,-0.279118,-0.0691223,0.310927,0.83548,-0.00648433,0.253691,-0.0615866,-0.193945,0.358341,0.859409,0.236257,0.602173,0.150106,0.00372665,0.00773815
451955586,-1.35078,0.356224,-1.92301,-1.29318,-0.619975,0.88488,3.11623,-0.135561,0.132269,0.516737,0.934666,-0.0031361,0.367615,0.108948,0.0527272,0.693942,1.01877,0.232218,0.620462,0.139907,0.00218276,0.00522978
452154268,-1.32244,0.316386,-1.86843,-1.26929,-0.634466,0.870707,3.17853,-0.302646,0.0254272,0.393024,0.629413,-0.396553,0.31951,0.161385,0.21072,0.960698,0.982227,0.224095,0.637719,0.133493,0.00129196,0.00340129
452352949,-1.33363,0.290928,-1.85487,-1.2786,-0.667191,0.845758,-3.07678,-0.248721,0.0900223,0.407146,0.479989,-0.516374,0.0823646,0.0183343,0.137757,0.908461,0.675888,0.223407,0.647894,0.125297,0.000834669,0.00256704
452561565,-1.35115,0.262448,-1.83934,-1.29539,-0.71926,0.799648,-3.03652,-0.309348,0.0321211,0.300156,0.174622,-0.748359,0.212621,0.242467,0.436606,1.2266,0.705162,0.221664,0.660176,0.115983,0.000450301,0.00172697
452760247,-1.37989,0.233838,-1.82525,-1.32062,-0.783953,0.746106,-2.97958,-0.323517,0.00729716,0.203574,-0.205515,-0.97908,0.17818,0.332291,0.618059,1.4242,0.49396,0.224531,0.670939,0.103216,0.000196265,0.00111805
452953962,-1.37931,0.234142,-1.82557,-1.31986,-0.782684,0.747623,-2.98059,-0.323517,0.00729716,0.203574,-0.205515,-0.97908,0.17818,0.332291,0.618059,1.4242,0.49396,0.224531,0.670939,0.103216,0.000196265,0.00111805
453157611,-1.39564,0.212408,-1.81308,-1.33833,-0.831431,0.691609,-2.93618,-0.276384,0.00486147,0.135579,-0.451083,-1.01156,-0.119125,0.102835,0.412963,1.17814,0.00402558,0.221934,0.680638,0.0965828,0.000100383,0.000744853
453356294,-1.42902,0.196755,-1.81214,-1.36532,-0.881073,0.667705,-2.89361,-0.142505,-0.0429458,-0.0230293,-0.41505,-0.49808,0.111568,0.251258,0.389787,0.706543,0.0420104,0.233274,0.680804,0.0852697,4.78752e-05,0.000604222
453554975,-1.43484,0.193808,-1.80928,-1.36823,-0.890364,0.672119,-2.87828,-0.215763,-0.166774,-0.178494,-0.506308,-0.447544,0.253843,0.365339,0.454385,0.619755,0.144726,0.238247,0.679098,0.0820272,3.85894e-05,0.00058865
453758625,-1.43277,0.192324,-1.80349,-1.36505,-0.889482,0.677151,-2.86807,-0.0139738,-0.00317031,-0.0410162,-0.335301,-0.157306,0.0712281,0.165564,0.222098,0.268391,-0.0732594,0.240485,0.678049,0.0808417,3.5891e-05,0.000588263
453957313,-1.42946,0.190945,-1.79685,-1.36049,-0.888617,0.681645,-2.85529,-0.20535,-0.218759,-0.268355,-0.499257,-0.272904,0.0602809,0.13165,0.157412,0.121033,-0.0846049,0.242438,0.677427,0.0795181,3.28225e-05,0.000584177
454155989,-1.42575,0.190203,-1.7907,-1.35558,-0.885394,0.690049,-2.84598,-0.0744524,-0.0951213,-0.144448,-0.337953,-0.110772,0.14987,0.20814,0.220459,0.15906,0.0155648,0.244629,0.67609,0.0786557,3.14936e-05,0.000593759
454354720,-1.42705,0.189791,-1.79017,-1.35564,-0.888279,0.694762,-2.8431,-0.324164,-0.329955,-0.352373,-0.460189,-0.347821,0.262757,0.295636,0.293108,0.273605,0.195275,0.246586,0.674813,0.0779684,3.01831e-05,0.000602566
454558320,-1.43232,0.189727,-1.79452,-1.35979,-0.894202,0.696435,-2.84708,-0.291123,-0.307751,-0.33287,-0.396432,-0.274288,0.310202,0.328062,0.30829,0.249978,0.251262,0.248351,0.673361,0.0776403,2.9876e-05,0.00061846
454757188,-1.42876,0.189571,-1.7916,-1.35646,-0.891582,0.702257,-2.84716,-0.0506039,-0.101466,-0.147362,-0.139775,0.0631041,0.340452,0.333263,0.275645,0.0976056,0.270419,0.248242,0.672714,0.0783828,3.11005e-05,0.00062964
454955684,-1.42771,0.188384,-1.7889,-1.35458,-0.891029,0.70497,-2.84004,-0.0883061,-0.175314,-0.246946,-0.187813,0.116705,0.122957,0.0968487,0.00647056,-0.296269,0.0279211,0.249588,0.672112,0.0776349,2.99709e-05,0.000635381
455154366,-1.42343,0.188407,-1.78463,-1.35029,-0.886737,0.709256,-2.83574,-0.0883061,-0.175314,-0.246946,-0.187813,0.116705,0.122957,0.0968487,0.00647056,-0.296269,0.0279211,0.249588,0.672112,0.0776349,2.99709e-05,0.000635381
455353048,-1.42131,0.180989,-1.77342,-1.3494,-0.89506,0.694501,-2.80362,0.0799027,-0.0627102,-0.165662,0.0346794,0.455101,0.0803545,0.00596154,-0.152736,-0.65862,-0.0167131,0.249141,0.674639,0.0756326,2.27651e-05,0.000564698
455561817,-1.4076,0.175819,-1.75808,-1.34015,-0.892941,0.684086,-2.78488,0.101304,-0.0584636,-0.167766,0.107999,0.547908,0.34556,0.245907,0.0563965,-0.526143,0.269471,0.24295,0.679116,0.0774196,2.07813e-05,0.000493727
455760346,-1.39991,0.16971,-1.74413,-1.33519,-0.896471,0.670648,-2.75787,0.0724933,-0.0756057,-0.160167,0.225091,0.555051,0.209531,0.0771007,-0.13678,-0.703636,0.211261,0.239671,0.68295,0.0769367,1.64962e-05,0.000425364
455954061,-1.39395,0.169728,-1.73816,-1.32924,-0.890491,0.67666,-2.75186,0.0724933,-0.0756057,-0.160167,0.225091,0.555051,0.209531,0.0771007,-0.13678,-0.703636,0.211261,0.239671,0.68295,0.0769367,1.64962e-05,0.000425364
456152743,-1.38825,0.163893,-1.72541,-1.32613,-0.896238,0.660449,-2.72472,0.120989,-0.0179772,-0.0975999,0.272442,0.583948,0.151799,0.0239617,-0.179949,-0.729611,0.165094,0.236614,0.686857,0.0761537,1.26668e-05,0.00036225
456351506,-1.38615,0.159137,-1.72034,-1.32838,-0.907166,0.635624,-2.71686,0.0865921,-0.0378409,-0.106957,0.253897,0.520834,0.325551,0.201594,0.00907844,-0.505033,0.360301,0.230286,0.691517,0.0778759,1.12741e-05,0.000309472
456555074,-1.39576,0.156003,-1.72623,-1.3385,-0.921293,0.618902,-2.71504,0.0133674,-0.122143,-0.226023,-0.0672038,0.389164,0.168024,0.0978208,-0.0443689,-0.573462,0.0871975,0.229905,0.692675,0.0771183,9.83262e-06,0.000291173
456758724,-1.39641,0.148377,-1.71748,-1.34291,-0.938312,0.584371,-2.68668,0.138555,-0.0135777,-0.155697,-0.191713,0.475678,0.0574619,0.035756,-0.062162,-0.629905,-0.137573,0.224943,0.69827,0.0765524,6.72657e-06,0.000227878
456957406,-1.40113,0.148395,-1.72219,-1.34762,-0.943059,0.579597,-2.69142,0.138555,-0.0135777,-0.155697,-0.191713,0.475678,0.0574619,0.035756,-0.062162,-0.629905,-0.137573,0.224943,0.69827,0.0765524,6.72657e-06,0.000227878
457156199,-1.42134,0.140658,-1.72707,-1.36721,-0.974722,0.542905,-2.66266,-0.0561378,-0.21425,-0.371971,-0.498431,0.273062,0.0225383,0.0190695,-0.0595475,-0.650474,-0.212825,0.228124,0.699985,0.0716951,3.74713e-06,0.000192771
457354770,-1.46856,0.137279,-1.76879,-1.41457,-1.02632,0.487042,-2.68822,0.0717506,-0.0848145,-0.241567,-0.367045,0.402282,-0.0331025,-0.0380567,-0.116266,-0.712256,-0.258812,0.228575,0.701377,0.0698717,2.80707e-06,0.000174447
457558420,-1.50767,0.13312,-1.80098,-1.45574,-1.07578,0.425617,-2.70561,0.18816,0.0303642,-0.12838,-0.260581,0.527122,-0.100989,-0.107113,-0.185421,-0.796245,-0.323277,0.226019,0.704769,0.0690622,2.05424e-06,0.000147803
457757103,-1.52277,0.130144,-1.81067,-1.47203,-1.0981,0.39568,-2.70382,0.138138,0.00509964,-0.127519,-0.227814,0.440025,-0.0895616,-0.101065,-0.173217,-0.704021,-0.26194,0.224789,0.70689,0.0681876,1.6077e-06,0.000131899
457955816,-1.52438,0.128176,-1.8075,-1.47444,-1.10539,0.382795,-2.69108,0.15556,0.063904,-0.0236832,-0.052666,0.386793,-0.248855,-0.26905,-0.332753,-0.71922,-0.340251,0.224188,0.708418,0.067272,1.31099e-06,0.000121077
458154479,-1.52377,0.128187,-1.80684,-1.47384,-1.10482,0.383384,-2.69048,0.15556,0.063904,-0.0236832,-0.052666,0.386793,-0.248855,-0.26905,-0.332753,-0.71922,-0.340251,0.224188,0.708418,0.067272,1.31099e-06,0.000121077
458358114,-1.52966,0.127495,-1.80892,-1.4781,-1.11179,0.382878,-2.68571,-0.290256,-0.339031,-0.381984,-0.355779,-0.145058,-0.220637,-0.243173,-0.291906,-0.517603,-0.242715,0.227915,0.706615,0.0653426,1.17927e-06,0.000126172
458556798,-1.53225,0.127398,-1.81241,-1.48149,-1.1137,0.377722,-2.68997,0.244849,0.205772,0.169083,0.16919,0.353692,0.0348068,0.0221952,-0.0120386,-0.188556,0.00681749,0.22629,0.707704,0.0658827,1.16944e-06,0.000121563
458755477,-1.53235,0.126264,-1.80933,-1.48243,-1.1201,0.366632,-2.68286,0.172573,0.123216,0.0720593,0.0188434,0.288183,-0.346284,-0.348638,-0.375459,-0.579937,-0.411444,0.225272,0.708899,0.0657131,1.06695e-06,0.000115343
458954160,-1.53264,0.125899,-1.80878,-1.4826,-1.11884,0.368257,-2.67761,-0.0366593,-0.0934669,-0.157644,-0.276324,0.0751396,-0.117586,-0.106144,-0.12071,-0.338559,-0.223013,0.225757,0.708991,0.0651378,9.84865e-07,0.000113411
459157810,-1.52551,0.125059,-1.7996,-1.47566,-1.11384,0.371525,-2.66375,0.0279139,-0.0379808,-0.108792,-0.208384,0.170793,-0.130971,-0.127372,-0.153084,-0.417306,-0.232675,0.225812,0.709423,0.064654,8.96946e-07,0.000109988
459356493,-1.51626,0.12446,-1.78896,-1.46665,-1.10631,0.377435,-2.64996,0.0450367,-0.00987743,-0.0689742,-0.152291,0.165758,-0.115691,-0.113048,-0.135093,-0.357304,-0.199182,0.22564,0.709858,0.0643946,8.40844e-07,0.000107237
459555198,-1.50989,0.12423,-1.78181,-1.46051,-1.101,0.381839,-2.64123,0.0686409,0.0483398,0.0258507,-0.009337,0.115756,-0.28801,-0.286505,-0.296289,-0.381092,-0.318888,0.225389,0.710199,0.0643046,8.17292e-07,0.000105726
459758823,-1.50678,0.124162,-1.77841,-1.4573,-1.09796,0.384777,-2.63729,0.0278415,0.0544903,0.0837166,0.136449,-0.0178237,-0.000811309,-0.0060786,-0.00503317,0.0907685,0.0507457,0.225609,0.710111,0.0641732,8.07891e-07,0.000105723
459957505,-1.50172,0.123763,-1.77318,-1.45221,-1.09288,0.389915,-2.63157,-0.0613152,0.0092081,0.0866846,0.220593,-0.194412,-0.211748,-0.222986,-0.211488,0.0538446,-0.0839775,0.225731,0.710061,0.0641012,8.07085e-07,0.000105972
460156192,-1.50025,0.122802,-1.76984,-1.44938,-1.08974,0.397791,-2.62469,0.0297498,0.135745,0.255942,0.495689,-0.159598,-0.303402,-0.329433,-0.319972,0.0696964,-0.0926047,0.228856,0.708311,0.0627214,7.58732e-07,0.000110508
460354869,-1.50063,0.120871,-1.76744,-1.44976,-1.09255,0.391916,-2.61552,-0.0778475,0.0525008,0.197821,0.460264,-0.323916,-0.165809,-0.189571,-0.168297,0.325552,0.0742627,0.229457,0.708519,0.0619157,6.6414e-07,0.000106823
460553553,-1.49884,0.118334,-1.76409,-1.44958,-1.09589,0.379101,-2.60723,-0.234486,-0.0843699,0.0852065,0.412221,-0.513542,-0.216167,-0.248246,-0.228495,0.337179,0.0692427,0.226585,0.710879,0.0624376,6.01306e-07,9.7393e-05
460752234,-1.48881,0.115448,-1.75156,-1.44219,-1.09435,0.364866,-2.58696,-0.277888,-0.128783,0.0383545,0.35472,-0.563096,-0.0537657,-0.0818183,-0.0584991,0.508176,0.221433,0.221735,0.71481,0.0633719,5.09066e-07,8.31454e-05
460960850,-1.48493,0.111851,-1.74485,-1.44051,-1.09817,0.347044,-2.57188,-0.145723,-0.0303251,0.101897,0.397069,-0.360496,-0.332283,-0.362055,-0.354108,0.0703646,-0.100932,0.217744,0.718225,0.0639586,4.23857e-07,7.17326e-05
461159562,-1.48737,0.11187,-1.74728,-1.44295,-1.10061,0.344606,-2.57433,-0.145723,-0.0303251,0.101897,0.397069,-0.360496,-0.332283,-0.362055,-0.354108,0.0703646,-0.100932,0.217744,0.718225,0.0639586,4.23857e-07,7.17326e-05
461353247,-1.49443,0.110662,-1.75254,-1.44946,-1.10793,0.338217,-2.57554,-0.0427003,0.0699038,0.198132,0.476428,-0.256101,-0.231687,-0.258257,-0.247761,0.170637,-0.0116532,0.219238,0.717651,0.0630388,3.87318e-07,7.1869e-05
461551929,-1.49854,0.109211,-1.75413,-1.45287,-1.1126,0.334395,-2.57144,-0.0291499,0.091682,0.230009,0.535574,-0.257476,-0.215703,-0.245378,-0.235233,0.214234,0.0221273,0.22123,0.716896,0.0618019,3.40336e-07,7.18441e-05
461750812,-1.48977,0.107515,-1.74419,-1.44461,-1.1061,0.337097,-2.55821,-0.171366,-0.0389447,0.113009,0.450344,-0.423255,-0.259834,-0.292135,-0.280731,0.215312,-0.000926554,0.220382,0.71778,0.0617685,3.14981e-07,6.87651e-05
461954276,-1.48553,0.105001,-1.73717,-1.44203,-1.10832,0.323301,-2.54336,-0.220419,-0.0736653,0.0944533,0.467089,-0.503052,-0.0902107,-0.124727,-0.110744,0.441636,0.193515,0.217394,0.720509,0.0620359,2.61577e-07,6.05868e-05
462157910,-1.49406,0.100119,-1.73813,-1.45011,-1.12265,0.302632,-2.52624,-0.019151,0.130393,0.303326,0.716091,-0.309286,-0.223547,-0.261947,-0.252428,0.306355,0.0718817,0.219987,0.720589,0.0593683,1.66124e-07,5.53826e-05
462356592,-1.4919,0.0983051,-1.73128,-1.44734,-1.12513,0.298572,-2.51195,0.00672841,0.126517,0.268136,0.636603,-0.216684,-0.0974652,-0.135832,-0.136982,0.301324,0.15491,0.222375,0.719835,0.057736,1.32486e-07,5.43398e-05
462555469,-1.48493,0.0983121,-1.72423,-1.44039,-1.11823,0.305477,-2.50505,0.00672841,0.126517,0.268136,0.636603,-0.216684,-0.0974652,-0.135832,-0.136982,0.301324,0.15491,0.222375,0.719835,0.057736,1.32486e-07,5.43398e-05
462753959,-1.47496,0.0976044,-1.71365,-1.43118,-1.11053,0.308909,-2.49315,-0.160876,-0.0799331,0.0121519,0.216285,-0.328414,-0.0627251,-0.0772063,-0.0660657,0.251971,0.0806987,0.220844,0.721041,0.0580637,1.26511e-07,5.17804e-05
462952639,-1.47931,0.0973406,-1.7176,-1.43563,-1.11555,0.302829,-2.49616,-0.0287071,0.0205743,0.0678892,0.082893,-0.166188,-0.0576827,-0.0405645,-0.00595051,0.233199,-0.029925,0.22069,0.721251,0.0580083,1.22917e-07,5.11368e-05
463156289,-1.48616,0.097376,-1.72486,-1.44251,-1.12205,0.296746,-2.50433,0.158381,0.177317,0.191466,0.147119,0.0899348,-0.22779,-0.209442,-0.183831,-0.0715892,-0.244151,0.220525,0.721276,0.0581473,1.25868e-07,5.13358e-05
463355089,-1.48889,0.097236,-1.72728,-1.44536,-1.12542,0.2919,-2.50594,-0.0528579,-0.0599605,-0.0785477,-0.228177,-0.0793455,-0.0715853,-0.0394503,-0.00768214,0.0180852,-0.155028,0.220305,0.72151,0.0581343,1.23022e-07,5.07302e-05
463553651,-1.48321,0.0972434,-1.72244,-1.43981,-1.11776,0.297432,-2.49727,-0.0437825,-0.0650156,-0.101404,-0.309125,-0.0477622,-0.13551,-0.0956866,-0.0603192,-0.0806914,-0.255933,0.219733,0.722055,0.0581631,1.17885e-07,4.94425e-05
463762268,-1.46068,0.0967902,-1.69973,-1.41821,-1.09765,0.31172,-2.47303,0.0858813,0.0645695,0.0340743,-0.0987269,0.10636,-0.155438,-0.133366,-0.117197,-0.168864,-0.235225,0.217657,0.723558,0.0587379,1.14499e-07,4.67906e-05
463960950,-1.4456,0.0967589,-1.68488,-1.4034,-1.08306,0.324896,-2.45838,0.00465231,0.00603355,0.000874676,-0.0802588,-0.0249591,-0.205095,-0.185393,-0.164023,-0.123066,-0.248688,0.216968,0.723995,0.0589904,1.15289e-07,4.61778e-05
464159754,-1.44868,0.0967789,-1.68796,-1.40648,-1.08613,0.321822,-2.46146,0.00465231,0.00603355,0.000874676,-0.0802588,-0.0249591,-0.205095,-0.185393,-0.164023,-0.123066,-0.248688,0.216968,0.723995,0.0589904,1.15289e-07,4.61778e-05
464358314,-1.46183,0.0966694,-1.70177,-1.42018,-1.09987,0.305971,-2.47669,-0.0323944,-0.00341445,0.0235243,0.0224503,-0.117683,-0.21546,-0.202613,-0.179249,-0.0333582,-0.205737,0.215603,0.724786,0.0595657,1.18977e-07,4.52248e-05
464552029,-1.47292,0.0964002,-1.71148,-1.43143,-1.11414,0.290861,-2.48869,-0.0323944,-0.00341445,0.0235243,0.0224503,-0.117683,-0.21546,-0.202613,-0.179249,-0.0333582,-0.205737,0.215603,0.724786,0.0595657,1.18977e-07,4.52248e-05
464755678,-1.48905,0.0963914,-1.72782,-1.44775,-1.13061,0.273326,-2.50529,0.0149031,0.0115739,0.00580041,-0.026975,0.0144457,-0.110256,-0.103948,-0.0985973,-0.101851,-0.129278,0.215076,0.725112,0.0597668,1.19796e-07,4.47888e-05
464954428,-1.50476,0.0964128,-1.74355,-1.46346,-1.14636,0.257591,-2.52096,0.0149031,0.0115739,0.00580041,-0.026975,0.0144457,-0.110256,-0.103948,-0.0985973,-0.101851,-0.129278,0.215076,0.725112,0.0597668,1.19796e-07,4.47888e-05
465158010,-1.51309,0.0963084,-1.75154,-1.47185,-1.1552,0.247693,-2.52791,0.0310691,0.00507537,-0.023576,-0.0779573,0.0904039,-0.128843,-0.127292,-0.134774,-0.2428,-0.167681,0.214977,0.725271,0.0597075,1.16961e-07,4.43542e-05
465356695,-1.51196,0.0959669,-1.74913,-1.47061,-1.15501,0.246374,-2.52226,0.00643835,-0.0406055,-0.0879803,-0.130145,0.131901,-0.163967,-0.174539,-0.202307,-0.421927,-0.20326,0.215504,0.72523,0.059222,1.07889e-07,4.37674e-05
465555374,-1.49824,0.0956106,-1.73502,-1.45714,-1.1404,0.257151,-2.50134,0.132266,0.0708677,0.0103462,-0.0279202,0.301685,-0.165814,-0.183771,-0.224385,-0.519299,-0.207129,0.215044,0.725964,0.0589501,9.63014e-08,4.17943e-05
465754133,-1.4865,0.0951191,-1.72092,-1.44454,-1.12891,0.269528,-2.48174,-0.115518,-0.172925,-0.226838,-0.227906,0.0548422,-0.188324,-0.213673,-0.2609,-0.553883,-0.206514,0.217545,0.724817,0.0575953,8.35172e-08,4.2344e-05
465952738,-1.47721,0.0948785,-1.71021,-1.43469,-1.11967,0.279517,-2.46768,-0.0152971,-0.0449161,-0.0670855,0.00761112,0.0963428,-0.232268,-0.263014,-0.306829,-0.492738,-0.20009,0.219147,0.724051,0.0567588,7.65984e-08,4.27575e-05
466151453,-1.47108,0.094829,-1.70373,-1.42813,-1.11288,0.288074,-2.46055,-0.0963677,-0.0891984,-0.0699697,0.0950633,-0.0659409,-0.168194,-0.20349,-0.239978,-0.277158,-0.0762209,0.22023,0.723387,0.0563396,7.51523e-08,4.35589e-05
466355070,-1.47208,0.0945857,-1.70365,-1.42827,-1.11288,0.291137,-2.45842,0.0281193,0.0702365,0.129583,0.389535,-0.0155648,-0.220276,-0.262031,-0.293869,-0.192791,-0.0668664,0.222488,0.72205,0.0554173,7.08184e-08,4.49935e-05
466553752,-1.47585,0.0940103,-1.7066,-1.43166,-1.1165,0.288359,-2.45954,-0.0877585,-0.0127199,0.0825164,0.405763,-0.209458,-0.212948,-0.254629,-0.275352,-0.0312523,-0.0164313,0.223608,0.72145,0.0548971,6.72969e-08,4.54213e-05
466757401,-1.49194,0.0929179,-1.72093,-1.44773,-1.13413,0.268314,-2.46953,-0.0834384,0.0182377,0.140257,0.484876,-0.277657,-0.151239,-0.185846,-0.18989,0.18357,0.0637265,0.224135,0.72147,0.0543497,5.98974e-08,4.43808e-05
466956088,-1.5045,0.0915745,-1.73118,-1.46061,-1.15142,0.247822,-2.47934,-0.110791,-0.000877518,0.126001,0.432943,-0.342694,-0.243441,-0.264931,-0.251985,0.18325,-0.0487177,0.224038,0.721775,0.0541436,5.55903e-08,4.33067e-05
467154766,-1.51442,0.0905886,-1.73983,-1.47089,-1.16343,0.23198,-2.48438,-0.123493,-0.0268482,0.0891688,0.419652,-0.310076,-0.117178,-0.149606,-0.153255,0.20325,0.0854189,0.223552,0.722423,0.053984,5.05216e-08,4.16426e-05
467353449,-1.52268,0.0896288,-1.74691,-1.4793,-1.17319,0.219813,-2.48852,-0.139478,-0.0747378,-0.000371292,0.177162,-0.27932,-0.129361,-0.140342,-0.131153,0.129484,-0.0192441,0.223538,0.722702,0.0537194,4.64103e-08,4.05958e-05
467557102,-1.52413,0.0896451,-1.74834,-1.48075,-1.17468,0.218337,-2.49001,-0.139478,-0.0747378,-0.000371292,0.177162,-0.27932,-0.129361,-0.140342,-0.131153,0.129484,-0.0192441,0.223538,0.722702,0.0537194,4.64103e-08,4.05958e-05
467755780,-1.52203,0.0890259,-1.74722,-1.48022,-1.17535,0.210503,-2.49011,0.0770549,0.118704,0.151584,0.0648187,-0.0745688,-0.270947,-0.231389,-0.174193,0.0868152,-0.309723,0.2195,0.725335,0.055127,4.84804e-08,3.75567e-05
467954461,-1.53176,0.0893414,-1.75839,-1.4898,-1.18133,0.205205,-2.49872,0.0770549,0.118704,0.151584,0.0648187,-0.0745688,-0.270947,-0.231389,-0.174193,0.0868152,-0.309723,0.2195,0.725335,0.055127,4.84804e-08,3.75567e-05
468153145,-1.52978,0.0892112,-1.75667,-1.48809,-1.17975,0.205701,-2.49738,0.0347409,0.0673078,0.0930923,0.0268288,-0.0835073,-0.194956,-0.164335,-0.119994,0.0832057,-0.224505,0.218789,0.725777,0.0553969,4.90927e-08,3.70979e-05
468356793,-1.51835,0.0891094,-1.7459,-1.4772,-1.16898,0.214499,-2.4877,-0.0159646,0.0150041,0.0398226,-0.0188755,-0.127217,-0.291543,-0.263383,-0.222285,-0.0310703,-0.317373,0.217337,0.726643,0.0559833,5.08572e-08,3.62733e-05
468555475,-1.50838,0.0886691,-1.73674,-1.4683,-1.16079,0.218057,-2.47955,-0.0147153,0.0359307,0.0807142,0.0426713,-0.179654,-0.291268,-0.25843,-0.205766,0.0799044,-0.302273,0.214596,0.728362,0.0570077,5.27537e-08,3.4432e-05
468754203,-1.51387,0.0886895,-1.74223,-1.47379,-1.16626,0.212579,-2.48504,-0.0147153,0.0359307,0.0807142,0.0426713,-0.179654,-0.291268,-0.25843,-0.205766,0.0799044,-0.302273,0.214596,0.728362,0.0570077,5.27537e-08,3.4432e-05
468952843,-1.5159,0.0882491,-1.74466,-1.47658,-1.16967,0.205698,-2.48781,-0.0525275,0.0134662,0.0742851,0.0590048,-0.257344,-0.280889,-0.245947,-0.185974,0.169918,-0.27658,0.212698,0.72957,0.0576988,5.35969e-08,3.31036e-05
469151522,-1.5105,0.0874612,-1.73901,-1.47224,-1.16704,0.202071,-2.48053,-0.121656,-0.0381822,0.0408185,0.0509109,-0.372452,-0.217267,-0.179658,-0.111107,0.325331,-0.196195,0.210223,0.731328,0.0584181,5.17816e-08,3.09007e-05
469355171,-1.50368,0.0847571,-1.72893,-1.4667,-1.16637,0.190239,-2.46084,-0.100859,0.0311464,0.171523,0.402215,-0.435627,-0.181746,-0.170628,-0.115777,0.475682,-0.0344311,0.207867,0.733738,0.0583688,4.01777e-08,2.70468e-05
469554084,-1.49252,0.0847797,-1.71779,-1.45553,-1.15522,0.2014,-2.44962,-0.100859,0.0311464,0.171523,0.402215,-0.435627,-0.181746,-0.170628,-0.115777,0.475682,-0.0344311,0.207867,0.733738,0.0583688,4.01777e-08,2.70468e-05
469757503,-1.47366,0.0800308,-1.69321,-1.43994,-1.14964,0.178517,-2.40717,-0.277727,-0.112139,0.0751284,0.530806,-0.658973,-0.186622,-0.206457,-0.176146,0.496207,0.0762545,0.200958,0.739836,0.0591863,2.50051e-08,1.97745e-05
469956189,-1.45784,0.0770483,-1.67287,-1.42679,-1.14463,0.159541,-2.37271,-0.306545,-0.132662,0.0632,0.543982,-0.715645,-0.00916672,-0.0269145,0.00728607,0.718213,0.258536,0.195019,0.744915,0.0600504,1.71176e-08,1.51633e-05
470154867,-1.4581,0.077064,-1.67309,-1.42706,-1.14491,0.159295,-2.37287,-0.306545,-0.132662,0.0632,0.543982,-0.715645,-0.00916672,-0.0269145,0.00728607,0.718213,0.258536,0.195019,0.744915,0.0600504,1.71176e-08,1.51633e-05
470353704,-1.45339,0.0746276,-1.66406,-1.4241,-1.15034,0.138164,-2.35879,-0.249494,-0.0930144,0.0840758,0.547221,-0.621932,-0.152149,-0.169978,-0.142749,0.490219,0.0917161,0.191267,0.748078,0.0606424,1.34431e-08,1.27758e-05
470557198,-1.45748,0.072443,-1.6642,-1.42947,-1.1614,0.1125,-2.34791,-0.23628,-0.147454,-0.0422418,0.303269,-0.432584,-0.0269206,-0.0525,-0.0553278,0.263561,0.148793,0.188535,0.750868,0.0605866,9.63821e-09,1.07649e-05
470755880,-1.4739,0.0723199,-1.68181,-1.44613,-1.17538,0.0969944,-2.36086,-0.14948,-0.0911856,-0.0170687,0.29161,-0.256336,-0.0299885,-0.0650033,-0.0874366,0.0726249,0.13155,0.187672,0.751526,0.0607911,9.28619e-09,1.04005e-05
470954562,-1.48216,0.071848,-1.68838,-1.4548,-1.18816,0.0814562,-2.37016,-0.13857,-0.103108,-0.0538446,0.200406,-0.185208,0.0402492,0.00397158,-0.0265365,0.0306668,0.176465,0.186842,0.752089,0.0610593,9.15767e-09,1.01256e-05
471153344,-1.49143,0.0721216,-1.69918,-1.46398,-1.19378,0.0767371,-2.37771,-0.13857,-0.103108,-0.0538446,0.200406,-0.185208,0.0402492,0.00397158,-0.0265365,0.0306668,0.176465,0.186842,0.752089,0.0610593,9.15767e-09,1.01256e-05
471356894,-1.47629,0.0716123,-1.68329,-1.44918,-1.18016,0.0873635,-2.35925,-0.0564832,-0.0524754,-0.0325331,0.221666,0.0026015,0.0291907,-0.0265076,-0.0877405,-0.219155,0.175564,0.186054,0.752778,0.0611589,8.61743e-09,9.74538e-06
471555576,-1.45629,0.0711571,-1.66133,-1.42889,-1.16324,0.104596,-2.33998,-0.234252,-0.244666,-0.239885,-0.0121644,-0.134428,-0.0462416,-0.104754,-0.173303,-0.375336,0.0893238,0.187158,0.752212,0.0606199,8.32017e-09,9.95225e-06
471754258,-1.43767,0.070822,-1.64149,-1.41032,-1.14581,0.119305,-2.31658,0.148109,0.127131,0.117963,0.281841,0.264796,-0.040431,-0.090716,-0.153143,-0.379009,0.060903,0.187267,0.752462,0.0602616,7.54196e-09,9.7104e-06
471953031,-1.42428,0.0705844,-1.6272,-1.39709,-1.13358,0.128885,-2.29961,0.191041,0.162122,0.138913,0.200316,0.304705,-0.0943073,-0.125935,-0.169861,-0.381419,-0.0500252,0.187037,0.752835,0.0601184,7.026e-09,9.4587e-06
472156623,-1.41771,0.0706009,-1.62059,-1.39052,-1.12704,0.135468,-2.29308,0.191041,0.162122,0.138913,0.200316,0.304705,-0.0943073,-0.125935,-0.169861,-0.381419,-0.0500252,0.187037,0.752835,0.0601184,7.026e-09,9.4587e-06
472360239,-1.41112,0.0704497,-1.61349,-1.38391,-1.12092,0.140263,-2.28477,-0.0346119,-0.0609266,-0.0947108,-0.236985,0.0119257,0.0280101,0.0448608,0.0558853,-0.0137124,-0.0476155,0.187187,0.752864,0.0599398,6.75966e-09,9.39356e-06
472558923,-1.4184,0.0705947,-1.62219,-1.39114,-1.1252,0.134425,-2.28768,-0.000736639,-0.0329302,-0.0727822,-0.224541,0.0631316,-0.153604,-0.13835,-0.130766,-0.230223,-0.232413,0.18694,0.753152,0.0598982,6.48469e-09,9.22025e-06
472757659,-1.42816,0.070555,-1.63193,-1.40102,-1.13521,0.123623,-2.29722,0.0958929,0.0722704,0.0434251,-0.0614353,0.144493,0.00618595,0.0159269,0.0198374,-0.0570499,-0.0479343,0.186634,0.753346,0.0600106,6.48102e-09,9.14065e-06
472956286,-1.4361,0.0705557,-1.63984,-1.40901,-1.14325,0.115162,-2.30501,0.0336863,0.0234459,0.00985498,-0.0515845,0.0495764,-0.0648546,-0.056707,-0.0507289,-0.0735843,-0.0983723,0.186508,0.753433,0.0600505,6.46743e-09,9.1032e-06
473159935,-1.43935,0.0705755,-1.6431,-1.41226,-1.1465,0.11191,-2.30827,0.0336863,0.0234459,0.00985498,-0.0515845,0.0495764,-0.0648546,-0.056707,-0.0507289,-0.0735843,-0.0983723,0.186508,0.753433,0.0600505,6.46743e-09,9.1032e-06
473358617,-1.44223,0.0705266,-1.6456,-1.4148,-1.14892,0.11097,-2.31011,0.19552,0.227595,0.262092,0.336171,0.107179,-0.0987332,-0.0951095,-0.0820593,0.0670783,-0.0684376,0.187513,0.752894,0.0595833,6.27006e-09,9.2826e-06
473557377,-1.4512,0.0703773,-1.65381,-1.42333,-1.15757,0.103491,-2.31677,0.143328,0.190534,0.243228,0.38092,0.0221846,-0.0777698,-0.0792882,-0.0676355,0.133775,-0.0157762,0.188864,0.752227,0.0589004,5.89415e-09,9.4724e-06
473755984,-1.46524,0.0699915,-1.66605,-1.43742,-1.17535,0.0856521,-2.33314,0.00195659,0.0492244,0.102083,0.240787,-0.119061,-0.210697,-0.212386,-0.200894,0.000857949,-0.14837,0.189121,0.752075,0.0587948,5.86204e-09,9.5249e-06
473954664,-1.48382,0.0698927,-1.68441,-1.45602,-1.19428,0.066057,-2.35078,-0.0353888,-0.00171673,0.0394554,0.193933,-0.105869,-0.0176247,-0.0315948,-0.0377296,0.071113,0.059242,0.189085,0.752161,0.0587449,5.74068e-09,9.45982e-06
474153347,-1.49905,0.0698862,-1.69971,-1.4712,-1.20937,0.0513888,-2.36621,-0.0762148,-0.0552607,-0.0281111,0.0926407,-0.113357,-0.141182,-0.155433,-0.16552,-0.113099,-0.0792322,0.189202,0.752078,0.0587108,5.75727e-09,9.49731e-06
474352030,-1.50784,0.0698641,-1.70842,-1.48015,-1.21862,0.0413393,-2.37501,-0.186282,-0.180417,-0.176818,-0.205483,-0.214836,-0.143961,-0.133417,-0.120036,-0.06578,-0.163668,0.188782,0.752338,0.0588701,5.77021e-09,9.39271e-06
474550711,-1.49491,0.0698707,-1.69537,-1.46725,-1.20578,0.0542777,-2.36207,-0.186282,-0.180417,-0.176818,-0.205483,-0.214836,-0.143961,-0.133417,-0.120036,-0.06578,-0.163668,0.188782,0.752338,0.0588701,5.77021e-09,9.39271e-06
474754360,-1.48377,0.0700007,-1.68604,-1.45625,-1.19132,0.0653515,-2.34703,-0.0767395,-0.0828228,-0.101428,-0.30482,-0.114516,-0.161461,-0.11824,-0.0716902,0.0195944,-0.279031,0.187894,0.753012,0.059085,5.56751e-09,9.07427e-06
474953043,-1.47026,0.0697923,-1.67238,-1.44319,-1.17906,0.0742361,-2.33242,-0.050164,-0.0566195,-0.0710493,-0.203447,-0.0663824,-0.137433,-0.110822,-0.0829573,-0.0380654,-0.213332,0.186697,0.75382,0.0594739,5.47587e-09,8.73789e-06
475161659,-1.46686,0.0697708,-1.66908,-1.43996,-1.17599,0.0763671,-2.3292,-0.0543079,-0.0430886,-0.0355316,-0.0808757,-0.105803,-0.151766,-0.133892,-0.110762,-0.0126209,-0.183659,0.186183,0.754121,0.0596875,5.51456e-09,8.63031e-06
475355374,-1.46556,0.0696773,-1.66759,-1.43868,-1.17494,0.0768004,-2.32716,-0.0178616,0.0180176,0.056481,0.136697,-0.117513,-0.0579096,-0.0531569,-0.0376897,0.131788,-0.0259433,0.186148,0.754193,0.0596506,5.42323e-09,8.58123e-06
475554056,-1.4579,0.069452,-1.65923,-1.43091,-1.16776,0.0829803,-2.31701,0.0147443,0.0657185,0.12486,0.309962,-0.106481,-0.0282376,-0.0379642,-0.0344129,0.160919,0.0592623,0.186572,0.754106,0.0593132,5.10987e-09,8.54012e-06
475757706,-1.4446,0.0694718,-1.64594,-1.41761,-1.1545,0.0962677,-2.30369,0.0147443,0.0657185,0.12486,0.309962,-0.106481,-0.0282376,-0.0379642,-0.0344129,0.160919,0.0592623,0.186572,0.754106,0.0593132,5.10987e-09,8.54012e-06
475956416,-1.42947,0.0684088,-1.62935,-1.40339,-1.14305,0.0981385,-2.28206,-0.133312,-0.0511215,0.0451831,0.3602,-0.325249,-0.0619775,-0.0809867,-0.0790949,0.226104,0.0873776,0.184306,0.75592,0.0597669,4.48521e-09,7.71922e-06
476155072,-1.41857,0.0674747,-1.61707,-1.39326,-1.13542,0.0971909,-2.26513,-0.187498,-0.0876051,0.0293398,0.412865,-0.422106,-0.0559624,-0.0785974,-0.0759331,0.295468,0.124123,0.182378,0.757487,0.0601272,3.96834e-09,7.05581e-06
476353753,-1.41467,0.0661447,-1.60985,-1.38956,-1.13537,0.0873966,-2.24868,-0.0710009,0.0461345,0.183716,0.645551,-0.345604,-0.00551915,-0.0337074,-0.0327425,0.396094,0.209549,0.182384,0.75835,0.0592595,2.96813e-09,6.51022e-06
476552629,-1.41517,0.0661641,-1.61034,-1.39006,-1.13586,0.0869082,-2.24915,-0.0710009,0.0461345,0.183716,0.645551,-0.345604,-0.00551915,-0.0337074,-0.0327425,0.396094,0.209549,0.182384,0.75835,0.0592595,2.96813e-09,6.51022e-06
476756087,-1.40461,0.0633745,-1.59361,-1.3817,-1.13808,0.0610716,-2.22443,-0.205897,-0.0995556,0.0265638,0.47874,-0.454794,-0.0900439,-0.119565,-0.124083,0.249215,0.113639,0.177318,0.762497,0.0601796,2.09658e-09,5.09032e-06
476959734,-1.40953,0.0628087,-1.59666,-1.38622,-1.14395,0.0532141,-2.22287,0.0608406,0.142608,0.236265,0.532614,-0.147155,-0.0547199,-0.0645182,-0.0537292,0.270811,0.0677884,0.178837,0.762057,0.0591009,1.76363e-09,5.08243e-06
477158419,-1.41339,0.0625666,-1.59898,-1.38938,-1.14768,0.050806,-2.22192,0.229908,0.283898,0.342041,0.475561,0.0746271,0.0558882,0.0643189,0.0881463,0.348902,0.097103,0.181253,0.760938,0.0578036,1.5355e-09,5.26193e-06
477357283,-1.4207,0.0624086,-1.60579,-1.39688,-1.15604,0.0396343,-2.22733,-0.156383,-0.122269,-0.088569,-0.0564081,-0.26889,0.0745291,0.0920814,0.120922,0.324301,0.0681261,0.180743,0.761386,0.0578667,1.46981e-09,5.12091e-06
477555780,-1.43347,0.0623728,-1.6184,-1.40968,-1.16913,0.0257985,-2.2395,-0.0670953,-0.051541,-0.0381413,-0.0562865,-0.127732,0.0257657,0.0415275,0.0633806,0.180162,0.00224435,0.180691,0.761465,0.0578391,1.44602e-09,5.08996e-06
477759430,-1.44435,0.0623896,-1.62934,-1.42053,-1.1799,0.015566,-2.25057,0.188363,0.190648,0.189434,0.133336,0.164512,-0.00544989,0.00938576,0.026669,0.0826188,-0.0420645,0.180765,0.761401,0.0578285,1.45475e-09,5.11007e-06
477958113,-1.46181,0.0627145,-1.64914,-1.43775,-1.19284,0.00256241,-2.26583,-0.0445719,-0.0494644,-0.0548839,-0.0682031,-0.0313799,-0.00761318,-0.00792748,-0.00967443,-0.0323869,-0.0127674,0.180804,0.761382,0.057809,1.45228e-09,5.11352e-06
478156935,-1.46564,0.0627241,-1.65294,-1.44151,-1.19655,-0.00088227,-2.26966,-0.125181,-0.135478,-0.144189,-0.127432,-0.0846741,0.0146565,0.00343108,-0.0120834,-0.0924557,0.0318841,0.181008,0.761263,0.0577232,1.44724e-09,5.13983e-06
478355478,-1.45969,0.062608,-1.64669,-1.43575,-1.19134,0.00244348,-2.26224,0.112215,0.0995852,0.0934597,0.191793,0.18305,0.0650696,0.0332868,-0.00608927,-0.160777,0.133614,0.180537,0.761635,0.0578232,1.40942e-09,5.03397e-06
478559127,-1.45638,0.0626278,-1.64338,-1.43243,-1.18804,0.00575754,-2.25892,0.112215,0.0995852,0.0934597,0.191793,0.18305,0.0650696,0.0332868,-0.00608927,-0.160777,0.133614,0.180537,0.761635,0.0578232,1.40942e-09,5.03397e-06
478757808,-1.45887,0.0618454,-1.64222,-1.43506,-1.19616,-0.00529669,-2.25864,0.0381661,0.0172806,0.00765875,0.179073,0.157838,0.0672957,0.0125699,-0.0549741,-0.31826,0.186664,0.18106,0.761654,0.0572812,1.24784e-09,4.95196e-06
478956639,-1.46289,0.0618148,-1.64804,-1.43902,-1.19659,-0.00835959,-2.25824,-0.0823513,-0.104872,-0.114945,0.0758482,0.04835,0.107264,0.0467461,-0.0278004,-0.317639,0.240282,0.180647,0.762053,0.0572953,1.18865e-09,4.83246e-06
479155172,-1.46366,0.0615335,-1.64647,-1.44002,-1.20191,-0.0136094,-2.26112,-0.0823513,-0.104872,-0.114945,0.0758482,0.04835,0.107264,0.0467461,-0.0278004,-0.317639,0.240282,0.180647,0.762053,0.0572953,1.18865e-09,4.83246e-06
479353855,-1.45867,0.0609695,-1.63955,-1.4349,-1.19857,-0.01469,-2.24891,0.101306,0.0808397,0.0671426,0.163235,0.19935,-0.0451258,-0.0824269,-0.130161,-0.339236,0.0295255,0.181429,0.762066,0.0565002,9.91471e-10,4.7156e-06
479552537,-1.44777,0.0609821,-1.62857,-1.42402,-1.18771,-0.00373802,-2.23792,0.101306,0.0808397,0.0671426,0.163235,0.19935,-0.0451258,-0.0824269,-0.130161,-0.339236,0.0295255,0.181429,0.762066,0.0565002,9.91471e-10,4.7156e-06
479761263,-1.43666,0.0608415,-1.61681,-1.41293,-1.17724,0.00500301,-2.22441,-0.147168,-0.169013,-0.192207,-0.23921,-0.0819413,0.0217132,0.0162215,0.00421923,-0.109558,0.011009,0.181543,0.762151,0.0563011,9.35931e-10,4.66028e-06
479959836,-1.43071,0.0608014,-1.61065,-1.40699,-1.1715,0.0101118,-2.21767,0.0269253,0.00494757,-0.0177258,-0.053384,0.0956178,-0.0370795,-0.0452984,-0.0604279,-0.183601,-0.0407093,0.181548,0.762198,0.0562492,9.18999e-10,4.63879e-06
480153553,-1.43012,0.0608087,-1.60995,-1.40642,-1.17102,0.0107776,-2.21694,0.0269253,0.00494757,-0.0177258,-0.053384,0.0956178,-0.0370795,-0.0452984,-0.0604279,-0.183601,-0.0407093,0.181548,0.762198,0.0562492,9.18999e-10,4.63879e-06
480352247,-1.42778,0.0607287,-1.60739,-1.40417,-1.1691,0.0114627,-2.21369,0.0355698,0.0126685,-0.0185425,-0.189027,0.0721083,-0.0472998,-0.0251563,-0.0060606,-0.0355552,-0.132172,0.18133,0.762389,0.0562768,9.01655e-10,4.58608e-06
480560974,-1.42449,0.0598788,-1.60276,-1.40187,-1.1695,0.000421375,-2.20429,0.204714,0.177948,0.132298,-0.230925,0.205069,-0.121076,-0.0575249,0.00765783,0.0970466,-0.320109,0.178535,0.76447,0.0569906,8.06479e-10,4.10102e-06
480754565,-1.42872,0.0602543,-1.6101,-1.40575,-1.16878,0.000162601,-2.20732,0.204714,0.177948,0.132298,-0.230925,0.205069,-0.121076,-0.0575249,0.00765783,0.0970466,-0.320109,0.178535,0.76447,0.0569906,8.06479e-10,4.10102e-06
480958215,-1.42501,0.0600466,-1.60606,-1.40226,-1.16594,0.000419383,-2.2021,0.0908866,0.0686501,0.0326397,-0.235984,0.099954,-0.0702216,-0.0250413,0.0204754,0.0709706,-0.21563,0.177899,0.764951,0.0571461,7.83537e-10,3.9933e-06
481156898,-1.42155,0.0599697,-1.6023,-1.39894,-1.16312,0.00142202,-2.19739,-0.106929,-0.116497,-0.133456,-0.274905,-0.109935,-0.141156,-0.115668,-0.0892156,-0.0473498,-0.219837,0.177548,0.765244,0.0572045,7.62874e-10,3.92424e-06
481355590,-1.41921,0.0599658,-1.59997,-1.39663,-1.16086,0.00347174,-2.19501,-0.0142317,0.00108644,0.0165421,0.0371795,-0.0643899,-0.0653761,-0.0581317,-0.0459685,0.0448284,-0.0671346,0.177457,0.7653,0.0572395,7.62933e-10,3.91353e-06
481554262,-1.41666,0.0598631,-1.59723,-1.39403,-1.15841,0.00565977,-2.19181,-0.0018687,0.0382885,0.0838273,0.226114,-0.109701,-0.129989,-0.131626,-0.12314,0.04692,-0.0797392,0.177617,0.765244,0.0571352,7.49118e-10,3.91399e-06
481757911,-1.4159,0.0595496,-1.5958,-1.39324,-1.15828,0.00396855,-2.18851,-0.0340093,0.0284306,0.101651,0.365449,-0.190404,-0.117093,-0.129526,-0.127561,0.104324,-0.0127146,0.177863,0.765259,0.0568746,7.01241e-10,3.87565e-06
481956593,-1.41482,0.0589803,-1.59334,-1.39246,-1.15931,-0.00337856,-2.18181,-0.0896279,-0.0136474,0.077421,0.433929,-0.271069,0.0325782,0.00944698,0.00269151,0.258286,0.180672,0.177217,0.766007,0.0567716,6.15591e-10,3.67347e-06
482155312,-1.41517,0.0580788,-1.58972,-1.3935,-1.16628,-0.0146615,-2.1795,-0.145043,-0.0654158,0.0299415,0.404423,-0.336441,-0.0948374,-0.118616,-0.125336,0.142868,0.058756,0.176323,0.766785,0.0568895,5.66008e-10,3.49591e-06
482353958,-1.41841,0.0575773,-1.59145,-1.39672,-1.17103,-0.0237938,-2.17699,-0.00656877,0.0635573,0.1498,0.52236,-0.165045,0.00571668,-0.0247419,-0.041605,0.161501,0.166244,0.176749,0.766905,0.0563422,4.86958e-10,3.40765e-06
482552642,-1.42295,0.0572434,-1.59503,-1.40135,-1.17681,-0.0330222,-2.17778,-0.031004,0.0205737,0.086979,0.416469,-0.134205,0.0380449,0.0031848,-0.0235198,0.0828381,0.18918,0.176633,0.767214,0.0561494,4.44378e-10,3.31711e-06
482751323,-1.42327,0.0571273,-1.59517,-1.40172,-1.17742,-0.0343845,-2.17741,-0.091592,-0.0558342,-0.0101663,0.212567,-0.165143,-0.0777731,-0.1004,-0.117219,-0.0387965,0.0227802,0.17654,0.767316,0.0561407,4.36908e-10,3.29274e-06
482959939,-1.426,0.0570945,-1.59784,-1.40449,-1.18031,-0.0377036,-2.17988,0.0423147,0.0505546,0.0586572,0.0661478,0.0139501,-0.0258477,-0.0208035,-0.0129936,0.0401915,-0.0302413,0.17641,0.76741,0.0561768,4.34809e-10,3.27545e-06
483153655,-1.42749,0.0571118,-1.59932,-1.40598,-1.18183,-0.0391853,-2.18136,0.0423147,0.0505546,0.0586572,0.0661478,0.0139501,-0.0258477,-0.0208035,-0.0129936,0.0401915,-0.0302413,0.17641,0.76741,0.0561768,4.34809e-10,3.27545e-06
483357304,-1.43354,0.0571281,-1.60545,-1.41206,-1.18787,-0.0450469,-2.18769,0.182842,0.181483,0.177048,0.119679,0.17292,-0.0398257,-0.0275281,-0.0138576,0.0223559,-0.0743892,0.176303,0.767453,0.056241,4.38988e-10,3.2728e-06
483556001,-1.4461,0.0570955,-1.61793,-1.42467,-1.2007,-0.0585195,-2.19989,0.0339425,0.0257544,0.0109903,-0.118272,0.0305275,-0.0487774,-0.0253229,-0.000647724,0.0440401,-0.120893,0.176135,0.767578,0.0562836,4.35859e-10,3.25021e-06
483754669,-1.46385,0.0569814,-1.63526,-1.44246,-1.21908,-0.078567,-2.21599,-0.0582956,-0.0727558,-0.0971804,-0.295789,-0.0565604,-0.0571309,-0.0226554,0.0130133,0.0682731,-0.165834,0.176092,0.767716,0.0561894,4.17786e-10,3.21127e-06
483953353,-1.47259,0.0568933,-1.64391,-1.4514,-1.22843,-0.089674,-2.22412,0.0874287,0.0683547,0.039885,-0.153996,0.107385,-0.10958,-0.0800192,-0.051095,-0.032509,-0.21026,0.175453,0.768135,0.0564093,4.1523e-10,3.14392e-06
484157038,-1.47428,0.0571461,-1.64842,-1.45282,-1.22519,-0.0899116,-2.22316,-0.0439801,-0.0642219,-0.0941143,-0.294278,-0.0212987,-0.0819107,-0.0518439,-0.0226288,-0.00711596,-0.185297,0.175336,0.768307,0.0563535,3.9964e-10,3.10254e-06
484355687,-1.46338,0.0567385,-1.63426,-1.44241,-1.22017,-0.0842319,-2.21309,0.124981,0.102928,0.073747,-0.0824846,0.165694,-0.0514534,-0.03317,-0.0178313,-0.0506563,-0.125183,0.174854,0.768607,0.0565363,4.00237e-10,3.05748e-06
484554365,-1.44199,0.0566535,-1.61232,-1.42104,-1.19929,-0.0650057,-2.1898,-0.165414,-0.184365,-0.211123,-0.376405,-0.138359,-0.136512,-0.113554,-0.0921044,-0.0951002,-0.219381,0.174942,0.768678,0.0563767,3.80995e-10,3.0283e-06
484753100,-1.41705,0.0566044,-1.5876,-1.39649,-1.17492,-0.0427334,-2.1652,0.252803,0.235702,0.211096,0.0531949,0.275098,-0.221641,-0.198916,-0.177253,-0.172751,-0.301809,0.173631,0.769421,0.0569458,3.92804e-10,2.92998e-06
484961665,-1.39709,0.0565593,-1.56746,-1.37661,-1.15525,-0.0242511,-2.14445,0.00680216,-0.00806247,-0.0269622,-0.118441,0.0379303,-0.0684444,-0.0593867,-0.0527574,-0.0858149,-0.109391,0.173425,0.769591,0.0569818,3.86584e-10,2.89937e-06
485160536,-1.37972,0.0569444,-1.55359,-1.35883,-1.13273,-0.00333125,-2.12633,0.00680216,-0.00806247,-0.0269622,-0.118441,0.0379303,-0.0684444,-0.0593867,-0.0527574,-0.0858149,-0.109391,0.173425,0.769591,0.0569818,3.86584e-10,2.89937e-06
