timestamp,timestamp_sample,hover_thrust,hover_thrust_var,accel_innov,accel_innov_var,accel_innov_test_ratio,accel_noise_var,valid
750470493,750469099,0.50569,0.00579041,0.195194,8.63498,0.000490261,5.33327,0
750490303,750488963,0.518049,0.00408961,-0.823505,7.55129,0.00997859,5.72889,0
750570058,750568416,0.599241,0.00235165,-1.85803,8.27563,0.0463514,8.11715,0
750669253,750667831,0.616678,0.00178561,-0.599364,9.76947,0.00408571,9.53015,0
750773640,750772019,0.604375,0.00144695,2.45706,10.2435,0.065485,9.77895,0
750872936,750871337,0.575989,0.00117058,3.15684,10.0194,0.110515,9.5266,0
750971995,750970655,0.553575,0.000946156,2.2399,9.76245,0.0571026,9.30271,0
751071320,751069977,0.564047,0.000787054,-2.24676,10.1778,0.0551085,10.0938,0
751170678,751169291,0.579801,0.000700222,-0.382394,11.3814,0.00142753,11.1625,0
751254914,751253712,0.578609,0.000650944,0.137582,11.2217,0.000187423,10.9886,0
751375121,751372894,0.562851,0.000589123,3.71095,10.6934,0.143091,10.424,0
751454571,751452449,0.562206,0.000552079,-3.18956,10.4293,0.108384,10.4885,0
751573758,751571530,0.571116,0.000508483,-1.98048,10.9695,0.0397297,10.883,0
751672074,751670879,0.567727,0.00047667,-0.260828,10.6857,0.000707396,10.4899,0
751772368,751770167,0.57639,0.000447138,-1.38695,10.9374,0.0195419,10.785,0
751870679,751869485,0.573356,0.000420921,1.17786,10.5412,0.0146238,10.3128,0
751971034,751968803,0.580543,0.000396608,-2.08058,10.5506,0.0455877,10.4334,0
752074203,752073087,0.583654,0.00037569,-3.89085,10.3368,0.162727,10.4138,0
752154884,752152541,0.591297,0.00036136,-2.80668,10.7224,0.0816299,10.6334,0
752272945,752271758,0.596056,0.000342754,-0.712036,10.4303,0.00540087,10.2515,0
752373189,752371041,0.592213,0.000328251,3.0536,10.0236,0.103361,9.90299,0
752471691,752470359,0.589684,0.000314014,-1.16629,9.68571,0.0156042,9.53387,0
752571068,752569865,0.59856,0.000300918,-4.06703,9.76965,0.188119,9.76975,0
752670359,752668996,0.604539,0.00028981,-1.96343,9.75066,0.0439291,9.61916,0
752769626,752768315,0.604918,0.000279746,2.60196,9.38727,0.0801342,9.30184,0
752854153,752852756,0.599683,0.000272279,2.59148,9.37605,0.0795854,9.2719,0
752973530,752971921,0.599922,0.000261424,-0.726717,8.969,0.0065425,8.82794,0
753073698,753071243,0.599009,0.000252539,0.445268,8.55182,0.00257598,8.4098,0
753171921,753170553,0.598552,0.000243643,-0.409466,8.19285,0.00227383,8.05704,0
753272128,753269871,0.599815,0.000234897,-2.67965,7.96997,0.100106,7.90868,0
753370448,753369323,0.598052,0.000226642,-1.73491,7.73864,0.043216,7.64157,0
753470615,753468508,0.596783,0.000218696,2.90449,7.50513,0.124893,7.45038,0
753569057,753567826,0.598501,0.000210978,-0.333106,7.31086,0.00168637,7.18995,0
753669367,753667148,0.595683,0.000203541,0.699505,7.02527,0.00773883,6.90911,0
753767739,753766462,0.597706,0.000195958,1.24176,6.80786,0.0251664,6.70233,0
753867065,753865782,0.591475,0.000188571,2.27051,6.74478,0.0849253,6.66335,0
753972270,753970065,0.590729,0.000181468,-0.675031,6.69858,0.00755827,6.59282,0
754070754,754069384,0.594382,0.000174879,-1.26607,6.53255,0.0272641,6.44102,0
754170007,754168793,0.595264,0.000168674,-1.09009,6.24474,0.0211429,6.1523,0
754255475,754253121,0.595226,0.000163892,1.00336,6.01061,0.0186103,5.91726,0
754374634,754372303,0.594196,0.00015691,-1.85463,5.78232,0.0660953,5.72176,0
754473855,754471634,0.59502,0.000151373,-0.854511,5.55487,0.0146056,5.46953,0
754572300,754570942,0.596402,0.000146027,-0.725048,5.32066,0.0109781,5.23591,0
754671609,754670258,0.599597,0.00014094,-0.721184,5.18054,0.0111551,5.09754,0
754771936,754769576,0.601941,0.00013616,-0.402614,4.99657,0.00360465,4.91439,0
754870040,754868894,0.604587,0.000131594,-2.71946,4.78222,0.171828,4.75932,0
754970547,754968333,0.607508,0.000127325,-1.34868,4.66665,0.0433083,4.59895,0
755068869,755067531,0.61199,0.000123315,-1.3927,4.5849,0.0470052,4.51808,0
755169165,755166892,0.615734,0.000119525,-2.97693,4.40574,0.223499,4.38632,0
755267552,755266369,0.620691,0.000116026,-1.87779,4.37647,0.089521,4.31836,0
755372773,755370451,0.614047,0.000112898,4.61035,4.81175,0.49082,4.986,0
755470866,755469769,0.608853,0.000110173,2.91062,5.29412,0.177801,5.30431,0
755571283,755569087,0.604305,0.000107596,2.13141,5.49261,0.0918994,5.44959,0
755669679,755668406,0.603027,0.000105071,0.510398,5.28648,0.00547532,5.21001,0
755769944,755767794,0.606988,0.000102613,-2.27592,5.37026,0.107171,5.34339,0
755868377,755867047,0.607697,0.000100333,0.0222912,5.17777,1.0663e-05,5.10382,0
755967735,755966368,0.604058,9.81193e-05,1.12332,5.23444,0.026785,5.16848,0
756068103,756065832,0.604666,9.59144e-05,-2.08011,5.02429,0.0956877,4.99942,0
756166207,756164997,0.606185,9.37711e-05,-0.670731,4.88627,0.01023,4.82099,0
756266512,756264317,0.602197,9.16964e-05,2.53109,4.95537,0.143647,4.93476,0
756370223,756368599,0.59958,8.96828e-05,4.55386,4.97341,0.4633,5.0729,0
756470568,756467920,0.601088,8.77501e-05,-2.86948,5.0721,0.180375,5.09461,0
756568433,756567240,0.601618,8.59345e-05,1.66757,5.02325,0.0615096,4.97451,0
756668768,756666556,0.597239,8.41805e-05,2.75069,5.19145,0.161939,5.16995,0
756767031,756765872,0.597611,8.24583e-05,-1.24402,5.02592,0.0342132,4.98209,0
756867362,756865301,0.597607,8.07552e-05,-1.01765,4.83857,0.0237813,4.78916,0
756970633,756969475,0.595501,7.90649e-05,0.808998,4.72035,0.0154056,4.65488,0
757070951,757068828,0.598033,7.73971e-05,-1.6322,4.73833,0.0624708,4.70722,0
757169452,757168111,0.595797,7.58286e-05,3.9218,4.72363,0.361787,4.77792,0
757269699,757267429,0.59247,7.43246e-05,1.007,4.87006,0.0231355,4.8042,0
757367898,757366755,0.594035,7.28246e-05,-2.42648,4.74017,0.138012,4.75447,0
757473263,757471032,0.594188,7.14036e-05,0.943668,4.7058,0.0210263,4.64395,0
757571555,757570349,0.596046,6.99936e-05,-2.34142,4.61029,0.132126,4.61064,0
757671997,757669766,0.599839,6.86995e-05,-3.20882,4.86843,0.234996,4.89743,0
757770268,757768987,0.602103,6.75383e-05,-1.64091,4.88546,0.061238,4.83882,0
757869650,757868306,0.600578,6.64104e-05,2.22102,4.76941,0.114921,4.76043,0
757970078,757967640,0.597292,6.53251e-05,3.67098,4.92452,0.304059,4.97935,0
758068214,758066944,0.594479,6.42991e-05,1.61825,5.09535,0.0571052,5.04332,0
758168423,758166260,0.594107,6.32663e-05,-0.0114645,4.86725,3.00042e-06,4.80505,0
758271861,758270543,0.594126,6.22142e-05,0.498153,4.63955,0.00594303,4.57826,0
758372320,758369917,0.593675,6.11324e-05,-0.269372,4.42306,0.0018228,4.36765,0
758470628,758469240,0.594613,6.00401e-05,-0.192445,4.27983,0.000961489,4.22413,0
758570806,758568498,0.594258,5.89465e-05,0.843136,4.08208,0.0193496,4.03003,0
758669211,758667818,0.591314,5.78583e-05,3.28687,4.05774,0.295828,4.07995,0
758769322,758767138,0.587579,5.68364e-05,2.19754,4.29055,0.125059,4.25409,0
758867717,758866453,0.587137,5.58293e-05,-0.505601,4.11692,0.00689924,4.07589,0
758967170,758965772,0.58953,5.48531e-05,-1.60123,4.27738,0.0666019,4.26148,0
759071217,759070055,0.589947,5.39421e-05,-0.514261,4.1457,0.00708806,4.09821,0
759170707,759169374,0.591222,5.30323e-05,-1.21263,4.037,0.0404718,4.00326,0
759270011,759268740,0.591963,5.21332e-05,-0.317429,3.89848,0.0028718,3.84851,0
759369423,759368044,0.59023,5.12324e-05,2.61998,3.77694,0.201936,3.78073,0
759468557,759467330,0.587065,5.03544e-05,3.01089,3.89306,0.258735,3.90229,0
759568026,759566802,0.585762,4.94952e-05,-0.570878,3.83525,0.00944172,3.79679,0
759667566,759665968,0.587092,4.86341e-05,-1.61749,3.77599,0.0769862,3.76563,0
759766555,759765283,0.587931,4.78065e-05,0.557233,3.72133,0.00927114,3.67255,0
759870910,759869567,0.588518,4.69855e-05,-3.76789,3.6871,0.427827,3.79173,0
759970432,759968886,0.591178,4.62586e-05,-1.51184,4.02392,0.0631136,3.99241,0
760069914,760068204,0.590953,4.55665e-05,1.62191,3.87226,0.0754826,3.84927,0
760168742,760167523,0.588521,4.48904e-05,1.85113,3.99023,0.095419,3.96561,0
760268183,760266840,0.58921,4.42253e-05,-2.94404,3.86877,0.248928,3.91021,0
760367435,760366285,0.592338,4.3621e-05,-2.62545,4.30802,0.177782,4.31042,0
760472362,760470443,0.591581,4.30755e-05,-1.63465,4.30632,0.068945,4.2754,0
760571169,760569767,0.5939,4.25419e-05,-3.05188,4.38705,0.235896,4.40312,0
760651146,760649456,0.594801,4.21388e-05,0.216648,4.3623,0.0011955,4.31301,0
760754784,760753500,0.595978,4.16351e-05,-2.32975,4.19146,0.143884,4.17028,0
760874380,760872697,0.595464,4.10364e-05,3.36808,4.13419,0.304881,4.225,0
760953473,760952136,0.593254,4.06727e-05,3.83658,4.57905,0.357167,4.67696,0
761072636,761071318,0.592183,4.01679e-05,-1.0098,4.70345,0.0240884,4.65768,0
761171874,761170737,0.59355,3.9748e-05,-1.57266,4.64679,0.0591388,4.6106,0
761271331,761269954,0.592348,3.93334e-05,3.56951,4.57019,0.309771,4.6383,0
761370644,761369310,0.590017,3.89449e-05,2.52838,4.97023,0.142911,4.95757,0
761450179,761448873,0.590235,3.86387e-05,-2.17475,4.84519,0.108459,4.8472,0
761574212,761572878,0.587963,3.81899e-05,2.42644,4.9596,0.131902,4.93336,0
761673757,761672199,0.588645,3.78136e-05,-2.60924,4.85265,0.155885,4.88615,0
761772666,761771512,0.589909,3.74535e-05,-0.708211,4.98275,0.0111844,4.93229,0
761872250,761870830,0.588477,3.71027e-05,2.95701,4.92453,0.197287,4.92985,0
761971560,761970221,0.586367,3.6768e-05,2.20253,5.17,0.104258,5.13139,0
762071135,762069467,0.58644,3.64324e-05,-1.18668,4.97417,0.031456,4.94772,0
762170378,762168785,0.586927,3.60948e-05,1.26757,4.90654,0.0363852,4.85456,0
762274274,762273088,0.585921,3.57582e-05,-3.17767,4.88771,0.229546,4.99004,0
762353944,762352524,0.586855,3.55028e-05,-0.52537,5.1162,0.00599432,5.06452,0
762473066,762471715,0.586023,3.5121e-05,1.16355,4.86896,0.0308953,4.81624,0
762572663,762571029,0.586573,3.47909e-05,-2.88934,4.70985,0.196946,4.75656,0
762671650,762670342,0.587618,3.44703e-05,-1.19573,4.76187,0.0333616,4.72352,0
762771181,762769686,0.587183,3.41477e-05,2.39274,4.56082,0.139478,4.55368,0
762870349,762869021,0.585975,3.38234e-05,1.18315,4.52305,0.0343877,4.47584,0
762969891,762968299,0.585982,3.34916e-05,-1.10996,4.31909,0.0316944,4.28786,0
763068922,763067775,0.586333,3.31567e-05,0.596496,4.18931,0.0094369,4.14017,0
763168598,763166937,0.585156,3.28183e-05,1.67076,4.07526,0.0761077,4.04231,0
763267648,763266252,0.585666,3.24735e-05,-1.98899,3.9532,0.111192,3.95612,0
763367185,763365605,0.586286,3.21342e-05,-0.095851,3.88533,0.000262738,3.83916,0
763466523,763464888,0.584517,3.17964e-05,3.56932,3.91043,0.361995,3.96165,0
763545622,763544345,0.584023,3.1536e-05,-0.507955,3.91724,0.00731859,3.87894,0
763670232,763668508,0.584004,3.11445e-05,-0.93513,3.81766,0.025451,3.78841,0
763769212,763767810,0.585927,3.08323e-05,-1.82712,4.10617,0.0903349,4.09259,0
763868632,763867248,0.585135,3.05404e-05,3.93301,4.03502,0.425952,4.12526,0
763972761,763971412,0.586208,3.02655e-05,0.309189,4.23427,0.00250858,4.18554,0
764072437,764070731,0.584996,2.99948e-05,1.41889,4.21613,0.0530568,4.18163,0
764171386,764170048,0.5858,2.97236e-05,-2.24465,4.10005,0.136541,4.10262,0
764270765,764269367,0.586063,2.94577e-05,1.91768,4.03681,0.101221,4.02551,0
764369947,764368745,0.584781,2.91965e-05,0.946287,4.09923,0.0242717,4.05649,0
764454527,764453106,0.584516,2.89854e-05,0.707549,3.95787,0.0140543,3.91337,0
764573681,764572288,0.586014,2.86671e-05,-1.46831,4.05044,0.0591416,4.02327,0
764673102,764671766,0.585231,2.84131e-05,2.88395,3.97584,0.232436,4.00514,0
764772231,764770925,0.584835,2.81604e-05,-0.852272,3.90979,0.0206424,3.87361,0
764871860,764870243,0.585527,2.79048e-05,0.584817,3.84227,0.00989029,3.79994,0
764970830,764969561,0.584012,2.76569e-05,0.831875,3.97886,0.0193248,3.93561,0
765070514,765068879,0.584948,2.74126e-05,-1.95294,3.92179,0.108057,3.91676,0
765169455,765168241,0.585122,2.71723e-05,2.03467,3.83818,0.119845,3.8313,0
765273748,765272482,0.584345,2.69329e-05,0.777673,3.83093,0.0175407,3.78945,0
765372984,765371802,0.583279,2.66903e-05,0.596565,3.79118,0.0104304,3.74718,0
765472546,765471185,0.584321,2.64447e-05,-2.3791,3.7551,0.167479,3.77234,0
765571760,765570439,0.584867,2.62085e-05,0.907653,3.74043,0.0244723,3.70389,0
765671159,765669805,0.584036,2.59697e-05,1.40043,3.6361,0.0599301,3.60814,0
765770755,765769101,0.583524,2.57249e-05,0.457973,3.4976,0.00666297,3.45668,0
765869683,765868392,0.583972,2.54729e-05,-0.661299,3.36544,0.0144382,3.33137,0
765969258,765967710,0.58408,2.52167e-05,-0.0899064,3.21394,0.000279448,3.17564,0
766068159,766067029,0.583325,2.49552e-05,1.0442,3.10498,0.0390179,3.07439,0
766167696,766166347,0.584219,2.46892e-05,-2.80183,3.04125,0.286806,3.08448,0
766267018,766265674,0.586068,2.44464e-05,-1.96094,3.317,0.128807,3.30754,0
766371332,766369949,0.586438,2.42182e-05,-1.1318,3.20631,0.0443903,3.17587,0
766470534,766469267,0.588246,2.39928e-05,-2.66047,3.32664,0.236412,3.33336,0
766570071,766568754,0.588728,2.37802e-05,0.287163,3.22739,0.00283899,3.19559,0
766669117,766667905,0.587352,2.35698e-05,2.99706,3.3539,0.297577,3.41832,0
766768640,766767224,0.586437,2.33766e-05,0.526178,3.47562,0.00885096,3.43872,0
766867940,766866540,0.587219,2.31796e-05,-2.77219,3.36146,0.254024,3.38671,0
766967598,766965859,0.588158,2.29889e-05,-0.330821,3.38707,0.00359021,3.34758,0
767066947,767065177,0.58704,2.27991e-05,3.57797,3.37318,0.421687,3.46775,0
767170670,767169462,0.586314,2.26202e-05,1.69925,3.43287,0.0934573,3.42073,0
767270354,767268780,0.585225,2.24391e-05,2.07869,3.43103,0.139931,3.42569,0
767369553,767368241,0.585706,2.22574e-05,-2.79211,3.3782,0.256412,3.4209,0
767469041,767467419,0.587006,2.20858e-05,-2.43968,3.52853,0.187426,3.53964,0
767567877,767566735,0.587404,2.1919e-05,0.599901,3.45044,0.0115889,3.41677,0
767672641,767671019,0.586679,2.17541e-05,-3.64353,3.59223,0.410618,3.6974,0
767771704,767770338,0.587348,2.16023e-05,0.23118,3.69429,0.00160741,3.65385,0
767871314,767869672,0.58654,2.14491e-05,2.61167,3.61564,0.209609,3.64203,0
767970295,767969000,0.58564,2.13008e-05,0.204485,3.70687,0.00125336,3.66451,0
768069692,768068292,0.586183,2.11497e-05,-2.17069,3.56852,0.146712,3.57532,0
768168893,768167750,0.586939,2.10022e-05,-0.324356,3.58404,0.00326158,3.54328,0
768273861,768271896,0.586411,2.08566e-05,0.886704,3.49259,0.0250131,3.46015,0
768372558,768371213,0.586884,2.07073e-05,-1.15622,3.36635,0.0441243,3.33906,0
768471845,768470531,0.587549,2.05589e-05,-0.234076,3.31007,0.00183921,3.27242,0
768571067,768569849,0.586302,2.04122e-05,4.51176,3.35135,0.674884,3.50708,0
768670539,768669189,0.584733,2.02869e-05,2.53241,3.85213,0.18498,3.85446,0
768769711,768768486,0.585347,2.01674e-05,-3.1104,3.87313,0.277541,3.93748,0
768869468,768867805,0.586366,2.00577e-05,-1.68167,4.08624,0.0768984,4.06706,0
768968494,768967175,0.586091,1.99502e-05,0.478866,3.95258,0.0064462,3.91048,0
769072953,769071407,0.585224,1.98411e-05,2.96834,3.94185,0.248362,3.97169,0
769172139,769170725,0.585246,1.97316e-05,-1.3609,3.885,0.0529685,3.86536,0
769251859,769250346,0.585328,1.9642e-05,1.34935,3.78652,0.0534276,3.75774,0
769365620,769364398,0.586615,1.95117e-05,-0.17657,4.02195,0.000861305,3.97728,0
769455357,769453783,0.586158,1.94306e-05,3.36654,3.90389,0.322572,4.0041,0
769574103,769572965,0.586286,1.93089e-05,-3.37985,4.01328,0.316266,4.0803,0
769653785,769652419,0.587186,1.92332e-05,-1.5665,4.28551,0.0636233,4.25585,0
769773349,769771637,0.58699,1.91217e-05,1.41121,4.0917,0.05408,4.07046,0
769872323,769870920,0.587099,1.90254e-05,-2.13548,3.96266,0.127868,3.95667,0
769971791,769970238,0.586845,1.8927e-05,2.01813,3.86473,0.117095,3.86533,0
770070872,770069732,0.586696,1.88264e-05,-1.23416,3.7724,0.0448623,3.74397,0
770170434,770168875,0.587642,1.87261e-05,-0.790141,3.8631,0.0179569,3.82293,0
770269472,770268199,0.587057,1.8627e-05,2.49345,3.76485,0.183489,3.7888,0
770368913,770367511,0.587425,1.85269e-05,-3.59351,3.77303,0.380283,3.84515,0
770468229,770466830,0.58869,1.84356e-05,-2.33811,4.11736,0.147526,4.10623,0
770567568,770566148,0.588702,1.83476e-05,1.65314,3.98711,0.0761581,3.98547,0
770671809,770670433,0.588055,1.826e-05,3.26364,3.94774,0.299788,4.02304,0
770771030,770769751,0.58708,1.81791e-05,0.202689,4.34387,0.00105085,4.29655,0
770870337,770869202,0.587716,1.81001e-05,-1.43074,4.27613,0.0531899,4.24597,0
770969731,770968388,0.587433,1.802e-05,1.98636,4.13223,0.106093,4.12689,0
771069416,771067706,0.587186,1.79389e-05,-1.10617,4.05559,0.0335235,4.02366,0
771173208,771171990,0.587309,1.78567e-05,-2.98688,3.93503,0.25191,3.98955,0
771273042,771271309,0.587746,1.77762e-05,0.882235,3.99029,0.0216731,3.95637,0
771371982,771370635,0.58733,1.76963e-05,-1.28248,3.96337,0.0461095,3.93569,0
771471328,771469949,0.587642,1.76161e-05,1.4048,3.89202,0.0563391,3.87097,0
771570535,771569264,0.586586,1.75393e-05,1.61624,4.13485,0.0701952,4.10934,0
771670049,771668673,0.587141,1.74645e-05,0.0789715,4.14041,0.000167361,4.09497,0
771754319,771753007,0.587614,1.74072e-05,-3.15237,4.21865,0.261734,4.26298,0
771873848,771872186,0.587238,1.73235e-05,2.67035,4.20487,0.188426,4.22878,0
771972916,771971503,0.587089,1.72535e-05,-0.479872,4.12834,0.00619773,4.08622,0
772072176,772070822,0.586385,1.71817e-05,2.2018,4.10669,0.131166,4.09987,0
772171289,772170156,0.586405,1.71092e-05,0.710212,3.99459,0.0140301,3.9533,0
772270850,772269465,0.585358,1.70384e-05,0.955154,4.20979,0.0240793,4.16619,0
772370091,772368776,0.585941,1.69703e-05,0.166822,4.29882,0.000719307,4.25214,0
772469809,772468151,0.585277,1.69032e-05,2.22884,4.20971,0.131119,4.19559,0
772568699,772567414,0.585997,1.68347e-05,-2.92126,4.29354,0.220843,4.34132,0
772668109,772666732,0.586364,1.67689e-05,-1.01661,4.24942,0.0270231,4.21446,0
772767761,772766240,0.586068,1.67002e-05,1.34146,4.09549,0.0488211,4.06474,0
772871552,772870358,0.586421,1.66289e-05,-1.18254,3.95067,0.0393293,3.92157,0
772971020,772969658,0.586393,1.65541e-05,0.938644,3.78819,0.0258421,3.75446,0
773070378,773068992,0.585344,1.64794e-05,3.19236,3.90839,0.289723,3.9474,0
773170073,773168289,0.584722,1.6408e-05,1.67728,3.88422,0.0804761,3.85652,0
773268765,773267628,0.585028,1.63338e-05,-1.8855,3.78994,0.104226,3.79581,0
773368498,773366926,0.584966,1.62592e-05,2.44744,3.69971,0.179892,3.70381,0
773467472,773466244,0.583595,1.61878e-05,3.55308,4.04564,0.346722,4.08448,0
773567310,773565768,0.583388,1.61202e-05,-1.43615,3.9933,0.0573883,3.99165,0
773670991,773669847,0.582597,1.60533e-05,1.40171,3.96794,0.0550189,3.92795,0
773770526,773769165,0.58313,1.5984e-05,-2.49576,3.96549,0.174529,4.01475,0
773869707,773868484,0.58286,1.59186e-05,2.84619,3.98435,0.225906,3.99006,0
773969158,773967802,0.582692,1.58524e-05,-1.60814,3.89221,0.0738259,3.89695,0
774068452,774067125,0.583225,1.57868e-05,-0.450419,3.9615,0.00569025,3.9251,0
774168053,774166441,0.583132,1.57208e-05,-1.0072,3.78217,0.0298023,3.75946,0
774267134,774265757,0.583643,1.56541e-05,-0.673238,3.77148,0.0133532,3.73769,0
774366796,774365262,0.582935,1.55874e-05,1.98384,3.73707,0.117014,3.72129,0
774470978,774469360,0.582791,1.55211e-05,0.198005,3.64208,0.00119608,3.6023,0
774570309,774568678,0.583748,1.54545e-05,-2.14992,3.8529,0.133295,3.85969,0
774669383,774667997,0.583108,1.53928e-05,3.78528,3.88237,0.410069,3.9613,0
774768525,774767315,0.583245,1.53334e-05,-2.42047,3.89533,0.167114,3.91976,0
774868052,774866634,0.582932,1.52754e-05,3.89363,3.92928,0.4287,4.01528,0
774972256,774970918,0.582326,1.52214e-05,3.04367,3.97831,0.258734,4.00243,0
775071915,775070282,0.581971,1.51659e-05,-0.817429,3.9617,0.0187403,3.93515,0
775170939,775169660,0.581766,1.51089e-05,2.83755,3.87227,0.231036,3.88361,0
775270265,775268884,0.581681,1.50504e-05,-1.02339,3.77852,0.0307977,3.7593,0
775369533,775368196,0.581538,1.49893e-05,-0.634335,3.6318,0.0123104,3.60395,0
775449168,775447786,0.582258,1.49415e-05,-0.769189,3.88686,0.0169132,3.8544,0
775573086,775571799,0.582545,1.48768e-05,2.51017,3.88753,0.18009,3.90098,0
775672727,775671173,0.582795,1.4823e-05,-2.74414,3.96087,0.211242,3.99381,0
775771620,775770431,0.582079,1.47729e-05,3.24143,4.17277,0.279773,4.21511,0
775871164,775869749,0.582583,1.47265e-05,-1.7237,4.39557,0.0751045,4.37982,0
775970266,775969129,0.582404,1.46818e-05,0.0516337,4.23672,6.99187e-05,4.19102,0
776069746,776068386,0.582454,1.4634e-05,1.26005,4.06275,0.0434225,4.03214,0
776169027,776167704,0.582358,1.45835e-05,-1.9922,3.92947,0.112225,3.93024,0
776268448,776267025,0.582506,1.45318e-05,1.73416,3.87499,0.0862312,3.86039,0
776368160,776366382,0.582402,1.44785e-05,-0.960822,3.74631,0.0273804,3.7161,0
776467264,776465660,0.582079,1.44234e-05,2.73584,3.67411,0.226354,3.69851,0
776571346,776569944,0.581494,1.43696e-05,3.26848,3.62444,0.327499,3.66954,0
776670592,776669262,0.580492,1.43183e-05,1.96057,3.9017,0.109464,3.87772,0
776770274,776768606,0.580946,1.4267e-05,-2.91251,3.90971,0.241073,3.97488,0
776869254,776867912,0.581083,1.42187e-05,0.807956,3.90668,0.0185663,3.8666,0
776968876,776967220,0.580411,1.41692e-05,1.58984,3.86953,0.0725777,3.83931,0
777067981,777066734,0.581147,1.41196e-05,-4.14853,3.95726,0.483229,4.10233,0
777172748,777170825,0.580244,1.40796e-05,1.68553,4.38325,0.0720168,4.34962,0
777271484,777270139,0.580622,1.40384e-05,-3.24438,4.30611,0.271603,4.38568,0
777370784,777369457,0.580928,1.39989e-05,0.425927,4.35624,0.00462717,4.30997,0
777469926,777468775,0.580134,1.39593e-05,3.3412,4.40639,0.281501,4.44076,0
777569522,777568142,0.579699,1.3921e-05,-0.573054,4.38954,0.00831246,4.35507,0
777668625,777667413,0.580315,1.3882e-05,-2.61891,4.48496,0.169918,4.52034,0
777768318,777766790,0.580473,1.38461e-05,1.54802,4.51129,0.0590211,4.4804,0
777867775,777866225,0.580032,1.3809e-05,1.64614,4.39067,0.0685739,4.35982,0
777966929,777965367,0.580167,1.37696e-05,-2.255,4.26368,0.132515,4.28041,0
778066379,778064686,0.580336,1.37304e-05,1.71433,4.22823,0.0772302,4.20557,0
778170143,778168970,0.579837,1.36927e-05,-2.07042,4.28571,0.111135,4.29959,0
778269966,778268289,0.579514,1.36545e-05,2.77168,4.2018,0.203146,4.21136,0
778369000,778367605,0.578967,1.36165e-05,0.731318,4.18664,0.014194,4.14195,0
778468764,778466926,0.578898,1.35772e-05,2.82133,4.0476,0.218508,4.05547,0
778567423,778566244,0.578457,1.35388e-05,-0.924021,4.1015,0.0231301,4.08098,0
778667247,778665667,0.578749,1.35006e-05,1.27187,4.12042,0.0436217,4.08229,0
778766090,778764880,0.5785,1.34613e-05,-1.29323,4.00031,0.0464531,3.98903,0
778865601,778864216,0.578268,1.34214e-05,3.40342,4.00889,0.321044,4.04601,0
778969757,778968484,0.578297,1.33834e-05,3.61546,4.16552,0.348672,4.20381,0
779069157,779067803,0.57821,1.33464e-05,-0.366319,4.13199,0.00360843,4.09408,0
779168342,779167120,0.577736,1.33086e-05,-0.339218,4.06898,0.00314218,4.03321,0
779273056,779271416,0.578196,1.32738e-05,0.0550126,4.2817,7.85355e-05,4.23678,0
779372009,779370723,0.578428,1.32391e-05,0.702643,4.1796,0.0131248,4.13683,0
779471685,779470108,0.578644,1.32031e-05,-2.97361,4.04343,0.242983,4.09592,0
779566070,779564394,0.579036,1.31662e-05,-2.37041,4.03704,0.154646,4.04886,0
779655502,779653781,0.578626,1.31406e-05,2.10442,4.08586,0.120431,4.07878,0
779774348,779772963,0.578894,1.30981e-05,0.596085,3.99054,0.00989334,3.95074,0
779873673,779872282,0.579218,1.30613e-05,-2.37496,3.92529,0.159661,3.93587,0
779972692,779971620,0.578708,1.30255e-05,1.89901,4.02927,0.099446,4.01696,0
780072286,780070920,0.579019,1.29902e-05,-0.178257,3.96498,0.000890452,3.92273,0
780171531,780170236,0.578494,1.29549e-05,0.860323,3.94321,0.020856,3.90533,0
780270762,780269584,0.578789,1.29178e-05,-0.129916,3.84272,0.00048803,3.80164,0
780370208,780368873,0.57899,1.28789e-05,-4.09742,3.73582,0.499337,3.8597,0
780469564,780468199,0.579417,1.28436e-05,0.909852,3.94868,0.0232942,3.91714,0
780569103,780567667,0.579472,1.28076e-05,-2.26104,3.82123,0.148652,3.82373,0
780668000,780666835,0.579696,1.27715e-05,2.47232,3.82913,0.177364,3.85835,0
780767501,780766147,0.579233,1.27377e-05,-1.09366,4.00447,0.0331877,3.97253,0
780866808,780865467,0.579618,1.27032e-05,-1.23099,3.89641,0.0432117,3.86573,0
780966432,780964784,0.579076,1.26679e-05,1.90733,3.91949,0.103129,3.91167,0
781045612,781044238,0.579377,1.26397e-05,-2.71756,3.86146,0.212502,3.88873,0
781169595,781168388,0.5801,1.25991e-05,-3.3471,3.90144,0.319058,3.95045,0
781269108,781267705,0.580119,1.25662e-05,2.19668,3.90032,0.137464,3.91853,0
781368542,781367143,0.579985,1.25333e-05,-1.48619,3.86164,0.0635525,3.83615,0
781467526,781466342,0.579917,1.24991e-05,3.69004,3.75689,0.402708,3.862,0
781567025,781565665,0.579464,1.24681e-05,-1.30654,4.03396,0.0470192,4.0077,0
781671239,781669944,0.579715,1.24378e-05,-3.39007,3.93431,0.324568,4.01476,0
781770532,781769263,0.580055,1.24073e-05,0.598839,4.00579,0.00994694,3.96924,0
781869698,781868584,0.579559,1.23766e-05,1.01037,4.00954,0.0282896,3.97683,0
781969499,781967902,0.579589,1.23448e-05,2.11383,3.85931,0.128644,3.8625,0
782068840,782067243,0.578809,1.23154e-05,1.0618,4.1642,0.0300822,4.12602,0
782168029,782166617,0.579015,1.22866e-05,-0.199773,4.02679,0.00110121,3.98484,0
782272424,782270822,0.579098,1.22574e-05,0.675339,3.85652,0.0131403,3.81826,0
782371505,782370140,0.578527,1.22279e-05,-0.666883,3.97653,0.0124266,3.94318,0
782471134,782469459,0.578733,1.21999e-05,2.54787,4.01856,0.179491,4.02951,0
782570139,782568778,0.578675,1.2172e-05,-1.44159,3.95873,0.0583294,3.94297,0
782669461,782668096,0.57847,1.21433e-05,1.73428,3.87315,0.0862841,3.85303,0
782773760,782772435,0.57824,1.21148e-05,3.06171,3.81675,0.272893,3.84921,0
782873385,782871698,0.578642,1.20854e-05,-3.41407,3.9211,0.330289,4.00401,0
782972391,782971114,0.578612,1.20582e-05,1.91387,3.92484,0.103696,3.91333,0
783071713,783070335,0.5788,1.20293e-05,-2.10504,3.82921,0.128578,3.83457,0
783170990,783169653,0.57829,1.20003e-05,2.61147,3.88256,0.195168,3.89594,0
783270391,783268975,0.578543,1.19717e-05,-2.66937,3.8693,0.204618,3.90455,0
783369509,783368291,0.578409,1.19435e-05,2.0645,3.8387,0.123368,3.83288,0
783469021,783467635,0.578853,1.19147e-05,-2.55748,3.87198,0.187693,3.8944,0
783568209,783566927,0.578639,1.1887e-05,2.49624,3.82079,0.181207,3.83757,0
783667562,783666245,0.578611,1.18588e-05,-1.39896,3.76164,0.0578083,3.74263,0
783767223,783765572,0.577957,1.18305e-05,2.5535,3.89134,0.186179,3.89962,0
783871181,783869848,0.577793,1.18046e-05,-0.906492,3.80451,0.0239986,3.77899,0
783970807,783969167,0.578222,1.17774e-05,0.177698,3.85342,0.000910492,3.81224,0
784069986,784068651,0.578069,1.17506e-05,-3.05168,3.79654,0.27255,3.85947,0
784169409,784167842,0.57835,1.17251e-05,1.07969,3.86611,0.0335027,3.83476,0
784268480,784267122,0.578039,1.16989e-05,-0.495879,3.78572,0.00721706,3.74968,0
784367883,784366441,0.577687,1.16713e-05,4.00631,3.73488,0.477496,3.83043,0
784467050,784465774,0.577848,1.1645e-05,-2.7247,3.84519,0.214525,3.88808,0
784566743,784565078,0.577533,1.16194e-05,2.01409,3.84818,0.117128,3.83594,0
784665577,784664396,0.577507,1.15931e-05,-1.67126,3.7486,0.0827897,3.74577,0
784755106,784753786,0.577055,1.15743e-05,4.26196,3.79492,0.53183,3.94765,0
784854496,784853155,0.576968,1.15499e-05,-0.720907,3.9096,0.0147701,3.88121,0
784968515,784967317,0.577512,1.15189e-05,-1.67297,3.97834,0.0781682,3.97053,0
785067837,785066636,0.577231,1.14956e-05,3.15977,3.93506,0.281915,3.97371,0
785172295,785170920,0.577154,1.14739e-05,2.59815,3.95436,0.189675,3.96681,0
785271610,785270239,0.577222,1.14506e-05,-1.88997,3.87938,0.102307,3.88299,0
785371268,785369557,0.576814,1.14269e-05,4.25372,3.90024,0.515471,4.00557,0
785470077,785468876,0.576591,1.14043e-05,-1.1123,3.96172,0.0346988,3.9429,0
785569774,785568201,0.576301,1.13804e-05,3.4744,3.87147,0.34645,3.91678,0
785668891,785667605,0.576069,1.13564e-05,-1.88695,3.88137,0.101928,3.89778,0
785772983,785771798,0.576175,1.13333e-05,-2.1564,3.87542,0.133321,3.90107,0
785872502,785871117,0.576722,1.13106e-05,-1.11685,4.0825,0.0339482,4.05627,0
785972066,785970480,0.576221,1.12884e-05,1.96661,4.05684,0.105927,4.03832,0
786071483,786069753,0.57648,1.12653e-05,-1.18256,4.00928,0.0387558,3.9866,0
786170414,786169072,0.576124,1.1242e-05,2.70613,3.90906,0.208152,3.92132,0
786254886,786253487,0.575815,1.12246e-05,1.04467,3.87995,0.0312527,3.83372,0
786374013,786372674,0.575082,1.1196e-05,1.47355,3.86465,0.062428,3.8297,0
786473657,786472119,0.575173,1.1171e-05,0.324356,3.76722,0.00310299,3.72735,0
786572531,786571311,0.574477,1.11459e-05,2.08145,3.77376,0.127561,3.75015,0
786672275,786670629,0.575105,1.11215e-05,-4.49548,3.99542,0.562014,4.19416,0
786771145,786769950,0.575482,1.11037e-05,0.208053,4.334,0.00110973,4.28845,0
786870590,786869267,0.575082,1.1086e-05,0.391708,4.25377,0.00400783,4.20872,0
786969861,786968585,0.575427,1.10675e-05,-0.692964,4.21573,0.0126563,4.17937,0
787069234,787067905,0.575249,1.10481e-05,-0.77739,4.06004,0.0165389,4.02782,0
787168507,787167222,0.575798,1.10284e-05,-1.25465,4.17678,0.0418755,4.14874,0
787267745,787266559,0.575171,1.10101e-05,3.03449,4.29873,0.238006,4.3272,0
787367470,787365859,0.575352,1.09924e-05,-2.18313,4.23216,0.125128,4.2424,0
787466559,787465177,0.575067,1.09744e-05,2.44271,4.17827,0.158674,4.17951,0
787566078,787564640,0.575165,1.09555e-05,-1.33671,4.07819,0.0486817,4.0586,0
787670334,787668784,0.575438,1.09369e-05,-0.1997,3.99877,0.00110812,3.95706,0
787769933,787768100,0.574836,1.09178e-05,0.652238,4.13963,0.0114185,4.09681,0
787868781,787867417,0.575195,1.08999e-05,0.539604,4.18697,0.00772696,4.14416,0
787968456,787966736,0.575148,1.08816e-05,-1.96113,4.02179,0.106256,4.02278,0
788067201,788066054,0.575281,1.08631e-05,1.70471,3.9952,0.0808205,3.97854,0
788166758,788165373,0.575446,1.08436e-05,-1.18846,3.90075,0.0402326,3.87336,0
788265878,788264692,0.575022,1.08237e-05,3.11534,3.93543,0.274016,3.97819,0
788365664,788364120,0.575333,1.08048e-05,-2.30509,3.99283,0.14786,4.00422,0
788469524,788468295,0.575741,1.07873e-05,-2.1245,3.9834,0.125897,3.98003,0
788569014,788567612,0.575283,1.07691e-05,2.52115,4.0395,0.174835,4.05584,0
788668222,788666934,0.575455,1.0751e-05,-1.91172,4.00004,0.101518,3.99302,0
788767650,788766250,0.575411,1.07324e-05,0.730879,3.86397,0.0153608,3.82806,0
788866887,788865570,0.57595,1.07125e-05,-2.44899,3.88238,0.171646,3.89057,0
788971180,788969853,0.576231,1.06945e-05,-0.172502,3.83238,0.000862731,3.79175,0
789070736,789069171,0.575716,1.06752e-05,2.09608,3.87082,0.126116,3.87589,0
789170211,789168632,0.576371,1.06561e-05,-4.65489,4.0222,0.598567,4.1636,0
789254133,789252912,0.576555,1.06447e-05,-2.19785,4.15266,0.129249,4.14126,0
789373762,789372094,0.577206,1.06268e-05,-0.524797,4.26296,0.00717841,4.21802,0
789472805,789471411,0.576855,1.06122e-05,1.52143,4.28378,0.060039,4.27478,0
789572340,789570730,0.577119,1.05973e-05,-1.76596,4.1494,0.0835092,4.12188,0
789671422,789670060,0.577039,1.05813e-05,2.32529,4.02834,0.149137,4.05831,0
789770769,789769374,0.57669,1.05658e-05,-0.0618419,4.12235,0.000103081,4.07903,0
789870283,789868719,0.576853,1.05497e-05,1.78943,3.9998,0.0889507,3.99854,0
789969477,789968105,0.57631,1.05343e-05,1.4438,4.1568,0.0557205,4.13341,0
790073918,790072288,0.575836,1.05203e-05,3.79524,4.10912,0.389482,4.1924,0
790173005,790171607,0.575583,1.05062e-05,-0.612541,4.1606,0.0100201,4.12464,0
790272521,790270926,0.575647,1.04911e-05,1.5224,4.01643,0.0641176,3.99025,0
790371551,790370243,0.575147,1.04755e-05,1.31061,4.01761,0.0475046,3.9828,0
790471130,790469570,0.575453,1.04596e-05,-0.0958529,4.0001,0.00025521,3.959,0
790570189,790568881,0.574776,1.04445e-05,2.47597,4.13572,0.164701,4.12961,0
790669781,790668203,0.574975,1.04294e-05,-3.39351,4.08439,0.313277,4.18117,0
790768689,790767541,0.575218,1.04155e-05,0.568875,4.1854,0.00859121,4.14217,0
790868223,790866836,0.575122,1.04002e-05,-0.401516,3.99115,0.00448812,3.95313,0
790967532,790966155,0.575756,1.03843e-05,-2.74729,4.17246,0.20099,4.20089,0
791066939,791065620,0.575561,1.03701e-05,2.71377,4.13997,0.197654,4.16539,0
791166385,791164792,0.57531,1.03559e-05,-1.0221,4.12625,0.0281313,4.09638,0
791265416,791264114,0.575911,1.03418e-05,-2.80417,4.24443,0.205848,4.27068,0
791370018,791368395,0.57614,1.03292e-05,-1.37418,4.12572,0.0508563,4.10891,0
791469080,791467713,0.576517,1.03147e-05,-0.841984,4.06373,0.0193839,4.0231,0
791568670,791567108,0.576309,1.02994e-05,1.91604,3.93205,0.10374,3.93557,0
791667726,791666351,0.576441,1.02833e-05,-2.89069,3.83635,0.242015,3.86334,0
791767369,791765669,0.577178,1.02689e-05,-1.72045,4.14359,0.0793717,4.11335,0
791866279,791865097,0.57678,1.02562e-05,2.69642,4.2039,0.192167,4.24906,0
791970597,791969272,0.576697,1.02452e-05,1.40268,4.14113,0.0527904,4.12443,0
792069607,792068588,0.576808,1.02317e-05,-2.30109,4.01232,0.146632,4.00994,0
792174495,792172875,0.577179,1.02188e-05,-1.04913,3.96557,0.0308396,3.91923,0
792253623,792252330,0.577211,1.02066e-05,1.46435,3.82927,0.06222,3.82255,0
792373156,792371512,0.577218,1.01879e-05,-3.71131,3.81456,0.401206,3.88433,0
792472096,792470831,0.577662,1.01743e-05,1.19959,4.02228,0.0397512,4.00845,0
792571562,792570149,0.577185,1.01626e-05,0.293521,4.23287,0.00226153,4.19133,0
792670699,792669564,0.577302,1.01508e-05,0.856845,4.05568,0.020114,4.02545,0
792770200,792768786,0.577204,1.01379e-05,-1.62134,3.95067,0.073932,3.92839,0
792869407,792868105,0.577409,1.01245e-05,1.72253,3.88229,0.0849186,3.88048,0
792949392,792947706,0.57721,1.01139e-05,-0.943318,3.89999,0.0253518,3.86442,0
793073317,793071708,0.576619,1.01015e-05,-0.0941777,4.15544,0.000237157,4.11211,0
793172706,793171026,0.576886,1.00903e-05,0.693051,4.11761,0.0129611,4.07914,0
793271507,793270345,0.577042,1.00782e-05,-3.51579,3.96619,0.346281,4.04005,0
793371026,793369666,0.577098,1.00667e-05,2.61749,4.06435,0.187299,4.09366,0
793470352,793469049,0.577172,1.00551e-05,-1.8275,4.00273,0.092708,3.98912,0
793569524,793568309,0.576803,1.00433e-05,2.93216,4.12432,0.231623,4.16197,0
793669230,793667619,0.577023,1.00325e-05,-3.89664,4.10201,0.411283,4.20417,0
793768261,793767132,0.577121,1.00231e-05,2.99605,4.26921,0.233618,4.31762,0
793873046,793871222,0.577257,1.00155e-05,1.77549,4.31482,0.0811766,4.30589,0
793971946,793970541,0.57717,1.00067e-05,-2.87808,4.3255,0.212778,4.35596,0
794071524,794069862,0.577582,9.99835e-06,-0.366021,4.42108,0.00336698,4.3748,0
794170484,794169178,0.577202,9.9899e-06,1.21185,4.43046,0.0368306,4.40029,0
794270124,794268568,0.57731,9.98065e-06,-0.194936,4.25349,0.000992649,4.20867,0
794354696,794352919,0.577612,9.97365e-06,-2.74698,4.25854,0.196883,4.27428,0
794473540,794472100,0.577192,9.9624e-06,3.23414,4.44626,0.261385,4.50436,0
794572759,794571600,0.577148,9.95432e-06,-1.16894,4.39503,0.0345446,4.36199,0
794672056,794670736,0.577175,9.94508e-06,0.882537,4.20913,0.0205603,4.17286,0
794771320,794770055,0.577463,9.93457e-06,-4.39367,4.13133,0.519187,4.26418,0
794870792,794869374,0.577498,9.92587e-06,2.94277,4.29308,0.22413,4.34185,0
794970035,794968692,0.577236,9.91796e-06,-0.0746341,4.32761,0.000143016,4.28227,0
795069400,795068014,0.577393,9.90906e-06,0.651235,4.18181,0.0112686,4.14314,0
795168981,795167330,0.577409,9.89897e-06,-1.96492,4.03099,0.106423,4.0233,0
795268002,795266648,0.577683,9.88841e-06,0.700321,4.00704,0.0135996,3.97268,0
795367482,795366094,0.577566,9.87722e-06,-1.78639,3.90151,0.0908816,3.88727,0
795466603,795465336,0.577967,9.86587e-06,0.312487,3.92991,0.00276082,3.89193,0
795566008,795564603,0.577369,9.85523e-06,3.50179,4.11667,0.330972,4.19326,0
795670161,795668888,0.577255,9.84758e-06,2.88916,4.15268,0.223343,4.19577,0
795769549,795768206,0.577184,9.83859e-06,-1.97295,4.11711,0.10505,4.11587,0
795868847,795867527,0.577629,9.82958e-06,-1.0222,4.21,0.0275772,4.17382,0
795973525,795971810,0.577812,9.82113e-06,-1.29633,4.04076,0.0462092,4.01012,0
796072417,796071142,0.577791,9.80998e-06,0.262686,3.86433,0.00198406,3.82528,0
796172160,796170548,0.577633,9.79724e-06,0.126615,3.71805,0.000479086,3.67902,0
796270917,796269765,0.578061,9.78296e-06,-2.7671,3.63151,0.234273,3.65508,0
796370449,796369083,0.578751,9.77003e-06,-2.10375,3.84848,0.127777,3.83261,0
796469561,796468404,0.579271,9.75834e-06,-1.72937,3.84138,0.086506,3.81168,0
796569143,796567763,0.579594,9.74621e-06,-0.364754,3.72038,0.00397346,3.68246,0
796668472,796667039,0.579399,9.73287e-06,1.83573,3.63728,0.102944,3.6573,0
796772479,796771324,0.579374,9.72099e-06,-2.51456,3.72818,0.188446,3.72641,0
796872291,796870643,0.579852,9.70763e-06,-1.75489,3.6858,0.0928379,3.65765,0
796971450,796970030,0.580397,9.69426e-06,-0.960171,3.68385,0.0278069,3.64482,0
797070825,797069324,0.580302,9.68029e-06,1.57683,3.5408,0.0780239,3.55574,0
797170167,797168598,0.579605,9.66821e-06,2.57955,3.99519,0.185058,4.03869,0
797274230,797272883,0.579439,9.6596e-06,2.05552,3.95031,0.118841,3.96425,0
797353627,797352338,0.579088,9.65201e-06,0.595271,4.07886,0.0096527,4.04034,0
797472890,797471520,0.579324,9.63981e-06,0.0940766,3.91575,0.000251134,3.87511,0
797572124,797570838,0.579208,9.62861e-06,-1.79055,3.80508,0.0936197,3.79271,0
797671505,797670157,0.579411,9.61667e-06,1.1094,3.7262,0.0367001,3.70306,0
797770787,797769595,0.579205,9.6043e-06,-1.57981,3.69121,0.0751278,3.67407,0
797870181,797868794,0.579299,9.59102e-06,1.19216,3.57583,0.0441618,3.55448,0
797969394,797968114,0.579165,9.57679e-06,-1.001,3.46495,0.0321316,3.437,0
798069033,798067588,0.57969,9.56269e-06,-0.424839,3.56024,0.00563283,3.52259,0
798168089,798166750,0.579135,9.5495e-06,2.96165,3.62608,0.268773,3.67367,0
798267742,798266083,0.579197,9.53711e-06,-1.95802,3.58175,0.118931,3.5804,0
798366996,798365393,0.579523,9.52453e-06,0.478514,3.58104,0.00710458,3.54701,0
798465929,798464710,0.57881,9.51297e-06,3.67108,3.79269,0.39482,3.87367,0
798565661,798564025,0.57847,9.5038e-06,-0.00894775,3.87389,2.29635e-06,3.83399,0
798669721,798668310,0.578352,9.49467e-06,1.41564,3.70131,0.0601597,3.67395,0
798769366,798767627,0.578823,9.48356e-06,-3.0551,3.77894,0.274435,3.83603,0
798868230,798867061,0.578986,9.4743e-06,1.16229,3.78518,0.0396552,3.75828,0
798967817,798966264,0.578423,9.46511e-06,2.48638,3.88304,0.176897,3.89089,0
799066802,799065583,0.578473,9.45599e-06,-1.04015,3.76773,0.0319056,3.74337,0
799171574,799169868,0.578543,9.44703e-06,-3.28641,3.6482,0.328945,3.74425,0
799270832,799269186,0.578537,9.43781e-06,2.97667,3.75404,0.262253,3.79348,0
799370108,799368500,0.578805,9.42902e-06,-3.68749,3.86616,0.390785,3.95912,0
799469048,799467823,0.57858,9.42214e-06,3.84609,4.05059,0.405769,4.14491,0
799568703,799567142,0.578556,9.41623e-06,-0.596963,4.0574,0.00975898,4.01982,0
799667702,799666537,0.578325,9.40959e-06,-1.62218,4.00512,0.0730028,3.996,0
799772460,799770840,0.578681,9.40373e-06,-2.00702,4.02888,0.11109,4.02709,0
799871408,799870064,0.578191,9.39754e-06,2.37827,4.20766,0.149362,4.20775,0
799970703,799969383,0.578386,9.39212e-06,0.304836,4.20097,0.00245776,4.15757,0
800069879,800068702,0.578375,9.38607e-06,-2.31199,4.03186,0.147308,4.04808,0
800169389,800168023,0.578436,9.37954e-06,0.873978,4.00037,0.0212157,3.96445,0
800268703,800267338,0.5788,9.37295e-06,1.39944,4.12881,0.0527036,4.10721,0
800368034,800366657,0.578389,9.36812e-06,-0.753638,4.31551,0.0146235,4.27796,0
800467773,800466118,0.578417,9.36345e-06,2.00694,4.26692,0.104884,4.25792,0
800571566,800570261,0.578129,9.35935e-06,1.81624,4.20773,0.087108,4.1883,0
800671218,800669578,0.578371,9.35307e-06,-2.00559,4.13782,0.108012,4.13764,0
800770231,800768921,0.578357,9.34611e-06,-0.518122,3.9913,0.00747321,3.95312,0
800869776,800868216,0.578458,9.33755e-06,0.94372,3.8341,0.0258095,3.80174,0
800968832,800967534,0.578115,9.32852e-06,0.0102874,3.81166,3.08502e-06,3.77175,0
801068177,801066853,0.578628,9.31964e-06,-1.39991,3.93285,0.0553666,3.90905,0
801167497,801166171,0.578414,9.31126e-06,1.74544,3.86342,0.0876185,3.8512,0
801266877,801265501,0.57874,9.30226e-06,-2.34209,3.81776,0.159645,3.82652,0
801371121,801369775,0.579112,9.29431e-06,-2.81155,3.74959,0.234242,3.77365,0
801470490,801469094,0.579531,9.28529e-06,-0.700133,3.7866,0.0143837,3.7474,0
801569707,801568571,0.579317,9.27576e-06,0.442305,3.70349,0.00586936,3.6695,0
801669438,801667731,0.579711,9.26527e-06,-1.91994,3.61676,0.113244,3.60023,0
801768386,801767052,0.579655,9.2544e-06,2.79387,3.53526,0.245328,3.59577,0
801867982,801866406,0.578961,9.24599e-06,2.11121,4.01607,0.123316,4.01856,0
801967011,801965686,0.579056,9.23852e-06,-2.11362,3.91346,0.126839,3.91344,0
802066422,802065029,0.579598,9.23125e-06,-2.24767,4.02873,0.139334,4.02322,0
802165734,802164324,0.579559,9.22434e-06,1.15901,3.89615,0.0383086,3.87504,0
802255068,802253710,0.579663,9.2206e-06,-2.39292,3.78195,0.168229,3.78499,0
802354305,802353105,0.580029,9.21283e-06,0.0616059,3.79308,0.000111176,3.75555,0
802468623,802467245,0.580114,9.20168e-06,1.08004,3.67544,0.0352635,3.65869,0
802568296,802566607,0.580152,9.19276e-06,-3.23368,3.56323,0.326067,3.60475,0
802671998,802670849,0.580062,9.18581e-06,-0.331418,3.5816,0.00340748,3.53549,0
802772451,802770167,0.580098,9.17718e-06,-0.61949,3.44859,0.0123647,3.41314,0
802870872,802869486,0.580131,9.16711e-06,-1.23124,3.29629,0.0510999,3.27002,0
802971207,802968804,0.580137,9.1555e-06,-1.38726,3.16958,0.0674642,3.14818,0
803069452,803068123,0.580223,9.14238e-06,-1.4291,3.05004,0.0744005,3.03058,0
803169790,803167527,0.580294,9.12795e-06,-3.44382,2.95339,0.446189,3.02012,0
803272926,803271724,0.58081,9.11506e-06,-2.73313,3.03351,0.273611,3.05269,0
803373162,803371057,0.580412,9.10201e-06,1.42192,3.16906,0.0708886,3.16277,0
803471534,803470363,0.580998,9.08969e-06,-2.43344,3.25054,0.202416,3.25444,0
803571901,803569682,0.581113,9.07752e-06,1.01364,3.1626,0.0360981,3.1501,0
803670187,803669002,0.580939,9.06397e-06,-0.70196,3.11784,0.0175602,3.08577,0
803755877,803753421,0.581069,9.05295e-06,1.34163,3.02379,0.0661407,3.01955,0
803873829,803872604,0.580762,9.03452e-06,-1.20166,3.05425,0.0525314,3.03054,0
803974075,803971985,0.580944,9.01812e-06,-2.0372,2.91882,0.157985,2.91752,0
804072653,804071244,0.581716,9.00236e-06,-2.98033,3.06043,0.322481,3.08628,0
804172725,804170560,0.58249,8.98934e-06,-1.80917,3.28071,0.110854,3.2562,0
804271183,804269900,0.582929,8.97722e-06,-1.51643,3.19862,0.0798801,3.16866,0
804371569,804369202,0.58314,8.96417e-06,-2.17569,3.05934,0.17192,3.04316,0
804471042,804468516,0.583398,8.94985e-06,-0.703391,2.94555,0.0186632,2.91437,0
804569105,804567835,0.584151,8.93518e-06,-2.52433,2.97828,0.237731,2.96696,0
804669567,804667153,0.58473,8.92084e-06,-3.28846,2.88436,0.416574,2.89672,0
804767876,804766539,0.585394,8.90673e-06,-1.52986,2.90529,0.0895102,2.87458,0
804868031,804865790,0.585765,8.89145e-06,-2.33208,2.77322,0.217901,2.75343,0
804966282,804965110,0.586059,8.87478e-06,-0.168485,2.65622,0.00118745,2.64016,0
805066665,805064572,0.586009,8.85725e-06,0.0174806,2.62098,1.29541e-05,2.6063,0
805169942,805168712,0.585901,8.84068e-06,0.0490001,2.60193,0.000102531,2.58487,0
805270138,805268046,0.58602,8.82185e-06,-0.430376,2.50253,0.00822386,2.47812,0
805353797,805352462,0.586148,8.80688e-06,0.526509,2.41162,0.0127721,2.40499,0
805474002,805471634,0.586818,8.781e-06,-3.26236,2.3447,0.504353,2.36881,0
805572304,805571018,0.587352,8.76029e-06,0.306369,2.34766,0.00444234,2.34093,0
805672573,805670272,0.586619,8.74234e-06,3.08804,2.68082,0.395236,2.79582,0
805770814,805769590,0.586351,8.72985e-06,-0.304929,2.8698,0.00360001,2.83989,0
805871372,805869032,0.587024,8.7171e-06,-2.27601,2.93707,0.19597,2.92808,0
805969584,805968227,0.586774,8.70538e-06,2.46668,2.96248,0.228207,3.02315,0
806068968,806067549,0.586505,8.69561e-06,-0.098897,3.08294,0.000352499,3.05135,0
806173994,806171830,0.586696,8.686e-06,-0.642187,2.94773,0.0155451,2.90978,0
806272345,806271150,0.587454,8.6748e-06,-2.92242,3.05672,0.310446,3.072,0
806371772,806370467,0.587459,8.66494e-06,2.16365,3.00786,0.172931,3.05358,0
806471091,806469787,0.58723,8.65557e-06,0.707306,3.05214,0.0182124,3.03403,0
806571497,806569105,0.587161,8.64605e-06,-1.71547,3.0166,0.108394,3.00085,0
806669889,806668513,0.587027,8.637e-06,1.7749,3.2022,0.109309,3.21165,0
806769989,806767742,0.58739,8.62871e-06,-0.566183,3.20231,0.0111227,3.16857,0
806868376,806867075,0.587307,8.61985e-06,2.52044,3.12684,0.225738,3.17544,0
806973702,806971346,0.586893,8.61351e-06,-0.161343,3.32485,0.000869935,3.28196,0
807071991,807070681,0.586586,8.60556e-06,1.54552,3.23469,0.0820491,3.2244,0
807172233,807169983,0.586203,8.59716e-06,0.953855,3.23136,0.0312851,3.20359,0
807270515,807269301,0.585858,8.58789e-06,2.09132,3.13326,0.155097,3.1326,0
807370827,807368620,0.585756,8.57761e-06,-0.692859,3.02854,0.0176122,3.00562,0
807469152,807467986,0.586327,8.56674e-06,-3.38564,3.11074,0.409427,3.19253,0
807574458,807572234,0.585851,8.56156e-06,3.72295,3.662,0.420546,3.74053,0
807672724,807671542,0.585587,8.55782e-06,-0.504559,3.71295,0.00761835,3.6815,0
807773048,807770862,0.586081,8.55377e-06,-3.11908,3.83206,0.282085,3.89315,0
807871566,807870180,0.586366,8.55136e-06,-0.346387,3.88681,0.00342994,3.84701,0
807971792,807969500,0.58603,8.54857e-06,2.0885,3.81253,0.12712,3.81071,0
808070182,808068816,0.585819,8.54538e-06,0.217264,3.72047,0.00140973,3.68146,0
808169464,808168135,0.585949,8.54092e-06,-1.20092,3.56143,0.044995,3.54135,0
808270115,808267570,0.586185,8.5357e-06,-0.346796,3.48448,0.00383502,3.44887,0
808368052,808366772,0.585795,8.53004e-06,1.92913,3.44269,0.120111,3.43634,0
808468217,808466092,0.585686,8.52405e-06,-1.8944,3.36792,0.118396,3.37596,0
808566678,808565553,0.586459,8.51954e-06,-3.28944,3.87271,0.310447,3.92826,0
808666116,808664728,0.586559,8.51769e-06,2.12396,3.87185,0.129459,3.88432,0
808775537,808773981,0.585984,8.51869e-06,3.6911,4.11232,0.368115,4.23307,0
808869724,808868332,0.58578,8.51768e-06,-1.206,4.31064,0.0374896,4.29737,0
808969274,808967677,0.585844,8.5174e-06,-0.031647,4.15744,2.67669e-05,4.11457,0
809068704,809066989,0.585489,8.51636e-06,2.37869,4.07156,0.154409,4.06896,0
809167571,809166288,0.58509,8.51524e-06,1.76588,4.05456,0.0854551,4.02706,0
809266896,809265606,0.584969,8.51332e-06,0.119273,3.88983,0.000406357,3.85101,0
809366431,809365031,0.585275,8.51049e-06,-2.89968,3.84481,0.242986,3.90819,0
809470482,809469210,0.584791,8.51005e-06,2.20676,3.97036,0.136282,3.95521,0
809569826,809568528,0.584261,8.50857e-06,2.62123,4.00998,0.190382,4.00109,0
809669257,809667847,0.58389,8.50677e-06,1.94465,3.90694,0.107548,3.87694,0
809768956,809767167,0.583679,8.5037e-06,0.636838,3.73436,0.012067,3.696,0
809867771,809866522,0.583597,8.49911e-06,0.199291,3.56731,0.00123706,3.53419,0
809972358,809970769,0.583694,8.49457e-06,-0.603858,3.48988,0.0116096,3.47078,0
810071478,810070088,0.583825,8.48821e-06,-1.1923,3.39382,0.0465415,3.3899,0
810171282,810169498,0.583912,8.48122e-06,-0.731509,3.29471,0.018046,3.27505,0
810270078,810268725,0.58393,8.47326e-06,0.668524,3.17355,0.0156476,3.14037,0
810369451,810368041,0.583917,8.4641e-06,0.134559,3.03551,0.000662753,3.00405,0
810468719,810467380,0.583888,8.45373e-06,1.02743,2.90584,0.0403638,2.87891,0
810568018,810566681,0.583975,8.44206e-06,-0.8808,2.79584,0.0308319,2.78023,0
810667198,810666000,0.584536,8.43047e-06,-2.50454,2.89364,0.240862,2.92874,0
810771701,810770284,0.584722,8.42253e-06,1.89991,3.10331,0.129241,3.10487,0
810870783,810869603,0.584327,8.41444e-06,1.82268,3.0839,0.119696,3.07754,0
810970352,810968981,0.58377,8.40623e-06,2.83684,3.12058,0.286545,3.14603,0
811069447,811068240,0.583359,8.39835e-06,0.774275,3.13713,0.0212332,3.10456,0
811169119,811167559,0.582946,8.38951e-06,1.90459,3.044,0.132409,3.02733,0
811268246,811267067,0.582327,8.38054e-06,2.00522,3.07756,0.145169,3.05847,0
811372581,811371164,0.582371,8.37286e-06,0.494995,3.03422,0.00897248,3.00247,0
811471773,811470481,0.582332,8.36284e-06,-0.0179021,2.90451,1.226e-05,2.87818,0
811571198,811569799,0.582105,8.35157e-06,1.89668,2.78392,0.143579,2.7684,0
811670479,811669119,0.581598,8.33945e-06,1.57236,2.73291,0.100516,2.70936,0
811769822,811768456,0.5811,8.32667e-06,2.14165,2.64406,0.192745,2.63059,0
811869133,811867756,0.580501,8.31318e-06,2.10059,2.59484,0.188943,2.57816,0
811968364,811967074,0.580197,8.29885e-06,-0.810271,2.50768,0.0290901,2.51416,0
812067951,812066547,0.580676,8.28556e-06,-1.67269,2.70095,0.1151,2.73094,0
812167017,812165756,0.581075,8.27528e-06,-0.570457,2.87234,0.0125883,2.85415,0
812266682,812265031,0.580977,8.26543e-06,1.9386,2.77277,0.150599,2.76237,0
812365623,812364349,0.580345,8.25547e-06,2.23375,2.8094,0.19734,2.80176,0
812475168,812473603,0.580543,8.24771e-06,-2.34148,2.81553,0.216361,2.86839,0
812554712,812553058,0.581074,8.24149e-06,-2.73164,3.10737,0.266816,3.16508,0
812668435,812667271,0.581414,8.23333e-06,-1.99331,3.14007,0.140594,3.15132,0
812768260,812766590,0.581864,8.22763e-06,-2.24385,3.20159,0.174734,3.21416,0
812867572,812866023,0.58185,8.22231e-06,1.49841,3.13754,0.0795119,3.12812,0
812966825,812965229,0.581485,8.21644e-06,0.491222,3.15207,0.00850584,3.12025,0
813065888,813064546,0.582023,8.21016e-06,-3.03981,3.23713,0.31717,3.28572,0
813170412,813168830,0.582375,8.20665e-06,-1.6808,3.2756,0.0958293,3.25709,0
813269438,813268150,0.582996,8.20211e-06,-2.55535,3.40349,0.213174,3.40779,0
813368864,813367516,0.583072,8.19809e-06,1.72428,3.3181,0.0995601,3.33249,0
813473053,813471771,0.583066,8.1954e-06,-0.431523,3.39695,0.00609083,3.36121,0
813572464,813571071,0.58262,8.19162e-06,2.81004,3.48351,0.251864,3.53757,0
813672141,813670500,0.582302,8.18914e-06,0.287588,3.5775,0.00256873,3.54095,0
813771279,813769709,0.582498,8.18566e-06,-0.65627,3.45256,0.0138606,3.41885,0
813870410,813869027,0.582088,8.18172e-06,3.269,3.47492,0.341697,3.53941,0
813969912,813968410,0.581776,8.17906e-06,0.290718,3.54034,0.00265251,3.50341,0
814068983,814067666,0.58214,8.1761e-06,-0.964347,3.55208,0.0290898,3.52419,0
814168360,814166984,0.581707,8.1736e-06,3.3044,3.58487,0.33843,3.64069,0
814272850,814271268,0.581374,8.17315e-06,3.11969,3.59805,0.300547,3.63447,0
814372240,814370587,0.581232,8.17178e-06,-2.02652,3.63559,0.125512,3.65553,0
814471397,814470017,0.58149,8.17106e-06,1.70427,3.76283,0.0857672,3.7445,0
814570880,814569224,0.580936,8.17135e-06,1.63819,3.97276,0.0750573,3.94406,0
814669725,814668543,0.581241,8.17185e-06,-1.4926,4.02434,0.0615106,4.01386,0
814769290,814767864,0.580809,8.17284e-06,3.42147,4.12576,0.315268,4.16612,0
814868343,814867180,0.580839,8.17409e-06,-1.32211,4.08033,0.0475991,4.06839,0
814967881,814966499,0.580778,8.17469e-06,2.05021,3.95057,0.118221,3.93504,0
815071989,815070784,0.580606,8.17602e-06,-0.741914,3.94494,0.0155033,3.91826,0
815171279,815170102,0.580501,8.17552e-06,-0.425198,3.78092,0.00531303,3.74949,0
815270735,815269454,0.580789,8.17446e-06,-1.04788,3.77218,0.0323438,3.75036,0
815370098,815368740,0.580538,8.17323e-06,2.36847,3.66179,0.170215,3.66188,0
815469419,815468061,0.580471,8.17133e-06,-0.635542,3.55337,0.0126301,3.52635,0
815568833,815567532,0.580343,8.16843e-06,2.10347,3.42615,0.143491,3.41823,0
815668404,815666696,0.580301,8.16453e-06,-2.25481,3.34406,0.168928,3.37749,0
815767313,815766015,0.580575,8.16111e-06,0.460719,3.452,0.00683217,3.41625,0
815866675,815865333,0.580446,8.15726e-06,-1.57183,3.35089,0.0819238,3.34874,0
815966008,815964691,0.580798,8.15334e-06,-0.593446,3.40372,0.0114965,3.37235,0
816045459,816044109,0.580381,8.15043e-06,4.0361,3.43962,0.526223,3.5427,0
816169411,816168257,0.579951,8.14942e-06,2.6584,3.54338,0.221605,3.55313,0
816268798,816267574,0.579712,8.14743e-06,-1.03624,3.52117,0.0338835,3.50869,0
816368136,816367011,0.580193,8.14595e-06,-2.24695,3.72237,0.150704,3.74505,0
816467957,816466212,0.580251,8.14527e-06,1.00216,3.63954,0.0306611,3.60776,0
816566799,816565533,0.579893,8.14386e-06,1.60321,3.57848,0.0798065,3.55621,0
816666502,816664849,0.579781,8.14161e-06,-1.29911,3.46279,0.0541528,3.45411,0
816765783,816764168,0.580334,8.13963e-06,-2.22525,3.72913,0.147539,3.74212,0
816855264,816853556,0.580374,8.14131e-06,1.1671,3.67071,0.0412312,3.64461,0
816969157,816967785,0.580458,8.13786e-06,-1.58885,3.61806,0.0775257,3.60521,0
817068499,817067090,0.580812,8.13588e-06,-2.04853,3.58235,0.130159,3.57966,0
817167970,817166486,0.580762,8.13357e-06,1.79991,3.47335,0.103636,3.47324,0
817271922,817270694,0.58119,8.13283e-06,-3.5193,3.74262,0.3677,3.80265,0
817371634,817370012,0.581631,8.13291e-06,-1.32605,3.87682,0.0503967,3.8425,0
817451285,817449657,0.581742,8.13276e-06,-0.375744,3.74271,0.00419137,3.70377,0
817555032,817553754,0.581927,8.13261e-06,-1.1867,3.56768,0.0438586,3.53365,0
817654490,817653070,0.581923,8.13009e-06,1.73803,3.42419,0.0980204,3.4393,0
817773616,817772253,0.581356,8.12786e-06,2.71179,3.6447,0.224186,3.69043,0
817872866,817871572,0.581093,8.12683e-06,0.617557,3.67976,0.0115157,3.64576,0
817972603,817971007,0.581225,8.12472e-06,-2.34491,3.52035,0.173549,3.5321,0
818071522,818070213,0.581599,8.12238e-06,-1.23659,3.53764,0.0480278,3.50941,0
818171137,818169570,0.581263,8.11994e-06,3.6592,3.51693,0.423025,3.61878,0
818270049,818268849,0.580601,8.11987e-06,3.40346,3.99348,0.322291,4.04898,0
818369520,818368165,0.580377,8.12112e-06,-0.028004,3.99178,2.18289e-05,3.95165,0
818468773,818467484,0.58058,8.12147e-06,-1.01087,3.89379,0.0291594,3.86786,0
818573350,818571769,0.580702,8.12249e-06,-0.325918,3.76251,0.00313687,3.72525,0
818672430,818671094,0.581049,8.12135e-06,-3.18722,3.70649,0.304522,3.76379,0
818771882,818770432,0.581615,8.1218e-06,-2.66802,4.00381,0.197543,4.01492,0
818870940,818869776,0.581391,8.123e-06,3.1987,4.01603,0.28308,4.08733,0
818970431,818969045,0.581184,8.12477e-06,-0.0119357,4.06215,3.89669e-06,4.01993,0
819069826,819068522,0.581575,8.12589e-06,-2.66285,4.04621,0.194717,4.06045,0
819169301,819167681,0.581867,8.1272e-06,-1.50249,3.99365,0.0628077,3.96395,0
819268804,819267000,0.58165,8.12799e-06,3.14972,3.93293,0.280276,4.00524,0
819372551,819371285,0.581331,8.13049e-06,3.17516,3.98611,0.281021,4.04625,0
819472160,819470619,0.581081,8.1318e-06,-0.0285557,4.02724,2.24976e-05,3.98545,0
819571353,819569976,0.581518,8.13246e-06,-3.61925,4.11051,0.354077,4.18615,0
819670654,819669242,0.581887,8.13438e-06,-1.57133,4.20495,0.0652422,4.17606,0
819769878,819768559,0.581986,8.13598e-06,0.994813,4.04588,0.0271786,4.022,0
819869329,819867996,0.58169,8.13733e-06,0.760528,4.06678,0.0158029,4.03294,0
819968534,819967236,0.582074,8.13833e-06,-3.05251,4.04827,0.255742,4.07716,0
820067951,820066516,0.582432,8.14004e-06,-0.818327,4.10523,0.0181248,4.06339,0
820172122,820170801,0.582439,8.14224e-06,-0.720615,3.92979,0.0146823,3.88032,0
820271516,820270119,0.582997,8.14245e-06,-3.43424,4.01711,0.326216,4.04685,0
820370692,820369471,0.583228,8.14337e-06,0.330147,3.94879,0.00306697,3.91993,0
820470160,820468757,0.583008,8.14386e-06,1.08486,3.92684,0.0333015,3.91377,0
820569412,820568079,0.582855,8.144e-06,0.856615,3.8396,0.0212345,3.81662,0
820668816,820667482,0.582765,8.14357e-06,-0.8788,3.73617,0.0229673,3.69948,0
820773327,820771680,0.582296,8.14444e-06,4.33861,3.97365,0.526344,4.12389,0
820872417,820870998,0.581893,8.14694e-06,1.10033,4.28726,0.031378,4.25153,0
820971528,820970316,0.581909,8.14911e-06,-0.697204,4.10106,0.0131699,4.06557,0
821070977,821069635,0.582021,8.15038e-06,-0.740474,3.93437,0.0154847,3.89971,0
821170299,821168956,0.581918,8.15069e-06,1.25318,3.7641,0.0463579,3.73769,0
821254520,821253375,0.581812,8.15151e-06,-1.14253,3.67192,0.0395004,3.64521,0
821373979,821372557,0.581469,8.1499e-06,3.30076,3.60562,0.335742,3.65618,0
821473670,821472000,0.581148,8.14903e-06,0.25907,3.64983,0.00204323,3.61173,0
821572861,821571200,0.581581,8.14774e-06,-2.22685,3.77166,0.146086,3.78901,0
821671871,821670514,0.581531,8.14734e-06,1.47944,3.69349,0.0658439,3.67129,0
821771247,821769837,0.581086,8.14656e-06,1.86676,3.72682,0.103895,3.7093,0
821870555,821869151,0.581084,8.14525e-06,-0.99537,3.58569,0.0307011,3.56608,0
821969882,821968470,0.581601,8.14375e-06,-3.28264,3.74353,0.319832,3.81459,0
822069017,822067788,0.58209,8.14401e-06,-2.31473,3.97123,0.149911,3.97393,0
822168773,822167107,0.582241,8.1444e-06,-0.717233,3.84508,0.0148653,3.80703,0
822267593,822266435,0.582052,8.14379e-06,1.30027,3.72537,0.050426,3.7067,0
822367095,822365748,0.582115,8.14224e-06,-1.18762,3.5675,0.0439285,3.54056,0
822466706,822465065,0.582489,8.1397e-06,-2.20959,3.51748,0.154223,3.51566,0
822565851,822564522,0.582576,8.13695e-06,0.619839,3.40831,0.0125249,3.38122,0
822655164,822653769,0.582197,8.13693e-06,2.87415,3.493,0.262771,3.5432,0
822774321,822772961,0.581906,8.13429e-06,-0.493109,3.52157,0.00767198,3.48746,0
822869140,822867305,0.581952,8.13064e-06,3.00998,3.69701,0.272292,3.72056,0
822967970,822966623,0.581869,8.12938e-06,-1.12187,3.64056,0.0384127,3.61607,0
823067675,823065945,0.582395,8.12789e-06,-3.06409,3.76257,0.277253,3.80322,0
823166392,823165261,0.582569,8.12728e-06,0.75681,3.72512,0.0170841,3.69669,0
823265925,823264580,0.582047,8.12681e-06,3.39619,3.88589,0.3298,3.95754,0
823355426,823354030,0.58171,8.13013e-06,1.39047,4.05683,0.0529531,4.02809,0
823469599,823468183,0.581418,8.12957e-06,1.77731,3.92759,0.0893627,3.90666,0
823568782,823567502,0.581148,8.12952e-06,1.59802,3.80572,0.0745566,3.77875,0
823668166,823666821,0.581416,8.1288e-06,-2.14528,3.77773,0.135361,3.79573,0
823767410,823766140,0.581901,8.12895e-06,-2.69039,3.97888,0.202129,4.00833,0
823866844,823865460,0.582094,8.13011e-06,0.368145,3.94751,0.00381481,3.90863,0
823971060,823969744,0.582122,8.13191e-06,-1.07395,3.87886,0.0330386,3.84732,0
824070391,824069062,0.582062,8.13161e-06,1.3134,3.71523,0.0515903,3.69547,0
824169670,824168465,0.581683,8.13075e-06,1.52672,3.73321,0.0693739,3.71363,0
824269375,824267699,0.581811,8.12913e-06,-1.99172,3.60161,0.122381,3.60452,0
824368332,824367022,0.581761,8.12713e-06,3.19011,3.55091,0.318441,3.60948,0
824472499,824471303,0.581305,8.12746e-06,0.646035,3.77517,0.0122838,3.72853,0
824572186,824570643,0.58077,8.12683e-06,2.30172,3.86195,0.152425,3.85229,0
824671347,824669942,0.580973,8.12602e-06,-2.16059,3.8077,0.13622,3.83124,0
824770614,824769259,0.58123,8.12533e-06,-1.35806,3.7996,0.0539337,3.78409,0
824869889,824868578,0.581159,8.12417e-06,0.703938,3.65911,0.015047,3.62302,0
824969355,824967950,0.581492,8.12217e-06,-2.65629,3.66052,0.214173,3.69377,0
825073527,825072216,0.581908,8.12204e-06,-3.83264,3.72558,0.438087,3.81845,0
825173235,825171500,0.582332,8.12227e-06,-1.04178,3.91871,0.0307728,3.88223,0
825252749,825251091,0.582123,8.12242e-06,2.46467,3.85286,0.175183,3.88439,0
825366563,825365173,0.582384,8.12158e-06,1.58043,3.86912,0.0717293,3.86461,0
825465859,825464490,0.582214,8.12202e-06,-1.85638,3.90531,0.0980475,3.89114,0
825575134,825573772,0.58273,8.12505e-06,-2.73667,4.04301,0.205825,4.0503,0
825654561,825653201,0.582924,8.12589e-06,-0.775594,3.96998,0.016836,3.92907,0
825773838,825772414,0.582757,8.12616e-06,1.74649,3.82007,0.0887189,3.826,0
825872855,825871697,0.582497,8.12651e-06,-0.573997,3.90028,0.009386,3.86072,0
825972546,825971047,0.583072,8.12696e-06,-3.00438,4.06965,0.24644,4.08769,0
826071697,826070509,0.583336,8.12841e-06,0.419744,4.04349,0.0048414,4.0119,0
826171235,826169654,0.583113,8.12928e-06,1.66429,3.97548,0.077415,3.97755,0
826270313,826268972,0.582807,8.13007e-06,1.83316,3.99359,0.093497,3.99395,0
826369634,826368291,0.582764,8.13039e-06,-0.583256,3.87057,0.00976562,3.8317,0
826469344,826467610,0.583028,8.12953e-06,-2.98634,3.73311,0.265439,3.76453,0
826568230,826566929,0.583634,8.12923e-06,-3.78498,3.92564,0.405484,3.98477,0
826667816,826666259,0.584062,8.13016e-06,-1.37577,4.00929,0.0524546,3.97117,0
826766852,826765566,0.584328,8.13069e-06,-1.0417,3.85202,0.0313005,3.81227,0
826866409,826864993,0.584587,8.13027e-06,-1.3484,3.68747,0.0547853,3.65084,0
826965423,826964206,0.584808,8.12873e-06,-0.60833,3.52053,0.0116796,3.48456,0
