timestamp,timestamp_sample,accel_device_id,gyro_device_id,delta_angle[0],delta_angle[1],delta_angle[2],delta_velocity[0],delta_velocity[1],delta_velocity[2],delta_angle_dt,delta_velocity_dt,delta_velocity_clipping
741401810,741401357,3670026,3670026,2.39916e-05,-4.71042e-05,0.000228539,-0.00315884,0.00262352,-0.0478574,4968,4968,0
741406706,741406319,3670026,3670026,4.98921e-05,-5.07193e-05,0.000135039,-0.00479655,0.000824553,-0.048452,4962,4962,0
741903242,741902911,3670026,3670026,0.000299613,0.000217478,-0.000244393,0.00139552,0.000559477,-0.0497533,4968,4968,0
742404863,742404468,3670026,3670026,-0.00177743,0.000715262,-0.000302756,-0.0134959,0.00246964,-0.0512816,4968,4968,0
742906367,742906022,3670026,3670026,0.000978544,0.000444888,-0.000123314,-0.0103036,0.00241069,-0.046546,4964,4964,0
743403194,743402771,3670026,3670026,-0.00028294,0.000303584,-6.84921e-05,-0.00959382,0.00165074,-0.0525053,4999,4999,0
743904542,743904172,3670026,3670026,0.0015659,0.00103956,-0.000286691,0.00925773,-0.00823731,-0.0505554,4969,4969,0
744406104,744405726,3670026,3670026,-0.00203431,-0.000639602,0.00108971,-0.00883614,-0.00151973,-0.0582921,4966,4966,0
744902643,744902318,3670026,3670026,-0.00115269,0.000750244,0.00138689,0.00296034,0.0204825,-0.0414246,4968,4968,0
745404260,745403876,3670026,3670026,-0.000759784,7.7208e-05,0.00121308,0.00439399,0.00470088,-0.0375127,4933,4933,0
745905824,745905429,3670026,3670026,0.00209962,0.000726656,-0.00154493,-0.00594684,-0.0164089,-0.0593008,4954,4954,0
746402377,746402022,3670026,3670026,-0.000848029,-0.00138468,0.000193957,0.0094442,0.00454394,-0.0416532,4964,4964,0
746904111,746903691,3670026,3670026,0.000599474,-0.000368409,0.000384985,0.00623447,0.0193956,-0.0329624,4989,4989,0
747405561,747405136,3670026,3670026,0.0013715,-0.000455113,-0.000656913,0.0064911,-0.00421664,-0.0395846,4968,4968,0
747902140,747901765,3670026,3670026,0.00182228,-0.000383641,-0.00181051,0.00322871,-0.0325883,-0.0483623,5007,5007,0
748403608,748403281,3670026,3670026,-3.78056e-05,-0.000985581,0.000137176,0.00598111,0.00239321,-0.0389432,4966,4966,0
748905221,748904838,3670026,3670026,-0.00136218,0.000611143,0.000792477,-0.0124594,0.016579,-0.0607573,4955,4955,0
749406790,749406395,3670026,3670026,0.00232371,-0.000503039,-0.00110308,0.00306039,-0.0115887,-0.0472872,4967,4967,0
749903343,749902985,3670026,3670026,0.00171475,-0.000172566,-0.000975871,0.00198026,-0.00168718,-0.0476217,4966,4966,0
750405094,750404714,3670026,3670026,-0.00132212,0.000202085,0.000773647,-0.000666147,-0.0125559,-0.0519181,4995,4995,0
750901458,750901133,3670026,3670026,0.000777128,0.000588066,0.00103057,-0.0129482,0.0222746,-0.0665936,4966,4966,0
751403076,751402689,3670026,3670026,-0.00359973,-0.000342827,0.00166901,-0.01266,0.000350121,-0.0593832,4965,4965,0
751904616,751904246,3670026,3670026,-0.000755917,0.00113495,0.000971871,-0.00685247,0.00576727,-0.054259,4966,4966,0
752406126,752405803,3670026,3670026,-0.0010767,-9.61815e-05,0.00106922,0.00143608,0.024343,-0.0376469,4966,4966,0
752902739,752902394,3670026,3670026,0.000577894,0.00126803,-0.00339589,0.00389341,0.0095843,-0.0394592,4965,4965,0
753404348,753403951,3670026,3670026,-0.00117538,5.04259e-06,-0.00373857,-0.00168102,-0.0121673,-0.0539345,4966,4966,0
753901022,753900695,3670026,3670026,0.00168251,-0.00148923,-0.00466573,0.0136144,-0.00664602,-0.0333953,5032,5032,0
754402451,754402101,3670026,3670026,0.000798839,-0.000590271,-0.00487834,0.0056244,-0.0047853,-0.0431114,4968,4968,0
754903986,754903655,3670026,3670026,0.00105336,-0.000379526,-0.00485934,0.00122613,-0.0173633,-0.0549821,4966,4966,0
755405552,755405225,3670026,3670026,0.00035395,-0.000257578,-0.00399147,0.0144389,0.00228989,-0.032371,4979,4979,0
755907145,755906769,3670026,3670026,-0.00255909,0.000559156,-0.00223989,-0.0195966,0.00539498,-0.0643467,4965,4965,0
756403713,756403361,3670026,3670026,-0.00225301,2.30406e-05,-0.00262931,0.00190942,0.0062379,-0.044828,4965,4965,0
756905321,756904925,3670026,3670026,-0.00117636,-7.81788e-05,-0.000664304,0.0029881,-0.00755585,-0.0393063,4974,4974,0
757402037,757401615,3670026,3670026,-0.00106468,0.000313305,0.000659464,-0.00974903,0.00607288,-0.0603193,4989,4989,0
757903395,757903064,3670026,3670026,0.000191143,-0.000145158,-0.000152293,0.00589458,-0.0168585,-0.0402223,4964,4964,0
758404953,758404623,3670026,3670026,0.000147237,0.000342329,-0.000678934,-0.00738499,0.00383528,-0.054973,4960,4960,0
758906574,758906241,3670026,3670026,0.00124742,1.31169e-05,-0.00046978,0.0059148,0.0105772,-0.0359352,4993,4993,0
759403195,759402772,3670026,3670026,0.000511268,-0.000248153,-0.000584279,0.00729392,-0.0148562,-0.0354935,4967,4967,0
759904724,759904329,3670026,3670026,-0.000326683,0.000182715,-0.000821092,-0.0134767,-0.00560644,-0.0653612,4966,4966,0
760401297,760400943,3670026,3670026,-0.000467686,-0.000227224,-0.00038433,-0.00755225,-0.0114165,-0.0582602,4983,4983,0
760903003,760902584,3670026,3670026,-0.0025333,0.000212611,0.000479265,-0.018137,0.0155906,-0.0647863,4989,4989,0
761404410,761404035,3670026,3670026,-0.00168078,0.000768986,0.00205638,-0.00791336,0.0286189,-0.0469844,4966,4966,0
761906048,761905591,3670026,3670026,0.00131197,-0.000576514,-0.00059175,0.0180317,-0.0218783,-0.029145,4965,4965,0
762402563,762402185,3670026,3670026,0.00013774,0.000480834,0.000437071,-0.00564439,-0.0022188,-0.0532244,4967,4967,0
762904125,762903740,3670026,3670026,-0.000494936,0.000325567,0.00105352,-4.53019e-05,0.00988496,-0.0465899,4966,4966,0
763405651,763405298,3670026,3670026,-0.00210966,0.000162061,0.000821205,-0.00804297,-0.00384814,-0.0577632,4966,4966,0
763907243,763906855,3670026,3670026,-0.000334493,-0.000782664,-0.000969923,-0.00974499,-0.0180355,-0.0615608,4963,4963,0
764403931,764403558,3670026,3670026,-0.0003934,0.000265156,0.000657003,-0.00270231,-0.00798687,-0.049993,4988,4988,0
764905435,764905005,3670026,3670026,0.00305831,-0.000554574,-0.000919651,0.0146261,-0.0102263,-0.0351281,4965,4965,0
765401975,765401596,3670026,3670026,-0.000337069,-0.000312835,-0.000366805,-0.00321432,0.0106248,-0.0470974,4966,4966,0
765903485,765903154,3670026,3670026,0.0010153,0.00012198,-0.000791212,-0.000758377,-0.00584342,-0.0510273,4967,4967,0
766405083,766404710,3670026,3670026,-0.00114174,-0.000111304,0.000659671,-0.0111221,-0.00742656,-0.0614019,4966,4966,0
766906651,766906268,3670026,3670026,-1.4381e-06,0.000179268,0.00119844,0.00593801,0.0014995,-0.0378186,4966,4966,0
767403219,767402859,3670026,3670026,-0.00124565,0.000189098,0.000753316,-0.0119746,0.0111624,-0.0609701,4966,4966,0
767904912,767904535,3670026,3670026,-0.000700128,0.000214949,0.000666887,0.00722449,0.0159558,-0.0354274,4991,4991,0
768401389,768401009,3670026,3670026,-0.00011903,7.40831e-05,-0.000241342,0.00131355,0.0181717,-0.0391781,4966,4966,0
768902940,768902566,3670026,3670026,0.000486892,-0.000591958,-0.000737958,0.00140457,-0.00387233,-0.045452,4965,4965,0
769404459,769404125,3670026,3670026,-0.00158726,0.000236324,0.000843013,-0.00522446,0.000151405,-0.0508332,4967,4967,0
769906019,769905685,3670026,3670026,0.00171936,-0.00038185,-0.00141045,0.000333141,-0.0215241,-0.0499086,4970,4970,0
770407602,770407240,3670026,3670026,0.000749423,-0.000289587,0.000215458,0.0154771,-0.0146193,-0.0283524,4966,4966,0
770904173,770903831,3670026,3670026,9.59801e-06,-7.26943e-05,-0.000316577,-0.00229487,0.00332855,-0.0504854,4966,4966,0
771400841,771400516,3670026,3670026,0.00149048,-0.000491694,-0.000695357,0.00383309,0.008604,-0.0391337,4988,4988,0
771902353,771901976,3670026,3670026,0.000381727,-0.000241727,-0.00124758,-0.00743485,-0.00880732,-0.0557182,4956,4956,0
772403877,772403551,3670026,3670026,0.00168537,-0.000809149,-0.00112846,0.00476831,-0.0177158,-0.0420448,4983,4983,0
772905519,772905096,3670026,3670026,0.00109786,0.000314193,-0.000529926,-0.00114605,0.00666385,-0.051237,4965,4965,0
773407085,773406653,3670026,3670026,-0.00175,-0.000160805,0.000741597,-0.0199926,0.00918701,-0.0670385,4965,4965,0
773903595,773903245,3670026,3670026,0.000304258,-0.00045208,0.000201393,0.00515235,-0.0111354,-0.0409422,4965,4965,0
774405159,774404804,3670026,3670026,0.000544526,-1.89916e-05,-0.00074153,-0.00409124,0.00593976,-0.048666,4967,4967,0
774901923,774901503,3670026,3670026,0.000636172,-0.000463132,0.000154762,0.00686513,-0.00751107,-0.0373552,4999,4999,0
775403328,775402996,3670026,3670026,-0.0015511,-2.39686e-05,0.000494865,-0.0162744,-0.00467361,-0.066341,4992,4992,0
775904933,775904514,3670026,3670026,0.000820923,-0.000953472,-0.00049083,0.00266441,-0.00201135,-0.0436532,4937,4937,0
776406458,776406071,3670026,3670026,-0.00120582,0.000236296,0.000567332,-0.00572251,0.0248592,-0.047559,4967,4967,0
776903049,776902660,3670026,3670026,0.00183166,-0.0010735,-0.000880195,0.00510308,-0.00893004,-0.0397377,4965,4965,0
777404567,777404218,3670026,3670026,0.00208391,-0.000814874,-0.00132549,0.0138901,-0.0253699,-0.0356076,4964,4964,0
777901171,777900810,3670026,3670026,-0.000546239,-0.000223346,0.000265815,-0.000371236,-0.00572497,-0.0454365,4966,4966,0
778402844,778402471,3670026,3670026,-0.000187505,0.000240499,0.000503499,-0.004598,-0.0148876,-0.0528427,4990,4990,0
778904258,778903927,3670026,3670026,0.00147972,-0.000440787,-0.000918244,-0.00361391,-0.0153466,-0.0534821,4966,4966,0
779405812,779405485,3670026,3670026,-8.51799e-05,-0.000416807,-0.000502052,-0.00176779,-0.00349208,-0.0444917,4966,4966,0
779902458,779902078,3670026,3670026,-0.00192212,0.000250794,0.000875954,-0.00361765,0.00442,-0.0486086,4967,4967,0
780404007,780403635,3670026,3670026,0.000326462,-0.000255129,-0.00135488,-0.0148194,-0.00934717,-0.066917,4966,4966,0
780905579,780905233,3670026,3670026,-0.00137811,-5.63315e-05,0.000631664,-0.00740812,-0.00662079,-0.0565737,4978,4978,0
781402171,781401785,3670026,3670026,0.000101575,-0.000302206,-0.000160408,-0.00198326,-0.0252008,-0.0567514,4966,4966,0
781903871,781903457,3670026,3670026,-6.63002e-05,0.000396428,0.000260716,-0.00400255,-0.0144629,-0.0544917,4989,4989,0
782405283,782404901,3670026,3670026,-0.00140933,0.000353442,-0.000103374,-0.0113026,-0.0192422,-0.0626025,4966,4966,0
782901863,782901493,3670026,3670026,0.00026489,-0.000304868,0.000628454,0.00491474,-0.00376189,-0.0396655,4965,4965,0
783403380,783403053,3670026,3670026,-0.00224341,0.000664563,0.00157258,-0.0107236,0.0239443,-0.0521793,4966,4966,0
783904939,783904610,3670026,3670026,-0.00109046,-0.000183841,0.00053284,-0.012475,-0.00429738,-0.0612597,4950,4950,0
784406529,784406170,3670026,3670026,0.00157886,-0.000929446,-0.00170145,-0.000396212,-0.0272815,-0.0510285,4932,4932,0
784903133,784902784,3670026,3670026,-0.00124967,0.000604764,0.000855037,-0.0153742,0.00467118,-0.0592974,4989,4989,0
785404901,785404488,3670026,3670026,-7.73913e-05,1.68417e-05,0.00106692,0.00800052,-0.007776,-0.0372795,5046,5046,0
785901247,785900912,3670026,3670026,-0.000931825,0.000107497,0.000427422,-0.00984294,-0.00214275,-0.054996,4965,4965,0
786402800,786402473,3670026,3670026,-0.000310251,-0.000108004,-0.000466125,-0.00534953,0.00712124,-0.0512226,4969,4969,0
786904399,786904028,3670026,3670026,-0.00104192,0.000428537,0.0014039,-0.0132765,0.0147617,-0.0583172,4966,4966,0
787405956,787405586,3670026,3670026,-0.000488205,-0.000102595,0.000722951,-0.00711727,0.00296379,-0.0504693,4966,4966,0
787907541,787907145,3670026,3670026,-0.000818361,0.000407241,0.000514849,-0.0101347,0.010822,-0.057279,4966,4966,0
788404083,788403737,3670026,3670026,-0.00221559,0.000926812,0.00162615,-0.0127603,0.0329448,-0.0546671,4966,4966,0
788900766,788900440,3670026,3670026,0.000886326,1.7369e-06,-0.000493162,-0.00397645,0.00934561,-0.0497109,4983,4983,0
789402322,789401889,3670026,3670026,-0.00183583,0.00087618,0.000952548,-0.010153,0.0150589,-0.0559865,4966,4966,0
789903776,789903447,3670026,3670026,0.0011832,-0.000756584,-0.000582044,0.0124297,-0.0157775,-0.0341373,4966,4966,0
790405383,790405005,3670026,3670026,-0.00119461,0.0003677,0.00101319,-0.00487298,-0.0122696,-0.0548098,4966,4966,0
790906894,790906563,3670026,3670026,0.00124418,9.10914e-05,-0.000650761,0.00841379,0.00325506,-0.0354768,4965,4965,0
791403595,791403156,3670026,3670026,-9.53848e-06,-2.12489e-06,-5.72825e-05,-0.00736406,-0.019586,-0.0573369,4960,4960,0
791905076,791904715,3670026,3670026,0.000941166,-0.00029086,-0.00154618,-0.000954831,-0.0184522,-0.0497793,4966,4966,0
792401826,792401409,3670026,3670026,0.000838699,4.84861e-05,0.000621494,0.0148237,0.00279357,-0.0282405,4994,4994,0
792903247,792902918,3670026,3670026,-0.000489962,-0.000601389,-8.45814e-05,0.00287046,0.0154698,-0.0387489,4992,4992,0
793404841,793404425,3670026,3670026,-0.00232217,0.000134587,0.00202679,-0.00286709,0.024343,-0.0452245,4966,4966,0
793906420,793905983,3670026,3670026,0.000210709,-0.000518402,0.00016636,0.00514918,0.0107748,-0.035525,4965,4965,0
794402902,794402577,3670026,3670026,-0.00159398,0.000512096,0.00108206,-0.00850838,0.0097107,-0.055602,4967,4967,0
794904486,794904135,3670026,3670026,1.63036e-05,-0.000100638,0.00138611,0.00697466,0.00168715,-0.0352893,4965,4965,0
795401084,795400727,3670026,3670026,-0.00102634,0.000328159,0.000500367,-0.0133491,-0.0015507,-0.0610101,4965,4965,0
795902808,795902394,3670026,3670026,2.17883e-05,-0.000221426,-0.000534138,-0.00365174,0.00217718,-0.0474152,4989,4989,0
796404267,796403845,3670026,3670026,-0.000466743,0.000320832,-0.000768217,-0.0181501,0.00420468,-0.0642739,4963,4963,0
796905819,796905404,3670026,3670026,-0.000548865,-0.000178423,0.000295413,-0.0116197,-0.0106002,-0.0660735,4966,4966,0
797402387,797401998,3670026,3670026,0.00138556,-0.00106276,-1.49959e-05,0.00475891,-0.00978702,-0.0397316,4967,4967,0
797903896,797903567,3670026,3670026,-6.26104e-05,-0.000417951,-0.000976105,0.00317893,-0.0175595,-0.0416156,4977,4977,0
798405468,798405116,3670026,3670026,-0.00138428,0.000486432,0.000718244,-0.0195044,0.0286001,-0.064102,4967,4967,0
798902062,798901707,3670026,3670026,0.00144305,-0.000827407,-0.00122008,0.0160853,-0.0265004,-0.0332238,4966,4966,0
799403796,799403427,3670026,3670026,0.000831571,-0.000105994,-0.00109826,-0.00281624,-0.0199355,-0.0538856,4984,4984,0
799905151,799904829,3670026,3670026,-0.00163091,0.000303229,0.000772806,-0.00900452,0.00337373,-0.0572363,4965,4965,0
800401757,800401420,3670026,3670026,0.00010949,0.000275853,-0.000771732,-0.00839601,-0.0245433,-0.0612265,4968,4968,0
800903329,800902982,3670026,3670026,0.000511684,-0.000227832,-0.000879999,0.0076878,-0.00375024,-0.0367103,4973,4973,0
801404922,801404539,3670026,3670026,-0.00037611,-9.97045e-05,-0.000344237,-0.0122719,0.00692444,-0.0609892,4927,4927,0
801906481,801906095,3670026,3670026,0.00112194,-7.43127e-05,-0.00123089,0.00167068,-0.00939619,-0.0489023,4966,4966,0
802403049,802402688,3670026,3670026,-3.58685e-05,-0.0001169,0.000136694,-0.00393444,-0.0220226,-0.0568971,4966,4966,0
802904827,802904365,3670026,3670026,8.32703e-05,0.00221865,-0.00449944,0.000148558,-0.000368052,-0.044864,4991,4991,0
803401225,803400841,3670026,3670026,0.00276973,-0.00168797,-0.00520873,0.00646246,-0.0098294,-0.0400954,4962,4962,0
803902838,803902401,3670026,3670026,0.00232769,-0.00142584,-0.00486789,-0.000544293,0.0112993,-0.04951,4967,4967,0
804404291,804403956,3670026,3670026,-0.000460577,3.74605e-05,-0.00375846,-0.00386152,-0.00974647,-0.0556875,4964,4964,0
804905891,804905518,3670026,3670026,0.00147547,-0.000379895,-0.00513358,0.00805262,-0.0265742,-0.0413953,4966,4966,0
805407478,805407077,3670026,3670026,-0.000751435,0.000601881,-0.00300348,-0.0060425,0.00263163,-0.0536105,4966,4966,0
805904024,805903670,3670026,3670026,0.0021012,-0.000920824,-0.0048368,-0.0023282,-0.00740603,-0.0487889,4966,4966,0
806400784,806400355,3670026,3670026,0.00121349,-0.000415491,-0.00444839,-0.00164251,-0.0265107,-0.0556388,4984,4984,0
806902245,806901822,3670026,3670026,0.00049482,-0.000236988,-0.000224804,0.0113389,-0.0213883,-0.0358886,4966,4966,0
807403798,807403382,3670026,3670026,-0.00144447,0.0006551,0.0014183,-0.010463,0.0119359,-0.0576919,4966,4966,0
807905282,807904942,3670026,3670026,0.00270559,-0.00112573,-0.000941504,0.00789482,-0.018949,-0.0389313,4967,4967,0
808406829,808406500,3670026,3670026,-0.000460901,0.000380761,-0.000304091,-0.00711483,-0.013758,-0.0576213,4966,4966,0
808903484,808903093,3670026,3670026,0.000561917,-0.000559344,-0.00115463,0.000929558,-0.0168084,-0.0490756,4965,4965,0
809400041,809399687,3670026,3670026,-0.00203087,0.00044664,0.000685654,-0.0210596,0.0156584,-0.0654731,4966,4966,0
809901757,809901348,3670026,3670026,0.000114499,0.000130171,0.000263498,0.00603622,-0.00918752,-0.0455786,4984,4984,0
810403140,810402805,3670026,3670026,0.000759491,-0.000355014,-0.00157428,0.00207341,-0.0393664,-0.0496506,4965,4965,0
810904733,810904365,3670026,3670026,0.00105445,-0.000337633,-0.000566066,0.00907755,-0.0170658,-0.0365674,4966,4966,0
811406250,811405920,3670026,3670026,-0.000949674,0.000289924,0.00111418,-0.00427222,0.000362438,-0.0470603,4961,4961,0
811902846,811902517,3670026,3670026,-0.000197495,-0.000117082,0.000967972,0.0052977,-0.00593929,-0.0385657,4966,4966,0
812404425,812404076,3670026,3670026,0.00142557,-0.000306911,-0.000903776,0.0020599,-0.0299599,-0.050459,4965,4965,0
812906026,812905639,3670026,3670026,-0.000152151,-0.000194626,0.000113255,-0.00897761,-0.0136,-0.0586943,4969,4969,0
813402699,813402330,3670026,3670026,0.000855525,-0.000602264,-0.000540891,0.0097586,-0.00347689,-0.0349928,4990,4990,0
813904162,813903824,3670026,3670026,-0.00103127,0.000220329,0.00120642,0.00152754,0.0133359,-0.0384015,5001,5001,0
814405741,814405348,3670026,3670026,-0.00151439,0.000604323,0.000303367,-0.00864013,0.000715441,-0.0611341,4964,4964,0
814902277,814901946,3670026,3670026,0.000331498,0.000464183,-0.000179401,-0.00417308,0.0035674,-0.0515208,4926,4926,0
815403839,815403508,3670026,3670026,9.05406e-05,0.000156316,0.000684228,0.00474037,-0.00538538,-0.0413676,4930,4930,0
815905409,815905061,3670026,3670026,0.000345882,-0.000453389,-0.000902937,0.00775613,-0.0228273,-0.0371555,4964,4964,0
816402044,816401699,3670026,3670026,0.000509657,-0.000172023,-0.000263231,-0.00573532,-0.00887569,-0.0545832,5011,5011,0
816903747,816903372,3670026,3670026,-0.000899272,-0.000325659,0.000566218,-0.00860354,-0.0102874,-0.0570418,5029,5029,0
817405097,817404769,3670026,3670026,0.00107481,-0.00044111,-0.000569144,-0.00512444,-0.00348206,-0.0524129,4961,4961,0
817901691,817901367,3670026,3670026,-0.000152427,-1.75428e-05,-0.000636239,-0.00275553,-0.00791837,-0.0484176,4965,4965,0
818403369,818403036,3670026,3670026,-0.000617955,-0.00024098,0.00103747,-3.37775e-05,-0.000492709,-0.0505663,5060,5060,0
818904930,818904490,3670026,3670026,-0.000404265,0.000147104,0.000975313,-0.00326728,0.0249355,-0.0394409,4969,4969,0
819406405,819406046,3670026,3670026,7.35047e-05,-6.9577e-05,-0.000462189,0.00749077,-0.00422768,-0.036395,4958,4958,0
819902986,819902640,3670026,3670026,-0.00227172,0.000707505,0.00134235,-0.0138243,0.0306804,-0.0575376,4966,4966,0
820404756,820404375,3670026,3670026,0.00260688,-0.000959716,-0.00148677,0.00706138,-0.0093704,-0.0420719,5001,5001,0
820901173,820900793,3670026,3670026,0.00160457,-0.000594046,-0.00124456,-0.0023089,-0.0230244,-0.049315,4966,4966,0
821402679,821402353,3670026,3670026,-0.000217486,-0.000149228,-0.000711764,-0.0113382,0.00156992,-0.0614054,4966,4966,0
821904293,821903914,3670026,3670026,-0.00208645,0.00024359,0.00101685,-0.0129519,0.00370479,-0.0592931,4922,4922,0
822405847,822405473,3670026,3670026,0.00047779,-0.000389567,-0.000526506,0.00269852,0.00093879,-0.0410581,4966,4966,0
822907405,822907032,3670026,3670026,0.000742267,-0.000203503,-0.00139032,-0.000647835,-0.0274019,-0.0540374,4966,4966,0
823403970,823403626,3670026,3670026,0.00216,-0.000976617,-0.00163079,0.0116641,-0.0278975,-0.040504,4966,4966,0
823900706,823900324,3670026,3670026,0.00167428,-0.000535569,-0.00081693,0.00743766,0.00288748,-0.0386818,4997,4997,0
824402156,824401781,3670026,3670026,0.00120681,-0.000505609,-0.000230078,0.0152367,-0.00962677,-0.0305205,4968,4968,0
824903763,824903340,3670026,3670026,-0.00134868,0.000386338,0.00134562,-0.00995941,0.0272314,-0.0515683,4967,4967,0
825405275,825404899,3670026,3670026,6.5415e-05,0.00038338,-0.000427842,-0.0107529,-0.015795,-0.0631051,4965,4965,0
825906816,825906459,3670026,3670026,-0.00153062,0.000933795,0.00075189,-0.0162225,0.0236609,-0.0640302,4966,4966,0
826403398,826403054,3670026,3670026,-0.00117767,0.000507173,0.00137836,-0.00725688,0.019788,-0.0505322,4964,4964,0
826900003,826899660,3670026,3670026,-0.000219059,-6.12501e-05,-0.000288522,-0.00651823,0.00799479,-0.0534897,4978,4978,0
827401673,827401303,3670026,3670026,0.00143418,-0.000167972,-0.00114597,0.00254213,-0.00707639,-0.044944,4990,4990,0
827903198,827902767,3670026,3670026,-0.00128255,0.000304466,0.00164998,-0.00719043,0.0265738,-0.0520143,4966,4966,0
828404651,828404326,3670026,3670026,0.000215848,-2.93983e-05,-0.000530288,0.00413889,0.00555221,-0.0384736,4965,4965,0
828906352,828905887,3670026,3670026,3.2037e-05,-0.000267051,-0.00112645,-0.00662475,-0.0236275,-0.0598935,4966,4966,0
829402896,829402481,3670026,3670026,-0.00118479,0.000609164,0.00122286,-0.0108409,0.0201673,-0.0579516,4967,4967,0
829904400,829904049,3670026,3670026,-3.5419e-05,-0.000103854,-0.00037865,-0.00462336,-0.0160729,-0.055254,4973,4973,0
830405952,830405601,3670026,3670026,0.000842278,-0.000569296,-0.00105267,0.00106185,-0.0217843,-0.0469606,4966,4966,0
830902664,830902295,3670026,3670026,-0.000459957,0.000123808,-0.000667831,-0.0125576,-0.00278283,-0.0623435,4985,4985,0
831404127,831403798,3670026,3670026,0.00113127,7.09976e-05,-0.000360389,0.00812488,0.000719609,-0.0371711,4993,4993,0
831905706,831905323,3670026,3670026,-0.00101937,7.80436e-05,0.00144824,0.00623507,0.0121527,-0.038353,4970,4970,0
832402239,832401910,3670026,3670026,-0.000327022,-0.000521739,-0.000483139,-0.0100359,-0.0153751,-0.0605744,4967,4967,0
832903798,832903469,3670026,3670026,-0.000384361,1.52226e-05,0.000396864,0.00421071,0.00542992,-0.0421205,4934,4934,0
833405374,833405029,3670026,3670026,-0.000670188,-0.000521667,2.61023e-05,-0.00673364,-0.0103074,-0.0586057,4965,4965,0
833902020,833901623,3670026,3670026,0.00166506,-0.000568353,-0.00152107,-0.00287277,-0.0220578,-0.0563148,4962,4962,0
834403694,834403289,3670026,3670026,-0.00119201,0.000832542,0.00090473,0.00105333,0.0110026,-0.0448479,4985,4985,0
834905108,834904743,3670026,3670026,-0.000102282,9.13103e-05,-0.000402032,-0.00780238,-0.011746,-0.0581306,4965,4965,0
835401679,835401351,3670026,3670026,0.000977176,-0.000432308,-0.000756807,-0.00526256,-0.00158438,-0.0545542,4975,4975,0
835903336,835902901,3670026,3670026,-0.0011819,0.000525735,0.00117735,0.00471017,0.0287894,-0.0359372,4969,4969,0
836404884,836404458,3670026,3670026,-0.00196588,0.000668257,0.00129266,-0.0119139,0.0212136,-0.0578983,4966,4966,0
836906375,836906019,3670026,3670026,0.00167625,-0.00135045,-0.00128246,0.00676452,-0.0214367,-0.0399031,4966,4966,0
837403013,837402613,3670026,3670026,0.000766717,-0.000658849,-0.000916116,0.00758384,-0.0198914,-0.0404959,4966,4966,0
837904758,837904300,3670026,3670026,-0.000678516,-0.000106152,0.000542163,-0.00523276,-0.0148803,-0.0544724,5001,5001,0
838401196,838400767,3670026,3670026,-0.0012434,6.24963e-05,0.000527019,-0.0102231,0.00116038,-0.0608325,4965,4965,0
838902710,838902328,3670026,3670026,0.00108311,-0.000665737,-0.000597,0.00496562,-0.00686323,-0.0382017,4966,4966,0
839404231,839403889,3670026,3670026,0.00136746,0.000130972,-0.00102857,0.00358222,-0.015838,-0.0406963,4967,4967,0
839905773,839905448,3670026,3670026,-0.00041062,0.000776254,0.000815883,0.00429307,0.0204894,-0.0352545,4965,4965,0
840407468,840407020,3670026,3670026,0.000565614,0.000483476,-0.000105503,0.00717361,0.0064184,-0.0348859,4976,4976,0
840904003,840903606,3670026,3670026,0.00294755,-0.000563901,-0.000964972,0.0116104,-0.0146049,-0.0368925,4969,4969,0
841400707,841400294,3670026,3670026,0.00162843,2.87418e-05,-0.00102032,0.00557693,-0.0241391,-0.04384,4991,4991,0
841902189,841901758,3670026,3670026,-0.000565259,0.000211206,-0.000453324,-0.0115509,0.000553589,-0.0615332,4966,4966,0
842403693,842403319,3670026,3670026,-0.00141995,0.000621655,0.000653083,-0.0109693,-0.00728293,-0.0594265,4966,4966,0
842905261,842904879,3670026,3670026,0.000689043,-0.000370345,-0.00121768,-0.00298517,-0.00465958,-0.0498307,4965,4965,0
843406782,843406458,3670026,3670026,0.000202773,-1.35194e-06,0.000100207,0.00369512,0.00609023,-0.0385369,4985,4985,0
843903406,843903062,3670026,3670026,-0.00172809,-8.62951e-05,0.00120483,-0.00526058,0.00710088,-0.0565058,4990,4990,0
844404950,844404596,3670026,3670026,-0.000602925,-1.84546e-05,-0.000433836,-0.0168601,-0.0102457,-0.0693347,4968,4968,0
844901673,844901294,3670026,3670026,0.000959515,-0.000116088,-0.000100753,0.00162949,0.0234204,-0.0376205,4944,4944,0
845403240,845402750,3670026,3670026,0.000677431,-0.000343234,-0.000957665,-0.00114566,0.00667236,-0.0466384,4967,4967,0
845904686,845904310,3670026,3670026,-0.00207215,0.000865971,0.000606561,-0.0207282,0.011239,-0.0695741,4966,4966,0
846406245,846405871,3670026,3670026,0.000253796,-3.73696e-05,-0.000575628,-0.0108006,0.00654358,-0.0599608,4965,4965,0
846902795,846902465,3670026,3670026,-0.000849698,-8.13801e-05,0.00028339,-0.00725182,-0.0141912,-0.0589148,4965,4965,0
847404423,847404027,3670026,3670026,0.00147613,-0.000385262,-0.000662979,0.00107515,0.0108259,-0.0414851,4966,4966,0
847900979,847900625,3670026,3670026,-0.000832579,0.000499515,0.00111335,-0.00155537,0.00469887,-0.0436275,4971,4971,0
848402613,848402285,3670026,3670026,-0.000220351,0.000455901,0.00105854,-0.00313878,0.0119182,-0.0475613,4988,4988,0
848904149,848903780,3670026,3670026,-0.00107568,-0.000184989,0.000315259,-0.00252655,0.0167503,-0.043607,4993,4993,0
849405631,849405302,3670026,3670026,0.00190012,-0.000348498,-0.000998731,0.011116,-0.029963,-0.0407329,4965,4965,0
849902270,849901898,3670026,3670026,-0.000615919,0.000542308,0.00126498,0.000240876,0.0185051,-0.0433051,4966,4966,0
850403832,850403460,3670026,3670026,0.000427742,-0.000109626,-0.000157644,0.00661974,-0.0164013,-0.0400513,4969,4969,0
850905365,850905018,3670026,3670026,-0.000759116,0.000413157,0.00135524,-0.00279477,0.0191808,-0.0422256,4966,4966,0
851401999,851401613,3670026,3670026,0.000220554,-8.21958e-05,-0.000579322,-0.0123855,0.0102573,-0.0594255,4966,4966,0
851903618,851903288,3670026,3670026,-0.00040535,0.000620675,0.00122537,-0.00953612,0.0123595,-0.053195,4991,4991,0
852405092,852404734,3670026,3670026,-0.000833012,0.000154655,0.00134397,0.0020505,0.0183753,-0.0410747,4965,4965,0
852901654,852901330,3670026,3670026,-0.00208539,0.000200807,0.00096682,-0.0135131,0.0119896,-0.0573774,4966,4966,0
853403230,853402893,3670026,3670026,-7.68966e-05,-3.92928e-06,0.000100135,0.00898467,0.0140963,-0.0329799,4969,4969,0
853904775,853904451,3670026,3670026,-0.000567985,-0.000103903,0.000439919,-0.00580731,-0.0175265,-0.0559685,4966,4966,0
854406405,854406012,3670026,3670026,-0.000229218,0.000267086,0.0011384,0.00609972,0.0207776,-0.0345576,4965,4965,0
854907926,854907572,3670026,3670026,0.000444301,-0.000156545,-0.000754259,-0.00304619,0.000552157,-0.0536262,4966,4966,0
855404702,855404282,3670026,3670026,-0.00127092,0.000303526,0.000985778,0.000134145,0.0224744,-0.0404908,4990,4990,0
855901142,855900762,3670026,3670026,-0.00126351,0.000156605,0.000538555,-0.00999457,-0.00219744,-0.0613166,4966,4966,0
856402670,856402335,3670026,3670026,-0.00174138,0.000849018,0.00152113,-0.00948602,0.0390776,-0.0490624,4975,4975,0
856904216,856903884,3670026,3670026,-0.000600003,0.000816944,0.00112833,-0.00282657,0.019759,-0.0440478,4965,4965,0
857405772,857405445,3670026,3670026,-0.000813999,-0.000305053,0.000734347,0.00227178,0.011993,-0.039792,4966,4966,0
857907403,857907006,3670026,3670026,0.00101167,0.00013658,-0.00065733,0.00403758,-0.0083674,-0.036751,4966,4966,0
858403964,858403601,3670026,3670026,0.000853382,-0.000168261,0.00083758,0.00857497,0.0101837,-0.0327907,4966,4966,0
858900686,858900301,3670026,3670026,-0.000734468,-2.0797e-05,0.000544588,-0.00698658,-0.00996391,-0.0522456,4947,4947,0
859402129,859401757,3670026,3670026,0.0015694,-0.000597801,-0.000455131,0.00318586,-0.00392367,-0.0412179,4965,4965,0
859903737,859903319,3670026,3670026,-0.00082067,0.000307345,0.00129531,-0.00695036,0.0285299,-0.0489536,4967,4967,0
860405211,860404878,3670026,3670026,-0.00196676,-1.63101e-05,0.000689238,-0.00563634,-0.0068084,-0.0549578,4965,4965,0
860906785,860906454,3670026,3670026,0.000269227,1.55667e-05,5.71355e-06,-0.00633985,-0.00470176,-0.0541131,4981,4981,0
861403426,861403036,3670026,3670026,-0.000719252,0.000283497,0.000775134,-0.00275711,0.0065185,-0.0479718,4965,4965,0
861904949,861904601,3670026,3670026,0.000631125,-0.000809853,-0.00177441,-0.00574041,-0.0238781,-0.0572871,4971,4971,0
862401687,862401313,3670026,3670026,-0.000414378,-4.83768e-05,-0.000285084,-0.00842957,0.0120193,-0.0500544,4990,4990,0
862903172,862902752,3670026,3670026,0.00157224,-0.000253584,-0.000677182,0.00163784,-0.00271641,-0.0420258,4966,4966,0
863404682,863404313,3670026,3670026,0.0011753,-0.000380537,-0.000471581,0.0185493,-0.0213064,-0.027714,4966,4966,0
863906267,863905874,3670026,3670026,0.000911406,-0.000227448,-0.000279234,-0.00710679,-0.00703397,-0.0564078,4965,4965,0
864402838,864402469,3670026,3670026,0.000867827,0.000505848,-0.000323559,-0.00442075,0.00127737,-0.0504153,4966,4966,0
864904382,864904032,3670026,3670026,0.000636481,-7.19424e-05,-0.00039562,-0.00543571,-0.0147769,-0.0552361,4966,4966,0
865400983,865400625,3670026,3670026,0.00165711,-0.000756918,-0.000889006,0.00574112,-0.00743691,-0.037346,4965,4965,0
865902710,865902339,3670026,3670026,0.00176693,-0.000403226,-0.000554639,-0.00224455,0.00325566,-0.0383115,4971,4971,0
866404159,866403747,3670026,3670026,-0.000279218,2.83793e-05,0.000280143,0.00611136,0.00921032,-0.0357074,4965,4965,0
866905686,866905309,3670026,3670026,-0.00110876,0.000157248,0.00124357,-0.00334927,0.0129763,-0.0438888,4966,4966,0
867402239,867401906,3670026,3670026,-0.000708585,0.000250341,0.00109688,0.0021842,0.0169854,-0.0388166,4968,4968,0
867903797,867903468,3670026,3670026,0.000662388,0.000270414,-0.00148475,-0.00343845,-0.0371859,-0.0564996,4968,4968,0
868405423,868405028,3670026,3670026,0.000642381,0.000730069,0.000930077,0.0109793,-0.00178883,-0.0284242,4967,4967,0
868906978,868906588,3670026,3670026,-0.00107786,0.000285744,0.00114716,-0.00627537,0.00648796,-0.0475346,4966,4966,0
869403715,869403351,3670026,3670026,0.000966658,-0.0005588,-0.000358555,1.81056e-07,-0.00760004,-0.0388559,4981,4981,0
869905118,869904745,3670026,3670026,-0.00134872,0.000692039,0.000813611,-0.00311277,0.0133421,-0.041049,4967,4967,0
870401714,870401345,3670026,3670026,0.000469123,-0.000194072,-0.000586987,-1.58954e-05,-0.00921989,-0.047054,4971,4971,0
870903242,870902906,3670026,3670026,-0.000200198,0.000337576,0.000701209,-0.0077139,-0.00454063,-0.0591494,4971,4971,0
871404792,871404462,3670026,3670026,-0.000982576,0.000470953,0.000615618,-0.0100774,0.000300256,-0.0604522,4965,4965,0
871906422,871906033,3670026,3670026,0.00173259,-0.000536627,-0.000569003,0.0107965,-0.0227901,-0.0371375,4915,4915,0
872402987,872402631,3670026,3670026,-0.00178693,-8.16989e-06,0.00104495,-0.011208,0.0116675,-0.0552688,4934,4934,0
872904668,872904339,3670026,3670026,-6.80066e-05,-8.23986e-06,-0.00016252,-0.00223618,0.00456643,-0.0397155,4980,4980,0
873401110,873400777,3670026,3670026,-0.00070107,-0.000154265,-8.5579e-05,-0.0159074,0.00253768,-0.0616402,4971,4971,0
873902664,873902337,3670026,3670026,-0.000435695,-0.00035388,0.00044965,-0.00980985,0.0252144,-0.0408698,4966,4966,0
874404356,874403899,3670026,3670026,-0.000541049,-0.000506658,0.000411923,0.00361588,0.00795846,-0.0434235,4965,4965,0
874905832,874905460,3670026,3670026,-0.000306366,0.000286152,-0.000424953,-0.0119754,-0.0228806,-0.0638029,4966,4966,0
875407476,875407022,3670026,3670026,-0.000748029,-0.000332667,0.00114889,-0.00547753,0.0195635,-0.0449157,4967,4967,0
875903967,875903617,3670026,3670026,0.00169732,-0.000847883,-0.00166997,0.00954561,-0.0268639,-0.0388173,4966,4966,0
876400683,876400310,3670026,3670026,7.62571e-05,0.000273051,0.000986898,0.00543293,-0.000808034,-0.038703,4988,4988,0
876902152,876901774,3670026,3670026,-0.00104839,0.00124856,0.00131284,-0.0077411,0.0260681,-0.0481758,4964,4964,0
877403709,877403335,3670026,3670026,-0.00143116,0.000647348,0.000956735,-0.0144065,0.0215117,-0.0565517,4966,4966,0
877905235,877904897,3670026,3670026,-0.00117907,-0.000889784,0.000178127,0.00335964,-0.0102305,-0.0421368,4966,4966,0
878406784,878406458,3670026,3670026,-0.000325048,0.000332173,0.00139466,-3.42536e-05,0.0225711,-0.0416487,4966,4966,0
878903401,878903054,3670026,3670026,0.00148973,-0.000101962,0.000135471,-0.0063197,0.0124215,-0.0524074,4965,4965,0
879399997,879399649,3670026,3670026,-0.00122227,0.000451467,6.76047e-06,0.00475261,-0.00425098,-0.038047,4966,4966,0
879901780,879901392,3670026,3670026,-0.000291995,-0.00036351,0.00163501,-0.000822571,0.0204591,-0.0398347,5015,5015,0
880403201,880402773,3670026,3670026,-0.000443081,-0.000881053,-0.000132384,0.00733053,-0.0135072,-0.0373615,4967,4967,0
880904757,880904333,3670026,3670026,0.000954226,-0.000478161,-7.77863e-05,0.000477802,0.0204198,-0.0376597,4965,4965,0
881406226,881405895,3670026,3670026,0.000190649,-0.000255096,0.00109619,0.00662739,-0.00482682,-0.0360038,4964,4964,0
881902827,881902491,3670026,3670026,-0.000790308,0.000756958,-0.000344045,-0.0172339,0.00320203,-0.0649085,4965,4965,0
882404408,882404052,3670026,3670026,-0.000197117,1.22659e-05,0.000635909,-0.0162841,0.00927579,-0.0597657,4966,4966,0
882905964,882905614,3670026,3670026,0.000399354,1.58795e-05,-0.000987329,-0.00926923,-0.0215921,-0.0648089,4966,4966,0
883402763,883402332,3670026,3670026,0.00063645,-0.000547791,-0.00127854,-0.00519179,-0.00119832,-0.0509296,4955,4955,0
883904199,883903771,3670026,3670026,0.000551195,-0.000883055,-0.000129803,-0.00628788,0.0135289,-0.045215,4966,4966,0
884405755,884405332,3670026,3670026,0.000239313,-0.000508137,-0.000936855,0.00951429,-0.0204255,-0.0365783,4965,4965,0
884902307,884901929,3670026,3670026,-0.000871516,0.000728974,0.000374043,-0.0142677,0.00838454,-0.054696,4966,4966,0
885403900,885403532,3670026,3670026,0.0011166,-0.000297991,-0.0013471,-0.00484672,-0.0119038,-0.0563224,5009,5009,0
885905439,885905052,3670026,3670026,0.00193482,-0.000240294,-0.000769323,0.00987186,-0.0222772,-0.0376187,4925,4925,0
886401989,886401643,3670026,3670026,-0.000893958,0.000282482,0.000845894,-0.00559459,0.0132687,-0.0406831,4928,4928,0
886903709,886903320,3670026,3670026,-0.000238102,9.72975e-06,-0.000153283,0.000580726,-0.0039711,-0.0434726,4981,4981,0
887405096,887404768,3670026,3670026,-0.0022049,-4.81672e-05,0.00095088,-0.0121235,0.0177704,-0.0518398,4964,4964,0
887901688,887901365,3670026,3670026,0.00208203,-0.000426562,-0.000729655,0.0108557,0.00369998,-0.0307222,4966,4966,0
888403316,888402980,3670026,3670026,0.001119,-0.000313767,-0.000281283,0.0098783,0.0132731,-0.0343563,5004,5004,0
888904815,888904488,3670026,3670026,0.000848148,-0.000382306,-0.00073967,-0.000602902,-0.00311623,-0.0406102,4966,4966,0
889406452,889406050,3670026,3670026,-0.0013168,0.000590332,0.000820957,-0.00128534,0.00832488,-0.0460586,4957,4957,0
889903009,889902646,3670026,3670026,-0.000461671,-6.5073e-05,-0.000572753,-0.00381069,0.0105644,-0.0471442,4966,4966,0
890404650,890404326,3670026,3670026,-0.00118901,-0.000506185,0.000449222,-0.000134067,-0.00913671,-0.0451017,4944,4944,0
890901134,890900803,3670026,3670026,0.00132358,-0.000197291,-6.82813e-05,0.00360256,0.00794475,-0.0356436,4966,4966,0
891402703,891402372,3670026,3670026,-0.00067042,-0.000225928,-0.000400114,-0.00705076,0.00539215,-0.0525345,4974,4974,0
891904256,891903926,3670026,3670026,0.00062979,-0.000147785,0.000131524,-0.00324405,-0.00759303,-0.051611,4966,4966,0
892405862,892405488,3670026,3670026,-0.000222574,0.00042399,-0.000166144,-0.0124064,-0.0158185,-0.0624811,4966,4966,0
892907414,892907049,3670026,3670026,-0.00133329,0.000457607,0.000684299,-0.0150801,0.00497151,-0.0648236,4966,4966,0
893404035,893403646,3670026,3670026,0.00200492,-0.000614426,-0.00145981,0.00690267,-0.0210759,-0.0391219,4967,4967,0
893900757,893900347,3670026,3670026,-0.00120441,-6.4609e-05,0.000703959,-0.0046765,-0.000320076,-0.0531571,4985,4985,0
894402178,894401802,3670026,3670026,-0.000732281,-0.000244318,-0.000161762,-0.00475105,-0.00916736,-0.0629264,4966,4966,0
894903774,894903364,3670026,3670026,0.000630399,-0.000897407,-0.000924273,0.0103561,-0.0137173,-0.0348577,4966,4966,0
895405259,895404926,3670026,3670026,0.00114546,-6.28807e-06,-0.000914723,-0.000308747,-0.0277146,-0.0517944,4967,4967,0
895906872,895906487,3670026,3670026,-0.00045063,-0.000398365,-0.000386722,0.00727271,-0.018547,-0.0370399,4966,4966,0
896403434,896403083,3670026,3670026,-0.00091377,0.000127139,-0.000416009,0.000529917,0.00395762,-0.0438571,4965,4965,0
896904993,896904644,3670026,3670026,0.0011203,1.28472e-05,-0.000693703,-0.000704418,-0.0275051,-0.0533925,4966,4966,0
897401725,897401344,3670026,3670026,0.000905973,-0.000191428,0.000136462,0.00610599,-0.00922487,-0.0379965,4980,4980,0
897903180,897902804,3670026,3670026,-0.000921689,0.000413015,0.00110676,-0.0104199,0.0313684,-0.0455042,4968,4968,0
898404699,898404376,3670026,3670026,0.000969216,4.7717e-05,-0.000550517,0.00719945,0.00358349,-0.0384395,4979,4979,0
898906359,898905973,3670026,3670026,-0.000480544,-0.000120835,-0.00115218,-0.0104536,-0.0271787,-0.0596825,5013,5013,0
899402923,899402553,3670026,3670026,-0.000605389,-0.000212642,-0.000237147,0.00211567,0.0064521,-0.0417368,4998,4998,0
899904446,899904083,3670026,3670026,0.000834572,0.000254809,-0.000829041,-0.00722095,0.0065311,-0.0508696,4966,4966,0
900401037,900400678,3670026,3670026,0.000877994,-0.000602284,-0.00040591,-0.000985591,-0.0145833,-0.0471133,4965,4965,0
900902722,900902397,3670026,3670026,-0.000244565,-0.000366087,0.000505911,0.00211774,-0.0128959,-0.0422631,5037,5037,0
901404123,901403797,3670026,3670026,0.00135574,-0.000143601,-0.000556965,-0.000862231,-0.00412118,-0.0480646,4960,4960,0
901905731,901905406,3670026,3670026,0.00110304,-0.00062855,-0.000281583,0.0186421,-0.0269626,-0.0279791,4971,4971,0
902402341,902401961,3670026,3670026,0.000518956,-0.000229424,7.16782e-06,-0.00697325,0.00185845,-0.05545,4967,4967,0
902903963,902903521,3670026,3670026,-0.00117004,-0.000126833,-0.000146452,-0.00732887,-0.0125298,-0.0606809,4966,4966,0
903405443,903405084,3670026,3670026,-0.00147066,0.000457856,0.00162159,-0.0181648,0.02611,-0.0603939,4967,4967,0
903902028,903901679,3670026,3670026,-0.000696788,0.00047518,0.000183496,-0.00323491,0.0143871,-0.0445416,4966,4966,0
904403699,904403362,3670026,3670026,-0.00371562,0.00178525,-0.00363616,-0.00316372,-0.0255727,-0.0528988,4969,4969,0
904905252,904904809,3670026,3670026,0.0016881,0.00032449,-0.0047825,0.002646,0.00904375,-0.0349442,4973,4973,0
905401780,905401454,3670026,3670026,-0.000932663,-2.7877e-05,-0.00321585,-0.00767225,0.00895526,-0.0527582,4997,4997,0
905903300,905902967,3670026,3670026,-0.00154697,3.57053e-05,-0.00347884,-0.00880132,-0.005298,-0.0608875,4974,4974,0
906404853,906404521,3670026,3670026,-0.000532017,0.000675327,0.00130038,-0.0064174,0.000589972,-0.049924,4965,4965,0
906906490,906906085,3670026,3670026,-4.72079e-05,-8.24003e-05,5.55337e-06,-0.00802297,-0.0158532,-0.0594625,4968,4968,0
907403081,907402679,3670026,3670026,-0.00109262,-9.78773e-05,0.000854651,-0.00172683,0.0175142,-0.0433966,4966,4966,0
907904779,907904368,3670026,3670026,-0.000928662,0.000549841,0.000984707,-0.000130928,0.00595126,-0.0451106,4981,4981,0
908401168,908400837,3670026,3670026,0.00135665,0.000351972,-0.000343769,-0.00126718,-0.0121613,-0.0499881,4958,4958,0
908902822,908902400,3670026,3670026,-0.00107112,0.000673586,0.00108742,-0.00548789,0.0229344,-0.0472014,4960,4960,0
909404333,909403960,3670026,3670026,-0.0014688,0.000674776,0.000730635,-0.011236,0.0115919,-0.0589191,4965,4965,0
909905946,909905523,3670026,3670026,-0.00196943,0.000668797,0.00113689,-0.00605897,0.00470397,-0.0535508,4967,4967,0
910407449,910407084,3670026,3670026,-0.00059691,0.000426931,0.000547364,-0.010122,0.000402316,-0.060761,4966,4966,0
910904069,910903680,3670026,3670026,-0.000673983,-1.0851e-05,0.000699037,-0.00264665,-0.00722086,-0.0476365,4966,4966,0
911400846,911400391,3670026,3670026,-0.00133456,0.0005439,0.000839068,-0.00974288,0.00424276,-0.0588956,4997,4997,0
911902224,911901838,3670026,3670026,-0.00104028,0.000438325,0.00139857,-0.00319743,0.0137574,-0.0481926,4966,4966,0
912403734,912403400,3670026,3670026,0.000380922,0.000242542,0.000523327,0.000685531,0.0257417,-0.0381727,4966,4966,0
912905291,912904961,3670026,3670026,0.000508626,0.000456467,-0.000470079,-0.00508243,-0.00240377,-0.0522855,4964,4964,0
913406852,913406524,3670026,3670026,-0.0013233,0.000436943,0.00156313,-0.00133393,0.0119916,-0.0462116,4957,4957,0
913903477,913903130,3670026,3670026,0.0013052,-0.000119712,-0.000854308,0.0147076,-0.0164371,-0.0327045,4977,4977,0
914405085,914404682,3670026,3670026,0.0002379,-9.20549e-05,-0.000509656,-0.00291474,0.0105889,-0.0416692,4966,4966,0
914901783,914901411,3670026,3670026,0.00116733,-0.000162851,-0.00059511,0.00236095,-0.0155616,-0.0401428,4965,4965,0
915403173,915402844,3670026,3670026,-0.000852281,0.000469722,0.000594752,-0.0108598,-0.0103863,-0.0550359,4970,4970,0
915904732,915904402,3670026,3670026,0.00123377,-0.000512486,-0.00128886,0.0162342,-0.0382697,-0.034551,4966,4966,0
916406293,916405963,3670026,3670026,-0.000356356,0.000329587,0.000413753,0.00134118,-0.0161326,-0.0460016,4965,4965,0
916902889,916902560,3670026,3670026,-0.00093158,0.000371065,-0.000394571,-0.0205126,-0.00739445,-0.0667675,4966,4966,0
917404571,917404158,3670026,3670026,-0.000769307,0.000461894,0.000837203,-0.0093908,0.0103154,-0.0526444,4999,4999,0
917906034,917905684,3670026,3670026,0.00108147,-0.000144738,-0.000797498,-0.00376698,0.00653459,-0.0490282,4966,4966,0
918402719,918402393,3670026,3670026,0.00143445,-0.000460664,-0.000484671,0.00274948,0.0100037,-0.0393687,4988,4988,0
918904166,918903839,3670026,3670026,0.000623954,-0.000437499,-0.000757495,-0.00752008,-0.0134888,-0.0585902,4963,4963,0
919405772,919405404,3670026,3670026,0.000922306,-0.000189728,-7.90812e-05,-0.00358856,-0.0196395,-0.0543465,4966,4966,0
919902375,919902000,3670026,3670026,0.000422111,-0.000506213,0.000374954,0.00962801,-0.00985907,-0.0320162,4966,4966,0
920403892,920403562,3670026,3670026,-0.000555176,-0.000773419,0.000774225,-8.13752e-05,-0.00572132,-0.0425088,4966,4966,0
920905516,920905124,3670026,3670026,-0.00112814,0.000744351,0.00116653,-0.0118277,0.0242184,-0.0537839,4966,4966,0
921402108,921401720,3670026,3670026,-7.17638e-05,-0.000261899,-0.00090394,0.0080542,-0.0148679,-0.03769,4966,4966,0
921903730,921903405,3670026,3670026,7.80754e-05,0.000111805,0.00155246,-0.00192357,0.0109009,-0.0452546,4989,4989,0
922405197,922404844,3670026,3670026,0.00024117,-4.83989e-05,-0.00021332,-0.0124676,-0.0054339,-0.0565243,4965,4965,0
922901897,922901441,3670026,3670026,-0.0017979,0.00048039,0.00115851,-0.0129127,0.0194393,-0.0587596,4966,4966,0
923403429,923403007,3670026,3670026,-0.000126383,-0.000241251,-0.000374482,-0.00142629,0.00151737,-0.0397078,4970,4970,0
923904889,923904566,3670026,3670026,-0.00199938,-0.000255738,0.00148,-0.00812766,0.00510588,-0.0556915,4967,4967,0
924406558,924406130,3670026,3670026,-0.000213594,0.000182187,-0.000128982,-0.00558674,-0.0108993,-0.0558143,4965,4965,0
924908100,924907691,3670026,3670026,0.00115225,-0.000109375,-0.000732088,-0.0103892,0.000868548,-0.0579955,4967,4967,0
925404795,925404410,3670026,3670026,0.00187256,-0.000267266,-0.000702329,0.011594,-0.0109018,-0.0302389,4982,4982,0
925901224,925900882,3670026,3670026,0.000626802,-0.000182869,-0.000639135,0.00580419,-0.0140838,-0.0359953,4966,4966,0
926402777,926402446,3670026,3670026,-2.60348e-05,-0.000321954,-0.000491211,-0.0135079,0.00281268,-0.0568451,4968,4968,0
926904347,926904013,3670026,3670026,-0.00180802,0.000261002,0.00067352,-0.00912258,0.0027818,-0.0546949,4971,4971,0
927405947,927405569,3670026,3670026,-0.00157327,0.000646559,0.00183716,-0.00637122,0.0154957,-0.0517469,4966,4966,0
927907526,927907131,3670026,3670026,-3.34172e-05,0.000199798,0.000116351,0.00176457,0.000453805,-0.0408089,4966,4966,0
928404073,928403727,3670026,3670026,-9.40641e-05,0.000324237,0.000231197,-0.00293736,-0.0242652,-0.0545909,4966,4966,0
928900806,928900482,3670026,3670026,-0.00104042,0.000532381,0.00175241,-0.00209097,0.0271075,-0.0443678,4980,4980,0
929402270,929401936,3670026,3670026,-0.000529897,0.000160008,0.000503832,-0.00746245,-0.00282201,-0.060367,5016,5016,0
929903774,929903448,3670026,3670026,-0.0012888,0.000409959,-7.36672e-05,-0.000946182,0.00479829,-0.0411648,4966,4966,0
930405368,930405037,3670026,3670026,0.00122722,-0.000175991,-0.00074806,0.0052915,-0.00883425,-0.0406698,4990,4990,0
930906909,930906573,3670026,3670026,-0.000666113,-0.000284855,0.00080547,0.0033831,0.0099239,-0.0366283,4966,4966,0
931403556,931403169,3670026,3670026,0.000834266,7.34087e-05,-0.00052094,-0.00748652,-0.0221762,-0.0567929,4966,4966,0
931905078,931904732,3670026,3670026,-0.000623828,0.000265016,0.00100954,-0.00717981,0.00580053,-0.0561293,4967,4967,0
932401817,932401490,3670026,3670026,0.0020099,-0.000275935,-0.00132593,0.0134611,-0.0326202,-0.0342935,4991,4991,0
932903270,932902937,3670026,3670026,-0.00189431,-0.000157911,0.000479472,-0.00256721,-0.0146753,-0.0551838,4960,4960,0
933404825,933404452,3670026,3670026,0.000264815,-0.000186536,0.000238322,-0.00384093,-0.000808772,-0.0493972,4966,4966,0
933906408,933906015,3670026,3670026,-0.00107426,0.00096924,0.00083822,0.00122637,-0.0118223,-0.0479889,4967,4967,0
934403009,934402611,3670026,3670026,-0.000436558,-0.000224412,-7.27774e-05,0.00194303,0.00893301,-0.0439758,4966,4966,0
934904539,934904173,3670026,3670026,-0.000575987,7.70058e-05,0.000837568,0.00458482,-0.011958,-0.0482921,4966,4966,0
935401131,935400769,3670026,3670026,0.000760029,-0.00035979,-0.000649353,0.00867732,0.0106142,-0.0328841,4966,4966,0
935902867,935902454,3670026,3670026,0.00115252,2.90956e-05,-0.000400064,0.00823401,-0.00851169,-0.0346472,4991,4991,0
936404322,936403896,3670026,3670026,0.000700032,9.00376e-05,8.55897e-05,-0.0114993,0.00628846,-0.0638609,4912,4912,0
936905829,936905457,3670026,3670026,-0.000905503,0.00027031,0.00159288,-0.00863772,0.0124655,-0.0492232,4966,4966,0
937402444,937402053,3670026,3670026,0.00112907,-0.000204443,-0.000923175,-0.00191274,-0.016643,-0.0512447,4966,4966,0
937903995,937903615,3670026,3670026,0.00178595,-0.000196305,-0.00109606,0.00571108,-0.0336514,-0.044631,4965,4965,0
938405563,938405177,3670026,3670026,0.000359697,0.000168906,-5.49597e-05,-0.00738049,-0.0233791,-0.0586238,4965,4965,0
938902131,938901774,3670026,3670026,0.00112517,-0.000140728,-0.000435808,-0.00314823,-0.0196064,-0.0483497,4966,4966,0
939403870,939403463,3670026,3670026,-0.000116111,0.000397166,0.000405366,-0.00502606,-0.014914,-0.0527741,4993,4993,0
939905233,939904899,3670026,3670026,-0.00168202,0.000189134,0.000879681,-0.020592,0.00185071,-0.0647377,4967,4967,0
940401872,940401495,3670026,3670026,0.00132773,-0.000401305,-0.00027895,-0.00676484,0.00657157,-0.0488811,4965,4965,0
940903389,940903059,3670026,3670026,0.00148245,3.63032e-05,-0.000358259,-0.00530184,0.00201385,-0.048191,4967,4967,0
941404947,941404619,3670026,3670026,0.00136491,-7.73544e-06,-0.000115193,-0.000481281,0.0177779,-0.0405804,4964,4964,0
941906578,941906182,3670026,3670026,-0.00131846,0.000666055,0.000267194,-0.0252344,0.0200137,-0.0677427,4966,4966,0
942403133,942402779,3670026,3670026,-0.00197,0.000456269,0.00133868,-0.0130408,0.0080684,-0.0520344,4966,4966,0
942904888,942904511,3670026,3670026,-0.00114396,0.000695091,0.000171732,-0.0110214,0.00896713,-0.0595132,4987,4987,0
943401319,943400939,3670026,3670026,-7.85025e-05,-8.60233e-05,-0.000737373,0.00698239,-0.0205444,-0.0399566,4966,4966,0
943902823,943902496,3670026,3670026,0.000165355,-0.000122536,0.000117001,0.000389619,0.0156314,-0.041826,4932,4932,0
944404405,944404072,3670026,3670026,0.000326602,-0.000829741,-0.000569971,0.00648621,-0.0140534,-0.0404295,4958,4958,0
944906009,944905625,3670026,3670026,0.000953415,6.21536e-05,-0.000652692,0.0135044,-0.0266133,-0.0312435,4924,4924,0
945407584,945407187,3670026,3670026,0.00121826,-0.000310049,-0.000817736,0.00979758,-0.0224193,-0.0383353,4966,4966,0
945904125,945903783,3670026,3670026,0.000435363,0.000140614,0.00117309,0.00831736,-0.00245358,-0.0376229,4966,4966,0
946400928,946400552,3670026,3670026,0.00155636,-0.000604586,-0.000493421,0.000807558,-0.00300649,-0.0455081,4984,4984,0
946902404,946901946,3670026,3670026,0.00107128,-0.000311061,-0.000498838,0.00335316,0.0105324,-0.0403055,4970,4970,0
947403881,947403505,3670026,3670026,-0.000252709,0.000323467,0.00070049,0.000758309,0.018352,-0.0410109,4966,4966,0
947905397,947905068,3670026,3670026,-0.000670943,-8.25758e-05,0.000107152,-0.00294857,0.0175979,-0.0442944,4967,4967,0
948407011,948406630,3670026,3670026,0.00138471,-0.000791422,-0.000779893,-0.00314241,0.00915059,-0.0426243,4966,4966,0
948903612,948903226,3670026,3670026,0.000252472,1.28989e-06,-0.000732656,-0.000822875,0.00767917,-0.0405959,4966,4966,0
949405135,949404789,3670026,3670026,0.00117209,-6.49151e-06,-0.000721979,0.0101455,-0.00761542,-0.0345777,4966,4966,0
949901940,949901612,3670026,3670026,0.000771391,-0.000275293,-0.000843623,-0.00748736,-0.0132571,-0.0562845,4986,4986,0
950403387,950402966,3670026,3670026,-0.00141007,0.00151382,-0.00481893,0.00371545,-0.0115568,-0.0402848,4970,4970,0
950905001,950904514,3670026,3670026,0.00331535,-0.00100766,-0.00510709,-0.00232179,0.0105048,-0.0453139,4969,4969,0
951406414,951406074,3670026,3670026,0.00103351,-0.00036074,-0.00509357,0.007906,-0.00187209,-0.0364329,4965,4965,0
951903001,951902669,3670026,3670026,-0.00169824,0.000317492,-0.00291154,-0.0138176,-0.000939046,-0.0640645,4965,4965,0
952404638,952404233,3670026,3670026,0.000699244,-0.00056239,-0.00116352,0.00774676,-0.00861154,-0.0396479,4967,4967,0
952906147,952905796,3670026,3670026,-0.000500798,7.17036e-05,0.00135641,-0.000671759,-0.0127144,-0.0502849,4968,4968,0
953402942,953402567,3670026,3670026,-0.000788608,0.000422615,0.000293537,-0.00870602,0.00810808,-0.0554053,4980,4980,0
953904341,953903955,3670026,3670026,-0.00014415,0.000489636,0.000334203,-0.00372307,-0.00526718,-0.051817,4966,4966,0
954405899,954405517,3670026,3670026,-0.00123415,-0.000311398,0.00038169,-0.00408792,0.00751504,-0.0479325,4966,4966,0
954902521,954902132,3670026,3670026,-0.00173094,0.000603803,0.000784869,-0.0194668,0.0129879,-0.0665965,4980,4980,0
955404089,955403676,3670026,3670026,-0.00275465,0.000820649,0.00127668,-0.0149106,0.0287328,-0.0559152,4967,4967,0
955905636,955905238,3670026,3670026,0.000858958,0.000104073,-0.000194361,-0.00143599,-0.00861128,-0.0516883,4966,4966,0
956402177,956401835,3670026,3670026,0.00116101,-0.000254174,-0.00037456,0.00819655,0.00273485,-0.0332021,4966,4966,0
956903933,956903527,3670026,3670026,-0.000858904,-6.90322e-05,-4.14936e-05,-0.00611368,-0.0158807,-0.0592214,4991,4991,0
957405296,957404961,3670026,3670026,0.00146611,-0.000765321,-0.00129643,0.00508571,-0.0259292,-0.0447977,4967,4967,0
957901887,957901557,3670026,3670026,0.00188508,-0.000608567,-0.000858985,0.00630658,-0.0191829,-0.0383313,4966,4966,0
958403492,958403119,3670026,3670026,0.000780949,-0.000869875,-2.81049e-05,0.0109095,-0.00154399,-0.0357287,4963,4963,0
958905007,958904681,3670026,3670026,-0.000231101,-0.000307386,0.000287532,-0.00353366,-0.0176164,-0.0557662,4965,4965,0
959406604,959406245,3670026,3670026,5.10643e-06,-0.000252572,-0.000200733,-0.000492271,0.0137827,-0.0432022,4966,4966,0
959903185,959902841,3670026,3670026,-8.36876e-06,-0.000385758,-0.000753709,-0.00652821,-0.0140803,-0.0576954,4966,4966,0
960404964,960404537,3670026,3670026,0.000986306,-0.000444115,-0.0012496,0.00266775,-0.0303971,-0.0507905,4990,4990,0
960901473,960901001,3670026,3670026,0.00132404,-0.00066949,-0.00128532,0.0110827,-0.0246856,-0.0388658,4965,4965,0
961402894,961402563,3670026,3670026,-0.00114107,0.000425524,0.000568428,-0.00284642,0.00457508,-0.0483006,4943,4943,0
961904486,961904159,3670026,3670026,0.000669319,0.00011781,-8.48348e-05,-0.00397283,0.00183279,-0.0538306,5000,5000,0
962406016,962405688,3670026,3670026,0.00115937,-0.000488206,-0.000407978,0.0149906,-0.0243138,-0.0299407,4966,4966,0
962907702,962907301,3670026,3670026,-0.0009113,0.000679082,0.00096566,-0.00599604,0.00943619,-0.0529728,5016,5016,0
963404239,963403847,3670026,3670026,0.000213293,0.000440943,0.000586999,-0.00274516,-0.00928916,-0.0528722,4966,4966,0
963900889,963900562,3670026,3670026,0.000353415,-0.000615983,-0.000784585,-0.00825332,-0.0167229,-0.0613333,4988,4988,0
964402346,964402012,3670026,3670026,0.00164804,-0.000818732,-0.00149071,0.00178979,-0.0218344,-0.047221,4971,4971,0
964903943,964903569,3670026,3670026,-0.00185838,0.00021457,0.000736652,-0.0038395,-0.000377519,-0.0474202,4966,4966,0
965405561,965405132,3670026,3670026,-0.000914363,0.00040385,0.00092488,0.00342355,0.0225948,-0.0370351,4966,4966,0
965907086,965906711,3670026,3670026,0.00109816,0.000302343,-0.000370157,-0.00143864,-0.0230778,-0.0553695,4982,4982,0
966403685,966403292,3670026,3670026,-0.00126527,0.00116783,0.000473254,-0.0104518,-0.0013141,-0.0632386,4966,4966,0
966905206,966904855,3670026,3670026,-0.00084927,0.000828898,0.000533266,-0.00928927,0.00586229,-0.0565082,4967,4967,0
967401934,967401599,3670026,3670026,0.00164986,-0.000670547,-0.00203469,0.00436721,-0.032326,-0.0487999,4966,4966,0
967903348,967903014,3670026,3670026,-0.00157354,-4.65537e-05,0.000500356,-0.013893,-0.00384242,-0.0640598,4966,4966,0
968404917,968404590,3670026,3670026,-5.99757e-05,0.000172773,-0.000687453,-0.00941442,-0.0159906,-0.0636443,4977,4977,0
968906475,968906140,3670026,3670026,0.00148482,-0.000855628,-0.000814546,0.00789101,-0.0209296,-0.0385146,4967,4967,0
969403077,969402744,3670026,3670026,-0.000876296,0.000262787,0.00056951,-0.0110049,0.00877475,-0.0581986,4926,4926,0
969904662,969904299,3670026,3670026,0.000426603,-0.000434336,-0.00158142,-0.00584289,-0.0139106,-0.0598827,4954,4954,0
970401267,970400900,3670026,3670026,0.000170526,3.07734e-05,0.000667783,0.00391175,0.0201281,-0.0374402,4935,4935,0
970902961,970902632,3670026,3670026,-0.00122834,0.000661816,0.000582876,-0.0211348,0.0211632,-0.0688846,5037,5037,0
971404447,971404023,3670026,3670026,-0.00051683,0.000488056,0.00049921,-0.00580055,0.00871094,-0.0554084,4967,4967,0
971905915,971905583,3670026,3670026,-0.000217531,-5.74e-05,0.000803841,0.00427594,-0.00873392,-0.0396724,4965,4965,0
972402555,972402180,3670026,3670026,-0.000840972,7.89416e-05,0.000575956,0.00501413,0.0124408,-0.0383792,4964,4964,0
972904072,972903743,3670026,3670026,-0.000901727,0.000806484,0.00178134,-0.0168973,0.0303615,-0.0587118,4966,4966,0
973405668,973405306,3670026,3670026,4.69329e-05,-0.000214917,-0.000391305,0.00220749,0.0073889,-0.0391561,4966,4966,0
973907308,973906917,3670026,3670026,-0.00158167,0.00053781,0.000816922,-0.0191881,0.0195731,-0.0642655,4984,4984,0
974404051,974403605,3670026,3670026,-0.000113825,-7.06755e-05,0.000372866,-0.0102979,-0.00550734,-0.063058,4988,4988,0
974905460,974905032,3670026,3670026,0.000581503,-0.000451391,-0.000645786,0.00201043,-7.84673e-05,-0.0412987,4970,4970,0
975401954,975401625,3670026,3670026,-0.00220286,0.00025472,0.00115368,-0.00143025,0.00132406,-0.0488078,4965,4965,0
975903521,975903188,3670026,3670026,-0.000731056,0.000199997,0.000482376,0.00210928,0.00190094,-0.0420319,4962,4962,0
976405132,976404751,3670026,3670026,0.000941552,-0.000167893,-0.000441055,0.00506311,-0.0105882,-0.0462572,4966,4966,0
976906707,976906314,3670026,3670026,0.000838488,-0.000627128,-0.000874421,0.000161676,-0.0122451,-0.0492001,4966,4966,0
977403323,977402970,3670026,3670026,0.000380059,-0.000527766,0.000318093,0.0109887,-0.00391567,-0.0346609,5000,5000,0
977904994,977904617,3670026,3670026,-0.000434383,0.000340919,0.00101226,0.0044974,0.014439,-0.0374367,4990,4990,0
978401482,978401085,3670026,3670026,2.02951e-05,-0.000450392,-0.000982839,-0.000762486,-0.00827379,-0.0479214,4980,4980,0
978902960,978902630,3670026,3670026,-0.00102555,0.000234419,0.000583414,-0.00486464,-0.0162445,-0.0572136,4963,4963,0
979404572,979404200,3670026,3670026,0.0019376,-3.69862e-05,-0.000494609,0.0148321,-0.00351505,-0.0299927,4964,4964,0
979906136,979905763,3670026,3670026,0.0011809,6.15826e-05,-0.000204688,-0.00197252,-0.00934597,-0.0534824,4928,4928,0
980407720,980407355,3670026,3670026,0.00140637,-0.000128881,-0.00134825,0.000174396,-0.0280953,-0.0521354,4999,4999,0
980904317,980903920,3670026,3670026,-8.90481e-06,-6.66211e-05,-0.000514401,-0.00829775,-0.0267633,-0.0624137,4968,4968,0
981401007,981400637,3670026,3670026,-0.000247587,8.51424e-05,-0.000132861,-0.0141091,-0.0143567,-0.0647935,4992,4992,0
981902503,981902078,3670026,3670026,-0.00102439,0.000483874,0.000968582,-0.0063245,-0.00740503,-0.0541432,4966,4966,0
982404033,982403658,3670026,3670026,-0.00220421,0.000461991,0.00111934,-0.020567,0.0230503,-0.0653619,4983,4983,0
982905615,982905204,3670026,3670026,0.00188219,-0.000659887,-0.000872372,0.0173548,-0.0234687,-0.0316728,4966,4966,0
983407145,983406767,3670026,3670026,-0.000804315,0.000367795,0.000145453,-0.0114666,-0.012824,-0.0618148,4966,4966,0
983903761,983903365,3670026,3670026,-0.00176548,9.20568e-05,0.000333552,-0.00934958,0.00174401,-0.0581316,4967,4967,0
984405329,984404929,3670026,3670026,0.00039907,0.000217074,-3.41809e-05,-0.00637123,0.00604246,-0.0577672,4968,4968,0
984902046,984901672,3670026,3670026,0.000555174,0.000278856,4.45982e-05,-0.00288566,-0.0196401,-0.0530914,5009,5009,0
985403434,985403103,3670026,3670026,-0.000507943,-9.54488e-05,0.000601808,0.00202348,0.0246674,-0.0391778,4943,4943,0
985905018,985904691,3670026,3670026,-0.00192972,0.000767586,0.000785239,-0.010296,0.00297385,-0.0589414,4995,4995,0
986406603,986406216,3670026,3670026,-0.00126089,-0.000160457,0.000323849,-0.00819564,-0.0100115,-0.0603292,4969,4969,0
986903211,986902810,3670026,3670026,-0.000585273,8.35287e-06,-0.000107852,-0.00619817,-0.0250834,-0.0598613,4966,4966,0
987404735,987404374,3670026,3670026,-0.00225512,0.000261088,0.000691608,-0.0134862,0.0229701,-0.0551153,4967,4967,0
987906285,987905936,3670026,3670026,0.000724322,-0.000154941,0.000650094,0.011598,0.00579201,-0.0322428,4960,4960,0
988403045,988402664,3670026,3670026,-0.00105862,0.000632365,0.00097789,-0.0133342,0.0167429,-0.059967,4990,4990,0
988904484,988904160,3670026,3670026,0.00097089,6.7606e-05,-0.000150941,0.00379619,-0.00858837,-0.0437167,4980,4980,0
989406130,989405660,3670026,3670026,0.000438598,7.97034e-05,0.000625444,0.00793881,-0.00570722,-0.0339069,4925,4925,0
989902581,989902257,3670026,3670026,0.000900776,9.59056e-05,-0.000563646,0.0017521,-0.004831,-0.0435278,4964,4964,0
990404214,990403820,3670026,3670026,-0.00162609,-0.00031682,0.000604002,-0.00346879,0.00152527,-0.0509682,4966,4966,0
990905738,990905379,3670026,3670026,0.00112806,-0.000701738,-0.000613143,0.00843227,-0.0208604,-0.039361,4961,4961,0
991402379,991401982,3670026,3670026,0.00082651,-0.000376014,-0.00076507,0.00927015,-0.00551006,-0.0351659,4968,4968,0
991904112,991903690,3670026,3670026,0.000216029,-0.000502366,-0.000216783,0.00581962,0.000954452,-0.0362573,4991,4991,0
992405441,992405107,3670026,3670026,-0.00126096,0.000267025,0.00114815,-0.00917905,0.0154667,-0.0522516,4965,4965,0
