timestamp,timestamp_sample,baro_device_id,baro_alt_meter,baro_temp_celcius,baro_pressure_pa,rho
741388630,741365996,3997730,331.08,25.16,97411.0,1.1574
741438948,741418684,3997730,330.803,25.16,97414.2,1.15744
741599736,741579551,3997730,330.845,25.17,97413.7,1.15744
741760630,741740379,3997730,330.932,25.17,97412.7,1.15742
741971742,741954111,3997730,330.824,25.17,97414.0,1.15744
742193107,742170366,3997730,330.824,25.17,97414.0,1.15744
742404313,742384115,3997730,330.803,25.17,97414.2,1.15744
742565188,742544943,3997730,331.038,25.17,97411.5,1.15741
742776103,742758461,3997730,330.974,25.17,97412.3,1.15742
742997311,742974609,3997730,330.758,25.17,97414.8,1.15745
743158021,743135369,3997730,330.974,25.17,97412.3,1.15742
743369123,743348917,3997730,331.061,25.17,97411.2,1.15741
743580230,743562568,3997730,330.866,25.18,97413.5,1.15743
743801476,743778744,3997730,330.89,25.17,97413.2,1.15743
743962364,743939686,3997730,331.017,25.17,97411.7,1.15741
744173658,744153406,3997730,330.974,25.17,97412.2,1.15742
744384799,744367172,3997730,331.061,25.18,97411.2,1.15741
744545954,744527997,3997730,330.845,25.18,97413.7,1.15744
744766782,744744135,3997730,330.739,25.18,97415.0,1.15745
744977770,744957656,3997730,331.252,25.17,97409.0,1.15738
745188944,745171325,3997730,331.017,25.17,97411.7,1.15741
745349895,745332186,3997730,330.887,25.17,97413.3,1.15743
745580943,745560790,3997730,330.995,25.17,97412.0,1.15742
745791953,745774251,3997730,331.061,25.18,97411.2,1.15741
745952689,745935044,3997730,330.974,25.18,97412.2,1.15742
746173928,746151133,3997730,330.824,25.18,97414.0,1.15744
746384830,746364702,3997730,330.715,25.18,97415.3,1.15745
746595788,746578147,3997730,330.974,25.18,97412.3,1.15742
746756743,746739004,3997730,331.191,25.18,97409.7,1.15739
746977858,746955216,3997730,331.276,25.18,97408.8,1.15738
747188893,747168749,3997730,331.447,25.18,97406.8,1.15735
747399977,747382345,3997730,331.447,25.18,97406.8,1.15735
747580882,747558213,3997730,331.146,25.19,97410.3,1.15739
747792224,747772078,3997730,331.276,25.18,97408.7,1.15738
748003337,747985703,3997730,331.233,25.18,97409.2,1.15738
748164208,748146497,3997730,331.725,25.18,97403.5,1.15731
748385516,748362865,3997730,331.426,25.19,97407.0,1.15736
748596806,748576617,3997730,331.447,25.19,97406.8,1.15735
748757628,748737425,3997730,331.899,25.18,97401.5,1.15729
748968788,748951126,3997730,331.812,25.19,97402.5,1.1573
749190099,749167372,3997730,331.941,25.19,97401.0,1.15728
749401198,749380990,3997730,331.963,25.19,97400.8,1.15728
749562179,749541925,3997730,331.92,25.19,97401.3,1.15729
749773231,749755548,3997730,332.113,25.19,97399.0,1.15726
749994489,749971799,3997730,332.071,25.19,97399.5,1.15727
750155352,750132553,3997730,332.026,25.19,97400.0,1.15727
750366404,750346162,3997730,332.264,25.19,97397.3,1.15724
750577557,750559892,3997730,332.285,25.19,97397.0,1.15724
750798807,750776100,3997730,332.264,25.19,97397.3,1.15724
750959560,750936918,3997730,332.005,25.19,97400.3,1.15728
751180863,751156632,3997730,332.269,25.2,97397.2,1.15724
751402072,751379398,3997730,332.327,25.19,97396.5,1.15723
751562920,751540286,3997730,332.502,25.19,97394.5,1.15721
751784176,751766467,3997730,332.327,25.2,97396.5,1.15723
751945077,751927406,3997730,332.499,25.2,97394.5,1.15721
752166277,752143586,3997730,332.565,25.2,97393.7,1.1572
752377201,752357075,3997730,332.607,25.2,97393.3,1.15719
752588363,752570721,3997730,333.294,25.2,97385.2,1.1571
752749642,752731532,3997730,333.318,25.2,97385.0,1.15709
752970545,752947877,3997730,332.758,25.2,97391.5,1.15717
753182597,753161487,3997730,333.038,25.2,97388.2,1.15713
753352532,753334899,3997730,332.93,25.2,97389.5,1.15715
753573755,753551076,3997730,333.059,25.2,97388.0,1.15713
753784937,753764788,3997730,333.017,25.2,97388.5,1.15714
753946043,753925626,3997730,333.08,25.2,97387.7,1.15713
754177091,754154417,3997730,333.123,25.2,97387.2,1.15712
754388163,754368012,3997730,333.511,25.2,97382.8,1.15707
754599358,754581661,3997730,333.424,25.21,97383.8,1.15708
754760332,754742501,3997730,333.231,25.2,97386.0,1.15711
754981565,754958888,3997730,333.638,25.21,97381.3,1.15705
755192666,755172531,3997730,333.49,25.21,97383.0,1.15707
755403894,755386290,3997730,333.294,25.21,97385.3,1.1571
755564932,755547058,3997730,333.294,25.21,97385.3,1.1571
755785870,755763249,3997730,333.403,25.21,97384.0,1.15708
755998086,755976817,3997730,333.144,25.21,97387.0,1.15712
756188097,756165393,3997730,333.553,25.21,97382.3,1.15706
756400523,756379063,3997730,333.252,25.21,97385.8,1.1571
756590365,756567664,3997730,333.059,25.21,97388.0,1.15713
756801335,756781182,3997730,333.318,25.21,97385.0,1.15709
756962083,756941859,3997730,333.231,25.22,97386.0,1.15711
757173538,757155655,3997730,332.972,25.21,97389.0,1.15714
757394490,757371822,3997730,333.252,25.21,97385.7,1.1571
757555258,757532576,3997730,333.038,25.21,97388.2,1.15713
757766331,757746134,3997730,333.273,25.22,97385.5,1.1571
757977308,757959666,3997730,332.993,25.22,97388.7,1.15714
758198670,758175917,3997730,332.866,25.22,97390.3,1.15716
758359404,758336714,3997730,333.252,25.22,97385.7,1.1571
758580515,758556333,3997730,333.3,25.22,97385.2,1.1571
758801726,758779046,3997730,333.318,25.21,97385.0,1.15709
758962639,758939933,3997730,332.951,25.22,97389.2,1.15715
759173870,759153683,3997730,333.21,25.22,97386.2,1.15711
759384981,759367330,3997730,333.511,25.22,97382.8,1.15707
759606121,759583483,3997730,332.993,25.22,97388.7,1.15714
759767064,759744328,3997730,333.36,25.22,97384.5,1.15709
759978081,759957897,3997730,333.595,25.22,97381.8,1.15706
760149112,760124888,3997730,333.73,25.22,97380.2,1.15704
760370471,760347702,3997730,333.252,25.22,97385.8,1.1571
760581644,760561496,3997730,333.445,25.22,97383.5,1.15708
760792628,760775000,3997730,333.511,25.22,97382.8,1.15707
760953775,760935915,3997730,333.511,25.23,97382.8,1.15707
761174820,761152085,3997730,333.165,25.23,97386.8,1.15712
761385955,761365786,3997730,333.21,25.22,97386.2,1.15711
761597009,761579301,3997730,333.662,25.23,97381.0,1.15705
761757749,761740130,3997730,333.337,25.23,97384.8,1.15709
761978885,761956217,3997730,333.553,25.23,97382.3,1.15706
762190345,762170046,3997730,333.638,25.23,97381.3,1.15705
762401381,762383712,3997730,333.532,25.22,97382.5,1.15707
762562420,762544593,3997730,333.337,25.23,97384.8,1.15709
762783479,762760785,3997730,333.617,25.23,97381.5,1.15705
762994426,762974255,3997730,333.294,25.23,97385.2,1.1571
763155234,763135071,3997730,333.595,25.23,97381.8,1.15706
763366689,763348778,3997730,333.49,25.24,97383.0,1.15707
763587584,763564963,3997730,333.49,25.23,97383.0,1.15707
763798944,763778647,3997730,333.511,25.24,97382.8,1.15707
763959708,763939527,3997730,333.876,25.23,97378.5,1.15702
764171108,764153053,3997730,333.574,25.23,97382.0,1.15706
764391806,764369170,3997730,333.337,25.23,97384.8,1.15709
764603406,764582675,3997730,333.511,25.24,97382.7,1.15707
764763882,764743646,3997730,333.638,25.24,97381.3,1.15705
764974848,764957104,3997730,333.36,25.23,97384.5,1.15709
765196064,765173400,3997730,333.381,25.24,97384.3,1.15709
765356849,765334198,3997730,333.445,25.24,97383.5,1.15708
765567829,765547691,3997730,333.49,25.24,97383.0,1.15707
765778957,765761342,3997730,333.189,25.24,97386.5,1.15711
765959881,765937234,3997730,333.36,25.24,97384.5,1.15709
766171170,766150993,3997730,333.21,25.24,97386.2,1.15711
766382405,766364719,3997730,333.469,25.24,97383.2,1.15707
766603521,766580878,3997730,333.49,25.24,97383.0,1.15707
766764457,766741817,3997730,333.101,25.24,97387.5,1.15712
766975688,766955540,3997730,333.381,25.25,97384.3,1.15709
767186652,767169024,3997730,333.21,25.25,97386.2,1.15711
767347641,767329940,3997730,333.017,25.25,97388.5,1.15714
767578778,767558660,3997730,333.466,25.24,97383.3,1.15707
767790061,767772441,3997730,333.36,25.25,97384.5,1.15709
767951082,767933290,3997730,333.617,25.24,97381.5,1.15705
768172265,768149605,3997730,333.403,25.25,97384.0,1.15708
768383357,768363209,3997730,333.638,25.25,97381.3,1.15705
768594543,768576933,3997730,333.553,25.25,97382.3,1.15706
768755517,768737730,3997730,333.595,25.25,97381.8,1.15706
768976666,768953978,3997730,333.833,25.25,97379.0,1.15702
769187880,769167735,3997730,333.746,25.25,97380.0,1.15704
769398947,769381323,3997730,333.662,25.25,97381.0,1.15705
769559837,769542119,3997730,333.918,25.25,97378.0,1.15701
769780982,769758234,3997730,333.81,25.25,97379.3,1.15703
769992101,769971983,3997730,333.683,25.25,97380.7,1.15704
770203254,770185607,3997730,333.189,25.25,97386.5,1.15711
770364119,770346370,3997730,333.662,25.25,97381.0,1.15705
770585236,770562388,3997730,333.595,25.26,97381.8,1.15706
770796323,770776143,3997730,333.746,25.25,97380.0,1.15704
770957106,770936988,3997730,333.617,25.26,97381.5,1.15705
771188240,771158087,3997730,333.78,25.25,97379.6,1.15703
771399227,771379094,3997730,333.81,25.25,97379.3,1.15703
771560651,771539881,3997730,333.876,25.25,97378.5,1.15702
771791366,771768735,3997730,333.704,25.26,97380.5,1.15704
772002499,771982285,3997730,333.294,25.26,97385.3,1.1571
772163391,772143223,3997730,333.101,25.26,97387.5,1.15712
772374499,772356813,3997730,332.951,25.26,97389.2,1.15715
772595719,772573094,3997730,333.511,25.26,97382.8,1.15707
772756494,772733866,3997730,333.833,25.26,97379.0,1.15702
772967612,772947441,3997730,333.511,25.26,97382.8,1.15707
773178783,773161042,3997730,333.059,25.26,97388.0,1.15713
773399982,773377260,3997730,333.617,25.26,97381.5,1.15705
773560695,773538045,3997730,333.49,25.27,97383.0,1.15707
773771830,773751706,3997730,333.273,25.26,97385.5,1.1571
773983007,773965254,3997730,333.445,25.26,97383.5,1.15708
774204356,774181588,3997730,333.273,25.26,97385.5,1.1571
774365089,774342431,3997730,333.252,25.26,97385.8,1.1571
774576508,774556204,3997730,333.595,25.27,97381.8,1.15706
774787694,774769968,3997730,333.466,25.26,97383.3,1.15707
774948513,774930883,3997730,333.767,25.27,97379.8,1.15703
775169726,775147028,3997730,333.445,25.27,97383.5,1.15708
775391035,775373277,3997730,333.876,25.26,97378.5,1.15702
775551760,775534129,3997730,333.833,25.27,97379.0,1.15702
775783238,775762974,3997730,333.918,25.27,97378.0,1.15701
775994587,775976748,3997730,333.662,25.27,97381.0,1.15705
776155378,776137757,3997730,333.788,25.27,97379.5,1.15703
776376732,776353892,3997730,333.704,25.27,97380.5,1.15704
776587865,776567592,3997730,333.638,25.27,97381.3,1.15705
776799064,776781273,3997730,333.81,25.27,97379.3,1.15703
776959816,776942153,3997730,333.403,25.27,97384.0,1.15708
777180868,777158247,3997730,333.662,25.27,97381.0,1.15705
777392168,777372003,3997730,333.294,25.28,97385.3,1.1571
777603129,777585451,3997730,333.424,25.27,97383.8,1.15708
777763917,777746161,3997730,333.662,25.28,97381.0,1.15705
777985009,777962370,3997730,333.553,25.27,97382.3,1.15706
778195956,778175805,3997730,333.96,25.28,97377.5,1.15701
778356886,778336707,3997730,333.469,25.28,97383.2,1.15707
778568033,778550315,3997730,333.617,25.27,97381.5,1.15705
778789236,778766519,3997730,333.876,25.28,97378.5,1.15702
779000399,778980186,3997730,333.81,25.28,97379.3,1.15703
779161236,779140965,3997730,333.704,25.28,97380.5,1.15704
779372367,779354670,3997730,333.96,25.28,97377.5,1.15701
779593665,779570894,3997730,334.026,25.28,97376.8,1.157
779804736,779784531,3997730,333.617,25.28,97381.5,1.15705
779965566,779945419,3997730,333.553,25.28,97382.3,1.15706
780176619,780159007,3997730,333.49,25.28,97383.0,1.15707
780398080,780375341,3997730,333.445,25.28,97383.5,1.15708
780558829,780536171,3997730,333.49,25.28,97383.0,1.15707
780769890,780749692,3997730,333.833,25.28,97379.0,1.15702
780981005,780963363,3997730,333.746,25.28,97380.0,1.15704
781202215,781179460,3997730,333.294,25.28,97385.2,1.1571
781362907,781340274,3997730,333.511,25.29,97382.8,1.15707
781574382,781554090,3997730,333.21,25.29,97386.3,1.15711
781785459,781767828,3997730,333.101,25.29,97387.5,1.15712
781946226,781928587,3997730,333.339,25.29,97384.7,1.15709
782167744,782144834,3997730,333.662,25.28,97381.0,1.15705
782378667,782358487,3997730,333.445,25.29,97383.5,1.15708
782589936,782572108,3997730,333.833,25.29,97379.0,1.15702
782750710,782732972,3997730,333.854,25.29,97378.8,1.15702
782972114,782949140,3997730,333.49,25.29,97383.0,1.15707
783182894,783162755,3997730,333.746,25.29,97380.0,1.15704
783393975,783376275,3997730,333.683,25.29,97380.8,1.15704
783554840,783537097,3997730,333.725,25.29,97380.3,1.15704
783775763,783753115,3997730,333.746,25.29,97380.0,1.15704
783986990,783966836,3997730,333.854,25.29,97378.8,1.15702
784198660,784180522,3997730,333.746,25.29,97380.0,1.15704
784359023,784341386,3997730,334.005,25.29,97377.0,1.157
784580127,784557456,3997730,333.553,25.3,97382.2,1.15706
784791363,784771167,3997730,333.638,25.3,97381.3,1.15705
785002674,784984815,3997730,334.177,25.29,97375.0,1.15698
785163407,785145765,3997730,333.939,25.3,97377.8,1.15701
785384640,785362013,3997730,333.595,25.3,97381.8,1.15706
785595838,785575679,3997730,333.574,25.3,97382.0,1.15706
785807161,785789367,3997730,333.746,25.3,97380.0,1.15704
785967970,785950314,3997730,333.553,25.3,97382.3,1.15706
786189112,786166478,3997730,333.638,25.3,97381.3,1.15705
786400335,786380056,3997730,333.617,25.3,97381.5,1.15705
786560898,786540779,3997730,333.553,25.31,97382.3,1.15706
786792209,786769543,3997730,333.511,25.3,97382.8,1.15707
787003425,786983239,3997730,333.617,25.31,97381.5,1.15705
787164073,787143909,3997730,333.788,25.31,97379.5,1.15703
787375131,787357479,3997730,333.617,25.31,97381.5,1.15705
787606340,787586150,3997730,333.725,25.31,97380.3,1.15704
787767138,787746905,3997730,333.662,25.31,97381.0,1.15705
787978072,787960447,3997730,333.767,25.31,97379.8,1.15703
788199425,788176703,3997730,333.638,25.31,97381.3,1.15705
788360249,788337524,3997730,333.49,25.31,97383.0,1.15707
788571386,788551228,3997730,333.511,25.31,97382.8,1.15707
788782495,788764872,3997730,333.381,25.31,97384.2,1.15709
789003877,788981153,3997730,333.469,25.31,97383.2,1.15707
789164720,789141985,3997730,333.662,25.31,97381.0,1.15705
789375843,789355638,3997730,333.704,25.31,97380.5,1.15704
789536830,789516412,3997730,333.49,25.31,97383.0,1.15707
789767719,789745028,3997730,333.638,25.31,97381.3,1.15705
789979357,789958586,3997730,333.511,25.31,97382.8,1.15707
790149743,790132058,3997730,333.36,25.32,97384.5,1.15709
790371290,790348260,3997730,333.445,25.31,97383.5,1.15708
790582081,790561951,3997730,333.96,25.31,97377.5,1.15701
790793204,790775577,3997730,333.381,25.32,97384.3,1.15709
790954061,790936348,3997730,333.595,25.32,97381.7,1.15706
791175757,791152785,3997730,333.445,25.32,97383.5,1.15708
791396593,791378901,3997730,333.638,25.31,97381.3,1.15705
791557598,791539784,3997730,333.939,25.31,97377.8,1.15701
791788633,791768451,3997730,333.252,25.32,97385.8,1.1571
792000214,791981990,3997730,333.445,25.32,97383.5,1.15708
792160512,792142829,3997730,333.595,25.32,97381.8,1.15706
792382030,792359273,3997730,333.403,25.32,97384.0,1.15708
792593048,792572877,3997730,333.939,25.32,97377.8,1.15701
792804236,792786574,3997730,333.683,25.32,97380.8,1.15704
792965021,792947330,3997730,333.746,25.32,97380.0,1.15704
793186428,793163560,3997730,333.553,25.32,97382.3,1.15706
793397313,793377133,3997730,333.704,25.32,97380.5,1.15704
793558067,793537933,3997730,333.81,25.33,97379.3,1.15703
793769308,793751635,3997730,333.81,25.32,97379.3,1.15703
793990309,793967606,3997730,334.068,25.32,97376.3,1.15699
794201520,794181365,3997730,333.96,25.32,97377.5,1.15701
794362382,794342192,3997730,333.833,25.32,97379.0,1.15702
794593650,794570919,3997730,333.788,25.33,97379.5,1.15703
794804707,794784530,3997730,333.788,25.33,97379.5,1.15703
794965671,794945515,3997730,334.111,25.33,97375.8,1.15699
795176738,795159096,3997730,333.788,25.33,97379.5,1.15703
795397981,795375357,3997730,333.638,25.33,97381.3,1.15705
795558834,795536137,3997730,333.897,25.33,97378.3,1.15701
795769950,795749735,3997730,333.683,25.33,97380.8,1.15704
795981242,795963541,3997730,334.24,25.33,97374.3,1.15697
796202506,796179833,3997730,333.704,25.33,97380.5,1.15704
796363385,796340642,3997730,333.704,25.33,97380.5,1.15704
796574350,796554125,3997730,333.595,25.33,97381.8,1.15706
796785516,796767777,3997730,333.532,25.33,97382.5,1.15707
797006739,796984040,3997730,333.49,25.33,97383.0,1.15707
797167458,797144838,3997730,333.231,25.33,97386.0,1.15711
797378488,797358308,3997730,333.767,25.33,97379.8,1.15703
797589814,797572110,3997730,333.574,25.33,97382.0,1.15706
797770887,797740681,3997730,333.849,25.33,97378.8,1.15702
797981943,797961822,3997730,333.36,25.34,97384.5,1.15709
798193204,798175477,3997730,333.704,25.33,97380.5,1.15704
798354080,798336387,3997730,333.725,25.34,97380.3,1.15704
798575606,798552789,3997730,333.704,25.34,97380.5,1.15704
798786687,798766528,3997730,334.09,25.34,97376.0,1.15699
798947991,798927339,3997730,333.939,25.33,97377.8,1.15701
799178642,799156022,3997730,333.746,25.34,97380.0,1.15704
799390113,799369653,3997730,333.469,25.34,97383.2,1.15707
799560729,799543102,3997730,333.81,25.34,97379.3,1.15703
799781964,799759275,3997730,333.767,25.34,97379.8,1.15703
799993341,799973173,3997730,333.81,25.34,97379.3,1.15703
800204488,800186815,3997730,334.09,25.34,97376.0,1.15699
800365314,800347657,3997730,333.662,25.34,97381.0,1.15705
800586456,800563811,3997730,333.424,25.34,97383.8,1.15708
800797566,800777392,3997730,333.574,25.34,97382.0,1.15706
800958932,800938336,3997730,333.918,25.34,97378.0,1.15701
801189815,801167166,3997730,333.854,25.34,97378.8,1.15702
801351176,801328074,3997730,333.725,25.34,97380.3,1.15704
801571854,801554248,3997730,333.746,25.34,97380.0,1.15704
801792965,801770313,3997730,333.96,25.35,97377.5,1.15701
802004244,801984055,3997730,334.177,25.35,97375.0,1.15698
802165528,802144863,3997730,333.49,25.35,97383.0,1.15707
802376228,802358576,3997730,333.638,25.35,97381.3,1.15705
802597403,802574687,3997730,333.918,25.35,97378.0,1.15701
802758181,802735409,3997730,333.725,25.35,97380.3,1.15704
802969336,802949000,3997730,333.746,25.35,97380.0,1.15704
803200200,803170028,3997730,333.662,25.35,97381.0,1.15705
803361089,803338382,3997730,333.532,25.35,97382.5,1.15707
803602298,803579619,3997730,333.574,25.35,97382.0,1.15706
803763331,803740618,3997730,333.638,25.35,97381.3,1.15705
803974527,803954306,3997730,333.337,25.35,97384.8,1.15709
804185529,804167889,3997730,333.662,25.35,97381.0,1.15705
804346521,804328877,3997730,333.662,25.35,97381.0,1.15705
804567692,804544975,3997730,333.553,25.35,97382.3,1.15706
804778792,804758627,3997730,333.553,25.35,97382.3,1.15706
804989829,804972179,3997730,334.219,25.35,97374.5,1.15697
805170856,805140646,3997730,333.712,25.36,97380.4,1.15704
805382082,805361941,3997730,333.445,25.36,97383.5,1.15708
805543422,805522967,3997730,333.337,25.36,97384.8,1.15709
805774272,805751583,3997730,333.662,25.35,97381.0,1.15705
805985427,805965298,3997730,333.511,25.35,97382.8,1.15707
806196580,806178961,3997730,333.403,25.36,97384.0,1.15708
806357364,806339741,3997730,333.511,25.36,97382.8,1.15707
806578362,806555686,3997730,333.833,25.36,97379.0,1.15702
806789750,806769309,3997730,333.617,25.36,97381.5,1.15705
806960341,806942713,3997730,333.511,25.36,97382.8,1.15707
807181638,807158917,3997730,333.638,25.36,97381.3,1.15705
807392643,807372493,3997730,333.81,25.36,97379.3,1.15703
807554692,807533413,3997730,333.725,25.36,97380.3,1.15704
807794803,807774647,3997730,333.725,25.36,97380.3,1.15704
807955775,807935591,3997730,333.511,25.36,97382.7,1.15707
808166772,808149088,3997730,333.638,25.36,97381.3,1.15705
808387850,808365176,3997730,333.574,25.36,97382.0,1.15706
808599021,808578896,3997730,333.595,25.36,97381.8,1.15706
808759880,808739757,3997730,333.553,25.37,97382.3,1.15706
808971085,808953464,3997730,333.532,25.36,97382.5,1.15707
809192241,809169545,3997730,333.445,25.36,97383.5,1.15708
809403360,809383233,3997730,333.337,25.36,97384.8,1.15709
809564310,809544115,3997730,333.574,25.36,97382.0,1.15706
809775486,809757793,3997730,333.381,25.36,97384.3,1.15709
809996665,809973987,3997730,333.511,25.36,97382.8,1.15707
810157518,810134823,3997730,333.595,25.37,97381.8,1.15706
810369248,810348337,3997730,333.96,25.37,97377.5,1.15701
810599724,810577081,3997730,333.746,25.37,97380.0,1.15704
810760660,810737905,3997730,333.553,25.37,97382.3,1.15706
810981870,810964157,3997730,333.96,25.37,97377.5,1.15701
811203046,811180339,3997730,333.725,25.37,97380.3,1.15704
811363871,811341224,3997730,333.704,25.37,97380.5,1.15704
811575247,811554949,3997730,334.026,25.37,97376.7,1.157
811786337,811768637,3997730,333.833,25.37,97379.0,1.15702
811947232,811929563,3997730,333.854,25.37,97378.8,1.15702
812178533,812158292,3997730,333.876,25.37,97378.5,1.15702
812389514,812371781,3997730,333.96,25.37,97377.5,1.15701
812550392,812532718,3997730,334.111,25.37,97375.8,1.15699
812771498,812748864,3997730,334.026,25.37,97376.8,1.157
812982635,812962444,3997730,333.595,25.37,97381.8,1.15706
813193734,813176121,3997730,333.746,25.37,97380.0,1.15704
813354717,813337034,3997730,333.617,25.37,97381.5,1.15705
813575867,813553140,3997730,333.595,25.38,97381.8,1.15706
813786933,813766755,3997730,333.746,25.38,97380.0,1.15704
813998216,813980580,3997730,333.638,25.37,97381.3,1.15705
814179271,814156580,3997730,333.96,25.38,97377.5,1.15701
814390359,814370223,3997730,333.445,25.38,97383.5,1.15708
814601541,814583888,3997730,333.81,25.38,97379.3,1.15703
814762467,814744812,3997730,333.662,25.38,97381.0,1.15705
814983704,814961048,3997730,333.981,25.38,97377.3,1.157
815194810,815174549,3997730,333.876,25.38,97378.5,1.15702
815405830,815388208,3997730,333.96,25.38,97377.5,1.15701
815566852,815549107,3997730,334.177,25.38,97375.0,1.15698
815787889,815765262,3997730,334.09,25.38,97376.0,1.15699
815998948,815978742,3997730,333.833,25.38,97379.0,1.15702
816159884,816139617,3997730,334.177,25.38,97375.0,1.15698
816371048,816353285,3997730,333.981,25.38,97377.3,1.157
816592172,816569497,3997730,333.683,25.38,97380.8,1.15704
816803244,816783047,3997730,334.349,25.38,97373.0,1.15695
816974160,816950024,3997730,333.765,25.39,97379.8,1.15703
817195328,817172651,3997730,333.981,25.39,97377.3,1.157
817356165,817333439,3997730,333.833,25.38,97379.0,1.15702
817567337,817547178,3997730,333.662,25.39,97381.0,1.15705
817778610,817760955,3997730,333.553,25.39,97382.3,1.15706
817999872,817977246,3997730,333.81,25.39,97379.3,1.15703
818160818,818138123,3997730,334.135,25.39,97375.5,1.15698
818371938,818351785,3997730,333.617,25.39,97381.5,1.15705
818583257,818565487,3997730,333.725,25.39,97380.3,1.15704
818804305,818781626,3997730,333.833,25.39,97379.0,1.15702
818965036,818942360,3997730,334.111,25.39,97375.8,1.15699
819176158,819156004,3997730,333.662,25.39,97381.0,1.15705
819387172,819369537,3997730,333.81,25.39,97379.3,1.15703
819548076,819530384,3997730,334.198,25.39,97374.8,1.15697
819769629,819746577,3997730,333.918,25.39,97378.0,1.15701
819980461,819960233,3997730,333.574,25.39,97382.0,1.15706
820191799,820173955,3997730,333.767,25.39,97379.8,1.15703
820352583,820334908,3997730,333.876,25.39,97378.5,1.15702
820573669,820550946,3997730,333.595,25.39,97381.8,1.15706
820784872,820764590,3997730,334.09,25.39,97376.0,1.15699
820995967,820978320,3997730,333.918,25.39,97378.0,1.15701
821156699,821139054,3997730,333.683,25.4,97380.8,1.15704
821378014,821355233,3997730,333.939,25.4,97377.8,1.15701
821589076,821568880,3997730,333.854,25.4,97378.8,1.15702
821800286,821782422,3997730,333.897,25.4,97378.3,1.15701
821960964,821943308,3997730,333.725,25.4,97380.3,1.15704
822182117,822159496,3997730,333.595,25.4,97381.8,1.15706
822393229,822373082,3997730,334.047,25.4,97376.5,1.15699
822604202,822586561,3997730,333.96,25.4,97377.5,1.15701
822785149,822762497,3997730,333.854,25.4,97378.8,1.15702
822996186,822975937,3997730,333.918,25.4,97378.0,1.15701
823167028,823142726,3997730,333.799,25.4,97379.4,1.15703
823388361,823365552,3997730,334.068,25.4,97376.3,1.15699
823599448,823579331,3997730,333.704,25.4,97380.5,1.15704
823760373,823740064,3997730,333.704,25.4,97380.5,1.15704
823971600,823953848,3997730,333.918,25.4,97378.0,1.15701
824192824,824170195,3997730,333.897,25.4,97378.3,1.15701
824403807,824383673,3997730,333.897,25.4,97378.3,1.15701
824564575,824544434,3997730,334.349,25.4,97373.0,1.15695
824775839,824758066,3997730,333.767,25.41,97379.8,1.15703
824996769,824974107,3997730,333.854,25.41,97378.8,1.15702
825157726,825135073,3997730,333.918,25.41,97378.0,1.15701
825368800,825348656,3997730,333.725,25.41,97380.3,1.15704
825579923,825562277,3997730,333.981,25.41,97377.3,1.157
825801135,825778406,3997730,333.918,25.41,97378.0,1.15701
825962153,825939408,3997730,333.617,25.41,97381.5,1.15705
826173168,826153035,3997730,334.111,25.4,97375.8,1.15699
826384502,826366869,3997730,333.96,25.41,97377.5,1.15701
826605733,826583072,3997730,334.156,25.41,97375.3,1.15698
826766835,826743950,3997730,334.005,25.41,97377.0,1.157
826977691,826957558,3997730,333.683,25.41,97380.8,1.15704
827189088,827171209,3997730,333.897,25.41,97378.3,1.15701
827349658,827332013,3997730,333.725,25.41,97380.3,1.15704
827571108,827548229,3997730,333.939,25.41,97377.8,1.15701
827782081,827761946,3997730,333.981,25.41,97377.3,1.157
827993520,827975636,3997730,334.005,25.41,97377.0,1.157
828154245,828136601,3997730,333.746,25.41,97380.0,1.15704
828375532,828352729,3997730,333.767,25.41,97379.8,1.15703
828586633,828566478,3997730,333.918,25.42,97378.0,1.15701
828797804,828780138,3997730,334.113,25.41,97375.7,1.15698
828958650,828940992,3997730,333.981,25.41,97377.3,1.157
829180065,829157179,3997730,334.156,25.41,97375.3,1.15698
829391049,829370865,3997730,333.981,25.41,97377.3,1.157
829602476,829584614,3997730,333.981,25.42,97377.3,1.157
829763221,829745559,3997730,334.026,25.42,97376.8,1.157
829984419,829961659,3997730,334.047,25.42,97376.5,1.15699
830195334,830175205,3997730,334.113,25.42,97375.7,1.15698
830356135,830335943,3997730,333.574,25.42,97382.0,1.15706
830567095,830549464,3997730,333.767,25.41,97379.8,1.15703
830788092,830765463,3997730,333.704,25.42,97380.5,1.15704
830959095,830938958,3997730,333.876,25.42,97378.5,1.15702
831170146,831152474,3997730,333.704,25.42,97380.5,1.15704
831391512,831368883,3997730,333.81,25.42,97379.3,1.15703
831602853,831582567,3997730,333.81,25.42,97379.3,1.15703
831763875,831743659,3997730,333.683,25.42,97380.8,1.15704
831974870,831957254,3997730,333.876,25.42,97378.5,1.15702
832196200,832173520,3997730,333.939,25.42,97377.8,1.15701
832357082,832334391,3997730,333.854,25.42,97378.8,1.15702
832568189,832547964,3997730,334.047,25.42,97376.5,1.15699
832779247,832761606,3997730,333.939,25.42,97377.8,1.15701
832960323,832937592,3997730,333.704,25.43,97380.5,1.15704
833171532,833151355,3997730,333.833,25.42,97379.0,1.15702
833382548,833364942,3997730,333.918,25.43,97378.0,1.15701
833603937,833581222,3997730,333.511,25.43,97382.7,1.15707
833764787,833742042,3997730,334.219,25.43,97374.5,1.15697
833975825,833955683,3997730,333.876,25.43,97378.5,1.15702
834187005,834169336,3997730,333.81,25.43,97379.3,1.15703
834347910,834330259,3997730,333.511,25.43,97382.8,1.15707
834569068,834546357,3997730,333.746,25.43,97380.0,1.15704
834780085,834759918,3997730,333.918,25.43,97378.0,1.15701
834950988,834926699,3997730,333.883,25.43,97378.4,1.15702
835172100,835149390,3997730,333.918,25.43,97378.0,1.15701
835393219,835369057,3997730,334.039,25.43,97376.6,1.157
835554350,835536544,3997730,333.876,25.43,97378.5,1.15702
835775433,835752774,3997730,334.156,25.43,97375.3,1.15698
835986521,835966333,3997730,333.833,25.44,97379.0,1.15702
836157500,836133282,3997730,333.833,25.43,97379.0,1.15702
836378752,836356032,3997730,333.767,25.43,97379.8,1.15703
836589870,836569664,3997730,333.81,25.43,97379.3,1.15703
836801027,836783396,3997730,333.939,25.44,97377.8,1.15701
836981829,836951640,3997730,334.021,25.43,97376.8,1.157
837192764,837172648,3997730,333.791,25.44,97379.5,1.15703
837403935,837386248,3997730,333.553,25.44,97382.3,1.15706
837564797,837547179,3997730,333.876,25.44,97378.5,1.15702
837786028,837763323,3997730,334.219,25.44,97374.5,1.15697
837997170,837977010,3997730,333.81,25.44,97379.3,1.15703
838158641,838137867,3997730,333.725,25.44,97380.3,1.15704
838389221,838366511,3997730,333.876,25.44,97378.5,1.15702
838600730,838580074,3997730,333.746,25.44,97380.0,1.15704
838771088,838753432,3997730,333.662,25.44,97381.0,1.15705
838992181,838969450,3997730,333.939,25.44,97377.8,1.15701
839203496,839183318,3997730,333.96,25.44,97377.5,1.15701
839364303,839344154,3997730,333.81,25.44,97379.3,1.15703
839575532,839557777,3997730,334.005,25.44,97377.0,1.157
839796971,839774123,3997730,333.81,25.44,97379.3,1.15703
839957736,839935060,3997730,333.746,25.44,97380.0,1.15704
840168800,840148635,3997730,334.37,25.44,97372.8,1.15695
840380017,840362286,3997730,333.981,25.44,97377.3,1.157
840601115,840578365,3997730,333.981,25.44,97377.3,1.157
840761962,840739297,3997730,333.939,25.44,97377.8,1.15701
840973207,840953053,3997730,333.854,25.44,97378.8,1.15702
841184354,841166697,3997730,333.81,25.44,97379.3,1.15703
841345316,841327666,3997730,333.876,25.44,97378.5,1.15702
841566594,841543913,3997730,334.261,25.44,97374.0,1.15696
841777682,841757545,3997730,333.876,25.45,97378.5,1.15702
841988754,841971128,3997730,334.005,25.45,97377.0,1.157
842149604,842131953,3997730,334.068,25.44,97376.3,1.15699
842370713,842348049,3997730,334.37,25.44,97372.8,1.15695
842581673,842561529,3997730,334.198,25.44,97374.8,1.15697
842752643,842728352,3997730,334.193,25.44,97374.8,1.15697
842973743,842951062,3997730,333.788,25.45,97379.5,1.15703
843185106,843164878,3997730,334.026,25.44,97376.7,1.157
843396108,843378470,3997730,333.918,25.45,97378.0,1.15701
843556915,843539258,3997730,334.433,25.45,97372.0,1.15694
843778080,843755355,3997730,334.09,25.45,97376.0,1.15699
843989254,843968970,3997730,334.005,25.45,97377.0,1.157
844200220,844182534,3997730,333.532,25.45,97382.5,1.15707
844361127,844343435,3997730,333.96,25.45,97377.5,1.15701
844592577,844572352,3997730,333.939,25.45,97377.8,1.15701
844803602,844785928,3997730,333.833,25.45,97379.0,1.15702
844964571,844946861,3997730,333.683,25.45,97380.8,1.15704
845185736,845163090,3997730,333.617,25.45,97381.5,1.15705
845396878,845376691,3997730,334.177,25.45,97375.0,1.15698
845557686,845537562,3997730,333.788,25.45,97379.5,1.15703
845768835,845751206,3997730,333.704,25.45,97380.5,1.15704
845990209,845967371,3997730,333.595,25.45,97381.8,1.15706
846201362,846181144,3997730,333.553,25.45,97382.2,1.15706
846362550,846341963,3997730,333.876,25.45,97378.5,1.15702
846573382,846555735,3997730,333.767,25.45,97379.8,1.15703
846794540,846771884,3997730,333.617,25.45,97381.5,1.15705
846955593,846932834,3997730,334.005,25.45,97377.0,1.157
847166944,847146637,3997730,333.511,25.46,97382.7,1.15707
847377895,847360277,3997730,333.704,25.45,97380.5,1.15704
847598999,847576361,3997730,333.788,25.46,97379.5,1.15703
847760038,847737300,3997730,333.767,25.46,97379.8,1.15703
847971094,847950960,3997730,333.767,25.46,97379.8,1.15703
848182413,848164788,3997730,333.81,25.46,97379.3,1.15703
848403604,848380932,3997730,333.574,25.46,97382.0,1.15706
848564499,848541770,3997730,333.876,25.46,97378.5,1.15702
848775575,848755443,3997730,333.466,25.46,97383.3,1.15707
848986683,848969055,3997730,333.511,25.46,97382.8,1.15707
849147553,849129845,3997730,333.725,25.46,97380.3,1.15704
849368535,849345847,3997730,333.445,25.46,97383.5,1.15708
849579866,849559501,3997730,333.595,25.46,97381.8,1.15706
849790762,849773112,3997730,333.617,25.46,97381.5,1.15705
849951617,849933931,3997730,333.981,25.46,97377.3,1.157
850172881,850150186,3997730,333.403,25.47,97384.0,1.15708
850384184,850363916,3997730,333.746,25.47,97380.0,1.15704
850595118,850577500,3997730,333.746,25.46,97380.0,1.15704
850755975,850738265,3997730,333.595,25.46,97381.8,1.15706
850977091,850954433,3997730,333.81,25.46,97379.3,1.15703
851188559,851168152,3997730,334.005,25.46,97377.0,1.157
851399670,851381938,3997730,333.469,25.47,97383.2,1.15707
851560632,851542989,3997730,333.833,25.47,97379.0,1.15702
851781839,851759149,3997730,333.532,25.47,97382.5,1.15707
851993148,851972730,3997730,333.939,25.47,97377.8,1.15701
852204142,852186387,3997730,333.683,25.47,97380.8,1.15704
852364825,852347187,3997730,333.897,25.47,97378.3,1.15701
852585910,852563244,3997730,333.553,25.47,97382.3,1.15706
852796833,852776720,3997730,333.833,25.47,97379.0,1.15702
852957655,852937497,3997730,333.49,25.47,97383.0,1.15707
853168793,853151172,3997730,333.918,25.47,97378.0,1.15701
853390131,853367462,3997730,333.574,25.47,97382.0,1.15706
853601301,853581105,3997730,333.96,25.47,97377.5,1.15701
853762221,853741984,3997730,333.939,25.47,97377.8,1.15701
853973330,853955653,3997730,333.788,25.47,97379.5,1.15703
854194409,854171741,3997730,333.767,25.47,97379.8,1.15703
854405625,854385417,3997730,333.981,25.47,97377.3,1.157
854576583,854552365,3997730,334.055,25.47,97376.4,1.15699
854797781,854775078,3997730,334.283,25.47,97373.8,1.15696
854958454,854935780,3997730,334.24,25.47,97374.3,1.15697
855169492,855149365,3997730,333.876,25.47,97378.5,1.15702
855400925,855370581,3997730,333.868,25.47,97378.6,1.15702
855561756,855539128,3997730,334.132,25.48,97375.5,1.15698
855773028,855752672,3997730,333.704,25.48,97380.5,1.15704
855984023,855966391,3997730,334.24,25.48,97374.3,1.15697
856205123,856182489,3997730,333.511,25.48,97382.8,1.15707
856366018,856343367,3997730,333.854,25.48,97378.8,1.15702
856577086,856556929,3997730,333.939,25.48,97377.8,1.15701
856788334,856770702,3997730,333.662,25.48,97381.0,1.15705
856949763,856931537,3997730,333.876,25.48,97378.5,1.15702
857180443,857160207,3997730,333.833,25.48,97379.0,1.15702
857391571,857373919,3997730,333.939,25.48,97377.8,1.15701
857552475,857534774,3997730,333.532,25.48,97382.5,1.15707
857773706,857751071,3997730,333.574,25.48,97382.0,1.15706
857984707,857964559,3997730,333.981,25.48,97377.3,1.157
858196130,858178179,3997730,333.574,25.48,97382.0,1.15706
858356860,858339104,3997730,334.026,25.48,97376.7,1.157
858578377,858555305,3997730,333.788,25.48,97379.5,1.15703
858789042,858768877,3997730,333.788,25.48,97379.5,1.15703
859000653,858982562,3997730,333.532,25.48,97382.5,1.15707
859161087,859143406,3997730,333.897,25.48,97378.3,1.15701
859382421,859359684,3997730,333.788,25.48,97379.5,1.15703
859593533,859573367,3997730,334.198,25.48,97374.8,1.15697
859804616,859786964,3997730,333.833,25.48,97379.0,1.15702
859965534,859947803,3997730,333.704,25.49,97380.5,1.15704
860186890,860164153,3997730,333.939,25.49,97377.8,1.15701
860397939,860377718,3997730,333.96,25.49,97377.5,1.15701
860558781,860538649,3997730,334.068,25.48,97376.3,1.15699
860770127,860752423,3997730,333.81,25.48,97379.3,1.15703
860991547,860968736,3997730,333.683,25.49,97380.8,1.15704
861202560,861182364,3997730,333.833,25.49,97379.0,1.15702
861363359,861343172,3997730,334.132,25.49,97375.5,1.15698
861574463,861556749,3997730,334.09,25.48,97376.0,1.15699
861795388,861772734,3997730,333.854,25.49,97378.8,1.15702
861966286,861946106,3997730,333.767,25.49,97379.8,1.15703
862177422,862159749,3997730,333.81,25.49,97379.3,1.15703
862398491,862375852,3997730,333.683,25.49,97380.8,1.15704
862559346,862536612,3997730,333.939,25.49,97377.8,1.15701
862770578,862750333,3997730,334.09,25.49,97376.0,1.15699
862981657,862963972,3997730,334.111,25.49,97375.8,1.15699
863162559,863132351,3997730,334.055,25.49,97376.4,1.15699
863373705,863353473,3997730,334.068,25.49,97376.3,1.15699
863584995,863567272,3997730,333.918,25.49,97378.0,1.15701
863745661,863727981,3997730,333.704,25.5,97380.5,1.15704
863966830,863944183,3997730,333.897,25.5,97378.3,1.15701
864177836,864157720,3997730,334.433,25.5,97372.0,1.15694
864339133,864318459,3997730,333.725,25.49,97380.3,1.15704
864569784,864547160,3997730,333.833,25.5,97379.0,1.15702
864780960,864760783,3997730,333.981,25.5,97377.3,1.157
864992228,864974592,3997730,334.391,25.49,97372.5,1.15695
865153504,865135388,3997730,333.981,25.5,97377.3,1.157
865374115,865351475,3997730,334.177,25.5,97375.0,1.15698
865585238,865565069,3997730,334.132,25.49,97375.5,1.15698
865796337,865778681,3997730,333.833,25.5,97379.0,1.15702
865957390,865939497,3997730,333.746,25.5,97380.0,1.15704
866178370,866155711,3997730,333.595,25.5,97381.8,1.15706
866390143,866369357,3997730,334.09,25.5,97376.0,1.15699
866560351,866542724,3997730,334.068,25.5,97376.2,1.15699
866781784,866758958,3997730,333.96,25.5,97377.5,1.15701
866992894,866972740,3997730,333.876,25.5,97378.5,1.15702
867203944,867186284,3997730,334.177,25.5,97375.0,1.15698
867364693,867347054,3997730,334.219,25.5,97374.5,1.15697
867586085,867563310,3997730,333.81,25.51,97379.3,1.15703
867797145,867776867,3997730,333.854,25.5,97378.8,1.15702
867957783,867937608,3997730,334.304,25.51,97373.5,1.15696
868169015,868151371,3997730,333.876,25.5,97378.5,1.15702
868390213,868367579,3997730,333.939,25.51,97377.8,1.15701
868601488,868581237,3997730,334.177,25.5,97375.0,1.15698
868762248,868742072,3997730,334.219,25.5,97374.5,1.15697
868973551,868955911,3997730,333.876,25.51,97378.5,1.15702
869194709,869172083,3997730,334.005,25.5,97377.0,1.157
869355638,869332967,3997730,333.854,25.5,97378.8,1.15702
869566630,869546478,3997730,333.788,25.51,97379.5,1.15703
869777877,869760256,3997730,334.156,25.51,97375.3,1.15698
869999304,869976570,3997730,333.746,25.51,97380.0,1.15704
870170087,870149971,3997730,334.219,25.51,97374.5,1.15697
870381243,870363515,3997730,333.704,25.51,97380.5,1.15704
870602303,870579649,3997730,334.068,25.51,97376.3,1.15699
870763302,870740517,3997730,333.897,25.51,97378.3,1.15701
870974369,870954210,3997730,334.304,25.51,97373.5,1.15696
871185434,871167773,3997730,333.662,25.51,97381.0,1.15705
871366376,871336084,3997730,334.245,25.51,97374.2,1.15697
871577482,871557354,3997730,333.704,25.51,97380.5,1.15704
871748467,871724246,3997730,333.746,25.51,97380.0,1.15704
871969648,871946926,3997730,333.595,25.51,97381.8,1.15706
872180987,872160659,3997730,333.96,25.51,97377.5,1.15701
872392160,872374445,3997730,333.876,25.51,97378.5,1.15702
872553132,872535409,3997730,333.788,25.51,97379.5,1.15703
872774346,872751568,3997730,334.198,25.51,97374.8,1.15697
872985501,872965208,3997730,334.327,25.51,97373.3,1.15696
873196447,873178784,3997730,333.788,25.51,97379.5,1.15703
873357231,873339611,3997730,333.833,25.51,97379.0,1.15702
873578358,873555693,3997730,334.177,25.51,97375.0,1.15698
873789758,873769459,3997730,333.981,25.51,97377.3,1.157
874000774,873983134,3997730,334.219,25.52,97374.5,1.15697
874161694,874143946,3997730,333.638,25.51,97381.3,1.15705
874382777,874360160,3997730,334.047,25.51,97376.5,1.15699
874603950,874579760,3997730,334.245,25.51,97374.2,1.15697
874764823,874747187,3997730,333.981,25.51,97377.3,1.157
874986148,874963476,3997730,333.833,25.52,97379.0,1.15702
875197097,875176977,3997730,334.09,25.52,97376.0,1.15699
875408205,875390474,3997730,333.683,25.52,97380.8,1.15704
875569025,875551365,3997730,334.111,25.52,97375.8,1.15699
875790728,875767397,3997730,333.96,25.51,97377.5,1.15701
875961250,875941001,3997730,334.219,25.52,97374.5,1.15697
876172832,876154743,3997730,334.068,25.51,97376.3,1.15699
876403765,876383577,3997730,333.876,25.52,97378.5,1.15702
876564658,876544388,3997730,334.111,25.52,97375.8,1.15699
876775797,876758059,3997730,334.156,25.52,97375.3,1.15698
876996922,876974244,3997730,333.854,25.52,97378.8,1.15702
877158012,877135280,3997730,334.047,25.52,97376.5,1.15699
877369865,877348944,3997730,333.897,25.52,97378.3,1.15701
877600509,877577886,3997730,333.854,25.52,97378.8,1.15702
877761467,877738682,3997730,333.981,25.52,97377.3,1.157
877982604,877964890,3997730,333.617,25.52,97381.5,1.15705
878203785,878181106,3997730,334.026,25.52,97376.7,1.157
878364599,878341928,3997730,334.026,25.52,97376.7,1.157
878575737,878555496,3997730,333.704,25.52,97380.5,1.15704
878786683,878769035,3997730,333.897,25.52,97378.3,1.15701
878947545,878929909,3997730,333.553,25.52,97382.3,1.15706
879168839,879146170,3997730,333.511,25.52,97382.8,1.15707
879379925,879359777,3997730,333.81,25.52,97379.3,1.15703
879591354,879573591,3997730,334.047,25.52,97376.5,1.15699
879752072,879734427,3997730,333.617,25.52,97381.5,1.15705
879983494,879963230,3997730,333.939,25.52,97377.8,1.15701
880194539,880176798,3997730,333.746,25.52,97380.0,1.15704
880355499,880337822,3997730,333.553,25.52,97382.3,1.15706
880576655,880553975,3997730,334.24,25.52,97374.3,1.15697
880787805,880767681,3997730,333.96,25.53,97377.5,1.15701
880999270,880981498,3997730,333.81,25.52,97379.3,1.15703
881160001,881142350,3997730,333.833,25.53,97379.0,1.15702
881381202,881358513,3997730,334.09,25.52,97376.0,1.15699
881592472,881572272,3997730,333.638,25.52,97381.3,1.15705
881803487,881785866,3997730,333.918,25.52,97378.0,1.15701
881964483,881946805,3997730,333.833,25.53,97379.0,1.15702
882185624,882162932,3997730,333.833,25.53,97379.0,1.15702
882397018,882376678,3997730,333.767,25.52,97379.8,1.15703
882557702,882537555,3997730,333.939,25.52,97377.8,1.15701
882768835,882751207,3997730,333.746,25.52,97380.0,1.15704
882990007,882967324,3997730,333.833,25.53,97379.0,1.15702
883201154,883180987,3997730,333.683,25.52,97380.8,1.15704
883362095,883341914,3997730,334.026,25.53,97376.8,1.157
883573137,883555483,3997730,333.981,25.52,97377.3,1.157
883794233,883771573,3997730,333.662,25.52,97381.0,1.15705
884005470,883985359,3997730,333.81,25.52,97379.3,1.15703
884166366,884146095,3997730,334.261,25.53,97374.0,1.15696
884377303,884359619,3997730,334.026,25.52,97376.8,1.157
884598587,884575796,3997730,334.24,25.52,97374.3,1.15697
884759266,884736600,3997730,334.047,25.53,97376.5,1.15699
884970593,884950374,3997730,334.177,25.52,97375.0,1.15698
885181704,885164067,3997730,333.981,25.53,97377.3,1.157
885403010,885380305,3997730,334.327,25.53,97373.3,1.15696
885563968,885541286,3997730,334.327,25.52,97373.3,1.15696
885775046,885754857,3997730,333.854,25.53,97378.8,1.15702
885986135,885968433,3997730,333.574,25.53,97382.0,1.15706
886146932,886129312,3997730,334.24,25.53,97374.3,1.15697
886368174,886345323,3997730,334.005,25.53,97377.0,1.157
886589156,886571477,3997730,333.854,25.53,97378.8,1.15702
886750331,886732478,3997730,333.833,25.53,97379.0,1.15702
886981252,886961129,3997730,333.939,25.53,97377.8,1.15701
887192496,887174862,3997730,333.725,25.53,97380.3,1.15704
887353342,887335697,3997730,333.897,25.53,97378.3,1.15701
887574500,887551817,3997730,333.897,25.53,97378.3,1.15701
887785461,887765316,3997730,333.788,25.53,97379.5,1.15703
887996651,887979044,3997730,333.595,25.53,97381.8,1.15706
888157498,888139738,3997730,333.445,25.52,97383.5,1.15708
888378656,888355874,3997730,333.574,25.53,97382.0,1.15706
888589689,888569443,3997730,333.746,25.53,97380.0,1.15704
888800794,888783071,3997730,333.833,25.53,97379.0,1.15702
888961668,888944044,3997730,333.876,25.53,97378.5,1.15702
889182748,889160102,3997730,333.49,25.53,97383.0,1.15707
889394128,889373868,3997730,333.683,25.53,97380.8,1.15704
889605416,889587542,3997730,333.81,25.53,97379.3,1.15703
889766198,889748572,3997730,333.788,25.53,97379.5,1.15703
889987240,889964614,3997730,333.854,25.53,97378.8,1.15702
890198607,890178275,3997730,333.662,25.53,97381.0,1.15705
890359277,890339120,3997730,333.81,25.53,97379.3,1.15703
890570477,890552821,3997730,334.047,25.53,97376.5,1.15699
890791459,890768842,3997730,333.897,25.54,97378.3,1.15701
890962454,890942245,3997730,333.725,25.53,97380.3,1.15704
891173489,891155872,3997730,333.617,25.53,97381.5,1.15705
891394702,891372040,3997730,333.876,25.53,97378.5,1.15702
891555610,891532820,3997730,333.704,25.53,97380.5,1.15704
891766888,891746607,3997730,333.788,25.53,97379.5,1.15703
891977915,891960300,3997730,333.704,25.53,97380.5,1.15704
892158950,892128620,3997730,333.521,25.53,97382.6,1.15707
892370115,892349896,3997730,333.767,25.53,97379.8,1.15703
892581274,892563497,3997730,333.746,25.53,97380.0,1.15704
892802483,892779824,3997730,333.725,25.54,97380.3,1.15704
892963295,892940600,3997730,333.876,25.53,97378.5,1.15702
893174383,893154122,3997730,333.81,25.54,97379.3,1.15703
893385381,893367696,3997730,333.617,25.53,97381.5,1.15705
893606625,893583952,3997730,333.788,25.53,97379.5,1.15703
893767479,893744836,3997730,333.939,25.54,97377.8,1.15701
893978627,893958500,3997730,333.617,25.53,97381.5,1.15705
894139997,894119388,3997730,333.704,25.53,97380.5,1.15704
894370708,894348052,3997730,333.704,25.53,97380.5,1.15704
894591880,894567670,3997730,333.918,25.53,97378.0,1.15701
894752628,894734976,3997730,333.511,25.53,97382.8,1.15707
894973837,894951184,3997730,333.725,25.54,97380.3,1.15704
895184833,895164674,3997730,333.532,25.53,97382.5,1.15707
895396155,895378364,3997730,333.445,25.54,97383.5,1.15708
895556993,895539214,3997730,333.273,25.53,97385.5,1.1571
895778414,895755443,3997730,333.424,25.54,97383.8,1.15708
895999241,895981625,3997730,333.617,25.53,97381.5,1.15705
896160259,896142445,3997730,333.704,25.53,97380.5,1.15704
896381289,896358529,3997730,333.897,25.54,97378.3,1.15701
896592441,896572099,3997730,333.704,25.53,97380.5,1.15704
896803571,896785882,3997730,333.595,25.53,97381.8,1.15706
896964308,896946653,3997730,333.939,25.53,97377.8,1.15701
897185520,897162767,3997730,333.767,25.54,97379.8,1.15703
897396809,897376463,3997730,334.261,25.54,97374.0,1.15696
897557743,897537562,3997730,333.511,25.54,97382.8,1.15707
897768752,897751109,3997730,334.09,25.53,97376.0,1.15699
897999994,897979795,3997730,333.918,25.53,97378.0,1.15701
898160768,898140619,3997730,333.854,25.54,97378.8,1.15702
898371941,898354311,3997730,334.156,25.53,97375.3,1.15698
898593021,898570378,3997730,334.111,25.54,97375.8,1.15699
898804174,898784034,3997730,334.09,25.54,97376.0,1.15699
898965135,898944981,3997730,333.897,25.53,97378.3,1.15701
899176458,899158809,3997730,334.283,25.53,97373.8,1.15696
899397436,899374816,3997730,334.24,25.54,97374.3,1.15697
899568518,899548364,3997730,333.918,25.54,97378.0,1.15701
899779705,899762024,3997730,334.047,25.54,97376.5,1.15699
900001093,899978464,3997730,334.261,25.54,97374.0,1.15696
900162003,900139306,3997730,333.897,25.54,97378.3,1.15701
900373000,900352804,3997730,333.746,25.53,97380.0,1.15704
900584002,900566367,3997730,333.511,25.54,97382.8,1.15707
900805281,900782534,3997730,333.638,25.54,97381.3,1.15705
900966024,900943279,3997730,333.553,25.54,97382.3,1.15706
901177039,901156797,3997730,333.403,25.54,97384.0,1.15708
901388077,901370383,3997730,333.595,25.54,97381.8,1.15706
901548819,901531198,3997730,333.704,25.54,97380.5,1.15704
901769925,901747287,3997730,333.746,25.54,97380.0,1.15704
901991259,901966950,3997730,334.037,25.54,97376.6,1.157
902151980,902134343,3997730,333.662,25.54,97381.0,1.15705
902373303,902350564,3997730,333.617,25.53,97381.5,1.15705
902584402,902564273,3997730,333.207,25.54,97386.3,1.15711
902745969,902725151,3997730,333.662,25.54,97381.0,1.15705
902986614,902966407,3997730,334.026,25.54,97376.8,1.157
903148137,903127338,3997730,333.662,25.54,97381.0,1.15705
903388813,903368650,3997730,333.683,25.54,97380.8,1.15704
903599982,903582227,3997730,333.746,25.54,97380.0,1.15704
903760984,903743342,3997730,333.897,25.54,97378.3,1.15701
903982446,903959549,3997730,333.617,25.54,97381.5,1.15705
904193481,904173289,3997730,333.662,25.54,97381.0,1.15705
904404687,904387032,3997730,333.746,25.54,97380.0,1.15704
904565603,904547913,3997730,333.981,25.54,97377.3,1.157
904786888,904764223,3997730,333.595,25.54,97381.8,1.15706
904997958,904977818,3997730,333.662,25.54,97381.0,1.15705
905158811,905138696,3997730,333.64,25.54,97381.2,1.15705
905369916,905352292,3997730,333.96,25.54,97377.5,1.15701
905591180,905568294,3997730,333.897,25.54,97378.3,1.15701
905802173,905782019,3997730,333.532,25.54,97382.5,1.15707
905963038,905942841,3997730,333.746,25.54,97380.0,1.15704
906174285,906156607,3997730,333.683,25.54,97380.8,1.15704
906395671,906372643,3997730,333.833,25.54,97379.0,1.15702
906566483,906546131,3997730,333.854,25.54,97378.8,1.15702
906777482,906759674,3997730,333.617,25.54,97381.5,1.15705
906958216,906935594,3997730,333.574,25.54,97382.0,1.15706
907169330,907149170,3997730,333.833,25.54,97379.0,1.15702
907400692,907377956,3997730,334.005,25.54,97377.0,1.157
907561630,907538863,3997730,333.704,25.54,97380.5,1.15704
907772817,907752661,3997730,333.788,25.54,97379.5,1.15703
907984220,907966360,3997730,333.683,25.54,97380.8,1.15704
908145030,908127384,3997730,333.788,25.54,97379.5,1.15703
908366163,908343437,3997730,333.381,25.54,97384.3,1.15709
908577216,908557078,3997730,333.252,25.54,97385.7,1.1571
908788305,908770647,3997730,333.617,25.55,97381.5,1.15705
908949230,908931612,3997730,333.445,25.54,97383.5,1.15708
909170375,909147715,3997730,333.683,25.54,97380.8,1.15704
909381663,909361504,3997730,333.725,25.55,97380.3,1.15704
909593152,909575336,3997730,334.005,25.55,97377.0,1.157
909753884,909736243,3997730,333.553,25.55,97382.3,1.15706
909974962,909952286,3997730,333.574,25.55,97382.0,1.15706
910186159,910166000,3997730,333.532,25.54,97382.5,1.15707
910397638,910379791,3997730,333.918,25.54,97378.0,1.15701
910558384,910540750,3997730,334.005,25.55,97377.0,1.157
910779603,910756935,3997730,333.574,25.55,97382.0,1.15706
910990878,910970592,3997730,333.746,25.55,97380.0,1.15704
911202237,911184431,3997730,333.725,25.55,97380.3,1.15704
911363096,911345376,3997730,333.553,25.55,97382.3,1.15706
911584168,911561469,3997730,333.833,25.55,97379.0,1.15702
911795398,911775231,3997730,333.704,25.55,97380.5,1.15704
912006640,911988836,3997730,333.939,25.55,97377.8,1.15701
912167371,912149727,3997730,333.746,25.55,97380.0,1.15704
912388593,912365928,3997730,334.068,25.55,97376.3,1.15699
912599882,912579665,3997730,333.788,25.55,97379.5,1.15703
912760591,912740475,3997730,333.767,25.55,97379.8,1.15703
912971745,912954092,3997730,333.939,25.55,97377.8,1.15701
913193032,913170344,3997730,333.897,25.55,97378.3,1.15701
913404204,913384064,3997730,333.897,25.55,97378.3,1.15701
913565102,913544954,3997730,333.96,25.55,97377.5,1.15701
913776334,913758711,3997730,334.026,25.55,97376.7,1.157
913997623,913974926,3997730,333.746,25.55,97380.0,1.15704
914158575,914135887,3997730,333.746,25.55,97380.0,1.15704
914369771,914349654,3997730,334.047,25.55,97376.5,1.15699
914580909,914563285,3997730,333.854,25.56,97378.8,1.15702
914802124,914779494,3997730,333.574,25.55,97382.0,1.15706
914962957,914940302,3997730,333.595,25.56,97381.7,1.15706
915174162,915154011,3997730,333.876,25.56,97378.5,1.15702
915385397,915367644,3997730,333.81,25.55,97379.3,1.15703
915546304,915528602,3997730,333.595,25.55,97381.7,1.15706
915767309,915744623,3997730,333.511,25.56,97382.8,1.15707
915978401,915958192,3997730,334.068,25.56,97376.3,1.15699
916149393,916125115,3997730,333.936,25.56,97377.8,1.15701
916370385,916347693,3997730,333.833,25.56,97379.0,1.15702
916581675,916561450,3997730,333.918,25.56,97378.0,1.15701
916792837,916775131,3997730,333.876,25.56,97378.5,1.15702
916953551,916935924,3997730,334.005,25.56,97377.0,1.157
917174869,917152137,3997730,333.704,25.56,97380.5,1.15704
917385966,917365799,3997730,333.725,25.56,97380.3,1.15704
917597168,917579452,3997730,333.876,25.56,97378.5,1.15702
917758035,917740370,3997730,334.047,25.56,97376.5,1.15699
917979323,917956600,3997730,334.198,25.56,97374.8,1.15697
918190392,918170145,3997730,333.595,25.56,97381.8,1.15706
918401425,918383790,3997730,333.767,25.56,97379.8,1.15703
918562296,918544617,3997730,334.047,25.56,97376.5,1.15699
918783400,918760772,3997730,333.876,25.56,97378.5,1.15702
918994522,918974381,3997730,333.788,25.56,97379.5,1.15703
919205689,919188041,3997730,334.261,25.56,97374.0,1.15696
919366748,919348894,3997730,333.939,25.56,97377.8,1.15701
919587789,919565173,3997730,334.026,25.56,97376.8,1.157
919749306,919725979,3997730,334.177,25.56,97375.0,1.15698
919969890,919952282,3997730,333.981,25.56,97377.3,1.157
920191040,920168382,3997730,333.918,25.56,97378.0,1.15701
920402124,920381977,3997730,334.24,25.56,97374.3,1.15697
920562746,920542607,3997730,334.132,25.56,97375.5,1.15698
920773859,920756173,3997730,333.897,25.56,97378.3,1.15701
920995063,920972301,3997730,333.96,25.56,97377.5,1.15701
921155944,921133260,3997730,333.833,25.56,97379.0,1.15702
921366981,921346848,3997730,334.068,25.56,97376.3,1.15699
921578099,921560446,3997730,334.156,25.56,97375.3,1.15698
921799098,921776477,3997730,333.833,25.57,97379.0,1.15702
921960082,921937363,3997730,334.068,25.56,97376.3,1.15699
922171231,922151089,3997730,334.327,25.57,97373.3,1.15696
922382522,922364868,3997730,334.156,25.56,97375.3,1.15698
922603799,922581042,3997730,333.788,25.56,97379.5,1.15703
922764626,922741994,3997730,333.788,25.56,97379.5,1.15703
922975828,922955690,3997730,334.499,25.56,97371.3,1.15693
923186934,923169268,3997730,333.746,25.57,97380.0,1.15704
923347988,923330270,3997730,333.767,25.57,97379.8,1.15703
923569129,923546490,3997730,334.09,25.57,97376.0,1.15699
923780376,923760168,3997730,333.939,25.57,97377.8,1.15701
923991644,923974025,3997730,334.068,25.57,97376.3,1.15699
924152504,924134826,3997730,334.068,25.57,97376.2,1.15699
924373566,924350941,3997730,333.662,25.57,97381.0,1.15705
924584606,924564466,3997730,333.96,25.57,97377.5,1.15701
924795939,924778291,3997730,333.981,25.57,97377.3,1.157
924957041,924939316,3997730,333.532,25.57,97382.5,1.15707
925178133,925155506,3997730,333.595,25.57,97381.8,1.15706
925389201,925369033,3997730,333.746,25.57,97380.0,1.15704
925600381,925582678,3997730,333.683,25.57,97380.8,1.15704
925761304,925743581,3997730,333.833,25.57,97379.0,1.15702
925982567,925959921,3997730,334.068,25.57,97376.2,1.15699
926193671,926173489,3997730,333.854,25.57,97378.8,1.15702
926404820,926387202,3997730,333.788,25.57,97379.5,1.15703
926565777,926548025,3997730,333.833,25.57,97379.0,1.15702
926786752,926764099,3997730,333.469,25.57,97383.2,1.15707
926997806,926977655,3997730,333.403,25.57,97384.0,1.15708
927168736,927144470,3997730,333.521,25.57,97382.6,1.15707
927389973,927367197,3997730,333.189,25.57,97386.5,1.15711
927601178,927580911,3997730,333.617,25.57,97381.5,1.15705
927761934,927741722,3997730,333.49,25.57,97383.0,1.15707
927972965,927955326,3997730,333.617,25.57,97381.5,1.15705
928194022,928171387,3997730,333.897,25.57,97378.3,1.15701
928355073,928332393,3997730,333.638,25.57,97381.3,1.15705
928566308,928546026,3997730,333.294,25.58,97385.3,1.1571
928777391,928759760,3997730,333.64,25.57,97381.2,1.15705
928998480,928975855,3997730,333.337,25.57,97384.8,1.15709
929159781,929136762,3997730,333.403,25.57,97384.0,1.15708
929370559,929350377,3997730,333.939,25.57,97377.8,1.15701
929582037,929564055,3997730,333.96,25.57,97377.5,1.15701
929802783,929780161,3997730,333.381,25.58,97384.3,1.15709
929963660,929940952,3997730,333.445,25.57,97383.5,1.15708
930184807,930167197,3997730,333.725,25.57,97380.3,1.15704
930405939,930383223,3997730,333.746,25.57,97380.0,1.15704
930566780,930544080,3997730,333.854,25.58,97378.8,1.15702
930777728,930757595,3997730,333.939,25.57,97377.8,1.15701
930988876,930971116,3997730,333.725,25.57,97380.3,1.15704
931149701,931132060,3997730,333.49,25.58,97383.0,1.15707
931370809,931348190,3997730,333.318,25.57,97385.0,1.15709
931581800,931561666,3997730,333.725,25.58,97380.3,1.15704
931752587,931728433,3997730,333.334,25.58,97384.8,1.15709
931973852,931951200,3997730,333.638,25.58,97381.3,1.15705
932185127,932164975,3997730,333.746,25.57,97380.0,1.15704
932396289,932378582,3997730,333.511,25.58,97382.8,1.15707
932557119,932539467,3997730,333.767,25.58,97379.8,1.15703
932778315,932755606,3997730,333.424,25.57,97383.8,1.15708
932989315,932969138,3997730,333.595,25.57,97381.8,1.15706
933200461,933182789,3997730,333.683,25.57,97380.8,1.15704
933361354,933343685,3997730,333.788,25.58,97379.5,1.15703
933582469,933559745,3997730,333.553,25.58,97382.3,1.15706
933793681,933773434,3997730,333.469,25.58,97383.2,1.15707
933954500,933934314,3997730,333.659,25.58,97381.0,1.15705
934185841,934155449,3997730,333.78,25.58,97379.6,1.15703
934396970,934376800,3997730,334.09,25.58,97376.0,1.15699
934568023,934543634,3997730,333.918,25.58,97378.0,1.15701
934789281,934766464,3997730,333.918,25.58,97378.0,1.15701
934950249,934927372,3997730,334.047,25.58,97376.5,1.15699
935171008,935153390,3997730,333.81,25.58,97379.3,1.15703
935392477,935369725,3997730,333.683,25.58,97380.8,1.15704
935603673,935583454,3997730,333.638,25.58,97381.3,1.15705
935764366,935744220,3997730,333.574,25.58,97382.0,1.15706
935975323,935957662,3997730,333.725,25.58,97380.3,1.15704
936196548,936173878,3997730,333.704,25.58,97380.5,1.15704
936357402,936334744,3997730,333.918,25.58,97378.0,1.15701
936568983,936548324,3997730,333.788,25.58,97379.5,1.15703
936799713,936777088,3997730,334.026,25.58,97376.8,1.157
936960640,936937809,3997730,334.047,25.58,97376.5,1.15699
937171616,937151451,3997730,333.939,25.58,97377.8,1.15701
937382857,937365004,3997730,333.683,25.58,97380.8,1.15704
937603823,937581185,3997730,333.574,25.58,97382.0,1.15706
937764527,937741897,3997730,333.854,25.58,97378.8,1.15702
937975670,937955496,3997730,333.595,25.58,97381.8,1.15706
938186787,938169123,3997730,333.767,25.58,97379.8,1.15703
938347732,938330089,3997730,333.595,25.58,97381.8,1.15706
938568924,938546266,3997730,334.005,25.58,97377.0,1.157
938789989,938772351,3997730,333.981,25.58,97377.3,1.157
938950844,938933146,3997730,333.981,25.58,97377.3,1.157
939172031,939149326,3997730,333.725,25.58,97380.3,1.15704
939383018,939362877,3997730,334.304,25.58,97373.5,1.15696
939594141,939576475,3997730,333.981,25.58,97377.3,1.157
939755083,939737254,3997730,333.897,25.58,97378.3,1.15701
939976151,939953479,3997730,333.595,25.58,97381.7,1.15706
940187215,940166965,3997730,333.876,25.58,97378.5,1.15702
940398369,940380608,3997730,333.662,25.58,97381.0,1.15705
940559051,940541411,3997730,333.617,25.58,97381.5,1.15705
940780241,940757465,3997730,333.981,25.58,97377.3,1.157
940991332,940971099,3997730,334.177,25.59,97375.0,1.15698
941202643,941184909,3997730,334.111,25.58,97375.8,1.15699
941363470,941345847,3997730,333.767,25.58,97379.8,1.15703
941584545,941561909,3997730,333.939,25.58,97377.8,1.15701
941795789,941775560,3997730,334.177,25.59,97375.0,1.15698
941956755,941936571,3997730,333.897,25.59,97378.3,1.15701
942167828,942150202,3997730,333.897,25.58,97378.3,1.15701
942388902,942366227,3997730,333.704,25.58,97380.5,1.15704
942599892,942579744,3997730,333.553,25.58,97382.3,1.15706
942760876,942740527,3997730,334.09,25.59,97376.0,1.15699
942971836,942954172,3997730,333.767,25.59,97379.8,1.15703
943193156,943170372,3997730,333.876,25.59,97378.5,1.15702
943404252,943384107,3997730,333.918,25.59,97378.0,1.15701
943565209,943544894,3997730,334.047,25.58,97376.5,1.15699
943776227,943758548,3997730,333.662,25.58,97381.0,1.15705
943998128,943974744,3997730,333.767,25.58,97379.8,1.15703
944168605,944148274,3997730,333.767,25.59,97379.8,1.15703
944379573,944361820,3997730,334.068,25.59,97376.3,1.15699
944600672,944577898,3997730,333.746,25.58,97380.0,1.15704
944761394,944738763,3997730,333.638,25.59,97381.3,1.15705
944972580,944952336,3997730,333.746,25.59,97380.0,1.15704
