timestamp,ref_timestamp,ref_lat,ref_lon,x,y,z,delta_xy[0],delta_xy[1],delta_z,vx,vy,vz,z_deriv,delta_vxy[0],delta_vxy[1],delta_vz,ax,ay,az,heading,delta_heading,ref_alt,dist_bottom,eph,epv,evh,evv,vxy_max,vz_max,hagl_min,hagl_max,xy_valid,z_valid,v_xy_valid,v_z_valid,xy_reset_counter,z_reset_counter,vxy_reset_counter,vz_reset_counter,heading_reset_counter,xy_global,z_global,dist_bottom_valid
741396389,45740663,34.0343871,108.7550961,-53.1284,0.314662,-0.67652,-0.0184797,-0.00609138,0.0,-0.00914814,0.0111475,0.00950701,0.0189907,-0.0305491,-0.0243513,-1.24288,0.0577037,-0.166689,-0.0806887,3.09698,-0.174389,433.21,0.1,0.277656,0.388337,0.138686,0.0964427,inf,inf,inf,inf,1,1,1,1,2,0,2,1,5,1,1,1
741406319,45740663,34.0343871,108.7550961,-53.1287,0.314595,-0.6765,-0.0184797,-0.00609138,0.0,-0.0104455,0.0114227,0.00972725,0.0190265,-0.0305491,-0.0243513,-1.24288,0.0393636,0.214219,-0.0498004,3.09735,-0.174389,433.21,0.1,0.278595,0.38896,0.139147,0.0965947,inf,inf,inf,inf,1,1,1,1,2,0,2,1,5,1,1,1
741599989,45740663,34.0343871,108.7550961,-53.1338,0.312046,-0.673276,-0.0184797,-0.00609138,0.0,0.00125052,0.020909,0.00904996,0.017935,-0.0305491,-0.0243513,-1.24288,0.623999,0.790718,0.204281,3.09687,-0.174389,433.21,0.1,0.277217,0.387528,0.137908,0.0963096,inf,inf,inf,inf,1,1,1,1,2,0,2,1,5,1,1,1
741699308,45740663,34.0343871,108.7550961,-53.1368,0.310682,-0.669813,-0.0184797,-0.00609138,0.0,-0.00930935,0.00520531,0.00913837,0.0194639,-0.0305491,-0.0243513,-1.24288,-0.0669662,-0.599665,-0.971228,3.09665,-0.174389,433.21,0.101062,0.268303,0.385333,0.133151,0.0951988,inf,inf,inf,inf,1,1,1,1,2,0,2,1,5,1,1,1
741798790,45740663,34.0343871,108.7550961,-53.139,0.309886,-0.666969,-0.0184797,-0.00609138,0.0,-0.00895603,0.00903948,0.0127044,0.0235948,-0.0305491,-0.0243513,-1.24288,0.563376,0.324559,0.34415,3.09636,-0.174389,433.21,0.1,0.277322,0.386745,0.13785,0.0962287,inf,inf,inf,inf,1,1,1,1,2,0,2,1,5,1,1,1
741897943,45740663,34.0343871,108.7550961,-53.1409,0.309515,-0.665619,-0.0184797,-0.00609138,0.0,-0.00670548,0.00792252,0.00934074,0.0191418,-0.0305491,-0.0243513,-1.24288,-0.685533,0.0932813,-0.897715,3.09723,-0.174389,433.21,0.1,0.268428,0.386923,0.133102,0.095361,inf,inf,inf,inf,1,1,1,1,2,0,2,1,5,1,1,1
741997263,45740663,34.0343871,108.7550961,-53.1424,0.309581,-0.66521,-0.0184797,-0.00609138,0.0,-0.00639442,0.00933868,0.0160064,0.0239596,-0.0305491,-0.0243513,-1.24288,0.727989,0.0724112,1.19223,3.09703,-0.174389,433.21,0.1,0.277436,0.388362,0.137601,0.0963975,inf,inf,inf,inf,1,1,1,1,2,0,2,1,5,1,1,1
742096580,45740663,34.0343871,108.7550961,-53.1448,0.30883,-0.662309,-0.0184797,-0.00609138,0.0,-0.00311808,0.00763754,0.00668438,0.0153564,-0.0305491,-0.0243513,-1.24288,-0.233786,-0.168821,-1.36233,3.09717,-0.174389,433.21,0.1,0.268529,0.386171,0.1329,0.0952877,inf,inf,inf,inf,1,1,1,1,2,0,2,1,5,1,1,1
742195898,45740663,34.0343871,108.7550961,-53.1466,0.308432,-0.659766,-0.0184797,-0.00609138,0.0,-0.00780916,0.00761184,0.0202194,0.0292086,-0.0305491,-0.0243513,-1.24288,-0.329021,0.474928,1.4941,3.09788,-0.174389,433.21,0.1,0.277523,0.387596,0.137361,0.0963204,inf,inf,inf,inf,1,1,1,1,2,0,2,1,5,1,1,1
742305220,45740663,34.0343871,108.7550961,-53.1478,0.307867,-0.656839,-0.0184797,-0.00609138,0.0,-0.00228075,0.015487,0.0117665,0.0211132,-0.0305491,-0.0243513,-1.24288,0.846398,1.37883,-0.530865,3.09759,-0.174389,433.21,0.1,0.269515,0.386023,0.133127,0.0953637,inf,inf,inf,inf,1,1,1,1,2,0,2,1,5,1,1,1
742399500,45740663,34.0343871,108.7550961,-53.1484,0.307678,-0.655812,-0.0184797,-0.00609138,0.0,-0.00488664,0.00847309,0.0116886,0.020004,-0.0305491,-0.0243513,-1.24288,0.691859,1.22928,0.177617,3.09743,-0.174389,433.21,0.1,0.277622,0.38683,0.137217,0.0962426,inf,inf,inf,inf,1,1,1,1,2,0,2,1,5,1,1,1
742498818,45740663,34.0343871,108.7550961,-53.1495,0.306234,-0.656839,-0.0184797,-0.00609138,0.0,-0.00211621,-0.0103447,0.0132532,0.0187108,-0.0305491,-0.0243513,-1.24288,-2.05852,-4.41258,1.63911,3.09837,-0.174389,433.21,0.1,0.268731,0.387013,0.132683,0.0953782,inf,inf,inf,inf,1,1,1,1,2,0,2,1,5,1,1,1
742598267,45740663,34.0343871,108.7550961,-53.1506,0.305471,-0.657181,-0.0184797,-0.00609138,0.0,0.00358136,0.00884825,0.0156541,0.0191267,-0.0305491,-0.0243513,-1.24288,-0.803966,-0.683769,0.837829,3.09843,-0.174389,433.21,0.1,0.277708,0.388458,0.137496,0.0964177,inf,inf,inf,inf,1,1,1,1,2,0,2,1,5,1,1,1
742697454,45740663,34.0343871,108.7550961,-53.1514,0.305025,-0.658807,-0.0184797,-0.00609138,0.0,0.0197643,0.000672239,-0.00108508,-0.000650289,-0.0305491,-0.0243513,-1.24288,2.74174,-1.62115,-0.618731,3.09887,-0.174389,433.21,0.10124,0.268751,0.386272,0.132935,0.0953031,inf,inf,inf,inf,1,1,1,1,2,0,2,1,5,1,1,1
742796773,45740663,34.0343871,108.7550961,-53.1522,0.304571,-0.661318,-0.0184797,-0.00609138,0.0,0.00680962,0.0121248,-0.000663857,-0.00368644,-0.0305491,-0.0243513,-1.24288,2.04823,-1.52422,-1.86326,3.09808,-0.174389,433.21,0.10375,0.277713,0.38771,0.137779,0.0963401,inf,inf,inf,inf,1,1,1,1,2,0,2,1,5,1,1,1
742901058,45740663,34.0343871,108.7550961,-53.1533,0.302357,-0.665028,-0.0184797,-0.00609138,0.0,0.0106488,-0.0154161,-0.00118321,-0.00802912,-0.0305491,-0.0243513,-1.24288,-0.256292,-0.369664,1.00325,3.10015,-0.174389,433.21,0.107461,0.268848,0.385543,0.133364,0.0952397,inf,inf,inf,inf,1,1,1,1,2,0,2,1,5,1,1,1
743000375,45740663,34.0343871,108.7550961,-53.1525,0.299344,-0.669344,-0.0184797,-0.00609138,0.0,0.0317897,-0.0201754,-0.00979377,-0.019459,-0.0305491,-0.0243513,-1.24288,0.215968,-0.565819,0.383578,3.10147,-0.174389,433.21,0.111776,0.277809,0.386974,0.138197,0.0962777,inf,inf,inf,inf,1,1,1,1,2,0,2,1,5,1,1,1
743099711,45740663,34.0343871,108.7550961,-53.1528,0.298002,-0.675534,-0.0184797,-0.00609138,0.0,0.0306339,-0.00602553,-0.00856769,-0.0220803,-0.0305491,-0.0243513,-1.24288,0.458375,-0.378995,-1.11675,3.10709,-0.174389,433.21,0.117967,0.268967,0.384819,0.134044,0.0951779,inf,inf,inf,inf,1,1,1,1,2,0,2,1,5,1,1,1
743203977,45740663,34.0343871,108.7550961,-53.153,0.297203,-0.68084,-0.0184797,-0.00609138,0.0,0.0217309,-0.00647296,0.00121096,-0.0149975,-0.0305491,-0.0243513,-1.24288,-1.00008,0.483824,0.0882066,3.10948,-0.174389,433.21,0.123272,0.277942,0.386251,0.138932,0.0962162,inf,inf,inf,inf,1,1,1,1,2,0,2,1,5,1,1,1
743303295,45740663,34.0343871,108.7550961,-53.1527,0.296242,-0.686756,-0.0184797,-0.00609138,0.0,0.0189635,-0.00594426,-0.000676659,-0.0203107,-0.0305491,-0.0243513,-1.24288,0.781829,-0.0253012,0.157488,3.11138,-0.174389,433.21,0.129189,0.269072,0.38645,0.134466,0.0953589,inf,inf,inf,inf,1,1,1,1,2,0,2,1,5,1,1,1
743402771,45740663,34.0343871,108.7550961,-53.1528,0.295991,-0.691694,-0.0184797,-0.00609138,0.0,0.00960642,0.000355526,-0.0025622,-0.0245872,-0.0305491,-0.0243513,-1.24288,1.53052,-0.278194,-0.806096,3.10992,-0.174389,433.21,0.134127,0.278058,0.387909,0.139602,0.0964053,inf,inf,inf,inf,1,1,1,1,2,0,2,1,5,1,1,1
743501932,45740663,34.0343871,108.7550961,-53.1561,0.296166,-0.691845,-0.0184797,-0.00609138,0.0,-0.0349623,0.00199294,0.0142602,-0.00606136,-0.0305491,-0.0243513,-1.24288,-0.581011,0.0661574,0.919047,3.10517,-0.174389,433.21,0.134277,0.269261,0.385759,0.135179,0.0953156,inf,inf,inf,inf,1,1,1,1,2,0,2,1,5,1,1,1
743601251,45740663,34.0343871,108.7550961,-53.1623,0.296449,-0.691947,-0.0184797,-0.00609138,0.0,-0.0539644,-6.25177e-05,0.0225761,0.00285489,-0.0305491,-0.0243513,-1.24288,-1.86476,0.225402,2.05489,3.10431,-0.174389,433.21,0.134379,0.278267,0.387219,0.140151,0.0963616,inf,inf,inf,inf,1,1,1,1,2,0,2,1,5,1,1,1
743700570,45740663,34.0343871,108.7550961,-53.1682,0.294848,-0.693662,-0.0184797,-0.00609138,0.0,-0.0190502,-0.0258802,0.000151313,-0.0196099,-0.0305491,-0.0243513,-1.24288,-1.65898,-2.65598,1.07069,3.11384,-0.174389,433.21,0.136094,0.269343,0.385075,0.135534,0.0952666,inf,inf,inf,inf,1,1,1,1,2,0,2,1,5,1,1,1
743799885,45740663,34.0343871,108.7550961,-53.1691,0.291797,-0.697366,-0.0184797,-0.00609138,0.0,0.0307719,-0.0271056,-0.0315929,-0.051132,-0.0305491,-0.0243513,-1.24288,-1.21627,0.8038,0.180753,3.1251,-0.174389,433.21,0.139798,0.278356,0.386521,0.140554,0.0963066,inf,inf,inf,inf,1,1,1,1,2,0,2,1,5,1,1,1
743899203,45740663,34.0343871,108.7550961,-53.1687,0.288839,-0.703272,-0.0184797,-0.00609138,0.0,0.0750174,-0.030022,-0.0369803,-0.0570859,-0.0305491,-0.0243513,-1.24288,0.526054,-1.83553,-0.740409,3.13769,-0.174389,433.21,0.145704,0.269415,0.384387,0.136028,0.0952058,inf,inf,inf,inf,1,1,1,1,2,0,2,1,5,1,1,1
743998522,45740663,34.0343871,108.7550961,-53.1661,0.285973,-0.708855,-0.0184797,-0.00609138,0.0,0.0643978,-0.024895,-0.0255816,-0.0455027,-0.0305491,-0.0243513,-1.24288,0.0414882,0.143459,0.344511,3.13994,-0.174389,433.21,0.151287,0.278448,0.385826,0.141155,0.0962393,inf,inf,inf,inf,1,1,1,1,2,0,2,1,5,1,1,1
744097836,45740663,34.0343871,108.7550961,-53.1615,0.282449,-0.713711,-0.0184797,-0.00609138,0.0,0.0606238,-0.019709,-0.0216548,-0.0412423,-0.0305491,-0.0243513,-1.24288,-0.499051,0.72925,1.07382,3.13591,-0.174389,433.21,0.156143,0.269491,0.386038,0.136416,0.0953789,inf,inf,inf,inf,1,1,1,1,2,0,2,1,5,1,1,1
744197227,45740663,34.0343871,108.7550961,-53.1582,0.279347,-0.718055,-0.0184797,-0.00609138,0.0,0.0244107,-0.0189093,-0.0151307,-0.0347612,-0.0305491,-0.0243513,-1.24288,-0.102014,-0.463942,-0.530295,3.12256,-0.174389,433.21,0.160487,0.278539,0.387504,0.141395,0.0964208,inf,inf,inf,inf,1,1,1,1,2,0,2,1,5,1,1,1
744301442,45740663,34.0343871,108.7550961,-53.1606,0.274689,-0.72056,-0.0184797,-0.00609138,0.0,-0.0322068,-0.0261587,0.00858499,-0.0108398,-0.0305491,-0.0243513,-1.24288,-2.47972,-1.89928,1.71257,3.1058,-0.174389,433.21,0.162992,0.269562,0.385352,0.136633,0.0953148,inf,inf,inf,inf,1,1,1,1,2,0,2,1,5,1,1,1
744400760,45740663,34.0343871,108.7550961,-53.1664,0.27222,-0.721244,-0.0184797,-0.00609138,0.0,-0.0625645,0.0214249,0.0192397,1.13334e-05,-0.0305491,-0.0243513,-1.24288,-1.67728,2.38562,0.454974,3.10304,-0.174389,433.21,0.163676,0.27862,0.386803,0.141569,0.0963524,inf,inf,inf,inf,1,1,1,1,2,0,2,1,5,1,1,1
744505044,45740663,34.0343871,108.7550961,-53.1765,0.27348,-0.720264,-0.0184797,-0.00609138,0.0,-0.0670456,0.025473,0.0235553,0.00492144,-0.0305491,-0.0243513,-1.24288,0.731697,1.1222,-1.94095,3.11649,-0.174389,433.21,0.162696,0.269625,0.38467,0.136861,0.0952492,inf,inf,inf,inf,1,1,1,1,2,0,2,1,5,1,1,1
744604363,45740663,34.0343871,108.7550961,-53.1865,0.274171,-0.719686,-0.0184797,-0.00609138,0.0,-0.0732182,0.0109678,0.0229395,0.00435222,-0.0305491,-0.0243513,-1.24288,-0.405827,1.09994,-1.3694,3.12775,-0.174389,433.21,0.162119,0.278697,0.386122,0.141754,0.0962849,inf,inf,inf,inf,1,1,1,1,2,0,2,1,5,1,1,1
744703680,45740663,34.0343871,108.7550961,-53.1964,0.277104,-0.718629,-0.0184797,-0.00609138,0.0,-0.049186,0.00820356,0.0132757,-0.00393373,-0.0305491,-0.0243513,-1.24288,0.0277723,1.81736,-0.328911,3.13962,-0.174389,433.21,0.161062,0.269659,0.384006,0.137053,0.0951856,inf,inf,inf,inf,1,1,1,1,2,0,2,1,5,1,1,1
744803007,45740663,34.0343871,108.7550961,-53.2022,0.278304,-0.719271,-0.0184797,-0.00609138,0.0,-0.00435862,-0.00886437,-0.0220831,-0.0377872,-0.0305491,-0.0243513,-1.24288,1.31074,2.6844,-2.4396,-3.13976,-0.174389,433.21,0.161703,0.278748,0.385458,0.142016,0.0962209,inf,inf,inf,inf,1,1,1,1,2,0,2,1,5,1,1,1
744902318,45740663,34.0343871,108.7550961,-53.208,0.280867,-0.720176,-0.0184797,-0.00609138,0.0,0.000268434,-0.0146765,-0.0169371,-0.0300457,-0.0305491,-0.0243513,-1.24288,-1.17276,-4.31841,1.57967,-3.13774,-0.174389,433.21,0.162609,0.269791,0.385684,0.137253,0.0953688,inf,inf,inf,inf,1,1,1,1,2,0,2,1,5,1,1,1
745001695,45740663,34.0343871,108.7550961,-53.2123,0.28382,-0.719552,-0.0184797,-0.00609138,0.0,-0.00770688,0.00465558,0.0138309,0.00315679,-0.0305491,-0.0243513,-1.24288,-0.55295,-1.41443,1.79306,-3.13771,-0.174389,433.21,0.161984,0.278905,0.387163,0.142237,0.0964102,inf,inf,inf,inf,1,1,1,1,2,0,2,1,5,1,1,1
745100953,45740663,34.0343871,108.7550961,-53.217,0.287742,-0.716307,-0.0184797,-0.00609138,0.0,-0.0275329,-0.00150653,0.00751896,-0.000380378,-0.0305491,-0.0243513,-1.24288,-0.124438,-4.45756,1.07814,-3.14028,-0.174389,433.21,0.15874,0.269884,0.385031,0.137343,0.0953141,inf,inf,inf,inf,1,1,1,1,2,0,2,1,5,1,1,1
745200271,45740663,34.0343871,108.7550961,-53.2219,0.290396,-0.715835,-0.0184797,-0.00609138,0.0,-0.035224,-0.00765425,0.00227373,-0.00484418,-0.0305491,-0.0243513,-1.24288,-1.87598,-2.1055,1.25648,3.1402,-0.174389,433.21,0.158268,0.279011,0.386495,0.142162,0.0963531,inf,inf,inf,inf,1,1,1,1,2,0,2,1,5,1,1,1
745299764,45740663,34.0343871,108.7550961,-53.2279,0.293852,-0.711933,-0.0184797,-0.00609138,0.0,-0.0354281,-0.0210151,0.0175665,0.0146095,-0.0305491,-0.0243513,-1.24288,-1.5843,-1.93139,2.95397,3.13772,-0.174389,433.21,0.154365,0.269972,0.384372,0.137275,0.0952605,inf,inf,inf,inf,1,1,1,1,2,0,2,1,5,1,1,1
745398943,45740663,34.0343871,108.7550961,-53.233,0.295194,-0.710424,-0.0184797,-0.00609138,0.0,-0.0308279,-0.00442493,-0.0102652,-0.0120122,-0.0305491,-0.0243513,-1.24288,1.73837,2.11771,-1.9671,3.13924,-0.174389,433.21,0.152857,0.279111,0.385829,0.142116,0.0962984,inf,inf,inf,inf,1,1,1,1,2,0,2,1,5,1,1,1
745498225,45740663,34.0343871,108.7550961,-53.2383,0.299072,-0.710601,-0.0184797,-0.00609138,0.0,-0.0242488,0.00973426,-0.0221784,-0.0230624,-0.0305491,-0.0243513,-1.24288,0.828606,3.08235,-1.41869,-3.13695,-0.174389,433.21,0.153033,0.270017,0.383716,0.137141,0.0952064,inf,inf,inf,inf,1,1,1,1,2,0,2,1,5,1,1,1
745597556,45740663,34.0343871,108.7550961,-53.2435,0.30271,-0.711618,-0.0184797,-0.00609138,0.0,-0.035099,0.00478149,-0.0145873,-0.0150705,-0.0305491,-0.0243513,-1.24288,-2.2153,-1.38097,3.4618,-3.13516,-0.174389,433.21,0.154051,0.279164,0.387526,0.142053,0.0964842,inf,inf,inf,inf,1,1,1,1,2,0,2,1,5,1,1,1
745696862,45740663,34.0343871,108.7550961,-53.2498,0.305917,-0.716989,-0.0184797,-0.00609138,0.0,-0.0304225,0.0142858,-0.0627527,-0.0648312,-0.0305491,-0.0243513,-1.24288,0.304534,3.00018,-1.62469,-3.13789,-0.174389,433.21,0.159421,0.269969,0.385364,0.136981,0.0953715,inf,inf,inf,inf,1,1,1,1,2,0,2,1,5,1,1,1
745796176,45740663,34.0343871,108.7550961,-53.2539,0.308561,-0.726259,-0.0184797,-0.00609138,0.0,-0.0253169,0.0162323,-0.0830091,-0.0868597,-0.0305491,-0.0243513,-1.24288,-4.53021,-0.812589,4.31797,3.14148,-0.174389,433.21,0.168692,0.279112,0.386817,0.141854,0.0964067,inf,inf,inf,inf,1,1,1,1,2,0,2,1,5,1,1,1
745905429,45740663,34.0343871,108.7550961,-53.2555,0.311055,-0.740101,-0.0184797,-0.00609138,0.0,0.0072466,0.0117688,-0.141713,-0.146883,-0.0305491,-0.0243513,-1.24288,1.2231,2.99386,-2.28871,3.1401,-0.174389,433.21,0.182534,0.270814,0.385278,0.137362,0.0954483,inf,inf,inf,inf,1,1,1,1,2,0,2,1,5,1,1,1
746004749,45740663,34.0343871,108.7550961,-53.2549,0.314308,-0.757619,-0.0184797,-0.00609138,0.0,0.0186546,0.0120253,-0.175524,-0.181866,-0.0305491,-0.0243513,-1.24288,-0.905822,-4.62631,1.51693,3.13519,-0.174389,433.21,0.200051,0.280017,0.386733,0.142267,0.0964806,inf,inf,inf,inf,1,1,1,1,2,0,2,1,5,1,1,1
746104226,45740663,34.0343871,108.7550961,-53.2516,0.318428,-0.775448,-0.0184797,-0.00609138,0.0,0.0373448,0.0278081,-0.194074,-0.199168,-0.0305491,-0.0243513,-1.24288,-0.567711,5.68483,-0.63515,3.12217,-0.174389,433.21,0.217881,0.270746,0.384575,0.137312,0.0953687,inf,inf,inf,inf,1,1,1,1,2,0,2,1,5,1,1,1
746198418,45740663,34.0343871,108.7550961,-53.246,0.321454,-0.795336,-0.0184797,-0.00609138,0.0,0.0681004,-0.00220476,-0.22206,-0.226612,-0.0305491,-0.0243513,-1.24288,-0.327727,-4.49124,0.932754,3.11122,-0.174389,433.21,0.237769,0.279005,0.387767,0.141673,0.0964907,inf,inf,inf,inf,1,1,1,1,2,0,2,1,5,1,1,1
746297736,45740663,34.0343871,108.7550961,-53.2398,0.326369,-0.819351,-0.0184797,-0.00609138,0.0,0.0879318,0.0195522,-0.253382,-0.258252,-0.0305491,-0.0243513,-1.24288,2.02452,3.7821,-3.18949,3.09871,-0.174389,433.21,0.261783,0.269763,0.385601,0.136816,0.0953744,inf,inf,inf,inf,1,1,1,1,2,0,2,1,5,1,1,1
746402022,45740663,34.0343871,108.7550961,-53.2312,0.330749,-0.846199,-0.0184797,-0.00609138,0.0,0.0791068,0.0174325,-0.264695,-0.269186,-0.0305491,-0.0243513,-1.24288,-1.96771,-1.03675,1.39612,3.08934,-0.174389,433.21,0.288632,0.278914,0.387071,0.141641,0.0964099,inf,inf,inf,inf,1,1,1,1,2,0,2,1,5,1,1,1
746501338,45740663,34.0343871,108.7550961,-53.2218,0.335492,-0.879059,-0.0184797,-0.00609138,0.0,0.0949,0.00767886,-0.283421,-0.293098,-0.0305491,-0.0243513,-1.24288,2.16454,-5.72599,-1.57059,3.08187,-0.174389,433.21,0.321491,0.269651,0.384923,0.136569,0.0952975,inf,inf,inf,inf,1,1,1,1,2,0,2,1,5,1,1,1
746600657,45740663,34.0343871,108.7550961,-53.2106,0.340792,-0.912473,-0.0184797,-0.00609138,0.0,0.093137,0.0264462,-0.298569,-0.311525,-0.0305491,-0.0243513,-1.24288,0.725041,0.49168,-1.92912,3.07778,-0.174389,433.21,0.354905,0.278796,0.386377,0.141485,0.0963311,inf,inf,inf,inf,1,1,1,1,2,0,2,1,5,1,1,1
746699975,45740663,34.0343871,108.7550961,-53.2055,0.348779,-0.940161,-0.0184797,-0.00609138,0.0,0.0929117,0.0365119,-0.303169,-0.312664,-0.0305491,-0.0243513,-1.24288,2.78014,-3.07721,-3.05893,3.07621,-0.174389,433.21,0.382593,0.269645,0.384252,0.136495,0.095235,inf,inf,inf,inf,1,1,1,1,2,0,2,1,5,1,1,1
746799351,45740663,34.0343871,108.7550961,-53.1989,0.358059,-0.967453,-0.0184797,-0.00609138,0.0,0.0879345,0.0728305,-0.294103,-0.300601,-0.0305491,-0.0243513,-1.24288,1.35299,0.403929,-2.02236,3.07364,-0.174389,433.21,0.409886,0.278793,0.385706,0.14123,0.0962686,inf,inf,inf,inf,1,1,1,1,2,0,2,1,5,1,1,1
746898702,45740663,34.0343871,108.7550961,-53.195,0.361544,-0.996351,-0.0184797,-0.00609138,0.0,0.0765758,0.0765462,-0.279323,-0.28593,-0.0305491,-0.0243513,-1.24288,2.21627,3.42695,-3.1347,3.07388,-0.174389,433.21,0.438783,0.269676,0.385916,0.136212,0.0954103,inf,inf,inf,inf,1,1,1,1,2,0,2,1,5,1,1,1
747002898,45740663,34.0343871,108.7550961,-53.1897,0.367861,-1.02688,-0.0184797,-0.00609138,0.0,0.0734821,0.0807623,-0.270244,-0.277718,-0.0305491,-0.0243513,-1.24288,-0.680305,-0.268418,1.44338,3.07497,-0.174389,433.21,0.469312,0.278817,0.387395,0.140836,0.0964503,inf,inf,inf,inf,1,1,1,1,2,0,2,1,5,1,1,1
747102215,45740663,34.0343871,108.7550961,-53.1821,0.375352,-1.05376,-0.0184797,-0.00609138,0.0,0.0836739,0.0856318,-0.269351,-0.27529,-0.0305491,-0.0243513,-1.24288,1.46907,-4.08273,-0.52795,3.07605,-0.174389,433.21,0.496195,0.269605,0.385247,0.135832,0.0953399,inf,inf,inf,inf,1,1,1,1,2,0,2,1,5,1,1,1
747201531,45740663,34.0343871,108.7550961,-53.1748,0.384519,-1.08022,-0.0184797,-0.00609138,0.0,0.0769761,0.102862,-0.251655,-0.257387,-0.0305491,-0.0243513,-1.24288,0.740717,-3.65927,-0.597997,3.07704,-0.174389,433.21,0.522653,0.27873,0.386726,0.140494,0.0963787,inf,inf,inf,inf,1,1,1,1,2,0,2,1,5,1,1,1
747300858,45740663,34.0343871,108.7550961,-53.1719,0.397957,-1.11056,-0.0184797,-0.00609138,0.0,0.076181,0.129589,-0.249638,-0.260159,-0.0305491,-0.0243513,-1.24288,2.19786,1.86612,-2.56161,3.07595,-0.174389,433.21,0.552988,0.26963,0.384599,0.135516,0.0952811,inf,inf,inf,inf,1,1,1,1,2,0,2,1,5,1,1,0
747400168,45740663,34.0343871,108.7550961,-53.168,0.411672,-1.13977,-0.0184797,-0.00609138,0.0,0.0717588,0.130026,-0.235767,-0.250342,-0.0305491,-0.0243513,-1.24288,1.0375,-0.15252,-1.49958,3.07443,-0.174389,433.21,0.582201,0.278745,0.386063,0.140116,0.096315,inf,inf,inf,inf,1,1,1,1,2,0,2,1,5,1,1,0
747499485,45740663,34.0343871,108.7550961,-53.1649,0.428205,-1.16396,-0.0184797,-0.00609138,0.0,0.0635307,0.16302,-0.224179,-0.238581,-0.0305491,-0.0243513,-1.24288,0.778073,1.84372,-1.22345,3.07226,-0.174389,433.21,0.606394,0.269551,0.38394,0.135086,0.0952099,inf,inf,inf,inf,1,1,1,1,2,0,2,1,5,1,1,0
747598836,45740663,34.0343871,108.7550961,-53.1614,0.446019,-1.18673,-0.0184797,-0.00609138,0.0,0.0651979,0.16319,-0.21811,-0.231865,-0.0305491,-0.0243513,-1.24288,2.21788,-1.52803,-2.65711,3.06997,-0.174389,433.21,0.629161,0.278643,0.387761,0.139657,0.0964886,inf,inf,inf,inf,1,1,1,1,2,0,2,1,5,1,1,0
747698172,45740663,34.0343871,108.7550961,-53.1612,0.461911,-1.21184,-0.0184797,-0.00609138,0.0,0.0445552,0.189361,-0.206688,-0.22323,-0.0305491,-0.0243513,-1.24288,1.42172,-1.54846,-1.09907,3.07,-0.174389,433.21,0.654269,0.26953,0.385607,0.134729,0.095385,inf,inf,inf,inf,1,1,1,1,2,0,2,1,5,1,1,0
747797442,45740663,34.0343871,108.7550961,-53.1614,0.480485,-1.23576,-0.0184797,-0.00609138,0.0,0.0379636,0.206659,-0.224914,-0.242196,-0.0305491,-0.0243513,-1.24288,2.09583,3.33976,-2.91265,3.06851,-0.174389,433.21,0.678193,0.278609,0.387065,0.139317,0.0964184,inf,inf,inf,inf,1,1,1,1,2,0,2,1,5,1,1,0
747896758,45740663,34.0343871,108.7550961,-53.1638,0.498322,-1.26148,-0.0184797,-0.00609138,0.0,0.0147012,0.204625,-0.228291,-0.246758,-0.0305491,-0.0243513,-1.24288,0.219873,-5.52126,-0.173367,3.06607,-0.174389,433.21,0.703917,0.269412,0.38491,0.134387,0.0953064,inf,inf,inf,inf,1,1,1,1,2,0,2,1,5,1,1,0
747996264,45740663,34.0343871,108.7550961,-53.1666,0.518782,-1.28779,-0.0184797,-0.00609138,0.0,-0.000146478,0.231983,-0.239379,-0.258141,-0.0305491,-0.0243513,-1.24288,-0.394171,-0.624281,1.07957,3.06351,-0.174389,433.21,0.730222,0.27847,0.38636,0.138995,0.0963381,inf,inf,inf,inf,1,1,1,1,2,0,2,1,5,1,1,0
748100360,45740663,34.0343871,108.7550961,-53.1679,0.542611,-1.31777,-0.0184797,-0.00609138,0.0,-0.00346859,0.248249,-0.265538,-0.285533,-0.0305491,-0.0243513,-1.24288,1.04673,2.67851,-2.07857,3.06135,-0.174389,433.21,0.760203,0.2693,0.386553,0.134137,0.0954672,inf,inf,inf,inf,1,1,1,1,2,0,2,1,5,1,1,0
748199678,45740663,34.0343871,108.7550961,-53.1694,0.566494,-1.34489,-0.0184797,-0.00609138,0.0,-0.0104864,0.263837,-0.274552,-0.292808,-0.0305491,-0.0243513,-1.24288,1.15099,0.434167,-1.74257,3.06117,-0.174389,433.21,0.787321,0.278344,0.388021,0.138953,0.0965038,inf,inf,inf,inf,1,1,1,1,2,0,2,1,5,1,1,0
748299001,45740663,34.0343871,108.7550961,-53.1776,0.593544,-1.37409,-0.0184797,-0.00609138,0.0,-0.0201509,0.284249,-0.288681,-0.306296,-0.0305491,-0.0243513,-1.24288,1.81632,1.49947,-2.82138,3.06212,-0.174389,433.21,0.816522,0.269287,0.385862,0.134215,0.0954003,inf,inf,inf,inf,1,1,1,1,2,0,2,1,5,1,1,0
748398315,45740663,34.0343871,108.7550961,-53.1851,0.622614,-1.40554,-0.0184797,-0.00609138,0.0,-0.0372924,0.308727,-0.300523,-0.318596,-0.0305491,-0.0243513,-1.24288,1.04507,1.22829,-1.84201,3.06493,-0.174389,433.21,0.847971,0.278332,0.38733,0.138833,0.0964365,inf,inf,inf,inf,1,1,1,1,2,0,2,1,5,1,1,0
748497676,45740663,34.0343871,108.7550961,-53.1912,0.655172,-1.43757,-0.0184797,-0.00609138,0.0,-0.0381938,0.3378,-0.318265,-0.335855,-0.0305491,-0.0243513,-1.24288,1.85975,0.107554,-2.47446,3.06799,-0.174389,433.21,0.880007,0.269278,0.385181,0.134083,0.0953352,inf,inf,inf,inf,1,1,1,1,2,0,2,1,5,1,1,0
748596951,45740663,34.0343871,108.7550961,-53.1969,0.690202,-1.47087,-0.0184797,-0.00609138,0.0,-0.0517905,0.360227,-0.337762,-0.354169,-0.0305491,-0.0243513,-1.24288,1.48291,1.47481,-2.65673,3.07054,-0.174389,433.21,0.913302,0.278318,0.386641,0.138703,0.0963695,inf,inf,inf,inf,1,1,1,1,2,0,2,1,5,1,1,0
748706202,45740663,34.0343871,108.7550961,-53.2086,0.72993,-1.50738,-0.0184797,-0.00609138,0.0,-0.0689306,0.390425,-0.358809,-0.371857,-0.0305491,-0.0243513,-1.24288,1.63049,-0.443177,-2.60634,3.07309,-0.174389,433.21,0.949817,0.270053,0.385103,0.134378,0.0954111,inf,inf,inf,inf,1,1,1,1,2,0,2,1,5,1,1,0
748795737,45740663,34.0343871,108.7550961,-53.2183,0.764768,-1.53802,-0.0184797,-0.00609138,0.0,-0.0811213,0.418335,-0.356352,-0.366749,-0.0305491,-0.0243513,-1.24288,0.296461,4.58662,-1.7761,3.07327,-0.174389,433.21,0.980451,0.278201,0.385942,0.138547,0.0962919,inf,inf,inf,inf,1,1,1,1,2,0,2,1,5,1,1,0
748904838,45740663,34.0343871,108.7550961,-53.2289,0.808294,-1.57525,-0.0184797,-0.00609138,0.0,-0.0881643,0.417126,-0.355133,-0.36291,-0.0305491,-0.0243513,-1.24288,2.12183,-3.75494,-2.45786,3.07524,-0.174389,433.21,1.01769,0.269827,0.384409,0.134141,0.0953268,inf,inf,inf,inf,1,1,1,1,2,0,2,1,5,1,1,0
749004173,45740663,34.0343871,108.7550961,-53.238,0.850429,-1.61039,-0.0184797,-0.00609138,0.0,-0.0893699,0.456991,-0.351318,-0.358362,-0.0305491,-0.0243513,-1.24288,0.318386,2.74968,-1.18954,3.07618,-0.174389,433.21,1.05282,0.278883,0.388236,0.138684,0.0966054,inf,inf,inf,inf,1,1,1,1,2,0,2,1,5,1,1,0
749098508,45740663,34.0343871,108.7550961,-53.2432,0.888283,-1.64557,-0.0184797,-0.00609138,0.0,-0.107126,0.451096,-0.335711,-0.344349,-0.0305491,-0.0243513,-1.24288,-1.77942,-0.314733,2.35215,3.07691,-0.174389,433.21,1.088,0.268838,0.385453,0.133457,0.0953413,inf,inf,inf,inf,1,1,1,1,2,0,2,1,5,1,1,0
749197826,45740663,34.0343871,108.7550961,-53.2492,0.929884,-1.68122,-0.0184797,-0.00609138,0.0,-0.0939159,0.472018,-0.332263,-0.341614,-0.0305491,-0.0243513,-1.24288,0.645782,3.70523,-0.426919,3.07763,-0.174389,433.21,1.12366,0.277825,0.386912,0.137975,0.096376,inf,inf,inf,inf,1,1,1,1,2,0,2,1,5,1,1,0
749297144,45740663,34.0343871,108.7550961,-53.2586,0.974712,-1.71175,-0.0184797,-0.00609138,0.0,-0.0962007,0.47474,-0.318611,-0.324654,-0.0305491,-0.0243513,-1.24288,-1.40871,1.32699,1.15016,3.07904,-0.174389,433.21,1.15418,0.268735,0.384765,0.133322,0.0952673,inf,inf,inf,inf,1,1,1,1,2,0,2,1,5,1,1,0
749406395,45740663,34.0343871,108.7550961,-53.2693,1.02578,-1.74503,-0.0184797,-0.00609138,0.0,-0.0967995,0.482854,-0.312784,-0.316585,-0.0305491,-0.0243513,-1.24288,-0.565289,2.17003,0.198832,3.08056,-0.174389,433.21,1.18746,0.278639,0.386846,0.138308,0.0964533,inf,inf,inf,inf,1,1,1,1,2,0,2,1,5,1,1,0
749495781,45740663,34.0343871,108.7550961,-53.2771,1.06948,-1.77468,-0.0184797,-0.00609138,0.0,-0.0904376,0.491383,-0.311786,-0.317222,-0.0305491,-0.0243513,-1.24288,2.03082,-1.13314,-1.54147,3.08243,-0.174389,433.21,1.21711,0.268605,0.384087,0.133096,0.0951945,inf,inf,inf,inf,1,1,1,1,2,0,2,1,5,1,1,0
749605189,45740663,34.0343871,108.7550961,-53.2867,1.12457,-1.80854,-0.0184797,-0.00609138,0.0,-0.104624,0.499882,-0.294856,-0.300563,-0.0305491,-0.0243513,-1.24288,-1.53514,5.30022,1.21839,3.08487,-0.174389,433.21,1.25097,0.278491,0.386158,0.138052,0.0963781,inf,inf,inf,inf,1,1,1,1,2,0,2,1,5,1,1,0
749699388,45740663,34.0343871,108.7550961,-53.2934,1.16866,-1.83549,-0.0184797,-0.00609138,0.0,-0.0930732,0.490463,-0.28973,-0.293852,-0.0305491,-0.0243513,-1.24288,-0.251108,-6.23928,1.57233,3.08825,-0.174389,433.21,1.27792,0.268483,0.385748,0.13289,0.095362,inf,inf,inf,inf,1,1,1,1,2,0,2,1,5,1,1,0
749798701,45740663,34.0343871,108.7550961,-53.3003,1.21725,-1.86356,-0.0184797,-0.00609138,0.0,-0.0980726,0.513041,-0.281677,-0.284515,-0.0305491,-0.0243513,-1.24288,-0.929204,1.9084,1.08123,3.08894,-0.174389,433.21,1.306,0.277431,0.387216,0.137562,0.0963983,inf,inf,inf,inf,1,1,1,1,2,0,2,1,5,1,1,0
749902985,45740663,34.0343871,108.7550961,-53.3174,1.26818,-1.88971,-0.0184797,-0.00609138,0.0,-0.0990824,0.514833,-0.270637,-0.270405,-0.0305491,-0.0243513,-1.24288,-0.474548,0.142804,0.168814,3.08848,-0.174389,433.21,1.33214,0.268461,0.385081,0.13293,0.095301,inf,inf,inf,inf,1,1,1,1,2,0,2,1,5,1,1,0
750002303,45740663,34.0343871,108.7550961,-53.3324,1.31747,-1.91431,-0.0184797,-0.00609138,0.0,-0.097964,0.53832,-0.260972,-0.259348,-0.0305491,-0.0243513,-1.24288,1.17358,4.07947,-1.73588,3.08834,-0.174389,433.21,1.35674,0.277411,0.386548,0.137414,0.0963373,inf,inf,inf,inf,1,1,1,1,2,0,2,1,5,1,1,0
750101633,45740663,34.0343871,108.7550961,-53.3414,1.37384,-1.93518,-0.0184797,-0.00609138,0.0,-0.100282,0.541022,-0.23999,-0.235134,-0.0305491,-0.0243513,-1.24288,-1.19193,1.57592,0.672886,3.08926,-0.174389,433.21,1.37761,0.268483,0.38443,0.132966,0.0952434,inf,inf,inf,inf,1,1,1,1,2,0,2,1,5,1,1,0
750200939,45740663,34.0343871,108.7550961,-53.3503,1.43052,-1.95541,-0.0184797,-0.00609138,0.0,-0.103334,0.569894,-0.221053,-0.214137,-0.0305491,-0.0243513,-1.24288,-2.0073,5.15206,2.11956,3.08973,-0.174389,433.21,1.39784,0.277437,0.385897,0.137459,0.096279,inf,inf,inf,inf,1,1,1,1,2,0,2,1,5,1,1,0
750300258,45740663,34.0343871,108.7550961,-53.3602,1.48465,-1.97507,-0.0184797,-0.00609138,0.0,-0.0912086,0.566445,-0.218355,-0.209999,-0.0305491,-0.0243513,-1.24288,-0.0125235,-1.98374,0.261385,3.09028,-0.174389,433.21,1.4175,0.268467,0.383781,0.132806,0.095185,inf,inf,inf,inf,1,1,1,1,2,0,2,1,5,1,1,0
750399719,45740663,34.0343871,108.7550961,-53.3693,1.54045,-1.99507,-0.0184797,-0.00609138,0.0,-0.0889425,0.57824,-0.213074,-0.204337,-0.0305491,-0.0243513,-1.24288,-0.624268,-1.21581,0.726104,3.08916,-0.174389,433.21,1.4375,0.277415,0.387602,0.137277,0.0964646,inf,inf,inf,inf,1,1,1,1,2,0,2,1,5,1,1,0
750498904,45740663,34.0343871,108.7550961,-53.3796,1.59703,-2.02101,-0.0184797,-0.00609138,0.0,-0.0865637,0.611661,-0.198595,-0.196044,-0.0305491,-0.0243513,-1.24288,-0.605412,6.12986,1.28568,3.09112,-0.174389,433.21,1.46344,0.268451,0.385463,0.132711,0.0953648,inf,inf,inf,inf,1,1,1,1,2,0,2,1,5,1,1,0
750598212,45740663,34.0343871,108.7550961,-53.3878,1.65551,-2.04195,-0.0184797,-0.00609138,0.0,-0.066038,0.603679,-0.127863,-0.130237,-0.0305491,-0.0243513,-1.24288,0.156649,0.592876,1.00557,3.11118,-0.174389,433.21,1.48438,0.277396,0.38694,0.13723,0.0964028,inf,inf,inf,inf,1,1,1,1,2,0,2,1,5,1,1,0
750702527,45740663,34.0343871,108.7550961,-53.3958,1.71608,-2.05414,-0.0184797,-0.00609138,0.0,-0.0505518,0.565848,-0.0799173,-0.0844351,-0.0305491,-0.0243513,-1.24288,1.86802,-4.87585,-0.624221,-3.13254,-0.174389,433.21,1.49657,0.268308,0.384806,0.13243,0.0952956,inf,inf,inf,inf,1,1,1,1,2,0,2,1,5,1,1,0
750801814,45740663,34.0343871,108.7550961,-53.4011,1.77227,-2.06487,-0.0184797,-0.00609138,0.0,-0.026895,0.529887,-0.134919,-0.140513,-0.0305491,-0.0243513,-1.24288,2.26731,-2.84682,-3.31303,-3.11494,-0.174389,433.21,1.5073,0.277231,0.386274,0.136685,0.0963308,inf,inf,inf,inf,1,1,1,1,2,0,2,1,5,1,1,0
750901133,45740663,34.0343871,108.7550961,-53.4016,1.81884,-2.08163,-0.0184797,-0.00609138,0.0,0.00207976,0.439398,-0.244246,-0.248338,-0.0305491,-0.0243513,-1.24288,2.88276,-6.26374,-2.86059,-3.11297,-0.174389,433.21,1.52407,0.268176,0.384149,0.132219,0.0952242,inf,inf,inf,inf,1,1,1,1,2,0,2,1,5,1,1,0
751000454,45740663,34.0343871,108.7550961,-53.3995,1.85593,-2.11145,-0.0184797,-0.00609138,0.0,0.012364,0.34382,-0.373894,-0.377068,-0.0305491,-0.0243513,-1.24288,0.256454,-1.80183,-1.32941,-3.11523,-0.174389,433.21,1.55389,0.277094,0.385616,0.137012,0.0962545,inf,inf,inf,inf,1,1,1,1,2,0,2,1,5,1,1,0
751099769,45740663,34.0343871,108.7550961,-53.3967,1.87888,-2.15149,-0.0184797,-0.00609138,0.0,0.0308344,0.211692,-0.485585,-0.485006,-0.0305491,-0.0243513,-1.24288,-2.73798,-2.38942,2.38603,-3.12102,-0.174389,433.21,1.59392,0.268059,0.385831,0.132846,0.0953827,inf,inf,inf,inf,1,1,1,1,2,0,2,1,5,1,1,0
751199188,45740663,34.0343871,108.7550961,-53.3918,1.89078,-2.20098,-0.0184797,-0.00609138,0.0,0.0554213,0.108146,-0.578397,-0.573574,-0.0305491,-0.0243513,-1.24288,0.788003,-3.11437,-0.489245,-3.12967,-0.174389,433.21,1.64341,0.277003,0.387316,0.137878,0.096412,inf,inf,inf,inf,1,1,1,1,2,0,2,1,5,1,1,0
751303371,45740663,34.0343871,108.7550961,-53.3846,1.89548,-2.26024,-0.0184797,-0.00609138,0.0,0.0802741,0.0235412,-0.619424,-0.611985,-0.0305491,-0.0243513,-1.24288,2.4714,-4.30063,-2.17647,-3.13999,-0.174389,433.21,1.70267,0.268065,0.385182,0.133674,0.0953093,inf,inf,inf,inf,1,1,1,1,2,0,2,1,5,1,1,0
751402689,45740663,34.0343871,108.7550961,-53.3766,1.89479,-2.31774,-0.0184797,-0.00609138,0.0,0.0824309,-0.00820565,-0.616621,-0.607031,-0.0305491,-0.0243513,-1.24288,2.40985,-1.141,-2.17314,3.04201,-0.10149,433.21,1.76018,0.276998,0.386642,0.135818,0.0963497,inf,inf,inf,inf,1,1,1,1,2,0,2,1,6,1,1,0
751502007,45740663,34.0343871,108.7550961,-53.3608,1.89177,-2.3834,-0.0184797,-0.00609138,0.0,0.090656,-0.0265941,-0.579151,-0.576757,-0.0305491,-0.0243513,-1.24288,0.0437644,0.894353,0.993564,3.07556,-0.10149,433.21,1.82584,0.268002,0.384505,0.129221,0.095317,inf,inf,inf,inf,1,1,1,1,2,0,2,1,6,1,1,0
751601326,45740663,34.0343871,108.7550961,-53.3464,1.8879,-2.44048,-0.0184797,-0.00609138,0.0,0.0905189,-0.0277546,-0.513571,-0.514013,-0.0305491,-0.0243513,-1.24288,0.724692,-1.37194,-0.304748,3.09062,-0.10149,433.21,1.88291,0.276655,0.385956,0.131441,0.0964675,inf,inf,inf,inf,1,1,1,1,2,0,2,1,6,1,1,0
751700645,45740663,34.0343871,108.7550961,-53.3314,1.89092,-2.48889,-0.0184797,-0.00609138,0.0,0.0892162,-0.00296861,-0.434202,-0.435709,-0.0305491,-0.0243513,-1.24288,-1.74913,0.984292,2.93258,3.09641,-0.10149,433.21,1.93132,0.267777,0.386165,0.125665,0.0957625,inf,inf,inf,inf,1,1,1,1,2,0,2,1,6,1,1,0
751799992,45740663,34.0343871,108.7550961,-53.3178,1.89373,-2.53021,-0.0184797,-0.00609138,0.0,0.0883951,-0.00466202,-0.39401,-0.39539,-0.0305491,-0.0243513,-1.24288,0.157619,-3.06186,-0.0662865,3.10166,-0.10149,433.21,1.97264,0.27618,0.387644,0.127844,0.0970108,inf,inf,inf,inf,1,1,1,1,2,0,2,1,6,1,1,0
751899280,45740663,34.0343871,108.7550961,-53.3003,1.8991,-2.56891,-0.0184797,-0.00609138,0.0,0.0833393,0.0144253,-0.37245,-0.374252,-0.0305491,-0.0243513,-1.24288,-0.551398,1.62988,0.498332,3.10476,-0.10149,433.21,2.01134,0.267422,0.385481,0.122975,0.0961197,inf,inf,inf,inf,1,1,1,1,2,0,2,1,6,1,1,0
751998696,45740663,34.0343871,108.7550961,-53.2852,1.90292,-2.60484,-0.0184797,-0.00609138,0.0,0.0809785,-0.00700424,-0.377393,-0.377751,-0.0305491,-0.0243513,-1.24288,0.993262,-6.35428,-0.332752,3.10747,-0.10149,433.21,2.04727,0.275611,0.386932,0.126072,0.0974529,inf,inf,inf,inf,1,1,1,1,2,0,2,1,6,1,1,0
752102882,45740663,34.0343871,108.7550961,-53.2723,1.90314,-2.64206,-0.0184797,-0.00609138,0.0,0.0597994,0.00323465,-0.370564,-0.36848,-0.0305491,-0.0243513,-1.24288,-3.17421,0.279613,3.72346,3.1075,-0.10149,433.21,2.0845,0.266935,0.384768,0.122164,0.0966086,inf,inf,inf,inf,1,1,1,1,2,0,2,1,6,1,1,0
752202203,45740663,34.0343871,108.7550961,-53.2617,1.90201,-2.67656,-0.0184797,-0.00609138,0.0,0.0524413,-0.00460731,-0.379933,-0.374634,-0.0305491,-0.0243513,-1.24288,-1.83595,1.30439,1.7058,3.10705,-0.10149,433.21,2.11899,0.274954,0.388599,0.126144,0.0982793,inf,inf,inf,inf,1,1,1,1,2,0,2,1,6,1,1,0
752301712,45740663,34.0343871,108.7550961,-53.2503,1.90227,-2.71061,-0.0184797,-0.00609138,0.0,0.047269,-0.0259464,-0.376413,-0.3679,-0.0305491,-0.0243513,-1.24288,-0.594392,-1.97928,0.604416,3.10592,-0.10149,433.21,2.15304,0.266468,0.386418,0.123079,0.0974893,inf,inf,inf,inf,1,1,1,1,2,0,2,1,6,1,1,0
752400837,45740663,34.0343871,108.7550961,-53.2411,1.90112,-2.74307,-0.0184797,-0.00609138,0.0,0.0457954,-0.0158332,-0.371673,-0.360195,-0.0305491,-0.0243513,-1.24288,0.980291,5.3874,-2.33049,3.102,-0.10149,433.21,2.18551,0.27438,0.387911,0.12758,0.0989969,inf,inf,inf,inf,1,1,1,1,2,0,2,1,6,1,1,0
752500206,45740663,34.0343871,108.7550961,-53.2328,1.89847,-2.7836,-0.0184797,-0.00609138,0.0,0.0354956,-0.0211235,-0.356658,-0.351009,-0.0305491,-0.0243513,-1.24288,-2.98023,4.12927,2.10253,3.09894,-0.10149,433.21,2.22603,0.265988,0.385739,0.125016,0.0982187,inf,inf,inf,inf,1,1,1,1,2,0,2,1,6,1,1,0
752599475,45740663,34.0343871,108.7550961,-53.2263,1.89406,-2.82021,-0.0184797,-0.00609138,0.0,0.0190466,-0.0543145,-0.3433,-0.339508,-0.0305491,-0.0243513,-1.24288,-1.89282,-2.863,3.17348,3.09596,-0.10149,433.21,2.26264,0.273851,0.38723,0.12971,0.0997832,inf,inf,inf,inf,1,1,1,1,2,0,2,1,6,1,1,0
752698792,45740663,34.0343871,108.7550961,-53.2182,1.8897,-2.86098,-0.0184797,-0.00609138,0.0,0.027145,-0.0457297,-0.347261,-0.349513,-0.0305491,-0.0243513,-1.24288,-1.18185,-1.33064,2.24578,3.09191,-0.10149,433.21,2.30341,0.265435,0.385061,0.127281,0.0989918,inf,inf,inf,inf,1,1,1,1,2,0,2,1,6,1,1,0
752798153,45740663,34.0343871,108.7550961,-53.2119,1.88421,-2.90103,-0.0184797,-0.00609138,0.0,0.0205851,-0.0542643,-0.35065,-0.358142,-0.0305491,-0.0243513,-1.24288,2.25295,-1.18767,-3.35118,3.08347,-0.10149,433.21,2.34346,0.273277,0.38656,0.132357,0.100609,inf,inf,inf,inf,1,1,1,1,2,0,2,1,6,1,1,0
752902394,45740663,34.0343871,108.7550961,-53.212,1.88506,-2.9408,-0.0184797,-0.00609138,0.0,0.0240037,-0.0428424,-0.330968,-0.341769,-0.0305491,-0.0243513,-1.24288,-1.25512,-2.27378,1.95989,3.03227,-0.10149,433.21,2.38323,0.264999,0.384403,0.129639,0.099823,inf,inf,inf,inf,1,1,1,1,2,0,2,1,6,1,1,0
753001712,45740663,34.0343871,108.7550961,-53.2095,1.88453,-2.9756,-0.0184797,-0.00609138,0.0,0.0521258,-0.0330884,-0.285385,-0.298755,-0.0305491,-0.0243513,-1.24288,0.504168,1.49776,0.752115,2.96472,-0.10149,433.21,2.41803,0.272895,0.388289,0.134941,0.101731,inf,inf,inf,inf,1,1,1,1,2,0,2,1,6,1,1,0
753101171,45740663,34.0343871,108.7550961,-53.2048,1.88441,-3.00375,-0.0184797,-0.00609138,0.0,0.101666,-0.0523091,-0.228182,-0.242533,-0.0305491,-0.0243513,-1.24288,1.03751,-3.49255,-0.70979,2.88755,-0.10149,433.21,2.44618,0.264604,0.386099,0.132049,0.100909,inf,inf,inf,inf,1,1,1,1,2,0,2,1,6,1,1,0
753200391,45740663,34.0343871,108.7550961,-53.1926,1.8832,-3.02348,-0.0184797,-0.00609138,0.0,0.200753,-0.0460025,-0.178671,-0.191161,-0.0305491,-0.0243513,-1.24288,2.17283,-2.02708,-1.64178,2.8051,-0.10149,433.21,2.46591,0.272571,0.387668,0.137319,0.102601,inf,inf,inf,inf,1,1,1,1,2,0,2,1,6,1,1,0
753299667,45740663,34.0343871,108.7550961,-53.1642,1.87918,-3.04438,-0.0184797,-0.00609138,0.0,0.329363,-0.064441,-0.141655,-0.157931,-0.0305491,-0.0243513,-1.24288,1.42473,-1.13581,0.111336,2.72011,-0.10149,433.21,2.48681,0.264391,0.385486,0.134153,0.10173,inf,inf,inf,inf,1,1,1,1,2,0,2,1,6,1,1,0
753398985,45740663,34.0343871,108.7550961,-53.1229,1.87301,-3.05949,-0.0184797,-0.00609138,0.0,0.46628,-0.0758813,-0.105296,-0.122272,-0.0305491,-0.0243513,-1.24288,-1.11891,-0.748262,2.28885,2.63387,-0.10149,433.21,2.50192,0.272461,0.387065,0.140035,0.10345,inf,inf,inf,inf,1,1,1,1,2,0,2,1,6,1,1,0
753498303,45740663,34.0343871,108.7550961,-53.067,1.86573,-3.07043,-0.0184797,-0.00609138,0.0,0.613999,-0.0963509,-0.0761844,-0.0928393,-0.0305491,-0.0243513,-1.24288,2.54467,1.66452,0.380637,2.54914,-0.10149,433.21,2.51286,0.264207,0.384864,0.137913,0.102538,inf,inf,inf,inf,1,1,1,1,2,0,2,1,6,1,1,0
753597622,45740663,34.0343871,108.7550961,-52.9971,1.85635,-3.07629,-0.0184797,-0.00609138,0.0,0.762097,-0.120067,-0.0473041,-0.0618258,-0.0305491,-0.0243513,-1.24288,1.37675,-2.40596,-0.869394,2.46696,-0.10149,433.21,2.51872,0.272407,0.388831,0.145648,0.104526,inf,inf,inf,inf,1,1,1,1,2,0,2,1,6,1,1,0
753696941,45740663,34.0343871,108.7550961,-52.9177,1.84924,-3.07849,-0.0184797,-0.00609138,0.0,0.852305,-0.127577,-0.00976362,-0.0217888,-0.0305491,-0.0243513,-1.24288,1.34099,1.18435,1.12979,2.38208,-0.10149,433.21,2.52092,0.264103,0.386591,0.14375,0.103558,inf,inf,inf,inf,1,1,1,1,2,0,2,1,6,1,1,0
753806189,45740663,34.0343871,108.7550961,-52.8205,1.83939,-3.07713,-0.0184797,-0.00609138,0.0,0.940885,-0.151273,-0.00336957,-0.0123437,-0.0305491,-0.0243513,-1.24288,2.62517,-2.59888,-3.14171,2.28844,-0.10149,433.21,2.51956,0.273376,0.388868,0.153622,0.10558,inf,inf,inf,inf,1,1,1,1,2,0,2,1,6,1,1,0
753895663,45740663,34.0343871,108.7550961,-52.7345,1.83029,-3.07859,-0.0184797,-0.00609138,0.0,0.985642,-0.151961,-0.0139402,-0.0233283,-0.0305491,-0.0243513,-1.24288,0.481543,-3.14181,-3.28325,2.21126,-0.10149,433.21,2.52102,0.264105,0.385983,0.148883,0.104339,inf,inf,inf,inf,1,1,1,1,2,0,2,1,6,1,1,0
753999894,45740663,34.0343871,108.7550961,-52.63,1.81773,-3.08054,-0.0184797,-0.00609138,0.0,1.01024,-0.158086,-0.0179258,-0.0265166,-0.0305491,-0.0243513,-1.24288,0.943808,1.96634,1.16407,2.12107,-0.10149,433.21,2.52297,0.272715,0.387636,0.156428,0.106158,inf,inf,inf,inf,1,1,1,1,2,0,2,1,6,1,1,0
754099179,45740663,34.0343871,108.7550961,-52.5327,1.80777,-3.08144,-0.0184797,-0.00609138,0.0,1.02344,-0.160131,-0.0309887,-0.0365489,-0.0305491,-0.0243513,-1.24288,-1.30708,-1.43443,0.319425,2.0375,-0.10149,433.21,2.52387,0.264246,0.385388,0.151076,0.105137,inf,inf,inf,inf,1,1,1,1,2,0,2,1,6,1,1,0
754203462,45740663,34.0343871,108.7550961,-52.4294,1.79505,-3.08265,-0.0184797,-0.00609138,0.0,1.03497,-0.167029,-0.044393,-0.0464242,-0.0305491,-0.0243513,-1.24288,4.96869,3.66309,-0.163019,1.94927,-0.10149,433.21,2.52508,0.273051,0.389454,0.156462,0.107209,inf,inf,inf,inf,1,1,1,1,2,0,2,1,6,1,1,0
754302791,45740663,34.0343871,108.7550961,-52.328,1.78474,-3.08574,-0.0184797,-0.00609138,0.0,1.04566,-0.17852,-0.0572494,-0.0572936,-0.0305491,-0.0243513,-1.24288,4.79084,0.583409,-1.95467,1.86906,-0.10149,433.21,2.52817,0.264492,0.387154,0.149881,0.106101,inf,inf,inf,inf,1,1,1,1,2,0,2,1,6,1,1,0
754402101,45740663,34.0343871,108.7550961,-52.2269,1.77223,-3.08945,-0.0184797,-0.00609138,0.0,1.0316,-0.184879,-0.0529241,-0.0513421,-0.0305491,-0.0243513,-1.24288,0.43215,1.18884,1.0434,1.78923,-0.10149,433.21,2.53188,0.273433,0.388879,0.155596,0.107972,inf,inf,inf,inf,1,1,1,1,2,0,2,1,6,1,1,0
754501417,45740663,34.0343871,108.7550961,-52.1223,1.76395,-3.09442,-0.0184797,-0.00609138,0.0,1.04663,-0.186751,-0.0521536,-0.0502261,-0.0305491,-0.0243513,-1.24288,-0.157082,0.324826,1.12145,1.71144,-0.10149,433.21,2.53685,0.264869,0.386591,0.148818,0.106825,inf,inf,inf,inf,1,1,1,1,2,0,2,1,6,1,1,0
754600738,45740663,34.0343871,108.7550961,-52.0173,1.75375,-3.10129,-0.0184797,-0.00609138,0.0,1.04719,-0.180409,-0.0459033,-0.0458833,-0.0305491,-0.0243513,-1.24288,1.74095,1.20777,2.30718,1.63341,-0.10149,433.21,2.54373,0.273913,0.388341,0.153735,0.108671,inf,inf,inf,inf,1,1,1,1,2,0,2,1,6,1,1,0
754700165,45740663,34.0343871,108.7550961,-51.9127,1.74221,-3.10758,-0.0184797,-0.00609138,0.0,1.0633,-0.17834,-0.0493095,-0.0505519,-0.0305491,-0.0243513,-1.24288,2.64994,0.823669,1.23935,1.55272,-0.10149,433.21,2.55001,0.265166,0.386041,0.1471,0.107446,inf,inf,inf,inf,1,1,1,1,2,0,2,1,6,1,1,0
754799376,45740663,34.0343871,108.7550961,-51.8079,1.72889,-3.1145,-0.0184797,-0.00609138,0.0,1.04902,-0.182504,-0.056139,-0.0587726,-0.0305491,-0.0243513,-1.24288,0.217582,0.785712,0.691982,1.4704,-0.10149,433.21,2.55693,0.274263,0.390225,0.151916,0.10954,inf,inf,inf,inf,1,1,1,1,2,0,2,1,6,1,1,0
754898689,45740663,34.0343871,108.7550961,-51.7049,1.71688,-3.12047,-0.0184797,-0.00609138,0.0,1.02979,-0.176486,-0.0499445,-0.0530176,-0.0305491,-0.0243513,-1.24288,-3.47628,1.17089,1.67741,1.38755,-0.10149,433.21,2.5629,0.265406,0.387869,0.145808,0.108245,inf,inf,inf,inf,1,1,1,1,2,0,2,1,6,1,1,0
754998011,45740663,34.0343871,108.7550961,-51.6032,1.70385,-3.12551,-0.0184797,-0.00609138,0.0,1.04336,-0.178272,-0.0483026,-0.051007,-0.0305491,-0.0243513,-1.24288,3.98265,1.85171,3.52001,1.3034,-0.10149,433.21,2.56794,0.274523,0.389706,0.15071,0.110103,inf,inf,inf,inf,1,1,1,1,2,0,2,1,6,1,1,0
755097326,45740663,34.0343871,108.7550961,-51.5021,1.69471,-3.12787,-0.0184797,-0.00609138,0.0,1.02311,-0.176849,-0.0520589,-0.0519173,-0.0305491,-0.0243513,-1.24288,2.10836,0.661988,1.62157,1.22105,-0.10149,433.21,2.5703,0.265773,0.387359,0.144371,0.10877,inf,inf,inf,inf,1,1,1,1,2,0,2,1,6,1,1,0
755206579,45740663,34.0343871,108.7550961,-51.3925,1.68289,-3.13262,-0.0184797,-0.00609138,0.0,1.00095,-0.171434,-0.0474636,-0.0467719,-0.0305491,-0.0243513,-1.24288,1.16658,2.07627,3.31565,1.13182,-0.10149,433.21,2.57505,0.275844,0.389893,0.149827,0.110859,inf,inf,inf,inf,1,1,1,1,2,0,2,1,6,1,1,0
755300928,45740663,34.0343871,108.7550961,-51.2963,1.66827,-3.13704,-0.0184797,-0.00609138,0.0,0.980463,-0.181791,-0.0641962,-0.0632068,-0.0305491,-0.0243513,-1.24288,-4.24405,-0.322966,-2.20419,1.05598,-0.10149,433.21,2.57947,0.266134,0.386854,0.143453,0.109241,inf,inf,inf,inf,1,1,1,1,2,0,2,1,6,1,1,0
755400246,45740663,34.0343871,108.7550961,-51.1957,1.65153,-3.14264,-0.0184797,-0.00609138,0.0,0.984875,-0.193946,-0.066184,-0.065818,-0.0305491,-0.0243513,-1.24288,-1.27018,-2.76952,-3.45328,0.977722,-0.10149,433.21,2.58507,0.27525,0.388726,0.148331,0.11108,inf,inf,inf,inf,1,1,1,1,2,0,2,1,6,1,1,0
755499589,45740663,34.0343871,108.7550961,-51.098,1.63337,-3.1487,-0.0184797,-0.00609138,0.0,0.958456,-0.184926,-0.0549527,-0.056068,-0.0305491,-0.0243513,-1.24288,-4.39723,0.360083,-2.66121,0.901906,-0.10149,433.21,2.59113,0.266509,0.386362,0.142881,0.10969,inf,inf,inf,inf,1,1,1,1,2,0,2,1,6,1,1,0
755598884,45740663,34.0343871,108.7550961,-51.0024,1.61512,-3.15368,-0.0184797,-0.00609138,0.0,0.958669,-0.19101,-0.0463019,-0.0481135,-0.0305491,-0.0243513,-1.24288,-0.148153,0.265193,-0.450266,0.828183,-0.10149,433.21,2.59611,0.275621,0.390682,0.148004,0.111778,inf,inf,inf,inf,1,1,1,1,2,0,2,1,6,1,1,0
755698204,45740663,34.0343871,108.7550961,-50.9038,1.59489,-3.16002,-0.0184797,-0.00609138,0.0,0.954183,-0.187725,-0.0391202,-0.0427094,-0.0305491,-0.0243513,-1.24288,3.66782,-1.03076,2.17002,0.756538,-0.10149,433.21,2.60245,0.267012,0.38828,0.142553,0.110306,inf,inf,inf,inf,1,1,1,1,2,0,2,1,6,1,1,0
755797673,45740663,34.0343871,108.7550961,-50.8079,1.57587,-3.16489,-0.0184797,-0.00609138,0.0,0.92804,-0.167931,-0.040184,-0.0440061,-0.0305491,-0.0243513,-1.24288,0.676688,1.30579,1.3996,0.685416,-0.10149,433.21,2.60732,0.276122,0.390241,0.147712,0.112135,inf,inf,inf,inf,1,1,1,1,2,0,2,1,6,1,1,0
755906769,45740663,34.0343871,108.7550961,-50.7098,1.5522,-3.17019,-0.0184797,-0.00609138,0.0,0.902535,-0.169002,-0.0524453,-0.0562059,-0.0305491,-0.0243513,-1.24288,-4.04657,-0.720798,-3.19555,0.60794,-0.10149,433.21,2.61262,0.268397,0.388492,0.1429,0.110842,inf,inf,inf,inf,1,1,1,1,2,0,2,1,6,1,1,0
755996156,45740663,34.0343871,108.7550961,-50.6305,1.53551,-3.17464,-0.0184797,-0.00609138,0.0,0.904872,-0.144861,-0.035038,-0.039558,-0.0305491,-0.0243513,-1.24288,1.86668,-0.911537,-0.049399,0.543278,-0.10149,433.21,2.61707,0.276616,0.38979,0.147716,0.112433,inf,inf,inf,inf,1,1,1,1,2,0,2,1,6,1,1,0
756105433,45740663,34.0343871,108.7550961,-50.5341,1.52011,-3.18283,-0.0184797,-0.00609138,0.0,0.884436,-0.117035,-0.0278559,-0.0364755,-0.0305491,-0.0243513,-1.24288,-0.514939,2.19418,1.44707,0.464005,-0.10149,433.21,2.62526,0.268799,0.388024,0.143004,0.111092,inf,inf,inf,inf,1,1,1,1,2,0,2,1,6,1,1,0
756194793,45740663,34.0343871,108.7550961,-50.4562,1.5096,-3.18851,-0.0184797,-0.00609138,0.0,0.884725,-0.107462,-0.0297931,-0.0405048,-0.0305491,-0.0243513,-1.24288,-0.551217,-0.476724,-1.42718,0.397854,-0.10149,433.21,2.63094,0.277009,0.391773,0.147788,0.112919,inf,inf,inf,inf,1,1,1,1,2,0,2,1,6,1,1,0
756304107,45740663,34.0343871,108.7550961,-50.3629,1.49457,-3.19819,-0.0184797,-0.00609138,0.0,0.866904,-0.0819275,-0.0196512,-0.0363661,-0.0305491,-0.0243513,-1.24288,-0.44856,-0.140146,-0.665349,0.313288,-0.10149,433.21,2.64063,0.269199,0.389942,0.143257,0.111523,inf,inf,inf,inf,1,1,1,1,2,0,2,1,6,1,1,0
756398396,45740663,34.0343871,108.7550961,-50.2829,1.48469,-3.20519,-0.0184797,-0.00609138,0.0,0.861343,-0.070621,-0.00196398,-0.0233624,-0.0305491,-0.0243513,-1.24288,-0.128995,-1.04752,-0.987321,0.242098,-0.10149,433.21,2.64762,0.277358,0.391238,0.147811,0.11287,inf,inf,inf,inf,1,1,1,1,2,0,2,1,6,1,1,0
756497713,45740663,34.0343871,108.7550961,-50.2008,1.47155,-3.21002,-0.0184797,-0.00609138,0.0,0.852742,-0.0374526,0.0257447,0.00122257,-0.0305491,-0.0243513,-1.24288,1.68677,1.54605,2.55426,0.173406,-0.10149,433.21,2.65246,0.268663,0.388694,0.142448,0.111172,inf,inf,inf,inf,1,1,1,1,2,0,2,1,6,1,1,0
756597152,45740663,34.0343871,108.7550961,-50.1198,1.46156,-3.21301,-0.0184797,-0.00609138,0.0,0.827159,-0.0291669,0.0149836,-0.0114096,-0.0305491,-0.0243513,-1.24288,-4.05591,2.421,-3.27237,0.103475,-0.10149,433.21,2.65544,0.277776,0.393149,0.147837,0.113215,inf,inf,inf,inf,1,1,1,1,2,0,2,1,6,1,1,0
756696374,45740663,34.0343871,108.7550961,-50.0423,1.45104,-3.2123,-0.0184797,-0.00609138,0.0,0.806841,0.0024638,0.0226179,-0.00225361,-0.0305491,-0.0243513,-1.24288,-0.578284,3.43764,0.135007,0.0505219,-0.10149,433.21,2.65473,0.269068,0.390551,0.142498,0.111557,inf,inf,inf,inf,1,1,1,1,2,0,2,1,6,1,1,0
756805600,45740663,34.0343871,108.7550961,-49.9593,1.4451,-3.21009,-0.0184797,-0.00609138,0.0,0.800735,0.0273851,0.0154149,-0.00565398,-0.0305491,-0.0243513,-1.24288,0.374181,-2.71415,-0.151739,0.0239349,-0.10149,433.21,2.65252,0.27914,0.393253,0.14832,0.113584,inf,inf,inf,inf,1,1,1,1,2,0,2,1,6,1,1,0
756899951,45740663,34.0343871,108.7550961,-49.8906,1.44106,-3.20872,-0.0184797,-0.00609138,0.0,0.776918,0.0395597,0.00764205,-0.010608,-0.0305491,-0.0243513,-1.24288,-1.85359,0.91514,-2.0678,0.0122531,-0.10149,433.21,2.65115,0.269494,0.389928,0.142543,0.111691,inf,inf,inf,inf,1,1,1,1,2,0,2,1,6,1,1,0
756999270,45740663,34.0343871,108.7550961,-49.8192,1.44058,-3.2065,-0.0184797,-0.00609138,0.0,0.777584,0.0595409,0.0166346,0.00185191,-0.0305491,-0.0243513,-1.24288,2.08749,-0.79685,1.89246,0.00584618,-0.10149,433.21,2.64893,0.278627,0.394413,0.147896,0.113798,inf,inf,inf,inf,1,1,1,1,2,0,2,1,6,1,1,0
757098627,45740663,34.0343871,108.7550961,-49.7478,1.44354,-3.20419,-0.0184797,-0.00609138,0.0,0.765191,0.0668432,0.0133716,0.00187232,-0.0305491,-0.0243513,-1.24288,1.83614,-4.44108,0.673242,0.00310317,-0.10149,433.21,2.64662,0.269933,0.391753,0.142804,0.112162,inf,inf,inf,inf,1,1,1,1,2,0,2,1,6,1,1,0
757197908,45740663,34.0343871,108.7550961,-49.6765,1.4493,-3.20117,-0.0184797,-0.00609138,0.0,0.762951,0.101451,-0.000131806,-0.00771538,-0.0305491,-0.0243513,-1.24288,-2.68643,2.29204,-3.35263,0.0045148,-0.10149,433.21,2.64361,0.279083,0.393817,0.148019,0.113989,inf,inf,inf,inf,1,1,1,1,2,0,2,1,6,1,1,0
757297226,45740663,34.0343871,108.7550961,-49.604,1.45961,-3.19304,-0.0184797,-0.00609138,0.0,0.771649,0.117169,0.0104148,0.0111081,-0.0305491,-0.0243513,-1.24288,0.0381255,1.24969,0.578836,0.00732044,-0.10149,433.21,2.63548,0.270384,0.391167,0.14274,0.112333,inf,inf,inf,inf,1,1,1,1,2,0,2,1,6,1,1,0
757396626,45740663,34.0343871,108.7550961,-49.5306,1.47216,-3.1859,-0.0184797,-0.00609138,0.0,0.783166,0.128118,0.00506488,0.0125407,-0.0305491,-0.0243513,-1.24288,2.02878,-1.66562,2.00322,0.0103382,-0.10149,433.21,2.62833,0.279546,0.393225,0.148075,0.114189,inf,inf,inf,inf,1,1,1,1,2,0,2,1,6,1,1,0
757500827,45740663,34.0343871,108.7550961,-49.4567,1.48426,-3.17792,-0.0184797,-0.00609138,0.0,0.792929,0.147816,-0.00847483,0.0069651,-0.0305491,-0.0243513,-1.24288,0.978138,-0.737428,0.475639,0.0145388,-0.10149,433.21,2.62036,0.270874,0.390566,0.142685,0.112484,inf,inf,inf,inf,1,1,1,1,2,0,2,1,6,1,1,0
757600145,45740663,34.0343871,108.7550961,-49.3842,1.4976,-3.17234,-0.0184797,-0.00609138,0.0,0.807171,0.157218,-0.0170339,0.00397763,-0.0305491,-0.0243513,-1.24288,2.29906,-2.15651,2.57135,0.0178006,-0.10149,433.21,2.61477,0.28005,0.392624,0.148192,0.114384,inf,inf,inf,inf,1,1,1,1,2,0,2,1,6,1,1,0
757699464,45740663,34.0343871,108.7550961,-49.3136,1.51348,-3.1692,-0.0184797,-0.00609138,0.0,0.815081,0.175062,-0.0300444,-0.00524344,-0.0305491,-0.0243513,-1.24288,2.06999,-1.0411,2.80013,0.021212,-0.10149,433.21,2.61163,0.271457,0.389986,0.142877,0.112704,inf,inf,inf,inf,1,1,1,1,2,0,2,1,6,1,1,0
757798783,45740663,34.0343871,108.7550961,-49.24,1.53104,-3.16706,-0.0184797,-0.00609138,0.0,0.823179,0.186115,-0.0521874,-0.023802,-0.0305491,-0.0243513,-1.24288,0.226991,0.50788,0.0410718,0.0242466,-0.10149,433.21,2.60949,0.280666,0.394547,0.148151,0.114852,inf,inf,inf,inf,1,1,1,1,2,0,2,1,6,1,1,0
757898100,45740663,34.0343871,108.7550961,-49.164,1.55109,-3.16987,-0.0184797,-0.00609138,0.0,0.834394,0.196347,-0.0678345,-0.0401064,-0.0305491,-0.0243513,-1.24288,-1.46692,3.03633,-2.19786,0.0276229,-0.10149,433.21,2.6123,0.271921,0.391857,0.142744,0.113125,inf,inf,inf,inf,1,1,1,1,2,0,2,1,6,1,1,0
757997462,45740663,34.0343871,108.7550961,-49.0852,1.57179,-3.17409,-0.0184797,-0.00609138,0.0,0.845967,0.189715,-0.0706454,-0.044289,-0.0305491,-0.0243513,-1.24288,-1.61016,0.378028,-2.8077,0.0300917,-0.10149,433.21,2.61652,0.281142,0.393966,0.147984,0.115004,inf,inf,inf,inf,1,1,1,1,2,0,2,1,6,1,1,0
758096737,45740663,34.0343871,108.7550961,-49.004,1.58914,-3.17101,-0.0184797,-0.00609138,0.0,0.872728,0.167587,-0.0615579,-0.0290814,-0.0305491,-0.0243513,-1.24288,1.95035,-6.00575,-0.2508,0.0323627,-0.10149,433.21,2.61344,0.27236,0.391269,0.142503,0.113241,inf,inf,inf,inf,1,1,1,1,2,0,2,1,6,1,1,0
758206133,45740663,34.0343871,108.7550961,-48.9123,1.60757,-3.16699,-0.0184797,-0.00609138,0.0,0.887252,0.163616,-0.0582119,-0.0189417,-0.0305491,-0.0243513,-1.24288,1.77507,-2.42913,0.79029,0.0346241,-0.10149,433.21,2.60942,0.282542,0.394092,0.148074,0.115324,inf,inf,inf,inf,1,1,1,1,2,0,2,1,6,1,1,0
758300341,45740663,34.0343871,108.7550961,-48.8297,1.62346,-3.15914,-0.0184797,-0.00609138,0.0,0.902253,0.164412,-0.0596971,-0.0108261,-0.0305491,-0.0243513,-1.24288,-0.0601504,-0.952869,-0.383654,0.0373419,-0.10149,433.21,2.60157,0.272773,0.390689,0.142014,0.113299,inf,inf,inf,inf,1,1,1,1,2,0,2,1,6,1,1,0
758399663,45740663,34.0343871,108.7550961,-48.7405,1.63948,-3.1509,-0.0184797,-0.00609138,0.0,0.916478,0.156814,-0.0549012,0.00231147,-0.0305491,-0.0243513,-1.24288,1.25204,-1.20661,1.0361,0.0403682,-0.10149,433.21,2.59333,0.281996,0.392793,0.147081,0.115138,inf,inf,inf,inf,1,1,1,1,2,0,2,1,6,1,1,0
758498995,45740663,34.0343871,108.7550961,-48.6494,1.65396,-3.1446,-0.0184797,-0.00609138,0.0,0.934604,0.161914,-0.0608452,0.0019356,-0.0305491,-0.0243513,-1.24288,0.81064,1.67193,0.559654,0.0436192,-0.10149,433.21,2.58704,0.273311,0.392571,0.141804,0.113662,inf,inf,inf,inf,1,1,1,1,2,0,2,1,6,1,1,0
758598294,45740663,34.0343871,108.7550961,-48.5565,1.66818,-3.14238,-0.0184797,-0.00609138,0.0,0.935628,0.161759,-0.0751109,-0.0108874,-0.0305491,-0.0243513,-1.24288,-2.33782,3.26375,-2.14077,0.0470032,-0.10149,433.21,2.58481,0.282547,0.394722,0.146788,0.115501,inf,inf,inf,inf,1,1,1,1,2,0,2,1,6,1,1,0
758697612,45740663,34.0343871,108.7550961,-48.4649,1.679,-3.14593,-0.0184797,-0.00609138,0.0,0.950338,0.150297,-0.0846577,-0.0239875,-0.0305491,-0.0243513,-1.24288,-2.47182,1.92752,-3.13645,0.0509769,-0.10149,433.21,2.58836,0.27388,0.392004,0.141412,0.113687,inf,inf,inf,inf,1,1,1,1,2,0,2,1,6,1,1,0
758796930,45740663,34.0343871,108.7550961,-48.3712,1.69,-3.15093,-0.0184797,-0.00609138,0.0,0.959483,0.132999,-0.0798933,-0.0234309,-0.0305491,-0.0243513,-1.24288,0.382419,-2.15809,-0.720994,0.054517,-0.10149,433.21,2.59336,0.283121,0.394133,0.14638,0.115519,inf,inf,inf,inf,1,1,1,1,2,0,2,1,6,1,1,0
758906241,45740663,34.0343871,108.7550961,-48.2664,1.69822,-3.15404,-0.0184797,-0.00609138,0.0,0.976721,0.134082,-0.0701858,-0.0148664,-0.0305491,-0.0243513,-1.24288,1.31744,2.4435,2.68952,0.058195,-0.10149,433.21,2.59647,0.275181,0.392073,0.141266,0.113815,inf,inf,inf,inf,1,1,1,1,2,0,2,1,6,1,1,0
758995624,45740663,34.0343871,108.7550961,-48.1796,1.70484,-3.15819,-0.0184797,-0.00609138,0.0,0.972272,0.140214,-0.0751695,-0.0222954,-0.0305491,-0.0243513,-1.24288,-1.15809,6.01711,0.699871,0.0612524,-0.10149,433.21,2.60062,0.283501,0.393485,0.145622,0.115278,inf,inf,inf,inf,1,1,1,1,2,0,2,1,6,1,1,0
759099851,45740663,34.0343871,108.7550961,-48.0843,1.71669,-3.16163,-0.0184797,-0.00609138,0.0,0.974536,0.117231,-0.0728549,-0.0208648,-0.0305491,-0.0243513,-1.24288,2.0461,-0.853371,1.32843,0.0622284,-0.10149,433.21,2.60406,0.274805,0.393206,0.140178,0.113598,inf,inf,inf,inf,1,1,1,1,2,0,2,1,6,1,1,0
759199170,45740663,34.0343871,108.7550961,-47.9931,1.72913,-3.16344,-0.0184797,-0.00609138,0.0,0.971914,0.12602,-0.0678599,-0.0161865,-0.0305491,-0.0243513,-1.24288,0.13935,0.738023,1.1738,0.0638587,-0.10149,433.21,2.60587,0.284006,0.395346,0.145004,0.115267,inf,inf,inf,inf,1,1,1,1,2,0,2,1,6,1,1,0
759298662,45740663,34.0343871,108.7550961,-47.9012,1.74369,-3.16632,-0.0184797,-0.00609138,0.0,0.965391,0.124637,-0.0705348,-0.0208669,-0.0305491,-0.0243513,-1.24288,-0.0598277,-1.42416,-0.584837,0.0640758,-0.10149,433.21,2.60875,0.275306,0.392566,0.139713,0.113338,inf,inf,inf,inf,1,1,1,1,2,0,2,1,6,1,1,0
759397805,45740663,34.0343871,108.7550961,-47.8084,1.75845,-3.16912,-0.0184797,-0.00609138,0.0,0.966634,0.135098,-0.0701592,-0.0225353,-0.0305491,-0.0243513,-1.24288,-2.18211,2.91771,-2.50802,0.0630622,-0.10149,433.21,2.61155,0.284494,0.394702,0.144466,0.114968,inf,inf,inf,inf,1,1,1,1,2,0,2,1,6,1,1,0
759497124,45740663,34.0343871,108.7550961,-47.7105,1.77072,-3.16719,-0.0184797,-0.00609138,0.0,0.972346,0.120337,-0.0638635,-0.0138132,-0.0305491,-0.0243513,-1.24288,-1.27496,-0.463345,-1.98583,0.06086,-0.10149,433.21,2.60962,0.275798,0.391931,0.139128,0.113006,inf,inf,inf,inf,1,1,1,1,2,0,2,1,6,1,1,0
759596442,45740663,34.0343871,108.7550961,-47.6121,1.7823,-3.16657,-0.0184797,-0.00609138,0.0,0.982402,0.112198,-0.0522632,-0.00166142,-0.0305491,-0.0243513,-1.24288,0.862835,-3.83918,0.877961,0.0599086,-0.10149,433.21,2.609,0.284967,0.394052,0.143844,0.114608,inf,inf,inf,inf,1,1,1,1,2,0,2,1,6,1,1,0
759695760,45740663,34.0343871,108.7550961,-47.5117,1.79261,-3.16302,-0.0184797,-0.00609138,0.0,0.988879,0.108784,-0.0526628,0.00136123,-0.0305491,-0.0243513,-1.24288,1.3416,-1.55322,1.46438,0.0595141,-0.10149,433.21,2.60545,0.276276,0.391292,0.138543,0.11264,inf,inf,inf,inf,1,1,1,1,2,0,2,1,6,1,1,0
759805076,45740663,34.0343871,108.7550961,-47.401,1.80285,-3.16048,-0.0184797,-0.00609138,0.0,0.982816,0.111798,-0.0641705,-0.00768773,-0.0305491,-0.0243513,-1.24288,-1.38178,2.90506,-0.897897,0.0599298,-0.10149,433.21,2.60292,0.286368,0.394106,0.143677,0.114432,inf,inf,inf,inf,1,1,1,1,2,0,2,1,6,1,1,0
759899363,45740663,34.0343871,108.7550961,-47.3071,1.81462,-3.15787,-0.0184797,-0.00609138,0.0,0.995432,0.105062,-0.0556861,0.00365217,-0.0305491,-0.0243513,-1.24288,2.67882,0.441273,3.52865,0.0595787,-0.10149,433.21,2.6003,0.276709,0.393112,0.138012,0.112538,inf,inf,inf,inf,1,1,1,1,2,0,2,1,6,1,1,0
759998681,45740663,34.0343871,108.7550961,-47.208,1.82603,-3.15757,-0.0184797,-0.00609138,0.0,0.988481,0.107683,-0.0663794,-0.00688909,-0.0305491,-0.0243513,-1.24288,-0.0427654,4.64441,1.12442,0.0598538,-0.10149,433.21,2.6,0.285834,0.395238,0.14271,0.114111,inf,inf,inf,inf,1,1,1,1,2,0,2,1,6,1,1,0
760098122,45740663,34.0343871,108.7550961,-47.1067,1.83646,-3.15936,-0.0184797,-0.00609138,0.0,0.97996,0.100573,-0.0759704,-0.0181999,-0.0305491,-0.0243513,-1.24288,-2.17449,2.57001,-1.95758,0.0599521,-0.10149,433.21,2.60179,0.277071,0.392457,0.137653,0.112184,inf,inf,inf,inf,1,1,1,1,2,0,2,1,6,1,1,0
760197317,45740663,34.0343871,108.7550961,-47.006,1.84645,-3.16458,-0.0184797,-0.00609138,0.0,0.985863,0.0884494,-0.0750185,-0.0220732,-0.0305491,-0.0243513,-1.24288,0.0703433,-3.41741,-0.745794,0.0590788,-0.10149,433.21,2.60701,0.286176,0.394574,0.142315,0.113728,inf,inf,inf,inf,1,1,1,1,2,0,2,1,6,1,1,0
760296636,45740663,34.0343871,108.7550961,-46.9007,1.85627,-3.1677,-0.0184797,-0.00609138,0.0,0.993567,0.0806283,-0.0595544,-0.00877297,-0.0305491,-0.0243513,-1.24288,4.40961,-4.13313,3.90897,0.0594814,-0.10149,433.21,2.61014,0.277346,0.391797,0.13722,0.111788,inf,inf,inf,inf,1,1,1,1,2,0,2,1,6,1,1,0
760400943,45740663,34.0343871,108.7550961,-46.7919,1.86591,-3.17402,-0.0184797,-0.00609138,0.0,0.982222,0.0809215,-0.0773571,-0.0311684,-0.0305491,-0.0243513,-1.24288,-1.07595,-1.90608,-2.04431,0.0590187,-0.10149,433.21,2.61646,0.286425,0.396395,0.141803,0.113577,inf,inf,inf,inf,1,1,1,1,2,0,2,1,6,1,1,0
760500239,45740663,34.0343871,108.7550961,-46.6909,1.8781,-3.18003,-0.0184797,-0.00609138,0.0,0.979404,0.0886811,-0.0644202,-0.0223822,-0.0305491,-0.0243513,-1.24288,2.03792,-0.0599826,2.58369,0.0588826,-0.10149,433.21,2.62246,0.277571,0.393571,0.136716,0.111621,inf,inf,inf,inf,1,1,1,1,2,0,2,1,6,1,1,0
760599564,45740663,34.0343871,108.7550961,-46.5913,1.88975,-3.18542,-0.0184797,-0.00609138,0.0,0.974279,0.101064,-0.0593538,-0.0208874,-0.0305491,-0.0243513,-1.24288,1.44615,5.03001,3.07653,0.0590795,-0.10149,433.21,2.62786,0.286623,0.39567,0.141494,0.11316,inf,inf,inf,inf,1,1,1,1,2,0,2,1,6,1,1,0
760703841,45740663,34.0343871,108.7550961,-46.4888,1.90325,-3.19496,-0.0184797,-0.00609138,0.0,0.96608,0.083858,-0.062235,-0.0309675,-0.0305491,-0.0243513,-1.24288,1.47486,-2.14363,1.56574,0.0587085,-0.10149,433.21,2.63739,0.277544,0.392855,0.136264,0.111187,inf,inf,inf,inf,1,1,1,1,2,0,2,1,6,1,1,0
760803202,45740663,34.0343871,108.7550961,-46.3922,1.91591,-3.20469,-0.0184797,-0.00609138,0.0,0.958309,0.109041,-0.0598565,-0.0355768,-0.0305491,-0.0243513,-1.24288,-0.237092,5.77865,1.50129,0.0583381,-0.10149,433.21,2.64713,0.286551,0.394939,0.140845,0.112662,inf,inf,inf,inf,1,1,1,1,2,0,2,1,6,1,1,0
760902584,45740663,34.0343871,108.7550961,-46.2978,1.93084,-3.21023,-0.0184797,-0.00609138,0.0,0.950429,0.0935123,-0.0671352,-0.0453472,-0.0305491,-0.0243513,-1.24288,-3.35941,3.43271,-3.21729,0.0569081,-0.10149,433.21,2.65266,0.277676,0.392169,0.136043,0.11078,inf,inf,inf,inf,1,1,1,1,2,0,2,1,6,1,1,0
