timestamp,roll,pitch,yaw,thrust_body[0],thrust_body[1],thrust_body[2]
741402029,0.3556,0.536199,0.00189359,0.0,0.0,-0.0
741406881,0.35528,0.536381,0.0021506,0.0,0.0,-0.0
741426701,0.355932,0.536079,0.00231392,0.0,0.0,-0.0
741441706,0.353697,0.536311,0.00402675,0.0,0.0,-0.0
741461539,0.354513,0.535211,0.00250813,0.0,0.0,-0.0
741486377,0.356937,0.531762,0.00112401,0.0,0.0,-0.0
741501348,0.354028,0.531472,0.00206198,0.0,0.0,-0.0
741546085,0.354002,0.540982,0.00231177,0.0,0.0,-0.0
741565888,0.356674,0.540592,0.00218563,0.0,0.0,-0.0
741580858,0.355849,0.536609,0.00152767,0.0,0.0,-0.0
741605568,0.356167,0.535532,0.00358249,0.0,0.0,-0.0
741625478,0.353533,0.534143,0.00264303,0.0,0.0,-0.0
741640258,0.351584,0.5324,0.0031936,0.0,0.0,-0.0
741665051,0.351477,0.535735,0.00222227,0.0,0.0,-0.0
741685017,0.357202,0.538779,0.00232112,0.0,0.0,-0.0
741704921,0.353777,0.538145,0.00352098,0.0,0.0,-0.0
741724758,0.349729,0.540274,0.00267081,0.0,0.0,-0.0
741744584,0.357922,0.539131,0.00143691,0.0,0.0,-0.0
741764479,0.35329,0.536177,0.00343868,0.0,0.0,-0.0
741784391,0.352964,0.539958,0.00295903,0.0,0.0,-0.0
741804444,0.355342,0.540858,0.00167161,0.0,0.0,-0.0
741824109,0.35442,0.538653,0.00274497,0.0,0.0,-0.0
741843971,0.352219,0.540695,0.00310769,0.0,0.0,-0.0
741863839,0.357255,0.54045,0.00176944,0.0,0.0,-0.0
741883740,0.354076,0.535653,0.00275661,0.0,0.0,-0.0
741903453,0.352154,0.540251,0.0031777,0.0,0.0,-0.0
741923272,0.356292,0.542739,0.0014756,0.0,0.0,-0.0
741943203,0.35481,0.537209,0.00239911,0.0,0.0,-0.0
741963063,0.351661,0.540369,0.00313833,0.0,0.0,-0.0
741982958,0.355381,0.54359,0.00218184,0.0,0.0,-0.0
742002735,0.355246,0.537953,0.00202233,0.0,0.0,-0.0
742022665,0.351864,0.536886,0.00289522,0.0,0.0,-0.0
742042677,0.354722,0.543043,0.00277934,0.0,0.0,-0.0
742062674,0.355209,0.541563,0.00269739,0.0,0.0,-0.0
742082293,0.352199,0.538282,0.00248723,0.0,0.0,-0.0
742102215,0.354377,0.541945,0.00222281,0.0,0.0,-0.0
742127023,0.355526,0.541475,0.00246661,0.0,0.0,-0.0
742141939,0.352993,0.538828,0.00280391,0.0,0.0,-0.0
742161850,0.353616,0.538851,0.00104017,0.0,0.0,-0.00873929
742186473,0.354331,0.541525,0.00123553,0.0,0.0,-0.0461934
742201381,0.354455,0.540791,0.00390723,0.0,0.0,-0.0461934
742221248,0.352785,0.539592,0.00134304,0.0,0.0,-0.0674174
742246115,0.352708,0.537744,0.000982025,0.0,0.0,-0.0724113
742266025,0.356094,0.53566,0.00137262,0.0,0.0,-0.0799021
742280910,0.3526,0.528363,0.00385531,0.0,0.0,-0.111114
742305785,0.352882,0.524446,0.00210211,0.0,0.0,-0.195789
742325661,0.344527,0.530893,0.00239996,0.0,0.0,-0.228421
742345566,0.344159,0.540492,0.00251377,0.0,0.0,-0.236842
742365400,0.342829,0.540572,0.00294694,0.0,0.0,-0.292632
742385306,0.341149,0.527488,0.00248937,0.0,0.0,-0.309474
742405114,0.348778,0.510261,0.00331124,0.0,0.0,-0.309474
742424925,0.345617,0.507546,0.00130688,0.0,0.0,-0.315789
742444787,0.325923,0.513142,0.00342877,0.0,0.0,-0.315789
742464685,0.325348,0.512021,0.00155015,0.0,0.0,-0.314737
742484503,0.347258,0.503368,0.000466109,0.0,0.0,-0.314737
742504367,0.322416,0.512745,0.00120357,0.0,0.0,-0.313684
742524237,0.328708,0.499632,0.0016427,0.0,0.0,-0.313684
742544078,0.340648,0.493263,-0.00134338,0.0,0.0,-0.313684
742564003,0.328246,0.499785,-0.00321989,0.0,0.0,-0.312632
742583877,0.325067,0.498141,-0.00327556,0.0,0.0,-0.311579
742603845,0.325016,0.500134,-0.00242125,0.0,0.0,-0.311579
742623597,0.316066,0.502715,0.000641157,0.0,0.0,-0.311579
742643452,0.336446,0.490336,-0.000438956,0.0,0.0,-0.311579
742663320,0.326326,0.493315,-0.00335701,0.0,0.0,-0.311579
742683180,0.338243,0.477338,-0.00120662,0.0,0.0,-0.311579
742703048,0.325846,0.482857,-0.00151522,0.0,0.0,-0.311579
742722932,0.324671,0.478736,-0.00281945,0.0,0.0,-0.311579
742742689,0.326034,0.4762,-0.00235667,0.0,0.0,-0.312632
742767537,0.333336,0.470855,-0.00189379,0.0,0.0,-0.318947
742782491,0.331824,0.470505,-0.000420096,0.0,0.0,-0.341053
742802349,0.332682,0.472928,-0.00120967,0.0,0.0,-0.341053
742827167,0.326758,0.47154,-0.00263072,0.0,0.0,-0.366316
742842101,0.323616,0.470791,-0.00337066,0.0,0.0,-0.366316
742861992,0.311524,0.475698,-0.00256144,0.0,0.0,-0.382105
742886756,0.313838,0.46421,-0.00408547,0.0,0.0,-0.395789
742901750,0.307313,0.458758,-0.00608982,0.0,0.0,-0.415789
742921535,0.303786,0.447212,-0.00519024,0.0,0.0,-0.42
742946515,0.289316,0.435723,-0.00601913,0.0,0.0,-0.42
742966269,0.285974,0.424123,-0.0085099,0.0,0.0,-0.42
742981109,0.277974,0.414126,-0.00982903,0.0,0.0,-0.42
743005888,0.257866,0.3934,-0.0109745,0.0,0.0,-0.42
743025827,0.257963,0.367858,-0.0130413,0.0,0.0,-0.42
743040720,0.260124,0.354616,-0.0163928,0.0,0.0,-0.421053
743065561,0.24807,0.331759,-0.0215617,0.0,0.0,-0.422105
743085340,0.239779,0.312375,-0.0255635,0.0,0.0,-0.422105
743105205,0.23352,0.295297,-0.0272786,0.0,0.0,-0.421053
743125145,0.229648,0.277883,-0.0277003,0.0,0.0,-0.422105
743145137,0.221732,0.260804,-0.0296262,0.0,0.0,-0.422105
743164854,0.214517,0.249198,-0.0302306,0.0,0.0,-0.422105
743184749,0.21112,0.232762,-0.0337456,0.0,0.0,-0.422105
743204731,0.205211,0.222169,-0.0338001,0.0,0.0,-0.422105
743224635,0.196459,0.206758,-0.036217,0.0,0.0,-0.422105
743244390,0.192803,0.192272,-0.0377927,0.0,0.0,-0.422105
743264218,0.18759,0.18233,-0.0376076,0.0,0.0,-0.422105
743284140,0.1863,0.173886,-0.0409397,0.0,0.0,-0.422105
743303966,0.179726,0.165601,-0.0392811,0.0,0.0,-0.422105
743323707,0.19157,0.157837,-0.0382011,0.0,0.0,-0.421053
743343538,0.185838,0.145592,-0.0385963,0.0,0.0,-0.421053
743363432,0.181803,0.000468012,-0.0383158,0.0,0.0,-0.42
743383396,0.17593,0.00128125,-0.0363851,0.0,0.0,-0.42
743403377,0.160376,-0.135923,-0.0358464,0.0,0.0,-0.42
743423156,0.162764,-0.146156,-0.0345549,0.0,0.0,-0.42
743442986,0.155829,-0.156316,-0.0310122,0.0,0.0,-0.421053
743462820,0.153491,-0.146162,-0.0274268,0.0,0.0,-0.421053
743482744,0.143119,-0.125643,-0.0233499,0.0,0.0,-0.421053
743502600,0.132519,-0.0959853,-0.0225194,0.0,0.0,-0.42
743527500,0.128553,-0.0579969,-0.0210725,0.0,0.0,-0.42
743542298,0.128704,0.0388902,-0.0200581,0.0,0.0,-0.42
743562072,0.130128,0.0771689,-0.0193949,0.0,0.0,-0.42
743586849,0.129165,0.10896,-0.0201929,0.0,0.0,-0.42
743601759,0.12705,0.129274,-0.0204046,0.0,0.0,-0.42
743621621,0.125458,0.159922,-0.0246097,0.0,0.0,-0.42
743646559,0.127128,0.24898,-0.0311943,0.0,0.0,-0.42
743666492,0.12851,0.292704,-0.0383125,0.0,0.0,-0.42
743681467,0.11521,0.335111,-0.0427641,0.0,0.0,-0.421053
743706203,0.101731,0.378097,-0.0483315,0.0,0.0,-0.437895
743725997,0.0989042,0.393791,-0.0553325,0.0,0.0,-0.445263
743745926,0.0756292,0.412636,-0.0615448,0.0,0.0,-0.446316
743765748,0.0477399,0.393116,-0.0674092,0.0,0.0,-0.449474
743785525,0.0461894,0.373609,-0.0764825,0.0,0.0,-0.450526
743805451,0.0304006,0.341843,-0.0823965,0.0,0.0,-0.450526
743825299,0.016118,0.317645,-0.0893905,0.0,0.0,-0.457895
743845127,0.00703318,0.281051,-0.095084,0.0,0.0,-0.464211
743864989,0.00721694,0.241742,-0.103176,0.0,0.0,-0.466316
743884896,-0.00895747,0.201133,-0.108284,0.0,0.0,-0.467368
743904709,-0.0281702,0.163788,-0.113331,0.0,0.0,-0.472632
743924602,-0.0322687,0.123596,-0.118189,0.0,0.0,-0.475789
743944614,-0.0453514,0.0839529,-0.120886,0.0,0.0,-0.481053
743964416,-0.062113,0.0472659,-0.121261,0.0,0.0,-0.483158
743984312,-0.0831707,0.0148806,-0.120392,0.0,0.0,-0.487368
744004114,-0.0931532,-0.0170638,-0.119602,0.0,0.0,-0.488421
744023987,-0.106451,-0.0500414,-0.116496,0.0,0.0,-0.488421
744043762,-0.10122,-0.082628,-0.111846,0.0,0.0,-0.488421
744063637,-0.117594,-0.149642,-0.11089,0.0,0.0,-0.488421
744083507,-0.134816,-0.294758,-0.107012,0.0,0.0,-0.488421
744103417,-0.149371,-0.37553,-0.10251,0.0,0.0,-0.488421
744123329,-0.158193,-0.418567,-0.0970253,0.0,0.0,-0.488421
744143087,-0.16978,-0.4288,-0.0915224,0.0,0.0,-0.489474
744167922,-0.190942,-0.500533,-0.0799085,0.0,0.0,-0.489474
744182877,-0.204047,-0.519418,-0.0720734,0.0,0.0,-0.490526
744202790,-0.217797,-0.522791,-0.0616437,0.0,0.0,-0.490526
744227738,-0.261219,-0.52995,-0.0489305,0.0,0.0,-0.491579
744242588,-0.267791,-0.521776,-0.042303,0.0,0.0,-0.491579
744262277,-0.296053,-0.516746,-0.0304757,0.0,0.0,-0.491579
744287222,-0.331429,-0.495147,-0.0215829,0.0,0.0,-0.491579
744302074,-0.343755,-0.482092,-0.016926,0.0,0.0,-0.491579
744321965,-0.348753,-0.460215,-0.0120035,0.0,0.0,-0.491579
744346760,-0.368304,-0.426245,-0.00774087,0.0,0.0,-0.491579
744366686,-0.36654,-0.402817,-0.00774328,0.0,0.0,-0.491579
744381510,-0.360716,-0.385228,-0.00723849,0.0,0.0,-0.491579
744406326,-0.362323,-0.334283,-0.0144263,0.0,0.0,-0.491579
744426262,-0.35507,-0.307261,-0.0199557,0.0,0.0,-0.491579
744441162,-0.325643,-0.292046,-0.0263983,0.0,0.0,-0.490526
744461030,-0.320516,-0.283667,-0.0335065,0.0,0.0,-0.490526
744485982,-0.305952,-0.244315,-0.0448499,0.0,0.0,-0.490526
744505652,-0.300744,-0.212057,-0.0511239,0.0,0.0,-0.490526
744520558,-0.294282,-0.185894,-0.0555999,0.0,0.0,-0.490526
744545403,-0.275485,-0.158051,-0.061226,0.0,0.0,-0.490526
744565308,-0.258822,-0.154835,-0.0698341,0.0,0.0,-0.490526
744585175,-0.245357,-0.125129,-0.0773025,0.0,0.0,-0.490526
744604981,-0.238381,-0.0948543,-0.0838867,0.0,0.0,-0.490526
744624773,-0.227898,-0.0638956,-0.0901921,0.0,0.0,-0.488421
744644695,-0.209428,-0.0393442,-0.0973247,0.0,0.0,-0.487368
744664577,-0.195589,-0.0213985,-0.106446,0.0,0.0,-0.498947
744684433,-0.186263,0.000332495,-0.112706,0.0,0.0,-0.506316
744704306,-0.182868,0.0370096,-0.117922,0.0,0.0,-0.5106
744724086,-0.181955,0.0523141,-0.119919,0.0,0.0,-0.514198
744744235,-0.185999,0.0643729,-0.123666,0.0,0.0,-0.515398
744763991,-0.177919,0.046884,-0.127091,0.0,0.0,-0.516597
744783781,-0.176445,0.0458659,-0.127444,0.0,0.0,-0.516597
744803625,-0.181669,0.0118463,-0.128334,0.0,0.0,-0.517797
744823549,-0.19286,-0.0164614,-0.126565,0.0,0.0,-0.518996
744843355,-0.197681,-0.0229926,-0.127849,0.0,0.0,-0.521395
744863176,-0.191374,-0.0295806,-0.129765,0.0,0.0,-0.523794
744883044,-0.182455,-0.0373914,-0.131974,0.0,0.0,-0.526193
744902822,-0.169033,-0.0579285,-0.133657,0.0,0.0,-0.501053
744927802,-0.181015,-0.0893691,-0.130781,0.0,0.0,-0.501053
744942636,-0.176186,-0.107732,-0.134283,0.0,0.0,-0.501053
744962501,-0.177466,-0.112551,-0.133783,0.0,0.0,-0.502105
744987300,-0.157466,-0.126639,-0.134157,0.0,0.0,-0.506316
745002301,-0.157461,-0.125124,-0.133456,0.0,0.0,-0.506316
745022254,-0.146992,-0.12335,-0.13419,0.0,0.0,-0.506316
745042010,-0.141629,-0.129942,-0.131528,0.0,0.0,-0.506316
745066865,-0.132396,-0.119023,-0.129476,0.0,0.0,-0.509474
745081785,-0.131299,-0.109561,-0.127635,0.0,0.0,-0.511799
745101604,-0.124888,-0.129249,-0.126348,0.0,0.0,-0.511799
745126322,-0.122406,-0.132885,-0.122075,0.0,0.0,-0.511799
745141230,-0.10897,-0.127313,-0.123791,0.0,0.0,-0.511799
745161152,-0.110508,-0.112399,-0.121004,0.0,0.0,-0.511799
745185962,-0.0972342,-0.127194,-0.120151,0.0,0.0,-0.512999
745205824,-0.107602,-0.120369,-0.11773,0.0,0.0,-0.512999
745220721,-0.10838,-0.115927,-0.115802,0.0,0.0,-0.512999
745245526,-0.116342,-0.102732,-0.112658,0.0,0.0,-0.514198
745265405,-0.116723,-0.092881,-0.112943,0.0,0.0,-0.514198
745285409,-0.127818,-0.0796849,-0.112746,0.0,0.0,-0.516597
745305225,-0.139109,-0.0696662,-0.111661,0.0,0.0,-0.518996
745325180,-0.142564,-0.0584726,-0.111106,0.0,0.0,-0.518996
745344894,-0.159422,-0.0486029,-0.112064,0.0,0.0,-0.521395
745364699,-0.171925,-0.0308433,-0.11493,0.0,0.0,-0.521395
745384593,-0.162115,-0.0178243,-0.117903,0.0,0.0,-0.521395
745404612,-0.154227,-0.0125022,-0.119746,0.0,0.0,-0.529792
745424394,-0.156328,-0.0181185,-0.120136,0.0,0.0,-0.532191
745444197,-0.168127,-0.0268597,-0.123433,0.0,0.0,-0.535789
745464054,-0.173368,-0.0159059,-0.127845,0.0,0.0,-0.539388
745483896,-0.168065,-0.00636214,-0.131069,0.0,0.0,-0.550184
745503754,-0.166807,-0.00125254,-0.135623,0.0,0.0,-0.553782
745523553,-0.165456,0.010018,-0.139286,0.0,0.0,-0.557381
745543599,-0.175592,0.0374695,-0.140229,0.0,0.0,-0.560979
745563532,-0.158037,0.0772678,-0.140838,0.0,0.0,-0.562179
745583274,-0.16845,0.0617453,-0.140502,0.0,0.0,-0.562179
745603079,-0.173982,0.0955128,-0.138905,0.0,0.0,-0.562179
745622934,-0.170894,0.216122,-0.139139,0.0,0.0,-0.563378
745642915,-0.164937,0.240529,-0.138928,0.0,0.0,-0.564578
745662779,-0.155618,0.239412,-0.136932,0.0,0.0,-0.565777
745682596,-0.141669,0.267749,-0.137087,0.0,0.0,-0.568176
745707489,-0.142674,0.256874,-0.133042,0.0,0.0,-0.568176
745722282,-0.130258,0.26288,-0.134575,0.0,0.0,-0.569376
745742128,-0.0818661,0.199719,-0.131017,0.0,0.0,-0.569376
745766880,-0.0751298,0.135794,-0.124457,0.0,0.0,-0.569376
745781933,-0.0545629,0.09438,-0.125381,0.0,0.0,-0.569376
745801711,-0.0366676,0.0531796,-0.12413,0.0,0.0,-0.569376
745826646,0.00248132,0.0110552,-0.123626,0.0,0.0,-0.570575
745846448,-0.00597916,-0.0182251,-0.123152,0.0,0.0,-0.570575
745861394,-0.0292423,-0.0404774,-0.121072,0.0,0.0,-0.570575
745886342,-0.0437763,-0.0753519,-0.120431,0.0,0.0,-0.570575
745906139,-0.0708288,-0.0958127,-0.118774,0.0,0.0,-0.570575
745921045,-0.0732391,-0.118292,-0.121105,0.0,0.0,-0.570575
745945912,-0.0854822,-0.141481,-0.113672,0.0,0.0,-0.570575
745965629,-0.0834995,-0.146921,-0.112511,0.0,0.0,-0.570575
745985394,-0.0674994,-0.149163,-0.10809,0.0,0.0,-0.570575
746005261,-0.0535962,-0.157536,-0.104569,0.0,0.0,-0.570575
746025170,-0.0437614,-0.166156,-0.0988375,0.0,0.0,-0.570575
746045039,-0.055108,-0.167492,-0.0917033,0.0,0.0,-0.570575
746064927,-0.0758184,-0.162089,-0.0845826,0.0,0.0,-0.570575
746084878,-0.101697,-0.153211,-0.0761714,0.0,0.0,-0.570575
746104812,-0.123867,-0.150536,-0.0678011,0.0,0.0,-0.570575
746124584,-0.121406,-0.164169,-0.0605239,0.0,0.0,-0.570575
746144448,-0.129164,-0.166493,-0.0546074,0.0,0.0,-0.571775
746164313,-0.126624,-0.177097,-0.0476688,0.0,0.0,-0.571775
746184261,-0.128988,-0.216193,-0.0391557,0.0,0.0,-0.571775
746203966,-0.142515,-0.228217,-0.0310008,0.0,0.0,-0.571775
746223849,-0.153679,-0.235377,-0.0225756,0.0,0.0,-0.571775
746243762,-0.159253,-0.239843,-0.0154345,0.0,0.0,-0.571775
746263526,-0.161353,-0.279143,-0.0101905,0.0,0.0,-0.571775
746283344,-0.148162,-0.336703,-0.00552952,0.0,0.0,-0.571775
746303231,-0.146696,-0.372262,0.000219874,0.0,0.0,-0.571775
746323151,-0.135148,-0.36305,0.0066265,0.0,0.0,-0.571775
746343137,-0.126396,-0.354126,0.0113748,0.0,0.0,-0.571775
746363020,-0.110523,-0.349062,0.0153028,0.0,0.0,-0.571775
746382812,-0.083997,-0.344737,0.0199098,0.0,0.0,-0.571775
746402735,-0.0663979,-0.314884,0.0245247,0.0,0.0,-0.571775
746422603,-0.0562705,-0.269705,0.0291638,0.0,0.0,-0.571775
746442409,-0.0681673,-0.224822,0.033681,0.0,0.0,-0.571775
746467263,-0.0784214,-0.170335,0.0422117,0.0,0.0,-0.571775
746482030,-0.0771374,-0.15238,0.0407451,0.0,0.0,-0.571775
746501849,-0.0736165,-0.135589,0.043871,0.0,0.0,-0.571775
746526728,-0.0617784,-0.138309,0.0511119,0.0,0.0,-0.571775
746541627,-0.0343794,-0.153102,0.0500236,0.0,0.0,-0.571775
746561500,-0.0195426,-0.162475,0.0522605,0.0,0.0,-0.571775
746586304,-0.0297166,-0.111005,0.0549739,0.0,0.0,-0.571775
746606161,-0.0440731,-0.0701841,0.056123,0.0,0.0,-0.571775
746621198,-0.0485618,-0.0660661,0.0551349,0.0,0.0,-0.571775
746646228,-0.069068,0.0418287,0.0563182,0.0,0.0,-0.571775
746665853,-0.0782663,0.0503687,0.0570629,0.0,0.0,-0.571775
746680773,-0.0892785,0.0565276,0.055989,0.0,0.0,-0.570575
746705512,-0.115544,0.0493496,0.0610209,0.0,0.0,-0.570575
746725386,-0.113237,0.0330195,0.0616709,0.0,0.0,-0.570575
746745391,-0.0970573,0.0173418,0.0621845,0.0,0.0,-0.571775
746765140,-0.0667607,0.000717884,0.0638126,0.0,0.0,-0.571775
746784939,-0.0258223,-0.0161821,0.0652453,0.0,0.0,-0.571775
746804854,-0.02154,-0.0278896,0.0662478,0.0,0.0,-0.570575
746824734,-0.020799,-0.0367832,0.0666156,0.0,0.0,-0.570575
746844543,-0.0365498,-0.0399938,0.0663214,0.0,0.0,-0.570575
746864471,-0.0547968,-0.0374722,0.0662304,0.0,0.0,-0.570575
746884351,-0.0734959,-0.0301121,0.0657309,0.0,0.0,-0.570575
746904293,-0.077821,-0.0215343,0.0649619,0.0,0.0,-0.570575
746924121,-0.0721713,-0.0164611,0.0649229,0.0,0.0,-0.570575
746943932,-0.0567985,-0.0134524,0.0649518,0.0,0.0,-0.570575
746963781,-0.0449766,-0.00997644,0.0645566,0.0,0.0,-0.570575
746983715,-0.0378733,-0.00788596,0.0633507,0.0,0.0,-0.570575
747003636,-0.0378731,-0.010192,0.0628659,0.0,0.0,-0.570575
747023393,-0.0449503,-0.0199179,0.0630634,0.0,0.0,-0.570575
747043264,-0.0580194,-0.0341434,0.0626178,0.0,0.0,-0.570575
747063008,-0.0684775,-0.0545522,0.0613946,0.0,0.0,-0.570575
747082856,-0.0720266,-0.0707019,0.0608819,0.0,0.0,-0.570575
747107684,-0.0948823,-0.0786762,0.0624436,0.0,0.0,-0.569376
747122647,-0.0757272,-0.0792937,0.0591615,0.0,0.0,-0.570575
747142515,-0.0957927,-0.0732776,0.0583619,0.0,0.0,-0.570575
747167509,-0.100995,-0.0589283,0.0591435,0.0,0.0,-0.570575
747182520,-0.0875256,-0.0489532,0.057549,0.0,0.0,-0.570575
747202133,-0.0774735,-0.0382584,0.0573321,0.0,0.0,-0.570575
747227085,-0.0561071,-0.0255853,0.0600275,0.0,0.0,-0.570575
747246871,-0.0554191,-0.0203849,0.0614088,0.0,0.0,-0.570575
747261785,-0.031713,-0.0198069,0.0590098,0.0,0.0,-0.570575
747286556,-0.035922,-0.0153921,0.0610468,0.0,0.0,-0.570575
747306329,-0.0288351,-0.0105457,0.0610334,0.0,0.0,-0.570575
747321224,-0.0215173,-0.00847074,0.0609656,0.0,0.0,-0.570575
747346046,-0.0246439,-0.00825637,0.062693,0.0,0.0,-0.570575
747365970,-0.0346693,-0.00968133,0.0633006,0.0,0.0,-0.570575
747380914,-0.0424024,-0.0150547,0.0629921,0.0,0.0,-0.570575
747405786,-0.0635185,-0.0163454,0.066309,0.0,0.0,-0.570575
747425633,-0.0687286,-0.0200214,0.0671612,0.0,0.0,-0.570575
747445536,-0.0620832,-0.0240229,0.0672501,0.0,0.0,-0.571775
747465448,-0.0543123,-0.0229444,0.0687937,0.0,0.0,-0.570575
747485296,-0.0510561,-0.022713,0.0703664,0.0,0.0,-0.570575
747505147,-0.0442846,-0.0222384,0.0722612,0.0,0.0,-0.571775
747524991,-0.036241,-0.0203347,0.0735974,0.0,0.0,-0.571775
747544728,-0.0335292,-0.0219001,0.0748654,0.0,0.0,-0.570575
747564580,-0.0391483,-0.0258526,0.0763469,0.0,0.0,-0.571775
747584469,-0.0451151,-0.0313555,0.0777873,0.0,0.0,-0.571775
747604389,-0.0529359,-0.0358889,0.0783854,0.0,0.0,-0.571775
747624226,-0.0603187,-0.0436386,0.0785554,0.0,0.0,-0.571775
747644079,-0.0628258,-0.0407901,0.0791634,0.0,0.0,-0.571775
747663918,-0.0638611,-0.0316978,0.0800254,0.0,0.0,-0.571775
747683867,-0.0537967,-0.0152556,0.0797783,0.0,0.0,-0.571775
747703796,-0.0336518,0.00564394,0.0789947,0.0,0.0,-0.571775
747723722,-0.0119561,0.033695,0.078413,0.0,0.0,-0.570575
747743518,0.00918505,0.0539755,0.079612,0.0,0.0,-0.571775
747763429,0.0226224,0.0651763,0.0802533,0.0,0.0,-0.570575
747783120,0.0390315,0.0691001,0.0798422,0.0,0.0,-0.571775
747802978,0.0237647,0.0607933,0.0808161,0.0,0.0,-0.570575
747822802,0.0236821,0.0499696,0.0832544,0.0,0.0,-0.570575
747842823,-0.00647243,0.0387569,0.0856898,0.0,0.0,-0.571775
747867567,-0.0382084,0.016851,0.086006,0.0,0.0,-0.571775
747882452,-0.0526751,0.0106407,0.0905251,0.0,0.0,-0.571775
747902313,-0.0660186,0.00278158,0.0927877,0.0,0.0,-0.571775
747927128,-0.0596892,-0.00684261,0.0894399,0.0,0.0,-0.570575
747947001,-0.0551024,-0.00554704,0.0906881,0.0,0.0,-0.570575
747961954,-0.058689,-0.00338851,0.0945705,0.0,0.0,-0.570575
747981893,-0.0449417,-0.000441562,0.0947924,0.0,0.0,-0.570575
748006606,-0.0140133,0.00436278,0.0956936,0.0,0.0,-0.570575
748021548,-0.0215186,0.00468077,0.097453,0.0,0.0,-0.570575
748046331,-0.0151613,0.0116697,0.0971905,0.0,0.0,-0.570575
748066189,-0.00744351,0.0126319,0.0968472,0.0,0.0,-0.570575
748081198,-0.00776051,0.015403,0.0997443,0.0,0.0,-0.570575
748101046,0.00429766,0.0141612,0.100815,0.0,0.0,-0.571775
748125815,-0.0086527,0.0107261,0.100166,0.0,0.0,-0.570575
748145675,-0.0207631,0.0119001,0.100672,0.0,0.0,-0.570575
748160512,-0.0329257,0.0107271,0.102233,0.0,0.0,-0.570575
748185343,-0.0168499,0.0119827,0.101171,0.0,0.0,-0.570575
748205181,-0.0122592,0.0125497,0.102062,0.0,0.0,-0.570575
748220254,-0.00977512,0.00926402,0.10143,0.0,0.0,-0.570575
748245007,0.0108224,0.0141437,0.100723,0.0,0.0,-0.570575
748265172,0.00725381,0.0093237,0.0993564,0.0,0.0,-0.570575
748284657,0.0284421,0.00324408,0.0982652,0.0,0.0,-0.570575
748304535,0.0315472,-0.00187717,0.0974828,0.0,0.0,-0.570575
748324534,0.0200139,-0.00572697,0.0968185,0.0,0.0,-0.570575
748344496,0.0154054,-0.00700573,0.0954967,0.0,0.0,-0.570575
748364285,0.012867,-0.00451525,0.0939987,0.0,0.0,-0.570575
748384101,0.0111946,0.00118577,0.0919662,0.0,0.0,-0.570575
748403979,0.0108607,0.0129111,0.0904681,0.0,0.0,-0.570575
748423758,0.0124323,0.0253066,0.0890553,0.0,0.0,-0.570575
748443600,0.0201866,0.0402594,0.0872233,0.0,0.0,-0.570575
748463375,0.0320639,0.0539056,0.0848691,0.0,0.0,-0.570575
748483265,0.0469724,0.0601932,0.0828983,0.0,0.0,-0.570575
748503233,0.0614583,0.0587779,0.0819613,0.0,0.0,-0.570575
748523236,0.0875936,0.050904,0.0807103,0.0,0.0,-0.570575
748542984,0.083093,0.045786,0.0794763,0.0,0.0,-0.570575
748567977,0.0830366,0.0379792,0.0762721,0.0,0.0,-0.570575
748582669,0.071532,0.0399289,0.0749405,0.0,0.0,-0.570575
748602715,0.0622847,0.0360321,0.0738075,0.0,0.0,-0.570575
748627449,0.0470184,0.0383805,0.0725522,0.0,0.0,-0.570575
748642276,0.0441159,0.0412752,0.0707498,0.0,0.0,-0.570575
748662153,0.0384909,0.0457999,0.0699261,0.0,0.0,-0.570575
748681920,0.0333532,0.0461737,0.0695469,0.0,0.0,-0.570575
748706707,0.0337847,0.0407146,0.067863,0.0,0.0,-0.570575
748721600,0.0299038,0.0428444,0.0675426,0.0,0.0,-0.570575
748741465,0.0260182,0.0339594,0.0668595,0.0,0.0,-0.570575
748766417,0.032,0.0212648,0.0671275,0.0,0.0,-0.570575
748786357,0.00930796,0.00917143,0.0680297,0.0,0.0,-0.570575
748801326,0.0243895,0.00475071,0.065396,0.0,0.0,-0.570575
748826048,-0.00445045,-0.000882066,0.0663363,0.0,0.0,-0.570575
748845856,-0.0035765,-0.000787492,0.0646753,0.0,0.0,-0.570575
748860756,-0.0166397,7.4995e-05,0.0647295,0.0,0.0,-0.570575
748885661,-0.0439519,-0.00246147,0.0622722,0.0,0.0,-0.570575
748905440,-0.0336378,-0.000168555,0.0620111,0.0,0.0,-0.570575
748920318,-0.0606399,0.00578917,0.0635758,0.0,0.0,-0.570575
748945074,-0.0538689,0.00255844,0.0618506,0.0,0.0,-0.570575
748964925,-0.0423089,-0.00607867,0.061924,0.0,0.0,-0.570575
748984798,-0.0474574,-0.0161338,0.0613916,0.0,0.0,-0.570575
749004793,-0.0387309,-0.027076,0.0595937,0.0,0.0,-0.570575
749024614,-0.0245489,-0.0344014,0.0578969,0.0,0.0,-0.570575
749044544,-0.0358954,-0.0408504,0.0569788,0.0,0.0,-0.570575
749064496,-0.0334136,-0.0418588,0.0567004,0.0,0.0,-0.570575
749084233,-0.0220371,-0.0368262,0.0563803,0.0,0.0,-0.570575
749104202,-0.0432827,-0.0288653,0.056208,0.0,0.0,-0.570575
749124015,-0.0546643,-0.0229366,0.0558858,0.0,0.0,-0.570575
749143863,-0.0612068,-0.0167647,0.0551518,0.0,0.0,-0.570575
749163687,-0.0645151,-0.0112839,0.0541906,0.0,0.0,-0.570575
749183570,-0.054491,-0.0099684,0.0529529,0.0,0.0,-0.570575
749203298,-0.0563663,-0.0144448,0.0518382,0.0,0.0,-0.570575
749223159,-0.0583527,-0.0197603,0.051303,0.0,0.0,-0.570575
749243141,-0.0556183,-0.0246418,0.0516682,0.0,0.0,-0.570575
749262978,-0.0628987,-0.028223,0.0513967,0.0,0.0,-0.570575
749282879,-0.0580659,-0.0312296,0.0511178,0.0,0.0,-0.570575
749302705,-0.0474649,-0.0343542,0.0509626,0.0,0.0,-0.570575
749322608,-0.0213825,-0.0358473,0.0501001,0.0,0.0,-0.570575
749347430,-0.0162837,-0.0332748,0.0496207,0.0,0.0,-0.570575
749362421,-0.0133433,-0.0319129,0.0471542,0.0,0.0,-0.570575
749382239,-0.0131785,-0.0314759,0.0451327,0.0,0.0,-0.570575
749407065,-0.0446311,-0.0263989,0.0473454,0.0,0.0,-0.570575
749421921,-0.0385775,-0.0283056,0.0434988,0.0,0.0,-0.570575
749441715,-0.0489845,-0.0253573,0.0428734,0.0,0.0,-0.570575
749466511,-0.0431779,-0.0271987,0.0425464,0.0,0.0,-0.570575
749481633,-0.0412722,-0.022434,0.0415097,0.0,0.0,-0.570575
749501411,-0.052694,-0.023132,0.0408609,0.0,0.0,-0.570575
749526219,-0.0462529,-0.0210649,0.0408653,0.0,0.0,-0.570575
749546118,-0.0328422,-0.0194938,0.0409244,0.0,0.0,-0.570575
749560994,-0.0192026,-0.0258165,0.0352473,0.0,0.0,-0.570575
749585975,-0.039311,-0.0171117,0.0377059,0.0,0.0,-0.570575
749605859,-0.0801296,-0.0128313,0.0351748,0.0,0.0,-0.570575
749625608,-0.0872134,-0.0106478,0.0325389,0.0,0.0,-0.570575
749645378,-0.0983943,-0.00870896,0.0305458,0.0,0.0,-0.570575
749665237,-0.111233,-0.009578,0.029804,0.0,0.0,-0.570575
749685124,-0.110356,-0.00955512,0.0289271,0.0,0.0,-0.570575
749704908,-0.095009,-0.0138918,0.0289201,0.0,0.0,-0.570575
749724787,-0.0947371,-0.0233441,0.0291168,0.0,0.0,-0.570575
749744733,-0.0797435,-0.0314746,0.0273791,0.0,0.0,-0.570575
749764598,-0.0644597,-0.0386135,0.0253229,0.0,0.0,-0.570575
749784392,-0.0595122,-0.0425678,0.0240181,0.0,0.0,-0.570575
749804238,-0.0572261,-0.041296,0.0241489,0.0,0.0,-0.570575
749824103,-0.0539058,-0.0425275,0.0243063,0.0,0.0,-0.570575
749843916,-0.0562915,-0.0342766,0.0239266,0.0,0.0,-0.570575
749864115,-0.0484656,-0.0273554,0.024487,0.0,0.0,-0.570575
749883697,-0.060653,-0.0268442,0.0254202,0.0,0.0,-0.570575
749903623,-0.0459386,-0.0257344,0.0251459,0.0,0.0,-0.569376
749923474,-0.0434587,-0.0248612,0.0244716,0.0,0.0,-0.569376
749943459,-0.0466048,-0.0259684,0.0242412,0.0,0.0,-0.570575
749963238,-0.0467181,-0.0279851,0.0247354,0.0,0.0,-0.570575
749983025,-0.0585561,-0.0309381,0.0251053,0.0,0.0,-0.570575
750002905,-0.0568235,-0.0321358,0.0256012,0.0,0.0,-0.570575
750022767,-0.0381238,-0.0304139,0.025976,0.0,0.0,-0.570575
750042706,-0.0314147,-0.0326457,0.0256088,0.0,0.0,-0.570575
750062524,-0.0337729,-0.0344681,0.0251045,0.0,0.0,-0.570575
750082317,-0.0138439,-0.0361715,0.0240727,0.0,0.0,-0.570575
750107127,-0.000961913,-0.0386763,0.0197882,0.0,0.0,-0.570575
750122110,-0.0195546,-0.0398747,0.0220502,0.0,0.0,-0.570575
750142056,-0.00583443,-0.0404725,0.021576,0.0,0.0,-0.570575
750166844,-0.013441,-0.0398019,0.0189448,0.0,0.0,-0.570575
750186682,0.000498033,-0.0359392,0.0182423,0.0,0.0,-0.570575
750201596,-0.0270892,-0.029249,0.0216653,0.0,0.0,-0.570575
750226403,-0.0124753,-0.0272215,0.0177396,0.0,0.0,-0.570575
750246274,0.000621424,-0.0226641,0.0173604,0.0,0.0,-0.570575
750261148,-0.00603437,-0.019911,0.0195067,0.0,0.0,-0.570575
750286056,-0.00796867,-0.0190805,0.0186595,0.0,0.0,-0.570575
750305767,0.00170014,-0.0233369,0.0194963,0.0,0.0,-0.570575
750320669,-0.0161116,-0.0238481,0.0203987,0.0,0.0,-0.570575
750345524,-0.0196917,-0.0332261,0.0200841,0.0,0.0,-0.570575
750365360,-0.0127363,-0.0385139,0.0205434,0.0,0.0,-0.570575
750385256,-0.0290154,-0.0428133,0.0205368,0.0,0.0,-0.570575
750405268,-0.028184,-0.0432104,0.0211575,0.0,0.0,-0.570575
750425079,-0.0131017,-0.0390111,0.0216424,0.0,0.0,-0.570575
750444890,-0.0133728,-0.0401452,0.0218214,0.0,0.0,-0.570575
750464683,-0.114198,0.0449944,0.295164,0.0,0.0,-0.510353
750484557,-0.0449315,0.10044,0.333912,0.0,0.0,-0.50572
750504406,0.0399847,0.102732,0.371318,0.0,0.0,-0.510525
750524509,0.113856,0.127659,0.406925,0.0,0.0,-0.517776
750544253,0.147106,0.0868479,0.442152,0.0,0.0,-0.526085
750564068,0.185435,0.078623,0.474255,0.0,0.0,-0.534351
750583918,0.248762,0.0327431,0.5055,0.0,0.0,-0.542859
750603779,0.320943,0.0061094,0.533237,0.0,0.0,-0.550853
750623595,0.314633,0.0163738,0.55896,0.0,0.0,-0.562054
750643523,0.288839,0.0207404,0.583584,0.0,0.0,-0.572115
750663365,0.320646,0.015074,0.60558,0.0,0.0,-0.582689
750683337,0.354272,0.00510841,0.627963,0.0,0.0,-0.592442
750703179,0.429666,-0.00760699,-0.00990641,0.0,0.0,-0.603888
750722955,0.401409,-0.0762274,-0.189044,0.0,0.0,-0.614794
750742805,0.460979,-0.0768275,-0.201772,0.0,0.0,-0.623593
750762702,0.495936,-0.076853,-0.209978,0.0,0.0,-0.633582
750782520,0.50605,-0.084038,-0.215209,0.0,0.0,-0.637686
750807315,0.474608,-0.0662314,-0.218196,0.0,0.0,-0.642703
750822318,0.504497,-0.0593728,-0.222167,0.0,0.0,-0.645755
750842131,0.519601,-0.0453615,-0.224753,0.0,0.0,-0.650217
750866960,0.510519,-0.0652474,-0.224633,0.0,0.0,-0.652993
750886717,0.414652,-0.0724189,-0.222757,0.0,0.0,-0.653353
750901621,0.327285,-0.0795261,-0.224748,0.0,0.0,-0.654332
750926514,0.22452,-0.0656026,-0.221674,0.0,0.0,-0.653988
750946514,0.186844,-0.0526766,-0.222884,0.0,0.0,-0.655074
750961339,0.144431,-0.0579144,-0.222402,0.0,0.0,-0.654888
750986167,0.0389151,-0.0487512,-0.21948,0.0,0.0,-0.654671
751006022,0.044382,-0.0435848,-0.217155,0.0,0.0,-0.652393
751020911,0.0528148,-0.00833124,-0.220308,0.0,0.0,-0.64842
751045752,0.0220751,-0.0242956,-0.215069,0.0,0.0,-0.644033
751065631,-0.030336,-0.0179569,-0.211687,0.0,0.0,-0.638896
751085512,-0.128788,-0.0391075,-0.205973,0.0,0.0,-0.63311
751105384,-0.176667,-0.0463612,-0.201703,0.0,0.0,-0.629127
751125132,-0.203397,-0.0219594,-0.199837,0.0,0.0,-0.624013
751144961,-0.187713,-0.0381514,-0.195309,0.0,0.0,-0.619305
751164809,-0.190853,-0.0364104,-0.190656,0.0,0.0,-0.613054
751184785,-0.230895,-0.0563467,-0.184018,0.0,0.0,-0.607598
751204768,-0.254498,-0.0590599,-0.177954,0.0,0.0,-0.602255
751224673,-0.271181,-0.0414263,-0.173264,0.0,0.0,-0.597513
751244412,-0.238879,-0.0331212,-0.168137,0.0,0.0,-0.592091
751264286,-0.270135,-0.0315881,-0.162712,0.0,0.0,-0.587333
751284202,-0.29643,-0.0573785,-0.155876,0.0,0.0,-0.582532
751304020,-0.315881,-0.117761,-0.147268,0.0,0.0,-0.577698
751323800,-0.310731,-0.162054,-0.139715,0.0,0.0,-0.573087
751343600,-0.272046,-0.0916188,0.387989,0.0,0.0,-0.570876
751363457,-0.257419,-0.0347605,0.737198,0.0,0.0,-0.564405
751383429,-0.198274,-0.0378454,0.77709,0.0,0.0,-0.560451
751403238,-0.147398,-0.0244876,0.81069,0.0,0.0,-0.555992
751423098,-0.0733787,-0.0235575,0.839693,0.0,0.0,-0.551346
751442948,-0.0499551,-0.0237238,0.863957,0.0,0.0,-0.546379
751462915,-0.0226247,-0.0288081,0.438694,0.0,0.0,-0.542494
751482889,-0.00903484,-0.0807644,0.0563441,0.0,0.0,-0.537139
751507712,0.0849928,-0.107196,0.0334084,0.0,0.0,-0.538075
751522517,0.0453985,-0.0902901,0.027559,0.0,0.0,-0.539937
751542411,0.0623059,-0.0921656,0.0180901,0.0,0.0,-0.542567
751567184,0.0392385,-0.0771628,0.00777245,0.0,0.0,-0.545774
751586971,0.0398528,-0.0806905,0.00386844,0.0,0.0,-0.548482
751601842,0.0659387,-0.0893543,-0.00232056,0.0,0.0,-0.551032
751626698,0.106461,-0.0804899,-0.00563146,0.0,0.0,-0.552968
751646540,0.152418,-0.0761084,-0.0110809,0.0,0.0,-0.5569
751661461,0.143624,-0.0652782,-0.012071,0.0,0.0,-0.560023
751686457,0.129725,-0.0441438,-0.0195494,0.0,0.0,-0.564201
751706181,0.114047,-0.0450762,-0.0224419,0.0,0.0,-0.568184
751726055,0.0952302,-0.0418261,-0.0241791,0.0,0.0,-0.571821
751741120,0.0798538,-0.0492494,-0.0254921,0.0,0.0,-0.574698
751766047,0.0713784,-0.0515665,-0.0265601,0.0,0.0,-0.576883
751785610,0.0570057,-0.0497727,-0.0289402,0.0,0.0,-0.578641
751800645,0.0367786,-0.0600326,-0.0335013,0.0,0.0,-0.580024
751825426,0.0869932,-0.0414233,-0.035177,0.0,0.0,-0.582193
751845304,0.148144,-0.0275961,-0.038258,0.0,0.0,-0.583207
751865217,0.178254,-0.0373001,-0.0414445,0.0,0.0,-0.583665
751885047,0.187079,-0.022519,-0.0442768,0.0,0.0,-0.585357
751904869,0.159133,-0.0326224,-0.0457741,0.0,0.0,-0.58648
751924710,0.116856,-0.0242929,-0.0473346,0.0,0.0,-0.588111
751944517,0.0712587,-0.0199496,-0.0473711,0.0,0.0,-0.589067
751964322,0.0383174,-0.0501473,-0.0461526,0.0,0.0,-0.588466
751984239,0.0201035,-0.041311,-0.0458797,0.0,0.0,-0.587941
752004188,0.01406,-0.0549846,-0.0456654,0.0,0.0,-0.587026
752024148,0.012699,-0.0483511,-0.0468999,0.0,0.0,-0.585423
752043969,0.0334342,-0.0550894,-0.047483,0.0,0.0,-0.585096
752063783,0.120524,0.0404408,-0.0518246,0.0,0.0,-0.58769
752083652,0.0712,0.0143763,-0.0514997,0.0,0.0,-0.589019
752103525,0.013588,-0.00223122,-0.0512127,0.0,0.0,-0.58921
752123437,-0.000891202,-0.0351667,-0.0501165,0.0,0.0,-0.587303
752143196,0.0218834,-0.042275,-0.0501032,0.0,0.0,-0.586912
752162957,0.0424157,-0.045211,-0.0498417,0.0,0.0,-0.586551
752182891,0.0235574,-0.0474033,-0.0493829,0.0,0.0,-0.585443
752207699,0.0290448,-0.0474987,-0.0485013,0.0,0.0,-0.585656
752222656,0.0178245,-0.0380087,-0.0485049,0.0,0.0,-0.585494
752242440,0.037465,-0.0481741,-0.0475046,0.0,0.0,-0.585136
752262335,0.018807,-0.0448036,-0.0474279,0.0,0.0,-0.585111
752282359,0.00742866,-0.0518925,-0.0465072,0.0,0.0,-0.585021
752302355,-0.0179685,-0.0674123,-0.0448289,0.0,0.0,-0.585225
752322027,-0.0242232,-0.0607814,-0.0435508,0.0,0.0,-0.585492
752346916,-0.00910221,-0.072656,-0.0388548,0.0,0.0,-0.585407
752361708,0.0197306,-0.0789567,-0.0389321,0.0,0.0,-0.584812
752381598,0.0432084,-0.0748993,-0.0363736,0.0,0.0,-0.585421
752406323,0.0555504,-0.0455262,-0.037466,0.0,0.0,-0.585841
752421300,0.0788862,-0.0469244,-0.0319257,0.0,0.0,-0.586509
752441124,0.0922348,-0.0264947,-0.0308285,0.0,0.0,-0.585536
752465915,0.109604,-0.0540993,-0.0320579,0.0,0.0,-0.586057
752485767,0.118316,-0.0509203,-0.0301617,0.0,0.0,-0.58564
752500695,0.0866099,-0.0671713,-0.0252912,0.0,0.0,-0.585928
752525528,0.0571977,-0.0554282,-0.0260153,0.0,0.0,-0.585801
752545507,0.0201812,-0.0571912,-0.0228228,0.0,0.0,-0.585823
752565427,0.0303577,-0.0447345,-0.0196502,0.0,0.0,-0.585959
752585162,0.000536181,-0.0265344,-0.0167802,0.0,0.0,-0.58566
752605020,0.00666036,-0.0261238,-0.0138471,0.0,0.0,-0.585416
752624963,0.000365795,-0.00538156,-0.0117414,0.0,0.0,-0.585437
752644746,0.0249116,-0.0296431,-0.00926575,0.0,0.0,-0.58434
752664587,0.0636954,-0.0380834,-0.00793378,0.0,0.0,-0.583179
752684515,0.139019,-0.0632325,-0.0056578,0.0,0.0,-0.582363
752704443,0.0855506,-0.0576328,-0.0037127,0.0,0.0,-0.581483
752724218,0.0780855,-0.0796331,5.87425e-05,0.0,0.0,-0.58028
752743963,0.0338508,-0.0684165,0.0787896,0.0,0.0,-0.578617
752763827,-0.0593283,-0.0957091,-0.818043,0.0,0.0,-0.573626
752783694,-0.0813632,-0.0474359,-0.856836,0.0,0.0,-0.568742
752803737,-0.054754,0.0111944,-0.887558,0.0,0.0,-0.564524
752823635,-0.000686579,0.102422,-0.915877,0.0,0.0,-0.563076
752843636,0.0354716,0.181517,-0.935951,0.0,0.0,-0.562167
752863346,0.0150166,0.199541,-0.963106,0.0,0.0,-0.559931
752883319,0.000674946,0.244938,-0.977188,0.0,0.0,-0.557799
752902937,0.0224075,0.269097,-0.989741,0.0,0.0,-0.559458
752922786,0.0189763,0.298904,-0.999402,0.0,0.0,-0.559097
752942697,0.0333955,0.295874,-1.00677,0.0,0.0,-0.558801
752962576,0.00657641,0.313881,-1.00839,0.0,0.0,-0.559533
752987351,0.0176478,0.311,-1.00415,0.0,0.0,-0.560156
753002256,0.00342029,0.356463,-1.01702,0.0,0.0,-0.561268
753022103,-0.00873356,0.361742,-1.01853,0.0,0.0,-0.562347
753046960,0.0101289,0.377713,-1.00936,0.0,0.0,-0.563379
753061936,-0.0286017,0.402679,-1.01896,0.0,0.0,-0.56458
753081756,-0.0338429,0.420313,-1.02146,0.0,0.0,-0.566101
753106807,-0.0864767,0.401778,-1.00571,0.0,0.0,-0.567297
753126449,-0.055144,0.411298,-1.00497,0.0,0.0,-0.567999
753141363,-0.0600601,0.448265,-1.01276,0.0,0.0,-0.572061
753166129,-0.0895624,0.441637,-0.993005,0.0,0.0,-0.573204
753186010,-0.131405,0.438327,-0.987011,0.0,0.0,-0.57569
753200907,-0.083338,0.429819,-0.99584,0.0,0.0,-0.575236
753225795,-0.0790476,0.439483,-0.98086,0.0,0.0,-0.576857
753245604,-0.0818506,0.440434,-0.972898,0.0,0.0,-0.58033
753265484,-0.174803,0.45571,-0.963519,0.0,0.0,-0.581924
753285388,-0.167817,0.359129,-0.957584,0.0,0.0,-0.582491
753305173,-0.12078,0.225645,-0.955141,0.0,0.0,-0.578026
753324977,-0.0555032,0.144162,-0.952309,0.0,0.0,-0.577458
753344952,-0.0316926,0.0547121,-0.946462,0.0,0.0,-0.576117
753364871,0.0240205,0.0273521,-0.942387,0.0,0.0,-0.577107
753384763,0.0363186,-0.0179415,-0.938445,0.0,0.0,-0.577677
753404592,0.0228574,-0.074242,-0.934402,0.0,0.0,-0.577168
753424415,0.0201406,-0.123245,-0.929997,0.0,0.0,-0.57642
753444315,0.0486065,-0.18855,-0.927769,0.0,0.0,-0.574152
753464091,0.0795627,-0.20934,-0.929391,0.0,0.0,-0.572986
753483976,0.109848,-0.222059,-0.927753,0.0,0.0,-0.57268
753503796,0.100365,-0.212016,-0.925197,0.0,0.0,-0.573286
753523699,0.0635466,-0.203397,-0.921117,0.0,0.0,-0.574576
753543511,0.0443694,-0.223354,-0.917992,0.0,0.0,-0.574453
753563398,0.0911795,-0.246245,-0.914534,0.0,0.0,-0.573871
753583262,0.139553,-0.261212,-0.910738,0.0,0.0,-0.572652
753603195,0.189808,-0.285676,-0.907727,0.0,0.0,-0.571778
753623087,0.18799,-0.292388,-0.908147,0.0,0.0,-0.571072
753643093,0.152264,-0.299468,-0.905422,0.0,0.0,-0.5713
753662761,0.16856,-0.278302,-0.902519,0.0,0.0,-0.571286
753687688,0.169308,-0.242247,-0.886519,0.0,0.0,-0.571934
753702474,0.17976,-0.237985,-0.894078,0.0,0.0,-0.5766
753722391,0.188624,-0.227266,-0.889422,0.0,0.0,-0.582205
753747189,0.143917,-0.230381,-0.87476,0.0,0.0,-0.587651
753762058,0.206486,-0.2157,-0.877771,0.0,0.0,-0.591836
753781908,0.22007,-0.203493,-0.874331,0.0,0.0,-0.593134
753806729,0.182385,-0.167908,-0.86351,0.0,0.0,-0.592126
753821630,0.159176,-0.143667,-0.870054,0.0,0.0,-0.592743
753841541,0.116218,-0.100216,-0.866623,0.0,0.0,-0.593161
753866391,0.0488888,-0.0781744,-0.851106,0.0,0.0,-0.593061
753886271,0.0209616,-0.0564332,-0.84453,0.0,0.0,-0.592589
753901253,0.0506946,-0.0415364,-0.851406,0.0,0.0,-0.59227
753926061,0.0596745,-0.0342163,-0.836487,0.0,0.0,-0.590892
753945984,0.0592018,-0.00749758,-0.84312,0.0,0.0,-0.593521
753960780,0.0522313,-0.0126256,-0.851378,0.0,0.0,-0.591992
753985619,0.0261051,-0.0330974,-0.837363,0.0,0.0,-0.591597
754005470,-0.0207185,-0.0375654,-0.832441,0.0,0.0,-0.591237
754025404,-0.0510095,-0.0158627,-0.829013,0.0,0.0,-0.591126
754045238,-0.0887081,-0.0241985,-0.825055,0.0,0.0,-0.59114
754064994,-0.132926,-0.00549624,-0.81819,0.0,0.0,-0.590555
754084931,-0.106685,-0.0149316,-0.814653,0.0,0.0,-0.590364
754104801,-0.0722817,0.0045006,-0.813286,0.0,0.0,-0.589299
754124609,-0.0682293,-0.00382202,-0.810908,0.0,0.0,-0.589096
754144531,-0.100208,-0.00267852,-0.807522,0.0,0.0,-0.588896
754164370,-0.116743,-0.00526051,-0.804426,0.0,0.0,-0.588737
754184256,-0.183299,-0.0164278,-0.800642,0.0,0.0,-0.588676
754204057,-0.196123,-0.0242487,-0.800276,0.0,0.0,-0.58816
754223931,-0.0700913,0.00131477,-0.809514,0.0,0.0,-0.587367
754243761,-0.0654644,-0.0126804,-0.809835,0.0,0.0,-0.5867
754263717,-0.0450998,-0.0104279,-0.808971,0.0,0.0,-0.585874
754283535,-0.0509658,-0.0217847,-0.806911,0.0,0.0,-0.5852
754303439,-0.0191914,-0.0202703,-0.802237,0.0,0.0,-0.584828
754323297,-0.0419582,-0.022094,-0.800178,0.0,0.0,-0.58522
754343068,-0.0537681,-0.00996502,-0.798742,0.0,0.0,-0.585182
754362922,-0.0626403,-0.0219825,-0.797982,0.0,0.0,-0.585919
754382741,-0.107151,-0.00434708,-0.800607,0.0,0.0,-0.58597
754402721,-0.11045,-0.0323027,-0.796999,0.0,0.0,-0.585521
754422517,-0.0931531,-0.0249773,-0.797624,0.0,0.0,-0.584967
754447533,-0.0726651,-0.0215538,-0.790447,0.0,0.0,-0.584793
754462277,-0.0406885,-0.0255101,-0.798528,0.0,0.0,-0.585022
754482228,-0.0279933,-0.0104006,-0.79832,0.0,0.0,-0.584991
754507015,-0.0131507,-0.0305528,-0.790422,0.0,0.0,-0.584837
754526975,-0.0438728,-0.00326849,-0.789604,0.0,0.0,-0.585305
754541801,-0.03794,0.00246887,-0.79905,0.0,0.0,-0.585305
754566594,-0.0284071,0.01618,-0.789953,0.0,0.0,-0.585062
754586398,-0.0298125,0.0179807,-0.789869,0.0,0.0,-0.585241
754601302,-0.0317101,0.0392755,-0.801014,0.0,0.0,-0.585021
754626110,-0.0443242,0.0285265,-0.789546,0.0,0.0,-0.585693
754645974,-0.0937409,0.0255582,-0.78729,0.0,0.0,-0.585561
754660925,-0.0749645,0.0331979,-0.797773,0.0,0.0,-0.584956
754685750,-0.0657731,0.0198888,-0.782646,0.0,0.0,-0.584672
754705735,0.0271061,0.0404213,-0.78097,0.0,0.0,-0.583958
754725585,0.00941316,0.0308336,-0.778356,0.0,0.0,-0.584395
754745337,-0.0149749,0.0193717,-0.775232,0.0,0.0,-0.583916
754765251,-0.0527304,-0.00523902,-0.772283,0.0,0.0,-0.583065
754785117,-0.0342699,-0.0276718,-0.771313,0.0,0.0,-0.582007
754800021,-0.0225856,-0.0190563,-0.780301,0.0,0.0,-0.581889
754824772,-0.0332754,-0.0162335,-0.767414,0.0,0.0,-0.581555
754844550,-0.0271562,-0.00779463,-0.764662,0.0,0.0,-0.582011
754864427,-0.0424921,0.00953678,-0.758685,0.0,0.0,-0.582312
754884404,-0.0838302,0.00667869,-0.755206,0.0,0.0,-0.58297
754904201,-0.118758,0.00133538,-0.751161,0.0,0.0,-0.583212
754924050,-0.107996,-0.00989037,-0.748151,0.0,0.0,-0.58222
754943947,-0.100619,-0.0371233,-0.745126,0.0,0.0,-0.581786
754963879,-0.104771,-0.0483362,-0.745045,0.0,0.0,-0.581318
754983816,-0.0831105,-0.0352049,-0.742326,0.0,0.0,-0.581697
755003629,-0.0541347,-0.0357086,-0.739672,0.0,0.0,-0.582058
755023526,-0.0587447,-0.0299518,-0.73723,0.0,0.0,-0.582614
755043410,-0.087207,-0.0464287,-0.732648,0.0,0.0,-0.582052
755063323,-0.0871181,-0.0620515,-0.72962,0.0,0.0,-0.581664
755082944,-0.0828491,-0.0572163,-0.727736,0.0,0.0,-0.581245
755102808,-0.0733578,-0.0641715,-0.725779,0.0,0.0,-0.581257
755122638,-0.0698496,-0.0710881,-0.72341,0.0,0.0,-0.581558
755147570,-0.0711859,-0.0705251,-0.710472,0.0,0.0,-0.581487
755162549,-0.0518331,-0.0849696,-0.720035,0.0,0.0,-0.581668
755182361,-0.0472001,-0.0671423,-0.71855,0.0,0.0,-0.582041
755207226,-0.074201,-0.0794082,-0.705013,0.0,0.0,-0.582284
755227035,-0.119727,-0.0898955,-0.70157,0.0,0.0,-0.581466
755242135,-0.105003,-0.0849567,-0.711195,0.0,0.0,-0.58133
755261988,-0.0965042,-0.0850267,-0.70974,0.0,0.0,-0.580518
755286776,-0.0857426,-0.0946211,-0.697636,0.0,0.0,-0.580212
755301600,-0.110751,-0.140323,-0.719244,0.0,0.0,-0.577651
755321394,-0.107957,-0.149059,-0.720768,0.0,0.0,-0.577004
755346204,-0.0843737,-0.12464,-0.708077,0.0,0.0,-0.576419
755361089,-0.0545668,-0.124722,-0.721709,0.0,0.0,-0.576747
755380947,-0.0102693,-0.145139,-0.720167,0.0,0.0,-0.576361
755405703,0.00268068,-0.121798,-0.707279,0.0,0.0,-0.576335
755425599,0.00580888,-0.118053,-0.708443,0.0,0.0,-0.576453
755440496,0.0115149,-0.133124,-0.719966,0.0,0.0,-0.577021
755465401,-0.00917629,-0.146113,-0.709856,0.0,0.0,-0.576904
755485243,-0.00399408,-0.146787,-0.710805,0.0,0.0,-0.576612
755500182,-0.0350924,-0.141427,-0.724615,0.0,0.0,-0.577451
755525075,-0.0307333,-0.146601,-0.715795,0.0,0.0,-0.577029
755544932,-0.0154368,-0.137869,-0.722046,0.0,0.0,-0.577423
755564871,-0.0113796,-0.123791,-0.725688,0.0,0.0,-0.577658
755584591,-0.0307497,-0.11842,-0.728373,0.0,0.0,-0.578368
755604440,-0.0188271,-0.129495,-0.730789,0.0,0.0,-0.578489
755624335,-0.0342453,-0.141248,-0.734116,0.0,0.0,-0.578079
755644147,-0.0364239,-0.150863,-0.73495,0.0,0.0,-0.5781
755663961,-0.0266854,-0.14017,-0.73877,0.0,0.0,-0.578074
755683824,-0.0223719,-0.155404,-0.742555,0.0,0.0,-0.578446
755703758,-0.0065766,-0.128903,-0.746367,0.0,0.0,-0.578825
755723607,-0.0244729,-0.123002,-0.751309,0.0,0.0,-0.579796
755743551,-0.0671018,-0.141079,-0.754631,0.0,0.0,-0.579923
755763354,-0.112068,-0.146708,-0.757715,0.0,0.0,-0.580345
755783233,-0.131926,-0.158515,-0.761089,0.0,0.0,-0.578961
755803303,-0.140259,-0.163746,-0.762094,0.0,0.0,-0.578568
755822968,-0.133304,-0.148488,-0.767313,0.0,0.0,-0.577882
755847798,-0.085371,-0.146402,-0.760972,0.0,0.0,-0.57729
755862658,-0.133184,-0.160649,-0.771193,0.0,0.0,-0.577591
755882574,-0.119969,-0.174551,-0.774454,0.0,0.0,-0.576201
755907335,-0.0678215,-0.178976,-0.775885,0.0,0.0,-0.574909
755922276,-0.0489131,-0.170952,-0.787313,0.0,0.0,-0.574659
755942139,-0.0525411,-0.129672,-0.792307,0.0,0.0,-0.575562
755961978,-0.0607675,-0.11554,-0.797295,0.0,0.0,-0.576314
755986809,-0.0961946,-0.101627,-0.78897,0.0,0.0,-0.576927
756001797,-0.0867808,-0.109163,-0.804319,0.0,0.0,-0.576854
756021488,-0.0425161,-0.0766821,-0.808844,0.0,0.0,-0.577167
756046435,-0.0264109,-0.0874993,-0.797632,0.0,0.0,-0.577493
756061395,-0.041882,-0.0706752,-0.815136,0.0,0.0,-0.577925
756081233,-0.0978748,-0.0987562,-0.819509,0.0,0.0,-0.578228
756106023,-0.0894502,-0.111022,-0.810427,0.0,0.0,-0.577979
756125911,-0.0919909,-0.111697,-0.814198,0.0,0.0,-0.577242
756140747,-0.102867,-0.126712,-0.823821,0.0,0.0,-0.577118
756165561,-0.094339,-0.114519,-0.817888,0.0,0.0,-0.577022
756185442,-0.111783,-0.123765,-0.818871,0.0,0.0,-0.576727
756200404,-0.0606563,-0.11104,-0.827708,0.0,0.0,-0.575729
756225238,-0.00129776,-0.101772,-0.820757,0.0,0.0,-0.575262
756244979,-0.00937108,-0.0991709,-0.820274,0.0,0.0,-0.575837
756264808,0.00176873,-0.0992557,-0.823798,0.0,0.0,-0.575734
756284702,-0.0613724,-0.124317,-0.824487,0.0,0.0,-0.575588
756304592,-0.0763907,-0.128448,-0.824586,0.0,0.0,-0.576088
756324655,-0.0588575,-0.115265,-0.825485,0.0,0.0,-0.576018
756344393,-0.0460036,-0.0943471,-0.849963,0.0,0.0,-0.578859
756364281,0.00500729,-0.149707,-0.8387,0.0,0.0,-0.576374
756384066,0.0376699,-0.146435,-0.843371,0.0,0.0,-0.576794
756403968,0.0363151,-0.124135,-0.847047,0.0,0.0,-0.578304
756423748,-0.0183212,-0.10366,-0.851466,0.0,0.0,-0.578861
756443612,-0.0123381,-0.127264,-0.857768,0.0,0.0,-0.580636
756463569,-0.0378115,-0.101026,-0.861851,0.0,0.0,-0.581808
756483402,-0.0286796,-0.113747,-0.865321,0.0,0.0,-0.58296
756503316,-0.0408044,-0.124501,-0.868912,0.0,0.0,-0.58311
756523139,-0.0545423,-0.135419,-0.871171,0.0,0.0,-0.582926
756542999,-0.0612112,-0.146793,-0.877419,0.0,0.0,-0.582821
756562862,-0.0537382,-0.143113,-0.880412,0.0,0.0,-0.582333
756582831,-0.0866201,-0.153954,-0.882994,0.0,0.0,-0.58202
756602672,-0.0450688,-0.143369,-0.888389,0.0,0.0,-0.580765
756627497,0.0187721,-0.0929569,-0.175852,0.0,0.0,-0.581621
756642328,0.0535576,-0.0607065,-0.0362804,0.0,0.0,-0.582773
756662179,0.0527105,-0.0892752,-0.00682558,0.0,0.0,-0.58299
756687044,0.0389678,-0.0807283,0.0195346,0.0,0.0,-0.581898
756701869,0.01536,-0.140964,0.0377641,0.0,0.0,-0.58257
756721734,-0.00498826,-0.142337,0.0531647,0.0,0.0,-0.582266
756746549,0.0306157,-0.177526,0.0710782,0.0,0.0,-0.583046
756761583,-0.00487455,-0.139655,0.0776593,0.0,0.0,-0.582507
756781398,-0.0571594,-0.151024,0.0891376,0.0,0.0,-0.583463
756806239,-0.0304874,-0.145544,0.104622,0.0,0.0,-0.583441
756825949,-0.0399324,-0.13915,0.111248,0.0,0.0,-0.582652
756840896,-0.00627623,-0.158098,0.120467,0.0,0.0,-0.581789
756865778,0.00416922,-0.135628,0.125467,0.0,0.0,-0.5823
756885644,0.0170087,-0.153237,0.132686,0.0,0.0,-0.583247
756900541,0.0708779,-0.145137,0.1375,0.0,0.0,-0.581492
756925417,0.0265903,-0.148954,0.143871,0.0,0.0,-0.581875
756945275,-0.017445,-0.116357,0.148035,0.0,0.0,-0.582253
756965137,-0.0273634,-0.145941,0.151959,0.0,0.0,-0.583095
756985009,0.00482713,-0.126579,0.153386,0.0,0.0,-0.582685
757004863,0.0224973,-0.103411,0.154892,0.0,0.0,-0.584199
757024705,0.036403,-0.0523015,0.155349,0.0,0.0,-0.585365
757044498,0.0624885,-0.0869125,0.156098,0.0,0.0,-0.585528
757064361,0.071468,-0.0702565,0.156393,0.0,0.0,-0.584986
757084227,0.079514,-0.0822796,0.157378,0.0,0.0,-0.585464
757104047,0.0421633,-0.0902929,0.159418,0.0,0.0,-0.585264
757124055,0.0493479,-0.124651,0.160723,0.0,0.0,-0.583413
757144012,0.0337827,-0.128284,0.160374,0.0,0.0,-0.583555
757163923,0.00943124,-0.13502,0.160415,0.0,0.0,-0.582593
757183717,-0.00953818,-0.129944,0.159143,0.0,0.0,-0.582301
757203459,-0.014494,-0.108921,0.157956,0.0,0.0,-0.583
757223339,0.0245892,-0.0921074,0.155317,0.0,0.0,-0.582569
757243343,0.0273549,-0.0784967,0.152846,0.0,0.0,-0.58417
757263108,0.022659,-0.0540845,0.150784,0.0,0.0,-0.584272
757282920,-0.0268038,-0.0333286,0.148657,0.0,0.0,-0.585949
757302723,-0.00631146,-0.0528732,0.147298,0.0,0.0,-0.586595
757327498,-0.0108646,-0.0243204,0.142822,0.0,0.0,-0.587192
757342438,-0.0221828,-0.0410372,0.1413,0.0,0.0,-0.58802
757362274,-0.0176019,-0.0307104,0.13838,0.0,0.0,-0.588216
757387285,-0.0147292,-0.0385279,0.136941,0.0,0.0,-0.588616
757402250,-0.0106315,-0.0532231,0.134274,0.0,0.0,-0.588533
757422050,0.00918079,-0.0525219,0.13124,0.0,0.0,-0.588043
757446788,-0.0560188,-0.082984,0.132634,0.0,0.0,-0.586292
757461746,-0.0109322,-0.0769712,0.127812,0.0,0.0,-0.586618
757481564,-0.0160717,-0.0542846,0.125212,0.0,0.0,-0.586438
757506314,-0.00516365,-0.0542031,0.124226,0.0,0.0,-0.587248
757526224,-0.01646,-0.0205505,0.121505,0.0,0.0,-0.58709
757541087,-0.0146998,-0.0117168,0.11856,0.0,0.0,-0.588048
757565954,-0.013726,-0.0227854,0.117971,0.0,0.0,-0.587514
757585730,-0.00240624,-0.0189524,0.114654,0.0,0.0,-0.587241
757600638,-0.00765952,-0.020517,0.113496,0.0,0.0,-0.587647
757625611,-0.00511226,-0.0221843,0.109714,0.0,0.0,-0.586898
757645458,-0.0201649,-0.0158894,0.10798,0.0,0.0,-0.587182
757665344,-0.0463519,-0.0167956,0.106469,0.0,0.0,-0.586664
757685306,-0.0306969,-0.0332984,0.104023,0.0,0.0,-0.586291
757705030,-0.0167554,-0.0249945,0.100758,0.0,0.0,-0.585435
757724882,-0.0163778,-0.0384656,0.098831,0.0,0.0,-0.584987
757744909,-0.0240244,-0.0413618,0.0967305,0.0,0.0,-0.583808
757764621,-0.0828619,-0.0343738,0.0948969,0.0,0.0,-0.583745
757784447,-0.0687606,-0.0363458,0.0938723,0.0,0.0,-0.583252
757804331,-0.0674602,-0.0451167,0.0917992,0.0,0.0,-0.582167
757824303,-0.0148636,-0.0436385,0.090038,0.0,0.0,-0.581014
757844069,-0.0132759,-0.0448844,0.0876656,0.0,0.0,-0.580273
757863936,0.0126632,-0.0331481,0.0856214,0.0,0.0,-0.579423
757883693,-0.00290418,-0.0396537,0.0842147,0.0,0.0,-0.578556
757903555,0.00192333,-0.0507852,0.0826953,0.0,0.0,-0.577983
757923464,0.0205035,-0.0437985,0.0797905,0.0,0.0,-0.577214
757943468,0.0148457,-0.0393655,0.0772063,0.0,0.0,-0.577158
757963265,0.0359995,-0.0527631,0.0757286,0.0,0.0,-0.576549
757983169,0.0520803,-0.0382187,0.0736672,0.0,0.0,-0.575922
758003029,0.0513976,-0.0396984,0.0721761,0.0,0.0,-0.576313
758022829,0.0615248,-0.0335947,0.0700995,0.0,0.0,-0.57588
758042710,0.084114,-0.0236969,0.0684455,0.0,0.0,-0.576734
758062605,0.0828409,-0.0251773,0.0663996,0.0,0.0,-0.57753
758087436,0.0935288,-0.00149704,0.0691188,0.0,0.0,-0.577721
758102347,0.0934082,-0.00907442,0.0638365,0.0,0.0,-0.578581
758122112,0.0840834,-0.00597712,0.0629475,0.0,0.0,-0.578542
758146948,0.0967899,-0.0227351,0.0645287,0.0,0.0,-0.578806
758166750,0.0701153,-0.00998898,0.0636069,0.0,0.0,-0.578931
758181799,0.0878887,-0.0296188,0.0602641,0.0,0.0,-0.579378
758206671,0.0610436,-0.00898586,0.060484,0.0,0.0,-0.579224
758226661,0.0764939,-0.0162448,0.0597637,0.0,0.0,-0.580176
758241460,0.0625586,-0.0255091,0.0571493,0.0,0.0,-0.579832
758266218,0.0445604,-0.0178275,0.0567367,0.0,0.0,-0.580389
758286028,0.0341315,-0.00548256,0.0553743,0.0,0.0,-0.580967
758301012,0.0521122,-0.0141339,0.0524078,0.0,0.0,-0.581132
758325893,0.0287333,0.00436082,0.0518798,0.0,0.0,-0.581985
758345624,0.0332553,0.0118614,0.0500236,0.0,0.0,-0.582538
758365426,0.0392029,0.0257952,0.04833,0.0,0.0,-0.583397
758380277,0.0414096,0.032457,0.0444282,0.0,0.0,-0.583653
758405155,0.0383617,0.0195017,0.0447596,0.0,0.0,-0.584633
758424963,0.0426092,0.00722206,0.0434151,0.0,0.0,-0.584504
758445003,0.0446894,0.00100065,0.0414899,0.0,0.0,-0.584698
758464862,0.0276106,0.00376606,0.0394802,0.0,0.0,-0.584941
758484841,0.0156451,0.00229832,0.0376487,0.0,0.0,-0.5848
758504581,0.00985735,0.0164381,0.0355134,0.0,0.0,-0.584589
758524394,-0.00887099,0.0181086,0.0341346,0.0,0.0,-0.584798
758544405,0.00386953,0.0247845,0.032423,0.0,0.0,-0.584764
758564199,0.0258688,0.0217552,0.0303985,0.0,0.0,-0.584164
758584102,0.0172798,0.0196654,0.0278502,0.0,0.0,-0.583826
758603828,0.00444141,0.01799,0.0254814,0.0,0.0,-0.583477
758623629,0.00713959,0.006728,0.0236924,0.0,0.0,-0.582672
758643485,0.0146112,0.0105249,0.0215526,0.0,0.0,-0.581622
758663400,-0.00563196,-0.00298044,0.0190007,0.0,0.0,-0.581145
758683363,0.00570218,-0.0110999,0.0168133,0.0,0.0,-0.580809
758703159,0.0218219,0.00494758,0.0132866,0.0,0.0,-0.58021
758728064,0.0585808,0.00686234,0.0105321,0.0,0.0,-0.580334
758742971,0.0757343,0.0124971,0.00732006,0.0,0.0,-0.580032
758762956,0.0972861,0.0254553,0.0045675,0.0,0.0,-0.580365
758787631,0.0445243,0.0490697,0.0038129,0.0,0.0,-0.580025
758802565,0.0545165,0.0102745,-0.00050832,0.0,0.0,-0.580427
758822374,0.0076664,0.00854485,-0.0022381,0.0,0.0,-0.580562
758847206,0.0351762,-0.0455796,-0.000916593,0.0,0.0,-0.579706
758862172,0.0487898,-0.0148066,-0.00443814,0.0,0.0,-0.580593
758881825,0.0445952,-0.0332128,-0.00579457,0.0,0.0,-0.580781
758906771,0.040877,-0.0444669,-0.00589352,0.0,0.0,-0.581144
758926568,0.0152555,-0.0136477,-0.00903672,0.0,0.0,-0.581551
758941595,0.00994517,-0.0292068,-0.00893937,0.0,0.0,-0.581886
758961384,-0.000552048,-0.0319123,-0.00906783,0.0,0.0,-0.581545
758986281,0.0105615,-0.0451234,-0.0145094,0.0,0.0,-0.580444
759001163,-5.37533e-05,-0.0490646,-0.0113553,0.0,0.0,-0.580366
759021055,-0.00146643,-0.0448228,-0.0125409,0.0,0.0,-0.579385
759045804,0.00929966,-0.0605527,-0.0190776,0.0,0.0,-0.578858
759065679,0.11364,-0.0246676,-0.0212522,0.0,0.0,-0.579603
759080582,0.06679,-0.0261103,-0.0176117,0.0,0.0,-0.579742
759105400,0.0627922,-0.0586409,-0.022592,0.0,0.0,-0.579868
759125238,0.00876378,-0.0432383,-0.0239676,0.0,0.0,-0.579659
759140149,-0.00367259,-0.0729084,-0.0219539,0.0,0.0,-0.580295
759164955,-0.0318403,-0.0623838,-0.0236975,0.0,0.0,-0.580272
759184859,-0.00391358,-0.0597228,-0.0240576,0.0,0.0,-0.580416
759204706,-0.00581985,-0.0394507,-0.024618,0.0,0.0,-0.58046
759224586,0.00165737,-0.0370226,-0.024196,0.0,0.0,-0.580967
759244519,0.0180067,-0.0309188,-0.0249414,0.0,0.0,-0.580346
759264467,0.010507,-0.0296789,-0.0250959,0.0,0.0,-0.580679
759284157,-0.018279,-0.0339277,-0.0245891,0.0,0.0,-0.580694
759304246,-0.0159651,-0.0509529,-0.0238268,0.0,0.0,-0.580132
759323913,-0.0127158,-0.0405382,-0.0234953,0.0,0.0,-0.579687
759343859,-0.0186188,-0.0454597,-0.0232645,0.0,0.0,-0.579541
759363668,-0.0318918,-0.0463332,-0.0225298,0.0,0.0,-0.579535
759383562,-0.011512,-0.0381604,-0.0221478,0.0,0.0,-0.578974
759403431,-0.0167667,-0.0225557,-0.0221133,0.0,0.0,-0.578915
759423264,-0.0250551,-0.0313561,-0.0214672,0.0,0.0,-0.579296
759443094,0.000971527,-0.026012,-0.0207186,0.0,0.0,-0.579217
759462908,0.0219135,-0.00964248,-0.0213728,0.0,0.0,-0.579679
759487859,0.0225334,-0.00995091,-0.0181874,0.0,0.0,-0.580442
759502672,0.0512168,-0.00994195,-0.0204569,0.0,0.0,-0.580683
759522552,0.0680145,0.000639059,-0.0201586,0.0,0.0,-0.58148
759542395,0.071655,-0.00829056,-0.0190951,0.0,0.0,-0.582182
759567341,0.0539256,-0.00671315,-0.0151684,0.0,0.0,-0.582784
759582196,0.0588645,-0.0205303,-0.0178496,0.0,0.0,-0.583233
759602081,0.0671809,-0.00304448,-0.017865,0.0,0.0,-0.583729
759626894,0.037008,-0.0123829,-0.0137197,0.0,0.0,-0.584152
759641750,0.0463446,-0.0173543,-0.0153928,0.0,0.0,-0.584042
759661556,0.0395991,0.014071,-0.0149822,0.0,0.0,-0.584723
759686311,0.0256403,0.000928384,-0.0143738,0.0,0.0,-0.584968
759706175,0.0208544,0.00550424,-0.0145051,0.0,0.0,-0.585259
759721132,0.0313687,0.00459589,-0.0128441,0.0,0.0,-0.584689
759746078,0.0278199,-0.000822623,-0.0143458,0.0,0.0,-0.58475
759765857,0.0228326,0.00662965,-0.014492,0.0,0.0,-0.584622
759780763,0.0261084,-0.0331029,-0.0125682,0.0,0.0,-0.583658
759805620,0.0346795,0.00822112,-0.0155742,0.0,0.0,-0.583526
759825541,0.0117438,-0.0204394,-0.0149752,0.0,0.0,-0.583321
759840562,-6.88522e-05,-0.00579839,-0.0137829,0.0,0.0,-0.582493
759865203,0.0535773,0.0339594,-0.0156855,0.0,0.0,-0.585194
759885054,0.0379916,0.0373705,-0.0148915,0.0,0.0,-0.585967
759904933,0.0285321,0.0111973,-0.0135183,0.0,0.0,-0.586081
759924858,0.0205617,0.00753937,-0.0127235,0.0,0.0,-0.585824
759944604,0.0154635,-0.0130788,-0.0121453,0.0,0.0,-0.585529
759964446,0.0158148,-0.0110679,-0.0117417,0.0,0.0,-0.58542
759984319,0.0147788,-0.0272235,-0.0118085,0.0,0.0,-0.584942
760004248,0.0119102,-0.0187305,-0.0125784,0.0,0.0,-0.584207
760024082,-0.0154913,-0.0210413,-0.0126226,0.0,0.0,-0.584112
760043936,-0.0286448,-0.020897,-0.0123557,0.0,0.0,-0.58362
760063825,-0.0108917,-0.0294838,-0.0129803,0.0,0.0,-0.583031
760083756,0.00196842,-0.0082888,-0.0142041,0.0,0.0,-0.582286
760103737,0.0236929,-0.025687,-0.0146035,0.0,0.0,-0.58213
760123422,0.0540849,-0.0320025,-0.0147674,0.0,0.0,-0.581618
760143303,0.0808139,-0.0259134,-0.0154756,0.0,0.0,-0.581009
760163165,0.0724027,-0.0286269,-0.016091,0.0,0.0,-0.580961
760183110,0.0345034,-0.0129034,-0.0165808,0.0,0.0,-0.581616
760202834,0.0266217,-0.0148857,-0.0170067,0.0,0.0,-0.58155
760222704,0.0212561,-0.0173906,-0.0178712,0.0,0.0,-0.581905
760242599,0.0410157,-0.00730271,-0.0178445,0.0,0.0,-0.582475
760267428,0.0166744,-0.0249229,-0.0138688,0.0,0.0,-0.583233
760282381,0.0317823,-0.0120788,-0.0177614,0.0,0.0,-0.583365
760302203,0.0158503,-0.0184137,-0.0168254,0.0,0.0,-0.584467
760326963,0.00860071,-0.0380833,-0.015742,0.0,0.0,-0.583903
760341828,0.005302,-0.0468162,-0.015307,0.0,0.0,-0.583649
760361881,-0.00777444,-0.0399462,-0.0151313,0.0,0.0,-0.583389
760386602,-0.0106914,-0.0507287,-0.0149405,0.0,0.0,-0.583004
760401538,0.0214965,-0.0675612,-0.0136178,0.0,0.0,-0.579912
760421424,0.0333913,-0.0514958,-0.0133937,0.0,0.0,-0.579835
760446198,0.0378935,-0.0505204,-0.0173028,0.0,0.0,-0.579949
760466080,0.0515883,-0.0390275,-0.0170819,0.0,0.0,-0.580394
760480968,0.00862446,-0.0367051,-0.0146593,0.0,0.0,-0.58044
760505887,0.0338709,-0.0418734,-0.0157265,0.0,0.0,-0.581101
760525672,0.00557331,-0.0549997,-0.0146566,0.0,0.0,-0.581214
760545461,0.0390893,-0.0749476,-0.0137338,0.0,0.0,-0.580867
760565295,0.00673837,-0.0439105,-0.0137365,0.0,0.0,-0.581343
760585200,0.0208642,-0.0707358,-0.0126471,0.0,0.0,-0.581654
760605031,0.00490844,-0.0663686,-0.0122332,0.0,0.0,-0.580713
760625072,-0.0272256,-0.0568535,-0.0121202,0.0,0.0,-0.580853
760644995,-0.0610699,-0.0674614,-0.0116704,0.0,0.0,-0.580338
760664801,-0.0447323,-0.0683923,-0.013107,0.0,0.0,-0.57894
760684674,0.0415666,-0.0238727,-0.0152732,0.0,0.0,-0.579161
760704490,0.0286802,-0.0315202,-0.015654,0.0,0.0,-0.578966
760724437,0.00231471,-0.030502,-0.0159262,0.0,0.0,-0.578772
760744291,-0.00462614,-0.0454118,-0.0155798,0.0,0.0,-0.578312
760764229,-0.0276701,-0.0398145,-0.0152622,0.0,0.0,-0.57862
760783822,-0.0232743,-0.0571379,-0.0147033,0.0,0.0,-0.577888
760803685,-0.0414305,-0.057241,-0.0147714,0.0,0.0,-0.577009
760823515,-0.100109,-0.0378213,-0.0153603,0.0,0.0,-0.577162
760843380,-0.0932708,-0.0782343,-0.0148629,0.0,0.0,-0.576012
760863410,-0.0788308,-0.0637715,-0.0145479,0.0,0.0,-0.574978
760883262,-0.0565577,-0.0599207,-0.0131277,0.0,0.0,-0.574772
760903158,-0.00973411,-0.0542548,-0.0118492,0.0,0.0,-0.57461
760922984,0.0579275,-0.0367137,-0.0114092,0.0,0.0,-0.574885
760942842,0.0556972,-0.0390167,-0.0109287,0.0,0.0,-0.575345
760962654,0.0774642,-0.0428285,-0.00911514,0.0,0.0,-0.575057
760982582,0.0504331,-0.0340976,-0.0075705,0.0,0.0,-0.575213
761002334,0.034341,-0.0144736,-0.00623894,0.0,0.0,-0.575899
761027189,0.034786,-0.036239,-0.00844088,0.0,0.0,-0.576568
761042071,0.0266654,-0.000578424,-0.00455074,0.0,0.0,-0.57637
761061864,0.0235439,-0.015579,-0.00449358,0.0,0.0,-0.57669
761086697,0.0143283,-0.0213172,-0.00597686,0.0,0.0,-0.577264
761101601,0.00398911,-0.0156666,-0.00303607,0.0,0.0,-0.57748
761121618,0.00460181,-0.0121877,-0.00288564,0.0,0.0,-0.577594
761146411,-0.00309731,-0.0162316,-0.00269544,0.0,0.0,-0.577508
761166379,-0.00575746,-0.0110038,-0.00120505,0.0,0.0,-0.577675
761181300,-0.0201366,-0.0113775,-0.00247964,0.0,0.0,-0.57728
761206033,-0.0522146,0.00204614,0.001336,0.0,0.0,-0.576748
761225897,-0.0385355,-0.0323899,0.00137392,0.0,0.0,-0.575781
761240794,-0.0202215,-0.0172959,-0.00229981,0.0,0.0,-0.575046
761265738,-0.0294122,-0.0237844,-0.000123347,0.0,0.0,-0.575038
761285406,-0.0192471,-0.0141978,-0.000612301,0.0,0.0,-0.574345
761305287,-0.017222,0.0102664,-0.00105388,0.0,0.0,-0.574318
761325127,-0.0264215,0.00813295,-0.00120848,0.0,0.0,-0.575036
761345056,0.00695559,0.0110598,-0.00149374,0.0,0.0,-0.575254
761364868,0.0122386,0.0288151,-0.00272605,0.0,0.0,-0.575907
761384702,0.0262244,0.0199636,-0.00289991,0.0,0.0,-0.577104
761404557,0.0327583,0.028403,-0.00347889,0.0,0.0,-0.577713
761424525,0.0591673,0.0303711,-0.00323561,0.0,0.0,-0.578755
761444516,0.0273171,0.0179556,-0.00197648,0.0,0.0,-0.579014
761464211,0.0177337,0.0155299,-0.00157247,0.0,0.0,-0.579843
761484197,-0.0725401,-0.0347992,-0.00110862,0.0,0.0,-0.577206
761504066,-0.0404158,-0.034048,-0.00100602,0.0,0.0,-0.577441
