timestamp,timestamp_sample,control[0],control[1],control[2],control[3],control[4],control[5],control[6],control[7]
21442130,21441880,0.0055774697,0.011861087,0.0025400908,0.0,0.0,0.0,0.0,-1.0
21444620,21444362,0.0052111517,0.01994177,0.0022027825,0.0,0.0,0.0,0.0,-1.0
21542680,21542420,0.0049389824,0.0042709163,-0.0011745993,0.0,0.0,0.0,0.0,-1.0
21644600,21644354,0.016681733,0.012391603,0.0029350745,0.0,0.0,0.0,0.0,-1.0
21742514,21742260,0.06288186,0.04205761,0.0012637969,0.0,0.0,0.0,0.0,-1.0
21844282,21844040,-0.026986822,-0.0076635308,-0.0025611566,0.0,0.0,0.0,0.0,-1.0
21944822,21944580,0.029756734,0.018939016,0.0008680275,0.0,0.0,0.0,0.0,-1.0
22042886,22042639,-0.014554481,0.03722295,0.008486285,0.0,0.0,0.0,0.0,-1.0
22144670,22144420,-0.027462848,0.017116088,-0.01656294,0.0,0.0,0.0,0.0,-1.0
22242716,22242477,0.032460336,-0.011839926,-0.0007648556,0.0,0.0,0.0,0.0,-1.0
22344502,22344259,-0.0057205316,-0.017187877,0.01585034,0.0,0.0,0.0,0.0,-1.0
22442619,22442371,0.04528927,0.04831944,0.006012307,0.0,0.0,0.0,0.0,-1.0
22544340,22544098,0.039502703,0.039166372,0.005215478,0.0,0.0,0.0,0.0,-1.0
22642401,22642156,-0.043656893,-0.022810096,-0.0030673686,0.00499388,0.0,0.0,0.0,-1.0
22743183,22742940,-0.027823353,0.0032024551,-0.015679438,0.01747858,0.0,0.0,0.0,-1.0
22844727,22844480,-0.012281661,0.049652096,-0.016662579,0.01872705,0.0,0.0,0.0,-1.0
22942836,22942594,0.043177675,0.07671574,-0.008234683,0.01872705,0.0,0.0,0.0,-1.0
23044576,23044329,0.034762908,0.07740552,-0.002576965,0.0374541,0.0,0.0,0.0,-1.0
23142622,23142375,0.040467195,0.10111629,0.008593003,0.05493268,0.0,0.0,0.0,-1.0
23244495,23244234,0.0388803,0.13403097,-0.0006480789,0.15894736,0.0,0.0,0.0,-1.0
23342471,23342215,0.32338014,-0.17498696,0.0006153923,0.2136842,0.0,0.0,0.0,-1.0
23443004,23442756,0.09354592,0.058374632,-0.0046416395,0.21789475,0.0,0.0,0.0,-1.0
23544955,23544707,0.018661154,-0.040589407,-0.006402117,0.22421053,0.0,0.0,0.0,-1.0
23642851,23642598,0.10534827,0.027210634,-0.0069959546,0.22421053,0.0,0.0,0.0,-1.0
23744619,23744376,-0.028936477,0.062199138,-0.0012778402,0.23263158,0.0,0.0,0.0,-1.0
23842685,23842434,0.055700462,-0.016691,-0.004939052,0.23578948,0.0,0.0,0.0,-1.0
23944470,23944218,-0.014140779,-0.022622393,-0.0080011645,0.23789474,0.0,0.0,0.0,-1.0
24042529,24042273,-0.0027012825,0.057049133,-0.0036951648,0.24,0.0,0.0,0.0,-1.0
24143057,24142814,-0.06493005,0.0022127018,-0.008722453,0.26842105,0.0,0.0,0.0,-1.0
24244848,24244595,0.023664434,0.06405718,-0.0027875174,0.28526315,0.0,0.0,0.0,-1.0
24343018,24342777,0.088584095,-0.044707127,-0.0071070488,0.3031579,0.0,0.0,0.0,-1.0
24444679,24444434,0.0035239814,0.069022916,-0.003981916,0.3042105,0.0,0.0,0.0,-1.0
24542741,24542495,-0.087774165,0.017433269,-0.012878995,0.3042105,0.0,0.0,0.0,-1.0
24644525,24644274,0.08281268,0.035857163,-0.0107916985,0.31157896,0.0,0.0,0.0,-1.0
24745058,24744817,0.022937274,-0.020952344,-0.006887202,0.32947367,0.0,0.0,0.0,-1.0
24843121,24842874,0.084807046,-0.008849512,-0.006332434,0.33473685,0.0,0.0,0.0,-1.0
24944906,24944654,0.01213288,0.014430404,-0.010875786,0.3442105,0.0,0.0,0.0,-1.0
25042983,25042721,-0.06671518,0.02401406,-0.001629575,0.34526318,0.0,0.0,0.0,-1.0
25144852,25144600,-0.0074676233,0.078226134,-0.007703515,0.35473683,0.0,0.0,0.0,-1.0
25242811,25242564,0.00035186237,0.033217374,0.002055738,0.36947367,0.0,0.0,0.0,-1.0
25344599,25344346,-0.024732785,0.097133584,-0.0074279187,0.38315788,0.0,0.0,0.0,-1.0
25445134,25444886,0.0032403325,0.025602734,0.00479212,0.3863158,0.0,0.0,0.0,-1.0
25543178,25542931,0.050589155,0.02150723,-0.011959701,0.3863158,0.0,0.0,0.0,-1.0
25644960,25644712,0.039852638,0.06807074,-0.006688689,0.3873684,0.0,0.0,0.0,-1.0
25743017,25742770,0.006287374,0.08918454,0.008756454,0.40210527,0.0,0.0,0.0,-1.0
25844797,25844552,0.021764489,0.031131709,-0.0022020931,0.41157895,0.0,0.0,0.0,-1.0
25942919,25942672,0.012874169,0.040103965,0.012784226,0.41157895,0.0,0.0,0.0,-1.0
26043400,26043151,0.02321137,0.05271355,0.010298665,0.41578946,0.0,0.0,0.0,-1.0
26145183,26144934,0.017957864,0.041857343,0.009350302,0.41894737,0.0,0.0,0.0,-1.0
26243250,26243004,0.025870346,0.025465377,0.009199595,0.42526317,0.0,0.0,0.0,-1.0
26345017,26344771,-0.008766061,-0.024721859,0.01506228,0.4473684,0.0,0.0,0.0,-1.0
26443078,26442829,0.0072035138,-0.0068327934,0.011799529,0.46736842,0.0,0.0,0.0,-1.0
26544861,26544612,-0.016972905,-0.033885684,0.013131414,0.4694737,0.0,0.0,0.0,-1.0
26642925,26642669,-0.036541697,0.037774567,0.004973546,0.4768421,0.0,0.0,0.0,-1.0
26743500,26743253,-0.0038358385,0.037780322,0.0031172684,0.47789475,0.0,0.0,0.0,-1.0
26845235,26844987,0.0030849606,-0.04951173,-0.016483895,0.4768421,0.0,0.0,0.0,-1.0
26943304,26943049,0.044732556,-0.0939945,-0.019620817,0.47473684,0.0,0.0,0.0,-1.0
27045266,27045019,-0.016710365,0.017389096,-0.016384175,0.47368422,0.0,0.0,0.0,-1.0
27143153,27142896,0.011370105,-0.04646904,0.013672634,0.49157897,0.0,0.0,0.0,-1.0
27244919,27244670,-0.0007238869,0.029517395,-0.008208661,0.51299876,0.0,0.0,0.0,-1.0
27342986,27342728,-0.03727583,-0.014184646,-0.023733446,0.51779675,0.0,0.0,0.0,-1.0
27443558,27443313,-0.0055427817,0.002275908,-0.023179905,0.52019584,0.0,0.0,0.0,-1.0
27545360,27545108,-0.019707689,-0.019764954,-0.03659239,0.51899636,0.0,0.0,0.0,-1.0
27643349,27643108,0.015092944,0.022765253,-0.038077142,0.51779675,0.0,0.0,0.0,-1.0
27745138,27744889,-0.035095744,-0.038775515,-0.04803513,0.51779675,0.0,0.0,0.0,-1.0
27843327,27843085,0.022998122,-0.044022057,-0.035208825,0.51899636,0.0,0.0,0.0,-1.0
27944982,27944729,-0.0018219841,-0.02524194,-0.03147357,0.51779675,0.0,0.0,0.0,-1.0
28043045,28042788,-0.027486483,-0.016023314,-0.021807212,0.5153978,0.0,0.0,0.0,-1.0
28143573,28143327,-0.0127848275,0.0031058104,-0.028109217,0.50421053,0.0,0.0,0.0,-1.0
28245355,28245109,-0.018440932,-0.015655003,-0.02742365,0.50421053,0.0,0.0,0.0,-1.0
28343419,28343169,0.017556453,-0.012925657,-0.024009043,0.50421053,0.0,0.0,0.0,-1.0
28445204,28444949,0.024768852,-0.06249032,-0.026840255,0.50526315,0.0,0.0,0.0,-1.0
28543258,28543012,-0.0033108816,-0.03310842,-0.024918135,0.50526315,0.0,0.0,0.0,-1.0
28643910,28643657,0.040800266,-0.08672975,-0.02665096,0.50842106,0.0,0.0,0.0,-1.0
28741854,28741606,-0.008544138,-0.019426066,-0.023738256,0.52499384,0.0,0.0,0.0,-1.0
28843639,28843387,0.0021983061,-0.008469085,-0.013987801,0.5273929,0.0,0.0,0.0,-1.0
28941690,28941444,-0.008346048,-0.04404909,-0.009322801,0.5031579,0.0,0.0,0.0,-1.0
29043484,29043234,0.004594908,-0.009567103,-0.013573828,0.5021053,0.0,0.0,0.0,-1.0
29145255,29145003,-0.029291118,-0.011473219,-0.006146559,0.5010526,0.0,0.0,0.0,-1.0
29243359,29243110,-0.031414296,0.013226991,-0.0062045227,0.5010526,0.0,0.0,0.0,-1.0
29343858,29343606,0.024317434,-0.04582778,-0.0021225337,0.5010526,0.0,0.0,0.0,-1.0
29442042,29441794,-0.013633253,0.017772019,-0.0038071328,0.5,0.0,0.0,0.0,-1.0
29543695,29543446,0.0024207253,-0.027890949,-0.018152373,0.52499384,0.0,0.0,0.0,-1.0
29641751,29641504,-0.04577492,-0.06266605,-0.021170482,0.52379435,0.0,0.0,0.0,-1.0
29743529,29743286,-0.060955107,0.016724732,-0.013168029,0.5213953,0.0,0.0,0.0,-1.0
29845320,29845067,-0.04916585,-0.023074936,-0.02351117,0.5213953,0.0,0.0,0.0,-1.0
29943375,29943125,-0.05343514,0.0012000733,-0.013354132,0.5153978,0.0,0.0,0.0,-1.0
30043918,30043666,0.010736273,-0.123976804,-0.003223401,0.50421053,0.0,0.0,0.0,-1.0
30141970,30141725,-0.020500451,-0.03998885,-0.017522939,0.50421053,0.0,0.0,0.0,-1.0
30243854,30243603,-0.091124594,0.0038798172,-0.012945444,0.50421053,0.0,0.0,0.0,-1.0
30345530,30345287,-0.017286004,-0.07552731,-0.009502978,0.50631577,0.0,0.0,0.0,-1.0
30443644,30443401,0.0022167074,-0.040475387,-0.01103394,0.5031579,0.0,0.0,0.0,-1.0
30545371,30545124,0.022413107,-0.02389149,-0.00844252,0.5021053,0.0,0.0,0.0,-1.0
30643433,30643185,-0.03946692,-0.012735667,-0.0127661945,0.5031579,0.0,0.0,0.0,-1.0
30743971,30743725,-0.017030692,0.014549142,-0.007192319,0.5010526,0.0,0.0,0.0,-1.0
30842031,30841787,-0.062841035,-0.030516826,-0.0077284733,0.5031579,0.0,0.0,0.0,-1.0
30943812,30943565,0.008012618,-0.052160367,-0.0070029898,0.5117993,0.0,0.0,0.0,-1.0
31041932,31041680,-0.03198548,-0.064333335,-0.010738505,0.5141983,0.0,0.0,0.0,-1.0
31143652,31143405,-0.0050491104,-0.020403862,-0.019812832,0.52019584,0.0,0.0,0.0,-1.0
31245445,31245189,-0.02683154,-0.036631364,-0.015152376,0.52499384,0.0,0.0,0.0,-1.0
31342396,31342151,0.028231887,-0.0023454665,-0.015473772,0.5261934,0.0,0.0,0.0,-1.0
31444029,31443785,0.028185057,-0.096477084,-0.034966383,0.50842106,0.0,0.0,0.0,-1.0
31542095,31541844,-0.054898407,-0.062263254,-0.023703888,0.50842106,0.0,0.0,0.0,-1.0
31643872,31643624,-0.028056966,-0.039739527,-0.021613127,0.50842106,0.0,0.0,0.0,-1.0
31741931,31741682,0.0061018574,-0.07164204,-0.02240476,0.50631577,0.0,0.0,0.0,-1.0
31843743,31843499,-0.07667811,-0.010461409,-0.010691686,0.5,0.0,0.0,0.0,-1.0
31945508,31945247,-0.012855041,-0.08759621,-0.012666491,0.52019584,0.0,0.0,0.0,-1.0
32043552,32043304,-0.02409474,-0.0050166356,-0.010651255,0.5153978,0.0,0.0,0.0,-1.0
32145485,32145235,-0.008073187,-0.04022679,-0.01742244,0.5094737,0.0,0.0,0.0,-1.0
32242143,32241904,-0.019920077,-0.03983371,-0.019352907,0.5094737,0.0,0.0,0.0,-1.0
32343943,32343687,-0.06162911,-0.024214922,-0.014137606,0.50842106,0.0,0.0,0.0,-1.0
32442000,32441742,-0.058458418,0.010013473,-0.015916899,0.5094737,0.0,0.0,0.0,-1.0
32543768,32543524,0.015431669,-0.06132885,-0.010071148,0.47789475,0.0,0.0,0.0,-1.0
32644312,32644067,0.013647842,-0.021207578,-0.015802007,0.47052634,0.0,0.0,0.0,-1.0
32742368,32742122,-0.029876346,-0.056254532,-0.015428568,0.46842104,0.0,0.0,0.0,-1.0
32844154,32843905,-0.019331003,-0.06871559,-0.02072683,0.46421054,0.0,0.0,0.0,-1.0
32942332,32942086,0.043112896,-0.056218434,-0.011580553,0.46421054,0.0,0.0,0.0,-1.0
33044000,33043746,0.024304913,-0.068298295,-0.01632021,0.44105265,0.0,0.0,0.0,-1.0
33142049,33141802,0.009796417,-0.03877503,-0.01650036,0.44842106,0.0,0.0,0.0,-1.0
33243834,33243588,-0.02749859,-0.06521869,-0.02498685,0.48526317,0.0,0.0,0.0,-1.0
33344367,33344126,-0.002290879,-0.036987927,-0.024464594,0.5261934,0.0,0.0,0.0,-1.0
33442446,33442202,-0.014399619,-0.082224295,-0.015847972,0.51779675,0.0,0.0,0.0,-1.0
33544218,33543965,-0.028029015,-0.048977178,-0.029969862,0.51779675,0.0,0.0,0.0,-1.0
33642266,33642022,-0.03751021,-0.10261459,-0.019644106,0.5321909,0.0,0.0,0.0,-1.0
33744168,33743917,-0.04240643,-0.079569176,-0.0072365077,0.539388,0.0,0.0,0.0,-1.0
33845824,33845582,-0.023916332,-0.103554405,-0.019050213,0.5573806,0.0,0.0,0.0,-1.0
33943888,33943643,-0.025758244,-0.10964537,-0.010259327,0.5537821,0.0,0.0,0.0,-1.0
34044439,34044196,-0.05768665,-0.029826526,-0.011210149,0.5573806,0.0,0.0,0.0,-1.0
34142486,34142242,0.018862205,-0.14660189,-0.0131450305,0.5465851,0.0,0.0,0.0,-1.0
34244271,34244023,-0.055489138,-0.026892621,-0.005591695,0.50736845,0.0,0.0,0.0,-1.0
34342327,34342082,0.002731717,-0.060607426,-0.011238047,0.50842106,0.0,0.0,0.0,-1.0
34444117,34443864,0.0052513103,-0.103192285,-0.009006718,0.50842106,0.0,0.0,0.0,-1.0
34542201,34541949,-0.008850002,-0.09578894,-0.015920348,0.5213953,0.0,0.0,0.0,-1.0
34643946,34643703,0.013216548,-0.02845933,-0.01700127,0.49473685,0.0,0.0,0.0,-1.0
34744498,34744251,-0.06556717,-0.121166095,-0.012061279,0.49473685,0.0,0.0,0.0,-1.0
34842700,34842455,-0.039205804,-0.032804217,-0.018418035,0.49578947,0.0,0.0,0.0,-1.0
34944334,34944086,-0.0472663,-0.101946495,-0.024999714,0.49789476,0.0,0.0,0.0,-1.0
35042396,35042144,-0.033233948,-0.109993674,-0.02037402,0.49578947,0.0,0.0,0.0,-1.0
35144182,35143926,-0.027926618,-0.058007043,-0.030335322,0.49789476,0.0,0.0,0.0,-1.0
35242234,35241985,0.03995563,-0.08794508,-0.020113366,0.49894738,0.0,0.0,0.0,-1.0
35342771,35342521,0.038431585,-0.042368107,-0.0046630213,0.5,0.0,0.0,0.0,-1.0
35444549,35444304,-0.003010514,-0.09705416,0.0024848618,0.5,0.0,0.0,0.0,-1.0
35542610,35542362,-0.0055330726,-0.069190666,0.010158193,0.5021053,0.0,0.0,0.0,-1.0
35644517,35644271,-0.02610887,-0.02707839,-0.008597597,0.5,0.0,0.0,0.0,-1.0
35742444,35742202,-0.06594462,-0.014313349,-0.01721452,0.49894738,0.0,0.0,0.0,-1.0
35844238,35843984,-0.01368086,-0.05715202,-0.02284503,0.5021053,0.0,0.0,0.0,-1.0
35942295,35942043,-0.026147136,-0.016659204,-0.06377744,0.5031579,0.0,0.0,0.0,-1.0
36042873,36042621,-0.00065055117,-0.026506359,-0.057027984,0.50421053,0.0,0.0,0.0,-1.0
36144611,36144365,-0.021982554,-0.10196042,-0.05409156,0.50421053,0.0,0.0,0.0,-1.0
36242674,36242422,0.032222826,-0.09710987,-0.04094858,0.50526315,0.0,0.0,0.0,-1.0
36345693,36345446,-0.023094947,-0.039527338,-0.041340664,0.50421053,0.0,0.0,0.0,-1.0
36442652,36442405,0.016666148,-0.11251767,-0.034884132,0.5031579,0.0,0.0,0.0,-1.0
36544289,36544043,-0.024192173,-0.06406959,-0.039832726,0.49894738,0.0,0.0,0.0,-1.0
36642348,36642101,-0.004979894,-0.063863195,-0.035225373,0.50421053,0.0,0.0,0.0,-1.0
36742892,36742643,0.031086897,-0.07432549,-0.03710489,0.50421053,0.0,0.0,0.0,-1.0
36842202,36841948,-0.018142708,-0.025845557,-0.030941846,0.50421053,0.0,0.0,0.0,-1.0
36942735,36942487,0.008657659,-0.11407706,-0.020693803,0.5021053,0.0,0.0,0.0,-1.0
37044518,37044272,-0.058221646,-0.051779225,-0.030347133,0.5021053,0.0,0.0,0.0,-1.0
37142569,37142322,-0.08624395,0.0318577,-0.031241614,0.5010526,0.0,0.0,0.0,-1.0
37244417,37244171,0.025449501,-0.052219126,-0.032562308,0.5,0.0,0.0,0.0,-1.0
37342411,37342161,-0.047025517,0.04090841,-0.037051678,0.5,0.0,0.0,0.0,-1.0
37442952,37442703,-0.08215055,-0.04992909,-0.030006323,0.5,0.0,0.0,0.0,-1.0
37544728,37544484,-0.033554956,-0.071240254,-0.028452711,0.5,0.0,0.0,0.0,-1.0
37642785,37642542,-0.04373397,-0.042520966,-0.036459126,0.5010526,0.0,0.0,0.0,-1.0
37744570,37744324,-0.018619278,-0.06904943,-0.024412693,0.5021053,0.0,0.0,0.0,-1.0
37842629,37842381,-0.06310312,-0.03984441,-0.021103263,0.5031579,0.0,0.0,0.0,-1.0
37944431,37944183,-0.03546642,-0.09888435,-0.022542983,0.5031579,0.0,0.0,0.0,-1.0
38042503,38042245,-0.026284836,-0.07482224,-0.019401107,0.5021053,0.0,0.0,0.0,-1.0
38143013,38142764,0.012675325,-0.02412239,-0.023842026,0.5031579,0.0,0.0,0.0,-1.0
38244830,38244583,0.0063102557,-0.061975054,-0.029091978,0.5021053,0.0,0.0,0.0,-1.0
38343027,38342777,-0.00068581855,-0.055119682,-0.024136415,0.5021053,0.0,0.0,0.0,-1.0
38444635,38444384,0.03399136,-0.032528464,-0.030407358,0.5021053,0.0,0.0,0.0,-1.0
38542690,38542442,-0.014788726,-0.07401874,-0.029431328,0.5010526,0.0,0.0,0.0,-1.0
38644488,38644227,-0.06438652,-0.05984512,-0.018480904,0.50421053,0.0,0.0,0.0,-1.0
38742546,38742284,-0.012924608,-0.066577904,-0.026586669,0.50421053,0.0,0.0,0.0,-1.0
38843068,38842819,0.0063705025,-0.058218073,-0.028104013,0.50421053,0.0,0.0,0.0,-1.0
38944847,38944604,-0.0018158692,-0.096137926,-0.022505227,0.49157897,0.0,0.0,0.0,-1.0
39042907,39042662,0.010990359,-0.106506646,-0.021705363,0.49263158,0.0,0.0,0.0,-1.0
39144831,39144584,-0.014446308,-0.09782968,-0.030169357,0.48105264,0.0,0.0,0.0,-1.0
39242742,39242502,-0.057414055,-0.024180315,-0.026627133,0.48210526,0.0,0.0,0.0,-1.0
39344547,39344288,-0.0027019572,-0.049642093,-0.02589266,0.48105264,0.0,0.0,0.0,-1.0
39445066,39444824,0.029019903,-0.080564246,-0.031361848,0.48105264,0.0,0.0,0.0,-1.0
39543127,39542883,0.0069259424,-0.034083515,-0.02515622,0.48210526,0.0,0.0,0.0,-1.0
39644910,39644664,0.021906538,-0.088505805,-0.026979184,0.48210526,0.0,0.0,0.0,-1.0
39742971,39742724,0.030246349,-0.05600272,-0.02985378,0.48210526,0.0,0.0,0.0,-1.0
39844753,39844504,0.025542669,-0.0747712,-0.027062787,0.48210526,0.0,0.0,0.0,-1.0
39942922,39942663,0.00031237878,-0.010197615,-0.030640224,0.4831579,0.0,0.0,0.0,-1.0
40044597,40044348,-0.036829196,-0.050212316,-0.030319989,0.48210526,0.0,0.0,0.0,-1.0
40145152,40144896,-0.023080328,-0.028186126,-0.0343299,0.48210526,0.0,0.0,0.0,-1.0
40243208,40242945,-0.09570265,-0.00507247,-0.03123591,0.48210526,0.0,0.0,0.0,-1.0
40344980,40344725,0.005489263,-0.06256846,-0.03167405,0.48210526,0.0,0.0,0.0,-1.0
40443031,40442786,0.02119544,-0.028402263,-0.021636436,0.4831579,0.0,0.0,0.0,-1.0
40544815,40544567,-0.055439014,0.021572763,-0.024196634,0.48526317,0.0,0.0,0.0,-1.0
40642862,40642622,-0.04283821,-0.05488574,-0.029751934,0.5165973,0.0,0.0,0.0,-1.0
40743490,40743244,-0.0024315135,-0.09427809,-0.030107835,0.52379435,0.0,0.0,0.0,-1.0
40841464,40841221,-0.009327889,-0.039172564,-0.030977141,0.51299876,0.0,0.0,0.0,-1.0
40943262,40943005,0.029100345,-0.029719029,-0.032070264,0.51779675,0.0,0.0,0.0,-1.0
41045026,41044785,0.008298079,-0.026130447,-0.040071942,0.5153978,0.0,0.0,0.0,-1.0
41143090,41142843,-0.060556922,-0.09768347,-0.037768893,0.5117993,0.0,0.0,0.0,-1.0
41244872,41244625,-0.03396326,-0.060084138,-0.04463865,0.50842106,0.0,0.0,0.0,-1.0
41342937,41342683,0.017210528,-0.08900579,-0.054238036,0.5213953,0.0,0.0,0.0,-1.0
41443472,41443225,-0.0324383,-0.008363601,-0.045076825,0.5717748,0.0,0.0,0.0,-1.0
41541554,41541309,-0.050620593,0.033134203,-0.027188778,0.5297919,0.0,0.0,0.0,-1.0
41643312,41643066,0.021962304,-0.09908966,-0.034812503,0.5297919,0.0,0.0,0.0,-1.0
41745107,41744845,-0.03757534,0.0061717373,-0.036881916,0.5297919,0.0,0.0,0.0,-1.0
41843331,41843086,0.025409222,-0.047202323,-0.038695198,0.5261934,0.0,0.0,0.0,-1.0
41944941,41944685,-0.06002146,-0.021573884,-0.028733468,0.52499384,0.0,0.0,0.0,-1.0
42042995,42042743,-0.0014648248,-0.04562342,-0.03950104,0.5010526,0.0,0.0,0.0,-1.0
42143534,42143285,-0.032981712,-0.07860291,-0.028475596,0.5010526,0.0,0.0,0.0,-1.0
42245310,42245066,-0.026541913,-0.051154718,-0.032299027,0.5021053,0.0,0.0,0.0,-1.0
42343440,42343188,-0.081908815,-0.010212803,-0.034748208,0.5010526,0.0,0.0,0.0,-1.0
42445148,42444907,-0.018228628,-0.019650288,-0.027236547,0.5010526,0.0,0.0,0.0,-1.0
42543210,42542964,-0.0178935,-0.024269953,-0.03059455,0.5010526,0.0,0.0,0.0,-1.0
42643893,42643650,-0.018592536,-0.030699331,-0.025847541,0.5010526,0.0,0.0,0.0,-1.0
42743046,42742804,0.009531967,-0.043190654,-0.036563296,0.5031579,0.0,0.0,0.0,-1.0
42843593,42843344,-0.08954199,0.0007517718,-0.03395331,0.5031579,0.0,0.0,0.0,-1.0
42945369,42945126,-0.050036427,0.002680084,-0.033069585,0.5021053,0.0,0.0,0.0,-1.0
43043441,43043184,0.0050882054,-0.053160798,-0.019892383,0.5031579,0.0,0.0,0.0,-1.0
43145210,43144966,-0.00053145556,-0.035644148,-0.017758474,0.5031579,0.0,0.0,0.0,-1.0
43243323,43243079,-0.055599146,-0.014019565,-0.028615097,0.50421053,0.0,0.0,0.0,-1.0
43343809,43343565,-0.020213772,0.008732384,-0.022847502,0.50421053,0.0,0.0,0.0,-1.0
43442024,43441782,0.004497847,-0.04394009,-0.02504915,0.50421053,0.0,0.0,0.0,-1.0
43543654,43543404,0.009734132,-0.059761398,-0.01492406,0.50842106,0.0,0.0,0.0,-1.0
43641706,43641463,0.009426153,-0.059999682,-0.021939982,0.5117993,0.0,0.0,0.0,-1.0
43743494,43743245,-0.040900417,-0.053857878,-0.022450302,0.5,0.0,0.0,0.0,-1.0
43841550,43841303,-0.015025412,-0.07189517,-0.024016121,0.5031579,0.0,0.0,0.0,-1.0
43943329,43943083,-0.032789215,-0.026017629,-0.017435348,0.50421053,0.0,0.0,0.0,-1.0
44043877,44043628,-0.024521213,0.027640052,-0.011850336,0.5285924,0.0,0.0,0.0,-1.0
44141928,44141683,0.008223918,-0.02087345,-0.011960114,0.5321909,0.0,0.0,0.0,-1.0
44243840,44243594,0.0017122471,-0.06836344,-0.019726781,0.5321909,0.0,0.0,0.0,-1.0
44341773,44341529,-0.016647467,-0.014715102,-0.020103784,0.5597797,0.0,0.0,0.0,-1.0
44443551,44443305,-0.0025961997,-0.04611734,-0.02511307,0.5645777,0.0,0.0,0.0,-1.0
44545370,44545127,-0.0043644155,-0.071015686,-0.025394762,0.5597797,0.0,0.0,0.0,-1.0
44643390,44643145,-0.050521784,0.029408317,-0.015344782,0.5537821,0.0,0.0,0.0,-1.0
44743936,44743692,-0.060865432,-0.025112398,-0.033280294,0.54778457,0.0,0.0,0.0,-1.0
44841989,44841743,-0.031168116,0.016424801,-0.021720046,0.536989,0.0,0.0,0.0,-1.0
44943773,44943525,-0.017102089,-0.03832034,-0.052248243,0.5261934,0.0,0.0,0.0,-1.0
45045652,45045408,-0.033195812,0.0062351804,-0.042115644,0.52499384,0.0,0.0,0.0,-1.0
45143617,45143365,-0.04150489,-0.032867596,-0.05990062,0.52019584,0.0,0.0,0.0,-1.0
45245394,45245148,-0.050870605,0.0037714436,-0.06828145,0.5153978,0.0,0.0,0.0,-1.0
45342395,45342149,0.002184033,-0.00018306088,-0.100663826,0.4768421,0.0,0.0,0.0,-1.0
45444033,45443781,-0.04192553,-0.006744714,-0.14252736,0.4768421,0.0,0.0,0.0,-1.0
45542051,45541804,-0.04319857,0.0156855,-0.15413254,0.4768421,0.0,0.0,0.0,-1.0
45643837,45643587,0.01870652,-0.035022475,-0.14231892,0.47789475,0.0,0.0,0.0,-1.0
45741892,45741644,0.0174588,0.014340564,-0.11554525,0.47789475,0.0,0.0,0.0,-1.0
45843784,45843532,-0.0034098432,-0.05583543,-0.0747417,0.48000002,0.0,0.0,0.0,-1.0
45945449,45945207,-8.7985645e-05,-0.011781428,-0.112047546,0.4768421,0.0,0.0,0.0,-1.0
46043531,46043268,-0.074567296,-0.07739309,-0.09852533,0.4768421,0.0,0.0,0.0,-1.0
46144217,46143963,0.02296119,-0.07264316,-0.02502101,0.48736843,0.0,0.0,0.0,-1.0
46242107,46241864,-0.04809076,-0.039736338,0.020657353,0.5021053,0.0,0.0,0.0,-1.0
46345170,46344922,0.0087596625,-0.012850657,0.024713269,0.57537335,0.0,0.0,0.0,-1.0
46445673,46445428,-0.02378529,-0.014989021,0.023280237,0.6101591,0.0,0.0,0.0,-1.0
46543736,46543487,0.02315068,-0.046664562,0.015399235,0.6173562,0.0,0.0,0.0,-1.0
46641793,46641545,-0.025831902,0.06317865,0.013152518,0.6137576,0.0,0.0,0.0,-1.0
46742342,46742087,-0.0036006477,-0.02677723,0.026236365,0.6065605,0.0,0.0,0.0,-1.0
46844120,46843867,0.005040331,-0.025449581,0.01930314,0.56937575,0.0,0.0,0.0,-1.0
46942288,46942045,-0.03510182,-0.0084844865,0.019069409,0.52499384,0.0,0.0,0.0,-1.0
47045204,47044950,-0.02006481,-0.007995686,0.018716693,0.51779675,0.0,0.0,0.0,-1.0
47145730,47145488,-0.0074381176,0.028307175,0.0064937,0.47894737,0.0,0.0,0.0,-1.0
47243800,47243549,-0.0064502656,-0.006689361,0.013748682,0.4663158,0.0,0.0,0.0,-1.0
47341854,47341604,-0.014061836,-0.05446096,0.0047891825,0.4663158,0.0,0.0,0.0,-1.0
47443657,47443410,-0.022343474,-0.010509143,-0.008476128,0.4536842,0.0,0.0,0.0,-1.0
47544184,47543928,0.018637717,0.013233467,-0.007160967,0.45157897,0.0,0.0,0.0,-1.0
47642277,47642033,-0.02372796,-0.025416804,-0.015084506,0.45157897,0.0,0.0,0.0,-1.0
47744163,47743913,-0.024925722,-0.009795681,-0.014851168,0.45052633,0.0,0.0,0.0,-1.0
47842078,47841825,0.0012417124,0.020110324,-0.008530022,0.44947368,0.0,0.0,0.0,-1.0
47943855,47943607,-0.032615986,0.0019370572,-0.0064488472,0.44947368,0.0,0.0,0.0,-1.0
48044404,48044149,-0.0070422036,-0.03842347,-0.017556572,0.45052633,0.0,0.0,0.0,-1.0
48142457,48142208,-0.031075241,-0.042403925,-0.0052037556,0.45157897,0.0,0.0,0.0,-1.0
48244237,48243988,-0.029984498,-0.036011115,-0.017413089,0.47473684,0.0,0.0,0.0,-1.0
48342338,48342088,0.011871624,-0.038918458,-0.013099955,0.49263158,0.0,0.0,0.0,-1.0
48444077,48443828,-0.022341203,-0.03234685,-0.046149638,0.49263158,0.0,0.0,0.0,-1.0
48545953,48545701,-0.0045582717,-0.025334213,-0.10125017,0.4831579,0.0,0.0,0.0,-1.0
48643917,48643668,-0.028648257,-0.012792049,-0.083158165,0.46736842,0.0,0.0,0.0,-1.0
48744452,48744209,-0.0787411,-0.059421636,0.007853451,0.46421054,0.0,0.0,0.0,-1.0
48842517,48842269,-0.0007935527,-0.09972956,-0.0031354313,0.46736842,0.0,0.0,0.0,-1.0
48944317,48944072,-0.009782153,-0.06980956,-0.0116385175,0.46736842,0.0,0.0,0.0,-1.0
49042364,49042108,-0.09060173,0.033596717,-0.006939609,0.49578947,0.0,0.0,0.0,-1.0
49144137,49143888,-0.003228527,-0.06502346,-0.0045964634,0.50526315,0.0,0.0,0.0,-1.0
49242200,49241948,-0.025198841,-0.02509971,-0.0048476933,0.5153978,0.0,0.0,0.0,-1.0
49344022,49343760,-0.032364417,-0.014566611,-0.008997831,0.51779675,0.0,0.0,0.0,-1.0
49444515,49444269,-0.031893127,-0.04025924,-0.00736464,0.5010526,0.0,0.0,0.0,-1.0
49542576,49542328,-0.10622955,-0.02058058,0.00032680025,0.55498165,0.0,0.0,0.0,-1.0
49644525,49644281,-0.048378583,-0.051945105,-0.013865384,0.5645777,0.0,0.0,0.0,-1.0
49742411,49742169,-0.033838872,-0.08561123,-0.000920988,0.5633782,0.0,0.0,0.0,-1.0
49844196,49843949,-0.017949378,-0.04360602,-0.009884919,0.5621787,0.0,0.0,0.0,-1.0
49942262,49942008,-0.03251175,0.00066395395,-0.011768984,0.5621787,0.0,0.0,0.0,-1.0
50044047,50043790,-0.08497747,0.05357955,-0.020046173,0.5609792,0.0,0.0,0.0,-1.0
50144577,50144330,-0.07179822,-0.028724123,-0.02842682,0.5597797,0.0,0.0,0.0,-1.0
50242641,50242389,-0.058138136,-0.03274023,-0.037982088,0.55858016,0.0,0.0,0.0,-1.0
50344420,50344170,-0.05331405,-0.08894532,-0.03169423,0.53459,0.0,0.0,0.0,-1.0
50442645,50442402,-0.08206124,-0.027912105,-0.040206555,0.5333904,0.0,0.0,0.0,-1.0
50545499,50545251,0.010392353,-0.073155835,-0.04504088,0.5357895,0.0,0.0,0.0,-1.0
50642318,50642068,-0.07728143,-0.026124856,-0.055003665,0.53818846,0.0,0.0,0.0,-1.0
50742858,50742608,-0.000675556,-0.01009064,-0.04937463,0.539388,0.0,0.0,0.0,-1.0
50844636,50844390,-0.02781263,-0.04434944,-0.048440337,0.539388,0.0,0.0,0.0,-1.0
50942763,50942518,-0.029225154,-0.023341034,-0.035812914,0.539388,0.0,0.0,0.0,-1.0
51044479,51044230,-0.0625308,-0.047984246,-0.030275052,0.539388,0.0,0.0,0.0,-1.0
51142544,51142301,-0.028411752,-0.12426278,-0.039856974,0.539388,0.0,0.0,0.0,-1.0
51244435,51244181,-0.032101218,0.06612401,-0.030107977,0.53818846,0.0,0.0,0.0,-1.0
51342371,51342128,-0.00097283383,-0.041531056,-0.028227743,0.53818846,0.0,0.0,0.0,-1.0
51442918,51442668,0.010513147,-0.043447357,-0.027994689,0.53818846,0.0,0.0,0.0,-1.0
51544696,51544451,0.012866061,-0.08356659,-0.01958731,0.53818846,0.0,0.0,0.0,-1.0
51642768,51642511,-0.07653199,-0.05108222,-0.022769393,0.53818846,0.0,0.0,0.0,-1.0
51744549,51744307,-0.04425901,-0.027267793,-0.020021124,0.53818846,0.0,0.0,0.0,-1.0
51842594,51842349,0.028692039,-0.07205711,-0.02258663,0.53818846,0.0,0.0,0.0,-1.0
51944379,51944130,-0.063107975,-0.021437801,-0.028866239,0.53818846,0.0,0.0,0.0,-1.0
52042503,52042251,-0.013300982,-0.03204667,-0.023183817,0.53818846,0.0,0.0,0.0,-1.0
52142985,52142729,0.041237544,-0.042024314,-0.0218106,0.53818846,0.0,0.0,0.0,-1.0
52244751,52244511,-0.059375163,-0.025980579,-0.008792068,0.53818846,0.0,0.0,0.0,-1.0
52342818,52342569,0.00015966328,0.022548508,-0.011903741,0.53818846,0.0,0.0,0.0,-1.0
52444599,52444351,-0.0059473743,-0.05198518,-0.0109817,0.53818846,0.0,0.0,0.0,-1.0
52542651,52542409,0.011952762,-0.03924709,-0.012867773,0.53818846,0.0,0.0,0.0,-1.0
52644439,52644196,0.018067803,-0.056327105,-0.008157788,0.53818846,0.0,0.0,0.0,-1.0
52742500,52742249,0.0076884553,-0.031023186,-0.014407647,0.5357895,0.0,0.0,0.0,-1.0
52843115,52842868,-0.029791746,-0.023167465,-0.018905263,0.5357895,0.0,0.0,0.0,-1.0
52944815,52944572,0.052932587,-0.08349236,-0.011591295,0.50842106,0.0,0.0,0.0,-1.0
53042893,53042633,0.03452666,-0.073366515,-0.013325618,0.5213953,0.0,0.0,0.0,-1.0
53144879,53144633,0.015158689,-0.056299992,-0.016974425,0.5213953,0.0,0.0,0.0,-1.0
53242716,53242470,0.0050391024,-0.08327858,-0.0131832445,0.5213953,0.0,0.0,0.0,-1.0
53344507,53344252,0.03657868,-0.0020187823,-0.018309502,0.5213953,0.0,0.0,0.0,-1.0
53445057,53444798,0.012814149,-0.055069074,-0.012694329,0.5213953,0.0,0.0,0.0,-1.0
53543096,53542851,-0.04388091,-0.014801285,-0.013185227,0.52019584,0.0,0.0,0.0,-1.0
53644884,53644640,-0.059087574,-0.070051946,-0.030306017,0.5213953,0.0,0.0,0.0,-1.0
53742943,53742691,0.027543461,-0.06947035,-0.0254664,0.5213953,0.0,0.0,0.0,-1.0
53844713,53844472,-0.034383006,0.051709406,-0.01260175,0.5213953,0.0,0.0,0.0,-1.0
53943018,53942765,-0.033832673,-0.02600655,-0.011987378,0.5213953,0.0,0.0,0.0,-1.0
54043315,54043071,0.0026188444,-0.08990132,-0.013043771,0.5213953,0.0,0.0,0.0,-1.0
54145103,54144853,0.0054187533,-0.04865794,-0.021888753,0.5213953,0.0,0.0,0.0,-1.0
54243158,54242911,-0.021201398,0.002910798,-0.017946843,0.5213953,0.0,0.0,0.0,-1.0
54344940,54344694,-3.5773388e-05,-0.009876326,-0.016132804,0.5213953,0.0,0.0,0.0,-1.0
54443040,54442791,0.035909735,-0.07307702,-0.008159759,0.5213953,0.0,0.0,0.0,-1.0
54544777,54544533,-0.04473423,-0.056185797,-0.019251483,0.5213953,0.0,0.0,0.0,-1.0
54642840,54642591,0.043278195,-0.039320823,-0.024459496,0.5021053,0.0,0.0,0.0,-1.0
54743534,54743290,-0.0314432,-0.019628787,-0.030519549,0.49263158,0.0,0.0,0.0,-1.0
54845168,54844916,-0.026683174,-0.062576145,-0.02984639,0.49263158,0.0,0.0,0.0,-1.0
54943224,54942972,-0.02941197,-0.007135202,-0.034129847,0.49263158,0.0,0.0,0.0,-1.0
55044997,55044753,-0.069247484,-0.039339896,-0.036941208,0.49263158,0.0,0.0,0.0,-1.0
55143061,55142812,-0.062348917,0.0024560743,-0.03736485,0.49263158,0.0,0.0,0.0,-1.0
55244848,55244601,-0.07110651,-0.030532047,-0.033852268,0.49263158,0.0,0.0,0.0,-1.0
55342896,55342652,-0.038942643,-0.020901155,-0.033130262,0.49263158,0.0,0.0,0.0,-1.0
55443440,55443195,-0.016182654,-0.02436705,-0.025412785,0.49263158,0.0,0.0,0.0,-1.0
55545327,55545080,0.029578295,-0.038557157,-0.01729287,0.4936842,0.0,0.0,0.0,-1.0
55643283,55643033,-0.0048980713,-0.020039322,-0.013787211,0.49684212,0.0,0.0,0.0,-1.0
55745057,55744814,-0.096695125,0.042933583,-0.015414477,0.49684212,0.0,0.0,0.0,-1.0
55843120,55842872,-0.022817178,-0.09804672,-0.0125019625,0.5141983,0.0,0.0,0.0,-1.0
55944899,55944655,-0.08677169,-0.021036722,-0.015505565,0.5213953,0.0,0.0,0.0,-1.0
56042986,56042723,-0.06404174,-0.033825573,-0.0043088607,0.5,0.0,0.0,0.0,-1.0
56143498,56143253,-0.07770961,0.014212014,-0.002833916,0.5010526,0.0,0.0,0.0,-1.0
56245314,56245067,0.019646619,-0.06560918,-0.0013806609,0.5165973,0.0,0.0,0.0,-1.0
56343384,56343134,-0.025325501,-0.07668104,-0.005583309,0.5165973,0.0,0.0,0.0,-1.0
56445120,56444875,-0.00088945957,-0.083675206,-0.009765419,0.53459,0.0,0.0,0.0,-1.0
56543175,56542932,0.00010981192,-0.08227042,-0.004021334,0.54778457,0.0,0.0,0.0,-1.0
56644971,56644718,0.05490486,-0.061517842,0.0047297543,0.54778457,0.0,0.0,0.0,-1.0
56743023,56742773,-0.06154764,-0.10680903,-0.025331525,0.5465851,0.0,0.0,0.0,-1.0
56843558,56843314,-0.06426376,-0.054939996,-0.010915988,0.5465851,0.0,0.0,0.0,-1.0
56941617,56941373,0.0038254417,-0.07633065,-0.017180802,0.5465851,0.0,0.0,0.0,-1.0
57043410,57043155,-0.026049512,-0.032643314,-0.009266687,0.5465851,0.0,0.0,0.0,-1.0
57145212,57144963,-0.07263426,-0.06274597,-0.020423317,0.54538554,0.0,0.0,0.0,-1.0
57243254,57242994,-0.028619692,-0.038914163,-0.008513771,0.54538554,0.0,0.0,0.0,-1.0
57345029,57344777,-0.05770481,-0.031704444,-0.016150612,0.54538554,0.0,0.0,0.0,-1.0
57441991,57441741,-0.0015745101,-0.06185641,-0.021389969,0.54418606,0.0,0.0,0.0,-1.0
57543620,57543374,-0.06379205,0.012853736,-0.021111365,0.5357895,0.0,0.0,0.0,-1.0
57645405,57645156,-0.024581784,-0.0626803,-0.029962996,0.5321909,0.0,0.0,0.0,-1.0
57743465,57743216,-0.033366103,-0.070685565,-0.030687762,0.5321909,0.0,0.0,0.0,-1.0
57845245,57844996,-0.0046751807,-0.0027315933,-0.037394628,0.5321909,0.0,0.0,0.0,-1.0
57943299,57943051,0.011012523,-0.03659522,-0.04248541,0.5261934,0.0,0.0,0.0,-1.0
58043845,58043596,0.003932221,-0.055434395,-0.03426304,0.5273929,0.0,0.0,0.0,-1.0
58141905,58141653,0.034110073,-0.04066627,-0.040811952,0.52379435,0.0,0.0,0.0,-1.0
58243860,58243612,-0.02311486,-0.016986506,-0.031776857,0.52379435,0.0,0.0,0.0,-1.0
58345467,58345218,-0.06226071,0.04186508,-0.024320606,0.5261934,0.0,0.0,0.0,-1.0
58443565,58443312,-0.0077400613,-0.021333888,-0.02911728,0.52499384,0.0,0.0,0.0,-1.0
58545339,58545096,-0.013971547,-0.059890002,-0.02021996,0.5297919,0.0,0.0,0.0,-1.0
58643372,58643119,0.015154247,-0.07132343,-0.023300216,0.5297919,0.0,0.0,0.0,-1.0
58743894,58743652,-0.0021219188,-0.08178529,-0.027174914,0.5297919,0.0,0.0,0.0,-1.0
58841982,58841720,-0.0030843422,-0.06395227,-0.02768272,0.5297919,0.0,0.0,0.0,-1.0
58943738,58943496,-0.046543624,-0.05547503,-0.0319756,0.5297919,0.0,0.0,0.0,-1.0
59045627,59045382,0.014684246,-0.030066006,-0.02202703,0.5297919,0.0,0.0,0.0,-1.0
59143577,59143332,-0.004279829,-0.0034624676,-0.022626549,0.5297919,0.0,0.0,0.0,-1.0
59245367,59245118,-0.028992185,-0.063537896,-0.034088545,0.5297919,0.0,0.0,0.0,-1.0
59343434,59343179,-0.034518383,-0.028005853,-0.03641079,0.5297919,0.0,0.0,0.0,-1.0
59443961,59443717,-0.05310104,-0.0101419,-0.022964962,0.5297919,0.0,0.0,0.0,-1.0
59542027,59541775,-0.06417653,0.013708075,-0.020248199,0.5297919,0.0,0.0,0.0,-1.0
59643801,59643557,-0.0038426656,-0.08610353,-0.022580568,0.5297919,0.0,0.0,0.0,-1.0
59741855,59741614,0.005839021,-0.1007183,-0.01583357,0.5297919,0.0,0.0,0.0,-1.0
59843706,59843457,-0.049429208,-0.003029685,-0.019988462,0.5261934,0.0,0.0,0.0,-1.0
59945422,59945178,-0.01960127,-0.020680552,-0.011351346,0.5273929,0.0,0.0,0.0,-1.0
60043488,60043236,0.009000255,-0.038387336,-0.009807031,0.5297919,0.0,0.0,0.0,-1.0
60144021,60143780,0.004396451,-0.029272942,-0.016570387,0.5297919,0.0,0.0,0.0,-1.0
60242085,60241835,-0.042883825,-0.013096121,-0.008267856,0.5273929,0.0,0.0,0.0,-1.0
60343861,60343617,0.04719084,-0.062702686,-0.007977537,0.5213953,0.0,0.0,0.0,-1.0
60445646,60445399,-0.008908613,-0.03202201,-0.009467629,0.5105998,0.0,0.0,0.0,-1.0
60543705,60543457,0.024326332,-0.06638706,-0.00834465,0.5153978,0.0,0.0,0.0,-1.0
60644272,60644024,-0.04665084,-0.020946702,-0.014078262,0.50842106,0.0,0.0,0.0,-1.0
60743549,60743300,-0.010975737,-0.0012788104,-0.018055387,0.50736845,0.0,0.0,0.0,-1.0
60844084,60843837,-0.034247212,-0.0082403915,-0.031581737,0.5153978,0.0,0.0,0.0,-1.0
60942305,60942058,-0.016108058,-3.6832163e-05,-0.021297455,0.5117993,0.0,0.0,0.0,-1.0
61043927,61043678,-0.00014163846,-0.060679037,-0.07271018,0.5165973,0.0,0.0,0.0,-1.0
61141987,61141736,0.0062873657,-0.041209035,-0.0785463,0.5117993,0.0,0.0,0.0,-1.0
61245024,61244776,-0.030564982,-0.02265803,-0.098814994,0.5117993,0.0,0.0,0.0,-1.0
61345555,61345299,-0.010069783,-0.0069142617,-0.06435188,0.5165973,0.0,0.0,0.0,-1.0
61443661,61443411,-0.038027912,-0.06510307,0.019072447,0.5141983,0.0,0.0,0.0,-1.0
61544142,61543898,-0.0065854867,-0.009855372,0.0053781797,0.5153978,0.0,0.0,0.0,-1.0
61642262,61642014,-0.01703676,-0.056259338,0.008742713,0.5153978,0.0,0.0,0.0,-1.0
61744119,61743878,-0.03581784,-0.036495227,-0.0025830865,0.5165973,0.0,0.0,0.0,-1.0
61845765,61845520,-0.012224626,-0.04046111,-0.0015756437,0.51779675,0.0,0.0,0.0,-1.0
61943825,61943578,0.0016611315,-0.04383742,-0.012943701,0.5165973,0.0,0.0,0.0,-1.0
62044378,62044119,-0.080049224,0.005644939,-0.0031254159,0.5165973,0.0,0.0,0.0,-1.0
62142423,62142177,-0.07224889,0.011792523,-0.0075660753,0.5165973,0.0,0.0,0.0,-1.0
62244228,62243979,-0.021687714,-0.08527127,-0.0075726956,0.5165973,0.0,0.0,0.0,-1.0
62342267,62342017,-0.019786902,-0.039759677,-0.010114553,0.5165973,0.0,0.0,0.0,-1.0
62444045,62443802,0.0355837,-0.030171404,-0.014549089,0.5165973,0.0,0.0,0.0,-1.0
62546007,62545751,-0.0019000998,-0.011920461,-0.0025778895,0.5165973,0.0,0.0,0.0,-1.0
62645135,62644884,0.026752042,-0.048952106,-0.0066747232,0.5165973,0.0,0.0,0.0,-1.0
62744434,62744180,-0.009254656,-0.0739493,-0.019822119,0.5165973,0.0,0.0,0.0,-1.0
62842484,62842238,0.0025821796,-0.025286173,-0.020571448,0.5165973,0.0,0.0,0.0,-1.0
62944265,62944019,-0.03946531,-0.013450923,-0.029436922,0.5165973,0.0,0.0,0.0,-1.0
63042377,63042131,-0.019836834,-0.10659211,-0.0150671,0.5165973,0.0,0.0,0.0,-1.0
63144111,63143863,0.021334404,-0.053936325,-0.04580439,0.5165973,0.0,0.0,0.0,-1.0
63245891,63245643,-0.016953178,-0.016689634,-0.04218339,0.5165973,0.0,0.0,0.0,-1.0
63344018,63343762,-0.01819489,-0.10323663,-0.03815468,0.5165973,0.0,0.0,0.0,-1.0
63444493,63444243,-0.00240477,-0.027724624,-0.029759293,0.51779675,0.0,0.0,0.0,-1.0
63542546,63542298,-0.08452712,-0.025476959,-0.036411896,0.51779675,0.0,0.0,0.0,-1.0
63644330,63644081,-0.04618578,-0.0034730479,-0.034995683,0.51779675,0.0,0.0,0.0,-1.0
63742387,63742138,-0.034895808,-0.032016054,-0.03819271,0.52379435,0.0,0.0,0.0,-1.0
63844176,63843921,-0.06416094,0.0068346616,-0.034562707,0.52499384,0.0,0.0,0.0,-1.0
63942228,63941979,-0.027229898,-0.0369319,-0.030883811,0.52499384,0.0,0.0,0.0,-1.0
64044019,64043761,-0.060964186,-0.03335794,-0.029407863,0.52499384,0.0,0.0,0.0,-1.0
64144589,64144339,-0.053710777,-0.046192296,-0.024845403,0.52499384,0.0,0.0,0.0,-1.0
64242606,64242359,-0.022604441,-0.010975165,-0.023812717,0.52499384,0.0,0.0,0.0,-1.0
64344386,64344141,0.0022239645,-0.059085615,-0.009779288,0.52499384,0.0,0.0,0.0,-1.0
64442644,64442389,-0.01928489,-0.022698143,-0.014253028,0.52499384,0.0,0.0,0.0,-1.0
64544230,64543981,-0.05217219,-0.026508946,-0.025292959,0.50631577,0.0,0.0,0.0,-1.0
64642288,64642039,-0.069105655,-0.05423819,-0.035707127,0.50631577,0.0,0.0,0.0,-1.0
64742861,64742618,-0.0042538783,-0.043849435,-0.018618695,0.50631577,0.0,0.0,0.0,-1.0
64844614,64844362,0.03193096,-0.021059126,-0.016076416,0.50631577,0.0,0.0,0.0,-1.0
64942716,64942469,0.006350769,-0.042515922,-0.018930208,0.50631577,0.0,0.0,0.0,-1.0
65044445,65044202,-0.040431634,-0.014283222,-0.020412218,0.50631577,0.0,0.0,0.0,-1.0
65142507,65142260,-0.049156,-0.028747194,-0.024332758,0.50631577,0.0,0.0,0.0,-1.0
65244429,65244183,-0.0028418328,-0.052236874,-0.022496548,0.50842106,0.0,0.0,0.0,-1.0
65344851,65344605,-0.069055155,-0.020337688,-0.024549298,0.5465851,0.0,0.0,0.0,-1.0
65442895,65442641,-0.0118231205,-0.013772844,-0.025307147,0.55858016,0.0,0.0,0.0,-1.0
65544670,65544422,-0.011616135,-0.06797793,-0.03331305,0.5717748,0.0,0.0,0.0,-1.0
65642738,65642493,-0.00078844785,-0.03145307,-0.02958828,0.57537335,0.0,0.0,0.0,-1.0
65744540,65744292,0.00016918295,-0.05503552,-0.029379874,0.5705753,0.0,0.0,0.0,-1.0
65842568,65842320,-0.034119688,-0.029704075,-0.033041928,0.5705753,0.0,0.0,0.0,-1.0
65944358,65944102,0.0047341315,-0.01475561,-0.03039812,0.56817627,0.0,0.0,0.0,-1.0
66042519,66042266,-0.007829557,-0.047530517,-0.030940972,0.5645777,0.0,0.0,0.0,-1.0
66143000,66142746,0.031034263,-0.060769953,-0.029410722,0.51899636,0.0,0.0,0.0,-1.0
66244730,66244478,-0.047177255,-0.037639517,-0.02807561,0.5141983,0.0,0.0,0.0,-1.0
66342790,66342541,0.0037045667,-0.031706348,-0.048622046,0.5141983,0.0,0.0,0.0,-1.0
66444568,66444323,-0.053965192,0.006626511,-0.021400511,0.5153978,0.0,0.0,0.0,-1.0
66542650,66542403,-0.012396658,-0.032579787,-0.025600515,0.5153978,0.0,0.0,0.0,-1.0
66644406,66644163,-0.018347947,0.021191824,-0.01534235,0.5165973,0.0,0.0,0.0,-1.0
66742474,66742221,-0.053822782,0.044304818,-0.010447032,0.51779675,0.0,0.0,0.0,-1.0
66843073,66842831,0.018135706,-0.06148246,-0.013798433,0.52019584,0.0,0.0,0.0,-1.0
66944799,66944544,-0.03311879,-0.0433258,-0.021655979,0.5213953,0.0,0.0,0.0,-1.0
67042864,67042602,-0.018339094,-0.053875104,-0.025281977,0.5165973,0.0,0.0,0.0,-1.0
67144629,67144383,-0.02680267,0.024493149,-0.037720066,0.5153978,0.0,0.0,0.0,-1.0
67242686,67242442,-0.018872898,-0.023078019,-0.046538994,0.51779675,0.0,0.0,0.0,-1.0
67344477,67344223,0.00070521666,-0.022043051,-0.05842864,0.5165973,0.0,0.0,0.0,-1.0
67442531,67442282,-0.032296244,-0.024771702,-0.0569197,0.52019584,0.0,0.0,0.0,-1.0
67543074,67542824,-0.029977955,-0.07444268,-0.050465778,0.51779675,0.0,0.0,0.0,-1.0
67644909,67644659,0.007441793,-0.03182271,-0.09672872,0.5321909,0.0,0.0,0.0,-1.0
67742911,67742662,0.028985837,-0.00017872307,-0.031047693,0.5297919,0.0,0.0,0.0,-1.0
67844690,67844444,0.014139082,-0.040216766,-0.00977527,0.53099144,0.0,0.0,0.0,-1.0
67942939,67942688,0.021420047,-0.110130504,-0.01827955,0.51899636,0.0,0.0,0.0,-1.0
68044545,68044289,0.0042304485,-0.04005537,-0.020514682,0.51899636,0.0,0.0,0.0,-1.0
68146313,68146066,-0.0536288,-0.015634755,-0.022454033,0.51899636,0.0,0.0,0.0,-1.0
68243125,68242883,-0.04969228,-0.02673011,-0.021811329,0.52019584,0.0,0.0,0.0,-1.0
68344912,68344665,-0.003548997,-0.03942636,-0.02268027,0.52019584,0.0,0.0,0.0,-1.0
68442981,68442732,-0.0010265361,-0.009061274,-0.022856172,0.52259487,0.0,0.0,0.0,-1.0
68544747,68544505,-0.029353078,-0.06521974,-0.019336877,0.5213953,0.0,0.0,0.0,-1.0
68642810,68642563,0.01136343,0.033260215,-0.020203691,0.51899636,0.0,0.0,0.0,-1.0
68743500,68743257,-0.02404531,-0.02712528,-0.017580751,0.5213953,0.0,0.0,0.0,-1.0
68845138,68844885,0.0068417513,-0.086539,-0.032218035,0.5213953,0.0,0.0,0.0,-1.0
68943196,68942943,-0.043174975,-0.06918813,-0.02651017,0.5213953,0.0,0.0,0.0,-1.0
69044977,69044727,-0.008182328,-0.03340247,-0.022404546,0.52019584,0.0,0.0,0.0,-1.0
69143029,69142783,0.006206673,-0.014308604,-0.029731141,0.5213953,0.0,0.0,0.0,-1.0
69244852,69244603,-0.028891468,-0.07316644,-0.024973862,0.52379435,0.0,0.0,0.0,-1.0
69342875,69342624,-0.020594642,-0.06147672,-0.026057024,0.52019584,0.0,0.0,0.0,-1.0
69442178,69441925,0.04436632,-0.03534327,-0.02800387,0.5213953,0.0,0.0,0.0,-1.0
69545326,69545075,-0.03532309,-0.03948637,-0.018014763,0.5213953,0.0,0.0,0.0,-1.0
69643309,69643061,-0.017121542,-0.050159317,-0.024167428,0.52379435,0.0,0.0,0.0,-1.0
69745031,69744784,-0.09622184,0.051688146,-0.021330921,0.5213953,0.0,0.0,0.0,-1.0
69844347,69844094,-0.037322134,-0.05857478,-0.021117868,0.5213953,0.0,0.0,0.0,-1.0
69944882,69944635,0.033250876,-0.026000587,-0.022792313,0.5213953,0.0,0.0,0.0,-1.0
70042940,70042684,-0.029596819,-0.014311773,-0.024745356,0.51779675,0.0,0.0,0.0,-1.0
70143487,70143240,-0.042501427,0.04183385,-0.018921588,0.5213953,0.0,0.0,0.0,-1.0
70245255,70245006,0.05343964,-0.09108988,-0.016803266,0.52379435,0.0,0.0,0.0,-1.0
70343390,70343148,-0.005123628,0.00048097552,-0.02269254,0.52259487,0.0,0.0,0.0,-1.0
70445100,70444847,0.0021931436,-0.07179658,-0.015600051,0.52259487,0.0,0.0,0.0,-1.0
70543163,70542906,0.044072047,-0.03519056,-0.013186147,0.5213953,0.0,0.0,0.0,-1.0
70644930,70644686,-0.00924765,-0.095445216,-0.022399426,0.52379435,0.0,0.0,0.0,-1.0
70742996,70742744,-0.04104269,-0.048512507,-0.021884892,0.52379435,0.0,0.0,0.0,-1.0
70843529,70843285,-0.029806143,-0.062545754,-0.027967518,0.52379435,0.0,0.0,0.0,-1.0
70945313,70945067,-0.044568494,0.015952392,-0.015095454,0.52259487,0.0,0.0,0.0,-1.0
71043372,71043125,-0.035583224,0.031384997,-0.017522767,0.52259487,0.0,0.0,0.0,-1.0
71145222,71144968,-0.016097696,-0.070420474,-0.024367983,0.51779675,0.0,0.0,0.0,-1.0
71243217,71242965,-0.019080644,-0.012002934,-0.011078563,0.52499384,0.0,0.0,0.0,-1.0
71345005,71344750,-0.008281604,-0.021661345,-0.019008474,0.5213953,0.0,0.0,0.0,-1.0
71441997,71441750,-0.059521202,-0.06378025,-0.039931018,0.52379435,0.0,0.0,0.0,-1.0
71543596,71543346,-0.012530647,-0.048514027,-0.03259987,0.52379435,0.0,0.0,0.0,-1.0
71645379,71645129,0.026036058,-0.057240084,-0.024374086,0.52499384,0.0,0.0,0.0,-1.0
71743443,71743189,-0.08436111,-0.0036464536,-0.046386376,0.5273929,0.0,0.0,0.0,-1.0
71845227,71844971,0.014817022,-0.06525903,-0.0848217,0.52499384,0.0,0.0,0.0,-1.0
71943298,71943049,-0.010209758,-0.060495213,-0.07576682,0.5213953,0.0,0.0,0.0,-1.0
72045052,72044808,-0.045770105,-0.091919474,-0.05348584,0.5261934,0.0,0.0,0.0,-1.0
72143116,72142867,-0.01539573,-0.04348371,-0.04967568,0.52499384,0.0,0.0,0.0,-1.0
72243809,72243568,0.012613521,-0.013647262,0.04128711,0.5273929,0.0,0.0,0.0,-1.0
72341713,72341465,0.047707655,-0.072331585,0.023680227,0.5261934,0.0,0.0,0.0,-1.0
72443491,72443246,-0.016876398,-0.040314108,0.011419805,0.5213953,0.0,0.0,0.0,-1.0
72545281,72545030,-0.035788413,-0.078784525,0.021828886,0.52019584,0.0,0.0,0.0,-1.0
72644575,72644328,0.011780101,-0.024088558,0.042788286,0.52019584,0.0,0.0,0.0,-1.0
72743877,72743630,0.00882363,-0.06834564,0.059201177,0.5213953,0.0,0.0,0.0,-1.0
72843179,72842929,-0.07055282,0.010611179,0.020162452,0.51899636,0.0,0.0,0.0,-1.0
72943709,72943467,-0.02615514,-0.026912421,0.002999623,0.52019584,0.0,0.0,0.0,-1.0
73041898,73041647,0.042849604,-0.056713946,-0.005497104,0.51899636,0.0,0.0,0.0,-1.0
73143549,73143307,-0.00352288,-0.03710322,-0.00034783556,0.51899636,0.0,0.0,0.0,-1.0
73245340,73245089,-0.012916988,-0.048527434,-0.01668983,0.51899636,0.0,0.0,0.0,-1.0
73343394,73343147,0.036549825,-0.08349553,-0.03481959,0.51899636,0.0,0.0,0.0,-1.0
73443937,73443688,-0.020758664,-0.026021937,-0.040598493,0.52019584,0.0,0.0,0.0,-1.0
73541992,73541747,-0.035217334,-0.0042720954,-0.03743277,0.52019584,0.0,0.0,0.0,-1.0
73643774,73643530,0.00093746174,-0.0074714185,-0.030496625,0.52019584,0.0,0.0,0.0,-1.0
73741832,73741585,-0.03544844,-0.0049721906,-0.030330675,0.51899636,0.0,0.0,0.0,-1.0
73843701,73843458,-0.011460562,-0.015156382,-0.025159853,0.51899636,0.0,0.0,0.0,-1.0
73945403,73945150,-0.027672073,-0.046309844,-0.016839437,0.51899636,0.0,0.0,0.0,-1.0
74043458,74043207,-0.02505623,-0.053479373,-0.024416916,0.51899636,0.0,0.0,0.0,-1.0
74143996,74143748,-0.022729233,-0.021738628,-0.020665912,0.51899636,0.0,0.0,0.0,-1.0
74242053,74241807,0.021105144,-0.0763993,-0.026741376,0.51899636,0.0,0.0,0.0,-1.0
74343832,74343588,-0.013666166,-0.06347221,-0.020676786,0.51779675,0.0,0.0,0.0,-1.0
74441891,74441646,-0.009097804,-0.034692153,-0.023495164,0.51779675,0.0,0.0,0.0,-1.0
74543670,74543428,-0.020631617,-0.055499267,-0.0220241,0.51779675,0.0,0.0,0.0,-1.0
74645536,74645280,-0.07957147,-0.003689389,-0.018653866,0.51899636,0.0,0.0,0.0,-1.0
74744758,74744510,-0.01920653,-0.036159113,-0.019177876,0.51899636,0.0,0.0,0.0,-1.0
74844064,74843808,-0.04800101,-0.064961314,-0.02733811,0.52019584,0.0,0.0,0.0,-1.0
74943365,74943109,-0.009585959,-0.11777497,-0.02642123,0.51899636,0.0,0.0,0.0,-1.0
75043899,75043648,-0.029189015,-0.014043245,-0.025255742,0.51899636,0.0,0.0,0.0,-1.0
75141969,75141721,-0.00033843925,-0.057070583,-0.024834009,0.51899636,0.0,0.0,0.0,-1.0
75243730,75243488,-0.017886898,-0.04335714,-0.02902157,0.51899636,0.0,0.0,0.0,-1.0
75345529,75345272,-0.045067985,-0.009943484,-0.022730045,0.51899636,0.0,0.0,0.0,-1.0
75442396,75442154,0.013397719,-0.015586266,-0.02649743,0.51899636,0.0,0.0,0.0,-1.0
75544118,75543869,-0.030783605,-0.019162947,-0.025282657,0.51899636,0.0,0.0,0.0,-1.0
75642174,75641928,0.04676341,-0.042946097,-0.026890196,0.51899636,0.0,0.0,0.0,-1.0
75744131,75743883,-7.977813e-05,-0.04305798,-0.02396514,0.51899636,0.0,0.0,0.0,-1.0
75845737,75845490,-0.047927614,0.02382722,-0.023825176,0.51899636,0.0,0.0,0.0,-1.0
75943817,75943572,-0.0041781575,-0.07705734,-0.020763699,0.52019584,0.0,0.0,0.0,-1.0
76044345,76044092,-0.0593429,-0.006659408,-0.02423648,0.52019584,0.0,0.0,0.0,-1.0
76142394,76142148,-0.03953647,0.015124616,-0.026740434,0.51899636,0.0,0.0,0.0,-1.0
76244185,76243937,-0.006750985,-0.06939283,-0.020757552,0.52019584,0.0,0.0,0.0,-1.0
76342286,76342036,-0.0025389076,-0.028928092,-0.016668659,0.5621787,0.0,0.0,0.0,-1.0
76444012,76443769,-0.027742991,-0.055338338,-0.018503403,0.5621787,0.0,0.0,0.0,-1.0
76542204,76541955,0.005959572,-0.00039349365,-0.013399482,0.5645777,0.0,0.0,0.0,-1.0
76643853,76643609,-0.020340981,-0.008977325,-0.018245805,0.5777723,0.0,0.0,0.0,-1.0
76744401,76744152,-0.023555271,0.018443752,-0.019572878,0.5777723,0.0,0.0,0.0,-1.0
76842451,76842208,-0.0145228775,-0.07044999,-0.015227485,0.57657284,0.0,0.0,0.0,-1.0
76944243,76943990,-0.0030398325,-0.06895234,-0.010155516,0.56817627,0.0,0.0,0.0,-1.0
77042321,77042068,-0.07725795,0.0027049286,-0.020477362,0.5357895,0.0,0.0,0.0,-1.0
77144082,77143830,0.027534598,-0.07487635,-0.02252526,0.5141983,0.0,0.0,0.0,-1.0
77247110,77246855,-0.013533717,-0.017052058,-0.008325876,0.5141983,0.0,0.0,0.0,-1.0
77342824,77342583,-0.043511324,-0.017034559,-0.010763312,0.5141983,0.0,0.0,0.0,-1.0
77444461,77444212,-0.011218988,-0.016553998,-0.013892817,0.5141983,0.0,0.0,0.0,-1.0
77542512,77542271,0.005702122,-0.053309634,-0.01597919,0.5117993,0.0,0.0,0.0,-1.0
77644305,77644054,-0.028335497,-0.0007766971,-0.020538906,0.51299876,0.0,0.0,0.0,-1.0
77742357,77742109,-0.013773267,-0.009541548,-0.018831896,0.5117993,0.0,0.0,0.0,-1.0
77844137,77843890,0.0016046196,-0.006951459,-0.016833322,0.5117993,0.0,0.0,0.0,-1.0
77942212,77941950,0.018292595,-0.006143821,-0.018171137,0.5117993,0.0,0.0,0.0,-1.0
78043993,78043730,-0.083917715,-0.010664561,-0.021745415,0.51299876,0.0,0.0,0.0,-1.0
78144593,78144346,-0.003525433,-0.064486824,-0.013666153,0.5141983,0.0,0.0,0.0,-1.0
78242577,78242329,-0.010097149,-0.017538462,-0.014789532,0.5141983,0.0,0.0,0.0,-1.0
78344366,78344115,-0.0045620883,-0.013842412,-0.013978336,0.5141983,0.0,0.0,0.0,-1.0
78442421,78442168,0.02205642,-0.05406189,-0.013982109,0.5141983,0.0,0.0,0.0,-1.0
78544201,78543950,-0.06713638,0.020505326,-0.018672021,0.5141983,0.0,0.0,0.0,-1.0
78645996,78645740,-0.036712542,-0.037343957,-0.00735997,0.5153978,0.0,0.0,0.0,-1.0
78744052,78743792,-0.025927002,-0.053468343,-0.008366575,0.51779675,0.0,0.0,0.0,-1.0
78844579,78844331,-0.010552537,-0.025200335,-0.009800889,0.51899636,0.0,0.0,0.0,-1.0
78942680,78942438,0.0033797657,-0.039083134,-0.0062252744,0.536989,0.0,0.0,0.0,-1.0
79044423,79044171,-0.08646847,-0.044338975,-0.010957049,0.53818846,0.0,0.0,0.0,-1.0
79142478,79142229,-0.05621189,0.030831825,-0.0053256284,0.5669768,0.0,0.0,0.0,-1.0
79244456,79244209,-0.04161833,-0.031650763,-0.014508417,0.56817627,0.0,0.0,0.0,-1.0
79342317,79342069,-0.019173242,-0.094174065,-0.008135964,0.56817627,0.0,0.0,0.0,-1.0
79442851,79442609,0.03377945,-0.070425816,-0.0063752136,0.56817627,0.0,0.0,0.0,-1.0
79544642,79544391,-0.015015516,0.011292243,-0.0065309494,0.56817627,0.0,0.0,0.0,-1.0
79642711,79642468,-0.03840962,0.0002503056,-0.01330934,0.5669768,0.0,0.0,0.0,-1.0
79744551,79744305,-0.03806397,-0.0264621,-0.011165003,0.5669768,0.0,0.0,0.0,-1.0
79842535,79842289,0.011897171,-0.05824587,-0.003101533,0.5645777,0.0,0.0,0.0,-1.0
79944317,79944071,-0.014903007,-0.054350697,-0.0056210863,0.5645777,0.0,0.0,0.0,-1.0
80045010,80044764,-0.0460903,-0.018267209,-0.014214504,0.54178697,0.0,0.0,0.0,-1.0
80142921,80142670,-0.014052156,-0.0503249,-0.007410001,0.5321909,0.0,0.0,0.0,-1.0
80244702,80244453,-0.034388963,-0.020985434,-0.015309845,0.5297919,0.0,0.0,0.0,-1.0
80342772,80342526,0.016811885,-0.040705252,-0.014014835,0.5261934,0.0,0.0,0.0,-1.0
80444567,80444323,-0.015671857,-0.012016385,-0.011758278,0.5213953,0.0,0.0,0.0,-1.0
80542597,80542350,0.0012762094,-0.045709074,-0.017623866,0.5165973,0.0,0.0,0.0,-1.0
80644378,80644132,-0.053135175,0.04077838,-0.004601324,0.5213953,0.0,0.0,0.0,-1.0
80742445,80742194,0.014269302,-0.014639558,-0.00063212926,0.52019584,0.0,0.0,0.0,-1.0
80843083,80842840,-0.047629952,-0.07238885,-0.009426674,0.51779675,0.0,0.0,0.0,-1.0
80944766,80944517,0.013360295,-0.014096533,-0.012984978,0.51779675,0.0,0.0,0.0,-1.0
81042818,81042570,-0.08316747,-0.012631501,-0.01009258,0.51779675,0.0,0.0,0.0,-1.0
81144608,81144354,0.036473304,-0.053389814,-0.009858882,0.51779675,0.0,0.0,0.0,-1.0
81242656,81242410,-0.0022994487,-0.11769536,-0.008998965,0.51779675,0.0,0.0,0.0,-1.0
81344445,81344197,0.01981253,-0.050916396,-0.02108414,0.51779675,0.0,0.0,0.0,-1.0
81442505,81442250,-0.022101382,-0.03552078,-0.019477742,0.51779675,0.0,0.0,0.0,-1.0
81543033,81542790,-0.021895008,-0.0027852564,-0.01284508,0.51779675,0.0,0.0,0.0,-1.0
81644898,81644654,0.047712933,-0.04818355,-0.013783479,0.51779675,0.0,0.0,0.0,-1.0
81742883,81742631,-0.0024051114,-0.020486087,-0.014720605,0.51779675,0.0,0.0,0.0,-1.0
81844663,81844412,-0.060746364,0.01173381,-0.01589153,0.51779675,0.0,0.0,0.0,-1.0
81942717,81942470,-0.018223146,-0.04136363,-0.010800826,0.51779675,0.0,0.0,0.0,-1.0
82044508,82044256,0.009744239,-0.05257966,-0.015866108,0.51779675,0.0,0.0,0.0,-1.0
82145038,82144794,-0.0032135202,-0.038817827,-0.012832572,0.51779675,0.0,0.0,0.0,-1.0
82243092,82242850,-0.019701933,-0.012251975,-0.014572045,0.51779675,0.0,0.0,0.0,-1.0
82344882,82344632,-0.0139539,-0.016564386,-0.015970197,0.51779675,0.0,0.0,0.0,-1.0
82443008,82442758,-0.06933153,-0.034396805,-0.016966216,0.51779675,0.0,0.0,0.0,-1.0
82544723,82544473,0.009358091,-0.09259232,-0.0074981996,0.51779675,0.0,0.0,0.0,-1.0
82642816,82642570,-0.0021815004,-0.031903543,-0.0055583,0.51779675,0.0,0.0,0.0,-1.0
82743517,82743270,0.037322488,-0.05748242,-0.017129337,0.51779675,0.0,0.0,0.0,-1.0
82845103,82844853,-0.07944328,-0.013015284,-0.018102836,0.51779675,0.0,0.0,0.0,-1.0
82943157,82942913,-0.04570434,-0.027922487,-0.020334205,0.51779675,0.0,0.0,0.0,-1.0
83044938,83044692,0.008692084,-0.09019187,-0.019657308,0.51779675,0.0,0.0,0.0,-1.0
83142996,83142751,-0.040381305,-0.08120918,-0.023222463,0.51899636,0.0,0.0,0.0,-1.0
83244841,83244593,0.032676365,-0.04371062,-0.025323141,0.51779675,0.0,0.0,0.0,-1.0
83342838,83342590,0.010387403,-0.037128665,-0.026272735,0.51779675,0.0,0.0,0.0,-1.0
83443384,83443132,0.009267663,-0.040957596,-0.025981586,0.51899636,0.0,0.0,0.0,-1.0
83541646,83541398,0.022010757,-0.053909097,-0.021649173,0.51779675,0.0,0.0,0.0,-1.0
83643218,83642971,-0.025232214,-0.07932902,-0.0202182,0.51779675,0.0,0.0,0.0,-1.0
83745032,83744783,-0.001642093,-0.0048732767,-0.016049942,0.51899636,0.0,0.0,0.0,-1.0
83843057,83842811,-0.041236166,-0.029594067,-0.012687439,0.51899636,0.0,0.0,0.0,-1.0
83944844,83944593,0.07305183,-0.06782762,-0.021679802,0.51899636,0.0,0.0,0.0,-1.0
84044146,84043888,-0.017059656,-0.031146418,-0.020645028,0.51899636,0.0,0.0,0.0,-1.0
84143457,84143206,-0.030327631,-0.018056566,-0.023343101,0.51899636,0.0,0.0,0.0,-1.0
84241492,84241246,-0.067952804,-0.0673367,-0.021929976,0.52019584,0.0,0.0,0.0,-1.0
84343405,84343152,0.0082871355,0.0017570232,-0.023601193,0.52379435,0.0,0.0,0.0,-1.0
84445063,84444813,-0.0051241457,-0.048618484,-0.023567462,0.5,0.0,0.0,0.0,-1.0
84543114,84542871,-0.0017810918,-0.053933933,-0.02160515,0.5117993,0.0,0.0,0.0,-1.0
84644910,84644656,0.0036572146,-0.02210849,-0.027557883,0.5117993,0.0,0.0,0.0,-1.0
84742973,84742711,0.0015747155,-0.014791713,-0.025822755,0.5094737,0.0,0.0,0.0,-1.0
84843509,84843254,-0.048174117,-0.03520139,-0.02353862,0.5094737,0.0,0.0,0.0,-1.0
84945294,84945050,-0.056959443,-0.005209716,-0.01918929,0.50842106,0.0,0.0,0.0,-1.0
85043334,85043091,-0.026677174,-0.08365686,-0.031300373,0.50842106,0.0,0.0,0.0,-1.0
85145223,85144970,-0.05810681,0.007964556,-0.02919857,0.50842106,0.0,0.0,0.0,-1.0
85243177,85242931,-0.04953956,-0.026750475,-0.030697329,0.55138314,0.0,0.0,0.0,-1.0
85344982,85344713,-0.03857944,-0.032387234,-0.02234426,0.55138314,0.0,0.0,0.0,-1.0
85443029,85442771,0.024498543,-0.05817324,-0.02331597,0.55138314,0.0,0.0,0.0,-1.0
85543567,85543313,0.010924949,-0.07848128,-0.026148701,0.5621787,0.0,0.0,0.0,-1.0
85645344,85645095,-0.029123165,-0.018988645,-0.017655272,0.5645777,0.0,0.0,0.0,-1.0
85743400,85743155,-0.014236233,-0.05204694,-0.024834592,0.5645777,0.0,0.0,0.0,-1.0
85845186,85844934,-0.023425207,-0.096956626,-0.01831584,0.5657772,0.0,0.0,0.0,-1.0
85943335,85943091,-0.052596975,-0.03451225,-0.019122323,0.5633782,0.0,0.0,0.0,-1.0
86045034,86044774,-0.02398152,-0.011050426,-0.015224042,0.50842106,0.0,0.0,0.0,-1.0
86141874,86141630,-0.025446309,-0.037399344,-0.029688058,0.5010526,0.0,0.0,0.0,-1.0
86243628,86243376,-0.017372862,-0.02580815,-0.02913312,0.50421053,0.0,0.0,0.0,-1.0
86341675,86341429,-0.014866718,-0.026886066,-0.027030692,0.50421053,0.0,0.0,0.0,-1.0
86443455,86443212,-0.03982385,-0.00081007,-0.027411439,0.50421053,0.0,0.0,0.0,-1.0
86545246,86544993,-0.011676536,-0.01952824,-0.0486426,0.5273929,0.0,0.0,0.0,-1.0
86643295,86643051,-0.07674299,-0.04762984,-0.026572546,0.5010526,0.0,0.0,0.0,-1.0
86743869,86743622,-0.046407826,-0.07487378,-0.0017473355,0.5010526,0.0,0.0,0.0,-1.0
86841901,86841650,-0.0072680884,-0.04905081,-0.03449857,0.5273929,0.0,0.0,0.0,-1.0
86943679,86943434,-0.042687576,-0.044673648,-0.04939109,0.50631577,0.0,0.0,0.0,-1.0
87043155,87042901,-0.06472713,0.03135797,-0.04971057,0.54538554,0.0,0.0,0.0,-1.0
87143564,87143321,-0.036308993,-0.0021354938,-0.025200589,0.5717748,0.0,0.0,0.0,-1.0
87241582,87241330,-0.041177947,-0.032745466,-0.020852903,0.57297426,0.0,0.0,0.0,-1.0
87343355,87343111,0.0014141643,-0.03804069,-0.017338185,0.61135864,0.0,0.0,0.0,-1.0
87445149,87444896,-0.021744097,-0.037509505,-0.008053422,0.60176253,0.0,0.0,0.0,-1.0
87542011,87541757,-0.017000787,-0.07487515,-0.003420115,0.56817627,0.0,0.0,0.0,-1.0
87643751,87643494,-0.0007903978,-0.060329713,-0.023014726,0.54178697,0.0,0.0,0.0,-1.0
87741798,87741550,-0.016751654,-0.0017810939,0.0069125467,0.5165973,0.0,0.0,0.0,-1.0
87843773,87843520,-0.022424737,-0.019928522,-0.035604723,0.50631577,0.0,0.0,0.0,-1.0
87945360,87945113,0.0062219608,-0.039998606,-0.075151674,0.5,0.0,0.0,0.0,-1.0
88043424,88043174,-0.02401282,0.0235477,-0.074604854,0.5010526,0.0,0.0,0.0,-1.0
88143958,88143711,-0.025485653,-0.026514601,-0.07647957,0.5,0.0,0.0,0.0,-1.0
88242011,88241770,-0.003448734,-0.0021831468,-0.08454185,0.49894738,0.0,0.0,0.0,-1.0
88343801,88343552,0.0058010085,-0.042763412,-0.066837996,0.47789475,0.0,0.0,0.0,-1.0
88441860,88441610,-0.012974219,-0.02868512,-0.04553475,0.48000002,0.0,0.0,0.0,-1.0
88543636,88543391,0.024008978,-0.008689491,-0.061768442,0.48000002,0.0,0.0,0.0,-1.0
88646837,88646588,-0.0031539672,-0.026247557,-0.029252063,0.47789475,0.0,0.0,0.0,-1.0
88743492,88743231,-0.010319538,-0.027512414,-0.011644203,0.47789475,0.0,0.0,0.0,-1.0
88844028,88843776,-0.017124783,-0.03432578,0.06177387,0.48210526,0.0,0.0,0.0,-1.0
88942072,88941830,-0.033590883,-0.03182377,0.06684665,0.54538554,0.0,0.0,0.0,-1.0
89043867,89043612,-0.0017410896,-0.01940257,0.049970336,0.57657284,0.0,0.0,0.0,-1.0
89143166,89142913,-0.009574913,-0.026015995,0.04696016,0.57297426,0.0,0.0,0.0,-1.0
89243694,89243451,0.015756778,-0.0350224,0.023963213,0.57297426,0.0,0.0,0.0,-1.0
89346725,89346476,-0.04935017,0.00030143582,0.021453844,0.5717748,0.0,0.0,0.0,-1.0
89442360,89442114,0.008828476,-0.058669273,0.003059513,0.5705753,0.0,0.0,0.0,-1.0
89545325,89545075,-0.017281786,0.005317264,0.0014590573,0.56817627,0.0,0.0,0.0,-1.0
89642152,89641910,-0.0005669238,-0.046474073,-0.0060413037,0.52019584,0.0,0.0,0.0,-1.0
89743924,89743672,-0.029194895,0.04401761,-0.0052683824,0.5213953,0.0,0.0,0.0,-1.0
89841980,89841729,-0.01911717,-0.00068207487,-0.008779346,0.5213953,0.0,0.0,0.0,-1.0
89943762,89943513,-0.02211581,-0.039163884,-0.025292423,0.5213953,0.0,0.0,0.0,-1.0
90045545,90045293,-0.029181525,-0.030025229,-0.023495788,0.51779675,0.0,0.0,0.0,-1.0
90142356,90142110,0.029692475,-0.029847758,-0.03665563,0.51779675,0.0,0.0,0.0,-1.0
90244180,90243925,-0.04556007,-0.016186133,-0.022465285,0.52019584,0.0,0.0,0.0,-1.0
90342204,90341954,-0.01141115,-0.020100448,-0.026262112,0.51899636,0.0,0.0,0.0,-1.0
90443982,90443733,-0.014550377,0.029954838,-0.022545623,0.52019584,0.0,0.0,0.0,-1.0
90542213,90541957,-0.08105057,0.0048431554,-0.024343366,0.52019584,0.0,0.0,0.0,-1.0
90643816,90643571,-0.0065234527,-0.016983103,-0.021369956,0.52499384,0.0,0.0,0.0,-1.0
90744363,90744114,-0.0026611364,-0.018446121,-0.019138636,0.5261934,0.0,0.0,0.0,-1.0
90842415,90842169,0.014585004,-0.040706843,-0.017810343,0.5153978,0.0,0.0,0.0,-1.0
90944203,90943951,-0.017235022,-0.053255893,-0.017682282,0.5153978,0.0,0.0,0.0,-1.0
91042313,91042064,-0.024373889,-0.016895398,-0.0141986115,0.5141983,0.0,0.0,0.0,-1.0
91144037,91143792,-0.06202727,-0.05348882,-0.024182536,0.5165973,0.0,0.0,0.0,-1.0
91242102,91241849,-0.031231359,-0.043742087,-0.024017038,0.5213953,0.0,0.0,0.0,-1.0
91344025,91343774,-0.024682796,-0.049666796,-0.028479986,0.55018353,0.0,0.0,0.0,-1.0
91444413,91444171,-0.053899504,0.035840113,-0.042001266,0.5633782,0.0,0.0,0.0,-1.0
91542478,91542230,0.0093580745,-0.026307954,-0.040050074,0.5621787,0.0,0.0,0.0,-1.0
91644296,91644051,-0.03868725,-0.04519271,-0.034639705,0.5621787,0.0,0.0,0.0,-1.0
91742324,91742069,-0.0010282703,-0.029362157,-0.05314395,0.5633782,0.0,0.0,0.0,-1.0
91844095,91843851,-0.021955961,-0.03937053,-0.07391393,0.5621787,0.0,0.0,0.0,-1.0
91942163,91941914,-0.005272869,-0.093305714,-0.058013335,0.5213953,0.0,0.0,0.0,-1.0
92043947,92043691,0.02263035,-0.066540666,-0.04678113,0.5141983,0.0,0.0,0.0,-1.0
92144597,92144351,-0.029198721,-0.057270706,-0.075496025,0.5105998,0.0,0.0,0.0,-1.0
92242534,92242290,0.015026705,-0.07367354,-0.017487882,0.5117993,0.0,0.0,0.0,-1.0
92344319,92344071,-0.03849124,-0.08036175,0.021521397,0.51779675,0.0,0.0,0.0,-1.0
