timestamp,time_utc_usec,lat,lon,alt,alt_ellipsoid,s_variance_m_s,c_variance_rad,eph,epv,hdop,vdop,noise_per_ms,jamming_indicator,vel_m_s,vel_n_m_s,vel_e_m_s,vel_d_m_s,cog_rad,timestamp_time_relative,heading,heading_offset,fix_type,vel_ned_valid,satellites_used
23216971,1611040746600363,340362739,1087608410,421787,393877,0.16900001,0.2494018,0.947,1.5100001,0.59,1.03,110,11,0.015000001,0.001,-0.015000001,0.012,3.328203,0,nan,0.0,3,1,19
23414937,1611040746800363,340362740,1087608410,421753,393843,0.18900001,0.24942273,0.94000006,1.498,0.59,1.03,110,11,0.037,0.037,-0.001,0.013,3.328203,0,nan,0.0,3,1,19
24213961,1611040747600362,340362744,1087608413,421623,393713,0.231,0.24951436,0.91400003,1.455,0.59,1.03,110,8,0.020000001,0.020000001,0.0050000004,0.024,3.328203,0,nan,0.0,3,1,19
25210984,1611040748600362,340362751,1087608417,421450,393541,0.193,0.24962413,0.88600004,1.4120001,0.59,1.03,110,5,0.004,-0.004,0.0,0.019000001,3.328203,0,nan,0.0,3,1,19
26212945,1611040749600361,340362759,1087608421,421233,393324,0.238,0.24974474,0.86200005,1.3740001,0.59,1.03,110,6,0.059000004,0.058000002,0.013,0.1,3.328203,0,nan,0.0,3,1,19
27213057,1611040750600360,340362766,1087608428,420979,393070,0.20700002,0.24985889,0.84000003,1.34,0.59,1.03,110,5,0.09900001,0.035,0.09200001,0.102000006,3.328203,0,nan,0.0,3,1,19
28213944,1611040751600360,340362768,1087608416,421000,393090,0.19100001,0.506734,0.827,1.32,0.59,1.03,110,5,0.35700002,0.002,-0.35700002,-0.367,3.6003952,0,nan,0.0,3,1,19
29215694,1611040752600359,340362761,1087608369,421410,393500,0.19500001,0.38959482,0.809,1.2830001,0.59,1.03,110,5,0.46,0.030000001,-0.45900002,-0.47900003,4.7304506,0,nan,0.0,3,1,19
30215982,1611040753600358,340362742,1087608294,422012,394103,0.215,0.20259172,0.79700005,1.264,0.59,1.03,110,6,0.81000006,-0.158,-0.794,-0.80600005,4.5717554,0,nan,0.0,3,1,19
31211257,1611040754600358,340362702,1087608162,422776,394866,0.142,0.1104741,0.77300006,1.2210001,0.59,1.03,110,6,1.343,-0.074,-1.3410001,-0.47200003,4.62942,0,nan,0.0,3,1,19
32212980,1611040755600357,340362668,1087608044,423439,395530,0.12900001,0.12052859,0.748,1.184,0.58,1.02,110,6,1.1320001,-0.156,-1.1220001,-0.307,4.626122,0,nan,0.0,3,1,20
33214977,1611040756600356,340362633,1087607929,423829,395919,0.133,0.11114414,0.72200006,1.1400001,0.58,1.02,110,5,1.222,-0.055000003,-1.2210001,0.26900002,4.6364803,0,nan,0.0,3,1,20
34215500,1611040757600356,340362608,1087607801,423685,395775,0.11800001,0.10212829,0.697,1.103,0.58,1.02,110,10,1.416,-0.231,-1.3970001,-0.089,4.6250143,0,nan,0.0,3,1,20
35208950,1611040758600355,340362581,1087607650,423904,395995,0.13100001,0.085310996,0.67800003,1.0780001,0.58,1.02,110,8,1.4920001,-0.192,-1.4790001,-0.21000001,4.6115575,0,nan,0.0,3,1,20
36217439,1611040759600354,340362555,1087607505,424162,396252,0.13900001,0.09179873,0.65800005,1.0500001,0.58,1.02,110,6,1.4120001,-0.098000005,-1.4080001,-0.15,4.6233454,0,nan,0.0,3,1,20
37216036,1611040760600354,340362540,1087607340,424445,396535,0.15,0.080463864,0.64500004,1.034,0.58,1.02,110,14,1.6750001,0.017,-1.6750001,-0.39400002,4.698905,0,nan,0.0,3,1,20
38216964,1611040761600353,340362529,1087607190,424735,396825,0.15,0.1312484,0.634,1.0200001,0.59999996,1.0799999,110,4,1.1190001,-0.082,-1.116,-0.17600001,4.6720657,0,nan,0.0,3,1,20
39215574,1611040762600352,340362517,1087607064,424926,397016,0.15400001,0.14057527,0.623,1.006,0.59999996,1.0799999,110,4,1.123,0.028,-1.123,-0.23200001,4.7155204,0,nan,0.0,3,1,20
40216186,1611040763600352,340362516,1087606932,424992,397083,0.148,0.11537673,0.61600006,0.9990001,0.59999996,1.0799999,110,5,1.2650001,0.063,-1.263,0.286,4.7703147,0,nan,0.0,3,1,20
41219966,1611040764600351,340362508,1087606782,424542,396632,0.15100001,0.094324395,0.60800004,0.99100006,0.59999996,1.0799999,118,7,1.4790001,-0.15100001,-1.4710001,0.59400004,4.6503053,0,nan,0.0,3,1,20
42216053,1611040765600350,340362506,1087606623,424290,396380,0.132,0.08538011,0.6,0.97900003,0.61,1.13,118,5,1.5640001,0.016,-1.5640001,-0.113000005,4.723907,0,nan,0.0,3,1,19
43217024,1611040766600350,340362509,1087606460,424459,396549,0.12900001,0.08091765,0.591,0.96800005,0.61,1.13,118,5,1.598,0.031000001,-1.5970001,0.004,4.7398744,0,nan,0.0,3,1,19
44214994,1611040767600349,340362512,1087606302,424402,396492,0.13100001,0.09480838,0.58400005,0.96000004,0.59999996,1.0799999,118,4,1.404,0.023000002,-1.404,0.178,4.7356176,0,nan,0.0,3,1,20
45212329,1611040768600348,340362512,1087606171,424773,396863,0.17,0.1342584,0.577,0.95400006,0.59999996,1.0799999,118,9,0.99600005,0.083000004,-0.99200004,-0.638,4.766737,0,nan,0.0,3,1,20
46221184,1611040769600348,340362513,1087606066,424935,397025,0.148,0.15651274,0.573,0.95400006,0.62,1.1,126,5,0.91200006,0.001,-0.91200006,0.102000006,4.7160616,0,nan,0.0,3,1,19
47215944,1611040770600347,340362520,1087605985,425277,397367,0.20700002,0.20747148,0.568,0.95400006,0.64,1.17,126,11,0.75000006,0.102000006,-0.744,-0.83400005,4.86085,0,nan,0.0,3,1,18
48208029,1611040771600346,340362515,1087605919,425610,397700,0.17300001,0.20348725,0.56600004,0.95600003,0.59999996,1.0799999,125,8,0.69000006,-0.187,-0.66400003,0.38900003,4.5110364,0,nan,0.0,4,1,20
49215943,1611040772600346,340362471,1087605848,425009,397099,0.21800001,0.20367327,0.563,0.95500004,0.63,1.15,117,8,0.596,-0.48600003,-0.34500003,0.89400005,3.9456887,0,nan,0.0,4,1,18
50219947,1611040773600345,340362411,1087605869,424187,396277,0.15100001,0.15791163,0.559,0.957,0.61,1.13,117,9,1.0580001,-0.859,0.61700004,0.513,2.5965211,0,nan,0.0,4,1,19
51219015,1611040774600344,340362305,1087605945,424157,396247,0.143,0.10753776,0.558,0.9620001,0.59999996,1.0799999,117,8,1.383,-1.34,0.34,-0.049000002,2.766085,0,nan,0.0,4,1,20
52221939,1611040775600344,340362187,1087605907,424488,396578,0.19500001,0.09860308,0.55700004,0.96500003,0.59999996,1.0799999,117,7,1.243,-0.89800006,-0.86,-0.46500003,3.725248,0,nan,0.0,4,1,20
53215978,1611040776600343,340362085,1087605800,424978,397068,0.186,0.0840116,0.554,0.96700007,0.59999996,1.0799999,117,5,1.452,-1.057,-0.99600005,-0.43100002,3.888601,0,nan,0.0,4,1,20
54216945,1611040777600342,340361990,1087605714,425596,397686,0.21300001,0.12027639,0.55300003,0.97200006,0.59999996,1.0799999,117,6,1.0170001,-0.726,-0.71300006,-0.60200006,3.8580809,0,nan,0.0,4,1,20
55219013,1611040778600342,340361906,1087605645,425958,398048,0.16900001,0.10506009,0.551,0.97300005,0.59999996,1.0799999,117,9,1.182,-0.91800004,-0.744,-0.123,3.8054926,0,nan,0.0,4,1,20
56216941,1611040779600341,340361783,1087605551,425892,397982,0.16800001,0.07961494,0.55,0.98100007,0.59999996,1.0799999,116,10,1.6710001,-1.353,-0.98,0.13100001,3.7365468,0,nan,0.0,4,1,20
57216108,1611040780600340,340361647,1087605453,425713,397803,0.17,0.076358676,0.55,0.99300003,0.59999996,1.0799999,116,10,1.6930001,-1.4480001,-0.87700003,-0.048,3.6963594,0,nan,0.0,4,1,20
58217972,1611040781600340,340361522,1087605378,425876,397966,0.18300001,0.088959605,0.55,1.0070001,0.59999996,1.0799999,116,8,1.493,-1.3520001,-0.63500005,-0.20600002,3.6005955,0,nan,0.0,4,1,20
59215941,1611040782600339,340361387,1087605300,426034,398124,0.17600001,0.07258528,0.55,1.0200001,0.61,1.13,116,6,1.83,-1.6430001,-0.80600005,-0.24300002,3.6127086,0,nan,0.0,4,1,19
60218967,1611040783600338,340361245,1087605215,426350,398440,0.177,0.08367998,0.551,1.029,0.61,1.13,116,11,1.651,-1.44,-0.80700004,-0.38900003,3.6467674,0,nan,0.0,4,1,19
61214941,1611040784600338,340361128,1087605162,426579,398669,0.18400002,0.13487642,0.558,1.0550001,0.62,1.1,82,7,1.264,-1.167,-0.485,-0.043,3.5243201,0,nan,0.0,4,1,19
62208133,1611040785600337,340361023,1087605124,426587,398676,0.16800001,0.18116273,0.56600004,1.085,0.62,1.1,82,7,1.013,-0.99300003,-0.202,0.15900001,3.4064806,0,nan,0.0,4,1,19
63215944,1611040786600336,340360920,1087605094,426662,398752,0.16600001,0.1414626,0.57100004,1.1040001,0.62,1.1,82,7,1.195,-1.148,-0.33100003,0.013,3.432402,0,nan,0.0,4,1,19
64213944,1611040787600336,340360799,1087605064,426694,398784,0.163,0.13284555,0.578,1.1270001,0.62,1.1,82,3,1.332,-1.314,-0.22100002,0.034,3.3397825,0,nan,0.0,4,1,19
65211292,1611040788600335,340360690,1087605037,426530,398620,0.16100001,0.1861549,0.58400005,1.143,0.62,1.1,83,3,1.0090001,-0.966,-0.29000002,0.202,3.3988156,0,nan,0.0,4,1,19
66209332,1611040789600334,340360614,1087604993,426194,398284,0.19500001,0.20480408,0.59400004,1.1680001,0.62,1.1,83,3,0.919,-0.72300005,-0.56700003,-0.16900001,3.7287374,0,nan,0.0,4,1,19
67212967,1611040790600333,340360530,1087604914,426364,398454,0.16600001,0.16025682,0.601,1.19,0.59999996,1.0799999,88,3,1.212,-0.93900007,-0.767,-0.009000001,3.8493521,0,nan,0.0,4,1,20
68210237,1611040791600333,340360447,1087604840,426504,398594,0.178,0.182526,0.609,1.2140001,0.61,1.13,88,3,0.9990001,-0.813,-0.57900006,-0.12900001,3.7450924,0,nan,0.0,4,1,19
69211087,1611040792600332,340360350,1087604788,426558,398648,0.171,0.13130146,0.615,1.2340001,0.61,1.0799999,88,3,1.376,-1.2820001,-0.49800003,-0.008,3.5208771,0,nan,0.0,4,1,20
70207947,1611040793600331,340360226,1087604740,426429,398519,0.15400001,0.12270903,0.623,1.253,0.62,1.06,94,3,1.514,-1.4530001,-0.42700002,0.13900001,3.427865,0,nan,0.0,4,1,20
71213939,1611040794600331,340360096,1087604700,426416,398506,0.16800001,0.117375486,0.629,1.2650001,0.62,1.06,94,3,1.4950001,-1.4440001,-0.38700002,0.13900001,3.3687968,0,nan,0.0,4,1,20
72210994,1611040795600330,340359974,1087604666,426259,398349,0.16600001,0.13620584,0.633,1.273,0.62,1.06,94,4,1.2590001,-1.2320001,-0.26200002,0.081,3.33875,0,nan,0.0,4,1,20
73212035,1611040796600329,340359878,1087604645,426188,398278,0.15300001,0.18748781,0.633,1.2650001,0.62,1.06,94,4,0.85700005,-0.84000003,-0.16600001,0.072000004,3.3013425,0,nan,0.0,4,1,20
74212945,1611040797600329,340359787,1087604629,426142,398232,0.17600001,0.14678672,0.63500005,1.261,0.62,1.06,94,3,1.1370001,-1.1370001,-0.013,-0.035,3.2105646,0,nan,0.0,4,1,20
75215939,1611040798600328,340359678,1087604628,426123,398213,0.172,0.14132524,0.63600004,1.261,0.62,1.06,94,5,1.144,-1.143,0.037,0.027,3.1381605,0,nan,0.0,4,1,20
76212056,1611040799600327,340359576,1087604633,426001,398091,0.155,0.15422568,0.638,1.258,0.62,1.06,94,3,1.0020001,-1.0020001,0.018000001,0.185,3.0868819,0,nan,0.0,4,1,20
77213041,1611040800600327,340359491,1087604634,426163,398253,0.24000001,0.20137504,0.63600004,1.248,0.62,1.06,94,4,0.818,-0.818,0.007,-0.60700005,3.1301935,0,nan,0.0,4,1,20
78212978,1611040801600326,340359389,1087604637,426582,398672,0.18,0.13801523,0.637,1.2420001,0.62,1.06,95,3,1.182,-1.182,0.033,-0.15,3.0856493,0,nan,0.0,4,1,20
79211942,1611040802600325,340359277,1087604635,426376,398466,0.17300001,0.14501417,0.634,1.2270001,0.62,1.06,95,4,1.0610001,-1.0610001,0.021000002,0.044000003,3.128086,0,nan,0.0,4,1,20
80210701,1611040803600325,340359184,1087604645,426792,398882,0.24800001,0.13201636,0.632,1.215,0.62,1.06,95,4,1.151,-1.148,0.08400001,-1.026,3.0636873,0,nan,0.0,4,1,20
81213737,1611040804600324,340359100,1087604638,427100,399190,0.23600002,0.17184441,0.63000005,1.2030001,0.62,1.06,95,4,0.91200006,-0.91200006,0.016,-0.48700002,3.1637387,0,nan,0.0,4,1,20
82214003,1611040805600323,340358993,1087604645,427455,399545,0.18400002,0.12841888,0.625,1.1910001,0.62,1.06,95,4,1.269,-1.2670001,0.072000004,-0.26500002,3.0957751,0,nan,0.0,4,1,20
83217318,1611040806600323,340358901,1087604655,427389,399479,0.162,0.16798793,0.61800003,1.172,0.62,1.06,95,5,0.901,-0.8880001,0.148,0.068,3.0267339,0,nan,0.0,4,1,20
84216024,1611040807600322,340358825,1087604663,426979,399069,0.16000001,0.16697182,0.61300004,1.159,0.62,1.06,95,3,0.896,-0.869,0.21800001,0.33400002,2.9983194,0,nan,0.0,4,1,20
85215566,1611040808600321,340358726,1087604672,426622,398712,0.157,0.16443689,0.609,1.1450001,0.57,1.0,95,3,0.86500007,-0.86300004,0.054,0.303,3.125627,0,nan,0.0,4,1,21
86218117,1611040809600321,340358649,1087604690,426575,398665,0.18900001,0.17313072,0.60400003,1.131,0.57,1.0,95,4,0.83300006,-0.808,0.202,-0.296,2.972863,0,nan,0.0,4,1,21
87222732,1611040810600320,340358585,1087604700,426324,398414,0.177,0.25481737,0.60300004,1.13,0.57,1.0,104,3,0.63500005,-0.634,0.031000001,0.18800001,3.055924,0,nan,0.0,4,1,21
88221962,1611040811600319,340358536,1087604721,426511,398601,0.252,0.26214844,0.605,1.1290001,0.57,1.0,104,4,0.577,-0.513,0.266,-0.36800003,2.6919262,0,nan,0.0,4,1,21
89219947,1611040812600319,340358513,1087604743,426348,398438,0.216,0.43629214,0.60200006,1.1170001,0.57,1.0,103,3,0.33400002,-0.23300001,0.23900001,0.43100002,2.3593097,0,nan,0.0,4,1,21
90222015,1611040813600318,340358504,1087604751,426127,398217,0.156,0.7695615,0.6,1.0960001,0.57,1.0,103,5,0.194,0.010000001,0.194,-0.120000005,2.1552558,0,nan,0.0,4,1,21
91228783,1611040814600317,340358504,1087604797,425935,398025,0.16600001,0.2258112,0.59800005,1.0830001,0.57,1.0,103,3,0.74100006,-0.038000003,0.74,0.25,1.593748,0,nan,0.0,4,1,21
92224969,1611040815600317,340358502,1087604903,425823,397913,0.15200001,0.15494718,0.596,1.074,0.57,1.0,103,5,1.102,0.063,1.1010001,-0.074,1.5442053,0,nan,0.0,4,1,21
93226069,1611040816600316,340358511,1087605038,425702,397792,0.16800001,0.1167058,0.597,1.069,0.57,1.0,103,4,1.4100001,0.19500001,1.396,0.26200002,1.4492854,0,nan,0.0,4,1,21
94221958,1611040817600315,340358538,1087605192,425439,397529,0.147,0.13371055,0.597,1.0660001,0.57,1.0,103,4,1.4720001,0.307,1.439,-0.15100001,1.3769552,0,nan,0.0,4,1,21
95216978,1611040818600315,340358575,1087605336,425585,397675,0.14600001,0.12125814,0.59800005,1.0600001,0.57,1.0,103,4,1.4200001,0.45900002,1.3440001,-0.194,1.2460375,0,nan,0.0,4,1,21
96220956,1611040819600314,340358587,1087605454,425672,397762,0.143,0.1532591,0.597,1.0580001,0.57,1.0,103,3,1.013,-0.208,0.99200004,-0.014,1.6415952,0,nan,0.0,4,1,21
97216169,1611040820600313,340358582,1087605548,425448,397538,0.165,0.23570251,0.59400004,1.052,0.57,1.0,96,4,0.70100003,0.132,0.688,-0.33900002,1.5350161,0,nan,0.0,4,1,21
98218660,1611040821600313,340358594,1087605640,425502,397592,0.128,0.14081979,0.591,1.046,0.57,1.0,96,5,1.131,0.19900002,1.113,-0.224,1.409988,0,nan,0.0,4,1,21
99211409,1611040822600312,340358600,1087605781,425633,397723,0.162,0.12247743,0.588,1.0380001,0.57,1.0,96,4,1.485,-0.074,1.483,-0.33400002,1.5882996,0,nan,0.0,4,1,21
100217941,1611040823600311,340358604,1087605945,425563,397653,0.13700001,0.10663333,0.587,1.029,0.57,1.0,96,4,1.5450001,0.124000005,1.5400001,0.089,1.5226979,0,nan,0.0,4,1,21
101228955,1611040824600311,340358614,1087606110,425297,397388,0.135,0.10992031,0.582,1.0200001,0.57,1.0,96,4,1.5550001,0.124000005,1.5500001,0.19600001,1.5026054,0,nan,0.0,4,1,21
102213999,1611040825600310,340358627,1087606268,425139,397230,0.128,0.121705644,0.57900006,1.0150001,0.57,1.0,96,5,1.3340001,0.162,1.325,-0.328,1.4744998,0,nan,0.0,4,1,21
103209651,1611040826600309,340358635,1087606401,425270,397360,0.16700001,0.13824019,0.577,1.008,0.57,1.0,96,4,1.161,-0.067,1.159,-0.312,1.5993339,0,nan,0.0,4,1,21
104216604,1611040827600309,340358625,1087606514,425329,397419,0.156,0.16980028,0.57500005,1.011,0.57,1.0,96,4,1.0200001,-0.078,1.0170001,-0.13100001,1.670066,0,nan,0.0,4,1,21
105216176,1611040828600308,340358626,1087606634,425041,397131,0.14600001,0.15868288,0.57600003,1.016,0.57,1.0,96,4,1.179,0.097,1.1750001,0.275,1.5503918,0,nan,0.0,4,1,21
106215976,1611040829600307,340358624,1087606754,424410,396500,0.177,0.15830293,0.57500005,1.019,0.57,1.0,96,4,1.074,-0.097,1.07,0.6,1.656931,0,nan,0.0,4,1,21
107217942,1611040830600307,340358624,1087606884,423443,395534,0.19700001,0.12757257,0.57600003,1.026,0.61,1.0799999,96,4,1.3440001,-0.132,1.338,0.786,1.6320839,0,nan,0.0,4,1,20
108217122,1611040831600306,340358623,1087607028,423347,395438,0.15900001,0.13351838,0.57500005,1.0270001,0.57,1.0,96,3,1.343,-0.15400001,1.335,-0.27800003,1.6066878,0,nan,0.0,4,1,21
109217941,1611040832600305,340358613,1087607162,423401,395492,0.13700001,0.14924014,0.572,1.024,0.57,1.0,96,3,1.1170001,-0.22200002,1.095,-0.024,1.7257185,0,nan,0.0,4,1,21
110219944,1611040833600305,340358600,1087607295,423123,395213,0.14500001,0.13464901,0.57000005,1.023,0.57,1.0,96,4,1.253,0.089,1.25,-0.07700001,1.6013134,0,nan,0.0,4,1,21
111220943,1611040834600304,340358605,1087607451,423215,395306,0.14500001,0.11472363,0.56700003,1.014,0.57,1.0,96,3,1.432,0.296,1.401,-0.019000001,1.4539808,0,nan,0.0,4,1,21
112222987,1611040835600303,340358615,1087607606,423268,395358,0.148,0.12891787,0.56600004,1.011,0.57,1.0,97,4,1.3720001,0.042000003,1.371,-0.367,1.5354323,0,nan,0.0,4,1,21
113218948,1611040836600303,340358624,1087607744,423508,395598,0.15,0.13588226,0.56600004,1.0120001,0.57,1.0,97,4,1.159,-0.096,1.1550001,-0.172,1.5624595,0,nan,0.0,4,1,21
114211946,1611040837600302,340358612,1087607866,423347,395438,0.16100001,0.14150064,0.565,1.01,0.57,1.0,97,3,1.233,-0.17300001,1.2210001,0.35700002,1.7123884,0,nan,0.0,4,1,21
115215977,1611040838600301,340358599,1087607982,423166,395256,0.15100001,0.14815278,0.56600004,1.016,0.58,1.01,97,3,1.1240001,-0.19900002,1.1060001,-0.055000003,1.7500106,0,nan,0.0,4,1,20
116216922,1611040839600301,340358595,1087608130,423247,395337,0.15,0.102620125,0.56600004,1.0200001,0.57,1.0,97,4,1.6400001,0.040000003,1.639,-0.354,1.5710292,0,nan,0.0,4,1,21
117217941,1611040840600300,340358595,1087608291,423849,395940,0.15300001,0.1193882,0.56600004,1.023,0.58,1.01,97,4,1.3980001,0.14400001,1.3900001,-0.26200002,1.4973618,0,nan,0.0,4,1,20
118215996,1611040841600299,340358612,1087608428,424083,396174,0.143,0.14302728,0.56700003,1.0250001,0.57,1.0,97,4,1.1240001,0.19700001,1.107,-0.22200002,1.3979781,0,nan,0.0,4,1,21
119216961,1611040842600299,340358631,1087608542,424044,396135,0.141,0.17590335,0.565,1.0200001,0.58,1.01,97,4,1.011,0.23400001,0.984,-0.023000002,1.3600513,0,nan,0.0,4,1,20
120218699,1611040843600298,340358656,1087608641,423950,396041,0.14400001,0.189922,0.564,1.0150001,0.58,1.01,97,3,0.86300004,0.333,0.79600006,0.095000006,1.2136619,0,nan,0.0,4,1,20
121217120,1611040844600297,340358671,1087608728,423816,395906,0.14400001,0.23123446,0.563,1.0170001,0.57,1.0,97,4,0.768,-0.067,0.76500005,0.054,1.5534288,0,nan,0.0,4,1,21
122218947,1611040845600297,340358646,1087608824,423539,395629,0.13900001,0.16360715,0.565,1.019,0.57,1.0,97,4,1.0350001,-0.24000001,1.0070001,0.086,1.8488976,0,nan,0.0,4,1,21
123215945,1611040846600296,340358636,1087608927,423613,395704,0.17,0.18648387,0.56200004,1.013,0.57,1.0,97,5,0.88100004,-0.059000004,0.87900007,-0.324,1.645796,0,nan,0.0,4,1,21
124219964,1611040847600295,340358633,1087609022,423895,395985,0.141,0.17498007,0.56100005,1.0040001,0.57,1.0,97,3,0.83900005,0.125,0.83000004,0.079,1.4671619,0,nan,0.0,4,1,21
125211275,1611040848600295,340358650,1087609096,423495,395586,0.18300001,0.29237422,0.56100005,1.001,0.57,1.0,97,4,0.605,0.19800001,0.572,0.24200001,1.2306232,0,nan,0.0,4,1,21
126219043,1611040849600294,340358687,1087609151,423451,395541,0.135,0.25677475,0.558,0.99200004,0.57,1.0,97,4,0.69900006,0.52400005,0.462,0.014,0.8330524,0,nan,0.0,4,1,21
127215361,1611040850600293,340358734,1087609204,423430,395521,0.14400001,0.23418549,0.555,0.97900003,0.57,1.0,97,3,0.624,0.47900003,0.39900002,0.083000004,0.7136311,0,nan,0.0,4,1,21
128216983,1611040851600293,340358787,1087609241,423188,395279,0.2,0.3087833,0.55200005,0.96800005,0.57,1.0,97,3,0.509,0.48000002,0.17,0.25500003,0.45133322,0,nan,0.0,4,1,21
129213956,1611040852600292,340358836,1087609265,422726,394817,0.224,0.27360043,0.554,0.97300005,0.58,1.02,97,4,0.65400004,0.61700004,0.21700001,0.628,0.40836847,0,nan,0.0,4,1,20
130213946,1611040853600291,340358945,1087609279,422551,394642,0.178,0.09741206,0.56,0.984,0.59999996,1.1,97,3,1.4840001,1.483,0.061000004,-0.34,0.06749781,0,nan,0.0,4,1,19
131217965,1611040854600291,340359075,1087609274,422940,395030,0.185,0.12723659,0.56600004,0.99700004,0.58,1.02,97,4,1.2490001,1.225,-0.24400002,-0.279,6.1661572,0,nan,0.0,4,1,20
132214050,1611040855600290,340359175,1087609242,423402,395492,0.2,0.16462363,0.572,1.01,0.58,1.02,97,3,1.0450001,0.99300003,-0.32500002,-0.277,5.95393,0,nan,0.0,4,1,20
133217127,1611040856600289,340359301,1087609191,423790,395881,0.20400001,0.10703022,0.57600003,1.0120001,0.58,1.02,97,3,1.434,1.4120001,-0.24900001,-0.48100004,6.010633,0,nan,0.0,4,1,20
134219444,1611040857600289,340359457,1087609175,424321,396412,0.21000001,0.08770942,0.57900006,1.013,0.59999996,1.1,97,4,1.6960001,1.677,-0.257,-0.054,6.144636,0,nan,0.0,4,1,19
135217268,1611040858600288,340359593,1087609152,424261,396351,0.24400002,0.11864852,0.583,1.023,0.58,1.05,97,3,1.3620001,1.355,-0.143,0.18,6.157643,0,nan,0.0,4,1,20
136210147,1611040859600287,340359717,1087609159,424185,396276,0.23600002,0.09913575,0.586,1.031,0.58,1.02,97,3,1.6190001,1.6170001,0.093,0.317,0.06394537,0,nan,0.0,4,1,20
137217987,1611040860600287,340359861,1087609162,423922,396012,0.23400001,0.09769673,0.59000003,1.0370001,0.62,1.13,97,7,1.715,1.7140001,0.054,0.43100002,0.012126547,0,nan,0.0,4,1,18
138213946,1611040861600286,340360011,1087609160,423673,395764,0.27800003,0.11288318,0.596,1.046,0.58,1.05,97,6,1.516,1.5150001,-0.046000004,0.32200003,6.2786536,0,nan,0.0,4,1,20
139212986,1611040862600285,340360140,1087609151,423842,395933,0.19800001,0.12963624,0.6,1.056,0.58,1.02,97,3,1.292,1.273,-0.223,-0.61700004,6.1755824,0,nan,0.0,4,1,20
140219969,1611040863600285,340360259,1087609125,424201,396292,0.187,0.117067255,0.601,1.059,0.58,1.05,97,4,1.3160001,1.2620001,-0.374,-0.13700001,6.0492787,0,nan,0.0,4,1,20
141217057,1611040864600284,340360352,1087609109,424162,396253,0.254,0.1759845,0.60700005,1.072,0.58,1.02,97,5,1.0370001,1.033,-0.09900001,0.287,6.2091694,0,nan,0.0,4,1,20
142222945,1611040865600284,340360433,1087609115,423620,395710,0.24400002,0.24597813,0.61,1.079,0.58,1.02,97,4,0.776,0.77400005,0.062000003,0.321,0.045458846,0,nan,0.0,4,1,20
143212943,1611040866600283,340360505,1087609127,423550,395641,0.17500001,0.18402402,0.609,1.08,0.58,1.02,97,3,0.934,0.92700005,0.115,0.006,0.08744308,0,nan,0.0,4,1,20
144215939,1611040867600282,340360604,1087609132,423321,395411,0.21000001,0.13826865,0.60800004,1.0810001,0.58,1.05,97,3,1.2270001,1.2260001,0.048,0.551,0.051550042,0,nan,0.0,4,1,20
145218980,1611040868600282,340360719,1087609136,423166,395256,0.18,0.14060773,0.605,1.0830001,0.57,1.0,97,4,1.082,1.0810001,-0.041,-0.272,6.2813616,0,nan,0.0,4,1,21
146215170,1611040869600281,340360828,1087609140,423594,395685,0.15300001,0.12687513,0.60300004,1.074,0.59999996,1.09,97,4,1.3100001,1.289,0.23600002,-0.19500001,0.13829169,0,nan,0.0,4,1,19
147217386,1611040870600280,340360932,1087609165,423736,395827,0.256,0.17410478,0.60700005,1.077,0.57,1.0,97,3,0.88000005,0.87600005,0.08800001,0.46,0.14620465,0,nan,0.0,4,1,21
148218942,1611040871600280,340361022,1087609173,423617,395708,0.25800002,0.16330574,0.67,1.19,0.57,1.0,97,3,0.86600006,0.85400003,-0.141,0.73200005,6.1433167,0,nan,0.0,4,1,21
149217052,1611040872600279,340361098,1087609177,423789,395879,0.21700001,0.21483484,0.60700005,1.0780001,0.58,1.02,97,3,0.77400005,0.75600004,-0.16600001,-0.083000004,6.1415863,0,nan,0.0,4,1,20
150211131,1611040873600278,340361186,1087609180,423929,396019,0.254,0.16525091,0.609,1.077,0.58,1.02,97,3,0.86300004,0.86100006,-0.064,0.629,6.2153854,0,nan,0.0,4,1,20
151216065,1611040874600278,340361295,1087609182,423472,395562,0.25100002,0.11667595,0.60800004,1.0760001,0.58,1.02,97,4,1.266,1.261,-0.120000005,0.90700006,6.204049,0,nan,0.0,4,1,20
152218061,1611040875600277,340361403,1087609177,423146,395237,0.24800001,0.14825734,0.60700005,1.082,0.58,1.02,97,4,1.052,0.99500006,-0.34,0.43600002,6.0844936,0,nan,0.0,4,1,20
153220146,1611040876600276,340361512,1087609149,422724,394815,0.3,0.11632479,0.60700005,1.0830001,0.58,1.02,98,4,1.2270001,1.199,-0.26000002,1.184,6.028328,0,nan,0.0,4,1,20
154214024,1611040877600276,340361623,1087609123,422653,394743,0.19600001,0.11557466,0.614,1.097,0.59999996,1.09,98,3,1.3330001,1.2980001,-0.30400002,-0.23900001,6.0636706,0,nan,0.0,4,1,19
155216835,1611040878600275,340361716,1087609092,423081,395172,0.23,0.20371291,0.62,1.116,0.59999996,1.09,98,3,0.771,0.711,-0.298,-0.54300004,5.9537687,0,nan,0.0,4,1,19
156216050,1611040879600274,340361765,1087609054,423264,395354,0.172,0.21559161,0.62200004,1.1290001,0.62,1.11,98,4,0.726,0.58500004,-0.43,0.013,5.64242,0,nan,0.0,4,1,19
157219943,1611040880600274,340361806,1087608996,423642,395732,0.19600001,0.29347536,0.62100005,1.128,0.57,1.0,98,3,0.588,0.335,-0.483,-0.162,5.291127,0,nan,0.0,4,1,21
158229071,1611040881600273,340361832,1087608939,423953,396044,0.19600001,0.15182146,0.61800003,1.1090001,0.57,1.0,98,4,0.87700003,0.33400002,-0.81100005,0.23500001,5.1373763,0,nan,0.0,4,1,21
159223284,1611040882600272,340361875,1087608813,423667,395757,0.19800001,0.112008594,0.61200005,1.0890001,0.57,1.0,98,8,1.4080001,0.423,-1.343,0.42600003,5.0169315,0,nan,0.0,4,1,21
160224257,1611040883600272,340361916,1087608654,423264,395355,0.19000001,0.09746354,0.61,1.0830001,0.57,1.0,98,3,1.6600001,0.298,-1.6330001,0.47200003,4.925793,0,nan,0.0,4,1,21
161223469,1611040884600271,340361958,1087608461,423204,395294,0.177,0.080898106,0.606,1.0730001,0.58,1.05,98,3,2.0970001,0.56600004,-2.02,-0.29200003,4.9488716,0,nan,0.0,4,1,20
162227072,1611040885600270,340361991,1087608261,423684,395774,0.15900001,0.093866944,0.59900004,1.057,0.57,1.0,98,3,1.7570001,0.40500003,-1.71,-0.259,4.896313,0,nan,0.0,4,1,21
163214878,1611040886600270,340362009,1087608141,423814,395905,0.18,0.21594714,0.59800005,1.056,0.57,1.0,98,2,0.73600006,0.13700001,-0.72300005,0.312,4.8981433,0,nan,0.0,4,1,21
164227945,1611040887600269,340362017,1087608071,424040,396130,0.21000001,0.26519474,0.59000003,1.041,0.57,1.0,98,2,0.60400003,0.086,-0.59800005,-0.418,4.8264675,0,nan,0.0,4,1,21
165223974,1611040888600268,340362023,1087607989,424303,396393,0.15400001,0.14539832,0.58500004,1.0320001,0.57,1.0,98,3,1.138,0.033,-1.1370001,0.037,4.7451844,0,nan,0.0,4,1,21
166224257,1611040889600268,340362037,1087607842,423994,396084,0.172,0.12805584,0.582,1.0220001,0.57,1.0,98,3,1.197,-0.10700001,-1.192,0.47300002,4.720683,0,nan,0.0,4,1,21
167217244,1611040890600267,340362038,1087607694,423774,395864,0.187,0.12722683,0.58400005,1.026,0.57,1.0,105,4,1.3290001,-0.094000004,-1.325,-0.11400001,4.665441,0,nan,0.0,4,1,21
168212975,1611040891600266,340362023,1087607560,424249,396339,0.18900001,0.14867622,0.58500004,1.034,0.57,1.0,105,3,1.087,-0.039,-1.087,-0.53800005,4.6225014,0,nan,0.0,4,1,21
169215941,1611040892600266,340362002,1087607439,424433,396523,0.18,0.1493932,0.583,1.034,0.57,1.0,105,2,1.148,-0.19000001,-1.1320001,0.019000001,4.492918,0,nan,0.0,4,1,21
170217169,1611040893600265,340361990,1087607308,424184,396274,0.19900002,0.13338783,0.58500004,1.0350001,0.57,1.0,105,4,1.238,-0.15300001,-1.228,0.58400005,4.582908,0,nan,0.0,4,1,21
171217950,1611040894600264,340361969,1087607167,424068,396158,0.187,0.13177584,0.58400005,1.036,0.61,1.0799999,105,3,1.3460001,-0.319,-1.3080001,-0.15,4.4941897,0,nan,0.0,4,1,20
172223946,1611040895600264,340361951,1087607003,423977,396067,0.178,0.09701464,0.586,1.0450001,0.61,1.0799999,105,3,1.6200001,-0.089,-1.618,0.38000003,4.6117225,0,nan,0.0,4,1,20
173214945,1611040896600263,340361939,1087606835,423796,395886,0.19800001,0.13200797,0.586,1.039,0.61,1.0799999,105,4,1.4510001,-0.21000001,-1.4360001,-0.316,4.5787697,0,nan,0.0,4,1,20
174215964,1611040897600262,340361918,1087606680,424138,396228,0.172,0.09767804,0.587,1.0350001,0.61,1.0799999,105,3,1.5510001,-0.105000004,-1.5480001,-0.041,4.592961,0,nan,0.0,4,1,20
175214064,1611040898600262,340361917,1087606522,423920,396010,0.20300001,0.12200567,0.586,1.0380001,0.61,1.0799999,105,4,1.373,-0.067,-1.371,-0.101,4.684158,0,nan,0.0,4,1,20
176214945,1611040899600261,340361918,1087606381,424501,396591,0.19800001,0.14322609,0.59000003,1.051,0.61,1.0799999,105,3,1.197,-0.08800001,-1.194,-0.30100003,4.68507,0,nan,0.0,4,1,20
177217940,1611040900600261,340361907,1087606255,424637,396727,0.17600001,0.14256391,0.591,1.067,0.61,1.0799999,105,3,1.153,-0.064,-1.151,0.115,4.6284013,0,nan,0.0,4,1,20
178215941,1611040901600260,340361899,1087606129,424333,396423,0.18900001,0.14154515,0.59400004,1.0760001,0.61,1.0799999,105,3,1.276,-0.102000006,-1.2720001,0.32700002,4.622824,0,nan,0.0,4,1,20
179221354,1611040902600259,340361885,1087605987,424034,396124,0.19900002,0.13407357,0.595,1.0860001,0.61,1.0799999,114,4,1.281,-0.108,-1.276,0.115,4.5919094,0,nan,0.0,4,1,20
180223241,1611040903600259,340361852,1087605837,424223,396313,0.194,0.122588955,0.59800005,1.1090001,0.62,1.14,113,3,1.462,-0.50100005,-1.3740001,-0.448,4.3963857,0,nan,0.0,4,1,19
181217422,1611040904600258,340361813,1087605688,424487,396577,0.215,0.1400351,0.606,1.156,0.64,1.14,106,3,1.4720001,-0.38000003,-1.422,-0.21400002,4.4495535,0,nan,0.0,4,1,18
182223942,1611040905600257,340361778,1087605533,424988,397078,0.21300001,0.15112647,0.61300004,1.182,0.61,1.0799999,106,4,1.2440001,-0.35200003,-1.1930001,-0.35200003,4.455013,0,nan,0.0,4,1,20
183223943,1611040906600257,340361730,1087605396,425130,397220,0.20400001,0.1317364,0.619,1.197,0.63,1.09,106,5,1.427,-0.46800002,-1.348,0.046000004,4.348833,0,nan,0.0,4,1,19
184218241,1611040907600256,340361671,1087605276,425512,397602,0.194,0.13046284,0.62200004,1.199,0.65,1.11,106,4,1.2950001,-0.49,-1.1980001,-0.171,4.2314515,0,nan,0.0,4,1,18
185223047,1611040908600255,340361613,1087605166,425733,397822,0.18300001,0.17316894,0.62700003,1.23,0.64,1.18,106,3,1.0430001,-0.572,-0.87200004,0.087000005,4.1587267,0,nan,0.0,4,1,18
186219013,1611040909600255,340361561,1087605093,425838,397928,0.16600001,0.2056284,0.63100004,1.261,0.62,1.1,106,3,0.89500004,-0.56700003,-0.693,0.125,4.059955,0,nan,0.0,4,1,19
187217938,1611040910600254,340361474,1087605012,425386,397476,0.179,0.14765136,0.63600004,1.281,0.59999996,1.05,106,6,1.345,-1.2390001,-0.523,0.386,3.6237853,0,nan,0.0,4,1,19
188218941,1611040911600253,340361333,1087604934,425848,397938,0.224,0.13129972,0.64400005,1.312,0.65,1.09,106,3,1.5050001,-1.363,-0.637,-0.58500004,3.587754,0,nan,0.0,4,1,19
189215944,1611040912600253,340361195,1087604875,425863,397953,0.16100001,0.121512435,0.651,1.33,0.65,1.09,106,3,1.5070001,-1.4440001,-0.432,0.256,3.4209237,0,nan,0.0,4,1,19
190215965,1611040913600252,340361059,1087604836,425540,397629,0.16900001,0.13356481,0.656,1.342,0.65,1.09,106,4,1.4900001,-1.386,-0.54800004,0.37,3.4232323,0,nan,0.0,4,1,19
191215941,1611040914600251,340360930,1087604805,425153,397243,0.15900001,0.11478524,0.661,1.3560001,0.65,1.09,106,4,1.623,-1.5370001,-0.523,0.20700002,3.4110072,0,nan,0.0,4,1,19
192215471,1611040915600251,340360777,1087604777,425441,397531,0.21400002,0.10162197,0.665,1.3750001,0.65,1.09,106,3,1.9020001,-1.8900001,-0.21100001,-0.517,3.272199,0,nan,0.0,4,1,19
193215943,1611040916600250,340360624,1087604763,425696,397786,0.19600001,0.119648956,0.67200005,1.399,0.65,1.09,106,3,1.6420001,-1.641,-0.026,-0.075,3.188093,0,nan,0.0,4,1,19
194216944,1611040917600249,340360467,1087604748,425760,397850,0.17,0.10120693,0.679,1.429,0.65,1.09,106,5,1.8610001,-1.8600001,-0.052,0.147,3.1883464,0,nan,0.0,4,1,19
195215944,1611040918600249,340360302,1087604744,425935,398025,0.18,0.104239956,0.683,1.44,0.62,1.05,106,6,1.7450001,-1.7450001,0.018000001,0.063,3.1570256,0,nan,0.0,4,1,20
196213941,1611040919600248,340360161,1087604741,425901,397991,0.21300001,0.13614073,0.68700004,1.45,0.62,1.05,106,4,1.2870001,-1.2870001,0.009000001,-0.36900002,3.139365,0,nan,0.0,4,1,20
197214006,1611040920600247,340360043,1087604749,426529,398619,0.24000001,0.1574999,0.69000006,1.452,0.62,1.05,106,4,1.141,-1.1400001,0.025,-0.559,3.0669749,0,nan,0.0,4,1,20
198208133,1611040921600247,340359929,1087604743,426347,398437,0.16100001,0.10467036,0.688,1.4260001,0.62,1.05,106,4,1.439,-1.4380001,-0.056,0.395,3.1779156,0,nan,0.0,4,1,20
199215958,1611040922600246,340359812,1087604721,425970,398060,0.18,0.16733849,0.68600005,1.4150001,0.62,1.05,106,3,1.22,-1.2080001,-0.172,0.18100001,3.2979703,0,nan,0.0,4,1,20
200215942,1611040923600246,340359700,1087604703,425790,397880,0.193,0.11474318,0.68,1.386,0.62,1.05,106,5,1.3260001,-1.3230001,-0.096,-0.29700002,3.2298334,0,nan,0.0,4,1,20
201214941,1611040924600245,340359582,1087604688,425891,397981,0.17500001,0.13744259,0.67700005,1.3670001,0.62,1.05,106,5,1.2270001,-1.223,-0.096,0.148,3.2279487,0,nan,0.0,4,1,20
202220955,1611040925600244,340359473,1087604674,425362,397452,0.171,0.13072847,0.67300004,1.355,0.62,1.05,98,4,1.2930001,-1.292,0.039,0.36400002,3.1834233,0,nan,0.0,4,1,20
203212976,1611040926600244,340359352,1087604666,425265,397355,0.19900002,0.122720376,0.671,1.3470001,0.62,1.05,98,5,1.506,-1.5040001,-0.075,-0.337,3.1852276,0,nan,0.0,4,1,20
204221943,1611040927600243,340359213,1087604660,425677,397767,0.22800002,0.124822974,0.67,1.345,0.62,1.05,98,3,1.4200001,-1.404,-0.21300001,-0.757,3.183418,0,nan,0.0,4,1,20
205225941,1611040928600242,340359097,1087604645,425682,397772,0.17600001,0.11131692,0.66200006,1.3160001,0.62,1.05,98,3,1.2880001,-1.2870001,0.025,-0.20500001,3.1441824,0,nan,0.0,4,1,20
206218963,1611040929600242,340358989,1087604651,425817,397907,0.17,0.11422882,0.65400004,1.291,0.62,1.05,98,3,1.21,-1.21,-0.018000001,-0.23900001,3.1345756,0,nan,0.0,4,1,20
207219943,1611040930600241,340358881,1087604655,426237,398327,0.18400002,0.13807997,0.64500004,1.263,0.62,1.05,98,3,1.067,-1.0660001,-0.033,-0.287,3.1776028,0,nan,0.0,4,1,20
208221369,1611040931600240,340358788,1087604663,426345,398435,0.163,0.14781873,0.634,1.2290001,0.57,1.0,98,4,1.024,-1.0150001,0.132,-0.072000004,3.081653,0,nan,0.0,4,1,21
209219206,1611040932600240,340358705,1087604676,426579,398669,0.18,0.17007658,0.625,1.2,0.57,1.0,98,5,0.84900004,-0.84900004,0.010000001,-0.335,3.0836647,0,nan,0.0,4,1,21
210218291,1611040933600239,340358637,1087604698,426447,398537,0.155,0.19511664,0.61700004,1.172,0.57,1.0,98,5,0.72700006,-0.712,0.14600001,0.409,2.9388642,0,nan,0.0,4,1,21
211220150,1611040934600238,340358588,1087604721,426067,398157,0.18300001,0.241678,0.61,1.1500001,0.57,1.0,105,5,0.512,-0.33800003,0.384,-0.15100001,2.5124474,0,nan,0.0,4,1,21
212216042,1611040935600238,340358557,1087604757,426134,398224,0.19500001,0.39199308,0.60400003,1.13,0.59,1.0,105,4,0.36400002,-0.20300001,0.303,-0.17300001,2.2195215,0,nan,0.0,4,1,20
213214951,1611040936600237,340358552,1087604794,425701,397791,0.23900001,0.45361787,0.597,1.1040001,0.57,1.0,105,5,0.372,0.117000006,0.35300002,0.544,1.3300515,0,nan,0.0,4,1,21
214216138,1611040937600236,340358552,1087604853,425347,397437,0.22000001,0.1901435,0.597,1.095,0.57,1.0,105,4,0.81700003,0.16000001,0.80100006,0.721,1.4278843,0,nan,0.0,4,1,21
215216090,1611040938600236,340358561,1087604970,424830,396920,0.14400001,0.11023394,0.597,1.0890001,0.57,1.0,105,4,1.723,0.24200001,1.7060001,0.0,1.466543,0,nan,0.0,4,1,21
216208942,1611040939600235,340358585,1087605159,424923,397013,0.15400001,0.09516198,0.596,1.079,0.57,1.0,105,4,1.669,0.469,1.6010001,0.18100001,1.3435667,0,nan,0.0,4,1,21
217211948,1611040940600234,340358621,1087605311,425031,397121,0.15400001,0.14212722,0.59400004,1.0710001,0.59,1.0,105,4,1.2260001,0.38000003,1.1650001,-0.70600003,1.2536206,0,nan,0.0,4,1,20
218215945,1611040941600234,340358644,1087605435,425337,397427,0.13000001,0.15516797,0.59000003,1.0600001,0.59,1.0,105,5,1.085,0.31300002,1.039,-0.065000005,1.3288659,0,nan,0.0,4,1,20
219217942,1611040942600233,340358659,1087605556,425358,397449,0.165,0.15668623,0.59000003,1.059,0.57,1.0,105,4,1.248,0.07300001,1.246,-0.052,1.4758439,0,nan,0.0,4,1,21
220216012,1611040943600233,340358659,1087605700,425341,397431,0.16800001,0.1404311,0.59300005,1.0630001,0.57,1.0,105,4,1.4070001,0.078,1.4050001,0.0050000004,1.531719,0,nan,0.0,4,1,21
221217033,1611040944600232,340358674,1087605842,425053,397143,0.14400001,0.12865746,0.595,1.0630001,0.57,1.0,105,3,1.273,0.115,1.268,0.158,1.4849725,0,nan,0.0,4,1,21
222219938,1611040945600231,340358682,1087605976,424865,396955,0.136,0.11946988,0.595,1.0550001,0.57,1.0,105,4,1.3470001,0.091000006,1.3440001,-0.11000001,1.5113692,0,nan,0.0,4,1,21
223210940,1611040946600231,340358677,1087606129,424963,397053,0.17600001,0.13077576,0.59400004,1.0530001,0.57,1.0,105,4,1.3310001,-0.053000003,1.33,-0.47100002,1.6284382,0,nan,0.0,4,1,21
224219092,1611040947600230,340358674,1087606277,425229,397319,0.20500001,0.1599596,0.59800005,1.059,0.59999996,1.06,97,6,1.399,0.062000003,1.3980001,-0.384,1.5689644,0,nan,0.0,4,1,20
225217268,1611040948600229,340358668,1087606426,425391,397482,0.158,0.126007,0.596,1.056,0.57,1.0,97,4,1.2620001,-0.14,1.2540001,-0.38000003,1.6590747,0,nan,0.0,4,1,21
226221941,1611040949600229,340358667,1087606549,425580,397670,0.148,0.16067763,0.59400004,1.051,0.57,1.0,97,3,1.0220001,-0.007,1.0220001,-0.071,1.5487529,0,nan,0.0,4,1,21
227223960,1611040950600228,340358681,1087606649,425424,397514,0.148,0.1806332,0.591,1.049,0.57,1.0,104,4,0.95600003,0.19000001,0.93700004,-0.056,1.3588595,0,nan,0.0,4,1,21
228224173,1611040951600227,340358685,1087606742,425321,397411,0.15200001,0.21847455,0.58900005,1.047,0.57,1.0,104,3,0.82400006,-0.126,0.81500006,0.13700001,1.6009115,0,nan,0.0,4,1,21
229220026,1611040952600227,340358676,1087606848,425247,397338,0.155,0.15591009,0.588,1.052,0.57,1.0,104,4,1.049,0.065000005,1.047,-0.321,1.5990821,0,nan,0.0,4,1,21
230225030,1611040953600226,340358675,1087606969,425338,397428,0.141,0.136594,0.58500004,1.0500001,0.57,1.0,104,5,1.1420001,0.025,1.1420001,0.039,1.5613697,0,nan,0.0,4,1,21
231222053,1611040954600225,340358683,1087607084,424833,396923,0.13100001,0.18223,0.58100003,1.044,0.57,1.0,104,5,0.91800004,0.106000006,0.9110001,-0.08800001,1.4943539,0,nan,0.0,4,1,21
232223025,1611040955600225,340358684,1087607189,424918,397008,0.14600001,0.17165348,0.57900006,1.0430001,0.57,1.0,104,4,1.018,-0.068,1.016,0.042000003,1.62507,0,nan,0.0,4,1,21
233223945,1611040956600224,340358669,1087607300,424324,396415,0.18100001,0.1667922,0.57900006,1.042,0.57,1.0,104,3,1.033,-0.071,1.0300001,0.65300006,1.7444565,0,nan,0.0,4,1,21
234217028,1611040957600223,340358660,1087607403,423789,395880,0.171,0.15936741,0.577,1.0400001,0.57,1.0,104,4,1.0020001,-0.10300001,0.99600005,0.57500005,1.6987959,0,nan,0.0,4,1,21
235216393,1611040958600223,340358645,1087607543,423482,395572,0.17,0.10989762,0.578,1.039,0.57,1.0,98,3,1.5500001,-0.224,1.534,0.26700002,1.6974835,0,nan,0.0,4,1,21
236213944,1611040959600222,340358623,1087607689,423624,395715,0.16900001,0.11802719,0.57600003,1.0350001,0.58,1.01,98,3,1.2550001,-0.23300001,1.233,-0.51500005,1.7381337,0,nan,0.0,4,1,20
237212974,1611040960600222,340358614,1087607832,423924,396015,0.14600001,0.12110456,0.573,1.029,0.58,1.01,98,3,1.2650001,-0.093,1.2620001,-0.314,1.6464633,0,nan,0.0,4,1,20
238211125,1611040961600221,340358604,1087607971,424103,396193,0.135,0.11843473,0.568,1.0170001,0.58,1.01,98,4,1.294,-0.157,1.2850001,0.09200001,1.6764678,0,nan,0.0,4,1,20
239217996,1611040962600220,340358593,1087608097,424014,396105,0.142,0.1392523,0.56700003,1.016,0.59999996,1.04,98,3,1.144,-0.279,1.1090001,-0.089,1.739915,0,nan,0.0,4,1,19
240213940,1611040963600220,340358593,1087608218,424015,396105,0.16700001,0.15588705,0.56600004,1.0150001,0.57,1.0,105,5,1.2090001,-0.2,1.192,-0.31800002,1.643413,0,nan,0.0,4,1,21
241216082,1611040964600219,340358581,1087608369,424277,396368,0.15400001,0.1256637,0.56600004,1.019,0.58,1.01,105,3,1.4080001,-0.172,1.3980001,-0.34800002,1.6665909,0,nan,0.0,4,1,20
242213046,1611040965600218,340358577,1087608516,424226,396316,0.148,0.13042915,0.56700003,1.026,0.58,1.01,105,4,1.3030001,-0.16000001,1.294,0.17400001,1.641188,0,nan,0.0,3,1,20
243217960,1611040966600218,340358585,1087608662,423955,396046,0.135,0.14480786,0.56700003,1.029,0.57,1.0,105,5,1.194,0.15900001,1.1830001,-0.061000004,1.4830356,0,nan,0.0,3,1,21
244208164,1611040967600217,340358609,1087608783,424378,396469,0.19500001,0.18710715,0.569,1.034,0.58,1.01,105,4,1.0680001,0.178,1.0530001,-0.721,1.3879865,0,nan,0.0,3,1,20
245208130,1611040968600216,340358630,1087608884,424649,396740,0.143,0.22033907,0.57100004,1.0370001,0.58,1.01,105,3,0.76900005,0.081,0.76400006,0.035,1.4382042,0,nan,0.0,3,1,20
246213943,1611040969600216,340358625,1087608968,424237,396328,0.21300001,0.21442923,0.572,1.042,0.58,1.01,105,10,0.77400005,-0.13800001,0.76100004,0.75500005,1.701944,0,nan,0.0,3,1,20
247209060,1611040970600215,340358639,1087609034,423942,396033,0.16100001,0.2799817,0.572,1.044,0.58,1.01,105,9,0.55200005,0.286,0.47200003,-0.289,1.1409792,0,nan,0.0,3,1,20
248210941,1611040971600214,340358677,1087609074,424420,396510,0.19600001,0.25515962,0.57100004,1.042,0.58,1.01,105,3,0.551,0.41900003,0.358,-0.642,0.6568462,0,nan,0.0,3,1,20
249203952,1611040972600214,340358718,1087609115,424801,396891,0.172,0.29877612,0.574,1.0380001,0.58,1.01,105,3,0.65400004,0.554,0.34800002,-0.038000003,0.5813212,0,nan,0.0,3,1,20
250204932,1611040973600213,340358776,1087609142,424695,396785,0.18200001,0.24172007,0.578,1.0380001,0.58,1.01,105,3,0.68500006,0.647,0.22500001,0.19100001,0.33821183,0,nan,0.0,3,1,20
251207940,1611040974600212,340358834,1087609146,424622,396713,0.202,0.22988237,0.58400005,1.0430001,0.59999996,1.0699999,105,3,0.63000005,0.605,-0.17500001,-0.31,6.1164393,0,nan,0.0,3,1,19
252206647,1611040975600212,340358951,1087609168,424715,396805,0.18800001,0.09464554,0.58400005,1.046,0.58,1.01,98,3,1.7220001,1.69,0.33100003,0.45200002,0.17329757,0,nan,0.0,3,1,20
253212966,1611040976600211,340359120,1087609189,424568,396659,0.187,0.0750406,0.583,1.054,0.58,1.01,98,3,1.9000001,1.899,-0.035,0.316,0.022003539,0,nan,0.0,3,1,20
254207941,1611040977600211,340359298,1087609172,424041,396131,0.266,0.09579955,0.58900005,1.062,0.59999996,1.0699999,98,3,1.6300001,1.616,-0.216,1.0120001,6.1666255,0,nan,0.0,3,1,19
255209003,1611040978600210,340359437,1087609141,423403,395494,0.245,0.11118113,0.59400004,1.07,0.59999996,1.09,98,4,1.3750001,1.3390001,-0.31500003,0.526,6.0487194,0,nan,0.0,3,1,19
256207450,1611040979600209,340359570,1087609123,423752,395843,0.19000001,0.10507196,0.596,1.075,0.58,1.01,98,3,1.4720001,1.4510001,-0.24800001,-0.42400002,6.111962,0,nan,0.0,3,1,20
257209947,1611040980600209,340359686,1087609102,424031,396121,0.18300001,0.12429676,0.59800005,1.075,0.58,1.01,98,4,1.2,1.199,-0.062000003,0.33,6.16908,0,nan,0.0,3,1,20
258208308,1611040981600208,340359798,1087609109,423859,395949,0.22800002,0.14995293,0.60200006,1.08,0.59999996,1.06,98,3,1.0990001,1.0960001,0.076000005,0.16100001,0.05349504,0,nan,0.0,3,1,19
259208031,1611040982600207,340359904,1087609123,424175,396265,0.22200002,0.1456582,0.64900005,1.1500001,0.57,0.98999995,98,3,1.1060001,1.102,0.093,0.19100001,0.07888504,0,nan,0.0,3,1,21
260207016,1611040983600207,340360023,1087609135,424012,396103,0.252,0.107276306,0.611,1.0760001,0.57,0.98999995,98,3,1.432,1.4280001,0.102000006,0.86800003,0.06644573,0,nan,0.0,3,1,21
261205943,1611040984600206,340360148,1087609132,423984,396075,0.22600001,0.11847085,0.614,1.077,0.59999996,1.09,98,3,1.322,1.3160001,-0.127,-0.13900001,6.2147884,0,nan,0.0,3,1,19
262207106,1611040985600205,340360264,1087609112,424090,396180,0.18400002,0.124379136,0.61600006,1.082,0.59999996,1.09,98,5,1.256,1.2320001,-0.24100001,-0.030000001,6.1126175,0,nan,0.0,3,1,19
263210962,1611040986600205,340360370,1087609102,423917,396007,0.20300001,0.13488935,0.61700004,1.0940001,0.58,1.05,98,4,1.192,1.1750001,0.19900002,0.44900003,0.07517552,0,nan,0.0,3,1,20
264205977,1611040987600204,340360486,1087609138,423547,395638,0.231,0.13052584,0.61700004,1.103,0.59999996,1.09,98,3,1.3110001,1.296,0.19800001,0.558,0.22360146,0,nan,0.0,3,1,19
265208285,1611040988600203,340360589,1087609157,423001,395092,0.155,0.13594177,0.61600006,1.1,0.58,1.05,98,3,1.146,1.141,0.113000005,0.19800001,0.1252738,0,nan,0.0,3,1,20
266216111,1611040989600203,340360714,1087609165,423017,395107,0.177,0.10504456,0.614,1.088,0.57,0.98999995,78,3,1.3950001,1.3870001,0.148,-0.22200002,0.08611314,0,nan,0.0,3,1,21
267212940,1611040990600202,340360854,1087609181,422983,395074,0.158,0.10619822,0.609,1.0860001,0.57,0.98999995,84,3,1.4760001,1.468,0.157,0.058000002,0.113231026,0,nan,0.0,3,1,21
268217340,1611040991600202,340360991,1087609194,423456,395547,0.156,0.11280359,0.61300004,1.092,0.57,0.98999995,90,6,1.281,1.2780001,-0.080000006,-0.08800001,6.245517,0,nan,0.0,3,1,21
269216991,1611040992600201,340361103,1087609196,423789,395880,0.194,0.13828453,0.60400003,1.0780001,0.57,0.98999995,96,3,1.1140001,1.1,-0.177,0.34100002,6.211208,0,nan,0.0,3,1,21
270215942,1611040993600200,340361202,1087609205,423728,395819,0.18,0.12381139,0.60400003,1.082,0.58,1.05,102,4,1.1170001,1.115,0.07,0.125,0.0616377,0,nan,0.0,3,1,20
271214967,1611040994600200,340361309,1087609208,424014,396104,0.18400002,0.12330367,0.60200006,1.0860001,0.58,1.05,102,4,1.24,1.24,0.012,-0.085,6.2788787,0,nan,0.0,3,1,20
272207055,1611040995600199,340361420,1087609206,423891,395982,0.27,0.12609008,0.60200006,1.093,0.57,0.98999995,103,4,1.253,1.253,0.026,0.81000006,6.26865,0,nan,0.0,3,1,21
273220119,1611040996600198,340361532,1087609190,423365,395456,0.27100003,0.13865401,0.606,1.103,0.57,0.98999995,109,4,1.121,1.1,-0.21200001,0.48800004,6.124115,0,nan,0.0,3,1,21
274220026,1611040997600198,340361632,1087609178,423208,395299,0.209,0.14329572,0.61,1.1190001,0.57,0.98999995,109,3,1.116,1.1120001,-0.09200001,0.115,6.1969223,0,nan,0.0,3,1,21
275217936,1611040998600197,340361732,1087609162,423446,395536,0.23200001,0.17893673,0.614,1.1320001,0.57,0.98999995,109,5,0.86300004,0.785,-0.36,0.28500003,5.948711,0,nan,0.0,3,1,21
276207951,1611040999600196,340361819,1087609124,423866,395956,0.185,0.1467862,0.615,1.133,0.57,0.98999995,109,3,0.952,0.86500007,-0.39900002,-0.076000005,5.831773,0,nan,0.0,3,1,21
277206940,1611041000600196,340361872,1087609078,424004,396094,0.215,0.22696802,0.615,1.1320001,0.57,0.98999995,110,5,0.675,0.54200006,-0.402,0.29500002,5.6577554,0,nan,0.0,3,1,21
278212108,1611041001600195,340361926,1087609032,423823,395913,0.178,0.21775757,0.61200005,1.118,0.58,1.01,110,3,0.61,0.4,-0.46100003,-0.072000004,5.4718113,0,nan,0.0,3,1,20
279211943,1611041002600194,340361961,1087608969,423897,395987,0.16700001,0.22103058,0.60700005,1.105,0.58,1.01,110,3,0.71500003,0.32700002,-0.63600004,-0.18,5.180648,0,nan,0.0,3,1,20
280212099,1611041003600194,340361980,1087608895,423897,395988,0.19100001,0.22206241,0.605,1.098,0.58,1.01,110,2,0.70000005,0.15300001,-0.683,0.162,4.9597406,0,nan,0.0,3,1,20
281210944,1611041004600193,340361998,1087608818,423564,395654,0.149,0.2186908,0.60200006,1.085,0.57,0.98999995,110,3,0.69000006,0.027,-0.69000006,-0.013,4.776158,0,nan,0.0,3,1,21
282208941,1611041005600192,340362004,1087608745,423794,395884,0.142,0.2667486,0.59900004,1.0730001,0.57,0.98999995,110,3,0.545,0.025,-0.545,-0.048,4.748039,0,nan,0.0,3,1,21
283212947,1611041006600192,340361998,1087608694,423819,395909,0.15,0.45753872,0.59800005,1.0680001,0.57,0.98999995,110,3,0.34,-0.083000004,-0.32900003,0.039,4.5205374,0,nan,0.0,3,1,21
284206942,1611041007600191,340361989,1087608661,423718,395809,0.13700001,0.35817054,0.595,1.056,0.57,0.98999995,110,3,0.40800002,-0.25800002,-0.316,-0.022000002,4.235169,0,nan,0.0,3,1,21
285212943,1611041008600191,340361976,1087608620,423804,395895,0.142,0.37996987,0.58900005,1.0400001,0.57,0.98999995,110,3,0.34600002,-0.035,-0.344,-0.064,4.3451924,0,nan,0.0,3,1,21
286212950,1611041009600190,340361986,1087608586,423855,395946,0.16000001,0.54692787,0.582,1.0250001,0.57,0.98999995,110,3,0.27400002,0.063,-0.266,0.063,4.979565,0,nan,0.0,3,1,21
287209941,1611041010600189,340361996,1087608554,423710,395800,0.19000001,0.5847123,0.58100003,1.019,0.57,0.98999995,110,3,0.16000001,0.012,-0.16000001,0.10300001,5.1486764,0,nan,0.0,3,1,21
288207945,1611041011600189,340361998,1087608532,423519,395610,0.18400002,0.70606333,0.57900006,1.014,0.57,0.98999995,110,2,0.16800001,-0.004,-0.16800001,0.18200001,4.873847,0,nan,0.0,3,1,21
289209982,1611041012600188,340361999,1087608507,423399,395489,0.13700001,0.6196671,0.57600003,1.003,0.57,0.98999995,110,3,0.20300001,-0.049000002,-0.19700001,0.09200001,4.554886,0,nan,0.0,3,1,21
290207944,1611041013600187,340361993,1087608480,423234,395325,0.14,0.6295341,0.57100004,0.99100006,0.57,0.98999995,110,2,0.21700001,-0.010000001,-0.21700001,0.105000004,4.4348564,0,nan,0.0,3,1,21
291205958,1611041014600187,340362001,1087608464,423191,395281,0.216,0.7340092,0.569,0.98800004,0.57,0.98999995,110,3,0.11100001,0.078,-0.079,0.22000001,4.729308,0,nan,0.0,3,1,21
292211942,1611041015600186,340362003,1087608454,423066,395157,0.142,0.73404723,0.569,0.98600006,0.57,0.98999995,110,2,0.09,-0.048,-0.076000005,0.052,4.729308,0,nan,0.0,3,1,21
293217343,1611041016600185,340362006,1087608458,423103,395193,0.216,0.73409337,0.56700003,0.97900003,0.57,0.98999995,110,3,0.089,-0.08800001,0.009000001,0.47700003,4.729308,0,nan,0.0,3,1,21
294209943,1611041017600185,340362012,1087608461,422590,394681,0.21300001,0.7705265,0.565,0.97300005,0.57,0.98999995,110,3,0.046000004,0.0,-0.046000004,0.20500001,5.3860216,0,nan,0.0,3,1,21
295208013,1611041018600184,340362016,1087608459,422737,394827,0.23400001,0.7705705,0.564,0.96700007,0.57,0.98999995,110,2,0.013,-0.010000001,0.008,-0.046000004,5.3860216,0,nan,0.0,3,1,21
296209983,1611041019600183,340362024,1087608455,422888,394978,0.23600002,0.7706052,0.564,0.96400005,0.57,0.98999995,110,3,0.010000001,-0.003,-0.009000001,-0.061000004,5.3860216,0,nan,0.0,3,1,21
