timestamp,roll_body,pitch_body,yaw_body,yaw_sp_move_rate,q_d[0],q_d[1],q_d[2],q_d[3],thrust_body[0],thrust_body[1],thrust_body[2],roll_reset_integral,pitch_reset_integral,yaw_reset_integral,fw_control_yaw,apply_flaps
21440010,0.01340535,-0.013247283,-1.8746314,0.0,0.5919631,-0.0013707548,-0.009322781,-0.80591,0.0,0.0,-0.0,0,0,0,0,0
21445028,0.01340535,-0.013247283,-1.8746874,0.0,0.5919405,-0.001371016,-0.009322743,-0.80592656,0.0,0.0,-0.0,0,0,0,0,0
21539217,0.0153204,-0.013247161,-1.8742323,0.0,0.592125,-0.00080187165,-0.01009458,-0.80578256,0.0,0.0,-0.0,0,0,0,0,0
21643619,0.0153204,-0.013247161,-1.8733902,0.0,0.5924642,-0.00079762115,-0.010094917,-0.8055332,0.0,0.0,-0.0,0,0,0,0,0
21742895,0.0153204,-0.013247161,-1.8726058,0.0,0.5927801,-0.00079366186,-0.010095229,-0.8053008,0.0,0.0,-0.0,0,0,0,0,0
21842063,0.0153204,-0.013247161,-1.8711448,0.0,0.59336823,-0.000786287,-0.010095806,-0.8048675,0.0,0.0,-0.0,0,0,0,0,0
21946529,0.0153204,-0.013247161,-1.8696251,0.0,0.5939796,-0.0007786159,-0.010096401,-0.8044164,0.0,0.0,-0.0,0,0,0,0,0
22040628,0.015320212,-0.011775254,-1.8683754,0.0,0.59448034,-0.00018057849,-0.0096593555,-0.8040522,0.0,0.0,-0.0,0,0,0,0,0
22144992,0.0153204,-0.013247161,-1.8658183,0.0,0.5955097,-0.0007593963,-0.010097864,-0.8032843,0.0,0.0,-0.0,0,0,0,0,0
22239316,0.015320212,-0.011775254,-1.8652235,0.0,0.5957467,-0.00016535558,-0.009659628,-0.80311424,0.0,0.0,-0.0,0,0,0,0,0
22343509,0.0153204,-0.013247161,-1.8638403,0.0,0.5963038,-0.0007494098,-0.01009861,-0.802695,0.0,0.0,-0.0,0,0,0,0,0
22442866,0.015320212,-0.011775254,-1.8620355,0.0,0.59702617,-0.0001499577,-0.00965988,-0.8021636,0.0,0.0,-0.0,0,0,0,0,0
22542233,0.0153204,-0.013247161,-1.8604803,0.0,0.59765154,-0.0007324432,-0.010099855,-0.8016921,0.0,0.0,-0.0,0,0,0,0,0
22641552,0.015320212,-0.011775254,-1.8587873,0.0,0.5983282,-0.00013426898,-0.009660111,-0.80119294,0.0,0.0,-0.01623011,0,0,0,0,0
22740943,0.0153204,-0.013247161,-1.8570125,0.0,0.5990406,-0.0007149297,-0.01010111,-0.8006546,0.0,0.0,-0.01747858,0,0,0,0,0
22845134,0.0153204,-0.013247161,-1.8556564,0.0,0.59958345,-0.00070808025,-0.010101592,-0.8002482,0.0,0.0,-0.01872705,0,0,0,0,0
22939377,0.0153204,-0.013247161,-1.855028,0.0,0.5998348,-0.0007049064,-0.010101815,-0.8000598,0.0,0.0,-0.01872705,0,0,0,0,0
23043811,0.0153204,-0.013247161,-1.8535159,0.0,0.6004395,-0.0006972687,-0.010102344,-0.799606,0.0,0.0,-0.03995104,0,0,0,0,0
23142897,0.0153204,-0.013247161,-1.8528574,0.0,0.60070276,-0.0006939426,-0.010102573,-0.7994083,0.0,0.0,-0.05493268,0,0,0,0,0
23242267,0.015320212,-0.011775254,-1.8520294,0.0,0.6010319,-0.000101627105,-0.0096605085,-0.7991666,0.0,0.0,-0.16736841,0,0,0,0,0
23341600,0.0153204,-0.013247161,-1.8520406,0.0,0.60102916,-0.00068981684,-0.010102857,-0.799163,0.0,0.0,-0.2136842,0,0,0,0,0
23440760,0.015320212,-0.011775254,-1.8520294,0.0,0.6010319,-0.000101627105,-0.0096605085,-0.7991666,0.0,0.0,-0.21789475,0,0,0,0,0
23545213,0.015320212,-0.011775254,-1.8520294,0.0,0.6010319,-0.000101627105,-0.0096605085,-0.7991666,0.0,0.0,-0.22421053,0,0,0,0,0
23639362,0.0153204,-0.013247161,-1.8520406,0.0,0.60102916,-0.00068981684,-0.010102857,-0.799163,0.0,0.0,-0.22421053,0,0,0,0,0
23743648,0.0153204,-0.013247161,-1.8520406,0.0,0.60102916,-0.00068981684,-0.010102857,-0.799163,0.0,0.0,-0.23263158,0,0,0,0,0
23842952,0.0153204,-0.013247161,-1.8520406,0.0,0.60102916,-0.00068981684,-0.010102857,-0.799163,0.0,0.0,-0.23578948,0,0,0,0,0
23942287,0.015320212,-0.011775254,-1.8520294,0.0,0.6010319,-0.000101627105,-0.0096605085,-0.7991666,0.0,0.0,-0.23789474,0,0,0,0,0
24041498,0.0153204,-0.013247161,-1.8520406,0.0,0.60102916,-0.00068981684,-0.010102857,-0.799163,0.0,0.0,-0.24,0,0,0,0,0
24140889,0.015320212,-0.011775254,-1.8520294,0.0,0.6010319,-0.000101627105,-0.0096605085,-0.7991666,0.0,0.0,-0.26842105,0,0,0,0,0
24245060,0.0153204,-0.013247161,-1.8520406,0.0,0.60102916,-0.00068981684,-0.010102857,-0.799163,0.0,0.0,-0.2905263,0,0,0,0,0
24339658,0.015320212,-0.011775254,-1.8520294,0.0,0.6010319,-0.000101627105,-0.0096605085,-0.7991666,0.0,0.0,-0.3031579,0,0,0,0,0
24443732,0.015320212,-0.011775254,-1.8520294,0.0,0.6010319,-0.000101627105,-0.0096605085,-0.7991666,0.0,0.0,-0.3042105,0,0,0,0,0
24542997,0.015320212,-0.011775254,-1.8520294,0.0,0.6010319,-0.000101627105,-0.0096605085,-0.7991666,0.0,0.0,-0.3042105,0,0,0,0,0
24642407,0.0153204,-0.013247161,-1.8520406,0.0,0.60102916,-0.00068981684,-0.010102857,-0.799163,0.0,0.0,-0.31157896,0,0,0,0,0
24741568,0.0153204,-0.013247161,-1.8520406,0.0,0.60102916,-0.00068981684,-0.010102857,-0.799163,0.0,0.0,-0.32947367,0,0,0,0,0
24840897,0.0153204,-0.013247161,-1.8520406,0.0,0.60102916,-0.00068981684,-0.010102857,-0.799163,0.0,0.0,-0.33473685,0,0,0,0,0
24945170,0.0153204,-0.013247161,-1.8520406,0.0,0.60102916,-0.00068981684,-0.010102857,-0.799163,0.0,0.0,-0.3442105,0,0,0,0,0
25039539,0.0153204,-0.013247161,-1.8520406,0.0,0.60102916,-0.00068981684,-0.010102857,-0.799163,0.0,0.0,-0.34526318,0,0,0,0,0
25143886,0.0153204,-0.013247161,-1.8520406,0.0,0.60102916,-0.00068981684,-0.010102857,-0.799163,0.0,0.0,-0.35473683,0,0,0,0,0
25243070,0.0153204,-0.013247161,-1.8520406,0.0,0.60102916,-0.00068981684,-0.010102857,-0.799163,0.0,0.0,-0.36947367,0,0,0,0,0
25342383,0.015320212,-0.011775254,-1.8520294,0.0,0.6010319,-0.000101627105,-0.0096605085,-0.7991666,0.0,0.0,-0.38315788,0,0,0,0,0
25441662,0.0153204,-0.013247161,-1.8520406,0.0,0.60102916,-0.00068981684,-0.010102857,-0.799163,0.0,0.0,-0.3863158,0,0,0,0,0
25540998,0.0153204,-0.013247161,-1.8520406,0.0,0.60102916,-0.00068981684,-0.010102857,-0.799163,0.0,0.0,-0.3863158,0,0,0,0,0
25645229,0.0153204,-0.013247161,-1.8520406,0.0,0.60102916,-0.00068981684,-0.010102857,-0.799163,0.0,0.0,-0.3873684,0,0,0,0,0
25739667,0.01723545,-0.013247025,-1.8520534,0.0,0.60102445,-0.00011433078,-0.010868028,-0.79915667,0.0,0.0,-0.41157895,0,0,0,0,0
25843803,0.01723545,-0.013247025,-1.8520534,0.0,0.60102445,-0.00011433078,-0.010868028,-0.79915667,0.0,0.0,-0.41157895,0,0,0,0,0
25943220,0.01723545,-0.013247025,-1.8520534,0.0,0.60102445,-0.00011433078,-0.010868028,-0.79915667,0.0,0.0,-0.41157895,0,0,0,0,0
26042554,0.01723545,-0.013247025,-1.8520534,0.0,0.60102445,-0.00011433078,-0.010868028,-0.79915667,0.0,0.0,-0.41578946,0,0,0,0,0
26141676,0.01723545,-0.013247025,-1.8520534,0.0,0.60102445,-0.00011433078,-0.010868028,-0.79915667,0.0,0.0,-0.41894737,0,0,0,0,0
26241156,0.01723545,-0.013247025,-1.8520534,0.0,0.60102445,-0.00011433078,-0.010868028,-0.79915667,0.0,0.0,-0.42526317,0,0,0,0,0
26345334,0.01723545,-0.013247025,-1.8520534,0.0,0.60102445,-0.00011433078,-0.010868028,-0.79915667,0.0,0.0,-0.45157897,0,0,0,0,0
26439670,0.01723545,-0.013247025,-1.8520534,0.0,0.60102445,-0.00011433078,-0.010868028,-0.79915667,0.0,0.0,-0.46736842,0,0,0,0,0
26543951,0.01723545,-0.013247025,-1.8520534,0.0,0.60102445,-0.00011433078,-0.010868028,-0.79915667,0.0,0.0,-0.4694737,0,0,0,0,0
26643245,0.01723545,-0.013247025,-1.8520534,0.0,0.60102445,-0.00011433078,-0.010868028,-0.79915667,0.0,0.0,-0.4768421,0,0,0,0,0
26742476,0.01723545,-0.013247025,-1.8520534,0.0,0.60102445,-0.00011433078,-0.010868028,-0.79915667,0.0,0.0,-0.4768421,0,0,0,0,0
26841827,0.019150501,-0.01324687,-1.852066,0.0,0.6010192,0.0004611532,-0.011633192,-0.7991498,0.0,0.0,-0.4768421,0,0,0,0,0
26941032,0.019162685,-0.04562811,-1.8523765,0.0,0.600876,-0.012477963,-0.021363407,-0.7989593,0.0,0.0,-0.47473684,0,0,0,0,0
27045601,0.019185433,-0.07506558,-1.8526597,0.0,0.60060906,-0.024237169,-0.030205417,-0.7986044,0.0,0.0,-0.47368422,0,0,0,0,0
27139650,0.017269488,-0.07801024,-1.8526132,0.0,0.60058045,-0.025988212,-0.03032443,-0.7985663,0.0,0.0,-0.49157897,0,0,0,0,0
27243949,0.017268177,-0.076538354,-1.8526003,0.0,0.60059756,-0.02540041,-0.029882465,-0.798589,0.0,0.0,-0.51299876,0,0,0,0,0
27343302,0.017269488,-0.07801024,-1.8526132,0.0,0.60058045,-0.025988212,-0.03032443,-0.7985663,0.0,0.0,-0.51779675,0,0,0,0,0
27442655,0.017272193,-0.08095402,-1.8526387,0.0,0.60054535,-0.027163766,-0.031208327,-0.79851955,0.0,0.0,-0.52019584,0,0,0,0,0
27541829,0.017270828,-0.07948213,-1.852626,0.0,0.600563,-0.026576,-0.030766383,-0.79854316,0.0,0.0,-0.51899636,0,0,0,0,0
27641239,0.017270828,-0.07948213,-1.852626,0.0,0.600563,-0.026576,-0.030766383,-0.79854316,0.0,0.0,-0.51779675,0,0,0,0,0
27745357,0.017270828,-0.07948213,-1.852626,0.0,0.600563,-0.026576,-0.030766383,-0.79854316,0.0,0.0,-0.51779675,0,0,0,0,0
27839906,0.017269488,-0.07801024,-1.8526132,0.0,0.60058045,-0.025988212,-0.03032443,-0.7985663,0.0,0.0,-0.51779675,0,0,0,0,0
27944023,0.01726689,-0.07506647,-1.8525876,0.0,0.6006143,-0.024812596,-0.029440487,-0.7986113,0.0,0.0,-0.51779675,0,0,0,0,0
28043315,0.019185433,-0.07506558,-1.8526597,0.0,0.60060906,-0.024237169,-0.030205417,-0.7986044,0.0,0.0,-0.5153978,0,0,0,0,0
28142644,0.019189809,-0.07948121,-1.8527023,0.0,0.60055774,-0.026000584,-0.031531293,-0.7985362,0.0,0.0,-0.50421053,0,0,0,0,0
28241851,0.019189809,-0.07948121,-1.8527023,0.0,0.60055774,-0.026000584,-0.031531293,-0.7985362,0.0,0.0,-0.50421053,0,0,0,0,0
28341217,0.019191327,-0.08095309,-1.8528976,-0.012148463,0.60046774,-0.026591258,-0.03197082,-0.79856706,0.0,0.0,-0.50421053,0,0,0,0,0
28445477,0.019192869,-0.08242495,-1.8535169,0.0,0.600208,-0.027188856,-0.032404456,-0.79872465,0.0,0.0,-0.50526315,0,0,0,0,0
28539873,0.019194439,-0.08389682,-1.8535311,0.0,0.6001896,-0.027776768,-0.032846127,-0.79870015,0.0,0.0,-0.50526315,0,0,0,0,0
28644297,0.019194439,-0.08389682,-1.8535311,0.0,0.6001896,-0.027776768,-0.032846127,-0.79870015,0.0,0.0,-0.5141983,0,0,0,0,0
28738486,0.017276438,-0.08536971,-1.8534634,0.0,0.60017616,-0.028939776,-0.03252269,-0.7986822,0.0,0.0,-0.52499384,0,0,0,0,0
28842757,0.017274993,-0.08389781,-1.8534507,0.0,0.6001949,-0.028351877,-0.03208102,-0.7987071,0.0,0.0,-0.5273929,0,0,0,0,0
28942005,0.017274993,-0.08389781,-1.8534507,0.0,0.6001949,-0.028351877,-0.03208102,-0.7987071,0.0,0.0,-0.5031579,0,0,0,0,0
29041342,0.017272193,-0.08095402,-1.853425,0.0,0.6002313,-0.027176034,-0.031197645,-0.79875565,0.0,0.0,-0.5021053,0,0,0,0,0
29145538,0.019191327,-0.08095309,-1.8535028,0.0,0.60022604,-0.026600933,-0.031962775,-0.79874873,0.0,0.0,-0.5010526,0,0,0,0,0
29239897,0.019194439,-0.08389682,-1.8535311,0.0,0.6001896,-0.027776768,-0.032846127,-0.79870015,0.0,0.0,-0.5010526,0,0,0,0,0
29344169,0.019189809,-0.07948121,-1.8534886,0.0,0.6002438,-0.026012981,-0.03152107,-0.7987723,0.0,0.0,-0.5010526,0,0,0,0,0
29438510,0.019182654,-0.07212184,-1.8534175,0.0,0.6003276,-0.023073006,-0.029312361,-0.79888374,0.0,0.0,-0.5,0,0,0,0,0
29542813,0.021130828,-0.09714244,-1.8537527,0.0,0.6000038,-0.03249214,-0.037585467,-0.7984529,0.0,0.0,-0.52499384,0,0,0,0,0
29642040,0.021134943,-0.100086145,-1.853965,-0.012148463,0.59988797,-0.03367106,-0.038465403,-0.79844916,0.0,0.0,-0.52379435,0,0,0,0,0
29741384,0.021145757,-0.10744541,-1.8560063,-0.0060742316,0.59898967,-0.036649413,-0.040636327,-0.79888475,0.0,0.0,-0.5213953,0,0,0,0,0
29845766,0.021157358,-0.114804685,-1.8571403,0.0,0.5984456,-0.039612077,-0.04281895,-0.79903716,0.0,0.0,-0.5213953,0,0,0,0,0
29939931,0.021164695,-0.11922026,-1.8577302,0.0,0.5981514,-0.04138851,-0.04412866,-0.7990961,0.0,0.0,-0.5153978,0,0,0,0,0
30044285,0.021174919,-0.12510766,-1.8577933,0.0,0.5980437,-0.043741245,-0.04588898,-0.7989522,0.0,0.0,-0.50421053,0,0,0,0,0
30138551,0.021182913,-0.1295232,-1.8578408,0.0,0.5979595,-0.045505516,-0.04720898,-0.79883975,0.0,0.0,-0.50421053,0,0,0,0,0
30242930,0.021167202,-0.12069209,-1.857746,0.0,0.5981249,-0.041976724,-0.044568762,-0.79906076,0.0,0.0,-0.50421053,0,0,0,0,0
30342093,0.021180218,-0.12805137,-1.857825,0.0,0.59798783,-0.044917457,-0.046769,-0.79887766,0.0,0.0,-0.50631577,0,0,0,0,0
30441440,0.021177553,-0.12657952,-1.8578092,0.0,0.5980159,-0.044329368,-0.046329003,-0.7989152,0.0,0.0,-0.5031579,0,0,0,0,0
30545652,0.021172315,-0.12363582,-1.8577776,0.0,0.5980711,-0.043153103,-0.045448933,-0.7989889,0.0,0.0,-0.5021053,0,0,0,0,0
30640006,0.01924063,-0.1192218,-1.8576154,0.0,0.5981571,-0.04196206,-0.043362755,-0.7991038,0.0,0.0,-0.5031579,0,0,0,0,0
30744248,0.019215496,-0.1015593,-1.8575646,0.0,0.5984008,-0.034903925,-0.038077604,-0.7995301,0.0,0.0,-0.5010526,0,0,0,0,0
30838590,0.019217433,-0.10303118,-1.8575788,0.0,0.5983783,-0.035492443,-0.038517926,-0.7995,0.0,0.0,-0.5031579,0,0,0,0,0
30942965,0.01920272,-0.09125621,-1.8434542,0.0,0.6041371,-0.030537825,-0.035209663,-0.79551625,0.0,0.0,-0.5117993,0,0,0,0,0
31042142,0.019197669,-0.08684058,-1.8434116,0.0,0.60419655,-0.028781038,-0.033875898,-0.7955945,0.0,0.0,-0.5141983,0,0,0,0,0
31141483,0.01726689,-0.07506647,-1.8432258,0.0,0.60434586,-0.02467452,-0.029556306,-0.7957912,0.0,0.0,-0.52019584,0,0,0,0,0
31245668,0.01725244,-0.055931877,-1.84306,0.0,0.6045354,-0.017058583,-0.023773685,-0.7960407,0.0,0.0,-0.52499384,0,0,0,0,0
31340158,0.017238934,-0.027965939,-1.8428185,0.0,0.6047128,-0.0059244204,-0.015319146,-0.79627424,0.0,0.0,-0.5261934,0,0,0,0,0
31444322,0.01723545,-0.013247025,-1.8441392,-0.066816546,0.60418206,-7.132427e-05,-0.010868396,-0.7967722,0.0,0.0,-0.50842106,0,0,0,0,0
31538667,0.017235689,-0.014718916,-1.8489183,-0.03037116,0.6022784,-0.0006847151,-0.011311462,-0.79820573,0.0,0.0,-0.50842106,0,0,0,0,0
31642990,0.01723595,-0.016190805,-1.8504685,0.0,0.60166115,-0.0012812371,-0.011753741,-0.79866385,0.0,0.0,-0.50842106,0,0,0,0,0
31742203,0.017238934,-0.027965939,-1.85057,0.0,0.6016221,-0.0059837485,-0.01529607,-0.798612,0.0,0.0,-0.50631577,0,0,0,0,0
31841544,0.019164454,-0.04857185,-1.8507944,0.0,0.60149825,-0.013636163,-0.02225878,-0.7984476,0.0,0.0,-0.5,0,0,0,0,0
31945865,0.0191762,-0.064762466,-1.8509501,0.0,0.6013602,-0.02010017,-0.027127424,-0.7982643,0.0,0.0,-0.51779675,0,0,0,0,0
32040109,0.019185433,-0.07506558,-1.8510494,0.0,0.60125184,-0.024212843,-0.030224921,-0.7981206,0.0,0.0,-0.5153978,0,0,0,0,0
32144608,0.021112153,-0.08242389,-1.8511995,0.0,0.6011589,-0.026573988,-0.033201426,-0.7979972,0.0,0.0,-0.5094737,0,0,0,0,0
32238718,0.019191327,-0.08095309,-1.8511062,0.0,0.6011828,-0.026562613,-0.03199463,-0.7980289,0.0,0.0,-0.5094737,0,0,0,0,0
32343074,0.02110715,-0.07800834,-1.8511527,0.0,0.6012122,-0.024811722,-0.031874243,-0.7980679,0.0,0.0,-0.50842106,0,0,0,0,0
32442376,0.019156702,-0.03385311,-1.8506532,0.0,0.6015895,-0.0077587874,-0.017831758,-0.79856867,0.0,0.0,-0.5094737,0,0,0,0,0
32541550,0.021096567,-0.06770535,-1.8510433,0.0,0.60132515,-0.020699231,-0.028776988,-0.79821783,0.0,0.0,-0.47789475,0,0,0,0,0
32645869,0.02112299,-0.09125503,-1.8512934,0.0,0.6010436,-0.030098064,-0.035855398,-0.79784405,0.0,0.0,-0.47052634,0,0,0,0,0
32740209,0.021130828,-0.09714244,-1.8520806,0.0,0.6006712,-0.0324607,-0.03761262,-0.797951,0.0,0.0,-0.46842104,0,0,0,0,0
32844468,0.021132872,-0.0986143,-1.8520962,0.0,0.6006495,-0.033048064,-0.038054615,-0.79792213,0.0,0.0,-0.46421054,0,0,0,0,0
32938799,0.021130828,-0.09714244,-1.8520806,0.0,0.6006712,-0.0324607,-0.03761262,-0.797951,0.0,0.0,-0.46421054,0,0,0,0,0
33043090,0.019209852,-0.097143695,-1.8519871,0.0,0.600677,-0.033036403,-0.0368481,-0.7979586,0.0,0.0,-0.44105265,0,0,0,0,0
33142347,0.021141335,-0.10450172,-1.852159,0.0,0.60055965,-0.03539732,-0.0398224,-0.7978028,0.0,0.0,-0.44842106,0,0,0,0,0
33241796,0.019209852,-0.097143695,-1.8615991,0.0,0.5968351,-0.033213116,-0.036688905,-0.80083627,0.0,0.0,-0.48842105,0,0,0,0,0
33340849,0.0172779,-0.08684159,-1.861416,0.0,0.5969819,-0.02965828,-0.032846857,-0.8010332,0.0,0.0,-0.5261934,0,0,0,0,0
33440168,0.017282445,-0.09125726,-1.8616956,0.0,0.5968265,-0.03143116,-0.03416091,-0.8010264,0.0,0.0,-0.5165973,0,0,0,0,0
33544585,0.017276438,-0.08536971,-1.8644667,-0.06074232,0.59577304,-0.029118266,-0.032362986,-0.8019721,0.0,0.0,-0.51779675,0,0,0,0,0
33638824,0.019197669,-0.08684058,-1.8659502,-0.06074232,0.5951925,-0.029160962,-0.03354941,-0.8023527,0.0,0.0,-0.5405875,0,0,0,0,0
33743172,0.017287219,-0.095672935,-1.868658,0.0,0.59398854,-0.03332254,-0.035363246,-0.8030048,0.0,0.0,-0.539388,0,0,0,0,0
33842396,0.017282445,-0.09125726,-1.8724154,-0.07289078,0.5925245,-0.031613804,-0.03399195,-0.80421376,0.0,0.0,-0.5573806,0,0,0,0,0
33941684,0.0134419035,-0.091259055,-1.8763416,-0.012148463,0.5908827,-0.032815915,-0.032383755,-0.805439,0.0,0.0,-0.5537821,0,0,0,0,0
34041177,0.019194439,-0.08389682,-1.8765334,0.0,0.5909642,-0.028152691,-0.032524496,-0.80555004,0.0,0.0,-0.5573806,0,0,0,0,0
34140371,0.017274993,-0.08389781,-1.8764529,0.0,0.5909693,-0.028718963,-0.031752825,-0.80555713,0.0,0.0,-0.5465851,0,0,0,0,0
34244593,0.019206228,-0.09419994,-1.876633,0.0,0.59082854,-0.032302883,-0.035568234,-0.80536515,0.0,0.0,-0.50842106,0,0,0,0,0
34338919,0.019209852,-0.097143695,-1.8767822,-0.0060742316,0.59073836,-0.03349068,-0.036435712,-0.80534405,0.0,0.0,-0.50842106,0,0,0,0,0
34443188,0.019213583,-0.10008744,-1.877233,0.0,0.5905254,-0.034684125,-0.03729774,-0.80541027,0.0,0.0,-0.50842106,0,0,0,0,0
34542458,0.019201009,-0.08978432,-1.8771333,0.0,0.59066993,-0.030533638,-0.034255583,-0.8056074,0.0,0.0,-0.5213953,0,0,0,0,0
34641874,0.019155482,-0.030909363,-1.8765668,0.0,0.59119505,-0.006802475,-0.016859446,-0.8063236,0.0,0.0,-0.49473685,0,0,0,0,0
34741024,0.019170444,-0.057403095,-1.876821,0.0,0.59102213,-0.017483864,-0.024689866,-0.8060878,0.0,0.0,-0.49473685,0,0,0,0,0
34840546,0.01725969,-0.06623512,-1.8775662,0.0,0.5906549,-0.021619286,-0.026519563,-0.8061985,0.0,0.0,-0.49578947,0,0,0,0,0
34944623,0.017256431,-0.06181944,-1.877528,0.0,0.5906967,-0.019839017,-0.025215516,-0.8062556,0.0,0.0,-0.49789476,0,0,0,0,0
35038986,0.017258579,-0.06476322,-1.8775535,0.0,0.59066916,-0.021025872,-0.026084889,-0.80621797,0.0,0.0,-0.49578947,0,0,0,0,0
35143389,0.017258579,-0.06476322,-1.8775535,0.0,0.59066916,-0.021025872,-0.026084889,-0.80621797,0.0,0.0,-0.49789476,0,0,0,0,0
35242446,0.0,-0.04415893,-1.8763068,0.069225796,0.59113413,-0.017804926,-0.013054048,-0.806271,0.0,0.0,-0.5,0,0,0,0,0
35341845,0.0,-0.04710286,-1.8663042,0.119571835,0.59513915,-0.018921833,-0.014018971,-0.8032775,0.0,0.0,-0.5,0,0,0,0,0
35441145,0.0,-0.045630895,-1.8511246,0.18879764,0.6012289,-0.018227026,-0.013719686,-0.7987511,0.0,0.0,-0.5,0,0,0,0,0
35540407,0.0,-0.030911254,-1.8276278,0.30207622,0.6106573,-0.012237877,-0.009438843,-0.7917442,0.0,0.0,-0.5021053,0,0,0,0,0
35644765,0.0,-0.023551432,-1.7937182,0.2894897,0.624024,-0.0092009865,-0.007348669,-0.78131646,0.0,0.0,-0.5,0,0,0,0,0
35738973,0.0,-0.022079466,-1.765761,0.25173017,0.6348897,-0.0085288035,-0.0070092976,-0.7725239,0.0,0.0,-0.49894738,0,0,0,0,0
35843302,0.015328815,-0.0426853,-1.7436228,0.2202639,0.6434007,-0.011405564,-0.019596966,-0.76519364,0.0,0.0,-0.5021053,0,0,0,0,0
35942635,0.017257493,-0.06329132,-1.73101,0.03146627,0.64811486,-0.018500041,-0.027077045,-0.7608362,0.0,0.0,-0.5031579,0,0,0,0,0
36041947,0.019192869,-0.08242495,-1.731255,0.0,0.64788324,-0.02515839,-0.03400497,-0.7605642,0.0,0.0,-0.50421053,0,0,0,0,0
36141218,0.019204456,-0.09272807,-1.7313547,0.0,0.6477371,-0.029076882,-0.037341975,-0.7603926,0.0,0.0,-0.50421053,0,0,0,0,0
36240513,0.019209852,-0.097143695,-1.7313974,0.0,0.6476691,-0.030755965,-0.03877186,-0.7603128,0.0,0.0,-0.50526315,0,0,0,0,0
36344753,0.019196043,-0.08536871,-1.7312835,0.0,0.64784324,-0.026278045,-0.034958486,-0.76051736,0.0,0.0,-0.50421053,0,0,0,0,0
36439119,0.01920272,-0.09125621,-1.7313404,0.0,0.647759,-0.028517148,-0.036865316,-0.76041836,0.0,0.0,-0.5031579,0,0,0,0,0
36543430,0.019199323,-0.08831245,-1.7313119,0.0,0.6478018,-0.027397627,-0.035911933,-0.7604686,0.0,0.0,-0.49894738,0,0,0,0,0
36642603,0.017269488,-0.07801024,-1.7311376,0.0,0.6479463,-0.024099585,-0.031846005,-0.7606383,0.0,0.0,-0.50421053,0,0,0,0,0
36742026,0.017270828,-0.07948213,-1.7311504,0.0,0.6479275,-0.024659459,-0.032322828,-0.7606162,0.0,0.0,-0.50421053,0,0,0,0,0
36841346,0.017244209,-0.04121296,-1.730819,0.0,0.6483019,-0.010098573,-0.019921381,-0.76105565,0.0,0.0,-0.50421053,0,0,0,0,0
36940643,0.01723545,-0.013247025,-1.7305778,0.0,0.64842534,0.0005455739,-0.010854928,-0.7612007,0.0,0.0,-0.5021053,0,0,0,0,0
37044784,0.01915172,-0.019134369,-1.7306468,0.0,0.6484043,-0.0010745499,-0.01349263,-0.7611758,0.0,0.0,-0.5021053,0,0,0,0,0
37139143,0.017238934,-0.027965939,-1.7307047,0.0,0.6483762,-0.00505682,-0.015627014,-0.7611429,0.0,0.0,-0.5010526,0,0,0,0,0
37243443,0.017238477,-0.026494049,-1.730692,0.0,0.64838266,-0.004496597,-0.01514983,-0.76115054,0.0,0.0,-0.5,0,0,0,0,0
37342783,0.01723804,-0.025022157,-1.7306793,0.0,0.64838886,-0.0039363694,-0.014672639,-0.76115775,0.0,0.0,-0.5,0,0,0,0,0
37441980,0.01723545,-0.013247025,-1.7305778,0.0,0.64842534,0.0005455739,-0.010854928,-0.7612007,0.0,0.0,-0.5,0,0,0,0,0
37541499,0.019150501,-0.01324687,-1.7305905,0.0,0.64841974,0.0011664436,-0.011583748,-0.761194,0.0,0.0,-0.5,0,0,0,0,0
37640623,0.01723545,-0.013247025,-1.7305778,0.0,0.64842534,0.0005455739,-0.010854928,-0.7612007,0.0,0.0,-0.5010526,0,0,0,0,0
37744875,0.01723545,-0.013247025,-1.7305778,0.0,0.64842534,0.0005455739,-0.010854928,-0.7612007,0.0,0.0,-0.5021053,0,0,0,0,0
37839267,0.01723545,-0.013247025,-1.7305778,0.0,0.64842534,0.0005455739,-0.010854928,-0.7612007,0.0,0.0,-0.5031579,0,0,0,0,0
37943473,0.019150501,-0.01324687,-1.7305905,0.0,0.64841974,0.0011664436,-0.011583748,-0.761194,0.0,0.0,-0.5031579,0,0,0,0,0
38042912,0.019151056,-0.016190618,-1.7306187,0.0,0.6484127,4.594279e-05,-0.012538197,-0.76118577,0.0,0.0,-0.5021053,0,0,0,0,0
38142175,0.019156702,-0.03385311,-1.7307879,0.0,0.64834106,-0.0066767926,-0.018264469,-0.76110166,0.0,0.0,-0.5031579,0,0,0,0,0
38241323,0.017243523,-0.039741073,-1.7308064,0.0,0.6483115,-0.0095384065,-0.019444259,-0.76106703,0.0,0.0,-0.5021053,0,0,0,0,0
38340906,0.01724801,-0.04857242,-1.7308826,0.0,0.6482483,-0.012899304,-0.022306858,-0.7609928,0.0,0.0,-0.5021053,0,0,0,0,0
38444880,0.01916634,-0.0515156,-1.7309574,0.0,0.64821887,-0.013398686,-0.023989692,-0.7609582,0.0,0.0,-0.5021053,0,0,0,0,0
38539227,0.017246414,-0.04562864,-1.7308571,0.0,0.64827085,-0.011779037,-0.021352695,-0.7610192,0.0,0.0,-0.5010526,0,0,0,0,0
38643610,0.019169375,-0.05593123,-1.7309998,0.0,0.6481803,-0.015078968,-0.025420781,-0.76091295,0.0,0.0,-0.50421053,0,0,0,0,0
38742762,0.021089928,-0.06034607,-1.7311002,0.0,0.64813244,-0.01613832,-0.027580429,-0.7608568,0.0,0.0,-0.50421053,0,0,0,0,0
38842171,0.021097988,-0.06917721,-1.7311937,0.0,0.6480398,-0.019498404,-0.030442042,-0.760748,0.0,0.0,-0.50421053,0,0,0,0,0
38941462,0.019178698,-0.06770621,-1.7311132,0.0,0.6480623,-0.019559229,-0.029236509,-0.76077443,0.0,0.0,-0.49157897,0,0,0,0,0
39040766,0.017246414,-0.04562864,-1.7308571,0.0,0.64827085,-0.011779037,-0.021352695,-0.7610192,0.0,0.0,-0.49263158,0,0,0,0,0
39145086,0.02110879,-0.07948019,-1.731303,0.0,0.64791566,-0.023417894,-0.03377996,-0.7606023,0.0,0.0,-0.48210526,0,0,0,0,0
39239279,0.019178698,-0.06770621,-1.7311132,0.0,0.6480623,-0.019559229,-0.029236509,-0.76077443,0.0,0.0,-0.48210526,0,0,0,0,0
39343597,0.01726689,-0.07506647,-1.731112,0.0,0.64798284,-0.022979792,-0.030892333,-0.76068115,0.0,0.0,-0.48105264,0,0,0,0,0
39442959,0.019182654,-0.07212184,-1.7311556,0.0,0.64801234,-0.02123913,-0.030667204,-0.7607157,0.0,0.0,-0.48105264,0,0,0,0,0
39542160,0.017253403,-0.057403766,-1.7309589,0.0,0.6481725,-0.016259873,-0.025169106,-0.7609038,0.0,0.0,-0.48210526,0,0,0,0,0
39641513,0.019170444,-0.057403095,-1.731014,0.0,0.64816684,-0.015639037,-0.025897788,-0.7608971,0.0,0.0,-0.48210526,0,0,0,0,0
39740860,0.02110715,-0.07800834,-1.7312874,0.0,0.6479345,-0.022858009,-0.033303156,-0.7606244,0.0,0.0,-0.48210526,0,0,0,0,0
39845022,0.02110715,-0.07800834,-1.7312874,0.0,0.6479345,-0.022858009,-0.033303156,-0.7606244,0.0,0.0,-0.48210526,0,0,0,0,0
39939481,0.021112153,-0.08242389,-1.7313342,0.0,0.64787704,-0.024537614,-0.034733515,-0.760557,0.0,0.0,-0.4831579,0,0,0,0,0
40043687,0.017253403,-0.057403766,-1.7309589,0.0,0.6481725,-0.016259873,-0.025169106,-0.7609038,0.0,0.0,-0.48210526,0,0,0,0,0
40142958,0.021096567,-0.06770535,-1.731178,0.0,0.64805615,-0.018938415,-0.029965138,-0.7607672,0.0,0.0,-0.48210526,0,0,0,0,0
40242376,0.021124903,-0.09272687,-1.7314438,0.0,0.64773077,-0.028456137,-0.038070448,-0.7603853,0.0,0.0,-0.48210526,0,0,0,0,0
40341582,0.019209852,-0.097143695,-1.7313974,0.0,0.6476691,-0.030755965,-0.03877186,-0.7603128,0.0,0.0,-0.48210526,0,0,0,0,0
40440871,0.017288864,-0.09714482,-1.731304,0.0,0.64767474,-0.031376682,-0.038043395,-0.7603194,0.0,0.0,-0.4831579,0,0,0,0,0
40545283,0.017274993,-0.08389781,-1.7311888,0.0,0.6478691,-0.026339,-0.03375319,-0.76054764,0.0,0.0,-0.48736843,0,0,0,0,0
40639433,0.017263178,-0.07065078,-1.7310737,0.0,0.64803493,-0.021299984,-0.029461697,-0.7607424,0.0,0.0,-0.5165973,0,0,0,0,0
40743750,0.017263178,-0.07065078,-1.7310737,0.0,0.64803493,-0.021299984,-0.029461697,-0.7607424,0.0,0.0,-0.5261934,0,0,0,0,0
40843106,0.011502266,-0.057405353,-1.7307938,0.0,0.6481859,-0.018122377,-0.022982985,-0.7609195,0.0,0.0,-0.51299876,0,0,0,0,0
40942269,0.017257493,-0.06329132,-1.73101,0.0,0.64811486,-0.018500041,-0.027077045,-0.7608362,0.0,0.0,-0.51779675,0,0,0,0,0
41041667,0.017238934,-0.027965939,-1.7307047,0.0,0.6483762,-0.00505682,-0.015627014,-0.7611429,0.0,0.0,-0.5153978,0,0,0,0,0
41140875,0.017238934,-0.027965939,-1.7307047,0.0,0.6483762,-0.00505682,-0.015627014,-0.7611429,0.0,0.0,-0.5117993,0,0,0,0,0
41245134,0.017244916,-0.042684853,-1.7308317,0.0,0.6482919,-0.010658737,-0.020398492,-0.7610439,0.0,0.0,-0.50842106,0,0,0,0,0
41339525,0.01724801,-0.04857242,-1.7326893,-0.06074232,0.64756066,-0.012919449,-0.022295196,-0.7615781,0.0,0.0,-0.5213953,0,0,0,0,0
41443687,0.017253403,-0.057403766,-1.7433516,-0.097187705,0.6434453,-0.016415516,-0.025067873,-0.7649054,0.0,0.0,-0.5717748,0,0,0,0,0
41538148,0.01724801,-0.04857242,-1.7454488,0.0,0.64268875,-0.013061424,-0.02221232,-0.76569384,0.0,0.0,-0.5297919,0,0,0,0,0
41642411,0.019167325,-0.05298748,-1.7455378,0.0,0.6426472,-0.014136614,-0.024364423,-0.7656443,0.0,0.0,-0.5297919,0,0,0,0,0
41741574,0.019178698,-0.06770621,-1.7456794,0.0,0.6425044,-0.019771643,-0.029093282,-0.7654742,0.0,0.0,-0.5297919,0,0,0,0,0
41841183,0.019177435,-0.06623435,-1.7456652,0.0,0.6425203,-0.019208197,-0.02862046,-0.76549304,0.0,0.0,-0.5261934,0,0,0,0,0
41945297,0.017254384,-0.058875654,-1.7455379,0.0,0.6425999,-0.017006269,-0.025522927,-0.76558787,0.0,0.0,-0.52499384,0,0,0,0,0
42039592,0.017246414,-0.04562864,-1.7454233,0.0,0.6427111,-0.011934237,-0.021266341,-0.76572037,0.0,0.0,-0.5010526,0,0,0,0,0
42143912,0.01723804,-0.025022157,-1.7452455,0.0,0.6428281,-0.0040431265,-0.014643582,-0.76585984,0.0,0.0,-0.5010526,0,0,0,0,0
42243138,0.019160232,-0.041212477,-1.7454247,0.0,0.6427363,-0.009627856,-0.020580554,-0.76575047,0.0,0.0,-0.5021053,0,0,0,0,0
42342461,0.017246414,-0.04562864,-1.7456646,-0.012148463,0.6426187,-0.011936803,-0.021264901,-0.7657979,0.0,0.0,-0.5010526,0,0,0,0,0
42441749,0.017257493,-0.06329132,-1.7502189,0.0,0.64077765,-0.018759245,-0.026898114,-0.76702577,0.0,0.0,-0.5010526,0,0,0,0,0
42541032,0.017255392,-0.060347546,-1.7501934,0.0,0.64080685,-0.01763008,-0.025954971,-0.7670607,0.0,0.0,-0.5010526,0,0,0,0,0
42645438,0.017245654,-0.04415675,-1.7500534,0.0,0.6409424,-0.0114188725,-0.020766888,-0.767223,0.0,0.0,-0.5010526,0,0,0,0,0
42739709,0.019162685,-0.04562811,-1.7501098,0.0,0.6409263,-0.011369746,-0.021973247,-0.7672036,0.0,0.0,-0.5031579,0,0,0,0,0
42843851,0.019182654,-0.07212184,-1.7503645,0.0,0.6406763,-0.021532688,-0.030461801,-0.76690435,0.0,0.0,-0.5021053,0,0,0,0,0
42943260,0.015334667,-0.054460555,-1.7500902,0.0,0.64086604,-0.015985409,-0.023333903,-0.76713145,0.0,0.0,-0.5021053,0,0,0,0,0
43042425,0.01725059,-0.05298809,-1.7501297,0.0,0.64087373,-0.01480695,-0.023596905,-0.7671407,0.0,0.0,-0.5031579,0,0,0,0,0
43141816,0.0153204,-0.013247161,-1.749774,0.0,0.6410897,-0.00017254787,-0.010124909,-0.7673992,0.0,0.0,-0.5031579,0,0,0,0,0
43241155,0.01723595,-0.016190805,-1.7518597,-0.06074232,0.6402917,-0.00070040434,-0.0118026035,-0.76804084,0.0,0.0,-0.50421053,0,0,0,0,0
43345348,0.01723595,-0.016190805,-1.7530057,0.0,0.6398515,-0.00070716674,-0.0118022,-0.7684076,0.0,0.0,-0.50421053,0,0,0,0,0
43439825,0.0153204,-0.013247161,-1.75478,-0.054668088,0.63916683,-0.00019789011,-0.010124445,-0.7690015,0.0,0.0,-0.50421053,0,0,0,0,0
43543904,0.01723545,-0.013247025,-1.7581034,0.0,0.637888,0.0003961332,-0.010861408,-0.77005243,0.0,0.0,-0.50842106,0,0,0,0,0
43638313,0.0153204,-0.013247161,-1.7580906,0.0,0.637893,-0.00021464912,-0.010124104,-0.77005845,0.0,0.0,-0.5165973,0,0,0,0,0
43742621,0.0153204,-0.013247161,-1.7580906,0.0,0.637893,-0.00021464912,-0.010124104,-0.77005845,0.0,0.0,-0.5,0,0,0,0,0
43841881,0.015320212,-0.011775254,-1.7580794,0.0,0.63789594,0.00035212084,-0.009654624,-0.7700619,0.0,0.0,-0.50421053,0,0,0,0,0
43941136,0.015320212,-0.011775254,-1.7580794,0.0,0.63789594,0.00035212084,-0.009654624,-0.7700619,0.0,0.0,-0.50421053,0,0,0,0,0
44045493,0.015319902,-0.00883144,-1.7580568,0.0,0.6379008,0.001485664,-0.008715657,-0.77006775,0.0,0.0,-0.5273929,0,0,0,0,0
44139826,0.015319504,-0.0,-1.7579892,0.0,0.637907,0.004886305,-0.0058987006,-0.77007526,0.0,0.0,-0.5321909,0,0,0,0,0
44244098,0.015319504,-0.0,-1.7579892,0.0,0.637907,0.004886305,-0.0058987006,-0.77007526,0.0,0.0,-0.5321909,0,0,0,0,0
44343262,0.013404567,-0.0,-1.7579892,0.0,0.63791144,0.004275527,-0.0051613753,-0.77008057,0.0,0.0,-0.5597797,0,0,0,0,0
44442570,0.013404567,-0.0,-1.7579892,0.0,0.63791144,0.004275527,-0.0051613753,-0.77008057,0.0,0.0,-0.5645777,0,0,0,0,0
44541885,0.013404605,-0.0029438406,-1.758009,0.0,0.63791066,0.0031419774,-0.0061003705,-0.7700798,0.0,0.0,-0.5597797,0,0,0,0,0
44641210,0.015319902,-0.00883144,-1.7580568,0.0,0.6379008,0.001485664,-0.008715657,-0.77006775,0.0,0.0,-0.5537821,0,0,0,0,0
44740430,0.015320212,-0.011775254,-1.7580794,0.0,0.63789594,0.00035212084,-0.009654624,-0.7700619,0.0,0.0,-0.54778457,0,0,0,0,0
44839895,0.015320212,-0.011775254,-1.7580794,0.0,0.63789594,0.00035212084,-0.009654624,-0.7700619,0.0,0.0,-0.536989,0,0,0,0,0
44943989,0.015320212,-0.011775254,-1.7660111,-0.109336175,0.63483703,0.00031382928,-0.009655945,-0.7725857,0.0,0.0,-0.5261934,0,0,0,0,0
45043473,0.015320212,-0.011775254,-1.7751592,-0.13363309,0.6312965,0.0002696587,-0.00965728,-0.7754814,0.0,0.0,-0.52499384,0,0,0,0,0
45142764,0.015320212,-0.011775254,-1.790675,-0.18222694,0.6252615,0.00019473188,-0.009659081,-0.7803555,0.0,0.0,-0.52019584,0,0,0,0,0
45241945,0.015320212,-0.011775254,-1.8078655,-0.24296927,0.6185311,0.000111702975,-0.009660398,-0.785701,0.0,0.0,-0.5153978,0,0,0,0,0
45341406,0.015320212,-0.011775254,-1.8524433,-0.5284582,0.6008665,-0.000103626095,-0.009660487,-0.79929096,0.0,0.0,-0.4768421,0,0,0,0,0
45440520,0.015320212,-0.011775254,-1.9165237,-0.75927895,0.5749531,-0.0004130437,-0.0096522095,-0.8181293,0.0,0.0,-0.4768421,0,0,0,0,0
45539816,0.0153204,-0.013247161,-1.9963596,-0.9111348,0.5418479,-0.001416406,-0.01002683,-0.84041554,0.0,0.0,-0.4768421,0,0,0,0,0
45644243,0.0153204,-0.013247161,-2.0954301,-0.9658028,0.4995701,-0.0019111469,-0.009944398,-0.8662143,0.0,0.0,-0.47789475,0,0,0,0,0
45743399,0.0153204,-0.013247161,-2.1892517,-0.9050605,0.45840067,-0.0023753727,-0.009843838,-0.88868797,0.0,0.0,-0.47789475,0,0,0,0,0
45842761,0.0153204,-0.013247161,-2.265092,-0.77142745,0.42438003,-0.0027468556,-0.009746709,-0.9054276,0.0,0.0,-0.47789475,0,0,0,0,0
45942108,0.0153204,-0.013247161,-2.3523102,-0.9658028,0.38450414,-0.003169155,-0.009617692,-0.92306775,0.0,0.0,-0.4768421,0,0,0,0,0
46041320,0.0153204,-0.013247161,-2.4483352,-0.9597286,0.33975932,-0.003627095,-0.009454508,-0.94045794,0.0,0.0,-0.4768421,0,0,0,0,0
46140814,0.0153204,-0.013247161,-2.5362637,-0.64994276,0.29809776,-0.0040391167,-0.009285961,-0.9544816,0.0,0.0,-0.48736843,0,0,0,0,0
46239924,0.0153204,-0.013247161,-2.5855424,-0.31586003,0.27449185,-0.0042666676,-0.009183631,-0.9615361,0.0,0.0,-0.5021053,0,0,0,0,0
46344202,0.0153204,-0.013247161,-2.5998673,-0.13363309,0.2675979,-0.0043323347,-0.009152837,-0.9634775,0.0,0.0,-0.57537335,0,0,0,0,0
46443487,0.01340535,-0.013247283,-2.6137533,-0.19437541,0.26089776,-0.0046456545,-0.008198238,-0.9653204,0.0,0.0,-0.6137576,0,0,0,0,0
46542750,0.0153204,-0.013247161,-2.634064,-0.1761527,0.25108576,-0.004488192,-0.009077427,-0.9679119,0.0,0.0,-0.6173562,0,0,0,0,0
46642021,0.0153204,-0.013247161,-2.6483586,-0.12755887,0.24416144,-0.004552956,-0.009045117,-0.96968174,0.0,0.0,-0.6137576,0,0,0,0,0
46741509,0.0153204,-0.013247161,-2.6489635,0.0,0.24386816,-0.0045556915,-0.009043739,-0.96975553,0.0,0.0,-0.6065605,0,0,0,0,0
46840654,0.0153204,-0.013247161,-2.643369,0.03146627,0.24657986,-0.004530376,-0.009056447,-0.9690696,0.0,0.0,-0.56937575,0,0,0,0,0
46940110,0.019150766,-0.014718746,-2.6434083,0.0,0.24657458,-0.004771382,-0.011093626,-0.96904856,0.0,0.0,-0.52499384,0,0,0,0,0
47044259,0.019167325,-0.05298748,-2.6437752,0.0,0.24649474,-0.023313032,-0.015810486,-0.9687347,0.0,0.0,-0.5165973,0,0,0,0,0
47143682,0.0172515,-0.054459985,-2.6437373,0.0,0.24649192,-0.024262177,-0.015064111,-0.96872395,0.0,0.0,-0.47894737,0,0,0,0,0
47242871,0.017244916,-0.042684853,-2.6436355,0.0,0.24652721,-0.0185578,-0.0136130545,-0.9688625,0.0,0.0,-0.4663158,0,0,0,0,0
47342200,0.019162685,-0.04562811,-2.6437047,0.0,0.24651706,-0.01974783,-0.014903618,-0.9688226,0.0,0.0,-0.4663158,0,0,0,0,0
47441446,0.02110879,-0.07948019,-2.6441066,0.0,0.2463842,-0.035908476,-0.020001622,-0.9683003,0.0,0.0,-0.4536842,0,0,0,0,0
47540807,0.021124903,-0.09272687,-2.6442475,0.0,0.24631384,-0.04232193,-0.021632493,-0.96802396,0.0,0.0,-0.45157897,0,0,0,0,0
47639970,0.01920272,-0.09125621,-2.6441443,0.0,0.24632452,-0.04184557,-0.020523818,-0.9680661,0.0,0.0,-0.45157897,0,0,0,0,0
47744404,0.017301077,-0.10744806,-2.6441977,0.0,0.2462276,-0.049917992,-0.021589063,-0.9676849,0.0,0.0,-0.45052633,0,0,0,0,0
47838593,0.017288864,-0.09714482,-2.6441078,0.0,0.24629253,-0.044931624,-0.020321058,-0.9679402,0.0,0.0,-0.44947368,0,0,0,0,0
47942827,0.015358133,-0.086842485,-2.6439347,0.0,0.24635284,-0.040180154,-0.018125113,-0.9681773,0.0,0.0,-0.44947368,0,0,0,0,0
48042288,0.0057564965,-0.07801369,-2.643492,0.0,0.24640398,-0.03708472,-0.012399393,-0.96837807,0.0,0.0,-0.45052633,0,0,0,0,0
48141428,0.007683941,-0.09714871,-2.643641,0.0,0.24629983,-0.046112135,-0.01568359,-0.96796906,0.0,0.0,-0.45157897,0,0,0,0,0
48240888,0.017280906,-0.08978537,-2.6440437,0.0,0.24633494,-0.041369174,-0.019415105,-0.96810687,0.0,0.0,-0.47473684,0,0,0,0,0
48340238,0.017276438,-0.08536971,-2.6440053,0.0,0.24635875,-0.039231423,-0.018871441,-0.96820045,0.0,0.0,-0.49263158,0,0,0,0,0
48444401,0.011514795,-0.08095626,-2.6491008,-0.13970733,0.2437871,-0.037843417,-0.015443405,-0.9689671,0.0,0.0,-0.49263158,0,0,0,0,0
48543782,0.0057564965,-0.07801369,-2.6815507,-0.50416124,0.22793284,-0.037313946,-0.011691492,-0.9728914,0.0,0.0,-0.4831579,0,0,0,0,0
48643014,0.017246414,-0.04562864,-2.7330453,-0.49808702,0.20298827,-0.020588415,-0.013069063,-0.9788774,0.0,0.0,-0.46736842,0,0,0,0,0
48742357,0.0,-0.04268697,-2.7517161,0.0,0.19366184,-0.02093764,-0.0041340464,-0.98083615,0.0,0.0,-0.46421054,0,0,0,0,0
48841678,-0.08008762,-0.013233523,-2.751186,0.0,0.19354647,-0.014250741,0.03798956,-0.9802517,0.0,0.0,-0.46736842,0,0,0,0,0
48940907,-0.10802516,-0.013221932,-2.7510014,0.0,0.19341922,-0.01695196,0.051677883,-0.9796076,0.0,0.0,-0.46736842,0,0,0,0,0
49040086,-0.12478766,-0.013213325,-2.7508907,0.0,0.19332479,-0.01857154,0.059886117,-0.9791294,0.0,0.0,-0.49578947,0,0,0,0,0
49144415,-0.12665017,-0.013212292,-2.7508783,0.0,0.19331351,-0.01875144,0.060797896,-0.979072,0.0,0.0,-0.50526315,0,0,0,0,0
49243692,-0.14713769,-0.013199934,-2.7507432,0.0,0.19317786,-0.020729419,0.0708237,-0.9783847,0.0,0.0,-0.5153978,0,0,0,0,0
49342968,-0.15458772,-0.013194981,-2.7506943,0.0,0.1931234,-0.021448264,0.07446766,-0.9781094,0.0,0.0,-0.51779675,0,0,0,0,0
49442419,-0.16203769,-0.013189788,-2.7506452,0.0,0.19306639,-0.022166872,0.07811053,-0.9778204,0.0,0.0,-0.5010526,0,0,0,0,0
49541600,-0.16203769,-0.013189788,-2.7506452,0.0,0.19306639,-0.022166872,0.07811053,-0.9778204,0.0,0.0,-0.55498165,0,0,0,0,0
49641055,-0.1601752,-0.013191109,-2.7506573,0.0,0.19308095,-0.021987248,0.07719991,-0.9778939,0.0,0.0,-0.5633782,0,0,0,0,0
49740247,-0.15086271,-0.013197486,-2.7507188,0.0,0.19315091,-0.021088867,0.07264581,-0.9782487,0.0,0.0,-0.5633782,0,0,0,0,0
49844474,-0.12478766,-0.013213325,-2.7508907,0.0,0.19332479,-0.01857154,0.059886117,-0.9791294,0.0,0.0,-0.5621787,0,0,0,0,0
49938848,-0.05775089,-0.02942293,-2.7508662,0.0,0.19360432,-0.020029075,0.025464615,-0.9805447,0.0,0.0,-0.5621787,0,0,0,0,0
50043011,0.0,-0.07801412,-2.7517161,0.0,0.19355862,-0.03825855,-0.0075539844,-0.98031336,0.0,0.0,-0.5597797,0,0,0,0,0
50142409,0.0,-0.09714965,-2.7517161,0.0,0.19347748,-0.04763606,-0.009405533,-0.97990245,0.0,0.0,-0.5597797,0,0,0,0,0
50241715,0.0,-0.10450948,-2.7517161,0.0,0.19344157,-0.05124169,-0.010117449,-0.97972053,0.0,0.0,-0.5597797,0,0,0,0,0
50341034,0.017327089,-0.12658261,-2.7528143,0.0,0.19331087,-0.060385343,-0.020700436,-0.9790587,0.0,0.0,-0.53459,0,0,0,0,0
50440423,0.01735007,-0.14130153,-2.752944,0.0,0.19321549,-0.06758976,-0.022121474,-0.9785755,0.0,0.0,-0.53459,0,0,0,0,0
50544655,0.017345266,-0.13835776,-2.752918,0.0,0.19323541,-0.06614917,-0.021837337,-0.9786764,0.0,0.0,-0.5357895,0,0,0,0,0
50643827,0.017318623,-0.12069507,-2.7527626,0.0,0.19334611,-0.057502635,-0.020131793,-0.9792371,0.0,0.0,-0.53818846,0,0,0,0,0
50743224,0.019221395,-0.105974935,-2.7527356,0.0,0.19342518,-0.050108157,-0.01964846,-0.97963756,0.0,0.0,-0.539388,0,0,0,0,0
50842511,0.03266962,-0.10301924,-2.7534006,0.0,0.19342332,-0.047366973,-0.025935551,-0.9796281,0.0,0.0,-0.539388,0,0,0,0,0
50941751,0.10768508,-0.11165393,-2.75774,0.0,0.19312474,-0.044444546,-0.06337413,-0.97811615,0.0,0.0,-0.539388,0,0,0,0,0
51041083,0.12695685,-0.11597418,-2.7590961,0.0,0.19299221,-0.044745456,-0.07316863,-0.9774447,0.0,0.0,-0.539388,0,0,0,0,0
51140376,0.17512624,-0.121551976,-2.7624,0.0,0.19261032,-0.04297078,-0.0971287,-0.97551054,0.0,0.0,-0.539388,0,0,0,0,0
51244758,0.15194526,-0.11437348,-2.7604315,0.0,0.19283335,-0.041604783,-0.08519923,-0.9766399,0.0,0.0,-0.53818846,0,0,0,0,0
51343869,0.17316085,-0.11863642,-2.7620254,0.0,0.1926436,-0.041716926,-0.09591205,-0.97567874,0.0,0.0,-0.53818846,0,0,0,0,0
51443235,0.18454003,-0.10684641,-2.7616122,0.0,0.19260919,-0.03483831,-0.10039335,-0.9755046,0.0,0.0,-0.53818846,0,0,0,0,0
51542561,0.18825236,-0.096578285,-2.7608407,0.0,0.19262572,-0.029424174,-0.101275295,-0.9755885,0.0,0.0,-0.53818846,0,0,0,0,0
51641854,0.17683275,-0.10543162,-2.761071,0.0,0.19268338,-0.034862578,-0.096513174,-0.97588056,0.0,0.0,-0.53818846,0,0,0,0,0
51741095,0.17687002,-0.10836013,-2.7613335,0.0,0.19266804,-0.03630317,-0.09679525,-0.97580314,0.0,0.0,-0.53818846,0,0,0,0,0
51840572,0.17707196,-0.1230025,-2.7626486,0.0,0.19258532,-0.04350448,-0.09820433,-0.9753841,0.0,0.0,-0.53818846,0,0,0,0,0
51944646,0.15187848,-0.1085084,-2.7599802,0.0,0.1928651,-0.03872309,-0.08463447,-0.97680116,0.0,0.0,-0.53818846,0,0,0,0,0
52039087,0.063298225,-0.07060717,-2.7539525,0.0,0.19348842,-0.028526926,-0.037826937,-0.97995794,0.0,0.0,-0.53818846,0,0,0,0,0
52143346,0.040267475,-0.063277386,-2.7529907,0.0,0.19356985,-0.027146645,-0.025850223,-0.98037016,0.0,0.0,-0.53818846,0,0,0,0,0
52242545,0.03069444,-0.07358667,-2.752846,0.0,0.19355212,-0.033125862,-0.022151688,-0.98028034,0.0,0.0,-0.53818846,0,0,0,0,0
52341924,0.021099435,-0.07064905,-2.752462,0.0,0.19357431,-0.032610502,-0.017171862,-0.9803932,0.0,0.0,-0.53818846,0,0,0,0,0
52441198,0.019177435,-0.06623435,-2.7523515,0.0,0.19359083,-0.03063117,-0.015805598,-0.9804767,0.0,0.0,-0.53818846,0,0,0,0,0
52540492,0.017258579,-0.06476322,-2.751649,0.03146627,0.19390424,-0.030090412,-0.014733496,-0.9804481,0.0,0.0,-0.53818846,0,0,0,0,0
52644746,0.017238934,-0.027965939,-2.7491124,0.0,0.19507493,-0.012033167,-0.011179349,-0.9806508,0.0,0.0,-0.53818846,0,0,0,0,0
52739036,0.017245654,-0.04415675,-2.749252,0.0,0.19504645,-0.01997207,-0.012758162,-0.9805076,0.0,0.0,-0.5357895,0,0,0,0,0
52843328,0.017244209,-0.04121296,-2.7492268,0.0,0.19505252,-0.01852872,-0.012471137,-0.9805384,0.0,0.0,-0.5357895,0,0,0,0,0
52942745,0.01724801,-0.04857242,-2.7492902,0.0,0.19503649,-0.022137003,-0.01318867,-0.98045737,0.0,0.0,-0.50842106,0,0,0,0,0
53041860,0.019162685,-0.04562811,-2.7493086,0.0,0.19504152,-0.020506883,-0.013840607,-0.9804829,0.0,0.0,-0.5213953,0,0,0,0,0
53141318,0.01723595,-0.016190805,-2.7490108,0.0,0.19508763,-0.00625885,-0.010030893,-0.9807145,0.0,0.0,-0.5213953,0,0,0,0,0
53240556,0.019155482,-0.030909363,-2.7491674,0.0,0.19506896,-0.01328985,-0.012405423,-0.980621,0.0,0.0,-0.5213953,0,0,0,0,0
53344720,0.019154375,-0.027965615,-2.749139,0.0,0.19507326,-0.011846339,-0.012118345,-0.98064226,0.0,0.0,-0.5213953,0,0,0,0,0
53439171,0.019160232,-0.041212477,-2.7492661,0.0,0.19505088,-0.018341873,-0.0134100905,-0.9805299,0.0,0.0,-0.5213953,0,0,0,0,0
53543317,0.021081923,-0.050043084,-2.749399,0.0,0.19502933,-0.022484923,-0.015209991,-0.9804216,0.0,0.0,-0.52019584,0,0,0,0,0
53642668,0.019150501,-0.01324687,-2.748967,0.0062932544,0.19510333,-0.004628245,-0.010682845,-0.9807136,0.0,0.0,-0.5213953,0,0,0,0,0
53742067,0.02106555,-0.013246701,-2.7474816,0.0,0.19583596,-0.0044327113,-0.011625176,-0.98055774,0.0,0.0,-0.5213953,0,0,0,0,0
53841315,0.019150501,-0.01324687,-2.747469,0.0,0.19583781,-0.0046202424,-0.010686308,-0.9805672,0.0,0.0,-0.5213953,0,0,0,0,0
53940752,0.019150501,-0.01324687,-2.747469,0.0,0.19583781,-0.0046202424,-0.010686308,-0.9805672,0.0,0.0,-0.5213953,0,0,0,0,0
54044868,0.019150501,-0.01324687,-2.747469,0.0,0.19583781,-0.0046202424,-0.010686308,-0.9805672,0.0,0.0,-0.5213953,0,0,0,0,0
54144135,0.019150501,-0.01324687,-2.747469,0.0,0.19583781,-0.0046202424,-0.010686308,-0.9805672,0.0,0.0,-0.5213953,0,0,0,0,0
54243525,0.02106555,-0.013246701,-2.7474816,0.0,0.19583596,-0.0044327113,-0.011625176,-0.98055774,0.0,0.0,-0.5213953,0,0,0,0,0
54342726,0.02106555,-0.013246701,-2.7474816,0.0,0.19583596,-0.0044327113,-0.011625176,-0.98055774,0.0,0.0,-0.5213953,0,0,0,0,0
54442117,0.055604022,-0.061790686,-2.749061,0.0,0.19568199,-0.024867339,-0.03327329,-0.9797873,0.0,0.0,-0.5213953,0,0,0,0,0
54541386,0.02110879,-0.07948019,-2.7481813,0.0,0.19568564,-0.03690023,-0.018106809,-0.979805,0.0,0.0,-0.5213953,0,0,0,0,0
54640612,0.021134943,-0.100086145,-2.7484007,0.0,0.19559501,-0.046994336,-0.020121135,-0.9793514,0.0,0.0,-0.49157897,0,0,0,0,0
54739963,0.021137044,-0.10155799,-2.7484164,0.0,0.19558772,-0.047715157,-0.020264963,-0.9793151,0.0,0.0,-0.49263158,0,0,0,0,0
54844285,0.021164695,-0.11922026,-2.7486053,0.0,0.19549234,-0.056362867,-0.021990329,-0.9788373,0.0,0.0,-0.49263158,0,0,0,0,0
54943542,0.017310569,-0.11480751,-2.7480557,0.0,0.19565886,-0.054573733,-0.019690102,-0.97895443,0.0,0.0,-0.49263158,0,0,0,0,0
55042805,0.019245224,-0.122165546,-2.7482378,0.0,0.19561447,-0.057988316,-0.021347681,-0.97873205,0.0,0.0,-0.49263158,0,0,0,0,0
55142125,0.017310569,-0.11480751,-2.7480557,0.0,0.19565886,-0.054573733,-0.019690102,-0.97895443,0.0,0.0,-0.49263158,0,0,0,0,0
55241353,0.01729746,-0.10450428,-2.7479653,0.0,0.1957143,-0.049529273,-0.018682722,-0.97923124,0.0,0.0,-0.49263158,0,0,0,0,0
55340815,0.019221395,-0.105974935,-2.7480803,0.0,0.19570494,-0.050062288,-0.019765044,-0.9791847,0.0,0.0,-0.49263158,0,0,0,0,0
55439979,0.017318623,-0.12069507,-2.7481072,0.0,0.19562495,-0.05745562,-0.020265587,-0.97878444,0.0,0.0,-0.49263158,0,0,0,0,0
55544388,0.017299253,-0.10597618,-2.7478523,0.0062932544,0.19576833,-0.050248813,-0.018829817,-0.9791809,0.0,0.0,-0.4936842,0,0,0,0,0
55643542,0.017285606,-0.094201036,-2.7474701,0.0,0.19596292,-0.044479884,-0.017684003,-0.9794424,0.0,0.0,-0.49684212,0,0,0,0,0
55742911,0.017276438,-0.08536971,-2.7469873,0.0,0.19620062,-0.04015071,-0.016827255,-0.97959685,0.0,0.0,-0.49684212,0,0,0,0,0
55842243,0.017285606,-0.094201036,-2.745843,0.0,0.19675973,-0.04446548,-0.017720187,-0.9792826,0.0,0.0,-0.5153978,0,0,0,0,0
55941486,0.017293945,-0.101560496,-2.7459073,0.0,0.19672419,-0.048069026,-0.018443687,-0.9791062,0.0,0.0,-0.5213953,0,0,0,0,0
56040839,0.017285606,-0.094201036,-2.745843,0.0,0.19675973,-0.04446548,-0.017720187,-0.9792826,0.0,0.0,-0.5,0,0,0,0,0
56140095,0.017276438,-0.08536971,-2.7457662,0.0,0.19679873,-0.040140428,-0.016851768,-0.9794769,0.0,0.0,-0.5010526,0,0,0,0,0
56244349,0.011509592,-0.07212467,-2.7454436,0.0,0.1968541,-0.034217272,-0.012733333,-0.9797528,0.0,0.0,-0.5165973,0,0,0,0,0
56343638,0.0057536094,-0.06770999,-2.745223,0.0,0.19687183,-0.03261974,-0.009483282,-0.9798406,0.0,0.0,-0.5165973,0,0,0,0,0
56443084,0.0114956815,-0.039742168,-2.7452567,0.0,0.19694337,-0.018349212,-0.0095459735,-0.98019665,0.0,0.0,-0.53459,0,0,0,0,0
56542188,0.001915735,-0.035327118,-2.745062,0.0,0.19695465,-0.017127974,-0.0044179447,-0.98025304,0.0,0.0,-0.54778457,0,0,0,0,0
56641783,0.0076619657,-0.029438999,-2.7440732,0.037759528,0.19748609,-0.01367272,-0.006661436,-0.9801877,0.0,0.0,-0.54778457,0,0,0,0,0
56740880,0.01724047,-0.032381613,-2.7442396,0.0,0.1974757,-0.014169878,-0.011644806,-0.9801362,0.0,0.0,-0.5465851,0,0,0,0,0
56840096,0.0153204,-0.013247161,-2.7439058,0.0062932544,0.1975753,-0.004979715,-0.008817368,-0.98023546,0.0,0.0,-0.5465851,0,0,0,0,0
56944482,0.0153204,-0.013247161,-2.7437804,0.0,0.19763677,-0.004979162,-0.008817681,-0.98022306,0.0,0.0,-0.5465851,0,0,0,0,0
57043633,0.0153204,-0.013247161,-2.7437804,0.0,0.19763677,-0.004979162,-0.008817681,-0.98022306,0.0,0.0,-0.5465851,0,0,0,0,0
57142969,0.0153204,-0.013247161,-2.7437804,0.0,0.19763677,-0.004979162,-0.008817681,-0.98022306,0.0,0.0,-0.54538554,0,0,0,0,0
57242355,0.01723545,-0.013247025,-2.743793,0.0,0.19763525,-0.0047899126,-0.0097562205,-0.9802154,0.0,0.0,-0.54538554,0,0,0,0,0
57341677,0.01723545,-0.013247025,-2.743793,0.0,0.19763525,-0.0047899126,-0.0097562205,-0.9802154,0.0,0.0,-0.54538554,0,0,0,0,0
57441064,0.019152919,-0.023549989,-2.7439044,0.0,0.19762418,-0.009650639,-0.011712795,-0.98016036,0.0,0.0,-0.5429866,0,0,0,0,0
57540164,0.02108517,-0.054458655,-2.7442532,0.0,0.19756268,-0.024609014,-0.015704354,-0.9798555,0.0,0.0,-0.5357895,0,0,0,0,0
57644554,0.019167325,-0.05298748,-2.7441866,0.0,0.19756857,-0.0240771,-0.014620608,-0.97988427,0.0,0.0,-0.5321909,0,0,0,0,0
57743826,0.021087488,-0.057402357,-2.7442842,0.0,0.1975546,-0.02605137,-0.015995024,-0.979815,0.0,0.0,-0.5321909,0,0,0,0,0
57843165,0.019158734,-0.03826873,-2.7440455,0.0,0.19760168,-0.01686436,-0.013166888,-0.98004884,0.0,0.0,-0.5321909,0,0,0,0,0
57942348,0.021089928,-0.06034607,-2.7443154,0.0,0.19754598,-0.02749368,-0.01628567,-0.97977257,0.0,0.0,-0.5261934,0,0,0,0,0
58041796,0.021102432,-0.07359276,-2.7444556,0.0,0.19750223,-0.033983227,-0.01759333,-0.97955525,0.0,0.0,-0.5273929,0,0,0,0,0
58140864,0.021096567,-0.06770535,-2.7443933,0.0,0.19752271,-0.031099163,-0.017012201,-0.9796573,0.0,0.0,-0.52379435,0,0,0,0,0
58240374,0.021099435,-0.07064905,-2.7444246,0.0,0.19751261,-0.032541234,-0.017302774,-0.97960734,0.0,0.0,-0.52379435,0,0,0,0,0
58344477,0.019174991,-0.063290596,-2.7442858,0.0,0.19753891,-0.029125223,-0.015637942,-0.97973746,0.0,0.0,-0.5261934,0,0,0,0,0
58443822,0.019164454,-0.04857185,-2.7441444,0.0,0.19757953,-0.021913404,-0.014184534,-0.9799393,0.0,0.0,-0.5273929,0,0,0,0,0
58543139,0.019165387,-0.05004373,-2.7441585,0.0,0.19757599,-0.02263465,-0.014329898,-0.9799214,0.0,0.0,-0.5297919,0,0,0,0,0
58642356,0.02110879,-0.07948019,-2.744518,0.0,0.19747998,-0.036867004,-0.018174367,-0.97944486,0.0,0.0,-0.5297919,0,0,0,0,0
58741706,0.019194439,-0.08389682,-2.7444844,0.0,0.19746402,-0.03921891,-0.017671844,-0.9793659,0.0,0.0,-0.5297919,0,0,0,0,0
58841004,0.021093816,-0.06476164,-2.744362,0.0,0.19753234,-0.029657023,-0.016721604,-0.9797049,0.0,0.0,-0.5297919,0,0,0,0,0
58940423,0.019160232,-0.041212477,-2.7417934,0.0,0.19871315,-0.01829164,-0.013478529,-0.97979426,0.0,0.0,-0.5297919,0,0,0,0,0
59039674,0.019161837,-0.04415623,-2.7418218,0.0,0.19870685,-0.019733908,-0.013770932,-0.97976345,0.0,0.0,-0.5297919,0,0,0,0,0
59143957,0.019168336,-0.054459356,-2.7419207,0.0,0.19868161,-0.024781454,-0.0147942165,-0.979639,0.0,0.0,-0.5297919,0,0,0,0,0
59243166,0.021095177,-0.06623349,-2.7420974,0.0,0.19864447,-0.030358851,-0.016901532,-0.97945553,0.0,0.0,-0.5297919,0,0,0,0,0
59342530,0.019161023,-0.042684358,-2.7418077,0.0,0.19871,-0.01901278,-0.013624732,-0.9797791,0.0,0.0,-0.5297919,0,0,0,0,0
59441843,0.019152094,-0.02060624,-2.741596,0.0,0.19874476,-0.008194784,-0.011431294,-0.97995037,0.0,0.0,-0.5297919,0,0,0,0,0
59541056,0.019150766,-0.014718746,-2.7415395,0.0,0.19874997,-0.005309737,-0.010846258,-0.9799758,0.0,0.0,-0.5297919,0,0,0,0,0
59640445,0.021066159,-0.016190412,-2.741569,0.0,0.19874693,-0.00584068,-0.011930821,-0.97996074,0.0,0.0,-0.5297919,0,0,0,0,0
59744611,0.0153204,-0.013247161,-2.7415001,0.0,0.19875419,-0.0049691056,-0.008823351,-0.97999704,0.0,0.0,-0.5297919,0,0,0,0,0
59844012,0.01723545,-0.013247025,-2.7415128,0.0,0.19875267,-0.004778786,-0.009761675,-0.9799894,0.0,0.0,-0.5261934,0,0,0,0,0
59943262,0.011490159,-0.011775455,-2.7414663,0.0,0.19875768,-0.004628462,-0.006800409,-0.98001415,0.0,0.0,-0.5273929,0,0,0,0,0
60042543,0.015320212,-0.011775254,-2.7414887,0.0,0.1987552,-0.004247826,-0.008677081,-0.9800015,0.0,0.0,-0.5297919,0,0,0,0,0
60142039,0.015320212,-0.011775254,-2.7414887,0.0,0.1987552,-0.004247826,-0.008677081,-0.9800015,0.0,0.0,-0.5297919,0,0,0,0,0
60241330,0.015320212,-0.011775254,-2.7414887,0.0,0.1987552,-0.004247826,-0.008677081,-0.9800015,0.0,0.0,-0.5273929,0,0,0,0,0
60340527,0.015320212,-0.011775254,-2.741579,-0.018222695,0.19871092,-0.004248218,-0.008676889,-0.9800105,0.0,0.0,-0.52019584,0,0,0,0,0
60444724,0.011490159,-0.011775455,-2.7464159,-0.04251962,0.19633175,-0.0046452773,-0.0067889336,-0.980503,0.0,0.0,-0.5105998,0,0,0,0,0
60544048,0.015320212,-0.011775254,-2.7466493,0.0,0.19622585,-0.004270201,-0.008666092,-0.9805111,0.0,0.0,-0.5153978,0,0,0,0,0
60643310,0.015320212,-0.011775254,-2.7468305,-0.012148463,0.19613703,-0.004270986,-0.008665704,-0.9805289,0.0,0.0,-0.50842106,0,0,0,0,0
60742675,0.015320212,-0.011775254,-2.7524345,-0.04251962,0.1933888,-0.004295251,-0.008653703,-0.98107463,0.0,0.0,-0.50631577,0,0,0,0,0
60841882,0.0153204,-0.013247161,-2.761583,-0.1154104,0.18890373,-0.0050574527,-0.00877301,-0.9819434,0.0,0.0,-0.5153978,0,0,0,0,0
60941410,0.015320212,-0.011775254,-2.7716885,-0.06074232,0.1839352,-0.0043783598,-0.008611953,-0.9828909,0.0,0.0,-0.5117993,0,0,0,0,0
61040527,0.015320212,-0.011775254,-2.793956,-0.35837966,0.17298071,-0.0044739703,-0.008562672,-0.9848778,0.0,0.0,-0.5165973,0,0,0,0,0
61144764,0.015320212,-0.011775254,-2.8399384,-0.5223839,0.1502935,-0.0046696365,-0.008457556,-0.98859423,0.0,0.0,-0.5117993,0,0,0,0,0
61244150,0.015320212,-0.011775254,-2.895768,-0.60134894,0.12264215,-0.0049038767,-0.0083239265,-0.9924039,0.0,0.0,-0.5117993,0,0,0,0,0
61343349,0.015320212,-0.011775254,-2.9502652,-0.5102355,0.09555833,-0.005128844,-0.008187229,-0.99537694,0.0,0.0,-0.5165973,0,0,0,0,0
61442719,0.015320212,-0.011775254,-2.9664907,0.0,0.08747999,-0.0051950957,-0.008145351,-0.99611944,0.0,0.0,-0.5141983,0,0,0,0,0
61541975,0.017235244,-0.011775133,-2.9665022,0.0,0.08747923,-0.005111322,-0.009099113,-0.99611163,0.0,0.0,-0.5153978,0,0,0,0,0
61641273,0.01915172,-0.019134369,-2.966584,0.0,0.08747597,-0.0086931875,-0.01037469,-0.9960747,0.0,0.0,-0.5153978,0,0,0,0,0
61740620,0.019150766,-0.014718746,-2.9665415,0.0,0.08747768,-0.006493814,-0.010181601,-0.9960933,0.0,0.0,-0.5165973,0,0,0,0,0
61844809,0.02106925,-0.0264934,-2.9666798,0.0,0.08747147,-0.012274906,-0.011650183,-0.9960233,0.0,0.0,-0.51779675,0,0,0,0,0
61944045,0.021067299,-0.020605976,-2.9664302,0.018879764,0.087567925,-0.009341442,-0.011393655,-0.99604964,0.0,0.0,-0.5165973,0,0,0,0,0
62043465,0.02107802,-0.044155665,-2.9664912,0.0,0.08764451,-0.021068987,-0.0124260895,-0.9958514,0.0,0.0,-0.5165973,0,0,0,0,0
62142768,0.021088695,-0.058874216,-2.966647,0.0,0.08762781,-0.028397942,-0.013070439,-0.9956625,0.0,0.0,-0.5165973,0,0,0,0,0
62242011,0.021091195,-0.061817933,-2.966678,0.0,0.087624,-0.02986356,-0.013199272,-0.99561834,0.0,0.0,-0.5165973,0,0,0,0,0
62341444,0.021099435,-0.07064905,-2.9667716,0.0,0.0876111,-0.03425999,-0.013585681,-0.9954728,0.0,0.0,-0.5165973,0,0,0,0,0
62440598,0.021096567,-0.06770535,-2.9667404,0.0,0.08761559,-0.032794587,-0.013456893,-0.9955235,0.0,0.0,-0.5165973,0,0,0,0,0
62545036,0.021099435,-0.07064905,-2.9667716,0.0,0.0876111,-0.03425999,-0.013585681,-0.9954728,0.0,0.0,-0.5165973,0,0,0,0,0
62644143,0.021103974,-0.07506463,-2.9668183,0.0,0.0876041,-0.03645797,-0.013778843,-0.9953927,0.0,0.0,-0.5165973,0,0,0,0,0
62743516,0.02110879,-0.07948019,-2.966865,0.0,0.087596685,-0.038655758,-0.013971971,-0.9953077,0.0,0.0,-0.5165973,0,0,0,0,0
62842855,0.02110715,-0.07800834,-2.9668496,0.0,0.08759916,-0.037923183,-0.0139075965,-0.9953366,0.0,0.0,-0.5165973,0,0,0,0,0
62942129,0.021084057,-0.052986797,-2.9665847,0.0,0.087635025,-0.025466528,-0.0128127355,-0.99574465,0.0,0.0,-0.5165973,0,0,0,0,0
63041445,0.021078948,-0.045627516,-2.9593196,0.08181231,0.0912211,-0.021756914,-0.0125688035,-0.9955136,0.0,0.0,-0.5165973,0,0,0,0,0
63140714,0.021103974,-0.07506463,-2.9578133,0.0,0.09208498,-0.03639556,-0.013942856,-0.99498814,0.0,0.0,-0.5165973,0,0,0,0,0
63244949,0.021096567,-0.06770535,-2.9577353,0.0,0.09209707,-0.032733668,-0.013604415,-0.995119,0.0,0.0,-0.5165973,0,0,0,0,0
63344330,0.019170444,-0.057403095,-2.9575398,0.0062932544,0.092128426,-0.027694387,-0.012177676,-0.99528736,0.0,0.0,-0.51779675,0,0,0,0,0
63443616,0.019161023,-0.042684358,-2.9549634,0.050346036,0.0933573,-0.020354249,-0.011524918,-0.9953578,0.0,0.0,-0.51779675,0,0,0,0,0
63542798,0.019153863,-0.02649374,-2.9533083,0.0,0.0941169,-0.012287052,-0.010778696,-0.995427,0.0,0.0,-0.51779675,0,0,0,0,0
63642203,0.021068214,-0.023549689,-2.9524255,0.0,0.09455432,-0.0107265115,-0.011598062,-0.99539435,0.0,0.0,-0.51779675,0,0,0,0,0
63741439,0.021068214,-0.023549689,-2.9524255,0.0,0.09455432,-0.0107265115,-0.011598062,-0.99539435,0.0,0.0,-0.52379435,0,0,0,0,0
63840709,0.021066159,-0.016190412,-2.9523478,0.0,0.09455785,-0.0070633297,-0.011250217,-0.99543065,0.0,0.0,-0.52499384,0,0,0,0,0
63945005,0.02106689,-0.019134123,-2.9523787,0.0,0.094556645,-0.008528617,-0.011389363,-0.9954178,0.0,0.0,-0.52499384,0,0,0,0,0
64044293,0.02106555,-0.013246701,-2.9523168,0.0,0.09455887,-0.0055980254,-0.011111065,-0.9954415,0.0,0.0,-0.52499384,0,0,0,0,0
64143691,0.02106555,-0.013246701,-2.9523168,0.0,0.09455887,-0.0055980254,-0.011111065,-0.9954415,0.0,0.0,-0.52499384,0,0,0,0,0
64242948,0.02106555,-0.013246701,-2.9523168,0.0,0.09455887,-0.0055980254,-0.011111065,-0.9954415,0.0,0.0,-0.52499384,0,0,0,0,0
64342289,0.0229806,-0.013246514,-2.9523294,0.0,0.0945579,-0.0055074636,-0.012064176,-0.995431,0.0,0.0,-0.52499384,0,0,0,0,0
64441690,0.02106555,-0.013246701,-2.9523168,0.0,0.09455887,-0.0055980254,-0.011111065,-0.9954415,0.0,0.0,-0.52499384,0,0,0,0,0
64540795,0.02106555,-0.013246701,-2.951536,0.0,0.094947495,-0.0055936878,-0.01111325,-0.99540454,0.0,0.0,-0.50631577,0,0,0,0,0
64644985,0.02106555,-0.013246701,-2.951536,0.0,0.094947495,-0.0055936878,-0.01111325,-0.99540454,0.0,0.0,-0.50631577,0,0,0,0,0
64744409,0.03255585,-0.0132453395,-2.951612,0.0,0.0949402,-0.005048073,-0.016831525,-0.99532783,0.0,0.0,-0.50631577,0,0,0,0,0
64843648,0.09767985,-0.023514003,-2.952546,0.0,0.094835036,-0.0070827985,-0.049707524,-0.9942259,0.0,0.0,-0.50631577,0,0,0,0,0
64942936,0.116851956,-0.03230959,-2.9532864,0.0,0.09478052,-0.01056608,-0.059642654,-0.99365383,0.0,0.0,-0.50631577,0,0,0,0,0
65042379,0.11876756,-0.03230716,-2.9533174,0.0,0.094775125,-0.010475025,-0.060594067,-0.9935977,0.0,0.0,-0.50631577,0,0,0,0,0
65141514,0.0804321,-0.013233401,-2.9519289,0.0,0.09487602,-0.0027746551,-0.04064971,-0.99465495,0.0,0.0,-0.50631577,0,0,0,0,0
65241008,0.05170635,-0.013241778,-2.9517388,0.0,0.09492103,-0.0041386783,-0.026360692,-0.9951271,0.0,0.0,-0.50842106,0,0,0,0,0
65345107,0.03255585,-0.0132453395,-2.951612,0.0,0.0949402,-0.005048073,-0.016831525,-0.99532783,0.0,0.0,-0.5465851,0,0,0,0,0
65444405,0.0229806,-0.013246514,-2.9515486,0.0,0.09494652,-0.0055027534,-0.012066325,-0.99539405,0.0,0.0,-0.5633782,0,0,0,0,0
65543761,0.0229806,-0.013246514,-2.9515486,0.0,0.09494652,-0.0055027534,-0.012066325,-0.99539405,0.0,0.0,-0.5717748,0,0,0,0,0
65642944,0.02106555,-0.013246701,-2.951536,0.0,0.094947495,-0.0055936878,-0.01111325,-0.99540454,0.0,0.0,-0.57537335,0,0,0,0,0
65742330,0.030641686,-0.016189076,-2.9516444,0.0,0.09494061,-0.006604233,-0.01601822,-0.9953321,0.0,0.0,-0.5705753,0,0,0,0,0
65841621,0.061323334,-0.047073357,-2.9528406,0.0,0.094883904,-0.02053058,-0.032728735,-0.9947383,0.0,0.0,-0.5705753,0,0,0,0,0
65940933,0.07286487,-0.063238524,-2.9537022,0.0,0.09484443,-0.028038546,-0.039209284,-0.99432445,0.0,0.0,-0.56817627,0,0,0,0,0
66040247,0.06522094,-0.072075196,-2.9537487,0.0,0.09484279,-0.03279612,-0.03581713,-0.99430704,0.0,0.0,-0.5645777,0,0,0,0,0
66139603,0.11715705,-0.09399087,-2.9569128,0.0,0.09468761,-0.041305356,-0.06255562,-0.9926807,0.0,0.0,-0.51899636,0,0,0,0,0
66243800,0.09398168,-0.069080666,-2.9546463,0.0,0.09479353,-0.029963,-0.049960285,-0.99379086,0.0,0.0,-0.5141983,0,0,0,0,0
66343156,0.074834295,-0.07794143,-2.957558,-0.097187705,0.09320484,-0.03533411,-0.040799383,-0.994183,0.0,0.0,-0.5141983,0,0,0,0,0
66442434,0.053727243,-0.07797666,-2.9593298,0.0,0.09194598,-0.036360122,-0.030274568,-0.9946393,0.0,0.0,-0.5153978,0,0,0,0,0
66541658,0.019179987,-0.0691781,-2.959647,-0.04251962,0.09111918,-0.03356687,-0.012686033,-0.99519324,0.0,0.0,-0.5153978,0,0,0,0,0
66641065,0.019169375,-0.05593123,-2.959822,0.0,0.090987526,-0.026975729,-0.012078971,-0.9954133,0.0,0.0,-0.5165973,0,0,0,0,0
66740238,0.017235244,-0.011775133,-2.9593873,0.0,0.091022275,-0.00507892,-0.009117238,-0.9957941,0.0,0.0,-0.51779675,0,0,0,0,0
66839637,0.01723545,-0.013247025,-2.9594,0.0,0.09102188,-0.005811825,-0.009184215,-0.9957896,0.0,0.0,-0.52019584,0,0,0,0,0
66943854,0.01723545,-0.013247025,-2.9594,0.0,0.09102188,-0.005811825,-0.009184215,-0.9957896,0.0,0.0,-0.5213953,0,0,0,0,0
67043132,0.01340535,-0.013247283,-2.9593744,0.0,0.09102329,-0.0059861606,-0.0072773,-0.99580413,0.0,0.0,-0.51779675,0,0,0,0,0
67142431,0.0,-0.01324768,-2.9627507,-0.09111347,0.08929991,-0.0065973266,-0.00059151696,-0.9959827,0.0,0.0,-0.5153978,0,0,0,0,0
67241775,0.0,-0.01324768,-2.979398,-0.17007849,0.08100668,-0.006602022,-0.00053658313,-0.9966915,0.0,0.0,-0.51779675,0,0,0,0,0
67341087,0.01340535,-0.013247283,-3.0003557,-0.26119196,0.070600934,-0.00613401,-0.007153121,-0.9974601,0.0,0.0,-0.5165973,0,0,0,0,0
67440325,0.0153204,-0.013247161,-3.0245767,-0.26119196,0.058522273,-0.0061640916,-0.008034147,-0.99823475,0.0,0.0,-0.52019584,0,0,0,0,0
67539621,0.0153204,-0.013247161,-3.0464733,-0.20652387,0.04759001,-0.0062516807,-0.00796618,-0.99881566,0.0,0.0,-0.51779675,0,0,0,0,0
67643909,0.0114903,-0.0132473875,-3.0795696,-0.46771586,0.03104341,-0.0064422186,-0.005947603,-0.9994796,0.0,0.0,-0.5321909,0,0,0,0,0
67743243,0.01723545,-0.013247025,-3.1186376,-0.26119196,0.011533691,-0.0065238774,-0.008692878,-0.9998744,0.0,0.0,-0.5297919,0,0,0,0,0
67842426,0.01723763,-0.023550266,-3.122526,0.0,0.009633682,-0.011691731,-0.008729967,-0.9998472,0.0,0.0,-0.53099144,0,0,0,0,0
67942008,0.019165387,-0.05004373,-3.1228027,0.0,0.009631187,-0.024927005,-0.0098141655,-0.9995947,0.0,0.0,-0.51899636,0,0,0,0,0
68041063,0.021102432,-0.07359276,-3.1230998,0.0,0.009627655,-0.036686964,-0.010883562,-0.99922115,0.0,0.0,-0.51899636,0,0,0,0,0
68145351,0.021124903,-0.09272687,-3.1233032,0.0,0.009623782,-0.046245817,-0.010974264,-0.9988234,0.0,0.0,-0.51899636,0,0,0,0,0
68239688,0.019204456,-0.09272807,-3.123214,0.0,0.009623909,-0.046255197,-0.010017234,-0.9988331,0.0,0.0,-0.52019584,0,0,0,0,0
