timestamp,timestamp_sample,baro_device_id,baro_alt_meter,baro_temp_celcius,baro_pressure_pa,rho
21404708,21387023,3997730,406.3729,18.84,96538.24,1.147034
21465362,21442408,3997730,406.02673,18.85,96542.25,1.1470816
21636050,21615855,3997730,406.2646,18.85,96539.5,1.147049
21796893,21776744,3997730,406.34912,18.85,96538.5,1.147037
22007961,21990327,3997730,406.2857,18.85,96539.25,1.147046
22229233,22206500,3997730,406.24078,18.859999,96539.75,1.1470519
22440380,22420162,3997730,406.19852,18.859999,96540.25,1.1470579
22601110,22580995,3997730,406.34912,18.859999,96538.5,1.147037
22812242,22794581,3997730,406.21964,18.859999,96540.0,1.1470549
23033453,23010681,3997730,406.1113,18.859999,96541.25,1.1470698
23204339,23184161,3997730,406.17734,18.869999,96540.5,1.1470609
23415479,23397803,3997730,406.34912,18.869999,96538.5,1.147037
23636507,23613881,3997730,406.34912,18.869999,96538.49,1.147037
23797679,23774958,3997730,406.394,18.869999,96538.0,1.1470312
24008841,23988616,3997730,406.02673,18.869999,96542.24,1.1470815
24220050,24202332,3997730,406.32797,18.869999,96538.74,1.14704
24441400,24418643,3997730,406.4152,18.88,96537.74,1.1470281
24602239,24579583,3997730,406.1351,18.88,96540.99,1.1470667
24813247,24793109,3997730,406.21964,18.88,96540.0,1.1470549
25024504,25006725,3997730,406.04523,18.88,96542.0,1.1470786
25185305,25167676,3997730,406.1113,18.88,96541.25,1.1470698
25406353,25383657,3997730,406.48123,18.88,96537.0,1.1470193
25627490,25609808,3997730,406.30682,18.88,96538.99,1.1470429
25788465,25770796,3997730,406.2646,18.89,96539.5,1.147049
26009591,25986866,3997730,406.30682,18.89,96539.0,1.147043
26220789,26200618,3997730,406.09018,18.89,96541.5,1.1470727
26431834,26414221,3997730,406.34912,18.9,96538.5,1.147037
26592627,26575001,3997730,406.2857,18.9,96539.24,1.1470459
26813847,26791215,3997730,406.32797,18.9,96538.74,1.14704
27024851,27004676,3997730,406.63187,18.9,96535.24,1.1469984
27235963,27218303,3997730,406.50238,18.9,96536.74,1.1470162
27396789,27379079,3997730,406.48123,18.9,96537.0,1.1470193
27627942,27607706,3997730,406.4152,18.9,96537.74,1.1470281
27839184,27821527,3997730,406.4363,18.91,96537.5,1.1470252
28020167,27997475,3997730,406.5658,18.91,96536.0,1.1470073
28231399,28211219,3997730,406.54462,18.91,96536.24,1.1470102
28442434,28424826,3997730,406.60803,18.91,96535.51,1.1470015
28603243,28585612,3997730,406.5658,18.91,96536.0,1.1470073
28824412,28801775,3997730,406.8036,18.91,96533.25,1.1469747
29035589,29015404,3997730,406.86966,18.91,96532.49,1.1469657
29196449,29176174,3997730,407.02026,18.92,96530.75,1.146945
29407570,29389923,3997730,407.28186,18.92,96527.75,1.1469094
29628894,29606250,3997730,407.8209,18.92,96521.5,1.1468351
29840056,29819920,3997730,407.6914,18.92,96523.0,1.146853
30001044,29980902,3997730,407.32416,18.92,96527.25,1.1469034
30212078,30194447,3997730,407.58307,18.92,96524.25,1.1468678
30433199,30410439,3997730,407.90808,18.92,96520.49,1.1468232
30594007,30571324,3997730,407.93185,18.93,96520.24,1.1468202
30805238,30785017,3997730,407.73633,18.93,96522.5,1.146847
31016380,30998738,3997730,408.08246,18.93,96518.5,1.1467994
31197238,31166976,3997730,407.9345,18.93,96520.195,1.1468196
31408298,31388117,3997730,407.97415,18.93,96519.74,1.1468142
31619401,31601523,3997730,408.42862,18.93,96514.5,1.1467519
31840175,31817483,3997730,408.23306,18.939999,96516.75,1.1467787
32001021,31978393,3997730,408.62415,18.93,96512.25,1.1467252
32212144,32191963,3997730,408.5158,18.939999,96513.5,1.1467401
32373526,32352887,3997730,408.64526,18.93,96512.0,1.1467222
32604312,32581562,3997730,408.57922,18.939999,96512.74,1.146731
32825665,32801266,3997730,408.86987,18.939999,96509.39,1.1466912
32986438,32968758,3997730,408.77475,18.939999,96510.5,1.1467044
33207527,33184871,3997730,408.88312,18.939999,96509.25,1.1466895
33418677,33398503,3997730,409.0575,18.939999,96507.24,1.1466657
33629720,33612112,3997730,408.83817,18.939999,96509.75,1.1466955
33790691,33772993,3997730,409.0126,18.939999,96507.75,1.1466718
34011709,33989082,3997730,408.92535,18.949999,96508.75,1.1466836
34222911,34202671,3997730,408.77475,18.949999,96510.5,1.1467044
34384311,34363662,3997730,408.7959,18.949999,96510.24,1.1467013
34615181,34592504,3997730,408.88312,18.949999,96509.25,1.1466895
34826323,34806069,3997730,408.68756,18.949999,96511.5,1.1467162
35037352,35019706,3997730,408.34143,18.949999,96515.5,1.1467638
35198310,35180625,3997730,408.19083,18.949999,96517.25,1.1467845
35419508,35396853,3997730,408.49466,18.949999,96513.74,1.1467429
35630682,35610494,3997730,408.60303,18.949999,96512.49,1.146728
35841885,35824096,3997730,409.03372,18.949999,96507.5,1.1466688
36002571,35984911,3997730,409.14203,18.96,96506.25,1.1466539
36223716,36201052,3997730,408.57922,18.96,96512.74,1.146731
36435604,36414821,3997730,409.14203,18.96,96506.25,1.1466539
36605988,36588274,3997730,409.1632,18.96,96506.0,1.1466509
36827145,36804507,3997730,409.0126,18.96,96507.75,1.1466718
37038151,37018031,3997730,409.03372,18.97,96507.5,1.1466688
37200205,37178841,3997730,409.09976,18.96,96506.75,1.1466599
37440308,37420110,3997730,409.0786,18.97,96507.0,1.1466628
37601302,37581149,3997730,408.92535,18.96,96508.75,1.1466836
37812498,37794802,3997730,408.90424,18.96,96509.0,1.1466866
38033715,38011035,3997730,409.18695,18.97,96505.75,1.1466479
38244750,38224613,3997730,409.0126,18.97,96507.75,1.1466718
38405827,38385496,3997730,409.2081,18.97,96505.5,1.146645
38616994,38599348,3997730,409.1632,18.97,96506.0,1.1466509
38838255,38815415,3997730,409.05484,18.97,96507.25,1.1466658
38998956,38976264,3997730,409.31644,18.97,96504.25,1.1466302
39210109,39189985,3997730,409.2504,18.97,96505.0,1.146639
39421160,39403524,3997730,409.18695,18.97,96505.75,1.1466479
39642335,39619598,3997730,409.1632,18.98,96506.01,1.146651
39803040,39780347,3997730,409.44592,18.97,96502.75,1.1466123
40014543,39993997,3997730,409.09976,18.98,96506.75,1.1466599
40185110,40167419,3997730,409.0786,18.97,96507.0,1.1466628
40406306,40383603,3997730,409.16583,18.98,96505.99,1.1466508
40617435,40597250,3997730,409.1632,18.98,96506.0,1.1466509
40828539,40810916,3997730,408.90424,18.98,96509.0,1.1466866
40989584,40971889,3997730,409.03372,18.98,96507.49,1.1466687
41210973,41188008,3997730,408.21194,18.98,96516.99,1.1467816
41431863,41414256,3997730,408.23306,18.98,96516.75,1.1467787
41592938,41575073,3997730,408.10364,18.98,96518.24,1.1467963
41813787,41791122,3997730,408.57922,18.98,96512.74,1.146731
42025431,42004752,3997730,408.38373,18.98,96515.0,1.1467578
42236066,42218368,3997730,408.40747,18.98,96514.75,1.1467549
42396803,42379074,3997730,408.36255,18.98,96515.25,1.1467608
42617968,42595229,3997730,407.88696,18.98,96520.74,1.146826
42829221,42809013,3997730,408.64526,18.98,96512.0,1.1467222
43040448,43022815,3997730,408.25424,18.98,96516.5,1.1467757
43201510,43183749,3997730,408.47092,18.98,96514.0,1.1467459
43422563,43399886,3997730,408.38373,18.98,96515.0,1.1467578
43633855,43613443,3997730,408.25424,18.98,96516.5,1.1467757
43794548,43774314,3997730,408.38373,18.99,96515.0,1.1467578
44005562,43987944,3997730,408.36255,18.98,96515.25,1.1467608
44226781,44204048,3997730,408.38373,18.99,96515.0,1.1467578
44438151,44417603,3997730,408.16968,18.99,96517.5,1.1467875
44608800,44591076,3997730,408.5158,18.99,96513.5,1.1467401
44830166,44807233,3997730,408.0164,18.99,96519.25,1.1468084
45000772,44980590,3997730,408.278,18.99,96516.24,1.1467726
45212030,45194341,3997730,408.62415,18.99,96512.24,1.146725
45433122,45410397,3997730,408.77475,18.99,96510.5,1.1467044
45644601,45623986,3997730,408.81705,18.99,96510.0,1.1466985
45805023,45784898,3997730,409.09976,18.99,96506.74,1.1466597
46016021,45998341,3997730,408.92535,18.99,96508.75,1.1466836
46197021,46174391,3997730,408.7959,18.99,96510.24,1.1467013
46408049,46387929,3997730,408.86194,18.99,96509.5,1.1466925
46619108,46601460,3997730,408.94653,18.99,96508.5,1.1466806
46840273,46817575,3997730,408.77475,18.99,96510.5,1.1467044
47001198,46978497,3997730,409.2715,18.99,96504.75,1.1466361
47212318,47192111,3997730,409.46704,18.99,96502.5,1.1466093
47443538,47413262,3997730,409.47498,18.99,96502.41,1.1466082
47604415,47581728,3997730,409.401,18.99,96503.25,1.1466182
47815367,47795234,3997730,409.9215,18.99,96497.25,1.146547
48026473,48008854,3997730,409.83432,18.99,96498.25,1.1465589
48207675,48177189,3997730,409.59653,18.99,96500.99,1.1465914
48418772,48398584,3997730,409.68372,18.99,96500.0,1.1465796
48579976,48559431,3997730,409.401,18.99,96503.25,1.1466182
48810747,48788120,3997730,409.37985,18.99,96503.5,1.1466212
49022064,49001845,3997730,409.46704,18.99,96502.5,1.1466093
49233199,49215557,3997730,408.94653,19.0,96508.5,1.1466806
49394166,49376466,3997730,409.1632,18.99,96506.0,1.1466509
49615306,49592657,3997730,408.94653,18.99,96508.5,1.1466806
49826557,49806420,3997730,408.42862,19.0,96514.49,1.1467519
50037690,50020042,3997730,408.47092,19.0,96513.99,1.1467459
50198627,50180938,3997730,408.99142,19.0,96508.0,1.1466746
50419957,50397268,3997730,409.2504,19.0,96505.0,1.146639
50631318,50611093,3997730,408.99142,19.0,96508.0,1.1466746
50842401,50824667,3997730,408.38373,19.0,96515.0,1.1467578
51003119,50985506,3997730,408.23306,19.0,96516.75,1.1467787
51224266,51201567,3997730,408.55807,19.0,96513.0,1.1467341
51395000,51374795,3997730,408.29648,19.0,96516.0,1.1467698
51606107,51588472,3997730,408.7959,19.0,96510.25,1.1467015
51827418,51804688,3997730,408.27536,19.0,96516.25,1.1467727
52038633,52018458,3997730,408.40747,19.0,96514.75,1.1467549
52199533,52179418,3997730,408.40747,19.0,96514.75,1.1467549
52410753,52393123,3997730,408.32028,19.0,96515.75,1.1467668
52631875,52609256,3997730,408.62415,19.0,96512.24,1.146725
52842999,52822829,3997730,408.88312,19.0,96509.25,1.1466895
53004048,52983775,3997730,408.9703,19.0,96508.25,1.1466776
53214991,53197368,3997730,409.05484,19.0,96507.25,1.1466658
53436177,53413518,3997730,408.90424,19.0,96509.0,1.1466866
53597016,53574385,3997730,408.77475,19.0,96510.5,1.1467044
53808408,53788266,3997730,409.1632,19.0,96506.0,1.1466509
54019549,54001913,3997730,409.46704,19.0,96502.5,1.1466093
54240816,54218092,3997730,409.0786,19.0,96506.99,1.1466627
54401729,54379011,3997730,409.68372,19.0,96500.0,1.1465796
54612863,54592683,3997730,409.46704,19.0,96502.5,1.1466093
54824227,54806480,3997730,409.57538,19.0,96501.25,1.1465945
55005058,54982381,3997730,409.4882,19.0,96502.25,1.1466063
55216209,55195996,3997730,409.2715,19.0,96504.75,1.1466361
55427466,55409717,3997730,409.87927,19.0,96497.75,1.1465529
55588230,55570583,3997730,410.00873,19.0,96496.25,1.146535
55809477,55786758,3997730,410.24652,19.0,96493.49,1.1465023
56020447,56000282,3997730,409.83432,19.0,96498.25,1.1465589
56231745,56214041,3997730,409.70483,19.0,96499.75,1.1465766
56392583,56374924,3997730,409.726,19.0,96499.5,1.1465737
56613658,56590968,3997730,409.401,19.0,96503.25,1.1466182
56825013,56804740,3997730,409.46704,19.01,96502.5,1.1466093
57036167,57018396,3997730,409.57538,19.0,96501.24,1.1465944
57196853,57179240,3997730,409.09976,19.0,96506.75,1.1466599
57418161,57395410,3997730,409.37985,19.0,96503.5,1.1466212
57629181,57609046,3997730,409.22925,19.01,96505.25,1.146642
57840357,57822633,3997730,409.37985,19.01,96503.5,1.1466212
58001227,57983612,3997730,409.2504,19.01,96505.0,1.146639
58222418,58199730,3997730,409.29532,19.0,96504.5,1.1466331
58433625,58413363,3997730,409.37985,19.01,96503.5,1.1466212
58594394,58574179,3997730,409.22925,19.0,96505.25,1.146642
58805415,58787759,3997730,409.55423,19.0,96501.5,1.1465975
59026555,59003919,3997730,409.3587,19.0,96503.75,1.1466242
59237688,59217512,3997730,409.0786,19.0,96506.99,1.1466627
59398495,59378323,3997730,409.55423,19.0,96501.49,1.1465974
59609622,59591966,3997730,409.57538,19.0,96501.24,1.1465944
59830862,59808122,3997730,409.4882,19.0,96502.25,1.1466063
60042063,60021893,3997730,409.70483,19.0,96499.75,1.1465766
60202863,60182676,3997730,409.42477,19.0,96503.0,1.1466153
60414047,60396420,3997730,409.31644,19.0,96504.25,1.1466302
60635241,60612606,3997730,409.5331,19.0,96501.75,1.1466005
60796354,60773621,3997730,409.46704,19.01,96502.5,1.1466093
61007403,60987274,3997730,409.3587,19.01,96503.75,1.1466242
61218485,61200862,3997730,409.44592,19.0,96502.75,1.1466123
61439535,61416881,3997730,409.3376,19.0,96503.99,1.1466271
61600644,61577847,3997730,409.68372,19.0,96500.0,1.1465796
61811761,61791535,3997730,409.726,19.01,96499.5,1.1465737
62022815,62005140,3997730,409.55423,19.0,96501.5,1.1465975
62243857,62221221,3997730,409.5331,19.01,96501.75,1.1466005
62404799,62382097,3997730,409.4882,19.01,96502.25,1.1466063
62615948,62595789,3997730,409.7498,19.01,96499.25,1.1465707
62827121,62809465,3997730,409.5331,19.0,96501.75,1.1466005
63008207,62977809,3997730,409.85812,19.01,96498.0,1.1465559
63219226,63199067,3997730,409.46704,19.01,96502.5,1.1466093
63430338,63412656,3997730,409.79208,19.0,96498.75,1.1465648
63591212,63573519,3997730,410.162,19.0,96494.49,1.1465142
63822371,63802195,3997730,409.55423,19.0,96501.5,1.1465975
64033596,64015928,3997730,409.3587,19.01,96503.75,1.1466242
64194520,64176696,3997730,409.61765,19.01,96500.75,1.1465886
64415575,64392924,3997730,409.18695,19.01,96505.75,1.1466479
64626799,64606633,3997730,409.401,19.01,96503.25,1.1466182
64837980,64820242,3997730,409.03372,19.01,96507.5,1.1466688
64998822,64981102,3997730,409.3587,19.01,96503.75,1.1466242
65220084,65197340,3997730,409.46704,19.0,96502.5,1.1466093
65431200,65411008,3997730,409.2715,19.01,96504.75,1.1466361
65642429,65624743,3997730,409.14203,19.01,96506.25,1.1466539
65803085,65785437,3997730,408.84082,19.01,96509.74,1.1466954
66024255,66001560,3997730,408.84082,19.0,96509.74,1.1466954
66235635,66215401,3997730,408.60303,19.01,96512.49,1.146728
66396438,66376174,3997730,409.1632,19.01,96506.0,1.1466509
66627542,66604880,3997730,408.88312,19.01,96509.25,1.1466895
66838773,66818623,3997730,408.99142,19.01,96507.99,1.1466746
66999652,66979468,3997730,409.1209,19.01,96506.49,1.1466568
67210854,67193125,3997730,409.2715,19.01,96504.75,1.1466361
67432104,67409453,3997730,409.1209,19.0,96506.5,1.1466569
67643088,67622963,3997730,408.88312,19.0,96509.24,1.1466894
67803995,67783816,3997730,409.09976,19.0,96506.75,1.1466599
68015226,67997541,3997730,409.22925,19.0,96505.25,1.146642
68196326,68166045,3997730,409.18167,19.01,96505.8,1.1466485
68407427,68387272,3997730,409.09976,19.0,96506.75,1.1466599
68638641,68608243,3997730,409.1288,19.01,96506.4,1.1466557
68799309,68776547,3997730,409.2081,19.0,96505.5,1.146645
69010493,68990241,3997730,409.1209,19.0,96506.5,1.1466569
69221619,69203964,3997730,409.37985,19.01,96503.5,1.1466212
69403124,69372309,3997730,409.37195,19.01,96503.6,1.1466224
69623709,69606080,3997730,409.2715,19.0,96504.75,1.1466361
69805422,69774521,3997730,409.3191,19.01,96504.2,1.1466296
70025980,70008344,3997730,409.61765,19.0,96500.75,1.1465886
70186839,70169161,3997730,409.5331,19.0,96501.75,1.1466005
70408264,70385500,3997730,409.6626,19.01,96500.24,1.1465825
70619225,70599047,3997730,409.3587,19.01,96503.75,1.1466242
70830207,70812574,3997730,409.18695,19.0,96505.75,1.1466479
70991146,70973427,3997730,409.0786,19.01,96507.0,1.1466628
71212318,71189632,3997730,409.0786,19.0,96507.0,1.1466628
71423436,71403222,3997730,408.99142,19.0,96507.99,1.1466746
71634647,71616916,3997730,409.42477,19.01,96503.0,1.1466153
71815571,71785330,3997730,409.00726,19.0,96507.8,1.1466722
72026829,72006620,3997730,408.94653,19.01,96508.5,1.1466806
72237944,72220286,3997730,409.401,19.0,96503.25,1.1466182
72398848,72381110,3997730,409.2504,19.01,96505.0,1.146639
72620181,72597343,3997730,409.2081,19.0,96505.5,1.146645
72831336,72811136,3997730,408.75363,19.0,96510.74,1.1467073
72992651,72972093,3997730,409.0126,19.0,96507.75,1.1466718
73223489,73200777,3997730,408.81705,19.0,96510.0,1.1466985
73434580,73414374,3997730,409.1209,19.0,96506.49,1.1466568
73595429,73575250,3997730,408.94653,19.0,96508.5,1.1466806
73826822,73796336,3997730,409.0786,19.0,96507.0,1.1466628
73997454,73977331,3997730,409.1632,19.0,96506.0,1.1466509
74229260,74198526,3997730,408.90424,19.0,96509.0,1.1466866
74399565,74379448,3997730,409.3376,19.0,96504.0,1.1466272
74610805,74593134,3997730,409.0126,19.01,96507.75,1.1466718
74831949,74809270,3997730,409.2081,19.0,96505.5,1.146645
75042990,75022818,3997730,409.05484,19.0,96507.25,1.1466658
75203821,75183658,3997730,409.46704,19.0,96502.5,1.1466093
75414859,75397209,3997730,409.44592,19.0,96502.75,1.1466123
75636067,75613357,3997730,409.44592,19.0,96502.75,1.1466123
75797184,75774106,3997730,409.31644,19.0,96504.25,1.1466302
76018171,76000546,3997730,409.3587,19.0,96503.75,1.1466242
76239495,76216765,3997730,408.83817,19.0,96509.75,1.1466955
76400213,76377589,3997730,408.55807,19.0,96513.0,1.1467341
76611688,76591360,3997730,408.34143,19.0,96515.49,1.1467637
76822682,76804988,3997730,408.92535,19.0,96508.75,1.1466836
76983475,76965739,3997730,408.84082,19.0,96509.74,1.1466954
77204543,77181920,3997730,408.57922,19.0,96512.74,1.146731
77425772,77401594,3997730,408.93857,19.0,96508.61,1.1466819
77586661,77569057,3997730,409.0126,18.99,96507.75,1.1466718
77807973,77785271,3997730,409.2081,19.0,96505.5,1.146645
78019277,77998987,3997730,409.2504,18.99,96505.0,1.146639
78230459,78212746,3997730,409.31644,18.99,96504.25,1.1466302
78391377,78373620,3997730,409.3587,19.0,96503.75,1.1466242
78612664,78589869,3997730,409.401,19.0,96503.25,1.1466182
78823804,78803552,3997730,409.37985,19.0,96503.5,1.1466212
78994836,78970569,3997730,409.28473,18.99,96504.59,1.1466342
79215948,79193229,3997730,409.31644,18.99,96504.25,1.1466302
79427110,79406904,3997730,409.42477,18.99,96503.0,1.1466153
79637931,79620301,3997730,409.2715,18.99,96504.76,1.1466361
79798962,79781151,3997730,409.22925,18.99,96505.25,1.146642
80020115,79997304,3997730,408.88312,18.98,96509.24,1.1466894
80231107,80210856,3997730,409.42477,18.99,96503.0,1.1466153
80441896,80424288,3997730,409.6626,18.99,96500.25,1.1465826
80602720,80585079,3997730,409.68372,18.99,96500.0,1.1465796
80823972,80801291,3997730,409.8132,18.99,96498.5,1.1465619
80985299,80962120,3997730,410.1831,18.99,96494.24,1.1465112
81205855,81188229,3997730,409.9427,18.99,96497.0,1.146544
81427514,81404284,3997730,409.85812,18.99,96498.0,1.1465559
81597898,81577729,3997730,409.98758,18.99,96496.5,1.146538
81809201,81791522,3997730,410.4843,18.99,96490.75,1.1464697
82030339,82007626,3997730,410.20425,18.99,96494.0,1.1465083
82241526,82221347,3997730,410.2254,18.99,96493.75,1.1465054
82402359,82382180,3997730,410.1831,18.99,96494.25,1.1465113
82613456,82595794,3997730,410.65875,18.99,96488.75,1.146446
82834658,82812019,3997730,410.74594,18.99,96487.74,1.146434
83045825,83025615,3997730,410.67987,18.99,96488.49,1.1464429
83206643,83186482,3997730,410.11707,18.99,96494.99,1.1465201
83417973,83400247,3997730,410.26767,18.99,96493.25,1.1464994
83639075,83616407,3997730,410.02988,18.98,96496.0,1.146532
83799948,83777239,3997730,409.98758,18.99,96496.5,1.146538
84011130,83990950,3997730,409.98758,18.99,96496.5,1.146538
84222926,84204467,3997730,409.9215,18.99,96497.25,1.146547
84443248,84420593,3997730,409.9004,18.98,96497.5,1.1465499
84604173,84581337,3997730,410.09592,18.98,96495.24,1.1465231
84815293,84795105,3997730,410.15933,18.98,96494.5,1.1465143
85027047,85008685,3997730,410.20425,18.98,96493.99,1.1465082
85187046,85169437,3997730,409.9427,18.98,96497.0,1.146544
85408527,85385681,3997730,409.59653,18.98,96501.0,1.1465915
85619573,85599367,3997730,409.401,18.98,96503.25,1.1466182
85830701,85812969,3997730,409.42477,18.98,96503.0,1.1466153
85991482,85973778,3997730,409.14203,18.98,96506.25,1.1466539
86212545,86189895,3997730,409.29532,18.98,96504.49,1.146633
86433726,86416094,3997730,409.29532,18.98,96504.5,1.1466331
86594548,86576900,3997730,409.59653,18.98,96501.0,1.1465915
86825682,86805519,3997730,409.57538,18.98,96501.24,1.1465944
87036731,87019088,3997730,409.22925,18.98,96505.25,1.146642
87197673,87180045,3997730,409.37985,18.98,96503.5,1.1466212
87418772,87396054,3997730,409.09976,18.98,96506.75,1.1466599
87629921,87609794,3997730,409.14203,18.98,96506.25,1.1466539
87841079,87823366,3997730,409.2081,18.98,96505.5,1.146645
88002115,87984436,3997730,409.42477,18.98,96503.0,1.1466153
88223232,88200582,3997730,409.61765,18.98,96500.75,1.1465886
88434545,88414309,3997730,409.31644,18.97,96504.25,1.1466302
88645589,88627819,3997730,409.29532,18.98,96504.5,1.1466331
88806342,88788717,3997730,409.22925,18.98,96505.25,1.146642
89027504,89004857,3997730,409.14203,18.97,96506.25,1.1466539
89238888,89218644,3997730,409.2504,18.97,96505.0,1.146639
89399773,89379638,3997730,409.29532,18.97,96504.49,1.146633
89610779,89593148,3997730,409.14203,18.97,96506.25,1.1466539
89832081,89809332,3997730,408.94653,18.97,96508.5,1.1466806
90002939,89982776,3997730,409.22925,18.98,96505.25,1.146642
90214153,90196389,3997730,409.09976,18.97,96506.75,1.1466599
90395117,90364832,3997730,409.216,18.97,96505.4,1.1466438
90606427,90586161,3997730,409.2504,18.97,96504.99,1.146639
90817495,90799870,3997730,409.29532,18.98,96504.49,1.146633
91038729,91015936,3997730,409.03372,18.97,96507.49,1.1466687
91199451,91176771,3997730,409.22925,18.97,96505.25,1.146642
91410706,91390502,3997730,408.92535,18.97,96508.75,1.1466836
91621730,91604089,3997730,408.9703,18.97,96508.25,1.1466776
91842973,91820212,3997730,409.3587,18.97,96503.75,1.1466242
92003654,91981021,3997730,409.05484,18.97,96507.25,1.1466658
92214715,92194578,3997730,408.928,18.96,96508.74,1.1466835
92425880,92408267,3997730,409.2081,18.97,96505.49,1.146645
92586814,92569173,3997730,409.46704,18.97,96502.5,1.1466093
92808100,92785366,3997730,409.2081,18.97,96505.49,1.146645
93019183,92999057,3997730,409.46704,18.96,96502.5,1.1466093
93230420,93212796,3997730,409.44592,18.96,96502.75,1.1466123
93391227,93373569,3997730,409.3587,18.96,96503.75,1.1466242
93622623,93602448,3997730,409.401,18.96,96503.25,1.1466182
93833915,93816140,3997730,409.29532,18.97,96504.49,1.146633
94014788,93984603,3997730,409.512,18.96,96502.0,1.1466033
94226249,94205931,3997730,409.3376,18.96,96504.0,1.1466272
94437173,94419491,3997730,408.9703,18.96,96508.25,1.1466776
94598082,94580450,3997730,409.2504,18.96,96505.0,1.146639
94819336,94796608,3997730,409.3587,18.96,96503.75,1.1466242
95030586,95010281,3997730,409.3587,18.96,96503.75,1.1466242
95241573,95223917,3997730,409.22925,18.96,96505.25,1.146642
95402320,95384665,3997730,408.81705,18.96,96510.0,1.1466985
95633837,95613547,3997730,409.2504,18.96,96505.0,1.146639
95844912,95827193,3997730,409.2715,18.96,96504.75,1.1466361
96005660,95988049,3997730,409.05484,18.96,96507.25,1.1466658
96227122,96204304,3997730,409.2081,18.96,96505.5,1.146645
96438303,96418071,3997730,408.9703,18.96,96508.24,1.1466776
96598988,96578874,3997730,409.3376,18.96,96504.0,1.1466272
96810231,96792547,3997730,408.92535,18.96,96508.75,1.1466836
97031609,97008761,3997730,409.16583,18.96,96505.99,1.1466508
97242587,97222421,3997730,408.99142,18.96,96507.99,1.1466746
97403451,97383303,3997730,408.90424,18.96,96509.0,1.1466866
97614417,97596784,3997730,409.22925,18.949999,96505.25,1.146642
97835754,97812940,3997730,409.2081,18.96,96505.5,1.146645
98006629,97986407,3997730,409.0786,18.949999,96507.0,1.1466628
98217734,98200054,3997730,409.2504,18.949999,96505.0,1.146639
98439108,98416361,3997730,409.726,18.949999,96499.5,1.1465737
98599773,98577150,3997730,409.05484,18.949999,96507.25,1.1466658
98811010,98790820,3997730,409.512,18.949999,96501.99,1.1466033
99022006,99004372,3997730,409.29532,18.949999,96504.5,1.1466331
99243318,99220459,3997730,409.22925,18.949999,96505.25,1.146642
99404071,99381440,3997730,409.55423,18.949999,96501.5,1.1465975
99615117,99594946,3997730,409.64142,18.949999,96500.5,1.1465856
99826217,99808573,3997730,409.512,18.949999,96501.99,1.1466033
100007224,99984482,3997730,409.96646,18.949999,96496.75,1.146541
100218403,100198279,3997730,409.9004,18.949999,96497.5,1.1465499
100429614,100411979,3997730,409.5331,18.949999,96501.75,1.1466005
100590421,100572726,3997730,409.8132,18.949999,96498.5,1.1465619
100811765,100789104,3997730,409.9004,18.949999,96497.5,1.1465499
101022870,101002726,3997730,409.79208,18.949999,96498.75,1.1465648
101234236,101216432,3997730,409.4882,18.949999,96502.25,1.1466063
101394971,101377326,3997730,409.9004,18.939999,96497.5,1.1465499
101616122,101593457,3997730,409.16583,18.939999,96505.99,1.1466508
101827537,101807292,3997730,409.2081,18.949999,96505.5,1.146645
102038689,102021013,3997730,409.6626,18.939999,96500.25,1.1465826
102199504,102181877,3997730,409.512,18.939999,96502.0,1.1466033
102420769,102397985,3997730,409.09976,18.939999,96506.75,1.1466599
102631901,102611619,3997730,409.31644,18.939999,96504.25,1.1466302
102842981,102825284,3997730,409.8132,18.949999,96498.5,1.1465619
103003779,102986163,3997730,409.401,18.939999,96503.25,1.1466182
103224864,103202245,3997730,409.59653,18.939999,96501.0,1.1465915
103435990,103415805,3997730,409.44592,18.939999,96502.75,1.1466123
103596786,103576616,3997730,409.7709,18.939999,96499.0,1.1465677
103807917,103790218,3997730,409.5331,18.939999,96501.75,1.1466005
104029150,104006502,3997730,409.7498,18.939999,96499.25,1.1465707
104240245,104220082,3997730,409.79208,18.939999,96498.75,1.1465648
104401314,104381076,3997730,409.70483,18.939999,96499.75,1.1465766
104612184,104594559,3997730,409.9004,18.939999,96497.5,1.1465499
104833418,104810780,3997730,410.00873,18.939999,96496.25,1.146535
104994238,104971572,3997730,409.59653,18.939999,96501.0,1.1465915
105205407,105185263,3997730,409.7498,18.93,96499.25,1.1465707
105416476,105398812,3997730,409.9215,18.93,96497.25,1.146547
105637648,105615004,3997730,409.57538,18.93,96501.24,1.1465944
105798602,105775851,3997730,409.3587,18.93,96503.75,1.1466242
106009837,105989678,3997730,409.2504,18.939999,96504.99,1.146639
106220991,106203322,3997730,409.1632,18.93,96506.0,1.1466509
106442184,106419489,3997730,409.59653,18.93,96501.0,1.1465915
106603106,106580473,3997730,409.3587,18.93,96503.75,1.1466242
106814306,106794150,3997730,408.7325,18.93,96511.0,1.1467103
107025480,107007758,3997730,408.9703,18.93,96508.24,1.1466776
107206431,107183810,3997730,409.14203,18.93,96506.25,1.1466539
107417568,107397446,3997730,409.401,18.93,96503.25,1.1466182
107628672,107611059,3997730,409.1632,18.93,96506.0,1.1466509
107789453,107771808,3997730,408.77475,18.93,96510.5,1.1467044
108010562,107987933,3997730,408.77475,18.93,96510.5,1.1467044
108221669,108201513,3997730,408.66644,18.92,96511.74,1.1467191
108432796,108415148,3997730,408.94653,18.92,96508.5,1.1466806
108593642,108575932,3997730,408.83817,18.93,96509.75,1.1466955
108824937,108804812,3997730,408.86194,18.92,96509.5,1.1466925
109036061,109018434,3997730,408.75363,18.92,96510.74,1.1467073
109196985,109179234,3997730,408.9703,18.92,96508.25,1.1466776
109418142,109395374,3997730,408.75098,18.92,96510.76,1.1467074
109629252,109609134,3997730,409.0126,18.92,96507.75,1.1466718
109840508,109822864,3997730,408.32028,18.93,96515.75,1.1467668
110021407,109998745,3997730,409.03372,18.93,96507.5,1.1466688
110232385,110212256,3997730,408.77475,18.92,96510.51,1.1467044
110443581,110425934,3997730,408.57922,18.91,96512.74,1.146731
110604484,110586796,3997730,408.88312,18.92,96509.25,1.1466895
110825818,110802970,3997730,408.83817,18.91,96509.75,1.1466955
111036876,111016677,3997730,408.57922,18.92,96512.74,1.146731
111197996,111177767,3997730,408.81705,18.91,96510.0,1.1466985
111409204,111391430,3997730,408.99142,18.91,96508.0,1.1466746
111630133,111607491,3997730,408.94653,18.92,96508.5,1.1466806
111841329,111821155,3997730,409.22925,18.92,96505.25,1.146642
112002125,111981981,3997730,409.0575,18.92,96507.24,1.1466657
112213375,112195705,3997730,409.14203,18.92,96506.25,1.1466539
112444511,112424344,3997730,408.64526,18.91,96512.0,1.1467222
112605486,112585294,3997730,409.2715,18.91,96504.75,1.1466361
112836774,112814008,3997730,409.1209,18.91,96506.5,1.1466569
112997492,112974843,3997730,408.77475,18.91,96510.51,1.1467044
113208609,113188393,3997730,409.18695,18.91,96505.75,1.1466479
113419839,113402181,3997730,409.0575,18.91,96507.24,1.1466657
113600872,113570596,3997730,409.16583,18.91,96505.99,1.1466508
113812112,113791841,3997730,409.1209,18.91,96506.5,1.1466569
114023435,114005814,3997730,409.42477,18.91,96503.0,1.1466153
114244657,114221968,3997730,409.09976,18.91,96506.75,1.1466599
114405685,114383012,3997730,408.90424,18.91,96509.0,1.1466866
114616787,114596665,3997730,408.75363,18.9,96510.74,1.1467073
114828053,114810376,3997730,409.05484,18.9,96507.25,1.1466658
114989010,114971360,3997730,408.66644,18.91,96511.76,1.1467193
115210157,115187469,3997730,408.5158,18.9,96513.49,1.14674
115421267,115401116,3997730,408.5158,18.9,96513.5,1.1467401
115632590,115614897,3997730,408.81705,18.9,96510.0,1.1466985
115793415,115775709,3997730,408.92535,18.9,96508.75,1.1466836
116024515,116004368,3997730,409.03372,18.9,96507.49,1.1466687
116235503,116217855,3997730,409.61765,18.9,96500.75,1.1465886
116416493,116393799,3997730,408.928,18.9,96508.74,1.1466835
116627563,116607407,3997730,409.2715,18.9,96504.75,1.1466361
116838997,116821277,3997730,409.18695,18.9,96505.75,1.1466479
116999884,116982151,3997730,409.29532,18.9,96504.5,1.1466331
117220951,117198327,3997730,409.1209,18.9,96506.5,1.1466569
117432162,117412023,3997730,409.5331,18.9,96501.75,1.1466005
117593133,117572983,3997730,409.46704,18.89,96502.5,1.1466093
117804294,117786624,3997730,409.3587,18.89,96503.75,1.1466242
118035644,118015441,3997730,409.37985,18.89,96503.5,1.1466212
118196560,118176339,3997730,409.96646,18.89,96496.75,1.146541
118407794,118390138,3997730,409.7709,18.89,96499.0,1.1465677
118629249,118606472,3997730,409.68372,18.89,96500.0,1.1465796
118840371,118820094,3997730,409.7498,18.89,96499.25,1.1465707
119001243,118980953,3997730,409.726,18.89,96499.5,1.1465737
119212255,119194532,3997730,409.7709,18.89,96499.0,1.1465677
119434252,119410776,3997730,409.83432,18.89,96498.25,1.1465589
119604301,119584145,3997730,409.83432,18.88,96498.25,1.1465589
119815636,119797965,3997730,409.70483,18.88,96499.75,1.1465766
120036759,120014045,3997730,409.61765,18.88,96500.75,1.1465886
120197560,120174932,3997730,409.31644,18.88,96504.25,1.1466302
120418814,120401092,3997730,409.512,18.88,96502.0,1.1466033
120639999,120617278,3997730,409.2504,18.88,96505.0,1.146639
120800787,120778132,3997730,409.4882,18.88,96502.25,1.1466063
121012177,120991744,3997730,409.57538,18.88,96501.25,1.1465945
121223138,121205514,3997730,409.31644,18.88,96504.25,1.1466302
121444952,121421585,3997730,409.1209,18.88,96506.5,1.1466569
121615294,121595036,3997730,409.2715,18.88,96504.75,1.1466361
121827215,121808795,3997730,409.09976,18.88,96506.75,1.1466599
122007478,121984785,3997730,409.31644,18.88,96504.25,1.1466302
122218893,122198529,3997730,409.37985,18.88,96503.5,1.1466212
122429775,122412137,3997730,409.70483,18.869999,96499.75,1.1465766
122590579,122572967,3997730,409.2715,18.869999,96504.75,1.1466361
122821756,122801606,3997730,409.2504,18.869999,96504.99,1.146639
123033827,123015426,3997730,409.4882,18.869999,96502.25,1.1466063
123193923,123176268,3997730,409.37985,18.869999,96503.5,1.1466212
123415152,123392381,3997730,409.68372,18.869999,96500.0,1.1465796
123626404,123606042,3997730,409.46704,18.869999,96502.5,1.1466093
123838080,123819836,3997730,409.44592,18.869999,96502.75,1.1466123
123998310,123980667,3997730,409.4882,18.869999,96502.25,1.1466063
124219816,124197002,3997730,409.46704,18.869999,96502.5,1.1466093
124430752,124410613,3997730,409.4882,18.869999,96502.25,1.1466063
124642452,124624212,3997730,409.42477,18.869999,96503.0,1.1466153
124802922,124785160,3997730,409.401,18.869999,96503.25,1.1466182
125024610,125001440,3997730,409.2081,18.869999,96505.5,1.146645
125195254,125175003,3997730,409.37985,18.869999,96503.5,1.1466212
125406446,125388667,3997730,409.2715,18.869999,96504.75,1.1466361
125627521,125604856,3997730,409.05484,18.859999,96507.25,1.1466658
125838511,125818397,3997730,409.2715,18.859999,96504.75,1.1466361
125999472,125979137,3997730,409.0786,18.859999,96507.0,1.1466628
126210479,126192720,3997730,409.2715,18.85,96504.75,1.1466361
126431645,126408811,3997730,408.90424,18.859999,96509.0,1.1466866
126642790,126622632,3997730,409.22925,18.859999,96505.25,1.146642
126803827,126783592,3997730,409.0786,18.859999,96506.99,1.1466627
127014802,126997173,3997730,409.2081,18.859999,96505.5,1.146645
127196015,127173185,3997730,409.3376,18.859999,96504.0,1.1466272
127407261,127386910,3997730,409.2504,18.859999,96504.99,1.146639
127618246,127600623,3997730,409.14203,18.85,96506.25,1.1466539
127839384,127816723,3997730,409.2715,18.859999,96504.75,1.1466361
128000377,127977534,3997730,409.14203,18.85,96506.25,1.1466539
128211554,128191250,3997730,408.81705,18.85,96510.0,1.1466985
128422724,128405019,3997730,409.0126,18.85,96507.75,1.1466718
128644745,128621113,3997730,408.7325,18.85,96510.99,1.1467103
128814878,128794617,3997730,408.7959,18.859999,96510.25,1.1467015
129027375,129008231,3997730,408.5158,18.85,96513.5,1.1467401
129186895,129169102,3997730,408.5158,18.85,96513.5,1.1467401
129408124,129385214,3997730,408.53696,18.85,96513.24,1.146737
129629200,129611499,3997730,408.49203,18.85,96513.75,1.146743
129789939,129772270,3997730,408.64526,18.85,96512.0,1.1467222
130021384,130001190,3997730,408.08246,18.85,96518.49,1.1467993
130232551,130214794,3997730,408.94653,18.85,96508.5,1.1466806
130393398,130375680,3997730,408.75363,18.85,96510.74,1.1467073
130615217,130591825,3997730,408.77475,18.84,96510.5,1.1467044
130835766,130818151,3997730,408.83817,18.84,96509.75,1.1466955
130996772,130979051,3997730,408.9703,18.84,96508.25,1.1466776
131217917,131195170,3997730,409.22925,18.84,96505.25,1.146642
131429093,131408905,3997730,409.57538,18.84,96501.25,1.1465945
131640238,131622600,3997730,409.2504,18.84,96505.0,1.146639
131801100,131783396,3997730,409.2081,18.84,96505.5,1.146645
132022201,131999530,3997730,409.2081,18.84,96505.5,1.146645
132233573,132213198,3997730,409.3587,18.84,96503.75,1.1466242
132404271,132386499,3997730,409.2504,18.84,96505.0,1.146639
132626030,132602659,3997730,409.37985,18.84,96503.5,1.1466212
132796116,132775969,3997730,409.2715,18.83,96504.75,1.1466361
133007235,132989610,3997730,409.79208,18.83,96498.75,1.1465648
133228698,133206032,3997730,409.46704,18.83,96502.5,1.1466093
133439824,133419647,3997730,409.6203,18.83,96500.74,1.1465884
133600766,133580550,3997730,409.68372,18.83,96500.0,1.1465796
133811872,133794100,3997730,409.6626,18.83,96500.25,1.1465826
134032912,134010218,3997730,409.57538,18.83,96501.25,1.1465945
134244638,134223901,3997730,409.83432,18.82,96498.25,1.1465589
134415022,134397372,3997730,409.68372,18.83,96500.0,1.1465796
134636756,134613458,3997730,409.59653,18.83,96501.0,1.1465915
134807012,134786863,3997730,409.70483,18.82,96499.75,1.1465766
135018352,135000569,3997730,409.68372,18.82,96500.0,1.1465796
135239463,135216773,3997730,409.55423,18.82,96501.5,1.1465975
135400584,135377753,3997730,409.31644,18.82,96504.25,1.1466302
135611701,135591485,3997730,409.64142,18.82,96500.5,1.1465856
135823356,135805050,3997730,409.1209,18.82,96506.5,1.1466569
136043946,136021288,3997730,408.99142,18.82,96508.0,1.1466746
136204959,136182141,3997730,409.0126,18.82,96507.75,1.1466718
136415972,136395788,3997730,408.62415,18.82,96512.25,1.1467252
136627304,136609436,3997730,408.66644,18.81,96511.74,1.1467191
136788171,136770428,3997730,408.83817,18.81,96509.75,1.1466955
137009468,136986720,3997730,408.81705,18.82,96510.0,1.1466985
137220508,137200216,3997730,408.57922,18.82,96512.74,1.146731
137431627,137413914,3997730,408.86194,18.81,96509.5,1.1466925
137592657,137574930,3997730,408.81705,18.81,96510.0,1.1466985
137814384,137791064,3997730,408.57922,18.81,96512.74,1.146731
138035111,138017494,3997730,408.38373,18.81,96515.0,1.1467578
138196583,138178412,3997730,408.06134,18.81,96518.74,1.1468023
138417107,138394483,3997730,408.14587,18.81,96517.75,1.1467905
138628180,138608044,3997730,407.79974,18.81,96521.75,1.1468381
138839374,138821741,3997730,407.88696,18.81,96520.74,1.146826
139000196,138982425,3997730,408.57922,18.81,96512.74,1.146731
139221306,139198588,3997730,408.38373,18.8,96515.0,1.1467578
139432656,139412237,3997730,408.42862,18.8,96514.49,1.1467519
139643739,139626078,3997730,408.92535,18.8,96508.75,1.1466836
139804791,139786920,3997730,408.81705,18.8,96510.0,1.1466985
140025678,140003023,3997730,408.64526,18.8,96512.0,1.1467222
140236772,140216615,3997730,409.03372,18.8,96507.49,1.1466687
140397758,140377513,3997730,409.03372,18.8,96507.5,1.1466688
140608776,140591080,3997730,409.14203,18.8,96506.25,1.1466539
140829916,140807179,3997730,408.9703,18.8,96508.24,1.1466776
141040965,141020728,3997730,408.88312,18.789999,96509.25,1.1466895
141201647,141181489,3997730,408.77475,18.789999,96510.5,1.1467044
141412855,141395222,3997730,408.99142,18.789999,96507.99,1.1466746
141634120,141611409,3997730,408.88312,18.789999,96509.25,1.1466895
141845769,141825062,3997730,408.84082,18.789999,96509.74,1.1466954
142016219,141998476,3997730,408.90424,18.789999,96509.0,1.1466866
142237299,142214505,3997730,408.16968,18.789999,96517.49,1.1467875
142408252,142388101,3997730,408.40747,18.789999,96514.75,1.1467549
142619796,142601957,3997730,408.44977,18.779999,96514.24,1.1467489
142841008,142818284,3997730,408.29648,18.789999,96516.0,1.1467698
143002019,142979196,3997730,408.36255,18.779999,96515.25,1.1467608
143213144,143192950,3997730,408.47092,18.779999,96514.0,1.1467459
143424788,143406596,3997730,408.19083,18.779999,96517.25,1.1467845
143585247,143567516,3997730,408.47092,18.779999,96513.99,1.1467459
143807203,143783846,3997730,408.32028,18.789999,96515.75,1.1467668
144027747,144010062,3997730,408.27536,18.779999,96516.25,1.1467727
144188671,144170901,3997730,408.27536,18.779999,96516.25,1.1467727
144409846,144387195,3997730,408.19083,18.779999,96517.25,1.1467845
144621045,144600776,3997730,408.36255,18.779999,96515.25,1.1467608
144832028,144814385,3997730,408.16968,18.779999,96517.5,1.1467875
144992897,144975226,3997730,408.7325,18.779999,96511.0,1.1467103
145214204,145191529,3997730,408.5158,18.779999,96513.49,1.14674
145425342,145405206,3997730,408.23306,18.779999,96516.75,1.1467787
145636366,145618729,3997730,408.32028,18.77,96515.75,1.1467668
145797428,145779632,3997730,408.7325,18.77,96510.99,1.1467103
146018607,145995900,3997730,408.75098,18.77,96510.76,1.1467074
146229631,146209514,3997730,408.64526,18.77,96511.99,1.1467221
146440893,146423266,3997730,408.60037,18.77,96512.5,1.1467282
146601730,146583996,3997730,408.55807,18.77,96513.0,1.1467341
146822817,146800128,3997730,408.47092,18.77,96513.99,1.1467459
147034065,147013791,3997730,408.77475,18.77,96510.5,1.1467044
147194771,147174548,3997730,408.7959,18.77,96510.25,1.1467015
147406003,147388218,3997730,408.68756,18.77,96511.5,1.1467162
147626998,147604352,3997730,408.7959,18.77,96510.25,1.1467015
147838237,147818097,3997730,408.57922,18.77,96512.74,1.146731
147999243,147978997,3997730,408.77475,18.77,96510.5,1.1467044
148211082,148192764,3997730,408.84082,18.76,96509.74,1.1466954
148431727,148409108,3997730,408.7325,18.76,96511.0,1.1467103
148593264,148569908,3997730,408.5158,18.76,96513.5,1.1467401
148813833,148796174,3997730,408.77475,18.76,96510.5,1.1467044
149035075,149012362,3997730,408.36255,18.76,96515.25,1.1467608
149195984,149173315,3997730,408.53696,18.76,96513.24,1.146737
149407409,149387144,3997730,408.75363,18.76,96510.74,1.1467073
149618387,149600763,3997730,408.86194,18.76,96509.5,1.1466925
149839447,149816728,3997730,408.66644,18.76,96511.75,1.1467192
150000249,149977586,3997730,408.9703,18.76,96508.25,1.1466776
150211551,150191272,3997730,408.75098,18.76,96510.76,1.1467074
150422968,150405243,3997730,408.7959,18.75,96510.24,1.1467013
150643954,150621307,3997730,408.53696,18.76,96513.25,1.1467371
150804872,150782251,3997730,408.47092,18.76,96513.99,1.1467459
151015958,150995788,3997730,408.53696,18.75,96513.24,1.146737
151227224,151209517,3997730,408.29648,18.75,96516.0,1.1467698
151388173,151370507,3997730,408.21194,18.75,96516.99,1.1467816
151609473,151586796,3997730,408.21194,18.75,96517.0,1.1467816
151830720,151806413,3997730,408.07455,18.75,96518.59,1.1468005
151991438,151973829,3997730,408.40747,18.75,96514.75,1.1467549
152212585,152189963,3997730,407.628,18.75,96523.75,1.1468618
152423739,152403569,3997730,408.03757,18.75,96519.0,1.1468054
152634981,152617233,3997730,407.79974,18.75,96521.75,1.1468381
152795768,152778103,3997730,407.628,18.75,96523.75,1.1468618
153017019,152994183,3997730,407.51965,18.74,96525.0,1.1468767
153227901,153207731,3997730,407.7786,18.75,96522.0,1.146841
153439348,153421676,3997730,407.41135,18.74,96526.24,1.1468915
153600130,153582515,3997730,407.14972,18.74,96529.25,1.1469271
153821355,153798668,3997730,407.95297,18.74,96519.99,1.1468172
154032504,154012364,3997730,407.45358,18.74,96525.75,1.1468856
154193578,154173165,3997730,407.1735,18.74,96529.0,1.1469243
154404580,154386936,3997730,407.93185,18.74,96520.24,1.1468202
154625673,154603014,3997730,407.71518,18.74,96522.75,1.14685
154836768,154816591,3997730,407.95035,18.74,96520.0,1.1468173
154998076,154977278,3997730,407.97415,18.73,96519.74,1.1468142
155228738,155206069,3997730,408.03757,18.73,96518.99,1.1468053
155439898,155419685,3997730,407.6914,18.74,96523.0,1.146853
155600716,155580550,3997730,407.99527,18.73,96519.49,1.1468112
155811836,155794198,3997730,407.92923,18.74,96520.25,1.1468202
156033027,156010364,3997730,408.12476,18.74,96518.0,1.1467935
156244978,156223945,3997730,407.75748,18.73,96522.25,1.146844
156415083,156397450,3997730,408.03757,18.73,96519.0,1.1468054
156636328,156613592,3997730,408.03757,18.73,96519.0,1.1468054
156797053,156774330,3997730,408.10364,18.73,96518.25,1.1467965
157008419,156988127,3997730,408.08246,18.73,96518.49,1.1467993
157219563,157201878,3997730,408.29648,18.72,96516.0,1.1467698
157440666,157417952,3997730,408.10364,18.73,96518.25,1.1467965
157601596,157578886,3997730,408.42862,18.73,96514.5,1.1467519
157813172,157792595,3997730,408.23306,18.73,96516.75,1.1467787
157983598,157965889,3997730,408.38373,18.72,96515.0,1.1467578
158205163,158181990,3997730,408.40747,18.72,96514.75,1.1467549
158425824,158408208,3997730,408.29648,18.72,96516.0,1.1467698
158586865,158569108,3997730,408.40747,18.72,96514.75,1.1467549
158807987,158785246,3997730,408.19083,18.72,96517.25,1.1467845
159019061,158998832,3997730,408.44977,18.72,96514.24,1.1467489
159230149,159212490,3997730,408.29648,18.72,96516.0,1.1467698
159391159,159373372,3997730,408.49203,18.72,96513.75,1.146743
159612189,159589540,3997730,408.40747,18.72,96514.75,1.1467549
159824897,159803084,3997730,408.47092,18.72,96513.99,1.1467459
159994128,159976504,3997730,408.40747,18.72,96514.75,1.1467549
160215478,160192674,3997730,407.97415,18.72,96519.74,1.1468142
160426623,160406442,3997730,408.38373,18.71,96515.0,1.1467578
160638049,160620272,3997730,408.16968,18.72,96517.5,1.1467875
160798844,160781207,3997730,408.21194,18.71,96517.0,1.1467816
161019967,160997270,3997730,408.55807,18.71,96513.0,1.1467341
161231136,161210960,3997730,408.10364,18.71,96518.24,1.1467963
161442354,161424722,3997730,408.08246,18.71,96518.5,1.1467994
161603260,161585463,3997730,408.62415,18.71,96512.24,1.146725
161824707,161801813,3997730,408.29648,18.71,96516.0,1.1467698
162035597,162015430,3997730,408.53696,18.71,96513.24,1.146737
162197260,162176293,3997730,409.03372,18.71,96507.5,1.1466688
162427742,162405079,3997730,408.60303,18.71,96512.49,1.146728
162639034,162618785,3997730,408.60037,18.699999,96512.5,1.1467282
162799855,162779682,3997730,408.53696,18.699999,96513.24,1.146737
163011276,162993339,3997730,408.57922,18.699999,96512.74,1.146731
163232111,163209491,3997730,408.44977,18.699999,96514.24,1.1467489
163393494,163370278,3997730,408.75363,18.699999,96510.74,1.1467073
163614031,163596410,3997730,408.36255,18.699999,96515.25,1.1467608
163835185,163812533,3997730,408.14587,18.699999,96517.75,1.1467905
163996111,163973372,3997730,408.12476,18.699999,96518.0,1.1467935
164207198,164187034,3997730,408.34143,18.699999,96515.5,1.1467638
164418469,164400800,3997730,408.53696,18.69,96513.24,1.146737
164639645,164616968,3997730,408.42862,18.699999,96514.49,1.1467519
164800519,164777648,3997730,408.60303,18.699999,96512.49,1.146728
165011729,164991378,3997730,408.53696,18.69,96513.24,1.146737
165222692,165205037,3997730,408.62415,18.69,96512.25,1.1467252
165444064,165421270,3997730,408.49203,18.69,96513.75,1.146743
165604819,165582114,3997730,408.53696,18.69,96513.25,1.1467371
165815874,165795685,3997730,408.44977,18.69,96514.24,1.1467489
166026827,166009150,3997730,408.60037,18.69,96512.5,1.1467282
166187619,166170010,3997730,408.7325,18.69,96511.0,1.1467103
166409034,166386283,3997730,408.66644,18.68,96511.74,1.1467191
166620148,166599953,3997730,408.49466,18.69,96513.74,1.1467429
166831333,166813653,3997730,408.16968,18.68,96517.49,1.1467875
166992327,166974522,3997730,408.10364,18.68,96518.25,1.1467965
167213610,167190843,3997730,407.8209,18.68,96521.5,1.1468351
167425228,167404501,3997730,407.79974,18.68,96521.75,1.1468381
167635831,167618190,3997730,408.03757,18.68,96518.99,1.1468053
167796724,167779012,3997730,408.38373,18.68,96515.0,1.1467578
168017834,167995079,3997730,408.25687,18.68,96516.49,1.1467756
168228968,168208722,3997730,408.25424,18.68,96516.5,1.1467757
168439962,168422302,3997730,408.49466,18.68,96513.74,1.1467429
168600743,168583133,3997730,408.38373,18.68,96515.0,1.1467578
168822207,168799329,3997730,408.42862,18.68,96514.49,1.1467519
169034547,169013009,3997730,408.64526,18.68,96512.0,1.1467222
169203955,169186333,3997730,408.53696,18.67,96513.24,1.146737
169425221,169402439,3997730,408.53696,18.67,96513.25,1.1467371
169606070,169581868,3997730,408.57657,18.67,96512.8,1.1467317
169827454,169804592,3997730,408.9703,18.67,96508.25,1.1466776
170038595,170018424,3997730,408.77475,18.67,96510.5,1.1467044
170199514,170179382,3997730,409.03372,18.67,96507.5,1.1466688
170410845,170393187,3997730,408.38373,18.67,96515.0,1.1467578
170631934,170609210,3997730,408.5158,18.67,96513.49,1.14674
170843088,170822844,3997730,408.62415,18.67,96512.24,1.146725
171004090,170983870,3997730,408.83817,18.66,96509.75,1.1466955
171215201,171197419,3997730,408.9703,18.66,96508.25,1.1466776
171436340,171413659,3997730,408.60037,18.66,96512.5,1.1467282
171597080,171574462,3997730,408.88312,18.66,96509.25,1.1466895
171808311,171788182,3997730,409.0126,18.66,96507.74,1.1466717
172019516,172001636,3997730,408.83817,18.66,96509.75,1.1466955
172240452,172217687,3997730,408.92535,18.66,96508.75,1.1466836
172401102,172378464,3997730,409.31644,18.66,96504.25,1.1466302
172612160,172592035,3997730,408.71133,18.66,96511.24,1.1467133
172823329,172805660,3997730,408.19083,18.65,96517.25,1.1467845
173044647,173021890,3997730,408.23306,18.65,96516.75,1.1467787
173205449,173182777,3997730,408.42862,18.65,96514.5,1.1467519
173416564,173396453,3997730,408.19083,18.65,96517.25,1.1467845
173627661,173609965,3997730,408.68756,18.65,96511.5,1.1467162
173788534,173770824,3997730,408.57922,18.65,96512.74,1.146731
174009540,173986886,3997730,408.77475,18.65,96510.5,1.1467044
174220682,174200539,3997730,408.83817,18.65,96509.75,1.1466955
174431842,174414151,3997730,408.25424,18.65,96516.5,1.1467757
174592638,174575002,3997730,408.57922,18.65,96512.74,1.146731
174813798,174791160,3997730,408.29648,18.64,96516.0,1.1467698
175024812,175004686,3997730,408.44977,18.65,96514.24,1.1467489
175236079,175218413,3997730,408.40747,18.65,96514.75,1.1467549
175397058,175379329,3997730,408.66644,18.64,96511.74,1.1467191
175618110,175595414,3997730,408.34143,18.65,96515.5,1.1467638
175829226,175809104,3997730,408.64526,18.64,96512.0,1.1467222
176040513,176022869,3997730,408.60037,18.64,96512.5,1.1467282
176201405,176183765,3997730,408.7325,18.64,96510.99,1.1467103
176422640,176400005,3997730,408.94653,18.64,96508.5,1.1466806
176633922,176613755,3997730,409.05484,18.64,96507.25,1.1466658
176844971,176827345,3997730,409.0126,18.64,96507.75,1.1466718
177005864,176988186,3997730,408.81705,18.63,96510.0,1.1466985
177226865,177204170,3997730,408.64526,18.64,96512.0,1.1467222
177437984,177417864,3997730,408.44977,18.63,96514.24,1.1467489
177598914,177578741,3997730,408.81705,18.64,96510.0,1.1466985
177810022,177792369,3997730,408.44977,18.64,96514.24,1.1467489
178031435,178008812,3997730,408.7959,18.63,96510.25,1.1467015
178242549,178222423,3997730,408.57922,18.63,96512.75,1.1467311
178403502,178383285,3997730,408.38373,18.63,96515.0,1.1467578
178614596,178596943,3997730,408.21194,18.63,96516.99,1.1467816
178795573,178772922,3997730,407.93185,18.63,96520.24,1.1468202
179006637,178986471,3997730,407.93185,18.63,96520.24,1.1468202
179237799,179215128,3997730,407.84204,18.63,96521.25,1.1468321
179398932,179376210,3997730,407.58307,18.619999,96524.25,1.1468678
179610099,179589895,3997730,407.8209,18.63,96521.5,1.1468351
179821182,179803468,3997730,407.71518,18.619999,96522.75,1.14685
180042244,180019515,3997730,407.86578,18.619999,96521.0,1.1468291
180203086,180180324,3997730,407.60687,18.619999,96524.0,1.1468648
180414219,180394053,3997730,407.86578,18.619999,96521.0,1.1468291
180625290,180607589,3997730,408.0164,18.619999,96519.24,1.1468083
180786231,180768442,3997730,407.71518,18.619999,96522.75,1.14685
181007530,180984859,3997730,407.90808,18.619999,96520.49,1.1468232
181218748,181198626,3997730,407.7786,18.619999,96522.0,1.146841
181430149,181412489,3997730,407.88696,18.619999,96520.74,1.146826
181591118,181573490,3997730,408.0164,18.609999,96519.24,1.1468083
181812406,181789766,3997730,408.32028,18.609999,96515.75,1.1467668
182023730,182003498,3997730,408.32028,18.609999,96515.75,1.1467668
182235288,182217147,3997730,408.27536,18.609999,96516.25,1.1467727
182395725,182378031,3997730,408.44977,18.609999,96514.24,1.1467489
182617022,182594250,3997730,408.60037,18.609999,96512.5,1.1467282
182828222,182807860,3997730,408.36255,18.609999,96515.25,1.1467608
183039645,183021579,3997730,408.44977,18.609999,96514.24,1.1467489
183200056,183182424,3997730,408.25424,18.609999,96516.5,1.1467757
183421334,183398598,3997730,408.57922,18.6,96512.75,1.1467311
183642242,183624583,3997730,408.53696,18.609999,96513.24,1.146737
183803200,183785566,3997730,408.47092,18.6,96513.99,1.1467459
184024640,184001913,3997730,408.99142,18.609999,96507.99,1.1466746
184237195,184215709,3997730,408.57922,18.609999,96512.74,1.146731
184396816,184376546,3997730,408.66644,18.6,96511.74,1.1467191
184608087,184590347,3997730,408.66644,18.6,96511.76,1.1467193
184829221,184806531,3997730,408.99142,18.6,96507.99,1.1466746
185040275,185020091,3997730,408.7325,18.6,96510.99,1.1467103
185201225,185180996,3997730,409.1632,18.6,96506.0,1.1466509
185412412,185394672,3997730,408.92535,18.59,96508.75,1.1466836
185633454,185610719,3997730,408.57922,18.6,96512.76,1.1467313
185845860,185824351,3997730,409.0786,18.6,96506.99,1.1466627
186035675,186012901,3997730,408.7959,18.6,96510.25,1.1467015
186196393,186173654,3997730,408.99142,18.6,96507.99,1.1466746
186407330,186387171,3997730,408.99142,18.6,96507.99,1.1466746
186618432,186600826,3997730,408.92535,18.6,96508.75,1.1466836
186839730,186816890,3997730,408.81705,18.59,96510.0,1.1466985
187000581,186977906,3997730,408.47092,18.6,96514.0,1.1467459
187211559,187191378,3997730,408.49466,18.59,96513.74,1.1467429
187422617,187404937,3997730,408.60037,18.59,96512.5,1.1467282
187583357,187565723,3997730,408.47092,18.59,96513.99,1.1467459
187804557,187781897,3997730,408.40747,18.59,96514.75,1.1467549
188025809,188001673,3997730,408.67966,18.59,96511.6,1.1467174
188186658,188169015,3997730,408.75098,18.59,96510.76,1.1467074
188407776,188385131,3997730,409.09976,18.59,96506.75,1.1466599
188618930,188598769,3997730,409.0126,18.59,96507.75,1.1466718
188830025,188812401,3997730,409.31644,18.59,96504.25,1.1466302
188990895,188973260,3997730,409.0126,18.59,96507.74,1.1466717
189212023,189189237,3997730,409.14203,18.58,96506.25,1.1466539
189423306,189403044,3997730,409.37985,18.58,96503.5,1.1466212
189594261,189569970,3997730,409.47763,18.59,96502.39,1.146608
189815389,189792664,3997730,409.37985,18.58,96503.5,1.1466212
190026760,190006460,3997730,409.3825,18.58,96503.49,1.1466211
190237789,190220153,3997730,408.44977,18.58,96514.24,1.1467489
190418650,190395969,3997730,408.81705,18.58,96510.0,1.1466985
190629640,190609511,3997730,408.60037,18.58,96512.5,1.1467282
190840875,190823207,3997730,408.62415,18.58,96512.24,1.146725
191001734,190984046,3997730,408.62415,18.58,96512.24,1.146725
191222723,191200065,3997730,408.94653,18.58,96508.5,1.1466806
191433889,191413774,3997730,408.84082,18.58,96509.74,1.1466954
191595096,191574809,3997730,408.49466,18.57,96513.74,1.1467429
191806106,191788382,3997730,408.53696,18.58,96513.24,1.146737
192027247,192004585,3997730,408.57922,18.57,96512.75,1.1467311
192238551,192218395,3997730,408.47092,18.57,96514.0,1.1467459
192399436,192379206,3997730,408.47092,18.57,96513.99,1.1467459
192610535,192592912,3997730,408.75363,18.57,96510.75,1.1467074
192831597,192808943,3997730,408.81705,18.57,96510.0,1.1466985
193042682,193022567,3997730,408.57922,18.57,96512.74,1.146731
193203629,193183460,3997730,408.66644,18.57,96511.76,1.1467193
193414738,193397095,3997730,408.81705,18.56,96510.0,1.1466985
193635854,193613145,3997730,408.68756,18.57,96511.5,1.1467162
193796903,193774087,3997730,408.8197,18.57,96509.99,1.1466984
194008005,193987781,3997730,408.81705,18.56,96510.0,1.1466985
194219105,194201433,3997730,409.03372,18.56,96507.49,1.1466687
194440410,194417733,3997730,409.401,18.56,96503.25,1.1466182
194601220,194578481,3997730,408.9703,18.56,96508.24,1.1466776
194812355,194792116,3997730,408.92535,18.56,96508.75,1.1466836
195023533,195005833,3997730,408.88312,18.56,96509.25,1.1466895
195244657,195222008,3997730,409.05484,18.56,96507.25,1.1466658
195405577,195382866,3997730,409.0786,18.56,96507.0,1.1466628
195616524,195596385,3997730,408.77475,18.55,96510.49,1.1467043
195827710,195810040,3997730,408.7959,18.56,96510.25,1.1467015
195988706,195970931,3997730,408.64526,18.55,96512.0,1.1467222
196209924,196187191,3997730,408.55807,18.55,96512.99,1.146734
196421128,196400968,3997730,408.7325,18.55,96511.0,1.1467103
196632336,196614709,3997730,408.60037,18.55,96512.5,1.1467282
196793301,196775622,3997730,409.2081,18.55,96505.5,1.146645
197014402,196991767,3997730,408.77475,18.55,96510.5,1.1467044
197225674,197205474,3997730,409.14203,18.55,96506.25,1.1466539
197436710,197419099,3997730,409.4882,18.55,96502.25,1.1466063
197617732,197595108,3997730,409.1632,18.55,96506.0,1.1466509
197828944,197808753,3997730,409.2715,18.55,96504.75,1.1466361
198040070,198022424,3997730,409.4882,18.55,96502.25,1.1466063
198200968,198183246,3997730,409.4882,18.55,96502.25,1.1466063
198422061,198399396,3997730,409.31644,18.539999,96504.25,1.1466302
198633249,198613079,3997730,409.16583,18.539999,96505.99,1.1466508
198794264,198773920,3997730,408.928,18.539999,96508.74,1.1466835
199005197,198987550,3997730,408.86194,18.55,96509.5,1.1466925
199236430,199216281,3997730,409.0126,18.539999,96507.75,1.1466718
199397312,199377125,3997730,409.18695,18.539999,96505.75,1.1466479
199628481,199605833,3997730,408.53696,18.539999,96513.24,1.146737
199839570,199819414,3997730,408.55807,18.539999,96512.99,1.146734
200000604,199980380,3997730,408.62415,18.539999,96512.24,1.146725
200211739,200194063,3997730,408.7325,18.539999,96510.99,1.1467103
200442926,200422764,3997730,408.57922,18.529999,96512.74,1.146731
200603975,200583619,3997730,408.7959,18.529999,96510.24,1.1467013
200835237,200812532,3997730,408.88312,18.539999,96509.25,1.1466895
200996022,200973319,3997730,408.7325,18.529999,96511.0,1.1467103
201207265,201186889,3997730,408.90424,18.529999,96509.0,1.1466866
201418304,201400667,3997730,408.94653,18.529999,96508.5,1.1466806
201639585,201616930,3997730,408.7087,18.529999,96511.25,1.1467133
201800434,201777671,3997730,408.7325,18.529999,96511.0,1.1467103
202011578,201991338,3997730,409.0786,18.529999,96507.0,1.1466628
202222731,202205111,3997730,408.81705,18.529999,96510.0,1.1466985
202443849,202421189,3997730,408.38373,18.529999,96515.0,1.1467578
202604700,202581978,3997730,408.38373,18.529999,96515.0,1.1467578
202815915,202795758,3997730,408.16705,18.529999,96517.51,1.1467876
203026934,203009323,3997730,408.23306,18.52,96516.74,1.1467786
203187800,203170147,3997730,408.44977,18.52,96514.24,1.1467489
203408922,203386202,3997730,408.7087,18.52,96511.25,1.1467133
203619977,203599820,3997730,408.53696,18.52,96513.24,1.146737
203831132,203813504,3997730,408.86194,18.52,96509.5,1.1466925
203992282,203974521,3997730,408.75363,18.52,96510.74,1.1467073
204213469,204190723,3997730,408.81705,18.52,96510.0,1.1466985
204424611,204404425,3997730,408.88312,18.52,96509.25,1.1466895
204635630,204617993,3997730,408.88312,18.52,96509.25,1.1466895
204796589,204778876,3997730,409.1632,18.51,96506.0,1.1466509
205017885,204995203,3997730,408.68756,18.51,96511.5,1.1467162
205229055,205208878,3997730,408.86194,18.51,96509.5,1.1466925
205440167,205422549,3997730,409.18695,18.51,96505.75,1.1466479
205601210,205583488,3997730,408.66644,18.51,96511.75,1.1467192
205822205,205799563,3997730,408.81705,18.51,96510.0,1.1466985
206033347,206013170,3997730,408.9703,18.51,96508.24,1.1466776
206244399,206226717,3997730,409.29532,18.51,96504.5,1.1466331
206425448,206402780,3997730,409.29532,18.51,96504.5,1.1466331
206636578,206616418,3997730,409.16583,18.51,96505.99,1.1466508
206797336,206777191,3997730,409.0575,18.51,96507.24,1.1466657
207008592,206990881,3997730,409.2715,18.5,96504.75,1.1466361
207229715,207207021,3997730,409.29532,18.5,96504.5,1.1466331
207440816,207420677,3997730,409.1632,18.5,96506.0,1.1466509
207601971,207581716,3997730,409.512,18.5,96501.99,1.1466033
207813033,207795382,3997730,409.22925,18.5,96505.25,1.146642
208034249,208011465,3997730,409.03372,18.5,96507.49,1.1466687
208195173,208172368,3997730,409.18695,18.5,96505.75,1.1466479
208406370,208386186,3997730,409.2715,18.5,96504.75,1.1466361
208617517,208599797,3997730,409.05484,18.5,96507.25,1.1466658
208838622,208815917,3997730,409.42477,18.49,96503.0,1.1466153
208999517,208976770,3997730,409.18695,18.49,96505.75,1.1466479
209210672,209190463,3997730,409.44592,18.49,96502.75,1.1466123
209421773,209404148,3997730,409.0786,18.49,96506.99,1.1466627
209643089,209620405,3997730,409.31644,18.49,96504.25,1.1466302
209803975,209781226,3997730,409.2081,18.49,96505.49,1.146645
210015118,209994962,3997730,409.31644,18.49,96504.25,1.1466302
210226301,210208667,3997730,409.14203,18.49,96506.25,1.1466539
210387436,210369768,3997730,409.22925,18.49,96505.25,1.146642
210608574,210585923,3997730,409.42477,18.49,96503.0,1.1466153
210819809,210799628,3997730,408.83817,18.49,96509.75,1.1466955
211031182,211013411,3997730,408.84082,18.49,96509.74,1.1466954
211191983,211174309,3997730,408.7959,18.48,96510.25,1.1467015
211412984,211390348,3997730,408.60037,18.48,96512.5,1.1467282
