timestamp,timestamp_sample,control[0],control[1],control[2],control[3],control[4],control[5],control[6],control[7]
198109774,198109526,0.00311641,0.0250454,0.002247,0.0,0.0,0.0,0.0,-1.0
198111018,198110768,0.00757291,0.02612,0.00412073,0.0,0.0,0.0,0.0,-1.0
198211642,198211397,0.0278339,-0.00322263,0.01178,0.0,0.0,0.0,0.0,-1.0
198313432,198313187,-0.00128428,0.0337007,0.00397158,0.0,0.0,0.0,0.0,-1.0
198411551,198411307,-0.0905829,-0.00394253,-0.00588022,0.0,0.0,0.0,0.0,-1.0
198512111,198511869,0.0796716,0.0548682,-0.00368446,0.0,0.0,0.0,0.0,-1.0
198610229,198609973,0.0104164,0.025781,0.00579419,0.0,0.0,0.0,0.0,-1.0
198712041,198711800,0.0486747,0.0434408,0.00554599,0.0,0.0,0.0,0.0,-1.0
198810256,198810015,-0.000609094,0.00527857,-0.00829844,0.0,0.0,0.0,0.0,-1.0
198911975,198911731,0.0216482,0.0152993,0.00213647,0.0,0.0,0.0,0.0,-1.0
199013803,199013559,-0.120663,-0.00378813,0.00896164,0.0,0.0,0.0,0.0,-1.0
199114448,199114198,0.130529,0.0765999,0.00465645,0.0,0.0,0.0,0.0,-1.0
199212489,199212248,-0.064913,-0.0366059,-0.00606576,0.0337087,0.0,0.0,0.0,-1.0
199310610,199310356,-0.105117,-0.00408404,-0.00494751,0.202105,0.0,0.0,0.0,-1.0
199412427,199412179,-0.232876,0.208798,0.00831568,0.237895,0.0,0.0,0.0,-1.0
199510528,199510281,-0.151139,0.154248,0.00127966,0.264211,0.0,0.0,0.0,-1.0
199611254,199611011,-0.00134602,0.000629198,0.00475875,0.262105,0.0,0.0,0.0,-1.0
199713001,199712757,0.0437073,-0.0897362,-0.000778475,0.262105,0.0,0.0,0.0,-1.0
199811050,199810799,-0.0266599,-0.0040584,0.00353919,0.285263,0.0,0.0,0.0,-1.0
199912882,199912627,-0.0120645,-0.0337985,0.00477932,0.301053,0.0,0.0,0.0,-1.0
200010983,200010733,-0.05611,0.0528227,0.00531807,0.3,0.0,0.0,0.0,-1.0
200112815,200112563,0.000384989,-0.0320558,0.00148995,0.303158,0.0,0.0,0.0,-1.0
200210914,200210661,0.00418753,0.00757657,0.00735817,0.328421,0.0,0.0,0.0,-1.0
200311530,200311287,0.051401,-0.0311146,0.00741012,0.330526,0.0,0.0,0.0,-1.0
200413421,200413172,-0.0106898,0.0942735,-0.00402356,0.330526,0.0,0.0,0.0,-1.0
200511432,200511178,-0.00787959,0.0356791,0.0046862,0.331579,0.0,0.0,0.0,-1.0
200613251,200613006,0.0525388,-0.0144014,0.00536061,0.330526,0.0,0.0,0.0,-1.0
200711377,200711113,0.0202795,0.046721,0.00121705,0.349474,0.0,0.0,0.0,-1.0
200811941,200811695,-0.00756021,0.0535437,-0.00215671,0.396842,0.0,0.0,0.0,-1.0
200910153,200909901,-0.0300371,0.0246772,0.000964473,0.422105,0.0,0.0,0.0,-1.0
201011868,201011627,0.0321868,0.0306883,-0.00229009,0.441053,0.0,0.0,0.0,-1.0
201113712,201113459,-0.0485349,0.0222958,-0.0035241,0.464211,0.0,0.0,0.0,-1.0
201211826,201211580,-0.0256492,0.0643237,-0.0113393,0.477895,0.0,0.0,0.0,-1.0
201312396,201312145,-0.0461976,0.0143619,0.00480475,0.511799,0.0,0.0,0.0,-1.0
201410499,201410248,-0.124171,0.012499,-0.0136046,0.517797,0.0,0.0,0.0,-1.0
201512493,201512250,-0.118451,-0.00473272,-0.0242796,0.517797,0.0,0.0,0.0,-1.0
201610425,201610177,-0.0423914,-0.015141,-0.0300084,0.518996,0.0,0.0,0.0,-1.0
201712288,201712042,-0.176979,0.0285491,-0.0522475,0.520196,0.0,0.0,0.0,-1.0
201814096,201813836,-0.134822,0.0243879,-0.100045,0.522595,0.0,0.0,0.0,-1.0
201910938,201910694,-0.129018,0.0134211,-0.113878,0.523794,0.0,0.0,0.0,-1.0
202012777,202012529,-0.0545911,0.0425554,-0.102555,0.501053,0.0,0.0,0.0,-1.0
202110881,202110625,-0.00773243,0.0478441,-0.117915,0.505263,0.0,0.0,0.0,-1.0
202212699,202212454,-0.121669,-0.031189,-0.111209,0.5106,0.0,0.0,0.0,-1.0
202310937,202310683,-0.00823059,-0.0242159,-0.110604,0.530991,0.0,0.0,0.0,-1.0
202411387,202411142,-0.00165892,0.00426112,-0.104543,0.53339,0.0,0.0,0.0,-1.0
202513230,202512973,-0.0864204,-0.00071259,-0.0734203,0.538188,0.0,0.0,0.0,-1.0
202611319,202611074,-0.0217613,-0.024336,-0.0601002,0.536989,0.0,0.0,0.0,-1.0
202713151,202712902,-0.181923,0.0331057,-0.0278956,0.53459,0.0,0.0,0.0,-1.0
202811272,202811021,0.106103,0.00163696,-0.0521543,0.538188,0.0,0.0,0.0,-1.0
202911843,202911592,-0.00312113,-0.00492564,-0.0269427,0.539388,0.0,0.0,0.0,-1.0
203009945,203009694,-0.0428483,-0.00105805,-0.0280264,0.548984,0.0,0.0,0.0,-1.0
203111926,203111679,-0.0398279,0.00397448,-0.0145028,0.569376,0.0,0.0,0.0,-1.0
203213604,203213351,-0.00762542,0.0056985,-0.00289231,0.571775,0.0,0.0,0.0,-1.0
203311697,203311453,-0.134159,0.0077767,-0.00458975,0.574174,0.0,0.0,0.0,-1.0
203412291,203412040,-0.0579611,0.00209009,-0.000155154,0.574174,0.0,0.0,0.0,-1.0
203510386,203510142,0.107798,-0.0422143,0.0127957,0.575373,0.0,0.0,0.0,-1.0
203612232,203611971,-0.0112164,-0.0470656,0.0212277,0.580171,0.0,0.0,0.0,-1.0
203710325,203710073,0.0068494,-0.0557158,0.0253389,0.580171,0.0,0.0,0.0,-1.0
203812146,203811902,0.0302426,-0.0474602,0.013577,0.576573,0.0,0.0,0.0,-1.0
203912800,203912559,0.0484032,0.0113192,0.0143421,0.575373,0.0,0.0,0.0,-1.0
204010838,204010591,0.100595,-0.0194608,0.0150872,0.574174,0.0,0.0,0.0,-1.0
204112669,204112418,-0.0102833,0.00938173,-0.0169637,0.574174,0.0,0.0,0.0,-1.0
204210766,204210521,-0.0735827,0.0191311,0.104112,0.574174,0.0,0.0,0.0,-1.0
204312603,204312350,-0.0510476,0.00723114,0.129553,0.571775,0.0,0.0,0.0,-1.0
204410701,204410453,-0.0167961,-0.0585789,0.112951,0.572974,0.0,0.0,0.0,-1.0
204511289,204511039,-0.0475091,-0.0188439,0.0551663,0.576573,0.0,0.0,0.0,-1.0
204613125,204612879,0.0257571,0.00660556,-0.103714,0.592166,0.0,0.0,0.0,-1.0
204711296,204711055,-0.00569704,-0.0678493,-0.0961071,0.593366,0.0,0.0,0.0,-1.0
204813058,204812797,0.0344645,0.0083278,-0.0995593,0.580171,0.0,0.0,0.0,-1.0
204911150,204910904,-0.0388446,0.0949395,-0.0941347,0.578972,0.0,0.0,0.0,-1.0
205011924,205011673,-0.0698349,-0.0710791,-0.0676186,0.551383,0.0,0.0,0.0,-1.0
205109833,205109589,0.0313036,-0.0306798,-0.0491717,0.502105,0.0,0.0,0.0,-1.0
205211683,205211438,-0.124636,0.211994,-0.0696862,0.483158,0.0,0.0,0.0,-1.0
205309770,205309520,0.0475084,-0.215177,-0.0513155,0.478947,0.0,0.0,0.0,-1.0
205411596,205411349,0.00100575,-0.0347755,-0.0629156,0.434737,0.0,0.0,0.0,-1.0
205512196,205511949,-0.150648,0.0338527,-0.051774,0.434737,0.0,0.0,0.0,-1.0
205610289,205610040,0.104648,-0.0610538,-0.0319997,0.512999,0.0,0.0,0.0,-1.0
205712115,205711866,0.134115,-0.0276913,-0.0255663,0.509474,0.0,0.0,0.0,-1.0
205810399,205810154,-0.112236,0.00942014,-0.0235728,0.509474,0.0,0.0,0.0,-1.0
205912055,205911800,0.107766,-0.0415688,-0.0191102,0.601763,0.0,0.0,0.0,-1.0
206010152,206009902,-0.207418,-0.0218072,-0.0258988,0.634149,0.0,0.0,0.0,-1.0
206110737,206110486,0.07477,-0.0623966,-0.027931,0.647344,0.0,0.0,0.0,-1.0
206212571,206212329,-0.195971,0.00332497,-0.0322759,0.647344,0.0,0.0,0.0,-1.0
206310684,206310439,-0.188241,0.0409012,-0.0348442,0.638947,0.0,0.0,0.0,-1.0
206412496,206412245,-0.0120719,-0.0566592,0.000251163,0.601763,0.0,0.0,0.0,-1.0
206510596,206510349,-0.0266158,-0.0180555,0.0381304,0.551383,0.0,0.0,0.0,-1.0
206611292,206611044,0.0107052,-0.0318731,0.0302451,0.529792,0.0,0.0,0.0,-1.0
206713028,206712769,0.0291465,-0.0147692,0.0154916,0.517797,0.0,0.0,0.0,-1.0
206811115,206810865,-0.160055,-0.00584168,0.0176024,0.517797,0.0,0.0,0.0,-1.0
206912941,206912694,-0.0809648,-0.0107152,0.0082497,0.517797,0.0,0.0,0.0,-1.0
207011053,207010796,-0.0488203,0.0277194,-0.000953264,0.517797,0.0,0.0,0.0,-1.0
207112892,207112627,-0.00107302,-0.0420111,0.00355124,0.517797,0.0,0.0,0.0,-1.0
207209732,207209485,0.0446352,-0.0150234,-0.00354998,0.517797,0.0,0.0,0.0,-1.0
207311564,207311314,-0.0451013,-0.00487466,-0.00576943,0.517797,0.0,0.0,0.0,-1.0
207413535,207413290,-0.0632271,-0.0385154,-0.0501508,0.520196,0.0,0.0,0.0,-1.0
207511502,207511247,-0.0753331,0.0222361,-0.116265,0.548984,0.0,0.0,0.0,-1.0
207613316,207613073,-0.0197623,0.0244609,-0.171232,0.560979,0.0,0.0,0.0,-1.0
207711435,207711175,-0.0118692,0.0216771,-0.20344,0.563378,0.0,0.0,0.0,-1.0
207812008,207811763,-0.00631632,0.00361304,-0.204048,0.568176,0.0,0.0,0.0,-1.0
207910123,207909866,-0.0595737,0.0165039,-0.161242,0.574174,0.0,0.0,0.0,-1.0
208011949,208011700,0.0812766,0.0312598,-0.0188449,0.576573,0.0,0.0,0.0,-1.0
208113764,208113521,-0.115828,-0.0203171,0.0327721,0.575373,0.0,0.0,0.0,-1.0
208211930,208211678,-0.0414977,-0.00997277,0.0222485,0.574174,0.0,0.0,0.0,-1.0
208312458,208312210,-0.0559438,0.00666596,0.0217119,0.572974,0.0,0.0,0.0,-1.0
208410565,208410314,-0.0179412,0.00414267,0.0197215,0.569376,0.0,0.0,0.0,-1.0
208512390,208512146,-0.164044,0.0336273,0.0379842,0.565777,0.0,0.0,0.0,-1.0
208610503,208610260,0.0210919,-0.0228384,0.0345548,0.565777,0.0,0.0,0.0,-1.0
208712329,208712075,-0.12853,0.00171915,0.0157375,0.566977,0.0,0.0,0.0,-1.0
208812919,208812663,-0.0327546,-0.0107908,0.0230209,0.570575,0.0,0.0,0.0,-1.0
208911014,208910761,-0.0655955,-0.0482655,0.0115629,0.569376,0.0,0.0,0.0,-1.0
209012859,209012612,0.0625804,-0.0462525,0.00602716,0.570575,0.0,0.0,0.0,-1.0
209110948,209110695,0.0222952,-0.0476753,0.000141029,0.571775,0.0,0.0,0.0,-1.0
209212766,209212521,-0.11119,-0.0544788,0.00913606,0.571775,0.0,0.0,0.0,-1.0
209309790,209309541,0.0799695,-0.035745,-0.00527934,0.571775,0.0,0.0,0.0,-1.0
209411453,209411210,-0.00858706,-0.0373869,-0.0123758,0.570575,0.0,0.0,0.0,-1.0
209513339,209513089,-0.0172041,-0.0358582,-0.0324526,0.570575,0.0,0.0,0.0,-1.0
209611433,209611186,-0.246424,0.00162028,-0.0413331,0.571775,0.0,0.0,0.0,-1.0
209713220,209712969,-0.0835781,0.0418167,-0.0450091,0.572974,0.0,0.0,0.0,-1.0
209811320,209811069,0.00850011,-0.0496247,-0.0421333,0.540587,0.0,0.0,0.0,-1.0
209911912,209911660,-0.1058,0.00621786,-0.0377504,0.529792,0.0,0.0,0.0,-1.0
210010020,210009768,0.0158171,0.0269923,-0.0463022,0.527393,0.0,0.0,0.0,-1.0
210112029,210111783,-0.0674888,-0.0380832,-0.0532739,0.527393,0.0,0.0,0.0,-1.0
210213661,210213418,-0.188982,0.108152,-0.0753916,0.5,0.0,0.0,0.0,-1.0
210311775,210311521,-0.0488666,-0.0742818,-0.187038,0.504211,0.0,0.0,0.0,-1.0
210412361,210412110,0.0670503,-0.0763027,-0.194452,0.505263,0.0,0.0,0.0,-1.0
210510500,210510252,-0.0109115,-0.0660937,-0.0689665,0.504211,0.0,0.0,0.0,-1.0
210612295,210612050,-0.0732975,-0.0323798,0.0102954,0.511799,0.0,0.0,0.0,-1.0
210710455,210710207,-0.00809026,-0.0331978,0.000781447,0.522595,0.0,0.0,0.0,-1.0
210812215,210811969,0.0649139,-0.0432076,0.0122134,0.517797,0.0,0.0,0.0,-1.0
210912908,210912653,-0.188333,-0.0216186,0.00528413,0.526193,0.0,0.0,0.0,-1.0
211010913,211010659,-0.0796986,-0.00855303,-0.00537193,0.526193,0.0,0.0,0.0,-1.0
211112737,211112486,0.0987971,-0.0443183,-0.0063543,0.524994,0.0,0.0,0.0,-1.0
211210833,211210589,-0.0697637,-0.00225341,0.00638591,0.544186,0.0,0.0,0.0,-1.0
211312664,211312418,0.0787785,-0.0247546,-0.0022891,0.568176,0.0,0.0,0.0,-1.0
211410769,211410520,-0.0419687,-0.00596426,-0.0224648,0.620955,0.0,0.0,0.0,-1.0
211511358,211511107,-0.0801945,-0.0779384,-0.0522799,0.674933,0.0,0.0,0.0,-1.0
211613188,211612935,-0.0225655,0.00188018,-0.072094,0.694125,0.0,0.0,0.0,-1.0
211711363,211711118,0.125879,0.013044,-0.0617876,0.703721,0.0,0.0,0.0,-1.0
211813117,211812867,-0.0413072,-0.0211747,-0.0634446,0.70612,0.0,0.0,0.0,-1.0
211911220,211910969,-0.100631,-0.0387453,-0.0324777,0.712117,0.0,0.0,0.0,-1.0
212011824,212011576,-0.14738,-0.0298787,0.00373933,0.652142,0.0,0.0,0.0,-1.0
212109907,212109658,0.00748431,-0.0490947,0.00132555,0.617356,0.0,0.0,0.0,-1.0
212211731,212211486,-0.0733239,0.0311901,-0.016106,0.572974,0.0,0.0,0.0,-1.0
212313563,212313314,0.0738925,-0.0362094,-0.0149281,0.550184,0.0,0.0,0.0,-1.0
212411666,212411422,-0.044576,-0.0507949,-0.0303003,0.53339,0.0,0.0,0.0,-1.0
212512285,212512038,-0.0532908,-0.0537982,-0.0343003,0.529792,0.0,0.0,0.0,-1.0
212610360,212610118,-0.0560588,-0.0185312,-0.0186868,0.529792,0.0,0.0,0.0,-1.0
212712179,212711935,0.0497021,-0.0668879,-0.0197929,0.524994,0.0,0.0,0.0,-1.0
212810463,212810211,-0.0492721,-0.0263542,-0.00434252,0.501053,0.0,0.0,0.0,-1.0
212912120,212911866,0.11043,-0.029809,-0.0118599,0.526193,0.0,0.0,0.0,-1.0
213012693,213012452,-0.0399755,-0.0779794,-0.00468888,0.526193,0.0,0.0,0.0,-1.0
213110805,213110555,-0.0878149,0.00672518,-0.00631052,0.521395,0.0,0.0,0.0,-1.0
213212633,213212383,-0.0296137,-0.0275095,-0.0121811,0.511799,0.0,0.0,0.0,-1.0
213310833,213310587,-0.0369221,-0.0342299,-0.00979784,0.511799,0.0,0.0,0.0,-1.0
213412561,213412314,0.00590296,-0.00463442,-0.00103491,0.5106,0.0,0.0,0.0,-1.0
213510665,213510418,-0.0173403,-0.0579256,-3.35943e-05,0.511799,0.0,0.0,0.0,-1.0
213611391,213611143,0.0193826,-0.019381,-0.0352013,0.571775,0.0,0.0,0.0,-1.0
213713085,213712832,-0.0346519,-0.0688081,-0.0259791,0.593366,0.0,0.0,0.0,-1.0
213811189,213810939,-0.0910698,0.000918223,-0.0335601,0.594565,0.0,0.0,0.0,-1.0
213914272,213914009,-0.157131,-0.0255766,-0.0400184,0.60776,0.0,0.0,0.0,-1.0
214011106,214010865,-0.0187624,-0.0319982,-0.0398283,0.60776,0.0,0.0,0.0,-1.0
214112968,214112709,-0.0755021,0.0498753,-0.0316017,0.60896,0.0,0.0,0.0,-1.0
214209800,214209555,-0.0736275,-0.0665971,-0.0256416,0.610159,0.0,0.0,0.0,-1.0
214311649,214311386,-0.0281254,-0.0256165,-0.0138623,0.60896,0.0,0.0,0.0,-1.0
214409840,214409583,-0.15235,0.00640172,-0.0116435,0.610159,0.0,0.0,0.0,-1.0
214511563,214511315,0.063414,-0.00123869,-0.0106501,0.606561,0.0,0.0,0.0,-1.0
214613401,214613142,-0.0741864,-0.0512931,-0.0137406,0.599364,0.0,0.0,0.0,-1.0
214710253,214710003,-0.0381006,-0.0489014,-0.00827052,0.577772,0.0,0.0,0.0,-1.0
214813329,214813077,-0.0660095,-0.0111141,-0.0222527,0.55978,0.0,0.0,0.0,-1.0
214910178,214909934,-0.00978847,-0.0447936,-0.0278908,0.520196,0.0,0.0,0.0,-1.0
215012030,215011782,-0.0659721,-0.0498989,-0.0387892,0.526193,0.0,0.0,0.0,-1.0
215110116,215109865,-0.135849,0.0100684,-0.0536662,0.526193,0.0,0.0,0.0,-1.0
215210777,215210526,-0.00800845,-0.019176,-0.0423679,0.501053,0.0,0.0,0.0,-1.0
215312525,215312280,-0.0422132,-0.000436836,-0.0523258,0.501053,0.0,0.0,0.0,-1.0
215410629,215410383,0.0413207,-0.0895606,-0.0566066,0.503158,0.0,0.0,0.0,-1.0
215512457,215512211,0.0442085,-0.0352892,-0.0210572,0.502105,0.0,0.0,0.0,-1.0
215610563,215610314,0.067825,-0.0617103,-0.00776184,0.482105,0.0,0.0,0.0,-1.0
215712408,215712156,0.0988236,-0.078234,0.00905801,0.483158,0.0,0.0,0.0,-1.0
215812972,215812729,-0.0641451,-0.0696159,-0.00441399,0.502105,0.0,0.0,0.0,-1.0
215911094,215910849,-0.0412393,-0.0996384,-0.012031,0.575373,0.0,0.0,0.0,-1.0
216013003,216012753,-0.0763252,-0.0754984,-0.00253468,0.60776,0.0,0.0,0.0,-1.0
216111006,216110763,0.0384133,-0.0722857,-0.00496985,0.620955,0.0,0.0,0.0,-1.0
216212846,216212591,-0.0739314,-0.0582303,0.00447558,0.652142,0.0,0.0,0.0,-1.0
216309886,216309637,-0.127828,-0.112136,0.00533416,0.650942,0.0,0.0,0.0,-1.0
216411528,216411280,-0.103616,-0.0469114,0.0177994,0.649743,0.0,0.0,0.0,-1.0
216513350,216513108,-0.0130702,-0.0665112,0.0319698,0.629351,0.0,0.0,0.0,-1.0
216611470,216611214,-0.157409,-0.0639952,0.0402611,0.574174,0.0,0.0,0.0,-1.0
216713285,216713039,-0.0023681,-0.0643756,0.00189676,0.530991,0.0,0.0,0.0,-1.0
216811407,216811156,0.100164,-0.075935,0.0153258,0.529792,0.0,0.0,0.0,-1.0
216911970,216911729,-0.082822,-0.0616714,-0.0163819,0.528592,0.0,0.0,0.0,-1.0
217010076,217009832,-0.0477625,-0.00363915,-0.0202555,0.530991,0.0,0.0,0.0,-1.0
217112069,217111817,-0.00627749,-0.0243202,-0.0205226,0.530991,0.0,0.0,0.0,-1.0
217213735,217213492,-0.143957,-0.0476197,-0.029777,0.517797,0.0,0.0,0.0,-1.0
217311854,217311595,-0.110539,0.0239147,-0.0328213,0.511799,0.0,0.0,0.0,-1.0
217412423,217412180,-0.123614,-0.0628828,-0.0181798,0.514198,0.0,0.0,0.0,-1.0
217510533,217510281,0.0266577,-0.038849,-0.0180339,0.515398,0.0,0.0,0.0,-1.0
217612354,217612109,0.0921559,-0.102171,-0.0105573,0.523794,0.0,0.0,0.0,-1.0
217710456,217710211,0.025411,-0.0305597,-0.00729878,0.55978,0.0,0.0,0.0,-1.0
217812293,217812040,-0.0173413,-0.00343674,-0.00810956,0.566977,0.0,0.0,0.0,-1.0
217913003,217912755,-0.195633,-0.0512428,0.0035524,0.566977,0.0,0.0,0.0,-1.0
218010977,218010729,-0.0540479,-0.0038419,-0.00202593,0.565777,0.0,0.0,0.0,-1.0
218112806,218112558,-0.127041,-0.0200517,-0.0020094,0.565777,0.0,0.0,0.0,-1.0
218210915,218210661,0.0718345,-0.0710724,-0.000456064,0.565777,0.0,0.0,0.0,-1.0
218312734,218312488,0.0310285,-0.0607421,0.00653462,0.569376,0.0,0.0,0.0,-1.0
218410842,218410596,-0.0907507,-0.0751356,0.00273913,0.572974,0.0,0.0,0.0,-1.0
218511431,218511186,-0.0817344,-0.0529452,0.000168752,0.574174,0.0,0.0,0.0,-1.0
218613258,218613008,-0.0715642,-0.0123338,-0.000106566,0.574174,0.0,0.0,0.0,-1.0
218711452,218711204,-0.0251791,-0.0484362,-0.00228031,0.574174,0.0,0.0,0.0,-1.0
218813191,218812939,0.0118825,-0.0611249,-0.00231438,0.577772,0.0,0.0,0.0,-1.0
218911287,218911040,-0.167055,-0.131293,0.00294341,0.581371,0.0,0.0,0.0,-1.0
219011871,219011627,-0.0711259,-0.0306442,0.00442219,0.581371,0.0,0.0,0.0,-1.0
219109984,219109733,-0.00639164,-0.0509521,-0.00366891,0.581371,0.0,0.0,0.0,-1.0
219211804,219211558,0.0969283,-0.0458006,0.00144666,0.580171,0.0,0.0,0.0,-1.0
219313637,219313387,0.00735508,-0.0386936,-0.00922886,0.580171,0.0,0.0,0.0,-1.0
219411739,219411489,0.0819693,-0.0669808,-0.00629956,0.580171,0.0,0.0,0.0,-1.0
219512420,219512169,0.0544306,-0.0673805,-0.0124805,0.580171,0.0,0.0,0.0,-1.0
219610430,219610178,-0.00975195,-0.0466933,-0.0106089,0.580171,0.0,0.0,0.0,-1.0
219712251,219712006,-0.0625731,-0.0239677,-0.0102606,0.580171,0.0,0.0,0.0,-1.0
219810367,219810116,-0.0433944,-0.0318473,-0.0177642,0.580171,0.0,0.0,0.0,-1.0
219912189,219911939,-0.0755405,-0.075721,-0.021802,0.580171,0.0,0.0,0.0,-1.0
220012778,220012524,0.0454282,0.00760957,-0.0193175,0.577772,0.0,0.0,0.0,-1.0
220110867,220110627,0.00432452,-0.0739022,-0.0195833,0.575373,0.0,0.0,0.0,-1.0
220212709,220212457,0.0952282,-0.0578743,-0.019693,0.575373,0.0,0.0,0.0,-1.0
220310829,220310583,-0.0979875,0.00113575,-0.0257693,0.575373,0.0,0.0,0.0,-1.0
220412630,220412386,-0.13255,-0.0398491,-0.032461,0.575373,0.0,0.0,0.0,-1.0
220510745,220510494,-0.0159959,-0.0440451,-0.0284508,0.569376,0.0,0.0,0.0,-1.0
220611487,220611244,-0.04928,-0.0522463,-0.0273585,0.568176,0.0,0.0,0.0,-1.0
220713153,220712904,0.0186231,-0.0388116,-0.0835748,0.571775,0.0,0.0,0.0,-1.0
220811251,220811007,0.00573141,-0.0399333,-0.0723215,0.571775,0.0,0.0,0.0,-1.0
220913091,220912843,0.000117092,-0.0813144,-0.000857931,0.568176,0.0,0.0,0.0,-1.0
221011191,221010938,-0.0268734,-0.0620774,0.000770375,0.563378,0.0,0.0,0.0,-1.0
221111769,221111521,0.0117183,-0.0322935,-0.00584044,0.55858,0.0,0.0,0.0,-1.0
221209879,221209628,-0.0155128,-0.0531829,0.000365481,0.512999,0.0,0.0,0.0,-1.0
221311699,221311456,-0.0803084,-0.0546813,-0.00356847,0.520196,0.0,0.0,0.0,-1.0
221413679,221413427,-0.0617234,-0.00632995,-0.00221685,0.517797,0.0,0.0,0.0,-1.0
221511629,221511387,-0.191255,-0.0488025,-0.00459832,0.517797,0.0,0.0,0.0,-1.0
221612228,221611974,-0.0237692,-0.0896504,-0.00428209,0.504211,0.0,0.0,0.0,-1.0
221710318,221710076,0.113252,-0.0552794,-0.00260827,0.505263,0.0,0.0,0.0,-1.0
221812153,221811906,-0.149641,-0.0279207,-0.00356311,0.520196,0.0,0.0,0.0,-1.0
221910255,221910007,-0.010999,-0.0562206,-0.00304368,0.521395,0.0,0.0,0.0,-1.0
222012083,222011835,0.0438817,-0.0608825,0.00582198,0.529792,0.0,0.0,0.0,-1.0
222113931,222113664,-0.0942431,-0.0637697,0.0149959,0.578972,0.0,0.0,0.0,-1.0
222210868,222210622,-0.00235665,-0.0572515,0.0112634,0.601763,0.0,0.0,0.0,-1.0
222312598,222312352,-0.0348266,-0.0676334,0.00316037,0.610159,0.0,0.0,0.0,-1.0
222410702,222410457,-0.0367861,-0.0684192,-0.00145036,0.611359,0.0,0.0,0.0,-1.0
222512540,222512294,-0.110557,-0.0890412,-0.00231981,0.611359,0.0,0.0,0.0,-1.0
222611878,222611630,-0.0893433,-0.0876094,-0.00710099,0.610159,0.0,0.0,0.0,-1.0
222711226,222710969,0.0928264,-0.096285,-0.00893704,0.611359,0.0,0.0,0.0,-1.0
222810572,222810320,-0.0525072,-0.0313118,-0.0165166,0.60776,0.0,0.0,0.0,-1.0
222911146,222910906,-0.0213632,-0.00954499,-0.0211349,0.606561,0.0,0.0,0.0,-1.0
223013058,223012809,-0.138549,0.00929204,-0.0240745,0.605361,0.0,0.0,0.0,-1.0
223111077,223110836,-0.073701,-0.00461746,-0.0258602,0.60776,0.0,0.0,0.0,-1.0
223212927,223212665,-0.17495,-0.0349572,-0.026877,0.605361,0.0,0.0,0.0,-1.0
223309771,223309525,0.0345747,-0.0186298,-0.0346467,0.605361,0.0,0.0,0.0,-1.0
223411613,223411360,-0.0947947,-0.0641787,-0.0353075,0.601763,0.0,0.0,0.0,-1.0
223509703,223509456,-0.0263541,-0.0904314,-0.0278634,0.581371,0.0,0.0,0.0,-1.0
223611531,223611286,-0.0251118,-0.0474415,-0.0343389,0.580171,0.0,0.0,0.0,-1.0
223713376,223713113,-0.0460718,-0.0388847,-0.0326758,0.569376,0.0,0.0,0.0,-1.0
223810255,223810012,-0.132245,-0.0471034,-0.0274482,0.535789,0.0,0.0,0.0,-1.0
223912053,223911803,0.0224395,-0.0755644,-0.0203274,0.515398,0.0,0.0,0.0,-1.0
224010160,224009912,0.097363,0.00146046,-0.0268907,0.524994,0.0,0.0,0.0,-1.0
224112163,224111919,-0.12704,-0.0810678,-0.0168763,0.524994,0.0,0.0,0.0,-1.0
224210084,224209837,-0.122664,-0.0412008,-0.0256436,0.521395,0.0,0.0,0.0,-1.0
224311927,224311665,-0.116357,0.0341351,-0.0143621,0.521395,0.0,0.0,0.0,-1.0
224412495,224412252,0.0232673,-0.169714,0.00132508,0.518996,0.0,0.0,0.0,-1.0
224510600,224510354,0.0832245,-0.00125237,-0.00731166,0.520196,0.0,0.0,0.0,-1.0
224612449,224612200,0.0790929,-0.0385476,0.0057727,0.520196,0.0,0.0,0.0,-1.0
224710525,224710286,0.0535587,-0.12105,0.00207169,0.520196,0.0,0.0,0.0,-1.0
224812381,224812115,-0.0549662,-0.098976,0.00532985,0.520196,0.0,0.0,0.0,-1.0
224913117,224912867,0.0314563,-0.0955243,0.0121939,0.520196,0.0,0.0,0.0,-1.0
225011054,225010803,0.0522276,-0.0376379,0.0123754,0.521395,0.0,0.0,0.0,-1.0
225112882,225112632,-0.0297416,-0.0668113,0.000106191,0.521395,0.0,0.0,0.0,-1.0
225210989,225210735,-0.0661713,-0.000595531,-0.00793976,0.522595,0.0,0.0,0.0,-1.0
225312811,225312563,0.0577319,-0.0711708,-0.00170925,0.506316,0.0,0.0,0.0,-1.0
225410919,225410666,0.0812549,-0.0657167,0.00218962,0.527393,0.0,0.0,0.0,-1.0
225511500,225511252,0.0373482,-0.0837504,0.00586395,0.557381,0.0,0.0,0.0,-1.0
225613327,225613081,0.149757,-0.0876701,0.000387443,0.562179,0.0,0.0,0.0,-1.0
225711556,225711306,0.00686252,-0.0987652,-0.00526878,0.618556,0.0,0.0,0.0,-1.0
225813255,225813012,-0.0992131,-0.132126,-0.0129153,0.643745,0.0,0.0,0.0,-1.0
225911366,225911111,-0.0699581,0.00140104,-0.0157034,0.648543,0.0,0.0,0.0,-1.0
226011954,226011702,-0.040785,-0.0504364,-0.0175699,0.648543,0.0,0.0,0.0,-1.0
226110086,226109842,-0.00905519,-0.129595,-0.00577688,0.649743,0.0,0.0,0.0,-1.0
226211936,226211677,-0.00085872,-0.0900869,-0.00987515,0.649743,0.0,0.0,0.0,-1.0
226313707,226313461,0.028973,-0.0963238,-0.0104401,0.652142,0.0,0.0,0.0,-1.0
226411813,226411564,0.0295757,-0.0380587,-0.0183527,0.653341,0.0,0.0,0.0,-1.0
226512482,226512239,-0.0673024,-0.0195582,-0.0238819,0.654541,0.0,0.0,0.0,-1.0
226610511,226610255,-0.0403262,-0.0168725,-0.0280357,0.653341,0.0,0.0,0.0,-1.0
226712327,226712081,-0.00682292,-0.0566078,-0.0338532,0.638947,0.0,0.0,0.0,-1.0
226810439,226810192,0.0696216,-0.100086,-0.0395064,0.596964,0.0,0.0,0.0,-1.0
226912263,226912014,-0.0119909,-0.00298365,-0.0347795,0.568176,0.0,0.0,0.0,-1.0
227012851,227012599,-0.0369211,-0.0175288,-0.0386041,0.530991,0.0,0.0,0.0,-1.0
227110952,227110702,-0.0283472,-0.0302835,-0.0322634,0.532191,0.0,0.0,0.0,-1.0
227212775,227212530,-0.187035,-0.0598414,-0.0309015,0.526193,0.0,0.0,0.0,-1.0
227310931,227310681,-0.151485,0.0689443,-0.0343554,0.524994,0.0,0.0,0.0,-1.0
227412757,227412502,-0.0598978,-0.130711,-0.021315,0.521395,0.0,0.0,0.0,-1.0
227510806,227510564,-0.0943609,-0.0123517,-0.0189281,0.502105,0.0,0.0,0.0,-1.0
227611403,227611156,0.000319611,-0.11352,-0.0184221,0.529792,0.0,0.0,0.0,-1.0
227713250,227712994,-0.049495,-0.00746133,-0.0147363,0.529792,0.0,0.0,0.0,-1.0
227811337,227811087,0.0491664,-0.0365426,-0.00828975,0.530991,0.0,0.0,0.0,-1.0
227913155,227912911,-0.024019,-0.135752,-0.00865272,0.507368,0.0,0.0,0.0,-1.0
228011317,228011066,0.0853136,-0.073297,0.00250222,0.521395,0.0,0.0,0.0,-1.0
228111871,228111627,0.0844748,-0.131549,0.00273147,0.506316,0.0,0.0,0.0,-1.0
228209982,228209726,-0.0729514,-0.0680569,0.00528106,0.569376,0.0,0.0,0.0,-1.0
228311780,228311533,-0.158045,-0.048867,-0.00167693,0.601763,0.0,0.0,0.0,-1.0
228413791,228413538,0.0223974,-0.0287465,0.00877446,0.601763,0.0,0.0,0.0,-1.0
228511708,228511463,-0.000918293,-0.0664462,0.00372954,0.604162,0.0,0.0,0.0,-1.0
228612303,228612049,-0.168273,-0.0529892,-0.000710477,0.604162,0.0,0.0,0.0,-1.0
228710401,228710152,-0.0529524,-0.105426,-0.00245867,0.605361,0.0,0.0,0.0,-1.0
228812231,228811980,-0.0385261,-0.0719005,-0.00781341,0.605361,0.0,0.0,0.0,-1.0
228910342,228910089,0.0673674,-0.0519813,-0.0105866,0.605361,0.0,0.0,0.0,-1.0
229012162,229011913,0.0570278,-0.0582248,-0.00973157,0.605361,0.0,0.0,0.0,-1.0
229112751,229112499,-0.117405,-0.087718,-0.0138131,0.587368,0.0,0.0,0.0,-1.0
229210981,229210741,-0.0912109,-0.038281,-0.0197747,0.523794,0.0,0.0,0.0,-1.0
229312676,229312432,-0.0711324,-0.0613253,-0.0298962,0.521395,0.0,0.0,0.0,-1.0
229410779,229410532,-0.103166,-0.0617707,-0.0304945,0.521395,0.0,0.0,0.0,-1.0
229512603,229512361,-0.115042,-0.0125943,-0.0251832,0.521395,0.0,0.0,0.0,-1.0
229610727,229610478,-0.157136,0.0300599,-0.0265629,0.521395,0.0,0.0,0.0,-1.0
229711295,229711050,0.0254041,-0.042883,-0.0193057,0.521395,0.0,0.0,0.0,-1.0
229813168,229812914,-0.00438299,-0.0621983,-0.0314836,0.521395,0.0,0.0,0.0,-1.0
229911233,229910986,0.0935637,-0.083249,-0.0235848,0.521395,0.0,0.0,0.0,-1.0
230013193,230012939,-0.0717468,-0.0157715,-0.0268839,0.521395,0.0,0.0,0.0,-1.0
230111164,230110913,-0.100017,0.0206593,-0.0215123,0.520196,0.0,0.0,0.0,-1.0
230211749,230211500,0.0103688,-0.0709672,-0.0104805,0.521395,0.0,0.0,0.0,-1.0
230309851,230309602,-0.0390888,-0.0762503,-0.00415168,0.529792,0.0,0.0,0.0,-1.0
230411673,230411430,0.00606405,-0.0828484,-0.00336542,0.530991,0.0,0.0,0.0,-1.0
230513507,230513259,-0.133052,-0.0156837,-0.00225866,0.532191,0.0,0.0,0.0,-1.0
230611609,230611362,-0.091408,-0.0722764,0.00405993,0.566977,0.0,0.0,0.0,-1.0
230712212,230711957,-0.0214742,-0.0625602,-0.00137034,0.605361,0.0,0.0,0.0,-1.0
230810349,230810107,0.035568,-0.0758882,0.00206185,0.617356,0.0,0.0,0.0,-1.0
230912136,230911884,-0.10327,-0.0944091,0.00419337,0.625753,0.0,0.0,0.0,-1.0
231010232,231009982,0.028682,-0.0498108,0.00682921,0.629351,0.0,0.0,0.0,-1.0
231112076,231111811,0.0471911,-0.100585,-0.000841384,0.63175,0.0,0.0,0.0,-1.0
231213896,231213639,-0.0663322,-0.0813769,6.67775e-05,0.63175,0.0,0.0,0.0,-1.0
231310757,231310502,-0.0806665,-0.01855,-0.0149493,0.63175,0.0,0.0,0.0,-1.0
231412627,231412380,-0.0253484,-0.0366471,-0.0132247,0.634149,0.0,0.0,0.0,-1.0
231510678,231510432,0.0137014,-0.0520083,-0.0200032,0.634149,0.0,0.0,0.0,-1.0
231612551,231612304,-0.112701,-0.00784991,-0.0172909,0.634149,0.0,0.0,0.0,-1.0
231710612,231710363,-0.0828804,-0.0616453,-0.0204994,0.634149,0.0,0.0,0.0,-1.0
231811198,231810949,0.0182037,-0.0323809,-0.0261763,0.63175,0.0,0.0,0.0,-1.0
231913214,231912961,-0.0105394,-0.0483715,-0.0277274,0.622154,0.0,0.0,0.0,-1.0
232011124,232010881,-0.0563856,-0.0345932,-0.0347028,0.589767,0.0,0.0,0.0,-1.0
232112961,232112709,-0.0932142,-0.0298601,-0.0305466,0.536989,0.0,0.0,0.0,-1.0
232211055,232210813,0.0646233,-0.0751857,-0.0334447,0.527393,0.0,0.0,0.0,-1.0
232312912,232312641,-0.0566209,-0.0409269,-0.0302757,0.526193,0.0,0.0,0.0,-1.0
232409788,232409546,-0.0646096,-0.0557966,-0.0367856,0.511799,0.0,0.0,0.0,-1.0
232511581,232511330,-0.0228712,-0.0359294,-0.025602,0.514198,0.0,0.0,0.0,-1.0
232613407,232613159,-0.0762717,-0.053233,-0.0339975,0.539388,0.0,0.0,0.0,-1.0
232711645,232711403,0.0011278,-0.0275627,-0.0298849,0.568176,0.0,0.0,0.0,-1.0
232813340,232813090,-0.027014,-0.0638972,-0.0236555,0.571775,0.0,0.0,0.0,-1.0
232910203,232909952,0.0309817,-0.0308045,-0.0325408,0.562179,0.0,0.0,0.0,-1.0
233013292,233013041,0.00505239,0.0193233,-0.0233672,0.511799,0.0,0.0,0.0,-1.0
233110131,233109882,0.107589,-0.140784,-0.014371,0.489474,0.0,0.0,0.0,-1.0
233212049,233211803,-0.0112638,-0.100538,-0.0198504,0.492632,0.0,0.0,0.0,-1.0
233310064,233309813,-0.0175124,0.00884823,-0.0205889,0.506316,0.0,0.0,0.0,-1.0
233411898,233411642,-0.0135579,-0.0801946,-0.0108203,0.60776,0.0,0.0,0.0,-1.0
233512583,233512341,-0.0177072,-0.0763967,-0.0187026,0.629351,0.0,0.0,0.0,-1.0
233610582,233610333,-0.0291985,-0.035548,-0.0167881,0.629351,0.0,0.0,0.0,-1.0
233712415,233712160,0.00821384,-0.0645697,-0.0220894,0.628152,0.0,0.0,0.0,-1.0
233810510,233810263,-0.0464286,-0.018352,-0.0251,0.619755,0.0,0.0,0.0,-1.0
233912334,233912091,0.0749573,-0.0659062,-0.0318761,0.616157,0.0,0.0,0.0,-1.0
234012922,234012674,0.0902458,-0.016637,-0.0394359,0.613758,0.0,0.0,0.0,-1.0
234111037,234110784,-0.0474567,-0.0399653,-0.0298851,0.601763,0.0,0.0,0.0,-1.0
234212861,234212609,-0.0268696,-0.0128317,-0.0311179,0.580171,0.0,0.0,0.0,-1.0
234311086,234310844,-0.0256692,-0.00693054,-0.0299579,0.544186,0.0,0.0,0.0,-1.0
234412791,234412540,-0.00775979,-0.0268937,-0.0267894,0.504211,0.0,0.0,0.0,-1.0
234510898,234510644,0.0429096,-0.0800872,-0.0243478,0.521395,0.0,0.0,0.0,-1.0
234611478,234611230,0.0127894,-0.0101941,-0.025291,0.517797,0.0,0.0,0.0,-1.0
234713323,234713079,-0.0268875,-0.0487297,-0.0256063,0.483158,0.0,0.0,0.0,-1.0
234811448,234811200,-0.0431637,-0.0464276,-0.0244522,0.484211,0.0,0.0,0.0,-1.0
234913292,234913048,0.0190778,-0.0595189,-0.0264021,0.484211,0.0,0.0,0.0,-1.0
235011340,235011093,-0.0400413,-0.0235224,-0.0202225,0.485263,0.0,0.0,0.0,-1.0
235111965,235111722,-0.146289,-0.0371551,-0.015737,0.502105,0.0,0.0,0.0,-1.0
235210034,235209787,-0.11271,-0.04448,-0.0205813,0.594565,0.0,0.0,0.0,-1.0
235311858,235311610,-0.0411574,-0.0471052,-0.0100135,0.611359,0.0,0.0,0.0,-1.0
235413684,235413439,-0.00185509,-0.0473676,-0.00993048,0.626952,0.0,0.0,0.0,-1.0
235511808,235511561,0.0749556,-0.0521677,-0.015847,0.628152,0.0,0.0,0.0,-1.0
235612372,235612128,-0.0920356,-0.0313274,-0.00823392,0.626952,0.0,0.0,0.0,-1.0
235710477,235710232,0.0105166,-0.035624,-0.0115659,0.619755,0.0,0.0,0.0,-1.0
235812307,235812064,-0.118705,-0.0445515,-0.00780033,0.60776,0.0,0.0,0.0,-1.0
235910438,235910176,-0.196139,-0.027563,-0.0165907,0.606561,0.0,0.0,0.0,-1.0
236012243,236011991,-0.0422783,-0.0255158,-0.0211908,0.602962,0.0,0.0,0.0,-1.0
236112830,236112580,-0.0210583,-0.0408441,-0.0210777,0.601763,0.0,0.0,0.0,-1.0
236211088,236210840,-0.0405823,-0.00589447,-0.023629,0.600563,0.0,0.0,0.0,-1.0
236312759,236312509,-0.0117674,-0.0377769,-0.0268722,0.601763,0.0,0.0,0.0,-1.0
236410868,236410614,-0.0411598,-0.0468484,-0.0260816,0.592166,0.0,0.0,0.0,-1.0
236512684,236512441,0.0127685,-0.076608,-0.0252596,0.586169,0.0,0.0,0.0,-1.0
236610789,236610544,0.00199147,0.0238362,-0.0445852,0.586169,0.0,0.0,0.0,-1.0
236711415,236711171,0.0795486,-0.0378595,-0.0470233,0.587368,0.0,0.0,0.0,-1.0
236813217,236812959,-0.012067,-0.0275363,-0.0398973,0.586169,0.0,0.0,0.0,-1.0
236911310,236911062,-0.00715818,-0.0252666,-0.0374141,0.586169,0.0,0.0,0.0,-1.0
237013276,237013030,0.0375567,-0.0585414,-0.0272177,0.58377,0.0,0.0,0.0,-1.0
237111296,237111040,-0.131983,-0.039884,-0.132338,0.563378,0.0,0.0,0.0,-1.0
237211828,237211582,-0.138668,-0.0035682,-0.16011,0.511799,0.0,0.0,0.0,-1.0
237309937,237309685,-0.0436347,-0.0255507,-0.142377,0.490526,0.0,0.0,0.0,-1.0
237411755,237411511,0.0263323,-0.0637966,-0.121047,0.483158,0.0,0.0,0.0,-1.0
237513589,237513340,-0.00533918,-0.0368581,-0.112702,0.477895,0.0,0.0,0.0,-1.0
237611693,237611442,-0.00624871,-0.0445015,-0.113922,0.477895,0.0,0.0,0.0,-1.0
237712280,237712031,0.0325129,-0.0598546,-0.0839719,0.476842,0.0,0.0,0.0,-1.0
237810466,237810218,0.0429173,-0.036194,-0.0619385,0.477895,0.0,0.0,0.0,-1.0
237912224,237911962,-4.1075e-05,-0.0725681,-0.0568107,0.484211,0.0,0.0,0.0,-1.0
238010318,238010065,-0.106072,-0.00034901,0.0305831,0.508421,0.0,0.0,0.0,-1.0
238112143,238111891,-0.0160043,-0.0762179,0.0824293,0.517797,0.0,0.0,0.0,-1.0
238212729,238212479,0.046683,-0.0376023,0.00380565,0.624553,0.0,0.0,0.0,-1.0
238310828,238310581,0.0935103,-0.0851683,0.00278636,0.644945,0.0,0.0,0.0,-1.0
238412661,238412410,0.0105998,-0.0777952,0.00274643,0.670135,0.0,0.0,0.0,-1.0
238510761,238510513,-0.0700718,-0.074125,-0.00184167,0.671334,0.0,0.0,0.0,-1.0
238612649,238612405,-0.0805298,-0.0628865,0.0163582,0.672534,0.0,0.0,0.0,-1.0
238710690,238710444,0.0563666,-0.0200227,0.00803993,0.673733,0.0,0.0,0.0,-1.0
238811274,238811031,-0.0596819,-0.0813854,0.0115112,0.673733,0.0,0.0,0.0,-1.0
238914350,238914102,0.146041,0.00625719,0.000621389,0.670135,0.0,0.0,0.0,-1.0
239011209,239010962,-0.0738154,-0.0505573,0.00194674,0.653341,0.0,0.0,0.0,-1.0
239113043,239112791,-0.0520386,-0.0675296,-0.00495742,0.601763,0.0,0.0,0.0,-1.0
239211142,239210895,-0.0198407,-0.0185438,-0.0165313,0.568176,0.0,0.0,0.0,-1.0
239311733,239311483,-0.062762,0.0374977,-0.0247337,0.546585,0.0,0.0,0.0,-1.0
239411161,239410913,0.109984,-0.0349673,-0.0187492,0.550184,0.0,0.0,0.0,-1.0
239511654,239511411,-0.0368356,-0.0530512,-0.0178733,0.551383,0.0,0.0,0.0,-1.0
239613498,239613248,0.0185172,-0.0210106,-0.019488,0.550184,0.0,0.0,0.0,-1.0
239711756,239711516,-0.029679,-0.026797,-0.0285316,0.53459,0.0,0.0,0.0,-1.0
239813429,239813175,-0.120006,0.0576503,-0.0296684,0.532191,0.0,0.0,0.0,-1.0
239910277,239910033,0.0508016,-0.149634,-0.0149023,0.53339,0.0,0.0,0.0,-1.0
240012117,240011868,0.0343653,-0.030909,-0.102944,0.532191,0.0,0.0,0.0,-1.0
240110218,240109964,-0.0228619,-0.0149527,-0.12112,0.53339,0.0,0.0,0.0,-1.0
240212038,240211795,0.011562,-0.110774,-0.153466,0.538188,0.0,0.0,0.0,-1.0
240310153,240309900,-0.0121837,-0.0836445,-0.139976,0.538188,0.0,0.0,0.0,-1.0
240410731,240410482,-0.0825368,-0.0629959,-0.110464,0.538188,0.0,0.0,0.0,-1.0
240512707,240512460,0.0477043,-0.0691704,-0.0952677,0.538188,0.0,0.0,0.0,-1.0
240610657,240610413,-0.0878621,-0.0700459,-0.0846367,0.535789,0.0,0.0,0.0,-1.0
240712499,240712249,-0.0177992,-0.052382,-0.0619002,0.538188,0.0,0.0,0.0,-1.0
240811839,240811589,-0.026787,-0.0190177,-0.0745054,0.53459,0.0,0.0,0.0,-1.0
240912422,240912173,-0.0257401,-0.00810471,-0.0641373,0.53459,0.0,0.0,0.0,-1.0
241013093,241012845,-0.0588215,-0.0216907,-0.0367685,0.536989,0.0,0.0,0.0,-1.0
241111117,241110865,-0.0359121,-0.031011,-0.00096145,0.540587,0.0,0.0,0.0,-1.0
241212945,241212691,-0.0988649,0.0189322,0.0920256,0.554982,0.0,0.0,0.0,-1.0
241311215,241310960,-0.0540901,0.0141879,0.0757398,0.630551,0.0,0.0,0.0,-1.0
241412892,241412624,-0.103795,-0.108182,0.069098,0.638947,0.0,0.0,0.0,-1.0
241509728,241509484,0.0462228,-0.00717722,0.0464793,0.638947,0.0,0.0,0.0,-1.0
241611589,241611343,0.0742254,0.0178631,0.0227953,0.638947,0.0,0.0,0.0,-1.0
241710912,241710660,0.106963,-0.0816964,0.0114459,0.641346,0.0,0.0,0.0,-1.0
241811489,241811244,0.0519654,-0.0393339,-0.00209789,0.637748,0.0,0.0,0.0,-1.0
241913321,241913072,0.0891448,-0.0230681,-0.0203912,0.638947,0.0,0.0,0.0,-1.0
242011429,242011176,0.124077,-0.0694534,-0.0387063,0.624553,0.0,0.0,0.0,-1.0
242112100,242111853,-0.0550556,-0.0253723,-0.0406156,0.616157,0.0,0.0,0.0,-1.0
242210150,242209907,-0.0863692,-0.0170078,-0.0392122,0.601763,0.0,0.0,0.0,-1.0
242311946,242311697,-0.0962422,-0.0381486,-0.0546968,0.528592,0.0,0.0,0.0,-1.0
242413765,242413522,0.0270022,-0.0278394,-0.040234,0.522595,0.0,0.0,0.0,-1.0
242511924,242511673,-0.0404494,-0.012484,-0.0357519,0.514198,0.0,0.0,0.0,-1.0
242612454,242612212,-0.0491402,-0.0764478,-0.028519,0.511799,0.0,0.0,0.0,-1.0
242710559,242710315,-0.0442463,-0.0244615,-0.0227317,0.467368,0.0,0.0,0.0,-1.0
242813634,242813386,-0.0338195,0.067023,-0.0361118,0.455789,0.0,0.0,0.0,-1.0
242910524,242910282,-0.027888,-0.0775736,-0.049102,0.461053,0.0,0.0,0.0,-1.0
243012328,243012078,-0.0586048,-0.0571168,-0.139825,0.521395,0.0,0.0,0.0,-1.0
243110434,243110185,-0.0402426,0.0206435,-0.178244,0.508421,0.0,0.0,0.0,-1.0
243211225,243210970,0.000808674,-0.059454,-0.140084,0.556181,0.0,0.0,0.0,-1.0
243312846,243312593,-0.140292,-0.0634084,-0.0892974,0.581371,0.0,0.0,0.0,-1.0
243410948,243410698,0.121259,-0.0692573,-0.0713027,0.586169,0.0,0.0,0.0,-1.0
243512773,243512524,-0.0165736,-0.0464741,-0.0327082,0.628152,0.0,0.0,0.0,-1.0
243610930,243610674,-0.0475599,-0.0386186,-0.0290624,0.670135,0.0,0.0,0.0,-1.0
243711482,243711233,0.034727,-0.0155806,-0.0288347,0.68213,0.0,0.0,0.0,-1.0
243813346,243813097,-0.101619,-0.0170566,-0.0316276,0.683329,0.0,0.0,0.0,-1.0
243911404,243911148,0.0220926,-0.00486761,0.0132064,0.685728,0.0,0.0,0.0,-1.0
244010900,244010650,-0.025106,-0.0480223,0.00381718,0.685728,0.0,0.0,0.0,-1.0
244111324,244111077,-0.0536816,-0.0563576,0.0191147,0.659339,0.0,0.0,0.0,-1.0
244211923,244211664,-0.0628216,-0.0152826,0.0229803,0.629351,0.0,0.0,0.0,-1.0
244310010,244309767,0.0804874,-0.0276955,0.0342957,0.63175,0.0,0.0,0.0,-1.0
244411847,244411603,0.158982,0.0107982,0.0444112,0.629351,0.0,0.0,0.0,-1.0
244513709,244513467,0.104396,0.030205,0.0391844,0.634149,0.0,0.0,0.0,-1.0
244611779,244611529,-0.00584809,-0.0650304,-0.0470141,0.637748,0.0,0.0,0.0,-1.0
244711144,244710896,0.0932803,-0.0789742,-0.0378428,0.636548,0.0,0.0,0.0,-1.0
244810597,244810342,0.0862292,-0.0621958,0.0528975,0.577772,0.0,0.0,0.0,-1.0
244912312,244912064,-0.033491,-0.00911405,0.101205,0.586169,0.0,0.0,0.0,-1.0
245010407,245010163,-0.0673214,-0.0218708,0.0163254,0.586169,0.0,0.0,0.0,-1.0
245112229,245111977,0.0595909,-0.0318707,0.00633407,0.565777,0.0,0.0,0.0,-1.0
245212810,245212563,0.0741508,-0.0991239,-0.0425985,0.563378,0.0,0.0,0.0,-1.0
245310933,245310677,-0.0656189,0.0569355,-0.070524,0.564578,0.0,0.0,0.0,-1.0
245412742,245412495,-0.0976866,-0.0200753,-0.0583479,0.517797,0.0,0.0,0.0,-1.0
245510850,245510601,0.138864,-0.0492809,-0.0418009,0.485263,0.0,0.0,0.0,-1.0
245612771,245612523,-0.103154,0.0211735,-0.0548126,0.48,0.0,0.0,0.0,-1.0
245710777,245710530,0.0324293,0.0172543,-0.0433142,0.482105,0.0,0.0,0.0,-1.0
245811364,245811120,-0.0146316,-0.0469127,-0.0422005,0.483158,0.0,0.0,0.0,-1.0
245913257,245913002,-0.0110645,-0.0287538,-0.0332963,0.482105,0.0,0.0,0.0,-1.0
246012548,246012292,0.0146123,-0.00226072,-0.0279449,0.476842,0.0,0.0,0.0,-1.0
246113130,246112877,-0.0116335,-0.0336707,-0.0257179,0.477895,0.0,0.0,0.0,-1.0
246211247,246210980,-0.0572063,-0.0298749,-0.0282386,0.485263,0.0,0.0,0.0,-1.0
246311821,246311567,0.0707167,-0.0292127,-0.0192003,0.506316,0.0,0.0,0.0,-1.0
246409985,246409729,-0.0356896,-0.0600673,-0.0154121,0.529792,0.0,0.0,0.0,-1.0
246511744,246511501,0.0331025,0.0278719,-0.024414,0.55978,0.0,0.0,0.0,-1.0
246613574,246613327,0.0423503,-0.0475842,-0.019203,0.571775,0.0,0.0,0.0,-1.0
246711683,246711430,-0.13863,-0.00946779,-0.0250495,0.575373,0.0,0.0,0.0,-1.0
246812267,246812016,0.128602,-0.0602326,-0.0274735,0.574174,0.0,0.0,0.0,-1.0
246910366,246910119,-0.13359,0.0213215,-0.0211991,0.575373,0.0,0.0,0.0,-1.0
247012200,247011948,-0.130369,-0.0479006,-0.0126215,0.58377,0.0,0.0,0.0,-1.0
247110311,247110051,0.0184559,-0.0169486,-0.0125777,0.600563,0.0,0.0,0.0,-1.0
247212250,247212004,0.0426994,-0.0323087,-0.00503222,0.601763,0.0,0.0,0.0,-1.0
247312712,247312466,0.00630483,-0.0671497,-0.00608915,0.604162,0.0,0.0,0.0,-1.0
247410813,247410569,0.052535,-0.0693151,0.00635689,0.626952,0.0,0.0,0.0,-1.0
247512816,247512572,-0.0809508,0.0096405,-0.0104322,0.644945,0.0,0.0,0.0,-1.0
247610752,247610500,-0.146532,-0.00471349,0.0166277,0.646144,0.0,0.0,0.0,-1.0
247712572,247712329,-0.0792537,0.0266434,-0.0292372,0.646144,0.0,0.0,0.0,-1.0
247810688,247810439,0.0408419,-0.0782981,-0.0289984,0.647344,0.0,0.0,0.0,-1.0
247911269,247911019,-0.119671,0.0321495,-0.0284903,0.646144,0.0,0.0,0.0,-1.0
248013109,248012859,0.0446879,-0.00786569,-0.0273034,0.641346,0.0,0.0,0.0,-1.0
248111210,248110951,-0.161824,0.0349271,-0.038028,0.640147,0.0,0.0,0.0,-1.0
248213029,248212779,0.109454,-0.0641809,-0.0347359,0.638947,0.0,0.0,0.0,-1.0
248311264,248311014,-0.0552821,-0.0130103,0.018157,0.638947,0.0,0.0,0.0,-1.0
248412965,248412711,0.0675803,-0.0153626,0.0389845,0.640147,0.0,0.0,0.0,-1.0
248511063,248510814,-0.0959386,-0.0322356,0.0629784,0.638947,0.0,0.0,0.0,-1.0
248611642,248611400,-0.0972012,0.0128143,-0.0730595,0.638947,0.0,0.0,0.0,-1.0
248713505,248713258,-0.0247465,2.39837e-05,-0.0468965,0.638947,0.0,0.0,0.0,-1.0
248811578,248811333,-0.1051,0.0028648,-0.00846666,0.637748,0.0,0.0,0.0,-1.0
248913421,248913163,0.117613,0.00995013,0.0272046,0.593366,0.0,0.0,0.0,-1.0
249010266,249010022,0.0109835,-0.0855707,0.0322937,0.53339,0.0,0.0,0.0,-1.0
249112216,249111963,-0.0542983,-0.0295802,0.0114672,0.527393,0.0,0.0,0.0,-1.0
249210226,249209955,-0.0159113,0.015864,-0.0185337,0.520196,0.0,0.0,0.0,-1.0
249312076,249311831,0.0328661,-0.0470979,-0.0468049,0.518996,0.0,0.0,0.0,-1.0
249413876,249413623,0.0805217,-0.0459267,-0.064448,0.518996,0.0,0.0,0.0,-1.0
249510723,249510473,-0.0199197,0.0109026,-0.0461928,0.521395,0.0,0.0,0.0,-1.0
249612547,249612299,-0.146623,0.00101195,-0.0497944,0.520196,0.0,0.0,0.0,-1.0
249710650,249710403,0.0966803,-0.0396145,-0.0342857,0.521395,0.0,0.0,0.0,-1.0
249812488,249812235,-0.0151252,-0.0183974,-0.0342196,0.515398,0.0,0.0,0.0,-1.0
249910731,249910483,-0.0646394,-0.0150784,-0.0353928,0.526193,0.0,0.0,0.0,-1.0
250012422,250012163,-0.0908256,-0.0174791,-0.0308059,0.517797,0.0,0.0,0.0,-1.0
250112998,250112750,-0.150244,-0.0347575,-0.0369412,0.518996,0.0,0.0,0.0,-1.0
250211110,250210855,0.0446976,-0.0588995,-0.0332247,0.523794,0.0,0.0,0.0,-1.0
250312932,250312681,0.115656,-0.0302439,-0.0203835,0.504211,0.0,0.0,0.0,-1.0
250411033,250410785,-0.0245026,-0.0128896,-0.0151311,0.509474,0.0,0.0,0.0,-1.0
250512870,250512613,0.00362001,-0.0326127,-0.0207481,0.514198,0.0,0.0,0.0,-1.0
250609721,250609476,-0.0342846,0.0128754,-0.017696,0.528592,0.0,0.0,0.0,-1.0
250711588,250711343,0.0477864,-0.0716087,-0.0126226,0.539388,0.0,0.0,0.0,-1.0
250813430,250813178,0.104153,-0.0456971,-0.0114172,0.569376,0.0,0.0,0.0,-1.0
250911479,250911235,-0.0459694,-0.00132926,-0.0272586,0.592166,0.0,0.0,0.0,-1.0
251012265,251012014,-0.0106163,-0.0468447,-0.0241574,0.596964,0.0,0.0,0.0,-1.0
251111424,251111167,0.00800078,-0.041515,-0.0217574,0.598164,0.0,0.0,0.0,-1.0
251212003,251211754,-0.0692612,-0.00668547,-0.0158709,0.601763,0.0,0.0,0.0,-1.0
251310099,251309857,-0.0746136,0.0150779,-0.0222961,0.601763,0.0,0.0,0.0,-1.0
251411941,251411687,-0.0888659,0.00816336,-0.0234908,0.601763,0.0,0.0,0.0,-1.0
251510081,251509833,0.00302338,0.0155706,-0.026946,0.604162,0.0,0.0,0.0,-1.0
251611879,251611616,0.045175,0.00139191,-0.0261326,0.605361,0.0,0.0,0.0,-1.0
251712445,251712203,-0.0142115,-0.0463607,-0.0292533,0.605361,0.0,0.0,0.0,-1.0
251810705,251810455,0.0056822,0.0886692,-0.0329174,0.605361,0.0,0.0,0.0,-1.0
251912434,251912187,-0.0902071,0.0173257,-0.0271409,0.605361,0.0,0.0,0.0,-1.0
252010484,252010240,0.126521,-0.00588757,-0.0593042,0.605361,0.0,0.0,0.0,-1.0
252112340,252112090,0.00700301,0.057104,-0.0712725,0.611359,0.0,0.0,0.0,-1.0
252210425,252210169,-0.0372919,-0.0215864,-0.074564,0.63175,0.0,0.0,0.0,-1.0
252311049,252310796,0.0250612,0.0164128,-0.0742278,0.634149,0.0,0.0,0.0,-1.0
252412826,252412586,-0.0698671,-0.0487549,-0.0892076,0.63295,0.0,0.0,0.0,-1.0
252510934,252510688,0.0564769,0.036364,-0.0738925,0.63175,0.0,0.0,0.0,-1.0
252612898,252612637,0.086038,-0.0637706,-0.05859,0.63175,0.0,0.0,0.0,-1.0
252710892,252710642,0.0115111,-0.0633256,-0.0534706,0.63175,0.0,0.0,0.0,-1.0
252811453,252811206,-0.0672592,-0.0428435,-0.0533879,0.625753,0.0,0.0,0.0,-1.0
252913280,252913035,0.0647512,-0.0403392,-0.0445523,0.614957,0.0,0.0,0.0,-1.0
253011396,253011147,-0.0935047,-0.0208545,-0.0348017,0.58257,0.0,0.0,0.0,-1.0
253113219,253112971,-0.0157613,0.0104635,-0.0265943,0.545386,0.0,0.0,0.0,-1.0
253211325,253211070,0.0140643,0.00844771,-0.0178542,0.545386,0.0,0.0,0.0,-1.0
253311902,253311657,-0.114883,0.0212987,-0.0262999,0.548984,0.0,0.0,0.0,-1.0
253410081,253409837,-0.0871047,-0.00964839,-0.0180271,0.570575,0.0,0.0,0.0,-1.0
253511838,253511588,-0.0163233,-0.0149023,-0.0161686,0.581371,0.0,0.0,0.0,-1.0
253613690,253613447,-0.0248527,-0.0218024,-0.00851342,0.58257,0.0,0.0,0.0,-1.0
253711770,253711520,0.00161591,-0.000757466,-0.00731633,0.571775,0.0,0.0,0.0,-1.0
253809882,253809623,0.0666097,-0.0683741,0.0190508,0.518996,0.0,0.0,0.0,-1.0
253910459,253910210,-0.0323986,0.0110503,0.0437667,0.527393,0.0,0.0,0.0,-1.0
254012318,254012069,-0.0043348,-0.026026,0.0508889,0.501053,0.0,0.0,0.0,-1.0
254110383,254110141,-0.0137048,-0.00603005,0.0471622,0.515398,0.0,0.0,0.0,-1.0
254213581,254213331,-0.0128195,-0.0273178,-0.00287142,0.526193,0.0,0.0,0.0,-1.0
254312806,254312557,-0.0627306,-0.0331264,-0.0542678,0.527393,0.0,0.0,0.0,-1.0
254412156,254411904,-0.0823219,-0.0349442,-0.053465,0.526193,0.0,0.0,0.0,-1.0
254512736,254512489,-0.02306,-0.0267435,-0.0491967,0.526193,0.0,0.0,0.0,-1.0
254610880,254610633,-0.0510631,0.00418477,-0.039415,0.526193,0.0,0.0,0.0,-1.0
254712666,254712423,0.0402426,-0.0275148,-0.0304612,0.532191,0.0,0.0,0.0,-1.0
254810769,254810523,-0.0125446,0.0375873,-0.0258527,0.553782,0.0,0.0,0.0,-1.0
254911353,254911110,0.111263,-0.0394207,-0.00750903,0.564578,0.0,0.0,0.0,-1.0
255013228,255012968,-0.0338429,-0.0768827,-0.00761494,0.564578,0.0,0.0,0.0,-1.0
255111289,255111042,-0.0261958,-0.000419611,-0.0112247,0.571775,0.0,0.0,0.0,-1.0
255213119,255212872,0.0422811,-0.0429655,-0.0112549,0.577772,0.0,0.0,0.0,-1.0
255311389,255311135,-0.11669,-0.0482737,-0.0131491,0.580171,0.0,0.0,0.0,-1.0
255411806,255411560,-0.0686402,0.016726,-0.0240196,0.581371,0.0,0.0,0.0,-1.0
255509916,255509666,-0.051197,-0.0955374,-0.0146683,0.587368,0.0,0.0,0.0,-1.0
255611740,255611492,0.167046,-0.0310325,-0.0244702,0.601763,0.0,0.0,0.0,-1.0
255713588,255713331,0.0219541,-0.0626626,-0.0399085,0.617356,0.0,0.0,0.0,-1.0
255811670,255811424,0.0255867,-0.00162742,-0.0304731,0.619755,0.0,0.0,0.0,-1.0
255912270,255912012,0.0146483,-0.045293,-0.0192568,0.619755,0.0,0.0,0.0,-1.0
256010361,256010113,-0.0331711,-0.0204992,-0.0116912,0.619755,0.0,0.0,0.0,-1.0
256112327,256112082,-0.0155594,-0.0091691,-0.00839724,0.617356,0.0,0.0,0.0,-1.0
256210294,256210046,-0.081348,0.0222409,0.00306999,0.610159,0.0,0.0,0.0,-1.0
256312120,256311875,0.0787631,-0.0811779,0.00489157,0.606561,0.0,0.0,0.0,-1.0
256412715,256412469,-0.154748,-0.0403676,0.0014483,0.606561,0.0,0.0,0.0,-1.0
256510809,256510564,-0.113274,-0.0483743,-0.0102818,0.605361,0.0,0.0,0.0,-1.0
256612639,256612392,0.0487789,-0.0246059,-0.0158257,0.604162,0.0,0.0,0.0,-1.0
256710748,256710496,-0.0829888,-0.00220142,0.0196381,0.601763,0.0,0.0,0.0,-1.0
256812566,256812324,-0.122204,-0.000228561,0.0708946,0.605361,0.0,0.0,0.0,-1.0
256910785,256910531,0.223386,-0.0458405,0.0547831,0.605361,0.0,0.0,0.0,-1.0
257010033,257009777,0.0359054,-0.0455375,-0.0942966,0.604162,0.0,0.0,0.0,-1.0
257113098,257112849,-0.00248111,-0.00190155,-0.0517293,0.606561,0.0,0.0,0.0,-1.0
257211199,257210946,-0.00332231,-0.0587839,-0.0499746,0.605361,0.0,0.0,0.0,-1.0
257313040,257312777,0.097418,-0.0723473,-0.0448108,0.605361,0.0,0.0,0.0,-1.0
257412375,257412121,-0.0057599,-0.0657426,-0.0506103,0.606561,0.0,0.0,0.0,-1.0
257512963,257512706,0.0969274,-0.0424639,-0.0451164,0.60776,0.0,0.0,0.0,-1.0
257611114,257610866,-0.0696919,0.012667,-0.0295607,0.60776,0.0,0.0,0.0,-1.0
257711702,257711461,0.00963602,-0.0428035,-0.0287782,0.60776,0.0,0.0,0.0,-1.0
257813495,257813249,0.0662339,-0.0256365,-0.0141066,0.601763,0.0,0.0,0.0,-1.0
257911570,257911328,-0.0469332,-0.0166678,0.0298228,0.535789,0.0,0.0,0.0,-1.0
258013410,258013156,-0.109249,-0.0591118,0.0331861,0.48,0.0,0.0,0.0,-1.0
258110271,258110018,0.0307434,-0.13809,0.0274003,0.477895,0.0,0.0,0.0,-1.0
258212099,258211847,0.0258141,-0.0148808,0.0170756,0.476842,0.0,0.0,0.0,-1.0
258310207,258309949,-0.040138,-0.0471154,-0.00349731,0.477895,0.0,0.0,0.0,-1.0
258412027,258411780,0.0857567,-0.117006,-0.0335236,0.511799,0.0,0.0,0.0,-1.0
258513903,258513646,-0.00528408,-0.083284,-0.0513047,0.542987,0.0,0.0,0.0,-1.0
258610712,258610468,-0.0155252,-0.0174381,-0.0662038,0.611359,0.0,0.0,0.0,-1.0
258712575,258712329,-0.00195574,-0.121497,-0.0681662,0.613758,0.0,0.0,0.0,-1.0
258810815,258810573,-0.0100427,-0.0316783,-0.0719754,0.611359,0.0,0.0,0.0,-1.0
258912490,258912247,-0.0482543,-0.0254671,-0.060711,0.613758,0.0,0.0,0.0,-1.0
259010578,259010331,0.124492,-0.0766343,-0.0586058,0.614957,0.0,0.0,0.0,-1.0
259112427,259112167,-0.043913,-0.0113347,-0.0570873,0.613758,0.0,0.0,0.0,-1.0
259212992,259212747,0.168682,-0.03912,-0.0532882,0.613758,0.0,0.0,0.0,-1.0
259311163,259310916,-0.00322233,-0.0748381,-0.0447484,0.610159,0.0,0.0,0.0,-1.0
259412934,259412679,0.0438304,-0.016652,-0.0406274,0.576573,0.0,0.0,0.0,-1.0
259511043,259510799,-0.0881085,-0.122915,-0.0291717,0.529792,0.0,0.0,0.0,-1.0
259611765,259611515,-0.170047,0.0202855,-0.0317877,0.528592,0.0,0.0,0.0,-1.0
259709714,259709471,-0.0703561,-0.0247989,-0.0271361,0.528592,0.0,0.0,0.0,-1.0
259811558,259811305,0.130707,-0.0932934,-0.0203812,0.528592,0.0,0.0,0.0,-1.0
259910900,259910649,0.0204844,-0.0500417,-0.0132094,0.527393,0.0,0.0,0.0,-1.0
260011475,260011232,0.149497,-0.013466,-0.0141006,0.527393,0.0,0.0,0.0,-1.0
260113308,260113061,0.0569617,-0.0703322,-0.0107217,0.527393,0.0,0.0,0.0,-1.0
260211430,260211165,0.174216,-0.0304927,-0.0122352,0.541787,0.0,0.0,0.0,-1.0
260311999,260311750,-0.000850844,-0.0373724,-0.0221972,0.574174,0.0,0.0,0.0,-1.0
260410208,260409960,0.0366339,-0.0513656,-0.0290664,0.601763,0.0,0.0,0.0,-1.0
260511934,260511683,-0.0822888,-0.0705378,-0.0343059,0.613758,0.0,0.0,0.0,-1.0
260611279,260611030,-0.0970474,-0.0654546,-0.0402805,0.619755,0.0,0.0,0.0,-1.0
260711864,260711614,0.148299,-0.0564145,-0.038908,0.622154,0.0,0.0,0.0,-1.0
260812443,260812201,-0.0635626,0.00689014,-0.0590471,0.629351,0.0,0.0,0.0,-1.0
260910548,260910304,0.0781383,-0.0753688,-0.0490746,0.63175,0.0,0.0,0.0,-1.0
261012378,261012129,0.0542404,-0.0207128,-0.0489589,0.634149,0.0,0.0,0.0,-1.0
261110476,261110236,-0.137915,-0.0917166,-0.0529753,0.637748,0.0,0.0,0.0,-1.0
261212405,261212151,-0.131517,-0.0324815,-0.0518427,0.634149,0.0,0.0,0.0,-1.0
261310423,261310168,-0.00737664,-0.0969904,-0.0478234,0.637748,0.0,0.0,0.0,-1.0
261411000,261410754,0.000813579,-0.061213,-0.0541557,0.635349,0.0,0.0,0.0,-1.0
261512824,261512583,0.0591312,-0.0573896,-0.0475288,0.635349,0.0,0.0,0.0,-1.0
261610935,261610689,-0.0677157,-0.0271894,-0.0453397,0.634149,0.0,0.0,0.0,-1.0
261712764,261712517,0.0608424,-0.0268974,-0.0290247,0.595765,0.0,0.0,0.0,-1.0
261810869,261810618,-0.0532607,-0.0256546,-0.0149105,0.563378,0.0,0.0,0.0,-1.0
261911456,261911205,0.100805,-0.0515686,-0.0172295,0.53339,0.0,0.0,0.0,-1.0
262013331,262013087,0.00210009,-0.00940205,-0.0117171,0.53459,0.0,0.0,0.0,-1.0
262111392,262111140,-0.107422,0.00918164,-0.00534713,0.53339,0.0,0.0,0.0,-1.0
262213215,262212966,0.0675762,-0.0438297,0.000115299,0.53459,0.0,0.0,0.0,-1.0
262310275,262310027,0.0505222,-0.0421186,-0.00200937,0.535789,0.0,0.0,0.0,-1.0
262411903,262411656,0.134813,-0.0485908,-0.00292756,0.53339,0.0,0.0,0.0,-1.0
262510003,262509759,0.020825,-0.0253206,0.0109565,0.539388,0.0,0.0,0.0,-1.0
262611832,262611587,-0.130012,0.00230907,-0.0168821,0.553782,0.0,0.0,0.0,-1.0
262713715,262713463,0.0475239,-0.0837852,-0.0295396,0.569376,0.0,0.0,0.0,-1.0
262811793,262811546,0.139069,-0.0309498,-0.0558379,0.581371,0.0,0.0,0.0,-1.0
262911117,262910865,-0.0300969,-0.0635675,-0.0473009,0.581371,0.0,0.0,0.0,-1.0
263010460,263010209,-0.0594149,-0.127459,-0.0419086,0.601763,0.0,0.0,0.0,-1.0
263112458,263112212,-0.0234731,-0.0576183,0.00913884,0.601763,0.0,0.0,0.0,-1.0
263210381,263210140,-0.00388704,-0.108764,0.0259645,0.605361,0.0,0.0,0.0,-1.0
263313461,263313213,0.0731524,-0.122367,-0.0797162,0.599364,0.0,0.0,0.0,-1.0
263412810,263412562,0.0855214,-0.0251472,-0.0792551,0.601763,0.0,0.0,0.0,-1.0
263512157,263511904,-0.0477143,-0.0522394,-0.0767588,0.599364,0.0,0.0,0.0,-1.0
263612781,263612537,0.000659308,-0.0684786,-0.0701512,0.598164,0.0,0.0,0.0,-1.0
263710846,263710595,0.0512131,-0.0572277,-0.062869,0.598164,0.0,0.0,0.0,-1.0
263812706,263812461,-0.0884681,-0.00128706,-0.0509654,0.598164,0.0,0.0,0.0,-1.0
263910891,263910641,-0.0281228,-0.0549996,-0.0490058,0.595765,0.0,0.0,0.0,-1.0
264011356,264011110,0.10831,-0.0500221,-0.0331077,0.590967,0.0,0.0,0.0,-1.0
264113191,264112938,0.0328167,-0.0249315,0.00155998,0.563378,0.0,0.0,0.0,-1.0
264211290,264211042,0.00941371,-0.0480482,0.00147713,0.562179,0.0,0.0,0.0,-1.0
264313116,264312872,-0.102932,-0.0309712,0.0243358,0.563378,0.0,0.0,0.0,-1.0
264411290,264411040,-0.0223241,-0.0463473,0.0182648,0.568176,0.0,0.0,0.0,-1.0
264511810,264511560,-0.0247734,-0.0606215,0.0470203,0.568176,0.0,0.0,0.0,-1.0
264609913,264609664,0.0529665,-0.0802768,0.0444142,0.568176,0.0,0.0,0.0,-1.0
264711826,264711583,-0.0309037,-0.0565326,0.0233856,0.568176,0.0,0.0,0.0,-1.0
264813575,264813322,0.100387,-0.0879062,0.0105757,0.568176,0.0,0.0,0.0,-1.0
264911671,264911424,-0.0231508,-0.140222,0.00848148,0.568176,0.0,0.0,0.0,-1.0
265012268,265012016,0.00899708,-0.0297871,-0.0322884,0.566977,0.0,0.0,0.0,-1.0
265110367,265110115,-0.0700321,-0.0996158,-0.0607955,0.566977,0.0,0.0,0.0,-1.0
265212202,265211947,-0.0561076,-0.0100986,-0.07478,0.568176,0.0,0.0,0.0,-1.0
265310295,265310046,0.0519451,-0.122294,-0.0660965,0.568176,0.0,0.0,0.0,-1.0
265412144,265411886,0.00580634,-0.0467803,-0.0457176,0.568176,0.0,0.0,0.0,-1.0
265512777,265512527,-0.0582688,-0.101995,-0.0359857,0.570575,0.0,0.0,0.0,-1.0
265610809,265610564,-0.123909,-0.0148047,-0.0204251,0.572974,0.0,0.0,0.0,-1.0
265712643,265712397,0.0530778,-0.125202,-0.0155367,0.572974,0.0,0.0,0.0,-1.0
265810749,265810496,-0.123823,-0.0497501,-0.00676365,0.571775,0.0,0.0,0.0,-1.0
265912567,265912325,0.00522221,-0.0569391,-0.0100623,0.572974,0.0,0.0,0.0,-1.0
266010680,266010428,0.00158359,-0.0664506,-0.00769657,0.572974,0.0,0.0,0.0,-1.0
266110025,266109776,0.00517514,-0.0956167,-0.00221933,0.572974,0.0,0.0,0.0,-1.0
266213100,266212851,-0.0419108,-0.091272,-0.000460519,0.571775,0.0,0.0,0.0,-1.0
266311281,266311031,-0.0246935,-0.0551263,0.00285938,0.571775,0.0,0.0,0.0,-1.0
266413027,266412776,0.0192731,-0.054399,-0.00112651,0.572974,0.0,0.0,0.0,-1.0
266512371,266512122,-0.0119551,-0.0416498,0.00390675,0.572974,0.0,0.0,0.0,-1.0
266611951,266611701,-0.0650889,-0.0302963,0.0135365,0.572974,0.0,0.0,0.0,-1.0
266711061,266710811,-0.00975021,-0.0411262,0.000633422,0.572974,0.0,0.0,0.0,-1.0
266811689,266811443,0.120297,-0.106282,-0.000544799,0.574174,0.0,0.0,0.0,-1.0
266913473,266913227,0.0503197,-0.114601,-0.00864935,0.574174,0.0,0.0,0.0,-1.0
267011571,267011329,0.115747,-0.0603914,-0.0146001,0.574174,0.0,0.0,0.0,-1.0
267112162,267111916,0.114099,-0.0752092,0.00130965,0.574174,0.0,0.0,0.0,-1.0
267210265,267210019,0.107981,-0.10854,-0.0209064,0.577772,0.0,0.0,0.0,-1.0
267312100,267311848,0.0136576,-0.051211,-0.0113839,0.577772,0.0,0.0,0.0,-1.0
267410332,267410085,0.0484749,-0.074668,-0.00923072,0.577772,0.0,0.0,0.0,-1.0
267512019,267511779,-0.0323785,-0.101386,-0.0101031,0.578972,0.0,0.0,0.0,-1.0
267613865,267613608,0.0333258,-0.0462453,-0.0339949,0.599364,0.0,0.0,0.0,-1.0
267710714,267710470,-0.0868823,-0.124201,-0.0314556,0.606561,0.0,0.0,0.0,-1.0
267812549,267812298,-0.0561727,-0.0373301,-0.0271204,0.605361,0.0,0.0,0.0,-1.0
267910647,267910401,0.202083,-0.107325,-0.0213806,0.606561,0.0,0.0,0.0,-1.0
268012482,268012230,-0.0788463,-0.0414834,-0.018152,0.605361,0.0,0.0,0.0,-1.0
268110578,268110333,0.00250165,-0.127028,-0.0110279,0.604162,0.0,0.0,0.0,-1.0
268211370,268211124,0.0452793,-0.095986,-0.0179174,0.604162,0.0,0.0,0.0,-1.0
268312992,268312749,-0.076666,-0.0661227,-0.0119569,0.606561,0.0,0.0,0.0,-1.0
268411099,268410852,0.0512881,-0.0900165,-0.015602,0.604162,0.0,0.0,0.0,-1.0
268512934,268512680,0.0336822,-0.0934602,-0.00435518,0.602962,0.0,0.0,0.0,-1.0
268611032,268610787,-0.105052,-0.0255503,0.000953057,0.599364,0.0,0.0,0.0,-1.0
268712878,268712622,-0.126396,-0.136047,-0.00671125,0.599364,0.0,0.0,0.0,-1.0
268809721,268809475,-0.0284554,-0.0398935,0.00222131,0.575373,0.0,0.0,0.0,-1.0
268911554,268911303,0.0425953,-0.043621,0.00245949,0.570575,0.0,0.0,0.0,-1.0
269013508,269013262,0.0800152,-0.0673587,0.0172838,0.538188,0.0,0.0,0.0,-1.0
269111480,269111234,-0.191319,0.015962,0.0137752,0.527393,0.0,0.0,0.0,-1.0
269213315,269213063,0.00833522,-0.0437567,0.0276971,0.517797,0.0,0.0,0.0,-1.0
269311420,269311166,-0.103423,-0.0588034,-0.0181539,0.516597,0.0,0.0,0.0,-1.0
269412005,269411753,-0.00516983,-0.0291216,-0.0413358,0.517797,0.0,0.0,0.0,-1.0
269510097,269509854,0.0862088,-0.0541607,-0.0336159,0.516597,0.0,0.0,0.0,-1.0
269611936,269611686,0.104965,-0.0955182,0.00463486,0.521395,0.0,0.0,0.0,-1.0
269711287,269711033,-0.0134642,-0.0423092,0.0552779,0.526193,0.0,0.0,0.0,-1.0
269811915,269811657,0.0473192,-0.13467,0.0787485,0.535789,0.0,0.0,0.0,-1.0
269912449,269912204,-0.0753979,-0.0313557,0.0615108,0.572974,0.0,0.0,0.0,-1.0
270010550,270010307,-0.0137251,-0.0438278,-0.0453161,0.593366,0.0,0.0,0.0,-1.0
270112568,270112324,0.172284,-0.0218042,-0.0379777,0.594565,0.0,0.0,0.0,-1.0
270210487,270210240,-0.221151,-0.00212665,-0.037294,0.595765,0.0,0.0,0.0,-1.0
270312316,270312067,-0.114707,0.00128514,-0.0382793,0.595765,0.0,0.0,0.0,-1.0
270410428,270410174,0.117642,-0.0694267,-0.0266169,0.599364,0.0,0.0,0.0,-1.0
270511011,270510759,-0.00390726,-0.0547567,-0.025011,0.599364,0.0,0.0,0.0,-1.0
270612916,270612662,-0.0211101,-0.0302637,-0.0311985,0.605361,0.0,0.0,0.0,-1.0
270710945,270710692,-0.0623194,-0.0352367,-0.0329169,0.613758,0.0,0.0,0.0,-1.0
270812764,270812518,0.0116951,-0.0373667,-0.0233394,0.613758,0.0,0.0,0.0,-1.0
270909790,270909547,-0.138453,0.0448227,-0.0365426,0.613758,0.0,0.0,0.0,-1.0
271012700,271012451,-0.117121,-0.0438793,-0.0332995,0.613758,0.0,0.0,0.0,-1.0
271113283,271113037,0.028638,-0.0225857,-0.0376238,0.612558,0.0,0.0,0.0,-1.0
271211393,271211141,-0.176856,0.0166526,-0.040338,0.611359,0.0,0.0,0.0,-1.0
271313220,271312968,-0.129578,-0.0125027,-0.0387626,0.611359,0.0,0.0,0.0,-1.0
271411322,271411072,0.0236914,-0.042476,-0.0497758,0.612558,0.0,0.0,0.0,-1.0
271511913,271511659,-0.0214758,-0.0350621,-0.0450323,0.613758,0.0,0.0,0.0,-1.0
271610015,271609766,-0.0383937,-0.0450983,-0.0464346,0.612558,0.0,0.0,0.0,-1.0
271712016,271711765,-0.111048,-0.0305,-0.0440747,0.598164,0.0,0.0,0.0,-1.0
271813674,271813425,-0.0743663,-0.0323782,-0.0412124,0.511799,0.0,0.0,0.0,-1.0
271911778,271911522,-0.0242756,-0.0506176,-0.0366071,0.487368,0.0,0.0,0.0,-1.0
272012356,272012108,0.0051371,-0.0613314,-0.0237666,0.488421,0.0,0.0,0.0,-1.0
272110460,272110212,-0.0307773,-0.0138929,-0.0187772,0.485263,0.0,0.0,0.0,-1.0
272212291,272212042,-0.129759,-0.0403383,-0.0134507,0.487368,0.0,0.0,0.0,-1.0
272310393,272310144,0.126752,-0.0632938,-0.0340042,0.489474,0.0,0.0,0.0,-1.0
272412224,272411972,-0.195285,-0.0490027,-0.057735,0.496842,0.0,0.0,0.0,-1.0
272512956,272512706,0.0930588,0.0100852,-0.149324,0.495789,0.0,0.0,0.0,-1.0
272612161,272611905,0.00875361,-0.0896308,-0.0888073,0.494737,0.0,0.0,0.0,-1.0
272712745,272712491,-0.00828032,-0.071857,-0.0248817,0.497895,0.0,0.0,0.0,-1.0
272810892,272810643,-0.0661066,-0.0420806,-0.040633,0.501053,0.0,0.0,0.0,-1.0
272910198,272909942,-0.113336,-0.0444456,-0.0360388,0.564578,0.0,0.0,0.0,-1.0
273010771,273010526,0.0800355,-0.0606729,-0.0440677,0.619755,0.0,0.0,0.0,-1.0
273111394,273111152,-0.018594,-0.10383,-0.0292075,0.65574,0.0,0.0,0.0,-1.0
273213194,273212941,-0.197392,-0.0471657,-0.0617023,0.676132,0.0,0.0,0.0,-1.0
273311346,273311098,0.358408,0.162025,-0.291269,0.688127,0.0,0.0,0.0,-1.0
273413120,273412874,-0.287839,0.374341,-0.219239,0.695324,0.0,0.0,0.0,-1.0
273511234,273510979,0.012989,0.00987137,-0.153909,0.702521,0.0,0.0,0.0,-1.0
273611811,273611563,-0.00386,-0.0465519,-0.122455,0.701322,0.0,0.0,0.0,-1.0
273709959,273709712,0.0575005,-0.0385849,-0.0486222,0.68213,0.0,0.0,0.0,-1.0
