timestamp,timestamp_sample,accel_device_id,gyro_device_id,delta_angle[0],delta_angle[1],delta_angle[2],delta_velocity[0],delta_velocity[1],delta_velocity[2],delta_angle_dt,delta_velocity_dt,delta_velocity_clipping
198110238,198109943,3932170,3932170,8.971e-05,-0.00011756,-0.000383501,-0.000945514,-0.000826595,-0.0482367,4991,4991,0
198115229,198114931,3932170,3932170,-0.000138414,6.48181e-05,-0.000253677,-0.000189006,-0.0013901,-0.0485298,4988,4988,0
198609850,198609109,3932170,3932170,-0.000183336,-0.000251121,6.55302e-05,0.00222484,0.00656032,-0.0496481,4967,4967,0
199113536,199113197,3932170,3932170,-0.00161521,-0.000612607,-0.000355062,-0.0029945,0.00682824,-0.0511845,4974,4974,0
199612272,199612012,3932170,3932170,-0.00129804,0.00113488,8.68297e-05,-0.0195178,0.0084285,-0.0467925,4977,4977,0
200111282,200111036,3932170,3932170,0.000886591,0.000724433,-0.000202905,-0.0168563,0.00685809,-0.0438162,4990,4990,0
200610311,200610062,3932170,3932170,-0.000108035,0.000723044,-0.000394495,-0.0172383,0.0115101,-0.0471793,4990,4990,0
201109430,201109091,3932170,3932170,-0.000686948,0.000184639,0.000580928,-4.10147e-05,0.00488898,-0.0495043,4990,4990,0
201613434,201613147,3932170,3932170,-0.000759309,0.000142731,0.000728801,0.0011466,-0.000366772,-0.0522555,4990,4990,0
202107587,202107305,3932170,3932170,0.0012371,-0.000672542,-0.00266686,0.00601252,-0.0086297,-0.047105,4997,4997,0
202611596,202611347,3932170,3932170,-0.00028484,0.000273962,-0.00344038,-0.00246268,0.00601372,-0.053975,4967,4967,0
203110515,203110192,3932170,3932170,0.00171319,0.000101079,-0.00145639,0.00576052,0.000321882,-0.0544686,5001,5001,0
203609532,203609210,3932170,3932170,-0.000829883,9.05983e-05,-0.00101145,-0.000975905,-0.00781197,-0.0480828,4990,4990,0
204113484,204113233,3932170,3932170,0.00426139,-0.000609976,0.00167628,0.00245732,0.0336,-0.0583157,4992,4992,0
204612535,204612290,3932170,3932170,-0.00180005,5.81732e-05,0.00565301,0.000483446,0.0438314,-0.0661824,5026,5026,0
205111585,205111284,3932170,3932170,-0.00143401,0.000640113,0.000764228,-0.000460805,0.0341052,-0.0536729,4992,4992,0
205610615,205610322,3932170,3932170,-0.00242972,0.0017222,-0.000318802,-0.00217963,0.0125431,-0.0478838,4972,4972,0
206109957,206109517,3932170,3932170,-0.000633302,0.000588909,-0.000706044,-0.00439903,-0.044884,-0.0508158,4969,4969,0
206608613,206608360,3932170,3932170,-8.38505e-05,0.000142356,0.00242496,0.00181912,-0.0195869,-0.0353497,4985,4985,0
207112648,207112376,3932170,3932170,-0.000987013,0.000440846,0.0031728,0.000466939,-0.0428257,-0.0332968,4990,4990,0
207611694,207611403,3932170,3932170,-0.000643098,-0.000127999,0.000488082,-0.00189346,0.0170491,-0.05575,4988,4988,0
208110767,208110454,3932170,3932170,-9.43951e-05,0.000329955,-0.00261503,-0.0063833,0.0126186,-0.0539394,4994,4994,0
208609703,208609456,3932170,3932170,-0.00129247,0.00147011,-0.000229535,-0.00305962,-0.0176632,-0.0500955,4989,4989,0
209108790,209108489,3932170,3932170,0.00148707,-8.4782e-05,0.000427321,-0.00659101,-0.0225144,-0.0424406,4971,4971,0
209607994,209607691,3932170,3932170,0.0036246,0.000233338,0.00254099,0.00492933,0.0188167,-0.0576328,4957,4957,0
210111836,210111526,3932170,3932170,0.00337082,-0.000842348,0.000360473,-0.00124381,0.00921386,-0.0533989,4990,4990,0
210610832,210610555,3932170,3932170,0.000638255,-3.18755e-05,-0.00240943,-0.0001443,-0.0127752,-0.0445207,4992,4992,0
211109890,211109594,3932170,3932170,-0.00823929,0.000459812,-3.14739e-05,0.000786464,-0.00233022,-0.046294,5005,5005,0
211613841,211613598,3932170,3932170,0.000866894,-0.000189439,-0.00102625,0.00630124,-0.0114889,-0.0583697,4985,4985,0
212112874,212112624,3932170,3932170,0.00329731,-0.000582264,-3.91842e-05,-0.00377082,0.00635433,-0.0655006,4989,4989,0
212607412,212606660,3932170,3932170,0.000280413,0.000169283,1.62927e-05,-0.00158085,0.00407367,-0.0519907,4970,4970,0
213111178,213110835,3932170,3932170,0.00101908,-0.000462996,0.000577218,-0.000920257,-0.042598,-0.0351191,4966,4966,0
213610011,213609748,3932170,3932170,-0.00088492,0.000610821,0.000750895,-0.00511108,0.00347409,-0.0483757,4976,4976,0
214109004,214108730,3932170,3932170,-0.000615163,-0.00170468,0.000616521,0.00119715,-0.0159558,-0.0549942,4991,4991,0
214612992,214612747,3932170,3932170,0.000763351,0.00106249,0.000172822,0.00213265,-0.00836813,-0.0471595,4990,4990,0
215112027,215111774,3932170,3932170,-0.000191244,-0.000304484,0.000340358,-0.00110636,-0.0448606,-0.0384185,4990,4990,0
215611063,215610809,3932170,3932170,-0.0013588,0.000567579,-0.000633839,0.000745994,0.00705363,-0.0512795,4998,4998,0
216110079,216109829,3932170,3932170,-0.00225012,0.00011947,-0.000425021,0.00244043,-1.58856e-05,-0.0637607,4991,4991,0
216609307,216609005,3932170,3932170,0.00141269,-0.00109528,-0.000235279,-0.00403926,0.0320084,-0.0565147,4966,4966,0
217113135,217112873,3932170,3932170,0.00270317,0.000631261,0.000283695,0.000249058,-0.00643764,-0.0488077,4992,4992,0
217612170,217611899,3932170,3932170,-0.0012021,-0.000570176,0.000161682,0.00107112,-0.0108101,-0.0472721,4991,4991,0
218111208,218110929,3932170,3932170,-0.00139146,4.63823e-05,0.000499109,-0.00794538,0.0331765,-0.0627199,4994,4994,0
218610286,218609996,3932170,3932170,-0.00153806,0.00127575,0.000331544,0.00137668,0.0126947,-0.0535961,5034,5034,0
219114295,219113971,3932170,3932170,0.00100937,0.000732656,-0.00111822,-0.00830544,-0.0433614,-0.0347,4989,4989,0
219608323,219608071,3932170,3932170,0.0011643,-0.000425951,0.000284326,0.000499752,0.0396056,-0.0550109,4955,4955,0
220112989,220112203,3932170,3932170,-0.000171412,-0.000994958,0.000233035,-0.00268418,-0.00364694,-0.0598755,4971,4971,0
220611308,220611051,3932170,3932170,0.000383592,0.001285,-8.66936e-05,-0.00251697,0.0122212,-0.0460802,4990,4990,0
221110381,221110077,3932170,3932170,-0.00162929,9.82562e-05,-8.56271e-05,-0.00308794,-0.00520466,-0.049558,4989,4989,0
221609405,221609109,3932170,3932170,1.48198e-05,0.000312768,-0.000344301,-0.0018819,-0.0230846,-0.0327822,4994,4994,0
222113418,222113123,3932170,3932170,0.00614329,-1.55583e-05,-0.000246057,-0.00313549,0.0031777,-0.052611,4990,4990,0
222612465,222612151,3932170,3932170,0.000475478,-0.00145616,-0.000580211,4.26317e-05,-0.053783,-0.0383247,4992,4992,0
223111484,223111176,3932170,3932170,0.00136272,0.000447755,0.000129528,-0.00549403,0.0316033,-0.0552663,4929,4929,0
223610686,223610329,3932170,3932170,-0.000151241,-0.000114914,-0.000144005,-0.00247478,0.000370389,-0.0450946,4970,4970,0
224109493,224109230,3932170,3932170,0.000684639,0.00291602,-0.000343537,-0.00280027,0.0235005,-0.0470267,4990,4990,0
224608558,224608255,3932170,3932170,0.00289352,-0.00178058,-0.00107568,-0.00523112,-0.00598651,-0.0380512,4990,4990,0
225112553,225112275,3932170,3932170,0.00139682,-0.00176064,0.000934878,-0.00576673,0.0480796,-0.0499986,4990,4990,0
225611977,225611306,3932170,3932170,-0.00100901,0.000819145,4.51331e-05,0.00409518,-0.0395081,-0.0382459,4993,4993,0
226110652,226110329,3932170,3932170,-0.000895552,0.00121647,-0.00028547,-0.0027371,-0.0578142,-0.0452561,4989,4989,0
226610070,226609358,3932170,3932170,0.000398822,-0.00106998,3.221e-05,-0.00370473,-0.000390389,-0.0603697,4991,4991,0
227108796,227108506,3932170,3932170,-0.000535926,-0.000241805,0.000368066,-0.00390295,0.00541789,-0.0395442,4980,4980,0
227607672,227607411,3932170,3932170,0.00188912,0.00342388,-0.000196235,-0.00826397,-0.0111393,-0.0390019,4990,4990,0
228111689,228111429,3932170,3932170,-0.000912383,-0.00102429,0.000317364,6.86785e-05,-0.0153097,-0.0413465,4990,4990,0
228610709,228610456,3932170,3932170,0.00247977,-0.000831848,-0.000342235,-0.00330864,0.022034,-0.054062,4990,4990,0
229109734,229109484,3932170,3932170,0.0052764,0.00073914,-5.82003e-05,0.00325926,-0.00677953,-0.0429095,4990,4990,0
229613791,229613503,3932170,3932170,-0.00155013,-0.000641728,2.28994e-05,-0.00146222,-0.0378935,-0.0354616,4986,4986,0
230107831,230107541,3932170,3932170,-0.000390792,9.49466e-05,0.000219174,-0.0046847,0.0272753,-0.0575789,4978,4978,0
230611863,230611636,3932170,3932170,0.00133543,0.000425451,-0.00122586,0.00376914,-0.0262659,-0.0388975,4972,4972,0
231111194,231110850,3932170,3932170,-0.00105714,0.000416337,0.000332992,-0.00468101,-0.0196248,-0.05689,5253,5253,0
231609872,231609611,3932170,3932170,0.000286963,-0.000857738,9.65561e-05,0.00311671,0.0216072,-0.0550578,4990,4990,0
232114021,232113664,3932170,3932170,2.12916e-05,0.00225642,-0.000345558,0.00150109,-0.0443632,-0.031451,5026,5026,0
232612916,232612658,3932170,3932170,0.00102064,0.00032939,-0.00024808,-0.000926507,0.00457491,-0.0393675,4992,4992,0
233112157,233111687,3932170,3932170,-0.000719722,0.00439036,0.000615261,-0.00491999,0.0464785,-0.0550453,4993,4993,0
233610957,233610714,3932170,3932170,-0.000170666,1.3864e-05,-0.00022016,0.0042088,-0.0218213,-0.0461914,4969,4969,0
234110753,234109814,3932170,3932170,0.001057,-0.000100876,-0.000198162,-0.00299253,-0.0150183,-0.051122,4960,4960,0
234609276,234609024,3932170,3932170,3.63379e-05,0.000625485,-0.000368762,0.00170954,-0.0102965,-0.0437068,5245,5245,0
235113042,235112784,3932170,3932170,0.00194259,6.52111e-05,-0.00131414,0.00182161,-0.0409338,-0.0315174,4990,4990,0
235612057,235611812,3932170,3932170,0.00142551,-0.000629086,-8.43778e-05,-0.00907855,0.0145445,-0.052085,4988,4988,0
236111168,236110840,3932170,3932170,5.10314e-06,-0.0011957,0.000102373,-0.00111987,-0.00521601,-0.0424603,4991,4991,0
236610126,236609873,3932170,3932170,-0.00101814,-0.0010423,0.00150247,-0.00765483,0.0572776,-0.0661633,4990,4990,0
237109203,237108897,3932170,3932170,-0.00067373,0.000521079,0.00036538,-0.00319119,0.0479054,-0.0570265,4980,4980,0
237608381,237608050,3932170,3932170,-0.000590513,-0.000320587,-0.00674413,0.00835238,-0.0156267,-0.0328092,4981,4981,0
238112479,238112169,3932170,3932170,-0.000276747,0.000416301,-0.00396948,0.00217984,-0.0445825,-0.0366953,4962,4962,0
238611279,238610970,3932170,3932170,0.00107908,-0.000230055,-0.00244041,-0.0137112,-0.0324174,-0.0479709,4992,4992,0
239110296,239109996,3932170,3932170,0.00132087,-0.000809957,0.000617789,-0.00615975,0.0116417,-0.0601656,4990,4990,0
239610200,239609027,3932170,3932170,0.000768146,0.000107119,-0.000569751,-0.00119034,-0.0190636,-0.0404495,4993,4993,0
240113289,240113042,3932170,3932170,-0.000268396,0.000145195,-0.0019465,-0.00782379,-0.000567269,-0.0404795,4990,4990,0
240607499,240607081,3932170,3932170,-0.00201813,-0.000381967,-0.00481978,-0.000351164,0.031562,-0.0551717,4991,4991,0
241111439,241111147,3932170,3932170,0.000610064,-5.94555e-05,-0.00473653,-0.00479436,0.00778945,-0.0523659,4968,4968,0
241611173,241610351,3932170,3932170,-0.00216203,-0.00192023,0.000705846,0.00573762,0.0148958,-0.0506897,4960,4960,0
242109429,242109164,3932170,3932170,0.000526061,-0.000375006,0.000961773,0.00101889,0.0147613,-0.0666999,5004,5004,0
242613544,242613173,3932170,3932170,0.000630145,0.00339492,-0.000428701,-0.00740578,-0.0161178,-0.0379368,4987,4987,0
243107493,243107250,3932170,3932170,0.000927778,-0.0017457,-0.0034352,0.0074221,-0.018779,-0.0434076,4987,4987,0
243611552,243611238,3932170,3932170,0.0014786,3.27939e-05,-0.0040755,-0.00132793,0.000119746,-0.055592,5000,5000,0
244110584,244110296,3932170,3932170,0.00170232,0.000301856,-0.00219506,-0.00523104,-0.0148515,-0.0438982,5028,5028,0
244609704,244609376,3932170,3932170,0.00207482,-0.000153292,0.00144298,-0.0126655,0.0122538,-0.0501653,4973,4973,0
245109125,245108530,3932170,3932170,0.000912085,-0.0001117,0.00257832,-0.000523865,-0.020916,-0.0339459,4973,4973,0
245612588,245612330,3932170,3932170,0.00175976,-0.000927129,-0.00024066,0.00379154,-0.0252197,-0.0286006,4990,4990,0
246112547,246111359,3932170,3932170,-0.00013242,0.000222685,-0.000745686,-0.0010671,-0.00466033,-0.0367264,4965,4965,0
246610640,246610393,3932170,3932170,0.00100377,0.0018763,-0.000553553,-0.000816173,-0.0191963,-0.0371548,4997,4997,0
247114698,247114409,3932170,3932170,0.00144313,-0.000219273,-0.000619714,-2.53512e-05,-0.00397107,-0.0565631,4993,4993,0
247608689,247608443,3932170,3932170,0.00320264,-0.000684367,5.84695e-05,-0.0057629,0.0294487,-0.0576269,4990,4990,0
248108440,248107500,3932170,3932170,-0.00381386,-0.000485834,0.000836111,-7.43062e-05,0.00758284,-0.0653815,4965,4965,0
248611967,248611719,3932170,3932170,0.00185474,-0.000254759,0.000859272,-0.00155317,-0.00898498,-0.0539132,4953,4953,0
249110775,249110517,3932170,3932170,0.00132213,-0.000882307,0.00317282,-0.00146726,0.010748,-0.0538538,4990,4990,0
249609802,249609549,3932170,3932170,0.000888462,7.04417e-05,0.000641547,-0.00647804,0.0446033,-0.04885,4994,4994,0
250113862,250113564,3932170,3932170,0.00367029,3.82264e-05,-0.000819072,-0.00271222,0.00677656,-0.0414069,4990,4990,0
250608023,250607603,3932170,3932170,-0.00535584,-0.000192997,0.000259897,-0.00224863,0.0456969,-0.0559084,4978,4978,0
251111871,251111621,3932170,3932170,-0.000412407,-0.000625101,0.000214754,-0.00104429,0.0051493,-0.0614171,4990,4990,0
251610912,251610657,3932170,3932170,-0.00261638,-0.00227699,0.000529914,-0.00513225,0.0299826,-0.0557544,4971,4971,0
252110213,252109909,3932170,3932170,0.00109359,0.000296633,8.99011e-05,-0.00739561,-0.0306095,-0.0405982,4962,4962,0
252609018,252608707,3932170,3932170,0.00662552,0.00136474,-0.000698903,0.00105032,-0.0362979,-0.0365322,4992,4992,0
253113023,253112724,3932170,3932170,-7.32582e-05,-0.000884663,-0.000310484,-0.00185911,-0.000802123,-0.0516326,4991,4991,0
253612006,253611752,3932170,3932170,0.00265943,-0.000376857,-0.00104153,-0.00200736,-0.0278258,-0.0444006,4986,4986,0
254111035,254110786,3932170,3932170,0.00103127,-0.000146875,0.00230269,0.000362023,0.00677812,-0.0408904,4996,4996,0
254610093,254609810,3932170,3932170,0.00389042,-0.00241691,-0.000192371,0.000689954,-0.032956,-0.0314824,4990,4990,0
255109140,255108843,3932170,3932170,0.00461711,8.79553e-05,-0.000494686,-0.0077888,0.0294896,-0.0517784,4976,4976,0
255608441,255608043,3932170,3932170,-0.00403727,-0.000704015,-0.00023213,-0.00868252,-0.0133914,-0.0405312,4967,4967,0
256112144,256111885,3932170,3932170,0.000927522,-0.000391896,-0.000309282,-0.00154649,-0.0127218,-0.0537807,4989,4989,0
256611225,256610919,3932170,3932170,-0.00459691,-0.00148074,0.000574176,-0.002769,-0.0226519,-0.0518994,4991,4991,0
257110196,257109941,3932170,3932170,-0.00266919,0.000887051,0.00156657,0.00794904,0.0014924,-0.0605177,4990,4990,0
257609220,257608969,3932170,3932170,0.00146959,-0.00296514,-3.57083e-05,-0.00625322,0.020166,-0.0577841,4984,4984,0
258108297,258107998,3932170,3932170,0.000751361,0.00408161,0.000785715,0.00279544,-0.0332415,-0.0301374,4989,4989,0
258607309,258607061,3932170,3932170,0.00118353,-0.000116246,0.00153332,-0.00902754,0.0232919,-0.0578269,4955,4955,0
259111876,259111209,3932170,3932170,-0.00186445,-0.000616149,0.000458751,-0.0026494,0.0254946,-0.0504243,4971,4971,0
259610331,259610074,3932170,3932170,0.00210726,-0.000952913,0.000118267,-0.00263497,0.0446714,-0.0549746,4991,4991,0
260110164,260109103,3932170,3932170,0.00220527,-0.00072549,-0.000790743,-8.17717e-05,-0.00798299,-0.040901,4990,4990,0
260608427,260608131,3932170,3932170,-0.0018166,0.000921667,0.00109431,-0.00560168,0.0442527,-0.0690033,4990,4990,0
261112400,261112150,3932170,3932170,0.0087022,-0.000203474,-0.000905676,-0.00219541,-0.00603013,-0.0539172,4987,4987,0
261611441,261611179,3932170,3932170,0.00154891,-0.00331675,-0.000466733,-0.00769791,-0.000831836,-0.0433972,4986,4986,0
262111090,262110208,3932170,3932170,0.000990322,-0.000129713,0.00138095,0.000589239,0.058274,-0.0544629,4984,4984,0
262609676,262609383,3932170,3932170,0.000104132,0.0018005,0.00136689,-0.0086784,0.0297621,-0.0490325,4966,4966,0
263108529,263108265,3932170,3932170,0.000961479,-0.000179796,0.000585098,0.00850479,-0.0071171,-0.0453315,4991,4991,0
263612588,263612284,3932170,3932170,-0.000266467,-0.00058567,0.00110804,-0.00559049,0.0544264,-0.0639457,4991,4991,0
264111557,264111312,3932170,3932170,0.00194403,-0.000624923,-0.000817178,-0.00318116,-0.0366483,-0.0310968,4979,4979,0
264610582,264610341,3932170,3932170,-0.00137662,0.00167089,0.00283161,0.000332083,-0.0518481,-0.0445727,4989,4989,0
265109620,265109371,3932170,3932170,0.00184956,0.0013623,0.00160292,-0.00543691,-0.0377353,-0.0404481,4977,4977,0
265608722,265608422,3932170,3932170,0.00446949,-0.00275696,-0.000498533,0.000658254,-0.014173,-0.049498,5009,5009,0
266107867,266107615,3932170,3932170,-0.000605782,0.00175659,-0.000214562,0.000142364,-0.0174698,-0.0408722,4971,4971,0
266611768,266611503,3932170,3932170,0.00219369,-0.000548721,-0.000121848,-0.00114842,-0.0262827,-0.0327295,5048,5048,0
267110792,267110483,3932170,3932170,-0.000926308,0.000645191,2.91091e-05,0.000743184,-0.0329055,-0.0398119,4999,4999,0
267614772,267614497,3932170,3932170,0.00347627,0.000862314,0.00103641,-0.0110478,0.0682162,-0.0688572,4985,4985,0
268113774,268113528,3932170,3932170,0.000223665,-0.000427889,0.000838263,-0.00759153,0.0353816,-0.0631962,4996,4996,0
268607936,268607562,3932170,3932170,-0.000712649,-0.000463498,0.000518768,0.00093497,0.0162897,-0.0499902,4989,4989,0
269111924,269111580,3932170,3932170,0.00371365,-0.0012912,0.000648312,-0.00338214,0.0293639,-0.0427409,4988,4988,0
269611624,269610808,3932170,3932170,-0.00308527,0.000818007,0.000590534,-0.0027037,-0.00322396,-0.0492183,4950,4950,0
270109910,270109647,3932170,3932170,0.000197208,5.906e-05,0.000592708,-0.000976429,-0.0589807,-0.0356615,4998,4998,0
270608956,270608699,3932170,3932170,-0.000511314,-0.000313449,-6.73424e-05,-0.00227512,0.00945863,-0.0508557,5023,5023,0
271113062,271112686,3932170,3932170,-0.00109135,0.000269768,0.000111931,0.00430002,-0.00961018,-0.0522781,4991,4991,0
271612013,271611720,3932170,3932170,-0.000396437,0.000594157,-0.000325161,0.00140384,-0.0122504,-0.0535588,4995,4995,0
272110984,272110743,3932170,3932170,-2.61839e-05,-0.00067447,-0.000789422,0.00294732,-0.0316043,-0.0284575,4989,4989,0
272610030,272609775,3932170,3932170,-0.00383635,0.000974268,-0.00424137,0.00545858,-0.0131634,-0.0512452,4993,4993,0
273109476,273108986,3932170,3932170,0.00123296,0.000135787,-0.00449883,-0.00494477,0.00147553,-0.0516277,5036,5036,0
273608100,273607834,3932170,3932170,0.000871088,0.000892097,-0.00560102,0.00213144,0.00664934,-0.0625882,4989,4989,0
274112797,274111850,3932170,3932170,-0.000394189,-2.61639e-05,-0.00100941,-0.00205531,-0.0129298,-0.0364513,4993,4993,0
274611129,274610877,3932170,3932170,0.00148533,0.00031253,0.000180047,-0.00405241,0.0031626,-0.0358246,4990,4990,0
275110219,275109909,3932170,3932170,0.000481926,0.000628157,0.000269294,0.00200509,0.0140621,-0.0472779,4994,4994,0
275609209,275608934,3932170,3932170,0.00221027,0.000793128,-0.000468231,-0.0103438,0.0293583,-0.0646492,4990,4990,0
276108247,276107965,3932170,3932170,-0.00170122,7.74307e-05,-0.000532813,0.0102182,-0.0177642,-0.0581286,4990,4990,0
276612319,276612058,3932170,3932170,0.00110028,-0.000256506,-0.000245873,-0.0052075,-0.0274342,-0.0501801,4970,4970,0
277111588,277111264,3932170,3932170,0.00226764,0.000125625,-0.000326565,-0.00108512,-0.00321541,-0.0492924,5230,5230,0
277610300,277610040,3932170,3932170,-0.00135411,0.00068154,-0.000791598,-0.000337402,-0.0485052,-0.0315216,4988,4988,0
278114395,278114065,3932170,3932170,-1.60421e-05,0.0010709,-0.000577048,0.00355722,-0.0140946,-0.0478165,4979,4979,0
278613432,278613088,3932170,3932170,0.0038852,0.000800745,-0.00104419,0.0019688,-0.0443684,-0.032799,4990,4990,0
279107459,279107133,3932170,3932170,-0.000995125,0.000243462,0.00102556,-0.00543174,0.00542023,-0.0532983,4989,4989,0
279611429,279611153,3932170,3932170,-0.0010514,-0.000470937,-0.00079061,-0.00555772,-0.0176684,-0.0539469,4995,4995,0
280110470,280110250,3932170,3932170,0.000869706,-0.00374362,0.000142186,-0.0029939,0.0401165,-0.0524334,4969,4969,0
280609830,280609471,3932170,3932170,0.000923052,0.00146528,-0.000856939,0.00023376,-0.0210684,-0.0401755,4983,4983,0
281113569,281113223,3932170,3932170,0.00230175,6.20046e-06,-0.000768255,0.000653171,-0.0148085,-0.0384685,4989,4989,0
281612550,281612252,3932170,3932170,0.000759795,-0.00100014,-0.00144477,0.00100886,-0.00710932,-0.0480285,4989,4989,0
282111597,282111281,3932170,3932170,0.00286498,-0.000922529,-0.00147516,-0.0088416,-0.00633434,-0.0430883,4987,4987,0
282611826,282610312,3932170,3932170,0.00141852,0.000397673,-0.00548081,-0.00121695,-0.00559737,-0.0414751,4991,4991,0
283109644,283109339,3932170,3932170,-0.00129848,-0.000364722,-0.00575422,0.00347049,-0.0293371,-0.0365278,4989,4989,0
283609380,283608479,3932170,3932170,-0.000671609,0.000212221,-0.000516955,-0.0138717,-0.0211216,-0.0515897,4959,4959,0
284112932,284112667,3932170,3932170,0.000580526,0.000123771,-0.000487978,0.00493816,-0.00679193,-0.0496096,4978,4978,0
284611711,284611415,3932170,3932170,0.00036902,-0.000397232,-0.00244712,-0.00107751,0.00747369,-0.0602782,4988,4988,0
285110788,285110448,3932170,3932170,0.00134206,0.000238519,-0.00139803,0.000256226,-0.0590026,-0.0297364,4994,4994,0
285609758,285609473,3932170,3932170,-0.00283582,0.00100085,0.00176238,-0.00112167,0.0287844,-0.0573545,4990,4990,0
286108747,286108502,3932170,3932170,-0.00108562,0.00330624,0.000326846,-0.00306987,0.0104901,-0.0509822,4989,4989,0
286607821,286607532,3932170,3932170,0.00101397,0.000248908,-0.00073944,0.000589076,-0.00208105,-0.0457285,4990,4990,0
287111967,287111690,3932170,3932170,0.000262797,-0.000251952,-0.00288525,-0.00300257,-0.00293056,-0.0654262,4945,4945,0
287611031,287610785,3932170,3932170,0.00338505,-0.00320229,-0.00132815,-0.000289882,-0.00508971,-0.041169,4965,4965,0
288110575,288109612,3932170,3932170,0.000363942,0.0011196,0.000805174,-0.000868416,-0.00345606,-0.0469561,4993,4993,0
288608957,288608637,3932170,3932170,0.000643157,0.000602692,-0.000478106,0.00572834,-0.017555,-0.0443191,4990,4990,0
289112958,289112661,3932170,3932170,0.000720616,9.13062e-05,0.00130362,-0.000681533,0.0224913,-0.069898,4985,4985,0
289606946,289606698,3932170,3932170,0.00275097,-9.09642e-05,-0.00108528,-0.00274625,-0.00344347,-0.043867,4956,4956,0
290111423,290110716,3932170,3932170,-0.00273895,8.0396e-05,0.0009766,0.00428923,0.0140564,-0.0497747,4989,4989,0
290610118,290609775,3932170,3932170,0.00202304,-2.14797e-05,0.000186233,-0.0029884,-0.0271118,-0.0393732,4969,4969,0
291110705,291108979,3932170,3932170,0.00400454,-0.000212839,-0.000498718,-0.00728107,0.00463531,-0.0476454,4966,4966,0
291613048,291612792,3932170,3932170,-0.00101075,-0.000511568,-0.000222701,0.00284394,0.0217623,-0.0539671,4991,4991,0
292112140,292111830,3932170,3932170,-0.000193092,0.000220842,3.78523e-05,-0.000444923,-0.00972626,-0.0432342,4999,4999,0
292611107,292610860,3932170,3932170,0.000685395,-0.000401307,-0.000146126,0.00476182,0.026062,-0.0541184,5000,5000,0
293110173,293109879,3932170,3932170,0.0024164,0.000447682,-0.000638406,-0.00314488,-0.00312748,-0.0531014,4988,4988,0
293609165,293608909,3932170,3932170,-0.00226318,0.000587478,0.00152254,0.000222823,0.00936521,-0.0613254,4991,4991,0
294108306,294107961,3932170,3932170,0.000816188,0.000605887,5.41474e-05,-0.00354131,0.0202979,-0.0469484,4968,4968,0
294612534,294612201,3932170,3932170,-0.000518945,-2.77221e-06,-0.000310675,-0.000921385,-0.00647599,-0.0543303,4961,4961,0
295111247,295110986,3932170,3932170,-0.00311196,-0.000852749,-0.000181462,-0.00223157,0.0330814,-0.0546227,4991,4991,0
295610309,295610029,3932170,3932170,-0.000957781,-5.66403e-05,0.000509537,-0.00387,0.0200322,-0.0606847,5003,5003,0
296109420,296109045,3932170,3932170,0.00030369,-0.00103875,-0.000390165,0.00192696,-0.0112604,-0.0544541,4992,4992,0
296608730,296608075,3932170,3932170,0.00341491,-0.000303651,-0.0011479,-0.00534173,-0.00602006,-0.0442448,4991,4991,0
297112345,297112095,3932170,3932170,3.46857e-05,-0.000303469,-0.000307164,-0.000139269,-0.0125267,-0.0446725,4993,4993,0
297612006,297611121,3932170,3932170,0.000332388,0.00026887,-8.09836e-05,-0.000388094,-0.0203078,-0.0469481,4969,4969,0
298110572,298110325,3932170,3932170,0.00303272,-0.000300576,-0.000464403,-0.00516827,0.0154119,-0.049568,4959,4959,0
298609438,298609179,3932170,3932170,-0.00129147,0.000650126,-0.000271644,0.00397596,-0.0355797,-0.0363213,4986,4986,0
299113471,299113199,3932170,3932170,0.0026886,-0.000991411,-0.000726677,-0.00498241,0.0122267,-0.0420987,4991,4991,0
299612519,299612228,3932170,3932170,-0.000336515,0.000598926,-0.000303233,-0.00527823,-0.0449845,-0.0416757,4993,4993,0
300111571,300111316,3932170,3932170,-0.00329262,0.00054337,0.00108629,0.000472413,0.00323768,-0.0553465,4982,4982,0
300610583,300610287,3932170,3932170,0.00198031,0.000343857,-0.000913187,0.00118903,-0.0505344,-0.0308546,4991,4991,0
301109598,301109344,3932170,3932170,0.00109119,-0.002296,0.000104393,-0.00145741,-0.0130032,-0.0384046,4962,4962,0
301608808,301608508,3932170,3932170,0.00067074,-0.00121687,0.000336138,-0.0028773,0.0323562,-0.0604267,4967,4967,0
302112657,302112394,3932170,3932170,0.00309689,0.000769747,-0.00109763,-0.00479162,0.0126365,-0.0486002,4985,4985,0
302611699,302611392,3932170,3932170,0.000792309,-0.000698049,0.000560961,-4.81019e-05,0.0467118,-0.0628796,4990,4990,0
303110748,303110424,3932170,3932170,-0.000125455,0.000817595,-0.000178353,0.00637476,-0.0451198,-0.0430402,4992,4992,0
303609749,303609459,3932170,3932170,-0.00100239,0.000760849,0.000748927,-0.00300691,0.0309627,-0.0602437,4994,4994,0
304109151,304108481,3932170,3932170,-0.000490037,0.000739113,0.000451436,0.000104779,-0.00458454,-0.0523379,4989,4989,0
304612852,304612506,3932170,3932170,0.000511035,-9.82366e-05,-0.0007948,-0.000100039,-0.001471,-0.0492521,5002,5002,0
305112714,305111725,3932170,3932170,0.00142065,-0.000990915,-0.000452393,-0.0033425,-0.00913654,-0.0423205,4967,4967,0
305610849,305610591,3932170,3932170,-0.000349129,-0.00155014,-0.000546218,0.00638869,-0.0397606,-0.0390099,5024,5024,0
306109860,306109586,3932170,3932170,0.00083443,0.00159671,-0.000894339,0.000256728,-0.0472325,-0.0386619,4990,4990,0
306613919,306613605,3932170,3932170,0.00179574,-0.000112468,-0.00101476,-0.00101704,-0.0157936,-0.0415368,4984,4984,0
307107988,307107644,3932170,3932170,-0.0015158,-0.000167463,0.00092073,0.00178319,0.026179,-0.0603999,4990,4990,0
307611988,307611676,3932170,3932170,0.00174302,0.000754447,-0.00103557,-0.00636559,0.00944678,-0.0463951,4991,4991,0
308111005,308110757,3932170,3932170,0.00174893,-0.0021043,-0.000561333,-0.00123701,-0.048577,-0.0414689,4966,4966,0
308610222,308609919,3932170,3932170,-0.00144619,0.000461524,-4.42362e-05,0.00385739,-0.00853082,-0.0521457,5019,5019,0
309109018,309108753,3932170,3932170,-0.000953178,-0.000342043,-0.00488764,0.00884729,-0.0241203,-0.0463032,4993,4993,0
309613030,309612770,3932170,3932170,0.00221693,-0.000901983,-0.00586641,-0.00223767,0.00815491,-0.0462763,4944,4944,0
310112052,310111799,3932170,3932170,0.000672519,-0.000161147,-0.00173868,0.0015207,-0.0024932,-0.0518946,4989,4989,0
310612213,310610832,3932170,3932170,0.00187964,-0.00192524,-0.00082676,-0.00201994,-0.0455071,-0.0294193,4994,4994,0
311110104,311109857,3932170,3932170,-0.0023602,-0.000187737,0.00117844,0.00208487,0.012363,-0.0473724,4979,4979,0
311609311,311608899,3932170,3932170,0.00135693,-3.09142e-06,-0.00624977,0.00260871,-0.0246608,-0.04697,4986,4986,0
312113374,312113075,3932170,3932170,-0.00197082,-0.000360023,0.000540891,0.000510662,0.0407357,-0.0646013,4964,4964,0
312612200,312611935,3932170,3932170,0.00469381,-0.00157742,0.000245297,0.000211073,-0.0436369,-0.0436238,4988,4988,0
313111254,313110967,3932170,3932170,0.00158394,-0.000628893,-0.00378719,0.00648845,-0.0230808,-0.0482556,4993,4993,0
313610322,313610025,3932170,3932170,-0.00182362,-0.000354837,-0.000603692,0.00361741,0.0483253,-0.0573654,5022,5022,0
314109272,314109022,3932170,3932170,-0.00233923,0.00224412,0.00109177,0.000855029,0.0202286,-0.0485683,4990,4990,0
314608340,314608052,3932170,3932170,0.000664745,-0.000566807,-8.34968e-05,-0.00260851,0.00761424,-0.0427572,4989,4989,0
315112605,315112073,3932170,3932170,-0.00249945,0.000223646,-0.00517791,0.00186795,-0.00865169,-0.050594,4992,4992,0
315611531,315611234,3932170,3932170,-0.00159791,-0.00105608,-0.00130723,-0.00280058,0.0282411,-0.0585188,4980,4980,0
316111137,316110136,3932170,3932170,0.00111848,-0.000501769,0.000251317,-0.000687397,-0.00281732,-0.0414041,4996,4996,0
316609458,316609159,3932170,3932170,-6.37914e-06,-2.56357e-05,0.000387143,-0.00144186,-0.0216203,-0.0517463,4991,4991,0
317114357,317113186,3932170,3932170,0.000611029,-7.99168e-05,0.000642019,-0.00246128,0.0558906,-0.0609815,4993,4993,0
317607463,317607217,3932170,3932170,-0.00253135,0.000252344,-0.000349169,0.00136821,-0.030148,-0.0453925,4990,4990,0
318111742,318111238,3932170,3932170,-0.000145942,0.000310163,0.000350115,-0.000482409,0.0169582,-0.046445,4986,4986,0
318610511,318610267,3932170,3932170,0.0004389,-8.52158e-06,0.000752982,-0.00412913,0.0609779,-0.0560706,4992,4992,0
319110313,319109455,3932170,3932170,-0.00173333,0.000537007,-0.00053664,0.00359174,-0.0285375,-0.0536249,4979,4979,0
319608585,319608328,3932170,3932170,-0.00263002,0.000897489,-0.000266625,0.00387223,0.0172104,-0.0525726,4994,4994,0
320112600,320112343,3932170,3932170,-0.000345636,0.000227061,0.000815656,-0.00297965,0.0443971,-0.0501155,4990,4990,0
320611664,320611372,3932170,3932170,0.00168177,-0.001599,0.000222732,-0.00433534,0.00985276,-0.0403302,4990,4990,0
321110724,321110402,3932170,3932170,-0.00252257,-0.000735024,0.000148662,0.00826616,-0.00639827,-0.0651624,4991,4991,0
321609730,321609432,3932170,3932170,-0.00229625,0.00285118,0.000272439,0.00826445,-0.00699933,-0.0635364,4991,4991,0
322108773,322108461,3932170,3932170,0.00245321,-0.000228602,4.72811e-05,-0.00543542,-0.0218574,-0.0352429,4996,4996,0
322612821,322612558,3932170,3932170,0.000216277,0.000336256,-0.00044662,0.00085597,-0.0136543,-0.0430496,4974,4974,0
323112054,323111758,3932170,3932170,0.00140574,-0.000404847,-0.00104907,0.00133428,-0.0541267,-0.0286756,5236,5236,0
323610863,323610542,3932170,3932170,-0.00173222,-4.6291e-05,0.000238956,0.00387931,-0.0178547,-0.0529712,4994,4994,0
324109863,324109568,3932170,3932170,0.000364692,0.000696241,0.000359927,-0.00700491,0.0535028,-0.0660034,4991,4991,0
324608888,324608597,3932170,3932170,0.000809635,1.4152e-05,-0.00140155,-0.00535527,0.0205495,-0.0621561,4986,4986,0
325107941,325107637,3932170,3932170,-0.000280892,0.000838804,0.00218231,0.00140027,0.00329189,-0.0589497,4981,4981,0
325613341,325611647,3932170,3932170,0.00129965,0.000159032,0.000605894,-0.00488375,-0.0191657,-0.051246,4991,4991,0
326111018,326110772,3932170,3932170,0.000378289,9.57279e-05,0.00116373,-0.00168867,0.011634,-0.0419132,4945,4945,0
326610762,326609950,3932170,3932170,-0.000802518,0.00011334,-0.000622379,0.0025146,-0.017629,-0.0394017,4959,4959,0
327113982,327113723,3932170,3932170,-0.00138147,0.000658486,-0.000929185,0.000170041,-0.0308978,-0.0297462,4988,4988,0
327612999,327612753,3932170,3932170,0.00113295,0.00017882,-1.50525e-05,-0.00531579,0.0141816,-0.049689,4991,4991,0
328107041,328106792,3932170,3932170,0.00268553,0.00287977,-0.000555039,0.00305936,-0.0280387,-0.0366675,4991,4991,0
328611065,328610813,3932170,3932170,0.00115175,-0.000216488,-0.00069046,-0.000254683,-0.0171579,-0.0384308,4996,4996,0
329110085,329109838,3932170,3932170,0.00192738,-0.000651549,0.000801446,0.000661639,0.0434192,-0.0592056,4972,4972,0
329609358,329608988,3932170,3932170,0.0016551,0.000411548,0.000279565,-0.00124076,0.0111966,-0.0526838,4978,4978,0
330113421,330113115,3932170,3932170,-0.000549342,-0.000588394,0.000625937,0.00296417,0.0077845,-0.0450549,4971,4971,0
330612218,330611954,3932170,3932170,0.00117788,0.000185035,-0.000373929,-0.0031182,-0.01706,-0.0529925,4978,4978,0
331112098,331110949,3932170,3932170,0.00027743,0.00133082,0.000313875,-0.000459027,0.0265203,-0.0634829,4991,4991,0
331610234,331609979,3932170,3932170,-0.00152023,-0.000572418,0.00184922,0.00204009,0.0359896,-0.0655812,4989,4989,0
332109490,332109009,3932170,3932170,-7.05171e-05,-0.000601725,0.00267973,-0.0015659,0.052012,-0.0645898,4990,4990,0
332608372,332608036,3932170,3932170,0.00249598,0.000214435,0.000505183,-0.00484096,0.000123301,-0.0440907,4989,4989,0
333112403,333112141,3932170,3932170,0.00106144,-0.000685617,-0.000689694,0.00384332,-0.0299524,-0.0302032,4968,4968,0
333611629,333611303,3932170,3932170,0.000454129,-0.00106373,0.000375586,-0.0026029,0.0177123,-0.0550437,4953,4953,0
334110376,334110115,3932170,3932170,-0.00105689,0.000649181,-0.000818066,0.00822666,0.000234419,-0.0550058,4990,4990,0
334614453,334614134,3932170,3932170,0.000629578,0.000264928,0.000968006,-0.00372235,-0.0036466,-0.0588907,4989,4989,0
335108430,335108176,3932170,3932170,-0.0011746,0.00143951,0.000132768,0.00230748,-0.0433574,-0.046208,4988,4988,0
335607493,335607203,3932170,3932170,-0.000816828,-0.000110664,0.000934031,-0.00570918,0.0451976,-0.0667691,4987,4987,0
336111470,336111224,3932170,3932170,0.000590595,0.000648422,-0.000448422,-0.00667728,0.019109,-0.0511789,4991,4991,0
336610543,336610293,3932170,3932170,-0.00292643,0.000671418,0.000573017,-0.00407674,0.022482,-0.0544206,4977,4977,0
337109785,337109536,3932170,3932170,-0.000642774,0.00013529,3.58575e-05,0.00114976,-0.011774,-0.0490854,4965,4965,0
337613560,337613302,3932170,3932170,0.00114489,-0.000223324,0.00303241,-0.00260833,0.0248973,-0.0546766,4981,4981,0
338107670,338107341,3932170,3932170,-0.000809017,-0.0019659,0.000814697,0.00131624,-0.00501325,-0.0531362,4990,4990,0
338612530,338611419,3932170,3932170,4.9549e-05,0.00455618,0.000288748,-0.00134816,0.0474213,-0.0511506,5048,5048,0
339110733,339110390,3932170,3932170,0.00116518,-0.00154835,-0.00136144,0.00175216,-0.0481915,-0.0291782,4990,4990,0
339611064,339609426,3932170,3932170,-0.00266809,0.000942564,-0.000367446,0.00600826,-0.0161184,-0.0595884,4994,4994,0
340108789,340108486,3932170,3932170,-0.00332995,0.000377771,-2.2521e-06,0.00256165,-0.000101475,-0.0586479,4975,4975,0
340613414,340612649,3932170,3932170,-0.000675,-0.00141948,0.0024075,0.00110628,0.0266358,-0.0568379,4964,4964,0
341106767,341106509,3932170,3932170,0.00138091,0.001138,0.00158939,-0.00295657,0.0213102,-0.0535723,4990,4990,0
341610854,341610532,3932170,3932170,-0.00212349,-0.00212052,0.0011104,0.00394029,0.0275265,-0.0499425,4993,4993,0
342109858,342109563,3932170,3932170,0.000118999,0.000358238,-0.000152518,-0.00522005,-0.00809382,-0.0452652,4994,4994,0
342608887,342608592,3932170,3932170,0.00123328,0.000160237,-0.000119481,-0.00587966,-0.0014849,-0.0589881,4986,4986,0
343107925,343107618,3932170,3932170,0.000952495,0.00065014,-0.000577219,-0.00664872,-0.032386,-0.0419432,4989,4989,0
343611891,343611671,3932170,3932170,0.00177326,0.000555266,0.0010527,0.00364171,-0.0165602,-0.0534416,4952,4952,0
344111480,344110851,3932170,3932170,0.00227382,0.00155091,0.000241772,0.00155268,0.0044344,-0.0590242,4973,4973,0
344609991,344609697,3932170,3932170,-0.002404,-0.000414973,-0.000498648,0.00361754,-0.0500551,-0.0344513,4990,4990,0
345113992,345113717,3932170,3932170,-0.000219521,-0.000151638,-0.000457282,-0.000138598,-0.0380842,-0.0281865,4989,4989,0
345608009,345607757,3932170,3932170,-0.000806954,0.000589176,0.000161293,0.000797006,0.0179559,-0.0454614,4991,4991,0
346112288,346111779,3932170,3932170,-0.00208291,0.000459916,-0.000248315,0.00697237,-0.00982166,-0.0590542,4984,4984,0
346611102,346610812,3932170,3932170,-0.000581518,-0.000102536,0.000479243,-0.00514418,0.0460884,-0.0644579,4996,4996,0
347110569,347109875,3932170,3932170,0.000366866,-0.000132558,0.00158985,-0.00679366,0.00605294,-0.054238,4966,4966,0
347609332,347609089,3932170,3932170,-2.68528e-05,-0.00511261,0.00117417,-0.00757048,0.0454967,-0.0690284,4970,4970,0
348113148,348112890,3932170,3932170,0.000226059,0.000624005,0.00086684,0.0033722,-0.00366782,-0.0394856,4989,4989,0
348607232,348606928,3932170,3932170,0.00228618,-0.000144188,0.000795108,0.000998446,-0.0162557,-0.0322327,4993,4993,0
349111283,349110946,3932170,3932170,-1.46092e-05,-0.000249419,-0.00101504,0.0016357,-0.0606298,-0.0336766,4989,4989,0
349610241,349609979,3932170,3932170,0.000802788,-0.000287664,-6.27072e-05,-0.00217101,0.00183608,-0.047831,4988,4988,0
350109311,350109005,3932170,3932170,0.000916192,-0.000434771,-0.000847304,-0.00153604,-0.00880118,-0.0428992,4989,4989,0
350613383,350613027,3932170,3932170,-0.00160407,-0.000289202,-0.000974742,-0.00269224,0.00641024,-0.0614685,4987,4987,0
351112447,351112198,3932170,3932170,0.000221935,-0.00170657,-0.000635267,-0.00057284,0.0256758,-0.0601018,4968,4968,0
351611353,351611088,3932170,3932170,-0.000381957,-0.000432942,0.00204828,-0.00182839,0.0380462,-0.0643782,4993,4993,0
352110418,352110115,3932170,3932170,0.00165279,0.000298447,0.00177849,-0.00699119,0.0323639,-0.0566388,4990,4990,0
352610350,352609146,3932170,3932170,-0.000726933,-9.02783e-05,9.96553e-05,-0.0018597,-0.0107171,-0.0500789,4991,4991,0
353108433,353108175,3932170,3932170,0.000373097,-0.00133267,-0.00052513,0.00111803,-0.0246836,-0.0283024,4951,4951,0
353612458,353612200,3932170,3932170,-0.000347117,0.000103594,-0.000976881,-0.000212023,-0.0157466,-0.0341627,4964,4964,0
354111548,354111238,3932170,3932170,0.00103092,-0.000475512,-0.000628803,-0.00489233,-0.0124876,-0.0556608,4996,4996,0
354610889,354610395,3932170,3932170,0.000478731,-0.00183591,-0.000470801,-0.00638003,-0.0253847,-0.0467003,4974,4974,0
355109539,355109285,3932170,3932170,-0.00180055,0.000125385,0.00103659,-0.00203242,0.0417216,-0.0679861,4990,4990,0
355613615,355613305,3932170,3932170,0.000678221,0.000844554,0.000112549,-0.0026973,-0.00567621,-0.0552057,4979,4979,0
356107695,356107345,3932170,3932170,-0.000695852,-0.0015083,-0.000298273,-0.00156028,0.0039453,-0.0470188,4991,4991,0
356611697,356611365,3932170,3932170,-0.00209162,-0.00128536,0.000364441,-0.00360326,0.023053,-0.0538288,4990,4990,0
357110642,357110395,3932170,3932170,0.00138025,0.000183722,-0.000391565,-0.00606103,0.0267083,-0.0453613,4988,4988,0
357609787,357609435,3932170,3932170,0.000604309,0.00076219,-0.000199398,-0.00203364,-0.0171399,-0.0431102,4999,4999,0
358108915,358108608,3932170,3932170,0.000402785,7.56563e-05,-0.000205105,-0.00315227,-0.0167406,-0.0428665,4924,4924,0
358612747,358612477,3932170,3932170,-0.00266073,0.000257936,0.000661656,-0.00164039,0.0169207,-0.0643252,4992,4992,0
359112386,359111506,3932170,3932170,0.000883464,-0.000517973,0.00200593,0.00420644,0.022709,-0.056631,4991,4991,0
359610850,359610535,3932170,3932170,0.000816653,-0.000438127,0.00173997,-0.00191589,0.00126717,-0.0397041,4994,4994,0
360109867,360109609,3932170,3932170,0.00331944,-0.000156126,-0.00074485,-0.00243177,-0.00557889,-0.0402895,4943,4943,0
360608842,360608596,3932170,3932170,0.00118753,-0.000235043,-0.00057645,-0.00723033,0.0377793,-0.0519327,4989,4989,0
361112917,361112617,3932170,3932170,0.00161913,-0.000118047,8.29491e-06,-0.00718912,0.0372775,-0.0443263,4990,4990,0
361612110,361611794,3932170,3932170,-0.0012441,0.000173073,0.000246766,0.00113068,-0.0192258,-0.0369495,5012,5012,0
362110945,362110679,3932170,3932170,0.00167499,-0.000328789,-0.000433016,0.000468829,0.00908832,-0.0481627,4993,4993,0
362610008,362609706,3932170,3932170,0.0023004,-0.000904845,-2.06624e-05,-0.00343866,0.0168431,-0.052672,4991,4991,0
363109033,363108737,3932170,3932170,0.000899898,4.96394e-05,0.000137262,-0.00600509,0.0258049,-0.06444,4991,4991,0
363608010,363607766,3932170,3932170,-0.00165096,-0.000355635,0.000598899,-0.00457602,-0.00702126,-0.0503606,4990,4990,0
364112128,364111790,3932170,3932170,0.000937607,0.000199139,0.00201932,-0.00682804,-0.00719628,-0.0492437,4994,4994,0
364611158,364610822,3932170,3932170,0.00127588,-0.000354613,0.000513101,-0.00490216,0.0271535,-0.0570471,4971,4971,0
365110222,365109950,3932170,3932170,0.00109478,-0.000223329,-0.000896584,-0.00154587,-0.0334794,-0.0280955,4973,4973,0
365609185,365608910,3932170,3932170,0.00122438,0.000214854,-0.000319344,0.00327071,-0.0126869,-0.0378093,4990,4990,0
366108166,366107908,3932170,3932170,-0.00186983,0.000560296,0.00266398,0.00500743,-0.00898974,-0.0524224,4991,4991,0
366612194,366611935,3932170,3932170,-0.00131315,0.000730094,0.000531033,-0.00451682,0.0129869,-0.0510218,4998,4998,0
367111269,367110957,3932170,3932170,0.00141006,-0.00142741,-0.00107245,0.00163686,-0.0103355,-0.0376656,4988,4988,0
367611474,367609994,3932170,3932170,0.000906127,-0.000265275,-0.000566944,0.00202687,0.00944484,-0.0408623,4994,4994,0
368109280,368109032,3932170,3932170,0.000434174,0.00168268,-0.000474585,-0.00957341,0.0305644,-0.0590289,4951,4951,0
368613413,368613116,3932170,3932170,-0.000381302,-0.000739301,-0.000243961,-0.00400983,0.0271919,-0.0587975,4980,4980,0
369112649,369112321,3932170,3932170,-0.00501083,-0.000182719,0.000244991,0.00101618,0.0205824,-0.0584946,4962,4962,0
369611402,369611099,3932170,3932170,0.00110176,-1.4312e-05,-7.87083e-05,-0.0047922,0.0287962,-0.049345,4991,4991,0
370110374,370110129,3932170,3932170,-0.00229757,-0.000192847,0.000566978,-0.00692271,0.0399412,-0.0586102,4990,4990,0
370609419,370609169,3932170,3932170,-0.00167313,0.000399289,0.000625374,0.00175719,0.0222435,-0.0582799,4999,4999,0
371108506,371108202,3932170,3932170,0.00144627,-0.000254404,-0.000313732,-0.00641339,0.00157165,-0.0484101,4983,4983,0
371612524,371612216,3932170,3932170,0.000883732,-0.000285772,-0.000621735,0.000630963,-0.0415781,-0.0431932,4989,4989,0
372111579,372111333,3932170,3932170,0.000179196,-0.00305597,0.000303697,0.00401047,0.0171118,-0.0512705,4938,4938,0
372610853,372610517,3932170,3932170,0.000271336,0.000660544,-0.000271684,0.00272998,-0.00353223,-0.0523894,4956,4956,0
373114625,373114360,3932170,3932170,0.000554881,0.000235739,-0.00131768,0.0054722,0.00981393,-0.0535286,5005,5005,0
373608576,373608331,3932170,3932170,0.000764109,-0.000169015,-0.00054076,-0.0025832,-0.015379,-0.0330815,4991,4991,0
374112792,374112355,3932170,3932170,0.00134045,-2.3144e-05,-0.000189677,-0.00745652,0.024899,-0.0409633,4993,4993,0
374611631,374611381,3932170,3932170,0.00033408,0.0053128,0.00203762,-0.0153509,0.0150866,-0.0248803,4990,4990,0
375110799,375110413,3932170,3932170,0.0434847,-0.0123431,0.00842763,-0.278459,-0.321317,-0.475212,4990,4990,0
375609864,375609554,3932170,3932170,-0.00906043,-0.00107207,0.00162342,-0.0153406,0.0864861,-0.0133493,4963,4963,0
376115427,376113678,3932170,3932170,0.0258195,-0.0590219,0.0151792,0.0134115,-0.120454,0.0194024,4966,4966,0
376607762,376607503,3932170,3932170,-0.00119558,0.00107296,0.000127355,0.0232162,0.03867,0.0778239,4991,4991,0
377111783,377111525,3932170,3932170,-0.000374762,-0.00234194,0.00090927,0.0169496,0.014095,0.049138,4997,4997,0
377610808,377610556,3932170,3932170,0.000475001,0.000280028,0.000277902,0.0047277,0.0187352,0.0480045,4992,4992,0
378109890,378109584,3932170,3932170,3.16256e-05,-8.07315e-06,-1.34999e-06,0.00539317,0.0142752,0.0464719,4990,4990,0
378608895,378608650,3932170,3932170,6.70281e-05,-8.11871e-06,1.49875e-06,0.00484113,0.0155573,0.046204,4989,4989,0
379113049,379112766,3932170,3932170,0.000167506,5.43293e-05,-3.09262e-05,0.00442975,0.0154886,0.046616,5033,5033,0
379612137,379611887,3932170,3932170,0.00119096,-0.000477796,0.000445951,0.00559262,0.0140329,0.0482061,4965,4965,0
380110962,380110696,3932170,3932170,0.011299,-0.000297909,-0.00212927,-0.00121505,0.0385247,0.0181456,4986,4986,0
380609982,380609731,3932170,3932170,0.00802208,0.00126755,0.000263775,-0.00349472,0.0427291,-0.0264415,4993,4993,0
381109034,381108757,3932170,3932170,0.00518156,0.00147423,-0.000702655,-0.00947489,0.0487409,-0.0522614,4991,4991,0
381614311,381612785,3932170,3932170,0.00475014,5.7439e-05,0.000377424,-0.00322491,0.00680193,-0.0478425,4998,4998,0
382112106,382111811,3932170,3932170,0.000910977,0.000220462,-0.000171132,-0.00584157,0.00206918,-0.0446713,4994,4994,0
382611148,382610919,3932170,3932170,-8.73627e-05,-3.30255e-05,-0.000246997,-0.00723246,-0.00679282,-0.0563705,4979,4979,0
