timestamp,lat,lon,alt,alt_ellipsoid,delta_alt,eph,epv,terrain_alt,lat_lon_reset_counter,alt_reset_counter,terrain_alt_valid,dead_reckoning
198102076,34.0348653159,108.756505016,421.929,395.639,-0.0,1.31256,1.55447,421.828,2,0,1,0
198112039,34.034865315,108.756505014,421.929,395.639,-0.0,1.31274,1.55464,421.828,2,0,1,0
198310697,34.0348652918,108.756504996,421.926,395.647,-0.0,1.31275,1.55446,421.823,2,0,1,0
198509386,34.0348652804,108.756505006,421.923,395.656,-0.0,1.31275,1.55429,421.826,2,0,1,0
198708076,34.0348653215,108.756505044,421.925,395.67,-0.0,1.31275,1.55472,421.831,2,0,1,0
198911731,34.034865389,108.756505098,421.93,395.686,-0.0,1.31276,1.55454,421.836,2,0,1,0
199110425,34.0348654187,108.756505135,421.939,395.705,-0.0,1.31278,1.55437,421.85,2,0,1,0
199309109,34.0348654162,108.756505135,421.948,395.725,-0.0,1.31278,1.5542,421.855,2,0,1,0
199507799,34.0348654153,108.75650511,421.959,395.747,-0.0,1.31277,1.55464,421.855,2,0,1,0
199706498,34.0348654221,108.756505085,421.972,395.77,-0.0,1.31277,1.55447,421.855,2,0,1,0
199905252,34.0348654337,108.756505051,421.981,395.79,-0.0,1.31275,1.55429,421.855,2,0,1,0
200103865,34.0348654457,108.756505002,421.989,395.807,-0.0,1.31271,1.55472,421.855,2,0,1,0
200307572,34.0348654383,108.756504958,421.998,395.825,-0.0,1.3127,1.55454,421.855,2,0,1,0
200511178,34.0348654045,108.756504898,422.002,395.838,-0.0,1.3127,1.55436,421.855,2,0,1,0
200709870,34.0348653897,108.756504806,421.998,395.843,-0.0,1.3127,1.55478,421.855,2,0,1,0
200908556,34.0348654055,108.756504704,421.988,395.841,-0.0,1.31269,1.55458,421.855,2,0,1,0
201112230,34.0348654297,108.756504612,421.98,395.842,-0.0,1.31269,1.55499,421.855,2,0,1,0
201310902,34.0348654445,108.756504547,421.979,395.849,-0.0,1.3127,1.55478,421.855,2,0,1,0
201509805,34.0348654195,108.756504555,421.98,395.858,-0.0,1.31271,1.55519,421.855,2,0,1,0
201703313,34.0348653379,108.756504646,421.977,395.864,-0.0,1.31252,1.55482,421.855,2,0,1,0
201902002,34.0348652184,108.756504858,421.971,395.866,-0.0,1.31253,1.55522,421.855,2,0,1,0
202105658,34.0348650586,108.756505116,421.961,395.864,-0.0,1.31253,1.55501,421.855,2,0,1,0
202304451,34.0348649572,108.756505306,421.957,395.868,-0.0,1.31252,1.5548,421.854,2,0,1,0
202512973,34.034864861,108.756505481,421.955,395.874,-0.0,1.31271,1.55476,421.854,2,0,1,0
202711660,34.0348647316,108.756505683,421.953,395.881,-0.0,1.3127,1.55517,421.854,2,0,1,0
202910355,34.0348645507,108.756505752,421.965,395.9,-0.0,1.3127,1.55497,421.854,2,0,1,0
203109131,34.0348642544,108.756505688,421.976,395.92,-0.0,1.31269,1.55477,421.854,2,0,1,0
203302760,34.0348638821,108.756505577,421.988,395.939,-0.0,1.31249,1.55501,421.854,2,0,1,0
203501449,34.034863447,108.756505508,422.017,395.976,-0.0,1.31248,1.5548,421.854,2,0,1,0
203710073,34.0348629258,108.756505483,422.07,396.036,-0.0,1.31266,1.55475,421.854,2,0,1,0
203908818,34.0348622539,108.756505329,422.138,396.111,-0.0,1.31264,1.55516,421.854,2,0,1,0
204107451,34.0348612604,108.756504771,422.209,396.188,-0.0,1.3126,1.55494,421.854,2,0,1,0
204311110,34.034859997,108.756503955,422.282,396.268,-0.0,1.31257,1.55474,0.0,2,0,0,0
204509796,34.0348586411,108.756503221,422.368,396.359,-0.0,1.31256,1.55514,0.0,2,0,0,0
204708510,34.0348572479,108.756502567,422.473,396.471,-0.0,1.31254,1.55494,0.0,2,0,0,0
204907178,34.0348561082,108.756502199,422.604,396.608,-0.0,1.31252,1.55474,0.0,2,0,0,0
205105864,34.0348555718,108.756502143,422.748,396.758,-0.0,1.31256,1.55519,0.0,2,0,0,0
205309520,34.0348557131,108.756502343,422.867,396.884,-0.0,1.31255,1.55498,0.0,2,0,0,0
205508254,34.0348561891,108.756502653,422.929,396.952,-0.0,1.31252,1.55477,0.0,2,0,0,0
205706902,34.0348568018,108.756502851,422.908,396.939,-0.0,1.31249,1.55457,0.0,2,0,0,0
205910555,34.034857348,108.756503059,422.831,396.871,-0.0,1.31246,1.55497,0.0,2,0,0,0
206104277,34.0348576958,108.756503309,422.766,396.814,-0.0,1.31223,1.55461,0.0,2,0,0,0
206302968,34.0348579831,108.756503585,422.769,396.824,-0.0,1.31219,1.55442,0.0,2,0,0,0
206501652,34.0348582172,108.75650396,422.838,396.901,-0.0,1.31216,1.55484,0.0,2,0,0,0
206710280,34.0348583989,108.756504351,422.923,396.991,-0.0,1.31232,1.55482,0.0,2,0,0,0
206908968,34.0348584765,108.756504678,422.965,397.039,-0.0,1.31231,1.55463,0.0,2,0,0,0
207107658,34.0348585852,108.756505013,422.962,397.042,-0.0,1.31228,1.55444,0.0,2,0,0,0
207311314,34.0348588098,108.756505307,422.925,397.012,-0.0,1.31225,1.55486,0.0,2,0,0,0
207510003,34.0348591257,108.756505515,422.861,396.954,-0.0,1.31223,1.55468,0.0,2,0,0,0
207708692,34.0348594263,108.756505651,422.783,396.884,-0.0,1.31221,1.5545,0.0,2,0,0,0
207907383,34.0348596639,108.756505741,422.732,396.84,-0.0,1.31219,1.55432,0.0,2,0,0,0
208111037,34.0348598967,108.756505819,422.712,396.826,-0.0,1.31218,1.55475,0.0,2,0,0,0
208309726,34.0348601655,108.756505966,422.708,396.83,-0.0,1.31216,1.55457,0.0,2,0,0,0
208508601,34.0348606422,108.756506087,422.712,396.84,-0.0,1.31214,1.55439,0.0,2,0,0,0
208712075,34.0348615806,108.756506251,422.715,396.848,-0.0,1.31214,1.55482,0.0,2,0,0,0
208910761,34.0348628004,108.756506391,422.712,396.852,-0.0,1.31214,1.55464,0.0,2,0,0,0
209109453,34.0348639675,108.756506404,422.722,396.868,-0.0,1.31214,1.55445,0.0,2,0,0,0
209308292,34.0348650037,108.756506174,422.743,396.896,-0.0,1.31215,1.55487,0.0,2,0,0,0
209511797,34.0348659666,108.75650548,422.769,396.927,-0.0,1.31215,1.55468,0.0,2,0,0,0
209710486,34.034866838,108.756504395,422.8,396.964,-0.0,1.31216,1.55449,0.0,2,0,0,0
209909175,34.0348677222,108.756503367,422.834,397.003,-0.0,1.31214,1.55491,0.0,2,0,0,0
210108030,34.0348685914,108.756502801,422.839,397.013,-0.0,1.31214,1.55472,0.0,2,0,0,0
210306554,34.0348694013,108.756502809,422.813,396.993,-0.0,1.3121,1.55454,0.0,2,0,0,0
210510252,34.0348702063,108.756503345,422.764,396.949,-0.0,1.31207,1.55495,0.0,2,0,0,0
210708900,34.0348709339,108.756504085,422.693,396.884,-0.0,1.31204,1.55476,0.0,2,0,0,0
210907661,34.0348716609,108.756504703,422.594,396.792,-0.0,1.31199,1.55456,0.0,2,0,0,0
211106277,34.0348723995,108.756505087,422.473,396.677,-0.0,1.31194,1.55497,0.0,2,0,0,0
211309935,34.0348729548,108.756504816,422.329,396.539,-0.0,1.3119,1.55477,0.0,2,0,0,0
211508623,34.0348732608,108.75650384,422.189,396.405,-0.0,1.31186,1.55457,0.0,2,0,0,0
211707415,34.0348735081,108.756502675,422.101,396.321,-0.0,1.31183,1.55438,0.0,2,0,0,0
211910969,34.034873796,108.756501504,422.115,396.336,-0.0,1.3118,1.5548,0.0,2,0,0,0
212109658,34.0348741441,108.756500496,422.226,396.448,-0.0,1.31175,1.55461,0.0,2,0,0,0
212308347,34.0348746601,108.756499973,422.387,396.61,-0.0,1.31175,1.55442,0.0,2,0,0,0
212507054,34.0348752515,108.7565001,422.564,396.79,-0.0,1.31176,1.55484,0.0,2,0,0,0
212705760,34.0348757065,108.756500561,422.736,396.967,-0.0,1.31175,1.55466,0.0,2,0,0,0
212909402,34.0348762649,108.756501217,422.871,397.107,-0.0,1.31175,1.55447,0.0,2,0,0,0
213108126,34.0348769941,108.756501959,422.95,397.193,-0.0,1.31173,1.55429,0.0,2,0,0,0
213306760,34.0348776294,108.756502399,422.993,397.242,-0.0,1.3117,1.55472,0.0,2,0,0,0
213510418,34.0348781906,108.75650264,422.99,397.245,-0.0,1.31166,1.55454,0.0,2,0,0,0
213709108,34.0348788832,108.756502785,422.937,397.199,-0.0,1.31164,1.55436,0.0,2,0,0,0
213912763,34.0348796135,108.756502891,422.894,397.162,-0.0,1.31164,1.55419,0.0,2,0,0,0
214111476,34.0348803437,108.756503046,422.888,397.162,-0.0,1.3116,1.55461,0.0,2,0,0,0
214310141,34.0348812201,108.756503215,422.917,397.195,-0.0,1.31159,1.55443,0.0,2,0,0,0
214508830,34.0348822382,108.756503289,422.979,397.261,-0.0,1.31158,1.55425,0.0,2,0,0,0
214697780,34.0348835046,108.756503367,423.064,397.349,-0.0,1.31139,1.55451,0.0,2,0,0,0
214901242,34.0348853028,108.756503543,423.168,397.456,-0.0,1.31137,1.55433,0.0,2,0,0,0
215109865,34.0348875903,108.756503774,423.245,397.535,-0.0,1.31155,1.55432,0.0,2,0,0,0
215308555,34.034890188,108.75650412,423.276,397.568,-0.0,1.31155,1.55474,0.0,2,0,0,0
215507250,34.0348928955,108.756504446,423.277,397.571,-0.0,1.31153,1.55457,0.0,2,0,0,0
215705934,34.0348954625,108.756504709,423.261,397.558,-0.0,1.31151,1.55439,0.0,2,0,0,0
215904623,34.0348978197,108.756505002,423.216,397.515,-0.0,1.31149,1.55422,0.0,2,0,0,0
216108279,34.0349000068,108.756505316,423.161,397.462,-0.0,1.31146,1.55464,0.0,2,0,0,0
216307141,34.0349018853,108.75650564,423.153,397.454,-0.0,1.31141,1.55447,0.0,2,0,0,0
216505658,34.0349035561,108.756505989,423.213,397.512,-0.0,1.31137,1.5543,0.0,2,0,0,0
216709314,34.0349050932,108.756506288,423.322,397.619,-0.0,1.31134,1.55473,0.0,2,0,0,0
216903038,34.0349064684,108.756506284,423.412,397.706,-0.0,1.31112,1.5544,0.0,2,0,0,0
217111817,34.0349078693,108.756505801,423.465,397.756,-0.0,1.31126,1.55439,0.0,2,0,0,0
217310364,34.0349091343,108.756505047,423.477,397.764,-0.0,1.31122,1.55423,0.0,2,0,0,0
217509052,34.0349102715,108.756504331,423.451,397.736,-0.0,1.31118,1.55466,0.0,2,0,0,0
217707728,34.0349112626,108.756503772,423.401,397.684,-0.0,1.31113,1.55449,0.0,2,0,0,0
217906521,34.0349123332,108.756503494,423.334,397.615,-0.0,1.31108,1.55432,0.0,2,0,0,0
218110082,34.0349137919,108.756503594,423.272,397.551,-0.0,1.311,1.55475,0.0,2,0,0,0
218308763,34.0349155895,108.756504077,423.218,397.495,-0.0,1.31097,1.55457,0.0,2,0,0,0
218507481,34.0349177215,108.756504656,423.164,397.437,-0.0,1.31094,1.5544,0.0,2,0,0,0
218706217,34.0349200884,108.756505167,423.121,397.388,-0.0,1.31088,1.55423,0.0,2,0,0,0
218904831,34.0349225198,108.756505613,423.095,397.357,-0.0,1.31083,1.55465,0.0,2,0,0,0
219108530,34.0349248244,108.756506062,423.085,397.342,-0.0,1.31078,1.55448,0.0,2,0,0,0
219307178,34.0349268372,108.756506524,423.096,397.345,-0.0,1.31072,1.55431,0.0,2,0,0,0
219505903,34.0349287039,108.756506764,423.115,397.356,-0.0,1.31067,1.55473,0.0,2,0,0,0
219709528,34.0349304865,108.756506525,423.134,397.366,-0.0,1.31061,1.55455,0.0,2,0,0,0
219903246,34.0349320533,108.756506002,423.159,397.382,-0.0,1.31038,1.55421,0.0,2,0,0,0
220101935,34.0349336638,108.756505664,423.19,397.404,-0.0,1.31033,1.55464,0.0,2,0,0,0
220310583,34.0349355667,108.756505628,423.228,397.434,-0.0,1.31048,1.55463,0.0,2,0,0,0
220509263,34.0349376871,108.75650601,423.269,397.466,-0.0,1.31044,1.55445,0.0,2,0,0,0
220707936,34.0349399355,108.756506579,423.311,397.499,-0.0,1.31041,1.55428,0.0,2,0,0,0
220906626,34.0349421627,108.756507172,423.364,397.545,-0.0,1.31035,1.55471,0.0,2,0,0,0
221105333,34.0349442795,108.756507816,423.429,397.602,-0.0,1.31031,1.55453,0.0,2,0,0,0
221308972,34.0349463113,108.75650846,423.484,397.648,-0.0,1.31026,1.55434,0.0,2,0,0,0
221507661,34.034948149,108.756508947,423.5,397.656,-0.0,1.31021,1.55477,0.0,2,0,0,0
221701383,34.034949831,108.75650933,423.476,397.625,-0.0,1.30996,1.55441,0.0,2,0,0,0
221910007,34.0349515243,108.756509526,423.404,397.546,-0.0,1.31003,1.55439,0.0,2,0,0,0
222113664,34.034952996,108.756509304,423.298,397.433,-0.0,1.3099,1.55481,0.0,2,0,0,0
222312352,34.0349542595,108.756508739,423.189,397.318,-0.0,1.30975,1.55462,0.0,2,0,0,0
222511042,34.0349553721,108.756508024,423.117,397.239,-0.0,1.30962,1.55443,0.0,2,0,0,0
222709732,34.0349564978,108.756507307,423.084,397.198,-0.0,1.30951,1.55485,0.0,2,0,0,0
222908423,34.0349578279,108.75650668,423.084,397.188,-0.0,1.30942,1.55466,0.0,2,0,0,0
223107110,34.0349595066,108.756506165,423.109,397.204,-0.0,1.3093,1.55447,0.0,2,0,0,0
223305995,34.034961578,108.756505798,423.151,397.237,-0.0,1.30918,1.55488,0.0,2,0,0,0
223509456,34.0349640102,108.756505532,423.22,397.295,-0.0,1.3091,1.55469,0.0,2,0,0,0
223708146,34.0349666684,108.756505445,423.304,397.371,-0.0,1.30905,1.5551,0.0,2,0,0,0
223906835,34.0349695443,108.756505469,423.396,397.453,-0.0,1.30904,1.5549,0.0,2,0,0,0
224105680,34.0349725154,108.756505469,423.471,397.52,-0.0,1.30903,1.5547,0.0,2,0,0,0
224309188,34.034975471,108.756505443,423.513,397.553,-0.0,1.30905,1.55451,0.0,2,0,0,0
224507872,34.0349780839,108.756505414,423.528,397.561,-0.0,1.3091,1.55493,0.0,2,0,0,0
224701593,34.0349803122,108.756505417,423.523,397.548,-0.0,1.30895,1.55458,0.0,2,0,0,0
224910364,34.0349823832,108.756505467,423.493,397.511,-0.0,1.30918,1.55517,0.0,2,0,0,0
225103939,34.034984251,108.756505504,423.424,397.434,-0.0,1.30904,1.55482,0.0,2,0,0,0
225312563,34.0349862821,108.756505585,423.31,397.313,-0.0,1.30925,1.5548,0.0,2,0,0,0
225511252,34.0349883402,108.756505879,423.16,397.155,-0.0,1.30929,1.55462,0.0,2,0,0,0
225710050,34.0349905368,108.756506273,422.981,396.969,-0.0,1.30933,1.55505,0.0,2,0,0,0
225908631,34.0349927515,108.756506716,422.825,396.805,-0.0,1.30936,1.55487,0.0,2,0,0,0
226107321,34.0349948254,108.756507178,422.741,396.712,-0.0,1.30938,1.55469,0.0,2,0,0,0
226306010,34.0349966867,108.756507614,422.73,396.691,-0.0,1.30941,1.55513,0.0,2,0,0,0
226504813,34.0349984811,108.756508052,422.783,396.734,-0.0,1.30945,1.55495,0.0,2,0,0,0
226708360,34.0350004,108.756508642,422.894,396.834,-0.0,1.30947,1.55476,0.0,2,0,0,0
226907046,34.0350025306,108.756509437,423.039,396.967,-0.0,1.30952,1.5552,0.0,2,0,0,0
227105735,34.0350048936,108.756510304,423.191,397.109,-0.0,1.30955,1.55502,0.0,2,0,0,0
227304447,34.0350073617,108.756511297,423.316,397.225,-0.0,1.30958,1.55484,0.0,2,0,0,0
227508082,34.0350101479,108.756512365,423.402,397.303,-0.0,1.30956,1.55466,0.0,2,0,0,0
227711785,34.0350130449,108.756513283,423.455,397.349,-0.0,1.30957,1.5551,0.0,2,0,0,0
227910427,34.0350157175,108.75651407,423.487,397.374,-0.0,1.30955,1.55493,0.0,2,0,0,0
228109178,34.0350180407,108.756514787,423.497,397.378,-0.0,1.30951,1.55477,0.0,2,0,0,0
228307862,34.0350200522,108.756515344,423.482,397.357,-0.0,1.30948,1.5546,0.0,2,0,0,0
228511463,34.0350219044,108.756515819,423.463,397.331,-0.0,1.30943,1.55504,0.0,2,0,0,0
228710152,34.035023531,108.756516211,423.471,397.331,-0.0,1.30938,1.55487,0.0,2,0,0,0
228908841,34.0350250188,108.756516448,423.507,397.359,-0.0,1.30933,1.5547,0.0,2,0,0,0
229107531,34.0350263852,108.756516379,423.559,397.403,-0.0,1.30928,1.55454,0.0,2,0,0,0
229306222,34.0350276306,108.756516077,423.619,397.454,-0.0,1.30922,1.55498,0.0,2,0,0,0
229509877,34.0350288541,108.756515686,423.649,397.476,-0.0,1.30916,1.55481,0.0,2,0,0,0
229708564,34.0350301589,108.756515345,423.644,397.465,-0.0,1.30911,1.55464,0.0,2,0,0,0
229907256,34.0350316521,108.75651517,423.605,397.419,-0.0,1.30908,1.55509,0.0,2,0,0,0
230110913,34.0350332811,108.75651508,423.527,397.334,-0.0,1.30901,1.55492,0.0,2,0,0,0
230299897,34.0350347518,108.756515067,423.434,397.237,-0.0,1.30879,1.55458,0.0,2,0,0,0
230513259,34.0350363299,108.756515089,423.304,397.103,-0.0,1.30894,1.55458,0.0,2,0,0,0
230711957,34.0350376551,108.756515071,423.162,396.955,-0.0,1.3089,1.55503,0.0,2,0,0,0
230910638,34.0350388819,108.756514996,423.03,396.818,-0.0,1.30887,1.55487,0.0,2,0,0,0
231109331,34.0350400694,108.756515073,422.938,396.719,-0.0,1.30884,1.5547,0.0,2,0,0,0
231308018,34.0350411759,108.756515264,422.901,396.675,-0.0,1.30882,1.55514,0.0,2,0,0,0
231501739,34.0350422538,108.756515427,422.918,396.684,-0.0,1.30863,1.55479,0.0,2,0,0,0
231705396,34.0350435283,108.756515675,422.992,396.75,-0.0,1.30863,1.55462,0.0,2,0,0,0
231904230,34.0350450537,108.756516,423.107,396.858,-0.0,1.30866,1.55506,0.0,2,0,0,0
232112709,34.0350470488,108.756516294,423.257,397.001,-0.0,1.30885,1.55505,0.0,2,0,0,0
232311399,34.0350490403,108.756516491,423.391,397.127,-0.0,1.30886,1.55486,0.0,2,0,0,0
232510088,34.0350509503,108.756516702,423.476,397.206,-0.0,1.30887,1.5553,0.0,2,0,0,0
232708958,34.0350528916,108.756517035,423.511,397.234,-0.0,1.30887,1.55511,0.0,2,0,0,0
232902500,34.0350547653,108.756517468,423.526,397.244,-0.0,1.30868,1.55475,0.0,2,0,0,0
233101194,34.0350565428,108.756517919,423.538,397.251,-0.0,1.30866,1.55517,0.0,2,0,0,0
233309813,34.0350581736,108.756518428,423.51,397.219,-0.0,1.30882,1.55515,0.0,2,0,0,0
233508600,34.0350595146,108.7565189,423.444,397.15,-0.0,1.30879,1.55496,0.0,2,0,0,0
233707195,34.0350607489,108.756519394,423.404,397.105,-0.0,1.30875,1.55476,0.0,2,0,0,0
233905885,34.0350619517,108.756519903,423.405,397.102,-0.0,1.30873,1.55518,0.0,2,0,0,0
234109539,34.035063354,108.756520352,423.45,397.142,-0.0,1.3087,1.55499,0.0,2,0,0,0
234308304,34.0350650059,108.756520688,423.522,397.21,-0.0,1.30868,1.5548,0.0,2,0,0,0
234506928,34.0350668694,108.756520944,423.577,397.26,-0.0,1.30868,1.55522,0.0,2,0,0,0
234705607,34.0350688748,108.756521192,423.59,397.27,-0.0,1.30867,1.55503,0.0,2,0,0,0
234904297,34.0350707949,108.756521399,423.553,397.231,-0.0,1.30865,1.55484,0.0,2,0,0,0
235103001,34.0350726355,108.756521566,423.446,397.123,-0.0,1.30863,1.55465,0.0,2,0,0,0
235306643,34.0350743868,108.756521765,423.29,396.965,-0.0,1.30859,1.55508,0.0,2,0,0,0
235510300,34.0350760031,108.756522042,423.15,396.824,-0.0,1.30854,1.55489,0.0,2,0,0,0
235704050,34.0350774184,108.756522304,423.058,396.728,-0.0,1.30835,1.55454,0.0,2,0,0,0
235902739,34.0350787081,108.756522537,423.011,396.678,-0.0,1.30834,1.55497,0.0,2,0,0,0
236111337,34.0350800382,108.756522744,423.009,396.672,-0.0,1.3085,1.55496,0.0,2,0,0,0
236310030,34.0350814148,108.756522947,423.037,396.696,-0.0,1.30852,1.55478,0.0,2,0,0,0
236508718,34.0350830075,108.756523187,423.082,396.735,-0.0,1.30853,1.5546,0.0,2,0,0,0
236707404,34.035084801,108.756523447,423.136,396.785,-0.0,1.30853,1.55443,0.0,2,0,0,0
236906096,34.0350867657,108.756523746,423.196,396.839,-0.0,1.30853,1.55486,0.0,2,0,0,0
237104785,34.0350888295,108.756524121,423.263,396.903,-0.0,1.30853,1.55468,0.0,2,0,0,0
237308441,34.0350909034,108.756524492,423.337,396.972,-0.0,1.30852,1.5545,0.0,2,0,0,0
237507130,34.0350927716,108.756524711,423.384,397.016,-0.0,1.30851,1.55492,0.0,2,0,0,0
237705822,34.0350945184,108.756524812,423.366,396.994,-0.0,1.3085,1.55474,0.0,2,0,0,0
237909478,34.0350962449,108.756524901,423.27,396.896,-0.0,1.3085,1.55516,0.0,2,0,0,0
238108166,34.0350978529,108.756525058,423.105,396.729,-0.0,1.30849,1.55497,0.0,2,0,0,0
238306903,34.0350994488,108.756525328,422.911,396.533,-0.0,1.30845,1.55539,0.0,2,0,0,0
238510513,34.0351009851,108.756525727,422.754,396.374,-0.0,1.30842,1.55517,0.0,2,0,0,0
238704235,34.0351021946,108.756526196,422.679,396.295,-0.0,1.30824,1.5548,0.0,2,0,0,0
238912859,34.0351029291,108.756526486,422.697,396.308,-0.0,1.30841,1.55476,0.0,2,0,0,0
239111550,34.0351031261,108.756526547,422.798,396.403,-0.0,1.3084,1.55517,0.0,2,0,0,0
239310238,34.0351031969,108.756526372,422.938,396.538,-0.0,1.30838,1.55495,0.0,2,0,0,0
239508931,34.0351032568,108.756525722,423.059,396.652,-0.0,1.30836,1.55536,0.0,2,0,0,0
239707773,34.035103356,108.756524581,423.139,396.726,-0.0,1.30834,1.55515,0.0,2,0,0,0
239906307,34.0351036198,108.756523164,423.188,396.77,-0.0,1.30832,1.55494,0.0,2,0,0,0
240104997,34.0351039171,108.756521567,423.215,396.792,-0.0,1.30829,1.55474,0.0,2,0,0,0
240308655,34.0351040611,108.756519964,423.228,396.802,-0.0,1.30824,1.55514,0.0,2,0,0,0
240507473,34.0351040239,108.756518586,423.242,396.813,-0.0,1.30821,1.55494,0.0,2,0,0,0
240711010,34.0351039007,108.756517439,423.24,396.809,-0.0,1.30817,1.55474,0.0,2,0,0,0
240909690,34.035103671,108.756516501,423.208,396.773,-0.0,1.30813,1.55455,0.0,2,0,0,0
241108396,34.0351033103,108.75651566,423.134,396.695,-0.0,1.30809,1.55497,0.0,2,0,0,0
241307222,34.0351029076,108.756514948,423.027,396.587,-0.0,1.30806,1.55477,0.0,2,0,0,0
241510726,34.0351025243,108.756514335,422.944,396.501,-0.0,1.30802,1.55458,0.0,2,0,0,0
241709417,34.035101987,108.756513636,422.929,396.484,-0.0,1.30799,1.55439,0.0,2,0,0,0
241908105,34.0351011664,108.756512768,422.973,396.524,-0.0,1.30797,1.55482,0.0,2,0,0,0
242106902,34.0351000566,108.7565117,423.056,396.601,-0.0,1.30793,1.55462,0.0,2,0,0,0
242305485,34.0350986677,108.756510316,423.171,396.711,-0.0,1.30791,1.55504,0.0,2,0,0,0
242509143,34.0350969355,108.756508623,423.281,396.816,-0.0,1.30788,1.55484,0.0,2,0,0,0
242702866,34.0350951246,108.756506947,423.346,396.875,-0.0,1.30768,1.55449,0.0,2,0,0,0
242901553,34.0350932149,108.75650543,423.344,396.871,-0.0,1.30768,1.5543,0.0,2,0,0,0
243110185,34.0350912489,108.756504023,423.244,396.767,-0.0,1.30786,1.55489,0.0,2,0,0,0
243308867,34.0350893612,108.756502752,423.092,396.612,-0.0,1.30784,1.5547,0.0,2,0,0,0
243512524,34.0350873514,108.756501546,422.92,396.436,-0.0,1.30782,1.55452,0.0,2,0,0,0
243711233,34.0350854865,108.756500395,422.776,396.288,-0.0,1.30779,1.55494,0.0,2,0,0,0
243909904,34.0350837245,108.756499314,422.714,396.222,-0.0,1.30779,1.55475,0.0,2,0,0,0
244108594,34.0350819789,108.756498413,422.736,396.239,-0.0,1.30777,1.55456,0.0,2,0,0,0
244302316,34.0350802661,108.756497556,422.819,396.316,-0.0,1.30759,1.55481,0.0,2,0,0,0
244510940,34.0350783736,108.756496638,422.936,396.427,-0.0,1.30776,1.55478,0.0,2,0,0,0
244709630,34.0350765545,108.756495962,423.08,396.564,-0.0,1.30776,1.55459,0.0,2,0,0,0
244908321,34.0350747918,108.756495437,423.261,396.739,-0.0,1.30775,1.555,0.0,2,0,0,0
245107009,34.0350731506,108.756494935,423.443,396.913,-0.0,1.30774,1.55481,0.0,2,0,0,0
245305700,34.0350715926,108.756494397,423.606,397.07,-0.0,1.30774,1.55462,0.0,2,0,0,0
245509356,34.0350700567,108.756493785,423.749,397.207,-0.0,1.30773,1.55443,0.0,2,0,0,0
245708046,34.0350685694,108.756493154,423.842,397.296,-0.0,1.30773,1.55485,0.0,2,0,0,0
245911703,34.0350669374,108.756492554,423.866,397.316,-0.0,1.3077,1.55466,0.0,2,0,0,0
246110393,34.0350652788,108.756491965,423.813,397.262,-0.0,1.30767,1.55447,0.0,2,0,0,0
246309093,34.0350636216,108.756491494,423.689,397.137,-0.0,1.30763,1.55487,0.0,2,0,0,0
246502805,34.0350620735,108.756491146,423.508,396.953,-0.0,1.30741,1.55511,0.0,2,0,0,0
246711430,34.0350606198,108.756490729,423.281,396.724,-0.0,1.30755,1.55507,0.0,2,0,0,0
246910119,34.035059497,108.756490374,423.074,396.516,-0.0,1.30752,1.55487,0.0,2,0,0,0
247108809,34.0350584807,108.756490168,422.874,396.314,-0.0,1.30749,1.55467,0.0,2,0,0,0
247307499,34.0350575142,108.756490009,422.687,396.124,-0.0,1.30744,1.55508,0.0,2,0,0,0
247506380,34.0350566142,108.756489811,422.505,395.94,-0.0,1.3074,1.55488,0.0,2,0,0,0
247709846,34.0350556269,108.756489652,422.356,395.788,-0.0,1.30733,1.55467,0.0,2,0,0,0
247908535,34.0350547199,108.756489485,422.275,395.704,-0.0,1.30729,1.55508,0.0,2,0,0,0
248107226,34.0350542068,108.756488948,422.256,395.683,-0.0,1.30724,1.55488,0.0,2,0,0,0
248306025,34.0350540064,108.756488003,422.291,395.714,-0.0,1.30722,1.55468,0.0,2,0,0,0
248509572,34.0350537855,108.756486882,422.374,395.793,-0.0,1.30723,1.55448,0.0,2,0,0,0
248708282,34.0350534965,108.756485867,422.5,395.915,-0.0,1.30721,1.5549,0.0,2,0,0,0
248911921,34.0350531707,108.756484921,422.677,396.087,-0.0,1.3072,1.5547,0.0,2,0,0,0
249110712,34.0350527724,108.756484124,422.871,396.277,-0.0,1.30719,1.55451,0.0,2,0,0,0
249309298,34.0350522744,108.756483347,423.029,396.431,-0.0,1.30717,1.55493,0.0,2,0,0,0
249507989,34.03505166,108.756482584,423.137,396.537,-0.0,1.30715,1.55475,0.0,2,0,0,0
249701711,34.0350508595,108.756481852,423.208,396.606,-0.0,1.30695,1.555,0.0,2,0,0,0
249910483,34.0350499055,108.756481141,423.237,396.634,-0.0,1.30709,1.55497,0.0,2,0,0,0
250109026,34.0350490011,108.756480598,423.21,396.608,-0.0,1.30705,1.55478,0.0,2,0,0,0
250307714,34.0350480835,108.756480129,423.14,396.537,-0.0,1.30702,1.55459,0.0,2,0,0,0
250506405,34.0350473697,108.756479629,423.021,396.418,-0.0,1.30698,1.55441,0.0,2,0,0,0
250705104,34.0350469791,108.756479062,422.857,396.254,-0.0,1.30695,1.55482,0.0,2,0,0,0
250903784,34.0350467672,108.756478409,422.658,396.055,-0.0,1.30691,1.55464,0.0,2,0,0,0
251107441,34.0350465442,108.756477846,422.445,395.841,-0.0,1.30687,1.55445,0.0,2,0,0,0
251301165,34.0350463796,108.756477322,422.252,395.646,-0.0,1.30666,1.55471,0.0,2,0,0,0
251509833,34.0350459922,108.756476594,422.068,395.459,-0.0,1.30681,1.5547,0.0,2,0,0,0
251708478,34.0350453304,108.756475581,421.939,395.328,-0.0,1.30679,1.55451,0.0,2,0,0,0
251912187,34.03504433,108.756474337,421.854,395.242,-0.0,1.3068,1.55493,0.0,2,0,0,0
252110825,34.0350432739,108.75647314,421.861,395.247,-0.0,1.30683,1.55475,0.0,2,0,0,0
252309516,34.0350422455,108.756472023,421.939,395.322,-0.0,1.30687,1.55457,0.0,2,0,0,0
252508206,34.0350410927,108.756471008,422.048,395.427,-0.0,1.3069,1.55437,0.0,2,0,0,0
252706896,34.0350400526,108.756469983,422.19,395.563,-0.0,1.30694,1.55476,0.0,2,0,0,0
252910551,34.0350394374,108.75646882,422.37,395.736,-0.0,1.30697,1.55453,0.0,2,0,0,0
253109241,34.0350392794,108.75646778,422.558,395.919,-0.0,1.30701,1.55428,0.0,2,0,0,0
253307931,34.0350391517,108.756466947,422.736,396.093,-0.0,1.30707,1.55463,0.0,2,0,0,0
253506621,34.0350388389,108.756466163,422.895,396.247,-0.0,1.30709,1.55435,0.0,2,0,0,0
253710294,34.0350383184,108.75646539,423.051,396.4,-0.0,1.30711,1.55467,0.0,2,0,0,0
253908968,34.0350377075,108.75646472,423.197,396.544,-0.0,1.30715,1.55438,0.0,2,0,0,0
254102690,34.0350370006,108.756464162,423.307,396.653,-0.0,1.30698,1.55395,0.0,2,0,0,0
254311353,34.0350361949,108.75646371,423.374,396.719,-0.0,1.30717,1.55381,0.0,2,0,0,0
254510210,34.0350353583,108.756463434,423.405,396.75,-0.0,1.30717,1.55412,0.0,2,0,0,0
254703727,34.0350345346,108.756463208,423.4,396.745,-0.0,1.30697,1.5537,0.0,2,0,0,0
254902461,34.0350336073,108.756462749,423.354,396.699,-0.0,1.30697,1.55344,0.0,2,0,0,0
255106074,34.0350325309,108.756461811,423.268,396.613,-0.0,1.30696,1.55317,0.0,2,0,0,0
255304899,34.0350315881,108.756460524,423.154,396.499,-0.0,1.30695,1.5535,0.0,2,0,0,0
255503476,34.0350311099,108.75645898,423.032,396.376,-0.0,1.30694,1.55325,0.0,2,0,0,0
255712078,34.0350311129,108.75645724,422.915,396.259,-0.0,1.30712,1.55316,0.0,2,0,0,0
255910770,34.0350312006,108.756455542,422.848,396.192,-0.0,1.30712,1.55294,0.0,2,0,0,0
256109583,34.0350311635,108.756453902,422.827,396.169,-0.0,1.3071,1.55329,0.0,2,0,0,0
256308149,34.0350310943,108.756452413,422.836,396.176,-0.0,1.30708,1.55309,0.0,2,0,0,0
256506838,34.0350312551,108.756451111,422.858,396.194,-0.0,1.30708,1.55289,0.0,2,0,0,0
256710496,34.0350318251,108.756449749,422.874,396.206,-0.0,1.30709,1.55327,0.0,2,0,0,0
256909339,34.0350326494,108.756448483,422.887,396.215,-0.0,1.30708,1.55309,0.0,2,0,0,0
257107875,34.0350333413,108.756447403,422.915,396.239,-0.0,1.30708,1.55349,0.0,2,0,0,0
257311532,34.0350339794,108.75644638,422.966,396.286,-0.0,1.30707,1.55332,0.0,2,0,0,0
257510222,34.0350345017,108.756445476,423.043,396.359,-0.0,1.30708,1.55316,0.0,2,0,0,0
257708977,34.0350348935,108.756444358,423.138,396.45,-0.0,1.30706,1.55302,0.0,2,0,0,0
257907602,34.0350351545,108.756442732,423.235,396.543,-0.0,1.30704,1.55345,0.0,2,0,0,0
258111259,34.0350352241,108.756440747,423.318,396.622,-0.0,1.30704,1.55331,0.0,2,0,0,0
258309949,34.0350352014,108.756438798,423.334,396.635,-0.0,1.30701,1.55318,0.0,2,0,0,0
258508662,34.035035154,108.756436994,423.273,396.572,-0.0,1.307,1.55306,0.0,2,0,0,0
258707334,34.0350349826,108.756435347,423.183,396.481,-0.0,1.30695,1.55351,0.0,2,0,0,0
258906019,34.0350349691,108.756434066,423.138,396.434,-0.0,1.30691,1.55339,0.0,2,0,0,0
259109676,34.0350354705,108.75643313,423.127,396.421,-0.0,1.30687,1.55385,0.0,2,0,0,0
259308422,34.0350363924,108.756432517,423.136,396.427,-0.0,1.30683,1.55373,0.0,2,0,0,0
259507056,34.0350372791,108.756432158,423.165,396.453,-0.0,1.30682,1.55361,0.0,2,0,0,0
259710713,34.0350380421,108.756431892,423.172,396.456,-0.0,1.30679,1.5535,0.0,2,0,0,0
259909403,34.0350387192,108.756431655,423.131,396.411,-0.0,1.30676,1.55397,0.0,2,0,0,0
260108093,34.0350392814,108.756431316,423.036,396.313,-0.0,1.30671,1.55386,0.0,2,0,0,0
260306783,34.0350397193,108.75643069,422.893,396.168,-0.0,1.30668,1.55375,0.0,2,0,0,0
260510476,34.0350401502,108.756429682,422.731,396.003,-0.0,1.30664,1.55421,0.0,2,0,0,0
260709131,34.0350405068,108.756428514,422.603,395.871,-0.0,1.30661,1.55409,0.0,2,0,0,0
260907821,34.0350407352,108.756427355,422.51,395.774,-0.0,1.30658,1.55396,0.0,2,0,0,0
261106510,34.0350409018,108.756426457,422.467,395.726,-0.0,1.30655,1.55442,0.0,2,0,0,0
261305200,34.0350412564,108.756425881,422.477,395.731,-0.0,1.30654,1.55429,0.0,2,0,0,0
261504094,34.0350418084,108.7564255,422.53,395.777,-0.0,1.30652,1.55415,0.0,2,0,0,0
261707548,34.0350423377,108.756425091,422.62,395.86,-0.0,1.30652,1.55461,0.0,2,0,0,0
261906238,34.0350427587,108.756424363,422.718,395.951,-0.0,1.30654,1.55447,0.0,2,0,0,0
262109896,34.0350430886,108.7564232,422.779,396.006,-0.0,1.30655,1.55492,0.0,2,0,0,0
262308764,34.0350433659,108.756421876,422.797,396.018,-0.0,1.30657,1.55476,0.0,2,0,0,0
262507275,34.035043613,108.756420372,422.786,396.002,-0.0,1.30656,1.5546,0.0,2,0,0,0
262710932,34.0350438412,108.756418717,422.753,395.965,-0.0,1.30656,1.55504,0.0,2,0,0,0
262909630,34.0350439907,108.756417197,422.727,395.935,-0.0,1.30656,1.55487,0.0,2,0,0,0
263108467,34.0350439966,108.756415828,422.717,395.92,-0.0,1.30654,1.55469,0.0,2,0,0,0
263311969,34.0350438431,108.756414577,422.736,395.933,-0.0,1.30652,1.55513,0.0,2,0,0,0
263510662,34.0350434941,108.756413623,422.786,395.976,-0.0,1.3065,1.55495,0.0,2,0,0,0
263709349,34.0350430623,108.756412886,422.848,396.031,-0.0,1.30649,1.55478,0.0,2,0,0,0
263908152,34.0350426758,108.756412177,422.914,396.089,-0.0,1.3065,1.55521,0.0,2,0,0,0
264106750,34.035042399,108.756411303,422.977,396.142,-0.0,1.30648,1.55503,0.0,2,0,0,0
264305419,34.0350422692,108.756410102,423.015,396.169,-0.0,1.30647,1.55485,0.0,2,0,0,0
264504109,34.0350422807,108.756408503,423.027,396.172,-0.0,1.30646,1.55528,0.0,2,0,0,0
264702913,34.0350424163,108.756406608,423.027,396.162,-0.0,1.30645,1.55509,0.0,2,0,0,0
264906457,34.0350427363,108.756404503,423.023,396.148,-0.0,1.30644,1.55489,0.0,2,0,0,0
265110115,34.0350432283,108.756402297,423.016,396.132,-0.0,1.30645,1.55471,0.0,2,0,0,0
265303836,34.0350437871,108.756400224,423.015,396.121,-0.0,1.30628,1.55497,0.0,2,0,0,0
265512527,34.0350444169,108.75639818,423.018,396.113,-0.0,1.30646,1.55495,0.0,2,0,0,0
265711151,34.0350451532,108.756396529,423.026,396.11,-0.0,1.30649,1.55478,0.0,2,0,0,0
265909841,34.0350461607,108.756395039,423.04,396.113,-0.0,1.30652,1.5546,0.0,2,0,0,0
266108531,34.0350474441,108.756393621,423.042,396.101,-0.0,1.30652,1.55503,0.0,2,0,0,0
266307235,34.035048892,108.756392206,423.022,396.069,-0.0,1.30654,1.55484,0.0,2,0,0,0
266510878,34.0350504397,108.756390637,423.0,396.034,-0.0,1.30657,1.55466,0.0,2,0,0,0
266709568,34.03505199,108.756389005,422.983,396.005,-0.0,1.30661,1.5551,0.0,2,0,0,0
266908259,34.0350537448,108.756387355,422.964,395.972,-0.0,1.30665,1.55491,0.0,2,0,0,0
267106950,34.0350557504,108.75638574,422.936,395.93,-0.0,1.30667,1.55472,0.0,2,0,0,0
267305639,34.0350579106,108.756384054,422.908,395.888,-0.0,1.30669,1.55515,0.0,2,0,0,0
267504330,34.0350602286,108.75638229,422.883,395.85,-0.0,1.30672,1.55496,0.0,2,0,0,0
267703019,34.0350626965,108.756380587,422.866,395.82,-0.0,1.30676,1.55477,0.0,2,0,0,0
267901710,34.0350652707,108.756379135,422.872,395.81,-0.0,1.30678,1.55519,0.0,2,0,0,0
268105366,34.0350678391,108.75637791,422.907,395.83,-0.0,1.30682,1.555,0.0,2,0,0,0
268309025,34.0350702463,108.756376804,422.965,395.871,-0.0,1.30688,1.55481,0.0,2,0,0,0
268512680,34.0350725128,108.756375862,423.033,395.923,-0.0,1.30695,1.55463,0.0,2,0,0,0
268711370,34.0350745267,108.756375012,423.113,395.985,-0.0,1.30702,1.55506,0.0,2,0,0,0
268910060,34.0350764757,108.756374223,423.197,396.052,-0.0,1.30709,1.55488,0.0,2,0,0,0
269108751,34.0350784695,108.75637345,423.263,396.101,-0.0,1.30717,1.55469,0.0,2,0,0,0
269297696,34.0350803877,108.75637272,423.298,396.12,-0.0,1.30704,1.55495,0.0,2,0,0,0
269501164,34.0350824602,108.756372075,423.289,396.096,-0.0,1.30707,1.55476,0.0,2,0,0,0
269709789,34.0350845622,108.756371661,423.233,396.026,-0.0,1.30728,1.55474,0.0,2,0,0,0
269908478,34.0350864542,108.756371439,423.152,395.932,-0.0,1.30733,1.55456,0.0,2,0,0,0
270107332,34.03508819,108.756371361,423.066,395.832,-0.0,1.30736,1.55499,0.0,2,0,0,0
270305858,34.0350898451,108.756371394,422.987,395.74,-0.0,1.30738,1.5548,0.0,2,0,0,0
270509515,34.0350914931,108.756371548,422.918,395.656,-0.0,1.30743,1.55462,0.0,2,0,0,0
270708206,34.0350930011,108.756371767,422.868,395.592,-0.0,1.30747,1.55444,0.0,2,0,0,0
270907084,34.0350944558,108.756372075,422.843,395.552,-0.0,1.3075,1.55487,0.0,2,0,0,0
271110553,34.0350960679,108.756372553,422.834,395.529,-0.0,1.30754,1.55469,0.0,2,0,0,0
271309263,34.0350978043,108.756373083,422.845,395.526,-0.0,1.30758,1.55451,0.0,2,0,0,0
271507952,34.0350996904,108.756373708,422.88,395.546,-0.0,1.30762,1.55494,0.0,2,0,0,0
271706724,34.0351016291,108.756374431,422.935,395.588,-0.0,1.30767,1.55477,0.0,2,0,0,0
271910280,34.0351034759,108.756375271,423.009,395.648,-0.0,1.30772,1.55459,0.0,2,0,0,0
272104004,34.0351050953,108.75637615,423.049,395.675,-0.0,1.30755,1.55486,0.0,2,0,0,0
272302692,34.03510668,108.75637709,423.015,395.63,-0.0,1.30759,1.55468,0.0,2,0,0,0
272511407,34.0351082373,108.756378376,422.912,395.516,-0.0,1.30779,1.55467,0.0,2,0,0,0
272710015,34.0351095821,108.756379902,422.773,395.366,-0.0,1.30778,1.55448,0.0,2,0,0,0
272908697,34.0351107609,108.756381641,422.598,395.181,-0.0,1.30775,1.55491,0.0,2,0,0,0
273107387,34.0351116403,108.756383253,422.408,394.983,-0.0,1.30774,1.55473,0.0,2,0,0,0
273306106,34.0351122995,108.756384761,422.271,394.835,-0.0,1.30774,1.55455,0.0,2,0,0,0
273509734,34.0351127179,108.756385707,422.384,394.937,-0.0,1.30774,1.55497,0.0,2,0,0,0
273703457,34.0351132018,108.756386451,422.552,395.091,-0.0,1.30761,1.55461,0.0,2,0,0,0
273912082,34.0351137035,108.756387153,422.792,395.316,-0.0,1.30781,1.55457,0.0,2,0,0,0
274110857,34.0351140091,108.756387748,423.025,395.537,-0.0,1.30785,1.55495,0.0,2,0,0,0
274304496,34.0351142535,108.756388217,423.249,395.75,-0.0,1.3077,1.55454,0.0,2,0,0,0
274503191,34.0351144996,108.756388565,423.447,395.939,-0.0,1.30772,1.55489,0.0,2,0,0,0
274701875,34.0351146695,108.756388746,423.566,396.05,-0.0,1.30773,1.5546,0.0,2,0,0,0
274910503,34.0351148483,108.756388913,423.588,396.065,-0.0,1.3079,1.55506,0.0,2,0,0,0
275109194,34.0351150463,108.756389177,423.528,396.0,-0.0,1.30787,1.55474,0.0,2,0,0,0
275307879,34.0351152436,108.756389551,423.397,395.864,-0.0,1.30784,1.55443,0.0,2,0,0,0
275506607,34.0351154381,108.756390007,423.216,395.68,-0.0,1.30781,1.55412,0.0,2,0,0,0
275705261,34.0351155818,108.756390525,423.043,395.504,-0.0,1.30777,1.5544,0.0,2,0,0,0
275908918,34.0351156723,108.756391166,422.917,395.374,-0.0,1.30775,1.55409,0.0,2,0,0,0
276102639,34.0351156025,108.756391853,422.863,395.314,-0.0,1.30758,1.55365,0.0,2,0,0,0
276311263,34.0351152893,108.756392474,422.868,395.313,-0.0,1.30777,1.55349,0.0,2,0,0,0
276509953,34.0351148201,108.756392836,422.919,395.36,-0.0,1.30779,1.55379,0.0,2,0,0,0
276708645,34.035114259,108.75639301,423.001,395.438,-0.0,1.30782,1.55351,0.0,2,0,0,0
276907336,34.0351137259,108.75639287,423.105,395.537,-0.0,1.30783,1.55324,0.0,2,0,0,0
277106228,34.0351132533,108.756392385,423.237,395.667,-0.0,1.30783,1.55356,0.0,2,0,0,0
277309704,34.0351128522,108.756391628,423.373,395.801,-0.0,1.30784,1.55331,0.0,2,0,0,0
277508372,34.0351124604,108.75639058,423.469,395.896,-0.0,1.30787,1.55308,0.0,2,0,0,0
277702094,34.0351119916,108.756389225,423.514,395.94,-0.0,1.30772,1.55328,0.0,2,0,0,0
277900919,34.0351115894,108.756387687,423.508,395.934,-0.0,1.30777,1.55307,0.0,2,0,0,0
278109410,34.0351112009,108.756386058,423.485,395.912,-0.0,1.30793,1.553,0.0,2,0,0,0
278313066,34.0351107666,108.75638463,423.477,395.905,-0.0,1.30792,1.55281,0.0,2,0,0,0
278511756,34.0351104527,108.75638348,423.467,395.897,-0.0,1.30794,1.5532,0.0,2,0,0,0
278710587,34.0351106082,108.756382645,423.431,395.862,-0.0,1.30794,1.55303,0.0,2,0,0,0
278909137,34.0351113313,108.756382154,423.356,395.787,-0.0,1.30793,1.55287,0.0,2,0,0,0
279102858,34.0351122559,108.756381866,423.251,395.682,-0.0,1.30774,1.55313,0.0,2,0,0,0
279301548,34.0351132096,108.756381675,423.141,395.571,-0.0,1.30772,1.55299,0.0,2,0,0,0
279510330,34.0351141125,108.756381721,423.07,395.498,-0.0,1.30789,1.55299,0.0,2,0,0,0
279708863,34.0351148957,108.756381897,423.07,395.495,-0.0,1.30788,1.55342,0.0,2,0,0,0
279907553,34.0351155809,108.756382086,423.112,395.534,-0.0,1.30788,1.55329,0.0,2,0,0,0
280106244,34.0351161859,108.756382117,423.158,395.575,-0.0,1.30786,1.55315,0.0,2,0,0,0
280304997,34.0351167898,108.756381761,423.182,395.596,-0.0,1.30784,1.5536,0.0,2,0,0,0
280508590,34.0351174194,108.75638093,423.184,395.594,-0.0,1.30782,1.55347,0.0,2,0,0,0
280707284,34.0351179503,108.75637981,423.166,395.574,-0.0,1.30783,1.55336,0.0,2,0,0,0
280906011,34.0351184574,108.756378614,423.109,395.516,-0.0,1.30782,1.55324,0.0,2,0,0,0
281104676,34.0351189496,108.756377533,423.008,395.415,-0.0,1.30781,1.55371,0.0,2,0,0,0
281308321,34.0351194107,108.756376577,422.853,395.261,-0.0,1.30778,1.5536,0.0,2,0,0,0
281507008,34.0351197755,108.756375769,422.708,395.116,-0.0,1.30777,1.55349,0.0,2,0,0,0
281710665,34.0351200375,108.756374727,422.617,395.026,-0.0,1.30775,1.55396,0.0,2,0,0,0
281909379,34.0351202191,108.756373322,422.585,394.992,-0.0,1.30773,1.55385,0.0,2,0,0,0
282108045,34.0351203698,108.756371656,422.601,395.006,-0.0,1.3077,1.55374,0.0,2,0,0,0
282311703,34.0351205792,108.756369696,422.661,395.064,-0.0,1.30769,1.55364,0.0,2,0,0,0
282510396,34.0351207325,108.756367643,422.76,395.161,-0.0,1.30769,1.55412,0.0,2,0,0,0
282709098,34.035120726,108.75636554,422.849,395.249,-0.0,1.30769,1.55401,0.0,2,0,0,0
282907773,34.0351205139,108.756363362,422.889,395.289,-0.0,1.30767,1.5539,0.0,2,0,0,0
283106469,34.0351201156,108.75636119,422.873,395.274,-0.0,1.30767,1.55437,0.0,2,0,0,0
283305153,34.0351196838,108.756359125,422.811,395.214,-0.0,1.30767,1.55424,0.0,2,0,0,0
283503851,34.035119168,108.756357283,422.731,395.136,-0.0,1.30765,1.55411,0.0,2,0,0,0
283707500,34.0351184321,108.756355871,422.673,395.08,-0.0,1.30763,1.55458,0.0,2,0,0,0
283911158,34.0351175051,108.756355051,422.646,395.055,-0.0,1.30762,1.55445,0.0,2,0,0,0
284109848,34.0351165213,108.756354549,422.634,395.045,-0.0,1.30759,1.55432,0.0,2,0,0,0
284308539,34.035115488,108.756354262,422.644,395.058,-0.0,1.30757,1.55419,0.0,2,0,0,0
284502261,34.0351143842,108.756354075,422.678,395.094,-0.0,1.30737,1.55448,0.0,2,0,0,0
284710885,34.0351131034,108.756353802,422.73,395.147,-0.0,1.30754,1.55451,0.0,2,0,0,0
284909575,34.0351118548,108.756353567,422.793,395.213,-0.0,1.30754,1.55438,0.0,2,0,0,0
285108265,34.0351105772,108.756353312,422.852,395.275,-0.0,1.30755,1.55424,0.0,2,0,0,0
285306956,34.0351091955,108.756353012,422.896,395.323,-0.0,1.30754,1.5547,0.0,2,0,0,0
285505646,34.0351075856,108.756352714,422.915,395.346,-0.0,1.30754,1.55455,0.0,2,0,0,0
285704520,34.0351055597,108.756352319,422.921,395.356,-0.0,1.30753,1.5544,0.0,2,0,0,0
285908001,34.0351031224,108.756351769,422.919,395.359,-0.0,1.30753,1.55425,0.0,2,0,0,0
286101715,34.0351007609,108.756351337,422.908,395.352,-0.0,1.30735,1.55454,0.0,2,0,0,0
286310370,34.0350983983,108.75635114,422.859,395.308,-0.0,1.30755,1.55456,0.0,2,0,0,0
286509172,34.0350962401,108.756351172,422.76,395.215,-0.0,1.30757,1.55441,0.0,2,0,0,0
286707722,34.0350941584,108.756351336,422.652,395.113,-0.0,1.30756,1.55486,0.0,2,0,0,0
286911378,34.0350921454,108.756351657,422.585,395.051,-0.0,1.30758,1.5547,0.0,2,0,0,0
287110072,34.0350902792,108.756352071,422.577,395.049,-0.0,1.3076,1.55453,0.0,2,0,0,0
287308864,34.0350883773,108.756352462,422.616,395.093,-0.0,1.30763,1.55497,0.0,2,0,0,0
287507536,34.0350863294,108.756352805,422.678,395.159,-0.0,1.30766,1.55479,0.0,2,0,0,0
287701171,34.03508415,108.756353151,422.717,395.201,-0.0,1.30751,1.55506,0.0,2,0,0,0
287909835,34.0350814396,108.756353552,422.725,395.213,-0.0,1.30773,1.55505,0.0,2,0,0,0
288108552,34.0350786566,108.756354007,422.687,395.178,-0.0,1.30774,1.55487,0.0,2,0,0,0
288307176,34.0350758986,108.756354422,422.596,395.092,-0.0,1.30774,1.55469,0.0,2,0,0,0
288510833,34.0350731175,108.756354687,422.478,394.981,-0.0,1.30774,1.55513,0.0,2,0,0,0
288709527,34.0350704657,108.756354751,422.378,394.886,-0.0,1.30776,1.55495,0.0,2,0,0,0
288908251,34.0350678899,108.756354685,422.32,394.832,-0.0,1.30777,1.55477,0.0,2,0,0,0
289101936,34.0350654117,108.756354654,422.322,394.838,-0.0,1.30759,1.55503,0.0,2,0,0,0
289310561,34.035062802,108.756354478,422.383,394.903,-0.0,1.30779,1.55501,0.0,2,0,0,0
289504284,34.0350604244,108.756353876,422.465,394.988,-0.0,1.30762,1.55465,0.0,2,0,0,0
289702974,34.0350579719,108.756352879,422.54,395.065,-0.0,1.30763,1.55507,0.0,2,0,0,0
289911600,34.035055417,108.756351976,422.605,395.133,-0.0,1.30783,1.55505,0.0,2,0,0,0
290110287,34.035053003,108.756351276,422.639,395.17,-0.0,1.30781,1.55486,0.0,2,0,0,0
290308978,34.0350505721,108.756350678,422.627,395.161,-0.0,1.30784,1.55467,0.0,2,0,0,0
290507669,34.0350481295,108.756350122,422.583,395.121,-0.0,1.30785,1.55509,0.0,2,0,0,0
290706359,34.0350457492,108.756349658,422.559,395.102,-0.0,1.30785,1.55489,0.0,2,0,0,0
290905049,34.0350434744,108.756349274,422.571,395.116,-0.0,1.30785,1.5553,0.0,2,0,0,0
291108707,34.0350412818,108.756348923,422.62,395.165,-0.0,1.30783,1.5551,0.0,2,0,0,0
291307397,34.0350392217,108.756348655,422.697,395.242,-0.0,1.30783,1.5549,0.0,2,0,0,0
291506086,34.0350371359,108.756348428,422.783,395.329,-0.0,1.30785,1.55471,0.0,2,0,0,0
291709744,34.0350349081,108.756348223,422.836,395.383,-0.0,1.30785,1.55513,0.0,2,0,0,0
291898725,34.0350327213,108.756348123,422.83,395.376,-0.0,1.30769,1.55477,0.0,2,0,0,0
292112087,34.035030251,108.756348063,422.756,395.302,-0.0,1.30786,1.55475,0.0,2,0,0,0
292310782,34.0350280308,108.756347985,422.628,395.175,-0.0,1.30786,1.55457,0.0,2,0,0,0
292509472,34.0350258821,108.756347944,422.461,395.007,-0.0,1.30787,1.555,0.0,2,0,0,0
292708362,34.0350238826,108.756347929,422.288,394.834,-0.0,1.30788,1.55481,0.0,2,0,0,0
292901885,34.0350219474,108.756347987,422.134,394.679,-0.0,1.30768,1.55506,0.0,2,0,0,0
293110510,34.0350195964,108.756348134,422.0,394.544,-0.0,1.30787,1.55503,0.0,2,0,0,0
293309200,34.0350169881,108.756348361,421.918,394.459,-0.0,1.30789,1.55484,0.0,2,0,0,0
293508098,34.0350143357,108.756348583,421.877,394.414,-0.0,1.30793,1.55464,0.0,2,0,0,0
293711547,34.0350116458,108.756348744,421.895,394.426,-0.0,1.30795,1.55505,0.0,2,0,0,0
293910238,34.0350089451,108.756348927,421.967,394.493,-0.0,1.30799,1.55486,0.0,2,0,0,0
294108931,34.0350061641,108.7563492,422.069,394.589,-0.0,1.30804,1.55467,0.0,2,0,0,0
294307746,34.0350034193,108.75634953,422.169,394.684,-0.0,1.30809,1.55509,0.0,2,0,0,0
294501340,34.0350010009,108.756349856,422.25,394.759,-0.0,1.30793,1.55474,0.0,2,0,0,0
294709965,34.0349986556,108.756350259,422.326,394.831,-0.0,1.30815,1.55472,0.0,2,0,0,0
294908655,34.0349964664,108.756350527,422.381,394.881,-0.0,1.30819,1.55454,0.0,2,0,0,0
295107433,34.0349943511,108.756350591,422.424,394.92,-0.0,1.30821,1.55496,0.0,2,0,0,0
295311003,34.0349922707,108.75635058,422.479,394.97,-0.0,1.30823,1.55477,0.0,2,0,0,0
295509693,34.0349902487,108.756350505,422.526,395.011,-0.0,1.30824,1.55459,0.0,2,0,0,0
295708385,34.03498826,108.7563504,422.558,395.037,-0.0,1.30828,1.55441,0.0,2,0,0,0
295907127,34.0349863241,108.75635035,422.586,395.058,-0.0,1.30829,1.55484,0.0,2,0,0,0
296105763,34.0349844054,108.756350378,422.611,395.076,-0.0,1.30826,1.55466,0.0,2,0,0,0
296309421,34.0349823837,108.756350486,422.639,395.096,-0.0,1.30828,1.55448,0.0,2,0,0,0
296508111,34.0349803595,108.756350674,422.656,395.106,-0.0,1.3083,1.5543,0.0,2,0,0,0
296706824,34.0349783231,108.756350978,422.672,395.114,-0.0,1.30832,1.55473,0.0,2,0,0,0
296905493,34.0349763405,108.756351157,422.691,395.125,-0.0,1.30835,1.55455,0.0,2,0,0,0
297109154,34.0349743423,108.756351002,422.713,395.14,-0.0,1.30836,1.55438,0.0,2,0,0,0
297302873,34.0349724651,108.756350666,422.732,395.154,-0.0,1.30822,1.55465,0.0,2,0,0,0
297501580,34.03497055,108.756350442,422.742,395.157,-0.0,1.30824,1.55447,0.0,2,0,0,0
297710192,34.0349685482,108.756350287,422.736,395.145,-0.0,1.30842,1.55447,0.0,2,0,0,0
297908876,34.0349666658,108.75635017,422.745,395.149,-0.0,1.30842,1.5543,0.0,2,0,0,0
298112534,34.0349647798,108.756350157,422.774,395.172,-0.0,1.30843,1.55473,0.0,2,0,0,0
298311224,34.0349630432,108.756350105,422.812,395.204,-0.0,1.30842,1.55456,0.0,2,0,0,0
298509914,34.034961462,108.756349704,422.862,395.247,-0.0,1.30843,1.55439,0.0,2,0,0,0
298708605,34.0349599509,108.756348862,422.925,395.302,-0.0,1.30844,1.55482,0.0,2,0,0,0
298907294,34.0349584264,108.756347883,422.939,395.31,-0.0,1.30843,1.55464,0.0,2,0,0,0
299105985,34.034956923,108.756346978,422.885,395.251,-0.0,1.30841,1.55446,0.0,2,0,0,0
299304675,34.0349553516,108.756346177,422.794,395.155,-0.0,1.30839,1.55489,0.0,2,0,0,0
299508332,34.0349536836,108.75634545,422.71,395.067,-0.0,1.30836,1.55471,0.0,2,0,0,0
299711989,34.0349520438,108.756344792,422.639,394.992,-0.0,1.30832,1.55453,0.0,2,0,0,0
299910690,34.0349504602,108.756344173,422.578,394.925,-0.0,1.3083,1.55495,0.0,2,0,0,0
300109370,34.0349488688,108.756343615,422.529,394.869,-0.0,1.30828,1.55477,0.0,2,0,0,0
300308060,34.0349472221,108.75634307,422.493,394.828,-0.0,1.30825,1.55458,0.0,2,0,0,0
300506932,34.0349455347,108.756342582,422.469,394.799,-0.0,1.30823,1.55499,0.0,2,0,0,0
300710408,34.0349438171,108.75634208,422.442,394.767,-0.0,1.30822,1.5548,0.0,2,0,0,0
300909099,34.0349420873,108.756341577,422.381,394.701,-0.0,1.30822,1.55462,0.0,2,0,0,0
301107809,34.0349403999,108.756341238,422.287,394.603,-0.0,1.30821,1.55504,0.0,2,0,0,0
301306668,34.0349388357,108.756341169,422.178,394.491,-0.0,1.30817,1.55485,0.0,2,0,0,0
301510136,34.0349373383,108.756341285,422.077,394.385,-0.0,1.30814,1.55467,0.0,2,0,0,0
301708826,34.0349359608,108.75634129,422.01,394.314,-0.0,1.30811,1.55449,0.0,2,0,0,0
301907516,34.0349345846,108.756341317,421.985,394.283,-0.0,1.3081,1.55491,0.0,2,0,0,0
302106317,34.034933155,108.756341468,421.996,394.286,-0.0,1.30804,1.55473,0.0,2,0,0,0
302304935,34.0349317649,108.756341746,422.033,394.318,-0.0,1.30803,1.55455,0.0,2,0,0,0
302508554,34.0349303395,108.756342078,422.098,394.377,-0.0,1.30802,1.55437,0.0,2,0,0,0
302707245,34.0349288915,108.756342309,422.183,394.456,-0.0,1.30803,1.55479,0.0,2,0,0,0
302906068,34.0349274216,108.756342469,422.26,394.528,-0.0,1.30804,1.55462,0.0,2,0,0,0
303109592,34.0349259046,108.756342528,422.325,394.588,-0.0,1.30803,1.55444,0.0,2,0,0,0
303308286,34.0349243907,108.756342539,422.367,394.624,-0.0,1.30803,1.55427,0.0,2,0,0,0
303511939,34.0349228543,108.756342566,422.379,394.63,-0.0,1.30804,1.5547,0.0,2,0,0,0
303710693,34.0349212878,108.756342586,422.375,394.621,-0.0,1.30804,1.55452,0.0,2,0,0,0
303909321,34.0349196431,108.756342598,422.359,394.599,-0.0,1.30804,1.55434,0.0,2,0,0,0
304108009,34.0349179138,108.756342606,422.334,394.569,-0.0,1.30804,1.55476,0.0,2,0,0,0
304306720,34.0349160826,108.756342602,422.3,394.53,-0.0,1.30805,1.55459,0.0,2,0,0,0
304505398,34.0349142365,108.756342643,422.26,394.485,-0.0,1.30806,1.5544,0.0,2,0,0,0
304704080,34.034912453,108.756342657,422.233,394.453,-0.0,1.30807,1.55483,0.0,2,0,0,0
304907738,34.0349107944,108.756342635,422.222,394.437,-0.0,1.30806,1.55465,0.0,2,0,0,0
305111442,34.034909268,108.756342636,422.222,394.431,-0.0,1.30806,1.55448,0.0,2,0,0,0
305310090,34.0349078353,108.756342585,422.239,394.442,-0.0,1.30806,1.5543,0.0,2,0,0,0
305508776,34.0349062975,108.756342477,422.268,394.465,-0.0,1.30809,1.55473,0.0,2,0,0,0
305707466,34.0349045921,108.756342357,422.306,394.498,-0.0,1.3081,1.55455,0.0,2,0,0,0
305901194,34.0349027021,108.756342311,422.355,394.541,-0.0,1.30794,1.55481,0.0,2,0,0,0
306109815,34.0349004694,108.756342353,422.405,394.587,-0.0,1.30812,1.55479,0.0,2,0,0,0
306308504,34.0348982945,108.756342396,422.46,394.638,-0.0,1.30814,1.55462,0.0,2,0,0,0
306512161,34.0348960956,108.756342432,422.496,394.67,-0.0,1.30816,1.55444,0.0,2,0,0,0
306710852,34.0348939434,108.756342448,422.495,394.665,-0.0,1.30818,1.55487,0.0,2,0,0,0
306909543,34.0348918618,108.756342233,422.478,394.645,-0.0,1.3082,1.55469,0.0,2,0,0,0
307103265,34.0348899606,108.756341569,422.459,394.623,-0.0,1.30806,1.55435,0.0,2,0,0,0
307301954,34.0348881374,108.756340408,422.436,394.598,-0.0,1.3081,1.55418,0.0,2,0,0,0
307510579,34.0348863311,108.756338984,422.4,394.558,-0.0,1.30831,1.55478,0.0,2,0,0,0
307709270,34.0348846772,108.756337601,422.365,394.521,-0.0,1.30835,1.55459,0.0,2,0,0,0
307902995,34.0348832885,108.756336467,422.34,394.495,-0.0,1.30821,1.55485,0.0,2,0,0,0
308111617,34.0348821179,108.756335514,422.318,394.471,-0.0,1.30843,1.55482,0.0,2,0,0,0
308310501,34.0348811572,108.756334846,422.307,394.459,-0.0,1.3085,1.55464,0.0,2,0,0,0
308508997,34.0348801743,108.756334268,422.313,394.464,-0.0,1.30854,1.55445,0.0,2,0,0,0
308702721,34.0348792218,108.756333659,422.333,394.483,-0.0,1.30841,1.55471,0.0,2,0,0,0
308911345,34.0348781575,108.756332993,422.377,394.526,-0.0,1.30864,1.55469,0.0,2,0,0,0
309110196,34.0348771095,108.756332376,422.445,394.591,-0.0,1.30868,1.5545,0.0,2,0,0,0
309308725,34.0348760326,108.756331787,422.523,394.669,-0.0,1.30871,1.55493,0.0,2,0,0,0
309507416,34.0348749958,108.756331444,422.61,394.755,-0.0,1.30874,1.55473,0.0,2,0,0,0
309706149,34.0348740592,108.756331325,422.705,394.85,-0.0,1.30875,1.55513,0.0,2,0,0,0
309904895,34.0348730772,108.756331291,422.813,394.959,-0.0,1.30876,1.55493,0.0,2,0,0,0
310103486,34.0348719163,108.756331263,422.929,395.077,-0.0,1.30877,1.55473,0.0,2,0,0,0
310307143,34.0348707121,108.756331151,423.039,395.188,-0.0,1.30878,1.55513,0.0,2,0,0,0
310510802,34.0348696969,108.756331155,423.109,395.26,-0.0,1.30881,1.55492,0.0,2,0,0,0
310709585,34.0348687106,108.756331446,423.115,395.268,-0.0,1.30883,1.55472,0.0,2,0,0,0
310908186,34.0348674882,108.756331988,423.071,395.228,-0.0,1.30885,1.55512,0.0,2,0,0,0
311101904,34.0348662013,108.756332649,422.982,395.143,-0.0,1.30867,1.55475,0.0,2,0,0,0
311310529,34.0348647629,108.75633345,422.854,395.021,-0.0,1.30885,1.55472,0.0,2,0,0,0
311509285,34.0348634633,108.75633432,422.738,394.911,-0.0,1.30886,1.55512,0.0,2,0,0,0
311712878,34.0348622123,108.756335273,422.643,394.822,-0.0,1.30886,1.55492,0.0,2,0,0,0
311911567,34.0348609705,108.756336181,422.566,394.75,-0.0,1.3089,1.55472,0.0,2,0,0,0
312110257,34.0348597586,108.756337037,422.497,394.687,-0.0,1.30894,1.55513,0.0,2,0,0,0
312308970,34.0348585979,108.756337853,422.436,394.631,-0.0,1.30897,1.55493,0.0,2,0,0,0
312507650,34.0348577235,108.75633848,422.377,394.58,-0.0,1.30902,1.55473,0.0,2,0,0,0
312706329,34.0348572204,108.756339007,422.328,394.539,-0.0,1.30905,1.55514,0.0,2,0,0,0
312909997,34.0348568833,108.756339607,422.301,394.521,-0.0,1.30908,1.55494,0.0,2,0,0,0
313108712,34.0348565484,108.756340234,422.309,394.537,-0.0,1.30912,1.55473,0.0,2,0,0,0
313307423,34.034856231,108.75634084,422.361,394.596,-0.0,1.30916,1.55454,0.0,2,0,0,0
313506057,34.0348558918,108.756341445,422.44,394.682,-0.0,1.30921,1.55495,0.0,2,0,0,0
313709736,34.0348555187,108.756342073,422.538,394.789,-0.0,1.30925,1.55476,0.0,2,0,0,0
313908413,34.0348551515,108.756342713,422.649,394.911,-0.0,1.30927,1.55517,0.0,2,0,0,0
314107095,34.0348548144,108.75634339,422.759,395.031,-0.0,1.30928,1.55497,0.0,2,0,0,0
314310753,34.034854366,108.756344101,422.811,395.094,-0.0,1.30931,1.55476,0.0,2,0,0,0
314509442,34.0348539189,108.756344861,422.792,395.086,-0.0,1.30935,1.55517,0.0,2,0,0,0
314708140,34.0348535387,108.756345925,422.735,395.041,-0.0,1.30936,1.55497,0.0,2,0,0,0
314906822,34.034853179,108.756347171,422.687,395.006,-0.0,1.30937,1.55476,0.0,2,0,0,0
315110480,34.0348528221,108.756348504,422.67,394.999,-0.0,1.30937,1.55516,0.0,2,0,0,0
315309170,34.0348524463,108.756349769,422.684,395.026,-0.0,1.30938,1.55496,0.0,2,0,0,0
315507865,34.0348520109,108.756350949,422.727,395.081,-0.0,1.30938,1.55475,0.0,2,0,0,0
315706551,34.0348515682,108.756352078,422.776,395.142,-0.0,1.30938,1.55517,0.0,2,0,0,0
315910246,34.0348512272,108.756352949,422.819,395.197,-0.0,1.30938,1.55497,0.0,2,0,0,0
316109087,34.0348511488,108.756353278,422.846,395.241,-0.0,1.30937,1.55476,0.0,2,0,0,0
316312556,34.0348513926,108.756352973,422.854,395.266,-0.0,1.30935,1.55456,0.0,2,0,0,0
316511295,34.0348518443,108.756352096,422.854,395.284,-0.0,1.30933,1.55497,0.0,2,0,0,0
316709938,34.0348523765,108.756351066,422.853,395.302,-0.0,1.30931,1.55478,0.0,2,0,0,0
316908771,34.0348529656,108.756350165,422.862,395.331,-0.0,1.30928,1.55458,0.0,2,0,0,0
317102349,34.0348536431,108.756349271,422.88,395.368,-0.0,1.30908,1.55483,0.0,2,0,0,0
317310974,34.0348544063,108.756348419,422.899,395.405,-0.0,1.30925,1.55481,0.0,2,0,0,0
317509665,34.0348551593,108.756347831,422.924,395.45,-0.0,1.30924,1.55462,0.0,2,0,0,0
317708459,34.0348560733,108.756347511,422.958,395.503,-0.0,1.30924,1.55444,0.0,2,0,0,0
317907045,34.0348572741,108.756347538,422.991,395.554,-0.0,1.30924,1.55486,0.0,2,0,0,0
318110702,34.0348586806,108.75634781,423.031,395.615,-0.0,1.30924,1.55467,0.0,2,0,0,0
318309392,34.0348599869,108.756348061,423.057,395.661,-0.0,1.30923,1.55448,0.0,2,0,0,0
318508193,34.0348612165,108.756348257,423.032,395.655,-0.0,1.30924,1.5549,0.0,2,0,0,0
318711740,34.0348625105,108.756348509,422.953,395.596,-0.0,1.30925,1.5547,0.0,2,0,0,0
318910432,34.0348637095,108.756348783,422.892,395.556,-0.0,1.30925,1.55511,0.0,2,0,0,0
319109122,34.0348647562,108.756349064,422.882,395.566,-0.0,1.30924,1.55491,0.0,2,0,0,0
319307902,34.0348657053,108.756349398,422.924,395.628,-0.0,1.30924,1.5547,0.0,2,0,0,0
319511468,34.0348666642,108.756349949,423.008,395.731,-0.0,1.30927,1.55512,0.0,2,0,0,0
319710158,34.0348675657,108.756350665,423.121,395.863,-0.0,1.3093,1.55492,0.0,2,0,0,0
319908850,34.0348683782,108.756351379,423.241,396.002,-0.0,1.30935,1.55473,0.0,2,0,0,0
320107552,34.0348690757,108.756351977,423.313,396.094,-0.0,1.30937,1.55514,0.0,2,0,0,0
320311198,34.0348696298,108.756352506,423.314,396.114,-0.0,1.30939,1.55494,0.0,2,0,0,0
320504919,34.0348700863,108.756352944,423.251,396.071,-0.0,1.30922,1.55458,0.0,2,0,0,0
320703610,34.0348706185,108.756353424,423.12,395.96,-0.0,1.30923,1.555,0.0,2,0,0,0
320902305,34.0348713093,108.756353999,422.953,395.813,-0.0,1.30924,1.55481,0.0,2,0,0,0
321110926,34.034872275,108.756354788,422.822,395.703,-0.0,1.3094,1.55478,0.0,2,0,0,0
321309615,34.0348734026,108.75635568,422.76,395.66,-0.0,1.30939,1.55459,0.0,2,0,0,0
321508305,34.0348748715,108.75635666,422.756,395.676,-0.0,1.30938,1.55501,0.0,2,0,0,0
321706998,34.0348765185,108.756357725,422.818,395.758,-0.0,1.3094,1.55483,0.0,2,0,0,0
321905686,34.0348781223,108.75635878,422.941,395.901,-0.0,1.30941,1.55464,0.0,2,0,0,0
322109355,34.034879666,108.756359868,423.11,396.09,-0.0,1.30942,1.55446,0.0,2,0,0,0
322298294,34.0348810468,108.756360962,423.271,396.271,-0.0,1.30926,1.55472,0.0,2,0,0,0
322501756,34.0348825099,108.756362035,423.38,396.4,-0.0,1.30925,1.55454,0.0,2,0,0,0
322710384,34.034883979,108.75636287,423.393,396.433,-0.0,1.30944,1.55452,0.0,2,0,0,0
322904104,34.03488521,108.75636355,423.327,396.387,-0.0,1.30926,1.55478,0.0,2,0,0,0
323112729,34.0348864057,108.756364262,423.176,396.256,-0.0,1.30943,1.55476,0.0,2,0,0,0
323311452,34.0348875508,108.756364959,422.957,396.058,-0.0,1.30941,1.55458,0.0,2,0,0,0
323510111,34.0348887601,108.756365733,422.696,395.817,-0.0,1.30938,1.55439,0.0,2,0,0,0
323708799,34.0348899503,108.756366638,422.444,395.584,-0.0,1.30935,1.55482,0.0,2,0,0,0
323907649,34.0348911397,108.756367492,422.214,395.374,-0.0,1.30934,1.55464,0.0,2,0,0,0
324106180,34.0348925888,108.756368279,422.012,395.192,-0.0,1.30934,1.55506,0.0,2,0,0,0
324309837,34.0348943275,108.756369174,421.859,395.058,-0.0,1.30934,1.55487,0.0,2,0,0,0
324503560,34.0348958923,108.756370046,421.778,394.997,-0.0,1.30917,1.55452,0.0,2,0,0,0
324712334,34.0348974823,108.756371059,421.757,394.994,-0.0,1.30936,1.5545,0.0,2,0,0,0
324910877,34.0348990649,108.756372113,421.791,395.045,-0.0,1.30937,1.55492,0.0,2,0,0,0
325109566,34.0349006555,108.756373162,421.877,395.148,-0.0,1.30939,1.55473,0.0,2,0,0,0
325303288,34.0349022393,108.756374141,422.013,395.3,-0.0,1.30923,1.55498,0.0,2,0,0,0
325502051,34.0349038091,108.756375039,422.223,395.526,-0.0,1.30923,1.55479,0.0,2,0,0,0
325710641,34.034905234,108.756375907,422.506,395.824,-0.0,1.30944,1.55477,0.0,2,0,0,0
325909294,34.034906474,108.756376843,422.779,396.113,-0.0,1.30947,1.55459,0.0,2,0,0,0
326103017,34.0349077579,108.756377794,422.986,396.337,-0.0,1.30927,1.55484,0.0,2,0,0,0
326311724,34.0349092317,108.756378794,423.171,396.537,-0.0,1.30945,1.55481,0.0,2,0,0,0
326510370,34.0349105964,108.756379666,423.35,396.73,-0.0,1.30944,1.55462,0.0,2,0,0,0
326709022,34.0349118232,108.756380514,423.54,396.936,-0.0,1.30942,1.55505,0.0,2,0,0,0
326907712,34.0349129371,108.756381286,423.728,397.139,-0.0,1.30942,1.55486,0.0,2,0,0,0
327106490,34.0349140948,108.756381804,423.852,397.279,-0.0,1.30941,1.55467,0.0,2,0,0,0
327305095,34.0349152567,108.75638222,423.897,397.34,-0.0,1.30939,1.55509,0.0,2,0,0,0
327508758,34.0349164074,108.756382705,423.883,397.344,-0.0,1.30936,1.55489,0.0,2,0,0,0
327702516,34.0349175231,108.756383213,423.852,397.328,-0.0,1.30916,1.55454,0.0,2,0,0,0
327911114,34.0349186935,108.756383773,423.815,397.307,-0.0,1.3093,1.55451,0.0,2,0,0,0
328109788,34.0349194887,108.756384416,423.779,397.287,-0.0,1.30926,1.55493,0.0,2,0,0,0
328303515,34.0349197951,108.756385272,423.724,397.246,-0.0,1.30905,1.55457,0.0,2,0,0,0
328512137,34.0349197468,108.756386423,423.649,397.186,-0.0,1.30919,1.55515,0.0,2,0,0,0
328710827,34.0349196129,108.756387538,423.564,397.114,-0.0,1.30916,1.55495,0.0,2,0,0,0
328909519,34.0349194192,108.756388685,423.467,397.029,-0.0,1.30913,1.55475,0.0,2,0,0,0
329108207,34.0349193532,108.756389802,423.378,396.955,-0.0,1.3091,1.55516,0.0,2,0,0,0
329306900,34.0349193546,108.756390831,423.33,396.922,-0.0,1.30905,1.55496,0.0,2,0,0,0
329505623,34.0349193492,108.756391782,423.323,396.928,-0.0,1.30899,1.55476,0.0,2,0,0,0
329709245,34.0349194123,108.756392746,423.346,396.963,-0.0,1.30893,1.55516,0.0,2,0,0,0
329907950,34.0349194837,108.756393611,423.379,397.009,-0.0,1.30891,1.55495,0.0,2,0,0,0
330106674,34.0349195437,108.756394448,423.361,397.002,-0.0,1.30888,1.55534,0.0,2,0,0,0
330305316,34.0349196128,108.756395289,423.263,396.917,-0.0,1.30884,1.55512,0.0,2,0,0,0
330508973,34.0349197299,108.756396088,423.107,396.772,-0.0,1.30882,1.5549,0.0,2,0,0,0
330702802,34.0349199157,108.756396824,422.951,396.627,-0.0,1.30863,1.55514,0.0,2,0,0,0
330901549,34.0349202551,108.756397668,422.809,396.495,-0.0,1.30861,1.55494,0.0,2,0,0,0
331110011,34.0349208755,108.756398745,422.701,396.399,-0.0,1.30876,1.5549,0.0,2,0,0,0
331308706,34.0349215852,108.75639984,422.625,396.333,-0.0,1.30875,1.5547,0.0,2,0,0,0
331507392,34.0349223112,108.756400907,422.574,396.293,-0.0,1.30873,1.55511,0.0,2,0,0,0
331706235,34.034923004,108.756401962,422.57,396.299,-0.0,1.3087,1.5549,0.0,2,0,0,0
331904774,34.0349236772,108.756402869,422.613,396.352,-0.0,1.3087,1.55469,0.0,2,0,0,0
332108433,34.0349244349,108.756403691,422.702,396.45,-0.0,1.30867,1.5551,0.0,2,0,0,0
332307122,34.0349252922,108.756404381,422.811,396.567,-0.0,1.30866,1.5549,0.0,2,0,0,0
332505924,34.0349261183,108.756404986,422.927,396.69,-0.0,1.30866,1.5547,0.0,2,0,0,0
332709468,34.034926599,108.756405725,423.035,396.807,-0.0,1.30865,1.5545,0.0,2,0,0,0
332908158,34.0349266829,108.756406572,423.121,396.901,-0.0,1.30867,1.55492,0.0,2,0,0,0
333111816,34.0349265294,108.756407464,423.168,396.958,-0.0,1.30869,1.55473,0.0,2,0,0,0
333310621,34.0349263815,108.756408273,423.135,396.935,-0.0,1.3087,1.55454,0.0,2,0,0,0
333509196,34.0349261717,108.756409048,423.035,396.846,-0.0,1.30871,1.55436,0.0,2,0,0,0
333707890,34.0349259495,108.756409709,422.92,396.742,-0.0,1.30872,1.55478,0.0,2,0,0,0
333901609,34.0349257053,108.756410432,422.826,396.659,-0.0,1.30854,1.55442,0.0,2,0,0,0
334110309,34.0349254364,108.756411358,422.729,396.574,-0.0,1.30868,1.55439,0.0,2,0,0,0
334308926,34.0349253597,108.756412345,422.631,396.486,-0.0,1.30868,1.55481,0.0,2,0,0,0
