timestamp,timestamp_sample,accel_device_id,gyro_device_id,delta_angle[0],delta_angle[1],delta_angle[2],delta_velocity[0],delta_velocity[1],delta_velocity[2],delta_angle_dt,delta_velocity_dt,delta_velocity_clipping
198107111,198106983,4259850,4325386,9.72556e-05,1.88729e-05,3.26621e-06,0.00035098,-3.47549e-05,-0.0487908,4988,4937,0
198112105,198111972,4259850,4325386,-0.00011529,-0.000126577,-0.000452948,-0.000520225,0.000214563,-0.047826,4989,4938,0
198610918,198610802,4259850,4325386,9.27693e-06,-7.68171e-05,0.0001492,0.00432239,0.0097399,-0.0461849,5022,4914,0
199114266,199114120,4259850,4325386,-0.00166473,-0.000635114,-0.000354966,-0.00119581,0.010849,-0.0495229,4997,4937,0
199608213,199607919,4259850,4325386,0.0020925,-0.00112942,-0.000561026,0.0031001,-0.00924991,-0.060228,4991,5748,0
200111818,200111705,4259850,4325386,0.000693809,0.000707205,-0.00020984,-0.0117901,0.00424607,-0.0467003,4989,4967,0
200610626,200610502,4259850,4325386,-0.000211473,0.000686674,-0.000354022,-0.0122645,0.0145472,-0.0499382,4988,4932,0
201109479,201109341,4259850,4325386,-0.000793499,0.00010556,0.000537097,-0.00209775,0.0131694,-0.0515767,4979,4986,0
201613233,201613089,4259850,4325386,-0.000745272,0.000136643,0.000768177,0.000555069,-0.00639859,-0.0544066,4989,4948,0
202107041,202106905,4259850,4325386,0.000980674,-0.00062996,-0.0022893,0.00943754,0.00238118,-0.0444248,4993,4935,0
202610796,202610686,4259850,4325386,-0.000730435,0.000345146,-0.0033616,-0.00249925,0.00768174,-0.0544462,4987,4964,0
203109618,203109486,4259850,4325386,0.00231743,0.000242915,-0.00204805,-0.000152708,-0.0155802,-0.0572695,4988,4994,0
203608728,203608521,4259850,4325386,-0.00068089,4.15302e-05,-0.00065533,-0.00090435,-0.0090054,-0.064512,4968,5925,0
204112286,204112170,4259850,4325386,0.00348271,6.88066e-05,0.00149444,0.000450888,-0.00437857,-0.0599082,4990,4935,0
204610414,204609958,4259850,4325386,-0.00171237,0.000361684,0.00437144,-0.00474936,-0.0318988,-0.0670745,4996,5806,0
205113745,205113614,4259850,4325386,0.000429963,0.000363656,0.000566399,-0.00121007,0.0400517,-0.0393453,4986,4936,0
205607043,205606926,4259850,4325386,-0.00134415,0.00059348,-0.000952141,0.00173402,-0.0333729,-0.0347035,4989,4979,0
206111127,206111015,4259850,4325386,-0.0021447,0.000600727,-4.31046e-05,-0.00643235,-0.0372365,-0.0721153,5011,5610,0
206610291,206610074,4259850,4325386,-0.000683296,0.000212087,0.00251982,0.00333037,-0.0100867,-0.0564024,4996,5926,0
207109022,207108836,4259850,4325386,0.00040405,-0.000418743,0.00386844,-0.000707015,0.0199949,-0.0421239,4997,5880,0
207612725,207612598,4259850,4325386,-0.000383074,-0.000235167,0.000401801,0.000469767,0.0214636,-0.0485897,4988,4963,0
208111534,208111399,4259850,4325386,-6.98617e-05,0.000253377,-0.00262195,-0.00432991,0.0158481,-0.0500666,4989,4940,0
208610325,208610197,4259850,4325386,-0.00150484,0.00140348,-0.000106701,-0.00705092,-0.0113049,-0.0565706,4987,4938,0
209109125,209108997,4259850,4325386,0.00136765,-0.000169917,0.000412098,-0.00647459,-0.0337145,-0.0424661,4990,4965,0
209608044,209607889,4259850,4325386,0.00348745,0.00025332,0.00246856,0.00183815,0.00781002,-0.0592303,4952,4934,0
210111883,210111722,4259850,4325386,0.00321858,-0.000856037,0.000495316,-5.69673e-05,0.0102728,-0.0532638,4992,4967,0
210610593,210610386,4259850,4325386,0.00075363,0.000131661,-0.00259989,-0.00265966,-0.0121187,-0.0447822,4992,4938,0
211109938,211109787,4259850,4325386,-0.00813271,0.000490628,-7.10552e-05,-0.00161414,0.00521279,-0.0491181,4949,4757,0
211613631,211613470,4259850,4325386,0.000742635,-0.000191656,-0.000987509,0.00810344,-0.0104352,-0.0566813,4987,4955,0
212112594,212112418,4259850,4325386,0.00288771,-0.000477761,-0.000172661,-0.00489367,0.00792923,-0.0631791,4955,4949,0
212611176,212611066,4259850,4325386,0.000168614,6.34328e-05,0.000896321,-0.00136148,0.000507025,-0.0386601,4988,4937,0
213109982,213109866,4259850,4325386,0.00274879,-0.000792336,0.000537055,-0.00156084,-0.0226279,-0.034564,4986,4940,0
213609139,213608992,4259850,4325386,-0.000681593,0.000473967,0.00095323,-0.00326844,0.000848225,-0.0525149,5058,4947,0
214112776,214112455,4259850,4325386,-0.000203246,-0.00242089,0.000349883,0.00448578,0.0216906,-0.0495931,4990,4944,0
214611450,214611252,4259850,4325386,0.000525046,0.000958527,0.000760003,0.00308515,0.0059647,-0.0503887,4988,5845,0
215110301,215110140,4259850,4325386,0.00253957,-0.00064533,0.000178251,0.00223832,-0.0396143,-0.0356296,4952,4939,0
215613650,215613488,4259850,4325386,0.000528293,0.000705095,-0.000265726,-0.00525305,0.0504908,-0.0565632,4990,5916,0
216107490,216107313,4259850,4325386,0.000767066,0.0010641,-0.00208156,-0.00049909,-0.0473322,-0.0640783,4967,5985,0
216611136,216610940,4259850,4325386,0.00224991,-0.000663144,-0.000782353,-0.00858922,-0.00714684,-0.0405287,4986,4982,0
217109856,217109739,4259850,4325386,0.00491873,1.62153e-05,0.000349489,0.0013835,-0.0247442,-0.0362004,4987,4950,0
217608849,217608658,4259850,4325386,0.00183398,-0.000826506,-0.000568427,-0.00131283,-0.0199208,-0.0447934,4964,4938,0
218112538,218112422,4259850,4325386,-0.000178073,-7.37883e-05,0.000465938,-0.00628697,0.029528,-0.0406476,5041,4936,0
218611271,218611125,4259850,4325386,-0.00135247,0.00110997,0.000205846,0.00200745,0.0222911,-0.048094,4988,4937,0
219110551,219110432,4259850,4325386,-0.00046268,0.000159884,0.000514039,0.005802,0.0509853,-0.0485049,4995,4938,0
219609885,219609770,4259850,4325386,0.00252179,-0.000538729,-0.000117983,0.0021829,0.0128355,-0.0389617,4979,4937,0
220109138,220109022,4259850,4325386,-0.00130156,-0.00104642,-2.87206e-05,-0.00244372,0.00513126,-0.0429552,4987,4960,0
220607935,220607821,4259850,4325386,-0.000562614,0.00108763,0.000365478,-0.00534093,-0.000473794,-0.0548734,4988,4937,0
221111281,221111164,4259850,4325386,-0.00178914,8.50243e-05,-8.38044e-06,-0.00255643,0.00881532,-0.0517012,4994,4984,0
221611118,221611005,4259850,4325386,-0.000815759,0.000554872,-0.000289774,-0.00220489,-0.00816055,-0.0431547,4972,4938,0
222114741,222114197,4259850,4325386,0.00599941,-7.10694e-05,-0.000106149,-0.00567427,0.0106815,-0.0554907,4988,4981,0
222608317,222608180,4259850,4325386,0.000295281,-0.00269287,0.00105242,0.0032868,0.0534196,-0.0474571,4956,4938,0
223111531,223111381,4259850,4325386,0.00088619,0.000371685,0.000275357,-0.00121924,0.0295755,-0.0445916,4934,4933,0
223610738,223610592,4259850,4325386,-0.000367293,-0.000155939,-9.57007e-05,-0.0020795,0.00236907,-0.0433259,4979,4971,0
224109851,224109701,4259850,4325386,0.000458104,0.00288167,-0.000298377,0.00408534,0.0291347,-0.0403431,4981,4936,0
224608345,224608198,4259850,4325386,0.00269326,-0.00189652,-0.00104401,-0.00273712,0.00700105,-0.0319511,4990,4993,0
225112090,225111981,4259850,4325386,-0.000170328,-0.00166272,0.000954045,-0.00361242,0.0515921,-0.0383582,4986,4963,0
225609898,225609784,4259850,4325386,0.000821272,0.000373701,-0.000676154,-0.00477315,-0.0330116,-0.0410483,4984,4939,0
226113965,226113806,4259850,4325386,-0.00234798,0.00010366,0.00140959,0.0102041,0.0539432,-0.0572914,4959,4954,0
226607566,226607383,4259850,4325386,-0.000900259,-0.00112584,0.000379377,0.00393659,0.0121848,-0.0512511,4983,4943,0
227111430,227111174,4259850,4325386,3.53008e-05,-0.000415664,-5.14686e-05,-4.88878e-05,0.00960558,-0.0283815,4965,3946,0
227610568,227610382,4259850,4325386,0.000713471,0.00343126,-0.000271181,-0.00180686,-0.0154048,-0.0393242,4996,5006,0
228108885,228108771,4259850,4325386,0.0019506,-0.00125121,-0.00142132,-0.00308964,-0.0353075,-0.0378888,4988,4984,0
228612492,228612329,4259850,4325386,0.00265477,-0.000548815,-0.000733752,-0.00272294,-0.0249285,-0.0615946,5257,6215,0
229111079,229110971,4259850,4325386,0.00498279,0.000652491,-5.00108e-05,0.00632914,-0.0102753,-0.0454802,4987,4989,0
229614905,229614650,4259850,4325386,-0.0022723,-0.000553734,0.000304025,-0.00624927,-0.00359427,-0.051232,4988,4966,0
230108872,230108706,4259850,4325386,0.000142385,-1.24654e-05,0.000557835,-0.00652635,0.0371937,-0.0503028,4968,4937,0
230607391,230607285,4259850,4325386,0.00119331,-0.000252816,0.000309365,-0.00333011,0.0242711,-0.045915,5013,4904,0
231111243,231111101,4259850,4325386,-0.00107413,0.000397953,0.000345404,-0.00397203,-0.00911725,-0.0602624,4975,4976,0
231610194,231610079,4259850,4325386,0.000170518,-0.000874381,0.000137395,0.0075692,0.0236229,-0.0484479,4993,4936,0
232114408,232114246,4259850,4325386,-0.000143737,0.00222799,-0.000319349,0.000310452,-0.0448266,-0.038707,4976,4764,0
232613049,232612935,4259850,4325386,0.000759722,0.000297961,-0.000178834,-0.000322061,0.00601584,-0.0349847,4989,4941,0
233112214,233111895,4259850,4325386,-0.00132391,0.0044066,0.00061156,-0.00489688,0.0514571,-0.0438262,5005,5000,0
233610805,233610661,4259850,4325386,9.25265e-05,-0.000100729,-0.00033519,0.00293902,-0.0207448,-0.0500829,5017,4914,0
234109442,234109334,4259850,4325386,0.0013257,-0.000207655,-0.000153395,-0.0036465,-0.00924534,-0.0492755,4988,4937,0
234608127,234607984,4259850,4325386,0.000208539,0.00065298,-0.000452897,0.00313672,-0.0142257,-0.0378949,4985,4938,0
235111599,235111424,4259850,4325386,0.00259733,3.92656e-05,-0.000981058,0.00274728,-0.0200445,-0.0349235,4988,4964,0
235610622,235610226,4259850,4325386,-0.000653747,-0.000500686,0.000557455,-0.00626539,0.0331543,-0.0607838,4988,4936,0
236114301,236114102,4259850,4325386,-9.81004e-05,-0.000946497,-7.87951e-05,-0.00180436,0.00088746,-0.054106,4957,4938,0
236612931,236612812,4259850,4325386,0.00307381,-0.00111938,-0.000163953,0.00182291,0.0175996,-0.0354105,4988,4756,0
237111725,237111613,4259850,4325386,0.00231444,0.000587378,-0.000988945,0.00239141,0.017121,-0.0340276,4989,4679,0
237610024,237609914,4259850,4325386,-0.000653685,-5.77939e-05,-0.00664611,0.00931065,-0.00913032,-0.040125,4985,4986,0
238110189,238108714,4259850,4325386,0.00177427,-0.000398578,-0.00308574,0.00155696,0.00841941,-0.0349128,4975,4951,0
238612812,238612678,4259850,4325386,-0.000677313,0.00047939,-0.00178685,-0.0137879,-0.0534579,-0.0571863,4994,4938,0
239111568,239111433,4259850,4325386,0.00154458,-0.000955594,0.000430018,-0.00092268,0.00427486,-0.0466201,4988,4936,0
239610376,239610105,4259850,4325386,0.000387923,9.89037e-05,-0.000443808,-0.00418413,-0.0156986,-0.0561934,4984,5927,0
240114673,240114484,4259850,4325386,-0.000275815,0.000277077,-0.00217249,0.00452663,0.000746387,-0.038783,4991,4994,0
240608369,240608222,4259850,4325386,-0.00127042,-0.000250067,-0.00464903,-0.00454934,0.0481933,-0.0461955,4969,4936,0
241111599,241111492,4259850,4325386,0.00045283,1.01202e-05,-0.00483186,-0.00653739,0.00680677,-0.0497594,4987,4960,0
241611228,241610548,4259850,4325386,-0.00249854,-0.0018079,0.000806525,0.00978061,0.0207967,-0.0584571,4963,5927,0
242109244,242109093,4259850,4325386,1.28336e-05,-0.000187473,0.000975657,0.00171211,0.0146115,-0.0610646,4989,4942,0
242612595,242612482,4259850,4325386,0.000813826,0.00335277,2.25548e-05,-0.00525219,0.00531261,-0.0447275,4966,4938,0
243111342,243111187,4259850,4325386,0.000825734,-0.00201447,-0.00186655,-0.00814826,0.00996182,-0.0395728,4991,3796,0
243609843,243609662,4259850,4325386,-0.000144574,-5.23723e-05,-0.00369717,0.00511131,0.0167461,-0.0485323,4965,4964,0
244108453,244108336,4259850,4325386,0.00111446,-0.000525747,-0.000908334,-0.00385509,0.0219593,-0.0484758,4941,4941,0
244612359,244612123,4259850,4325386,0.00126464,0.000915534,0.00111009,-0.00758404,-0.0408373,-0.0448266,4991,4939,0
245111324,245111212,4259850,4325386,-0.00102859,0.000430479,0.00256367,0.0013305,-0.0331516,-0.0466273,4970,4938,0
245609945,245609725,4259850,4325386,0.00188491,-0.000204584,0.000925005,0.000951935,0.0285104,-0.0363423,4991,4936,0
246113636,246113516,4259850,4325386,-6.25624e-05,0.000243214,-0.000532164,1.15453e-05,0.00947935,-0.0443129,4996,4948,0
246612507,246612359,4259850,4325386,7.88693e-06,0.00197534,-0.000512094,0.0010965,-0.0177675,-0.0422668,4965,4937,0
247111228,247111113,4259850,4325386,-0.000211035,-0.000256354,8.64299e-06,0.00647985,0.0121806,-0.0435684,4943,4937,0
247610042,247609933,4259850,4325386,0.00341794,-0.000525693,-0.000528061,0.00061559,-0.018744,-0.0418448,4976,4788,0
248108900,248108765,4259850,4325386,-0.0035135,-0.000678706,0.000864961,-0.00158476,0.0104085,-0.0611266,4976,4932,0
248612617,248612501,4259850,4325386,0.00186402,-0.000243809,0.000828141,-0.00158771,-0.025054,-0.052213,4991,4939,0
249112654,249111301,4259850,4325386,0.00115447,-0.00103373,0.00309623,8.83438e-05,0.00599982,-0.0486837,4988,4993,0
249610291,249610159,4259850,4325386,0.000826484,2.10285e-05,0.000643805,0.00206399,0.0327997,-0.0341468,4970,4975,0
250114028,250113889,4259850,4325386,0.00344571,4.6118e-05,-0.000654483,0.00388991,-0.00526712,-0.0333283,4987,4990,0
250608070,250607800,4259850,4325386,-0.00585783,-0.000143163,0.000372312,0.00127993,0.0477018,-0.0435253,4977,4970,0
251111664,251111515,4259850,4325386,-0.00050035,-0.000478424,0.000173854,-0.0021131,0.00743438,-0.0613524,4993,4978,0
251610436,251610289,4259850,4325386,-0.00355083,-0.00223905,0.000810771,-0.00301893,0.0241237,-0.0523626,4988,4940,0
252109216,252109092,4259850,4325386,0.000625668,-0.00013563,6.15358e-05,-0.00643228,-0.021113,-0.039458,4991,4970,0
252613111,252612971,4259850,4325386,0.0041615,0.00145044,0.00022532,0.0041913,0.024066,-0.0634431,4984,4991,0
253111815,253111681,4259850,4325386,-0.000235568,-0.000889753,-0.00059971,-1.33307e-05,-0.00359947,-0.0477301,4989,4945,0
253610623,253610487,4259850,4325386,0.00264843,-0.000476068,-0.000731403,0.00289331,-0.00292255,-0.0397514,4993,4880,0
254113847,254113731,4259850,4325386,0.00125103,-6.76834e-05,0.00229545,-0.0047081,-0.0194131,-0.0468579,4999,4942,0
254607642,254607533,4259850,4325386,0.0038568,-0.00205573,0.000641241,0.0011841,0.0286569,-0.0443052,4988,4937,0
255111523,255111371,4259850,4325386,0.00498652,0.000268175,-0.000831009,-0.00413994,-0.0342438,-0.0390617,4969,4967,0
255610828,255610716,4259850,4325386,-0.00614827,-6.51316e-05,-3.53697e-05,-0.00650778,-0.0438079,-0.0494079,4957,4938,0
256110050,256109855,4259850,4325386,0.000797175,-0.000326182,-0.000590448,0.0111453,-0.00497278,-0.0592541,5265,6109,0
256609137,256608952,4259850,4325386,-0.00476524,-0.00198075,0.000707896,-0.000250068,0.00292162,-0.0462519,4972,4970,0
257112782,257112629,4259850,4325386,-0.000550447,-0.000139923,0.00166469,0.00226385,0.045391,-0.0488067,4993,4994,0
257611545,257611314,4259850,4325386,0.0012845,-0.00308527,-0.000538022,-0.00208292,-0.0281095,-0.0408789,4990,4677,0
258110471,258110296,4259850,4325386,-0.000838352,0.00426341,0.00127707,0.00332798,-0.0259617,-0.0497153,4970,5923,0
258609139,258608915,4259850,4325386,0.00164332,-0.000396457,0.0011924,-0.00371007,-0.00416769,-0.04363,4990,4937,0
259112868,259112707,4259850,4325386,-0.00118471,-0.000683302,0.000192082,0.00547763,0.0279528,-0.0419492,4988,4982,0
259612003,259611789,4259850,4325386,0.00337803,-0.00121509,-0.000591109,0.000936534,0.00217511,-0.0371799,4984,4938,0
260111030,260110896,4259850,4325386,0.00167657,-0.000788221,-0.000843657,0.000429374,-0.0301229,-0.0467044,4993,4984,0
260609715,260609605,4259850,4325386,-0.000381369,0.000806444,0.000809556,-0.00641757,0.0506555,-0.0495453,4991,4938,0
261113564,261113394,4259850,4325386,0.00839637,-3.66228e-05,-0.000985521,-0.00575381,-0.0280358,-0.0525873,4988,4956,0
261606818,261606704,4259850,4325386,-0.00203513,-0.00295299,5.17528e-05,0.00540513,0.00226686,-0.064917,4987,4945,0
262111173,262110494,4259850,4325386,0.000459435,-4.76368e-05,0.00145122,0.00427341,0.0592169,-0.0496456,4987,5926,0
262609791,262609579,4259850,4325386,-0.00056697,0.00179406,0.00144058,-0.00440954,0.0297056,-0.0393935,4959,4937,0
263113204,263113086,4259850,4325386,8.03318e-05,-0.00046178,0.00130068,-0.00562118,0.00494738,-0.0546594,4992,5017,0
263612012,263611883,4259850,4325386,-0.00180913,-0.000463843,0.00130854,-0.0030433,0.0515988,-0.054976,4986,4957,0
264110846,264110732,4259850,4325386,0.00262245,-0.000856189,-0.000707851,-0.00236857,-0.0111588,-0.0359391,4974,4993,0
264614461,264614026,4259850,4325386,-0.00012794,0.000676894,0.00435371,0.00157124,0.0578692,-0.0597586,4992,6082,0
265108048,265107914,4259850,4325386,0.00242989,0.000901566,0.00171871,-0.00100663,0.0028433,-0.037562,4964,4935,0
265611733,265611623,4259850,4325386,0.00338724,-0.00335226,-0.00050977,-0.00597419,-0.0134893,-0.058638,4987,4937,0
266110625,266110430,4259850,4325386,-0.000487898,0.00139554,4.34723e-05,-0.00177434,0.0208666,-0.0560974,4989,4770,0
266609579,266609418,4259850,4325386,0.00283139,-0.000872127,0.000364201,-0.00420408,0.0124639,-0.0382294,4991,4946,0
267113290,267113167,4259850,4325386,-0.0026243,0.000639242,0.000803698,-0.00395813,0.0025399,-0.0497509,4990,3949,0
267612406,267612266,4259850,4325386,-0.00127552,0.00157595,0.00125286,-0.00475414,0.0382591,-0.0660898,4988,4988,0
268111427,268111226,4259850,4325386,-0.00104077,0.000615698,7.03909e-05,-0.00380535,-0.00257752,-0.0640035,4989,4991,0
268610046,268609888,4259850,4325386,0.000676138,-0.000843892,0.000334684,0.00378652,0.0233184,-0.0423621,4971,4965,0
269108808,269108669,4259850,4325386,-0.00221422,-0.000446525,0.00230847,-0.00158956,0.0454834,-0.052794,4989,4970,0
269612572,269612459,4259850,4325386,-0.00283194,0.000811634,0.000938519,-0.00679005,0.0420281,-0.0450059,4941,4936,0
270110951,270110808,4259850,4325386,-0.00100093,0.000321823,0.000965755,-0.00692252,-0.0578254,-0.0546383,4989,4937,0
270609971,270609610,4259850,4325386,-0.000424071,-0.000282961,-1.60574e-05,-0.00547149,0.0062408,-0.0478015,4989,4968,0
271113110,271112946,4259850,4325386,-0.00114263,0.000300236,3.4109e-05,0.000717602,-0.00200989,-0.0580841,5004,4998,0
271611828,271611652,4259850,4325386,-0.000322311,0.000489802,-0.000444542,0.00210564,-0.0165809,-0.0518494,4988,4939,0
272110641,272110486,4259850,4325386,0.00031516,-0.000690053,-0.000728721,0.00360609,-0.031033,-0.0332508,4953,4956,0
272612785,272612459,4259850,4325386,-0.00295871,0.000931216,-0.00337894,-0.00576287,0.023719,-0.0482388,4981,4966,0
273111224,273111095,4259850,4325386,0.000635275,0.000381144,-0.0048528,0.00512346,-0.0305688,-0.0477496,4988,4938,0
273610266,273609904,4259850,4325386,0.000802201,0.000907082,-0.00557076,-0.00558213,-0.0261821,-0.0625192,4995,4991,0
274113843,274113688,4259850,4325386,-0.00100266,9.24459e-05,-0.00122291,0.00247542,-0.0159127,-0.04253,4991,4938,0
274612940,274612742,4259850,4325386,0.000998172,0.000300085,-0.000388498,0.00187441,-0.0305143,-0.0286733,4966,4960,0
275111468,275111355,4259850,4325386,0.000868515,0.000429641,0.000421369,0.00259428,0.0164032,-0.0445883,5003,4969,0
275610647,275610538,4259850,4325386,0.00280132,0.000899844,-0.000810081,-0.00278524,-0.00450412,-0.0464329,4988,4990,0
276109559,276109407,4259850,4325386,-0.00165345,-0.000424649,-0.000208828,0.00971255,0.028648,-0.0675777,4990,4989,0
276608454,276608327,4259850,4325386,0.00123746,-0.000679231,8.03772e-05,0.00605877,0.0215517,-0.0445757,4966,4938,0
277112046,277111936,4259850,4325386,0.00219708,6.27204e-05,-0.00031767,0.00194807,-0.0133174,-0.0466793,4990,4937,0
277610930,277610730,4259850,4325386,-0.001582,0.000701242,-0.000682758,-0.00432561,-0.0410271,-0.0535448,4988,5923,0
278114446,278114264,4259850,4325386,-4.16949e-06,0.00107933,-0.000536802,0.00297153,-0.0124065,-0.0494926,4984,4937,0
278613483,278613342,4259850,4325386,0.00408314,0.000741946,-0.00101203,0.00278062,-0.0542964,-0.039671,4989,4983,0
279107509,279107329,4259850,4325386,-0.00109319,0.000150939,0.000921224,-0.00763274,0.00644873,-0.0536783,4991,4940,0
279611234,279611045,4259850,4325386,-0.000720923,-0.000452572,-0.00101922,-0.0100241,-0.0225631,-0.0594002,4968,4940,0
280109845,280109733,4259850,4325386,-0.00089204,-0.00364313,0.000690317,0.00180964,0.0462683,-0.0415329,4967,4942,0
280609023,280608525,4259850,4325386,0.000917504,0.00165607,-0.00061528,0.00338759,-0.00929109,-0.0445347,4987,5921,0
281112613,281112436,4259850,4325386,0.00188197,9.14252e-05,-0.000571489,0.00224848,-0.00446174,-0.0341661,4979,4975,0
281611344,281611206,4259850,4325386,0.000692736,-0.00105437,-0.00104426,-0.00609905,0.00496447,-0.049876,5003,4936,0
282110022,282109915,4259850,4325386,0.00190797,-0.00131394,-0.000436707,-0.00443361,0.0300884,-0.0475504,4988,4950,0
282608957,282608787,4259850,4325386,0.000490153,0.00059194,-0.00468868,-0.00102281,0.0301879,-0.043259,4980,4936,0
283107687,283107521,4259850,4325386,0.000629757,-4.70045e-05,-0.00628834,-0.00126843,-0.0284396,-0.0461088,4992,4938,0
283611415,283611306,4259850,4325386,-0.00236747,0.000582814,0.000154752,0.000698279,-0.0101104,-0.0555967,4988,4962,0
284111821,284110319,4259850,4325386,0.000429387,4.75198e-05,0.000181314,0.00330905,0.000460882,-0.0462815,4968,4955,0
284609040,284608908,4259850,4325386,-0.000142959,-6.77036e-05,-0.00255989,0.00361315,-0.00476404,-0.0488272,4971,4932,0
285112854,285112697,4259850,4325386,-0.00162915,0.000474678,3.9889e-05,-0.00367803,-0.0309217,-0.0540718,4988,4962,0
285611656,285611515,4259850,4325386,-0.000545946,0.000749149,0.00136703,0.00379394,0.0563575,-0.0406717,4945,4657,0
286110439,286110299,4259850,4325386,-0.000733405,0.00326245,0.00041259,-0.00222675,0.014752,-0.0494657,4985,4992,0
286608846,286608656,4259850,4325386,0.000955833,0.000236881,-0.000851101,0.00608289,-0.00679526,-0.043968,4961,4936,0
287112654,287112441,4259850,4325386,0.000160231,-0.000230102,-0.00284675,-0.00666693,-0.00121006,-0.0664396,4990,4973,0
287611346,287611239,4259850,4325386,0.00314739,-0.00325461,-0.00122171,0.00352918,-0.0177986,-0.0387881,4987,4937,0
288110628,288110081,4259850,4325386,0.000198593,0.00106828,0.000736351,-0.00213516,-0.0062737,-0.0551535,4990,5925,0
288609412,288609299,4259850,4325386,0.00046683,0.000551533,-0.000438648,0.00691939,-0.0195882,-0.0473467,4994,4944,0
289113217,289113083,4259850,4325386,0.000500731,9.05558e-05,0.0013232,-0.00347481,0.0222956,-0.0679432,4984,4937,0
289607795,289607635,4259850,4325386,0.00260309,3.4139e-05,-0.0012046,-0.00037972,-0.0423097,-0.0424757,4969,4966,0
290111472,290111192,4259850,4325386,-0.00291854,7.1283e-05,0.00101504,-0.00104958,0.0296713,-0.0508117,4997,4986,0
290610166,290610028,4259850,4325386,0.00210456,-5.7155e-05,0.000231265,-0.00174583,-0.0345254,-0.042841,4976,4971,0
291108396,291108286,4259850,4325386,0.00271677,-0.00048275,0.00021836,0.00130873,0.0299204,-0.0441244,4988,4939,0
291612241,291612076,4259850,4325386,-0.00168412,-0.000489251,-0.000400787,0.00323942,0.0173621,-0.0488689,4988,4989,0
292111252,292111128,4259850,4325386,4.74312e-06,0.000224893,-0.000429215,-0.00316003,-0.0139255,-0.0423463,4970,4975,0
292610960,292609801,4259850,4325386,-0.00109387,5.28326e-05,0.000473852,0.00972674,0.0278283,-0.0494447,4990,4936,0
293108588,293108479,4259850,4325386,0.000719458,0.000345398,0.000333365,0.00582861,0.0356766,-0.0433455,4988,4932,0
293607744,293607506,4259850,4325386,-0.00108169,0.000915132,0.000289545,-0.00566066,-0.0289249,-0.0630289,4966,4937,0
294111259,294111071,4259850,4325386,0.00176329,0.000671466,-0.000889298,-0.0011176,-0.0143807,-0.0519239,4990,5681,0
294609989,294609871,4259850,4325386,-0.00013667,-1.69806e-05,-0.000648976,-0.00164331,-0.00478336,-0.0458911,4988,4937,0
295109134,295108968,4259850,4325386,-0.00509377,-0.000249022,0.000374601,0.0035903,0.00671445,-0.0561659,4983,4939,0
295612601,295612462,4259850,4325386,0.000554757,-3.45846e-05,0.000211229,-0.00285629,0.0230708,-0.048045,4989,4941,0
296111493,296111264,4259850,4325386,-0.000243583,-0.00130534,-4.4637e-05,-0.00654339,0.00118522,-0.0567483,4988,4936,0
296609783,296609613,4259850,4325386,0.0024753,-8.0934e-05,-0.00117795,-0.00234396,-0.049382,-0.051501,4988,5678,0
297108664,297108551,4259850,4325386,-0.00249426,-0.000548432,0.000583977,-0.00157949,0.0258109,-0.0415951,4998,4934,0
297612550,297612380,4259850,4325386,-7.7172e-05,0.000221816,0.000182025,-0.00521285,-0.0161248,-0.0540913,4986,4986,0
298111133,298111010,4259850,4325386,0.00291307,-0.00036485,-0.000412186,-0.00252361,0.000824793,-0.0404155,4992,4931,0
298610343,298609808,4259850,4325386,-0.00143976,0.000636982,-0.000238256,0.0031707,-0.0265909,-0.0482146,4989,4989,0
299113856,299113714,4259850,4325386,0.00256447,-0.000995806,-0.000700159,0.00271224,0.0125548,-0.0342013,4960,4929,0
299612566,299612423,4259850,4325386,5.39697e-05,0.00049459,-0.00042881,-0.00907047,-0.0460704,-0.0520595,4989,4936,0
300111393,300111201,4259850,4325386,-0.00322566,0.000674447,0.000794626,-0.00345683,0.0091814,-0.0599215,4986,4983,0
300610211,300610090,4259850,4325386,0.00273896,0.000263674,-0.000980609,0.0011691,-0.0345696,-0.035763,4952,4937,0
301109191,301108803,4259850,4325386,0.000984889,-0.00223134,0.000456902,0.000198499,-0.00332813,-0.0480823,4991,5897,0
301612699,301612589,4259850,4325386,0.000587495,-0.000713903,-0.00097702,0.00343526,-0.0447089,-0.0469357,4988,4784,0
302111768,302111629,4259850,4325386,0.0015101,0.00052971,-0.0002187,0.00163913,0.0363416,-0.0390764,4982,4988,0
302610469,302610338,4259850,4325386,-0.00144363,4.54114e-05,0.000635067,0.00289961,0.0311345,-0.0598398,4995,4937,0
303113702,303113590,4259850,4325386,-0.00121528,-0.000171547,0.000883728,0.00305739,0.037918,-0.0497541,4967,4995,0
303612563,303612238,4259850,4325386,0.00152224,0.00011244,0.000171878,0.00216083,0.0290564,-0.0432178,4989,4947,0
304111327,304111166,4259850,4325386,-0.000707338,0.000550765,0.000396074,0.00273442,0.00869709,-0.0473311,4993,4981,0
304610190,304610029,4259850,4325386,-0.000844214,-0.000144532,0.000267778,0.00436097,0.0170642,-0.0450828,4971,4970,0
305108748,305108639,4259850,4325386,-0.000834714,-0.000594856,0.000622967,-0.0029027,0.0320151,-0.0554341,4980,4936,0
305611209,305611066,4259850,4325386,-0.000389506,-0.00158064,-0.000572013,0.00546851,-0.0369825,-0.0470971,4978,4774,0
306109401,306109288,4259850,4325386,0.00176681,0.00136473,-0.000986841,-0.00105579,-0.0448666,-0.0447874,4993,4936,0
306613211,306613075,4259850,4325386,0.00186909,-0.000265296,-0.000752334,0.00399523,-0.00962114,-0.0392206,4995,4940,0
307107050,307106914,4259850,4325386,-0.00221683,0.000158827,0.000484763,-0.000796551,0.0157654,-0.057452,5015,4904,0
307611220,307610677,4259850,4325386,-0.000113134,0.000564334,3.20424e-05,0.000100346,0.0382735,-0.0455475,4986,5662,0
308109788,308109637,4259850,4325386,0.00348292,-0.0026962,-0.000766855,-0.00277825,-0.0364964,-0.046554,4990,4989,0
308612844,308612719,4259850,4325386,-0.000932278,2.91909e-05,0.000377178,-0.00199732,0.0282069,-0.058213,4985,5164,0
309112280,309111716,4259850,4325386,-0.00137081,-0.000273562,-0.00396184,-0.0047348,0.0326636,-0.0694049,4990,5929,0
309610610,309610477,4259850,4325386,-0.00051718,-0.000108973,-0.00521172,-0.00278419,0.0471691,-0.0565705,4996,4934,0
310115578,310114114,4259850,4325386,0.00075168,1.02239e-05,-0.00162957,-0.00799197,-0.0120926,-0.0651011,4989,5927,0
310608125,310607947,4259850,4325386,0.000744915,-0.00206629,0.0010176,0.00443869,0.0341147,-0.0331,4966,4965,0
311111821,311111713,4259850,4325386,-0.00143422,-0.000512584,0.00100939,0.00612632,0.0412532,-0.0385395,4987,4937,0
311610624,311610515,4259850,4325386,0.000662324,-0.000234236,-0.00597113,0.00334779,-0.0338604,-0.046853,4988,4764,0
312108931,312108818,4259850,4325386,0.00163846,-6.4186e-05,-0.00231231,-0.000413515,-0.0491863,-0.0424281,4989,4975,0
312612835,312612617,4259850,4325386,0.00444769,-0.00160409,0.000383959,-0.0057987,-0.0357401,-0.056779,4996,4977,0
313111654,313111527,4259850,4325386,0.00152487,-0.000546786,-0.00375983,0.0063039,-0.0320926,-0.0495609,5051,4949,0
313610398,313610224,4259850,4325386,-0.00245608,-0.000286978,-0.000333405,0.0109085,0.0531164,-0.041922,4961,4768,0
314109682,314109510,4259850,4325386,-0.00252997,0.00220558,0.00112069,-0.00154771,0.0440633,-0.0479358,4988,4983,0
314608465,314608313,4259850,4325386,0.000400982,-0.000666584,3.88351e-05,0.00234177,0.00945019,-0.0366423,4988,4969,0
315112653,315112268,4259850,4325386,-0.00243752,0.000227479,-0.00521457,0.000543569,0.00303167,-0.0555648,4980,4984,0
315611024,315610902,4259850,4325386,-0.00270467,-0.000835399,-0.000641714,0.00400096,0.028266,-0.056782,4986,4972,0
316111095,316109706,4259850,4325386,0.000737169,-0.000734931,0.000717318,0.00389356,0.00366198,-0.038068,4990,4954,0
316613225,316613094,4259850,4325386,-0.00181692,-0.00058365,0.00090895,-0.00238077,0.00482023,-0.0494366,4986,4936,0
317111989,317111796,4259850,4325386,-0.00270595,0.000439754,0.0013744,0.00153697,0.0568874,-0.0554213,4987,4946,0
317610992,317610600,4259850,4325386,-0.0023207,-0.000204961,0.000607842,0.000210113,0.0402365,-0.0495983,4983,4970,0
318109532,318109398,4259850,4325386,-0.00123457,0.000316389,0.000876829,-0.00399203,0.0108635,-0.0499086,4987,4926,0
318608316,318608202,4259850,4325386,-0.00269533,0.000209825,0.000627328,-0.00506102,0.0116568,-0.0544603,4986,4963,0
319111107,319110992,4259850,4325386,-0.00217002,0.000310916,3.49478e-05,-0.00267825,-0.0041721,-0.0664067,4986,4933,0
319610255,319610138,4259850,4325386,-0.00180561,0.000768167,-0.000688846,0.00437847,0.012323,-0.0486799,5096,4981,0
320113715,320113586,4259850,4325386,0.000365138,0.000121098,0.000727353,-0.00110359,0.0451397,-0.0397917,4983,4977,0
320612495,320612384,4259850,4325386,0.00162464,-0.00164591,8.70703e-05,0.0012895,-0.00528623,-0.0345102,4985,4969,0
321111373,321111216,4259850,4325386,-0.00264902,-0.000859863,0.000318503,0.00191625,0.00727273,-0.0722247,4975,4992,0
321610099,321609987,4259850,4325386,-0.00250004,0.00283049,0.000308061,0.0035653,0.00880223,-0.0681404,4988,4959,0
322108525,322108381,4259850,4325386,0.0025899,-0.000449189,0.000247483,-0.000914873,-0.00424211,-0.0344369,4973,4936,0
322612314,322612131,4259850,4325386,0.000471295,0.000380205,-0.000738912,0.000147672,-0.0146615,-0.0430658,4992,4937,0
323111043,323110930,4259850,4325386,0.00239629,-0.000565226,-0.000799776,0.00387524,-0.032998,-0.0272595,4989,4481,0
323609995,323609820,4259850,4325386,-0.000758644,-3.86161e-05,-1.37697e-05,0.00103173,-0.0255603,-0.0577777,5043,4930,0
324114093,324113968,4259850,4325386,0.002318,0.00106938,-0.00123376,-0.00543552,-0.06341,-0.0546007,4973,4971,0
324607927,324607784,4259850,4325386,-0.000439051,0.000288985,-0.000928214,-0.00195605,0.0279143,-0.0581931,4988,4796,0
325111681,325111570,4259850,4325386,0.00102269,0.00106067,0.00250832,-0.00489864,0.00349646,-0.0570269,4979,4970,0
325610507,325610375,4259850,4325386,0.00109341,-7.84802e-05,0.000725729,0.0041065,0.00624734,-0.0460557,4985,4935,0
326109309,326109178,4259850,4325386,-0.000161765,0.000254791,0.00157741,-0.00143292,0.0080976,-0.0474085,4983,4988,0
326612779,326612627,4259850,4325386,-0.00112204,0.000170378,-0.00059187,0.000771631,0.00569163,-0.0526956,4955,4936,0
327111537,327111418,4259850,4325386,0.00101227,-0.000226853,-0.000901237,0.00245271,-0.0267123,-0.0303097,4988,4939,0
327610701,327610570,4259850,4325386,-0.00108481,0.00048833,0.000620245,-0.00547973,0.020869,-0.056898,4989,4947,0
328109595,328109477,4259850,4325386,0.00092161,0.00321717,-0.000383529,-0.00203543,-0.0176674,-0.0535556,4982,4946,0
328612870,328612737,4259850,4325386,9.5738e-05,6.73457e-05,-0.00056728,0.00119218,-0.0285142,-0.0461878,5011,4891,0
329111642,329111512,4259850,4325386,0.00277999,-0.000628781,-0.000154035,0.00411363,-4.27891e-05,-0.0399955,4988,4967,0
329610934,329610347,4259850,4325386,0.00179939,0.000511749,0.000198222,-0.00307423,-0.016772,-0.0585833,4958,5930,0
330109752,330109643,4259850,4325386,0.000222909,-0.00016121,-0.000333412,0.00249407,-0.0192248,-0.0393589,4983,4979,0
330613017,330612900,4259850,4325386,0.000866906,0.000144924,-0.000217277,-0.00621867,-0.0125615,-0.0583307,4945,4944,0
331112145,331111707,4259850,4325386,0.000358268,0.00120598,0.000310749,-0.000556644,0.0240881,-0.0519835,4989,4970,0
331610935,331610737,4259850,4325386,-0.00128352,-0.00069747,0.00175866,0.0047053,0.0481203,-0.0530459,4967,4962,0
332109539,332109312,4259850,4325386,-0.000638255,-0.000623589,0.00284742,0.00312516,0.0553317,-0.0542974,4990,4976,0
332608421,332608231,4259850,4325386,0.00237081,0.000172368,0.000572839,-0.00322133,0.00341685,-0.0436632,4987,4987,0
333112255,333112089,4259850,4325386,0.00119629,-0.000693699,-0.000678527,0.00275806,-0.0268888,-0.0303568,4968,4937,0
333610814,333610702,4259850,4325386,-0.000120391,-0.000843764,0.000112316,-0.0022866,0.0108317,-0.0555352,4978,4955,0
334109624,334109504,4259850,4325386,-0.00122913,0.000631329,-0.000945856,0.00714479,-0.00760333,-0.047374,4988,4934,0
334613556,334613444,4259850,4325386,0.000742667,0.000304023,0.000562067,-0.00300461,-0.00644775,-0.0557966,4951,4933,0
335107278,335107162,4259850,4325386,0.00123093,0.00122542,-0.000417553,-0.00453885,-0.0503996,-0.0496123,4986,4796,0
335611649,335611350,4259850,4325386,0.00208878,-0.000272889,-0.000564834,0.00074053,-0.0302357,-0.0400802,4991,4986,0
336110305,336110172,4259850,4325386,-0.00101697,0.000866576,0.000189663,-0.00462329,0.0414543,-0.0462122,4984,4694,0
336609219,336609046,4259850,4325386,-0.00291507,0.000401791,-0.000140878,-0.00679101,-0.0181902,-0.0498893,4974,4936,0
337112861,337112740,4259850,4325386,-0.000541364,0.000348472,0.000483216,-0.00567295,0.0156766,-0.0590547,4986,4951,0
337611657,337611544,4259850,4325386,-0.000834064,0.000486964,0.0036588,-0.00108407,0.0192579,-0.0595802,4989,4934,0
338110796,338110398,4259850,4325386,-0.000310995,-0.0021854,0.0016715,-0.00850185,0.0162327,-0.0527266,4969,4787,0
338608805,338608696,4259850,4325386,-0.00327122,0.00480634,3.35021e-05,-0.00251232,0.0131311,-0.0480237,4982,4939,0
339107767,339107627,4259850,4325386,0.0048122,-0.00148257,-0.00103976,0.00204831,-0.0275432,-0.0339339,5018,4915,0
339611410,339611290,4259850,4325386,-0.00233869,0.0002596,7.81065e-06,0.00736177,0.0230417,-0.0655927,4990,4983,0
340110207,340110088,4259850,4325386,-0.00282549,5.65444e-05,0.000140232,-0.00132847,0.0317496,-0.0596459,4988,4987,0
340609275,340609119,4259850,4325386,-0.00341369,0.00052149,0.00367626,-0.000696214,-0.0144252,-0.0625882,4951,4947,0
341107165,341107033,4259850,4325386,0.00124565,0.00106746,0.00164992,0.000920146,0.012012,-0.0426741,5038,4934,0
341610050,341609938,4259850,4325386,-0.00257724,-0.00202812,0.000767215,0.00197936,0.0199965,-0.0480194,4977,4965,0
342108880,342108742,4259850,4325386,0.00035906,0.000359482,-0.000440959,-0.00543434,-0.00470353,-0.0487586,4991,4940,0
342607648,342607537,4259850,4325386,0.000391784,-0.000208981,-0.000109223,-0.00387768,0.0124189,-0.0505697,4984,4986,0
343111964,343111334,4259850,4325386,-0.00344905,0.00146526,0.00111786,-0.00513113,-0.00135515,-0.0751658,4989,5927,0
343611249,343611132,4259850,4325386,0.00247047,0.000742905,0.000545692,0.000629586,-0.031841,-0.051419,4988,4785,0
344111416,344109978,4259850,4325386,0.00189296,0.00170288,0.00028481,0.00134123,0.00495862,-0.0561982,5032,4922,0
344614106,344613937,4259850,4325386,-0.00267002,-0.000465673,0.000345305,-0.000599077,0.0441161,-0.0540446,4967,4759,0
345112816,345112694,4259850,4325386,0.000785025,-0.000350228,-0.000932724,-0.0041734,-0.0336993,-0.0327064,4974,4783,0
345611441,345611327,4259850,4325386,0.00182479,0.000943074,-0.000119899,-0.00143149,0.0221559,-0.0400906,4988,4936,0
346110276,346110165,4259850,4325386,-0.0004153,0.000780111,-0.00094551,0.00454067,-0.0449675,-0.051585,4950,4937,0
346609051,346608934,4259850,4325386,-0.00238184,0.000566632,7.28641e-05,-0.00304435,-0.0126585,-0.0622995,4987,4942,0
347112832,347112720,4259850,4325386,0.000182356,0.00016237,0.000911958,0.00821146,-0.0120959,-0.0541364,4985,4964,0
347611969,347611712,4259850,4325386,0.00220679,-0.00462898,-0.000329404,-0.00458697,-0.0058767,-0.0458804,4959,4934,0
348110475,348110326,4259850,4325386,-0.000470915,0.000608289,0.00176074,0.00292879,0.00758305,-0.0432662,4990,4939,0
348610188,348609949,4259850,4325386,0.000498143,-0.000161775,0.000623578,0.00460423,-0.0248297,-0.0461789,5264,6004,0
349109349,349109164,4259850,4325386,0.0030471,-0.00057983,-0.00117745,0.00419779,-0.0420285,-0.0382812,4976,4969,0
349607850,349607739,4259850,4325386,9.32835e-05,9.83445e-05,-0.000118446,0.00216917,0.0090352,-0.0446919,5003,4994,0
350111802,350111692,4259850,4325386,-0.000142364,-0.000170321,-0.000930044,0.00241933,-0.0261164,-0.0467499,4989,4973,0
350610631,350610504,4259850,4325386,-0.000900199,-0.000683048,-0.0012588,0.00145366,-0.0164849,-0.0488353,4954,4935,0
351113931,351113662,4259850,4325386,0.000774575,-0.00166371,-0.000787898,-0.00610833,0.0112349,-0.0493182,4991,4960,0
351612958,351612810,4259850,4325386,0.00124886,-0.000802189,0.0014469,0.00061447,0.0389293,-0.045085,4943,4936,0
352111415,352111265,4259850,4325386,0.00215172,0.000321668,0.00151049,-0.000875452,0.0184852,-0.0413588,4990,4981,0
352610434,352610066,4259850,4325386,-0.000999418,-0.000140579,0.000318778,-0.00624814,0.00135404,-0.0536565,4972,4938,0
353109200,353109032,4259850,4325386,0.000113136,-0.00135815,-0.000517777,0.0036149,-0.0308526,-0.031853,4965,4944,0
353608936,353607670,4259850,4325386,0.000479712,4.7842e-05,0.000148269,-0.000835063,0.0089098,-0.0412708,4983,4758,0
354111601,354111460,4259850,4325386,0.00091457,-0.000572664,-0.000574947,-0.00521842,-0.0163685,-0.0510578,4962,4750,0
354610937,354610592,4259850,4325386,0.000711538,-0.00185628,-0.000540435,-0.00652948,-0.0309853,-0.0494918,4977,4935,0
355114168,355114054,4259850,4325386,0.00177478,0.00057046,-0.000593351,-0.00560942,-0.029711,-0.0413322,4991,5023,0
355612965,355612854,4259850,4325386,0.000814056,0.00079126,-0.000170525,-0.00375525,-0.00609038,-0.0576974,4983,4965,0
356106928,356106817,4259850,4325386,-0.000812427,-0.00155998,-0.000327691,-0.000941374,-0.00115586,-0.041887,4952,4673,0
356610616,356610457,4259850,4325386,-0.00270216,-0.00134856,0.000159741,-0.00318898,0.0112211,-0.0521547,4986,4946,0
357109497,357109384,4259850,4325386,-0.000469725,0.000231643,0.000481471,0.00114258,0.0397517,-0.0388966,4978,4779,0
357608623,357608513,4259850,4325386,0.00104814,0.000564975,1.99353e-05,-0.00471537,-0.000312443,-0.0502304,4988,4935,0
358113074,358112806,4259850,4325386,-0.000590225,0.000344809,0.000446954,-0.00247609,0.00482483,-0.0623435,4992,4933,0
358611898,358611695,4259850,4325386,-0.00269243,0.000354746,0.000127117,-0.00445552,0.00352374,-0.0632847,4990,4936,0
359110569,359110449,4259850,4325386,-0.000680566,-7.90334e-05,0.00251556,0.00994486,0.019426,-0.0524118,4987,4936,0
359610081,359609947,4259850,4325386,0.000569592,-0.000527285,0.0018423,-0.00108622,0.00574362,-0.0398107,4968,4967,0
360107701,360107559,4259850,4325386,0.000886947,-1.31304e-05,0.000421836,-0.000715651,0.0413747,-0.0406732,5035,4931,0
360612611,360611304,4259850,4325386,0.00186104,0.000268654,-0.00115334,-0.001828,-0.0241797,-0.0482689,4995,4936,0
361110264,361110112,4259850,4325386,-0.00252026,2.28421e-06,0.00102185,-0.00545481,0.0462468,-0.0451721,4957,4962,0
361609049,361608907,4259850,4325386,0.00142836,0.000253044,-0.00125757,-0.00292344,-0.0313264,-0.0331824,4989,4937,0
362112831,362112697,4259850,4325386,0.0016678,-0.000303751,-0.000453698,-0.00268845,-0.0208739,-0.0464517,4982,4982,0
362611612,362611499,4259850,4325386,0.00208671,-0.000718822,-0.000304116,3.99941e-05,-0.0168833,-0.0399699,4987,4937,0
363110401,363109856,4259850,4325386,0.00124363,-2.54736e-05,4.89422e-05,-0.00387602,0.0183707,-0.0528295,4992,4961,0
363608782,363608653,4259850,4325386,-0.00188095,-0.00038423,0.000605849,0.000409924,-0.00990584,-0.0484241,4973,4971,0
364112176,364112039,4259850,4325386,0.000805004,3.78059e-05,0.00213824,-0.000507743,-0.0104447,-0.0473011,4985,4984,0
364610902,364610748,4259850,4325386,0.000637086,-0.00032996,0.000715026,-0.00292457,0.0328244,-0.0520178,4960,4936,0
365109618,365109500,4259850,4325386,0.00177437,-0.000274667,-0.000473246,0.00109712,-0.016844,-0.0335089,4987,4965,0
365613313,365613095,4259850,4325386,-0.000567412,0.000108647,-8.39812e-05,0.000304224,-0.0107423,-0.0504739,4996,4937,0
366111735,366111597,4259850,4325386,0.00193122,-0.000661197,0.00204647,0.00642107,0.0511866,-0.0432812,4987,4940,0
366610510,366610397,4259850,4325386,-0.0015777,0.000504454,0.000683105,-0.00250111,-0.00494234,-0.0576502,4987,4992,0
367109394,367109279,4259850,4325386,0.000309858,-0.00146998,-0.000277969,0.00956033,0.0223042,-0.0354542,4977,4949,0
367608120,367608003,4259850,4325386,-0.000712599,-0.000343585,0.000187318,-0.00132329,0.0150985,-0.0387747,4984,4963,0
368112208,368111793,4259850,4325386,0.000828223,0.00245358,-0.00145803,0.000848294,-0.0405342,-0.0457381,4982,4963,0
368610907,368610791,4259850,4325386,-0.00234625,-0.000812668,0.000494403,-0.00696207,-1.07593e-06,-0.0615678,4973,4944,0
369109509,369109397,4259850,4325386,-0.00225546,-0.000631846,-0.00107546,-0.0167036,-0.0425498,-0.0567043,4988,4960,0
369613313,369613194,4259850,4325386,0.00174787,-1.48058e-05,-0.000351185,-0.00257709,-0.00636878,-0.039131,4994,4970,0
370107214,370107071,4259850,4325386,-0.00306028,0.000155757,-0.00021268,0.00189602,-0.0192326,-0.0501684,4971,4966,0
370611100,370610795,4259850,4325386,-0.000543846,-7.48997e-05,0.000695374,0.0013516,0.0488704,-0.0573306,4991,5840,0
371110219,371110093,4259850,4325386,0.00092196,-7.4245e-05,-0.000518945,-0.000245533,-0.0241249,-0.0394525,4987,4789,0
371609007,371608897,4259850,4325386,0.0013544,-0.000480644,-0.000112863,0.005923,0.0277989,-0.040351,4985,4994,0
372112852,372112737,4259850,4325386,0.000442327,-0.00308484,0.00032457,0.00266676,0.0151987,-0.0459288,4988,4935,0
372611935,372611761,4259850,4325386,0.000296042,0.000733763,-0.000267303,0.00330459,-0.00194946,-0.0525071,5260,4953,0
373110412,373110292,4259850,4325386,-0.00134227,0.000362058,-0.000225963,-0.00648439,-0.00114287,-0.0600819,4988,5002,0
373609265,373609096,4259850,4325386,0.000572875,-0.000204372,-0.000472624,-0.00238441,-0.022191,-0.0347612,4990,4950,0
374113312,374113132,4259850,4325386,0.00128829,-7.12509e-05,-0.000320269,0.00227923,0.00405536,-0.0330006,4987,5000,0
374611825,374611710,4259850,4325386,0.000107583,0.00537213,0.00207602,-0.0142773,0.0214147,-0.02203,5011,4904,0
375110846,375110610,4259850,4325386,0.0424677,-0.0171692,0.00780372,-0.314807,-0.336882,-0.493456,4991,4969,0
375609654,375609502,4259850,4325386,-0.00923925,-0.00164874,0.00145577,-0.0143765,0.0906592,-0.0112467,4963,4937,0
376115479,376113880,4259850,4325386,0.027548,-0.0598616,0.0149875,0.00999784,-0.15422,-0.0317679,4970,5927,0
376608200,376607986,4259850,4325386,-0.00132921,0.00105735,0.000147692,0.022932,0.0370444,0.0867482,4989,4987,0
377107322,377107197,4259850,4325386,-0.000441153,-0.000931356,0.00106309,0.018469,0.0155805,0.0533857,4988,4934,0
377611172,377611052,4259850,4325386,0.000365397,0.000283238,0.000315337,0.00469785,0.0184685,0.0478377,5053,4927,0
378109943,378109793,4259850,4325386,-5.99656e-05,-8.39161e-06,-1.2316e-06,0.00541731,0.014852,0.0463438,4992,4977,0
378608724,378608592,4259850,4325386,-3.95982e-05,5.31876e-07,3.74088e-05,0.0044427,0.0159495,0.0454536,4988,4933,0
379112508,379112383,4259850,4325386,1.27025e-05,4.74408e-05,-1.95491e-05,0.00438982,0.0157396,0.046016,4987,4954,0
379611544,379611243,4259850,4325386,0.00115692,-0.00044694,0.000493473,0.00577765,0.0143135,0.047251,5045,4914,0
380110105,380109988,4259850,4325386,0.0111399,-0.000248579,-0.0021072,-0.00168509,0.0383419,0.0170764,4988,4940,0
380608450,380608292,4259850,4325386,0.00795828,0.0013009,0.00026711,-0.00348586,0.043062,-0.0271349,4988,4941,0
381112205,381112085,4259850,4325386,0.00481347,0.0011075,-0.00040295,-0.0100676,0.0422679,-0.0539333,4991,4972,0
381611019,381610885,4259850,4325386,0.00460684,3.20219e-06,0.000408681,-0.00361312,0.00742792,-0.0475053,4987,4988,0
382110236,382109692,4259850,4325386,0.000639829,1.6377e-05,-0.000118971,-0.00652925,0.00188949,-0.0452195,4992,4983,0
382613719,382613560,4259850,4325386,-0.000237723,0.000113847,-0.000229211,-0.00830045,-0.00436643,-0.0575623,4984,4987,0
