timestamp,timestamp_sample,hover_thrust,hover_thrust_var,accel_innov,accel_innov_var,accel_innov_test_ratio,accel_noise_var,valid
34525181,34523865,0.53847694,0.0008714865,-0.1081593,4.558786,0.0002851255,4.2897286,0
34545003,34543727,0.53894997,0.00082843937,-0.15314579,4.512656,0.00057747785,4.24978,0
34624895,34623325,0.5466034,0.00068281696,-1.171408,4.337269,0.035152607,4.110473,0
34723718,34722487,0.5536386,0.00053989264,-2.2601018,4.185815,0.13559182,3.9903812,0
34823367,34821802,0.5672122,0.00043954398,-0.8905907,4.054343,0.021736685,3.878349,0
34922374,34921111,0.5677593,0.00037646125,-0.5177233,3.8559017,0.007723728,3.7100177,0
35022065,35020433,0.5732392,0.00032915577,-1.9091649,3.6739905,0.11023166,3.5738192,0
35121374,35119732,0.5693529,0.00029266725,-0.2803504,3.5716245,0.0024450854,3.4563901,0
35225238,35224008,0.5657903,0.0002617693,1.5948498,3.4152434,0.082751416,3.335949,0
35324686,35323364,0.56637365,0.0002354777,1.1047599,3.315521,0.040901717,3.2303216,0
35423910,35422797,0.56180143,0.00021308335,1.87096,3.2255864,0.12058071,3.16559,0
35523262,35521944,0.5537242,0.00019335016,1.0140979,3.21134,0.03558205,3.1270056,0
35622444,35621259,0.54685664,0.00017584594,1.1015158,3.1321177,0.04304283,3.0511668,0
35721853,35720563,0.5387965,0.00016025422,2.369785,3.0480123,0.20471928,3.0012531,0
35821242,35819874,0.53200847,0.00014622915,1.5119917,2.9784074,0.08528492,2.9067292,0
35940439,35939124,0.52819794,0.00013114723,0.04419589,2.8407285,7.639968e-05,2.7648866,0
36024810,36023462,0.5281885,0.00012226813,0.30857897,2.7397666,0.0038616827,2.6668196,0
36124173,36122772,0.52790344,0.000112306785,-1.1869022,2.6151795,0.059852988,2.5707898,0
36223299,36222159,0.53358424,0.00010396417,-0.3605711,2.6608787,0.00542893,2.6004322,0
36327923,36326360,0.5362317,9.710598e-05,0.31483406,2.7009664,0.004077573,2.6405563,0
36426982,36425671,0.53470844,9.1051545e-05,-0.97950876,2.5927925,0.04111558,2.5470326,0
36526365,36524992,0.53489804,8.557103e-05,1.5568677,2.5269995,0.1065751,2.4911013,0
36625525,36624296,0.53599966,8.0521335e-05,-0.9978289,2.4494157,0.045165535,2.4080305,0
36724920,36723606,0.5365105,7.597557e-05,0.82044566,2.3675675,0.031590372,2.3229265,0
36829044,36827900,0.5358947,7.1755734e-05,0.61949223,2.2772684,0.018724706,2.2323124,0
36928555,36927209,0.53676647,6.783299e-05,0.29992795,2.1837177,0.0045771473,2.138932,0
37027779,37026571,0.538432,6.418e-05,-0.70783293,2.1324475,0.02610602,2.0937138,0
37127231,37125814,0.53872097,6.0894297e-05,0.25919503,2.0376878,0.0036633061,1.9975563,0
37226442,37225126,0.5393024,5.784136e-05,-0.22257194,1.9430896,0.0028327322,1.9048388,0
37326068,37324439,0.5398697,5.4977765e-05,-0.01711382,1.8525532,1.7566315e-05,1.8159709,0
37424862,37423748,0.54286456,5.2264026e-05,-1.8573486,1.8068644,0.21213815,1.7996737,0
37524360,37523061,0.5441432,4.984112e-05,0.020169169,1.7843499,2.5331066e-05,1.7505729,0
37623778,37622370,0.5457022,4.7548765e-05,-1.0055094,1.7092191,0.065725215,1.682616,0
37722807,37721681,0.54267675,4.5426783e-05,1.7784357,1.7259859,0.20360883,1.7273165,0
37822465,37821000,0.540954,4.350489e-05,0.45878965,1.704925,0.013717642,1.6758126,0
37926655,37925269,0.5402284,4.1709263e-05,0.6557309,1.6276681,0.029352354,1.6019717,0
38026306,38024633,0.5384333,4.000525e-05,0.10856176,1.5839717,0.0008267302,1.555314,0
38125201,38124065,0.539114,3.839905e-05,1.3577476,1.5379298,0.13318615,1.5267591,0
38224576,38223203,0.5384137,3.6882833e-05,0.8403327,1.4931831,0.052546877,1.4720806,0
38323793,38322513,0.53832424,3.5419347e-05,-0.20962326,1.4435333,0.0033822807,1.4185573,0
38423209,38421824,0.5384661,3.4021563e-05,-0.26423857,1.4070594,0.005513628,1.3831104,0
38522433,38521135,0.5391304,3.2701395e-05,-0.79922754,1.3590697,0.05222238,1.3416874,0
38621840,38620468,0.539133,3.144347e-05,-0.46647653,1.3214444,0.018296506,1.3005344,0
38725881,38724723,0.5389904,3.0245896e-05,0.8018661,1.2811669,0.055764202,1.2644576,0
38825176,38824034,0.53880584,2.9105915e-05,1.5104271,1.2360839,0.2050733,1.2355316,0
38924576,38923469,0.5394783,2.804816e-05,-0.39394087,1.2210735,0.014121401,1.2015597,0
39023991,39022660,0.5388299,2.7039947e-05,-0.4865682,1.2029988,0.021866525,1.1850474,0
39123195,39121967,0.53876996,2.607205e-05,-0.6634946,1.158601,0.042218067,1.1434151,0
39227626,39226244,0.5379789,2.5150715e-05,-0.29254532,1.148836,0.008277244,1.1280928,0
39327145,39325555,0.5382117,2.4266445e-05,-0.7237991,1.1254667,0.051720288,1.112082,0
39426556,39424866,0.53849185,2.3417204e-05,-0.47551265,1.0886619,0.023077492,1.0726048,0
39520638,39519212,0.54024994,2.2606253e-05,-1.7014638,1.0805621,0.2976824,1.0888039,0
39629625,39628454,0.5410933,2.186401e-05,-0.22427213,1.0803059,0.005173225,1.0625911,0
39729002,39727895,0.5420226,2.1146194e-05,-1.0889924,1.036628,0.12711132,1.0282202,0
39828495,39827129,0.5424214,2.0450298e-05,-0.68951744,1.0069946,0.052459106,1.0,0
39927926,39926387,0.5421872,1.9785355e-05,0.3190785,1.006804,0.011235896,1.0,0
40021947,40020733,0.542591,1.9158602e-05,-0.040597662,1.0066323,0.00018192346,1.0,0
40121226,40120047,0.542416,1.85698e-05,-0.01420477,1.0064486,2.2275852e-05,1.0,0
40220489,40219352,0.5426873,1.8018762e-05,0.0387038,1.006214,0.00016541478,1.0,0
40330280,40328603,0.54271024,1.7506132e-05,0.35997736,1.0060198,0.014312034,1.0,0
40429135,40427909,0.54258233,1.7021255e-05,-0.030674964,1.0058656,0.000103940714,1.0,0
40528664,40527293,0.54359657,1.6563112e-05,-1.0098453,1.0085577,0.11234828,1.0005726,0
40627740,40626534,0.54395485,1.6131107e-05,-1.2326665,1.0062484,0.16778126,1.00247,0
40727410,40725842,0.54452866,1.5723728e-05,-0.7476971,1.0219128,0.06078481,1.0098633,0
40826368,40825153,0.5446354,1.5338393e-05,0.76099944,1.0052472,0.06401081,1.0,0
40925844,40924504,0.5450654,1.4971365e-05,0.19936967,1.0091062,0.00437662,1.0,0
41024871,41023775,0.54571074,1.4626078e-05,-0.17748483,1.0145293,0.0034499704,1.0,0
41124448,41123088,0.5455963,1.4298322e-05,-0.19384822,1.0048509,0.0041550817,1.0,0
41223802,41222397,0.5460387,1.3985812e-05,-0.17282915,1.0099397,0.0032862157,1.0,0
41322916,41321732,0.54622275,1.3686889e-05,0.15612021,1.0046483,0.0026956387,1.0,0
41427404,41425985,0.5466263,1.3403271e-05,-1.2166895,1.0045332,0.16373922,1.0003469,0
41526915,41525297,0.5470591,1.3134169e-05,1.1018462,1.0043641,0.13430998,1.0069946,0
41626444,41624792,0.54706943,1.2880631e-05,-0.22708893,1.0042454,0.0057057077,1.0,0
41725119,41723919,0.5469632,1.2639832e-05,-0.5432648,1.0041397,0.03265777,1.0,0
41824603,41823235,0.5468555,1.24111475e-05,-0.33955154,1.004033,0.012759126,1.0,0
41928706,41927507,0.54708964,1.2193803e-05,0.7087528,1.0039301,0.05559601,1.0,0
42028231,42026818,0.54706407,1.1984391e-05,-1.0042827,1.0038582,0.11163415,1.0,0
42127295,42126138,0.5468978,1.1784683e-05,-0.36015207,1.0037589,0.014358196,1.0,0
42221696,42220514,0.5470176,1.1592764e-05,-1.6630774,1.0047498,0.30586126,1.0147396,0
42321098,42319785,0.54685116,1.1413544e-05,0.11713162,1.006093,0.001515192,1.0,0
42420821,42419229,0.5468841,1.123967e-05,-0.94464827,1.0034932,0.098806,1.0,0
42529562,42528339,0.5465755,1.1074203e-05,0.6953209,1.0034372,0.05353501,1.0,0
42629022,42627650,0.54714173,1.091103e-05,-0.9546037,1.003404,0.100908525,1.0,0
42728045,42726961,0.54704,1.0754693e-05,-0.16382101,1.0078186,0.0029587916,1.0,0
42827574,42826273,0.5469705,1.0603459e-05,0.62195647,1.0055996,0.042741757,1.0,0
42926734,42925591,0.5468467,1.04559e-05,-0.3282583,1.0032777,0.011933499,1.0,0
43026487,43024900,0.54641837,1.031233e-05,1.8211894,1.0041935,0.36698666,1.0232404,0
43125520,43124209,0.54658467,1.0171346e-05,-0.5145355,1.0062848,0.029232584,1.0,0
43224983,43223633,0.54667866,1.0031325e-05,1.0200337,1.0032523,0.11523288,1.0007253,0
43324205,43322828,0.54679894,9.894668e-06,-0.8178459,1.0032382,0.07407921,1.0,0
43423410,43422139,0.5472769,9.76204e-06,-0.8981297,1.0032071,0.08933981,1.0,0
43528069,43526416,0.5468274,9.63487e-06,0.6922813,1.0055435,0.052956812,1.0,0
43627094,43625735,0.5473761,9.509818e-06,-0.08012967,1.0160012,0.0007021825,1.0029411,0
43726745,43725040,0.54662305,9.390266e-06,-0.22804634,1.0230931,0.00564792,1.0105709,0
43825473,43824350,0.54673153,9.273294e-06,1.434583,1.0030282,0.22797945,1.01024,0
43924944,43923661,0.5460883,9.164098e-06,-0.9417959,1.0400414,0.094758995,1.0369456,0
44024235,44023099,0.5472776,9.064699e-06,-0.30564508,1.1352485,0.009143266,1.1216413,0
44123696,44122283,0.54633576,8.973109e-06,1.2047147,1.1547074,0.13965419,1.1534572,0
44222962,44221594,0.5465268,8.882936e-06,-0.9513208,1.1181859,0.08992853,1.1136011,0
44322291,44320914,0.54698944,8.793156e-06,0.42856398,1.1126894,0.018340658,1.1011139,0
44421483,44420217,0.54611963,8.707143e-06,0.38600567,1.1501195,0.014394675,1.1369367,0
44520803,44519528,0.5454869,8.624269e-06,0.91833645,1.1293314,0.08297356,1.1211541,0
44625156,44623805,0.5451115,8.546314e-06,-0.95806825,1.1326488,0.090044074,1.1317191,0
44724446,44723117,0.5464057,8.47652e-06,-1.7840974,1.2800019,0.276302,1.2952096,0
44823643,44822457,0.5472368,8.418172e-06,0.33297455,1.3793341,0.008931206,1.3655062,0
44927873,44926704,0.54764485,8.3624855e-06,-1.1058943,1.3419579,0.101261854,1.3340591,0
45027580,45026015,0.5478582,8.303946e-06,0.2994566,1.296557,0.00768482,1.2839204,0
45126999,45125514,0.54694384,8.247647e-06,1.5954227,1.3847322,0.20424114,1.3950685,0
45225999,45224637,0.5461684,8.199215e-06,0.11196427,1.4889593,0.00093547796,1.4717944,0
45325171,45323949,0.54661554,8.151966e-06,0.24279445,1.4765718,0.0044358866,1.4600661,0
45429795,45428225,0.5465841,8.106035e-06,-1.0230026,1.4565574,0.07983318,1.4500285,0
45528765,45527536,0.5466991,8.059291e-06,0.7463205,1.407803,0.043960873,1.3972206,0
45628218,45626870,0.5466369,8.011304e-06,0.8242261,1.4163971,0.053292386,1.4067086,0
45727429,45726159,0.5460655,7.964474e-06,1.0096171,1.4564565,0.077763066,1.4476962,0
45827112,45825470,0.5462025,7.919721e-06,0.40054488,1.435053,0.012422011,1.4195687,0
45925954,45924929,0.5464359,7.874519e-06,-1.4899566,1.4093287,0.17502192,1.4152633,0
46025398,46024092,0.5461807,7.829565e-06,0.903946,1.3928242,0.06518477,1.3836185,0
46124539,46123404,0.5463612,7.783286e-06,0.43648556,1.3522642,0.015654374,1.3381864,0
46229045,46227684,0.546572,7.735862e-06,-1.4727039,1.3103055,0.18391444,1.317424,0
46328111,46326991,0.5466515,7.687916e-06,-0.43296915,1.3015565,0.016003257,1.2878983,0
46427646,46426342,0.54664516,7.638895e-06,-0.40327373,1.2583672,0.014359852,1.2449539,0
46526754,46525614,0.54677105,7.588124e-06,-0.751565,1.2113885,0.05180923,1.2019395,0
46626328,46624926,0.5471511,7.5358626e-06,-0.3458239,1.1922678,0.0111453505,1.1787332,0
46725387,46724353,0.54716814,7.4826266e-06,0.74193954,1.1455579,0.05339216,1.1388456,0
46824929,46823548,0.5464081,7.4323693e-06,0.7713296,1.1990819,0.05513008,1.1903005,0
46924287,46922859,0.54629785,7.3823603e-06,-0.6132548,1.1612772,0.03598351,1.1517922,0
47023455,47022171,0.5463215,7.3296596e-06,-0.6212156,1.1239014,0.038151708,1.1148223,0
47122904,47121480,0.54607695,7.2759294e-06,1.8581303,1.1050646,0.347154,1.1229247,0
47221871,47220792,0.5459545,7.2244106e-06,-1.1366726,1.104225,0.13000818,1.1057446,0
47321380,47320103,0.54595506,7.173386e-06,0.09874071,1.1132042,0.00097313966,1.0999566,0
47420584,47419415,0.54624254,7.1218774e-06,0.7652909,1.0984077,0.05924436,1.0906122,0
47529862,47528756,0.54646987,7.0738197e-06,-0.5634714,1.0982509,0.03212178,1.0880517,0
47624271,47623008,0.54706204,7.024509e-06,0.14101754,1.1185057,0.0019754479,1.1059097,0
47723901,47722326,0.5473207,6.979015e-06,-0.8582996,1.1443429,0.07152851,1.1359391,0
47828164,47826599,0.54681563,6.937327e-06,0.8861466,1.1708666,0.074518,1.1647184,0
47927513,47925904,0.5470163,6.8946747e-06,-1.4883504,1.1419181,0.2155425,1.148226,0
48026392,48025243,0.5465169,6.853453e-06,1.0637032,1.1756727,0.106933065,1.1724914,0
48125913,48124524,0.5468651,6.8138274e-06,-0.34099168,1.180659,0.010942601,1.1677809,0
48225049,48223835,0.5470694,6.7705287e-06,-1.6977617,1.165791,0.27471995,1.1778092,0
48324523,48323193,0.54722095,6.729291e-06,-0.9162437,1.1564004,0.080662414,1.1494745,0
48423652,48422458,0.54695994,6.6913285e-06,-1.6537892,1.1729861,0.25907463,1.1847916,0
48523172,48521799,0.5468069,6.6556777e-06,1.4088755,1.1991893,0.18391407,1.2049162,0
48622594,48621258,0.5463863,6.6237494e-06,-0.8167155,1.2314609,0.06018364,1.2250845,0
50425662,50423579,0.54705554,6.00444e-06,0.34156552,1.0019784,0.012937406,1.0,0
50529019,50527859,0.5472752,5.9716845e-06,0.99193096,1.0074605,0.10851564,1.0093523,0
50628355,50627169,0.5476174,5.938918e-06,-0.4143939,1.0018663,0.019044712,1.0,0
50727579,50726489,0.54732674,5.907444e-06,1.4877745,1.0064629,0.24436213,1.0203534,0
54427092,54425823,0.54963106,5.098897e-06,0.46747643,1.1409062,0.021282712,1.132425,0
54526968,54525238,0.5496742,5.0861e-06,0.7354249,1.0922321,0.055019826,1.0882597,0
54625738,54624446,0.5493825,5.0735507e-06,-0.18377143,1.10663,0.0033908694,1.0942096,0
54725121,54723761,0.549498,5.0602694e-06,-1.1610703,1.0710384,0.13985227,1.0694553,0
54829181,54828036,0.5494201,5.0486065e-06,-0.14638166,1.0986363,0.0021670896,1.0836973,0
54928914,54927345,0.5496632,5.0353465e-06,-1.628878,1.0787889,0.2732739,1.0883019,0
55028051,55026656,0.5496902,5.021861e-06,-0.5750593,1.0554963,0.03481176,1.0454236,0
55122134,55121002,0.5498359,5.0057924e-06,-0.05969192,1.0151125,0.0003900088,1.0036145,0
55221724,55220314,0.5495117,4.9904825e-06,0.9241691,1.0058099,0.09435056,1.0039393,0
55320863,55319729,0.54989785,4.975776e-06,-1.5937023,1.0087075,0.27977356,1.0179483,0
55430189,55428938,0.55050486,4.9658843e-06,-1.139298,1.0474427,0.13768983,1.0416133,0
55529600,55528178,0.5505166,4.953609e-06,0.4158345,1.006279,0.01909326,1.0,0
55628666,55627490,0.5504615,4.940173e-06,-1.4615474,1.0015635,0.23697622,1.0054047,0
55728356,55726799,0.5507354,4.927716e-06,1.6401895,1.0452946,0.28596103,1.0684727,0
55827524,55826112,0.5508736,4.9161918e-06,0.40393206,1.0754066,0.016857821,1.067577,0
55926705,55925424,0.5507722,4.904727e-06,-1.0387249,1.0659513,0.11246599,1.0606189,0
56025955,56024739,0.5509579,4.8932993e-06,1.3247027,1.0543356,0.18493347,1.0661877,0
56125292,56124086,0.55104756,4.881671e-06,0.7554594,1.0400311,0.060972422,1.0377756,0
56224937,56223357,0.5509355,4.870478e-06,-0.6242642,1.0480496,0.04131545,1.0381163,0
56323829,56322669,0.5510876,4.858833e-06,-0.0059751943,1.0023249,3.957792e-06,1.0,0
56423489,56422145,0.5511745,4.8469533e-06,-0.01788751,1.0015181,3.5497556e-05,1.0,0
56522670,56521292,0.55125004,4.834879e-06,-1.6748047,1.0015275,0.31118804,1.0114459,0
56622216,56620603,0.55147713,4.8231636e-06,-0.72016424,1.0015349,0.05753796,1.0,0
56726003,56724881,0.55116564,4.81288e-06,1.216525,1.0107409,0.16268957,1.0172935,0
56825516,56824202,0.55094576,4.8026445e-06,-1.2342056,1.035214,0.16349423,1.0366688,0
56924780,56923525,0.5510994,4.7918543e-06,-0.72511727,1.0045222,0.058158666,1.0,0
57029183,57027779,0.55143714,4.7821845e-06,-1.1165557,1.0014895,0.13831581,1.0,0
57128379,57127091,0.5514247,4.7716517e-06,0.29967678,1.0014813,0.009963704,1.0,0
57227979,57226558,0.5513544,4.7611916e-06,0.4901594,1.0103126,0.026422651,1.0025073,0
57326878,57325720,0.55137485,4.7504786e-06,-0.09262293,1.0067,0.00094687875,1.0,0
57426396,57425072,0.55153906,4.739918e-06,0.56528324,1.0014867,0.03545231,1.0,0
57520750,57519370,0.5514213,4.7283656e-06,0.5514423,1.001484,0.03373756,1.0,0
57630174,57628612,0.55144775,4.720506e-06,1.2308495,1.00149,0.16808183,1.0076284,0
57729299,57727958,0.5516529,4.710751e-06,1.0520449,1.0176545,0.120844156,1.0195526,0
57828567,57827235,0.5515763,4.7020844e-06,-0.13725108,1.0285245,0.0020350467,1.0170007,0
57927711,57926554,0.55130243,4.692962e-06,0.094105214,1.0122315,0.0009720867,1.0009604,0
58027356,58026024,0.5512579,4.6833843e-06,-0.74697953,1.0014744,0.061906334,1.0,0
58126515,58125217,0.55089486,4.674283e-06,1.2234377,1.018374,0.16331042,1.019819,0
58225830,58224481,0.55086344,4.6655596e-06,0.07335695,1.0014503,0.00059704983,1.0,0
58325199,58323792,0.550812,4.656288e-06,0.9524145,1.001474,0.100639805,1.0,0
58424314,58423103,0.55102193,4.646905e-06,-0.0066398866,1.0246209,4.7809654e-06,1.0130938,0
58523823,58522416,0.55098236,4.6372165e-06,1.1243176,1.0014881,0.14024577,1.001805,0
58628039,58626691,0.5511598,4.6288014e-06,-0.70939845,1.0020651,0.05580101,1.0,0
58727401,58726003,0.5511013,4.619795e-06,1.3950119,1.001452,0.21591519,1.0089468,0
58826545,58825435,0.55112284,4.6115783e-06,-1.2185478,1.0042714,0.16428259,1.0076228,0
58925989,58924625,0.55092734,4.6034233e-06,-0.4781084,1.0200881,0.024898464,1.0113628,0
59025057,59023950,0.55099005,4.595828e-06,1.4579784,1.0209963,0.23133188,1.0294842,0
59124579,59123248,0.55115306,4.5885868e-06,-0.8218629,1.0567034,0.071023665,1.05134,0
59223694,59222560,0.55088156,4.58181e-06,-0.27670857,1.0557421,0.008058326,1.0450118,0
59323468,59321870,0.5512522,4.575421e-06,-0.1788137,1.0633825,0.0033409467,1.0517147,0
59427338,59426148,0.5509368,4.5709908e-06,0.1483615,1.0939268,0.0022356906,1.0818821,0
59526686,59525481,0.5509491,4.564722e-06,1.1435913,1.0469748,0.13879152,1.0474204,0
59625917,59624813,0.5510572,4.557353e-06,0.47396505,1.0270364,0.024303246,1.0176718,0
59725776,59724082,0.55105734,4.549115e-06,-0.55586827,1.0014634,0.034282003,1.0,0
59825101,59823395,0.5513403,4.5406227e-06,-1.3521056,1.0089474,0.2013308,1.0138313,0
59924014,59922877,0.5515173,4.532461e-06,-0.7285264,1.0277653,0.057379156,1.0200516,0
60028346,60026981,0.55137247,4.526305e-06,2.365631,1.0414212,0.59706986,1.087397,0
60127506,60126292,0.55144495,4.5215943e-06,-1.8900455,1.0962399,0.3620732,1.1163719,0
60221838,60220686,0.55184233,4.5174324e-06,-0.87798166,1.1318448,0.075673096,1.1273396,0
60321180,60319950,0.55184007,4.514051e-06,-0.6293421,1.1223097,0.03921194,1.1121367,0
60420740,60419303,0.5518281,4.509905e-06,1.2688247,1.0824203,0.16525887,1.089686,0
60529918,60528503,0.5517597,4.5074994e-06,1.3903307,1.054079,0.20376074,1.06416,0
60629196,60627816,0.5515614,4.502388e-06,0.4828958,1.0554798,0.024547903,1.0464256,0
60728593,60727301,0.55139524,4.4963967e-06,0.6885812,1.0266446,0.0513154,1.0197607,0
60827832,60826438,0.55151826,4.4897033e-06,-1.1057488,1.0298783,0.13191207,1.029674,0
60926909,60925767,0.5513522,4.483193e-06,-0.46645147,1.0197141,0.023707839,1.0105046,0
61026356,61025064,0.55131596,4.4761223e-06,0.4569143,1.001423,0.02316378,1.0,0
61125595,61124372,0.5514755,4.469122e-06,0.34145975,1.0014195,0.01293661,1.0,0
61225234,61223711,0.5514309,4.462301e-06,-0.8964345,1.0014224,0.08916148,1.0,0
61324104,61322995,0.55162287,4.455364e-06,-1.1793046,1.00143,0.15430814,1.0025876,0
61423632,61422306,0.5513715,4.4487256e-06,0.95198715,1.0268031,0.09806916,1.0239716,0
61523365,61521719,0.55150115,4.4427193e-06,1.1872863,1.020575,0.15346998,1.0234234,0
61622113,61620929,0.5508897,4.437901e-06,2.1791584,1.0656325,0.4951396,1.0947336,0
61721639,61720241,0.55076516,4.4345675e-06,-0.6415852,1.0783882,0.042412218,1.0726354,0
61825931,61824517,0.5510552,4.432272e-06,-1.3616376,1.1013241,0.18705332,1.1110796,0
61925506,61923828,0.5506766,4.429e-06,1.5365556,1.1207706,0.23406547,1.1270952,0
62024261,62023139,0.5504456,4.426529e-06,-0.90034133,1.1283443,0.0798234,1.1277653,0
62123730,62122451,0.5506975,4.423618e-06,-0.91786015,1.1122212,0.08416264,1.110364,0
62222958,62221765,0.5504502,4.420174e-06,0.37189877,1.0972865,0.014005124,1.0855243,0
62322505,62321199,0.5506698,4.4165513e-06,0.91814584,1.099987,0.08515169,1.0943522,0
62426578,62425351,0.5507946,4.4133776e-06,-1.3373733,1.0652083,0.18656415,1.0723876,0
62526026,62524662,0.5507438,4.4090352e-06,0.824356,1.0707902,0.0705152,1.0645065,0
62630312,62628939,0.55080205,4.4052645e-06,-0.30276573,1.0376441,0.009815726,1.025058,0
62729597,62728250,0.55023456,4.39997e-06,1.6634747,1.075453,0.28588966,1.084929,0
62828634,62827561,0.55035895,4.395893e-06,-0.32914144,1.0592015,0.011364335,1.0495338,0
62928238,62926873,0.5504101,4.3907603e-06,-1.2999703,1.0168071,0.18466549,1.0249155,0
63027373,63026208,0.55027837,4.384893e-06,-0.13968726,1.0014224,0.0021649792,1.0,0
63126941,63125549,0.55030006,4.3784494e-06,-1.6224555,1.0014349,0.29206556,1.0197275,0
63226170,63224807,0.55008644,4.372404e-06,0.7907034,1.003324,0.069237836,1.0,0
63325481,63324118,0.5502581,4.366649e-06,0.5004556,1.0013965,0.027789617,1.0,0
63425003,63423620,0.5501831,4.3611e-06,-0.3207691,1.0013897,0.011416669,1.0,0
63528834,63527707,0.5503875,4.356922e-06,0.005302433,1.0106966,3.090915e-06,1.0,0
63628219,63627018,0.5505898,4.3515092e-06,-0.35487348,1.0197312,0.013722045,1.009531,0
63727562,63726330,0.5507616,4.3460145e-06,-0.7163657,1.0014042,0.05694003,1.0,0
63826848,63825641,0.55069184,4.3404834e-06,1.91486,1.0062333,0.4048861,1.0318575,0
63926328,63924974,0.55089957,4.336331e-06,-0.1174684,1.0557206,0.0014522809,1.0439863,0
64025671,64024264,0.5511552,4.3322766e-06,-1.604572,1.0385528,0.2754529,1.0481893,0
64124895,64123575,0.5511455,4.3289783e-06,1.6427121,1.0379362,0.28887486,1.056785,0
64224466,64223034,0.5512822,4.32557e-06,-0.5587496,1.0290776,0.03370884,1.0192891,0
64323463,64322198,0.5513223,4.32096e-06,1.0629003,1.00137,0.12535684,1.0042909,0
64423193,64421510,0.55135167,4.3160594e-06,0.61705124,1.001378,0.042247586,1.0,0
64527005,64525786,0.551701,4.312923e-06,-0.17461118,1.0252851,0.0033041288,1.0114816,0
64626421,64625097,0.5511306,4.309422e-06,1.401278,1.0990322,0.19851609,1.1071947,0
64725514,64724409,0.5513696,4.307358e-06,0.49986112,1.1159523,0.02487772,1.1071347,0
64825085,64823720,0.5512685,4.30561e-06,-0.6774013,1.1142279,0.04575889,1.1056025,0
64924175,64923032,0.5514812,4.303129e-06,0.6147363,1.0938464,0.038386535,1.0869161,0
65024018,65022566,0.5516457,4.3003097e-06,-0.27032518,1.0647027,0.0076260935,1.0529684,0
65127953,65126620,0.5512941,4.2983665e-06,1.5602454,1.0855681,0.24916455,1.0986831,0
65227527,65225932,0.5512818,4.2966894e-06,0.1709644,1.0793002,0.0030090308,1.0677826,0
65326426,65325242,0.5512967,4.2947718e-06,-0.23174173,1.1022338,0.005413676,1.0905347,0
65426110,65424589,0.55119395,4.2924617e-06,0.782185,1.0674202,0.06368557,1.0616704,0
65525207,65523867,0.5510627,4.2890724e-06,0.23919195,1.0409347,0.006106989,1.0297741,0
65624444,65623177,0.55081,4.2851807e-06,1.5027395,1.0307184,0.24343604,1.0388025,0
65723891,65722512,0.5508645,4.2816346e-06,-0.057662904,1.0177001,0.0003630201,1.0065032,0
65823070,65821874,0.55103457,4.2773854e-06,-1.0774907,1.0029105,0.1286241,1.0034969,0
65927746,65926077,0.55124193,4.274296e-06,0.11194338,1.0013639,0.0013904725,1.0,0
66026555,66025388,0.5512531,4.2700776e-06,0.28217164,1.0013576,0.008834764,1.0,0
66126100,66124703,0.55130434,4.265987e-06,-1.1394217,1.0033609,0.14377034,1.0038756,0
66225386,66224012,0.55115414,4.262307e-06,0.9489772,1.0126164,0.09881528,1.010223,0
66324688,66323323,0.5513713,4.258834e-06,0.93094325,1.0109795,0.09524924,1.0092503,0
66428911,66427631,0.5511655,4.2568226e-06,-0.16879481,1.0193197,0.0031057415,1.0082245,0
66528269,66526911,0.5508352,4.2528845e-06,0.3052065,1.0104482,0.01024309,1.0,0
66627587,66626339,0.551174,4.248804e-06,-0.6927886,1.01364,0.052610833,1.006886,0
66721785,66720568,0.55085516,4.2440765e-06,0.7618963,1.0197612,0.063248575,1.0132021,0
66821684,66819879,0.55131453,4.241062e-06,-1.213573,1.0694362,0.15301514,1.0706488,0
66920689,66919375,0.55137634,4.238903e-06,0.5565902,1.0361114,0.03322172,1.028446,0
67029618,67028433,0.55104065,4.238509e-06,0.27998123,1.0361893,0.008405745,1.0252982,0
67129104,67127773,0.55100334,4.235076e-06,1.0054482,1.0013497,0.11217373,1.0,0
67228268,67227056,0.5513324,4.231468e-06,-0.783449,1.0215205,0.06676238,1.0154341,0
67327747,67326368,0.551208,4.227909e-06,-0.31115463,1.0013489,0.010742976,1.0,0
67426816,67425705,0.55142456,4.2243914e-06,-0.5180143,1.0013368,0.02977562,1.0,0
67526376,67524990,0.55150115,4.220956e-06,0.73496455,1.0013405,0.05993886,1.0,0
67625990,67624303,0.55121505,4.21769e-06,-0.53359973,1.0164747,0.031123765,1.0079417,0
67724954,67723797,0.5514624,4.214138e-06,-0.7014061,1.0013491,0.054589745,1.0,0
67824341,67822976,0.5512807,4.2107986e-06,1.8417939,1.0013237,0.37641338,1.0238308,0
67923463,67922242,0.55073345,4.2097354e-06,1.9004742,1.0749199,0.3733407,1.0935764,0
68022916,68021547,0.55040455,4.209481e-06,0.14883974,1.0964403,0.002244969,1.0844061,0
68122029,68120859,0.5507603,4.2084703e-06,-1.268191,1.1028432,0.16203657,1.1089745,0
68221543,68220171,0.5509383,4.2080173e-06,0.18988186,1.0983837,0.0036472906,1.0864986,0
68325767,68324447,0.5506417,4.2079732e-06,1.3917773,1.0628791,0.20249444,1.0670555,0
68424948,68423759,0.55052906,4.206563e-06,-0.6313477,1.0835451,0.04087406,1.0773029,0
68524357,68523254,0.5504093,4.2048064e-06,1.6151905,1.0463682,0.27702594,1.0557535,0
68628688,68627347,0.55035996,4.2038428e-06,-0.14383748,1.031921,0.002227692,1.021304,0
68727702,68726660,0.5504302,4.2008314e-06,0.20901504,1.0013415,0.00484764,1.0,0
68827351,68825970,0.5503987,4.197286e-06,0.44983435,1.007035,0.02232637,1.0,0
68926482,68925282,0.55057496,4.1936187e-06,0.2212306,1.0016513,0.005429143,1.0,0
69026156,69024599,0.55086696,4.1903613e-06,0.49919468,1.0353091,0.026744064,1.0263731,0
69130102,69128914,0.5504547,4.1887006e-06,1.8188053,1.0200477,0.36033747,1.0469304,0
69229494,69228206,0.5507782,4.1867206e-06,-0.40238932,1.0606463,0.016962107,1.0505527,0
69328639,69327606,0.55015254,4.18603e-06,2.091901,1.160129,0.4191153,1.1833637,0
69428199,69426805,0.55008113,4.1875937e-06,-0.29885405,1.1562015,0.008583062,1.1458548,0
69527478,69526117,0.5500145,4.1884086e-06,1.4140491,1.126099,0.19729221,1.1284871,0
69626804,69625427,0.54969716,4.188899e-06,0.040685214,1.1348288,0.00016206915,1.122936,0
69726347,69724738,0.54984665,4.188155e-06,-1.3946621,1.1017541,0.19616018,1.1143018,0
69825150,69824051,0.54973155,4.187723e-06,2.0487652,1.1375035,0.41000494,1.1580536,0
69924742,69923365,0.549713,4.1875855e-06,0.24086612,1.1375022,0.0056670452,1.1249899,0
70023790,70022673,0.5496443,4.1866424e-06,-0.38520938,1.105843,0.014909318,1.0969489,0
70123415,70122058,0.5495828,4.185032e-06,-0.68010503,1.066003,0.04821155,1.0616645,0
70222466,70221297,0.5496181,4.1825692e-06,-0.70827127,1.0294873,0.05414218,1.0255346,0
70322269,70320607,0.549664,4.1798125e-06,-1.5975591,1.0275561,0.27597252,1.0457026,0
70421622,70420117,0.5497145,4.1770804e-06,-1.238278,1.0213531,0.1668084,1.0278969,0
70525359,70524196,0.54983073,4.17524e-06,-1.1492078,1.0222342,0.14355034,1.0255762,0
70624625,70623508,0.549875,4.1718363e-06,-0.38673806,1.0013672,0.01659579,1.0,0
70724170,70722856,0.5499361,4.1681815e-06,-0.84360707,1.001362,0.07896721,1.0,0
70823457,70822130,0.5498186,4.1648027e-06,-0.90659213,1.0013552,0.091199666,1.0,0
70922661,70921460,0.54981166,4.1618705e-06,0.39906383,1.006321,0.017583515,1.0,0
71027029,71025724,0.54996604,4.1601215e-06,0.47065496,1.0013424,0.024579903,1.0,0
71126401,71125030,0.55002147,4.156968e-06,0.37483573,1.0013418,0.015590395,1.0,0
71225967,71224524,0.5501494,4.154186e-06,-1.855332,1.0140527,0.3771727,1.0353577,0
71324856,71323675,0.55030173,4.1527474e-06,-0.2275878,1.032908,0.005571779,1.0216932,0
71424331,71422965,0.55037916,4.1504354e-06,-0.45299092,1.001319,0.02277005,1.0,0
71528586,71527242,0.5507225,4.149307e-06,-1.5851574,1.0042951,0.27799752,1.0128369,0
71628160,71626553,0.5506003,4.147149e-06,0.053204983,1.0097154,0.00031150365,1.0,0
71727072,71725915,0.5504792,4.1444914e-06,0.20425966,1.0013343,0.0046296017,1.0,0
71826559,71825176,0.5502979,4.141714e-06,1.0396701,1.0013283,0.11994222,1.0013123,0
71925779,71924487,0.5499307,4.1409403e-06,-1.4718698,1.1088905,0.21707389,1.1199358,0
72025267,72023948,0.55009884,4.1408134e-06,-1.0567508,1.0865313,0.1141985,1.0857896,0
72124277,72123110,0.55021685,4.139953e-06,0.39218703,1.0755324,0.015889872,1.0653055,0
72223774,72222421,0.550301,4.1383646e-06,-0.39622134,1.0297289,0.016939878,1.0195426,0
72327796,72326698,0.55033505,4.1370818e-06,-0.66771233,1.0013347,0.04947172,1.0,0
72427373,72426043,0.55029076,4.134328e-06,0.12712629,1.0013325,0.0017932875,1.0,0
72526439,72525323,0.55009943,4.131777e-06,-0.009720951,1.0013182,1.0485833e-05,1.0,0
72626030,72624633,0.54994285,4.129429e-06,1.8199686,1.0055187,0.36601183,1.0247815,0
72725225,72723944,0.5499861,4.127075e-06,-0.4910721,1.0013396,0.026758797,1.0,0
72824513,72823355,0.5500999,4.124297e-06,-1.1450027,1.0063312,0.14475366,1.0081992,0
72923984,72922567,0.5498855,4.121488e-06,0.27448988,1.0079154,0.008305889,1.0,0
73023106,73021879,0.5497655,4.118626e-06,-1.0010409,1.001347,0.111192785,1.0017512,0
73127731,73126159,0.55024236,4.118902e-06,-0.38495198,1.0838288,0.015191823,1.0707195,0
73226828,73225468,0.5505835,4.118852e-06,-1.0843699,1.0617024,0.123057924,1.0588194,0
73326068,73324779,0.5504539,4.1189383e-06,1.5376288,1.0404269,0.25249276,1.054867,0
73425373,73424139,0.5508346,4.119081e-06,-0.3773981,1.0798041,0.014655881,1.0682766,0
73524793,73523402,0.5506815,4.118995e-06,-0.7709826,1.0680397,0.061838552,1.0603421,0
73623885,73622799,0.5509677,4.1177677e-06,-2.035638,1.0298358,0.4470856,1.0518507,0
73723593,73722050,0.55102164,4.116508e-06,0.89554274,1.0442351,0.08533591,1.0441203,0
73822669,73821336,0.55120784,4.114945e-06,0.40725863,1.0247873,0.017983092,1.0172133,0
73927061,73925614,0.55141944,4.11398e-06,-1.2217804,1.0013244,0.16564144,1.0,0
74026106,74024925,0.55148804,4.111763e-06,-0.56285185,1.0037501,0.035068735,1.0,0
74125556,74124236,0.5517428,4.1095554e-06,-0.20331526,1.0056188,0.0045673475,1.0,0
74224670,74223548,0.5516943,4.1073836e-06,1.6275887,1.0013103,0.29395318,1.0246229,0
74324159,74322860,0.5517244,4.1065223e-06,-0.36978477,1.0635247,0.014285912,1.0519649,0
74423596,74422206,0.5517748,4.1055955e-06,-0.61051726,1.0436562,0.039682217,1.033533,0
74522822,74521484,0.55190253,4.1046264e-06,-0.7728591,1.0302001,0.06442235,1.0215821,0
74622420,74620798,0.55162674,4.103624e-06,0.47863293,1.083821,0.023485783,1.0756632,0
74721408,74720314,0.55169135,4.103101e-06,0.10825887,1.0404954,0.001251539,1.0295496,0
74825994,74824384,0.5515419,4.1026506e-06,0.5440786,1.019205,0.032271504,1.011888,0
74925109,74923694,0.55167013,4.1009375e-06,0.34482417,1.0145084,0.013022587,1.005331,0
75024414,75023007,0.5515974,4.0986884e-06,1.1836011,1.0013244,0.15545097,1.0059886,0
75123411,75122316,0.5517047,4.0961227e-06,-0.21134537,1.0013467,0.0049563106,1.0,0
75223868,75221632,0.5517649,4.093233e-06,-0.4372555,1.0013565,0.02121482,1.0,0
75327204,75325907,0.55164826,4.0919167e-06,0.67799836,1.0013244,0.051008195,1.0,0
75427505,75425264,0.55197066,4.0898676e-06,0.6238949,1.0257405,0.042164095,1.0201244,0
75525824,75524676,0.5521533,4.0880436e-06,0.78712696,1.0291152,0.06689336,1.0268078,0
75626035,75623840,0.5521863,4.086437e-06,-0.97469157,1.0401661,0.10148204,1.0349377,0
75724311,75723153,0.5523442,4.0843943e-06,-1.5349587,1.001337,0.2614391,1.0077201,0
75829819,75827428,0.5526159,4.083831e-06,-1.4080158,1.0084687,0.21842892,1.0110905,0
75927893,75926740,0.5527105,4.082555e-06,0.62007695,1.002203,0.042627808,1.0,0
76028305,76026082,0.5528333,4.081139e-06,-0.81077987,1.0012907,0.072946295,1.0,0
76126582,76125363,0.55273277,4.0795253e-06,-0.18279919,1.0013032,0.0037080063,1.0,0
76226884,76224676,0.5526649,4.0776854e-06,0.6117091,1.0197092,0.040772844,1.0144119,0
76325110,76324093,0.55252475,4.075642e-06,-0.14622636,1.0122217,0.002347109,1.0009272,0
76425525,76423298,0.55288494,4.0738987e-06,-0.31131637,1.0221574,0.01053522,1.0109383,0
76523970,76522609,0.5531393,4.0721557e-06,-0.97438985,1.0116967,0.10427319,1.0056385,0
76623267,76621925,0.55345434,4.070269e-06,-1.6268177,1.0013111,0.2936745,1.0072184,0
76723680,76721281,0.55323756,4.068926e-06,1.197317,1.0292741,0.15475503,1.0375869,0
76821855,76820543,0.5533625,4.0677523e-06,-0.5581602,1.0130056,0.034171443,1.0028048,0
76927194,76924820,0.5537377,4.0672676e-06,-1.4803025,1.0013114,0.24315839,1.0037276,0
77025357,77024133,0.55384225,4.065574e-06,-0.86523503,1.001301,0.08307321,1.0,0
77125667,77123517,0.55416256,4.06428e-06,-0.019145833,1.001284,4.067699e-05,1.0,0
77224084,77222755,0.55438954,4.0628715e-06,-1.5311829,1.0012944,0.2601656,1.0030926,0
77324097,77322066,0.55449647,4.0615614e-06,-0.8524787,1.0012817,0.080643296,1.0,0
77422588,77421422,0.554743,4.0605482e-06,0.6858868,1.0012703,0.052204873,1.0018194,0
77522884,77520689,0.5547302,4.0594537e-06,0.55067706,1.0012808,0.03365081,1.0,0
77621310,77620059,0.55502504,4.0583745e-06,-1.3271492,1.0012727,0.19545403,1.0,0
77725353,77724278,0.5548768,4.0588156e-06,0.46440986,1.0064785,0.023809806,1.001534,0
77825784,77823589,0.5549034,4.0579594e-06,0.21578306,1.001263,0.005167066,1.0,0
77924309,77922944,0.55488753,4.057189e-06,0.3423814,1.0012636,0.013008564,1.0,0
78028537,78027178,0.5549145,4.057629e-06,-1.2797402,1.0056678,0.180945,1.0046868,0
78127721,78126533,0.5551382,4.0563423e-06,-1.4350054,1.001294,0.22850882,1.0029203,0
78226916,78225804,0.5551924,4.0552877e-06,0.24086314,1.009212,0.0063872775,1.0007308,0
78326425,78325112,0.5551357,4.0542955e-06,2.1094491,1.0012641,0.4937953,1.0441443,0
78425581,78424424,0.5552745,4.055462e-06,-1.9599893,1.0895674,0.39175162,1.1060201,0
78525059,78523735,0.55526745,4.0575687e-06,1.2529011,1.0809724,0.16135277,1.0907254,0
78624686,78623088,0.5551782,4.060202e-06,-1.8572279,1.1211565,0.34183905,1.1363335,0
78723477,78722370,0.5550679,4.062812e-06,0.331497,1.1308743,0.010796982,1.1206691,0
78828011,78826683,0.55520743,4.065806e-06,-0.5452249,1.0872824,0.030378513,1.0767897,0
78927263,78925949,0.555069,4.0666278e-06,0.43661898,1.065752,0.019874973,1.0569305,0
79027161,79025420,0.5550273,4.066898e-06,1.314667,1.0226878,0.18777853,1.0306268,0
79125851,79124570,0.55503964,4.0669825e-06,-1.0184087,1.0280048,0.11210024,1.0252731,0
79225523,79223882,0.55496085,4.0669383e-06,0.2987532,1.017709,0.009744488,1.0076913,0
79329713,79328204,0.55512273,4.067779e-06,-0.6638189,1.0012528,0.048900463,1.0,0
79429121,79427470,0.55513483,4.0668792e-06,-1.7969064,1.0012786,0.35830545,1.0189115,0
79528077,79526833,0.55523056,4.0658233e-06,0.0921479,1.0012921,0.00094225316,1.0,0
79627483,79626135,0.55537033,4.064295e-06,0.018801838,1.0012965,3.922793e-05,1.0,0
79726516,79725405,0.55559105,4.0627256e-06,-1.5057639,1.001298,0.25159842,1.0075704,0
79826058,79824838,0.5559118,4.061945e-06,0.31366184,1.013443,0.010786525,1.0052115,0
79925123,79924028,0.5553609,4.0619507e-06,1.7586663,1.0833865,0.31720567,1.104217,0
80024741,80023341,0.55543613,4.0631767e-06,-1.1805055,1.0978353,0.14104456,1.0975559,0
80128768,80127617,0.5554869,4.0652053e-06,-1.4967502,1.0745873,0.23164049,1.0839947,0
80228143,80226951,0.55552715,4.0656287e-06,0.8945081,1.0552468,0.08425041,1.053285,0
80327410,80326240,0.55589783,4.0653445e-06,-1.2583445,1.0649974,0.16519925,1.0644276,0
80426902,80425551,0.5557368,4.0653485e-06,1.7827258,1.0507091,0.33608112,1.0748491,0
80526092,80524863,0.5558481,4.0660602e-06,-1.3971086,1.0809101,0.20064496,1.0843134,0
80625549,80624264,0.5562124,4.067519e-06,-1.2906091,1.0773996,0.17177904,1.076445,0
80725044,80723486,0.55662715,4.0692103e-06,-0.8493754,1.084773,0.0738955,1.0755187,0
80824150,80822851,0.55640113,4.070425e-06,2.00475,1.0896398,0.40982172,1.1271006,0
80928469,80927075,0.556378,4.073656e-06,0.37858215,1.1190459,0.0142308185,1.1083183,0
81027686,81026386,0.5567446,4.074707e-06,-1.8623742,1.1169556,0.34502888,1.1288759,0
81127051,81125698,0.5567804,4.0760588e-06,-0.3377399,1.107591,0.011443078,1.095469,0
81221423,81220051,0.5568648,4.0753043e-06,-0.93137825,1.0688992,0.09017225,1.0614036,0
81320742,81319356,0.55710155,4.0752625e-06,-0.94583017,1.036638,0.09588633,1.029155,0
81429994,81428692,0.556823,4.0776813e-06,1.0734956,1.0722018,0.11942122,1.0760608,0
81529624,81527913,0.55662304,4.0782015e-06,2.2592044,1.0738096,0.5281305,1.117185,0
81628564,81627221,0.5565593,4.0799287e-06,-0.12964438,1.0956571,0.0017044732,1.0836768,0
81727894,81726532,0.55630815,4.0813443e-06,0.4346157,1.0737115,0.019547028,1.0639145,0
81826995,81825875,0.5560509,4.0823643e-06,2.2313986,1.0583521,0.52273506,1.0926532,0
81926510,81925156,0.5559726,4.083846e-06,0.29921162,1.0664226,0.009327926,1.0551674,0
82021121,82019502,0.5562651,4.083027e-06,-1.3000174,1.0538789,0.17818251,1.0587575,0
82130045,82128746,0.5562304,4.0854716e-06,-0.30969465,1.0243503,0.010403426,1.0140386,0
82229377,82228099,0.5563903,4.084557e-06,-0.31570718,1.0012733,0.011060475,1.0,0
82328711,82327368,0.5564225,4.083382e-06,0.6690809,1.0012723,0.049677823,1.0,0
82427877,82426714,0.5566556,4.0821756e-06,-0.3804954,1.0076282,0.015964525,1.0,0
82527564,82526165,0.5565582,4.080731e-06,1.2148817,1.0012928,0.1637813,1.0060794,0
82626615,82625302,0.55661154,4.0794816e-06,-1.0131121,1.0175741,0.1120744,1.0150371,0
82725899,82724614,0.5567011,4.0804266e-06,-0.60645986,1.0011088,0.040820688,1.0,0
82825557,82823925,0.5565681,4.0820937e-06,0.46862033,1.0263915,0.023773147,1.0177298,0
82924548,82923291,0.5566473,4.082962e-06,-0.40323436,1.001167,0.018045379,1.0,0
83023842,83022548,0.55673575,4.0846107e-06,2.19633,1.010012,0.530672,1.0494752,0
83122999,83121860,0.5566342,4.0892673e-06,-1.2241864,1.1088537,0.15016834,1.110639,0
83222504,83221173,0.556751,4.0921905e-06,-0.7932138,1.0844972,0.064462855,1.077728,0
83321757,83320626,0.5567801,4.091686e-06,0.1643087,1.0498886,0.0028571654,1.0387734,0
83426049,83424763,0.55662525,4.0923005e-06,0.23399448,1.0107328,0.0060191117,1.00023,0
83525456,83524072,0.5564326,4.0947652e-06,1.1276646,1.0010211,0.1411478,1.0018328,0
83624669,83623383,0.5564773,4.096313e-06,0.53879297,1.0012268,0.032215796,1.0,0
83723845,83722697,0.55678344,4.094796e-06,0.16007164,1.013248,0.0028097683,1.0024703,0
83823562,83822012,0.5568062,4.092718e-06,1.3563895,1.0013052,0.20415491,1.0097775,0
83927578,83926284,0.556861,4.0921655e-06,-1.1861355,1.0013267,0.15611705,1.0024883,0
84026884,84025595,0.55683416,4.0899645e-06,-0.96025425,1.0012773,0.10232355,1.0,0
84126176,84125001,0.55689675,4.0884083e-06,-0.23382553,1.0013076,0.006066998,1.0,0
84220648,84219253,0.55684334,4.0853274e-06,-0.4352926,1.0055667,0.020936746,1.0,0
84329886,84328496,0.55635715,4.0841073e-06,1.7907944,1.0357429,0.34403053,1.0528059,0
84429371,84427807,0.55634654,4.0847217e-06,-1.1132506,1.0359237,0.13292773,1.0383983,0
84528391,84527119,0.5563734,4.0857217e-06,-0.85497284,1.0238612,0.079327,1.0208445,0
84627755,84626430,0.55626655,4.085965e-06,0.08052547,1.00121,0.00071961276,1.0,0
84721852,84720776,0.5561856,4.0848863e-06,-1.029681,1.0012207,0.11766113,1.002552,0
84821386,84820088,0.55647165,4.0840378e-06,-0.6228467,1.0139422,0.04251152,1.0065573,0
84940671,84939392,0.5563603,4.0805417e-06,2.0620437,1.008807,0.46832263,1.0376457,0
85029966,85028642,0.55629385,4.082841e-06,0.83003104,1.0170472,0.075267084,1.0116247,0
85129357,85127955,0.5562752,4.0820896e-06,0.64870536,1.0012558,0.046698984,1.0,0
85228491,85227266,0.5563306,4.081309e-06,0.90336365,1.0012519,0.09056061,1.0,0
85328127,85326577,0.5562043,4.0806017e-06,-1.2550651,1.0285945,0.17015542,1.0343182,0
85426967,85425889,0.5564324,4.0791992e-06,0.70029545,1.0427024,0.052258834,1.0359609,0
85526616,85525200,0.556185,4.079203e-06,-0.24120057,1.0318174,0.0062648584,1.0213321,0
85625882,85624516,0.5561136,4.0768523e-06,1.4469299,1.0012856,0.23232424,1.0083978,0
85725230,85723853,0.5562281,4.076203e-06,-0.115969926,1.0051202,0.0014867237,1.0,0
85824425,85823135,0.55650604,4.0754485e-06,-1.4313695,1.0076916,0.22590894,1.0157616,0
85923734,85922448,0.55647206,4.0748173e-06,-1.5154222,1.0018852,0.25468704,1.0126852,0
86023318,86021962,0.5564158,4.074658e-06,2.1227918,1.0397977,0.48153007,1.0727521,0
86127257,86126035,0.55637085,4.0768678e-06,1.7234268,1.0714,0.30802897,1.0884242,0
86226706,86225347,0.5563818,4.078142e-06,0.4280329,1.0893515,0.01868718,1.0791538,0
86326032,86324659,0.55658907,4.079122e-06,-0.6102142,1.1065112,0.03739093,1.097403,0
86425516,86423986,0.5565075,4.080122e-06,-1.2707008,1.0825557,0.16572723,1.0857974,0
86524468,86523288,0.55673397,4.0816244e-06,1.1434131,1.1025474,0.13175482,1.1053599,0
86629242,86627559,0.5564492,4.0857176e-06,1.1917332,1.1769288,0.13408044,1.1781104,0
86728203,86726871,0.55636686,4.0884497e-06,1.1126201,1.1477677,0.11983876,1.1468911,0
86827757,86826334,0.5563669,4.0904847e-06,0.16190092,1.1164303,0.0026087023,1.1043639,0
86926846,86925493,0.55625874,4.0920345e-06,-1.5378665,1.1161518,0.23543526,1.1285639,0
87026408,87024819,0.55621135,4.0934674e-06,0.35681143,1.109114,0.012754365,1.0978262,0
87125407,87124168,0.5562592,4.0930895e-06,0.5199927,1.0655247,0.028196063,1.0559897,0
87224756,87223428,0.5565585,4.090725e-06,0.66050243,1.0756584,0.04506423,1.068585,0
87323894,87322793,0.55641526,4.091077e-06,-1.1459857,1.0676929,0.13666886,1.0688552,0
87428385,87427019,0.55632347,4.0922955e-06,0.57854635,1.0491027,0.035449963,1.0405155,0
87527439,87526329,0.5564713,4.0920727e-06,0.92219406,1.0514345,0.089871064,1.0484222,0
87627111,87625761,0.556328,4.092325e-06,-0.8880023,1.0501548,0.08343194,1.0467516,0
87726133,87724953,0.5565385,4.092524e-06,-0.1351659,1.0410632,0.0019499104,1.0296854,0
87825879,87824264,0.55644983,4.0923906e-06,2.6189394,1.0600964,0.71889096,1.1157725,0
87929711,87928541,0.5562529,4.0952696e-06,1.2324507,1.1057224,0.15263371,1.1076981,0
88029064,88027852,0.5561091,4.0965533e-06,-0.14136988,1.1006073,0.002017618,1.0890778,0
88128248,88127164,0.5560081,4.096808e-06,0.53559667,1.0601311,0.030065862,1.0501802,0
88227842,88226475,0.5558645,4.0959667e-06,1.041666,1.0173903,0.11850234,1.0140445,0
88327138,88325787,0.5559867,4.0945934e-06,0.06624894,1.0216154,0.00047734013,1.0103018,0
88426450,88425170,0.55621105,4.0933937e-06,0.11004549,1.0384823,0.0012956953,1.0270174,0
88526050,88524410,0.5563158,4.092371e-06,1.9693193,1.0378346,0.4152041,1.0642526,0
88624858,88623722,0.5562896,4.092643e-06,-1.2830311,1.0733297,0.17041142,1.0778501,0
88724415,88723062,0.5561888,4.0934633e-06,0.9800999,1.1023511,0.09682294,1.0989882,0
88823642,88822348,0.55641115,4.094401e-06,-1.0172944,1.0875411,0.10573167,1.0851864,0
88923043,88921657,0.55626696,4.0949312e-06,2.3842802,1.071873,0.5892896,1.1150432,0
89022341,89020969,0.55644804,4.0966115e-06,-2.002685,1.1165295,0.39912838,1.1421158,0
89121575,89120281,0.5563372,4.0995424e-06,-0.7196825,1.1802579,0.048759863,1.1725013,0
89221260,89219651,0.5565608,4.1026265e-06,-0.6080188,1.1688254,0.03514325,1.1589456,0
89325005,89323869,0.55660516,4.1058847e-06,0.8974456,1.1251405,0.0795366,1.1221005,0
89424554,89423196,0.5565996,4.1069316e-06,0.31338245,1.0947176,0.009967924,1.0840936,0
89523984,89522680,0.5565787,4.106933e-06,-0.55198056,1.0566223,0.032039467,1.0473464,0
89627916,89626770,0.5566332,4.10799e-06,-1.0273981,1.1126038,0.10541307,1.1093856,0
89727431,89726082,0.55683255,4.108418e-06,-1.2459131,1.083529,0.15918148,1.084059,0
89826755,89825393,0.5569468,4.1094413e-06,2.772619,1.1111375,0.76872337,1.1818717,0
89926059,89924704,0.5567021,4.113599e-06,-1.3587346,1.2643253,0.16224374,1.2675095,0
90025307,90024019,0.55660397,4.1181356e-06,1.0726985,1.2598727,0.10148133,1.2577738,0
90124535,90123330,0.55658495,4.122215e-06,0.7326624,1.2135856,0.049146757,1.205738,0
90224024,90222639,0.5565669,4.125563e-06,-0.49263865,1.1742092,0.022965133,1.1638525,0
90323262,90322098,0.5564083,4.1281523e-06,0.09837389,1.1352751,0.0009471441,1.122862,0
90428036,90426228,0.55665326,4.1312696e-06,-0.028179832,1.1413113,7.7309014e-05,1.1288677,0
90526883,90525540,0.5568628,4.1325225e-06,-2.0510314,1.1161115,0.41878822,1.1415634,0
90626234,90624863,0.55671567,4.1338294e-06,0.76388854,1.1291754,0.05741906,1.123124,0
90725345,90724163,0.5572405,4.1352387e-06,-1.3270118,1.1999079,0.16306439,1.199533,0
90824822,90823487,0.55676043,4.138226e-06,2.4659944,1.2659327,0.53374153,1.3128597,0
90929022,90927753,0.55678445,4.1446506e-06,-1.0509732,1.355698,0.09052694,1.3512306,0
91028442,91027078,0.55673033,4.1498947e-06,0.03863339,1.3164002,0.00012597814,1.302236,0
91127806,91126497,0.5565106,4.1542958e-06,-0.28736764,1.2972889,0.007072884,1.2844226,0
91227056,91225687,0.55661714,4.1577105e-06,0.40617537,1.2581409,0.01456986,1.2459413,0
91326141,91324999,0.5564745,4.1604467e-06,-0.76366866,1.2404382,0.05223869,1.2336134,0
91425669,91424310,0.55655575,4.162653e-06,-0.16158842,1.2129025,0.0023919498,1.2001238,0
91524900,91523623,0.55660903,4.1639305e-06,-1.0508269,1.1711526,0.10476263,1.1694229,0
91624334,91622940,0.55650985,4.1647872e-06,0.73727393,1.1752747,0.05138967,1.1671345,0
91723978,91722255,0.55659586,4.1653593e-06,1.0773759,1.1425643,0.112878524,1.1410936,0
91822879,91821557,0.5565226,4.1659196e-06,-1.4865859,1.134583,0.21642192,1.1447493,0
91922296,91920988,0.55644476,4.166354e-06,0.26700714,1.1184587,0.0070824465,1.1065624,0
92026481,92025146,0.5566805,4.1670796e-06,-0.63413817,1.1034611,0.040491905,1.0950167,0
92126034,92124457,0.5564341,4.1672492e-06,-0.7804318,1.1179812,0.060533103,1.1124446,0
92229828,92228734,0.556606,4.1688677e-06,-1.5093322,1.1113461,0.22776018,1.1238503,0
92329440,92328054,0.55665874,4.1691346e-06,-1.2679144,1.111039,0.16077113,1.1139543,0
92428739,92427358,0.55639714,4.1696976e-06,2.4554806,1.1455545,0.58480996,1.1895,0
92528071,92526669,0.5562727,4.1712483e-06,0.6099452,1.1600485,0.035633866,1.1500307,0
92627292,92626030,0.5561715,4.1724406e-06,-0.9153878,1.1690495,0.079640664,1.1664836,0
92726702,92725338,0.5559709,4.173423e-06,0.025340483,1.1483576,6.213125e-05,1.1359047,0
92825807,92824604,0.55605155,4.1736453e-06,-0.5909649,1.1027929,0.035187382,1.0955644,0
92925276,92923917,0.5560935,4.173365e-06,0.42174315,1.0918577,0.018100373,1.0808737,0
93024516,93023416,0.5563631,4.1728135e-06,-1.4794971,1.0795604,0.22528838,1.089561,0
93129053,93127505,0.5562676,4.1738685e-06,0.3070253,1.1122702,0.0094166305,1.1007137,0
93227920,93226816,0.55654436,4.173985e-06,-0.31949574,1.1464019,0.009893518,1.134609,0
93327528,93326138,0.5564104,4.1745725e-06,-0.6082991,1.112582,0.03695386,1.1040198,0
93426671,93425440,0.5566738,4.174904e-06,-1.0651184,1.1000471,0.11458875,1.0976425,0
93526327,93524865,0.55687714,4.1750404e-06,-0.31745064,1.0845543,0.010324252,1.0729426,0
93620434,93619099,0.5567962,4.173611e-06,-1.0302871,1.0769352,0.10951775,1.0736941,0
93729610,93728340,0.5568727,4.176058e-06,-0.57434416,1.0727626,0.034166325,1.0629967,0
93829001,93827820,0.5570284,4.1751573e-06,-0.75075054,1.0383365,0.06031296,1.0303776,0
93928547,93926963,0.5572663,4.1731855e-06,-1.1479685,1.0139799,0.14440696,1.0116177,0
94027596,94026276,0.5573975,4.1705907e-06,-0.84118086,1.0013229,0.078516714,1.0,0
94126958,94125587,0.55739367,4.167935e-06,-0.76374775,1.0013213,0.06472676,1.0,0
94226272,94224900,0.55741215,4.1652675e-06,-1.0213766,1.0013245,0.11575891,1.0,0
94325306,94324219,0.5576758,4.1625594e-06,-2.3485732,1.0121346,0.6055185,1.0449288,0
94424863,94423522,0.55754805,4.161208e-06,0.61224544,1.0529559,0.039554734,1.0473678,0
94523967,94522834,0.5582305,4.161144e-06,-1.7311314,1.1599623,0.28706068,1.1661171,0
94623645,94622299,0.5579615,4.163657e-06,2.9022129,1.1688654,0.8006662,1.2525089,0
94727632,94726422,0.5577811,4.1703256e-06,2.3509426,1.3381417,0.45892262,1.3853964,0
94827287,94825736,0.55781746,4.1770104e-06,-1.594544,1.4848086,0.1902655,1.4891486,0
94926343,94925053,0.5578865,4.1834305e-06,-1.0775737,1.4378362,0.0897309,1.4305326,0
95025745,95024357,0.5580446,4.1888184e-06,-1.2594289,1.3930855,0.12651062,1.3888571,0
95124742,95123670,0.5581227,4.1935095e-06,-0.7204253,1.3521829,0.042648133,1.3400544,0
95224591,95222980,0.5582097,4.1976514e-06,-0.6922246,1.3420238,0.03967266,1.3296182,0
95324036,95322293,0.5583007,4.2010693e-06,0.339229,1.298802,0.009844653,1.2879933,0
95422808,95421676,0.5582763,4.203717e-06,0.42874432,1.2477053,0.016369756,1.2380849,0
95527292,95525881,0.558281,4.2072456e-06,0.29079422,1.2050338,0.0077970405,1.1942159,0
95626541,95625198,0.55800694,4.209618e-06,0.6765932,1.1973832,0.04247952,1.1901639,0
95725904,95724505,0.5581258,4.2117454e-06,0.010639638,1.1513926,1.0924152e-05,1.1390635,0
95825094,95823816,0.55804604,4.2111883e-06,-0.2722118,1.1064596,0.0074410765,1.0946122,0
95924443,95923128,0.55805,4.2105958e-06,-1.1678647,1.0612986,0.14279236,1.0611944,0
96028735,96027408,0.5583785,4.2110632e-06,-2.0170429,1.0661342,0.42400977,1.0879967,0
96128417,96126717,0.5581565,4.2109828e-06,1.6743995,1.0867285,0.2866518,1.1052266,0
96227471,96226133,0.5580545,4.2119063e-06,-1.2710835,1.1189749,0.1604299,1.121293,0
96326758,96325340,0.5580642,4.212269e-06,-0.31809655,1.0918013,0.0102975,1.0805037,0
96425948,96424652,0.5580795,4.2113647e-06,-0.7553119,1.0836918,0.058493063,1.0766501,0
96525318,96523966,0.558071,4.2106853e-06,1.9042751,1.088518,0.37015298,1.1133549,0
96624423,96623275,0.5580162,4.2099723e-06,1.003389,1.0823596,0.10335336,1.0806226,0
96723952,96722615,0.557679,4.2112497e-06,-1.7939274,1.1945143,0.29934767,1.2157311,0
96827999,96826864,0.5579529,4.215439e-06,-1.9013475,1.2583424,0.31921378,1.2791878,0
96927333,96926176,0.55784535,4.218695e-06,-0.16301279,1.2484963,0.0023649044,1.2352502,0
97026865,97025547,0.558052,4.221163e-06,-1.45287,1.2054087,0.19457036,1.2114841,0
97126175,97124800,0.55808324,4.2232023e-06,-1.8713467,1.2297012,0.31642184,1.2484543,0
97225409,97224113,0.5579325,4.225742e-06,0.47103488,1.2611846,0.019547218,1.2497597,0
97324956,97323582,0.557754,4.2280967e-06,0.50436634,1.2379448,0.022832233,1.2265091,0
97424475,97422734,0.55758905,4.229933e-06,0.027697824,1.2043968,7.0774884e-05,1.1913013,0
97523223,97522055,0.557495,4.231039e-06,-0.50036573,1.1630187,0.023919158,1.1539707,0
97622997,97621392,0.5573134,4.231778e-06,0.3782672,1.1621907,0.013679729,1.1499456,0
97721856,97720669,0.5575588,4.2328315e-06,0.32922316,1.1628594,0.010356453,1.1508209,0
97821331,97819981,0.5571689,4.234441e-06,0.5940876,1.1792203,0.033255503,1.1680557,0
97925372,97924260,0.5570178,4.2366787e-06,-0.60411084,1.1586764,0.034996822,1.1523844,0
98025109,98023570,0.5572621,4.2377314e-06,0.25852707,1.1874499,0.006253947,1.1746945,0
98124031,98123001,0.55722845,4.2386014e-06,2.1837962,1.1542857,0.45905888,1.1837785,0
98223543,98222194,0.55733633,4.239521e-06,-0.74315697,1.1647595,0.052684434,1.158519,0
98322773,98321506,0.557382,4.2397182e-06,-1.0882021,1.140735,0.11534316,1.1409819,0
98427140,98425783,0.55747235,4.2408346e-06,0.36702758,1.1227773,0.013330954,1.1092101,0
98526402,98525094,0.55754966,4.239924e-06,-0.30288857,1.1047392,0.0092270635,1.0934945,0
98626080,98624449,0.5576519,4.2389256e-06,-2.5205054,1.0984219,0.6426338,1.1472309,0
98729894,98728683,0.55776036,4.2403267e-06,0.49176112,1.1226017,0.02393537,1.1090462,0
98829332,98827995,0.5574529,4.240774e-06,0.0131010935,1.1262219,1.6933573e-05,1.1138906,0
98928539,98927442,0.5575498,4.240741e-06,-0.098465845,1.0823376,0.0009953274,1.0705153,0
99027934,99026620,0.55771,4.239489e-06,0.18606275,1.0488509,0.0036674368,1.0377102,0
99127149,99125930,0.5576009,4.2386287e-06,0.04663141,1.086347,0.00022240577,1.0743967,0
99226627,99225242,0.55735666,4.2379756e-06,-0.072213486,1.0921997,0.0005305082,1.0804316,0
99325762,99324564,0.557395,4.2369084e-06,1.0683278,1.0968053,0.11562107,1.0949104,0
99425270,99423866,0.5573853,4.2370184e-06,0.34432548,1.1295105,0.0116628725,1.1179668,0
99529513,99528156,0.55774826,4.2390857e-06,-0.6308277,1.1877292,0.037227307,1.1780566,0
99628725,99627456,0.5578517,4.240573e-06,0.78547055,1.1764138,0.058271635,1.1708416,0
99728039,99726840,0.5579533,4.2416855e-06,-0.15235956,1.1582962,0.0022267797,1.1456324,0
99827537,99826078,0.55788887,4.242251e-06,-0.7203421,1.1232772,0.05132727,1.1150794,0
99926808,99925429,0.5577275,4.2422703e-06,1.2047393,1.0984952,0.14680657,1.1011342,0
100026056,100024701,0.5577679,4.2417278e-06,-0.6705984,1.0618695,0.047055606,1.054236,0
100125312,100124013,0.5577123,4.239902e-06,-0.59397936,1.0460597,0.03747518,1.0378118,0
100224408,100223324,0.55783415,4.2374713e-06,0.1136948,1.0249583,0.0014013045,1.013805,0
100323999,100322636,0.55770755,4.234001e-06,1.7076818,1.0013406,0.32358587,1.0188847,0
100423111,100421948,0.5578628,4.230683e-06,-0.5146216,1.0074474,0.02920863,1.0,0
100522622,100521281,0.5577189,4.2274482e-06,-0.33012122,1.0013256,0.012092861,1.0,0
100627190,100625539,0.558017,4.226063e-06,-1.0598553,1.0234585,0.12194963,1.0215172,0
100726056,100724849,0.5581654,4.224418e-06,0.3006908,1.0030217,0.010015842,1.0,0
100825645,100824327,0.55777025,4.2230936e-06,0.7420929,1.025542,0.059665125,1.0195899,0
100924818,100923472,0.5578292,4.2215197e-06,-0.45030105,1.0012597,0.02250177,1.0,0
101024194,101022784,0.5577701,4.2195184e-06,-1.0528467,1.0012861,0.12300691,1.0010774,0
101124045,101122096,0.55799216,4.216938e-06,-0.24495669,1.013824,0.006576177,1.0029215,0
101222826,101221407,0.5579289,4.2136585e-06,0.96780884,1.001339,0.1039335,1.0000228,0
101321877,101320718,0.55801994,4.210073e-06,0.9660075,1.0013467,0.10354616,1.0003555,0
101426697,101424996,0.55782485,4.2079464e-06,0.54795617,1.0013304,0.033317447,1.0,0
101525460,101524308,0.5582912,4.2057236e-06,-0.15700966,1.0507635,0.0026067854,1.039175,0
101625131,101623787,0.55824673,4.20403e-06,0.17772767,1.0093659,0.003477114,1.0,0
101729198,101727899,0.5583586,4.203179e-06,-1.3052882,1.0070534,0.18798268,1.0098957,0
101828834,101827212,0.55854166,4.201432e-06,0.40104684,1.0016577,0.017841376,1.0,0
101927836,101926521,0.5584857,4.1991807e-06,2.2215257,1.0042721,0.54602027,1.0466758,0
102027496,102025832,0.5588164,4.198199e-06,-0.8882673,1.0891614,0.080491975,1.0818942,0
102126310,102125144,0.5586884,4.197774e-06,-0.02514055,1.0763781,6.524424e-05,1.0646712,0
102220858,102219519,0.55877465,4.195577e-06,-1.0509589,1.0577635,0.11602201,1.0541136,0
102329863,102328737,0.55891085,4.196906e-06,-0.31688425,1.0537721,0.010587955,1.0373564,0
102429540,102428192,0.55909526,4.19501e-06,-1.8308691,1.0143515,0.36718386,1.0291768,0
102528493,102527378,0.5593458,4.192736e-06,-1.001669,1.0149707,0.109837964,1.0092736,0
102628067,102626668,0.5591307,4.1902995e-06,0.09070228,1.0076344,0.0009071747,1.0,0
102727190,102725980,0.55893296,4.187984e-06,1.4445817,1.0217992,0.22692177,1.0337895,0
102826934,102825291,0.55915713,4.186597e-06,-0.1581903,1.0412728,0.0026702546,1.0297868,0
102925984,102924603,0.5589571,4.185467e-06,-0.64813364,1.0370573,0.045007396,1.0286908,0
103025305,103023917,0.55903035,4.1838607e-06,-0.09554013,1.0188329,0.0009954653,1.00754,0
103125534,103123228,0.559198,4.1814887e-06,-0.4948892,1.0013118,0.027177162,1.0,0
103223740,103222599,0.55930245,4.1789854e-06,-1.4351907,1.0013198,0.22856194,1.0065551,0
103323270,103321850,0.55933446,4.182133e-06,3.1116729,1.0464032,1.028126,1.1346695,0
103422342,103421161,0.5594086,4.1830704e-06,-1.1045018,1.1374942,0.11916294,1.135103,0
103522122,103520668,0.5594868,4.1837457e-06,-0.8770605,1.0995684,0.07773101,1.0933186,0
103625948,103624777,0.5591377,4.1866438e-06,-0.45911953,1.176244,0.01991185,1.1656032,0
103725368,103724065,0.5592793,4.188607e-06,0.72228783,1.1672915,0.049659092,1.1600754,0
103824588,103823375,0.55916935,4.189779e-06,1.3767885,1.1262391,0.18700852,1.1322988,0
103924098,103922686,0.5590929,4.190918e-06,-0.72851723,1.126279,0.052358977,1.1195468,0
104023223,104022020,0.55896765,4.1914245e-06,0.4695131,1.0958558,0.022351129,1.0854552,0
104127662,104126277,0.5590928,4.1922704e-06,-0.9761795,1.0603615,0.099853404,1.058449,0
104226818,104225587,0.5592398,4.1911726e-06,-0.7762257,1.0577087,0.06329471,1.051643,0
104326488,104325119,0.55915385,4.190126e-06,-0.7347468,1.047581,0.057259206,1.041317,0
104420851,104419245,0.5593135,4.187312e-06,0.24960569,1.0296667,0.006723103,1.019056,0
104529856,104528488,0.55937976,4.1876424e-06,1.5279453,1.013651,0.25590846,1.0271783,0
104628885,104627800,0.5592434,4.18688e-06,-0.77443206,1.0620788,0.062743306,1.0559157,0
104728425,104727111,0.55920994,4.1862645e-06,0.792461,1.0315661,0.06764196,1.0265104,0
104827632,104826441,0.5592198,4.18506e-06,-0.42471117,1.0012474,0.020017205,1.0,0
104927135,104925735,0.55924696,4.1838434e-06,0.49793506,1.0012463,0.027514521,1.0,0
105026420,105025048,0.5593946,4.182442e-06,0.23173499,1.0012575,0.005959295,1.0,0
105125902,105124500,0.55952686,4.1809512e-06,1.467758,1.0089728,0.2372395,1.0213516,0
105225029,105223670,0.55973804,4.1792996e-06,0.17028646,1.0115161,0.00318526,1.0011641,0
105324135,105322983,0.55987674,4.1770986e-06,-0.70212495,1.0024995,0.054638926,1.0,0
105429055,105427267,0.5599059,4.175765e-06,-1.2513549,1.0111507,0.172069,1.0123196,0
105527977,105526573,0.56003803,4.1729627e-06,0.17364821,1.0013571,0.0033458706,1.0,0
105627524,105625918,0.5598691,4.171449e-06,-1.6760925,1.0395231,0.3002751,1.0520254,0
105726363,105725195,0.56020355,4.171073e-06,0.532691,1.0753319,0.029320117,1.06863,0
105825883,105824506,0.56019855,4.170699e-06,-0.5712899,1.0586424,0.03425479,1.0485268,0
105924945,105923925,0.5603393,4.1695007e-06,-0.29044658,1.0245974,0.009148223,1.0132977,0
106024551,106023130,0.5602007,4.167789e-06,-0.36926803,1.0172822,0.0148935905,1.0065156,0
106123611,106122442,0.5598384,4.1661933e-06,1.9248277,1.0374727,0.39679345,1.0635482,0
106223153,106221753,0.55940586,4.1670323e-06,0.7956641,1.1005366,0.06391643,1.0933812,0
106322767,106321068,0.5595003,4.1677354e-06,0.07706764,1.0682987,0.00061774463,1.0565704,0
106421603,106420405,0.5597564,4.167391e-06,-1.0605259,1.0473598,0.1193175,1.0464834,0
106526022,106524655,0.55947256,4.168059e-06,0.68094486,1.0475489,0.0491821,1.0397416,0
106625281,106623969,0.55942905,4.1665116e-06,-1.0303204,1.0149912,0.11620902,1.0155565,0
106725103,106723345,0.5595502,4.164481e-06,-0.9582141,1.0048862,0.1015233,1.0032932,0
106828700,106827555,0.5593224,4.1633284e-06,1.191492,1.0228307,0.15421832,1.0235478,0
106928473,106926867,0.5591993,4.160908e-06,1.5990117,1.0013375,0.28371367,1.0119807,0
107027534,107026181,0.55882466,4.1596404e-06,-0.56073445,1.0444348,0.03344958,1.0384879,0
107127272,107125491,0.5585867,4.158797e-06,0.052373424,1.0715555,0.00028442303,1.0601045,0
107226028,107224815,0.5586042,4.158393e-06,1.005118,1.0499986,0.1069062,1.0445594,0
107325397,107324126,0.55874777,4.1575195e-06,-1.0017439,1.0439483,0.10680509,1.0455458,0
107424761,107423427,0.5582849,4.1575395e-06,2.5896301,1.0821319,0.6885774,1.1230483,0
107524115,107522767,0.55844116,4.1588287e-06,-1.4428284,1.1479434,0.20149598,1.1618057,0
107628241,107627015,0.558547,4.162495e-06,0.7446478,1.2043551,0.05115696,1.1948446,0
107727728,107726330,0.558702,4.1651783e-06,-1.0616434,1.2318174,0.1016643,1.2310727,0
107826938,107825828,0.55860215,4.168032e-06,1.4999851,1.2274982,0.20366226,1.2334373,0
107926286,107924950,0.5589451,4.1714748e-06,-0.5061172,1.3078707,0.021761805,1.2960529,0
108025465,108024262,0.55890137,4.1752146e-06,-0.21521428,1.2520791,0.004110247,1.2389455,0
108130138,108128540,0.5589865,4.1794965e-06,0.18922907,1.2017384,0.0033107265,1.1891425,0
108229125,108227851,0.5590379,4.1816447e-06,-0.46869445,1.1605356,0.021031907,1.1496681,0
108328482,108327187,0.5591152,4.1833605e-06,0.32376722,1.1570528,0.010066304,1.1458368,0
108427763,108426522,0.55896753,4.1842823e-06,0.16431692,1.1330249,0.0026477843,1.1208447,0
108527112,108525787,0.5591038,4.1849257e-06,0.245204,1.1242977,0.0059419805,1.112792,0
108626467,108625251,0.5591739,4.185155e-06,0.45610613,1.107057,0.020879464,1.0974555,0
108725804,108724410,0.55927014,4.184927e-06,0.9166203,1.0779288,0.08660568,1.0757712,0
108825385,108823726,0.5592529,4.184203e-06,1.2959756,1.0440255,0.1787475,1.0506692,0
108929100,108927999,0.55938095,4.184211e-06,-1.3639139,1.0226705,0.20211366,1.027081,0
109028903,109027315,0.55942744,4.182117e-06,-0.81077814,1.0159246,0.071895234,1.009586,0
109127998,109126684,0.5595241,4.179557e-06,-1.3990676,1.0013299,0.21719897,1.0063326,0
109227315,109225936,0.55944985,4.1767325e-06,-0.7084886,1.00448,0.055524144,1.0,0
109326579,109325247,0.5597612,4.17416e-06,-0.2927588,1.0058335,0.009467848,1.0,0
109426042,109424674,0.5599584,4.171564e-06,0.053048506,1.0012996,0.00031227682,1.0,0
109524964,109523870,0.55961484,4.1701815e-06,-0.19200784,1.0436305,0.0039250813,1.0322181,0
109624601,109623189,0.5596011,4.169026e-06,1.5220971,1.0012231,0.2571055,1.0151174,0
109723659,109722494,0.5588181,4.169927e-06,2.6460605,1.1834276,0.65737826,1.230867,0
109823148,109821805,0.55878973,4.173514e-06,-1.3787581,1.2483281,0.16920176,1.2576879,0
