timestamp,lat,lon,alt,alt_ellipsoid,delta_alt,eph,epv,terrain_alt,lat_lon_reset_counter,alt_reset_counter,terrain_alt_valid,dead_reckoning
33282648,34.03473126826069,108.7571836918301,425.98257,397.98355,-0.0,0.97954464,1.334501,0.0,2,0,0,0
33297373,34.03473123880018,108.75718363627205,425.98752,397.9885,-0.0,0.97960335,1.3345445,0.0,2,0,0,0
33486069,34.03473102281431,108.75718301497531,426.05508,398.05716,-0.0,0.9295132,1.3298386,0.0,2,0,0,0
33684691,34.03473116131563,108.75718260014465,426.1427,398.14673,-0.0,0.8986408,1.3244548,0.0,2,0,0,0
33888281,34.034731275386264,108.75718219903285,426.24713,398.25284,-0.0,0.8778543,1.320035,0.0,2,0,0,0
34087053,34.03473121949189,108.75718193484215,426.34732,398.3544,-0.0,0.86316,1.3163468,0.0,2,0,0,0
34285518,34.03473079054631,108.75718167565233,426.44977,398.45834,-0.0,0.8523151,1.3144815,0.0,2,0,0,0
34484146,34.03473024646156,108.75718150293599,426.51056,398.52048,-0.0,0.8441031,1.3117311,0.0,2,0,0,0
34692694,34.03472987078669,108.75718144377903,426.50632,398.5181,-0.0,0.83803177,1.3095089,0.0,2,0,0,0
34891464,34.03472963830684,108.75718146694797,426.46997,398.48422,-0.0,0.8330328,1.3074511,0.0,2,0,0,0
35089939,34.03472957868193,108.75718159559332,426.45667,398.4728,-0.0,0.8290288,1.3066655,0.0,2,0,0,0
35283594,34.034729607989775,108.75718178563469,426.4449,398.4625,-0.0,0.82554287,1.3048608,0.0,2,0,0,0
35482225,34.03472932838689,108.75718206475794,426.4347,398.45377,-0.0,0.82290155,1.3043714,0.0,2,0,0,0
35690880,34.034728744090934,108.75718237659996,426.42313,398.44354,-0.0,0.8210467,1.3032236,0.0,2,0,0,0
35889392,34.034728265660895,108.75718264962624,426.41656,398.4376,-0.0,0.8192435,1.3020445,0.0,2,0,0,0
36092979,34.03472777247991,108.75718282432209,426.41357,398.43588,-0.0,0.81772095,1.3009859,0.0,2,0,0,0
36286679,34.034727380297504,108.75718298522223,426.41174,398.4361,-0.0,0.81609285,1.3007114,0.0,2,0,0,0
36485309,34.03472695254122,108.75718311666793,426.41327,398.4403,-0.0,0.8150157,1.2998271,0.0,2,0,0,0
36683880,34.034726631001035,108.75718315689718,426.41568,398.44592,-0.0,0.81408644,1.2990267,0.0,2,0,0,0
36887468,34.0347263618234,108.75718316682428,426.4224,398.4561,-0.0,0.8132336,1.2991214,0.0,2,0,0,0
37086090,34.034726277845095,108.75718319998079,426.4309,398.46802,-0.0,0.81248003,1.2984471,0.0,2,0,0,0
37284824,34.03472656552568,108.75718334296613,426.44492,398.4853,-0.0,0.81182057,1.2978302,0.0,2,0,0,0
37493265,34.03472714816568,108.75718333496323,426.4568,398.50043,-0.0,0.811551,1.2974572,0.0,2,0,0,0
37691887,34.03472766301679,108.75718329136603,426.46274,398.5096,-0.0,0.8110199,1.2977221,0.0,2,0,0,0
37885551,34.03472822597484,108.757183240536,426.47488,398.5257,-0.0,0.8178433,1.2983123,0.0,2,0,0,0
38084167,34.03472895990472,108.7571831690644,426.49423,398.549,-0.0,0.8097539,1.296584,0.0,2,0,0,0
38282794,34.03472972569545,108.75718314474861,426.51312,398.57288,-0.0,0.8093515,1.2969309,0.0,2,0,0,0
38481459,34.03473016464539,108.7571831400336,426.52502,398.58945,-0.0,0.8089927,1.2965325,0.0,2,0,0,0
38684998,34.034730111445754,108.75718327735409,426.53098,398.60034,-0.0,0.80866826,1.2961484,0.0,2,0,0,0
38883622,34.034729796250446,108.75718340323192,426.5365,398.61108,-0.0,0.8083593,1.2965467,0.0,2,0,0,0
39092174,34.03472944814424,108.7571835299377,426.53958,398.61932,-0.0,0.8083825,1.2964079,0.0,2,0,0,0
39285831,34.03472914401858,108.75718361243108,426.53812,398.62305,-0.0,0.8078228,1.2958833,0.0,2,0,0,0
39489418,34.03472891016192,108.75718360069583,426.5346,398.6248,-0.0,0.80759573,1.2955803,0.0,2,0,0,0
39688049,34.0347287530669,108.7571835334039,426.5331,398.628,-0.0,0.80741495,1.2960414,0.0,2,0,0,0
39886705,34.03472865884974,108.75718343015805,426.52393,398.62372,-0.0,0.80720687,1.295769,0.0,2,0,0,0
40090251,34.034728646835,108.75718334306426,426.50507,398.61,-0.0,0.8070224,1.2955023,0.0,2,0,0,0
40288873,34.03472871694092,108.75718328121609,426.4964,398.60663,-0.0,0.80687773,1.2952526,0.0,2,0,0,0
40487495,34.03472882940198,108.75718322526306,426.49512,398.6102,-0.0,0.806713,1.2957497,0.0,2,0,0,0
40686117,34.03472898840381,108.75718315540858,426.4946,398.6144,-0.0,0.8065581,1.29551,0.0,2,0,0,0
40884758,34.034729176592634,108.75718310330768,426.49356,398.61865,-0.0,0.8064006,1.2952768,0.0,2,0,0,0
41083518,34.03472929647044,108.75718306836622,426.49133,398.6215,-0.0,0.80625147,1.295785,0.0,2,0,0,0
41281985,34.03472939746391,108.75718304357646,426.4933,398.62854,-0.0,0.80612135,1.2955585,0.0,2,0,0,0
41485572,34.034729490063036,108.75718304834481,426.4953,398.63495,-0.0,0.80598736,1.2953336,0.0,2,0,0,0
41684197,34.03472952712708,108.75718306003893,426.50314,398.6465,-0.0,0.80588996,1.2951164,0.0,2,0,0,0
41882941,34.03472954479139,108.75718306474938,426.51102,398.65784,-0.0,0.8057576,1.2956381,0.0,2,0,0,0
42086423,34.03472958794656,108.75718308165396,426.5181,398.66797,-0.0,0.8056479,1.2954229,0.0,2,0,0,0
42289994,34.034729638331534,108.75718311734529,426.52054,398.6732,-0.0,0.80551994,1.2952104,0.0,2,0,0,0
42488614,34.03472970226552,108.7571831603443,426.52158,398.677,-0.0,0.8053992,1.295004,0.0,2,0,0,0
42687354,34.03472976273001,108.75718320217271,426.51987,398.67792,-0.0,0.805308,1.2955364,0.0,2,0,0,0
42885862,34.034729822811244,108.75718322446323,426.51953,398.6803,-0.0,0.8051891,1.2953285,0.0,2,0,0,0
43084483,34.034729853399675,108.75718322955662,426.51566,398.6793,-0.0,0.8051075,1.2951254,0.0,2,0,0,0
43283104,34.03472993263854,108.7571832269225,426.50735,398.6742,-0.0,0.81153154,1.297098,0.0,2,0,0,0
43491825,34.034729984581304,108.75718325883788,426.50116,398.6709,-0.0,0.8051315,1.2956427,0.0,2,0,0,0
43685314,34.034730053397794,108.75718334415642,426.4921,398.6644,-0.0,0.80473155,1.2952223,0.0,2,0,0,0
43883936,34.03473013765598,108.75718346529581,426.48532,398.66052,-0.0,0.811135,1.2964162,0.0,2,0,0,0
44082559,34.03473023955315,108.75718363584474,426.48282,398.66022,-0.0,0.80450106,1.2955308,0.0,2,0,0,0
44281223,34.03473030065834,108.75718375798529,426.48364,398.66302,-0.0,0.80440915,1.295305,0.0,2,0,0,0
44489734,34.03473033690706,108.75718371430109,426.48557,398.66626,-0.0,0.8045978,1.2952802,0.0,2,0,0,0
44683391,34.034730344071804,108.75718319516916,426.49295,398.6745,-0.0,0.80420923,1.2955853,0.0,2,0,0,0
44886979,34.03473029328359,108.75718215365737,426.49854,398.6812,-0.0,0.80411637,1.2953568,0.0,2,0,0,0
45085665,34.03473023494425,108.75718089128813,426.49875,398.68118,-0.0,0.8040578,1.2951326,0.0,2,0,0,0
45284224,34.03473019519158,108.75717936763944,426.49976,398.68173,-0.0,0.80400145,1.2956463,0.0,2,0,0,0
45487812,34.034730113053314,108.75717725888414,426.4962,398.67816,-0.0,0.8039354,1.2954215,0.0,2,0,0,0
45686435,34.03472991724844,108.75717480017731,426.4979,398.67987,-0.0,0.80386543,1.2951983,0.0,2,0,0,0
45885057,34.03472955199575,108.75717200793521,426.51044,398.69226,-0.0,0.8037575,1.294973,0.0,2,0,0,0
46083695,34.03472918574016,108.7571688412916,426.5143,398.69495,-0.0,0.8036515,1.2954789,0.0,2,0,0,0
46287267,34.034728967167354,108.75716565619614,426.51212,398.69128,-0.0,0.8035479,1.2952522,0.0,2,0,0,0
46485889,34.03472878577908,108.75716303937259,426.52277,398.70004,-0.0,0.80343163,1.2950225,0.0,2,0,0,0
46684512,34.03472852535882,108.75716081535715,426.5259,398.70078,-0.0,0.80332214,1.2955185,0.0,2,0,0,0
46883134,34.03472825436599,108.75715866179324,426.5238,398.69513,-0.0,0.8032118,1.2952762,0.0,2,0,0,0
47081756,34.03472789585234,108.75715620694821,426.50668,398.67487,-0.0,0.8031218,1.2950362,0.0,2,0,0,0
47290310,34.03472768346257,108.75715316536781,426.49683,398.66104,-0.0,0.803283,1.2949896,0.0,2,0,0,0
47488936,34.03472775323445,108.75714982235348,426.48782,398.64716,-0.0,0.8031538,1.2954795,0.0,2,0,0,0
47682590,34.03472831284026,108.75714664302632,426.4914,398.64587,-0.0,0.80274475,1.2950356,0.0,2,0,0,0
47886177,34.03472926713572,108.75714347491001,426.49768,398.6455,-0.0,0.80262834,1.2947936,0.0,2,0,0,0
48084989,34.03472999676318,108.75714010077178,426.4965,398.6378,-0.0,0.80254173,1.2952852,0.0,2,0,0,0
48283422,34.034730199848106,108.75713643819375,426.49707,398.63132,-0.0,0.8024485,1.2950503,0.0,2,0,0,0
48482049,34.03473012337344,108.75713279769653,426.50317,398.62982,-0.0,0.8023236,1.2948114,0.0,2,0,0,0
50483238,34.034729747371834,108.75710969942453,426.73123,398.74463,-0.0,0.80159247,1.2946228,0.0,2,0,0,0
50686754,34.034729804645515,108.75710875519474,426.7215,398.7223,-0.0,0.8015019,1.2943891,0.0,2,0,0,0
54485410,34.03473111859741,108.75707491526155,426.87772,398.6684,-0.0,0.8003576,1.2935654,0.0,2,0,0,0
54684033,34.034731372290885,108.75707223470415,426.888,398.66635,-0.0,0.8003224,1.2940396,0.0,2,0,0,0
54887620,34.03473174251457,108.7570702060604,426.90924,398.67444,-0.0,0.8002807,1.2938107,0.0,2,0,0,0
55091209,34.03473190496362,108.75706871735973,426.93304,398.68524,-0.0,0.8002605,1.2935865,0.0,2,0,0,0
55289831,34.03473202670108,108.7570673764911,426.95276,398.6923,-0.0,0.8002297,1.2933674,0.0,2,0,0,0
55488454,34.03473208241041,108.75706545240857,426.9774,398.70328,-0.0,0.8001665,1.293845,0.0,2,0,0,0
55687076,34.034732026489706,108.75706297839615,426.9959,398.7088,-0.0,0.80011255,1.2936239,0.0,2,0,0,0
55885871,34.034732072668845,108.75706053597021,427.0165,398.71622,-0.0,0.80592775,1.2944899,0.0,2,0,0,0
56084322,34.03473208115709,108.75705830887564,427.04813,398.73688,-0.0,0.79997945,1.2938801,0.0,2,0,0,0
56282945,34.03473202197216,108.75705608040468,427.08322,398.75836,-0.0,0.7999095,1.2936611,0.0,2,0,0,0
56481567,34.0347318903005,108.75705369608099,427.12402,398.78455,-0.0,0.79983544,1.2934408,0.0,2,0,0,0
56690281,34.03473193214297,108.7570511898091,427.1549,398.80072,-0.0,0.80002487,1.2934014,0.0,2,0,0,0
56883778,34.03473195584929,108.75704866681248,427.18365,398.81467,-0.0,0.7996804,1.2936954,0.0,2,0,0,0
57087366,34.03473203274522,108.75704580205519,427.21368,398.8297,-0.0,0.7996156,1.2934784,0.0,2,0,0,0
57285995,34.0347320436882,108.75704312222254,427.24448,398.84586,-0.0,0.799587,1.2932572,0.0,2,0,0,0
57484714,34.03473213249828,108.75704074660241,427.27698,398.86313,-0.0,0.79952604,1.2937263,0.0,2,0,0,0
57688200,34.034732084362986,108.75703840898582,427.31116,398.88275,-0.0,0.7994995,1.2934966,0.0,2,0,0,0
57886822,34.034732015704286,108.75703604643736,427.34592,398.9018,-0.0,0.7994509,1.293268,0.0,2,0,0,0
58085445,34.034731955259964,108.75703350523614,427.37677,398.91666,-0.0,0.7993972,1.2937332,0.0,2,0,0,0
58284127,34.0347320300627,108.75703120633675,427.4021,398.92484,-0.0,0.7993491,1.2935052,0.0,2,0,0,0
58492621,34.03473209224875,108.75702892490727,427.4153,398.92203,-0.0,0.7995594,1.2934576,0.0,2,0,0,0
58686278,34.03473207631608,108.75702678963334,427.43066,398.9214,-0.0,0.7992512,1.2937429,0.0,2,0,0,0
58884902,34.034732167274655,108.7570243332562,427.44482,398.91846,-0.0,0.79919744,1.2935174,0.0,2,0,0,0
59083549,34.03473258177462,108.75702179644226,427.4575,398.91464,-0.0,0.7991432,1.2932941,0.0,2,0,0,0
59282152,34.034733348687666,108.75701916835551,427.4679,398.90756,-0.0,0.7990848,1.2937545,0.0,2,0,0,0
59485740,34.03473434470115,108.75701630494176,427.47037,398.89252,-0.0,0.7990215,1.2935237,0.0,2,0,0,0
59684358,34.03473507469939,108.75701371959835,427.4757,398.8805,-0.0,0.798957,1.2932972,0.0,2,0,0,0
59892945,34.03473542906908,108.75701133791277,427.49072,398.87848,-0.0,0.7991615,1.2932496,0.0,2,0,0,0
60086568,34.034735361241424,108.75700894955263,427.50314,398.87167,-0.0,0.80457574,1.2945905,0.0,2,0,0,0
60290157,34.034735310398275,108.75700577712607,427.52362,398.87592,-0.0,0.79872185,1.2933111,0.0,2,0,0,0
60488779,34.03473530035339,108.75700206536722,427.5486,398.88376,-0.0,0.7986909,1.2930965,0.0,2,0,0,0
60687503,34.034735404060875,108.75699851013368,427.57526,398.89276,-0.0,0.7986677,1.2928835,0.0,2,0,0,0
60886034,34.03473557946837,108.75699548597329,427.60873,398.9086,-0.0,0.7986727,1.2933533,0.0,2,0,0,0
61084650,34.034735834293194,108.75699278900123,427.63397,398.9161,-0.0,0.79866135,1.2931377,0.0,2,0,0,0
61293201,34.03473605442132,108.75699042760083,427.66116,398.92615,-0.0,0.79896057,1.2931007,0.0,2,0,0,0
61491835,34.03473632621058,108.75698842406469,427.68176,398.92834,-0.0,0.79902,1.2935729,0.0,2,0,0,0
61690446,34.0347364938982,108.75698614394922,427.69608,398.92468,-0.0,0.79908305,1.2933576,0.0,2,0,0,0
61884103,34.0347365145886,108.75698342770693,427.70612,398.91626,-0.0,0.7988741,1.2929671,0.0,2,0,0,0
62082730,34.034736632153724,108.75698035469706,427.71722,398.90945,-0.0,0.79896694,1.2934389,0.0,2,0,0,0
62281349,34.034736730550186,108.75697703505907,427.72504,398.8991,-0.0,0.7990737,1.2932285,0.0,2,0,0,0
62484937,34.03473676095573,108.7569738058136,427.7343,398.89114,-0.0,0.7991887,1.2930218,0.0,2,0,0,0
62688525,34.03473672427916,108.75697079608082,427.74847,398.88785,-0.0,0.79929984,1.2928184,0.0,2,0,0,0
62887155,34.03473667381901,108.75696788520634,427.7645,398.88577,-0.0,0.7994173,1.2932918,0.0,2,0,0,0
63085772,34.034736548198595,108.75696482455434,427.77182,398.87543,-0.0,0.79954535,1.2930804,0.0,2,0,0,0
63284394,34.034736478382456,108.75696187453818,427.78302,398.86963,-0.0,0.79967767,1.2928727,0.0,2,0,0,0
63487996,34.034736492516195,108.75695894205381,427.8039,398.87457,-0.0,0.79980093,1.2933453,0.0,2,0,0,0
63686760,34.03473657235928,108.75695619004354,427.83035,398.88376,-0.0,0.79992956,1.2931358,0.0,2,0,0,0
63885228,34.03473669422987,108.75695349360987,427.85043,398.8871,-0.0,0.80005366,1.2929316,0.0,2,0,0,0
64083863,34.03473697254502,108.75695076115954,427.8762,398.89673,-0.0,0.8001588,1.2927268,0.0,2,0,0,0
64292405,34.034737604920764,108.75694796791538,427.89948,398.90436,-0.0,0.8005266,1.2933773,0.0,2,0,0,0
64491169,34.03473817306064,108.75694530089362,427.91934,398.9082,-0.0,0.8006134,1.2931634,0.0,2,0,0,0
64684684,34.034738689082246,108.75694244826437,427.9335,398.906,-0.0,0.8004295,1.2927741,0.0,2,0,0,0
64883307,34.0347392005452,108.7569395317167,427.94077,398.89734,-0.0,0.8005129,1.2932452,0.0,2,0,0,0
65086897,34.03473982553769,108.7569366642045,427.95523,398.89597,-0.0,0.80056596,1.293033,0.0,2,0,0,0
65285601,34.034740666198395,108.75693381258841,427.9696,398.89438,-0.0,0.8006448,1.2928239,0.0,2,0,0,0
65484204,34.0347415783205,108.75693104857011,427.98044,398.88885,-0.0,0.80070674,1.2932999,0.0,2,0,0,0
65692695,34.03474246041562,108.75692816395964,427.9973,398.88965,-0.0,0.8009981,1.2932671,0.0,2,0,0,0
65886352,34.03474308122309,108.75692559097283,428.0091,398.886,-0.0,0.8007359,1.2928843,0.0,2,0,0,0
66085025,34.03474338217445,108.75692334650027,428.02975,398.89062,-0.0,0.8007641,1.2933547,0.0,2,0,0,0
66283598,34.034743428057354,108.75692194404171,428.05405,398.89868,-0.0,0.80077857,1.293141,0.0,2,0,0,0
66487191,34.034743481170786,108.7569212704351,428.07217,398.90088,-0.0,0.8007792,1.2929245,0.0,2,0,0,0
66680844,34.034743585077486,108.75692082478605,428.0819,398.89453,-0.0,0.8005033,1.2932118,0.0,2,0,0,0
66889491,34.03474358934694,108.75692003648662,428.08884,398.88544,-0.0,0.80074394,1.2931656,0.0,2,0,0,0
67088021,34.034743677751045,108.75691941295071,428.09308,398.87445,-0.0,0.80072725,1.2929403,0.0,2,0,0,0
67286643,34.03474374946036,108.75691908681758,428.09735,398.86392,-0.0,0.8007393,1.2934029,0.0,2,0,0,0
67485288,34.03474382410636,108.7569188856855,428.10043,398.85156,-0.0,0.8007336,1.2931815,0.0,2,0,0,0
67683889,34.034743879722555,108.75691846644847,428.10468,398.8411,-0.0,0.8007285,1.2929605,0.0,2,0,0,0
67882511,34.03474392407971,108.75691749883377,428.11533,398.8375,-0.0,0.8006839,1.2934215,0.0,2,0,0,0
68081136,34.03474390806443,108.75691573062466,428.1296,398.83887,-0.0,0.80062956,1.2932011,0.0,2,0,0,0
68284722,34.034743821394684,108.75691328417278,428.14206,398.83878,-0.0,0.80058235,1.2929823,0.0,2,0,0,0
68483391,34.03474374680496,108.75691080425062,428.14978,398.83386,-0.0,0.80055135,1.2927666,0.0,2,0,0,0
68686936,34.0347438502281,108.75690890787314,428.17093,398.84302,-0.0,0.80053854,1.2932333,0.0,2,0,0,0
68885557,34.03474394399564,108.75690776613858,428.187,398.84653,-0.0,0.80054164,1.2930232,0.0,2,0,0,0
69089145,34.03474404401925,108.75690684985713,428.19507,398.84134,-0.0,0.8005567,1.2928044,0.0,2,0,0,0
69287769,34.034744064068285,108.75690549763503,428.20233,398.83536,-0.0,0.8005772,1.293269,0.0,2,0,0,0
69486406,34.03474396469011,108.75690311642633,428.21234,398.83246,-0.0,0.8005992,1.2930582,0.0,2,0,0,0
69685014,34.03474386775924,108.75689972074062,428.22247,398.83,-0.0,0.800643,1.2928448,0.0,2,0,0,0
69883640,34.034743784744705,108.75689578483255,428.23138,398.8264,-0.0,0.8007146,1.2933127,0.0,2,0,0,0
70092195,34.034743725261464,108.75689159314729,428.25027,398.83334,-0.0,0.80107415,1.2932744,0.0,2,0,0,0
70290814,34.0347437399941,108.75688807237736,428.27844,398.8485,-0.0,0.8011511,1.2930638,0.0,2,0,0,0
70484474,34.03474378828639,108.75688524446379,428.30237,398.8595,-0.0,0.80096143,1.2926794,0.0,2,0,0,0
70683254,34.034743877637034,108.7568828943236,428.3278,398.87195,-0.0,0.8010361,1.2931494,0.0,2,0,0,0
70881717,34.03474393209835,108.75688110976206,428.35278,398.88333,-0.0,0.80110085,1.2929438,0.0,2,0,0,0
71085301,34.034744013927984,108.75687949265506,428.3783,398.895,-0.0,0.80691755,1.29374,0.0,2,0,0,0
71283931,34.034744296110524,108.75687801814252,428.41003,398.9123,-0.0,0.80122656,1.292536,0.0,2,0,0,0
71482689,34.03474470727507,108.75687638956708,428.42953,398.91675,-0.0,0.8013035,1.2930098,0.0,2,0,0,0
71686141,34.034745210627456,108.75687481975567,428.44025,398.91168,-0.0,0.8013566,1.2928073,0.0,2,0,0,0
71884765,34.034745848812285,108.75687314752524,428.44376,398.8995,-0.0,0.80138487,1.2926122,0.0,2,0,0,0
72083385,34.03474647126318,108.75687142354744,428.43994,398.88095,-0.0,0.8014225,1.2924174,0.0,2,0,0,0
72282103,34.03474712130167,108.75686966525062,428.4346,398.85977,-0.0,0.80140656,1.2928951,0.0,2,0,0,0
72485597,34.0347478012088,108.75686774523264,428.43314,398.84314,-0.0,0.80138737,1.2926989,0.0,2,0,0,0
72684221,34.03474830723895,108.7568656944806,428.4424,398.83676,-0.0,0.8013729,1.2925018,0.0,2,0,0,0
72882843,34.03474860040972,108.75686365970896,428.44415,398.82373,-0.0,0.8013384,1.2929741,0.0,2,0,0,0
73091495,34.034748577084834,108.7568612900706,428.44516,398.8105,-0.0,0.80155987,1.2929448,0.0,2,0,0,0
73285055,34.03474840101322,108.75685825740355,428.4589,398.8098,-0.0,0.80127484,1.2925669,0.0,2,0,0,0
73483677,34.03474821848809,108.75685419672233,428.47394,398.81097,-0.0,0.80131555,1.2930421,0.0,2,0,0,0
73682300,34.03474815068283,108.75684952092948,428.4862,398.80963,-0.0,0.80138624,1.2928414,0.0,2,0,0,0
73890970,34.034748113235395,108.75684447419033,428.50778,398.81738,-0.0,0.80750996,1.2938132,0.0,2,0,0,0
74084512,34.034748099926794,108.75683988881036,428.5315,398.82916,-0.0,0.8072094,1.2941132,0.0,2,0,0,0
74283134,34.034748073732416,108.75683555763445,428.56345,398.8483,-0.0,0.8016082,1.2928927,0.0,2,0,0,0
74491688,34.034748076917865,108.75683189147483,428.6026,398.87457,-0.0,0.8020306,1.292861,0.0,2,0,0,0
74690342,34.03474821184651,108.75682945752415,428.64377,398.90298,-0.0,0.80220777,1.2926544,0.0,2,0,0,0
74883968,34.034748338972705,108.75682818606887,428.67902,398.92407,-0.0,0.80212414,1.2929503,0.0,2,0,0,0
75082625,34.03474848734891,108.75682779887337,428.70093,398.9303,-0.0,0.802281,1.2927477,0.0,2,0,0,0
75286180,34.03474869671066,108.75682761552105,428.6929,398.9046,-0.0,0.80239975,1.2925458,0.0,2,0,0,0
75484805,34.03474889905343,108.75682739470362,428.6713,398.8662,-0.0,0.8024908,1.2930186,0.0,2,0,0,0
75683426,34.034749046033674,108.75682697120213,428.64655,398.82584,-0.0,0.80255806,1.2928191,0.0,2,0,0,0
75887017,34.03474918850339,108.75682607315615,428.62885,398.7924,-0.0,0.8025949,1.2926213,0.0,2,0,0,0
76085638,34.03474923488761,108.75682454023185,428.62405,398.7724,-0.0,0.8026141,1.2930917,0.0,2,0,0,0
76284261,34.03474927092542,108.75682270903546,428.61893,398.75256,-0.0,0.8026443,1.2928878,0.0,2,0,0,0
76482902,34.03474931574714,108.75682066281819,428.61746,398.73715,-0.0,0.8026994,1.2926853,0.0,2,0,0,0
76691439,34.03474938297164,108.75681813812348,428.617,398.72278,-0.0,0.8030459,1.2926551,0.0,2,0,0,0
76885095,34.03474952026083,108.75681573609053,428.61853,398.711,-0.0,0.80286324,1.2929524,0.0,2,0,0,0
77083719,34.03474964425546,108.75681307532055,428.6169,398.69666,-0.0,0.80296826,1.2927498,0.0,2,0,0,0
77282341,34.034749793191665,108.7568099948582,428.61533,398.68295,-0.0,0.80311316,1.2925526,0.0,2,0,0,0
77490897,34.034749808833574,108.75680658445489,428.6229,398.67908,-0.0,0.8035628,1.2925271,0.0,2,0,0,0
77679745,34.034749873518855,108.75680328470804,428.63336,398.67914,-0.0,0.8034776,1.2928288,0.0,2,0,0,0
77883187,34.03475002179615,108.7568000752497,428.65076,398.6873,-0.0,0.8036781,1.2926327,0.0,2,0,0,0
78086765,34.034750106692236,108.75679752724784,428.67352,398.70087,-0.0,0.80385876,1.2924397,0.0,2,0,0,0
78285388,34.034750181923684,108.75679537405811,428.69647,398.71432,-0.0,0.8040167,1.2929143,0.0,2,0,0,0
78484156,34.03475014793766,108.75679294507584,428.72488,398.73312,-0.0,0.80418235,1.2927144,0.0,2,0,0,0
78682635,34.03475011635938,108.75678981700665,428.75934,398.7566,-0.0,0.804356,1.2925119,0.0,2,0,0,0
78886223,34.03475014357244,108.75678632682946,428.77832,398.76547,-0.0,0.80453026,1.2929851,0.0,2,0,0,0
79084846,34.034750140530484,108.7567831993811,428.79965,398.7772,-0.0,0.8047003,1.2927842,0.0,2,0,0,0
79283639,34.034750170440645,108.75678100152321,428.83145,398.7992,-0.0,0.8048692,1.2925849,0.0,2,0,0,0
79487059,34.034750088543966,108.75678007872223,428.85645,398.81476,-0.0,0.80503,1.2923895,0.0,2,0,0,0
79685684,34.034750127301,108.7567798912722,428.8752,398.82394,-0.0,0.8051436,1.2928659,0.0,2,0,0,0
79884307,34.03475015086528,108.75677991296462,428.8834,398.82193,-0.0,0.80519223,1.2926697,0.0,2,0,0,0
80083057,34.03475012451529,108.75677975035366,428.88467,398.8133,-0.0,0.8052013,1.2924746,0.0,2,0,0,0
80286552,34.034750167161846,108.75677957242512,428.8834,398.80313,-0.0,0.8051844,1.2922808,0.0,2,0,0,0
80485140,34.03475016919703,108.75677903826755,428.88644,398.79788,-0.0,0.8051609,1.2927594,0.0,2,0,0,0
80683762,34.03475011492195,108.75677766716822,428.8965,398.80087,-0.0,0.8051264,1.2925693,0.0,2,0,0,0
80892395,34.03475002873677,108.75677539446342,428.90945,398.80655,-0.0,0.8053596,1.2925481,0.0,2,0,0,0
81085973,34.034749939116004,108.75677293600612,428.916,398.80634,-0.0,0.8110681,1.2938559,0.0,2,0,0,0
81289562,34.03474994029282,108.75677027705818,428.9231,398.80798,-0.0,0.8049411,1.2926636,0.0,2,0,0,0
81488190,34.03474989776376,108.75676777264894,428.93796,398.81693,-0.0,0.804883,1.2924751,0.0,2,0,0,0
81686830,34.03475011257873,108.75676558617455,428.96252,398.83667,-0.0,0.80483866,1.2922884,0.0,2,0,0,0
81885432,34.0347507891787,108.75676388715857,428.99405,398.8632,-0.0,0.80477947,1.292772,0.0,2,0,0,0
82089020,34.03475171286731,108.75676251067263,429.02417,398.888,-0.0,0.8047206,1.2925862,0.0,2,0,0,0
82287643,34.03475242073765,108.7567614681449,429.0426,398.90125,-0.0,0.80465806,1.2923986,0.0,2,0,0,0
82486268,34.03475275266718,108.75676088170007,429.04752,398.90103,-0.0,0.8046367,1.2928776,0.0,2,0,0,0
82684924,34.03475282506136,108.7567606232524,429.0449,398.89337,-0.0,0.80468166,1.2926809,0.0,2,0,0,0
82883512,34.03475296086418,108.75676027575744,429.03143,398.875,-0.0,0.8047724,1.2924851,0.0,2,0,0,0
83082135,34.034753023723454,108.75675943008008,428.99976,398.83813,-0.0,0.80506617,1.2930626,0.0,2,0,0,0
83290691,34.03475304494873,108.75675766367145,428.9374,398.77087,-0.0,0.8054835,1.2930386,0.0,2,0,0,0
83484347,34.03475327253176,108.75675542644305,428.88153,398.7115,-0.0,0.8053353,1.2926643,0.0,2,0,0,0
83692905,34.034753623948276,108.75675266387417,428.81705,398.64365,-0.0,0.8057694,1.2926408,0.0,2,0,0,0
83886560,34.03475385462932,108.75675037311818,428.73688,398.5608,-0.0,0.80565447,1.2929448,0.0,2,0,0,0
84085182,34.03475395077506,108.75674852602455,428.67242,398.49313,-0.0,0.80582815,1.2927463,0.0,2,0,0,0
84288771,34.03475411752571,108.75674673986832,428.62463,398.44193,-0.0,0.80599475,1.2925528,0.0,2,0,0,0
84487394,34.034754296436525,108.75674455976927,428.60388,398.41772,-0.0,0.80619544,1.292363,0.0,2,0,0,0
84676302,34.034754572825314,108.75674196295805,428.58307,398.3924,-0.0,0.8061276,1.2926716,0.0,2,0,0,0
84889606,34.034754929270434,108.75673884850659,428.54605,398.35168,-0.0,0.80662173,1.2926557,0.0,2,0,0,0
85088231,34.034755240680965,108.75673606681197,428.5245,398.32697,-0.0,0.8068768,1.292468,0.0,2,0,0,0
85286852,34.034755592727194,108.75673323953798,428.50745,398.30606,-0.0,0.80711555,1.2929515,0.0,2,0,0,0
85485653,34.03475600687837,108.7567303343941,428.4912,398.28473,-0.0,0.80729795,1.2927605,0.0,2,0,0,0
85684101,34.0347564041343,108.75672762394481,428.4874,398.27548,-0.0,0.8074367,1.2925597,0.0,2,0,0,0
85882722,34.034756748565215,108.7567250371928,428.48553,398.26883,-0.0,0.8136445,1.2940446,0.0,2,0,0,0
86086311,34.03475692225211,108.75672217655296,428.4848,398.26376,-0.0,0.8075625,1.2928293,0.0,2,0,0,0
86285064,34.03475699125602,108.75671955726364,428.47635,398.25058,-0.0,0.80757964,1.2926313,0.0,2,0,0,0
86483557,34.034756916228176,108.75671678322962,428.46597,398.23572,-0.0,0.8075917,1.292435,0.0,2,0,0,0
86687146,34.034756755142986,108.75671353249884,428.4594,398.22427,-0.0,0.8075775,1.2929108,0.0,2,0,0,0
86885770,34.034756664696616,108.7567102471176,428.44952,398.20978,-0.0,0.8075649,1.2927163,0.0,2,0,0,0
87084485,34.034756661232144,108.75670703430646,428.43393,398.1891,-0.0,0.807506,1.2925215,0.0,2,0,0,0
87283015,34.03475667017256,108.7567040957152,428.42203,398.17233,-0.0,0.80747074,1.2930002,0.0,2,0,0,0
87486605,34.034756697420875,108.75670146562125,428.42706,398.17276,-0.0,0.80745625,1.2928045,0.0,2,0,0,0
87685227,34.0347568006363,108.75669881805693,428.4365,398.17767,-0.0,0.80750155,1.2926126,0.0,2,0,0,0
87883910,34.03475680483954,108.75669573656,428.43628,398.17273,-0.0,0.8075323,1.2924213,0.0,2,0,0,0
88087439,34.03475670532863,108.75669227018706,428.42496,398.1568,-0.0,0.80750823,1.2929006,0.0,2,0,0,0
88286084,34.034756676319546,108.75668883287503,428.41553,398.14377,-0.0,0.80748683,1.2927123,0.0,2,0,0,0
88484686,34.03475665446593,108.75668553031328,428.4095,398.13403,-0.0,0.8074093,1.2925216,0.0,2,0,0,0
88683336,34.03475672621512,108.75668223781067,428.4056,398.12656,-0.0,0.8073075,1.2930022,0.0,2,0,0,0
88881933,34.03475688166834,108.75667861213694,428.40015,398.11774,-0.0,0.8071951,1.2928022,0.0,2,0,0,0
89080555,34.0347572406506,108.75667499308565,428.40955,398.12332,-0.0,0.8132742,1.2935953,0.0,2,0,0,0
89284144,34.03475791369358,108.75667156003337,428.41147,398.12158,-0.0,0.8069134,1.2930729,0.0,2,0,0,0
89492728,34.034758529637344,108.75666853996722,428.41342,398.11996,-0.0,0.80703956,1.2930453,0.0,2,0,0,0
89686356,34.03475880513703,108.75666598641648,428.4121,398.1156,-0.0,0.80661,1.292673,0.0,2,0,0,0
89884989,34.034758708005896,108.7566631698255,428.4183,398.1193,-0.0,0.8064824,1.2924805,0.0,2,0,0,0
90083603,34.034758649489774,108.75666010062407,428.43228,398.13037,-0.0,0.8063228,1.2929577,0.0,2,0,0,0
90282228,34.03475861388908,108.75665726234021,428.4452,398.14093,-0.0,0.8061918,1.2927624,0.0,2,0,0,0
90485815,34.03475866815201,108.75665497315806,428.4547,398.14822,-0.0,0.8060408,1.2925693,0.0,2,0,0,0
90684440,34.03475871831935,108.75665313339194,428.45847,398.1496,-0.0,0.8059158,1.2923777,0.0,2,0,0,0
90888027,34.03475875646528,108.75665099622312,428.46082,398.15082,-0.0,0.80575806,1.2928492,0.0,2,0,0,0
91086654,34.03475877688041,108.75664818215668,428.46387,398.15256,-0.0,0.80561805,1.29265,0.0,2,0,0,0
91285277,34.03475871256976,108.75664496131465,428.4527,398.14056,-0.0,0.8055028,1.2924517,0.0,2,0,0,0
91483898,34.03475872791924,108.75664191496443,428.43854,398.12604,-0.0,0.8054271,1.2929264,0.0,2,0,0,0
91682520,34.034758807982584,108.75663917553811,428.42737,398.11307,-0.0,0.8053243,1.2927257,0.0,2,0,0,0
91881146,34.034758859706855,108.75663648272605,428.40802,398.09152,-0.0,0.80523586,1.2925259,0.0,2,0,0,0
92084786,34.034758910195,108.75663355920328,428.39035,398.07227,-0.0,0.8051716,1.2930003,0.0,2,0,0,0
92288321,34.03475895069036,108.75663041594031,428.3856,398.066,-0.0,0.8051595,1.2928023,0.0,2,0,0,0
92487137,34.034759005730905,108.75662712989573,428.3741,398.05228,-0.0,0.8052098,1.2926106,0.0,2,0,0,0
92685568,34.03475915557038,108.75662378311976,428.36713,398.04333,-0.0,0.8052788,1.2924197,0.0,2,0,0,0
92884195,34.034759283144005,108.75662070857678,428.36542,398.03986,-0.0,0.8053358,1.2928991,0.0,2,0,0,0
93087781,34.034759450639655,108.75661766959435,428.36682,398.03925,-0.0,0.80539644,1.2927064,0.0,2,0,0,0
93286553,34.03475952029243,108.75661489063302,428.3729,398.04346,-0.0,0.8054966,1.2925154,0.0,2,0,0,0
93485027,34.034759590271214,108.75661214412767,428.37982,398.04788,-0.0,0.80560714,1.2923273,0.0,2,0,0,0
93688619,34.03475984866975,108.7566095067874,428.38342,398.04907,-0.0,0.8056998,1.2928071,0.0,2,0,0,0
93887240,34.03476034791188,108.75660730284051,428.37912,398.04276,-0.0,0.8058115,1.292619,0.0,2,0,0,0
94085979,34.03476076815081,108.75660559645596,428.37537,398.0365,-0.0,0.8059104,1.2924311,0.0,2,0,0,0
94284487,34.03476107194219,108.75660415158298,428.37436,398.03168,-0.0,0.8059749,1.2922437,0.0,2,0,0,0
94483109,34.03476155650417,108.7566026035451,428.36624,398.02057,-0.0,0.8060407,1.2927251,0.0,2,0,0,0
94686698,34.03476231333063,108.756600221461,428.37302,398.02493,-0.0,0.80613613,1.2925363,0.0,2,0,0,0
94885403,34.03476323270684,108.75659731411866,428.37802,398.0273,-0.0,0.80625033,1.2923478,0.0,2,0,0,0
95083967,34.03476394411069,108.75659431106567,428.38126,398.0289,-0.0,0.8064094,1.2928332,0.0,2,0,0,0
95282568,34.03476432640375,108.75659156956712,428.38086,398.02893,-0.0,0.80658585,1.2926459,0.0,2,0,0,0
95486198,34.03476422247882,108.75658886653066,428.3876,398.03644,-0.0,0.8067535,1.2924578,0.0,2,0,0,0
95684828,34.03476401851748,108.75658595186863,428.40656,398.05615,-0.0,0.8069508,1.292273,0.0,2,0,0,0
95883403,34.03476382382174,108.75658275955055,428.42203,398.07315,-0.0,0.80715,1.2927558,0.0,2,0,0,0
96086992,34.03476381299598,108.75657926262512,428.44095,398.09344,-0.0,0.8073445,1.2925718,0.0,2,0,0,0
96285616,34.03476389945269,108.75657583371581,428.45135,398.10468,-0.0,0.8075332,1.292388,0.0,2,0,0,0
96484262,34.034764072473585,108.75657254100511,428.46014,398.11414,-0.0,0.80773115,1.2922065,0.0,2,0,0,0
96682862,34.03476416829583,108.756569126585,428.4603,398.11545,-0.0,0.807932,1.292693,0.0,2,0,0,0
96886453,34.03476419299673,108.7565653260882,428.47058,398.1276,-0.0,0.80813503,1.2925079,0.0,2,0,0,0
97085076,34.03476423077867,108.75656146432235,428.48434,398.14322,-0.0,0.8083332,1.292325,0.0,2,0,0,0
97283775,34.03476430919414,108.75655757829699,428.49146,398.1523,-0.0,0.8085289,1.292811,0.0,2,0,0,0
97482321,34.034764330514115,108.75655350548455,428.50238,398.1651,-0.0,0.808691,1.2926253,0.0,2,0,0,0
97690876,34.03476444527404,108.75654905238991,428.50964,398.17398,-0.0,0.8091386,1.2926084,0.0,2,0,0,0
97884534,34.03476474656901,108.75654471148228,428.5221,398.18774,-0.0,0.8151004,1.293916,0.0,2,0,0,0
98083158,34.03476507248016,108.75654024969242,428.5308,398.19852,-0.0,0.8090386,1.2927147,0.0,2,0,0,0
98291712,34.034765285393284,108.7565359733248,428.53583,398.20627,-0.0,0.8094354,1.2926953,0.0,2,0,0,0
98485373,34.03476535678074,108.75653233386556,428.5505,398.22372,-0.0,0.81537884,1.2933139,0.0,2,0,0,0
98688962,34.03476539345375,108.75652859215369,428.56857,398.24426,-0.0,0.80935174,1.2928072,0.0,2,0,0,0
98887606,34.03476554468118,108.75652466886955,428.59344,398.27136,-0.0,0.80950564,1.2926193,0.0,2,0,0,0
99086205,34.034765817734105,108.75652062068683,428.61383,398.29355,-0.0,0.8157533,1.2934192,0.0,2,0,0,0
99284829,34.03476603325784,108.75651668585212,428.63104,398.31238,-0.0,0.8157399,1.2932183,0.0,2,0,0,0
99483646,34.03476635940588,108.756512600121,428.64294,398.32663,-0.0,0.81588507,1.293712,0.0,2,0,0,0
99687041,34.034766502051795,108.75650826492732,428.66357,398.34937,-0.0,0.8160842,1.2935278,0.0,2,0,0,0
99885664,34.034766688281834,108.75650473231518,428.68597,398.37396,-0.0,0.81625754,1.2933327,0.0,2,0,0,0
100084290,34.034766954403544,108.75650211422436,428.71243,398.4021,-0.0,0.8164078,1.2938297,0.0,2,0,0,0
100283062,34.03476720423104,108.7565005151026,428.7264,398.41803,-0.0,0.8165259,1.2936314,0.0,2,0,0,0
100481537,34.03476732776439,108.75649902465146,428.73206,398.42514,-0.0,0.8165846,1.2934335,0.0,2,0,0,0
100685124,34.034767524766856,108.7564971198891,428.74368,398.43686,-0.0,0.81658226,1.2932366,0.0,2,0,0,0
100883750,34.03476779757121,108.75649479133538,428.74814,398.4406,-0.0,0.8165198,1.293732,0.0,2,0,0,0
101082489,34.03476849669121,108.75649222759645,428.73682,398.4282,-0.0,0.816426,1.2935352,0.0,2,0,0,0
101290937,34.03476920050641,108.75648958859597,428.71783,398.40872,-0.0,0.81026596,1.292527,0.0,2,0,0,0
101484583,34.03476973520465,108.75648708062133,428.7012,398.3913,-0.0,0.8161218,1.2938313,0.0,2,0,0,0
101688172,34.034770228464566,108.75648374410854,428.68842,398.3777,-0.0,0.80976886,1.2926469,0.0,2,0,0,0
101886898,34.03477063391808,108.75647981353593,428.67267,398.36075,-0.0,0.80965024,1.2924594,0.0,2,0,0,0
102085423,34.034771180304496,108.7564755468936,428.66095,398.34808,-0.0,0.80953985,1.292276,0.0,2,0,0,0
102289056,34.03477163706686,108.7564715475171,428.65454,398.34042,-0.0,0.8094523,1.2927604,0.0,2,0,0,0
102487632,34.03477184945398,108.75646793181878,428.6644,398.34903,-0.0,0.80938625,1.2925714,0.0,2,0,0,0
102686384,34.03477179265161,108.75646432307757,428.6736,398.3558,-0.0,0.80934095,1.2923812,0.0,2,0,0,0
102884878,34.03477175858498,108.75646059113589,428.67767,398.3573,-0.0,0.8093103,1.292857,0.0,2,0,0,0
103083502,34.03477178080338,108.75645706535552,428.68515,398.36108,-0.0,0.81543624,1.2936537,0.0,2,0,0,0
103292057,34.034771867355154,108.75645360763278,428.68524,398.3588,-0.0,0.80946225,1.2926363,0.0,2,0,0,0
103490778,34.034771928224266,108.7564501596802,428.68536,398.35587,-0.0,0.80948126,1.2924428,0.0,2,0,0,0
103684339,34.0347718473126,108.75644655897042,428.6898,398.35754,-0.0,0.8153053,1.2937368,0.0,2,0,0,0
103882961,34.03477173620128,108.75644273355286,428.69296,398.35812,-0.0,0.81535643,1.2935364,0.0,2,0,0,0
104086603,34.03477179115421,108.75643890366287,428.70422,398.36694,-0.0,0.80934316,1.2923597,0.0,2,0,0,0
104285221,34.03477194056819,108.7564355320473,428.7169,398.37793,-0.0,0.80938303,1.2921708,0.0,2,0,0,0
104488763,34.03477206834943,108.75643246238852,428.7339,398.3931,-0.0,0.80942273,1.292651,0.0,2,0,0,0
104687387,34.03477216117491,108.75642910286163,428.75217,398.40866,-0.0,0.8094676,1.2924647,0.0,2,0,0,0
104886010,34.03477241355257,108.75642534111088,428.77036,398.4241,-0.0,0.8095173,1.2922809,0.0,2,0,0,0
105084634,34.034773108825846,108.75642160253896,428.78662,398.43762,-0.0,0.80957323,1.2927629,0.0,2,0,0,0
105283257,34.03477378464143,108.75641830311656,428.79712,398.44592,-0.0,0.809634,1.2925755,0.0,2,0,0,0
105486848,34.0347740972175,108.75641516076122,428.8019,398.44897,-0.0,0.80968624,1.2923906,0.0,2,0,0,0
105685470,34.03477424372187,108.75641223823047,428.81488,398.46066,-0.0,0.80974007,1.2922059,0.0,2,0,0,0
105884094,34.03477416012475,108.75640933971262,428.8303,398.47458,-0.0,0.8159321,1.2936796,0.0,2,0,0,0
106092648,34.034774266412654,108.75640631186585,428.83884,398.4822,-0.0,0.8101681,1.2926761,0.0,2,0,0,0
106291272,34.03477463300235,108.75640293544595,428.84875,398.49023,-0.0,0.8102393,1.2924886,0.0,2,0,0,0
106480158,34.03477513063734,108.75639943921917,428.84506,398.48517,-0.0,0.8161591,1.2937913,0.0,2,0,0,0
106683553,34.034775331144644,108.75639596178978,428.842,398.4814,-0.0,0.81011593,1.2926087,0.0,2,0,0,0
106887142,34.034775330181446,108.75639287176422,428.84723,398.48666,-0.0,0.81632876,1.2934045,0.0,2,0,0,0
107085814,34.03477520244266,108.75638970184183,428.86728,398.5065,-0.0,0.81012255,1.2929002,0.0,2,0,0,0
107284568,34.03477504345364,108.75638632940098,428.87842,398.51804,-0.0,0.81006515,1.2927055,0.0,2,0,0,0
107492947,34.034774941855474,108.75638239378193,428.89343,398.53387,-0.0,0.810232,1.292675,0.0,2,0,0,0
107686602,34.03477490301728,108.75637858541958,428.90482,398.54703,-0.0,0.8161303,1.2939714,0.0,2,0,0,0
107885226,34.03477490587495,108.75637490588726,428.9186,398.56265,-0.0,0.8096496,1.2927716,0.0,2,0,0,0
108083987,34.03477521601697,108.75637153965164,428.92624,398.5718,-0.0,0.8094931,1.2925727,0.0,2,0,0,0
108287439,34.03477592348267,108.75636816687131,428.93762,398.58405,-0.0,0.80931085,1.2923731,0.0,2,0,0,0
108486062,34.034776507978385,108.75636500298614,428.9384,398.58505,-0.0,0.8091146,1.2928478,0.0,2,0,0,0
108684728,34.03477673731162,108.7563623104614,428.93958,398.5864,-0.0,0.80888927,1.2926517,0.0,2,0,0,0
108883462,34.034776720429754,108.75636055667893,428.9403,398.58688,-0.0,0.80864877,1.2924546,0.0,2,0,0,0
109086902,34.03477664468829,108.7563596864948,428.93436,398.5807,-0.0,0.8084478,1.2929233,0.0,2,0,0,0
109285522,34.034776697833934,108.75635915643495,428.9254,398.5719,-0.0,0.8083082,1.292717,0.0,2,0,0,0
109484145,34.03477678438356,108.75635834768381,428.91672,398.56354,-0.0,0.80821705,1.293179,0.0,2,0,0,0
109682868,34.03477681664588,108.75635664183967,428.9083,398.5552,-0.0,0.8081701,1.2929635,0.0,2,0,0,0
109881393,34.03477684379743,108.75635379440577,428.90475,398.5522,-0.0,0.8142359,1.2937365,0.0,2,0,0,0
110084990,34.03477693638588,108.75634994514087,428.8971,398.54587,-0.0,0.8081259,1.2925345,0.0,2,0,0,0
110283606,34.03477695222308,108.75634559098738,428.89462,398.54626,-0.0,0.80816364,1.2929899,0.0,2,0,0,0
110492243,34.034777112136936,108.75634101932762,428.90622,398.55978,-0.0,0.80850744,1.2929404,0.0,2,0,0,0
110685820,34.03477730201642,108.75633695023865,428.92297,398.57886,-0.0,0.8083068,1.2925508,0.0,2,0,0,0
110884495,34.03477764351647,108.75633339945043,428.95465,398.6135,-0.0,0.8084181,1.2930113,0.0,2,0,0,0
111088032,34.03477792335508,108.75633110608408,428.99982,398.6616,-0.0,0.80854756,1.2928002,0.0,2,0,0,0
111286682,34.034778151639486,108.75633002087596,429.04156,398.7046,-0.0,0.80866235,1.292589,0.0,2,0,0,0
111485278,34.034778309657604,108.75632981363624,429.0644,398.728,-0.0,0.80875725,1.2923827,0.0,2,0,0,0
111688903,34.034778443778414,108.75632980634886,429.06564,398.72983,-0.0,0.8088234,1.292849,0.0,2,0,0,0
111887491,34.03477860323343,108.75632964555761,429.062,398.72653,-0.0,0.80890363,1.292645,0.0,2,0,0,0
112086118,34.034778723800315,108.75632922039946,429.0514,398.71652,-0.0,0.8090186,1.292443,0.0,2,0,0,0
112284738,34.03477878850378,108.75632821285555,429.04605,398.71143,-0.0,0.8091467,1.2929146,0.0,2,0,0,0
112483363,34.034778768160535,108.75632642446436,429.04367,398.70926,-0.0,0.8092262,1.2927114,0.0,2,0,0,0
112681986,34.03477879339031,108.75632420454052,429.0384,398.7053,-0.0,0.8092869,1.2925054,0.0,2,0,0,0
112880609,34.03477887264195,108.75632168530893,429.03793,398.70612,-0.0,0.81546634,1.2939578,0.0,2,0,0,0
113084199,34.03477879921018,108.75631877519949,429.0451,398.71432,-0.0,0.81548274,1.2937382,0.0,2,0,0,0
113292753,34.03477884505453,108.756315457733,429.05063,398.72083,-0.0,0.80968416,1.2927182,0.0,2,0,0,0
113486442,34.0347788289756,108.75631211816065,429.0537,398.7257,-0.0,0.80946195,1.2923433,0.0,2,0,0,0
113685037,34.03477872258847,108.75630866722875,429.06015,398.73416,-0.0,0.8095243,1.292808,0.0,2,0,0,0
113888624,34.034778723438826,108.75630522647964,429.07867,398.7544,-0.0,0.8095922,1.2926078,0.0,2,0,0,0
114087248,34.034778645184396,108.75630200431253,429.09152,398.76913,-0.0,0.80967027,1.292411,0.0,2,0,0,0
114285875,34.03477856109776,108.75629877717772,429.11157,398.79007,-0.0,0.8097495,1.2922157,0.0,2,0,0,0
114484497,34.03477855428458,108.75629592129891,429.13663,398.81516,-0.0,0.80983806,1.2926893,0.0,2,0,0,0
114688084,34.03477853056042,108.75629336447908,429.16614,398.84372,-0.0,0.80992585,1.292494,0.0,2,0,0,0
114886708,34.0347783994161,108.75629105199104,429.18167,398.85687,-0.0,0.80997455,1.2923038,0.0,2,0,0,0
115085527,34.03477818611147,108.75628864147356,429.19363,398.86584,-0.0,0.8099777,1.2927803,0.0,2,0,0,0
115283955,34.03477792491242,108.75628586632347,429.21487,398.88333,-0.0,0.80993974,1.2925875,0.0,2,0,0,0
115482579,34.03477784308971,108.75628265632743,429.24365,398.90826,-0.0,0.809885,1.2923958,0.0,2,0,0,0
115686169,34.03477787280221,108.75627898606781,429.26456,398.92535,-0.0,0.80981684,1.2922049,0.0,2,0,0,0
115884912,34.03477830813424,108.75627562289384,429.28815,398.94485,-0.0,0.8097145,1.2926803,0.0,2,0,0,0
116083416,34.03477931394651,108.75627273645249,429.31378,398.9668,-0.0,0.80960375,1.2924908,0.0,2,0,0,0
116291971,34.03478092784939,108.7562700170866,429.33362,398.9819,-0.0,0.8097716,1.2924709,0.0,2,0,0,0
116485628,34.03478239617507,108.75626757310137,429.3358,398.9792,-0.0,0.8093761,1.2927707,0.0,2,0,0,0
116684341,34.03478335490955,108.75626517747439,429.33972,398.9789,-0.0,0.80928105,1.2925719,0.0,2,0,0,0
116887842,34.03478362981694,108.75626252444232,429.34946,398.98444,-0.0,0.80915123,1.2923774,0.0,2,0,0,0
117086519,34.03478360294227,108.75625967079905,429.35608,398.9862,-0.0,0.8089984,1.2928528,0.0,2,0,0,0
117285116,34.03478341521044,108.75625642048239,429.36017,398.98502,-0.0,0.8088306,1.2926512,0.0,2,0,0,0
117483759,34.034783105461166,108.7562528562878,429.364,398.9836,-0.0,0.8086751,1.2924469,0.0,2,0,0,0
117692269,34.03478291787189,108.75624920051965,429.37332,398.98807,-0.0,0.80879855,1.2924148,0.0,2,0,0,0
117885926,34.03478282564907,108.75624598870206,429.3865,398.99646,-0.0,0.80836266,1.2927108,0.0,2,0,0,0
118084556,34.03478286327627,108.7562422646248,429.41043,399.0155,-0.0,0.80821365,1.2925084,0.0,2,0,0,0
118283194,34.03478301054321,108.75623809833341,429.4424,399.043,-0.0,0.808103,1.2929808,0.0,2,0,0,0
118481814,34.03478313021233,108.75623360996624,429.46588,399.0618,-0.0,0.8079624,1.2927724,0.0,2,0,0,0
118690352,34.03478317065654,108.75622877327763,429.48938,399.08066,-0.0,0.8080973,1.2927355,0.0,2,0,0,0
118884010,34.03478309089533,108.75622394793338,429.51346,399.09976,-0.0,0.80768365,1.2930262,0.0,2,0,0,0
119082634,34.03478301234899,108.75621876350331,429.53943,399.12073,-0.0,0.8075638,1.2928185,0.0,2,0,0,0
119291195,34.03478304627934,108.75621346365449,429.5774,399.15405,-0.0,0.8077424,1.2927865,0.0,2,0,0,0
119484847,34.03478308865541,108.75620899540759,429.61636,399.1882,-0.0,0.8135022,1.2933831,0.0,2,0,0,0
119688436,34.034783146999956,108.75620440329783,429.66208,399.22897,-0.0,0.80732965,1.2928779,0.0,2,0,0,0
119887061,34.03478325911206,108.75620047761164,429.7061,399.26785,-0.0,0.8072813,1.2926776,0.0,2,0,0,0
120085719,34.03478341731462,108.75619761676302,429.74533,399.30103,-0.0,0.81331795,1.2934575,0.0,2,0,0,0
120289273,34.03478352726018,108.75619573903347,429.7658,399.31552,-0.0,0.80709696,1.2922851,0.0,2,0,0,0
120487898,34.034783500559975,108.75619397688861,429.77652,399.3194,-0.0,0.80701274,1.2927613,0.0,2,0,0,0
120686553,34.03478342342221,108.75619186178541,429.77646,399.31207,-0.0,0.8068841,1.2925678,0.0,2,0,0,0
120885147,34.03478321280336,108.75618878716206,429.76746,399.2957,-0.0,0.80675244,1.2923678,0.0,2,0,0,0
121083768,34.03478306147654,108.75618490991458,429.7438,399.2654,-0.0,0.806641,1.2928361,0.0,2,0,0,0
121282394,34.03478292983059,108.75618074975326,429.72803,399.24356,-0.0,0.80653274,1.2926314,0.0,2,0,0,0
121490947,34.03478283111065,108.75617666112724,429.72058,399.22986,-0.0,0.8066754,1.2925986,0.0,2,0,0,0
121684653,34.03478275071636,108.75617332569533,429.7154,399.21774,-0.0,0.81238604,1.2938839,0.0,2,0,0,0
121883280,34.03478267011095,108.75616987997927,429.71,399.2053,-0.0,0.8122626,1.2936751,0.0,2,0,0,0
122082018,34.034782506976875,108.75616640545124,429.70483,399.19427,-0.0,0.80599105,1.2924837,0.0,2,0,0,0
122285442,34.03478239122691,108.75616326707402,429.7076,399.19077,-0.0,0.80587745,1.2929474,0.0,2,0,0,0
122484067,34.03478227253595,108.7561607490865,429.71185,399.1893,-0.0,0.8057623,1.2927347,0.0,2,0,0,0
122687658,34.034782244312936,108.75615847609099,429.7093,399.18048,-0.0,0.8056531,1.29252,0.0,2,0,0,0
122886423,34.034782191308025,108.75615571484835,429.70706,399.1722,-0.0,0.8055463,1.2929817,0.0,2,0,0,0
123084905,34.03478197091894,108.75615205717654,429.71832,399.17752,-0.0,0.80544615,1.2927725,0.0,2,0,0,0
123288495,34.03478179662569,108.75614749777402,429.7173,399.1705,-0.0,0.80536354,1.2925627,0.0,2,0,0,0
123487116,34.03478170816845,108.75614312582039,429.72153,399.16995,-0.0,0.80530167,1.2923584,0.0,2,0,0,0
123685846,34.03478168375685,108.75613926471668,429.74152,399.1848,-0.0,0.805269,1.2928247,0.0,2,0,0,0
123884363,34.03478164964017,108.75613584673675,429.7591,399.19754,-0.0,0.81121635,1.2935954,0.0,2,0,0,0
124082987,34.03478168462428,108.75613233577619,429.77554,399.2088,-0.0,0.81119156,1.2933855,0.0,2,0,0,0
124286578,34.0347816748499,108.75612866170823,429.79416,399.22293,-0.0,0.8112314,1.2938682,0.0,2,0,0,0
124485280,34.034781735475306,108.75612535641234,429.80643,399.23126,-0.0,0.80544674,1.2926805,0.0,2,0,0,0
124683826,34.03478186925118,108.75612213714048,429.8158,399.23566,-0.0,0.8114235,1.2934545,0.0,2,0,0,0
124882448,34.0347819496131,108.75611905564165,429.82126,399.23672,-0.0,0.8114794,1.2932482,0.0,2,0,0,0
125086037,34.03478196592824,108.75611586534981,429.82993,399.24115,-0.0,0.8115162,1.2937332,0.0,2,0,0,0
125284707,34.034782014694514,108.7561128644118,429.8416,399.24814,-0.0,0.8115486,1.2935293,0.0,2,0,0,0
125483285,34.03478208933102,108.75610974805595,429.85068,399.25235,-0.0,0.8115642,1.2933265,0.0,2,0,0,0
125686874,34.03478214594751,108.75610657490235,429.84735,399.2443,-0.0,0.8057027,1.2921653,0.0,2,0,0,0
125890463,34.034782164329414,108.75610339835458,429.83762,399.22974,-0.0,0.8058194,1.2926389,0.0,2,0,0,0
126089112,34.03478224590361,108.75609973339301,429.83496,399.22284,-0.0,0.80595124,1.2924466,0.0,2,0,0,0
126287713,34.03478228988594,108.75609552057144,429.84183,399.22586,-0.0,0.80608165,1.2922494,0.0,2,0,0,0
126486335,34.03478226900098,108.75609104603284,429.84152,399.2212,-0.0,0.806217,1.2927217,0.0,2,0,0,0
126684962,34.03478235015297,108.75608672052556,429.8414,399.21774,-0.0,0.8122753,1.2935011,0.0,2,0,0,0
126883585,34.03478241432543,108.7560826491191,429.84763,399.21942,-0.0,0.8123695,1.2932969,0.0,2,0,0,0
127092139,34.03478253494046,108.75607907001631,429.85782,399.2248,-0.0,0.80662036,1.2923,0.0,2,0,0,0
127285796,34.03478262137614,108.75607627846858,429.86188,399.22348,-0.0,0.81238675,1.293578,0.0,2,0,0,0
127484420,34.03478269013184,108.75607357029656,429.86002,399.21533,-0.0,0.812358,1.2933763,0.0,2,0,0,0
127683045,34.034782770439044,108.75607026268206,429.8563,399.20514,-0.0,0.81235445,1.2931758,0.0,2,0,0,0
127881667,34.034782853801005,108.75606618067745,429.85135,399.19522,-0.0,0.8123974,1.2936642,0.0,2,0,0,0
128090224,34.034783190660264,108.75606150676155,429.85352,399.19324,-0.0,0.80676806,1.2926593,0.0,2,0,0,0
128283881,34.0347836285157,108.75605711617189,429.85968,399.19565,-0.0,0.8125225,1.2932606,0.0,2,0,0,0
128492431,34.03478409275424,108.75605243935635,429.8845,399.21683,-0.0,0.80698574,1.2929364,0.0,2,0,0,0
128686096,34.034784507897875,108.75604798062585,429.9247,399.2525,-0.0,0.81276065,1.2935356,0.0,2,0,0,0
128884718,34.03478502770072,108.75604342750658,429.9672,399.2896,-0.0,0.8128616,1.29333,0.0,2,0,0,0
129083577,34.0347855548281,108.75603890419367,430.00772,399.32404,-0.0,0.81296575,1.2938175,0.0,2,0,0,0
129286933,34.034786043601336,108.75603444422008,430.04602,399.35587,-0.0,0.80719763,1.2926347,0.0,2,0,0,0
129485590,34.034786459821596,108.75603008294016,430.07474,399.37808,-0.0,0.80739164,1.2924421,0.0,2,0,0,0
129689144,34.03478685889831,108.75602585189837,430.10065,399.39795,-0.0,0.8075995,1.2922505,0.0,2,0,0,0
129887934,34.03478714388527,108.75602214156157,430.12848,399.41956,-0.0,0.8078004,1.2927265,0.0,2,0,0,0
130086393,34.03478740535003,108.75601880339266,430.15216,399.43674,-0.0,0.80798084,1.2925365,0.0,2,0,0,0
130285016,34.034787591235684,108.75601525202532,430.16595,399.44308,-0.0,0.80813813,1.292349,0.0,2,0,0,0
130483640,34.03478776709567,108.75601129959473,430.1646,399.43472,-0.0,0.8143018,1.2931229,0.0,2,0,0,0
130682379,34.03478809399102,108.75600706184734,430.1534,399.41644,-0.0,0.8083841,1.2926358,0.0,2,0,0,0
130890857,34.03478842211278,108.75600238793105,430.1402,399.39658,-0.0,0.80878246,1.2926157,0.0,2,0,0,0
131089443,34.034788649929105,108.75599795867804,430.13885,399.38873,-0.0,0.80884737,1.2924256,0.0,2,0,0,0
131293033,34.034788808613165,108.75599348504737,430.1449,399.38812,-0.0,0.8089015,1.2922324,0.0,2,0,0,0
131491769,34.03478885654804,108.75598907409474,430.16025,399.39648,-0.0,0.80893743,1.2927102,0.0,2,0,0,0
131685315,34.03478878930706,108.75598460560059,430.17975,399.409,-0.0,0.80869853,1.292352,0.0,2,0,0,0
131888957,34.034788719301744,108.75597988168111,430.2005,399.42227,-0.0,0.8087331,1.2921699,0.0,2,0,0,0
132087528,34.034788701587686,108.75597514757699,430.21558,399.42957,-0.0,0.808761,1.2926513,0.0,2,0,0,0
132286258,34.034788696210576,108.75597038250704,430.22845,399.4354,-0.0,0.8088038,1.2924619,0.0,2,0,0,0
132484776,34.034788711908256,108.75596541351045,430.2207,399.4203,-0.0,0.80886155,1.2922693,0.0,2,0,0,0
132688365,34.03478873322904,108.75596014595176,430.2143,399.40723,-0.0,0.8088996,1.2927446,0.0,2,0,0,0
132886989,34.034788742535795,108.75595465095286,430.22247,399.40894,-0.0,0.80890125,1.2925514,0.0,2,0,0,0
133085638,34.03478886495871,108.75594911869418,430.24008,399.41992,-0.0,0.8089052,1.292361,0.0,2,0,0,0
133284238,34.03478918025179,108.75594357268851,430.26663,399.43942,-0.0,0.81507164,1.2938267,0.0,2,0,0,0
133482861,34.03478985000141,108.75593790769987,430.297,399.46313,-0.0,0.808897,1.2926362,0.0,2,0,0,0
133686451,34.034791241901914,108.75593239082238,430.34225,399.5005,-0.0,0.8150552,1.2934107,0.0,2,0,0,0
133885113,34.03479306362655,108.75592724950059,430.38428,399.53363,-0.0,0.81503344,1.2932034,0.0,2,0,0,0
134088669,34.03479466130597,108.7559226733468,430.41693,399.55878,-0.0,0.8149546,1.2936891,0.0,2,0,0,0
134287288,34.03479561067419,108.75591919573873,430.4471,399.5805,-0.0,0.8086868,1.2925105,0.0,2,0,0,0
134485912,34.03479593205118,108.75591658501317,430.4614,399.58563,-0.0,0.8085894,1.2923174,0.0,2,0,0,0
134684532,34.03479612444825,108.755914325427,430.4458,399.55908,-0.0,0.80847025,1.2927905,0.0,2,0,0,0
134883160,34.034796208523446,108.7559121254555,430.39194,399.49493,-0.0,0.80835474,1.2925937,0.0,2,0,0,0
135086764,34.034796365520656,108.75590946298492,430.31537,399.4098,-0.0,0.80826354,1.2924001,0.0,2,0,0,0
135285373,34.03479652853335,108.75590670852799,430.2228,399.31082,-0.0,0.80820364,1.2922077,0.0,2,0,0,0
135483997,34.03479678837228,108.75590361891172,430.12302,399.20532,-0.0,0.8081678,1.292684,0.0,2,0,0,0
135687586,34.03479703621443,108.75590071434448,430.0422,399.11884,-0.0,0.8081433,1.2924932,0.0,2,0,0,0
135891176,34.034797248896005,108.75589815304961,429.98306,399.05487,-0.0,0.80814457,1.2923054,0.0,2,0,0,0
136089800,34.03479754718868,108.75589554671245,429.92374,398.99042,-0.0,0.808204,1.2921212,0.0,2,0,0,0
136288424,34.03479785761386,108.75589303203019,429.85214,398.91193,-0.0,0.8082739,1.292598,0.0,2,0,0,0
136487049,34.034798016035644,108.75589089995015,429.76498,398.8181,-0.0,0.8083379,1.292404,0.0,2,0,0,0
136680706,34.034797989950135,108.75588928402264,429.67868,398.72528,-0.0,0.8141123,1.2936863,0.0,2,0,0,0
136889452,34.03479789336094,108.7558881024436,429.61105,398.65063,-0.0,0.8084226,1.2926824,0.0,2,0,0,0
137087909,34.03479779310657,108.75588704729398,429.56058,398.5925,-0.0,0.8084509,1.2924914,0.0,2,0,0,0
137286509,34.03479775272519,108.75588556201868,429.5097,398.5341,-0.0,0.8084464,1.2922983,0.0,2,0,0,0
137485138,34.034797715745235,108.7558829334973,429.47296,398.49008,-0.0,0.8084242,1.2927676,0.0,2,0,0,0
137683921,34.034797651240154,108.75587923069935,429.4241,398.43497,-0.0,0.80837625,1.2925634,0.0,2,0,0,0
137882381,34.034797709976225,108.75587470292099,429.37708,398.38232,-0.0,0.8083197,1.2923577,0.0,2,0,0,0
138085971,34.034797776607135,108.75586979544045,429.3272,398.32745,-0.0,0.8082965,1.2928236,0.0,2,0,0,0
138289561,34.03479790682917,108.7558648983912,429.28842,398.283,-0.0,0.80826586,1.2926219,0.0,2,0,0,0
138488300,34.03479799126408,108.75585993179405,429.25842,398.24692,-0.0,0.80821896,1.2924234,0.0,2,0,0,0
138686808,34.03479795756041,108.7558545651289,429.2189,398.20123,-0.0,0.8082017,1.2922262,0.0,2,0,0,0
138885431,34.03479787589119,108.7558491355396,429.17828,398.15457,-0.0,0.808187,1.2926983,0.0,2,0,0,0
139084108,34.03479786287508,108.75584349117663,429.14365,398.11414,-0.0,0.8081533,1.2924969,0.0,2,0,0,0
139282768,34.03479778755635,108.75583766847224,429.12683,398.09094,-0.0,0.80809253,1.2929609,0.0,2,0,0,0
139481304,34.03479773443866,108.75583191763437,429.13556,398.09348,-0.0,0.8080053,1.2927542,0.0,2,0,0,0
139684893,34.034797647453864,108.75582597280622,429.16138,398.1125,-0.0,0.8079541,1.2925469,0.0,2,0,0,0
139883517,34.03479762479736,108.75582000967914,429.1772,398.12155,-0.0,0.80795157,1.2923433,0.0,2,0,0,0
140092137,34.034797622526234,108.75581396367303,429.17548,398.11383,-0.0,0.8082732,1.2923132,0.0,2,0,0,0
140290696,34.034797795314205,108.75580852066673,429.17422,398.10553,-0.0,0.8083441,1.2927817,0.0,2,0,0,0
140484383,34.034798397657354,108.75580352748364,429.18768,398.1111,-0.0,0.8081534,1.2924101,0.0,2,0,0,0
140687947,34.03479961921149,108.75579834543285,429.20035,398.11646,-0.0,0.8082442,1.292881,0.0,2,0,0,0
140886580,34.03480099932119,108.75579317944172,429.20328,398.11343,-0.0,0.8083595,1.2926755,0.0,2,0,0,0
141085195,34.0348021002099,108.75578792469781,429.20065,398.10562,-0.0,0.8084392,1.2924663,0.0,2,0,0,0
141288782,34.0348026680802,108.7557823182455,429.1909,398.0915,-0.0,0.808506,1.2929261,0.0,2,0,0,0
141487407,34.034802682134064,108.75577676147985,429.16962,398.06625,-0.0,0.80860984,1.292709,0.0,2,0,0,0
141686030,34.03480252710246,108.75577104160905,429.15244,398.0451,-0.0,0.80867636,1.2924893,0.0,2,0,0,0
141884668,34.03480257685007,108.7557653492231,429.15015,398.03964,-0.0,0.8087328,1.2929431,0.0,2,0,0,0
142083278,34.03480268378519,108.75576031522934,429.16138,398.0486,-0.0,0.80879337,1.2927251,0.0,2,0,0,0
142281903,34.03480282939704,108.75575645776495,429.1839,398.0688,-0.0,0.80886513,1.2925075,0.0,2,0,0,0
142490461,34.034802924974514,108.7557538523413,429.18805,398.07043,-0.0,0.8092237,1.2924619,0.0,2,0,0,0
142684116,34.034802951366366,108.75575214475778,429.17575,398.05615,-0.0,0.80898285,1.2927456,0.0,2,0,0,0
142882739,34.03480286787223,108.75575058538081,429.14203,398.0207,-0.0,0.80901486,1.2925314,0.0,2,0,0,0
143086329,34.03480286239548,108.75574868918874,429.10782,397.98523,-0.0,0.80905277,1.2923214,0.0,2,0,0,0
143285003,34.03480280089501,108.75574630880705,429.0796,397.956,-0.0,0.8090675,1.2927799,0.0,2,0,0,0
143483622,34.034802756855555,108.75574385208724,429.06354,397.94022,-0.0,0.8090547,1.2925738,0.0,2,0,0,0
143687166,34.03480286489033,108.75574161676114,429.0546,397.93134,-0.0,0.80901283,1.2923698,0.0,2,0,0,0
143885980,34.03480333804585,108.75573992705394,429.04453,397.92105,-0.0,0.8089612,1.2921687,0.0,2,0,0,0
144084410,34.034804177070306,108.75573858922313,429.03003,397.90686,-0.0,0.8088633,1.2926344,0.0,2,0,0,0
144288004,34.0348048677633,108.75573732226815,429.01978,397.8969,-0.0,0.80874676,1.2924345,0.0,2,0,0,0
144486628,34.03480506259437,108.7557362889717,429.01218,397.88998,-0.0,0.8086496,1.2922393,0.0,2,0,0,0
144685406,34.03480493693831,108.75573553155675,429.00186,397.881,-0.0,0.80854404,1.2927117,0.0,2,0,0,0
144883877,34.03480481535088,108.75573505746938,429.00034,397.88058,-0.0,0.80840284,1.2925158,0.0,2,0,0,0
145082500,34.03480471375598,108.75573462444844,428.99655,397.87872,-0.0,0.8082681,1.2923211,0.0,2,0,0,0
145286141,34.0348046776695,108.75573422206087,428.99902,397.88342,-0.0,0.8081499,1.2921277,0.0,2,0,0,0
145484825,34.03480461282658,108.75573389568045,428.99997,397.88736,-0.0,0.80801505,1.2925993,0.0,2,0,0,0
145683338,34.0348045922313,108.75573365259197,428.99753,397.88898,-0.0,0.8079049,1.292409,0.0,2,0,0,0
145891893,34.03480464394574,108.7557334431174,428.9984,397.895,-0.0,0.80805033,1.292389,0.0,2,0,0,0
146090517,34.034804674417586,108.75573337439627,429.00388,397.90588,-0.0,0.8079332,1.2921993,0.0,2,0,0,0
146289288,34.03480471135745,108.75573341248176,429.0073,397.9157,-0.0,0.8078102,1.292676,0.0,2,0,0,0
146482799,34.03480478374448,108.75573345735592,429.0071,397.923,-0.0,0.80739176,1.2923132,0.0,2,0,0,0
146686392,34.03480486407427,108.7557335737656,429.01746,397.94153,-0.0,0.80726177,1.2921267,0.0,2,0,0,0
146885014,34.03480495064827,108.75573372826132,429.02246,397.95508,-0.0,0.8071375,1.2926067,0.0,2,0,0,0
147083678,34.034805014811596,108.75573387994235,429.0296,397.97125,-0.0,0.8070677,1.2924223,0.0,2,0,0,0
147287227,34.034805066625175,108.75573407898285,429.03317,397.9857,-0.0,0.80700284,1.2922376,0.0,2,0,0,0
147485851,34.034805148088616,108.75573432654129,429.0389,398.00198,-0.0,0.8070052,1.2920587,0.0,2,0,0,0
147684475,34.034805210048745,108.75573456300538,429.04626,398.02066,-0.0,0.8070207,1.2925425,0.0,2,0,0,0
147883110,34.0348052319041,108.75573474879904,429.05475,398.0408,-0.0,0.8070462,1.2923602,0.0,2,0,0,0
148086692,34.034805262713235,108.75573491853017,429.065,398.0625,-0.0,0.8072106,1.2922297,0.0,2,0,0,0
148285313,34.034805295580284,108.75573504736006,429.07135,398.08087,-0.0,0.80731624,1.2927117,0.0,2,0,0,0
148483937,34.03480530911546,108.75573515929992,429.08224,398.10376,-0.0,0.80756146,1.2925695,0.0,2,0,0,0
148682597,34.03480535735119,108.75573523861759,429.09467,398.12866,-0.0,0.8076844,1.2930399,0.0,2,0,0,0
148891116,34.034805435982115,108.75573529524866,429.09717,398.1437,-0.0,0.80809534,1.2930062,0.0,2,0,0,0
149084778,34.03480554006779,108.75573530054582,429.0974,398.15662,-0.0,0.8079309,1.2926297,0.0,2,0,0,0
149283399,34.034805649136224,108.75573528580628,429.10297,398.17493,-0.0,0.8080346,1.2924274,0.0,2,0,0,0
149491954,34.03480577175604,108.75573530103863,429.109,398.19394,-0.0,0.8084005,1.2923998,0.0,2,0,0,0
149685649,34.03480583350776,108.75573531859033,429.11224,398.21017,-0.0,0.8081763,1.2927005,0.0,2,0,0,0
149889204,34.03480588854425,108.75573535634432,429.12164,398.23285,-0.0,0.8082443,1.2925043,0.0,2,0,0,0
150087826,34.03480594803236,108.75573542671984,429.12823,398.25287,-0.0,0.8082738,1.2923108,0.0,2,0,0,0
150286450,34.034805990847545,108.75573549494294,429.13275,398.2704,-0.0,0.8082698,1.2927884,0.0,2,0,0,0
150485074,34.03480605583295,108.75573553932044,429.13013,398.2815,-0.0,0.8082345,1.2925985,0.0,2,0,0,0
150683698,34.034806087978545,108.75573558237379,429.12564,398.29025,-0.0,0.8081814,1.2924072,0.0,2,0,0,0
150892344,34.03480611099877,108.75573563635633,429.12637,398.30414,-0.0,0.80839574,1.2923859,0.0,2,0,0,0
151090879,34.034806103846044,108.75573564861024,429.12717,398.3178,-0.0,0.8082858,1.2928623,0.0,2,0,0,0
151284536,34.03480605107414,108.75573564165629,429.12686,398.32977,-0.0,0.8078964,1.2924973,0.0,2,0,0,0
151483160,34.03480593717649,108.75573560605599,429.1309,398.34653,-0.0,0.8077964,1.2923048,0.0,2,0,0,0
151681972,34.03480580177751,108.75573558833999,429.1369,398.3656,-0.0,0.80767226,1.2927756,0.0,2,0,0,0
151885375,34.03480570814644,108.75573555969419,429.14563,398.38837,-0.0,0.81377196,1.2935584,0.0,2,0,0,0
152088964,34.03480563904399,108.75573549213391,429.1481,398.40308,-0.0,0.80746704,1.2923772,0.0,2,0,0,0
152287608,34.03480565059333,108.75573520731572,429.1568,398.4245,-0.0,0.8074578,1.2928534,0.0,2,0,0,0
152486355,34.034805727133495,108.75573469811948,429.16064,398.4412,-0.0,0.8074719,1.2926527,0.0,2,0,0,0
152684837,34.03480586129221,108.75573427022786,429.13412,398.428,-0.0,0.8075023,1.2924486,0.0,2,0,0,0
152883462,34.034805974000236,108.75573378951279,429.07648,398.38437,-0.0,0.8075088,1.2929163,0.0,2,0,0,0
153087051,34.03480604808073,108.75573343531056,429.0022,398.3239,-0.0,0.8075084,1.29271,0.0,2,0,0,0
153285780,34.03480619391056,108.755732868156,428.93735,398.27292,-0.0,0.8075081,1.2925097,0.0,2,0,0,0
153489298,34.034806255445666,108.75573196882561,428.88,398.22882,-0.0,0.8074929,1.2923096,0.0,2,0,0,0
153687889,34.034806367704505,108.75573121670551,428.82388,398.18625,-0.0,0.80755144,1.292784,0.0,2,0,0,0
153886513,34.034806624958186,108.75573036804288,428.78354,398.15988,-0.0,0.80760556,1.2925854,0.0,2,0,0,0
154085222,34.03480675760316,108.755729579989,428.74805,398.13806,-0.0,0.80769795,1.29239,0.0,2,0,0,0
154283763,34.034806757134625,108.75572839435137,428.71027,398.1137,-0.0,0.807788,1.2928658,0.0,2,0,0,0
