timestamp,ref_timestamp,ref_lat,ref_lon,x,y,z,delta_xy[0],delta_xy[1],delta_z,vx,vy,vz,z_deriv,delta_vxy[0],delta_vxy[1],delta_vz,ax,ay,az,heading,delta_heading,ref_alt,dist_bottom,eph,epv,evh,evv,vxy_max,vz_max,hagl_min,hagl_max,xy_valid,z_valid,v_xy_valid,v_z_valid,xy_reset_counter,z_reset_counter,vxy_reset_counter,vz_reset_counter,heading_reset_counter,xy_global,z_global,dist_bottom_valid
18132608,0,0.0,0.0,0.0,0.0,0.00086016033,-1.5807443e-07,2.3910354e-07,0.0,0.0101374,-0.5196353,0.06212776,0.20573458,-3.1834545e-05,4.8152964e-05,0.0,-0.007226747,0.04195381,-0.021392494,-1.7024406,0.060844157,0.0,0.1,0.4057213,0.7458247,0.34681,0.3757423,inf,inf,inf,inf,0,1,0,1,1,0,1,0,2,0,0,1
18142535,0,0.0,0.0,0.0,0.0,0.0018420957,-1.5807443e-07,2.3910354e-07,0.0,0.010916949,-0.518171,0.062887125,0.20541468,-3.1834545e-05,4.8152964e-05,0.0,0.08669057,-0.15892568,0.06725479,-1.7023472,0.060844157,0.0,0.1,0.40869412,0.74899536,0.34835604,0.37655392,inf,inf,inf,inf,0,1,0,1,1,0,1,0,2,0,0,1
18236880,0,0.0,0.0,0.0,0.0,0.012015249,-1.5807443e-07,2.3910354e-07,0.0,0.013674468,-0.5024154,0.06597325,0.20019025,-3.1834545e-05,4.8152964e-05,0.0,0.5582244,-0.4800899,-0.014482645,-1.7016183,0.060844157,0.0,0.1,0.37278882,0.7429187,0.3234321,0.37138647,inf,inf,inf,inf,0,1,0,1,1,0,1,0,2,0,0,1
18336195,0,0.0,0.0,0.0,0.0,0.023436053,-1.5807443e-07,2.3910354e-07,0.0,0.025586925,-0.48838148,0.075322635,0.20126833,-3.1834545e-05,4.8152964e-05,0.0,-0.3866569,0.70988816,-0.03596213,-1.7007236,0.060844157,0.0,0.1,0.4007216,0.75705147,0.33812982,0.3730823,inf,inf,inf,inf,0,1,0,1,1,0,1,0,2,0,0,1
18435501,0,0.0,0.0,0.0,0.0,0.037375458,-1.5807443e-07,2.3910354e-07,0.0,0.023371082,-0.4669388,0.07860266,0.19898117,-3.1834545e-05,4.8152964e-05,0.0,0.7039054,-0.4425783,-0.38352042,-1.6994449,0.060844157,0.0,0.1,0.3691436,0.7537929,0.31672442,0.3685734,inf,inf,inf,inf,0,1,0,1,1,0,1,0,2,0,0,1
18539777,0,0.0,0.0,0.0,0.0,0.0455241,-1.5807443e-07,2.3910354e-07,0.0,0.02496306,-0.4501058,0.083994046,0.19266924,-3.1834545e-05,4.8152964e-05,0.0,-0.014529628,-0.046616152,0.031110728,-1.6975906,0.060844157,0.0,0.1,0.39646444,0.75033724,0.33087993,0.36400756,inf,inf,inf,inf,0,1,0,1,1,0,1,0,2,0,0,1
18639090,0,0.0,0.0,0.0,0.0,0.047380213,-1.5807443e-07,2.3910354e-07,0.0,0.029231422,-0.43239346,0.080643244,0.17319085,-3.1834545e-05,4.8152964e-05,0.0,0.034951646,-0.03628532,0.37266612,-1.6951231,0.060844157,0.0,0.1,0.36598778,0.74656487,0.3098231,0.35930988,inf,inf,inf,inf,0,1,0,1,1,0,1,0,2,0,0,1
18738509,0,0.0,0.0,0.0,0.0,0.04752172,-1.5807443e-07,2.3910354e-07,0.0,0.032212585,-0.41384995,0.079253644,0.15581621,-3.1834545e-05,4.8152964e-05,0.0,-0.12415911,-0.38611662,-0.5892817,-1.693539,0.060844157,0.0,0.1,0.3927323,0.7426528,0.32411942,0.35459784,inf,inf,inf,inf,0,1,0,1,1,0,1,0,2,0,0,1
18837791,0,0.0,0.0,0.0,0.0,0.050135307,-1.5807443e-07,2.3910354e-07,0.0,0.03440069,-0.40036976,0.08390667,0.1489428,-3.1834545e-05,4.8152964e-05,0.0,-0.2568639,-0.79575634,-0.06859869,-1.6911118,0.060844157,0.0,0.1,0.36253685,0.73874724,0.30332202,0.3499244,inf,inf,inf,inf,0,1,0,1,1,0,1,0,2,0,0,1
18937020,0,0.0,0.0,0.0,0.0,0.053039953,-1.5807443e-07,2.3910354e-07,0.0,0.039725058,-0.3731535,0.08470199,0.13978465,-3.1834545e-05,4.8152964e-05,0.0,0.13984379,0.6279074,0.3466042,-1.6884803,0.060844157,0.0,0.1,0.38865647,0.7516093,0.3165778,0.3510311,inf,inf,inf,inf,0,1,0,1,1,0,1,0,2,0,0,1
19036331,0,0.0,0.0,0.0,0.0,0.055613678,-1.5807443e-07,2.3910354e-07,0.0,0.044610802,-0.36428437,0.083468854,0.12937735,-3.1834545e-05,4.8152964e-05,0.0,1.1549423,1.5413535,0.19292736,-1.6862371,0.060844157,0.0,0.1,0.35883525,0.74706733,0.2961849,0.34615296,inf,inf,inf,inf,0,1,0,1,1,0,1,0,2,0,0,1
19135672,0,0.0,0.0,0.0,0.0,0.062198278,-1.5807443e-07,2.3910354e-07,0.0,0.041830733,-0.35522062,0.08542673,0.12701091,-3.1834545e-05,4.8152964e-05,0.0,0.7643738,-0.64384145,0.19958493,-1.6841816,0.060844157,0.0,0.1,0.38430288,0.7424626,0.30887803,0.34131327,inf,inf,inf,inf,0,1,0,1,1,0,1,0,2,0,0,1
19234952,0,0.0,0.0,0.0,0.0,0.07190564,-1.5807443e-07,2.3910354e-07,0.0,0.04141305,-0.3450648,0.08953052,0.12993282,-3.1834545e-05,4.8152964e-05,0.0,-0.4983979,-2.6452963,-0.08433897,-1.6830219,0.060844157,0.0,0.1,0.41137913,0.73793215,0.32186213,0.33657315,inf,inf,inf,inf,0,1,0,1,1,0,1,0,2,0,0,1
19334263,0,0.0,0.0,0.0,0.0,0.07952073,-1.5807443e-07,2.3910354e-07,0.0,0.047639616,-0.31349376,0.0933014,0.1301147,-3.1834545e-05,4.8152964e-05,0.0,-0.46652266,-1.6487201,0.29102042,-1.6816002,0.060844157,0.0,0.1,0.37978548,0.7333433,0.3013868,0.33185798,inf,inf,inf,inf,0,1,0,1,1,0,1,0,2,0,0,1
19433575,0,0.0,0.0,0.0,0.0,0.08503567,-1.5807443e-07,2.3910354e-07,0.0,0.05099595,-0.29976663,0.09385472,0.12515962,-3.1834545e-05,4.8152964e-05,0.0,0.35069183,1.4826194,-0.030312669,-1.6789597,0.060844157,0.0,0.1,0.406154,0.74517703,0.31389737,0.33261997,inf,inf,inf,inf,0,1,0,1,1,0,1,0,2,0,0,1
19532940,0,0.0,0.0,0.0,0.0,0.08920206,-1.5807443e-07,2.3910354e-07,0.0,0.050058026,-0.29105455,0.09434237,0.11937413,-3.1834545e-05,4.8152964e-05,0.0,-0.21313356,1.1857439,0.17022091,-1.6760164,0.060844157,0.0,0.1,0.37519148,0.74044716,0.29405662,0.3279574,inf,inf,inf,inf,0,1,0,1,1,0,1,0,2,0,0,1
19637160,0,0.0,0.0,0.0,0.0,0.09417137,-1.5807443e-07,2.3910354e-07,0.0,0.050871927,-0.28433716,0.095155634,0.1147109,-3.1834545e-05,4.8152964e-05,0.0,-0.5438753,0.72579134,0.12405316,-1.6740253,0.060844157,0.0,0.1,0.40086472,0.7356901,0.30611938,0.32335925,inf,inf,inf,inf,0,1,0,1,1,0,1,0,2,0,0,1
19736471,0,0.0,0.0,0.0,0.0,0.09597214,-1.5807443e-07,2.3910354e-07,0.0,0.055316877,-0.27071917,0.09354933,0.10555321,-3.1834545e-05,4.8152964e-05,0.0,-1.1097021,-1.6258837,-0.06855224,-1.6721267,0.060844157,0.0,0.1,0.37120503,0.7309031,0.2874488,0.31879932,inf,inf,inf,inf,0,1,0,1,1,0,1,0,2,0,0,1
19835782,0,0.0,0.0,0.0,0.0,0.097053066,-1.5807443e-07,2.3910354e-07,0.0,0.060371697,-0.25062236,0.093145564,0.09765286,-3.1834545e-05,4.8152964e-05,0.0,-0.12660886,-0.88958496,-0.38654974,-1.6708483,0.060844157,0.0,0.1,0.396297,0.7263383,0.29963592,0.31441975,inf,inf,inf,inf,0,1,0,1,1,0,1,0,2,0,0,1
19935092,0,0.0,0.0,0.0,0.0,0.09786719,-1.5807443e-07,2.3910354e-07,0.0,0.06147513,-0.2327103,0.09406561,0.09179135,-3.1834545e-05,4.8152964e-05,0.0,0.38435027,1.1019456,-0.26919237,-1.668699,0.060844157,0.0,0.1,0.36715254,0.7217394,0.28144103,0.31007197,inf,inf,inf,inf,0,1,0,1,1,0,1,0,2,0,0,1
20034403,0,0.0,0.0,0.0,0.0,0.09687536,-1.5807443e-07,2.3910354e-07,0.0,0.060455006,-0.22973736,0.09349252,0.0834686,-3.1834545e-05,4.8152964e-05,0.0,0.06254241,1.3149278,-0.07074764,-1.6656075,0.060844157,0.0,0.1,0.39163077,0.7172397,0.29272008,0.3058457,inf,inf,inf,inf,0,1,0,1,1,0,1,0,2,0,0,1
20133714,0,0.0,0.0,0.0,0.0,0.09367374,-1.5807443e-07,2.3910354e-07,0.0,0.06285944,-0.22266051,0.09143648,0.072575554,-3.1834545e-05,4.8152964e-05,0.0,-0.29731122,-0.6001612,0.45251584,-1.6634502,0.060844157,0.0,0.1,0.3630187,0.7280806,0.2750709,0.3064413,inf,inf,inf,inf,0,1,0,1,1,0,1,0,2,0,0,1
20233025,0,0.0,0.0,0.0,0.0,0.09292829,-1.5807443e-07,2.3910354e-07,0.0,0.06796806,-0.20979713,0.088939205,0.06478476,-3.1834545e-05,4.8152964e-05,0.0,0.15132001,-1.2512817,0.27621576,-1.6625601,0.060844157,0.0,0.1,0.3868888,0.72336894,0.28594017,0.3022362,inf,inf,inf,inf,0,1,0,1,1,0,1,0,2,0,0,1
20332403,0,0.0,0.0,0.0,0.0,0.08900418,-1.5807443e-07,2.3910354e-07,0.0,0.06937673,-0.19148104,0.08641001,0.05449194,-3.1834545e-05,4.8152964e-05,0.0,1.1051017,-0.14770804,-0.09773132,-1.6615281,0.060844157,0.0,0.1,0.35885957,0.7187494,0.26882783,0.29812384,inf,inf,inf,inf,0,1,0,1,1,0,1,0,2,0,0,1
20436615,0,0.0,0.0,0.0,0.0,0.0863816,-1.5807443e-07,2.3910354e-07,0.0,0.07237562,-0.18241821,0.08559267,0.047797654,-3.1834545e-05,4.8152964e-05,0.0,1.4800336,0.37156177,0.10354771,-1.6593949,0.060844157,0.0,0.1,0.3821367,0.71413416,0.27938437,0.29408336,inf,inf,inf,inf,0,1,0,1,1,0,1,0,2,0,0,1
20535923,0,0.0,0.0,0.0,0.0,0.08343614,-1.5807443e-07,2.3910354e-07,0.0,0.067001596,-0.17641103,0.083392255,0.04060976,-3.1834545e-05,4.8152964e-05,0.0,0.83591807,0.46732804,0.2529176,-1.6567982,0.060844157,0.0,0.1,0.35525197,0.70961523,0.26328748,0.2901387,inf,inf,inf,inf,0,1,0,1,1,0,1,0,2,0,0,1
20635411,0,0.0,0.0,0.0,0.0,0.07964384,-1.5807443e-07,2.3910354e-07,0.0,0.06552709,-0.1693274,0.079929136,0.032040223,-3.1834545e-05,4.8152964e-05,0.0,-0.39862183,-1.0517513,0.15493442,-1.654251,0.060844157,0.0,0.1,0.37803602,0.7052024,0.27397645,0.28630608,inf,inf,inf,inf,0,1,0,1,1,0,1,0,2,0,0,1
20734544,0,0.0,0.0,0.0,0.0,0.07853508,-1.5807443e-07,2.3910354e-07,0.0,0.06882796,-0.15340154,0.077378266,0.02774092,-3.1834545e-05,4.8152964e-05,0.0,-0.70874023,-1.1111141,-0.17054012,-1.6528747,0.060844157,0.0,0.1,0.35161486,0.700779,0.2582514,0.28251266,inf,inf,inf,inf,0,1,0,1,1,0,1,0,2,0,0,1
20833855,0,0.0,0.0,0.0,0.0,0.078640744,-1.5807443e-07,2.3910354e-07,0.0,0.07243176,-0.1403453,0.0789175,0.028855385,-3.1834545e-05,4.8152964e-05,0.0,-0.5466929,0.30816555,-0.4657769,-1.6515522,0.060844157,0.0,0.1,0.3738815,0.69646466,0.2681583,0.27882347,inf,inf,inf,inf,0,1,0,1,1,0,1,0,2,0,0,1
20933166,0,0.0,0.0,0.0,0.0,0.07656977,-1.5807443e-07,2.3910354e-07,0.0,0.0754399,-0.13373728,0.07929909,0.026695475,-3.1834545e-05,4.8152964e-05,0.0,-0.12202405,1.1625204,0.11297933,-1.6489009,0.060844157,0.0,0.1,0.34792942,0.7061858,0.25294563,0.2792879,inf,inf,inf,inf,0,1,0,1,1,0,1,0,2,0,0,1
21032492,0,0.0,0.0,0.0,0.0,0.07305554,-1.5807443e-07,2.3910354e-07,0.0,0.0759687,-0.12790613,0.07722817,0.020990392,-3.1834545e-05,4.8152964e-05,0.0,-0.002194918,0.51166123,0.69556487,-1.646446,0.060844157,0.0,0.1,0.3696846,0.70171267,0.26256657,0.2756429,inf,inf,inf,inf,0,1,0,1,1,0,1,0,2,0,0,1
21131788,0,0.0,0.0,0.0,0.0,0.06681362,-1.5807443e-07,2.3910354e-07,0.0,0.07516605,-0.12067816,0.07452134,0.012600059,-3.1834545e-05,4.8152964e-05,0.0,-0.51418805,0.33565977,0.7333772,-1.6447607,0.060844157,0.0,0.1,0.34423548,0.6973352,0.24775456,0.27208748,inf,inf,inf,inf,0,1,0,1,1,0,1,0,2,0,0,1
21236070,0,0.0,0.0,0.0,0.0,0.06415796,-1.5807443e-07,2.3910354e-07,0.0,0.082191706,-0.11080537,0.073369294,0.009752779,-3.1834545e-05,4.8152964e-05,0.0,2.259091,-0.91271895,0.77476573,-1.6439811,0.060844157,0.0,0.1,0.36549386,0.6929787,0.25709522,0.2685952,inf,inf,inf,inf,0,1,0,1,1,0,1,0,2,0,0,1
21335374,0,0.0,0.0,0.0,0.0,0.062012404,-1.5807443e-07,2.3910354e-07,0.0,0.06943898,-0.0984263,0.0602116,-0.0040658135,-3.1834545e-05,4.8152964e-05,0.0,-2.312959,2.7341602,-1.8111787,-1.6419542,0.060844157,0.0,0.1,0.38777623,0.68864006,0.2674685,0.2651702,inf,inf,inf,inf,0,1,0,1,1,0,1,0,2,0,0,1
21434817,0,0.0,0.0,0.0,0.0,0.060910597,-1.5807443e-07,2.3910354e-07,0.0,0.08233921,-0.1091571,0.07909098,0.015324927,-3.1834545e-05,4.8152964e-05,0.0,0.3268167,-2.6286478,1.9718492,-1.6405318,0.060844157,0.0,0.1,0.41140273,0.6844898,0.28112078,0.2618829,inf,inf,inf,inf,0,1,0,1,1,0,1,0,2,0,0,1
21538961,0,0.0,0.0,0.0,0.0,0.05876466,-1.5807443e-07,2.3910354e-07,0.0,0.08340588,-0.1062329,0.06732973,0.0025915613,-3.1834545e-05,4.8152964e-05,0.0,0.9502694,0.07635083,-0.43989506,-1.6398209,0.060844157,0.0,0.1,0.43607724,0.68035144,0.29679248,0.25864688,inf,inf,inf,inf,0,1,0,1,1,0,1,0,2,0,0,1
21638272,0,0.0,0.0,0.0,0.0,0.054252464,-1.5807443e-07,2.3910354e-07,0.0,0.090755194,-0.118708014,0.07144938,0.003932372,-3.1834545e-05,4.8152964e-05,0.0,0.3832147,-2.1163926,1.1155492,-1.6390437,0.060844157,0.0,0.1,0.4622861,0.6763078,0.3150937,0.25550705,inf,inf,inf,inf,0,1,0,1,1,0,1,0,2,0,0,1
21737583,0,0.0,0.0,0.0,0.0,0.048669755,-1.5807443e-07,2.3910354e-07,0.0,0.09067071,-0.115800485,0.06458878,-0.006204503,-3.1834545e-05,4.8152964e-05,0.0,0.16274883,-0.6597668,-0.63050807,-1.6393757,0.060844157,0.0,0.1,0.4897041,0.6852014,0.33454734,0.25596914,inf,inf,inf,inf,0,1,0,1,1,0,1,0,2,0,0,1
21836894,0,0.0,0.0,0.0,0.0,0.04554407,-1.5807443e-07,2.3910354e-07,0.0,0.09747273,-0.12004481,0.06020216,-0.011175424,-3.1834545e-05,4.8152964e-05,0.0,0.23833576,1.6675706,-1.8995994,-1.6372126,0.060844157,0.0,0.1,0.51899654,0.68111134,0.35569596,0.25289708,inf,inf,inf,inf,0,1,0,1,1,0,1,0,2,0,0,1
21936243,0,0.0,0.0,0.0,0.0,0.040394455,-1.5807443e-07,2.3910354e-07,0.0,0.09456497,-0.11791497,0.059742372,-0.013994155,-3.1834545e-05,4.8152964e-05,0.0,0.1140576,2.3210194,-0.08484973,-1.6361523,0.060844157,0.0,0.1,0.5496207,0.67711693,0.37800062,0.24992372,inf,inf,inf,inf,0,1,0,1,1,0,1,0,2,0,0,1
22035533,0,0.0,0.0,0.0,0.0,0.035358623,-1.5807443e-07,2.3910354e-07,0.0,0.10326497,-0.13492303,0.07350912,-0.002456822,-3.1834545e-05,4.8152964e-05,0.0,0.86082953,-4.025133,3.278917,-1.6373141,0.060844157,0.0,0.1,0.58253336,0.67313224,0.4013841,0.24698855,inf,inf,inf,inf,0,1,0,1,1,0,1,0,2,0,0,1
22134826,0,0.0,0.0,0.0,0.0,0.029270621,-1.5807443e-07,2.3910354e-07,0.0,0.1170019,-0.14122388,0.06333664,-0.015480963,-3.1834545e-05,4.8152964e-05,0.0,1.4045007,0.37602276,-0.09684112,-1.6361866,0.060844157,0.0,0.1027918,0.61748934,0.66916645,0.42591786,0.24412255,inf,inf,inf,inf,0,1,0,1,1,0,1,0,2,0,0,1
22234237,0,0.0,0.0,0.0,0.0,0.023978174,-1.5807443e-07,2.3910354e-07,0.0,0.12436474,-0.14756207,0.06787442,-0.012739478,-3.1834545e-05,4.8152964e-05,0.0,0.60218894,-0.6986028,1.1466374,-1.6352776,0.060844157,0.0,0.10808425,0.6539996,0.6652908,0.45077214,0.24131465,inf,inf,inf,inf,0,1,0,1,1,0,1,0,2,0,0,1
22338414,0,0.0,0.0,0.0,0.0,0.020746082,-1.5807443e-07,2.3910354e-07,0.0,0.117331855,-0.154835,0.05402609,-0.02641955,-3.1834545e-05,4.8152964e-05,0.0,-0.3321652,0.363944,-1.3317336,-1.6343511,0.060844157,0.0,0.11131634,0.69342196,0.6736499,0.47668105,0.2417886,inf,inf,inf,inf,0,1,0,1,1,0,1,0,2,0,0,1
22437725,0,0.0,0.0,0.0,0.0,0.014941563,-1.5807443e-07,2.3910354e-07,0.0,0.123886384,-0.15729055,0.05638022,-0.026226338,-3.1834545e-05,4.8152964e-05,0.0,-0.10015706,1.6527919,-0.44868678,-1.6346128,0.060844157,0.0,0.117120855,0.7343901,0.6696727,0.50301796,0.23905385,inf,inf,inf,inf,0,1,0,1,1,0,1,0,2,0,0,1
22537038,0,0.0,0.0,0.0,0.0,0.009764727,-1.5807443e-07,2.3910354e-07,0.0,0.13204552,-0.1533084,0.05948651,-0.024158543,-3.1834545e-05,4.8152964e-05,0.0,0.5022437,1.2864836,-0.15387647,-1.6342257,0.060844157,0.0,0.12229769,0.7787953,0.66586685,0.52982414,0.23641519,inf,inf,inf,inf,0,1,0,1,1,0,1,0,2,0,0,1
22636346,0,0.0,0.0,0.0,0.0,0.006018762,-1.5807443e-07,2.3910354e-07,0.0,0.13832763,-0.1858671,0.071757354,-0.011324108,-3.1834545e-05,4.8152964e-05,0.0,1.1489459,-4.726633,3.1876888,-1.6339066,0.060844157,0.0,0.12604366,0.8245693,0.6620737,0.55660224,0.23381606,inf,inf,inf,inf,0,1,0,1,1,0,1,0,2,0,0,1
22735656,0,0.0,0.0,0.0,0.0,0.0018147217,-1.5807443e-07,2.3910354e-07,0.0,0.13842571,-0.18314987,0.056539234,-0.026707964,-3.1834545e-05,4.8152964e-05,0.0,-0.05472719,-1.0871631,0.52375185,-1.6335003,0.060844157,0.0,0.1302477,0.8742859,0.65837157,0.5842212,0.23129538,inf,inf,inf,inf,0,1,0,1,1,0,1,0,2,0,0,1
22834967,0,0.0,0.0,0.0,0.0,0.0010135295,-1.5807443e-07,2.3910354e-07,0.0,0.13762753,-0.18170747,0.054071546,-0.02579571,-3.1834545e-05,4.8152964e-05,0.0,0.33124027,0.3527135,-0.3724684,-1.6324171,0.060844157,0.0,0.13104889,0.9249864,0.6546861,0.61133426,0.2288289,inf,inf,inf,inf,0,1,0,1,1,0,1,0,2,0,0,1
22934293,0,0.0,0.0,0.0,0.0,-0.0009856587,-1.5807443e-07,2.3910354e-07,0.0,0.15186276,-0.19643584,0.049124785,-0.029103573,-3.1834545e-05,4.8152964e-05,0.0,0.37343863,0.40122283,-2.1932685,-1.6312875,0.060844157,0.0,0.13304807,0.9802884,0.6510852,0.6397227,0.22642246,inf,inf,inf,inf,0,1,0,1,1,0,1,0,2,0,0,1
23033710,0,0.0,0.0,0.0,0.0,-0.004529518,-1.5807443e-07,2.3910354e-07,0.0,0.14883925,-0.19742043,0.052800506,-0.025474569,-3.1834545e-05,4.8152964e-05,0.0,-1.4890953,-0.1330776,0.3858133,-1.6308467,0.060844157,0.0,0.13659194,1.0359256,0.6475046,0.66700566,0.22406572,inf,inf,inf,inf,0,1,0,1,1,0,1,0,2,0,0,1
23137865,0,0.0,0.0,0.0,0.0,-0.007461118,-1.5807443e-07,2.3910354e-07,0.0,0.16149941,-0.20245327,0.05426752,-0.023775438,-3.1834545e-05,4.8152964e-05,0.0,1.150466,-0.25176755,-0.1693409,-1.6318723,0.060844157,0.0,0.13952354,1.0970092,0.6551932,0.6957322,0.22452883,inf,inf,inf,inf,0,1,0,1,1,0,1,0,2,0,0,1
23237176,0,0.0,0.0,0.0,0.0,-0.012729891,-1.5807443e-07,2.3910354e-07,0.0,0.17090282,-0.21290918,0.05324688,-0.026463646,-3.1834545e-05,4.8152964e-05,0.0,0.14917156,0.58159816,-1.5301881,-1.6313455,0.060844157,0.0,0.14479232,1.1574746,0.6515348,0.723322,0.22222568,inf,inf,inf,inf,0,1,0,1,1,0,1,0,2,0,0,1
23336487,0,0.0,0.0,0.0,0.0,-0.014091029,-1.5807443e-07,2.3910354e-07,0.0,0.17610966,-0.21790463,0.048292376,-0.028788414,-3.1834545e-05,4.8152964e-05,0.0,-0.10919928,0.40574238,-1.4748361,-1.6298833,0.060844157,0.0,0.14615345,1.2244818,0.6480266,0.75246423,0.2199892,inf,inf,inf,inf,0,1,0,1,1,0,1,0,2,0,0,1
23435798,0,0.0,0.0,0.0,0.0,-0.014984739,-1.5807443e-07,2.3910354e-07,0.0,0.17531328,-0.21966553,0.053898998,-0.020405462,-3.1834545e-05,4.8152964e-05,0.0,-0.76391757,0.48498735,-0.41569477,-1.628782,0.060844157,0.0,0.14704716,1.2894741,0.6446006,0.7792658,0.21781267,inf,inf,inf,inf,0,1,0,1,1,0,1,0,2,0,0,1
23535116,0,0.0,0.0,0.0,0.0,-0.019292008,-1.5807443e-07,2.3910354e-07,0.0,0.1779913,-0.22194579,0.052738644,-0.02257554,-3.1834545e-05,4.8152964e-05,0.0,-0.92251354,1.2597448,-0.24828066,-1.628633,0.060844157,0.0,0.15135443,1.3623989,0.6411897,0.80858344,0.21567342,inf,inf,inf,inf,0,1,0,1,1,0,1,0,2,0,0,1
23634420,0,0.0,0.0,0.0,0.0,-0.021553911,-1.5807443e-07,2.3910354e-07,0.0,0.18626861,-0.22233783,0.044466645,-0.029575795,-3.1834545e-05,4.8152964e-05,0.0,-0.8080267,2.69002,-1.4640069,-1.6275893,0.060844157,0.0,0.15361634,1.4313747,0.63779837,0.8346302,0.21357098,inf,inf,inf,inf,0,1,0,1,1,0,1,0,2,0,0,1
23733731,0,0.0,0.0,0.0,0.0,-0.019645154,-1.5807443e-07,2.3910354e-07,0.0,0.19162965,-0.22714886,0.0462841,-0.022815507,-3.1834545e-05,4.8152964e-05,0.0,0.00917089,2.817613,-2.2173107,-1.6280932,0.060844157,0.0,0.15170757,1.510184,0.63442814,0.8643289,0.21150964,inf,inf,inf,inf,0,1,0,1,1,0,1,0,2,0,0,1
23833124,0,0.0,0.0,0.0,0.0,-0.016999148,-1.5807443e-07,2.3910354e-07,0.0,0.2022437,-0.2292042,0.04696077,-0.017157398,-3.1834545e-05,4.8152964e-05,0.0,0.9346338,2.767162,-1.0607942,-1.6274292,0.060844157,0.0,0.14906156,1.5824745,0.6417156,0.8894269,0.21201204,inf,inf,inf,inf,0,1,0,1,1,0,1,0,2,0,0,1
23932352,0,0.0,0.0,0.0,0.0,-0.012859149,-1.5807443e-07,2.3910354e-07,0.0,0.20469365,-0.23283172,0.0504383,-0.00787712,-3.1834545e-05,4.8152964e-05,0.0,0.22357468,1.2180368,0.2466336,-1.6266589,0.060844157,0.0,0.14492157,1.667087,0.63833916,0.9192718,0.21000032,inf,inf,inf,inf,0,1,0,1,1,0,1,0,2,0,0,1
24031664,0,0.0,0.0,0.0,0.0,-0.009343685,-1.5807443e-07,2.3910354e-07,0.0,0.2130747,-0.2467025,0.061008085,0.0070736543,-3.1834545e-05,4.8152964e-05,0.0,1.4213959,-3.968864,3.055203,-1.626741,0.060844157,0.0,0.1414061,1.74177,0.6350384,0.9429505,0.20803685,inf,inf,inf,inf,0,1,0,1,1,0,1,0,2,0,0,1
24131137,0,0.0,0.0,0.0,0.0,-0.0066037443,-1.5807443e-07,2.3910354e-07,0.0,0.21510066,-0.2386885,0.046326406,-0.0046829064,-3.1834545e-05,4.8152964e-05,0.0,-0.81737214,5.5828276,-3.97662,-1.6248616,0.060844157,0.0,0.13866617,1.8320434,0.6317667,0.97278464,0.20611803,inf,inf,inf,inf,0,1,0,1,1,0,1,0,2,0,0,1
24235250,0,0.0,0.0,0.0,0.0,-0.0032097956,-1.5807443e-07,2.3910354e-07,0.0,0.2226173,-0.2489571,0.05314261,0.005080031,-3.1834545e-05,4.8152964e-05,0.0,-0.4746123,4.1168957,-3.529067,-1.6247784,0.060844157,0.0,0.13527222,1.9082143,0.6285575,0.9947091,0.20421882,inf,inf,inf,inf,0,1,0,1,1,0,1,0,2,0,0,1
24334611,0,0.0,0.0,0.0,0.0,5.669397e-06,-1.5807443e-07,2.3910354e-07,0.0,0.24131015,-0.2682884,0.06749782,0.021918373,-3.1834545e-05,4.8152964e-05,0.0,0.52350515,-3.2646189,0.9058692,-1.6252666,0.060844157,0.0,0.13205676,2.0039692,0.6253797,1.0250021,0.20239075,inf,inf,inf,inf,0,1,0,1,1,0,1,0,2,0,0,1
24433873,0,0.0,0.0,0.0,0.0,0.003332579,-1.5807443e-07,2.3910354e-07,0.0,0.2362117,-0.2544234,0.05644432,0.013185934,-3.1834545e-05,4.8152964e-05,0.0,0.44411695,2.6468701,-2.0541909,-1.6238799,0.060844157,0.0,0.12872984,2.0802584,0.6223188,1.044562,0.20058209,inf,inf,inf,inf,0,1,0,1,1,0,1,0,2,0,0,1
24533217,0,0.0,0.0,0.0,0.0,0.0050351997,-1.5807443e-07,2.3910354e-07,0.0,0.24403854,-0.25902617,0.057676133,0.014892783,-3.1834545e-05,4.8152964e-05,0.0,-0.48202196,0.38233617,-0.24345013,-1.6233155,0.060844157,0.0,0.12702721,2.1812694,0.61928874,1.0743551,0.19884536,inf,inf,inf,inf,0,1,0,1,1,0,1,0,2,0,0,1
24632494,0,0.0,0.0,0.0,0.0,0.0065161726,-1.5807443e-07,2.3910354e-07,0.0,0.24858063,-0.25629494,0.06139926,0.018701138,-3.1834545e-05,4.8152964e-05,0.0,0.4739501,2.0774922,-1.2025764,-1.6237022,0.060844157,0.0,0.12554625,2.2561893,0.6260854,1.0913785,0.19930013,inf,inf,inf,inf,0,1,0,1,1,0,1,0,2,0,0,1
24736770,0,0.0,0.0,0.0,0.0,0.0075850994,-1.5807443e-07,2.3910354e-07,0.0,0.250792,-0.2656266,0.063959226,0.020728303,-3.1834545e-05,4.8152964e-05,0.0,0.41833097,1.8030664,-1.564595,-1.6235986,0.060844157,0.0,0.12447732,2.3621173,0.62299937,1.1211021,0.19759904,inf,inf,inf,inf,0,1,0,1,1,0,1,0,2,0,0,1
24836080,0,0.0,0.0,0.0,0.0,0.008764423,-1.5807443e-07,2.3910354e-07,0.0,0.25560963,-0.26676404,0.056492772,0.013173009,-3.1834545e-05,4.8152964e-05,0.0,0.28387827,-2.0673099,0.58956367,-1.6234548,0.060844157,0.0,0.123298,2.434268,0.6199536,1.1350334,0.1958604,inf,inf,inf,inf,0,1,0,1,1,0,1,0,2,0,0,1
24935541,0,0.0,0.0,0.0,0.0,0.008590012,-1.5807443e-07,2.3910354e-07,0.0,0.26165608,-0.2553275,0.059815567,0.01497465,-3.1834545e-05,4.8152964e-05,0.0,-0.05989217,0.87444395,-0.39636514,-1.62211,0.060844157,0.0,0.12347241,2.5448034,0.61700773,1.1648753,0.19425233,inf,inf,inf,inf,0,1,0,1,1,0,1,0,2,0,0,1
25034749,0,0.0,0.0,0.0,0.0,0.0045383098,-1.5807443e-07,2.3910354e-07,0.0,0.25924793,-0.26851135,0.062628664,0.012815705,-3.1834545e-05,4.8152964e-05,0.0,-0.79808116,-0.16954103,0.423268,-1.6221824,0.060844157,0.0,0.12752411,2.6584299,0.61412424,1.1944528,0.19265977,inf,inf,inf,inf,0,1,0,1,1,0,1,0,2,0,0,1
25134015,0,0.0,0.0,0.0,0.0,-0.0025296279,-1.5807443e-07,2.3910354e-07,0.0,0.2636864,-0.25615805,0.05449857,-0.0027438533,-3.1834545e-05,4.8152964e-05,0.0,-0.41897362,1.323357,0.6960216,-1.6217184,0.060844157,0.0,0.13459204,2.726965,0.61122364,1.2043208,0.19102302,inf,inf,inf,inf,0,1,0,1,1,0,1,0,2,0,0,1
25238290,0,0.0,0.0,0.0,0.0,-0.008009741,-1.5807443e-07,2.3910354e-07,0.0,0.25483066,-0.2743686,0.048838727,-0.012996928,-3.1834545e-05,4.8152964e-05,0.0,1.2480726,-1.4832957,1.3182763,-1.6211004,0.060844157,0.0,0.14007217,2.8447025,0.60837024,1.2336302,0.18948244,inf,inf,inf,inf,0,1,0,1,1,0,1,0,2,0,0,1
25337600,0,0.0,0.0,0.0,0.0,-0.014369346,-1.5807443e-07,2.3910354e-07,0.0,0.2548776,-0.2664592,0.05424221,-0.011557405,-3.1834545e-05,4.8152964e-05,0.0,1.2345755,-5.062959,3.3871775,-1.62183,0.060844157,0.0,0.14643177,2.9068599,0.6148132,1.2396644,0.18991123,inf,inf,inf,inf,0,1,0,1,1,0,1,0,2,0,0,1
25436934,0,0.0,0.0,0.0,0.0,-0.019848596,-1.5807443e-07,2.3910354e-07,0.0,0.24943711,-0.25080433,0.043386135,-0.024886461,-3.1834545e-05,4.8152964e-05,0.0,0.1933543,1.8219703,-1.8464265,-1.6214252,0.060844157,0.0,0.15191102,3.0282977,0.6119599,1.2690592,0.18840362,inf,inf,inf,inf,0,1,0,1,1,0,1,0,2,0,0,1
25536235,0,0.0,0.0,0.0,0.0,-0.022970041,-1.5807443e-07,2.3910354e-07,0.0,0.26289117,-0.24727437,0.037942313,-0.030174082,-3.1834545e-05,4.8152964e-05,0.0,-0.17653836,3.9666653,-1.5711489,-1.6202548,0.060844157,0.0,0.15503246,3.081777,0.6091169,1.270499,0.18679091,inf,inf,inf,inf,0,1,0,1,1,0,1,0,2,0,0,1
25635533,0,0.0,0.0,0.0,0.0,-0.021302454,-1.5807443e-07,2.3910354e-07,0.0,0.29185435,-0.2500592,0.06123611,-0.0029036803,-3.1834545e-05,4.8152964e-05,0.0,0.6749023,-1.5200666,1.1787602,-1.6207047,0.060844157,0.0,0.15336487,3.2064068,0.60633826,1.2990985,0.18526913,inf,inf,inf,inf,0,1,0,1,1,0,1,0,2,0,0,1
25734952,0,0.0,0.0,0.0,0.0,-0.018406432,-1.5807443e-07,2.3910354e-07,0.0,0.3544418,-0.24154188,0.08307622,0.021784432,-3.1834545e-05,4.8152964e-05,0.0,0.82125145,-0.7185136,0.74820966,-1.619658,0.060844157,0.0,0.15046886,3.2495668,0.6035561,1.2957822,0.18363367,inf,inf,inf,inf,0,1,0,1,1,0,1,0,2,0,0,1
25834158,0,0.0,0.0,0.0,0.0,-0.01604249,-1.5807443e-07,2.3910354e-07,0.0,0.3042794,-0.25143504,0.03687289,-0.022803985,-3.1834545e-05,4.8152964e-05,0.0,0.95045376,3.6003306,0.5506821,-1.6194803,0.060844157,0.0,0.1481049,3.3768125,0.60084647,1.323675,0.18212776,inf,inf,inf,inf,0,1,0,1,1,0,1,0,2,0,0,1
25933466,0,0.0,0.0,0.0,0.0,-0.013573827,-1.5807443e-07,2.3910354e-07,0.0,0.29046443,-0.22059076,0.050064128,-0.0064454908,-3.1834545e-05,4.8152964e-05,0.0,1.3034531,2.6989367,-1.2019681,-1.6253887,0.060844157,0.0,0.14563625,3.4083161,0.6070056,1.315562,0.18245824,inf,inf,inf,inf,0,1,0,1,1,0,1,0,2,0,0,1
26032776,0,0.0,0.0,0.0,0.0,-0.008696749,-1.5807443e-07,2.3910354e-07,0.0,0.29030293,-0.22486848,0.05779626,0.0064334217,-3.1834545e-05,4.8152964e-05,0.0,0.62128466,-0.88691074,-0.04256599,-1.6271383,0.060844157,0.0,0.14075917,3.5376284,0.6042099,1.3432057,0.18106227,inf,inf,inf,inf,0,1,0,1,1,0,1,0,2,0,0,1
26132087,0,0.0,0.0,0.0,0.0,-0.0054604304,-1.5807443e-07,2.3910354e-07,0.0,0.2909833,-0.23576799,0.062622435,0.014182458,-3.1834545e-05,4.8152964e-05,0.0,-1.1610336,-3.1413867,1.2392446,-1.6268393,0.060844157,0.0,0.13752285,3.5561557,0.60133857,1.3303301,0.17955309,inf,inf,inf,inf,0,1,0,1,1,0,1,0,2,0,0,1
26231398,0,0.0,0.0,0.0,0.0,-0.004200173,-1.5807443e-07,2.3910354e-07,0.0,0.2930263,-0.22509174,0.056105684,0.008240307,-3.1834545e-05,4.8152964e-05,0.0,-0.18602063,-2.7054098,1.4657854,-1.6278337,0.060844157,0.0,0.1362626,3.6869888,0.5985845,1.3570966,0.17822774,inf,inf,inf,inf,0,1,0,1,1,0,1,0,2,0,0,1
26335675,0,0.0,0.0,0.0,0.0,-0.0030666466,-1.5807443e-07,2.3910354e-07,0.0,0.29841775,-0.21751767,0.055849753,0.008201387,-3.1834545e-05,4.8152964e-05,0.0,-1.0773767,-2.4099076,1.1220154,-1.6271557,0.060844157,0.0,0.13512906,3.6918583,0.59574926,1.339341,0.17674734,inf,inf,inf,inf,0,1,0,1,1,0,1,0,2,0,0,0
26434986,0,0.0,0.0,0.0,0.0,-0.005287372,-1.5807443e-07,2.3910354e-07,0.0,0.3003724,-0.21247116,0.059840877,0.009469121,-3.1834545e-05,4.8152964e-05,0.0,-0.17112686,-2.2961264,0.7796,-1.6288667,0.060844157,0.0,0.1373498,3.8236463,0.5930827,1.3655134,0.17548227,inf,inf,inf,inf,0,1,0,1,1,0,1,0,2,0,0,0
26534439,0,0.0,0.0,0.0,0.0,-0.010043279,-1.5807443e-07,2.3910354e-07,0.0,0.2986642,-0.19523874,0.058844153,0.0037836572,-3.1834545e-05,4.8152964e-05,0.0,0.42614922,-1.572442,1.113238,-1.6287223,0.060844157,0.0,0.1421057,3.8144958,0.59036714,1.3436651,0.17408462,inf,inf,inf,inf,0,1,0,1,1,0,1,0,2,0,0,0
26638573,0,0.0,0.0,0.0,0.0,-0.013566711,-1.5807443e-07,2.3910354e-07,0.0,0.29553112,-0.1782954,0.05131889,-0.006860635,-3.1834545e-05,4.8152964e-05,0.0,0.3074637,0.17386365,0.071148016,-1.6302488,0.060844157,0.0,0.14562914,3.9468942,0.59633535,1.3690168,0.1746238,inf,inf,inf,inf,0,1,0,1,1,0,1,0,2,0,0,0
26737884,0,0.0,0.0,0.0,0.0,-0.01612284,-1.5807443e-07,2.3910354e-07,0.0,0.29845303,-0.17186686,0.05246873,-0.007300821,-3.1834545e-05,4.8152964e-05,0.0,0.99113417,0.40437362,0.17894363,-1.6336896,0.060844157,0.0,0.14818525,3.9246747,0.5936159,1.3433907,0.1732593,inf,inf,inf,inf,0,1,0,1,1,0,1,0,2,0,0,0
26827493,0,0.0,0.0,0.0,0.0,-0.01792748,-1.5807443e-07,2.3910354e-07,0.0,0.29493126,-0.1504018,0.04821881,-0.012152028,-3.1834545e-05,4.8152964e-05,0.0,0.21447128,2.4404619,-1.966441,-1.6370951,0.060844157,0.0,0.1499899,4.043562,0.58969,1.3654386,0.17188905,inf,inf,inf,inf,0,1,0,1,1,0,1,0,2,0,0,0
26931540,0,0.0,0.0,0.0,0.0,-0.020118702,-1.5807443e-07,2.3910354e-07,0.0,0.30678833,-0.15187925,0.04727412,-0.013996995,-3.1834545e-05,4.8152964e-05,0.0,0.7011506,-0.83240944,-0.063757755,-1.6417719,0.060844157,0.0,0.15218112,4.0089507,0.58709705,1.3360915,0.1705681,inf,inf,inf,inf,0,1,0,1,1,0,1,0,2,0,0,0
27040782,0,0.0,0.0,0.0,0.0,-0.02475955,-1.5807443e-07,2.3910354e-07,0.0,0.32204303,-0.13388464,0.034046374,-0.029388357,-3.1834545e-05,4.8152964e-05,0.0,0.740459,1.9062672,-1.462838,-1.6470599,0.060844157,0.0,0.15682197,4.1538067,0.586038,1.3625605,0.16968386,inf,inf,inf,inf,0,1,0,1,1,0,1,0,2,0,0,0
27140093,0,0.0,0.0,0.0,0.0,-0.03003268,-1.5807443e-07,2.3910354e-07,0.0,0.3269719,-0.13579491,0.049104817,-0.016915463,-3.1834545e-05,4.8152964e-05,0.0,0.21946819,-2.6067605,2.2440195,-1.6576582,0.060844157,0.0,0.1620951,4.105738,0.58353615,1.329798,0.1684073,inf,inf,inf,inf,0,1,0,1,1,0,1,0,2,0,0,0
27239418,0,0.0,0.0,0.0,0.0,-0.034316517,-1.5807443e-07,2.3910354e-07,0.0,0.31636298,-0.10987248,0.06125534,-0.006389761,-3.1834545e-05,4.8152964e-05,0.0,1.1571525,-0.46034515,1.3981891,-1.671774,0.060844157,0.0,0.16637895,4.2366514,0.5811759,1.3527368,0.16738045,inf,inf,inf,inf,0,1,0,1,1,0,1,0,2,0,0,0
27338785,0,0.0,0.0,0.0,0.0,-0.035123453,-1.5807443e-07,2.3910354e-07,0.0,0.26039642,-0.08876215,0.102446474,0.034763534,-3.1834545e-05,4.8152964e-05,0.0,-0.46137252,-0.46881992,2.391389,-1.690683,0.060844157,0.0,0.16718587,4.1762447,0.5786924,1.3171395,0.16616912,inf,inf,inf,inf,0,1,0,1,1,0,1,0,2,0,0,0
27438026,0,0.0,0.0,0.0,0.0,-0.035569146,-1.5807443e-07,2.3910354e-07,0.0,0.25199035,-0.061232153,0.019245174,-0.046192173,-3.1834545e-05,4.8152964e-05,0.0,-1.5284668,-0.32312468,-0.6170517,-1.7116296,0.060844157,0.0,0.16763157,4.306032,0.5844162,1.3392042,0.16680543,inf,inf,inf,inf,0,1,0,1,1,0,1,0,2,0,0,0
27537337,0,0.0,0.0,0.0,0.0,-0.03799497,-1.5807443e-07,2.3910354e-07,0.0,0.24080756,-0.10483365,0.03560595,-0.028610324,-3.1834545e-05,4.8152964e-05,0.0,-0.54353446,0.008979678,-0.2431559,-1.6958562,0.060844157,0.0,0.17005739,4.234315,0.58193165,1.3014163,0.16557913,inf,inf,inf,inf,0,1,0,1,1,0,1,0,2,0,0,0
27636651,0,0.0,0.0,0.0,0.0,-0.042838924,-1.5807443e-07,2.3910354e-07,0.0,0.22896871,-0.08945327,0.03822905,-0.027183099,-3.1834545e-05,4.8152964e-05,0.0,0.96620935,-1.3448952,0.345313,-1.6932944,0.060844157,0.0,0.17490134,4.3623705,0.57960576,1.322777,0.16451377,inf,inf,inf,inf,0,1,0,1,1,0,1,0,2,0,0,0
27735959,0,0.0,0.0,0.0,0.0,-0.049209215,-1.5807443e-07,2.3910354e-07,0.0,0.2335261,-0.08518784,0.040213693,-0.027668156,-3.1834545e-05,4.8152964e-05,0.0,-1.1573288,-0.6051638,0.1397186,-1.6956316,0.060844157,0.0,0.18127164,4.4925947,0.5772868,1.3440146,0.16339618,inf,inf,inf,inf,0,1,0,1,1,0,1,0,2,0,0,0
27835269,0,0.0,0.0,0.0,0.0,-0.05237718,-1.5807443e-07,2.3910354e-07,0.0,0.2699314,-0.06945305,0.056163985,-0.012390351,-3.1834545e-05,4.8152964e-05,0.0,1.890663,-1.1017087,-0.010737078,-1.6993871,0.060844157,0.0,0.1844396,4.406773,0.57487065,1.303561,0.16202372,inf,inf,inf,inf,0,1,0,1,1,0,1,0,2,0,0,0
27934581,0,0.0,0.0,0.0,0.0,-0.05242782,-1.5807443e-07,2.3910354e-07,0.0,0.30214855,-0.041295514,0.13156363,0.060558107,-3.1834545e-05,4.8152964e-05,0.0,0.7064964,0.22131722,1.468627,-1.7075169,0.060844157,0.0,0.18449023,4.5350595,0.5726362,1.3239746,0.16081463,inf,inf,inf,inf,0,1,0,1,1,0,1,0,2,0,0,0
28033891,0,0.0,0.0,0.0,0.0,-0.05833673,-1.5807443e-07,2.3910354e-07,0.0,0.3082795,-0.062109396,0.031131104,-0.04279509,-3.1834545e-05,4.8152964e-05,0.0,1.7127486,1.6356492,2.0918875,-1.715481,0.060844157,0.0,0.19039916,4.4402432,0.57026374,1.2820532,0.15941076,inf,inf,inf,inf,0,1,0,1,1,0,1,0,2,0,0,0
28133270,0,0.0,0.0,0.0,0.0,-0.06310207,-1.5807443e-07,2.3910354e-07,0.0,0.36417645,-0.041550513,0.052536484,-0.02182811,-3.1834545e-05,4.8152964e-05,0.0,1.0599395,-0.5707361,1.4484607,-1.7272515,0.060844157,0.0,0.19516449,4.5664907,0.575708,1.3018445,0.15979795,inf,inf,inf,inf,0,1,0,1,1,0,1,0,2,0,0,0
28237479,0,0.0,0.0,0.0,0.0,-0.059287976,-1.5807443e-07,2.3910354e-07,0.0,0.378943,-0.03140842,0.053104013,-0.01569147,-3.1834545e-05,4.8152964e-05,0.0,-2.0799108,2.6181588,-1.7282677,-1.737977,0.060844157,0.0,0.1913504,4.4639945,0.5732907,1.259513,0.15864341,inf,inf,inf,inf,0,1,0,1,1,0,1,0,2,0,0,0
28336791,0,0.0,0.0,0.0,0.0,-0.055647943,-1.5807443e-07,2.3910354e-07,0.0,0.4371935,-0.039887927,0.045691527,-0.017011216,-3.1834545e-05,4.8152964e-05,0.0,0.97985625,2.0660255,-0.27331606,-1.7480916,0.060844157,0.0,0.18771036,4.587806,0.57107097,1.2782458,0.1576987,inf,inf,inf,inf,0,1,0,1,1,0,1,0,2,0,0,0
28436263,0,0.0,0.0,0.0,0.0,-0.05474224,-1.5807443e-07,2.3910354e-07,0.0,0.4661649,-0.036148146,0.032051265,-0.026371995,-3.1834545e-05,4.8152964e-05,0.0,0.838431,0.67036724,0.5739396,-1.7603244,0.060844157,0.0,0.18680465,4.4800606,0.5687879,1.2358036,0.15664795,inf,inf,inf,inf,0,1,0,1,1,0,1,0,2,0,0,0
28535425,0,0.0,0.0,0.0,0.0,-0.052584954,-1.5807443e-07,2.3910354e-07,0.0,0.51857984,-0.028423103,0.034631863,-0.019106457,-3.1834545e-05,4.8152964e-05,0.0,1.9574558,-2.2650514,1.1955783,-1.7680659,0.060844157,0.0,0.18464738,4.6014767,0.5666602,1.2540153,0.1558029,inf,inf,inf,inf,0,1,0,1,1,0,1,0,2,0,0,0
28634718,0,0.0,0.0,0.0,0.0,-0.052033186,-1.5807443e-07,2.3910354e-07,0.0,0.5516979,-0.022980282,0.041830856,-0.009603684,-3.1834545e-05,4.8152964e-05,0.0,1.7885988,-0.6344715,-1.1576335,-1.7723984,0.060844157,0.0,0.1840956,4.4883127,0.5644046,1.2111657,0.15476036,inf,inf,inf,inf,0,1,0,1,1,0,1,0,2,0,0,0
28734034,0,0.0,0.0,0.0,0.0,-0.052164964,-1.5807443e-07,2.3910354e-07,0.0,0.5790781,0.0016917321,0.05447193,0.003724498,-3.1834545e-05,4.8152964e-05,0.0,1.0547304,0.2507513,-0.1500649,-1.7750012,0.060844157,0.0,0.18422738,4.607206,0.56229997,1.2284924,0.15389708,inf,inf,inf,inf,0,1,0,1,1,0,1,0,2,0,0,0
28833346,0,0.0,0.0,0.0,0.0,-0.05493255,-1.5807443e-07,2.3910354e-07,0.0,0.5871611,0.016514814,0.036181815,-0.016576106,-3.1834545e-05,4.8152964e-05,0.0,0.84155864,-1.0417544,1.0279872,-1.7771726,0.060844157,0.0,0.18699497,4.489825,0.567449,1.1859255,0.15423697,inf,inf,inf,inf,0,1,0,1,1,0,1,0,2,0,0,0
28932658,0,0.0,0.0,0.0,0.0,-0.058168743,-1.5807443e-07,2.3910354e-07,0.0,0.5396993,0.04187099,0.031098237,-0.022784017,-3.1834545e-05,4.8152964e-05,0.0,0.687083,-0.14189303,-0.6384529,-1.7765054,0.060844157,0.0,0.19023116,4.6061363,0.56534845,1.2025425,0.15334214,inf,inf,inf,inf,0,1,0,1,1,0,1,0,2,0,0,0
29031968,0,0.0,0.0,0.0,0.0,-0.06308716,-1.5807443e-07,2.3910354e-07,0.0,0.5014425,0.07561012,-0.0015752688,-0.05640355,-3.1834545e-05,4.8152964e-05,0.0,-2.2996829,2.1516604,-2.0802138,-1.7759119,0.060844157,0.0,0.19514957,4.485266,0.5631201,1.160474,0.15227331,inf,inf,inf,inf,0,1,0,1,1,0,1,0,2,0,0,0
29141209,0,0.0,0.0,0.0,0.0,-0.06897845,-1.5807443e-07,2.3910354e-07,0.0,0.4190771,0.10675768,0.00091038435,-0.053852722,-3.1834545e-05,4.8152964e-05,0.0,-0.69134825,0.16027743,-0.5110985,-1.7727734,0.060844157,0.0,0.20104086,4.610457,0.56230605,1.1782163,0.15148646,inf,inf,inf,inf,0,1,0,1,1,0,1,0,2,0,0,0
29230686,0,0.0,0.0,0.0,0.0,-0.073271,-1.5807443e-07,2.3910354e-07,0.0,0.36021277,0.13736956,0.010106355,-0.044489402,-3.1834545e-05,4.8152964e-05,0.0,-2.547873,1.3641822,1.4370165,-1.7711527,0.060844157,0.0,0.20533341,4.475667,0.5588869,1.1351432,0.15013258,inf,inf,inf,inf,0,1,0,1,1,0,1,0,2,0,0,0
29334865,0,0.0,0.0,0.0,0.0,-0.078625984,-1.5807443e-07,2.3910354e-07,0.0,0.26032373,0.17737292,-0.0218126,-0.07664274,-3.1834545e-05,4.8152964e-05,0.0,-1.8136381,0.13627765,0.34301156,-1.7688552,0.060844157,0.0,0.21068841,4.58677,0.55686873,1.1505595,0.1491442,inf,inf,inf,inf,0,1,0,1,1,0,1,0,2,0,0,0
29434176,0,0.0,0.0,0.0,0.0,-0.08981692,-1.5807443e-07,2.3910354e-07,0.0,0.19835968,0.21366286,-0.064884074,-0.121502616,-3.1834545e-05,4.8152964e-05,0.0,0.0287671,-0.7076866,-0.11082783,-1.767049,0.060844157,0.0,0.22187933,4.462865,0.5547291,1.1103691,0.14802596,inf,inf,inf,inf,0,1,0,1,1,0,1,0,2,0,0,0
29533519,0,0.0,0.0,0.0,0.0,-0.10636879,-1.5807443e-07,2.3910354e-07,0.0,0.09928688,0.24031961,-0.11574387,-0.17366649,-3.1834545e-05,4.8152964e-05,0.0,-0.8423852,-1.224603,0.114237614,-1.7637203,0.060844157,0.0,0.23843122,4.5715404,0.559769,1.1253906,0.14832456,inf,inf,inf,inf,0,1,0,1,1,0,1,0,2,0,0,0
29632798,0,0.0,0.0,0.0,0.0,-0.12778622,-1.5807443e-07,2.3910354e-07,0.0,0.051460646,0.26963776,-0.14531602,-0.2050264,-3.1834545e-05,4.8152964e-05,0.0,0.6877623,-1.3298061,0.108088806,-1.760624,0.060844157,0.0,0.25984865,4.4465113,0.5575635,1.0861175,0.14724989,inf,inf,inf,inf,0,1,0,1,1,0,1,0,2,0,0,0
29732112,0,0.0,0.0,0.0,0.0,-0.15245155,-1.5807443e-07,2.3910354e-07,0.0,-0.03175674,0.27511588,-0.1777403,-0.23945746,-3.1834545e-05,4.8152964e-05,0.0,-0.5383237,-1.38252,1.8609223,-1.7553898,0.060844157,0.0,0.28451395,4.552573,0.55548173,1.100602,0.14631797,inf,inf,inf,inf,0,1,0,1,1,0,1,0,2,0,0,0
29836385,0,0.0,0.0,0.0,0.0,-0.18161762,-1.5807443e-07,2.3910354e-07,0.0,-0.106155135,0.26791346,-0.2199398,-0.28366396,-3.1834545e-05,4.8152964e-05,0.0,-1.6950302,0.5764087,-1.3780094,-1.7486138,0.060844157,0.0,0.31368005,4.428024,0.5533376,1.0625355,0.14533477,inf,inf,inf,inf,0,1,0,1,1,0,1,0,2,0,0,0
29935696,0,0.0,0.0,0.0,0.0,-0.21098576,-1.5807443e-07,2.3910354e-07,0.0,-0.16100623,0.23299971,-0.24769388,-0.3117949,-3.1834545e-05,4.8152964e-05,0.0,-0.47060847,0.3819722,-1.4293134,-1.7405785,0.060844157,0.0,0.3430482,4.531644,0.5512983,1.0765475,0.14450514,inf,inf,inf,inf,0,1,0,1,1,0,1,0,2,0,0,0
30035135,0,0.0,0.0,0.0,0.0,-0.2388546,-1.5807443e-07,2.3910354e-07,0.0,-0.23441854,0.16979758,-0.26053107,-0.3209429,-3.1834545e-05,4.8152964e-05,0.0,-2.3204663,0.41708338,0.36892328,-1.7322756,0.060844157,0.0,0.37091702,4.406917,0.54924154,1.0397516,0.14365745,inf,inf,inf,inf,0,1,0,1,1,0,1,0,2,0,0,0
30134319,0,0.0,0.0,0.0,0.0,-0.26735657,-1.5807443e-07,2.3910354e-07,0.0,-0.2918856,0.115715295,-0.28846818,-0.34374517,-3.1834545e-05,4.8152964e-05,0.0,-1.6070898,-0.17797926,0.46449995,-1.724955,0.060844157,0.0,0.399419,4.5082455,0.5541305,1.0532303,0.1440183,inf,inf,inf,inf,0,1,0,1,1,0,1,0,2,0,0,0
30233642,0,0.0,0.0,0.0,0.0,-0.29460278,-1.5807443e-07,2.3910354e-07,0.0,-0.33261377,0.06428211,-0.28572553,-0.33429253,-3.1834545e-05,4.8152964e-05,0.0,-0.6787233,0.33000383,-1.2961992,-1.7165111,0.060844157,0.0,0.4266652,4.383751,0.5520589,1.0173283,0.14320053,inf,inf,inf,inf,0,1,0,1,1,0,1,0,2,0,0,0
30337905,0,0.0,0.0,0.0,0.0,-0.32305583,-1.5807443e-07,2.3910354e-07,0.0,-0.32753485,0.026391452,-0.2705847,-0.31409597,-3.1834545e-05,4.8152964e-05,0.0,-0.1298812,0.028149443,-0.844412,-1.7089202,0.060844157,0.0,0.45511824,4.4826493,0.5501007,1.0303533,0.14239791,inf,inf,inf,inf,0,1,0,1,1,0,1,0,2,0,0,0
30437216,0,0.0,0.0,0.0,0.0,-0.34904853,-1.5807443e-07,2.3910354e-07,0.0,-0.29537392,0.0045154085,-0.2481866,-0.2875768,-3.1834545e-05,4.8152964e-05,0.0,0.7786642,-0.7300737,1.1500458,-1.7005335,0.060844157,0.0,0.48111093,4.3596716,0.54808754,0.9957035,0.14160419,inf,inf,inf,inf,0,1,0,1,1,0,1,0,2,0,0,0
30536527,0,0.0,0.0,0.0,0.0,-0.37446532,-1.5807443e-07,2.3910354e-07,0.0,-0.25568444,-0.00773024,-0.24839532,-0.2846497,-3.1834545e-05,4.8152964e-05,0.0,2.477875,0.63736916,-0.5186317,-1.6912273,0.060844157,0.0,0.5065277,4.456295,0.54617643,1.0083866,0.14083408,inf,inf,inf,inf,0,1,0,1,1,0,1,0,2,0,0,0
30635836,0,0.0,0.0,0.0,0.0,-0.40221477,-1.5807443e-07,2.3910354e-07,0.0,-0.18220456,0.0025013285,-0.24533798,-0.2814883,-3.1834545e-05,4.8152964e-05,0.0,-0.5349883,-0.6480712,0.7421231,-1.6833518,0.060844157,0.0,0.5342772,4.5542045,0.5443067,1.0209534,0.14015023,inf,inf,inf,inf,0,1,0,1,1,0,1,0,2,0,0,0
30735155,0,0.0,0.0,0.0,0.0,-0.43164954,-1.5807443e-07,2.3910354e-07,0.0,-0.1225737,0.034680918,-0.25752094,-0.2949072,-3.1834545e-05,4.8152964e-05,0.0,1.31818,0.76087177,-1.2580159,-1.6671209,0.060844157,0.0,0.56371194,4.4284987,0.5423901,0.98699427,0.1394449,inf,inf,inf,inf,0,1,0,1,1,0,1,0,2,0,0,0
30834508,0,0.0,0.0,0.0,0.0,-0.46286124,-1.5807443e-07,2.3910354e-07,0.0,-0.07555188,0.049403988,-0.2617747,-0.30032456,-3.1834545e-05,4.8152964e-05,0.0,0.3588892,-0.7968302,1.2379785,-1.643814,0.060844157,0.0,0.5949237,4.524145,0.54057294,0.99920434,0.13876669,inf,inf,inf,inf,0,1,0,1,1,0,1,0,2,0,0,0
30933771,0,0.0,0.0,0.0,0.0,-0.49293494,-1.5807443e-07,2.3910354e-07,0.0,-0.04593951,0.08517528,-0.26523167,-0.30374575,-3.1834545e-05,4.8152964e-05,0.0,0.8455829,0.2873525,1.3441064,-1.6187981,0.060844157,0.0,0.6249974,4.3996205,0.5452378,0.96655846,0.13919596,inf,inf,inf,inf,0,1,0,1,1,0,1,0,2,0,0,0
31033082,0,0.0,0.0,0.0,0.0,-0.5243024,-1.5807443e-07,2.3910354e-07,0.0,-0.014393776,0.11740947,-0.27413175,-0.31359348,-3.1834545e-05,4.8152964e-05,0.0,0.89942706,-0.691146,-1.2018212,-1.5962319,0.060844157,0.0,0.65636486,4.4930844,0.5434019,0.9784276,0.13846192,inf,inf,inf,inf,0,1,0,1,1,0,1,0,2,0,0,0
31132577,0,0.0,0.0,0.0,0.0,-0.55534965,-1.5807443e-07,2.3910354e-07,0.0,0.037753224,0.1372687,-0.27155173,-0.31105202,-3.1834545e-05,4.8152964e-05,0.0,1.8259983,-1.355146,0.6454949,-1.5889888,0.060844157,0.0,0.6874121,4.369863,0.54155093,0.94684935,0.13773873,inf,inf,inf,inf,0,1,0,1,1,0,1,0,2,0,0,0
31236670,0,0.0,0.0,0.0,0.0,-0.5876117,-1.5807443e-07,2.3910354e-07,0.0,0.11012589,0.1415757,-0.27606422,-0.3152174,-3.1834545e-05,4.8152964e-05,0.0,1.7673247,0.46808684,-0.25332355,-1.5861372,0.060844157,0.0,0.7196741,4.4612103,0.5397572,0.95840275,0.13705966,inf,inf,inf,inf,0,1,0,1,1,0,1,0,2,0,0,0
31335984,0,0.0,0.0,0.0,0.0,-0.61879313,-1.5807443e-07,2.3910354e-07,0.0,0.2002843,0.13975842,-0.2763293,-0.31549162,-3.1834545e-05,4.8152964e-05,0.0,0.6652351,0.39987466,0.49115932,-1.5860753,0.060844157,0.0,0.75085557,4.3403425,0.5379535,0.92840344,0.1364185,inf,inf,inf,inf,0,1,0,1,1,0,1,0,2,0,0,0
31435292,0,0.0,0.0,0.0,0.0,-0.64777935,-1.5807443e-07,2.3910354e-07,0.0,0.31998986,0.11156129,-0.26856223,-0.3059946,-3.1834545e-05,4.8152964e-05,0.0,1.5480763,-0.18801047,-1.2146783,-1.5883204,0.060844157,0.0,0.7798418,4.429681,0.5362297,0.93964607,0.13581388,inf,inf,inf,inf,0,1,0,1,1,0,1,0,2,0,0,0
31534603,0,0.0,0.0,0.0,0.0,-0.67590714,-1.5807443e-07,2.3910354e-07,0.0,0.44736287,0.078387104,-0.24635993,-0.28260365,-3.1834545e-05,4.8152964e-05,0.0,1.7796657,-0.8985939,1.215773,-1.5917406,0.060844157,0.0,0.80796957,4.3103976,0.54081887,0.910535,0.13626732,inf,inf,inf,inf,0,1,0,1,1,0,1,0,2,0,0,0
31633936,0,0.0,0.0,0.0,0.0,-0.7024864,-1.5807443e-07,2.3910354e-07,0.0,0.57439864,0.036542602,-0.2370833,-0.2722805,-3.1834545e-05,4.8152964e-05,0.0,2.124503,-0.08079188,-1.0414315,-1.5948088,0.060844157,0.0,0.83454883,4.397774,0.53902775,0.9215045,0.1356847,inf,inf,inf,inf,0,1,0,1,1,0,1,0,2,0,0,0
31733225,0,0.0,0.0,0.0,0.0,-0.7290456,-1.5807443e-07,2.3910354e-07,0.0,0.7097297,-0.008540637,-0.20793743,-0.24407695,-3.1834545e-05,4.8152964e-05,0.0,1.9984032,-0.967569,1.1284425,-1.5987136,0.060844157,0.0,0.86110806,4.2800984,0.5372101,0.8934837,0.1350755,inf,inf,inf,inf,0,1,0,1,1,0,1,0,2,0,0,0
31832536,0,0.0,0.0,0.0,0.0,-0.7532989,-1.5807443e-07,2.3910354e-07,0.0,0.84015244,-0.058561157,-0.18720669,-0.2241396,-3.1834545e-05,4.8152964e-05,0.0,2.2212875,-3.1012619,1.6619663,-1.6019562,0.060844157,0.0,0.8853613,4.365578,0.5354677,0.90426916,0.1345379,inf,inf,inf,inf,0,1,0,1,1,0,1,0,2,0,0,0
31932052,0,0.0,0.0,0.0,0.0,-0.7764376,-1.5807443e-07,2.3910354e-07,0.0,0.95428616,-0.0964361,-0.18017164,-0.2183522,-3.1834545e-05,4.8152964e-05,0.0,0.71845454,1.1047902,-1.555677,-1.6042074,0.060844157,0.0,0.9085,4.249643,0.5337021,0.8773394,0.1339488,inf,inf,inf,inf,0,1,0,1,1,0,1,0,2,0,0,0
32036123,0,0.0,0.0,0.0,0.0,-0.8009333,-1.5807443e-07,2.3910354e-07,0.0,0.9713619,-0.11187853,-0.17996894,-0.21983364,-3.1834545e-05,4.8152964e-05,0.0,0.7848999,0.64242095,1.3074996,-1.6036191,0.060844157,0.0,0.93299574,4.3332973,0.5319779,0.88791496,0.13344225,inf,inf,inf,inf,0,1,0,1,1,0,1,0,2,0,0,0
32135435,0,0.0,0.0,0.0,0.0,-0.8234775,-1.5807443e-07,2.3910354e-07,0.0,1.0243223,-0.13081914,-0.17578986,-0.21654348,-3.1834545e-05,4.8152964e-05,0.0,-1.0269173,0.44992378,-2.007679,-1.6047802,0.060844157,0.0,0.95553994,4.2198977,0.53028446,0.86272603,0.13294958,inf,inf,inf,inf,0,1,0,1,1,0,1,0,2,0,0,0
32234746,0,0.0,0.0,0.0,0.0,-0.8474304,-1.5807443e-07,2.3910354e-07,0.0,0.9708095,-0.12238856,-0.18323971,-0.22611243,-3.1834545e-05,4.8152964e-05,0.0,-2.7388072,1.8199002,0.20792079,-1.6098088,0.060844157,0.0,0.97949284,4.3018856,0.53479564,0.8732613,0.13346231,inf,inf,inf,inf,0,1,0,1,1,0,1,0,2,0,0,0
32334056,0,0.0,0.0,0.0,0.0,-0.8727373,-1.5807443e-07,2.3910354e-07,0.0,0.9425675,-0.10829943,-0.20730472,-0.25193045,-3.1834545e-05,4.8152964e-05,0.0,2.164898,-0.22439298,-0.43096936,-1.6127462,0.060844157,0.0,1.0047997,4.19027,0.53308684,0.8489133,0.1327637,inf,inf,inf,inf,0,1,0,1,1,0,1,0,2,0,0,0
32433367,0,0.0,0.0,0.0,0.0,-0.9006779,-1.5807443e-07,2.3910354e-07,0.0,0.8787298,-0.088717274,-0.24842446,-0.29375833,-3.1834545e-05,4.8152964e-05,0.0,-0.603534,-0.33528218,-1.3590041,-1.614155,0.060844157,0.0,1.0327404,4.2705913,0.5314395,0.85937464,0.13216537,inf,inf,inf,inf,0,1,0,1,1,0,1,0,2,0,0,0
32532679,0,0.0,0.0,0.0,0.0,-0.9306745,-1.5807443e-07,2.3910354e-07,0.0,0.8304768,-0.07254579,-0.2829377,-0.32719225,-3.1834545e-05,4.8152964e-05,0.0,0.6869731,0.9987199,-0.7376533,-1.6139567,0.060844157,0.0,1.0627369,4.1608024,0.5297667,0.8362587,0.13150632,inf,inf,inf,inf,0,1,0,1,1,0,1,0,2,0,0,0
32641922,0,0.0,0.0,0.0,0.0,-0.96608645,-1.5807443e-07,2.3910354e-07,0.0,0.7669521,-0.088136226,-0.30611232,-0.34846082,-3.1834545e-05,4.8152964e-05,0.0,-0.2927711,-1.0060595,-0.42227954,-1.609843,0.060844157,0.0,1.0981488,4.2475333,0.52918375,0.8479608,0.13109957,inf,inf,inf,inf,0,1,0,1,1,0,1,0,2,0,0,0
32731473,0,0.0,0.0,0.0,0.0,-0.99632454,-1.5807443e-07,2.3910354e-07,0.0,0.7367709,-0.09272451,-0.31810406,-0.35889384,-3.1834545e-05,4.8152964e-05,0.0,-0.035242584,0.86508393,0.5994159,-1.6045405,0.060844157,0.0,1.128387,4.131669,0.5265013,0.82487214,0.13040765,inf,inf,inf,inf,0,1,0,1,1,0,1,0,2,0,0,0
32835577,0,0.0,0.0,0.0,0.0,-1.034055,-1.5807443e-07,2.3910354e-07,0.0,0.67874384,-0.13885525,-0.3347332,-0.37464198,-3.1834545e-05,4.8152964e-05,0.0,0.7395084,-0.0006178791,0.9423393,-1.5974865,0.060844157,0.0,1.1661174,4.2090077,0.524931,0.83527184,0.1298449,inf,inf,inf,inf,0,1,0,1,1,0,1,0,2,0,0,0
32934888,0,0.0,0.0,0.0,0.0,-1.0732708,-1.5807443e-07,2.3910354e-07,0.0,0.62893844,-0.18421784,-0.35641944,-0.3969559,-3.1834545e-05,4.8152964e-05,0.0,-0.6770122,-0.3207073,-0.54139787,-1.5909404,0.060844157,0.0,1.2053332,4.103615,0.5293124,0.81471413,0.1302515,inf,inf,inf,inf,0,1,0,1,1,0,1,0,2,0,0,0
33034199,33029235,34.034731,108.75718479999999,0.0,0.0,-1.1144484,-1.5807443e-07,2.3910354e-07,0.0,0.59975535,-0.21155411,-0.37224326,-0.41343123,-3.1834545e-05,4.8152964e-05,0.0,1.1516633,-0.8576759,1.224801,-1.6348,-0.047977943,424.7809,1.2465109,4.179601,0.5277501,0.825105,0.12971774,inf,inf,inf,inf,0,1,0,1,1,0,1,0,3,1,1,0
33133510,33029235,34.034731,108.75718479999999,0.09589554,-0.041888215,-1.1518916,-0.97673315,0.06176175,0.0,-0.04373372,-0.35244477,-0.31539634,-0.35599783,-0.6160683,-0.11448051,0.06405541,-1.9805099,0.3738051,0.16411598,-1.6249622,-0.047977943,424.7809,1.283954,0.75908756,0.5211747,0.23112191,0.17833044,inf,inf,inf,inf,1,1,1,1,2,0,2,1,3,1,1,0
33232823,33029235,34.034731,108.75718479999999,0.051823735,-0.08185689,-1.1850636,-0.97673315,0.06176175,0.0,-0.023688536,-0.36592498,-0.31458867,-0.35519326,-0.6160683,-0.11448051,0.06405541,-1.3823395,0.124215305,0.0032796066,-1.6101438,-0.047977943,424.7809,1.317126,0.75979424,0.51061755,0.2353247,0.1787351,inf,inf,inf,inf,1,1,1,1,2,0,2,1,3,1,1,0
33337098,33029235,34.034731,108.75718479999999,0.015931224,-0.120535955,-1.2202412,-0.97673315,0.06176175,0.0,0.022437923,-0.34039778,-0.32179275,-0.36288503,-0.6160683,-0.11448051,0.06405541,1.0791297,-0.20302035,0.5068722,-1.5933721,-0.047977943,424.7809,1.3523036,0.6197508,0.5010551,0.2117445,0.16652893,inf,inf,inf,inf,1,1,1,1,2,0,2,1,3,1,1,0
33436409,33029235,34.034731,108.75718479999999,0.003304964,-0.15156448,-1.2549558,-0.97673315,0.06176175,0.0,0.088206686,-0.32042313,-0.3211714,-0.3628719,-0.6160683,-0.11448051,0.06405541,-0.16693953,-0.96036726,0.38717872,-1.5801326,-0.047977943,424.7809,1.3870182,0.6213886,0.49766707,0.22194089,0.16706748,inf,inf,inf,inf,1,1,1,1,2,0,2,1,3,1,1,0
33535815,33029235,34.034731,108.75718479999999,0.004112671,-0.17468451,-1.295436,-0.97673315,0.06176175,0.0,0.106616765,-0.2892038,-0.33342594,-0.3803607,-0.6160683,-0.11448051,0.06405541,-1.154714,-1.3121364,1.0526264,-1.5691584,-0.047977943,424.7809,1.4274985,0.53751624,0.48942584,0.20773552,0.15717222,inf,inf,inf,inf,1,1,1,1,2,0,2,1,3,1,1,0
33635031,33029235,34.034731,108.75718479999999,0.012699017,-0.19371188,-1.3387434,-0.97673315,0.06176175,0.0,0.12385222,-0.2567319,-0.34346452,-0.39583415,-0.6160683,-0.11448051,0.06405541,-0.68980587,0.7826128,0.3396933,-1.5612862,-0.047977943,424.7809,1.4708059,0.54005414,0.48257118,0.22254644,0.15781197,inf,inf,inf,inf,1,1,1,1,2,0,2,1,3,1,1,0
33734342,33029235,34.034731,108.75718479999999,0.02194862,-0.21187724,-1.3879294,-0.97673315,0.06176175,0.0,0.091936186,-0.23661624,-0.35266295,-0.41427812,-0.6160683,-0.11448051,0.06405541,-1.6337538,-0.10700603,0.9741175,-1.5563569,-0.047977943,424.7809,1.5199919,0.482457,0.47545838,0.210268,0.1495435,inf,inf,inf,inf,1,1,1,1,2,0,2,1,3,1,1,0
33838618,33029235,34.034731,108.75718479999999,0.02881577,-0.2311475,-1.4410956,-0.97673315,0.06176175,0.0,0.03865339,-0.21884632,-0.36567736,-0.43550918,-0.6160683,-0.11448051,0.06405541,-2.2180526,0.5837313,-0.25641343,-1.5554465,-0.047977943,424.7809,1.573158,0.4859145,0.46994954,0.22750098,0.15025319,inf,inf,inf,inf,1,1,1,1,2,0,2,1,3,1,1,0
33937929,33029235,34.034731,108.75718479999999,0.031680763,-0.24574025,-1.4907295,-0.97673315,0.06176175,0.0,-0.024475113,-0.20042972,-0.36601856,-0.44032136,-0.6160683,-0.11448051,0.06405541,-1.9709429,1.4671184,-0.4966261,-1.5568768,-0.047977943,424.7809,1.6227919,0.44283324,0.4636619,0.21469437,0.14319277,inf,inf,inf,inf,1,1,1,1,2,0,2,1,3,1,1,0
34037289,33029235,34.034731,108.75718479999999,0.029794369,-0.25801557,-1.5400687,-0.97673315,0.06176175,0.0,-0.08549271,-0.19086884,-0.36446917,-0.44192088,-0.6160683,-0.11448051,0.06405541,-2.5446281,-0.5656063,0.43560228,-1.5605118,-0.047977943,424.7809,1.6721312,0.44725585,0.45922568,0.23330893,0.14397563,inf,inf,inf,inf,1,1,1,1,2,0,2,1,3,1,1,0
34136551,33029235,34.034731,108.75718479999999,0.014147475,-0.26981726,-1.59395,-0.97673315,0.06176175,0.0,-0.15753114,-0.18300511,-0.36254773,-0.44771844,-0.6160683,-0.11448051,0.06405541,-1.7117044,1.3130059,-0.8024785,-1.565208,-0.047977943,424.7809,1.7260125,0.41325298,0.45358253,0.21897767,0.13790031,inf,inf,inf,inf,1,1,1,1,2,0,2,1,3,1,1,0
34235863,33029235,34.034731,108.75718479999999,-0.010175187,-0.28245947,-1.6456574,-0.97673315,0.06176175,0.0,-0.20393379,-0.16596854,-0.34243125,-0.43274924,-0.6160683,-0.11448051,0.06405541,0.47200143,0.17167005,0.51606756,-1.5674349,-0.047977943,424.7809,1.7777199,0.41866958,0.45378378,0.23685408,0.13886893,inf,inf,inf,inf,1,1,1,1,2,0,2,1,3,1,1,0
34335292,33029235,34.034731,108.75718479999999,-0.038199857,-0.29178274,-1.6898055,-0.97673315,0.06176175,0.0,-0.22456242,-0.15270971,-0.23791473,-0.3316516,-0.6160683,-0.11448051,0.06405541,1.7119678,-1.1023009,1.5624871,-1.5767422,-0.047977943,424.7809,1.821868,0.39037082,0.4485116,0.220126,0.13354942,inf,inf,inf,inf,1,1,1,1,2,0,2,1,3,1,1,0
34434487,33029235,34.034731,108.75718479999999,-0.06930301,-0.30032676,-1.7200325,-0.97673315,0.06176175,0.0,-0.2539627,-0.1265978,-0.1080875,-0.2029467,-0.6160683,-0.11448051,0.06405541,0.025740696,-0.41787696,1.4767363,-1.5869305,-0.047977943,424.7809,1.8520949,0.3966668,0.4455878,0.23666419,0.13449454,inf,inf,inf,inf,1,1,1,1,2,0,2,1,3,1,1,0
34533797,33029235,34.034731,108.75718479999999,-0.09502848,-0.30590543,-1.7359475,-0.97673315,0.06176175,0.0,-0.2331858,-0.085887805,0.04594134,-0.0502173,-0.6160683,-0.11448051,0.06405541,-1.8158084,0.741919,1.597014,-1.5976169,-0.047977943,424.7809,1.8680099,0.37233683,0.44074047,0.2180535,0.12974845,inf,inf,inf,inf,1,1,1,1,2,0,2,1,3,1,1,0
34633110,33029235,34.034731,108.75718479999999,-0.115152076,-0.3088012,-1.7342277,-0.97673315,0.06176175,0.0,-0.2009282,-0.05087943,0.18828562,0.093564525,-0.6160683,-0.11448051,0.06405541,1.0410594,-1.4413005,2.299047,-1.6079005,-0.047977943,424.7809,1.8662901,0.37936923,0.43842024,0.23231569,0.13070849,inf,inf,inf,inf,1,1,1,1,2,0,2,1,3,1,1,0
34742352,33029235,34.034731,108.75718479999999,-0.13365513,-0.30938092,-1.7152231,-0.97673315,0.06176175,0.0,-0.1768671,-0.009812841,0.27701646,0.18732153,-0.6160683,-0.11448051,0.06405541,-0.36708257,-0.52564836,1.6604626,-1.6203145,-0.047977943,424.7809,1.8472855,0.35862294,0.4343959,0.2150907,0.12658027,inf,inf,inf,inf,1,1,1,1,2,0,2,1,3,1,1,0
34831729,33029235,34.034731,108.75718479999999,-0.14635429,-0.30899104,-1.6976559,-0.97673315,0.06176175,0.0,-0.11291378,0.023778422,0.23432927,0.14833385,-0.6160683,-0.11448051,0.06405541,2.2781208,0.07270472,-0.7623184,-1.6306148,-0.047977943,424.7809,1.8297184,0.36556566,0.43211478,0.22718176,0.12748967,inf,inf,inf,inf,1,1,1,1,2,0,2,1,3,1,1,0
34940973,33029235,34.034731,108.75718479999999,-0.15515143,-0.304673,-1.6840997,-0.97673315,0.06176175,0.0,-0.03615917,0.050898314,0.15187973,0.06934106,-0.6160683,-0.11448051,0.06405541,0.11201514,0.18774559,-0.091491684,-1.644792,-0.047977943,424.7809,1.8161621,0.34693557,0.43164107,0.21156652,0.12401392,inf,inf,inf,inf,1,1,1,1,2,0,2,1,3,1,1,0
35030351,33029235,34.034731,108.75718479999999,-0.15805833,-0.2995219,-1.6784234,-0.97673315,0.06176175,0.0,0.0049144514,0.07259139,0.1143809,0.03439185,-0.6160683,-0.11448051,0.06405541,0.89448065,-0.71751916,1.8086765,-1.6538954,-0.047977943,424.7809,1.8104858,0.35437757,0.42972326,0.22428332,0.12508807,inf,inf,inf,inf,1,1,1,1,2,0,2,1,3,1,1,0
35139687,33029235,34.034731,108.75718479999999,-0.15739097,-0.2912779,-1.6730695,-0.97673315,0.06176175,0.0,0.055852957,0.080180176,0.092264906,0.0165817,-0.6160683,-0.11448051,0.06405541,-1.6280854,0.3272743,0.9934591,-1.6624359,-0.047977943,424.7809,1.8051319,0.33735514,0.42617673,0.20947851,0.12190022,inf,inf,inf,inf,1,1,1,1,2,0,2,1,3,1,1,0
35233938,33029235,34.034731,108.75718479999999,-0.1536371,-0.28316996,-1.666576,-0.97673315,0.06176175,0.0,0.068358354,0.09906336,0.08749306,0.016334726,-0.6160683,-0.11448051,0.06405541,0.8275913,-1.2846125,-0.30537868,-1.6675329,-0.047977943,424.7809,1.7986385,0.34524062,0.4246234,0.22115129,0.12305722,inf,inf,inf,inf,1,1,1,1,2,0,2,1,3,1,1,0
35333251,33029235,34.034731,108.75718479999999,-0.1612864,-0.27132463,-1.6622307,-0.97673315,0.06176175,0.0,0.0057237297,0.10473105,0.090710565,0.021289282,-0.6160683,-0.11448051,0.06405541,0.7249342,-0.35347572,-0.7518039,-1.6705532,-0.047977943,424.7809,1.7942932,0.32874495,0.42077854,0.2049842,0.119965255,inf,inf,inf,inf,1,1,1,1,2,0,2,1,3,1,1,0
35432720,33029235,34.034731,108.75718479999999,-0.17641512,-0.25860703,-1.6568431,-0.97673315,0.06176175,0.0,-0.046578,0.11593447,0.092225336,0.025396993,-0.6160683,-0.11448051,0.06405541,-0.8138451,0.72732484,-1.5085815,-1.6717815,-0.047977943,424.7809,1.7889055,0.33784917,0.42007697,0.21706906,0.12134973,inf,inf,inf,inf,1,1,1,1,2,0,2,1,3,1,1,0
35531871,33029235,34.034731,108.75718479999999,-0.20061333,-0.24488547,-1.6511606,-0.97673315,0.06176175,0.0,-0.12409251,0.11666879,0.08950193,0.02574856,-0.6160683,-0.11448051,0.06405541,0.397711,-0.3579966,-0.610283,-1.6716827,-0.047977943,424.7809,1.783223,0.322137,0.41940796,0.20091474,0.118633896,inf,inf,inf,inf,1,1,1,1,2,0,2,1,3,1,1,0
35641115,33029235,34.034731,108.75718479999999,-0.2353294,-0.23011024,-1.6443315,-0.97673315,0.06176175,0.0,-0.19251278,0.120010294,0.070415944,0.011578889,-0.6160683,-0.11448051,0.06405541,2.0652776,0.52757764,-1.2072575,-1.6668055,-0.047977943,424.7809,1.7763939,0.33253977,0.41954762,0.21284379,0.12022438,inf,inf,inf,inf,1,1,1,1,2,0,2,1,3,1,1,0
35730494,33029235,34.034731,108.75718479999999,-0.2619426,-0.21790308,-1.6404164,-0.97673315,0.06176175,0.0,-0.21485725,0.11745502,0.054489873,-0.00080595707,-0.6160683,-0.11448051,0.06405541,-1.2004315,0.87675834,-2.230935,-1.6609883,-0.047977943,424.7809,1.7724788,0.3165952,0.41541642,0.19646575,0.11736269,inf,inf,inf,inf,1,1,1,1,2,0,2,1,3,1,1,0
35839736,33029235,34.034731,108.75718479999999,-0.29049706,-0.20372418,-1.6366371,-0.97673315,0.06176175,0.0,-0.21119066,0.1210363,0.047135435,-0.0043700435,-0.6160683,-0.11448051,0.06405541,-1.3994075,1.220675,-2.183255,-1.6521977,-0.047977943,424.7809,1.7686995,0.32723448,0.41581774,0.20767102,0.119055904,inf,inf,inf,inf,1,1,1,1,2,0,2,1,3,1,1,0
35939124,33029235,34.034731,108.75718479999999,-0.31912327,-0.19403866,-1.634996,-0.97673315,0.06176175,0.0,-0.18410675,0.10042985,0.048968766,-0.00070788345,-0.6160683,-0.11448051,0.06405541,1.3773485,0.20186919,-0.5255182,-1.6430053,-0.047977943,424.7809,1.7670585,0.31284076,0.41237968,0.19311741,0.116553955,inf,inf,inf,inf,1,1,1,1,2,0,2,1,3,1,1,0
36033395,33029235,34.034731,108.75718479999999,-0.3439364,-0.18673812,-1.6336192,-0.97673315,0.06176175,0.0,-0.16779056,0.09271491,0.037698086,-0.010379493,-0.6160683,-0.11448051,0.06405541,1.6866677,0.61813205,-1.733497,-1.6329005,-0.047977943,424.7809,1.7656816,0.32168782,0.41185424,0.20158914,0.11790683,inf,inf,inf,inf,1,1,1,1,2,0,2,1,3,1,1,0
36132714,33029235,34.034731,108.75718479999999,-0.36923626,-0.17838016,-1.6318148,-0.97673315,0.06176175,0.0,-0.15296432,0.08325972,0.030024456,-0.015035117,-0.6160683,-0.11448051,0.06405541,-1.2042146,0.39972675,-0.18311746,-1.6223722,-0.047977943,424.7809,1.7638773,0.30791208,0.41136697,0.18784462,0.115742385,inf,inf,inf,inf,1,1,1,1,2,0,2,1,3,1,1,0
36232135,33029235,34.034731,108.75718479999999,-0.39151293,-0.17095202,-1.6306752,-0.97673315,0.06176175,0.0,-0.12496247,0.07091706,0.021177068,-0.02093736,-0.6160683,-0.11448051,0.06405541,0.76605976,-0.08175302,-0.736964,-1.6114764,-0.047977943,424.7809,1.7627376,0.31780177,0.41159284,0.19699603,0.11737946,inf,inf,inf,inf,1,1,1,1,2,0,2,1,3,1,1,0
36336291,33029235,34.034731,108.75718479999999,-0.41626257,-0.16336021,-1.6309009,-0.97673315,0.06176175,0.0,-0.10220694,0.053715695,0.018552095,-0.02178352,-0.6160683,-0.11448051,0.06405541,1.6887404,0.38485506,-0.24190918,-1.6009766,-0.047977943,424.7809,1.7629633,0.30445158,0.40832973,0.18397188,0.11512587,inf,inf,inf,inf,1,1,1,1,2,0,2,1,3,1,1,0
36435603,33029235,34.034731,108.75718479999999,-0.4394146,-0.15726237,-1.631704,-0.97673315,0.06176175,0.0,-0.090362996,0.041018307,0.015608835,-0.023234006,-0.6160683,-0.11448051,0.06405541,-0.67850506,0.8445733,0.3595617,-1.5926507,-0.047977943,424.7809,1.7637664,0.31441653,0.40873894,0.19256894,0.11680689,inf,inf,inf,inf,1,1,1,1,2,0,2,1,3,1,1,0
36534915,33029235,34.034731,108.75718479999999,-0.46092117,-0.15347892,-1.6328238,-0.97673315,0.06176175,0.0,-0.06900638,0.026621807,0.013969829,-0.024019433,-0.6160683,-0.11448051,0.06405541,-0.35946196,1.3003085,-1.5842972,-1.5845149,-0.047977943,424.7809,1.7648863,0.30156127,0.40558955,0.18044369,0.11467723,inf,inf,inf,inf,1,1,1,1,2,0,2,1,3,1,1,0
36634225,33029235,34.034731,108.75718479999999,-0.47747654,-0.1519448,-1.6338859,-0.97673315,0.06176175,0.0,-0.041136224,0.007467449,0.018263828,-0.019115351,-0.6160683,-0.11448051,0.06405541,-0.78844005,-0.080794245,0.91125643,-1.5787822,-0.047977943,424.7809,1.7659483,0.31159395,0.4061559,0.18821633,0.11634242,inf,inf,inf,inf,1,1,1,1,2,0,2,1,3,1,1,0
36733536,33029235,34.034731,108.75718479999999,-0.4954417,-0.15073435,-1.6355807,-0.97673315,0.06176175,0.0,-0.021599114,-0.0074381847,0.010414885,-0.026686696,-0.6160683,-0.11448051,0.06405541,-0.24043916,1.0850513,-0.9511309,-1.574443,-0.047977943,424.7809,1.7676431,0.29903382,0.4030926,0.17663623,0.11426957,inf,inf,inf,inf,1,1,1,1,2,0,2,1,3,1,1,0
36837812,33029235,34.034731,108.75718479999999,-0.50995195,-0.151132,-1.6386802,-0.97673315,0.06176175,0.0,-0.010386193,-0.005388912,0.007861598,-0.030110182,-0.6160683,-0.11448051,0.06405541,-0.78267,0.57598495,-0.10881,-1.5734379,-0.047977943,424.7809,1.7707427,0.309092,0.40652075,0.18406636,0.11620746,inf,inf,inf,inf,1,1,1,1,2,0,2,1,3,1,1,0
36937126,33029235,34.034731,108.75718479999999,-0.52219707,-0.14919913,-1.6442059,-0.97673315,0.06176175,0.0,0.05853523,-0.0061759693,0.017217109,-0.023860885,-0.6160683,-0.11448051,0.06405541,0.513811,1.2395871,-0.50054175,-1.5738786,-0.047977943,424.7809,1.7762684,0.29667717,0.40347412,0.17295687,0.114173755,inf,inf,inf,inf,1,1,1,1,2,0,2,1,3,1,1,0
37036548,33029235,34.034731,108.75718479999999,-0.52693725,-0.14850089,-1.6482071,-0.97673315,0.06176175,0.0,0.13441502,-0.016383901,0.019437335,-0.023617487,-0.6160683,-0.11448051,0.06405541,1.7808033,0.43065056,0.94023997,-1.5784488,-0.047977943,424.7809,1.7802695,0.3067278,0.40432948,0.18033302,0.11597269,inf,inf,inf,inf,1,1,1,1,2,0,2,1,3,1,1,0
