timestamp,yaw_composite,yaw_variance,yaw[0],yaw[1],yaw[2],yaw[3],yaw[4],innov_vn[0],innov_vn[1],innov_vn[2],innov_vn[3],innov_vn[4],innov_ve[0],innov_ve[1],innov_ve[2],innov_ve[3],innov_ve[4],weight[0],weight[1],weight[2],weight[3],weight[4]
23465594,2.7959569,3.633617,-2.5171082,-1.2604606,-0.0036171384,1.2531369,2.50964,0.042420454,0.10187718,0.04403672,-0.051167987,-0.05216638,-0.058985405,0.021150198,0.102460645,0.07257698,-0.027202403,0.2000523,0.19994481,0.19991358,0.20000175,0.20008753
23475522,2.795088,3.6336632,-2.518056,-1.2614086,-0.004565109,1.2521889,2.508692,0.042420454,0.10187718,0.04403672,-0.051167987,-0.05216638,-0.058985405,0.021150198,0.102460645,0.07257698,-0.027202403,0.2000523,0.19994481,0.19991358,0.20000175,0.20008753
23664215,-3.059383,3.8447046,-2.517764,-1.2611923,-0.0044162343,1.2523719,2.5089636,0.04004221,0.10324663,0.014613339,-0.1033524,-0.08761652,-0.100490674,0.013216998,0.10847059,0.053593293,-0.07553425,0.20006779,0.1999831,0.19992177,0.19996849,0.2000588
23862996,-0.62883866,3.9351106,-2.518642,-1.2622036,-0.006234417,1.2501882,2.507361,0.049316168,0.12526828,-0.0027951973,-0.15789343,-0.12565678,-0.16402046,-0.0047117975,0.11676743,0.032485403,-0.14104027,0.19990948,0.20023455,0.20023549,0.1999109,0.19970965
24061470,-1.1442071,3.5523539,-2.5187685,-1.2635971,-0.008707907,1.2483143,2.506938,0.034732465,0.11923356,-0.036277734,-0.21705374,-0.17321885,-0.15947221,0.03161454,0.17105493,0.0662884,-0.13811162,0.20016845,0.20086715,0.20036629,0.19935995,0.19923814
24265043,-1.2387033,3.5361829,-2.5196538,-1.2646457,-0.009705984,1.2475108,2.5062044,0.07986998,0.20224613,0.041543625,-0.18086399,-0.15718387,-0.18343465,0.025640182,0.20686243,0.110031836,-0.13164978,0.20025672,0.20090279,0.20029992,0.19928353,0.19925702
24463665,-0.70133597,3.8512886,-2.5215724,-1.2656753,-0.011066905,1.2450548,2.5034034,0.122270845,0.24032588,0.045633465,-0.19360508,-0.14615697,-0.22861211,0.014797172,0.20261446,0.07541857,-0.1916237,0.19977887,0.20075645,0.2006882,0.19966848,0.19910808
24662415,1.3176297,3.5419765,-2.5251846,-1.2678537,-0.010966147,1.2451344,2.501186,0.17297718,0.31064063,0.08522697,-0.19251344,-0.13850585,-0.21149816,0.070775,0.28905866,0.1423218,-0.16760838,0.19976765,0.19973934,0.2000713,0.20030472,0.200117
24865875,1.8471829,3.8913896,-2.526987,-1.2692583,-0.011590201,1.244596,2.4999185,0.14646682,0.29778394,0.056356177,-0.24386805,-0.18831395,-0.24652177,0.056458205,0.29382518,0.13767977,-0.19611841,0.19980453,0.19940546,0.19982752,0.20048828,0.2004742
25064530,1.5021217,3.5861974,-2.527904,-1.2694001,-0.01173887,1.2436681,2.4985151,0.14358826,0.31256917,0.06421651,-0.25757074,-0.20857827,-0.28516206,0.030602353,0.288635,0.13222556,-0.22197379,0.1994474,0.19917923,0.20004444,0.20084944,0.20047954
25268136,-0.3886826,3.6576014,-2.5268877,-1.2703116,-0.01482797,1.2411594,2.4985442,0.109417096,0.2841028,0.0068759024,-0.33806404,-0.27503988,-0.30480504,0.04320506,0.31634748,0.13739093,-0.24591093,0.19971113,0.20034412,0.2005018,0.19996546,0.19947758
25466815,-1.1814132,3.5101757,-2.5284247,-1.2738163,-0.019540185,1.2376672,2.4970155,0.12358083,0.309672,0.021724422,-0.34274775,-0.28008792,-0.30453786,0.05911103,0.3484527,0.16425551,-0.23967978,0.2002858,0.20127928,0.20050213,0.19903284,0.19889997
25665326,-3.1034846,3.8314223,-2.5319,-1.2756746,-0.018159682,1.2394354,2.495782,0.20340766,0.3818233,0.09591496,-0.26088384,-0.19436345,-0.27189592,0.08742103,0.36873305,0.18367323,-0.21332067,0.20047899,0.19985424,0.1994315,0.19979367,0.20044164
25863948,2.377614,3.4898489,-2.536287,-1.2777528,-0.016665515,1.2408304,2.49354,0.20295441,0.41911754,0.13113576,-0.26303044,-0.21818474,-0.31237438,0.060323365,0.38132557,0.20624167,-0.22235006,0.20043692,0.19806844,0.19836453,0.20091997,0.20221013
26062572,-2.0212924,3.7206998,-2.5372255,-1.2864379,-0.030999484,1.2307574,2.4917383,0.12824574,0.36566713,-0.04557743,-0.53411525,-0.42592221,-0.41416556,0.093370974,0.47542182,0.20171274,-0.34585136,0.2026098,0.2022198,0.19876067,0.19702499,0.1993847
26261259,-2.4530268,3.4578166,-2.5419757,-1.2898731,-0.032024246,1.2299042,2.4885852,0.22243527,0.43453056,0.08676269,-0.34397307,-0.25795028,-0.3447674,0.08990214,0.42828694,0.20025192,-0.27921605,0.20276864,0.20109001,0.19791494,0.19761933,0.20060712
26464779,-2.1270037,3.5943875,-2.5431952,-1.2943971,-0.038551886,1.2254462,2.4874055,0.15179633,0.3782509,0.017046917,-0.43487284,-0.34907904,-0.37409395,0.07841289,0.43566504,0.20039237,-0.30068988,0.20394488,0.2028899,0.19784456,0.1957957,0.19952497
26668367,-1.8854324,3.7647703,-2.5455155,-1.2959149,-0.041623957,1.2206111,2.483038,0.2070009,0.43837214,0.06207665,-0.40691665,-0.31390354,-0.42183328,0.048762925,0.41768906,0.17087929,-0.350131,0.20306093,0.20324005,0.19893008,0.19612348,0.19864537
26862023,-1.9503497,3.7569525,-2.549233,-1.3008136,-0.046428494,1.2170497,2.4801471,0.2023765,0.43348905,0.050716344,-0.42221636,-0.32594523,-0.38614538,0.091957584,0.4625428,0.21085863,-0.31623983,0.20383084,0.20371008,0.19845042,0.19536524,0.19864348
27060721,-1.7438729,3.572666,-2.5585697,-1.3106514,-0.058201905,1.2045821,2.4691894,0.19569421,0.42859587,0.046647526,-0.4282556,-0.33299863,-0.41943333,0.05825277,0.43094954,0.18019177,-0.34820676,0.20349558,0.20469336,0.19937068,0.19496836,0.19747207
27269198,-1.7387084,3.5456622,-2.5731788,-1.3252944,-0.073004514,1.1897149,2.4544425,0.21342783,0.45884773,0.070335224,-0.42247593,-0.33133695,-0.4166954,0.072920755,0.4614087,0.20966609,-0.33687785,0.20351878,0.20488219,0.19945991,0.19483878,0.19730034
27467820,-1.5993879,3.3919208,-2.600725,-1.3562994,-0.10790914,1.1558685,2.4251573,0.19145489,0.44097093,0.007566981,-0.5177148,-0.40106034,-0.45773864,0.08047681,0.48823923,0.19950415,-0.38930005,0.20422146,0.20787244,0.20052758,0.19258216,0.19479641
27666441,-1.4172211,3.3506486,-2.6246789,-1.376389,-0.12729417,1.1330328,2.3994997,0.2813754,0.48535725,0.087587,-0.3728911,-0.24996352,-0.41492853,0.07220805,0.42184564,0.14891842,-0.37414142,0.2020883,0.20623894,0.20168957,0.19487034,0.19511287
27865078,-1.4777797,3.3619664,-2.617961,-1.3691041,-0.118751496,1.1417865,2.407122,0.19790319,0.4351612,0.09607441,-0.35836908,-0.29449245,-0.3729311,0.063558824,0.4270528,0.2160985,-0.28297126,0.20223732,0.20560786,0.20116559,0.19516982,0.19581941
28063685,-0.95351726,3.5423775,-2.6307902,-1.3774529,-0.12652375,1.1298676,2.3920763,0.23838577,0.46513644,0.12988317,-0.31075317,-0.24253017,-0.418263,0.010175794,0.36100423,0.1495907,-0.33599612,0.19947343,0.20359032,0.20272632,0.19809496,0.196115
28267273,-1.5131347,3.3145561,-2.646985,-1.4016638,-0.15419048,1.1081029,2.3774223,0.14096206,0.37031898,-0.056455754,-0.55442935,-0.4328685,-0.39160046,0.13427444,0.51625675,0.228795,-0.33560142,0.2034492,0.2086082,0.20172128,0.19259346,0.19362786
28465894,-1.9338108,3.5158782,-2.670168,-1.4291526,-0.17892289,1.0894326,2.3597095,0.25034547,0.53348535,0.05072149,-0.54418826,-0.4181723,-0.42960685,0.17429428,0.6359117,0.3172146,-0.34919643,0.20793134,0.20950927,0.19781625,0.18936577,0.19537738
28664543,-1.693895,3.2502337,-2.685769,-1.4501823,-0.20770407,1.0612668,2.3397493,0.20907053,0.5282248,0.002250366,-0.65880716,-0.5238341,-0.589435,0.06981489,0.5862312,0.23956558,-0.4956777,0.20855558,0.21608597,0.20088257,0.18501894,0.18945691
28863138,-1.5529656,3.0617485,-2.6838694,-1.4585408,-0.22851059,1.0429916,2.3356442,0.18711196,0.53821677,-0.04413569,-0.78380823,-0.63329846,-0.6600534,0.074079275,0.64804435,0.26526144,-0.55946094,0.2105005,0.22835484,0.2053716,0.1764743,0.17929862
29071691,-1.6338698,2.8162146,-2.6699708,-1.4691112,-0.25532314,1.0307301,2.348828,0.080987275,0.411093,-0.20492536,-0.963394,-0.77727187,-0.60368365,0.16657722,0.7387375,0.3220243,-0.535862,0.2221429,0.25218806,0.20468993,0.15617168,0.1648074
29265347,-1.53727,2.6827931,-2.6590667,-1.463518,-0.26079684,1.0236373,2.3520126,0.2524374,0.51914346,-0.057943754,-0.7564894,-0.5447488,-0.64484805,0.06903997,0.5775879,0.1696705,-0.6287886,0.22041097,0.2642413,0.21091026,0.14997758,0.15445995
29463970,-1.5412996,2.5517507,-2.6462867,-1.4612328,-0.26729155,1.0223747,2.3626595,0.12451494,0.2957704,-0.18679085,-0.72582257,-0.5161897,-0.46099925,0.12197153,0.49611416,0.13865627,-0.49287096,0.22436407,0.27806965,0.211607,0.14015286,0.14580643
29662591,-1.4684788,2.550841,-2.6430843,-1.4532863,-0.26151797,1.0221467,2.3609946,0.3404951,0.3866989,0.031039823,-0.2879376,-0.078075625,-0.354369,0.04600604,0.24031773,-0.05381018,-0.44944754,0.21901815,0.27799147,0.21680243,0.14257888,0.14360908
29866179,-1.3887463,2.5665112,-2.636885,-1.4416821,-0.25177556,1.0253967,2.3625412,0.40480134,0.36170632,0.11046969,-0.03242612,0.16459788,-0.21060589,0.04334852,0.09860173,-0.13653414,-0.3419901,0.21337213,0.27631024,0.22192201,0.1460566,0.14233898
30064860,-1.2782347,2.5763412,-2.6243646,-1.4234936,-0.23742335,1.0314649,2.368863,0.56041896,0.46915922,0.29927018,0.26918977,0.44309655,-0.16542576,-0.017323673,-0.04656446,-0.22822231,-0.30734783,0.20609844,0.27574107,0.22922118,0.14955598,0.13938333
30263430,-1.2305754,2.5733874,-2.608629,-1.405924,-0.22184435,1.043879,2.3830492,0.5033023,0.4565643,0.40983567,0.42358065,0.48604268,-0.094811246,-0.06174849,-0.092023686,-0.1502057,-0.15204033,0.20368941,0.2762801,0.23190793,0.15026006,0.13786255
30467019,-1.3096278,2.5451772,-2.5927336,-1.3949372,-0.20861802,1.0640799,2.407169,0.4507143,0.5177742,0.6442272,0.66792566,0.53976715,-0.08906578,-0.19969776,-0.17776254,-0.044500396,0.017008781,0.21091378,0.2786078,0.22508152,0.14576289,0.13963409
30665632,-1.4014477,2.4977627,-2.5763524,-1.3870585,-0.1990041,1.0825788,2.4317603,0.18723504,0.36496288,0.5593695,0.5152808,0.26637393,0.11281639,-0.026858434,0.08643493,0.32064742,0.3401972,0.2197514,0.28358343,0.21760848,0.13902576,0.140031
30864441,-1.5180298,2.5406106,-2.5653346,-1.3781021,-0.18066062,1.1095763,2.4553869,0.31279576,0.54989827,0.6682142,0.49972534,0.26084164,-0.11249416,-0.14419575,0.06456442,0.2564874,0.13711062,0.22950682,0.2792215,0.20680454,0.13722534,0.14724189
31062877,-1.484354,2.5256915,-2.5196,-1.3340223,-0.13673122,1.1549466,2.5018933,-0.031688802,0.20691478,0.1400685,-0.17158681,-0.2828176,-0.20447184,-0.0376466,0.24853374,0.27827415,-0.026746616,0.23091413,0.28087553,0.20593223,0.13567103,0.14660713
31266463,-1.4601651,2.621845,-2.4919345,-1.2973948,-0.092069685,1.1956911,2.5321033,0.3772799,0.57687914,0.383671,0.019799918,0.021023244,-0.3135542,-0.027155712,0.26746494,0.1721709,-0.21763852,0.22847442,0.27060097,0.20508318,0.14257056,0.15327084
31465087,-1.4643866,2.6258128,-2.4888737,-1.2937679,-0.08723362,1.2007127,2.5360146,0.20511627,0.37595463,0.076297864,-0.3275882,-0.23576689,-0.30608183,0.07983728,0.38167262,0.18231232,-0.2734762,0.22887708,0.2701286,0.20453179,0.142655,0.15380745
31663861,-1.4276,2.6431231,-2.496788,-1.297175,-0.089840695,1.1939247,2.5258977,0.34733403,0.56201243,0.12603551,-0.42376512,-0.26791626,-0.47598237,0.07165133,0.47347996,0.17098695,-0.45729887,0.22497301,0.26751167,0.20738295,0.14597976,0.15415263
31862330,-1.507622,2.517075,-2.498466,-1.3116603,-0.10920996,1.1847223,2.5281124,0.21601856,0.5717982,-0.007901683,-0.81006706,-0.6518557,-0.5771667,0.1782198,0.7851817,0.41030735,-0.4900176,0.23486987,0.2809628,0.20212667,0.13388245,0.14815815
32065917,-1.5360141,1.9457421,-2.468892,-1.3308079,-0.16255434,1.1593575,2.5569992,-0.09858358,0.416821,-0.2920737,-1.3822277,-1.2310275,-0.78197324,0.1762262,1.0176115,0.58523417,-0.6165854,0.25796178,0.347252,0.19216023,0.09072611,0.11189989
32264541,-1.6728071,1.4696647,-2.4488995,-1.360571,-0.20844497,1.1564958,2.597254,0.06421831,0.6697141,-0.07595098,-1.4084333,-1.2640423,-0.7200409,0.34854114,1.3605661,0.93212986,-0.5276818,0.30272156,0.40227225,0.15296258,0.053475272,0.08856836
32463272,-1.6646451,0.99279827,-2.4213407,-1.3859652,-0.2693614,1.1269978,2.6276093,-0.15909678,0.43893224,-0.24176037,-1.6198907,-1.4663988,-0.8299907,0.18090987,1.21535,0.8260131,-0.6637173,0.31499365,0.4810115,0.12535714,0.02571736,0.052920446
32661783,-1.6740519,0.85014945,-2.4147682,-1.3952684,-0.28848058,1.1186637,2.6354334,0.13778171,0.6130699,0.09019935,-1.1079935,-0.9712869,-0.70615965,0.114041544,0.98753697,0.69673043,-0.60337454,0.32015663,0.5079854,0.11101925,0.01831021,0.042528406
32865399,-1.6291889,0.7448903,-2.3930192,-1.3856522,-0.2950845,1.1136384,2.6482413,-0.043131292,0.30564168,-0.107815504,-1.046336,-0.9116931,-0.6827586,-0.04100214,0.63335186,0.38800645,-0.6331122,0.30531162,0.5409918,0.10760542,0.013838495,0.032252673
33063992,-1.6370696,0.6995822,-2.3787205,-1.3787923,-0.28706318,1.129265,2.6675935,0.06878126,0.36445975,0.07589319,-0.6801815,-0.6225986,-0.32138944,0.16903114,0.7182804,0.5733237,-0.2490597,0.31363353,0.54720354,0.09767596,0.011582691,0.029904323
33262693,-1.6660028,0.6905715,-2.3768928,-1.3781098,-0.27639008,1.1462336,2.6804485,0.20171909,0.52364093,0.39970848,-0.22448374,-0.3301515,-0.19135034,0.13712424,0.6278592,0.65269125,-0.01009953,0.3296691,0.5394305,0.0889767,0.010799743,0.031124016
33466202,-1.6476574,0.66315234,-2.3628054,-1.3682015,-0.26970723,1.1535679,2.692269,-0.1686418,0.15965617,0.12276247,-0.41613233,-0.6009638,-0.3032938,-0.06819384,0.3800263,0.4893814,-0.071624935,0.32572892,0.54893035,0.08707534,0.009766659,0.028498707
33664826,-1.6564124,0.65644383,-2.3592303,-1.3645409,-0.26202467,1.1635884,2.7000334,0.09949891,0.4048739,0.3448313,-0.18774669,-0.33682477,-0.25784555,-0.009829789,0.42405057,0.50204873,-0.056663483,0.3326349,0.54616314,0.08311725,0.009350428,0.028734295
33868412,-1.6796241,0.6411845,-2.3588216,-1.3675592,-0.25984108,1.1718491,2.7077057,0.10667609,0.3707711,0.2601121,-0.26278016,-0.33584034,-0.100940764,0.17438729,0.58426535,0.5926237,0.038775742,0.34492564,0.5412462,0.07633728,0.008555355,0.02893546
34067101,-1.6852572,0.63189185,-2.3629787,-1.372623,-0.26469094,1.1676112,2.7037387,0.0114097,0.21349162,0.11263871,-0.30651492,-0.34548038,-0.22373797,0.0033501238,0.32929817,0.3164987,-0.12822132,0.34552556,0.5432658,0.07481389,0.00819045,0.028204268
34265670,-1.7089822,0.63896114,-2.3775034,-1.3844084,-0.27194026,1.1603596,2.6933928,0.30336636,0.430715,0.40501323,0.17919503,0.11806244,-0.05735722,0.04776402,0.2345719,0.260653,0.02356176,0.35181066,0.537148,0.07324103,0.008330702,0.029469581
34464278,-1.7262695,0.6362865,-2.390241,-1.3972206,-0.28404668,1.1490767,2.683799,0.21079664,0.27711782,0.35272986,0.32758543,0.21127442,0.022278965,-0.014532849,0.03498414,0.1320042,0.11319333,0.35444537,0.5358794,0.07192678,0.008182646,0.029565884
34662901,-1.7491732,0.6325248,-2.412106,-1.4198558,-0.30713776,1.1263704,2.6633513,0.08798448,0.114409804,0.20317277,0.25264183,0.14926259,0.06675478,-0.0069016516,-0.016457021,0.075438894,0.13459001,0.35480076,0.5364965,0.07134152,0.008041672,0.029319558
34871514,-1.7744179,0.6288237,-2.4388266,-1.4469289,-0.33522767,1.097714,2.6377404,0.21720457,0.19408804,0.23535085,0.31084406,0.28321704,0.10100031,0.048191883,0.0018787831,0.024627909,0.10491708,0.35382655,0.5381565,0.07118816,0.007915875,0.02891291
35070075,-1.7982364,0.6286994,-2.4681134,-1.4750564,-0.364719,1.0663502,2.6081653,0.2975396,0.22531945,0.15721926,0.19305246,0.2994019,-0.015419345,0.017277842,-0.029734772,-0.1366815,-0.10974799,0.35102507,0.54041165,0.07206464,0.00793679,0.028561944
35263732,-1.812672,0.62799525,-2.4902852,-1.4959333,-0.38738918,1.0414529,2.5843883,0.27369007,0.18849397,-0.0042577013,-0.07994559,0.15234627,-0.13004532,0.025301896,0.03282491,-0.20160711,-0.30403396,0.34697068,0.54373765,0.07332084,0.007958049,0.028012836
35462354,-1.807633,0.6317623,-2.5020425,-1.5042455,-0.39811206,1.0250229,2.568715,0.42036095,0.3473636,0.0905241,-0.07198104,0.21311069,-0.22801337,0.0018450245,0.061571836,-0.22895975,-0.42872322,0.33841562,0.5493013,0.07675017,0.008210516,0.027322236
35660979,-1.7964801,0.63116664,-2.5039897,-1.5043495,-0.4008772,1.0184369,2.5637586,0.34999973,0.2620539,0.025423154,-0.09473574,0.1806517,-0.19806251,0.003307499,0.03256113,-0.24377945,-0.39843258,0.3314936,0.55452955,0.07918129,0.008290509,0.02650498
35859598,-1.78334,0.6255868,-2.493911,-1.4949429,-0.39352915,1.0259689,2.5734396,0.16703783,0.049370162,-0.091515124,-0.067294225,0.13840881,-0.105110705,-0.021079406,-0.08389201,-0.2808807,-0.2745223,0.32941714,0.5573775,0.07923033,0.008114577,0.025860447
36063191,-1.756226,0.62106246,-2.4754865,-1.4764327,-0.37789083,1.0393991,2.5905344,0.36153626,0.23818865,0.16127034,0.26169246,0.41198805,0.014373951,0.027325358,-0.07934035,-0.2172279,-0.12355795,0.32430747,0.5621118,0.080549166,0.008026746,0.025004784
36266773,-1.728374,0.61886144,-2.4530697,-1.4536208,-0.35687265,1.0591335,2.6121576,0.27812016,0.19772676,0.11905424,0.15256602,0.2770554,-0.08367741,-0.044005796,-0.09536115,-0.21412912,-0.18991655,0.32124117,0.56483054,0.08140596,0.0079899095,0.024532381
36465412,-1.700076,0.6215592,-2.431384,-1.4301314,-0.33416614,1.0794184,2.6326716,0.3406651,0.3028526,0.21150303,0.16739081,0.27602354,-0.12164946,-0.043787807,-0.03430686,-0.14438078,-0.2025695,0.3181344,0.5663733,0.08294879,0.008134736,0.02440867
36664018,-1.6807077,0.6249492,-2.4147594,-1.4120464,-0.31570518,1.0964677,2.6487527,0.21762073,0.22489831,0.11441007,-0.017493382,0.07916796,-0.10950159,0.014969601,0.09179045,-0.014249064,-0.16662042,0.31717926,0.5662393,0.08375866,0.008274509,0.0245483
36867606,-1.6681057,0.6303021,-2.4047039,-1.3999681,-0.3027174,1.1078478,2.6582787,0.22695293,0.28435498,0.16619876,-0.047899395,0.022517264,-0.17472893,-0.01324886,0.1302759,0.041648407,-0.19759333,0.31660476,0.56535685,0.08468672,0.0084846495,0.024867015
37066239,-1.6669465,0.63315487,-2.4045126,-1.3984529,-0.30042642,1.1092635,2.6582692,0.17429496,0.27785784,0.14724952,-0.14747189,-0.09646404,-0.20832497,-0.007241104,0.20041516,0.122582816,-0.2024018,0.31661928,0.5646709,0.085041694,0.008594948,0.025073174
37264850,-1.6665025,0.62778765,-2.412356,-1.4062008,-0.3103266,1.0973873,2.6482043,0.111597784,0.23770057,0.05065298,-0.33654508,-0.24849755,-0.34017324,-0.06617688,0.20127296,0.08050789,-0.3481215,0.31179562,0.5692272,0.0862637,0.008488811,0.024224676
37463475,-1.6834469,0.5993905,-2.4200332,-1.4205062,-0.32811078,1.0852586,2.6435053,0.07215662,0.24471104,-0.050670974,-0.62285495,-0.46641594,-0.28655258,0.13089436,0.51831555,0.31757122,-0.31915194,0.31381974,0.5748814,0.08139856,0.0074200425,0.022480348
37662094,-1.6888652,0.5520035,-2.423324,-1.4341404,-0.3538509,1.065562,2.6392078,0.08920677,0.3165936,-0.08021927,-0.8515467,-0.63252133,-0.4672097,0.09191675,0.61033356,0.33856747,-0.51871556,0.30918416,0.5899868,0.075994276,0.005885235,0.018949531
37860910,-1.6952772,0.5046441,-2.4265866,-1.4505554,-0.3780173,1.0483835,2.6401222,0.013054639,0.24283841,-0.12675144,-0.8902886,-0.69151103,-0.4524739,0.083653435,0.5970187,0.35380533,-0.4938452,0.30298015,0.6068937,0.07018702,0.004476833,0.015462279
38064305,-1.694216,0.46642116,-2.4215374,-1.4570547,-0.39388567,1.0391822,2.647016,-0.024506688,0.18454546,-0.14357804,-0.84865904,-0.6685746,-0.39772344,0.08661233,0.55732644,0.34514707,-0.43820837,0.2976432,0.6212355,0.06486253,0.0034509643,0.012807871
38262935,-1.6748768,0.4288082,-2.4014351,-1.4492548,-0.3973082,1.041685,2.6678967,-0.018541932,0.19612435,-0.15012228,-0.9037745,-0.7023655,-0.45133662,0.060854144,0.5578602,0.3323207,-0.5059408,0.2888014,0.63831186,0.0600835,0.0025820117,0.010221267
38461548,-1.6525968,0.3932629,-2.3732479,-1.4349123,-0.39408487,1.0530525,2.6987073,-0.0375503,0.163342,-0.18928069,-0.9499379,-0.7253313,-0.41329074,0.10302834,0.5951057,0.3581925,-0.49023002,0.28199774,0.6538378,0.054256696,0.001848882,0.008058884
38660329,-1.6185242,0.38027772,-2.345428,-1.4110698,-0.37593222,1.0709027,2.7241988,0.046478808,0.18115619,-0.067815825,-0.6107223,-0.44060606,-0.40061215,-0.035984155,0.310399,0.13903575,-0.46719375,0.2734648,0.66395617,0.053787675,0.0016501361,0.007141208
38863758,-1.5966113,0.37957057,-2.323794,-1.3895874,-0.3543413,1.0924629,2.7456918,0.05753383,0.093912914,0.0072698295,-0.16812305,-0.102149956,-0.10969185,0.012551713,0.12283606,0.055541407,-0.14147109,0.273067,0.6644943,0.053708397,0.0016381871,0.0070920573
39062381,-1.5817522,0.3780629,-2.3086126,-1.3750861,-0.34054258,1.1065651,2.7615423,0.11584503,0.078155205,0.11352268,0.21957195,0.20683426,0.024308173,-0.03776876,-0.107176214,-0.097502366,0.020016192,0.27272135,0.6652246,0.05343516,0.0016103728,0.0070084967
39265968,-1.5768363,0.37351435,-2.302878,-1.3713048,-0.3389361,1.1090839,2.7686825,0.24223973,0.19226667,0.2570146,0.42191583,0.38637665,0.0464868,-0.056468822,-0.16208224,-0.13060021,0.052931126,0.27160123,0.6675117,0.052607857,0.001527318,0.0067519173
39464730,-1.5801768,0.37219286,-2.3060064,-1.3749251,-0.34320655,1.1049528,2.7662349,0.16020802,0.14332919,0.18283315,0.25997353,0.22860536,0.033791885,-0.019254476,-0.06448625,-0.03855553,0.04737116,0.271285,0.6681945,0.052341588,0.0015023435,0.006676478
39668179,-1.5904369,0.37214938,-2.3154771,-1.3843515,-0.35250077,1.0958734,2.757493,0.12407742,0.15066145,0.18528306,0.18284893,0.12734148,-0.0091626905,-0.027600124,-0.012174167,0.034300637,0.032009862,0.27189335,0.66781926,0.052104793,0.0014954534,0.00668709
39866801,-1.6002797,0.37285367,-2.3239608,-1.3924818,-0.35991177,1.08879,2.7498271,0.11464267,0.1837311,0.1997365,0.10142837,0.0371788,-0.050825864,-0.020110533,0.06395537,0.117014885,0.008032285,0.27322102,0.6666905,0.05183556,0.001498479,0.0067544775
40060457,-1.6095469,0.37299666,-2.3323908,-1.4007614,-0.36778885,1.081173,2.7418518,0.044519335,0.14016068,0.14460701,-0.013367444,-0.083002575,-0.092118174,-0.030912478,0.095880896,0.1530797,-0.022194806,0.27396262,0.66614133,0.051620115,0.0014956634,0.0067802737
40269148,-1.6197059,0.3720415,-2.3424654,-1.4110847,-0.37832737,1.0708004,2.7318666,0.0020196177,0.10701796,0.080845006,-0.1324055,-0.17555395,-0.12607718,-0.024923116,0.13459201,0.16735825,-0.069825225,0.2737537,0.666613,0.05142752,0.0014788464,0.0067269756
40467677,-1.6303033,0.37119848,-2.3522563,-1.4211446,-0.38838443,1.0611749,2.7224727,0.03181083,0.14195767,0.10442115,-0.13225013,-0.16666727,-0.124500886,-0.007387832,0.16644397,0.19125435,-0.0721523,0.27410662,0.6666418,0.051094636,0.0014610608,0.006695878
40666255,-1.6401924,0.36931303,-2.361252,-1.4309454,-0.39866027,1.0515705,2.7138853,-0.0005471185,0.10464996,0.049484015,-0.20166317,-0.21379602,-0.1180099,0.0151326135,0.19411062,0.19894415,-0.08088323,0.27408016,0.66727155,0.050617803,0.0014266885,0.0066038533
40864877,-1.6466116,0.3669834,-2.3674307,-1.4380603,-0.40659967,1.0441246,2.7078564,-0.011801451,0.09396564,0.029318012,-0.23542175,-0.23759612,-0.14324448,0.00076986104,0.18690452,0.18296015,-0.11215792,0.2734121,0.6684979,0.05022635,0.001388935,0.0064746365
41063626,-1.6505481,0.3662843,-2.3707142,-1.4415414,-0.41004914,1.0410285,2.704889,0.07592202,0.16793025,0.089493014,-0.17024097,-0.14826311,-0.13927452,0.010740541,0.18792848,0.16276088,-0.12720287,0.27371487,0.6684987,0.04995913,0.0013755267,0.0064517604
41262123,-1.6485914,0.3648904,-2.368524,-1.4399041,-0.40883753,1.0425684,2.707196,0.029921137,0.10804085,0.030133747,-0.20528796,-0.17445014,-0.13046743,0.009462487,0.16771033,0.13510855,-0.12782922,0.27338853,0.6691767,0.049703494,0.0013532313,0.006378052
41465727,-1.6466359,0.36379886,-2.3672495,-1.4389333,-0.40837902,1.0429277,2.708223,0.026048861,0.08957181,0.01684288,-0.18717575,-0.15200095,-0.14343145,-0.019117512,0.11618709,0.08034688,-0.14766914,0.27253255,0.6701429,0.049680416,0.0013393236,0.0063047926
41664332,-1.6461189,0.36357912,-2.3667846,-1.4384696,-0.40792054,1.0433843,2.7086878,0.054957826,0.108693525,0.05358268,-0.11088242,-0.08804338,-0.100251615,-0.002032034,0.10829064,0.08419936,-0.099625096,0.2724603,0.67027,0.04964095,0.0013359587,0.006292743
41863038,-1.64639,0.36341783,-2.3673358,-1.4389857,-0.4084992,1.0427095,2.7080429,0.039139375,0.083121344,0.04004804,-0.09202768,-0.07555341,-0.09366959,-0.015435614,0.07365721,0.055794504,-0.09183328,0.272238,0.6704891,0.049659703,0.0013342694,0.006278942
42066542,-1.6507902,0.36317956,-2.3721166,-1.4437706,-0.4134502,1.0376531,2.7031274,0.0055520013,0.038600765,0.007229574,-0.0908897,-0.07964138,-0.08269213,-0.024865445,0.04165965,0.02901259,-0.080694795,0.27190194,0.6708187,0.049690157,0.001331558,0.006257636
42270131,-1.6596767,0.36332795,-2.3812993,-1.4527649,-0.4224354,1.0285223,2.6938784,0.040253356,0.06878782,0.05030732,-0.023253422,-0.022804573,-0.07388766,-0.033414662,0.018301703,0.015751662,-0.06643604,0.27179614,0.67086226,0.049747404,0.0013340914,0.0062600654
42468752,-1.6641049,0.3633902,-2.3859897,-1.4573417,-0.4270341,1.0238097,2.689112,0.029530112,0.052456137,0.032682035,-0.032931264,-0.0273235,-0.066132516,-0.028094793,0.016921315,0.009929215,-0.06345436,0.27166238,0.67095053,0.04979365,0.0013354135,0.006258061
42667507,-1.6652805,0.3634801,-2.387442,-1.4586781,-0.42837533,1.0223415,2.6875691,0.035401758,0.057484914,0.038336318,-0.024954064,-0.019441072,-0.06977287,-0.03304774,0.010329381,0.0035349675,-0.067246586,0.27152333,0.67103064,0.049850874,0.0013374051,0.0062576407
42865998,-1.6616985,0.36357215,-2.3840244,-1.4551824,-0.42484692,1.0257857,2.6909227,0.03260731,0.059352458,0.044579774,-0.020866735,-0.023166342,-0.06431212,-0.02930363,0.017236795,0.017499624,-0.055570096,0.27145156,0.6710581,0.04989138,0.0013392423,0.006259585
43064619,-1.6576785,0.36373815,-2.3798656,-1.4509548,-0.42048082,1.0301726,2.695138,0.048816517,0.08353115,0.07176185,-0.0032597566,-0.0141175045,-0.047767326,-0.010712229,0.04432505,0.05221251,-0.031403325,0.2716212,0.67088765,0.04987871,0.0013410412,0.00627147
43263283,-1.6548755,0.36364502,-2.3770547,-1.4481913,-0.41773897,1.0329341,2.697944,0.0018602312,0.033549104,0.021881085,-0.047797278,-0.056716025,-0.042054366,-0.0072116368,0.04365464,0.049935155,-0.027732793,0.2715847,0.67094886,0.049861524,0.0013393973,0.0062655364
43461879,-1.6645067,0.36386758,-2.3867803,-1.4577243,-0.42718008,1.0234085,2.6882253,0.059485048,0.09548664,0.07054704,-0.023725294,-0.02128986,-0.068734,-0.01633153,0.04916037,0.045005754,-0.060220867,0.27165112,0.6708395,0.04989018,0.0013425314,0.006276715
43665464,-1.689909,0.3637574,-2.4128404,-1.4836069,-0.45328388,0.99705034,2.6620018,0.027783714,0.060066476,0.022411913,-0.08203356,-0.06346468,-0.09927713,-0.03538972,0.03365366,0.014941087,-0.101831235,0.27122092,0.6712022,0.04997663,0.0013422227,0.0062580802
43864074,-1.7252113,0.36339062,-2.44866,-1.5193573,-0.48939228,0.9608027,2.6261027,0.018760368,0.036064863,-0.018085405,-0.11852875,-0.07223137,-0.084644906,-0.012707332,0.04747529,0.003995731,-0.10870824,0.2707981,0.6716495,0.049989134,0.0013368846,0.006226426
44062696,-1.7548349,0.3626035,-2.47914,-1.5499445,-0.52061325,0.9293826,2.595399,-0.003832914,-0.00012575835,-0.06281653,-0.1512875,-0.08668479,-0.1197307,-0.047590517,0.00023006648,-0.0594419,-0.15905334,0.26994878,0.67253613,0.05002366,0.0013267312,0.006164629
44261332,-1.7794293,0.36255446,-2.50397,-1.5746417,-0.5454431,0.9044663,2.5705478,0.05749128,0.05808916,-0.0010537207,-0.079677954,-0.01675421,-0.046380464,0.019735577,0.061018523,0.0030686888,-0.085550144,0.26982987,0.67265457,0.05003288,0.0013256862,0.006157028
44459941,-1.7964579,0.3620496,-2.5217595,-1.5924653,-0.5637286,0.88596094,2.5525227,0.039148457,0.028116927,-0.035687774,-0.100592606,-0.024839677,-0.10138081,-0.038031504,-0.009115253,-0.078347266,-0.15183043,0.2691395,0.6733274,0.05009896,0.001320079,0.006114141
44663529,-1.8004189,0.36154148,-2.5253797,-1.5964313,-0.57083374,0.8794431,2.54506,0.008347847,0.027848154,0.008150071,-0.05109653,-0.043186106,-0.02756489,0.0077417735,0.047469273,0.039172776,-0.027107622,0.26914886,0.67334974,0.050072733,0.0013184813,0.0061102845
44867117,-1.8125688,0.35781348,-2.5346112,-1.6078458,-0.58341837,0.86877966,2.5372355,-0.074632704,0.092952624,0.23107812,0.12620106,-0.13488734,0.04264739,0.004005149,0.1340645,0.36630255,0.25264242,0.26961476,0.6742175,0.048965648,0.0012514408,0.0059506753
45065740,-1.8168443,0.34455186,-2.5356221,-1.6156278,-0.59697926,0.8590039,2.5383866,-0.26807103,0.072603986,0.38796034,0.21949998,-0.34923834,0.026533455,-0.0896979,0.15102653,0.65848184,0.47651517,0.26623642,0.68087035,0.046545725,0.001057517,0.0052899965
45264362,-1.7955492,0.3211737,-2.5120716,-1.6044457,-0.5978843,0.86345077,2.5643435,-0.3691895,0.047279447,0.44325536,0.25082862,-0.46140265,0.13883314,-0.012152255,0.27453724,0.90991443,0.6968965,0.2566435,0.69551164,0.042933095,0.00076887093,0.004142832
45467949,-1.7722492,0.29021433,-2.4818864,-1.5937002,-0.605256,0.8656308,2.5994298,-0.37342477,0.081241116,0.52553666,0.33336014,-0.47053444,0.30540937,0.13238853,0.43532288,1.1504834,0.9258491,0.24393651,0.71542263,0.037339367,0.0004588608,0.00284272
45666572,-1.7539684,0.25778002,-2.4470234,-1.5845857,-0.61757976,0.869418,2.6444106,-0.3670096,0.1716116,0.7129421,0.5085366,-0.4852237,0.28577882,0.073913395,0.41929024,1.2998891,1.0364509,0.23374,0.73434633,0.029906267,0.00022351858,0.0017838667
45865195,-1.748572,0.22919922,-2.4145744,-1.5824813,-0.63733196,0.87330365,2.6935177,-0.3074562,0.2775662,0.89450914,0.71386164,-0.4337418,0.26558024,0.018238366,0.36982375,1.3829457,1.107446,0.22998154,0.7469865,0.02186042,9.055237e-05,0.001080957
46063817,-1.7133185,0.19348603,-2.3635418,-1.5711848,-0.663676,0.8658545,2.7566736,-0.5096143,0.13034818,0.83999634,0.6871097,-0.6533643,0.45615453,0.16821492,0.5265039,1.7081815,1.4068103,0.20445837,0.77912396,0.015943471,2.5229921e-05,0.00044904996
46267407,-1.6744608,0.1635858,-2.317166,-1.560407,-0.6887696,0.84861195,2.8103235,-0.6769395,-0.018233472,0.7227025,0.59634405,-0.87352526,0.3285849,0.04649329,0.39764082,1.6799692,1.3303797,0.1722906,0.8146781,0.0128507875,7.48211e-06,0.00017309502
46466194,-1.6519744,0.14482833,-2.2821505,-1.5525764,-0.71167195,0.8376685,2.850724,-0.51906335,0.07570383,0.74724394,0.6656189,-0.7383191,0.2947563,0.05554998,0.3565805,1.5617161,1.2204086,0.15441939,0.8353776,0.010121132,2.4267324e-06,7.934926e-05
46664736,-1.6475075,0.13582426,-2.261545,-1.5526303,-0.72789705,0.83582646,2.880441,-0.21020906,0.20630811,0.68873566,0.66179067,-0.380782,0.37738675,0.21109676,0.40420467,1.2877856,1.0452639,0.14968677,0.84206223,0.008199415,1.0870979e-06,5.044649e-05
46863274,-1.6381092,0.13213232,-2.2435353,-1.5456687,-0.7258531,0.8445508,2.902302,-0.07663378,0.13475199,0.38592318,0.37363845,-0.17433864,0.3944775,0.31464535,0.40506512,0.8678238,0.73913395,0.1475225,0.84483284,0.007601814,7.964471e-07,4.201672e-05
47061894,-1.640942,0.1314317,-2.242168,-1.548269,-0.7294016,0.8449667,2.904039,0.12682928,0.21832083,0.32834014,0.31322417,0.076703444,0.30901045,0.28123236,0.31749493,0.51732314,0.45749325,0.1483207,0.8442922,0.007345844,7.219979e-07,4.049199e-05
47260648,-1.6302795,0.13092896,-2.2320411,-1.5381515,-0.7225518,0.8534402,2.9106722,-0.105046734,-0.0016480125,0.11211409,0.07239436,-0.1773232,0.18522656,0.16535074,0.21864003,0.43657112,0.3412723,0.14740455,0.8453024,0.0072537167,6.745408e-07,3.8580576e-05
47469071,-1.6302037,0.12780645,-2.2256608,-1.5402248,-0.7320804,0.85015893,2.9192147,-0.15020743,0.07170678,0.3023873,0.20962366,-0.31263375,0.3722669,0.33219445,0.46421665,0.92863846,0.6970556,0.14518741,0.8480542,0.006726075,4.8792344e-07,3.191712e-05
47662727,-1.6324319,0.12182635,-2.219194,-1.547967,-0.7509158,0.8366004,2.9308958,-0.34642562,-0.009468816,0.3116367,0.10598438,-0.64305437,0.2370565,0.21045661,0.44466406,1.1341594,0.69685227,0.13877767,0.8550828,0.006116547,2.9199447e-07,2.259303e-05
47866315,-1.6402661,0.11712526,-2.2187762,-1.5591255,-0.7743711,0.8202487,2.937084,-0.32221013,0.020600706,0.230512,-0.28066427,-0.82745016,0.0146586895,0.14099026,0.5084786,1.1122345,0.33309495,0.13497263,0.8595661,0.0054446138,1.705489e-07,1.6471202e-05
48065091,-1.6654451,0.11488703,-2.2287126,-1.5812247,-0.8117735,0.80294615,2.9420953,-0.17652173,0.1179319,0.18047082,-0.589116,-0.82188433,0.10248113,0.37017024,0.82191133,1.241223,0.21320939,0.14072673,0.85497046,0.0042897426,8.1469814e-08,1.294772e-05
48263560,-1.7053157,0.11280331,-2.245453,-1.6170462,-0.85377955,0.7836318,2.9434521,-0.11390859,0.1693053,0.2532992,-0.46468553,-0.7176554,0.21488786,0.451689,0.8700864,1.3101566,0.33456337,0.1499765,0.8466938,0.003318691,3.9282863e-08,1.0895153e-05
48462187,-1.7047976,0.10979275,-2.2427998,-1.6203978,-0.8647509,0.7733098,2.947491,-0.3378829,-0.085983396,0.109921515,-0.21944529,-0.69373643,0.024188042,0.08616483,0.32481873,0.84487474,0.28434455,0.14479385,0.8520004,0.0031970313,2.8803065e-08,8.704556e-06
50463304,-1.6127819,0.053633656,-2.0523853,-1.5879922,-1.0249176,0.5627988,-3.0370777,0.6823365,0.039922122,-0.72643745,-1.0801445,1.4095416,0.13473366,0.29735568,0.055311434,-1.8899996,-0.968397,0.056585077,0.94209933,0.0013155472,1.9993354e-12,1.4981383e-08
50666892,-1.6118289,0.050256945,-2.03723,-1.5892657,-1.0448675,0.5424737,-3.004281,0.4400018,-0.067347534,-0.67140085,-1.013651,1.070512,0.06955494,0.18745397,0.003840156,-1.5913637,-0.7989327,0.053149242,0.9457395,0.0011113071,4.402637e-13,7.1569652e-09
54465551,-1.6152773,0.04656726,-2.0281143,-1.5953294,-1.0680887,0.5210767,-2.9858384,-0.12897733,-0.0008132383,0.15047687,0.22268447,-0.30853692,-0.1021958,-0.12129909,-0.07072407,0.3497569,0.1042971,0.04849512,0.9505506,0.0009542352,7.882088e-14,2.8984237e-09
54664170,-1.6214613,0.045719873,-2.031929,-1.6027695,-1.0806669,0.5002752,-2.9865332,-0.40292972,-0.20138901,0.042439148,0.19651346,-0.67256886,0.121662736,0.080477595,0.14798522,0.8107035,0.46470404,0.04589199,0.9531413,0.0009668259,5.915199e-14,2.2023323e-09
54867760,-1.626194,0.045203697,-2.035429,-1.6083038,-1.0892028,0.48623267,-2.9886541,-0.3520467,-0.19239116,-0.0025699586,0.10472475,-0.57548946,0.04067707,0.014091849,0.0733335,0.5994915,0.30280095,0.04419059,0.9548269,0.0009824289,5.103767e-14,1.8558931e-09
55066495,-1.6319818,0.04524215,-2.041027,-1.6140177,-1.0950619,0.48066345,-2.993758,0.13862167,0.1680646,0.19997549,0.19677389,0.090244435,0.13349813,0.13489461,0.15273952,0.24917257,0.17131871,0.04436962,0.9546555,0.00097482646,4.979476e-14,1.86299e-09
55260039,-1.6357602,0.04516724,-2.045229,-1.6178697,-1.0923157,0.48207673,-2.9896114,0.1045154,0.002081748,-0.1252118,-0.2395729,0.23634093,-0.012370527,0.01607734,-0.008917391,-0.3482362,-0.19978654,0.044164527,0.9548672,0.0009682893,4.5971002e-14,1.7852112e-09
55468592,-1.6362717,0.044865273,-2.0436473,-1.6186023,-1.1021403,0.4720786,-2.9948833,0.16777013,0.012807187,-0.1738755,-0.30929735,0.38162273,0.14894325,0.18092352,0.13126612,-0.38322467,-0.11608869,0.043833695,0.9552041,0.000962272,4.1827785e-14,1.6868681e-09
55667214,-1.6456552,0.044819817,-2.0532637,-1.628097,-1.1118066,0.46161103,-3.0050497,0.16316304,0.101678595,0.031292357,-0.0042015016,0.25765595,0.1493712,0.15603894,0.1299718,-0.07637864,0.054273784,0.043562666,0.9554674,0.00096991786,4.2391478e-14,1.6609653e-09
55865916,-1.6560264,0.04484357,-2.0652018,-1.6385207,-1.1137167,0.4581413,-3.0086765,-0.17655297,-0.12868382,-0.06344415,0.016577736,-0.22333163,-0.025171578,-0.047248065,-0.045082033,0.10964209,0.07719773,0.043315195,0.955709,0.00097582245,4.2527386e-14,1.6334677e-09
56064460,-1.6491201,0.04471268,-2.0561354,-1.6317364,-1.1165705,0.45555672,-3.007464,-0.052315146,0.01885057,0.114003316,0.22517496,-0.12674007,0.063687325,0.03361368,0.039757133,0.27104992,0.21134704,0.043214448,0.95581543,0.0009700597,4.019352e-14,1.5896959e-09
56263082,-1.6426028,0.044779215,-2.0511308,-1.6251656,-1.1014143,0.4697339,-2.9929767,0.035211276,0.073700555,0.1295952,0.21436924,0.0058527663,0.11105919,0.0872612,0.0824883,0.20581436,0.20362198,0.043204807,0.95582974,0.00096535677,3.882163e-14,1.5690145e-09
56461705,-1.6294695,0.04470079,-2.0359364,-1.6121383,-1.0974187,0.4741802,-2.9869337,0.11942984,0.12349853,0.13711388,0.18826832,0.1354678,0.15004611,0.13447416,0.11999494,0.12972122,0.18184173,0.04313923,0.9558953,0.0009654748,3.8484895e-14,1.556058e-09
56660362,-1.630786,0.044803634,-2.0395267,-1.6133869,-1.089699,0.48110905,-2.9812357,-0.18249749,-0.16916472,-0.14633292,-0.09838698,-0.1839598,-0.08622813,-0.10028565,-0.10815704,-0.067095876,-0.04438156,0.0430997,0.95593226,0.0009680016,3.892582e-14,1.5581969e-09
56863915,-1.6158283,0.044690404,-2.0219774,-1.5985659,-1.084082,0.48702323,-2.9728403,-0.0048002787,0.031914596,0.08334771,0.15406385,-0.037455577,0.15600038,0.13647985,0.13529623,0.25369006,0.23892713,0.043009527,0.956025,0.0009655676,3.7707786e-14,1.5304271e-09
57067504,-1.621758,0.044700645,-2.0299072,-1.6045768,-1.0821398,0.4869378,-2.9703126,-0.109931424,-0.053588327,0.020917904,0.10544114,-0.17109442,0.22804284,0.20557845,0.21175158,0.39537942,0.3426789,0.042647578,0.9563866,0.0009658655,3.5630658e-14,1.460212e-09
57266127,-1.6274776,0.044650033,-2.0347683,-1.6102982,-1.0886769,0.48029223,-2.9735384,0.01768139,0.09503079,0.19269621,0.28330585,-0.07780307,0.13528311,0.1123693,0.12926638,0.38318884,0.2793038,0.04270602,0.9563425,0.00095144735,3.2372315e-14,1.418297e-09
57464764,-1.6274703,0.044616822,-2.034842,-1.610386,-1.0888866,0.47941586,-2.973785,-0.1686556,-0.122133285,-0.061912347,0.00077011436,-0.2225493,-0.051407456,-0.06764698,-0.060145974,0.09207761,0.039338827,0.042484302,0.9565587,0.00095704314,3.2546797e-14,1.3977817e-09
57668337,-1.6301236,0.04464031,-2.0373778,-1.6130137,-1.0915574,0.47687465,-2.976001,0.12755974,0.14549404,0.17077044,0.20600283,0.11198166,0.07831526,0.06857991,0.06778407,0.12539482,0.11917937,0.042550456,0.9564961,0.00095345784,3.205691e-14,1.3971224e-09
57866964,-1.6235453,0.04454944,-2.0282679,-1.6065485,-1.0942961,0.47471508,-2.9772031,0.06355068,0.036931917,0.006480843,-0.008852772,0.10461981,0.11627567,0.118943214,0.10768539,0.018321514,0.07550871,0.042511344,0.9565334,0.0009552253,3.2285687e-14,1.3964377e-09
58065583,-1.628195,0.04466945,-2.035739,-1.6111159,-1.0894637,0.47866803,-2.9745944,0.12327255,0.10994624,0.095130354,0.08923295,0.14500345,0.20860732,0.20929033,0.20298982,0.15788257,0.18927574,0.042457364,0.9565849,0.000957806,3.2637785e-14,1.3958854e-09
58264228,-1.6266716,0.04468601,-2.0341728,-1.6095967,-1.0879939,0.48012832,-2.9730692,0.0013993869,-0.005175747,-0.0149696525,-0.033272773,0.0062382733,-0.036605954,-0.031806946,-0.030073047,-0.051717162,-0.05377233,0.04245152,0.9565907,0.00095777196,3.259587e-14,1.3946483e-09
58462827,-1.6213574,0.04459675,-2.0260844,-1.6043698,-1.0919273,0.4770008,-2.9753284,0.083556585,0.07748319,0.053365767,-0.052665614,0.05155716,0.034855127,0.06578863,0.09595227,0.080967605,-0.026117802,0.04249236,0.9565506,0.00095696177,3.2610264e-14,1.3991869e-09
58666419,-1.618831,0.044577293,-2.0235534,-1.6018752,-1.089628,0.4790677,-2.9728482,0.12943414,0.10395204,0.045862187,-0.13950087,0.09860751,-0.0063625574,0.047022462,0.091012895,0.015256345,-0.1319009,0.042419672,0.9566221,0.00095823675,3.251082e-14,1.3900052e-09
58865040,-1.6230977,0.044597764,-2.0276656,-1.6060597,-1.0937089,0.4755991,-2.9766812,0.049097568,0.0033239499,-0.07073435,-0.22351116,0.066793405,0.1292715,0.1717689,0.19317913,0.047448277,-0.005302906,0.04261915,0.9564285,0.0009522858,3.2158656e-14,1.4062077e-09
59063661,-1.640423,0.044712417,-2.0476117,-1.6232864,-1.1016395,0.4669127,-2.9857836,-0.099589154,-0.10166509,-0.12130188,-0.22550933,-0.13792919,-0.025801182,0.004872799,0.0368737,0.035304606,-0.08089352,0.042614806,0.95643544,0.00094973494,3.153158e-14,1.3961489e-09
59262285,-1.6492425,0.04467229,-2.0558653,-1.6321297,-1.1109565,0.4574215,-2.9931922,-0.07045738,-0.030650437,-0.019208074,-0.20179121,-0.21360148,0.0021810532,0.058638692,0.14081204,0.28462481,-0.04000008,0.04260358,0.95645374,0.0009426935,2.9829827e-14,1.3681574e-09
59465872,-1.6572226,0.044566378,-2.0612197,-1.6398592,-1.1206524,0.44946006,-2.9936974,-0.086256295,-0.021437526,-0.023251683,-0.44167063,-0.36915872,0.11773038,0.2456696,0.41830814,0.66019607,-0.012517333,0.0433738,0.95573395,0.0008922692,2.273744e-14,1.3190717e-09
59664539,-1.6537321,0.044147637,-2.052713,-1.6365163,-1.1296074,0.44092914,-2.9912238,0.012086391,0.09086621,0.08291337,-0.46493575,-0.34639573,-0.095237374,0.071136,0.29305202,0.5923588,-0.2735138,0.043456703,0.955684,0.00085928163,1.7464693e-14,1.2100598e-09
59863119,-1.6474488,0.04387596,-2.047471,-1.6305702,-1.1172782,0.44929367,-2.973055,-0.1194053,-0.07234505,-0.10318521,-0.5912156,-0.39727265,-0.19801033,-0.05184269,0.1315642,0.3226146,-0.38583243,0.042563677,0.95658433,0.0008519642,1.4123976e-14,1.0500261e-09
60066706,-1.6301968,0.043733176,-2.0269213,-1.6134828,-1.109067,0.45791525,-2.9628026,0.07798807,0.05093643,-0.0059915036,-0.17856838,0.05792637,-0.03379059,0.014609218,0.052753687,-0.028506637,-0.15400684,0.04247742,0.9566705,0.00085203827,1.3923482e-14,1.03795e-09
60270294,-1.6155653,0.043692704,-2.012045,-1.5989077,-1.0941203,0.4725361,-2.948548,-0.1410288,-0.17460437,-0.17795965,0.018366396,-0.0019809306,0.1631844,0.1032666,0.020252705,-0.10917127,0.22090352,0.042372428,0.9567716,0.0008558657,1.412038e-14,1.0342506e-09
60468921,-1.6245811,0.04333033,-2.0201285,-1.6085682,-1.1064532,0.45527405,-2.9557302,-0.099289134,-0.041410856,0.08040524,0.45087004,-0.053136177,0.36873174,0.26445687,0.18140781,0.35278058,0.6257016,0.040938087,0.9581913,0.00087064994,1.2490104e-14,8.8567215e-10
60667553,-1.6357816,0.042874783,-2.0335045,-1.6203765,-1.1138726,0.44131717,-2.954344,-0.26762852,-0.11614268,0.11355638,0.54408133,-0.3660394,0.18532145,0.07118678,0.026325226,0.5123067,0.58597517,0.039299708,0.95982605,0.0008742818,9.611882e-15,7.0921674e-10
60866162,-1.641489,0.042376924,-2.0334187,-1.6265904,-1.1312464,0.42164558,-2.964599,-0.22492854,-0.087905,0.11120345,0.4541067,-0.33611387,0.024608374,-0.06353426,-0.08835757,0.3540442,0.3619666,0.038578648,0.96054995,0.00087138254,8.2260375e-15,6.3357086e-10
61064785,-1.6441181,0.0421891,-2.035573,-1.6295846,-1.135686,0.4141811,-2.9664428,-0.20283279,-0.13405521,-0.029400669,0.17418988,-0.2470607,0.24653113,0.19351757,0.17135847,0.390481,0.43131435,0.03774631,0.96137077,0.0008829017,7.737257e-15,5.775035e-10
61263558,-1.6494128,0.042180236,-2.0408964,-1.6349338,-1.141238,0.40817836,-2.9718745,0.0673808,0.044169027,0.030733448,0.0993731,0.13731538,0.12100041,0.09881222,0.062801,-0.023868918,0.12840033,0.03761424,0.96149975,0.00088596495,7.743198e-15,5.709681e-10
61462032,-1.6503557,0.042146694,-2.0409698,-1.6357788,-1.1428035,0.4073273,-2.970309,-0.03862068,-0.13433458,-0.24020857,-0.27523106,0.12284744,0.005251527,0.0063462257,-0.041586757,-0.36908495,-0.12564826,0.03790667,0.9612252,0.0008681261,7.0454083e-15,5.672807e-10
61670592,-1.6505334,0.0418854,-2.039969,-1.636201,-1.1451323,0.40283978,-2.9679759,0.1798261,0.03378737,-0.13509814,-0.23464194,0.40828925,0.07719743,0.09214264,0.03350848,-0.4628862,-0.14538336,0.03740659,0.96172893,0.0008645091,6.219129e-15,5.2086613e-10
61864243,-1.6610631,0.041668624,-2.0503416,-1.6470872,-1.1572626,0.38762748,-2.9785857,0.2839558,0.1706835,0.04052125,-0.03251583,0.46396115,0.10923976,0.11918861,0.072120905,-0.31401718,-0.060575604,0.036565077,0.96255445,0.0008805136,6.058572e-15,4.7916987e-10
62062980,-1.6706465,0.041706525,-2.0597765,-1.656592,-1.1669242,0.3786233,-2.987542,-0.12542218,-0.15532327,-0.17939419,-0.13394438,-0.051749647,-0.09050834,-0.10672748,-0.13970709,-0.24825573,-0.1023339,0.036761854,0.9623647,0.00087352784,5.9306215e-15,4.842455e-10
62261487,-1.6814969,0.041602783,-2.0702295,-1.6676251,-1.1790726,0.36483872,-2.997516,-0.12892178,-0.06635339,0.027595997,0.20812231,-0.17257833,0.15628994,0.110358,0.09207237,0.29097402,0.3211316,0.03635009,0.96277297,0.00087697135,5.6255185e-15,4.582534e-10
62465076,-1.6832215,0.041450378,-2.0707617,-1.6694481,-1.1825087,0.36044294,-2.996281,-0.08200061,0.023434702,0.17154121,0.41227648,-0.18156889,0.05721724,-0.0015454292,-0.012102962,0.32941258,0.3024857,0.036192983,0.96294194,0.00086509576,4.927809e-15,4.320611e-10
62668668,-1.671701,0.041528806,-2.0630748,-1.6577822,-1.1604911,0.38191745,-2.9736118,-0.003435254,0.07197763,0.18578148,0.40894723,-0.055193864,0.055321336,-0.0010986328,-0.024506688,0.21468055,0.2563219,0.03622811,0.962919,0.0008528762,4.463393e-15,4.19205e-10
62867394,-1.661806,0.04135292,-2.0480647,-1.6481091,-1.162315,0.3798953,-2.972012,-0.003772214,0.015408818,0.060605332,0.221237,0.024012744,0.114019394,0.06982732,0.03124845,0.081049204,0.21804595,0.03609816,0.9630487,0.0008531839,4.3591454e-15,4.1084117e-10
63065909,-1.663793,0.041445844,-2.0549412,-1.6501064,-1.1537247,0.3866085,-2.9649947,0.10234015,0.10818965,0.13619748,0.27607358,0.14674169,0.35508573,0.31546235,0.27513528,0.28051984,0.4332013,0.035687745,0.96345186,0.00086034666,4.2727743e-15,3.9259054e-10
63264533,-1.6612692,0.041432388,-2.05238,-1.647645,-1.1515074,0.38826227,-2.962308,0.092906974,0.08371958,0.09107685,0.19939347,0.15295221,0.13379931,0.1016202,0.061852694,0.017940998,0.17860198,0.03554089,0.9635965,0.0008625664,4.228527e-15,3.8578407e-10
63468120,-1.6594963,0.041431997,-2.050589,-1.6459124,-1.1500597,0.38933936,-2.960409,0.1691611,0.15491162,0.14896971,0.20622002,0.21848921,0.04802847,0.029969692,0.003082037,-0.053002715,0.060905337,0.035444997,0.9636913,0.0008637333,4.1889904e-15,3.8109088e-10
63666809,-1.6537158,0.04144672,-2.0448542,-1.6401418,-1.1444373,0.39486143,-2.9546285,0.048028946,0.03142515,0.00717929,-0.036475252,0.06183846,-0.025644064,-0.014967084,-0.0116426945,-0.0649178,-0.06715858,0.035417248,0.9637186,0.00086416793,4.1807183e-15,3.7984757e-10
63865366,-1.6507452,0.0414549,-2.0417385,-1.6371633,-1.1417239,0.3976165,-2.9513025,-0.015629463,-0.02523242,-0.05608486,-0.18822052,-0.049953558,-0.0002270937,0.036646247,0.07211554,0.053014874,-0.07908189,0.035444822,0.9636935,0.00086160656,4.1110566e-15,3.7865217e-10
64063988,-1.6535195,0.04147551,-2.0444005,-1.6399021,-1.1445081,0.3951514,-2.9539337,0.029155396,0.0074997023,-0.032865744,-0.14580171,0.025045022,0.0958637,0.12588525,0.14780831,0.08449471,0.013102889,0.03553746,0.96360385,0.0008587425,4.0870644e-15,3.8126416e-10
64262611,-1.656423,0.041484695,-2.0468962,-1.6427578,-1.1476897,0.39233556,-2.9558003,-0.08345808,-0.11699744,-0.17516395,-0.3227708,-0.07900567,0.008549929,0.04722905,0.07263672,-0.02843082,-0.10551119,0.0356782,0.9634711,0.00085073506,3.9220908e-15,3.809584e-10
64471216,-1.6598493,0.04138299,-2.0500867,-1.646355,-1.1517982,0.386691,-2.9591014,0.15671091,0.12669292,0.050643116,-0.23478301,0.10025658,-0.14284182,-0.06425989,0.006582141,-0.067047834,-0.32330084,0.035287306,0.9638547,0.00085800176,3.8530262e-15,3.6488929e-10
64664835,-1.666381,0.041224293,-2.0508537,-1.6528635,-1.1693546,0.37088332,-2.9711795,0.03288108,0.020710438,-0.04800862,-0.4058146,-0.08569963,0.10680759,0.20813107,0.31282616,0.31017613,-0.09046769,0.03578136,0.96338314,0.0008356049,3.4841915e-15,3.6948627e-10
64863445,-1.6751748,0.041283857,-2.0635295,-1.661579,-1.1682881,0.37080404,-2.969365,-0.099147946,-0.09049645,-0.12879586,-0.43162626,-0.23463361,-0.080038786,0.0076104403,0.107945085,0.1721443,-0.22515059,0.03565538,0.9635165,0.0008280861,3.1668167e-15,3.5332964e-10
65067034,-1.6715457,0.04126617,-2.0597272,-1.6579956,-1.165159,0.3734566,-2.9650712,-0.11262539,-0.10175133,-0.11406396,-0.26554376,-0.19269261,-0.06706476,-0.022560716,0.03170061,0.087150574,-0.13231015,0.0355554,0.9636176,0.00082697254,3.0703504e-15,3.4630096e-10
65265705,-1.6688288,0.04129025,-2.0566077,-1.6552128,-1.1627638,0.37638298,-2.9612498,-0.11634892,-0.11123127,-0.12780805,-0.26834586,-0.18123533,0.13645422,0.1771667,0.22438455,0.25847447,0.070266366,0.03574009,0.9634417,0.0008181104,2.9377612e-15,3.471965e-10
65464280,-1.6623621,0.041270908,-2.0497453,-1.6487259,-1.1568688,0.38235557,-2.9534488,-0.023918182,-0.025137752,-0.06465459,-0.31088957,-0.11810814,-0.0029790401,0.06715202,0.1434375,0.16736925,-0.13029504,0.03581317,0.9633761,0.0008106842,2.7796273e-15,3.4306477e-10
65662912,-1.6604414,0.041026957,-2.041904,-1.647008,-1.1665493,0.3723615,-2.9567134,-0.059705168,-0.07091212,-0.13803083,-0.49598318,-0.17848483,-0.06792247,0.032853365,0.13775241,0.1395173,-0.26350594,0.035780687,0.96342057,0.000798823,2.4640879e-15,3.2825867e-10
65866490,-1.6681712,0.040945124,-2.0488138,-1.6548278,-1.1756351,0.36229533,-2.9622731,-0.12920055,-0.13869366,-0.19286382,-0.47981635,-0.2230463,-0.12015998,-0.039633274,0.044009805,0.044116855,-0.2774564,0.035615597,0.96359223,0.00079218816,2.2331886e-15,3.1250938e-10
66065114,-1.6777418,0.041099902,-2.063196,-1.6642354,-1.1746024,0.36306322,-2.963342,0.015523404,-0.002426833,-0.04089725,-0.16914709,-0.00022187829,-0.0025792122,0.031692147,0.06039405,0.012084842,-0.08825731,0.035627935,0.9635815,0.00079058623,2.2043753e-15,3.115189e-10
66263735,-1.6900966,0.04089146,-2.0700908,-1.6768212,-1.1988178,0.3383738,-2.982555,0.10587937,0.031791784,-0.04013586,-0.00552506,0.26033878,-0.03675258,-0.055440545,-0.11290431,-0.37964487,-0.10190034,0.035492256,0.9637208,0.00078690314,2.0646777e-15,3.0094885e-10
66467325,-1.7097286,0.04045312,-2.086336,-1.6966883,-1.2232035,0.3111135,-2.9926589,0.16534488,-0.033095248,-0.23380966,-0.19510663,0.55885214,-0.040849328,-0.07576817,-0.21295816,-0.9217715,-0.24198413,0.035142697,0.9641035,0.0007537766,1.3670338e-15,2.5405061e-10
66660992,-1.714075,0.039464325,-2.0875547,-1.7016298,-1.2261602,0.2992625,-2.967743,0.29604796,-0.01660043,-0.35798806,-0.46467325,0.8581552,-0.05306366,-0.06307715,-0.22851726,-1.3338139,-0.4493645,0.033825684,0.96547836,0.00069605885,5.4038505e-16,1.650977e-10
66869541,-1.7112865,0.03791707,-2.074009,-1.7004417,-1.2476262,0.26164618,-2.9597638,0.5179892,0.1853424,-0.19159862,-0.4092683,1.0952538,0.12157518,0.13308859,-0.014952034,-1.1969073,-0.3377363,0.030496664,0.9688,0.0007033018,2.626423e-16,9.1884646e-11
67068158,-1.7211518,0.037263785,-2.0823998,-1.7105901,-1.2524723,0.25081524,-2.9434223,0.22658637,-0.043623224,-0.34887406,-0.5388263,0.70758384,-0.11092153,-0.10461396,-0.22501239,-1.1931012,-0.47894472,0.02980673,0.9695398,0.0006534277,1.1781564e-16,6.572991e-11
67266781,-1.7189664,0.03657305,-2.0707042,-1.7090273,-1.2706642,0.22628541,-2.9390666,0.27935788,0.061084874,-0.18647431,-0.35350305,0.6737131,-0.1499649,-0.14514574,-0.24063173,-1.0325519,-0.44524422,0.028796116,0.9705703,0.000633601,6.786443e-17,4.8940633e-11
67465403,-1.712034,0.036125705,-2.0648088,-1.7024037,-1.2558353,0.23480839,-2.9119356,0.2676924,0.046879914,-0.20766485,-0.41361392,0.6614739,-0.113665566,-0.10192482,-0.1892633,-0.9911099,-0.42490917,0.027863188,0.9715221,0.00061471335,3.950829e-17,3.678456e-11
67664026,-1.7100446,0.03542096,-2.0528135,-1.7010441,-1.2748282,0.20852618,-2.9078355,0.2920546,0.06811878,-0.19402985,-0.44010147,0.6862137,-0.13628758,-0.11752267,-0.19686241,-1.0099247,-0.46467316,0.02679693,0.97260416,0.00059889327,2.2449225e-17,2.6861678e-11
67862649,-1.707038,0.03503963,-2.0460691,-1.6983291,-1.2769735,0.20176503,-2.8954458,0.20910427,0.026137954,-0.1870595,-0.38832974,0.5390649,-0.20476685,-0.1924255,-0.25904047,-0.93005276,-0.46711367,0.026213573,0.97320515,0.0005813421,1.4109076e-17,2.1502886e-11
68061288,-1.7061414,0.034963224,-2.044084,-1.697517,-1.2776803,0.19994898,-2.8922372,0.14799567,0.06429126,-0.025349889,-0.059785042,0.32399035,-0.1591152,-0.17040163,-0.21884614,-0.54346377,-0.24597335,0.026043044,0.9733798,0.0005771667,1.2420657e-17,2.0185407e-11
68260048,-1.7097453,0.034964588,-2.0473423,-1.7010484,-1.2815807,0.19672959,-2.8947937,0.009295195,0.058131527,0.13664623,0.35715392,-0.01702737,-0.12908334,-0.17728311,-0.20907974,-0.071072996,0.028645039,0.026266055,0.97316456,0.0005693834,1.1844103e-17,2.051362e-11
68463483,-1.71472,0.03477665,-2.0561042,-1.7059717,-1.273932,0.20114034,-2.883643,-0.16272065,0.0034291,0.22953382,0.6666454,-0.37236577,-0.06288195,-0.1409533,-0.15511143,0.39607537,0.30562806,0.026138784,0.97330713,0.0005540533,8.947028e-18,1.8530526e-11
68667071,-1.7074932,0.034195773,-2.0414934,-1.6993258,-1.2855791,0.18236654,-2.883753,-0.4360875,-0.24898091,0.002426654,0.47535712,-0.6830742,-0.15851116,-0.23968184,-0.24881482,0.37842774,0.2431736,0.024989055,0.9744407,0.000570206,7.93864e-18,1.5249522e-11
68865694,-1.6985836,0.03407819,-2.031754,-1.6904413,-1.2775751,0.18941517,-2.8728275,-0.14293674,-0.032685477,0.11978964,0.43619376,-0.27601328,-0.12282759,-0.18025213,-0.19633418,0.1621514,0.13332897,0.024967268,0.9744679,0.00056489377,7.266958e-18,1.481453e-11
69064455,-1.6838597,0.034095064,-2.0167484,-1.6757046,-1.2628802,0.20440531,-2.8579907,-0.055173244,-0.06247697,-0.0603795,0.014402263,-0.010307174,-0.073206484,-0.09560549,-0.12295264,-0.17258596,-0.03826928,0.025022011,0.9744147,0.0005633013,7.207332e-18,1.4896057e-11
69267906,-1.6733621,0.03403085,-2.0053415,-1.6652793,-1.2535481,0.21257755,-2.8459215,0.120450586,0.038146093,-0.055534292,-0.13410796,0.2794337,-0.07358217,-0.07399279,-0.10886264,-0.4192477,-0.17902839,0.024871461,0.97456723,0.00056124723,6.594225e-18,1.4183355e-11
69466558,-1.6693195,0.034012932,-2.0008678,-1.6612874,-1.2501833,0.21519242,-2.8414207,0.15513125,0.10977853,0.06339829,0.061120957,0.25823027,-0.07264757,-0.08405727,-0.11549425,-0.29784274,-0.10846001,0.024753286,0.9746849,0.0005617819,6.3675255e-18,1.3788223e-11
69665151,-1.6733768,0.033921223,-2.0044289,-1.6653898,-1.2550894,0.20920095,-2.844084,-0.15138286,-0.056164026,0.07645969,0.3589198,-0.26434296,-0.08146578,-0.13263166,-0.14897084,0.15854245,0.14317358,0.02465243,0.97478765,0.000559861,5.9742913e-18,1.33391605e-11
69863874,-1.6803558,0.033219397,-2.0079596,-1.6727377,-1.2675347,0.18888485,-2.8417373,-0.36570713,-0.10904947,0.22692193,0.8206374,-0.73351973,-0.19356477,-0.2857287,-0.27976942,0.5947474,0.3207547,0.023785777,0.9756634,0.0005508192,3.8376383e-18,1.03041855e-11
70062402,-1.6815796,0.031863302,-2.0007033,-1.6747334,-1.2812897,0.157085,-2.8199158,-0.46791905,-0.10887262,0.3549052,1.1545477,-1.0058271,-0.08602178,-0.20172203,-0.18086898,1.0550544,0.60736525,0.021982776,0.977492,0.0005252988,1.2448413e-18,5.5490573e-12
70261022,-1.6822104,0.030545125,-1.9931661,-1.6761576,-1.2943232,0.124749005,-2.799025,-0.51402605,-0.15347372,0.3089829,1.1296394,-1.077054,-0.096761465,-0.2056601,-0.18164349,1.0668721,0.5852566,0.020008571,0.9794802,0.00051130226,4.1435387e-19,2.8456133e-12
70464609,-1.6840639,0.029780686,-1.9896368,-1.6784177,-1.303937,0.10391714,-2.7863123,-0.3629613,-0.07995646,0.28075156,0.94331294,-0.8216728,-0.042919755,-0.12365043,-0.103515625,0.87987244,0.48370874,0.019013846,0.98049027,0.00049591635,1.9182656e-19,1.8819549e-12
70663300,-1.6844784,0.029528119,-1.987987,-1.679003,-1.3074267,0.095932126,-2.7814302,-0.22986051,-0.065605626,0.14311992,0.5383903,-0.50198346,0.04641056,0.0007914305,0.012128353,0.58430207,0.35011494,0.018577494,0.98093015,0.00049235235,1.4302157e-19,1.5832819e-12
70861854,-1.6832106,0.029537933,-1.9865313,-1.6777188,-1.3062552,0.09762898,-2.7796264,0.05518657,0.09724834,0.14985767,0.24977292,-0.017194062,-0.024724007,-0.034980416,-0.03099358,0.11730099,0.050951004,0.018637793,0.98087287,0.00048937974,1.3867227e-19,1.588976e-12
71065443,-1.6906986,0.029544773,-1.9941202,-1.6852168,-1.3138907,0.089936964,-2.7872689,0.12696005,0.09076126,0.043690607,-0.046906956,0.18446705,0.14980972,0.16154206,0.16052318,0.036568046,0.08064532,0.018601311,0.9809078,0.0004909288,1.4069068e-19,1.5843528e-12
71264072,-1.6891135,0.02958472,-2.000022,-1.6835047,-1.293973,0.10769307,-2.771033,0.036150597,-0.058406577,-0.18262956,-0.44046164,0.1822977,-0.06062162,-0.026177585,-0.023746848,-0.34209,-0.25142175,0.018593486,0.9809224,0.00048418168,1.2195602e-19,1.5177162e-12
71462721,-1.6836716,0.029369833,-1.9850267,-1.6782926,-1.3095143,0.0894455,-2.7745478,0.15138786,0.053984284,-0.085230485,-0.4529482,0.26919204,-0.0792073,-0.018387735,0.01301533,-0.27962357,-0.3304063,0.01837556,0.9811411,0.00048335124,1.0712168e-19,1.3976937e-12
71666277,-1.6882691,0.029379534,-1.9973966,-1.6828994,-1.296077,0.097956575,-2.7650087,0.11992259,0.05503349,-0.048993945,-0.3950088,0.16542761,-0.34563392,-0.27969855,-0.22996747,-0.38873452,-0.56777084,0.017940164,0.98157036,0.0004894212,9.6472227e-20,1.2342252e-12
71864903,-1.6822164,0.029332573,-1.9908522,-1.6768864,-1.2909536,0.101290405,-2.7574234,0.023374438,-0.009410262,-0.0808052,-0.42368317,-0.009161055,-0.11753237,-0.04162413,0.031670034,0.012585223,-0.32185566,0.017837923,0.9816739,0.00048814982,8.8760745e-20,1.1770555e-12
72063524,-1.678119,0.029262332,-1.9863482,-1.6728711,-1.287855,0.10182076,-2.7521663,0.060177237,0.0487701,-0.003954202,-0.37203687,-0.033494115,-0.19971085,-0.110201836,-0.013350785,0.07044095,-0.40730035,0.017601667,0.98190683,0.0004915448,8.3541274e-20,1.0959602e-12
72262251,-1.6736629,0.029210966,-1.981624,-1.6684817,-1.284156,0.10351079,-2.746967,0.064703405,0.059667766,0.01858303,-0.302711,-0.029394597,-0.18621963,-0.10630715,-0.01793176,0.07753521,-0.36539054,0.017407067,0.98209804,0.0004949356,8.0330437e-20,1.0359663e-12
72465735,-1.6761942,0.029141946,-1.9836013,-1.67109,-1.2875855,0.097570404,-2.748161,-0.0076312125,0.0068956316,-0.015390635,-0.3435768,-0.15283494,-0.19440466,-0.105919,-0.0004556179,0.18364632,-0.36823577,0.01719312,0.9823092,0.00049762323,7.5134877e-20,9.659669e-13
72664358,-1.6786951,0.029015288,-1.9768362,-1.6737305,-1.3099267,0.07483398,-2.7607524,0.0301691,0.050600886,0.042265117,-0.21352823,-0.10606462,-0.035036802,0.037293077,0.12663704,0.31076396,-0.16670847,0.017208708,0.98229694,0.0004943158,7.032625e-20,9.500312e-13
72862980,-1.6947938,0.029084846,-2.0015185,-1.6897616,-1.307045,0.075481534,-2.7650867,-0.124135315,-0.094236046,-0.08340716,-0.2516049,-0.2552178,-0.20873404,-0.1552217,-0.08364552,0.10988873,-0.28788722,0.016999492,0.98250157,0.0004989328,6.8916365e-20,8.9923734e-13
73061603,-1.696947,0.028997328,-1.9950032,-1.6920611,-1.3288484,0.05386874,-2.7789936,-0.04373178,-0.016031832,0.011764437,0.017176747,-0.11230375,-0.18091655,-0.17197329,-0.1517908,-0.03227049,-0.16575849,0.016960716,0.9825387,0.00050055556,6.987414e-20,8.948323e-13
73265195,-1.6910838,0.028981578,-1.9885991,-1.6862091,-1.3232524,0.059073098,-2.7722669,-0.051274598,-0.018304333,0.040957958,0.28380898,-0.054823745,0.012899101,-0.03632164,-0.08012378,-0.02608776,0.16129386,0.016951125,0.9825499,0.00049901294,6.7225065e-20,8.8296856e-13
73463815,-1.6994201,0.028768118,-1.9952614,-1.6946507,-1.3341126,0.04439781,-2.775812,-0.18702625,-0.0674407,0.114126906,0.6854461,-0.3000486,0.0646925,-0.03676462,-0.10755956,0.20334053,0.43368644,0.016684348,0.98282087,0.0004947138,5.264423e-20,7.741626e-13
73662453,-1.7104429,0.028093211,-2.001649,-1.7061175,-1.3526504,0.011206425,-2.774501,-0.44996303,-0.21093708,0.11679389,0.94467413,-0.7826105,0.09185517,-0.03041172,-0.08099353,0.6581677,0.6535531,0.015437048,0.9840616,0.0005013732,2.8515565e-20,4.814047e-13
73871012,-1.7126522,0.027136026,-1.9962976,-1.7088208,-1.3657329,-0.021957109,-2.7558413,-0.46829858,-0.16275796,0.24214172,1.2012438,-0.94097304,0.07525158,-0.050039053,-0.081937075,0.9005054,0.72713053,0.014090529,0.9854159,0.00049357116,9.85195e-21,2.494026e-13
74064649,-1.7131648,0.026302816,-1.9982649,-1.709695,-1.3565927,-0.036414858,-2.722386,-0.4490983,-0.14529617,0.2524648,1.2043182,-0.9433933,0.19342709,0.079040766,0.0549047,1.0375175,0.82050514,0.012775787,0.986739,0.00048523772,3.0047017e-21,1.2082063e-13
74263272,-1.7132107,0.025613498,-1.9822627,-1.7101371,-1.3866036,-0.080304004,-2.7159207,-0.33438322,-0.07966659,0.2516578,1.0713456,-0.7647713,0.2183106,0.12648821,0.106945515,0.927415,0.73655784,0.011990445,0.98753566,0.00047388554,1.173229e-21,7.1817965e-14
74461896,-1.7146082,0.025322715,-1.9809219,-1.7116677,-1.3918775,-0.09238664,-2.7100022,-0.2653962,-0.087931074,0.14509903,0.763809,-0.5637551,0.08703363,0.0169909,-0.006095171,0.547971,0.46358562,0.011606304,0.98792255,0.00047119084,7.7598013e-22,5.6094174e-14
74660538,-1.7142458,0.025263663,-1.9801261,-1.7113706,-1.392427,-0.09522197,-2.7091293,-0.26494247,-0.18742989,-0.079542294,0.26435316,-0.37756354,0.08486402,0.03859532,0.00919652,0.21729219,0.28778744,0.011388017,0.98813385,0.00047804782,7.474321e-22,5.1336515e-14
