timestamp,timestamp_sample,control[0],control[1],control[2],control[3],control[4],control[5],control[6],control[7]
99739133,99738881,0.00153409,-0.0164273,0.000320127,0.0,0.0,0.0,0.0,-1.0
99740381,99740120,0.000816306,-0.0141811,0.000505711,0.0,0.0,0.0,0.0,-1.0
99840957,99840708,0.00982387,-0.0162178,0.016437,0.0,0.0,0.0,0.0,-1.0
99939015,99938768,0.0238099,-0.0359312,0.00696109,0.0,0.0,0.0,0.0,-1.0
100040807,100040561,0.020764,-0.0396109,-0.00866232,0.0,0.0,0.0,0.0,-1.0
100142609,100142366,0.0211334,-0.00932719,0.00699317,0.0,0.0,0.0,0.0,-1.0
100240694,100240445,-0.0541031,-0.028253,-0.00334532,0.0,0.0,0.0,0.0,-1.0
100341261,100341007,0.0123948,-0.0208142,0.00891532,0.0,0.0,0.0,0.0,-1.0
100439471,100439227,0.0208164,-0.0331819,-0.00928805,0.0,0.0,0.0,0.0,-1.0
100541142,100540890,-0.0789459,-0.00460877,0.00818042,0.0,0.0,0.0,0.0,-1.0
100642945,100642694,0.0276511,-0.00131303,-0.000488861,0.0,0.0,0.0,0.0,-1.0
100743522,100743264,-0.00360104,-0.0874771,-0.00374831,0.0,0.0,0.0,0.0,-1.0
100841580,100841336,0.00815431,0.0406551,0.00751331,0.0,0.0,0.0,0.0,-1.0
100939665,100939416,-0.0171702,-0.0123557,-0.0121191,0.0,0.0,0.0,0.0,-1.0
101041467,101041219,0.0235509,-0.0747689,-0.00614232,0.0,0.0,0.0,0.0,-1.0
101139539,101139298,-0.0559839,0.00331228,0.014462,0.0,0.0,0.0,0.0,-1.0
101241416,101241169,0.0674527,0.0278561,-0.00404803,0.0,0.0,0.0,0.0,-1.0
101339438,101339183,-0.0594027,-0.0584209,-0.00953622,0.0,0.0,0.0,0.0,-1.0
101441243,101440988,-0.013082,0.00307721,0.00431826,0.0,0.0,0.0,0.0,-1.0
101541799,101541550,-0.011742,-0.0292098,0.00669891,0.0,0.0,0.0,0.0,-1.0
101639873,101639628,0.05401,-0.0491329,-0.00513818,0.0,0.0,0.0,0.0,-1.0
101741684,101741432,-0.0331268,-0.00237861,0.00971466,0.0,0.0,0.0,0.0,-1.0
101839754,101839512,0.0227855,0.00540568,-0.0110307,0.0,0.0,0.0,0.0,-1.0
101941571,101941315,0.0256526,-0.112361,-0.00378437,0.0,0.0,0.0,0.0,-1.0
102039671,102039420,-0.0249665,0.015367,0.0134541,0.0,0.0,0.0,0.0,-1.0
102140216,102139960,0.0601826,-0.0292469,0.00467423,0.0,0.0,0.0,0.0,-1.0
102242004,102241762,-0.00854868,-0.0316693,-0.00817258,0.0,0.0,0.0,0.0,-1.0
102340267,102340016,-0.00495714,0.00337575,0.00675327,0.0,0.0,0.0,0.0,-1.0
102441888,102441645,-0.024447,-0.00136716,-0.0101661,0.0,0.0,0.0,0.0,-1.0
102539988,102539730,0.0179303,-0.104043,0.00325363,0.0,0.0,0.0,0.0,-1.0
102640531,102640287,-0.0787384,0.0253782,0.0142194,0.0,0.0,0.0,0.0,-1.0
102742384,102742137,0.0866695,-0.014888,0.00345824,0.0,0.0,0.0,0.0,-1.0
102840414,102840168,-0.0466783,-0.0159922,-0.00616498,0.0,0.0,0.0,0.0,-1.0
102942229,102941975,-0.00661633,0.0231981,0.00375192,0.0,0.0,0.0,0.0,-1.0
103040299,103040054,-0.011157,-0.0234468,-0.00878057,0.0,0.0,0.0,0.0,-1.0
103140991,103140747,0.0489252,-0.110271,0.00172771,0.0,0.0,0.0,0.0,-1.0
103240194,103239940,-0.0973024,0.0273787,0.0126357,0.0,0.0,0.0,0.0,-1.0
103340748,103340501,0.0832891,0.0100973,0.0017168,0.0,0.0,0.0,0.0,-1.0
103442594,103442339,0.0208642,-0.0282966,-0.00731831,0.0,0.0,0.0,0.0,-1.0
103540681,103540434,-0.0151833,-0.0108839,-0.00096119,0.0,0.0,0.0,0.0,-1.0
103642438,103642188,-0.0683641,0.000529789,0.00264122,0.0,0.0,0.0,0.0,-1.0
103740528,103740269,0.0959687,-0.0880751,-0.000237938,0.0,0.0,0.0,0.0,-1.0
103839847,103839591,-0.107756,-0.0300672,0.00720871,0.0,0.0,0.0,0.0,-1.0
103939259,103939005,0.0802412,0.0257581,0.00601634,0.0,0.0,0.0,0.0,-1.0
104040963,104040714,0.019656,-0.000560653,-0.00666519,0.0,0.0,0.0,0.0,-1.0
104142780,104142534,0.0155473,-0.0295637,-0.0122759,0.0,0.0,0.0,0.0,-1.0
104240893,104240646,-0.0693487,-0.012912,0.00914495,0.0,0.0,0.0,0.0,-1.0
104342664,104342402,0.0871181,-0.00876459,0.00581594,0.0,0.0,0.0,0.0,-1.0
104440729,104440483,-0.0466557,-0.0740073,-0.00594584,0.0,0.0,0.0,0.0,-1.0
104541295,104541045,0.0123772,0.00265406,0.00456819,0.0,0.0,0.0,0.0,-1.0
104639366,104639124,-0.0056241,0.0371766,-0.00118184,0.0,0.0,0.0,0.0,-1.0
104741238,104740985,0.0395109,-0.0211166,-0.0124526,0.0,0.0,0.0,0.0,-1.0
104842990,104842745,-0.071759,-0.0990686,-0.00757668,0.0,0.0,0.0,0.0,-1.0
104941064,104940812,0.0204699,0.00248251,0.0162111,0.0,0.0,0.0,0.0,-1.0
105041622,105041375,0.00250957,-0.0353803,0.00181734,0.0,0.0,0.0,0.0,-1.0
105139699,105139451,0.0321182,-0.0276803,-0.0066068,0.0,0.0,0.0,0.0,-1.0
105241502,105241259,-0.0608628,0.00244255,0.00729023,0.0,0.0,0.0,0.0,-1.0
105339591,105339340,0.0384148,-0.0129335,-0.00794732,0.0,0.0,0.0,0.0,-1.0
105441389,105441142,-0.00378686,-0.107604,-0.00296519,0.0,0.0,0.0,0.0,-1.0
105541982,105541728,-0.018734,-0.0212729,0.00765281,0.0,0.0,0.0,0.0,-1.0
105640026,105639785,0.0214081,0.0168865,0.00676935,0.0,0.0,0.0,0.0,-1.0
105741835,105741590,0.0276837,-2.59768e-06,-0.011782,0.0,0.0,0.0,0.0,-1.0
105840100,105839854,-0.0648747,-0.038067,0.00214566,0.0,0.0,0.0,0.0,-1.0
105941715,105941473,-0.0532997,0.0228953,0.0051743,0.0,0.0,0.0,0.0,-1.0
106039804,106039553,0.0698153,-0.0887422,0.00113212,0.0,0.0,0.0,0.0,-1.0
106141597,106141357,-0.0776848,-0.0224757,0.00188612,0.0,0.0,0.0,0.0,-1.0
106239688,106239437,0.0363485,0.0318874,0.00265897,0.0,0.0,0.0,0.0,-1.0
106340241,106339995,0.0184548,-0.021353,-0.00963526,0.0,0.0,0.0,0.0,-1.0
106442049,106441804,0.00918774,-0.0531094,-0.00693721,0.0,0.0,0.0,0.0,-1.0
106540168,106539915,-0.0579427,-0.0131326,0.0108336,0.0,0.0,0.0,0.0,-1.0
106642071,106641828,0.10695,-0.0264842,0.00016125,0.0,0.0,0.0,0.0,-1.0
106740010,106739767,-0.0876903,-0.0319672,0.00150091,0.0,0.0,0.0,0.0,-1.0
106840573,106840330,0.00828399,0.0583487,-0.000325034,0.0,0.0,0.0,0.0,-1.0
106942381,106942135,0.032648,-0.00691918,-0.00102164,0.0,0.0,0.0,0.0,-1.0
107040473,107040221,-0.0123312,-0.0698717,-0.0108187,0.0,0.0,0.0,0.0,-1.0
107142281,107142035,-0.0630475,-0.0752485,0.00681652,0.0,0.0,0.0,0.0,-1.0
107240373,107240125,0.0879274,0.0184558,0.00572049,0.0,0.0,0.0,0.0,-1.0
107342153,107341903,0.0480076,-0.058012,-0.00492422,0.0,0.0,0.0,0.0,-1.0
107439072,107438826,-0.0493794,0.014819,-0.00679976,0.0,0.0,0.0,0.0,-1.0
107540788,107540546,0.026213,-0.00280277,0.00727124,0.0,0.0,0.0,0.0,-1.0
107642595,107642350,-0.013898,-0.00987425,-0.00142083,0.0,0.0,0.0,0.0,-1.0
107740673,107740429,0.00920943,-0.117845,0.000904878,0.0,0.0,0.0,0.0,-1.0
107842519,107842270,-0.0639385,-0.0197986,0.0119137,0.0,0.0,0.0,0.0,-1.0
107940557,107940310,0.0714504,0.022768,0.00223098,0.0,0.0,0.0,0.0,-1.0
108041130,108040877,-0.0263716,-0.0247244,-0.0162376,0.0,0.0,0.0,0.0,-1.0
108139210,108138956,0.0222647,-0.0433473,0.00477781,0.0,0.0,0.0,0.0,-1.0
108241066,108240825,-0.0421041,-0.00820646,0.0103061,0.0,0.0,0.0,0.0,-1.0
108342812,108342565,0.0383712,-0.0346009,-0.00590688,0.0,0.0,0.0,0.0,-1.0
108440888,108440646,-0.0470508,-0.0493477,0.0060336,0.0,0.0,0.0,0.0,-1.0
108541466,108541210,0.0231914,0.0738652,0.00371923,0.00624235,0.0,0.0,0.0,-1.0
108639530,108639288,0.010048,-0.0609451,-0.0118241,0.0337087,0.0,0.0,0.0,-1.0
108741338,108741092,-0.0286925,-0.0537664,-0.0195308,0.039951,0.0,0.0,0.0,-1.0
108839426,108839177,0.0839899,-0.0722447,-0.0225786,0.0449449,0.0,0.0,0.0,-1.0
108941225,108940976,0.130672,-0.0479931,0.00203212,0.0536842,0.0,0.0,0.0,-1.0
109043060,109042813,-0.108439,0.158631,-0.0166662,0.169474,0.0,0.0,0.0,-1.0
109141101,109140861,0.121694,-0.0376579,-0.0172755,0.166316,0.0,0.0,0.0,-1.0
109241670,109241424,0.0476653,-0.130235,0.00767423,0.162105,0.0,0.0,0.0,-1.0
109339904,109339662,0.0834745,-0.072378,0.00539263,0.162105,0.0,0.0,0.0,-1.0
109441563,109441309,0.245648,-0.0640829,-0.00122851,0.162105,0.0,0.0,0.0,-1.0
109539635,109539388,0.326785,-0.114278,0.00179852,0.162105,0.0,0.0,0.0,-1.0
109641442,109641197,-0.0848869,-0.0122882,-0.00293466,0.162105,0.0,0.0,0.0,-1.0
109742003,109741756,-0.0588478,0.0203525,-0.0033175,0.162105,0.0,0.0,0.0,-1.0
109840082,109839835,0.175929,-0.100868,-0.00122475,0.162105,0.0,0.0,0.0,-1.0
109941888,109941640,0.120289,-0.137609,0.00197521,0.162105,0.0,0.0,0.0,-1.0
110039969,110039720,-0.0353182,-0.0628438,0.00566475,0.162105,0.0,0.0,0.0,-1.0
110141900,110141656,-0.135175,0.0520929,0.000509189,0.162105,0.0,0.0,0.0,-1.0
110239856,110239607,0.114797,-0.0584671,-0.00661941,0.162105,0.0,0.0,0.0,-1.0
110341666,110341409,-0.101376,-0.0493339,-0.00577146,0.162105,0.0,0.0,0.0,-1.0
110442228,110441977,0.143776,-0.159636,0.00121245,0.162105,0.0,0.0,0.0,-1.0
110540297,110540052,-0.16627,0.0105757,0.00415192,0.161053,0.0,0.0,0.0,-1.0
110642106,110641857,-0.0660133,0.0805322,0.00443183,0.158947,0.0,0.0,0.0,-1.0
110740194,110739939,0.0258757,-0.040419,-0.00565876,0.171579,0.0,0.0,0.0,-1.0
110841992,110841742,0.0699859,-0.204171,-0.0031013,0.172632,0.0,0.0,0.0,-1.0
110940173,110939910,-0.0325475,-0.0530943,0.0124551,0.213684,0.0,0.0,0.0,-1.0
111040641,111040385,-0.00927381,-0.112656,0.00798078,0.214737,0.0,0.0,0.0,-1.0
111142438,111142196,0.153515,-0.0705174,-0.00743794,0.222105,0.0,0.0,0.0,-1.0
111240512,111240268,-0.0490276,-0.00974941,-0.000141986,0.230526,0.0,0.0,0.0,-1.0
111342320,111342073,-0.206736,-0.0152185,0.00373379,0.224211,0.0,0.0,0.0,-1.0
111440405,111440160,-0.214759,-0.0620213,0.0104766,0.224211,0.0,0.0,0.0,-1.0
111542218,111541959,-0.0161004,-0.108916,-0.000148856,0.224211,0.0,0.0,0.0,-1.0
111640284,111640038,-0.0742268,-0.0395844,0.00237056,0.224211,0.0,0.0,0.0,-1.0
111740956,111740705,-0.198531,-0.0498554,-0.00028882,0.224211,0.0,0.0,0.0,-1.0
111842664,111842411,-0.0287423,-0.117195,0.00313288,0.224211,0.0,0.0,0.0,-1.0
111940730,111940486,-0.130681,-0.0836083,0.00908342,0.224211,0.0,0.0,0.0,-1.0
112042547,112042291,0.0774439,-0.144876,-0.000946558,0.224211,0.0,0.0,0.0,-1.0
112140614,112140370,0.259445,-0.155865,0.00166285,0.224211,0.0,0.0,0.0,-1.0
112241184,112240937,0.0898245,-0.000612966,-0.00545552,0.223158,0.0,0.0,0.0,-1.0
112339283,112339038,-0.00563921,-0.0413671,0.00537851,0.224211,0.0,0.0,0.0,-1.0
112441068,112440823,0.0231723,-0.108122,0.00504788,0.224211,0.0,0.0,0.0,-1.0
112542940,112542697,0.10358,-0.115071,0.00216146,0.232632,0.0,0.0,0.0,-1.0
112640948,112640703,0.0697981,-0.143557,0.00719622,0.24,0.0,0.0,0.0,-1.0
112741511,112741266,0.0073172,-0.0822775,0.00843366,0.238947,0.0,0.0,0.0,-1.0
112839760,112839510,-0.0331886,-0.011532,0.00541836,0.248421,0.0,0.0,0.0,-1.0
112941400,112941151,-0.0150375,-0.13463,0.00710498,0.249474,0.0,0.0,0.0,-1.0
113039503,113039253,-0.00537339,-0.120796,0.000674304,0.269474,0.0,0.0,0.0,-1.0
113141331,113141087,-0.255771,-0.0130803,0.00547883,0.275789,0.0,0.0,0.0,-1.0
113239367,113239117,0.113973,-0.150299,0.00262793,0.269474,0.0,0.0,0.0,-1.0
113341170,113340921,-0.215132,-0.0605552,0.0102219,0.269474,0.0,0.0,0.0,-1.0
113441725,113441484,-0.0463189,-0.115902,-0.000575807,0.269474,0.0,0.0,0.0,-1.0
113539815,113539565,-0.0155187,-0.0458624,0.0054117,0.269474,0.0,0.0,0.0,-1.0
113641744,113641497,-0.0508864,-0.193292,0.00465876,0.269474,0.0,0.0,0.0,-1.0
113739698,113739452,0.0516024,-0.0479148,-0.0111671,0.269474,0.0,0.0,0.0,-1.0
113841503,113841257,-0.048736,-0.123969,0.00280331,0.267368,0.0,0.0,0.0,-1.0
113939616,113939373,0.14052,-0.201496,0.00111386,0.266316,0.0,0.0,0.0,-1.0
114040166,114039902,-0.104082,-0.0448735,0.0057662,0.266316,0.0,0.0,0.0,-1.0
114141950,114141703,0.121409,-0.224133,0.00582808,0.266316,0.0,0.0,0.0,-1.0
114240032,114239782,0.107354,-0.0720136,-0.00504808,0.267368,0.0,0.0,0.0,-1.0
114341835,114341587,-0.0810513,-0.133822,0.00549834,0.266316,0.0,0.0,0.0,-1.0
114440045,114439799,0.0656482,-0.20182,0.00155773,0.266316,0.0,0.0,0.0,-1.0
114541726,114541476,-0.135587,-0.0176975,0.00349486,0.275789,0.0,0.0,0.0,-1.0
114642281,114642035,0.159063,-0.157511,-0.00798292,0.277895,0.0,0.0,0.0,-1.0
114740401,114740145,0.0024077,-0.00233677,0.0105617,0.301053,0.0,0.0,0.0,-1.0
114842166,114841921,0.115755,-0.155262,-0.000219678,0.309474,0.0,0.0,0.0,-1.0
114940255,114940002,-0.17701,-0.0367029,0.000996842,0.313684,0.0,0.0,0.0,-1.0
115042061,115041805,-0.0156417,-0.0768484,0.00260181,0.313684,0.0,0.0,0.0,-1.0
115140129,115139886,0.110124,-0.290438,0.00414224,0.316842,0.0,0.0,0.0,-1.0
115240762,115240507,-0.0469098,-0.149156,0.0167048,0.336842,0.0,0.0,0.0,-1.0
115342498,115342254,-0.112898,-0.0596835,0.00874039,0.337895,0.0,0.0,0.0,-1.0
115440581,115440335,-0.0757353,-0.0331281,0.00667992,0.337895,0.0,0.0,0.0,-1.0
115542387,115542138,-0.0991913,-0.0418344,0.0103096,0.342105,0.0,0.0,0.0,-1.0
115640476,115640225,0.0249454,-0.071649,-0.00801988,0.344211,0.0,0.0,0.0,-1.0
115741030,115740786,0.0685965,-0.134865,0.00421532,0.368421,0.0,0.0,0.0,-1.0
115840359,115840108,0.0208273,-0.10121,-0.00989204,0.367368,0.0,0.0,0.0,-1.0
115940919,115940668,-0.0244854,-0.0649437,0.00931466,0.369474,0.0,0.0,0.0,-1.0
116042758,116042513,-0.0493417,-0.0905079,0.00789415,0.370526,0.0,0.0,0.0,-1.0
116140804,116140553,0.00310283,-0.1434,0.0083024,0.383158,0.0,0.0,0.0,-1.0
116242610,116242358,0.118672,-0.151376,0.00791397,0.383158,0.0,0.0,0.0,-1.0
116339598,116339353,0.057998,-0.175655,0.00100193,0.382105,0.0,0.0,0.0,-1.0
116441295,116441048,-0.0577586,-0.0573988,0.00454586,0.382105,0.0,0.0,0.0,-1.0
116539324,116539081,-0.0999568,-0.0529267,0.00842096,0.377895,0.0,0.0,0.0,-1.0
116641156,116640907,-0.0222757,-0.124095,0.00465347,0.389474,0.0,0.0,0.0,-1.0
116742939,116742691,0.014075,-0.107941,-0.00505607,0.391579,0.0,0.0,0.0,-1.0
116841015,116840767,-0.036804,-0.136222,0.00124673,0.403158,0.0,0.0,0.0,-1.0
116939116,116938853,-0.0462046,-0.0718403,0.00827142,0.408421,0.0,0.0,0.0,-1.0
117039679,117039421,0.046261,-0.203443,-0.00115578,0.413684,0.0,0.0,0.0,-1.0
117141657,117141413,-0.103964,-0.0864337,0.0137615,0.413684,0.0,0.0,0.0,-1.0
117239548,117239301,0.00446306,-0.208868,0.00257633,0.413684,0.0,0.0,0.0,-1.0
117341356,117341106,-0.00364394,-0.0743734,0.00919758,0.413684,0.0,0.0,0.0,-1.0
117439438,117439186,0.0190197,-0.124209,0.0149552,0.412632,0.0,0.0,0.0,-1.0
117539997,117539749,0.0529405,-0.146863,0.00212893,0.407368,0.0,0.0,0.0,-1.0
117641817,117641555,0.0424401,-0.150287,0.00612061,0.409474,0.0,0.0,0.0,-1.0
117739882,117739635,-0.00218667,-0.20618,0.00139424,0.412632,0.0,0.0,0.0,-1.0
117841690,117841440,0.122571,-0.161837,0.0044086,0.414737,0.0,0.0,0.0,-1.0
117939894,117939652,0.0979715,-0.182839,0.00673895,0.42,0.0,0.0,0.0,-1.0
118041576,118041326,0.0246292,-0.15684,0.00262248,0.42,0.0,0.0,0.0,-1.0
118139658,118139405,-0.0720566,-0.0964484,0.00630007,0.427368,0.0,0.0,0.0,-1.0
118240231,118239969,0.0654585,-0.15655,0.00317932,0.431579,0.0,0.0,0.0,-1.0
118342019,118341774,-0.0632539,-0.075784,0.0140059,0.434737,0.0,0.0,0.0,-1.0
118440104,118439858,-0.0308772,-0.0646644,0.0053409,0.44,0.0,0.0,0.0,-1.0
118541905,118541660,-0.0753172,-0.0808753,0.00837316,0.453684,0.0,0.0,0.0,-1.0
118639988,118639740,-0.000474639,-0.0730731,0.0100625,0.457895,0.0,0.0,0.0,-1.0
118740600,118740356,0.00353276,-0.09878,0.00992089,0.471579,0.0,0.0,0.0,-1.0
118842368,118842114,-0.0638668,-0.0593664,0.00112393,0.471579,0.0,0.0,0.0,-1.0
118940440,118940190,-0.0822921,-0.0481701,0.010021,0.471579,0.0,0.0,0.0,-1.0
119042250,119041994,0.0439873,-0.106072,0.00158883,0.475789,0.0,0.0,0.0,-1.0
119140323,119140074,0.0122489,-0.109087,-0.00633741,0.48,0.0,0.0,0.0,-1.0
119242129,119241880,0.000417106,-0.0786413,0.00648726,0.487368,0.0,0.0,0.0,-1.0
119340221,119339961,0.0568968,-0.115622,-0.00193969,0.5,0.0,0.0,0.0,-1.0
119440769,119440524,-0.0716366,-0.0469889,0.0133725,0.497895,0.0,0.0,0.0,-1.0
119542624,119542359,-0.113958,-0.0277335,0.0121652,0.497895,0.0,0.0,0.0,-1.0
119640654,119640409,0.0669296,-0.0866551,0.00301216,0.5,0.0,0.0,0.0,-1.0
119742462,119742214,0.0149256,-0.073397,0.0053689,0.508421,0.0,0.0,0.0,-1.0
119840705,119840454,0.0537271,-0.112875,-0.00493527,0.507368,0.0,0.0,0.0,-1.0
119941106,119940858,-0.0226602,-0.0336924,-0.0121039,0.507368,0.0,0.0,0.0,-1.0
120039240,120038985,0.0186129,-0.063821,-0.00921418,0.506316,0.0,0.0,0.0,-1.0
120140987,120140744,-0.0328544,-0.0527584,-0.00275526,0.511799,0.0,0.0,0.0,-1.0
120242798,120242550,-0.122128,-0.025367,0.026575,0.511799,0.0,0.0,0.0,-1.0
120340916,120340662,0.018594,-0.0231938,0.017227,0.511799,0.0,0.0,0.0,-1.0
120442685,120442435,-0.0814124,-0.00577877,0.0140519,0.504211,0.0,0.0,0.0,-1.0
120539520,120539274,-0.0956015,-0.0742144,0.0269434,0.504211,0.0,0.0,0.0,-1.0
120641460,120641217,-0.0272085,-0.026057,0.00663985,0.508421,0.0,0.0,0.0,-1.0
120739412,120739162,-0.113907,0.00875022,0.0215682,0.507368,0.0,0.0,0.0,-1.0
120841223,120840966,0.035577,-0.0804628,0.0162599,0.507368,0.0,0.0,0.0,-1.0
120943014,120942770,-0.0128536,-0.0636105,0.0110761,0.508421,0.0,0.0,0.0,-1.0
121041103,121040851,0.11194,-0.121394,0.0166622,0.529792,0.0,0.0,0.0,-1.0
121141662,121141415,0.0725175,-0.0937562,0.022008,0.530991,0.0,0.0,0.0,-1.0
121241019,121240766,0.0313943,-0.0576768,0.0370503,0.536989,0.0,0.0,0.0,-1.0
121341544,121341300,-0.0461304,-0.030494,0.0210962,0.538188,0.0,0.0,0.0,-1.0
121439714,121439465,0.00355272,-0.0535261,0.024729,0.538188,0.0,0.0,0.0,-1.0
121541433,121541186,-0.00801358,-0.058452,0.033678,0.535789,0.0,0.0,0.0,-1.0
121642037,121641789,-0.0319069,0.00609705,0.0280017,0.53459,0.0,0.0,0.0,-1.0
121740069,121739830,-0.0774672,-0.0466262,0.0260821,0.53459,0.0,0.0,0.0,-1.0
121841881,121841635,-0.0588973,-0.0217406,0.0147639,0.540587,0.0,0.0,0.0,-1.0
121939977,121939716,-0.0138515,-0.0543913,0.0444603,0.551383,0.0,0.0,0.0,-1.0
122041774,122041521,0.0153512,-0.0027325,0.0164783,0.556181,0.0,0.0,0.0,-1.0
122139844,122139602,0.019549,-0.0357463,0.0130922,0.577772,0.0,0.0,0.0,-1.0
122240469,122240225,-0.17746,0.0111873,-0.00467425,0.577772,0.0,0.0,0.0,-1.0
122342226,122341972,-0.152232,0.0486359,-0.0167389,0.577772,0.0,0.0,0.0,-1.0
122440306,122440065,-0.0441201,-0.00975119,-0.0212029,0.577772,0.0,0.0,0.0,-1.0
122542103,122541857,-0.104719,0.0273571,-0.019066,0.576573,0.0,0.0,0.0,-1.0
122640191,122639937,0.0480691,-0.0541378,-0.0228087,0.576573,0.0,0.0,0.0,-1.0
122741984,122741742,0.00950732,-0.0144722,-0.026656,0.562179,0.0,0.0,0.0,-1.0
122840071,122839823,-0.0491509,-0.0217174,-0.0405699,0.557381,0.0,0.0,0.0,-1.0
122940634,122940387,-0.0681731,-0.00628785,-0.0350278,0.560979,0.0,0.0,0.0,-1.0
123042483,123042233,0.10746,-0.0619504,-0.0391258,0.575373,0.0,0.0,0.0,-1.0
123140519,123140273,-0.07929,-0.00137641,-0.0370669,0.574174,0.0,0.0,0.0,-1.0
123242328,123242079,0.0396394,-0.058956,-0.0281253,0.575373,0.0,0.0,0.0,-1.0
123340565,123340317,-0.151345,-0.00795596,-0.0343591,0.574174,0.0,0.0,0.0,-1.0
123442230,123441965,-0.000651982,-0.0458605,-0.0272213,0.574174,0.0,0.0,0.0,-1.0
123540299,123540045,-0.0853744,-0.0286588,-0.0205708,0.574174,0.0,0.0,0.0,-1.0
123640853,123640612,0.00550834,-0.0604559,-0.0293399,0.572974,0.0,0.0,0.0,-1.0
123742664,123742415,-0.108921,-0.0162953,-0.026102,0.574174,0.0,0.0,0.0,-1.0
123840740,123840496,-0.0777388,-0.028074,-0.0325796,0.572974,0.0,0.0,0.0,-1.0
123942573,123942325,-0.175653,0.0267695,-0.0423193,0.563378,0.0,0.0,0.0,-1.0
124040642,124040385,-0.122364,0.0338451,-0.0285467,0.564578,0.0,0.0,0.0,-1.0
124141334,124141086,-0.0533492,-0.00668865,-0.0259916,0.563378,0.0,0.0,0.0,-1.0
124239278,124239027,-0.0812559,-0.0128947,-0.0244312,0.565777,0.0,0.0,0.0,-1.0
124341080,124340834,-0.0400118,-0.0344023,-0.0202842,0.564578,0.0,0.0,0.0,-1.0
124442883,124442636,-0.00660662,-0.0283265,-0.0169097,0.565777,0.0,0.0,0.0,-1.0
124540970,124540718,-0.00967863,-0.0143923,-0.011652,0.565777,0.0,0.0,0.0,-1.0
124641531,124641281,-0.117672,-0.00859135,-0.0210103,0.568176,0.0,0.0,0.0,-1.0
124739625,124739371,-0.0126685,-0.0162864,-0.0190417,0.575373,0.0,0.0,0.0,-1.0
124841415,124841168,-0.0350574,-0.0234487,-0.0165426,0.578972,0.0,0.0,0.0,-1.0
124939585,124939339,0.0104045,-0.0320414,-0.0233534,0.578972,0.0,0.0,0.0,-1.0
125041301,125041054,-0.0197923,-0.0224744,-0.0223649,0.581371,0.0,0.0,0.0,-1.0
125143110,125142859,-0.00820924,-0.0544815,-0.0195055,0.581371,0.0,0.0,0.0,-1.0
125241189,125240940,-0.0497623,-0.0325285,-0.0244796,0.581371,0.0,0.0,0.0,-1.0
125341757,125341504,-0.0065351,-0.0674999,-0.0235308,0.581371,0.0,0.0,0.0,-1.0
125439871,125439629,-0.0372786,-0.0039733,-0.0232008,0.581371,0.0,0.0,0.0,-1.0
125541639,125541391,-0.0373138,-0.0468685,-0.0229759,0.580171,0.0,0.0,0.0,-1.0
125639726,125639472,0.0163048,-0.0189312,-0.0178793,0.578972,0.0,0.0,0.0,-1.0
125741633,125741390,-0.189691,0.0185301,-0.0246923,0.578972,0.0,0.0,0.0,-1.0
125842085,125841841,0.0713102,-0.0342926,-0.020843,0.578972,0.0,0.0,0.0,-1.0
125940175,125939923,-0.0608678,-0.0261064,-0.020546,0.574174,0.0,0.0,0.0,-1.0
126041985,126041727,-0.0768103,-0.0153346,-0.0281343,0.575373,0.0,0.0,0.0,-1.0
126140052,126139808,-0.0621407,-0.0403598,-0.0245748,0.574174,0.0,0.0,0.0,-1.0
126241857,126241613,-0.0816956,-0.0207455,-0.0201358,0.574174,0.0,0.0,0.0,-1.0
126339944,126339694,-0.0225439,-0.0399187,-0.0195812,0.569376,0.0,0.0,0.0,-1.0
126440504,126440258,-0.0914211,-0.00594252,-0.0195414,0.55978,0.0,0.0,0.0,-1.0
126542343,126542091,0.0420362,-0.054309,-0.0269816,0.55978,0.0,0.0,0.0,-1.0
126640397,126640144,0.0423874,-0.0383672,-0.052174,0.564578,0.0,0.0,0.0,-1.0
126742210,126741950,-0.146499,0.00916809,-0.0410153,0.55978,0.0,0.0,0.0,-1.0
126840431,126840189,-0.0431899,-0.0175943,0.00303986,0.557381,0.0,0.0,0.0,-1.0
126942086,126941838,0.0279924,-0.0363596,-0.0128105,0.563378,0.0,0.0,0.0,-1.0
127040191,127039923,-0.00765392,-0.0226081,-0.00913734,0.563378,0.0,0.0,0.0,-1.0
127140753,127140497,0.0386496,-0.0475266,-0.0136095,0.564578,0.0,0.0,0.0,-1.0
127242531,127242287,-0.0716926,-0.0147522,-0.0151091,0.564578,0.0,0.0,0.0,-1.0
127340623,127340373,-0.0209179,-0.0460686,-0.00296264,0.564578,0.0,0.0,0.0,-1.0
127442428,127442182,0.0103088,-0.024943,0.0688603,0.563378,0.0,0.0,0.0,-1.0
127540503,127540258,0.0567098,-0.006716,0.0772892,0.563378,0.0,0.0,0.0,-1.0
127641200,127640948,-0.0362864,0.0123677,0.0673679,0.563378,0.0,0.0,0.0,-1.0
127739150,127738901,-0.0326366,-0.00617359,0.0330616,0.564578,0.0,0.0,0.0,-1.0
127840954,127840705,0.035996,-0.0441749,-0.0633369,0.595765,0.0,0.0,0.0,-1.0
127939032,127938786,0.00353363,-0.0143623,-0.0509853,0.595765,0.0,0.0,0.0,-1.0
128040849,128040594,0.0281538,-0.0527436,-0.0468064,0.596964,0.0,0.0,0.0,-1.0
128142661,128142398,-0.0794538,-0.0210414,-0.0469856,0.596964,0.0,0.0,0.0,-1.0
128240731,128240479,0.0193892,-0.0172287,-0.038793,0.596964,0.0,0.0,0.0,-1.0
128341303,128341043,-0.0206465,-0.00107891,-0.0458063,0.593366,0.0,0.0,0.0,-1.0
128439453,128439210,-0.0379398,0.00674253,-0.0368161,0.542987,0.0,0.0,0.0,-1.0
128541186,128540931,0.0566119,-0.0397683,-0.0402183,0.540587,0.0,0.0,0.0,-1.0
128642980,128642735,0.00134094,-0.0282603,-0.0387557,0.541787,0.0,0.0,0.0,-1.0
128741110,128740859,0.0675408,-0.0690471,-0.0351382,0.540587,0.0,0.0,0.0,-1.0
128841644,128841398,0.014111,-0.0668208,-0.0358143,0.542987,0.0,0.0,0.0,-1.0
128939705,128939462,0.0316286,-0.0205417,-0.0298621,0.542987,0.0,0.0,0.0,-1.0
129042767,129042510,-0.0651378,0.00579388,-0.0405156,0.541787,0.0,0.0,0.0,-1.0
129139592,129139348,0.0934877,-0.0632032,-0.0374936,0.541787,0.0,0.0,0.0,-1.0
129241506,129241257,-0.158197,0.00541354,-0.0279456,0.544186,0.0,0.0,0.0,-1.0
129339483,129339235,-0.163353,-0.0138827,-0.0266647,0.544186,0.0,0.0,0.0,-1.0
129440057,129439814,-0.0309544,-0.0125918,-0.0229031,0.544186,0.0,0.0,0.0,-1.0
129541891,129541651,-0.0170175,-0.0244064,-0.0289339,0.544186,0.0,0.0,0.0,-1.0
129639929,129639686,-0.0126511,-0.0147993,-0.0233413,0.542987,0.0,0.0,0.0,-1.0
129741737,129741491,-0.0346249,-0.0311113,-0.0160883,0.544186,0.0,0.0,0.0,-1.0
129839815,129839573,-0.00911561,-0.0735749,-0.0162557,0.544186,0.0,0.0,0.0,-1.0
129941635,129941379,-0.108716,0.0156018,-0.0176852,0.55978,0.0,0.0,0.0,-1.0
130042225,130041972,0.0652128,-0.0144076,-0.00766465,0.55978,0.0,0.0,0.0,-1.0
130140328,130140075,-0.0240558,-0.0420324,-0.0117489,0.55978,0.0,0.0,0.0,-1.0
130242077,130241835,0.0586663,-0.0531168,-0.00423426,0.55858,0.0,0.0,0.0,-1.0
130340311,130340067,-0.0249024,-0.0101498,-0.0126663,0.569376,0.0,0.0,0.0,-1.0
130441973,130441716,-0.0593368,-0.0382774,-0.00924763,0.569376,0.0,0.0,0.0,-1.0
130540042,130539798,0.0626781,-0.0515642,-0.0141805,0.571775,0.0,0.0,0.0,-1.0
130640609,130640361,-0.0634939,0.00228142,-0.012543,0.572974,0.0,0.0,0.0,-1.0
130742415,130742167,-0.0660725,-0.02656,-0.0221399,0.572974,0.0,0.0,0.0,-1.0
130840594,130840350,-0.0105949,-0.0363459,-0.0129599,0.572974,0.0,0.0,0.0,-1.0
130942296,130942054,0.0410964,-0.0264472,-0.0291543,0.571775,0.0,0.0,0.0,-1.0
131040450,131040200,-0.132053,0.0281047,-0.0617297,0.572974,0.0,0.0,0.0,-1.0
131141137,131140884,0.0623436,-0.0371629,-0.0133851,0.572974,0.0,0.0,0.0,-1.0
131240272,131240023,-0.049868,-0.0333688,-0.0178893,0.572974,0.0,0.0,0.0,-1.0
131340836,131340587,0.0789144,-0.0820149,-0.0120553,0.572974,0.0,0.0,0.0,-1.0
131442638,131442393,-0.0060909,-0.0560908,-0.0054198,0.569376,0.0,0.0,0.0,-1.0
131540721,131540475,-0.0286901,-0.00675046,-0.00972039,0.571775,0.0,0.0,0.0,-1.0
131642527,131642287,-0.0232966,-0.0466143,-0.0097901,0.571775,0.0,0.0,0.0,-1.0
131740615,131740361,0.062818,-0.0294293,-0.00607746,0.571775,0.0,0.0,0.0,-1.0
131841168,131840925,0.0874156,-0.0678391,-0.00143084,0.572974,0.0,0.0,0.0,-1.0
131939359,131939101,-0.105962,0.000872774,-0.00187982,0.572974,0.0,0.0,0.0,-1.0
132041065,132040814,-0.0852691,-0.00290937,-0.00800187,0.572974,0.0,0.0,0.0,-1.0
132142864,132142618,-0.0430991,-0.00102598,-0.0120606,0.572974,0.0,0.0,0.0,-1.0
132240945,132240699,-0.0259863,-0.0281097,-0.0090438,0.572974,0.0,0.0,0.0,-1.0
132341509,132341265,0.0132504,-0.0438924,-0.0196521,0.572974,0.0,0.0,0.0,-1.0
132439595,132439351,-0.142236,0.0261988,-0.0141729,0.572974,0.0,0.0,0.0,-1.0
132541396,132541151,-0.0291685,-0.0607168,-0.0209923,0.572974,0.0,0.0,0.0,-1.0
132639478,132639233,-0.117624,-0.0147493,-0.0154471,0.572974,0.0,0.0,0.0,-1.0
132741348,132741098,0.00576254,-0.0473069,-0.0273957,0.572974,0.0,0.0,0.0,-1.0
132843091,132842844,0.0730722,-0.078502,-0.0228056,0.574174,0.0,0.0,0.0,-1.0
132941197,132940944,0.0633513,-0.0429974,-0.0297199,0.574174,0.0,0.0,0.0,-1.0
133041733,133041487,-0.0207528,-0.0223801,-0.0245827,0.572974,0.0,0.0,0.0,-1.0
133139827,133139574,-0.0229791,-0.0633952,-0.0261116,0.572974,0.0,0.0,0.0,-1.0
133241618,133241377,-0.00521946,-0.0137713,-0.0169381,0.572974,0.0,0.0,0.0,-1.0
133339705,133339458,-0.021366,0.0149744,-0.0309174,0.571775,0.0,0.0,0.0,-1.0
133441512,133441264,0.0504432,-0.0395328,-0.0184458,0.572974,0.0,0.0,0.0,-1.0
133539725,133539477,-0.0228145,-0.0148727,-0.0245198,0.571775,0.0,0.0,0.0,-1.0
133640165,133639911,0.0117935,-0.0567197,-0.0117248,0.572974,0.0,0.0,0.0,-1.0
133741964,133741716,-0.0701713,-0.0225887,-0.0204683,0.572974,0.0,0.0,0.0,-1.0
133840201,133839950,0.0642833,-0.039219,-0.0223629,0.572974,0.0,0.0,0.0,-1.0
133941849,133941603,-0.0418721,0.00206,-0.026988,0.572974,0.0,0.0,0.0,-1.0
134039932,134039686,0.055776,-0.0642859,-0.0226856,0.572974,0.0,0.0,0.0,-1.0
134140495,134140249,-0.0346727,-0.0426167,-0.0270815,0.571775,0.0,0.0,0.0,-1.0
134238578,134238331,-0.0116399,-0.0433686,-0.0250866,0.572974,0.0,0.0,0.0,-1.0
134340431,134340185,-0.0383048,-0.0477175,-0.0250732,0.572974,0.0,0.0,0.0,-1.0
134442187,134441942,-0.145591,-0.0114342,-0.0224349,0.572974,0.0,0.0,0.0,-1.0
134540282,134540027,0.0181413,-0.0181163,-0.0210961,0.572974,0.0,0.0,0.0,-1.0
134642232,134641969,-0.127153,-0.0475089,-0.0210472,0.574174,0.0,0.0,0.0,-1.0
134740166,134739912,0.0358941,-0.0458016,-0.0219872,0.574174,0.0,0.0,0.0,-1.0
134840718,134840475,-0.102116,-0.0182857,-0.018473,0.572974,0.0,0.0,0.0,-1.0
134942527,134942282,0.0633355,-0.0814062,-0.0265485,0.574174,0.0,0.0,0.0,-1.0
135040610,135040363,-0.136034,0.0108676,-0.0230641,0.571775,0.0,0.0,0.0,-1.0
135142414,135142169,-0.1009,0.0254626,-0.0300418,0.571775,0.0,0.0,0.0,-1.0
135240498,135240250,-0.0799077,-0.023962,-0.0153453,0.571775,0.0,0.0,0.0,-1.0
135341064,135340816,-0.0429106,-0.0392086,-0.0253421,0.571775,0.0,0.0,0.0,-1.0
135439224,135438975,-0.074661,-0.0305211,-0.0114913,0.571775,0.0,0.0,0.0,-1.0
135540955,135540702,-0.142546,-0.00811326,-0.0159583,0.571775,0.0,0.0,0.0,-1.0
135642754,135642509,0.00190003,-0.0596729,-0.0145494,0.571775,0.0,0.0,0.0,-1.0
135740845,135740591,0.00396263,-0.0659492,-0.00538681,0.571775,0.0,0.0,0.0,-1.0
135842642,135842397,-0.0187054,-0.0292219,-0.00720134,0.571775,0.0,0.0,0.0,-1.0
135940735,135940477,-0.0159616,-0.0673317,-0.00183984,0.571775,0.0,0.0,0.0,-1.0
136041287,136041042,-0.0587329,-0.0583588,-0.0136876,0.571775,0.0,0.0,0.0,-1.0
136139371,136139124,-0.0653363,-0.0168805,-0.0109271,0.571775,0.0,0.0,0.0,-1.0
136241270,136241027,-0.178819,-0.0181496,-0.0161345,0.571775,0.0,0.0,0.0,-1.0
136342986,136342736,-0.0329224,-0.0739015,-0.0166467,0.571775,0.0,0.0,0.0,-1.0
136441113,136440863,-0.0741691,-0.0364185,-0.0130954,0.571775,0.0,0.0,0.0,-1.0
136541656,136541411,0.105353,-0.077181,-0.0135919,0.571775,0.0,0.0,0.0,-1.0
136639730,136639484,-0.0314782,-0.0536112,-0.0185076,0.571775,0.0,0.0,0.0,-1.0
136741510,136741270,0.0164984,-0.0396331,-0.0116145,0.572974,0.0,0.0,0.0,-1.0
136839604,136839353,0.0607425,-0.0804317,-0.0156102,0.574174,0.0,0.0,0.0,-1.0
136941404,136941163,0.0101613,-0.0663839,-0.0103972,0.574174,0.0,0.0,0.0,-1.0
137042055,137041806,-0.0186093,-0.0512674,-0.0147903,0.572974,0.0,0.0,0.0,-1.0
137140043,137139803,-0.185897,0.0035929,-0.0150351,0.572974,0.0,0.0,0.0,-1.0
137241856,137241611,-0.0437047,-0.0765704,-0.0160495,0.572974,0.0,0.0,0.0,-1.0
137340092,137339844,-0.042968,-0.0382667,-0.0058719,0.571775,0.0,0.0,0.0,-1.0
137441742,137441497,-0.0485141,-0.0174647,-0.0169741,0.571775,0.0,0.0,0.0,-1.0
137539830,137539582,-0.169912,-0.0586683,4.86167e-05,0.571775,0.0,0.0,0.0,-1.0
137641636,137641388,-0.0968044,-0.0379046,-0.0130748,0.556181,0.0,0.0,0.0,-1.0
137739721,137739468,-0.144416,-0.00898822,-0.00592115,0.544186,0.0,0.0,0.0,-1.0
137840332,137840074,0.0396381,-0.0836207,-0.000794974,0.545386,0.0,0.0,0.0,-1.0
137942083,137941837,-0.0377242,-0.059606,-0.0150251,0.544186,0.0,0.0,0.0,-1.0
138040182,138039919,0.0680987,-0.0522954,-0.0156435,0.544186,0.0,0.0,0.0,-1.0
138142098,138141852,-0.00453903,-0.0449716,-0.00644168,0.538188,0.0,0.0,0.0,-1.0
138240108,138239858,-0.0167625,-0.0407422,-0.0107592,0.5106,0.0,0.0,0.0,-1.0
138340617,138340372,-0.183372,-0.0450661,-0.0081289,0.509474,0.0,0.0,0.0,-1.0
138442432,138442178,-0.0746095,0.0251407,-0.0148619,0.511799,0.0,0.0,0.0,-1.0
138540501,138540259,0.00466585,-0.0606461,-0.018342,0.511799,0.0,0.0,0.0,-1.0
138642316,138642066,-0.0619736,-0.0443001,-0.015596,0.514198,0.0,0.0,0.0,-1.0
138740411,138740148,-0.0202054,-0.103686,-0.0104161,0.529792,0.0,0.0,0.0,-1.0
138842209,138841953,0.0458166,-0.0984174,-0.017242,0.528592,0.0,0.0,0.0,-1.0
138939181,138938933,-0.0424979,-0.0571261,0.00057433,0.529792,0.0,0.0,0.0,-1.0
139040843,139040600,0.0291799,-0.129661,0.000379524,0.564578,0.0,0.0,0.0,-1.0
139142655,139142406,-0.176001,-0.0311845,0.00921284,0.574174,0.0,0.0,0.0,-1.0
139240735,139240488,-0.0293846,-0.11265,0.0152957,0.594565,0.0,0.0,0.0,-1.0
139342541,139342294,-0.0709352,-0.0948408,0.0175257,0.595765,0.0,0.0,0.0,-1.0
139440627,139440377,-0.131081,-0.0404874,0.00113492,0.595765,0.0,0.0,0.0,-1.0
139541188,139540940,-0.0104614,-0.124067,0.00523263,0.595765,0.0,0.0,0.0,-1.0
139639269,139639022,-0.150036,-0.0188486,0.0106947,0.593366,0.0,0.0,0.0,-1.0
139741140,139740896,-0.205349,-0.0542851,-0.00181658,0.593366,0.0,0.0,0.0,-1.0
139842884,139842635,-0.0159497,-0.0940196,-0.00455339,0.592166,0.0,0.0,0.0,-1.0
139940965,139940717,-0.0694501,-0.0535144,0.0027115,0.592166,0.0,0.0,0.0,-1.0
140041535,140041284,-0.0591521,-0.0301733,-0.00455591,0.590967,0.0,0.0,0.0,-1.0
140139605,140139363,-0.0356082,-0.0793312,-0.000173193,0.592166,0.0,0.0,0.0,-1.0
140241425,140241171,-0.123227,-0.0184213,-0.0114482,0.593366,0.0,0.0,0.0,-1.0
140339497,140339251,-0.0357969,-0.0975949,-0.0117309,0.594565,0.0,0.0,0.0,-1.0
140441310,140441057,-0.0459516,-0.0569733,-0.00458076,0.593366,0.0,0.0,0.0,-1.0
140543136,140542889,-0.0925014,-0.0603803,-0.0107246,0.593366,0.0,0.0,0.0,-1.0
140641218,140640956,-0.0209971,-0.0419673,-0.0122258,0.593366,0.0,0.0,0.0,-1.0
140741757,140741512,-0.0878862,-0.0587238,-0.00406666,0.593366,0.0,0.0,0.0,-1.0
140839994,140839746,-0.0199816,-0.0616355,-0.00938443,0.594565,0.0,0.0,0.0,-1.0
140941646,140941402,0.0775527,-0.105961,-0.000540221,0.593366,0.0,0.0,0.0,-1.0
141039732,141039480,-0.00798887,-0.0331071,-0.00483411,0.589767,0.0,0.0,0.0,-1.0
141141534,141141287,-0.0387071,-0.058006,-0.00963432,0.581371,0.0,0.0,0.0,-1.0
141239626,141239371,-0.102915,0.0068513,-0.00356003,0.581371,0.0,0.0,0.0,-1.0
141340191,141339939,-0.0852504,-0.0798924,-0.0193582,0.581371,0.0,0.0,0.0,-1.0
141441997,141441740,-0.00113387,-0.0228364,-0.00472386,0.571775,0.0,0.0,0.0,-1.0
141540063,141539821,0.057826,-0.0602562,-0.0112122,0.571775,0.0,0.0,0.0,-1.0
141642067,141641816,-0.00345222,-0.0321162,-0.00570643,0.571775,0.0,0.0,0.0,-1.0
141741210,141740954,-0.0303798,-0.0232783,-0.0205363,0.571775,0.0,0.0,0.0,-1.0
141840525,141840276,-0.14623,-0.00475059,-0.0121741,0.571775,0.0,0.0,0.0,-1.0
141942329,141942081,-0.0259246,-0.0485562,-0.0180397,0.571775,0.0,0.0,0.0,-1.0
142040411,142040168,-0.0615169,-0.03298,-0.0130782,0.551383,0.0,0.0,0.0,-1.0
142142228,142141972,-0.00810795,-0.0323856,-0.00782699,0.557381,0.0,0.0,0.0,-1.0
142240336,142240096,0.0413776,-0.0766195,-0.00295278,0.553782,0.0,0.0,0.0,-1.0
142342126,142341881,-0.0680299,-0.0159108,-0.0142193,0.554982,0.0,0.0,0.0,-1.0
142440277,142440024,-0.0507211,-0.0297742,-0.00873523,0.55858,0.0,0.0,0.0,-1.0
142540756,142540504,0.00905031,-0.0504623,-0.00634544,0.55978,0.0,0.0,0.0,-1.0
142642555,142642312,-0.148036,0.0212814,-0.00375213,0.55978,0.0,0.0,0.0,-1.0
142740656,142740413,-0.135883,-0.0272082,-0.0035824,0.560979,0.0,0.0,0.0,-1.0
142842453,142842204,-0.0100735,-0.105682,-0.0104957,0.562179,0.0,0.0,0.0,-1.0
142940528,142940283,0.0501663,-0.0779269,-0.0109634,0.55858,0.0,0.0,0.0,-1.0
143041095,143040847,-0.0360533,-0.0776059,-0.0103806,0.553782,0.0,0.0,0.0,-1.0
143139173,143138928,-0.0545702,-0.0353319,-0.00551553,0.553782,0.0,0.0,0.0,-1.0
143241032,143240786,-0.0341114,-0.0780175,-0.0154985,0.557381,0.0,0.0,0.0,-1.0
143342788,143342541,-0.0744145,-0.058074,-0.000220086,0.556181,0.0,0.0,0.0,-1.0
143440865,143440622,-0.0928562,-0.0268972,0.00321023,0.557381,0.0,0.0,0.0,-1.0
143542690,143542430,-0.0872396,-0.0398132,-0.00768177,0.557381,0.0,0.0,0.0,-1.0
143639514,143639270,0.0139767,-0.0688954,-0.00482206,0.556181,0.0,0.0,0.0,-1.0
143741322,143741076,-0.0237879,-0.0432749,-0.00148291,0.557381,0.0,0.0,0.0,-1.0
143839401,143839158,0.0242493,-0.0888155,-0.00045576,0.557381,0.0,0.0,0.0,-1.0
143941221,143940965,-0.0631488,-0.0165696,-0.0119182,0.557381,0.0,0.0,0.0,-1.0
144039359,144039110,-0.141261,-0.0275221,-0.0111515,0.557381,0.0,0.0,0.0,-1.0
144141094,144140853,0.0635247,-0.0832385,0.00430065,0.556181,0.0,0.0,0.0,-1.0
144241661,144241419,-0.00355986,-0.0365318,-0.00285996,0.556181,0.0,0.0,0.0,-1.0
144339897,144339654,-0.213041,0.00231402,-0.00115698,0.556181,0.0,0.0,0.0,-1.0
144441552,144441307,-0.00961999,-0.0992066,-0.00894174,0.556181,0.0,0.0,0.0,-1.0
144539632,144539388,0.0431201,-0.0692081,-0.010086,0.557381,0.0,0.0,0.0,-1.0
144641449,144641201,-0.0604424,-0.0748904,-0.00613932,0.560979,0.0,0.0,0.0,-1.0
144739534,144739279,-0.161559,0.00852273,-0.00460414,0.562179,0.0,0.0,0.0,-1.0
144840098,144839853,-0.0230237,-0.0946759,-0.0108065,0.575373,0.0,0.0,0.0,-1.0
144941892,144941650,-0.0868328,-0.0459455,-0.0210778,0.574174,0.0,0.0,0.0,-1.0
145040024,145039777,-0.0893844,-0.0428157,-0.0169524,0.575373,0.0,0.0,0.0,-1.0
145141912,145141663,0.137235,-0.103939,-0.0147798,0.575373,0.0,0.0,0.0,-1.0
145239870,145239621,-0.00358568,-0.0692547,-0.0180914,0.574174,0.0,0.0,0.0,-1.0
145341686,145341426,-0.147304,-0.000695342,-0.012529,0.574174,0.0,0.0,0.0,-1.0
145442240,145441991,-0.053547,-0.107941,-0.00963886,0.574174,0.0,0.0,0.0,-1.0
145540317,145540073,0.133863,-0.080587,-0.0113214,0.571775,0.0,0.0,0.0,-1.0
145642128,145641881,-0.00577687,-0.0705858,-0.000145321,0.568176,0.0,0.0,0.0,-1.0
145740220,145739962,0.0101073,-0.0200378,0.0010846,0.568176,0.0,0.0,0.0,-1.0
145842014,145841768,-0.124063,-0.0288551,-0.00575531,0.568176,0.0,0.0,0.0,-1.0
145940211,145939953,-0.0846459,-0.0452222,0.00287898,0.568176,0.0,0.0,0.0,-1.0
146040710,146040460,0.00767196,-0.0808286,-0.0110777,0.568176,0.0,0.0,0.0,-1.0
146142470,146142227,0.0095325,-0.0545292,-0.00117443,0.568176,0.0,0.0,0.0,-1.0
146240548,146240304,0.0678762,-0.0585991,-0.00380813,0.568176,0.0,0.0,0.0,-1.0
146342353,146342111,0.00883972,-0.0981361,-0.00049752,0.569376,0.0,0.0,0.0,-1.0
146440440,146440193,-0.00947121,-0.0291961,-0.00373906,0.574174,0.0,0.0,0.0,-1.0
146541001,146540759,0.0673299,-0.089537,-0.0145206,0.575373,0.0,0.0,0.0,-1.0
146639087,146638841,-0.0872381,-0.0698292,-0.0192427,0.574174,0.0,0.0,0.0,-1.0
146741006,146740754,-0.142281,-0.00353526,-0.00880114,0.574174,0.0,0.0,0.0,-1.0
146842707,146842465,-0.0966524,-0.0450173,-0.0158246,0.574174,0.0,0.0,0.0,-1.0
146940782,146940536,-0.0587992,-0.0441866,-0.00944516,0.572974,0.0,0.0,0.0,-1.0
147042655,147042396,0.0947232,-0.116116,-0.0115347,0.572974,0.0,0.0,0.0,-1.0
147140676,147140425,0.0139883,-0.0567971,-0.0151353,0.572974,0.0,0.0,0.0,-1.0
147241236,147240990,-0.181219,-0.0161512,-0.00722663,0.574174,0.0,0.0,0.0,-1.0
147339331,147339084,0.0290877,-0.0476386,-0.00967035,0.574174,0.0,0.0,0.0,-1.0
147441129,147440882,-0.0573582,-0.0759063,-0.00552741,0.574174,0.0,0.0,0.0,-1.0
147542995,147542754,0.0190309,-0.0504916,-0.00450975,0.571775,0.0,0.0,0.0,-1.0
147641011,147640768,0.00729851,-0.0440925,-0.00901793,0.571775,0.0,0.0,0.0,-1.0
147741574,147741334,-0.0143039,-0.0258643,-0.000826413,0.571775,0.0,0.0,0.0,-1.0
147839814,147839567,0.0665662,-0.0643353,-0.00965659,0.571775,0.0,0.0,0.0,-1.0
147941462,147941222,-0.0470293,-0.0678119,-0.00100754,0.571775,0.0,0.0,0.0,-1.0
148039553,148039306,0.0841968,-0.0700082,-0.00563543,0.572974,0.0,0.0,0.0,-1.0
148141356,148141107,-0.0622039,-0.0302161,-0.00860687,0.572974,0.0,0.0,0.0,-1.0
148243168,148242918,0.0498441,-0.0658831,-0.012195,0.572974,0.0,0.0,0.0,-1.0
148340088,148339833,0.0480019,-0.0870854,-0.0141325,0.572974,0.0,0.0,0.0,-1.0
148441810,148441566,0.100196,-0.14339,-0.0120863,0.572974,0.0,0.0,0.0,-1.0
148539957,148539702,-0.0580201,-0.028665,-0.022649,0.572974,0.0,0.0,0.0,-1.0
148641830,148641582,-0.0764152,-0.0358455,-0.00746027,0.571775,0.0,0.0,0.0,-1.0
148739827,148739584,0.0174457,-0.0583651,-0.00968335,0.571775,0.0,0.0,0.0,-1.0
148841590,148841343,-0.0741941,-0.00198276,-0.0138442,0.571775,0.0,0.0,0.0,-1.0
148939682,148939434,-0.0571495,-0.040612,-0.0144245,0.571775,0.0,0.0,0.0,-1.0
149040243,149039987,0.00214309,-0.0742247,-0.0157359,0.571775,0.0,0.0,0.0,-1.0
149142041,149141796,0.0682532,-0.067522,-0.00865995,0.571775,0.0,0.0,0.0,-1.0
149240132,149239881,0.0137825,-0.058869,-0.0191307,0.572974,0.0,0.0,0.0,-1.0
149341935,149341687,0.140635,-0.0750236,-0.00412253,0.571775,0.0,0.0,0.0,-1.0
149440164,149439904,0.00519076,-0.0290061,-0.00962999,0.571775,0.0,0.0,0.0,-1.0
149540582,149540334,-0.0172633,-0.0871758,-0.00492004,0.572974,0.0,0.0,0.0,-1.0
149642393,149642143,-0.0482799,-0.0523221,-0.0184732,0.571775,0.0,0.0,0.0,-1.0
149740469,149740224,-0.0924745,-0.0431016,-0.0129754,0.571775,0.0,0.0,0.0,-1.0
149842275,149842032,0.04177,-0.0953645,-0.0144225,0.571775,0.0,0.0,0.0,-1.0
149940358,149940113,0.0590815,-0.0857948,-0.0167897,0.571775,0.0,0.0,0.0,-1.0
150042183,150041929,0.00913928,-0.0657439,-0.017075,0.571775,0.0,0.0,0.0,-1.0
150140264,150140015,-0.00933666,-0.054524,-0.0193067,0.571775,0.0,0.0,0.0,-1.0
150240857,150240615,-0.0989513,-0.0129334,-0.0168615,0.571775,0.0,0.0,0.0,-1.0
150342619,150342374,-0.0317878,-0.0846335,-0.0183786,0.571775,0.0,0.0,0.0,-1.0
150440705,150440457,-0.173824,-0.00358963,-0.015419,0.571775,0.0,0.0,0.0,-1.0
150542510,150542263,-0.0994643,-0.0617481,-0.0189493,0.571775,0.0,0.0,0.0,-1.0
150640591,150640346,-0.0542036,-0.00431261,-0.0140146,0.571775,0.0,0.0,0.0,-1.0
150741159,150740913,0.0126612,-0.0911691,-0.00443281,0.571775,0.0,0.0,0.0,-1.0
150839243,150838993,0.0735237,-0.116369,-0.0154293,0.572974,0.0,0.0,0.0,-1.0
150941048,150940800,0.14,-0.0762855,-0.00813493,0.572974,0.0,0.0,0.0,-1.0
151042893,151042642,-0.0250506,-0.0237694,-0.010643,0.572974,0.0,0.0,0.0,-1.0
151140945,151140690,-0.0782503,-0.0316556,-0.00398722,0.572974,0.0,0.0,0.0,-1.0
151241517,151241263,-0.0529414,-0.0137949,-0.0164931,0.572974,0.0,0.0,0.0,-1.0
151339732,151339487,-0.0694465,-0.0428445,-0.011194,0.572974,0.0,0.0,0.0,-1.0
151441394,151441148,-0.0796557,-0.00209856,-0.0162874,0.572974,0.0,0.0,0.0,-1.0
151539475,151539228,0.000367745,-0.0162479,-0.00808144,0.572974,0.0,0.0,0.0,-1.0
151641290,151641034,0.0526292,-0.0613661,-0.0138168,0.572974,0.0,0.0,0.0,-1.0
151743091,151742842,-0.00257359,-0.0401544,-0.00576099,0.572974,0.0,0.0,0.0,-1.0
151841208,151840945,-0.0440741,-0.0598619,-0.0180397,0.572974,0.0,0.0,0.0,-1.0
151941733,151941490,-0.0682402,-0.0245535,-0.0150773,0.572974,0.0,0.0,0.0,-1.0
152039827,152039571,0.026731,-0.0107506,-0.0105394,0.572974,0.0,0.0,0.0,-1.0
152141790,152141548,-0.0554972,-0.051787,-0.0167916,0.572974,0.0,0.0,0.0,-1.0
152239712,152239461,-0.0362188,-0.0494117,-0.020444,0.572974,0.0,0.0,0.0,-1.0
152341512,152341268,0.0656197,-0.0602394,-0.0206361,0.572974,0.0,0.0,0.0,-1.0
152442085,152441833,-0.0884421,-0.013296,-0.0203916,0.572974,0.0,0.0,0.0,-1.0
152540172,152539919,-0.0116037,-0.0260178,-0.0104893,0.572974,0.0,0.0,0.0,-1.0
152642029,152641777,0.0265294,-0.0239233,-0.0210125,0.572974,0.0,0.0,0.0,-1.0
152740052,152739805,-0.0420426,-0.0644412,-0.0162317,0.572974,0.0,0.0,0.0,-1.0
152841857,152841612,0.108364,-0.115134,-0.0117291,0.572974,0.0,0.0,0.0,-1.0
152940018,152939774,-0.0525874,-0.0279447,-0.0187392,0.572974,0.0,0.0,0.0,-1.0
153040507,153040262,0.0847273,-0.079565,-0.00993735,0.574174,0.0,0.0,0.0,-1.0
153142323,153142068,-0.047099,-0.0141194,-0.0135493,0.574174,0.0,0.0,0.0,-1.0
153240436,153240194,-0.0590842,0.00381989,-0.00751382,0.574174,0.0,0.0,0.0,-1.0
153342215,153341960,-0.0675607,-0.0122835,-0.0193984,0.574174,0.0,0.0,0.0,-1.0
153440287,153440039,-0.0316212,-0.0189012,-0.0136242,0.577772,0.0,0.0,0.0,-1.0
153542091,153541846,-0.0740508,-0.0387,-0.0168209,0.577772,0.0,0.0,0.0,-1.0
153640239,153639969,0.0666261,-0.0402234,-0.00857586,0.587368,0.0,0.0,0.0,-1.0
153740846,153740599,-0.0368582,-0.0408035,-0.017666,0.586169,0.0,0.0,0.0,-1.0
153842559,153842302,-0.0229285,-0.0605051,-0.0169151,0.584969,0.0,0.0,0.0,-1.0
153940628,153940385,-0.0498591,-0.0358099,-0.0241246,0.581371,0.0,0.0,0.0,-1.0
154042451,154042201,0.0778479,-0.114741,-0.0233912,0.581371,0.0,0.0,0.0,-1.0
154140556,154140309,-0.0762281,0.0103251,-0.0223647,0.58257,0.0,0.0,0.0,-1.0
154241132,154240881,0.0131182,-0.0466138,-0.0202607,0.58377,0.0,0.0,0.0,-1.0
154339169,154338922,-0.0585748,-0.0516392,-0.0142254,0.58377,0.0,0.0,0.0,-1.0
154440979,154440729,-0.0282446,-0.0223951,-0.0202089,0.58377,0.0,0.0,0.0,-1.0
154542868,154542612,-0.0805119,-0.0166209,-0.0106282,0.581371,0.0,0.0,0.0,-1.0
154640886,154640642,0.0398502,-0.0555119,-0.0173912,0.581371,0.0,0.0,0.0,-1.0
154742681,154742426,0.0144127,-0.0254919,-0.0120626,0.58257,0.0,0.0,0.0,-1.0
154839655,154839414,0.0452929,-0.0548061,-0.020797,0.58377,0.0,0.0,0.0,-1.0
154941327,154941075,0.011118,-0.0573297,-0.0162913,0.584969,0.0,0.0,0.0,-1.0
155039409,155039158,-0.0324925,-0.0173315,-0.0239952,0.584969,0.0,0.0,0.0,-1.0
155141211,155140964,0.0898749,-0.0403283,-0.0209822,0.58257,0.0,0.0,0.0,-1.0
155243025,155242771,-0.0660054,-0.0659707,-0.0189519,0.58257,0.0,0.0,0.0,-1.0
155341171,155340921,0.047419,-0.0509613,-0.0259768,0.58377,0.0,0.0,0.0,-1.0
155441667,155441420,-0.135199,-0.0479784,-0.0192613,0.58377,0.0,0.0,0.0,-1.0
155539751,155539501,-0.1277,0.0289253,-0.0120916,0.58377,0.0,0.0,0.0,-1.0
155641680,155641435,-0.00835269,-0.0653574,-0.0154754,0.58257,0.0,0.0,0.0,-1.0
155740888,155740637,0.0352632,-0.0677588,-0.0211839,0.58377,0.0,0.0,0.0,-1.0
155841450,155841204,0.00476841,-0.0680759,-0.0181954,0.58257,0.0,0.0,0.0,-1.0
155942060,155941810,-0.0568169,-0.0281014,-0.021768,0.58377,0.0,0.0,0.0,-1.0
156040094,156039847,-0.079411,-0.0172072,-0.0128965,0.58377,0.0,0.0,0.0,-1.0
156141913,156141656,-0.152869,0.0144335,-0.0253811,0.58377,0.0,0.0,0.0,-1.0
156239983,156239737,-0.0675919,-0.0241364,-0.0162465,0.58257,0.0,0.0,0.0,-1.0
156341794,156341544,-0.195575,0.0115056,-0.026666,0.58257,0.0,0.0,0.0,-1.0
156439955,156439708,-0.0451569,-0.0315463,-0.0243314,0.58257,0.0,0.0,0.0,-1.0
156541693,156541439,-0.186069,0.0136597,-0.0173611,0.58257,0.0,0.0,0.0,-1.0
156642252,156642001,0.0640752,-0.0877069,-0.0216158,0.581371,0.0,0.0,0.0,-1.0
156740368,156740124,-0.0641967,-0.0539976,-0.017073,0.581371,0.0,0.0,0.0,-1.0
156842140,156841891,-0.0112393,-0.0253843,-0.0106396,0.58377,0.0,0.0,0.0,-1.0
156940240,156939975,-0.0310462,-0.0605635,-0.0104957,0.58257,0.0,0.0,0.0,-1.0
157042025,157041780,0.0277824,-0.0483863,-0.00890428,0.580171,0.0,0.0,0.0,-1.0
157140111,157139865,-0.147632,-0.0131065,-0.00695231,0.580171,0.0,0.0,0.0,-1.0
157240818,157240573,-0.0633466,-0.00976903,-0.0162071,0.580171,0.0,0.0,0.0,-1.0
157342478,157342236,0.0283534,-0.0397485,-0.0159792,0.581371,0.0,0.0,0.0,-1.0
157440562,157440318,-0.121589,-0.015539,-0.00811072,0.581371,0.0,0.0,0.0,-1.0
157542385,157542139,-0.137264,-0.0494353,-0.014298,0.580171,0.0,0.0,0.0,-1.0
157640455,157640212,0.0469321,-0.0578499,-0.0208073,0.581371,0.0,0.0,0.0,-1.0
157741020,157740774,0.119267,-0.0843142,-0.0317709,0.580171,0.0,0.0,0.0,-1.0
157839128,157838884,-0.0714557,-0.0374882,-0.0315033,0.581371,0.0,0.0,0.0,-1.0
157940917,157940669,-0.00531177,-0.0435104,-0.0253393,0.581371,0.0,0.0,0.0,-1.0
158042804,158042553,0.0065066,-0.0519008,-0.0272255,0.581371,0.0,0.0,0.0,-1.0
158140797,158140555,-0.198869,0.0309928,-0.0287506,0.580171,0.0,0.0,0.0,-1.0
158242611,158242362,0.061146,-0.0398811,-0.0323256,0.581371,0.0,0.0,0.0,-1.0
158339596,158339352,-0.0796525,-0.0681583,-0.0141666,0.580171,0.0,0.0,0.0,-1.0
158441263,158441011,0.0112797,-0.050706,-0.0237263,0.581371,0.0,0.0,0.0,-1.0
158539389,158539146,-0.121522,-0.007511,-0.0181695,0.58377,0.0,0.0,0.0,-1.0
158641153,158640897,-0.102168,-0.0181454,-0.0220213,0.587368,0.0,0.0,0.0,-1.0
158739231,158738980,-0.00558195,-0.0057425,-0.00870169,0.587368,0.0,0.0,0.0,-1.0
158841034,158840790,0.0195319,-0.0261656,-0.00349983,0.586169,0.0,0.0,0.0,-1.0
158941610,158941359,-0.218158,0.0278204,-0.011961,0.586169,0.0,0.0,0.0,-1.0
159039687,159039442,0.109645,-0.0507721,-0.00431713,0.587368,0.0,0.0,0.0,-1.0
159141618,159141371,0.0747928,-0.0161013,-0.000752214,0.587368,0.0,0.0,0.0,-1.0
159239578,159239331,-0.0120146,-0.0176987,-0.00673049,0.58377,0.0,0.0,0.0,-1.0
159341387,159341137,-0.0831952,-0.0187909,-0.014947,0.581371,0.0,0.0,0.0,-1.0
159440714,159440464,-0.0687994,-0.0355973,-0.00468622,0.569376,0.0,0.0,0.0,-1.0
159540043,159539789,-0.0981027,-0.0176023,-0.00884756,0.569376,0.0,0.0,0.0,-1.0
159641839,159641594,-0.0266703,-0.0513935,-0.00967995,0.570575,0.0,0.0,0.0,-1.0
159739944,159739697,-0.0867206,-0.00614221,-0.0084529,0.570575,0.0,0.0,0.0,-1.0
159841731,159841484,-0.047194,-0.0421881,-0.0102937,0.571775,0.0,0.0,0.0,-1.0
159939882,159939643,-0.0214044,-0.0336175,-0.0146037,0.570575,0.0,0.0,0.0,-1.0
160041643,160041392,0.00180321,-0.0457675,-0.0159364,0.571775,0.0,0.0,0.0,-1.0
160139711,160139457,0.0288656,-0.0428465,-0.0182676,0.571775,0.0,0.0,0.0,-1.0
160240284,160240037,-0.0435824,-0.0245089,-0.0147533,0.571775,0.0,0.0,0.0,-1.0
160342074,160341831,-0.0877424,-0.0195048,-0.022702,0.571775,0.0,0.0,0.0,-1.0
160440158,160439909,-0.0284201,-0.0656381,-0.0215797,0.571775,0.0,0.0,0.0,-1.0
160541970,160541720,-0.077113,-0.0290507,-0.016289,0.571775,0.0,0.0,0.0,-1.0
160640048,160639806,0.0347177,-0.0903566,-0.0159396,0.571775,0.0,0.0,0.0,-1.0
160740720,160740473,-0.109192,-0.00560395,-0.0156196,0.572974,0.0,0.0,0.0,-1.0
160842423,160842177,-0.0398366,-0.0332614,-0.0178157,0.571775,0.0,0.0,0.0,-1.0
160940511,160940260,-0.0490459,-0.0583387,-0.00202629,0.571775,0.0,0.0,0.0,-1.0
161042325,161042077,-0.168898,0.0282953,-0.00404104,0.556181,0.0,0.0,0.0,-1.0
161140401,161140156,0.0465029,-0.061745,0.00300604,0.55978,0.0,0.0,0.0,-1.0
161242224,161241960,-0.0279851,-0.0539009,0.00252925,0.55978,0.0,0.0,0.0,-1.0
161340287,161340041,-0.125773,0.0279241,0.007041,0.55978,0.0,0.0,0.0,-1.0
161440856,161440606,-0.0536466,-0.0194196,-0.00163741,0.55978,0.0,0.0,0.0,-1.0
161542680,161542438,0.144804,-0.0494557,-0.00235227,0.55978,0.0,0.0,0.0,-1.0
161640750,161640498,-0.0967424,-0.0215561,0.00699385,0.55978,0.0,0.0,0.0,-1.0
161742550,161742307,-0.0155995,-0.0600192,-0.00694528,0.55978,0.0,0.0,0.0,-1.0
161839585,161839337,-0.0431914,-0.029879,-0.0109509,0.55978,0.0,0.0,0.0,-1.0
161941231,161940988,0.00575458,-0.0811979,-0.0046257,0.562179,0.0,0.0,0.0,-1.0
162039284,162039037,0.0130051,-0.0640925,-0.0126463,0.560979,0.0,0.0,0.0,-1.0
162141090,162140844,-0.135661,0.0154917,-0.00738772,0.562179,0.0,0.0,0.0,-1.0
162242900,162242652,-0.0530856,-0.0361933,-0.011255,0.562179,0.0,0.0,0.0,-1.0
162340980,162340735,-0.0974189,-0.0304245,-0.00552454,0.565777,0.0,0.0,0.0,-1.0
162441544,162441302,0.0595119,-0.0652051,0.00187164,0.566977,0.0,0.0,0.0,-1.0
162539630,162539384,-0.0675705,-0.00215869,-0.00411358,0.566977,0.0,0.0,0.0,-1.0
162641607,162641364,0.0229087,-0.0187954,0.00266725,0.568176,0.0,0.0,0.0,-1.0
162739517,162739275,-0.0828448,-0.0315292,0.00161282,0.568176,0.0,0.0,0.0,-1.0
162841333,162841082,0.0365185,-0.0626845,0.0127347,0.569376,0.0,0.0,0.0,-1.0
162943136,162942893,0.0729867,-0.0994424,0.00530385,0.571775,0.0,0.0,0.0,-1.0
163041237,163040974,0.114,-0.063832,-0.00239847,0.587368,0.0,0.0,0.0,-1.0
163141787,163141542,-0.00740159,-0.0683884,0.00667086,0.590967,0.0,0.0,0.0,-1.0
163239882,163239623,-0.00173748,-0.0767157,-0.000745238,0.589767,0.0,0.0,0.0,-1.0
163341673,163341429,-0.0186446,0.0490745,-0.00842516,0.589767,0.0,0.0,0.0,-1.0
163439841,163439595,-0.0230381,-0.103444,-0.00886014,0.589767,0.0,0.0,0.0,-1.0
163541569,163541320,-0.0941392,-0.0399068,-0.0170811,0.589767,0.0,0.0,0.0,-1.0
163639655,163639403,-0.0555197,0.00881648,-0.0228103,0.587368,0.0,0.0,0.0,-1.0
163740225,163739969,-0.0857808,-0.00622834,-0.0312133,0.589767,0.0,0.0,0.0,-1.0
163842024,163841778,-0.0254088,-0.104075,-0.0284918,0.587368,0.0,0.0,0.0,-1.0
163940109,163939860,-0.0856926,-0.0234539,-0.0338625,0.592166,0.0,0.0,0.0,-1.0
164041915,164041668,-0.0307825,-0.035907,-0.0266624,0.589767,0.0,0.0,0.0,-1.0
164139995,164139751,0.00936903,-0.0525734,-0.029546,0.589767,0.0,0.0,0.0,-1.0
164240609,164240365,0.0812576,-0.113119,-0.0285696,0.589767,0.0,0.0,0.0,-1.0
164342377,164342125,0.00499016,-0.0602111,-0.0146772,0.590967,0.0,0.0,0.0,-1.0
164440457,164440208,-0.209963,0.0435443,-0.0394685,0.589767,0.0,0.0,0.0,-1.0
164542265,164542018,0.152999,-0.0866394,-0.0436123,0.589767,0.0,0.0,0.0,-1.0
164640343,164640098,0.0222082,-0.113729,-0.0379336,0.592166,0.0,0.0,0.0,-1.0
164742159,164741908,-0.0437916,-0.0273397,-0.0443935,0.601763,0.0,0.0,0.0,-1.0
164840241,164839989,-0.0024945,-0.0660026,-0.0293102,0.622154,0.0,0.0,0.0,-1.0
164940800,164940556,0.0573945,-0.0773109,-0.0313154,0.620955,0.0,0.0,0.0,-1.0
165038997,165038750,-0.0195799,-0.0519387,-0.0266773,0.619755,0.0,0.0,0.0,-1.0
165140694,165140447,0.0512259,-0.0947119,-0.0222188,0.619755,0.0,0.0,0.0,-1.0
165242498,165242254,-0.103793,-0.026439,-0.0273521,0.616157,0.0,0.0,0.0,-1.0
165340768,165340511,0.0297297,-0.0746503,-0.0260949,0.60896,0.0,0.0,0.0,-1.0
165441149,165440904,-0.0291681,-0.0172631,-0.0185938,0.592166,0.0,0.0,0.0,-1.0
165539239,165538987,-0.00854319,-0.0468926,-0.0170237,0.574174,0.0,0.0,0.0,-1.0
165641039,165640795,-0.108133,0.0223063,-0.0193171,0.574174,0.0,0.0,0.0,-1.0
165742848,165742603,0.0061825,-0.0641708,-0.0131529,0.574174,0.0,0.0,0.0,-1.0
165840937,165840686,0.0530189,-0.0615605,-0.00896734,0.575373,0.0,0.0,0.0,-1.0
165941504,165941253,-0.112101,-0.0137771,-0.0116467,0.574174,0.0,0.0,0.0,-1.0
166039588,166039336,-0.136634,-0.0147719,-0.0106536,0.574174,0.0,0.0,0.0,-1.0
166141518,166141272,0.129584,-0.093032,-0.0103961,0.574174,0.0,0.0,0.0,-1.0
166239490,166239242,0.0201679,-0.0346814,-0.0158537,0.574174,0.0,0.0,0.0,-1.0
166341277,166341034,-0.00529955,-0.00920621,-0.0104877,0.581371,0.0,0.0,0.0,-1.0
166443087,166442842,-0.0747076,0.014116,-0.0113945,0.581371,0.0,0.0,0.0,-1.0
166541180,166540925,-0.00790908,-0.0259066,-0.00488175,0.58257,0.0,0.0,0.0,-1.0
166641741,166641496,-0.0738333,0.0340256,-0.0137255,0.581371,0.0,0.0,0.0,-1.0
166739827,166739575,0.0925548,-0.0867449,-0.0122669,0.58257,0.0,0.0,0.0,-1.0
166841627,166841383,-0.0981039,-0.0187207,-0.019224,0.580171,0.0,0.0,0.0,-1.0
166939803,166939555,-0.0329118,-0.033357,-0.0172541,0.581371,0.0,0.0,0.0,-1.0
167041523,167041273,0.043548,-0.0131438,-0.0173108,0.580171,0.0,0.0,0.0,-1.0
167142091,167141841,0.0276532,-0.0420588,-0.00542754,0.580171,0.0,0.0,0.0,-1.0
167240171,167239923,0.0524502,-0.0654545,-0.0139163,0.581371,0.0,0.0,0.0,-1.0
167342025,167341775,0.0434462,-0.046008,-0.00886874,0.580171,0.0,0.0,0.0,-1.0
167440062,167439814,0.000364828,-0.0257057,-0.0184653,0.580171,0.0,0.0,0.0,-1.0
167541871,167541622,-0.00478422,-0.0517353,-0.0127298,0.580171,0.0,0.0,0.0,-1.0
167639956,167639705,-0.101244,-0.0148264,-0.0140346,0.580171,0.0,0.0,0.0,-1.0
167740579,167740336,-0.0209632,-0.0363696,-0.0156608,0.581371,0.0,0.0,0.0,-1.0
167842331,167842080,-0.0901429,0.00994633,-0.0165513,0.581371,0.0,0.0,0.0,-1.0
167940412,167940168,-0.0262312,0.0176134,-0.0111621,0.581371,0.0,0.0,0.0,-1.0
168042254,168042001,-0.118325,-0.0365031,-0.0169124,0.581371,0.0,0.0,0.0,-1.0
168140305,168140056,-0.0501129,-0.0370003,-0.0191718,0.581371,0.0,0.0,0.0,-1.0
168242108,168241862,0.0325984,-0.0594294,-0.0351816,0.58257,0.0,0.0,0.0,-1.0
168340214,168339947,-0.0474463,-0.0025337,-0.0383841,0.58377,0.0,0.0,0.0,-1.0
168440753,168440512,0.0709028,-0.0557872,-0.0267103,0.58257,0.0,0.0,0.0,-1.0
168542590,168542343,-0.180984,-0.00140591,-0.0334812,0.58257,0.0,0.0,0.0,-1.0
168640644,168640403,-0.0519503,-0.045651,-0.0325294,0.581371,0.0,0.0,0.0,-1.0
168742464,168742213,-0.0532494,-0.0100758,-0.0454579,0.581371,0.0,0.0,0.0,-1.0
168839454,168839206,-0.0511794,-0.0197769,-0.0426354,0.581371,0.0,0.0,0.0,-1.0
168941136,168940886,-0.050056,-0.0218371,-0.0372791,0.581371,0.0,0.0,0.0,-1.0
169039209,169038957,-0.0429555,-0.044075,-0.0312255,0.58257,0.0,0.0,0.0,-1.0
169141000,169140755,-0.0527246,-0.0105958,-0.0322335,0.581371,0.0,0.0,0.0,-1.0
169242808,169242560,-0.00654241,-0.0670019,-0.0203947,0.581371,0.0,0.0,0.0,-1.0
169340886,169340644,-0.0682656,-0.0349973,-0.0278549,0.581371,0.0,0.0,0.0,-1.0
169442708,169442452,-0.0345541,-0.0226446,-0.0176542,0.581371,0.0,0.0,0.0,-1.0
169539537,169539293,-0.0311848,-0.0398945,-0.0140925,0.581371,0.0,0.0,0.0,-1.0
169641481,169641235,-0.0167971,0.000641156,-0.0142052,0.581371,0.0,0.0,0.0,-1.0
169739471,169739224,-0.0218493,-0.0962677,-0.0110695,0.581371,0.0,0.0,0.0,-1.0
169841241,169840993,-0.0804394,-0.00869999,-0.0164376,0.565777,0.0,0.0,0.0,-1.0
169943049,169942801,0.0891125,-0.0748925,-0.0150289,0.566977,0.0,0.0,0.0,-1.0
170041132,170040884,0.0233076,-0.0653511,-0.0230063,0.566977,0.0,0.0,0.0,-1.0
170141701,170141452,0.0390054,-0.0590386,-0.0147082,0.568176,0.0,0.0,0.0,-1.0
170239785,170239535,-0.0874943,-0.0381568,-0.0199966,0.565777,0.0,0.0,0.0,-1.0
170341585,170341342,0.135113,-0.0569326,-0.0260128,0.562179,0.0,0.0,0.0,-1.0
170439818,170439563,0.0201125,-0.0897028,-0.0336271,0.562179,0.0,0.0,0.0,-1.0
170541480,170541234,-0.166553,-0.00523974,-0.0319588,0.562179,0.0,0.0,0.0,-1.0
170642052,170641801,-0.0261653,-0.0257378,-0.0414446,0.563378,0.0,0.0,0.0,-1.0
170740128,170739884,0.0609218,-0.0953414,-0.0328176,0.563378,0.0,0.0,0.0,-1.0
170841944,170841693,-0.188897,-0.0237759,-0.031937,0.562179,0.0,0.0,0.0,-1.0
170940024,170939775,-0.0880546,-0.054431,-0.0289666,0.563378,0.0,0.0,0.0,-1.0
171041835,171041583,0.00800973,-0.0213502,-0.0179861,0.563378,0.0,0.0,0.0,-1.0
171139918,171139668,0.0324464,-0.0673485,-0.0297187,0.563378,0.0,0.0,0.0,-1.0
171240523,171240279,-0.0976167,-0.0324615,-0.0234433,0.563378,0.0,0.0,0.0,-1.0
171342289,171342042,0.0711013,-0.0946544,-0.0173077,0.563378,0.0,0.0,0.0,-1.0
171440370,171440125,-0.0185519,-0.0382209,-0.0182409,0.563378,0.0,0.0,0.0,-1.0
171542180,171541936,-0.10096,-0.0248517,-0.0118518,0.563378,0.0,0.0,0.0,-1.0
171640264,171640016,-0.00383901,-0.0328672,-0.0118377,0.563378,0.0,0.0,0.0,-1.0
171742072,171741825,-0.0160951,-0.0218765,-0.011696,0.563378,0.0,0.0,0.0,-1.0
171840170,171839910,-0.0463879,-0.0204388,-0.00700172,0.563378,0.0,0.0,0.0,-1.0
171940721,171940475,0.0811591,-0.0662805,-0.0031207,0.563378,0.0,0.0,0.0,-1.0
172042610,172042361,0.0110461,-0.0624823,-0.0081824,0.563378,0.0,0.0,0.0,-1.0
172140611,172140366,-0.112359,-0.0616272,-0.0086356,0.563378,0.0,0.0,0.0,-1.0
172242425,172242176,-0.00905561,-0.0296955,-0.001801,0.563378,0.0,0.0,0.0,-1.0
172340669,172340417,-0.057069,-0.0923435,-0.00915361,0.563378,0.0,0.0,0.0,-1.0
172441074,172440827,-0.00338448,-0.0691878,-0.0148992,0.563378,0.0,0.0,0.0,-1.0
172539158,172538912,-0.08765,-0.0501247,-0.0145816,0.563378,0.0,0.0,0.0,-1.0
172640982,172640719,0.00644035,-0.0856323,-0.0114317,0.563378,0.0,0.0,0.0,-1.0
172739056,172738800,0.0433224,-0.0759497,-0.0117272,0.563378,0.0,0.0,0.0,-1.0
172840898,172840655,-0.0110831,-0.0482224,-0.0254044,0.563378,0.0,0.0,0.0,-1.0
172942678,172942416,-0.185848,-0.021108,-0.0129832,0.563378,0.0,0.0,0.0,-1.0
173039546,173039301,0.070729,-0.0894471,-0.00785762,0.563378,0.0,0.0,0.0,-1.0
173141488,173141238,-0.0753554,-0.0702929,-0.0043851,0.563378,0.0,0.0,0.0,-1.0
173239392,173239150,-0.211839,0.000421688,0.00139463,0.562179,0.0,0.0,0.0,-1.0
173341215,173340960,-0.0319565,-0.116484,-0.00453367,0.562179,0.0,0.0,0.0,-1.0
173443013,173442767,-0.205565,-0.0202463,0.014083,0.563378,0.0,0.0,0.0,-1.0
173541094,173540850,-0.0632714,-0.137309,0.000966442,0.563378,0.0,0.0,0.0,-1.0
173641660,173641418,-0.10182,-0.0252979,0.0074348,0.563378,0.0,0.0,0.0,-1.0
173739759,173739516,0.0699848,-0.131468,0.00761207,0.563378,0.0,0.0,0.0,-1.0
173841559,173841312,-0.0169357,-0.0424119,0.00393741,0.563378,0.0,0.0,0.0,-1.0
173939713,173939469,-0.0677459,-0.0285336,0.00203534,0.563378,0.0,0.0,0.0,-1.0
174041465,174041208,0.0205721,-0.0572226,-0.00974994,0.563378,0.0,0.0,0.0,-1.0
174140815,174140566,-0.100871,0.00993944,-0.0101933,0.563378,0.0,0.0,0.0,-1.0
174240102,174239853,-0.0242054,-0.0834186,-0.000671042,0.563378,0.0,0.0,0.0,-1.0
174341911,174341660,0.0347629,-0.129461,-0.00425873,0.563378,0.0,0.0,0.0,-1.0
174440039,174439794,0.122629,-0.127226,-0.00110415,0.563378,0.0,0.0,0.0,-1.0
174541799,174541551,0.00552987,-0.0781367,-0.00748927,0.563378,0.0,0.0,0.0,-1.0
174639925,174639680,-0.149122,-0.0571773,-0.0112608,0.563378,0.0,0.0,0.0,-1.0
174740551,174740304,-0.104908,-0.0869724,-0.00365795,0.563378,0.0,0.0,0.0,-1.0
174842266,174842011,-0.0111971,-0.118357,-0.00341531,0.563378,0.0,0.0,0.0,-1.0
174940338,174940093,0.133944,-0.0839987,-0.00155877,0.563378,0.0,0.0,0.0,-1.0
175042174,175041910,-0.0157029,-0.102408,0.00211852,0.566977,0.0,0.0,0.0,-1.0
175140233,175139985,-0.0897076,-0.0575153,0.00080403,0.568176,0.0,0.0,0.0,-1.0
175242044,175241794,-0.0604292,-0.0752336,-0.00343636,0.568176,0.0,0.0,0.0,-1.0
175340123,175339878,0.08445,-0.147253,0.0012085,0.570575,0.0,0.0,0.0,-1.0
175440694,175440444,0.0596395,-0.0963532,-0.00515294,0.569376,0.0,0.0,0.0,-1.0
175542517,175542276,0.0479606,-0.0862141,0.00138592,0.584969,0.0,0.0,0.0,-1.0
175640585,175640339,0.0419828,-0.103852,-0.00350072,0.586169,0.0,0.0,0.0,-1.0
