timestamp,timestamp_sample,device_id,x,y,z,temperature,error_count
99732995,99732948,4325386,0.0239684,0.0111853,0.0415453,nan,0
99733844,99733793,4325386,0.0287621,-0.0186421,-0.0207727,nan,0
100737575,100737527,4325386,0.0756338,0.129962,0.0681769,nan,0
101734703,101734657,4325386,0.16192,-0.151268,-0.0442085,nan,0
102736218,102736165,4325386,-0.185356,0.0442085,-0.12144,nan,0
103733578,103733533,4325386,-0.0340885,0.125701,0.00692422,nan,0
104734014,104733968,4325386,-0.0372843,0.195476,0.101733,nan,0
105735716,105735670,4325386,-0.135289,0.0143811,0.0894822,nan,0
106733393,106733345,4325386,0.224238,-0.128897,0.00639159,nan,0
107733830,107733781,4325386,0.098537,0.0633832,0.0772317,nan,0
108735264,108735217,4325386,0.180562,0.16991,0.142213,nan,0
109735873,109735825,4325386,-0.548078,-0.0245011,-0.401605,nan,0
110733169,110733124,4325386,-0.468184,0.0862864,0.516653,nan,0
111734749,111734702,4325386,0.638626,-0.348341,0.459662,nan,0
112736077,112736034,4325386,-0.545948,0.255131,-0.264718,nan,0
113736459,113736411,4325386,-0.332895,0.147006,0.0500674,nan,0
114733908,114733858,4325386,-0.409594,0.0708401,-0.364853,nan,0
115735339,115735293,4325386,-0.207194,0.181628,0.194411,nan,0
116736284,116736233,4325386,-0.35207,0.361657,0.0948085,nan,0
117734003,117733956,4325386,-0.0735032,0.194943,0.19015,nan,0
118735691,118735645,4325386,-0.267914,0.225303,0.107592,nan,0
119735744,119735692,4325386,0.226369,0.00852211,0.178432,nan,0
120736047,120736004,4325386,0.340352,-0.454335,-0.28123,nan,0
121734502,121734451,4325386,-0.335026,0.157126,-0.1518,nan,0
122735454,122735405,4325386,0.447411,-0.226901,-0.0857538,nan,0
123735877,123735831,4325386,-0.156061,0.0639159,0.0708401,nan,0
124734328,124734281,4325386,0.464455,0.0633832,-0.056459,nan,0
125734780,125734725,4325386,0.01012,0.168844,0.339819,nan,0
126735212,126735165,4325386,-0.45327,0.30147,-0.0884169,nan,0
127733710,127733662,4325386,-0.271642,0.015979,0.996555,nan,0
128733883,128733838,4325386,0.370712,-0.152333,-0.368049,nan,0
129736096,129736048,4325386,0.17204,0.0884169,-0.243946,nan,0
130735519,130735471,4325386,-0.578971,0.363788,-0.150202,nan,0
131733946,131733898,4325386,-0.385093,-0.0841559,-0.176834,nan,0
132734389,132734343,4325386,-0.0117179,-0.0761664,0.0383495,nan,0
133735890,133735837,4325386,-0.236489,0.13955,0.217847,nan,0
134736512,134736467,4325386,-0.176301,0.162985,-0.203998,nan,0
135734242,135734189,4325386,0.361657,0.203465,-0.0154463,nan,0
136734685,136734636,4325386,-0.360059,-0.163518,-0.0681769,nan,0
137736186,137736134,4325386,0.0378169,0.151268,-0.493217,nan,0
138734579,138734533,4325386,0.187487,-0.0910801,0.429302,nan,0
139734717,139734665,4325386,-0.214118,0.23276,0.201868,nan,0
140735025,140734979,4325386,-0.3036,0.118244,-0.0015979,nan,0
141734428,141734383,4325386,-0.432497,-0.102265,0.164583,nan,0
142734748,142734696,4325386,0.0490022,0.0820254,0.429834,nan,0
143734827,143734783,4325386,-0.31159,-0.0229032,-0.121973,nan,0
144736403,144736350,4325386,1.09775,-0.494283,-0.072438,nan,0
145733251,145733198,4325386,0.545415,-0.406398,-0.0255663,nan,0
146734851,146734805,4325386,-0.262588,-0.317449,0.0378169,nan,0
147735463,147735409,4325386,-0.310525,-0.0873517,-0.525175,nan,0
148736587,148736539,4325386,-0.42504,-0.190682,-0.264186,nan,0
149734051,149734000,4325386,0.0580569,0.205596,0.477771,nan,0
150735046,150734999,4325386,0.512925,0.116646,-0.219977,nan,0
151735973,151735910,4325386,0.206129,-0.275371,-0.0207727,nan,0
152733411,152733362,4325386,-0.567786,0.195476,0.166714,nan,0
153733870,153733820,4325386,0.0974717,0.320645,0.106526,nan,0
154735365,154735315,4325386,0.303068,-0.0340885,0.265251,nan,0
155734268,155734225,4325386,0.0335558,-0.00319579,-0.124636,nan,0
156733733,156733685,4325386,-0.227434,0.0543285,0.102265,nan,0
157735195,157735135,4325386,-1.02905,-0.240217,0.0500674,nan,0
158735636,158735590,4325386,0.275903,-0.056459,-0.398409,nan,0
159733804,159733755,4325386,-0.0143811,0.157659,0.370179,nan,0
160735052,160735005,4325386,0.0516653,0.334493,0.370712,nan,0
161735508,161735461,4325386,-0.681769,0.458064,-0.196009,nan,0
162736469,162736422,4325386,0.623712,-0.0356864,0.104929,nan,0
163734330,163734284,4325386,0.0788296,-0.0415453,0.0553937,nan,0
164735385,164735335,4325386,0.159257,-0.274306,-0.289219,nan,0
165736339,165736292,4325386,-0.117179,0.0,-0.25087,nan,0
166733305,166733259,4325386,0.540089,0.0820254,-0.270577,nan,0
167734820,167734763,4325386,-0.0910801,-0.113983,-0.00479369,nan,0
168735745,168735690,4325386,0.158724,-0.207727,0.0154463,nan,0
169736179,169736133,4325386,0.000532632,0.55447,0.0857538,nan,0
170734640,170734596,4325386,0.0458064,0.00266316,-0.255131,nan,0
171735109,171735056,4325386,0.229032,-0.21252,0.171508,nan,0
172736060,172736015,4325386,-0.386158,0.299872,-0.251935,nan,0
173733815,173733765,4325386,0.586428,-0.0143811,-0.306264,nan,0
174734990,174734943,4325386,0.21039,-0.131028,-0.152333,nan,0
175735954,175735907,4325386,-0.868723,0.408529,0.297741,nan,0
176736468,176736416,4325386,-0.143811,-0.395213,-0.160855,nan,0
177734168,177734122,4325386,0.663127,0.497478,0.201868,nan,0
178734851,178734800,4325386,-0.275903,0.252468,-0.0308927,nan,0
179736592,179736545,4325386,-0.902279,-0.0697748,0.254066,nan,0
180733822,180733777,4325386,1.50895,-0.116114,-0.0921454,nan,0
181734736,181734688,4325386,0.406931,-0.0585895,-0.267381,nan,0
182735200,182735152,4325386,-0.0719053,0.439422,-0.406931,nan,0
183736924,183736879,4325386,-0.819721,0.317981,0.534763,nan,0
184734218,184734168,4325386,-0.691357,-0.39255,-0.0335558,nan,0
185735099,185735048,4325386,-0.528371,0.248739,0.139017,nan,0
186735564,186735511,4325386,0.142213,-0.290817,0.445813,nan,0
187733071,187733027,4325386,-0.179497,-0.0980043,0.379767,nan,0
188734491,188734447,4325386,0.406398,-0.12144,-0.38243,nan,0
189734973,189734926,4325386,0.252468,0.158192,0.471379,nan,0
190736421,190736377,4325386,-0.531567,0.193878,-0.311057,nan,0
191734400,191734352,4325386,-0.489489,0.0537958,-0.292948,nan,0
192734870,192734822,4325386,0.188019,-0.0330232,0.0197074,nan,0
193736567,193736519,4325386,-0.370712,0.0308927,0.41279,nan,0
194733812,194733765,4325386,0.454868,-0.0942759,0.111853,nan,0
195734354,195734309,4325386,0.190682,-0.0703074,0.0452737,nan,0
196735829,196735785,4325386,-0.665258,0.126234,0.237021,nan,0
197736211,197736159,4325386,-0.817058,0.739826,0.246609,nan,0
198734177,198734123,4325386,-0.865705,-0.119665,-0.0901924,nan,0
199734654,199734605,4325386,0.454868,-0.206129,-0.0894822,nan,0
200735827,200735781,4325386,-0.476706,-0.01012,-0.440487,nan,0
201733145,201733098,4325386,0.00266316,0.279099,-0.456466,nan,0
202735063,202735016,4325386,0.51399,-0.750479,-0.485761,nan,0
203735719,203735669,4325386,0.152865,0.347276,0.436758,nan,0
204736080,204736036,4325386,0.474575,-0.558199,-0.322775,nan,0
205733483,205733437,4325386,0.0127832,0.11132,-0.098537,nan,0
206734957,206734909,4325386,0.230097,-0.0170442,0.056459,nan,0
207736641,207736595,4325386,0.257261,-0.0617853,0.458064,nan,0
208732953,208732908,4325386,-0.0910801,0.288154,-0.135289,nan,0
209734444,209734399,4325386,0.217314,0.0607201,-0.103331,nan,0
210735852,210735804,4325386,-0.389354,-0.098537,-0.467118,nan,0
211736316,211736270,4325386,-0.0889496,0.298807,-0.870854,nan,0
212734241,212734191,4325386,0.485761,-0.20027,-0.120375,nan,0
213734769,213734724,4325386,-0.00213053,0.336624,-0.153398,nan,0
214733747,214733703,4325386,-0.709999,0.29348,0.383495,nan,0
215733221,215733178,4325386,0.699346,-0.0761664,-0.456466,nan,0
216734707,216734658,4325386,-1.0152,0.0431432,-0.249804,nan,0
217735221,217735173,4325386,-0.57258,0.113983,0.200802,nan,0
218736643,218736598,4325386,0.401072,-0.191748,-0.0245011,nan,0
219733626,219733582,4325386,0.0953412,-0.206661,0.0127832,nan,0
220735164,220735111,4325386,0.303068,-0.252468,-0.0213053,nan,0
221735578,221735532,4325386,-0.451139,0.313188,-0.00479369,nan,0
222733062,222733016,4325386,0.0687096,0.0910801,-0.157126,nan,0
223734052,223734005,4325386,0.510262,-0.324373,0.185889,nan,0
224735513,224735467,4325386,0.476706,-0.213585,0.11132,nan,0
225733992,225733948,4325386,0.134223,0.189084,-0.325971,nan,0
226734258,226734210,4325386,-0.969391,0.822384,-0.247141,nan,0
227735449,227735403,4325386,-0.788296,0.27111,-0.336624,nan,0
228735936,228735882,4325386,-0.565123,-0.126766,0.182693,nan,0
229733420,229733371,4325386,0.414388,0.0506001,-0.318514,nan,0
230733890,230733846,4325386,-0.365386,0.378169,-0.242348,nan,0
231735398,231735352,4325386,0.396811,-0.0655138,0.319579,nan,0
232736441,232736394,4325386,0.774447,-0.522512,-0.361657,nan,0
233733855,233733810,4325386,0.77711,-0.32384,-0.199204,nan,0
234735326,234735269,4325386,0.137419,-0.0569916,0.215183,nan,0
235736390,235736334,4325386,0.238087,0.523577,-0.26099,nan,0
236733281,236733235,4325386,0.147006,0.036219,0.0484695,nan,0
237734870,237734822,4325386,0.29348,-0.148604,-0.105461,nan,0
238735246,238735199,4325386,0.0442085,0.328101,0.182693,nan,0
239732839,239732795,4325386,0.0442085,-0.194411,0.0340885,nan,0
240734220,240734167,4325386,0.209324,0.0452737,0.187487,nan,0
241734848,241734805,4325386,-0.773915,0.286023,-0.277501,nan,0
242735678,242735627,4325386,-0.481499,0.0830906,0.366451,nan,0
243733217,243733172,4325386,-0.506533,-0.186954,0.240217,nan,0
244734145,244734098,4325386,0.496413,0.143278,-0.309992,nan,0
245735732,245735685,4325386,1.45941,-0.551274,-0.153931,nan,0
246736107,246736063,4325386,0.0575243,-0.12144,-0.218912,nan,0
247733700,247733655,4325386,-0.446346,0.287089,0.284426,nan,0
248735098,248735055,4325386,0.288154,-0.430367,0.0537958,nan,0
249736676,249736632,4325386,0.298807,-0.127299,0.0165116,nan,0
250734055,250734010,4325386,-0.168312,-0.0229032,-0.377104,nan,0
251734046,251733999,4325386,-0.0703074,-0.159257,-0.00639159,nan,0
252735024,252734980,4325386,0.389354,-0.0133158,-0.0900148,nan,0
253734229,253734179,4325386,-0.259392,-0.26312,0.0793622,nan,0
254734547,254734503,4325386,0.53423,-0.133691,0.117712,nan,0
255734989,255734943,4325386,-0.0154463,0.0207727,0.198139,nan,0
256736472,256736427,4325386,0.759533,-0.348874,0.207727,nan,0
257732965,257732922,4325386,0.147006,-0.370712,-0.12943,nan,0
258734499,258734454,4325386,0.123038,0.550742,0.428236,nan,0
259734951,259734900,4325386,-0.500142,-0.0548611,-0.32171,nan,0
260736429,260736379,4325386,0.510262,-0.0804275,0.0276969,nan,0
261734044,261734000,4325386,0.0553937,-0.104929,0.116114,nan,0
262735492,262735441,4325386,-0.159257,-0.152333,0.464455,nan,0
263736628,263736580,4325386,-0.194411,-0.0580569,0.278567,nan,0
264732891,264732846,4325386,0.183225,0.122505,0.441019,nan,0
265734438,265734391,4325386,0.1518,-0.0569916,-0.233826,nan,0
266735876,266735828,4325386,0.355266,-0.210922,0.072438,nan,0
267737125,267737077,4325386,-0.376571,-0.0708401,0.188552,nan,0
268733353,268733308,4325386,0.915595,-0.245543,-0.312655,nan,0
269735844,269735794,4325386,-0.707868,0.164583,0.127832,nan,0
270735839,270735791,4325386,0.118777,0.0319579,-0.30147,nan,0
271733330,271733283,4325386,-0.268979,0.189617,-0.475108,nan,0
272733820,272733774,4325386,0.831439,-0.145409,-0.262588,nan,0
273735418,273735364,4325386,1.40668,-0.224238,-0.192813,nan,0
274736847,274736800,4325386,0.326504,-0.0681769,-0.479902,nan,0
275734607,275734558,4325386,-0.0431432,-0.106526,0.0308927,nan,0
276735292,276735244,4325386,0.673247,-0.200802,-0.0165116,nan,0
277737782,277737731,4325386,-0.658333,-0.00532632,0.0420779,nan,0
278733281,278733236,4325386,0.184291,-0.0127832,0.419714,nan,0
279735021,279734975,4325386,-0.0958738,-0.0809601,-0.166181,nan,0
280735267,280735221,4325386,-0.178432,-0.181095,-0.11132,nan,0
281732776,281732727,4325386,0.84795,-0.271642,0.0,nan,0
282733769,282733721,4325386,-0.64342,-0.0106526,0.421845,nan,0
283735454,283735401,4325386,-0.312122,0.153931,0.0671117,nan,0
284735752,284735700,4325386,-1.44503,0.371777,0.128364,nan,0
285733752,285733703,4325386,-0.290285,-0.0484695,-0.19228,nan,0
286734744,286734697,4325386,0.0426106,-0.135289,0.0165116,nan,0
287735989,287735943,4325386,-0.406398,-0.0841559,0.234891,nan,0
288733009,288732962,4325386,0.779241,-0.413323,-0.224238,nan,0
289734287,289734238,4325386,0.449009,0.109722,0.361125,nan,0
290734729,290734683,4325386,0.478304,-0.258859,-0.066579,nan,0
291736228,291736178,4325386,-0.0782969,0.0149137,0.148072,nan,0
292733799,292733748,4325386,0.634365,-0.0186421,-0.320112,nan,0
293734430,293734385,4325386,-0.295078,0.0335558,0.215183,nan,0
294735757,294735704,4325386,-0.6333,-0.015979,-0.076699,nan,0
295736770,295736719,4325386,-0.00798948,-0.167779,0.0426106,nan,0
296734336,296734291,4325386,0.000532632,0.190682,-0.303068,nan,0
297734854,297734803,4325386,-0.148072,0.136886,-0.123038,nan,0
298735717,298735671,4325386,0.704672,0.0958738,0.158192,nan,0
299733220,299733176,4325386,-0.0506001,0.123571,0.351537,nan,0
300734804,300734759,4325386,0.0782969,-0.31159,-0.171508,nan,0
301735397,301735351,4325386,-1.19469,0.163518,0.176301,nan,0
302736218,302736171,4325386,-0.328101,0.357396,0.358994,nan,0
303733731,303733681,4325386,0.254066,0.0719053,-0.0814927,nan,0
304734830,304734783,4325386,0.438356,-0.193878,-0.574178,nan,0
305736234,305736175,4325386,-0.199737,0.125701,-0.597081,nan,0
306733733,306733683,4325386,-0.190682,0.0996022,0.358461,nan,0
307734274,307734230,4325386,0.0415453,0.109722,-0.144876,nan,0
308735784,308735730,4325386,1.03331,-0.209324,-0.529969,nan,0
309736234,309736182,4325386,-0.506001,0.317449,-0.052198,nan,0
310735238,310735188,4325386,-0.475108,0.0442085,0.214118,nan,0
311734743,311734693,4325386,-0.471912,0.194943,-0.404268,nan,0
312736387,312736344,4325386,-0.351005,-0.0356864,-0.0575243,nan,0
313734306,313734249,4325386,0.253,-0.11931,-0.282295,nan,0
314734307,314734254,4325386,0.46339,-0.145409,-0.55234,nan,0
315735260,315735208,4325386,-0.291882,0.108124,0.173638,nan,0
316736921,316736871,4325386,0.877778,-0.341417,-0.04048,nan,0
317734152,317734097,4325386,-0.478304,0.181628,0.475641,nan,0
318735271,318735224,4325386,-0.0772317,-0.248207,-0.120375,nan,0
319736275,319736226,4325386,-0.396811,0.228499,0.237021,nan,0
320733286,320733238,4325386,-0.276436,-0.320645,0.286556,nan,0
321733786,321733741,4325386,-0.816525,0.225303,0.00426106,nan,0
322735322,322735268,4325386,-0.193878,-0.311057,-0.173638,nan,0
323736841,323736795,4325386,0.67378,0.168312,0.307329,nan,0
324733807,324733761,4325386,0.59282,-0.124636,-0.0671117,nan,0
325735328,325735280,4325386,0.0830906,0.0484695,-0.202933,nan,0
326735903,326735857,4325386,-0.687096,-0.062318,-0.266316,nan,0
327733338,327733291,4325386,-0.327569,0.275371,0.0820254,nan,0
328734384,328734338,4325386,0.698813,-0.108124,-0.387756,nan,0
329735341,329735295,4325386,0.00426106,0.0308927,0.0330232,nan,0
330732858,330732812,4325386,0.407464,-0.233293,0.02024,nan,0
331734409,331734363,4325386,-0.0367516,0.0644485,0.0468716,nan,0
332734900,332734857,4325386,-0.376038,0.0106526,0.176834,nan,0
333736378,333736330,4325386,0.199737,-0.166181,-0.272175,nan,0
334733584,334733536,4325386,-0.190682,0.205596,-0.317449,nan,0
335734898,335734851,4325386,-0.431432,0.0841559,0.331297,nan,0
336735405,336735360,4325386,-0.506001,-0.00479369,-0.232228,nan,0
337732920,337732876,4325386,0.487358,-0.272708,-0.260457,nan,0
338734190,338734136,4325386,0.361125,0.062318,0.376038,nan,0
339735442,339735392,4325386,-0.404268,0.130495,0.330232,nan,0
340735563,340735513,4325386,-0.194411,0.20027,0.21252,nan,0
341734100,341734055,4325386,-0.954477,-0.137952,0.289219,nan,0
342734764,342734721,4325386,0.184823,0.00266316,-0.278034,nan,0
343736099,343736054,4325386,0.114516,-0.102265,-0.052198,nan,0
344736187,344736130,4325386,-0.336091,-0.0452737,0.29348,nan,0
345734029,345733986,4325386,-0.581634,0.226369,0.48363,nan,0
346735260,346735209,4325386,-0.247141,-0.015979,0.0468716,nan,0
347736600,347736557,4325386,0.214651,-0.0165116,-0.345146,nan,0
348734333,348734286,4325386,-0.140615,-0.00692422,-0.150202,nan,0
349734067,349734021,4325386,0.304666,-0.121973,-0.135821,nan,0
350736583,350736539,4325386,0.309459,0.0532632,-0.371245,nan,0
351733281,351733234,4325386,0.898018,-0.6839,0.115049,nan,0
352733913,352733861,4325386,-0.117179,0.0436758,-0.361657,nan,0
353735119,353735072,4325386,0.136354,-0.279099,-0.504403,nan,0
354735820,354735773,4325386,0.197607,0.276436,0.268447,nan,0
355733160,355733111,4325386,0.809068,-0.224771,-0.654605,nan,0
356735753,356735702,4325386,0.0474043,-0.03036,-0.0894822,nan,0
357735181,357735133,4325386,0.446346,-0.0878843,-0.349407,nan,0
358737243,358737198,4325386,-0.574178,0.0516653,0.324373,nan,0
359733754,359733711,4325386,-0.086819,-0.0223706,-0.122505,nan,0
360735240,360735188,4325386,-0.0559264,0.0585895,0.0660464,nan,0
361736327,361736280,4325386,-0.593885,0.141148,0.0127832,nan,0
362733268,362733219,4325386,-0.306264,-0.086819,0.336624,nan,0
363735015,363734971,4325386,-0.534763,0.20027,0.0751011,nan,0
364735356,364735309,4325386,0.0197074,0.0239684,-0.046339,nan,0
365732821,365732773,4325386,-0.223173,-0.036219,0.176301,nan,0
366734339,366734294,4325386,-0.474043,0.0980043,-0.286556,nan,0
367735532,367735486,4325386,-0.331297,0.0697748,0.207194,nan,0
368735864,368735819,4325386,-0.588026,0.0788296,0.243413,nan,0
369733627,369733580,4325386,0.280697,-0.145941,-0.451139,nan,0
370734404,370734359,4325386,0.062318,-0.197607,-0.154463,nan,0
371734995,371734945,4325386,-0.680171,0.0729706,0.0745685,nan,0
372736438,372736393,4325386,0.689759,-1.04289,-0.109722,nan,0
373733472,373733420,4325386,-0.135289,-0.0910801,-0.364853,nan,0
374735028,374734983,4325386,-0.291882,0.0170442,-0.0601874,nan,0
375735621,375735574,4325386,0.206129,-0.155529,0.0426106,nan,0
376733533,376733483,4325386,-0.411192,0.0782969,0.334493,nan,0
377734050,377734003,4325386,0.276436,0.17204,-0.225303,nan,0
378735570,378735525,4325386,-0.0900148,0.163518,-0.00798948,nan,0
379736660,379736606,4325386,-0.15979,0.147006,0.0948085,nan,0
380733621,380733562,4325386,-0.407996,0.0697748,-0.0921454,nan,0
381735405,381735355,4325386,-0.700411,0.052198,-0.143278,nan,0
382736776,382736730,4325386,1.32679,-0.218379,-0.575775,nan,0
383734178,383734126,4325386,-0.117712,0.412257,0.148072,nan,0
384734705,384734657,4325386,-0.893757,0.0319579,-0.0980043,nan,0
385735264,385735220,4325386,-0.470847,-0.113451,0.303068,nan,0
386736870,386736824,4325386,-0.108657,0.0873517,0.188552,nan,0
387734134,387734082,4325386,-0.0149137,0.01012,0.3542,nan,0
388734788,388734738,4325386,-0.464988,-0.375506,0.415986,nan,0
389735823,389735774,4325386,0.0814927,0.0410127,-0.304666,nan,0
390733343,390733300,4325386,1.92493,-0.127832,0.951814,nan,0
391733853,391733810,4325386,0.153398,0.251402,0.23276,nan,0
392735879,392735831,4325386,-0.138484,-0.183225,-0.34408,nan,0
393733410,393733359,4325386,0.99762,-0.0788296,-0.0314253,nan,0
394733929,394733882,4325386,0.862332,0.181628,0.264718,nan,0
395735502,395735453,4325386,-0.046339,0.0165116,-0.0596548,nan,0
396736107,396736062,4325386,0.268979,-0.1518,-0.389354,nan,0
397733505,397733459,4325386,-0.828243,0.38243,0.137419,nan,0
398734129,398734085,4325386,-0.144876,-0.00852211,-0.18003,nan,0
399735596,399735553,4325386,0.247141,-0.056459,-0.348874,nan,0
400736079,400736030,4325386,0.0458064,-0.0458064,0.33396,nan,0
401734604,401734559,4325386,0.292415,-0.0713727,0.108657,nan,0
402735132,402735086,4325386,0.666855,-0.0383495,-0.597613,nan,0
403735705,403735659,4325386,-0.190682,0.207727,-0.225303,nan,0
404733240,404733191,4325386,0.488424,-0.0889496,0.380299,nan,0
405734729,405734674,4325386,0.392017,0.124636,-0.126234,nan,0
406735395,406735349,4325386,0.174703,-0.0697748,-0.0426106,nan,0
407736767,407736718,4325386,-0.526241,0.197074,0.272175,nan,0
408734516,408734468,4325386,-0.101733,-0.0708401,-0.0889496,nan,0
409735346,409735298,4325386,0.0782969,-0.235956,0.241282,nan,0
410735419,410735370,4325386,0.0633832,-0.185889,-0.128897,nan,0
411733922,411733874,4325386,0.377636,-0.302535,-0.273773,nan,0
412734405,412734362,4325386,-0.346744,0.0633832,-0.147006,nan,0
413734954,413734894,4325386,0.429834,-0.290817,-0.255131,nan,0
414736459,414736415,4325386,0.0218379,0.168844,0.41492,nan,0
415734495,415734449,4325386,-0.0841559,-0.173105,-0.195476,nan,0
416735044,416734992,4325386,-1.04822,0.197607,-0.0788296,nan,0
417735551,417735506,4325386,-0.171508,0.103863,0.04048,nan,0
418733086,418733042,4325386,0.681237,-0.31159,-0.0713727,nan,0
419734738,419734691,4325386,0.0015979,-0.03036,0.0239684,nan,0
420736190,420736144,4325386,-0.231695,0.112385,0.0516653,nan,0
421736260,421736215,4325386,-0.519849,0.234891,0.297209,nan,0
422733757,422733711,4325386,0.371245,-0.0937433,-0.110255,nan,0
423735370,423735323,4325386,0.193878,0.0250337,-0.118777,nan,0
424736314,424736269,4325386,0.0367516,0.0170442,0.0340885,nan,0
425733854,425733805,4325386,0.447411,-0.0852211,-0.0782969,nan,0
426734335,426734288,4325386,-0.685498,0.115581,-0.126766,nan,0
427736110,427736064,4325386,-0.584297,0.04048,-0.420247,nan,0
428734488,428734443,4325386,-0.225303,-0.062318,-0.55234,nan,0
429734209,429734156,4325386,0.0751011,-0.0793622,-0.15979,nan,0
430735464,430735415,4325386,-0.369647,-0.0692422,-0.267381,nan,0
431736174,431736113,4325386,-0.667921,0.113451,0.0207727,nan,0
432733534,432733485,4325386,-0.748881,0.137952,-0.0468716,nan,0
433734903,433734858,4325386,-0.0213053,-0.41492,-0.320645,nan,0
434736285,434736239,4325386,-0.103863,0.102798,-0.421845,nan,0
435736740,435736693,4325386,-0.707868,0.344613,0.24075,nan,0
436734219,436734167,4325386,0.847418,-0.111853,-0.129962,nan,0
437734705,437734657,4325386,0.499609,0.478836,0.21039,nan,0
438736328,438736281,4325386,0.459129,-0.526773,-0.137952,nan,0
439733773,439733725,4325386,0.0948085,0.314786,-0.0394148,nan,0
440734808,440734758,4325386,0.792557,-0.55447,-0.206129,nan,0
441735332,441735289,4325386,-0.803209,-0.160855,0.0106526,nan,0
442736375,442736326,4325386,-0.850614,0.468184,-0.120908,nan,0
443734138,443734092,4325386,0.332362,0.234891,-0.169377,nan,0
444735441,444735395,4325386,-0.16991,0.339819,0.0740359,nan,0
445735985,445735932,4325386,-0.32171,-0.126766,-0.115581,nan,0
446733518,446733471,4325386,-0.188019,-0.442617,0.0639159,nan,0
447734059,447734014,4325386,0.470314,-0.0990696,-0.14168,nan,0
448735204,448735155,4325386,0.00532632,-0.0548611,0.365918,nan,0
449736616,449736573,4325386,0.0495348,-0.098537,-0.0324906,nan,0
450733813,450733758,4325386,-0.446878,0.328634,0.0974717,nan,0
451734750,451734700,4325386,-0.072438,0.0905475,-0.245543,nan,0
452735852,452735808,4325386,0.144876,-0.132625,-0.339287,nan,0
453733777,453733728,4325386,-0.172573,0.0788296,-0.16991,nan,0
454734494,454734447,4325386,0.43303,-0.0138484,-0.358994,nan,0
455735935,455735889,4325386,-0.0271642,0.0862864,-0.263653,nan,0
456736409,456736362,4325386,-0.378701,-0.460727,-0.226901,nan,0
457733966,457733923,4325386,0.284426,0.573112,-0.588026,nan,0
458735462,458735414,4325386,-0.0356864,0.0367516,-0.233293,nan,0
459736537,459736492,4325386,-0.136354,0.0527306,-0.0207727,nan,0
460734295,460734246,4325386,-0.302002,0.333428,-0.309459,nan,0
461734589,461734536,4325386,0.235423,-1.14729,-0.230097,nan,0
462735162,462735118,4325386,0.57471,0.28336,-0.165116,nan,0
463733659,463733613,4325386,0.104929,-0.00852211,0.374973,nan,0
464734214,464734160,4325386,-0.0372843,-0.0138484,0.385626,nan,0
465734741,465734694,4325386,0.570449,-0.295078,-0.494283,nan,0
466736276,466736228,4325386,-0.0175769,-0.0314253,-0.197607,nan,0
467733824,467733776,4325386,0.211988,-0.33183,-0.281762,nan,0
468733858,468733813,4325386,0.177899,-0.218379,0.0410127,nan,0
469735445,469735398,4325386,0.0186421,0.0127832,0.0532632,nan,0
470736451,470736401,4325386,0.165649,0.0569916,-0.0165116,nan,0
471734773,471734728,4325386,-0.0426106,-0.0388821,-0.00585895,nan,0
