timestamp,timestamp_sample,accel_device_id,gyro_device_id,delta_angle[0],delta_angle[1],delta_angle[2],delta_velocity[0],delta_velocity[1],delta_velocity[2],delta_angle_dt,delta_velocity_dt,delta_velocity_clipping
99736727,99736394,3670026,3670026,-3.12424e-05,-5.39497e-05,-3.47574e-05,0.00188967,-0.000573572,-0.0482251,4967,4967,0
99741702,99741369,3670026,3670026,-5.05205e-05,-0.000153116,-3.4995e-05,0.00191291,-0.000914386,-0.0484098,4975,4975,0
100238323,100237963,3670026,3670026,0.000372307,2.19373e-05,0.000355329,0.00185384,0.00394262,-0.0475742,4968,4968,0
100739878,100739532,3670026,3670026,0.000339768,0.00046831,0.00021441,0.00752705,-0.00466714,-0.048899,4966,4966,0
101241491,101241169,3670026,3670026,-0.000764399,-0.000656615,-0.000477262,-0.00592335,5.45038e-05,-0.0502945,4968,4968,0
101738070,101737750,3670026,3670026,0.000771551,-0.00066354,-0.000445588,0.00663469,-0.00419144,-0.0487236,4986,4986,0
102239647,102239280,3670026,3670026,0.000178739,-0.00015229,0.00018257,0.00338741,-0.000126781,-0.0482019,4968,4968,0
102741329,102740850,3670026,3670026,-0.00119331,-4.97109e-05,-0.000427342,-0.00406019,0.000347609,-0.0469285,4966,4966,0
103242746,103242421,3670026,3670026,0.000984992,0.000213147,3.76268e-06,0.00445685,-0.0026411,-0.0521801,4966,4966,0
103739373,103739026,3670026,3670026,-0.00106463,0.000846147,6.09925e-05,-0.00326455,-0.00446458,-0.0482076,4950,4950,0
104240989,104240646,3670026,3670026,0.000771238,-0.00012663,0.000331326,0.0032623,0.00382393,-0.0477701,5014,5014,0
104737622,104737249,3670026,3670026,-0.000457907,0.000581823,0.000448172,-0.00789856,-0.00515195,-0.0487726,4984,4984,0
105239153,105238781,3670026,3670026,0.0010225,-0.000482694,-0.000187633,0.00643863,-0.00533995,-0.0477194,4972,4972,0
105740717,105740349,3670026,3670026,-0.000491918,-0.000198277,9.76129e-05,0.000952546,0.00226215,-0.0453878,4967,4967,0
106242292,106241920,3670026,3670026,3.83982e-06,-0.000838816,-0.000284098,0.000781283,-0.000112133,-0.0503254,4967,4967,0
106738846,106738526,3670026,3670026,0.000992596,-6.39733e-05,2.45934e-05,0.00851164,-0.00555237,-0.0495389,4966,4966,0
107240466,107240125,3670026,3670026,-0.00100272,-0.000516762,-0.000464175,-0.00119476,0.00941098,-0.0474601,4956,4956,0
107737053,107736705,3670026,3670026,0.000364173,0.000476643,0.000257102,0.0054763,-0.00208484,-0.051437,4963,4963,0
108238698,108238330,3670026,3670026,0.000450514,-0.00021689,-0.000420174,-0.00314709,-0.000242206,-0.0479967,4993,4993,0
108740180,108739851,3670026,3670026,0.000421088,0.00047416,0.000259926,0.00105196,-0.00371559,-0.0454288,4966,4966,0
109241808,109241424,3670026,3670026,-0.00109423,0.00168508,4.69007e-05,-0.0103643,0.000117025,-0.055527,4966,4966,0
109743333,109743001,3670026,3670026,0.00164857,-0.000875425,0.000156414,0.00246506,0.000768138,-0.0412043,4928,4928,0
110239980,110239607,3670026,3670026,-0.000466183,-0.000320498,0.000327895,0.0151494,0.0128212,-0.0286976,4969,4969,0
110736555,110736213,3670026,3670026,-0.00320273,0.000350502,0.000679152,0.000182918,0.0104792,-0.0560531,4966,4966,0
111238204,111237804,3670026,3670026,0.000288157,-0.000612059,0.000137065,0.0128465,-0.00161297,-0.0378172,4934,4934,0
111739830,111739415,3670026,3670026,0.00271456,-0.00057204,-0.000444091,-0.00397203,-0.00700674,-0.0510201,4994,4994,0
112241366,112240937,3670026,3670026,-0.000634267,-0.00166136,-7.3313e-05,0.0216727,0.0128588,-0.0259981,4969,4969,0
112742884,112742508,3670026,3670026,0.00129946,-0.000530929,1.61887e-05,0.00538315,0.00541868,-0.0357188,4966,4966,0
113239443,113239117,3670026,3670026,-0.00184113,0.000828605,0.000549105,-0.00197536,0.00651502,-0.0512377,4966,4966,0
113741068,113740691,3670026,3670026,0.00163883,-0.00154009,-0.00090657,0.0230678,0.00428244,-0.0275749,4966,4966,0
114237686,114237301,3670026,3670026,-0.00274259,0.00134788,0.000957916,-0.000768401,-0.00120124,-0.0562184,4968,4968,0
114739251,114738897,3670026,3670026,-0.000515396,-0.00154778,-0.000374778,0.0119047,0.00740489,-0.0366786,4986,4986,0
115240931,115240507,3670026,3670026,0.000327682,0.000862427,0.000369631,-0.0201337,-0.00993232,-0.0609847,4990,4990,0
115742508,115742023,3670026,3670026,-0.000315291,-0.000121721,-0.000493877,0.01259,0.00604804,-0.0332456,4965,4965,0
116239026,116238633,3670026,3670026,0.00104581,-0.000999045,-0.000439279,-0.00920437,-0.0175731,-0.058885,4967,4967,0
116740643,116740216,3670026,3670026,-0.00128576,0.00127008,0.000489732,0.000632216,0.00907912,-0.0474388,4913,4913,0
117242234,117241784,3670026,3670026,-7.03054e-05,0.00129571,0.000380651,-0.000308942,-0.00322215,-0.0479832,4966,4966,0
117738767,117738426,3670026,3670026,-6.35937e-05,0.0013858,0.000328811,-0.0110228,0.000707365,-0.0539975,4999,4999,0
118240324,118239969,3670026,3670026,-0.00107196,0.00080006,0.000818203,-0.00247459,0.015264,-0.0469007,4965,4965,0
118742027,118741609,3670026,3670026,0.000705824,-0.000808957,-0.000433347,0.00802069,0.00304892,-0.0410715,4987,4987,0
119238522,119238155,3670026,3670026,0.00190694,-0.000390377,-0.00106314,0.00204025,-0.00980601,-0.0397882,4957,4957,0
119740053,119739732,3670026,3670026,-0.000297478,0.000159071,0.000397327,6.53602e-05,-0.0153205,-0.0557616,4967,4967,0
120241647,120241319,3670026,3670026,0.00121908,-0.000568626,-0.00149604,0.00430866,-7.53464e-05,-0.0401787,4974,4974,0
120743347,120742884,3670026,3670026,-0.00231937,0.000959131,0.00056105,-0.0177239,0.00163306,-0.0644113,4961,4961,0
121239850,121239507,3670026,3670026,-0.000148862,-2.5262e-05,-0.00067565,-0.00456755,-0.00755111,-0.0529825,4923,4923,0
121741420,121741072,3670026,3670026,0.0011721,-7.83596e-05,0.000115702,0.0053956,-0.00624253,-0.0397536,4966,4966,0
122238044,122237722,3670026,3670026,-0.000271813,0.000550887,0.000979725,0.0060026,0.0207967,-0.0480021,4947,4947,0
122739632,122739260,3670026,3670026,0.00155516,-0.000588452,-0.000221976,-0.0022903,-0.0201977,-0.0497149,4967,4967,0
123241306,123240838,3670026,3670026,-0.00183477,0.000248147,0.000295341,-0.0157057,-0.000121126,-0.0614447,4967,4967,0
123742738,123742415,3670026,3670026,0.00147497,-0.000354767,-0.000613447,-0.000352616,0.00224913,-0.0459768,4967,4967,0
124239354,124239027,3670026,3670026,-0.000824102,0.000174713,-0.00147862,-0.0047054,-0.0161892,-0.0484261,4950,4950,0
124740964,124740604,3670026,3670026,-0.000774442,-0.000145286,0.000366868,-0.00337093,-0.00539075,-0.0528803,4966,4966,0
125237561,125237216,3670026,3670026,-0.000575182,0.000530566,0.000465581,-0.00677173,0.00468446,-0.0554461,4963,4963,0
125739228,125738900,3670026,3670026,0.00151414,-0.000264417,0.000492498,0.00555302,0.00743244,-0.0407817,4997,4997,0
126240737,126240372,3670026,3670026,0.000180866,-0.000231569,-0.000619921,0.00440701,0.00424108,-0.0405311,4966,4966,0
126742381,126741950,3670026,3670026,0.00226954,-0.000963291,-0.00181293,0.00336225,-0.0197533,-0.0457674,4966,4966,0
127238948,127238563,3670026,3670026,-0.00019107,0.000360445,0.000645529,-0.000635626,0.00396136,-0.0482356,4966,4966,0
127740487,127740142,3670026,3670026,-0.000266119,-8.21563e-05,0.00272422,-8.15512e-05,-0.0135362,-0.0468732,4967,4967,0
128237098,128236754,3670026,3670026,-0.000483783,-0.00108037,0.000165321,0.00247335,-0.00671392,-0.0442915,4966,4966,0
128738677,128738333,3670026,3670026,-0.000714404,-0.000299291,-0.000268461,-0.00977192,-0.0130425,-0.051763,4963,4963,0
129240383,129239962,3670026,3670026,0.00222698,0.000155626,-0.000976581,0.00982953,0.00450427,-0.0330522,4985,4985,0
129741859,129741491,3670026,3670026,4.28243e-05,0.000115316,-0.000311445,-0.00210102,0.0032022,-0.0520865,4966,4966,0
130238429,130238105,3670026,3670026,0.000663531,-0.000379398,-0.000743942,0.00273435,-0.0167863,-0.0428489,4966,4966,0
130740012,130739686,3670026,3670026,-0.000403837,0.000201082,0.00060261,0.00211283,0.015262,-0.0459575,4968,4968,0
131236635,131236312,3670026,3670026,-0.00315361,0.000810904,0.000776638,-0.00791143,0.00658058,-0.0549802,4977,4977,0
131738280,131737878,3670026,3670026,-0.00233916,-0.000679874,0.000448944,-0.00788192,0.00164676,-0.0546983,4913,4913,0
132239806,132239458,3670026,3670026,0.000218937,-0.000684816,-0.000551383,0.00167887,-0.00560158,-0.0441116,4966,4966,0
132741508,132741098,3670026,3670026,-0.000724611,0.000585348,-9.08993e-05,-0.00330983,0.00534987,-0.0453418,4982,4982,0
133237976,133237652,3670026,3670026,0.00244462,-0.00185719,-0.000789334,0.00517823,0.00162481,-0.0416842,4943,4943,0
133739571,133739235,3670026,3670026,0.000389166,0.000560438,-5.7191e-06,0.0032984,0.0152326,-0.04431,4968,4968,0
134241188,134240813,3670026,3670026,0.000489936,0.000250152,-0.000365764,-0.000807289,0.00185712,-0.0474816,4966,4966,0
134742723,134742394,3670026,3670026,-0.00200965,-6.14023e-05,0.00042999,0.00496075,0.00222372,-0.0419735,4965,4965,0
135239359,135239012,3670026,3670026,0.00112484,-0.000664551,-0.000769755,0.0102961,-0.00716041,-0.036922,4969,4969,0
135740972,135740591,3670026,3670026,-0.00101065,0.000873386,-0.000510975,-0.0070778,-0.0150338,-0.0559794,4967,4967,0
136237563,136237238,3670026,3670026,0.00108935,0.00157501,0.0011636,0.00348478,0.0202203,-0.0403473,4962,4962,0
136739169,136738788,3670026,3670026,0.000622081,-0.000532621,-0.000617621,-0.00160399,-0.00677797,-0.0488574,4968,4968,0
137240714,137240391,3670026,3670026,-0.000847967,0.000772505,0.000618912,-0.00269465,0.023024,-0.0502128,4984,4984,0
137742365,137741949,3670026,3670026,0.00141865,-0.000326561,-0.000790285,-0.004153,-0.014268,-0.0513859,4966,4966,0
138239003,138238566,3670026,3670026,-6.75282e-05,-0.000682616,-0.000578493,-0.00908594,-0.00353008,-0.0461418,4967,4967,0
138740505,138740148,3670026,3670026,-0.00034578,0.000661985,0.00038001,-0.00297514,0.00292347,-0.0438691,4967,4967,0
139237106,139236763,3670026,3670026,0.000432153,0.000746534,-0.000791814,-0.00665623,0.00962272,-0.0430205,4768,4768,0
139738805,139738393,3670026,3670026,0.000516663,-0.000435466,0.00103939,0.00198806,0.0176942,-0.0414103,4985,4985,0
140240307,140239928,3670026,3670026,0.00203861,-0.00148668,-0.000506227,0.00575188,-0.0120298,-0.0431652,4966,4966,0
140741834,140741512,3670026,3670026,0.0010282,0.00128735,-0.00038494,-0.00942261,-0.0194058,-0.0587348,4968,4968,0
141238461,141238127,3670026,3670026,0.000581384,-0.00061683,-0.000752114,0.00159438,0.00405121,-0.0432361,4966,4966,0
141740083,141739709,3670026,3670026,-0.000189621,-0.000272339,0.000746875,-7.77727e-05,0.00437954,-0.044794,4966,4966,0
142236675,142236326,3670026,3670026,0.00234388,-0.000307786,-0.00100023,0.00307972,-0.0169963,-0.0431282,4966,4966,0
142738277,142737926,3670026,3670026,-7.56545e-05,-0.000561311,-7.27812e-05,0.00551145,0.00865882,-0.0382615,4741,4741,0
143239868,143239542,3670026,3670026,-0.00105474,0.000621944,0.00114843,-0.00737429,0.0294966,-0.0516172,4992,4992,0
143741398,143741076,3670026,3670026,0.000768469,-0.000238917,-0.000177416,-0.00339199,0.00194573,-0.047746,4964,4964,0
144238016,144237693,3670026,3670026,0.000534199,-0.000213986,0.000368979,0.000780501,-0.00742798,-0.0508382,4966,4966,0
144739618,144739279,3670026,3670026,0.00253327,-0.00129493,-0.00126203,0.000381945,-0.0210243,-0.0478709,4968,4968,0
145241286,145240876,3670026,3670026,-0.000505502,-5.85604e-05,3.41983e-05,0.00288426,-0.00171322,-0.0436496,4978,4978,0
145737826,145737479,3670026,3670026,0.00205462,-0.00174135,-0.001108,-0.00166853,-0.0203921,-0.0493657,4966,4966,0
146239404,146239063,3670026,3670026,-0.00178618,0.000956354,0.000277372,-0.0176304,0.00363718,-0.0629185,4962,4962,0
146741079,146740754,3670026,3670026,0.002213,-0.0015967,-0.000724253,-0.00414692,-0.0221552,-0.0509748,4985,4985,0
147237677,147237266,3670026,3670026,-1.90075e-05,-0.000213047,0.000147983,0.00271766,0.0240219,-0.0374585,4966,4966,0
147739293,147738850,3670026,3670026,0.000402532,-0.000114835,-0.000834454,-0.00620655,-0.00456616,-0.0495105,4965,4965,0
148240760,148240434,3670026,3670026,-0.000760891,0.000586264,0.000450587,-0.00808012,-0.0125066,-0.0565571,4965,4965,0
148742342,148742020,3670026,3670026,-0.000992784,-0.00021951,0.00130281,-0.00601901,0.0310411,-0.0511421,4964,4964,0
149238984,149238638,3670026,3670026,-0.00118035,-1.96694e-05,0.00101071,-0.00627507,0.0148912,-0.0553039,4964,4964,0
149740566,149740224,3670026,3670026,0.0010722,-3.42512e-05,-0.000793626,-0.00182518,-0.0053258,-0.0451453,4967,4967,0
150237314,150236934,3670026,3670026,-0.0012948,-2.08429e-05,0.000482574,0.00360103,0.000224692,-0.041317,4992,4992,0
150738800,150738428,3670026,3670026,0.00121833,0.000644675,-0.000782358,-0.00637822,-0.00494062,-0.0539454,4966,4966,0
151240389,151240014,3670026,3670026,-0.00103691,-2.01816e-05,0.000349888,0.000146447,0.0104093,-0.0415835,4967,4967,0
151741984,151741599,3670026,3670026,0.00104163,-0.000219052,-0.000544488,-0.0123211,-0.0166487,-0.0590867,4966,4966,0
152243513,152243185,3670026,3670026,-1.34552e-05,0.000693138,0.000493975,-0.00290811,0.00198143,-0.0539227,4965,4965,0
152740146,152739805,3670026,3670026,0.000717926,7.87059e-05,-0.000390117,0.00759567,0.00722709,-0.034632,4966,4966,0
153236768,153236425,3670026,3670026,0.000155718,-0.000439394,-0.000607981,0.00752999,0.00549616,-0.0357195,4775,4775,0
153738392,153738061,3670026,3670026,3.96925e-05,0.000378179,0.000488542,0.00279146,-0.0050673,-0.0490373,4998,4998,0
154240006,154239600,3670026,3670026,-0.00195679,0.00073859,0.000458592,-0.0106934,0.0173816,-0.0578283,4969,4969,0
154741580,154741211,3670026,3670026,0.000880072,-0.0005793,-0.000976896,-0.0053528,-0.0266992,-0.0552565,4990,4990,0
155243192,155242771,3670026,3670026,-0.00195624,0.000456419,0.000121726,-0.00930986,-0.0177996,-0.0567668,4966,4966,0
155739834,155739391,3670026,3670026,-0.00078582,0.00034536,0.000513253,-0.00527163,0.00491013,-0.0520309,4966,4966,0
156236400,156236057,3670026,3670026,0.00103273,-0.00112412,-0.000646113,0.00814745,0.00812685,-0.0365328,4989,4989,0
156737942,156737600,3670026,3670026,0.000132933,0.000952822,-0.00080843,-0.00451544,0.00432232,-0.0460235,4964,4964,0
157239637,157239230,3670026,3670026,-0.00112702,0.0003687,0.000732624,-0.000214959,0.0258997,-0.0412894,4986,4986,0
157741097,157740774,3670026,3670026,-0.00805666,0.00129995,0.0013412,-0.00646108,0.0240177,-0.0510257,4966,4966,0
158242695,158242362,3670026,3670026,-0.00157932,0.000271957,0.000860422,0.00292784,0.0179007,-0.0372409,4966,4966,0
158739308,158738980,3670026,3670026,-0.00145491,-0.000215532,-0.000349555,-0.0110658,-0.0280524,-0.0598592,4927,4927,0
159241021,159240571,3670026,3670026,0.00159457,-0.000433468,0.000359794,0.00378717,0.00443225,-0.0417828,4964,4964,0
159737551,159737195,3670026,3670026,0.000309979,-0.000212972,0.000469485,0.00602533,0.00281872,-0.0390487,4968,4968,0
160239124,160238781,3670026,3670026,0.00157264,-0.000571501,-0.000407169,-0.00543949,-0.00960762,-0.0528032,4962,4962,0
160740793,160740473,3670026,3670026,0.00126867,-0.000762625,-0.000857379,0.00452599,-0.0131305,-0.0411001,4983,4983,0
161242345,161241960,3670026,3670026,-5.71512e-05,-0.000116222,-0.000962563,0.00231726,-0.0250881,-0.0483006,4968,4968,0
161738900,161738578,3670026,3670026,-0.00209555,0.00153674,0.000872576,-0.00764837,0.0172755,-0.0557308,4932,4932,0
162240598,162240172,3670026,3670026,0.000135892,-1.30745e-05,0.000519049,0.00163785,0.00331996,-0.0496123,4924,4924,0
162742078,162741757,3670026,3670026,2.22487e-05,7.12209e-05,-0.00080877,-0.00712798,-0.0153946,-0.0525777,4959,4959,0
163238727,163238380,3670026,3670026,-0.00148604,-3.28833e-05,0.00064101,0.0058524,0.0187993,-0.0420845,4966,4966,0
163740319,163739969,3670026,3670026,0.000845395,-0.00129756,-4.9694e-05,0.00134135,-0.00796472,-0.0437023,4966,4966,0
164237055,164236624,3670026,3670026,0.00133787,0.00177119,-0.000327222,0.00792799,-0.0158923,-0.0395884,4933,4933,0
164738570,164738184,3670026,3670026,0.00123946,-0.0016587,-0.000480983,-0.00980674,-0.0018017,-0.0546628,4968,4968,0
165240161,165239772,3670026,3670026,-4.60774e-05,0.000215004,0.000464,-0.000106761,0.0149682,-0.0538629,4967,4967,0
165741730,165741364,3670026,3670026,-0.00038351,0.000451193,-0.000224611,-0.00178595,0.00485729,-0.0511269,4969,4969,0
166243400,166242951,3670026,3670026,0.000467809,-0.000825884,-0.00036416,-0.00380515,0.00813743,-0.0495955,4965,4965,0
166739921,166739575,3670026,3670026,-0.00217405,0.00180312,0.000658581,-0.0126962,-0.00781958,-0.0619409,4970,4970,0
167236549,167236204,3670026,3670026,-0.000219895,4.62213e-05,-0.000300124,-0.0115033,-0.0212257,-0.057828,4772,4772,0
167738268,167737934,3670026,3670026,-0.000765432,0.000129824,3.26658e-05,-0.00175763,0.00151274,-0.0520837,4989,4989,0
168239795,168239379,3670026,3670026,-0.00114894,0.000275187,0.000854714,-0.0120769,-6.5403e-05,-0.060798,4966,4966,0
168741300,168740971,3670026,3670026,0.000943373,-0.000313594,0.000736378,-0.00384153,-0.00392929,-0.0539442,4965,4965,0
169242886,169242560,3670026,3670026,-0.000705149,0.000247519,3.66811e-05,-0.00737612,-0.00286104,-0.0567826,4960,4960,0
169739545,169739224,3670026,3670026,5.14267e-05,0.00284044,0.000232818,-0.00142063,0.000655191,-0.0519212,4980,4980,0
170236200,170235811,3670026,3670026,-0.00070988,-0.00118915,8.29548e-05,-0.000139373,0.00570018,-0.0420832,4968,4968,0
170737751,170737401,3670026,3670026,-0.000889749,0.000307621,0.000140805,-0.00720772,-0.0159758,-0.0568763,4774,4774,0
171239414,171239031,3670026,3670026,0.000250195,0.000244495,-0.000440337,0.00922182,-0.000821883,-0.0373912,4971,4971,0
171740903,171740583,3670026,3670026,1.94834e-05,-0.000204117,0.000275621,-0.00120325,-0.00204931,-0.0485351,4966,4966,0
172242586,172242176,3670026,3670026,-0.000576984,-0.00146002,1.80236e-05,-0.013642,-0.0218222,-0.058257,4968,4968,0
172739237,172738800,3670026,3670026,-0.00178362,0.000368594,0.000629144,-0.0101219,-0.00840825,-0.0584706,4966,4966,0
173240719,173240392,3670026,3670026,0.00318065,-3.86912e-05,-0.00167711,0.00491864,-0.0207809,-0.0425687,4965,4965,0
173737379,173737017,3670026,3670026,0.00087905,-0.000451099,-0.000617807,4.1324e-06,-0.0232742,-0.047546,4964,4964,0
174238956,174238609,3670026,3670026,-0.000739701,0.000125954,-0.000816855,-0.0053796,0.00011025,-0.0487913,4963,4963,0
174740627,174740304,3670026,3670026,0.00145659,-0.000396459,-0.000233191,-0.00611634,-0.0119184,-0.0504276,5037,5037,0
175242119,175241794,3670026,3670026,3.08819e-05,0.000157343,0.000495033,-0.00763223,0.0197288,-0.0565403,4966,4966,0
175738748,175738420,3670026,3670026,-0.0030519,0.00102943,0.00105899,-0.00729715,0.01633,-0.0506962,4966,4966,0
176240346,176240013,3670026,3670026,-0.00233551,0.000573344,-5.53998e-05,-0.00302417,-0.000399644,-0.0570832,4965,4965,0
176741940,176741605,3670026,3670026,0.000506989,-0.00121751,-2.164e-05,-0.00526438,0.00207282,-0.052919,4949,4949,0
177238617,177238232,3670026,3670026,-0.001022,0.000787377,0.000872956,-0.00628928,0.0197282,-0.0521536,4966,4966,0
177740232,177739873,3670026,3670026,0.00405638,0.000334331,-0.000700393,-1.6014e-05,0.00594657,-0.0454182,4983,4983,0
178241953,178241469,3670026,3670026,-0.000621447,7.05931e-05,5.1997e-05,0.00327148,0.000335763,-0.0433175,4988,4988,0
178738421,178738046,3670026,3670026,-0.00157335,0.0014884,0.000750618,-0.0107598,0.00199354,-0.0575537,4967,4967,0
179239997,179239670,3670026,3670026,0.00199726,-0.00049887,-0.000756578,0.00798997,-0.0188462,-0.0347272,4997,4997,0
179741645,179741232,3670026,3670026,0.000423829,-0.000445411,0.000342089,0.00698476,0.0239262,-0.0364382,4964,4964,0
180243274,180242825,3670026,3670026,-0.000257099,0.0025278,0.000159396,0.00266818,0.00366702,-0.0445581,4948,4948,0
180739843,180739453,3670026,3670026,0.00175636,0.000311183,0.000648246,-0.00811691,0.000889872,-0.0537625,4966,4966,0
181241392,181241047,3670026,3670026,-0.00204877,0.00116399,0.000857875,-0.00973061,0.0191539,-0.0567325,4966,4966,0
181738122,181737711,3670026,3670026,0.00053094,-0.00111768,-5.46242e-05,-0.00655458,-0.00468906,-0.0573013,4942,4942,0
182239639,182239269,3670026,3670026,-0.000293455,-0.000286081,-0.000545881,-0.00305717,-0.00498078,-0.0461932,4966,4966,0
182741294,182740864,3670026,3670026,-0.00166999,0.00234767,0.000550769,-0.00663057,0.00845608,-0.0527189,4967,4967,0
183242783,183242458,3670026,3670026,-0.00221338,0.000726842,0.000665217,-0.0130691,-0.00452628,-0.0601586,4967,4967,0
183739455,183739086,3670026,3670026,-0.0050298,0.00087706,0.00122236,0.0012257,0.0310306,-0.0418562,4966,4966,0
184236062,184235714,3670026,3670026,-0.000210361,0.000223255,-0.000171695,-0.0107776,0.000559961,-0.0575082,4966,4966,0
184737670,184737309,3670026,3670026,-0.00166492,-0.0013796,0.0010843,-0.00255193,0.0156939,-0.0485759,4773,4773,0
185239414,185239004,3670026,3670026,0.000209274,-0.000142266,-0.000860115,-0.00366699,0.00224596,-0.0450242,4991,4991,0
185740822,185740499,3670026,3670026,0.000992178,0.000189796,4.81302e-05,0.0013432,0.00812101,-0.040002,4966,4966,0
186242465,186242095,3670026,3670026,-0.00184466,0.000995499,0.00119991,-0.00968592,0.0010952,-0.0568212,4967,4967,0
186739047,186738724,3670026,3670026,0.00065896,-0.000234678,0.000310319,0.00460258,-0.00401079,-0.0414481,4967,4967,0
187240766,187240320,3670026,3670026,-0.00220571,0.00147536,0.000879845,-0.00553955,-0.004866,-0.053163,4966,4966,0
187737354,187736962,3670026,3670026,0.00134036,0.000446244,0.000372711,0.00158283,0.0103718,-0.0409115,4976,4976,0
188238887,188238545,3670026,3670026,0.000624448,-0.000611721,0.000774733,0.000676485,0.000400947,-0.0464757,4964,4964,0
188740616,188740250,3670026,3670026,-0.00131039,7.83977e-05,0.00132057,-0.00753802,0.0138395,-0.0519357,5036,5036,0
189242113,189241737,3670026,3670026,0.000941967,-6.13723e-05,-0.000648041,0.00359222,-0.00086477,-0.039397,4967,4967,0
189738738,189738367,3670026,3670026,0.0012951,-0.000111612,0.000653548,0.00361707,0.000231257,-0.0411619,4965,4965,0
190240299,190239963,3670026,3670026,-0.0017504,-0.000427585,0.000487227,-0.00995062,0.00604485,-0.0601201,4966,4966,0
190741881,190741560,3670026,3670026,-0.00100682,0.000815352,0.000962215,-0.00190042,0.0117577,-0.0447598,4965,4965,0
191238536,191238192,3670026,3670026,0.00222926,-0.0011963,-0.000697187,0.00912393,-0.00983658,-0.0381517,4972,4972,0
191740132,191739786,3670026,3670026,0.00104523,-0.000772397,0.000562665,0.00159401,0.0138626,-0.0471981,4966,4966,0
192241814,192241487,3670026,3670026,-0.000445791,0.000764824,0.000207497,0.000482695,0.00833392,-0.0423784,4992,4992,0
192738384,192738014,3670026,3670026,0.00189337,-0.00111509,-0.000732704,0.0131268,0.00645471,-0.0333355,4967,4967,0
193239963,193239638,3670026,3670026,0.00213804,-0.00033478,-0.000389925,0.00501603,-0.0199501,-0.03686,4960,4960,0
193741618,193741209,3670026,3670026,0.000496159,-0.000236939,-0.000145784,0.00615997,-0.00871976,-0.0343905,4965,4965,0
194243175,194242806,3670026,3670026,-0.00101161,0.000355791,0.000195684,-0.00535717,0.00961488,-0.0452141,4966,4966,0
194739827,194739437,3670026,3670026,0.00217439,-0.000194225,-0.000534194,-0.00489369,-0.000595105,-0.0509445,4966,4966,0
195241378,195241033,3670026,3670026,-4.56537e-05,0.000207885,0.000726353,-0.000602107,-0.00728835,-0.0516963,4965,4965,0
195738077,195737705,3670026,3670026,0.00120927,8.46719e-05,-0.000411277,-0.00214521,0.00121768,-0.0493429,4990,4990,0
196239671,196239264,3670026,3670026,-0.000256666,-0.000532586,0.00128336,-0.00362318,0.0244384,-0.0513009,4966,4966,0
196741191,196740864,3670026,3670026,-0.000547386,2.01541e-05,4.58607e-05,0.00718682,0.0144319,-0.0405402,4967,4967,0
197242827,197242460,3670026,3670026,-0.00074606,-0.000520357,-0.000399284,-0.0136747,-0.0195588,-0.0613788,4966,4966,0
197739539,197739093,3670026,3670026,-0.00288551,0.00375779,0.000927545,-0.00838318,0.00323955,-0.0584835,4967,4967,0
198236118,198235724,3670026,3670026,0.00054057,-0.000492915,-0.000554985,-0.00151264,-0.00342466,-0.0432126,4966,4966,0
198737683,198737335,3670026,3670026,-0.00203908,-0.000509562,-0.0006552,0.00839719,0.00502119,-0.032407,4732,4732,0
199239400,199239021,3670026,3670026,-0.00194758,0.000816598,0.00120797,-0.00466987,0.0237128,-0.0474565,4984,4984,0
199740936,199740520,3670026,3670026,-0.00069168,-0.000684354,-0.000557334,-0.0132318,-0.0208695,-0.0620784,4966,4966,0
200242447,200242119,3670026,3670026,-0.000247648,0.00124183,0.000271778,-0.00795641,-0.00635125,-0.0546804,4966,4966,0
200739074,200738752,3670026,3670026,-0.00174587,-0.000382374,-0.000665581,0.00067641,-0.00277245,-0.0451308,4967,4967,0
201240691,201240359,3670026,3670026,-0.000457469,-0.000214117,2.2982e-05,-0.0086905,0.00475995,-0.0567949,4975,4975,0
201737379,201736984,3670026,3670026,0.00118038,-0.000455138,-0.000291568,-0.00233246,0.00538025,-0.0473096,4966,4966,0
202238927,202238583,3670026,3670026,-0.000910479,-0.000711122,-0.00077552,0.00635789,0.000578326,-0.0375256,4963,4963,0
202740639,202740311,3670026,3670026,-0.00085129,-0.0019865,-5.44024e-05,-0.0134638,-0.0220046,-0.0582355,4999,4999,0
203242207,203241786,3670026,3670026,0.000241491,0.000661092,0.000265124,0.00208837,0.0107966,-0.038634,4927,4927,0
203738834,203738416,3670026,3670026,0.000294928,0.000309502,0.00107756,0.00307678,0.0180865,-0.0449205,4966,4966,0
204240394,204240016,3670026,3670026,0.000185429,-0.000262996,-0.000606326,0.00439493,-0.0120602,-0.0363158,4967,4967,0
204742067,204741616,3670026,3670026,-2.45137e-05,-0.00170395,-0.000446969,-0.00770409,-0.0264923,-0.0543023,4959,4959,0
205238601,205238250,3670026,3670026,-0.000347997,-0.000150263,-0.000476168,-0.00112508,-0.00402912,-0.0428642,4967,4967,0
205740202,205739850,3670026,3670026,-0.000266213,-0.000408804,-0.000846762,-0.00813243,-0.0150235,-0.0550458,4967,4967,0
206241834,206241504,3670026,3670026,0.001092,0.00116628,8.28737e-05,0.00691898,0.00434793,-0.0353548,4983,4983,0
206738425,206738098,3670026,3670026,-0.00104656,0.000493517,-0.000296583,-0.00625275,0.00243768,-0.0542022,4977,4977,0
207240021,207239692,3670026,3670026,-0.00013401,-0.000342667,2.22478e-05,-0.0122912,-0.0224584,-0.0616736,4973,4973,0
207741701,207741286,3670026,3670026,0.00183132,-0.000451723,-0.000516467,0.00849807,-0.0169476,-0.0443321,4967,4967,0
208243347,208242887,3670026,3670026,0.00221506,0.00117166,-0.000657944,0.0114387,0.00670308,-0.036949,4967,4967,0
208739869,208739521,3670026,3670026,-0.000410186,0.000307571,0.000243944,-0.00283641,-0.0069135,-0.048524,4966,4966,0
209236501,209236156,3670026,3670026,-0.00150581,0.000735457,0.00104159,-0.00513803,0.0187189,-0.0475971,4764,4764,0
209738117,209737795,3670026,3670026,0.00217385,0.0002657,-0.00101402,0.00519012,-0.0140402,-0.0383051,4979,4979,0
210239681,210239359,3670026,3670026,0.00115278,-0.000197182,-0.000407267,-0.000821025,0.0115788,-0.0410683,4962,4962,0
210741288,210740961,3670026,3670026,-0.000379536,-1.77863e-05,0.00108114,-0.0036043,0.0103322,-0.04366,4967,4967,0
211242905,211242578,3670026,3670026,0.00102978,-0.00126599,-0.000437904,-0.000609341,0.00784297,-0.0396465,4944,4944,0
211739575,211739201,3670026,3670026,0.000590396,0.0010585,-0.00099328,-0.0076498,-0.0211631,-0.0479953,4970,4970,0
212236278,212235833,3670026,3670026,0.000469036,-0.000156048,0.000455481,0.00384968,0.00223448,-0.051705,4967,4967,0
212737784,212737434,3670026,3670026,0.000916241,-0.000610474,-0.00062425,-0.0060583,-0.00466271,-0.0531964,4963,4963,0
213239456,213239088,3670026,3670026,7.17594e-05,-0.000498143,-0.000304041,-0.00575674,-0.000151673,-0.0610661,4994,4994,0
213741004,213740638,3670026,3670026,-0.000308625,-0.000326407,-0.000253668,-0.000386486,-0.00313927,-0.0461997,4966,4966,0
214242614,214242241,3670026,3670026,-0.00142764,0.000521399,0.000732908,-0.00535802,-0.00494283,-0.0523567,4966,4966,0
214739210,214738877,3670026,3670026,-0.00227856,-0.000123003,0.000209827,0.00756446,0.009983,-0.0395108,4965,4965,0
215240817,215240491,3670026,3670026,0.000127287,-0.000147718,-0.000411051,-0.00239462,-0.00232897,-0.0463812,4977,4977,0
215737542,215737115,3670026,3670026,0.00149897,-0.000846776,-0.000581931,-0.000986247,-0.0232608,-0.0481601,4964,4964,0
216239065,216238718,3670026,3670026,0.000767572,0.000218794,-0.00128425,-0.00623617,-0.0253021,-0.0478426,4966,4966,0
216740803,216740433,3670026,3670026,0.00101872,-0.000698969,-0.000101082,0.00875468,-0.0033097,-0.0386429,4983,4983,0
217242262,217241925,3670026,3670026,0.00151874,6.41737e-05,0.000536974,0.00220044,0.0142223,-0.0475702,4967,4967,0
217738933,217738562,3670026,3670026,0.000384082,-0.000114421,8.55496e-05,0.00813119,0.00771532,-0.0356072,4967,4967,0
218240496,218240168,3670026,3670026,-0.00015468,0.000674734,-0.000857933,-0.0017609,0.00711944,-0.0420065,4965,4965,0
218742149,218741768,3670026,3670026,-0.00126279,0.00019178,-0.000116075,-0.0117736,0.00902445,-0.0581261,4967,4967,0
219238785,219238405,3670026,3670026,0.00181387,-0.00313134,0.000115292,0.0112148,-0.000335023,-0.0366351,4967,4967,0
219740391,219740045,3670026,3670026,-0.000104764,0.000590829,0.000839902,-0.000388673,-0.00460322,-0.054082,5003,5003,0
220237099,220236684,3670026,3670026,0.0012873,-0.000185599,0.000462771,0.00624376,0.015045,-0.0355595,4985,4985,0
220738571,220738250,3670026,3670026,0.00073248,2.77788e-05,-0.000973049,-0.00576065,0.000715027,-0.0481719,4967,4967,0
221240237,221239855,3670026,3670026,0.00157975,-0.0015538,-0.000197621,0.00911826,-0.00813536,-0.033919,4968,4968,0
221741828,221741458,3670026,3670026,-0.000396599,-2.12499e-05,-0.000291963,0.00116444,-0.00457141,-0.0426565,4967,4967,0
222243520,222243063,3670026,3670026,0.00066866,-8.12677e-05,-0.000480687,0.00420055,-0.00958056,-0.0407943,4968,4968,0
222740050,222739700,3670026,3670026,6.28273e-05,0.000125669,0.000810109,0.000855308,0.0163499,-0.0453624,4966,4966,0
223236681,223236338,3670026,3670026,0.000910718,-7.57958e-05,0.000377858,0.00739157,0.0134632,-0.0401646,4964,4964,0
223738435,223738054,3670026,3670026,0.00103085,-0.000406232,-0.000505414,-0.0024146,-0.00989936,-0.0514477,5001,5001,0
224239966,224239547,3670026,3670026,-0.00123375,0.000772948,0.000745647,2.51489e-05,0.00950119,-0.0444528,4966,4966,0
224741542,224741152,3670026,3670026,-0.00235501,0.00103244,0.000771302,-0.0057009,0.0136159,-0.0495918,4967,4967,0
225243078,225242757,3670026,3670026,-0.00128069,0.000313752,0.00045026,-0.00748968,0.00667912,-0.0524313,4967,4967,0
225739775,225739395,3670026,3670026,0.000302237,-0.000407183,-0.000416818,-0.00505923,-0.0158948,-0.0543909,4965,4965,0
226236421,226236034,3670026,3670026,-0.000141655,-0.000632013,6.69722e-05,-0.00959462,0.00751755,-0.0481464,4966,4966,0
226737993,226737639,3670026,3670026,-0.000747777,0.00289574,0.000769494,-0.00750582,0.0312004,-0.0418837,4966,4966,0
227239744,227239340,3670026,3670026,-0.00204038,0.000634596,0.000220599,-0.013981,0.00356604,-0.0629191,4985,4985,0
227741226,227740850,3670026,3670026,-0.00104322,0.000400252,0.00146152,-0.00111719,0.0338844,-0.050881,4966,4966,0
228242830,228242455,3670026,3670026,-0.000411835,-0.000319537,-0.000292705,-0.00109149,-0.0150953,-0.0535473,4966,4966,0
228739475,228739101,3670026,3670026,-0.000604109,-0.000246546,0.000411592,0.00375545,0.017563,-0.0398479,4973,4973,0
229241028,229240700,3670026,3670026,0.00044779,0.00179517,0.000331561,0.00358116,0.0183242,-0.0419535,4966,4966,0
229737724,229737340,3670026,3670026,0.000433087,-0.000114817,-0.000798124,-0.000786581,-0.0155742,-0.0464236,4966,4966,0
230239290,230238946,3670026,3670026,-0.00112596,0.00183144,0.00100201,0.00539626,0.0286468,-0.0359697,4965,4965,0
230741056,230740680,3670026,3670026,0.000892585,0.001717,-0.000419264,0.00717728,0.0134185,-0.0326725,4999,4999,0
231237523,231237199,3670026,3670026,0.00183483,-0.000203537,-0.00108883,-0.00353379,-0.0163217,-0.0582856,4973,4973,0
231739124,231738800,3670026,3670026,0.000902745,-0.000812829,-0.000485407,0.00679294,-0.00377207,-0.0430732,4968,4968,0
232240729,232240405,3670026,3670026,0.000314219,0.000466566,0.000986265,-0.00678826,0.0103864,-0.0552885,4967,4967,0
232742465,232742011,3670026,3670026,-0.00254551,-1.05463e-07,0.000976201,-0.0145061,-0.0122996,-0.060049,4966,4966,0
233238999,233238651,3670026,3670026,-0.00103564,0.000475046,0.00018475,-0.00228454,0.0032414,-0.0484154,4964,4964,0
233740598,233740258,3670026,3670026,-0.000665798,-1.15484e-05,0.000688326,-0.00934103,-0.00659978,-0.0606757,4965,4965,0
234237328,234236950,3670026,3670026,-0.00451733,-0.000221032,0.000952666,-0.00373535,-0.0150169,-0.0520693,4972,4972,0
234738879,234738506,3670026,3670026,0.00179049,-0.000528764,-0.000482222,0.00746493,0.001255,-0.0416525,4967,4967,0
235240443,235240117,3670026,3670026,0.000694523,-0.000978588,-0.000144324,0.00751586,0.0119364,-0.0330454,4955,4955,0
235742092,235741720,3670026,3670026,-5.0046e-05,0.00231223,-0.000183181,-0.00357382,-0.0105389,-0.0480508,4966,4966,0
236243708,236243328,3670026,3670026,-0.00108985,0.000298798,0.000458725,-0.0155088,-0.0102265,-0.0612005,4967,4967,0
236740327,236739969,3670026,3670026,0.00194063,-0.00084111,-0.000697184,-0.00840538,-0.0164381,-0.0575528,4967,4967,0
237236955,237236610,3670026,3670026,-0.001407,0.000895083,0.00102212,-0.00812701,0.0206999,-0.0556044,4967,4967,0
237738603,237738277,3670026,3670026,-0.00130474,0.000183267,8.59694e-05,-0.0103889,-0.0155289,-0.0578336,4994,4994,0
238240162,238239826,3670026,3670026,-0.00015314,-0.000306455,-0.000671038,0.00275491,0.00241397,-0.0392317,4957,4957,0
238741753,238741433,3670026,3670026,0.0003631,0.00202845,-0.000532738,-0.00373292,0.00344221,-0.0610027,4965,4965,0
239243377,239243043,3670026,3670026,-0.000912962,-0.000125325,0.000433866,-0.00411318,-0.010128,-0.0583597,4968,4968,0
239740057,239739683,3670026,3670026,-8.74093e-06,-2.08999e-05,6.08357e-05,0.00406337,0.00937466,-0.0410449,4966,4966,0
240236712,240236325,3670026,3670026,0.000745257,-0.00369539,-0.000430291,-0.000223156,-0.00702931,-0.043924,4967,4967,0
240738285,240737933,3670026,3670026,0.000783265,0.00125419,-0.000538017,-0.00250113,-0.00875731,-0.0406243,4966,4966,0
241240038,241239608,3670026,3670026,0.00155865,-0.00042734,-0.000641802,-0.00761963,-0.0112728,-0.0477655,4992,4992,0
241741475,241741150,3670026,3670026,-0.000661222,0.000701268,0.000162832,0.00846562,0.0204087,-0.0339538,4966,4966,0
242238114,242237794,3670026,3670026,0.000828823,-0.000226531,-0.000685689,-0.00424688,0.00484585,-0.0501829,4968,4968,0
242739822,242739401,3670026,3670026,-0.00054239,-4.33803e-05,0.000167825,0.00804855,0.0162343,-0.0403834,4966,4966,0
243241341,243241010,3670026,3670026,-0.00193082,0.000638432,0.00135804,-0.00780253,0.0255031,-0.055508,4966,4966,0
243737999,243737653,3670026,3670026,-0.00126909,-0.00187722,0.000946828,0.00355735,0.0254849,-0.042213,4946,4946,0
244239601,244239262,3670026,3670026,-0.000813296,0.000848191,0.000606536,-0.0132818,-0.0127303,-0.0622414,4966,4966,0
244741365,244740948,3670026,3670026,-0.00151383,0.00291728,0.000762879,-0.00773261,0.00926878,-0.0539051,4990,4990,0
245237940,245237514,3670026,3670026,-0.000635455,7.33797e-05,-6.34124e-05,0.000850069,-0.00909683,-0.0439995,4966,4966,0
245739470,245739138,3670026,3670026,0.0055921,-0.00135623,-0.00115893,-0.00274585,-0.0254807,-0.0498541,4917,4917,0
246241056,246240733,3670026,3670026,0.00201967,-0.000442308,-0.00155765,0.00820214,-0.0120887,-0.0415423,4966,4966,0
246742665,246742343,3670026,3670026,-9.03881e-05,0.000295687,0.000678076,-0.00259578,-0.00202676,-0.0477004,4967,4967,0
247239339,247238986,3670026,3670026,-0.00145082,0.00022573,0.000550168,-0.00241038,-0.00230563,-0.0474853,4966,4966,0
247740940,247740598,3670026,3670026,0.0014992,-0.000916966,-0.000665745,0.00852517,-0.0205417,-0.0393989,4968,4968,0
248237667,248237297,3670026,3670026,-0.00168877,0.00134472,0.000596512,-0.00756762,0.0028373,-0.0524731,4940,4940,0
248739267,248738850,3670026,3670026,-0.00121675,-0.000642992,0.000651776,-0.00225879,-0.0108324,-0.0557053,4967,4967,0
249240786,249240460,3670026,3670026,0.000146828,0.000819908,0.000410936,-0.00282089,0.00655861,-0.0547998,4965,4965,0
249742440,249742070,3670026,3670026,-0.000781732,0.00036158,0.000483535,-0.00626099,0.00418129,-0.0531117,4966,4966,0
250239054,250238729,3670026,3670026,0.000286052,-0.000934167,-0.000487223,-0.00399387,-0.0214819,-0.0477296,4978,4978,0
250740676,250740325,3670026,3670026,-0.000536675,-0.000230271,0.00109134,5.80172e-05,0.0211438,-0.0462047,4967,4967,0
251237317,251236969,3670026,3670026,0.00178504,-0.000433989,-0.000888404,0.00367747,-0.0010353,-0.0378713,4965,4965,0
251738969,251738644,3670026,3670026,-0.00424046,0.000914648,0.000459183,-0.010952,-0.0117264,-0.0577443,4990,4990,0
252240557,252240191,3670026,3670026,0.00132564,-0.00192205,-0.000690754,-0.00305063,-0.0272815,-0.0469902,4965,4965,0
252742177,252741802,3670026,3670026,-0.00175018,0.000405099,-0.000758674,-0.0178741,-0.00568464,-0.0628768,4967,4967,0
253238822,253238448,3670026,3670026,-0.000430306,0.000421798,0.000194246,0.00423897,-0.00530548,-0.0402686,4967,4967,0
253740384,253740058,3670026,3670026,-0.000601615,-0.000628085,-0.000517324,0.000131884,-0.00751229,-0.0504157,4967,4967,0
254237141,254236706,3670026,3670026,0.000338647,0.000319193,-0.000243092,0.0113078,0.0169169,-0.0346857,4927,4927,0
254738706,254738366,3670026,3670026,0.000855446,-0.000772959,0.000272295,-0.0048984,-0.00459358,-0.0534099,5018,5018,0
255240420,255240001,3670026,3670026,0.000113288,0.00397282,-0.000252303,0.000287435,0.00287996,-0.0384308,4986,4986,0
255741859,255741537,3670026,3670026,0.0009867,-0.000819804,-0.000234771,-0.00219898,0.00335895,-0.0471406,4966,4966,0
256238565,256238184,3670026,3670026,0.00187463,-0.000148904,-0.000719858,0.000845785,-0.00953694,-0.0508059,4968,4968,0
256740119,256739794,3670026,3670026,0.00354175,-0.000675947,-0.000405257,-0.000621419,-0.000716687,-0.0544427,4966,4966,0
257236815,257236440,3670026,3670026,-0.00249581,0.000719348,0.000918495,-0.0110658,0.0145315,-0.0604002,4965,4965,0
257738402,257738055,3670026,3670026,0.000739678,-0.00210246,-0.000683883,0.000245946,-0.0142189,-0.0478288,4969,4969,0
258240053,258239708,3670026,3670026,-0.00101787,0.0004854,0.000710952,-0.00505815,0.00131588,-0.0490079,4997,4997,0
258741733,258741362,3670026,3670026,0.00160717,0.000807004,-0.00135386,0.00052947,-0.0320418,-0.0479704,4986,4986,0
259238344,259237924,3670026,3670026,0.00146186,0.000561515,0.0006417,0.00257879,0.0228239,-0.040532,4968,4968,0
259739913,259739549,3670026,3670026,-0.00571225,0.000975173,0.000767297,-0.0111426,-0.00413249,-0.0553294,4928,4928,0
260241554,260241182,3670026,3670026,-0.00115802,0.000495203,0.00124312,-0.00722152,0.0112875,-0.0537739,4969,4969,0
260743127,260742761,3670026,3670026,-0.00119165,0.000751667,0.00111966,-0.00312284,0.00153552,-0.0475297,4967,4967,0
261239747,261239407,3670026,3670026,0.0013625,4.41529e-05,-0.000288793,-0.0020552,0.00539508,-0.043773,4966,4966,0
261741375,261741025,3670026,3670026,0.000851764,-0.000117781,0.000293018,0.00144427,-0.00608262,-0.0481317,4971,4971,0
262238104,262237780,3670026,3670026,-0.000997548,0.000257348,0.000283316,-0.0117205,-0.0118296,-0.0608978,4958,4958,0
262739695,262739280,3670026,3670026,-0.0011204,-0.00127414,6.82229e-05,0.000609997,0.00127523,-0.0461885,4966,4966,0
263241273,263240942,3670026,3670026,-0.0010088,0.00342919,2.42778e-05,-0.0113767,-0.00681943,-0.0615418,5015,5015,0
263742831,263742508,3670026,3670026,0.000283975,-0.001609,-0.000282676,0.00503608,-0.00678611,-0.0416384,4967,4967,0
264239482,264239158,3670026,3670026,0.0003724,0.00046265,-0.000329171,-0.00550587,-0.0183625,-0.0541323,4970,4970,0
264736254,264735802,3670026,3670026,0.00174099,-0.000278402,0.000369371,0.0115076,0.000827728,-0.032636,4967,4967,0
265237852,265237415,3670026,3670026,0.000769223,-0.000132606,0.000383535,0.00474235,0.00348993,-0.0390629,4966,4966,0
265739532,265739114,3670026,3670026,-0.00268765,0.000429915,0.000843384,-0.0104625,0.000421525,-0.0562218,4997,4997,0
266241018,266240644,3670026,3670026,0.000530472,5.51792e-06,0.000947881,-0.00520141,0.00630264,-0.052648,4967,4967,0
266742584,266742258,3670026,3670026,-0.000301063,-0.000303525,-0.000643663,-0.0118736,-0.0293798,-0.062965,4967,4967,0
267239322,267238907,3670026,3670026,0.00327123,-0.000547896,-0.000526845,0.00384796,0.00508101,-0.0464764,4967,4967,0
267740893,267740519,3670026,3670026,-0.0012988,0.000261843,0.00038832,-0.00182217,0.0074569,-0.046634,4966,4966,0
268237517,268237169,3670026,3670026,-0.00163105,0.000693938,0.000183468,-0.0113337,-0.0122425,-0.056531,4963,4963,0
268739126,268738782,3670026,3670026,-0.00221592,0.000771634,0.000915677,-0.013945,-0.0143794,-0.060578,4966,4966,0
269240845,269240479,3670026,3670026,0.000650219,-0.00023033,-0.000230194,-0.00483607,-0.0109999,-0.0584954,4990,4990,0
269742391,269742013,3670026,3670026,0.00170533,-0.000720642,-0.000708034,0.00938979,-0.0142132,-0.0360995,4966,4966,0
270239091,270238663,3670026,3670026,0.000811122,-8.1627e-05,0.00171702,-0.00978491,-0.0173243,-0.0603836,4969,4969,0
270740599,270740275,3670026,3670026,0.00183596,-0.000684761,-0.00244398,0.00300814,-0.00532309,-0.0424204,4966,4966,0
271242223,271241890,3670026,3670026,-0.0014338,3.25859e-05,-0.00188896,-0.00885593,-0.0202187,-0.0592924,4965,4965,0
271738883,271738539,3670026,3670026,-0.000446583,-0.000332073,-0.00230739,-0.000663936,-0.00412952,-0.0442819,4967,4967,0
272240501,272240156,3670026,3670026,-0.000531454,9.63075e-06,0.000614979,-0.00292371,0.0169725,-0.046596,4968,4968,0
272737250,272736875,3670026,3670026,0.00569877,-0.00174705,-0.00197684,0.0120784,0.00595953,-0.0321978,4942,4942,0
273238792,273238419,3670026,3670026,5.35363e-05,8.83987e-05,-0.000608931,-0.00791908,-0.00144668,-0.0602461,4967,4967,0
273740403,273740034,3670026,3670026,0.00291286,0.000297016,0.000362516,-0.0109922,-0.0185655,-0.0646773,4944,4944,0
274242079,274241650,3670026,3670026,6.07938e-05,-0.000101339,-0.000335683,-0.000159283,0.00922105,-0.0424931,4966,4966,0
274743632,274743266,3670026,3670026,-0.00073431,-0.000335621,-0.00268949,-0.012193,-0.017853,-0.0641997,4965,4965,0
275240271,275239916,3670026,3670026,7.44572e-05,0.000430072,0.000536742,-0.00201089,-0.00198212,-0.0538846,4966,4966,0
275736910,275736565,3670026,3670026,-0.000856025,-8.62692e-05,3.32622e-05,-0.00837022,-0.0135176,-0.0549432,4966,4966,0
276238667,276238260,3670026,3670026,0.00015347,-0.000616835,-0.000798116,0.00269609,0.00247917,-0.0397475,4990,4990,0
276740120,276739797,3670026,3670026,0.00233986,-0.000777357,-0.000981991,-0.000922734,-0.0192287,-0.0530331,4966,4966,0
277241744,277241421,3670026,3670026,-0.000459287,-0.000723365,-0.00306232,-0.00371454,-0.0265272,-0.0528958,4930,4930,0
277743426,277743032,3670026,3670026,0.000788752,-0.000443054,0.000333289,0.00797124,0.0300197,-0.0369189,4968,4968,0
278240061,278239681,3670026,3670026,-0.000282847,0.00121295,0.000447716,0.00754783,-0.00835955,-0.0426026,4967,4967,0
278736712,278736331,3670026,3670026,-9.91799e-05,-5.13467e-05,0.000877261,0.000294826,-0.00878196,-0.0554243,4967,4967,0
279238297,279237948,3670026,3670026,-0.000916012,-0.000543316,0.000357842,-0.000665963,-0.00222576,-0.0514056,4967,4967,0
279740016,279739649,3670026,3670026,-0.000389256,0.000223718,0.000693489,-0.00333937,-0.00130233,-0.051952,4950,4950,0
280241561,280241183,3670026,3670026,-0.0020033,0.000234364,-0.00114545,0.00278381,-0.0212525,-0.0453634,4967,4967,0
280738201,280737832,3670026,3670026,-0.000591493,-0.000425014,-0.00022096,-0.00252664,0.00375125,-0.0526609,4964,4964,0
281239778,281239450,3670026,3670026,-0.00100266,0.000270757,0.00120664,-0.00136865,-0.00418394,-0.0465785,4966,4966,0
281736483,281736102,3670026,3670026,0.00206622,-0.00071385,-0.00149988,0.00151556,-0.00762437,-0.0406772,4968,4968,0
282238063,282237718,3670026,3670026,-0.000519771,0.000528823,0.000532408,-0.00437259,-0.0110931,-0.0513844,4967,4967,0
282739678,282739336,3670026,3670026,0.00167463,-0.000919317,-0.000440249,0.0133573,-0.00742725,-0.0353199,4966,4966,0
283241381,283241056,3670026,3670026,-0.000551169,-9.7961e-05,-0.000610878,-0.01527,-0.0147272,-0.065951,4992,4992,0
283737930,283737604,3670026,3670026,-0.000113409,0.000123919,0.00114297,0.00565553,0.0147796,-0.0391652,4966,4966,0
284239606,284239225,3670026,3670026,0.000274248,-2.99413e-05,-0.00290076,-0.00277416,-0.0186716,-0.0417235,4968,4968,0
284741162,284740841,3670026,3670026,-0.00273085,-0.000254755,-0.00129693,0.0115172,-0.0103431,-0.0331408,4965,4965,0
285238001,285237492,3670026,3670026,-0.00154428,0.000628454,0.000593671,-0.0104513,0.0081569,-0.0632644,4966,4966,0
285739456,285739112,3670026,3670026,-0.00279438,0.000581104,0.00116973,-0.0047066,0.0196695,-0.0542484,4968,4968,0
286241072,286240729,3670026,3670026,0.000299029,0.000798235,0.000569921,-0.00797077,-0.0103808,-0.059412,4965,4965,0
286737884,286737468,3670026,3670026,0.000538904,-0.000448422,-0.000624381,0.0097482,-0.000115283,-0.0373788,4992,4992,0
287239380,287239032,3670026,3670026,-2.18388e-05,5.42249e-05,0.000295011,0.00152993,-0.00848588,-0.0441822,4996,4996,0
287741051,287740618,3670026,3670026,-0.000203519,-0.000101901,-1.75764e-05,0.000915013,0.0151234,-0.0380131,4959,4959,0
288242648,288242238,3670026,3670026,0.00119427,-0.00096415,-0.00102935,-0.00149743,-0.0159187,-0.0372927,4966,4966,0
288739271,288738894,3670026,3670026,-0.00302344,0.000347549,-9.84243e-05,-0.0138707,-0.00956215,-0.0591233,4972,4972,0
289240921,289240526,3670026,3670026,-0.00166397,0.000798768,-0.00126479,-0.00730488,-0.0188538,-0.051878,4981,4981,0
289737553,289737162,3670026,3670026,0.00243258,0.000555049,0.000529031,0.00511862,0.00431054,-0.0411583,4905,4905,0
290239242,290238867,3670026,3670026,5.72043e-05,-0.000291939,3.22977e-05,-0.00335566,-0.0142829,-0.0601419,4988,4988,0
290740784,290740402,3670026,3670026,0.000302704,-0.000270397,0.000435793,-0.00178276,-0.0105873,-0.0554751,4966,4966,0
291242343,291242019,3670026,3670026,0.000984745,-9.51718e-05,-0.000510799,0.00738789,-0.0148451,-0.0402237,4966,4966,0
291738999,291738672,3670026,3670026,-0.000171182,1.48861e-05,0.000681524,-0.00646402,0.00181991,-0.0582904,4967,4967,0
292240666,292240293,3670026,3670026,-0.00147245,0.000536646,0.000620875,-0.00254792,0.00761476,-0.0459561,4967,4967,0
292737299,292736945,3670026,3670026,-0.000358576,0.000501333,-0.000405655,-0.0112342,-0.0289721,-0.0568322,4965,4965,0
293238910,293238565,3670026,3670026,5.57416e-05,-2.93009e-05,-0.000654434,0.000256593,0.00679497,-0.0467862,4967,4967,0
293740721,293740396,3670026,3670026,0.00223025,-0.00167725,-0.000663607,0.00429939,-0.0121946,-0.0446587,4988,4988,0
294242180,294241806,3670026,3670026,3.77284e-05,-0.000155972,0.000104601,-0.00981303,-0.0173896,-0.0592178,4967,4967,0
294738829,294738458,3670026,3670026,-0.00446152,0.000643142,0.000137001,-0.0164375,-0.0214348,-0.0610635,4966,4966,0
295240450,295240079,3670026,3670026,0.000525353,-0.00175559,0.000354239,0.00548212,0.0211649,-0.0374207,4966,4966,0
295742075,295741705,3670026,3670026,-3.15074e-05,0.000440309,-0.000518565,-0.00488712,-0.0121749,-0.0496543,4924,4924,0
296238806,296238354,3670026,3670026,-0.000671799,0.000797726,0.0010758,-0.00551027,0.022984,-0.0524056,4968,4968,0
296740329,296739982,3670026,3670026,-0.000906647,0.000441859,-4.64667e-05,-0.00480382,0.00272026,-0.0531246,4929,4929,0
297237126,297236708,3670026,3670026,-0.00367072,-0.000258297,0.000549015,-0.00861591,-0.01421,-0.0609348,4989,4989,0
297738570,297738248,3670026,3670026,0.000550491,0.000164268,-0.000632043,0.00107887,0.00700037,-0.0416286,4966,4966,0
298240206,298239869,3670026,3670026,-0.000564738,0.00027165,-0.000157409,-0.00988306,-0.00761239,-0.0599454,4966,4966,0
298741863,298741492,3670026,3670026,-8.88641e-05,0.00224883,-0.000767624,-0.0135784,-0.0224303,-0.0636501,4947,4947,0
299243549,299243113,3670026,3670026,0.000269935,0.000304631,0.000991658,-0.0151231,-0.000592518,-0.0611151,4968,4968,0
299740110,299739766,3670026,3670026,0.00163901,-0.000177656,-0.000950486,-0.00106555,-0.0142826,-0.0414149,4967,4967,0
300236767,300236422,3670026,3670026,-0.00117547,-5.96133e-05,-0.00010485,-0.00387346,-0.0048693,-0.0497229,4967,4967,0
300738461,300738133,3670026,3670026,-0.000192824,-0.00132441,-0.000385596,-0.00815831,-0.000594722,-0.0579121,4989,4989,0
301239989,301239663,3670026,3670026,-0.0024819,0.000849133,0.00108465,-0.017624,0.0267796,-0.0670851,4966,4966,0
301741667,301741286,3670026,3670026,-0.000808299,9.91892e-05,-0.00012003,0.0059739,0.00145122,-0.0414906,4967,4967,0
302243246,302242908,3670026,3670026,-3.0181e-05,-2.54312e-05,0.000949946,0.000297907,0.00862139,-0.0482255,4968,4968,0
302739886,302739562,3670026,3670026,-0.000704756,0.000604848,0.000709408,0.00329715,0.0162695,-0.0447413,4967,4967,0
303236563,303236217,3670026,3670026,0.000749295,-0.000400294,-0.000168477,-0.00149565,-0.0208933,-0.0506019,4966,4966,0
303738187,303737841,3670026,3670026,0.000296886,0.000116996,0.000652184,-0.00413018,0.00489277,-0.0519316,4968,4968,0
304239971,304239604,3670026,3670026,4.01439e-05,8.7764e-05,1.86792e-05,-0.0127736,-0.0201842,-0.0572857,4974,4974,0
304741451,304741083,3670026,3670026,-0.000828801,-0.000624379,-0.00302745,-0.00964095,-0.0181259,-0.0587187,4966,4966,0
305238063,305237740,3670026,3670026,-0.00130003,2.06608e-05,-0.00342231,0.00957444,0.00901321,-0.0369725,4967,4967,0
305739701,305739362,3670026,3670026,0.000956806,-0.000288311,-0.00382198,0.00856104,0.00749509,-0.0352018,4967,4967,0
306241313,306240985,3670026,3670026,-0.00112158,0.000155702,-0.0013245,-0.0135956,-0.0101537,-0.063108,4966,4966,0
306738087,306737642,3670026,3670026,0.000779486,2.09052e-05,0.00073922,0.0044481,0.00272252,-0.0375152,4968,4968,0
307239615,307239265,3670026,3670026,-0.00285338,-3.54104e-05,0.000169055,-0.0042455,-0.0106749,-0.0650197,4969,4969,0
307741359,307740989,3670026,3670026,-0.000178482,-0.000341505,-9.78927e-05,0.00188853,-0.00768258,-0.0438366,4986,4986,0
308237864,308237542,3670026,3670026,-0.00163078,0.000360545,-0.00135492,-0.0063773,-0.024461,-0.063239,4966,4966,0
308739505,308739168,3670026,3670026,0.00264702,-0.000559657,-0.00182727,-0.00586967,-0.0205217,-0.054224,4964,4964,0
309241167,309240789,3670026,3670026,0.00239471,-0.00125833,-0.000825763,0.0108146,-0.0091716,-0.0292342,4967,4967,0
309742741,309742412,3670026,3670026,-0.000864776,0.00133965,0.000615134,-0.00174259,0.0150041,-0.0368956,4951,4951,0
310239466,310239069,3670026,3670026,0.00341172,-0.0010751,-0.000521492,0.00685771,-0.0018185,-0.0371616,4966,4966,0
310741076,310740692,3670026,3670026,-0.000112518,-0.000786019,-0.000703347,0.00255667,-0.00882475,-0.046812,4967,4967,0
311237817,311237437,3670026,3670026,-0.000241522,-0.000278974,-0.00116381,0.00380746,-0.0172964,-0.0423089,4989,4989,0
311739311,311738983,3670026,3670026,-0.000339003,0.000115087,-0.000364512,-0.00320464,0.0180821,-0.0487702,4975,4975,0
312240920,312240596,3670026,3670026,-0.000267451,-0.000566216,-0.00232288,0.00166606,-0.00773925,-0.0401193,4967,4967,0
312742551,312742228,3670026,3670026,0.000894015,0.00014829,-0.000367123,0.00198522,-0.00732874,-0.0590961,4978,4978,0
313239249,313238877,3670026,3670026,0.00042464,-0.000292835,-0.000636104,-0.00552705,-0.0143552,-0.0560058,4965,4965,0
313740847,313740502,3670026,3670026,-0.00168642,0.000792275,0.00179277,-0.00786226,0.0155859,-0.0544704,4967,4967,0
314237507,314237159,3670026,3670026,-0.000908027,0.000131888,0.000878418,0.00404422,0.016332,-0.0394093,4947,4947,0
314739320,314738883,3670026,3670026,-0.00192896,-0.000145873,0.000277487,-0.0100784,-0.00738313,-0.0582839,4991,4991,0
315240777,315240408,3670026,3670026,-0.00240712,0.00084952,0.000616709,-0.013286,0.010394,-0.0599369,4967,4967,0
315742401,315742032,3670026,3670026,0.00175754,-0.000340658,-0.000673288,0.0124489,-0.00106209,-0.03033,4966,4966,0
316239065,316238690,3670026,3670026,-0.0004212,-0.000631154,0.000301845,0.0137968,0.013837,-0.032365,4966,4966,0
316740789,316740318,3670026,3670026,0.000897574,-0.000301097,-6.96133e-06,-0.0115641,-0.0260504,-0.0586946,4969,4969,0
317237371,317237018,3670026,3670026,-0.000492767,-2.51255e-05,0.000354956,-0.00847627,0.000846357,-0.0557149,4998,4998,0
317738951,317738599,3670026,3670026,0.00101479,0.000136593,0.00129354,0.00745613,0.0135901,-0.0413288,4967,4967,0
318240741,318240338,3670026,3670026,-0.00065802,0.000110646,0.00107947,0.00099166,0.00939336,-0.0490887,5002,5002,0
318742181,318741848,3670026,3670026,0.000287333,-0.00146175,0.000727595,0.00263247,-0.00430808,-0.0444469,4966,4966,0
319238831,319238507,3670026,3670026,-0.000588755,0.000443328,-0.000269268,0.005511,-0.0149899,-0.0413725,4963,4963,0
319740503,319740134,3670026,3670026,0.000288598,0.000228061,0.000111486,0.00866532,0.014693,-0.0382057,4968,4968,0
320242131,320241758,3670026,3670026,0.00110504,-0.000583188,0.000209188,0.0111263,0.0131332,-0.0356149,4966,4966,0
320738760,320738417,3670026,3670026,0.00178083,-0.00263537,-0.000809511,0.00679401,-0.00328015,-0.0398377,4955,4955,0
321240393,321240046,3670026,3670026,0.00357598,0.000419942,-0.000260072,-0.00873239,-0.00883822,-0.0575135,4969,4969,0
321737165,321736793,3670026,3670026,-0.00404665,0.000734106,-0.000501944,0.00144455,0.00659976,-0.0442374,4989,4989,0
322238747,322238329,3670026,3670026,0.00214115,-0.000856938,-0.000488118,0.0058974,0.00591796,-0.0374849,4968,4968,0
322740334,322739954,3670026,3670026,0.00165054,-0.00104132,-0.00126019,-0.00427478,-0.0115354,-0.0501608,4967,4967,0
323241907,323241580,3670026,3670026,0.0018863,-0.000951815,-0.000976996,-0.000837433,-0.0331659,-0.0512466,4967,4967,0
323743579,323743206,3670026,3670026,0.00261615,0.000223298,0.00017524,0.000104099,0.00535456,-0.0525309,4967,4967,0
324240222,324239866,3670026,3670026,0.000933397,-0.000951787,-0.000882283,0.0027102,-0.00982138,-0.0378909,4967,4967,0
324736873,324736526,3670026,3670026,0.00106447,-0.000496194,-0.000972693,0.00312927,-0.0209895,-0.0459803,4967,4967,0
325238675,325238302,3670026,3670026,-0.000889395,0.000299023,0.000515729,-0.00609526,0.00420568,-0.0561075,4997,4997,0
325740105,325739779,3670026,3670026,-0.00132576,0.000193452,0.00105217,-0.00668524,3.2522e-05,-0.0541976,4967,4967,0
326241772,326241405,3670026,3670026,2.47002e-05,0.000350925,0.000462337,-0.00205204,-0.00171598,-0.0556032,4966,4966,0
326743402,326743032,3670026,3670026,-0.00396601,0.000758326,0.00119994,-0.000724517,0.0275745,-0.045056,4967,4967,0
327240021,327239692,3670026,3670026,0.000421955,-0.00113429,-0.000840576,0.0119817,-0.0240323,-0.0368054,4966,4966,0
327736697,327736354,3670026,3670026,0.000302213,-1.39013e-05,-5.53727e-05,0.00499956,0.0157692,-0.0428418,4968,4968,0
328238330,328237979,3670026,3670026,-0.00142989,0.000586138,0.00065703,-0.00673647,0.0114287,-0.0507584,4962,4962,0
328740036,328739712,3670026,3670026,-0.000692311,-7.53389e-05,0.000773943,-0.00867876,-0.0119739,-0.0546929,4988,4988,0
329241655,329241234,3670026,3670026,-0.00229859,0.000122771,0.000549476,0.00128606,0.00229121,-0.046897,4966,4966,0
329738278,329737895,3670026,3670026,-0.000813965,0.000337888,-0.000653862,-0.00640858,-0.00616416,-0.0518348,4966,4966,0
330239854,330239528,3670026,3670026,-0.000207947,-5.52855e-05,0.000265614,0.00525064,0.00633776,-0.0440605,4951,4951,0
330736510,330736183,3670026,3670026,0.000982215,-0.000556089,-0.00133221,0.00678988,-0.0249259,-0.045559,4966,4966,0
331238155,331237811,3670026,3670026,-0.000487064,-4.77921e-05,-0.000938372,-0.00244138,-0.0183797,-0.0584775,4966,4966,0
331739787,331739447,3670026,3670026,0.000360829,0.000502537,0.00120713,-0.00529092,0.0111257,-0.0550647,4975,4975,0
332241615,332241243,3670026,3670026,0.000412814,-0.00012715,0.00114241,-0.00014347,0.00419326,-0.0463279,4991,4991,0
332738136,332737728,3670026,3670026,-0.00119423,0.000169402,0.000636465,-0.000791986,0.00737167,-0.0479479,4965,4965,0
333239730,333239357,3670026,3670026,-0.00408181,0.000490468,0.000641991,0.00822233,0.0132171,-0.0345717,4967,4967,0
333741347,333740986,3670026,3670026,-0.00282062,0.000618219,0.00042358,-0.01515,0.00675168,-0.0645652,4968,4968,0
334242990,334242621,3670026,3670026,0.00288528,-0.00119033,-0.00134058,0.00555479,-0.0201933,-0.0428012,4975,4975,0
334739666,334739274,3670026,3670026,0.00129383,1.56486e-05,-0.000399024,-0.00115246,-0.00119854,-0.0492606,4967,4967,0
335241264,335240903,3670026,3670026,0.00340598,-0.000483936,-0.000914034,0.0170831,-0.0186974,-0.0325345,4965,4965,0
335738039,335737672,3670026,3670026,-0.00167337,0.000623545,0.0011652,-0.00554117,0.0133845,-0.0564893,4944,4944,0
336239526,336239199,3670026,3670026,0.00128597,-0.000338117,-5.67274e-05,-0.00408212,-0.0165226,-0.0606891,4971,4971,0
336741197,336740822,3670026,3670026,-0.00167206,0.000564444,0.00142415,-0.00254822,0.0246135,-0.0445538,4967,4967,0
337242773,337242451,3670026,3670026,-9.31965e-05,0.0014624,0.000505819,0.00756084,0.0158445,-0.0433686,4966,4966,0
337739498,337739122,3670026,3670026,-0.00219887,-0.000548044,0.00120934,-0.00651629,0.0155206,-0.0530226,4975,4975,0
338241096,338240744,3670026,3670026,0.000458291,0.000725573,0.000396873,0.00737394,0.0151746,-0.0324271,4966,4966,0
338737797,338737451,3670026,3670026,0.00043463,0.000262783,0.000172074,-0.00362811,-0.00378694,-0.0503064,5013,5013,0
339239530,339239138,3670026,3670026,0.000255748,-0.000248909,-0.00037559,0.000352365,0.00414133,-0.0531312,4993,4993,0
339740999,339740672,3670026,3670026,0.000454275,-0.000388037,-0.000686333,0.00799544,0.00746706,-0.0380265,4975,4975,0
340242619,340242293,3670026,3670026,-0.00497258,-0.000505419,0.000910767,0.00101964,-0.00346716,-0.0449316,4967,4967,0
340739292,340738958,3670026,3670026,0.000164429,0.000624096,0.000912424,0.00401057,0.00442738,-0.0458132,4969,4969,0
341240961,341240631,3670026,3670026,0.000489799,-0.000417283,-0.000778445,-0.00235739,-0.0135557,-0.0465511,5012,5012,0
341737595,341737249,3670026,3670026,-0.00377238,-0.00109019,0.00156855,0.00612039,-0.0148593,-0.0468562,4967,4967,0
342239226,342238879,3670026,3670026,-0.00058025,0.000147497,0.000698103,-0.00418793,0.0160942,-0.0548515,4966,4966,0
342740981,342740654,3670026,3670026,-0.000615001,-0.000110881,0.0004384,-0.00679699,0.00851139,-0.0577577,4985,4985,0
343237633,343237175,3670026,3670026,-0.000367182,0.000122086,0.000100347,-0.00452571,-0.020054,-0.0580527,4923,4923,0
343739174,343738802,3670026,3670026,0.00107655,-0.000585052,-2.8521e-05,0.00376707,-0.0065709,-0.0409435,4966,4966,0
344240776,344240438,3670026,3670026,-0.00216183,0.000429954,0.00123542,-0.00135929,0.00273238,-0.0466673,4973,4973,0
344742433,344742063,3670026,3670026,-0.000594345,0.000168338,-0.000350196,0.00631348,0.00883052,-0.0346695,4965,4965,0
345239185,345238749,3670026,3670026,0.0012841,-0.000441587,-0.000768609,0.00646558,0.000994262,-0.03775,4977,4977,0
345740698,345740357,3670026,3670026,0.00188232,-0.000402697,-0.00107807,0.0121145,-0.0123386,-0.0366371,4967,4967,0
346237493,346237170,3670026,3670026,0.000971741,-0.000996459,-0.00037005,0.00860766,0.00275295,-0.0427799,5040,5040,0
346739048,346738659,3670026,3670026,-0.00044197,-2.38425e-05,0.00110887,-0.00431584,0.00734702,-0.0576747,4962,4962,0
347240614,347240284,3670026,3670026,-0.00226991,0.000713097,0.000682992,-0.0106036,0.00184296,-0.0606271,4968,4968,0
347742242,347741914,3670026,3670026,-0.00211383,0.000566968,0.000820554,-0.00712972,0.0204102,-0.0537451,4967,4967,0
348238901,348238577,3670026,3670026,0.00145728,-0.000687251,-0.00100149,0.00293098,-0.0185867,-0.0448482,4966,4966,0
348740563,348740215,3670026,3670026,-0.000600226,0.000178958,0.000590384,-0.00197062,0.00673677,-0.0552299,4972,4972,0
349237220,349236873,3670026,3670026,-0.00255155,0.000154458,-0.000134557,-0.00364962,0.00736074,-0.051733,4965,4965,0
349738927,349738601,3670026,3670026,0.000736476,-0.000545577,-0.000215919,-0.00273233,-0.0144229,-0.0524964,4975,4975,0
350240459,350240137,3670026,3670026,-0.00129396,0.00028357,0.000106127,-0.0108056,-0.0174299,-0.0585358,4967,4967,0
