timestamp,timestamp_sample,accel_device_id,gyro_device_id,delta_angle[0],delta_angle[1],delta_angle[2],delta_velocity[0],delta_velocity[1],delta_velocity[2],delta_angle_dt,delta_velocity_dt,delta_velocity_clipping
99739902,99739776,4259850,4325386,-4.42434e-05,-9.39394e-05,-2.87421e-05,0.00296697,0.000637652,-0.0483425,4989,4946,0
99744917,99744769,4259850,4325386,-4.14238e-05,-5.86199e-05,5.77331e-05,-0.00113197,-0.00156571,-0.0489001,4993,4962,0
100238698,100238499,4259850,4325386,0.000362959,3.55853e-05,0.000358053,0.00299495,0.00425591,-0.0472613,4979,4977,0
100742654,100742495,4259850,4325386,-4.04864e-06,0.00066806,0.000229315,0.00743232,-0.00164598,-0.0440175,4968,4968,0
101241053,101240924,4259850,4325386,-0.000699727,-0.000586233,-0.000413039,-0.00551158,0.0010293,-0.0499031,4986,4928,0
101739761,101739645,4259850,4325386,0.000713835,-0.000533707,-0.000444626,0.00699445,-0.00619411,-0.0497493,4988,4935,0
102238517,102238368,4259850,4325386,0.000117594,-0.000241064,0.000327248,0.00393272,0.00242941,-0.0484808,4980,4928,0
102742212,102742077,4259850,4325386,-0.00110094,-7.96238e-05,-0.00043946,-0.00440591,0.00210339,-0.0478541,4987,4968,0
103240904,103240795,4259850,4325386,0.00124704,-0.000475508,-0.000483107,0.00474143,-0.00157287,-0.0473158,4986,4739,0
103739698,103739518,4259850,4325386,-0.00101379,0.000885044,6.80862e-05,-0.00324888,-0.00409732,-0.0481591,4971,4927,0
104238827,104238586,4259850,4325386,0.000350394,-0.000253527,-0.000121364,0.00137549,0.00459107,-0.0480696,4976,4942,0
104742103,104741951,4259850,4325386,-0.000420185,-0.000196687,0.000127639,-0.00685641,0.00186176,-0.0491096,4991,4986,0
105240781,105240670,4259850,4325386,0.000902994,-0.000388794,-0.000101189,0.00694311,-0.00682755,-0.0485308,4988,4926,0
105739543,105739410,4259850,4325386,-0.00053271,1.75264e-05,0.000333325,0.00071828,0.0025771,-0.0515484,4994,5270,0
106242808,106242697,4259850,4325386,7.86294e-05,-0.000798475,-0.000311907,0.00133032,0.000394344,-0.050545,4984,4938,0
106741500,106741324,4259850,4325386,0.000731333,0.000328617,5.03124e-05,0.00837974,-0.00830894,-0.0479521,4987,4961,0
107240200,107240067,4259850,4325386,-0.00119878,-0.000479975,-0.000446196,-0.000575637,0.00994451,-0.047681,5008,4895,0
107738895,107738780,4259850,4325386,0.000221942,0.00076539,0.000258632,0.00332226,-0.00380917,-0.0477966,4999,4883,0
108237603,108237491,4259850,4325386,0.000623087,-0.000275032,-0.000638879,-0.00241036,-0.00073145,-0.0457843,4985,4981,0
108741479,108741366,4259850,4325386,0.000221165,0.000338312,0.000202793,0.00149318,-0.00220783,-0.0464848,4947,4924,0
109240048,109239934,4259850,4325386,-0.000306383,0.000979364,-0.000528142,-0.0115714,-0.00999233,-0.0503238,4978,4990,0
109739376,109738796,4259850,4325386,-0.000902733,-0.000238696,0.000166284,0.00177937,0.00381064,-0.05062,4986,5653,0
110242481,110242367,4259850,4325386,0.00279279,-0.00158724,2.89428e-05,0.0143839,0.0124899,-0.0380586,4971,4928,0
110736235,110736095,4259850,4325386,-0.00300847,0.000529429,0.000890517,-0.0001069,0.0149203,-0.0601959,4937,4924,0
111239917,111239801,4259850,4325386,0.000835016,-0.000785797,4.58192e-05,0.00205331,0.00245773,-0.0409066,4961,4928,0
111738686,111738525,4259850,4325386,0.00257609,-0.00104766,-3.12841e-05,0.00678773,-0.00303797,-0.0400826,4987,4775,0
112242673,112242458,4259850,4325386,0.000553397,-0.0022771,-0.00057678,0.0214673,0.0114787,-0.0406729,4973,5910,0
112741140,112741027,4259850,4325386,-0.000488648,0.000224156,1.04786e-05,0.00173099,0.00941065,-0.0428126,4993,4988,0
113239836,113239686,4259850,4325386,-0.0018241,0.00091154,0.000515937,0.00229654,0.00675797,-0.0529939,4988,4929,0
113743565,113743444,4259850,4325386,0.00323731,-0.00120539,-0.00117967,0.000661663,0.00146552,-0.0408026,4949,4927,0
114237243,114237128,4259850,4325386,-0.00205097,0.00172063,0.00091724,-0.00477255,-0.00281632,-0.06366,4987,4962,0
114740950,114740838,4259850,4325386,8.01888e-05,-0.00177278,-0.000342903,0.0117127,-0.00434509,-0.0348151,4985,4650,0
115239698,115239566,4259850,4325386,0.000893103,0.000118702,-0.000339334,-0.0152826,-0.0202727,-0.0517696,4989,4928,0
115738408,115738286,4259850,4325386,-0.00128113,0.000665417,0.000373272,-0.00653298,0.00217453,-0.0502002,4984,4922,0
116241614,116241499,4259850,4325386,-0.00110075,0.000224798,0.000490977,-0.0222297,-0.00870019,-0.0582651,4987,4982,0
116740699,116740501,4259850,4325386,-0.00149269,0.00154577,0.000579173,3.38723e-05,0.0128186,-0.0618361,5262,6061,0
117239097,117238952,4259850,4325386,-0.000314825,0.00132231,0.00077226,-0.0135161,0.00864073,-0.0575522,4994,4969,0
117737801,117737687,4259850,4325386,-0.000190017,0.00124767,0.000447106,-0.0122535,0.00506369,-0.0547624,4977,4972,0
118236887,118236729,4259850,4325386,-0.000297515,0.000105401,1.54413e-05,-0.0049447,-0.0226164,-0.0499958,4947,4941,0
118740762,118740630,4259850,4325386,-9.04299e-05,6.29134e-05,0.000249532,-0.00114189,0.0280227,-0.055275,4985,4928,0
119239467,119239329,4259850,4325386,0.0019343,-0.000343809,-0.00117643,-0.00247449,-0.0194391,-0.0429875,4990,4770,0
119738902,119738765,4259850,4325386,0.000284777,-3.25516e-06,0.000407265,-0.00299089,-0.00879735,-0.0589411,4959,4928,0
120242377,120242264,4259850,4325386,0.00137113,-0.000573817,-0.0015939,0.000699171,-0.0104256,-0.0455697,4986,4986,0
120741117,120741003,4259850,4325386,0.000534763,-0.000372575,-0.00136307,-0.00949337,-0.0324787,-0.0480046,4999,4926,0
121240810,121239975,4259850,4325386,3.18359e-05,-4.19352e-05,-0.000742294,-0.00429717,-0.00799325,-0.0616474,4922,5915,0
121738548,121738437,4259850,4325386,-0.000469683,0.000577166,0.00046032,-0.00158637,0.00754055,-0.0505398,4987,4927,0
122237275,122237163,4259850,4325386,-0.00152618,0.000897635,0.00146648,0.00218296,0.0210253,-0.0551429,4988,4983,0
122740531,122740392,4259850,4325386,0.0012516,-0.000439951,-0.000155326,-0.00506532,-0.0236324,-0.0499142,4987,4928,0
123239401,123239290,4259850,4325386,-7.38309e-05,-0.000523451,-0.000755669,-0.0116709,-0.0226006,-0.0549964,4978,4926,0
123743069,123742815,4259850,4325386,0.00144899,-0.00032456,-0.000643512,0.000504941,0.00232262,-0.0452239,4985,4929,0
124242692,124242583,4259850,4325386,-0.00289731,0.00129905,-0.000534066,-0.00918755,-0.00284446,-0.0555925,4987,4995,0
124741438,124741310,4259850,4325386,-0.000669445,-0.000115648,0.00032982,-0.0015771,-0.000998728,-0.0511506,4992,4941,0
125240246,125240133,4259850,4325386,-9.69046e-05,0.000101426,0.000493166,0.002407,0.00548622,-0.0420606,4869,4260,0
125738968,125738841,4259850,4325386,0.00102734,-3.30797e-05,0.000813495,0.00437016,0.0152846,-0.0473309,4992,4931,0
126237631,126237485,4259850,4325386,-0.00103511,0.000277649,0.000814109,-0.000328644,-0.00117743,-0.0482443,4987,4928,0
126741403,126741204,4259850,4325386,0.002343,-0.000685596,-0.00159365,0.00750378,-0.0098293,-0.0420032,4989,4947,0
127240266,127240091,4259850,4325386,0.000250059,0.000204287,0.000600395,0.00529318,-0.00068085,-0.0456065,4980,4979,0
127738758,127738650,4259850,4325386,0.000214672,-0.000377315,0.00288668,0.0105209,-0.00923564,-0.037656,4988,4972,0
128238859,128237376,4259850,4325386,-0.000440592,-0.00106217,0.00016899,0.00321107,-0.00530008,-0.0440057,4986,4975,0
128740654,128740542,4259850,4325386,-0.00179308,0.000374658,0.000480975,-0.00622737,-0.000874061,-0.0497855,4987,4981,0
129239386,129239269,4259850,4325386,0.000974366,0.000591955,-0.00033576,0.0102542,0.0183113,-0.033728,4981,4927,0
129743126,129743014,4259850,4325386,-9.12575e-05,0.000201892,-5.9698e-05,-0.0035991,0.00154059,-0.0523471,4974,4930,0
130241855,130241709,4259850,4325386,-0.00149837,0.000341572,-0.000452011,-0.00589786,-0.00559625,-0.0519856,4987,4963,0
130740663,130740458,4259850,4325386,-0.000288858,0.000195117,0.000651794,0.00587116,0.0101159,-0.0449509,4987,4931,0
131239298,131239165,4259850,4325386,-0.00110927,0.000410163,0.000112359,0.0067667,0.0266856,-0.043548,4988,4927,0
131738332,131738160,4259850,4325386,-0.00217107,-0.000748683,0.000402603,-0.00966336,-0.00526286,-0.0563067,5260,4929,0
132236724,132236614,4259850,4325386,-7.61319e-05,-0.000292887,0.000682719,0.00614357,0.00303489,-0.0443264,4986,4973,0
132739476,132739360,4259850,4325386,-0.00103574,0.000280001,0.000655551,-0.00688322,0.0102863,-0.0491474,5017,4910,0
133238957,133238059,4259850,4325386,0.00242481,-0.00183509,-0.000827614,0.00581272,0.00215263,-0.041255,4987,4929,0
133742163,133742045,4259850,4325386,0.00115737,8.90033e-05,-0.000966049,-0.00015234,-0.0218731,-0.0481506,5025,4918,0
134239737,134239603,4259850,4325386,7.64058e-05,0.000257009,-0.000383881,0.000620286,0.00146735,-0.0496091,5040,5864,0
134743438,134743313,4259850,4325386,-0.00187135,-0.00010112,0.000386064,0.00755983,0.0112002,-0.0401316,5033,4922,0
135237192,135237039,4259850,4325386,-0.00141334,0.000356388,0.000547764,0.0121739,0.02436,-0.0380292,4955,4965,0
135740291,135740174,4259850,4325386,0.000109909,0.000281695,-0.000762806,-0.00540948,-0.0182171,-0.0493248,4989,4966,0
136239009,136238898,4259850,4325386,0.00204206,0.00123274,0.00050428,0.00959261,0.000414067,-0.0388899,4984,4972,0
136737962,136737820,4259850,4325386,0.000199464,-0.000299147,-0.000295582,0.00595377,0.00696216,-0.0410381,4967,4928,0
137241511,137241367,4259850,4325386,-0.00052352,0.000667804,0.000594169,0.00410667,0.0263164,-0.0494712,4988,4989,0
137740451,137740272,4259850,4325386,0.00195387,-0.000662647,-0.000756402,0.00263156,0.00262421,-0.0391018,5029,4723,0
138239051,138238845,4259850,4325386,0.000115677,-0.000690521,-0.00078502,-0.00933924,-0.00359276,-0.045262,4966,4963,0
138737713,138737525,4259850,4325386,-0.000512363,0.000287726,0.000366757,-0.00601127,0.00528096,-0.0535983,4983,5633,0
139241354,139241243,4259850,4325386,0.000440877,0.00115414,7.02362e-05,-0.000443785,-0.0205041,-0.0414567,5244,3944,0
139739764,139739639,4259850,4325386,0.000945273,-0.000749619,0.000768432,0.00537553,0.0199123,-0.0442942,4974,4962,0
140238312,140238202,4259850,4325386,0.000455028,-0.00056146,0.000839929,0.00524136,0.0187923,-0.0447075,4987,4960,0
140742572,140741917,4259850,4325386,0.00131162,0.00125331,-0.000467412,-0.0118497,-0.0222265,-0.0648681,4990,5912,0
141241079,141240881,4259850,4325386,0.000362615,-0.000794105,-0.000275509,-0.00456135,-0.0089971,-0.0608287,4965,5827,0
141739481,141739370,4259850,4325386,-0.000542895,7.04665e-05,0.000817526,-0.00208126,0.00797118,-0.0496762,4987,4928,0
142238245,142238127,4259850,4325386,0.00145354,-2.7775e-07,-0.000999713,-0.00461803,-0.0287793,-0.0482492,5015,4900,0
142741434,142741319,4259850,4325386,0.0016715,-0.000574582,-0.000911434,-0.00462926,-0.0037374,-0.0488246,4990,4971,0
143240286,143240046,4259850,4325386,-0.00118335,0.000682641,0.0010236,-0.00126363,0.0290308,-0.0491907,4988,4933,0
143739010,143738862,4259850,4325386,0.000320574,6.57424e-05,-0.000559511,0.000501605,-0.00170612,-0.0379608,4965,4923,0
144242597,144242489,4259850,4325386,-0.000519298,-0.000201292,-0.000608051,-0.00162451,0.000942562,-0.0452045,4987,4986,0
144741398,144741281,4259850,4325386,0.00059746,-0.000492986,-0.00072361,-0.0144408,-0.0320994,-0.0546484,4931,4928,0
145240103,145239959,4259850,4325386,-0.000608494,0.000206641,0.00040316,0.00177824,0.00149329,-0.0500775,4975,4971,0
145738579,145738220,4259850,4325386,0.0020855,-0.00174374,-0.00103998,-0.00622016,-0.028005,-0.0497703,5022,4898,0
146237232,146237043,4259850,4325386,0.000985871,-3.15448e-05,-0.000973499,-0.00570786,-0.0288172,-0.0484801,4969,4929,0
146740857,146740701,4259850,4325386,0.00268701,-0.00167903,-0.000818384,-0.00162513,-0.0167715,-0.0450892,4990,4931,0
147239499,147239353,4259850,4325386,0.00160453,-0.00080378,-0.000385551,0.00757602,0.0162357,-0.0366068,4987,4661,0
147738199,147738082,4259850,4325386,0.000122224,-0.000260843,-0.000799196,0.00345145,0.00170818,-0.0415052,4987,4979,0
148242112,148241957,4259850,4325386,-0.00103045,0.000608377,0.000740373,-0.00281886,-0.0101762,-0.0506253,4964,4964,0
148740659,148740530,4259850,4325386,-0.00158226,-0.000283023,0.000451674,-0.0180858,0.00445629,-0.0623963,4988,4981,0
149239663,149239260,4259850,4325386,-0.00114114,-2.70542e-05,0.000902384,-0.00231557,0.0131943,-0.05235,4986,4965,0
149738389,149738271,4259850,4325386,0.000269133,6.29605e-05,9.77144e-05,0.00853063,-0.00245618,-0.0404605,4954,4951,0
150237001,150236875,4259850,4325386,-0.00146641,9.11045e-05,0.0008814,0.00227722,0.00503242,-0.044765,4986,4929,0
150741332,150741184,4259850,4325386,-0.00051589,0.00129712,-4.75242e-05,-0.0068595,-0.0195629,-0.0562678,4960,4930,0
151239814,151239703,4259850,4325386,-0.0018106,0.000160404,0.000606839,-0.00153946,0.00614861,-0.0454491,4987,4928,0
151743293,151743119,4259850,4325386,-4.79718e-05,0.000228138,9.29475e-05,-0.0137861,-0.0159665,-0.0586529,4951,4957,0
152241731,152241614,4259850,4325386,0.000264267,0.000762708,-0.000136199,-0.00405718,-0.00561201,-0.0491285,4988,4977,0
152740537,152740345,4259850,4325386,0.000545681,0.000185357,-0.000321657,0.00809816,0.00443711,-0.038309,4984,4875,0
153239521,153239371,4259850,4325386,0.00138498,-0.000832077,-0.000811196,0.00107978,-0.00671105,-0.0499926,4945,4940,0
153737951,153737810,4259850,4325386,9.86205e-05,0.000612763,0.000661156,0.00311919,-0.00360868,-0.052605,4992,4930,0
154241643,154241530,4259850,4325386,-0.00115111,0.000718079,0.000857364,-0.00374745,0.0221883,-0.0477767,4994,4663,0
154740413,154740287,4259850,4325386,0.00215847,-0.000805397,-0.000991241,0.00294134,-0.0206837,-0.0466898,4972,4971,0
155239120,155238990,4259850,4325386,-0.00186905,0.000253218,-0.000317376,0.00753579,0.0229689,-0.0420032,4983,4969,0
155737395,155737265,4259850,4325386,0.000578864,0.000120431,-1.86486e-05,-0.00691,-0.0126995,-0.0568303,4989,4958,0
156236124,156235995,4259850,4325386,0.000217551,-0.000845028,-0.000263421,0.0102377,0.0157444,-0.0386998,4986,4929,0
156739828,156739715,4259850,4325386,0.000564399,0.00113165,-0.000813364,-0.00497427,0.000299568,-0.0474292,4984,4943,0
157238616,157238452,4259850,4325386,-0.00235272,0.000597634,0.000913666,-0.00423044,0.0233166,-0.049307,4993,4983,0
157742470,157742306,4259850,4325386,-0.00708437,0.00105694,0.00137671,0.00650672,0.0285114,-0.0434083,4975,4977,0
158241008,158240896,4259850,4325386,-0.00296491,0.000314958,0.000953124,-0.0125853,0.00606509,-0.0544203,4985,4976,0
158740082,158739748,4259850,4325386,-0.00154576,-0.000229677,-0.000311983,-0.0121676,-0.0269136,-0.0663052,4991,5922,0
159243913,159243804,4259850,4325386,0.00351311,-0.000704233,-0.000373341,0.00484105,0.00661823,-0.0419301,4951,4934,0
159738398,159737677,4259850,4325386,0.000170762,-9.8288e-05,0.000502409,0.00625039,0.00353782,-0.0414151,4986,4984,0
160241396,160241267,4259850,4325386,4.77326e-05,-1.14053e-05,0.000468424,-0.00776328,-0.0158991,-0.0541239,4991,4930,0
160740103,160739992,4259850,4325386,0.00122263,-0.00068514,-0.00051465,0.00931753,-0.00518665,-0.0399226,4987,4992,0
161238883,161238726,4259850,4325386,0.000232837,0.000850416,0.00032994,0.0110175,0.0150299,-0.0359218,4989,4682,0
161742810,161742585,4259850,4325386,-0.00049549,0.00103068,0.000238369,0.00848687,-0.00591526,-0.0393179,4971,4976,0
162241351,162241176,4259850,4325386,0.00022759,-8.14956e-05,0.000536117,0.00279206,0.00338033,-0.0429235,4985,4144,0
162740555,162740411,4259850,4325386,0.00143256,-0.000358661,-0.000804342,0.00421504,-0.0108395,-0.0411696,4991,4738,0
163239537,163239142,4259850,4325386,-0.00142305,-8.20307e-05,0.000703767,0.00944034,0.0177793,-0.0427372,4982,4942,0
163738111,163738002,4259850,4325386,0.000625623,-0.000992392,0.00107125,0.00206274,0.000674883,-0.0487397,4969,4967,0
164237107,164236895,4259850,4325386,0.00146096,0.0019997,-8.40699e-05,0.0072864,-0.00672024,-0.0511399,5256,5917,0
164740451,164740323,4259850,4325386,0.000998248,-0.00154595,9.52656e-05,-0.0125311,-0.00675389,-0.0591818,4988,4929,0
165239182,165239056,4259850,4325386,-0.000850292,0.000352914,0.000326639,-0.00295535,0.0128358,-0.0565891,4986,4967,0
165743609,165743391,4259850,4325386,-0.000405288,0.00054183,0.000154939,0.000895749,-0.00298466,-0.0490233,4998,4999,0
166242171,166242008,4259850,4325386,0.000154582,-0.00110251,-0.000536068,0.0025894,0.00231975,-0.0443168,4980,4928,0
166740360,166740242,4259850,4325386,-0.00211845,0.00178155,0.000701749,-0.0103973,-0.00307445,-0.0465462,4984,3939,0
167239258,167239143,4259850,4325386,-0.00209694,0.000632234,0.000643412,-0.00958955,0.00359267,-0.0567966,4929,4930,0
167737999,167737878,4259850,4325386,-0.0006566,0.000135889,-8.42648e-05,-0.00131182,0.00101392,-0.0514072,5039,4933,0
168241618,168241475,4259850,4325386,-0.00150717,0.000518181,0.001366,-0.00140792,0.0163642,-0.0474381,5035,4925,0
168740827,168740672,4259850,4325386,0.0011737,-0.000175719,0.000613605,-0.00322996,-0.00459337,-0.0543633,4982,4929,0
169239527,169239397,4259850,4325386,0.00123362,-0.0010087,-0.000947612,-0.00158518,-0.0067086,-0.0342462,4789,3876,0
169743362,169743191,4259850,4325386,0.000225286,0.00205289,-1.45647e-05,0.00253563,0.00083345,-0.0482398,4955,4929,0
170236978,170236861,4259850,4325386,-0.000519519,-0.00115638,-0.00011117,0.00217498,0.013224,-0.0405428,4988,4933,0
170740711,170740581,4259850,4325386,-0.00193865,0.000944475,0.000886367,-0.00560551,0.0068474,-0.0489867,4988,4929,0
171239464,171239319,4259850,4325386,6.97335e-05,0.000434225,-0.00016631,0.0123901,0.00697375,-0.0400714,4983,4928,0
171738219,171738096,4259850,4325386,0.000697152,-1.41947e-06,-9.01628e-05,-0.00295117,-0.00832221,-0.051758,5035,4921,0
172240487,172240346,4259850,4325386,0.00227697,-0.00251483,-0.00112049,-0.00176398,-0.0282573,-0.0441659,5012,4909,0
172739286,172739084,4259850,4325386,-0.00151973,0.000311072,0.000408985,-0.00889961,-0.00602893,-0.0559224,4975,4977,0
173242961,173242779,4259850,4325386,0.00141024,0.00052218,-0.00155691,-0.0187502,-0.0255174,-0.0591297,4988,4979,0
173736765,173736524,4259850,4325386,0.00184728,-0.000665784,-0.000724486,0.00367424,-0.0235598,-0.0498944,4988,5916,0
174240522,174240335,4259850,4325386,-0.000618748,0.000275475,-0.000300498,-0.00466195,-0.000894134,-0.0520847,4979,4937,0
174739463,174739278,4259850,4325386,0.00173719,-0.000658706,-0.000377198,-0.00299203,-0.00559049,-0.0449886,4984,4992,0
175241273,175241157,4259850,4325386,-5.31177e-05,7.56389e-05,-8.66878e-05,-0.00878228,0.0044481,-0.0554405,4987,4925,0
175740103,175739992,4259850,4325386,-0.00205963,0.000752741,0.000905865,0.00717924,0.0212208,-0.0414366,4960,4960,0
176238756,176238648,4259850,4325386,-0.00245302,0.000537491,-0.000434852,-0.00270251,0.00605692,-0.0523746,5010,4902,0
176742509,176742348,4259850,4325386,0.000548551,-0.00118676,-1.59082e-05,-0.00316759,-0.00512422,-0.0534447,4984,4956,0
177236440,177236233,4259850,4325386,-0.00110038,8.47079e-05,-0.000171032,-0.0111578,0.000208796,-0.0632769,4977,5914,0
177739945,177739820,4259850,4325386,0.00367815,0.000264273,-0.000653929,0.00507683,0.00550624,-0.0432085,4990,4929,0
178238666,178238552,4259850,4325386,-0.000732486,0.000300498,0.000787907,-0.00335405,-0.00325246,-0.0567375,4987,4978,0
178742186,178742046,4259850,4325386,-0.000294064,0.000550382,-0.000127967,0.00452812,0.011769,-0.0471504,5257,4930,0
179240771,179240580,4259850,4325386,0.00197009,-0.000530053,-0.000898549,0.00222796,-0.0191867,-0.0410944,4979,4962,0
179739433,179739246,4259850,4325386,-0.00283853,0.000377807,0.0011451,-0.00344914,0.0175211,-0.0536727,4988,4930,0
180243326,180243098,4259850,4325386,-0.000424724,0.00268451,0.00034349,0.00387893,0.00834545,-0.0479939,4949,4928,0
180736845,180736732,4259850,4325386,0.00490087,-0.000515004,-0.000932766,-0.00370013,-0.0252141,-0.0527652,5003,4896,0
181240601,181240439,4259850,4325386,-0.00229109,0.000984775,0.000227678,-0.011509,0.0100605,-0.0579572,4988,4969,0
181738856,181738724,4259850,4325386,0.000286344,-0.00115327,5.47397e-05,-0.00643539,-0.00754329,-0.0587028,4983,4996,0
182237571,182237459,4259850,4325386,0.000279437,-0.000167138,0.000214677,-0.000863424,-0.00598614,-0.050708,4987,4927,0
182741342,182741198,4259850,4325386,-0.00170857,0.00221136,0.000464991,-0.00490528,0.0071534,-0.0490381,4965,4965,0
183240049,183239919,4259850,4325386,0.00193578,-0.000752779,-0.00105222,-0.00841598,-0.029341,-0.0509798,4987,4994,0
183743766,183743641,4259850,4325386,-0.00238936,-0.000350141,-0.000767938,0.0036281,-0.0236987,-0.0412351,4987,4731,0
184237624,184237502,4259850,4325386,-0.00064823,0.000497957,0.000438503,-0.00960292,0.00305575,-0.0580635,4980,4979,0
184741629,184741507,4259850,4325386,0.000756179,-0.00296614,-0.000239179,0.012255,-0.000740608,-0.0421777,4957,4925,0
185239968,185239849,4259850,4325386,0.000296417,-9.41994e-05,-0.000896414,-0.00443362,0.0042488,-0.0464208,4985,4997,0
185739351,185739173,4259850,4325386,-0.000832432,0.000892901,0.000947239,-0.000708293,0.0206462,-0.0474974,5040,4940,0
186243871,186242763,4259850,4325386,-0.0018802,0.00101075,0.00119239,-0.00722045,0.00436311,-0.052207,4990,4970,0
186741604,186741493,4259850,4325386,0.000842425,-0.00050596,-0.000712169,0.00477655,-0.00372995,-0.0421265,4921,4925,0
187240375,187240232,4259850,4325386,-0.00193302,0.00137892,0.000814228,-0.00745964,-0.0118397,-0.0555656,4987,4987,0
187739081,187738969,4259850,4325386,0.00268483,-3.7809e-05,-0.000352681,0.011242,0.00239312,-0.0386045,4955,4926,0
188237377,188237254,4259850,4325386,6.43389e-05,-0.000170128,0.0005246,-0.00421466,0.00894686,-0.0519102,4987,4930,0
188741835,188741721,4259850,4325386,-0.000835782,0.000108817,0.00115327,0.000269077,0.0225123,-0.0445696,4996,4936,0
189240313,189240172,4259850,4325386,-0.000157768,0.000214227,0.000237624,0.00686574,0.00704382,-0.0391762,4988,4931,0
189739040,189738904,4259850,4325386,0.00127007,-6.13873e-05,0.000776469,0.00569353,0.0023111,-0.0436061,4987,4962,0
190242877,190242718,4259850,4325386,-0.00029852,-0.000779174,0.000831328,0.0100639,0.0237556,-0.0486109,4966,4967,0
190741480,190741364,4259850,4325386,-0.00122148,0.000846954,0.00111806,-0.00334318,0.0116281,-0.0477921,4987,4929,0
191240221,191240102,4259850,4325386,0.00178724,-0.00126821,-0.000824452,-0.00385139,-0.0259797,-0.0493871,4963,4932,0
191738496,191738387,4259850,4325386,-0.000111292,-0.000212539,0.000473426,-0.00709921,0.0176107,-0.0548857,4987,4928,0
192242266,192242117,4259850,4325386,-0.000368614,0.000739203,0.000249803,0.00268005,0.00891574,-0.0320554,4984,4125,0
192741005,192740850,4259850,4325386,0.00204223,-0.00118688,-0.00120951,-0.00190418,-0.0151383,-0.0445137,4987,4751,0
193239705,193239587,4259850,4325386,0.00218451,-0.000124066,-0.000240692,0.00611809,-0.0179801,-0.0387715,4966,4929,0
193743511,193743318,4259850,4325386,0.000518959,-0.000535157,-0.000566643,0.00262986,-0.0250242,-0.0412359,4993,4980,0
194242324,194242166,4259850,4325386,-0.00129581,0.000415807,0.000334834,-0.00489718,0.00672264,-0.048348,4995,4945,0
194741099,194740968,4259850,4325386,0.00210038,-6.00521e-05,-0.000305075,-0.00469036,-0.00434712,-0.0541263,4967,4933,0
195240344,195240232,4259850,4325386,0.000260213,0.000324338,0.000355684,-0.00450244,-0.00204768,-0.0502138,4934,4930,0
195738425,195738265,4259850,4325386,0.00113315,7.93912e-05,-0.00038026,-0.00124625,-0.00430912,-0.0494603,4989,4971,0
196242128,196242017,4259850,4325386,0.00141094,-0.00153795,0.000358902,0.0120815,0.00501378,-0.0430393,4965,4930,0
196740833,196740726,4259850,4325386,-0.00145422,0.000303544,0.000495795,0.0083034,0.0201317,-0.0440719,4941,4927,0
197240051,197239915,4259850,4325386,0.000821989,-0.00107126,-0.000561982,0.01093,-0.0169492,-0.0389228,4986,4921,0
197743320,197743189,4259850,4325386,0.000180575,0.0021816,-0.000386325,0.0154207,0.0173247,-0.0409004,4982,4928,0
198237085,198236942,4259850,4325386,0.000413171,-0.000329094,-0.00054194,-0.00279368,-0.000427916,-0.042692,4989,4931,0
198740393,198740242,4259850,4325386,-0.00221436,-0.000562864,-0.000817542,-0.00529906,-0.0153395,-0.0505645,4928,4927,0
199239087,199238966,4259850,4325386,-0.00243625,0.000849294,0.00111115,-0.00856531,0.0138391,-0.0514026,4988,4935,0
199737783,199737596,4259850,4325386,0.00203809,-0.0010926,-0.000762336,0.00968414,-0.00758056,-0.0410608,4987,4969,0
200240952,200240827,4259850,4325386,0.000123612,0.00127535,0.000103349,-0.00797084,-0.00174485,-0.0537782,4989,4995,0
200739836,200739575,4259850,4325386,-0.00173557,-0.000325893,-0.000710836,-0.00116322,-0.0090016,-0.0484045,4976,4971,0
201243576,201243434,4259850,4325386,3.87664e-05,-3.2348e-05,0.000867166,0.000578591,0.0147322,-0.0508359,4989,4954,0
201737428,201737265,4259850,4325386,0.00126632,-0.000446307,-0.000304888,-0.00178034,0.00450998,-0.0486315,4976,4929,0
202240533,202239321,4259850,4325386,-0.000979361,-0.000682612,-0.000845198,0.00456901,-0.000600279,-0.0426075,4988,4961,0
202738227,202738057,4259850,4325386,0.00282438,-0.00283263,-0.000944791,0.00457082,-0.0237976,-0.0500895,4987,5913,0
203242262,203242057,4259850,4325386,-0.000194058,0.00110921,0.00041384,0.00247523,0.0121746,-0.0571395,5262,6049,0
203740762,203740649,4259850,4325386,0.000770186,-0.000220582,0.000343998,0.0127159,-0.0035484,-0.0400081,4980,4989,0
204239414,204239261,4259850,4325386,-0.000283123,0.000127766,-6.74718e-05,0.0071573,0.00705721,-0.0366008,4985,4929,0
204743242,204743126,4259850,4325386,-0.00120695,-0.00137885,-0.000180058,-0.00642068,-0.0115007,-0.0552138,4915,4929,0
205236914,205236740,4259850,4325386,-0.000982854,-0.000192606,0.000183178,0.00267102,-0.00241879,-0.0496962,4988,5748,0
205740971,205740469,4259850,4325386,5.7268e-05,-0.000404808,-0.000827755,-0.0105597,-0.0114762,-0.0621523,4986,5929,0
206239444,206239336,4259850,4325386,-0.00140127,0.00161135,0.00132192,-0.00382592,0.0337791,-0.0472282,4978,4981,0
206738149,206737953,4259850,4325386,-0.000677601,0.000319614,-0.00036123,-0.00660102,-0.00544351,-0.0596361,4990,5838,0
207241088,207240691,4259850,4325386,-0.000496518,-0.00019726,0.000194108,-0.012477,-0.0177931,-0.0591201,4985,4786,0
207739498,207739370,4259850,4325386,0.000893956,0.000189999,0.000907143,0.000170655,0.0151823,-0.0511876,4987,4950,0
208243400,208243169,4259850,4325386,0.00194037,0.00131757,-0.000409378,0.0106435,0.012129,-0.0517555,4968,5917,0
208736966,208736846,4259850,4325386,-6.90375e-05,0.000891356,-2.2429e-05,-0.00168579,0.000779638,-0.0493207,4987,4964,0
209240690,209240574,4259850,4325386,0.00125431,-0.000865074,-0.000526425,0.00564259,-0.00323975,-0.0425182,4987,4964,0
209739485,209739372,4259850,4325386,0.00192563,0.00029026,-0.000888065,-0.00928249,-0.0254533,-0.0496618,4973,4976,0
210238187,210238054,4259850,4325386,0.000517272,-0.0001538,-0.000457138,0.000545942,0.00864687,-0.040928,4988,4964,0
210742016,210741906,4259850,4325386,-0.000287287,-8.5694e-05,0.00106583,0.000778966,0.0163959,-0.0435129,4980,4925,0
211239788,211239659,4259850,4325386,0.000312456,-0.000709031,5.89596e-05,0.00221025,0.00036854,-0.0342971,5051,4938,0
211743412,211743256,4259850,4325386,-0.00231134,0.00224221,0.000587429,-0.0047032,0.00603139,-0.0505792,4969,4966,0
212237153,212237005,4259850,4325386,0.00059525,-0.000225214,0.000432942,0.00772493,-0.00321024,-0.0483902,4980,4927,0
212740860,212740733,4259850,4325386,-0.000271537,0.000280919,0.00030054,-0.0141757,-0.00402666,-0.0582377,4981,4976,0
213239628,213239475,4259850,4325386,0.000209555,-0.000503266,-0.000381391,-0.00672434,-0.00192994,-0.0602056,4987,4995,0
213737907,213737764,4259850,4325386,0.000699082,0.000220909,0.000550163,-0.00327871,-0.00360643,-0.0545196,4987,4970,0
214241608,214241493,4259850,4325386,-0.000552375,0.000495427,0.000381273,-0.00642113,-0.0111929,-0.0544483,4988,4984,0
214740205,214739722,4259850,4325386,-0.00213609,-0.000143979,8.88948e-05,0.00960002,0.0128076,-0.0425614,5009,5003,0
215243771,215243579,4259850,4325386,-0.000322994,-9.27169e-05,0.000339978,-0.00408843,0.00179577,-0.0549771,5000,4931,0
215737596,215737391,4259850,4325386,0.00223042,-0.00105318,-0.000598409,0.0011102,-0.023138,-0.0450016,4967,4928,0
216236899,216236757,4259850,4325386,0.000491135,0.000389267,-0.00100284,0.00530431,-0.00604123,-0.0360124,4930,4928,0
216740852,216740708,4259850,4325386,0.000808739,-0.000398038,-1.58694e-05,0.0113581,-0.000451161,-0.0449408,4981,4982,0
217239513,217239377,4259850,4325386,-0.000847064,0.00047243,0.000428978,-0.00672039,0.00925855,-0.0567711,4983,4933,0
217738401,217738257,4259850,4325386,-0.000841588,0.000248347,0.000809267,0.00721258,0.0186892,-0.0396352,4991,4936,0
218241964,218241847,4259850,4325386,0.000758045,0.000370238,-0.000780706,-0.00527687,0.011679,-0.0481374,4987,4975,0
218740981,218740812,4259850,4325386,-0.000782146,-0.000258326,-0.000541035,-0.00476999,-0.00706447,-0.0504564,4971,4931,0
219239439,219239330,4259850,4325386,0.00200696,-0.00321284,-0.000103651,0.0114027,-0.0109593,-0.0314593,4984,4068,0
219738183,219738006,4259850,4325386,-2.21705e-05,0.00103226,0.000287327,-0.00480367,-0.000424541,-0.0575588,4983,4973,0
220241461,220241349,4259850,4325386,0.00168321,-0.000472078,-0.000572885,-0.00228466,-0.0231309,-0.0453203,4986,4929,0
220740213,220740092,4259850,4325386,0.000473337,0.000298918,-0.00067854,-0.00970246,-0.00556123,-0.0519481,4981,4931,0
221239081,221238898,4259850,4325386,0.00047675,-0.00101774,0.000806393,0.00924397,0.0101605,-0.0386757,4974,4957,0
221742674,221742562,4259850,4325386,-0.000479533,1.80973e-05,-0.000392568,0.00207271,-0.00362745,-0.0421434,4984,4931,0
222241478,222241304,4259850,4325386,-0.000125676,0.00014092,0.000449206,0.00138541,0.00598794,-0.0588443,4987,5918,0
222740317,222740186,4259850,4325386,-0.000120778,0.00012468,0.000844813,0.00155828,0.0165044,-0.0367799,4972,3945,0
223238915,223238788,4259850,4325386,0.002417,-0.0007865,-0.000573535,0.0133305,-0.0087244,-0.0420872,4987,4973,0
223742197,223742066,4259850,4325386,-0.000789465,0.000107611,0.000587039,-0.0042412,0.00852818,-0.0505204,4996,4996,0
224240854,224240714,4259850,4325386,-0.000908538,0.000745084,0.000547577,0.00360583,0.0152419,-0.0445603,4986,4969,0
224739724,224739611,4259850,4325386,-0.00155614,0.00063018,0.000598869,-0.0114359,-0.0211905,-0.0574094,4974,4968,0
225243481,225243227,4259850,4325386,-0.00124425,0.000265296,0.000387605,-0.00523561,0.011099,-0.0479222,5022,4908,0
225737340,225737185,4259850,4325386,0.00136554,-0.000168392,-0.000398123,0.00184286,-0.000989815,-0.0403374,4962,4934,0
226240388,226240235,4259850,4325386,-0.000420733,-0.000406366,0.000545514,-0.000277668,0.000174048,-0.0464979,4967,4931,0
226739297,226739166,4259850,4325386,6.53126e-05,0.00247447,0.000735562,-0.00247291,0.0246069,-0.0422414,4956,4959,0
227237770,227237658,4259850,4325386,0.000219794,-0.000549718,-0.000634561,-0.00660342,-0.0177204,-0.0546304,4988,4931,0
227741519,227741390,4259850,4325386,-0.00118712,0.000444923,0.00148866,0.00222245,0.030279,-0.0521369,4988,4949,0
228240373,228240259,4259850,4325386,0.000633528,-0.000443357,0.000308114,0.00561743,-0.00749005,-0.0513343,4975,4996,0
228738995,228738874,4259850,4325386,-0.00167954,-0.000109555,0.000672885,0.00241432,0.0169989,-0.0447777,4987,4976,0
229241717,229241607,4259850,4325386,0.000685892,0.00170768,0.000271396,0.00641068,0.0162767,-0.0417531,4983,4737,0
229740465,229740351,4259850,4325386,-0.00114589,0.000693478,-0.000232392,-0.0105834,0.00282571,-0.0529802,4965,4765,0
230239679,230239385,4259850,4325386,-0.00140541,0.00195722,0.00117601,0.0102565,0.0289077,-0.0368946,4907,4937,0
230737990,230737836,4259850,4325386,-0.000488683,0.00241833,0.000502521,-0.00256133,-0.00152368,-0.0476868,4987,4935,0
231241683,231241568,4259850,4325386,-0.00165969,0.000660146,0.00076826,-0.00546978,0.00553925,-0.0513237,4988,4634,0
231740486,231740330,4259850,4325386,0.000954856,-0.00077909,-0.00078166,0.00228245,-0.0117745,-0.0461351,4978,4965,0
232239209,232239054,4259850,4325386,-0.000131381,0.000508243,0.000481721,-0.0102126,0.00427689,-0.0586668,4988,4931,0
232742514,232742346,4259850,4325386,-0.00214796,-0.000187386,0.00075608,-0.0120606,-0.011781,-0.0557854,4967,4968,0
233236227,233236090,4259850,4325386,-0.000652164,0.000712661,0.000408968,-0.00517514,-0.00470614,-0.0563921,4987,4949,0
233739930,233739821,4259850,4325386,0.000700552,-0.000330686,3.33015e-05,-0.00956175,-0.0140471,-0.0581245,4983,4931,0
234238745,234238567,4259850,4325386,-0.00438795,-0.000191572,0.000634806,0.00427113,-0.00945674,-0.0554541,4989,5918,0
234742695,234742517,4259850,4325386,0.000280616,-0.000858954,-0.000700036,-0.0129556,-0.0208264,-0.0579018,4978,4952,0
235241273,235241129,4259850,4325386,0.00106225,-0.00106665,-0.00030529,0.00922448,0.00504749,-0.0364221,5040,4933,0
235740349,235740236,4259850,4325386,0.00114861,0.00213854,-0.000475371,-0.00118953,-0.0113477,-0.0435404,4988,4935,0
236244719,236244473,4259850,4325386,-0.00150961,0.00058771,0.000758514,-0.0136334,-0.00503295,-0.054094,4995,4969,0
236738330,236738222,4259850,4325386,0.0028637,-0.0011115,-0.000888208,0.00753586,0.00298416,-0.0369854,4987,4662,0
237237678,237237097,4259850,4325386,-0.00134119,0.000834696,0.000952406,-0.00457304,0.021157,-0.0537043,4931,4931,0
237740927,237740771,4259850,4325386,-0.0018551,0.000598167,0.000609421,-0.00422649,0.00801988,-0.0502104,4974,4954,0
238239629,238239448,4259850,4325386,-0.000837049,-0.00017618,-0.000198568,0.00414558,0.00600091,-0.041294,4993,4971,0
238738348,238738187,4259850,4325386,-0.000138373,0.00199467,0.000259921,0.0110116,-0.00528964,-0.0468251,4979,4945,0
239242210,239242073,4259850,4325386,0.000254415,-0.000217708,0.000129126,-0.00516285,-0.0126274,-0.057679,4954,4931,0
239740781,239740667,4259850,4325386,0.000161156,-0.000103165,-0.000134394,0.00565191,0.0162145,-0.0437038,4987,4994,0
240239517,240239409,4259850,4325386,9.74288e-05,-0.00305298,2.79873e-05,-0.00702678,-0.00211974,-0.0528958,4988,4960,0
240739230,240738461,4259850,4325386,0.000789015,0.00129089,-0.000543562,-0.00262366,-0.00861866,-0.0387504,4958,4962,0
241237033,241236897,4259850,4325386,0.00144222,-5.28821e-05,-0.000655038,0.00676044,0.0100901,-0.0328935,4986,4986,0
241740749,241740635,4259850,4325386,-0.0017146,0.0010911,0.000798298,0.0030628,0.0262114,-0.0439543,4993,4925,0
242239481,242239370,4259850,4325386,0.000992914,-8.24027e-05,-0.00046671,-0.0073314,0.006326,-0.0559162,4942,4944,0
242742835,242742672,4259850,4325386,0.00258715,-0.000742731,-0.000564485,0.00626232,-0.00337306,-0.0452696,4990,4961,0
243241545,243241356,4259850,4325386,-0.00210473,0.000651756,0.00130086,-0.00895664,0.0208006,-0.0576114,4989,4933,0
243740242,243740108,4259850,4325386,0.00119576,-0.00264021,-0.000166818,0.0164671,0.0167991,-0.0345001,4997,4934,0
244238599,244238489,4259850,4325386,0.000614607,0.000243519,-0.000156184,-0.0077076,-0.0198979,-0.048267,4946,3951,0
244737347,244737213,4259850,4325386,0.00105663,0.000969965,-0.000921815,0.000446812,-0.0160475,-0.0422268,4995,4929,0
245240072,245239891,4259850,4325386,-0.000873274,0.000114316,-0.000683591,-0.000434473,-0.00547361,-0.0445152,4990,4933,0
245738720,245738572,4259850,4325386,0.00618657,-0.0013687,-0.00100291,0.00456099,-0.0178239,-0.0453005,4987,4965,0
246242485,246242311,4259850,4325386,0.00151136,-0.00032085,-0.00161288,-0.00487629,-0.0247843,-0.0520084,4992,4928,0
246741179,246741050,4259850,4325386,-0.000509231,0.000312905,0.000405388,-0.00463274,-0.00381032,-0.0498124,4987,4930,0
247239916,247239803,4259850,4325386,-0.00143567,0.000183213,0.000609278,0.000876789,0.00864813,-0.0436858,4987,4865,0
247738769,247738660,4259850,4325386,0.000749703,-1.32096e-06,0.000458073,0.0127946,0.011922,-0.0391894,5005,4777,0
248237717,248237571,4259850,4325386,-0.00173012,0.00133853,0.000551596,-0.00703277,-0.000945847,-0.0511415,4932,4929,0
248741152,248741022,4259850,4325386,-0.0012213,-0.000614253,0.000620077,-0.000387442,0.0224017,-0.0471223,4981,4931,0
249239886,249239767,4259850,4325386,-0.000167629,0.000633454,0.000104041,-0.00433823,0.0043152,-0.0545195,4988,4974,0
249743713,249743599,4259850,4325386,-0.000594616,0.000361476,0.000609971,-0.00403512,0.00535499,-0.0524948,4984,4933,0
250242361,250242246,4259850,4325386,-0.00129786,0.00031665,0.000614034,-0.00844944,0.00633741,-0.0553419,4987,4980,0
250741125,250740993,4259850,4325386,-0.000519413,-0.000273129,0.00107209,0.00549067,0.0173597,-0.0463558,4986,4961,0
251240345,251240237,4259850,4325386,0.00168252,-0.000763352,-0.0005847,-0.00941036,-0.0138867,-0.0565791,4987,4930,0
251739174,251738984,4259850,4325386,-0.00394213,0.000763495,0.000431227,-0.00892347,-0.00621283,-0.0526379,4985,4944,0
252242340,252242221,4259850,4325386,2.39571e-05,-0.00145573,-0.000356162,-0.0127197,-0.0305054,-0.0540398,4990,4931,0
252741083,252740967,4259850,4325386,0.000100065,-0.000410415,-0.0014355,-0.00729346,-0.0213665,-0.0489695,4985,4930,0
253240133,253239973,4259850,4325386,-8.63962e-05,0.00033128,-0.000303653,0.00781468,-4.76316e-06,-0.039404,4970,4978,0
253738090,253737964,4259850,4325386,-0.000242651,-0.0008884,-0.00042921,0.00502371,-0.00616144,-0.0417996,4942,4929,0
254237250,254236990,4259850,4325386,-0.000452791,0.000546395,6.74261e-05,0.0121452,0.0236127,-0.0393022,5271,4931,0
254740569,254740440,4259850,4325386,0.0003775,-0.000834811,0.000447686,-0.0028539,-0.00702949,-0.0552442,4987,4931,0
255239373,255239189,4259850,4325386,-0.000594206,0.00412339,0.00024032,-0.0012302,0.00500726,-0.0492347,4984,5922,0
255738217,255738097,4259850,4325386,0.000261371,-0.000342619,-4.65557e-05,0.00132999,6.02995e-05,-0.0426107,4976,4933,0
256241814,256241669,4259850,4325386,-0.000347404,0.000451749,0.000503885,-0.00903326,-0.0121984,-0.0581856,4987,4931,0
256740737,256740593,4259850,4325386,0.00354822,-0.000668828,-0.000405411,-0.00105635,-0.00638063,-0.0537502,4989,4930,0
257239317,257239204,4259850,4325386,-0.000954271,0.00046441,0.0012475,0.00655799,0.0299295,-0.0453496,4960,4931,0
257738021,257737912,4259850,4325386,0.00135163,-0.00226964,-0.000719448,0.00220594,-0.012941,-0.0436587,4990,4932,0
258236767,258236657,4259850,4325386,-0.000186795,0.000462329,-0.00022098,-0.0034715,-0.0137673,-0.0518826,4984,4925,0
258740572,258740443,4259850,4325386,0.00265142,0.000537327,-0.00081045,0.00731113,-0.0183847,-0.0397059,4990,4990,0
259239266,259239139,4259850,4325386,0.0019442,0.000426142,0.000307119,0.00840855,0.0118351,-0.0386796,4987,4965,0
259738132,259738016,4259850,4325386,-0.00396341,0.000125034,-0.000516847,-0.0084475,-0.0161932,-0.0546813,5001,4931,0
260241255,260241124,4259850,4325386,-0.00111902,0.000368572,0.00098859,-0.00566725,0.00102388,-0.0516432,4988,4750,0
260739552,260739420,4259850,4325386,0.000329219,0.00025587,-0.000401031,-0.00532333,-0.00933578,-0.0482075,4988,4939,0
261238604,261238449,4259850,4325386,0.000740488,-7.43779e-05,-0.000299485,0.00168435,0.00392641,-0.0419571,5270,4933,0
261737225,261736919,4259850,4325386,-0.000133187,0.00014218,1.83899e-05,-0.00517492,0.0012714,-0.0498653,4990,4965,0
262240759,262240650,4259850,4325386,-0.00135791,0.000428367,0.000881966,0.00188481,0.0166839,-0.0479902,4987,4979,0
262739745,262739555,4259850,4325386,-0.00116726,-0.00123059,0.000142054,0.00290272,0.00788595,-0.0472969,4966,4967,0
263238803,263238689,4259850,4325386,0.00033899,0.00295156,-0.000850535,0.00775391,-0.0123616,-0.042742,4969,4788,0
263742497,263742332,4259850,4325386,0.000197697,-0.00147771,0.000163572,0.00699062,-0.00176319,-0.0432615,4987,4959,0
264241200,264241081,4259850,4325386,-0.000567144,0.000898433,0.00031343,-0.00527896,-0.00612135,-0.0563009,4987,4985,0
264740179,264740007,4259850,4325386,0.0013465,-0.000186532,-0.00106386,-0.00673683,-0.0138185,-0.0496216,4962,4959,0
265238788,265238584,4259850,4325386,0.000945571,-0.000294821,5.60659e-05,0.00761853,-0.000946857,-0.0402901,4995,4932,0
265737497,265737325,4259850,4325386,-0.00022909,-0.00023637,-0.000328278,-0.0130878,-0.0262232,-0.0638645,4987,5795,0
266241189,266241063,4259850,4325386,0.00062236,-1.5321e-05,0.000967733,-0.00313835,0.00911163,-0.0552602,4987,5360,0
266740216,266740046,4259850,4325386,0.00297202,-0.000924415,-0.00098701,0.00809626,-0.0186413,-0.0428346,4961,4961,0
267243225,267243096,4259850,4325386,0.00151986,0.000460578,0.00029969,-0.00824241,-0.0156752,-0.0607838,4989,4930,0
267742253,267742051,4259850,4325386,-0.000831098,0.000238222,9.09728e-05,0.00419147,0.0101652,-0.0418981,4974,4983,0
268240709,268240592,4259850,4325386,-0.0021312,0.000870621,0.00143925,0.0055975,0.0215347,-0.0417683,4988,4955,0
268739952,268739348,4259850,4325386,-0.00195167,0.000643185,0.000711918,-0.0113674,-0.0112742,-0.054667,4991,5001,0
269238424,269238265,4259850,4325386,0.00133997,-0.000627162,-0.000941947,0.000177835,0.00253255,-0.0483057,4993,4995,0
269742067,269741926,4259850,4325386,0.00134883,-0.000619586,-0.000181098,0.0123825,-0.00420295,-0.0378999,4977,4931,0
270241171,270241027,4259850,4325386,-0.000961565,0.000384217,0.002498,-0.0059294,-0.00446802,-0.051757,4987,4743,0
270740030,270739912,4259850,4325386,0.00163008,-0.000430937,-0.00221909,0.00428861,0.00135527,-0.0437457,5075,4961,0
271243658,271243512,4259850,4325386,-0.00214578,0.00018006,-0.00144091,-0.00621059,-0.000544012,-0.0536263,4987,4960,0
271736463,271736332,4259850,4325386,-0.0012299,0.000287498,-0.00183445,-0.00269234,0.00558938,-0.0508345,4962,4928,0
272240145,272240022,4259850,4325386,-0.001075,0.000364387,0.00063763,-0.00618986,0.00957443,-0.0522651,4997,4891,0
272739050,272738765,4259850,4325386,0.00613188,-0.00214596,-0.00266878,0.0054734,-0.0132995,-0.0424137,4991,4932,0
273242215,273242061,4259850,4325386,-0.00059389,0.000293534,0.00110077,-0.00488415,0.00439476,-0.0578083,4993,4932,0
273741368,273741249,4259850,4325386,0.00231255,0.000475282,0.000654396,-0.00968442,-0.0154123,-0.0614633,4984,4978,0
274240127,274240018,4259850,4325386,-0.00105825,-0.00023095,1.28557e-05,0.00139634,0.00891917,-0.0446693,5008,4904,0
274744041,274743926,4259850,4325386,-0.000676209,-0.000331427,-0.00267576,-0.0122052,-0.0215843,-0.061635,5005,4961,0
275237887,275237758,4259850,4325386,0.000796884,0.000136573,-0.000837758,-0.00550921,-0.00168139,-0.0559654,5017,4914,0
275741348,275741238,4259850,4325386,-0.00174452,0.000475809,0.00109934,0.00646057,0.0199307,-0.0403734,4990,4932,0
276239993,276239786,4259850,4325386,0.000299427,-0.000580963,-0.000776219,0.000737528,-0.00418473,-0.0535117,4977,5914,0
276738360,276738235,4259850,4325386,0.00284814,-0.000835835,-0.000852838,0.00885088,0.00438432,-0.0417839,4982,4970,0
277242468,277241976,4259850,4325386,-0.000202295,-0.0008013,-0.00313024,-0.00362914,-0.0272892,-0.0486535,4987,4927,0
277740935,277740820,4259850,4325386,-0.00205257,0.000203458,0.00038554,-0.00536872,0.00779653,-0.0535253,4970,4930,0
278239586,278239474,4259850,4325386,-0.000481949,0.00140794,0.000898486,0.00771911,-0.0042374,-0.0475152,4988,4989,0
278738336,278738223,4259850,4325386,-0.000329092,-1.2704e-05,0.000547182,0.00374926,-0.00582158,-0.0507315,4987,4934,0
279239092,279237154,4259850,4325386,-0.000329427,-0.000469512,0.000468844,-0.000147717,-0.00372885,-0.053199,4669,4905,0
279741031,279740901,4259850,4325386,-0.000280914,0.000164695,0.000762007,0.000697342,-0.00330862,-0.0486729,4980,4930,0
280239580,280239467,4259850,4325386,-0.00210014,0.000472455,-0.00030523,0.0125488,0.000296631,-0.0401863,4982,4974,0
280738361,280738216,4259850,4325386,-0.000556717,-0.000456518,-0.000325331,-0.00259781,0.00203952,-0.0519322,4986,4949,0
281242333,281242216,4259850,4325386,-0.000617157,0.000332649,0.000954334,0.00452389,0.011444,-0.0386073,5250,4935,0
281735830,281735714,4259850,4325386,0.00230571,-0.000770457,-0.00131249,0.00544395,0.000877133,-0.0378375,4988,4990,0
282240065,282239953,4259850,4325386,-0.00087205,0.000512823,0.000748552,-0.000992433,0.0046463,-0.0453821,4989,5023,0
282738877,282738702,4259850,4325386,0.000100357,-0.000295059,0.000582442,0.0107072,0.016328,-0.0529935,4981,5917,0
283237691,283237579,4259850,4325386,0.00326868,-0.00119349,-0.00111366,0.0165539,-0.00144742,-0.0370674,4984,4926,0
283741416,283741248,4259850,4325386,0.0028027,-0.000536799,-0.000283994,0.00195925,-0.00861882,-0.0520524,4986,4977,0
284240089,284239942,4259850,4325386,0.000334932,-1.24701e-05,-0.00290385,-0.00240819,-0.0230247,-0.0402025,4984,4966,0
284738863,284738693,4259850,4325386,-0.0061041,0.00102886,0.000612716,0.0102539,0.0206673,-0.0510864,4978,5809,0
285237083,285236957,4259850,4325386,-0.000871074,0.000161032,-0.000330544,-0.00930599,-0.00438179,-0.0592578,4987,4954,0
285741043,285740849,4259850,4325386,-0.00192718,0.000229718,0.00105749,0.0088465,0.00861647,-0.046416,4989,4989,0
286239562,286239436,4259850,4325386,0.00145026,0.000435698,-0.000129413,-0.00671569,-0.0110966,-0.05561,4943,4931,0
286739092,286738981,4259850,4325386,0.000930022,-0.0006029,-0.00119997,0.00864454,-0.0130262,-0.0440374,4964,4928,0
287237559,287237436,4259850,4325386,-3.48295e-05,0.000166802,0.000712288,0.00103561,-0.00149586,-0.0484375,4987,4932,0
287741101,287740892,4259850,4325386,-0.000544664,-7.7539e-05,0.000114944,0.00157496,0.0189968,-0.0380723,4949,4931,0
288239536,288239428,4259850,4325386,-0.00135732,0.000161996,0.00105781,0.00760934,0.0204299,-0.0364334,4987,4969,0
288736884,288736733,4259850,4325386,0.000748767,-0.00122454,-0.00193769,-0.00819235,-0.0271721,-0.0444771,4986,4931,0
289240593,289240471,4259850,4325386,-0.000921817,0.000481393,-0.00159779,-0.00598727,-0.0233293,-0.0458614,4988,4930,0
289739386,289739224,4259850,4325386,0.00330861,9.34245e-05,-0.000106924,0.00670312,-0.00954643,-0.0389138,4986,4947,0
290238096,290237976,4259850,4325386,0.000581932,-0.000190487,-0.000141881,0.00103567,-0.013561,-0.0541491,4988,4931,0
290742071,290741917,4259850,4325386,-0.000103157,-0.000201605,0.000438641,-0.00138438,0.000693022,-0.051048,4967,4963,0
291241241,291241055,4259850,4325386,0.000294137,0.000325853,0.000495813,0.00907019,0.00466677,-0.0456047,4963,4997,0
291739728,291739220,4259850,4325386,-0.000128719,3.23903e-05,0.000664397,-0.00467862,0.00213975,-0.0591168,4984,4933,0
292243155,292243043,4259850,4325386,0.000114072,0.000273794,-0.000300539,0.00479438,0.016226,-0.0381861,4966,4932,0
292736831,292736722,4259850,4325386,0.000870839,0.000150509,-0.000836542,-0.00972935,-0.0330967,-0.0509336,4988,4931,0
293240572,293240462,4259850,4325386,0.000502126,-1.06038e-05,-0.000484617,-0.000339914,0.00245762,-0.051578,4988,4953,0
293739488,293739360,4259850,4325386,0.00149062,-0.00113185,0.000206389,0.00641448,0.0036129,-0.048143,4975,4980,0
294243111,294242985,4259850,4325386,-0.000492446,9.57595e-06,0.000359343,-0.00917789,-0.0179808,-0.0564519,4994,4936,0
294741831,294741706,4259850,4325386,-0.00511561,0.00126316,0.00120772,-0.00493695,0.023049,-0.0482342,4987,4971,0
295239249,295239111,4259850,4325386,-0.0012512,-0.00117018,0.00108216,-0.00122029,0.0202783,-0.0481679,4965,4988,0
295742764,295742655,4259850,4325386,-3.47311e-05,0.0005205,-0.000529251,-0.00678084,-0.0118605,-0.0493177,4985,4968,0
296236568,296236456,4259850,4325386,-0.000709607,0.000223099,-0.000129953,-0.0120619,0.00211969,-0.0557043,5024,4915,0
296740654,296740454,4259850,4325386,-0.000938755,0.000473322,-0.000183305,-0.00432207,0.00157594,-0.0432948,4904,3944,0
297239100,297238914,4259850,4325386,-0.00459731,0.000105547,0.000743742,-0.00138378,-0.0121941,-0.0581105,4988,5665,0
297737780,297737667,4259850,4325386,-9.88553e-05,0.00013838,-0.000479206,0.00283248,0.0115926,-0.0385117,4989,4667,0
298241567,298241411,4259850,4325386,-0.00130273,0.000356688,0.000289218,-0.00715046,-0.00665117,-0.0549957,4984,4983,0
298739933,298739817,4259850,4325386,0.00290703,0.00131032,-0.0016277,0.00560879,-0.0216318,-0.0428819,4997,4932,0
299243631,299243406,4259850,4325386,0.000640078,0.000161658,0.000724126,-0.0130624,0.00035943,-0.0557085,4987,4963,0
299737317,299737167,4259850,4325386,0.000969953,0.000486898,0.000573271,0.00578763,0.0136032,-0.0429333,4984,4958,0
300241080,300240910,4259850,4325386,-0.00118457,-0.000439829,0.000680032,-0.00296482,0.00415921,-0.0488373,4989,4982,0
300739861,300739713,4259850,4325386,-0.000447804,-0.00127097,0.00012821,-0.00811187,-0.000726557,-0.05789,4954,4952,0
301242546,301242433,4259850,4325386,-0.000240835,0.000492564,0.00133959,0.00802952,0.0213666,-0.0464483,4973,4969,0
301741304,301741157,4259850,4325386,-0.00142,0.000257856,0.000328546,0.00642205,0.0156214,-0.0448394,4987,4930,0
302240850,302240698,4259850,4325386,-0.000659827,4.92719e-05,0.000164506,-0.0120667,0.014701,-0.0603536,4966,4954,0
302739372,302739262,4259850,4325386,-0.00144748,0.000966555,0.000963188,0.00235384,0.0207472,-0.0501766,5039,4927,0
303238177,303237995,4259850,4325386,-0.000209993,-0.000232174,0.000220178,-0.00577852,-0.0128379,-0.0520079,4969,4964,0
303737271,303737072,4259850,4325386,0.000533131,2.61992e-05,0.0001339,-0.00315452,0.00114906,-0.0509022,4968,4969,0
304240760,304240463,4259850,4325386,-0.000306534,0.000181121,0.000206358,-0.0124066,-0.0221677,-0.0540161,4991,4974,0
304739941,304739764,4259850,4325386,0.0013225,-0.00134331,-0.00356197,0.00116359,-0.0216763,-0.0490767,4981,4932,0
305238560,305238417,4259850,4325386,-0.00126188,2.89032e-05,-0.00340842,0.011523,0.00987891,-0.0403465,4985,4931,0
305742365,305742207,4259850,4325386,0.0016079,-0.00043416,-0.00442561,-0.00619355,-0.0196286,-0.051931,5032,4906,0
306241047,306240914,4259850,4325386,-0.000184226,1.82675e-05,-0.0017636,-0.0130698,-0.016567,-0.0613752,4988,4926,0
306739835,306739667,4259850,4325386,0.00159544,-0.000420627,0.000160282,0.0113806,-0.011728,-0.0432975,4988,5924,0
307238588,307238455,4259850,4325386,-0.00261118,-9.89544e-05,-4.12686e-05,0.0059093,-0.00450867,-0.0560082,4965,4936,0
307737636,307737523,4259850,4325386,0.000384486,0.000106714,0.000627317,-0.00123678,-0.00635079,-0.0502988,5249,4929,0
308241058,308240917,4259850,4325386,-0.00292136,0.000558146,-0.000752906,0.00292995,0.0161995,-0.0543343,4988,4968,0
308739811,308739679,4259850,4325386,0.002838,-0.000613332,-0.00191667,-0.00649447,-0.0223056,-0.0421268,4987,3858,0
309238682,309238572,4259850,4325386,-0.00128989,0.000318357,0.00110795,0.0144156,0.0190506,-0.0349434,4953,4931,0
309742285,309742168,4259850,4325386,-0.00150028,0.00147494,0.000913216,-0.00158161,0.0201723,-0.0384855,4988,4998,0
310239800,310239599,4259850,4325386,0.00333567,-0.000981655,-0.000520057,0.00622124,-0.00726979,-0.0396955,4960,4763,0
310738318,310738180,4259850,4325386,-0.00147667,0.000496686,0.000730037,0.00755211,0.0118852,-0.0546794,4983,4933,0
311242083,311241928,4259850,4325386,-0.00270653,0.000603401,-0.000315544,-0.0100891,0.00516136,-0.0581463,4993,4932,0
311740816,311740700,4259850,4325386,0.000187436,-9.85384e-05,-0.000691773,0.000347894,0.00806052,-0.0465562,5007,4887,0
312239772,312239636,4259850,4325386,0.000115842,-0.000322485,-0.00217799,0.00275662,-0.0103617,-0.0414644,4976,4929,0
312743290,312743177,4259850,4325386,0.000974469,0.00017074,-0.000411684,0.0015845,-0.0145335,-0.0630523,4989,4962,0
313241741,313241631,4259850,4325386,-0.00132944,0.000802368,0.000650181,-0.0151124,0.00267558,-0.0629847,4959,4932,0
313740297,313740187,4259850,4325386,-0.00183885,0.000708906,0.00133793,-0.00955983,0.00954709,-0.0551971,4979,4926,0
314238807,314238675,4259850,4325386,4.85768e-05,-0.000193265,0.000447451,0.0116046,0.0182574,-0.0287654,4958,3941,0
314737311,314737202,4259850,4325386,0.000699076,-0.000837474,-0.00151776,-0.00793463,-0.0300315,-0.0534111,4996,4931,0
315241082,315240942,4259850,4325386,-0.00232786,0.00086464,0.000459766,-0.0111357,0.010043,-0.0578924,4988,4967,0
315739414,315739301,4259850,4325386,-0.0012735,0.000943281,0.000125366,-0.00227895,0.0178281,-0.0512912,4992,4972,0
316243134,316242988,4259850,4325386,-0.000170013,-0.000903982,-0.00133212,-0.00102476,-0.0264427,-0.0437194,4988,4692,0
316741953,316741834,4259850,4325386,-0.000192323,7.60629e-05,0.000595648,-0.0163979,-0.0151658,-0.0564565,4963,4927,0
317240062,317239952,4259850,4325386,-0.000277429,0.00034511,0.00131931,-0.00364569,0.00859006,-0.0529377,4936,4927,0
317739331,317739072,4259850,4325386,0.000767506,0.000249197,0.00142653,0.0122435,0.00837932,-0.0428287,4975,4966,0
318237573,318237463,4259850,4325386,-0.000566631,0.000280914,-0.000201714,-0.0100222,-0.00389287,-0.0553781,4988,4929,0
318741331,318741216,4259850,4325386,8.98383e-05,-0.00110841,0.000892908,-0.000256974,0.00161448,-0.0524044,4986,4993,0
319240156,319240037,4259850,4325386,-0.000497381,0.00051224,-0.000549285,0.00412802,-0.0108516,-0.0422803,4978,4993,0
319743345,319743214,4259850,4325386,0.00214137,-0.000755562,-0.00125486,0.0107299,-0.0138208,-0.0427059,4993,4966,0
320242626,320242465,4259850,4325386,0.00119945,-0.000591183,0.000128815,0.0132719,0.0145478,-0.0390857,4987,4969,0
320736596,320736410,4259850,4325386,-0.0004566,-0.00186236,0.000861165,0.00497351,0.0195656,-0.0434405,4967,4968,0
321240112,321239973,4259850,4325386,0.00431767,0.000232663,-0.000685527,-0.00530874,-0.017289,-0.0488105,4988,4930,0
321738843,321738730,4259850,4325386,-0.00359412,0.00065117,-0.000617843,0.000910421,0.00711299,-0.0469419,4989,4933,0
322242590,322242475,4259850,4325386,0.000137666,-0.000337956,-0.00037724,-0.00801362,-0.0258954,-0.0523149,4987,4962,0
322741592,322741473,4259850,4325386,0.00109098,-0.000797294,-0.00100311,-0.00842516,-0.0230376,-0.0536114,4953,4984,0
323240099,323239987,4259850,4325386,0.00318093,-0.00111421,-0.000397333,0.0115439,-0.0026962,-0.0363013,4989,4938,0
323744291,323743862,4259850,4325386,0.00256094,0.000236404,0.000135368,-0.000608883,0.0039521,-0.0533236,4990,4967,0
324237831,324237657,4259850,4325386,-0.00204292,1.62562e-05,0.000276453,0.0130929,0.0074173,-0.0345646,4970,4967,0
324740862,324740744,4259850,4325386,-0.00118206,0.000271155,0.000231546,-0.00727536,-0.00665915,-0.0567903,4968,4931,0
325239901,325239778,4259850,4325386,-0.000669049,0.000208441,0.00087766,-0.00283517,0.00239767,-0.0527121,4985,4929,0
325738385,325738260,4259850,4325386,-0.000228188,-0.000153706,5.75164e-06,-0.00936213,-0.0180784,-0.0576434,4988,4931,0
326242120,326242006,4259850,4325386,-8.4438e-07,0.00039394,0.00042441,-0.00144859,-0.00213395,-0.0570675,4985,4965,0
326740938,326740823,4259850,4325386,-0.00584988,0.000760339,0.000462297,-0.0130937,0.00543846,-0.0587272,4966,4943,0
327239637,327239516,4259850,4325386,0.000121245,-0.000908031,-0.000330209,0.0157719,-0.0132895,-0.0382618,4989,4937,0
327738382,327738272,4259850,4325386,0.00136644,-0.000262298,-0.000889361,0.0066531,-8.81054e-06,-0.0453409,4981,4949,0
328237636,328237528,4259850,4325386,-0.00129214,0.000343431,0.000433857,-0.00740649,0.00105374,-0.0495664,4988,4927,0
328741446,328741324,4259850,4325386,-0.00125848,0.000290807,0.00101217,-0.0053495,0.00288887,-0.0486291,5038,4927,0
329239643,329239531,4259850,4325386,-0.00125641,-9.31985e-05,0.000482765,-0.00485682,-0.0173914,-0.0549323,4988,4966,0
329738439,329738289,4259850,4325386,-0.000656504,0.000379635,-0.000726053,-0.00501831,-0.00647586,-0.0530051,4988,4963,0
330242400,330242283,4259850,4325386,0.000414518,-0.000571345,-0.000823692,0.0112238,-0.00614986,-0.0394438,4965,4979,0
330735914,330735803,4259850,4325386,0.00120931,-0.000618363,-0.000912284,0.0111107,-0.0150563,-0.0423223,4988,4928,0
331238716,331238550,4259850,4325386,-0.0005114,-1.44274e-05,-0.000890641,-0.0074675,-0.010545,-0.0601722,4983,4945,0
331737608,331737474,4259850,4325386,-0.000187879,0.000301319,0.000255409,-0.00845844,0.00594749,-0.0581705,4967,4963,0
332241309,332241178,4259850,4325386,0.00029761,-5.33247e-05,0.00131159,-0.00356364,-0.0004405,-0.0503856,4987,4989,0
332739978,332739810,4259850,4325386,-0.000614709,-3.03205e-05,0.000685709,0.0014477,0.0132318,-0.0469151,4953,4931,0
333238686,333238568,4259850,4325386,-0.00544199,0.000964455,0.00145787,0.00153165,0.0182582,-0.0458614,4988,4979,0
333742628,333742508,4259850,4325386,-0.00296651,0.000800182,0.000839519,-0.00960689,0.0151997,-0.0591372,4968,4961,0
334240930,334240770,4259850,4325386,0.00153431,-0.000652156,-0.000178463,0.0147835,0.010632,-0.0497111,4984,5915,0
334739716,334739548,4259850,4325386,0.00134237,3.09115e-05,-0.000588475,1.38489e-05,-0.000473605,-0.047551,4967,4931,0
335238253,335238136,4259850,4325386,-0.00020011,0.000997678,0.00150343,0.00477874,0.0228914,-0.0503607,4988,4974,0
335741998,335741884,4259850,4325386,6.00253e-06,-0.000181875,-4.60397e-05,0.0116217,-0.00446962,-0.0414368,4989,4992,0
336240828,336240714,4259850,4325386,0.000462705,-4.30764e-05,0.000190615,-0.00524862,-0.024326,-0.0603169,4952,4934,0
336739514,336739400,4259850,4325386,-0.00233362,0.000573468,0.00112529,-0.0155841,0.00971916,-0.0566752,4990,4933,0
337238532,337238355,4259850,4325386,-0.000749535,0.00158594,-0.000418131,-0.00560383,-0.00914324,-0.0558698,5040,4929,0
337737025,337736911,4259850,4325386,-0.000712272,-0.00090883,-1.68698e-05,-0.00598448,-0.0274699,-0.0553307,4977,4936,0
338240803,338240665,4259850,4325386,-0.000609083,0.00102905,0.000885768,0.00727149,0.0208892,-0.0376633,4992,4931,0
338739266,338739110,4259850,4325386,0.000177487,0.000278781,-0.000125396,-0.0021025,-0.0065997,-0.0483366,4974,4932,0
339237768,339237630,4259850,4325386,-9.20073e-05,-0.000290963,-0.000720043,0.00119358,0.00272389,-0.0479543,4987,4930,0
339741548,339741377,4259850,4325386,0.000419217,-0.000366045,-0.000757018,0.010442,0.00754182,-0.0326317,4984,4070,0
340240267,340240143,4259850,4325386,-0.00457926,-0.000509927,0.000864725,-0.00113809,-0.00793678,-0.0521716,4953,4949,0
340738696,340738523,4259850,4325386,-0.000389655,0.000810532,0.000890321,0.00421655,0.005789,-0.0481363,4980,4931,0
341241347,341241234,4259850,4325386,0.000553334,-0.000430047,-0.000750812,-0.00209868,-0.0117349,-0.0416698,4992,4684,0
341740135,341740007,4259850,4325386,-0.00256228,-0.00181749,0.000640047,0.00845667,-0.00523249,-0.0413778,4968,4932,0
342238771,342238661,4259850,4325386,-0.00106605,0.000204614,0.000372182,-0.00770672,0.0108334,-0.057861,4987,4932,0
342737530,342737421,4259850,4325386,3.31874e-06,-0.000217591,-0.000752661,-0.00326015,-0.00903533,-0.0500072,4985,4931,0
343241390,343241180,4259850,4325386,-0.00132266,0.000119471,0.000372931,0.00250699,0.0171055,-0.0562181,4965,5918,0
343740082,343739929,4259850,4325386,0.00107345,-0.000549344,-0.000158079,0.0037892,-0.00684948,-0.0413445,4990,4935,0
344243401,344243274,4259850,4325386,-0.00014055,0.000141374,0.000898364,0.0123003,0.0260229,-0.0332818,4996,4995,0
344742123,344741981,4259850,4325386,-0.00112937,0.00035375,-3.85901e-05,0.00644079,0.0126829,-0.0392123,4982,4944,0
345240910,345240746,4259850,4325386,0.00145536,-0.000379837,-0.000775042,0.000503912,-0.00756644,-0.0461893,4986,4987,0
345740058,345739952,4259850,4325386,0.00134887,-0.000144846,-0.000446192,0.0149315,-0.00202261,-0.0372573,4985,4931,0
346238828,346238710,4259850,4325386,0.00127887,-0.00101194,-0.000563683,0.00631632,-0.00365784,-0.0469475,4973,4930,0
346742113,346742006,4259850,4325386,0.000430422,-0.000338523,0.000717995,0.00477395,-0.00288454,-0.0521136,4987,4932,0
347241042,347240768,4259850,4325386,-0.00211229,0.000678451,0.000562573,-0.0068565,0.00698277,-0.0574047,4970,4935,0
347739823,347739706,4259850,4325386,-0.000534159,9.13152e-05,-0.000805873,-0.00845345,-0.0206514,-0.0547502,4973,4933,0
348243416,348243273,4259850,4325386,-0.000993962,0.000474515,0.000588339,-0.0105684,0.00351287,-0.0591452,4988,4964,0
348737172,348737045,4259850,4325386,-0.00067865,0.000305976,-0.000394494,-0.00330733,-0.0018679,-0.0529531,4988,4975,0
349241276,349241072,4259850,4325386,-0.00217664,-0.0003519,-7.17652e-05,0.00304581,-0.00267097,-0.0489875,4970,4945,0
349740307,349740121,4259850,4325386,8.30779e-06,-0.00030146,0.000179833,-0.00516154,-0.0176706,-0.05279,4973,4931,0
350238989,350238816,4259850,4325386,0.00171376,-0.000485366,-0.00117633,0.000861237,-0.0288969,-0.0546545,4987,5862,0
350743142,350742514,4259850,4325386,-0.00195849,0.000146197,0.00130325,-0.00479266,-0.00230877,-0.0491002,4990,4960,0
