timestamp,ref_timestamp,ref_lat,ref_lon,x,y,z,delta_xy[0],delta_xy[1],delta_z,vx,vy,vz,z_deriv,delta_vxy[0],delta_vxy[1],delta_vz,ax,ay,az,heading,delta_heading,ref_alt,dist_bottom,eph,epv,evh,evv,vxy_max,vz_max,hagl_min,hagl_max,xy_valid,z_valid,v_xy_valid,v_z_valid,xy_reset_counter,z_reset_counter,vxy_reset_counter,vz_reset_counter,heading_reset_counter,xy_global,z_global,dist_bottom_valid
99736394,48542209,34.0356552,108.7574837,-3.62005,-4.14493,-0.565151,0.0175174,0.00542605,0.0,0.00619982,0.00859662,0.0266168,-0.0119304,0.135211,-0.0844075,0.0647244,0.0491629,-0.324619,0.0223756,-1.68796,0.013048,418.853,0.1,0.277583,0.385386,0.136207,0.106946,inf,inf,inf,inf,1,1,1,1,2,0,2,1,4,1,1,1
99746323,48542209,34.0356552,108.7574837,-3.61971,-4.14537,-0.565513,0.0175174,0.00542605,0.0,0.00581735,0.00997564,0.025647,-0.0131007,0.135211,-0.0844075,0.0647244,-0.0690914,0.631229,-0.153648,-1.68787,0.013048,418.853,0.1,0.278473,0.386041,0.136665,0.107146,inf,inf,inf,inf,1,1,1,1,2,0,2,1,4,1,1,1
99835712,48542209,34.0356552,108.7574837,-3.61605,-4.14979,-0.569259,0.0175174,0.00542605,0.0,0.00275757,0.0121713,0.0251008,-0.0157254,0.135211,-0.0844075,0.0647244,-0.288324,-0.0202681,0.0234139,-1.68765,0.013048,418.853,0.1,0.268473,0.383207,0.131609,0.10546,inf,inf,inf,inf,1,1,1,1,2,0,2,1,4,1,1,1
99935033,48542209,34.0356552,108.7574837,-3.611,-4.15552,-0.574158,0.0175174,0.00542605,0.0,0.00167467,0.00912859,0.0223104,-0.0209422,0.135211,-0.0844075,0.0647244,-0.533184,0.532756,0.153148,-1.68861,0.013048,418.853,0.1,0.277078,0.385025,0.136151,0.106968,inf,inf,inf,inf,1,1,1,1,2,0,2,1,4,1,1,1
100034364,48542209,34.0356552,108.7574837,-3.60582,-4.16178,-0.577618,0.0175174,0.00542605,0.0,0.00811534,0.00450614,0.0228834,-0.020999,0.135211,-0.0844075,0.0647244,-0.357028,-1.79288,-0.333077,-1.68836,0.013048,418.853,0.1,0.26806,0.38516,0.131464,0.105719,inf,inf,inf,inf,1,1,1,1,2,0,2,1,4,1,1,1
100133674,48542209,34.0356552,108.7574837,-3.60009,-4.16962,-0.579442,0.0175174,0.00542605,0.0,-0.000528767,0.00750148,0.0249311,-0.0178632,0.135211,-0.0844075,0.0647244,-0.511443,0.903336,0.421689,-1.68719,0.013048,418.853,0.1,0.276662,0.387018,0.136015,0.107226,inf,inf,inf,inf,1,1,1,1,2,0,2,1,4,1,1,1
100232995,48542209,34.0356552,108.7574837,-3.59488,-4.17704,-0.580909,0.0175174,0.00542605,0.0,0.0082438,0.0130792,0.0177524,-0.0237152,0.135211,-0.0844075,0.0647244,0.805816,0.887397,-1.10663,-1.68759,0.013048,418.853,0.10206,0.26767,0.384792,0.131316,0.10572,inf,inf,inf,inf,1,1,1,1,2,0,2,1,4,1,1,1
100332313,48542209,34.0356552,108.7574837,-3.58956,-4.18498,-0.580919,0.0175174,0.00542605,0.0,0.00812925,0.00620873,0.0202089,-0.0188265,0.135211,-0.0844075,0.0647244,-0.347276,-0.359369,0.400257,-1.68638,0.013048,418.853,0.1,0.27627,0.386653,0.135867,0.107216,inf,inf,inf,inf,1,1,1,1,2,0,2,1,4,1,1,1
100431710,48542209,34.0356552,108.7574837,-3.58461,-4.19249,-0.581967,0.0175174,0.00542605,0.0,0.00595277,0.0074434,0.0220505,-0.0161004,0.135211,-0.0844075,0.0647244,-0.393832,-0.209447,-0.614161,-1.68654,0.013048,418.853,0.1,0.267265,0.384409,0.131221,0.1057,inf,inf,inf,inf,1,1,1,1,2,0,2,1,4,1,1,1
100535925,48542209,34.0356552,108.7574837,-3.57956,-4.20034,-0.584102,0.0175174,0.00542605,0.0,0.0139138,0.0120756,0.0213922,-0.0170376,0.135211,-0.0844075,0.0647244,0.614154,0.237203,0.0761654,-1.68615,0.013048,418.853,0.1,0.275863,0.386271,0.135745,0.107185,inf,inf,inf,inf,1,1,1,1,2,0,2,1,4,1,1,1
100635246,48542209,34.0356552,108.7574837,-3.57484,-4.20697,-0.585853,0.0175174,0.00542605,0.0,0.00279487,0.00280911,0.019868,-0.0182445,0.135211,-0.0844075,0.0647244,0.156318,0.547599,0.00101158,-1.68518,0.013048,418.853,0.1,0.266794,0.384013,0.131018,0.105647,inf,inf,inf,inf,1,1,1,1,2,0,2,1,4,1,1,1
100734566,48542209,34.0356552,108.7574837,-3.56899,-4.21396,-0.586406,0.0175174,0.00542605,0.0,0.0117717,0.0102424,0.0179534,-0.0186237,0.135211,-0.0844075,0.0647244,0.305168,-1.29378,-0.233968,-1.68491,0.013048,418.853,0.1,0.275388,0.385882,0.135724,0.107126,inf,inf,inf,inf,1,1,1,1,2,0,2,1,4,1,1,1
100833887,48542209,34.0356552,108.7574837,-3.56388,-4.22043,-0.586266,0.0175174,0.00542605,0.0,0.00457966,0.0110576,0.024324,-0.0102427,0.135211,-0.0844075,0.0647244,-0.185266,1.26312,0.280974,-1.68454,0.013048,418.853,0.104703,0.26632,0.385957,0.130988,0.10583,inf,inf,inf,inf,1,1,1,1,2,0,2,1,4,1,1,1
100933208,48542209,34.0356552,108.7574837,-3.55832,-4.22857,-0.584239,0.0175174,0.00542605,0.0,0.0112148,0.00749839,0.0188525,-0.0122319,0.135211,-0.0844075,0.0647244,0.206979,0.330204,0.693165,-1.6836,0.013048,418.853,0.103898,0.274905,0.387857,0.135542,0.107308,inf,inf,inf,inf,1,1,1,1,2,0,2,1,4,1,1,1
101032529,48542209,34.0356552,108.7574837,-3.55355,-4.2354,-0.583987,0.0175174,0.00542605,0.0,0.00536682,0.00526629,0.0203864,-0.00954814,0.135211,-0.0844075,0.0647244,-0.703869,-0.372767,-0.950925,-1.68402,0.013048,418.853,0.1,0.265873,0.385558,0.130808,0.105755,inf,inf,inf,inf,1,1,1,1,2,0,2,1,4,1,1,1
101131850,48542209,34.0356552,108.7574837,-3.54861,-4.2427,-0.586324,0.0175174,0.00542605,0.0,0.00934014,0.0141233,0.0214649,-0.00987449,0.135211,-0.0844075,0.0647244,0.348904,0.583022,0.207272,-1.68278,0.013048,418.853,0.1,0.27445,0.387454,0.135358,0.107224,inf,inf,inf,inf,1,1,1,1,2,0,2,1,4,1,1,1
101241169,48542209,34.0356552,108.7574837,-3.54373,-4.24962,-0.589654,0.0175174,0.00542605,0.0,0.00413288,0.0128493,0.019569,-0.0137872,0.135211,-0.0844075,0.0647244,0.355491,1.22609,-0.378994,-1.68241,0.013048,418.853,0.1,0.266284,0.385805,0.131124,0.105866,inf,inf,inf,inf,1,1,1,1,2,0,2,1,4,1,1,1
101340424,48542209,34.0356552,108.7574837,-3.53907,-4.25591,-0.593399,0.0175174,0.00542605,0.0,0.00697099,0.00113082,0.0183998,-0.0170561,0.135211,-0.0844075,0.0647244,-1.36271,-1.0977,0.691542,-1.68145,0.013048,418.853,0.1,0.274907,0.38771,0.135658,0.107326,inf,inf,inf,inf,1,1,1,1,2,0,2,1,4,1,1,1
101439744,48542209,34.0356552,108.7574837,-3.5348,-4.26113,-0.596397,0.0175174,0.00542605,0.0,0.00970671,0.0138495,0.0150266,-0.0214462,0.135211,-0.0844075,0.0647244,0.595784,0.781587,-0.829614,-1.6817,0.013048,418.853,0.1,0.265848,0.385385,0.130983,0.105769,inf,inf,inf,inf,1,1,1,1,2,0,2,1,4,1,1,1
101529289,48542209,34.0356552,108.7574837,-3.5308,-4.26538,-0.598181,0.0175174,0.00542605,0.0,0.00762594,0.00880412,0.0130144,-0.0232759,0.135211,-0.0844075,0.0647244,0.30607,-0.620476,-0.121957,-1.6808,0.013048,418.853,0.1,0.27358,0.389,0.135066,0.107284,inf,inf,inf,inf,1,1,1,1,2,0,2,1,4,1,1,1
101633421,48542209,34.0356552,108.7574837,-3.52627,-4.2691,-0.601081,0.0175174,0.00542605,0.0,0.00364272,0.0112531,0.0143366,-0.0228259,0.135211,-0.0844075,0.0647244,-0.459996,-0.315351,-0.818337,-1.68082,0.013048,418.853,0.1,0.264604,0.386643,0.130401,0.105718,inf,inf,inf,inf,1,1,1,1,2,0,2,1,4,1,1,1
101732764,48542209,34.0356552,108.7574837,-3.52037,-4.273,-0.607292,0.0175174,0.00542605,0.0,0.0141936,0.0207967,0.0162934,-0.024465,0.135211,-0.0844075,0.0647244,0.182653,0.776952,0.321984,-1.68008,0.013048,418.853,0.1,0.273166,0.388552,0.135119,0.107172,inf,inf,inf,inf,1,1,1,1,2,0,2,1,4,1,1,1
101837028,48542209,34.0356552,108.7574837,-3.51464,-4.27641,-0.612196,0.0175174,0.00542605,0.0,0.0104443,0.0198918,0.0132465,-0.0291688,0.135211,-0.0844075,0.0647244,1.3104,1.89888,0.758994,-1.67925,0.013048,418.853,0.1,0.264213,0.3862,0.130472,0.105609,inf,inf,inf,inf,1,1,1,1,2,0,2,1,4,1,1,1
101936350,48542209,34.0356552,108.7574837,-3.50764,-4.28109,-0.615183,0.0175174,0.00542605,0.0,0.0131853,0.00988314,0.00948716,-0.032404,0.135211,-0.0844075,0.0647244,-0.36766,-1.61419,0.293624,-1.67945,0.013048,418.853,0.1,0.272777,0.388107,0.134977,0.107056,inf,inf,inf,inf,1,1,1,1,2,0,2,1,4,1,1,1
102035672,48542209,34.0356552,108.7574837,-3.50162,-4.2855,-0.618975,0.0175174,0.00542605,0.0,0.0126621,0.0228618,0.00879816,-0.0333866,0.135211,-0.0844075,0.0647244,1.35867,0.776103,-0.792739,-1.67925,0.013048,418.853,0.1,0.263928,0.385759,0.130587,0.10551,inf,inf,inf,inf,1,1,1,1,2,0,2,1,4,1,1,1
102139960,48542209,34.0356552,108.7574837,-3.49593,-4.29016,-0.623493,0.0175174,0.00542605,0.0,0.00772345,0.0178097,0.00935866,-0.0336621,0.135211,-0.0844075,0.0647244,-0.437264,0.948526,-0.354814,-1.67865,0.013048,418.853,0.1,0.272506,0.387665,0.135125,0.106951,inf,inf,inf,inf,1,1,1,1,2,0,2,1,4,1,1,1
102239280,48542209,34.0356552,108.7574837,-3.49124,-4.29379,-0.627258,0.0175174,0.00542605,0.0,0.0129965,0.0193825,0.00358146,-0.0392995,0.135211,-0.0844075,0.0647244,0.118011,-0.632853,0.0266041,-1.67768,0.013048,418.853,0.1,0.263575,0.385316,0.130472,0.105394,inf,inf,inf,inf,1,1,1,1,2,0,2,1,4,1,1,1
102338765,48542209,34.0356552,108.7574837,-3.48667,-4.29782,-0.630977,0.0175174,0.00542605,0.0,0.00923094,0.0234405,0.00867955,-0.0338238,0.135211,-0.0844075,0.0647244,-1.26038,0.328038,-0.386137,-1.67781,0.013048,418.853,0.1,0.272156,0.38961,0.135163,0.107093,inf,inf,inf,inf,1,1,1,1,2,0,2,1,4,1,1,1
102437923,48542209,34.0356552,108.7574837,-3.48236,-4.30106,-0.632888,0.0175174,0.00542605,0.0,0.0158907,0.0249211,0.00621372,-0.0341705,0.135211,-0.0844075,0.0647244,0.987482,0.951518,0.877763,-1.67665,0.013048,418.853,0.103634,0.26336,0.387214,0.1306,0.105539,inf,inf,inf,inf,1,1,1,1,2,0,2,1,4,1,1,1
102537252,48542209,34.0356552,108.7574837,-3.47783,-4.304,-0.634647,0.0175174,0.00542605,0.0,0.0101182,0.0151301,0.00359377,-0.034793,0.135211,-0.0844075,0.0647244,-0.767345,-1.20619,-0.270423,-1.67698,0.013048,418.853,0.102461,0.271949,0.389124,0.135113,0.106974,inf,inf,inf,inf,1,1,1,1,2,0,2,1,4,1,1,1
102636562,48542209,34.0356552,108.7574837,-3.47328,-4.30628,-0.635622,0.0175174,0.00542605,0.0,0.0183419,0.0293025,0.00492411,-0.0308495,0.135211,-0.0844075,0.0647244,2.05194,0.259705,-0.154393,-1.67662,0.013048,418.853,0.10923,0.263129,0.386714,0.130453,0.105407,inf,inf,inf,inf,1,1,1,1,2,0,2,1,4,1,1,1
102735884,48542209,34.0356552,108.7574837,-3.46719,-4.30934,-0.63481,0.0175174,0.00542605,0.0,0.00806578,0.0190565,0.00585675,-0.0259423,0.135211,-0.0844075,0.0647244,-1.63161,-0.442638,0.324987,-1.67569,0.013048,418.853,0.108552,0.271718,0.38861,0.134993,0.106836,inf,inf,inf,inf,1,1,1,1,2,0,2,1,4,1,1,1
102835205,48542209,34.0356552,108.7574837,-3.46195,-4.31176,-0.633818,0.0175174,0.00542605,0.0,0.0185215,0.0321235,0.00368926,-0.0245095,0.135211,-0.0844075,0.0647244,0.254545,-0.164708,-0.414784,-1.67559,0.013048,418.853,0.110366,0.262929,0.388583,0.130349,0.105531,inf,inf,inf,inf,1,1,1,1,2,0,2,1,4,1,1,1
102934526,48542209,34.0356552,108.7574837,-3.45663,-4.31526,-0.632663,0.0175174,0.00542605,0.0,0.0165064,0.0308625,0.0107508,-0.0141874,0.135211,-0.0844075,0.0647244,-0.689806,0.806428,0.696353,-1.67581,0.013048,418.853,0.108881,0.271519,0.390501,0.134872,0.106964,inf,inf,inf,inf,1,1,1,1,2,0,2,1,4,1,1,1
103033875,48542209,34.0356552,108.7574837,-3.45224,-4.31814,-0.63107,0.0175174,0.00542605,0.0,0.0172856,0.027029,0.00551957,-0.0161273,0.135211,-0.0844075,0.0647244,1.55106,0.601111,0.628281,-1.67514,0.013048,418.853,0.111895,0.262792,0.388051,0.130272,0.105396,inf,inf,inf,inf,1,1,1,1,2,0,2,1,4,1,1,1
103133335,48542209,34.0356552,108.7574837,-3.44805,-4.32209,-0.627751,0.0175174,0.00542605,0.0,0.0156149,0.0235058,0.00692136,-0.0102989,0.135211,-0.0844075,0.0647244,-1.30564,-1.30167,-0.684319,-1.67593,0.013048,418.853,0.111497,0.271383,0.389955,0.134762,0.106823,inf,inf,inf,inf,1,1,1,1,2,0,2,1,4,1,1,1
103237455,48542209,34.0356552,108.7574837,-3.44405,-4.32554,-0.622992,0.0175174,0.00542605,0.0,0.0239693,0.0311066,0.00946062,-0.00242404,0.135211,-0.0844075,0.0647244,1.80154,-0.611467,-0.207753,-1.67601,0.013048,418.853,0.125247,0.262876,0.387627,0.130343,0.105337,inf,inf,inf,inf,1,1,1,1,2,0,2,1,4,1,1,1
103336776,48542209,34.0356552,108.7574837,-3.43933,-4.33078,-0.61562,0.0175174,0.00542605,0.0,0.00930805,0.0251428,0.0154198,0.0105055,0.135211,-0.0844075,0.0647244,-0.87703,0.616604,0.164884,-1.67556,0.013048,418.853,0.114564,0.271487,0.38952,0.135056,0.106758,inf,inf,inf,inf,1,1,1,1,2,0,2,1,4,1,1,1
103441064,48542209,34.0356552,108.7574837,-3.43436,-4.33578,-0.609018,0.0175174,0.00542605,0.0,0.0147869,0.0251206,0.0154424,0.0156508,0.135211,-0.0844075,0.0647244,-0.714782,-0.408839,0.189881,-1.67548,0.013048,418.853,0.117837,0.262943,0.387086,0.130506,0.105211,inf,inf,inf,inf,1,1,1,1,2,0,2,1,4,1,1,1
103540434,48542209,34.0356552,108.7574837,-3.42904,-4.3416,-0.601849,0.0175174,0.00542605,0.0,0.017366,0.0246598,0.0182659,0.0231998,0.135211,-0.0844075,0.0647244,-0.348782,-0.141246,-0.420496,-1.67578,0.013048,418.853,0.112851,0.271573,0.391397,0.135018,0.106897,inf,inf,inf,inf,1,1,1,1,2,0,2,1,4,1,1,1
103639708,48542209,34.0356552,108.7574837,-3.42392,-4.3467,-0.595892,0.0175174,0.00542605,0.0,0.026939,0.0283522,0.0227128,0.0305439,0.135211,-0.0844075,0.0647244,1.16907,0.423365,0.391661,-1.67593,0.013048,418.853,0.112276,0.262976,0.388914,0.130613,0.105342,inf,inf,inf,inf,1,1,1,1,2,0,2,1,4,1,1,1
103739026,48542209,34.0356552,108.7574837,-3.4186,-4.35177,-0.590645,0.0175174,0.00542605,0.0,0.012681,0.0222458,0.0193932,0.0288111,0.135211,-0.0844075,0.0647244,-0.606533,0.802236,-0.012896,-1.67588,0.013048,418.853,0.10301,0.271619,0.390788,0.135154,0.106755,inf,inf,inf,inf,1,1,1,1,2,0,2,1,4,1,1,1
103838347,48542209,34.0356552,108.7574837,-3.41436,-4.35658,-0.587307,0.0175174,0.00542605,0.0,0.0283647,0.0251836,0.0191956,0.0280714,0.135211,-0.0844075,0.0647244,0.192801,-0.981708,-0.703144,-1.6762,0.013048,418.853,0.100906,0.263018,0.388289,0.130556,0.1052,inf,inf,inf,inf,1,1,1,1,2,0,2,1,4,1,1,1
103937755,48542209,34.0356552,108.7574837,-3.41106,-4.36211,-0.585031,0.0175174,0.00542605,0.0,0.0155637,0.0240826,0.0274254,0.0346651,0.135211,-0.0844075,0.0647244,0.673466,0.541568,-0.00651531,-1.67614,0.013048,418.853,0.1,0.271668,0.390148,0.135081,0.106609,inf,inf,inf,inf,1,1,1,1,2,0,2,1,4,1,1,1
104036990,48542209,34.0356552,108.7574837,-3.40737,-4.36616,-0.581428,0.0175174,0.00542605,0.0,0.0176232,0.0240999,0.0251589,0.0323189,0.135211,-0.0844075,0.0647244,-1.43838,-0.0609559,0.42527,-1.67551,0.013048,418.853,0.112769,0.262971,0.39006,0.130437,0.105309,inf,inf,inf,inf,1,1,1,1,2,0,2,1,4,1,1,1
104136320,48542209,34.0356552,108.7574837,-3.40231,-4.37008,-0.574302,0.0175174,0.00542605,0.0,0.0220977,0.0210733,0.0272171,0.0373886,0.135211,-0.0844075,0.0647244,-0.820559,0.696429,-0.742422,-1.67598,0.013048,418.853,0.105653,0.271617,0.391946,0.134933,0.106726,inf,inf,inf,inf,1,1,1,1,2,0,2,1,4,1,1,1
104235632,48542209,34.0356552,108.7574837,-3.398,-4.37261,-0.567697,0.0175174,0.00542605,0.0,0.0260965,0.0261217,0.0323733,0.0445486,0.135211,-0.0844075,0.0647244,1.51096,-0.09191,0.281102,-1.67655,0.013048,418.853,0.110482,0.262896,0.389422,0.130276,0.105162,inf,inf,inf,inf,1,1,1,1,2,0,2,1,4,1,1,1
104334953,48542209,34.0356552,108.7574837,-3.39396,-4.37478,-0.560438,0.0175174,0.00542605,0.0,0.0128203,0.0201257,0.0334467,0.0477232,0.135211,-0.0844075,0.0647244,-1.49945,0.322884,-0.154045,-1.67604,0.013048,418.853,0.102341,0.271535,0.391285,0.1348,0.106573,inf,inf,inf,inf,1,1,1,1,2,0,2,1,4,1,1,1
104434274,48542209,34.0356552,108.7574837,-3.38975,-4.37652,-0.55529,0.0175174,0.00542605,0.0,0.0284506,0.0266159,0.0330366,0.0468774,0.135211,-0.0844075,0.0647244,0.58384,-1.01025,-0.442429,-1.67597,0.013048,418.853,0.1,0.262827,0.388764,0.130152,0.105016,inf,inf,inf,inf,1,1,1,1,2,0,2,1,4,1,1,1
104533596,48542209,34.0356552,108.7574837,-3.38439,-4.37961,-0.551691,0.0175174,0.00542605,0.0,0.0198217,0.0277095,0.0409882,0.052815,0.135211,-0.0844075,0.0647244,-0.0296294,0.0769165,-0.0756551,-1.67642,0.013048,418.853,0.1,0.271461,0.39061,0.134664,0.106422,inf,inf,inf,inf,1,1,1,1,2,0,2,1,4,1,1,1
104632920,48542209,34.0356552,108.7574837,-3.3797,-4.38216,-0.550826,0.0175174,0.00542605,0.0,0.0271282,0.031872,0.036782,0.0440889,0.135211,-0.0844075,0.0647244,0.424921,0.876473,0.971112,-1.67574,0.013048,418.853,0.1,0.262798,0.390518,0.130072,0.105135,inf,inf,inf,inf,1,1,1,1,2,0,2,1,4,1,1,1
104732265,48542209,34.0356552,108.7574837,-3.37534,-4.38571,-0.552325,0.0175174,0.00542605,0.0,0.0244231,0.0191817,0.0353075,0.0363919,0.135211,-0.0844075,0.0647244,-0.364548,-0.581228,-0.224131,-1.67631,0.013048,418.853,0.1,0.271429,0.392384,0.134555,0.106548,inf,inf,inf,inf,1,1,1,1,2,0,2,1,4,1,1,1
104836525,48542209,34.0356552,108.7574837,-3.37138,-4.38808,-0.552277,0.0175174,0.00542605,0.0,0.032529,0.0268871,0.032943,0.0300352,0.135211,-0.0844075,0.0647244,0.417007,-0.716063,-0.722317,-1.67656,0.013048,418.853,0.1,0.262806,0.389849,0.129964,0.104997,inf,inf,inf,inf,1,1,1,1,2,0,2,1,4,1,1,1
104935846,48542209,34.0356552,108.7574837,-3.36782,-4.39086,-0.550228,0.0175174,0.00542605,0.0,0.021178,0.0310249,0.0384066,0.0340634,0.135211,-0.0844075,0.0647244,0.544426,0.629968,-0.118236,-1.67677,0.013048,418.853,0.1,0.271434,0.391708,0.134489,0.106408,inf,inf,inf,inf,1,1,1,1,2,0,2,1,4,1,1,1
105035353,48542209,34.0356552,108.7574837,-3.36462,-4.39417,-0.547365,0.0175174,0.00542605,0.0,0.0252291,0.0280776,0.0351824,0.0304547,0.135211,-0.0844075,0.0647244,-0.669256,-0.0508195,-0.031094,-1.67582,0.013048,418.853,0.1,0.262926,0.389191,0.130145,0.104879,inf,inf,inf,inf,1,1,1,1,2,0,2,1,4,1,1,1
105134521,48542209,34.0356552,108.7574837,-3.36184,-4.39872,-0.544278,0.0175174,0.00542605,0.0,0.0218494,0.0276249,0.0379904,0.0329236,0.135211,-0.0844075,0.0647244,-0.222469,-0.520033,-0.483505,-1.67633,0.013048,418.853,0.1,0.271569,0.391036,0.134646,0.106286,inf,inf,inf,inf,1,1,1,1,2,0,2,1,4,1,1,1
105233809,48542209,34.0356552,108.7574837,-3.35874,-4.40136,-0.541335,0.0175174,0.00542605,0.0,0.0304141,0.0350368,0.0413019,0.0357614,0.135211,-0.0844075,0.0647244,0.711493,0.824077,0.268198,-1.67641,0.013048,418.853,0.1,0.262989,0.388532,0.130052,0.104751,inf,inf,inf,inf,1,1,1,1,2,0,2,1,4,1,1,1
105338097,48542209,34.0356552,108.7574837,-3.35457,-4.40271,-0.536501,0.0175174,0.00542605,0.0,0.0240342,0.0345636,0.043521,0.0389693,0.135211,-0.0844075,0.0647244,1.05604,2.13289,0.809169,-1.67608,0.013048,418.853,0.1,0.271629,0.390362,0.134562,0.106155,inf,inf,inf,inf,1,1,1,1,2,0,2,1,4,1,1,1
105437418,48542209,34.0356552,108.7574837,-3.35129,-4.4033,-0.53252,0.0175174,0.00542605,0.0,0.0250275,0.0242918,0.0400308,0.0355353,0.135211,-0.0844075,0.0647244,-0.425185,-1.32656,0.18664,-1.67653,0.013048,418.853,0.1,0.262955,0.390267,0.129878,0.104873,inf,inf,inf,inf,1,1,1,1,2,0,2,1,4,1,1,1
105536799,48542209,34.0356552,108.7574837,-3.34928,-4.40543,-0.52784,0.0175174,0.00542605,0.0,0.0225206,0.0354652,0.0418155,0.0378756,0.135211,-0.0844075,0.0647244,0.664911,0.320106,-1.00771,-1.67716,0.013048,418.853,0.1,0.271586,0.392125,0.134556,0.106286,inf,inf,inf,inf,1,1,1,1,2,0,2,1,4,1,1,1
105636060,48542209,34.0356552,108.7574837,-3.34755,-4.40743,-0.524357,0.0175174,0.00542605,0.0,0.0195034,0.0313266,0.0497333,0.0450387,0.135211,-0.0844075,0.0647244,-0.1852,-0.687122,1.2271,-1.67655,0.013048,418.853,0.1,0.263007,0.389607,0.129978,0.104756,inf,inf,inf,inf,1,1,1,1,2,0,2,1,4,1,1,1
105735382,48542209,34.0356552,108.7574837,-3.34617,-4.41125,-0.521822,0.0175174,0.00542605,0.0,0.0170601,0.0356928,0.0432154,0.0367714,0.135211,-0.0844075,0.0647244,-0.337299,0.635803,-0.197944,-1.6763,0.013048,418.853,0.1,0.271639,0.391458,0.134504,0.106167,inf,inf,inf,inf,1,1,1,1,2,0,2,1,4,1,1,1
105834900,48542209,34.0356552,108.7574837,-3.3445,-4.41362,-0.520866,0.0175174,0.00542605,0.0,0.0257197,0.0334529,0.0480398,0.0384881,0.135211,-0.0844075,0.0647244,0.163801,-0.50726,0.28168,-1.67709,0.013048,418.853,0.1,0.263052,0.388951,0.129889,0.104643,inf,inf,inf,inf,1,1,1,1,2,0,2,1,4,1,1,1
105938990,48542209,34.0356552,108.7574837,-3.34211,-4.41553,-0.520616,0.0175174,0.00542605,0.0,0.0256842,0.0394751,0.0458133,0.0326322,0.135211,-0.0844075,0.0647244,1.78727,0.864464,0.171641,-1.67681,0.013048,418.853,0.1,0.271682,0.390779,0.134413,0.106048,inf,inf,inf,inf,1,1,1,1,2,0,2,1,4,1,1,1
106038311,48542209,34.0356552,108.7574837,-3.33946,-4.4173,-0.521242,0.0175174,0.00542605,0.0,0.0100303,0.0266532,0.0443235,0.0273691,0.135211,-0.0844075,0.0647244,-1.38737,-0.446164,0.283939,-1.67676,0.013048,418.853,0.1,0.263057,0.388285,0.130004,0.104531,inf,inf,inf,inf,1,1,1,1,2,0,2,1,4,1,1,1
106137632,48542209,34.0356552,108.7574837,-3.33593,-4.42045,-0.522266,0.0175174,0.00542605,0.0,0.0242259,0.035244,0.0423505,0.0217538,0.135211,-0.0844075,0.0647244,0.700561,-0.660765,-0.393,-1.67673,0.013048,418.853,0.1,0.27169,0.390107,0.134493,0.105936,inf,inf,inf,inf,1,1,1,1,2,0,2,1,4,1,1,1
106236953,48542209,34.0356552,108.7574837,-3.33263,-4.42284,-0.52355,0.0175174,0.00542605,0.0,0.0165797,0.0354799,0.0470108,0.0229875,0.135211,-0.0844075,0.0647244,-0.0887376,0.871185,-0.424949,-1.67691,0.013048,418.853,0.1,0.263063,0.39004,0.129908,0.104686,inf,inf,inf,inf,1,1,1,1,2,0,2,1,4,1,1,1
106336275,48542209,34.0356552,108.7574837,-3.32906,-4.42593,-0.524175,0.0175174,0.00542605,0.0,0.0186329,0.0368051,0.0415609,0.0151986,0.135211,-0.0844075,0.0647244,-0.704074,0.033747,0.61423,-1.67647,0.013048,418.853,0.1,0.271691,0.391891,0.134418,0.106099,inf,inf,inf,inf,1,1,1,1,2,0,2,1,4,1,1,1
106435596,48542209,34.0356552,108.7574837,-3.32599,-4.42767,-0.525579,0.0175174,0.00542605,0.0,0.0189079,0.0331344,0.0416651,0.01237,0.135211,-0.0844075,0.0647244,-0.67749,0.550897,-0.862586,-1.67716,0.013048,418.853,0.1,0.263031,0.38938,0.129815,0.104582,inf,inf,inf,inf,1,1,1,1,2,0,2,1,4,1,1,1
106534952,48542209,34.0356552,108.7574837,-3.32319,-4.42898,-0.528888,0.0175174,0.00542605,0.0,0.0213732,0.0372452,0.0429589,0.00935002,0.135211,-0.0844075,0.0647244,1.30645,-0.14342,0.342942,-1.67726,0.013048,418.853,0.1,0.271654,0.391209,0.134323,0.10599,inf,inf,inf,inf,1,1,1,1,2,0,2,1,4,1,1,1
106634336,48542209,34.0356552,108.7574837,-3.32043,-4.42911,-0.534111,0.0175174,0.00542605,0.0,0.00736405,0.0345854,0.0381264,-0.00107459,0.135211,-0.0844075,0.0647244,-2.17763,-0.143167,-0.403826,-1.67673,0.013048,418.853,0.1,0.262967,0.388711,0.129743,0.104479,inf,inf,inf,inf,1,1,1,1,2,0,2,1,4,1,1,1
106733560,48542209,34.0356552,108.7574837,-3.31747,-4.42881,-0.542294,0.0175174,0.00542605,0.0,0.0250374,0.0448766,0.0372837,-0.0094181,0.135211,-0.0844075,0.0647244,0.387137,-0.681176,-0.245779,-1.67702,0.013048,418.853,0.1,0.271584,0.390526,0.134227,0.105883,inf,inf,inf,inf,1,1,1,1,2,0,2,1,4,1,1,1
106832881,48542209,34.0356552,108.7574837,-3.31459,-4.42894,-0.548379,0.0175174,0.00542605,0.0,0.0134995,0.0426611,0.0394995,-0.0114465,0.135211,-0.0844075,0.0647244,0.618675,1.39863,0.764095,-1.67688,0.013048,418.853,0.1,0.262909,0.388039,0.129675,0.104377,inf,inf,inf,inf,1,1,1,1,2,0,2,1,4,1,1,1
106937169,48542209,34.0356552,108.7574837,-3.31119,-4.43125,-0.55217,0.0175174,0.00542605,0.0,0.0152968,0.0398506,0.0360898,-0.0163776,0.135211,-0.0844075,0.0647244,-0.604489,-0.232373,1.25444,-1.67674,0.013048,418.853,0.1,0.271522,0.39229,0.134164,0.106049,inf,inf,inf,inf,1,1,1,1,2,0,2,1,4,1,1,1
107036490,48542209,34.0356552,108.7574837,-3.30786,-4.43298,-0.556088,0.0175174,0.00542605,0.0,0.0184984,0.0422979,0.0278034,-0.0259799,0.135211,-0.0844075,0.0647244,0.137991,0.866159,-0.837184,-1.67695,0.013048,418.853,0.1,0.262857,0.389769,0.129586,0.104537,inf,inf,inf,inf,1,1,1,1,2,0,2,1,4,1,1,1
107135813,48542209,34.0356552,108.7574837,-3.30376,-4.43534,-0.560384,0.0175174,0.00542605,0.0,0.0235555,0.038254,0.0335086,-0.0216106,0.135211,-0.0844075,0.0647244,1.3812,-1.49626,0.301664,-1.67749,0.013048,418.853,0.1,0.271467,0.391599,0.134252,0.105947,inf,inf,inf,inf,1,1,1,1,2,0,2,1,4,1,1,1
107235169,48542209,34.0356552,108.7574837,-3.29979,-4.43696,-0.561814,0.0175174,0.00542605,0.0,0.00824442,0.0457376,0.0310496,-0.0222611,0.135211,-0.0844075,0.0647244,-0.553473,0.838316,0.0282109,-1.67686,0.013048,418.853,0.103058,0.262809,0.389099,0.129721,0.104442,inf,inf,inf,inf,1,1,1,1,2,0,2,1,4,1,1,1
107334454,48542209,34.0356552,108.7574837,-3.29526,-4.43914,-0.559315,0.0175174,0.00542605,0.0,0.0225265,0.0399685,0.0300578,-0.0180051,0.135211,-0.0844075,0.0647244,-0.973956,-0.960534,-0.043291,-1.67661,0.013048,418.853,0.100809,0.27142,0.390899,0.134198,0.105844,inf,inf,inf,inf,1,1,1,1,2,0,2,1,4,1,1,1
107433834,48542209,34.0356552,108.7574837,-3.29111,-4.44105,-0.557235,0.0175174,0.00542605,0.0,0.0210242,0.0470259,0.0322533,-0.011792,0.135211,-0.0844075,0.0647244,1.27526,0.882575,-0.301895,-1.67715,0.013048,418.853,0.1,0.26277,0.390809,0.129641,0.104599,inf,inf,inf,inf,1,1,1,1,2,0,2,1,4,1,1,1
107533096,48542209,34.0356552,108.7574837,-3.2866,-4.44455,-0.556868,0.0175174,0.00542605,0.0,0.0182539,0.0401696,0.0343058,-0.00790103,0.135211,-0.0844075,0.0647244,-0.00551762,0.145664,0.915751,-1.67727,0.013048,418.853,0.1,0.271377,0.39263,0.134133,0.106008,inf,inf,inf,inf,1,1,1,1,2,0,2,1,4,1,1,1
107642350,48542209,34.0356552,108.7574837,-3.28211,-4.44718,-0.558249,0.0175174,0.00542605,0.0,0.0201627,0.0479462,0.0326371,-0.00955248,0.135211,-0.0844075,0.0647244,-0.249045,1.10363,0.136553,-1.6771,0.013048,418.853,0.1,0.263552,0.39075,0.12997,0.104678,inf,inf,inf,inf,1,1,1,1,2,0,2,1,4,1,1,1
107731742,48542209,34.0356552,108.7574837,-3.27815,-4.45026,-0.559744,0.0175174,0.00542605,0.0,0.0212416,0.036706,0.033007,-0.00950917,0.135211,-0.0844075,0.0647244,0.0256435,-1.90655,0.0825263,-1.6776,0.013048,418.853,0.1,0.271312,0.391895,0.133987,0.105891,inf,inf,inf,inf,1,1,1,1,2,0,2,1,4,1,1,1
107840992,48542209,34.0356552,108.7574837,-3.27411,-4.45272,-0.561972,0.0175174,0.00542605,0.0,0.0249039,0.0397293,0.0277307,-0.0154247,0.135211,-0.0844075,0.0647244,0.504759,-1.20117,-0.635575,-1.67765,0.013048,418.853,0.1,0.263531,0.390027,0.129847,0.104567,inf,inf,inf,inf,1,1,1,1,2,0,2,1,4,1,1,1
107940310,48542209,34.0356552,108.7574837,-3.27115,-4.45531,-0.562765,0.0175174,0.00542605,0.0,0.0115365,0.0426191,0.0329539,-0.00952478,0.135211,-0.0844075,0.0647244,-0.327766,0.575808,-0.0853266,-1.67742,0.013048,418.853,0.1,0.272172,0.391836,0.134345,0.105971,inf,inf,inf,inf,1,1,1,1,2,0,2,1,4,1,1,1
108034669,48542209,34.0356552,108.7574837,-3.26846,-4.45595,-0.563251,0.0175174,0.00542605,0.0,0.024903,0.0417037,0.0295067,-0.0123862,0.135211,-0.0844075,0.0647244,0.898356,-0.1786,0.4479,-1.67669,0.013048,418.853,0.1,0.262707,0.388639,0.129324,0.104263,inf,inf,inf,inf,1,1,1,1,2,0,2,1,4,1,1,1
108133990,48542209,34.0356552,108.7574837,-3.2649,-4.45632,-0.563803,0.0175174,0.00542605,0.0,0.0148174,0.0411062,0.0331255,-0.0080928,0.135211,-0.0844075,0.0647244,-0.332174,0.246335,-0.499545,-1.6778,0.013048,418.853,0.1,0.271289,0.392872,0.133799,0.105933,inf,inf,inf,inf,1,1,1,1,2,0,2,1,4,1,1,1
108233337,48542209,34.0356552,108.7574837,-3.26189,-4.45621,-0.564469,0.0175174,0.00542605,0.0,0.0203588,0.0438049,0.0321601,-0.00848714,0.135211,-0.0844075,0.0647244,1.38335,0.170914,1.15482,-1.67711,0.013048,418.853,0.1,0.262675,0.39031,0.129406,0.104412,inf,inf,inf,inf,1,1,1,1,2,0,2,1,4,1,1,1
108342565,48542209,34.0356552,108.7574837,-3.25879,-4.45878,-0.565623,0.0175174,0.00542605,0.0,0.0185231,0.0455211,0.0316177,-0.00893228,0.135211,-0.0844075,0.0647244,1.23464,1.46218,0.469294,-1.67695,0.013048,418.853,0.1,0.272143,0.392771,0.134351,0.106009,inf,inf,inf,inf,1,1,1,1,2,0,2,1,4,1,1,1
108431956,48542209,34.0356552,108.7574837,-3.25629,-4.46022,-0.56833,0.0175174,0.00542605,0.0,0.0207649,0.0483759,0.0324109,-0.00979585,0.135211,-0.0844075,0.0647244,0.795881,-0.451758,0.176073,-1.67743,0.013048,418.853,0.1,0.262704,0.389558,0.129386,0.104314,inf,inf,inf,inf,1,1,1,1,2,0,2,1,4,1,1,1
108531435,48542209,34.0356552,108.7574837,-3.25322,-4.4625,-0.572228,0.0175174,0.00542605,0.0,0.0113385,0.0407108,0.0316053,-0.0130025,0.135211,-0.0844075,0.0647244,-0.853575,1.77526,0.44763,-1.6769,0.013048,418.853,0.1,0.271287,0.391339,0.13388,0.105717,inf,inf,inf,inf,1,1,1,1,2,0,2,1,4,1,1,1
108635563,48542209,34.0356552,108.7574837,-3.25036,-4.46346,-0.574684,0.0175174,0.00542605,0.0,0.0148492,0.0371092,0.0300068,-0.0153066,0.135211,-0.0844075,0.0647244,-1.3438,-0.133365,0.933282,-1.67683,0.013048,418.853,0.1,0.262645,0.388811,0.129293,0.104208,inf,inf,inf,inf,1,1,1,1,2,0,2,1,4,1,1,1
108734885,48542209,34.0356552,108.7574837,-3.24695,-4.46614,-0.573904,0.0175174,0.00542605,0.0,0.0194976,0.0433878,0.026782,-0.0158965,0.135211,-0.0844075,0.0647244,0.9011,0.143259,0.511489,-1.67684,0.013048,418.853,0.1,0.271222,0.393035,0.133951,0.105877,inf,inf,inf,inf,1,1,1,1,2,0,2,1,4,1,1,1
108834241,48542209,34.0356552,108.7574837,-3.24387,-4.46765,-0.573668,0.0175174,0.00542605,0.0,0.00932961,0.0392411,0.0263253,-0.0145854,0.135211,-0.0844075,0.0647244,-1.2682,0.563897,-0.561364,-1.67684,0.013048,418.853,0.100317,0.262588,0.390484,0.129351,0.104364,inf,inf,inf,inf,1,1,1,1,2,0,2,1,4,1,1,1
108933532,48542209,34.0356552,108.7574837,-3.24045,-4.47032,-0.573129,0.0175174,0.00542605,0.0,0.0045016,0.0361413,0.026424,-0.0127379,0.135211,-0.0844075,0.0647244,-2.65793,-0.0776095,-0.506164,-1.67701,0.013048,418.853,0.1,0.271162,0.392282,0.133848,0.105774,inf,inf,inf,inf,1,1,1,1,2,0,2,1,4,1,1,1
109042813,48542209,34.0356552,108.7574837,-3.23654,-4.47229,-0.572587,0.0175174,0.00542605,0.0,0.0133822,0.0347651,0.0377254,7.59337e-05,0.135211,-0.0844075,0.0647244,-1.20742,-0.916235,0.239016,-1.67631,0.013048,418.853,0.1,0.263426,0.390422,0.129843,0.104475,inf,inf,inf,inf,1,1,1,1,2,0,2,1,4,1,1,1
109137137,48542209,34.0356552,108.7574837,-3.23275,-4.47374,-0.573185,0.0175174,0.00542605,0.0,0.0128131,0.0475527,0.0241914,-0.0135198,0.135211,-0.0844075,0.0647244,0.462255,1.14523,-0.702342,-1.67663,0.013048,418.853,0.1,0.271168,0.391549,0.134119,0.105689,inf,inf,inf,inf,1,1,1,1,2,0,2,1,4,1,1,1
109236458,48542209,34.0356552,108.7574837,-3.22914,-4.47472,-0.574267,0.0175174,0.00542605,0.0,0.0132282,0.038167,0.0334877,-0.00465069,0.135211,-0.0844075,0.0647244,-1.05685,2.16647,-0.640505,-1.67728,0.013048,418.853,0.10055,0.262442,0.389027,0.129871,0.104186,inf,inf,inf,inf,1,1,1,1,2,0,2,1,4,1,1,1
109335978,48542209,34.0356552,108.7574837,-3.22537,-4.4769,-0.578515,0.0175174,0.00542605,0.0,0.0236285,0.0488687,0.0246052,-0.0167887,0.135211,-0.0844075,0.0647244,1.90267,1.31962,-0.171372,-1.67694,0.013048,418.853,0.104798,0.271016,0.390811,0.135168,0.105592,inf,inf,inf,inf,1,1,1,1,2,0,2,1,4,1,1,1
109440067,48542209,34.0356552,108.7574837,-3.2215,-4.47821,-0.582935,0.0175174,0.00542605,0.0,0.0188653,0.0402463,0.0261992,-0.0183682,0.135211,-0.0844075,0.0647244,0.975706,-1.28145,0.481769,-1.6773,0.013048,418.853,0.109218,0.262364,0.388319,0.131192,0.104109,inf,inf,inf,inf,1,1,1,1,2,0,2,1,4,1,1,1
109539388,48542209,34.0356552,108.7574837,-3.21718,-4.48056,-0.58712,0.0175174,0.00542605,0.0,0.0123712,0.0437554,0.0240959,-0.0227933,0.135211,-0.0844075,0.0647244,1.74274,-0.000948761,-0.0871693,-1.67765,0.013048,418.853,0.113403,0.27095,0.392546,0.136829,0.105783,inf,inf,inf,inf,1,1,1,1,2,0,2,1,4,1,1,1
109638710,48542209,34.0356552,108.7574837,-3.21353,-4.48254,-0.590764,0.0175174,0.00542605,0.0,0.0273329,0.0396404,0.0292913,-0.0190366,0.135211,-0.0844075,0.0647244,2.92693,-1.19249,1.5737,-1.6774,0.013048,418.853,0.117047,0.262299,0.390029,0.132868,0.104294,inf,inf,inf,inf,1,1,1,1,2,0,2,1,4,1,1,1
109738073,48542209,34.0356552,108.7574837,-3.21036,-4.48573,-0.593976,0.0175174,0.00542605,0.0,0.018553,0.0366591,0.02724,-0.0219742,0.135211,-0.0844075,0.0647244,0.948458,-1.02871,1.20867,-1.67728,0.013048,418.853,0.120259,0.270914,0.391832,0.1385,0.105706,inf,inf,inf,inf,1,1,1,1,2,0,2,1,4,1,1,1
109837353,48542209,34.0356552,108.7574837,-3.20772,-4.48826,-0.595282,0.0175174,0.00542605,0.0,0.00527513,0.0424461,0.0218251,-0.0262489,0.135211,-0.0844075,0.0647244,1.00044,2.46304,-1.69764,-1.67735,0.013048,418.853,0.121565,0.262225,0.389336,0.134491,0.104223,inf,inf,inf,inf,1,1,1,1,2,0,2,1,4,1,1,1
109936674,48542209,34.0356552,108.7574837,-3.2056,-4.49157,-0.593592,0.0175174,0.00542605,0.0,0.00701693,0.0416783,0.023058,-0.0213078,0.135211,-0.0844075,0.0647244,-0.850442,3.16088,-2.74155,-1.67792,0.013048,418.853,0.119875,0.270873,0.391129,0.140272,0.105633,inf,inf,inf,inf,1,1,1,1,2,0,2,1,4,1,1,1
110035995,48542209,34.0356552,108.7574837,-3.20421,-4.49364,-0.592691,0.0175174,0.00542605,0.0,0.00563229,0.0346925,0.0385863,-0.00338346,0.135211,-0.0844075,0.0647244,-0.133709,1.12196,0.568622,-1.67875,0.013048,418.853,0.118974,0.262179,0.388637,0.136103,0.10415,inf,inf,inf,inf,1,1,1,1,2,0,2,1,4,1,1,1
110135487,48542209,34.0356552,108.7574837,-3.20328,-4.49565,-0.591733,0.0175174,0.00542605,0.0,0.00655916,0.0339522,0.0348692,-0.00508719,0.135211,-0.0844075,0.0647244,1.15576,-1.3784,2.46581,-1.67848,0.013048,418.853,0.118016,0.270871,0.390411,0.14196,0.105555,inf,inf,inf,inf,1,1,1,1,2,0,2,1,4,1,1,1
110234638,48542209,34.0356552,108.7574837,-3.20235,-4.49741,-0.591054,0.0175174,0.00542605,0.0,0.00232919,0.048207,0.0181235,-0.020325,0.135211,-0.0844075,0.0647244,1.24849,3.90521,-2.96491,-1.67812,0.013048,418.853,0.117337,0.26216,0.390345,0.137623,0.104335,inf,inf,inf,inf,1,1,1,1,2,0,2,1,4,1,1,1
110333960,48542209,34.0356552,108.7574837,-3.20058,-4.50015,-0.589791,0.0175174,0.00542605,0.0,0.00328416,0.0381318,0.0276891,-0.00899991,0.135211,-0.0844075,0.0647244,-0.218527,1.30754,-2.15158,-1.67805,0.013048,418.853,0.116074,0.270904,0.39215,0.143593,0.105748,inf,inf,inf,inf,1,1,1,1,2,0,2,1,4,1,1,1
110438247,48542209,34.0356552,108.7574837,-3.19893,-4.50212,-0.588308,0.0175174,0.00542605,0.0,0.000674789,0.0368187,0.0309715,-0.00413676,0.135211,-0.0844075,0.0647244,-4.39373,2.30231,-2.41594,-1.67805,0.013048,418.853,0.114591,0.262138,0.389637,0.138974,0.104261,inf,inf,inf,inf,1,1,1,1,2,0,2,1,4,1,1,1
110537569,48542209,34.0356552,108.7574837,-3.19754,-4.50508,-0.586987,0.0175174,0.00542605,0.0,0.0149365,0.0257755,0.0437539,0.0100064,0.135211,-0.0844075,0.0647244,1.00785,-0.00957051,1.45044,-1.67786,0.013048,418.853,0.11327,0.270939,0.391432,0.144873,0.105672,inf,inf,inf,inf,1,1,1,1,2,0,2,1,4,1,1,1
110636891,48542209,34.0356552,108.7574837,-3.19563,-4.50776,-0.586429,0.0175174,0.00542605,0.0,0.00195841,0.0264835,0.0365151,0.00322728,0.135211,-0.0844075,0.0647244,2.15345,-1.97525,2.34635,-1.67845,0.013048,418.853,0.112712,0.262107,0.38894,0.140156,0.104189,inf,inf,inf,inf,1,1,1,1,2,0,2,1,4,1,1,1
110736213,48542209,34.0356552,108.7574837,-3.19238,-4.51211,-0.586995,0.0175174,0.00542605,0.0,-0.00350843,0.027478,0.0285933,-0.00538919,0.135211,-0.0844075,0.0647244,2.31339,-0.227222,-1.51618,-1.67827,0.013048,418.853,0.113278,0.270971,0.390724,0.146067,0.105597,inf,inf,inf,inf,1,1,1,1,2,0,2,1,4,1,1,1
110835534,48542209,34.0356552,108.7574837,-3.18904,-4.51582,-0.588261,0.0175174,0.00542605,0.0,0.00386567,0.0217097,0.0382407,0.00298777,0.135211,-0.0844075,0.0647244,0.0941149,0.990926,-0.674974,-1.67817,0.013048,418.853,0.114544,0.262117,0.388245,0.141015,0.104117,inf,inf,inf,inf,1,1,1,1,2,0,2,1,4,1,1,1
110934920,48542209,34.0356552,108.7574837,-3.18489,-4.52027,-0.589773,0.0175174,0.00542605,0.0,0.00836005,0.0213986,0.032331,-0.00430579,0.135211,-0.0844075,0.0647244,-0.508863,-0.144227,0.0517939,-1.67858,0.013048,418.853,0.116056,0.271037,0.392471,0.146828,0.105792,inf,inf,inf,inf,1,1,1,1,2,0,2,1,4,1,1,1
111034177,48542209,34.0356552,108.7574837,-3.18158,-4.52423,-0.589422,0.0175174,0.00542605,0.0,0.00739961,0.00200421,0.0439403,0.00810042,0.135211,-0.0844075,0.0647244,-0.145502,-3.38829,2.54479,-1.67841,0.013048,418.853,0.115705,0.262158,0.389949,0.141544,0.104301,inf,inf,inf,inf,1,1,1,1,2,0,2,1,4,1,1,1
111133499,48542209,34.0356552,108.7574837,-3.17924,-4.52937,-0.586259,0.0175174,0.00542605,0.0,0.00389675,0.0138393,0.040191,0.0076871,0.135211,-0.0844075,0.0647244,-1.45485,-0.883995,1.05217,-1.67869,0.013048,418.853,0.112542,0.27113,0.391737,0.147343,0.105711,inf,inf,inf,inf,1,1,1,1,2,0,2,1,4,1,1,1
111232870,48542209,34.0356552,108.7574837,-3.17729,-4.53299,-0.584168,0.0175174,0.00542605,0.0,0.00220404,0.0236006,0.0282221,-0.00235691,0.135211,-0.0844075,0.0647244,1.4259,-0.387934,-1.4328,-1.67813,0.013048,418.853,0.110451,0.262124,0.389215,0.14173,0.104208,inf,inf,inf,inf,1,1,1,1,2,0,2,1,4,1,1,1
111342073,48542209,34.0356552,108.7574837,-3.17409,-4.53702,-0.579952,0.0175174,0.00542605,0.0,-0.00887268,0.0205943,0.0342475,0.00715097,0.135211,-0.0844075,0.0647244,-1.33928,3.92696,-2.38709,-1.67841,0.013048,418.853,0.106235,0.272068,0.391656,0.148016,0.105807,inf,inf,inf,inf,1,1,1,1,2,0,2,1,4,1,1,1
111431463,48542209,34.0356552,108.7574837,-3.1713,-4.53891,-0.577441,0.0175174,0.00542605,0.0,0.0066663,0.0174381,0.0407021,0.0151143,0.135211,-0.0844075,0.0647244,1.88661,-2.44328,2.39133,-1.67752,0.013048,418.853,0.103724,0.26208,0.388477,0.141771,0.104115,inf,inf,inf,inf,1,1,1,1,2,0,2,1,4,1,1,1
111535757,48542209,34.0356552,108.7574837,-3.16665,-4.54059,-0.575076,0.0175174,0.00542605,0.0,-0.00186254,0.0183311,0.0345571,0.00977858,0.135211,-0.0844075,0.0647244,-0.159463,0.100391,-0.995053,-1.67816,0.013048,418.853,0.101359,0.271116,0.392691,0.147361,0.105786,inf,inf,inf,inf,1,1,1,1,2,0,2,1,4,1,1,1
111635073,48542209,34.0356552,108.7574837,-3.16277,-4.5414,-0.57258,0.0175174,0.00542605,0.0,0.000631536,0.0251912,0.0409121,0.0170398,0.135211,-0.0844075,0.0647244,2.31185,-1.60653,0.755017,-1.67816,0.013048,418.853,0.1,0.262024,0.390152,0.141583,0.104282,inf,inf,inf,inf,1,1,1,1,2,0,2,1,4,1,1,1
111734421,48542209,34.0356552,108.7574837,-3.15824,-4.54297,-0.571422,0.0175174,0.00542605,0.0,0.0174528,0.0101326,0.0433633,0.0189628,0.135211,-0.0844075,0.0647244,2.04333,-3.98193,1.3841,-1.67798,0.013048,418.853,0.1,0.271085,0.39194,0.147165,0.105692,inf,inf,inf,inf,1,1,1,1,2,0,2,1,4,1,1,1
111833715,48542209,34.0356552,108.7574837,-3.15399,-4.54346,-0.571256,0.0175174,0.00542605,0.0,0.0170972,0.0101083,0.0489981,0.0232599,0.135211,-0.0844075,0.0647244,1.89471,-6.51132,4.38585,-1.67787,0.013048,418.853,0.1,0.261953,0.389425,0.141327,0.104194,inf,inf,inf,inf,1,1,1,1,2,0,2,1,4,1,1,1
111933088,48542209,34.0356552,108.7574837,-3.1493,-4.54492,-0.570005,0.0175174,0.00542605,0.0,0.0134016,0.0140508,0.0505075,0.0244872,0.135211,-0.0844075,0.0647244,2.02506,-5.66785,4.41162,-1.67779,0.013048,418.853,0.1,0.27103,0.39121,0.146703,0.105604,inf,inf,inf,inf,1,1,1,1,2,0,2,1,4,1,1,1
112032521,48542209,34.0356552,108.7574837,-3.14543,-4.5456,-0.569112,0.0175174,0.00542605,0.0,0.0101358,0.0195459,0.0483718,0.0216496,0.135211,-0.0844075,0.0647244,-1.19475,-0.149527,1.02678,-1.67831,0.013048,418.853,0.1,0.261904,0.388709,0.140817,0.10411,inf,inf,inf,inf,1,1,1,1,2,0,2,1,4,1,1,1
112136646,48542209,34.0356552,108.7574837,-3.14185,-4.54712,-0.566813,0.0175174,0.00542605,0.0,0.00821744,0.042466,0.0275658,0.00130648,0.135211,-0.0844075,0.0647244,-1.56146,4.11758,-4.43501,-1.67808,0.013048,418.853,0.1,0.270988,0.390475,0.146089,0.105515,inf,inf,inf,inf,1,1,1,1,2,0,2,1,4,1,1,1
112235968,48542209,34.0356552,108.7574837,-3.13844,-4.54867,-0.566726,0.0175174,0.00542605,0.0,-0.00105642,0.0348508,0.0288234,0.000910686,0.135211,-0.0844075,0.0647244,-0.395411,2.59023,-2.93433,-1.67776,0.013048,418.853,0.1,0.261956,0.3904,0.140439,0.104295,inf,inf,inf,inf,1,1,1,1,2,0,2,1,4,1,1,1
112335307,48542209,34.0356552,108.7574837,-3.13424,-4.55088,-0.568994,0.0175174,0.00542605,0.0,0.0166715,0.0316949,0.0420595,0.0104913,0.135211,-0.0844075,0.0647244,1.878,0.352987,0.914889,-1.67801,0.013048,418.853,0.1,0.271058,0.392181,0.14564,0.105704,inf,inf,inf,inf,1,1,1,1,2,0,2,1,4,1,1,1
112434611,48542209,34.0356552,108.7574837,-3.13076,-4.55252,-0.570655,0.0175174,0.00542605,0.0,0.00693577,0.0222457,0.0446079,0.0104811,0.135211,-0.0844075,0.0647244,-1.17005,-1.59299,1.39783,-1.67872,0.013048,418.853,0.1,0.262017,0.389653,0.139841,0.104216,inf,inf,inf,inf,1,1,1,1,2,0,2,1,4,1,1,1
112533937,48542209,34.0356552,108.7574837,-3.12737,-4.55439,-0.570999,0.0175174,0.00542605,0.0,0.0141087,0.0247549,0.051484,0.016472,0.135211,-0.0844075,0.0647244,1.10626,-1.62313,3.20221,-1.67835,0.013048,418.853,0.100061,0.271123,0.391423,0.14494,0.105622,inf,inf,inf,inf,1,1,1,1,2,0,2,1,4,1,1,1
112633286,48542209,34.0356552,108.7574837,-3.12389,-4.55581,-0.570059,0.0175174,0.00542605,0.0,0.00609803,0.0286654,0.0462567,0.0118096,0.135211,-0.0844075,0.0647244,-1.08922,-0.81608,0.999148,-1.67826,0.013048,418.853,0.1,0.262038,0.391325,0.139121,0.104393,inf,inf,inf,inf,1,1,1,1,2,0,2,1,4,1,1,1
112742508,48542209,34.0356552,108.7574837,-3.11912,-4.55842,-0.568886,0.0175174,0.00542605,0.0,0.0216805,0.0278375,0.0451985,0.0114047,0.135211,-0.0844075,0.0647244,1.13835,-1.19529,2.55925,-1.67815,0.013048,418.853,0.1,0.272084,0.393778,0.144684,0.105997,inf,inf,inf,inf,1,1,1,1,2,0,2,1,4,1,1,1
112832020,48542209,34.0356552,108.7574837,-3.11517,-4.55986,-0.570145,0.0175174,0.00542605,0.0,0.00862852,0.0333452,0.0304048,-0.00516338,0.135211,-0.0844075,0.0647244,0.699471,0.791366,-2.14102,-1.67837,0.013048,418.853,0.1,0.261924,0.390536,0.138259,0.104293,inf,inf,inf,inf,1,1,1,1,2,0,2,1,4,1,1,1
112941151,48542209,34.0356552,108.7574837,-3.10837,-4.5627,-0.571343,0.0175174,0.00542605,0.0,0.014625,0.0374694,0.0285913,-0.00852684,0.135211,-0.0844075,0.0647244,-2.16607,5.63525,-4.20213,-1.67848,0.013048,418.853,0.101104,0.271944,0.392976,0.143711,0.105894,inf,inf,inf,inf,1,1,1,1,2,0,2,1,4,1,1,1
113030541,48542209,34.0356552,108.7574837,-3.10389,-4.56338,-0.570874,0.0175174,0.00542605,0.0,0.0192069,0.0148485,0.0482159,0.0114656,0.135211,-0.0844075,0.0647244,0.746612,-4.90141,4.02856,-1.67874,0.013048,418.853,0.100635,0.261982,0.38976,0.137572,0.104209,inf,inf,inf,inf,1,1,1,1,2,0,2,1,4,1,1,1
113134828,48542209,34.0356552,108.7574837,-3.09955,-4.56346,-0.567783,0.0175174,0.00542605,0.0,0.031803,0.031029,0.0408686,0.00662239,0.135211,-0.0844075,0.0647244,1.19115,-2.65733,1.77755,-1.67739,0.013048,418.853,0.1,0.271049,0.391517,0.142427,0.105613,inf,inf,inf,inf,1,1,1,1,2,0,2,1,4,1,1,1
113234151,48542209,34.0356552,108.7574837,-3.0955,-4.56262,-0.56381,0.0175174,0.00542605,0.0,0.0111444,0.0295862,0.0387734,0.0077601,0.135211,-0.0844075,0.0647244,-1.52766,2.41473,-2.28665,-1.67837,0.013048,418.853,0.111446,0.262253,0.38912,0.136962,0.104204,inf,inf,inf,inf,1,1,1,1,2,0,2,1,4,1,1,1
113333488,48542209,34.0356552,108.7574837,-3.09063,-4.56185,-0.556989,0.0175174,0.00542605,0.0,0.0229703,0.0349531,0.0403974,0.0147662,0.135211,-0.0844075,0.0647244,2.45366,-1.65168,0.354674,-1.67732,0.013048,418.853,0.106279,0.271321,0.39087,0.141879,0.105604,inf,inf,inf,inf,1,1,1,1,2,0,2,1,4,1,1,1
113437759,48542209,34.0356552,108.7574837,-3.08628,-4.56047,-0.55235,0.0175174,0.00542605,0.0,0.0289719,0.0432858,0.0388455,0.0154619,0.135211,-0.0844075,0.0647244,1.09164,1.3586,-0.800544,-1.67697,0.013048,418.853,0.104834,0.263026,0.39124,0.137007,0.104672,inf,inf,inf,inf,1,1,1,1,2,0,2,1,4,1,1,1
113537081,48542209,34.0356552,108.7574837,-3.08262,-4.5606,-0.547834,0.0175174,0.00542605,0.0,0.0293329,0.0337003,0.0536035,0.0320377,0.135211,-0.0844075,0.0647244,2.07982,-1.23693,1.54186,-1.67738,0.013048,418.853,0.100317,0.27215,0.393034,0.141785,0.10608,inf,inf,inf,inf,1,1,1,1,2,0,2,1,4,1,1,1
113636511,48542209,34.0356552,108.7574837,-3.07974,-4.56103,-0.543756,0.0175174,0.00542605,0.0,0.0225249,0.0279741,0.0489225,0.0283857,0.135211,-0.0844075,0.0647244,-0.728209,1.48705,-0.640016,-1.67809,0.013048,418.853,0.101984,0.263721,0.390815,0.136843,0.10479,inf,inf,inf,inf,1,1,1,1,2,0,2,1,4,1,1,1
113735725,48542209,34.0356552,108.7574837,-3.07786,-4.56318,-0.538979,0.0175174,0.00542605,0.0,0.0180093,0.0530357,0.0403472,0.0211179,0.135211,-0.0844075,0.0647244,0.876709,1.87421,-1.55543,-1.677,0.013048,418.853,0.1,0.272878,0.392616,0.141576,0.106194,inf,inf,inf,inf,1,1,1,1,2,0,2,1,4,1,1,1
113835046,48542209,34.0356552,108.7574837,-3.07681,-4.56441,-0.534493,0.0175174,0.00542605,0.0,0.018591,0.0303143,0.0607894,0.0423416,0.135211,-0.0844075,0.0647244,-0.339962,-0.519924,-0.0571139,-1.67806,0.013048,418.853,0.105353,0.263944,0.390046,0.135944,0.104662,inf,inf,inf,inf,1,1,1,1,2,0,2,1,4,1,1,1
113934368,48542209,34.0356552,108.7574837,-3.07673,-4.56554,-0.527936,0.0175174,0.00542605,0.0,0.0121263,0.0325038,0.05283,0.0367944,0.135211,-0.0844075,0.0647244,-1.44717,2.40929,-3.00346,-1.67796,0.013048,418.853,0.1,0.273061,0.391835,0.140606,0.106063,inf,inf,inf,inf,1,1,1,1,2,0,2,1,4,1,1,1
114033694,48542209,34.0356552,108.7574837,-3.07673,-4.56595,-0.524575,0.0175174,0.00542605,0.0,0.0207908,0.036761,0.0588096,0.0415598,0.135211,-0.0844075,0.0647244,0.176685,-1.12459,1.03834,-1.67737,0.013048,418.853,0.1,0.264148,0.389282,0.13505,0.104538,inf,inf,inf,inf,1,1,1,1,2,0,2,1,4,1,1,0
114133011,48542209,34.0356552,108.7574837,-3.0771,-4.56643,-0.523672,0.0175174,0.00542605,0.0,0.0161884,0.0317815,0.0614389,0.0405369,0.135211,-0.0844075,0.0647244,-0.972336,-0.876188,0.520493,-1.67767,0.013048,418.853,0.1,0.273222,0.393522,0.139698,0.106207,inf,inf,inf,inf,1,1,1,1,2,0,2,1,4,1,1,0
114237301,48542209,34.0356552,108.7574837,-3.07663,-4.56631,-0.522762,0.0175174,0.00542605,0.0,0.0104137,0.0416782,0.0506846,0.0263927,0.135211,-0.0844075,0.0647244,0.0190567,0.197543,-1.58014,-1.67753,0.013048,418.853,0.1,0.264179,0.390941,0.134205,0.104666,inf,inf,inf,inf,1,1,1,1,2,0,2,1,4,1,1,0
114336621,48542209,34.0356552,108.7574837,-3.0743,-4.56877,-0.521969,0.0175174,0.00542605,0.0,0.0212793,0.0271338,0.068556,0.0415107,0.135211,-0.0844075,0.0647244,0.99448,-1.91661,2.42699,-1.67789,0.013048,418.853,0.1,0.273198,0.392738,0.138721,0.10607,inf,inf,inf,inf,1,1,1,1,2,0,2,1,4,1,1,0
114436015,48542209,34.0356552,108.7574837,-3.07224,-4.5702,-0.521838,0.0175174,0.00542605,0.0,0.00665663,0.0405466,0.0542447,0.0241426,0.135211,-0.0844075,0.0647244,-0.544067,2.29356,-1.83676,-1.6776,0.013048,418.853,0.1,0.264232,0.390188,0.133549,0.104553,inf,inf,inf,inf,1,1,1,1,2,0,2,1,4,1,1,0
114535264,48542209,34.0356552,108.7574837,-3.07092,-4.5721,-0.522814,0.0175174,0.00542605,0.0,0.0211292,0.0241385,0.0599943,0.026254,0.135211,-0.0844075,0.0647244,1.32292,-3.4978,2.7492,-1.67769,0.013048,418.853,0.1,0.27321,0.391982,0.138096,0.105956,inf,inf,inf,inf,1,1,1,1,2,0,2,1,4,1,1,0
114634586,48542209,34.0356552,108.7574837,-3.06937,-4.57262,-0.524393,0.0175174,0.00542605,0.0,0.0149514,0.0378136,0.0576534,0.0200388,0.135211,-0.0844075,0.0647244,-0.312151,3.15673,-2.15381,-1.67727,0.013048,418.853,0.1,0.264228,0.38944,0.132875,0.104443,inf,inf,inf,inf,1,1,1,1,2,0,2,1,4,1,1,0
114733911,48542209,34.0356552,108.7574837,-3.06763,-4.57182,-0.526355,0.0175174,0.00542605,0.0,0.000779577,0.0344565,0.047693,0.00629809,0.135211,-0.0844075,0.0647244,0.504153,0.0955909,-1.34893,-1.67755,0.013048,418.853,0.1,0.273162,0.391222,0.137359,0.105843,inf,inf,inf,inf,1,1,1,1,2,0,2,1,4,1,1,0
114833229,48542209,34.0356552,108.7574837,-3.06573,-4.57047,-0.527697,0.0175174,0.00542605,0.0,0.0162667,0.0358729,0.0605189,0.016414,0.135211,-0.0844075,0.0647244,0.517611,-1.11533,1.07197,-1.67739,0.013048,418.853,0.1,0.264077,0.391117,0.132118,0.104584,inf,inf,inf,inf,1,1,1,1,2,0,2,1,4,1,1,0
114932551,48542209,34.0356552,108.7574837,-3.06251,-4.57031,-0.526875,0.0175174,0.00542605,0.0,0.0159611,0.0418322,0.0603182,0.0158011,0.135211,-0.0844075,0.0647244,2.52074,-0.0798853,0.533268,-1.67738,0.013048,418.853,0.1,0.272956,0.392919,0.136651,0.105992,inf,inf,inf,inf,1,1,1,1,2,0,2,1,4,1,1,0
115041805,48542209,34.0356552,108.7574837,-3.05906,-4.56992,-0.526014,0.0175174,0.00542605,0.0,0.0181803,0.0384446,0.0708523,0.0258173,0.135211,-0.0844075,0.0647244,0.988432,-1.94761,2.88283,-1.67778,0.013048,418.853,0.1,0.264745,0.391026,0.131941,0.10466,inf,inf,inf,inf,1,1,1,1,2,0,2,1,4,1,1,0
115131199,48542209,34.0356552,108.7574837,-3.05557,-4.57123,-0.524331,0.0175174,0.00542605,0.0,0.0163524,0.0234821,0.0723304,0.0278359,0.135211,-0.0844075,0.0647244,0.497512,-3.01007,2.97296,-1.67788,0.013048,418.853,0.1,0.272713,0.392154,0.13595,0.105872,inf,inf,inf,inf,1,1,1,1,2,0,2,1,4,1,1,0
115240507,48542209,34.0356552,108.7574837,-3.05166,-4.57214,-0.520643,0.0175174,0.00542605,0.0,0.0139063,0.0542196,0.0541148,0.0117861,0.135211,-0.0844075,0.0647244,-1.282,4.21752,-2.50386,-1.67763,0.013048,418.853,0.1,0.264481,0.390268,0.131336,0.104545,inf,inf,inf,inf,1,1,1,1,2,0,2,1,4,1,1,0
115334804,48542209,34.0356552,108.7574837,-3.04787,-4.57478,-0.516307,0.0175174,0.00542605,0.0,0.0174467,0.0342827,0.0571549,0.0171703,0.135211,-0.0844075,0.0647244,0.231107,-1.13026,0.912853,-1.67646,0.013048,418.853,0.1,0.272404,0.391385,0.135304,0.105754,inf,inf,inf,inf,1,1,1,1,2,0,2,1,4,1,1,0
115434126,48542209,34.0356552,108.7574837,-3.0443,-4.57647,-0.512893,0.0175174,0.00542605,0.0,0.014696,0.0343581,0.0570667,0.0182909,0.135211,-0.0844075,0.0647244,1.42898,-0.689001,0.16223,-1.67752,0.013048,418.853,0.1,0.263345,0.388855,0.130409,0.104241,inf,inf,inf,inf,1,1,1,1,2,0,2,1,4,1,1,0
115533624,48542209,34.0356552,108.7574837,-3.03934,-4.57754,-0.512279,0.0175174,0.00542605,0.0,0.0170187,0.0482482,0.0544105,0.0139844,0.135211,-0.0844075,0.0647244,-0.550402,3.25601,-3.31611,-1.67666,0.013048,418.853,0.1,0.272081,0.39063,0.134965,0.105641,inf,inf,inf,inf,1,1,1,1,2,0,2,1,4,1,1,0
115632769,48542209,34.0356552,108.7574837,-3.03536,-4.5784,-0.512416,0.0175174,0.00542605,0.0,0.0110668,0.0475396,0.0575577,0.0150309,0.135211,-0.0844075,0.0647244,-1.54993,4.18526,-2.71096,-1.67733,0.013048,418.853,0.1,0.263133,0.390547,0.130178,0.10441,inf,inf,inf,inf,1,1,1,1,2,0,2,1,4,1,1,0
115742023,48542209,34.0356552,108.7574837,-3.03104,-4.57968,-0.513885,0.0175174,0.00542605,0.0,0.0262017,0.0401049,0.069091,0.023144,0.135211,-0.0844075,0.0647244,1.09693,-2.67175,3.05638,-1.67723,0.013048,418.853,0.1,0.272736,0.393019,0.135045,0.106012,inf,inf,inf,inf,1,1,1,1,2,0,2,1,4,1,1,0
115836380,48542209,34.0356552,108.7574837,-3.02784,-4.58056,-0.515427,0.0175174,0.00542605,0.0,0.0181417,0.0481938,0.0538293,0.00480097,0.135211,-0.0844075,0.0647244,1.32115,2.65875,-2.57357,-1.67645,0.013048,418.853,0.1,0.262936,0.38982,0.12988,0.104321,inf,inf,inf,inf,1,1,1,1,2,0,2,1,4,1,1,0
115935701,48542209,34.0356552,108.7574837,-3.02464,-4.58249,-0.518366,0.0175174,0.00542605,0.0,0.0129456,0.0407778,0.0569502,0.00424189,0.135211,-0.0844075,0.0647244,1.74849,-0.0411798,0.63965,-1.67624,0.013048,418.853,0.1,0.27161,0.391605,0.134288,0.105727,inf,inf,inf,inf,1,1,1,1,2,0,2,1,4,1,1,0
116035023,48542209,34.0356552,108.7574837,-3.02103,-4.58265,-0.520903,0.0175174,0.00542605,0.0,0.0319372,0.0491093,0.0606574,0.00503545,0.135211,-0.0844075,0.0647244,0.882383,-0.677368,1.44796,-1.6759,0.013048,418.853,0.1,0.26271,0.389104,0.129725,0.104237,inf,inf,inf,inf,1,1,1,1,2,0,2,1,4,1,1,0
116134345,48542209,34.0356552,108.7574837,-3.01674,-4.58246,-0.522414,0.0175174,0.00542605,0.0,0.0243935,0.0381806,0.0611017,0.00391029,0.135211,-0.0844075,0.0647244,0.251252,-2.41331,2.13178,-1.67735,0.013048,418.853,0.10151,0.271362,0.390887,0.134147,0.105641,inf,inf,inf,inf,1,1,1,1,2,0,2,1,4,1,1,0
116233666,48542209,34.0356552,108.7574837,-3.01319,-4.58308,-0.523751,0.0175174,0.00542605,0.0,0.0228303,0.0263972,0.0614999,0.00338514,0.135211,-0.0844075,0.0647244,1.9536,-3.72201,3.66452,-1.67677,0.013048,418.853,0.102847,0.262473,0.388391,0.129463,0.104153,inf,inf,inf,inf,1,1,1,1,2,0,2,1,4,1,1,0
116333117,48542209,34.0356552,108.7574837,-3.00917,-4.58538,-0.523751,0.0175174,0.00542605,0.0,0.0148028,0.0509304,0.0571537,-0.000625195,0.135211,-0.0844075,0.0647244,-2.26974,2.12847,-3.07099,-1.67744,0.013048,418.853,0.102847,0.2711,0.392619,0.133892,0.105825,inf,inf,inf,inf,1,1,1,1,2,0,2,1,4,1,1,0
116437277,48542209,34.0356552,108.7574837,-3.00518,-4.5863,-0.523951,0.0175174,0.00542605,0.0,0.0294419,0.0544278,0.0621001,0.00396408,0.135211,-0.0844075,0.0647244,2.05486,-0.691592,1.27079,-1.67629,0.013048,418.853,0.103047,0.262255,0.390097,0.129301,0.104331,inf,inf,inf,inf,1,1,1,1,2,0,2,1,4,1,1,0
116536600,48542209,34.0356552,108.7574837,-3.00225,-4.58962,-0.524693,0.0175174,0.00542605,0.0,0.0201059,0.0242426,0.0691358,0.0104058,0.135211,-0.0844075,0.0647244,1.56672,-3.80051,2.91138,-1.67669,0.013048,418.853,0.103789,0.270861,0.391892,0.133887,0.10574,inf,inf,inf,inf,1,1,1,1,2,0,2,1,4,1,1,0
116635924,48542209,34.0356552,108.7574837,-3.00005,-4.59303,-0.524734,0.0175174,0.00542605,0.0,0.0107904,0.0331427,0.0643569,0.00620038,0.135211,-0.0844075,0.0647244,-1.61988,-0.92398,1.72652,-1.67633,0.013048,418.853,0.10383,0.26202,0.389393,0.129261,0.104252,inf,inf,inf,inf,1,1,1,1,2,0,2,1,4,1,1,0
116735303,48542209,34.0356552,108.7574837,-2.99605,-4.59529,-0.522855,0.0175174,0.00542605,0.0,0.013198,0.0533813,0.0565791,0.000332327,0.135211,-0.0844075,0.0647244,-2.79179,2.09134,-2.41772,-1.67672,0.013048,418.853,0.101951,0.270612,0.391185,0.1337,0.10566,inf,inf,inf,inf,1,1,1,1,2,0,2,1,4,1,1,0
116834564,48542209,34.0356552,108.7574837,-2.9927,-4.59651,-0.521748,0.0175174,0.00542605,0.0,0.0117429,0.0405215,0.0564101,0.00101747,0.135211,-0.0844075,0.0647244,-1.29064,2.20981,-2.04881,-1.67581,0.013048,418.853,0.100844,0.261812,0.388698,0.129121,0.104175,inf,inf,inf,inf,1,1,1,1,2,0,2,1,4,1,1,0
116938853,48542209,34.0356552,108.7574837,-2.99019,-4.59939,-0.519683,0.0175174,0.00542605,0.0,0.00894309,0.0353792,0.0634821,0.00957572,0.135211,-0.0844075,0.0647244,-1.16804,1.6235,-0.555584,-1.67754,0.013048,418.853,0.1,0.270388,0.39048,0.133602,0.10558,inf,inf,inf,inf,1,1,1,1,2,0,2,1,4,1,1,0
117038174,48542209,34.0356552,108.7574837,-2.98836,-4.60057,-0.519369,0.0175174,0.00542605,0.0,0.0199471,0.0495129,0.0536291,-0.000648413,0.135211,-0.0844075,0.0647244,1.7249,3.77628,-3.73958,-1.67649,0.013048,418.853,0.1,0.26159,0.388005,0.129055,0.104099,inf,inf,inf,inf,1,1,1,1,2,0,2,1,4,1,1,0
117137607,48542209,34.0356552,108.7574837,-2.98731,-4.60255,-0.519177,0.0175174,0.00542605,0.0,0.0214817,0.0303693,0.0704666,0.0159379,0.135211,-0.0844075,0.0647244,1.87192,-0.549436,0.568149,-1.6782,0.013048,418.853,0.1,0.270157,0.392233,0.133697,0.105773,inf,inf,inf,inf,1,1,1,1,2,0,2,1,4,1,1,0
117236818,48542209,34.0356552,108.7574837,-2.98572,-4.6036,-0.518683,0.0175174,0.00542605,0.0,0.0175555,0.047989,0.0598475,0.00532317,0.135211,-0.0844075,0.0647244,1.92893,2.40088,-2.80438,-1.6789,0.013048,418.853,0.1,0.261358,0.389731,0.129109,0.104285,inf,inf,inf,inf,1,1,1,1,2,0,2,1,4,1,1,0
117336139,48542209,34.0356552,108.7574837,-2.98313,-4.60485,-0.517549,0.0175174,0.00542605,0.0,0.0160904,0.0432377,0.0614932,0.0073499,0.135211,-0.0844075,0.0647244,1.92344,-0.256625,0.24573,-1.67841,0.013048,418.853,0.1,0.269915,0.391534,0.133578,0.105696,inf,inf,inf,inf,1,1,1,1,2,0,2,1,4,1,1,0
117435500,48542209,34.0356552,108.7574837,-2.98163,-4.60647,-0.517955,0.0175174,0.00542605,0.0,0.00435013,0.0317802,0.0653094,0.00998579,0.135211,-0.0844075,0.0647244,-1.56021,-0.0658784,-0.753999,-1.6807,0.013048,418.853,0.1,0.261155,0.389045,0.129071,0.104211,inf,inf,inf,inf,1,1,1,1,2,0,2,1,4,1,1,0
117534783,48542209,34.0356552,108.7574837,-2.98062,-4.60936,-0.520402,0.0175174,0.00542605,0.0,0.00487514,0.0482436,0.0651698,0.00685995,0.135211,-0.0844075,0.0647244,-2.86057,2.72428,-1.25915,-1.68015,0.013048,418.853,0.1,0.269703,0.390837,0.133493,0.105618,inf,inf,inf,inf,1,1,1,1,2,0,2,1,4,1,1,0
117634125,48542209,34.0356552,108.7574837,-2.97991,-4.61034,-0.523738,0.0175174,0.00542605,0.0,0.00986907,0.0328411,0.0683608,0.00633566,0.135211,-0.0844075,0.0647244,-2.78003,-2.19257,2.34446,-1.68084,0.013048,418.853,0.102834,0.260941,0.388359,0.129034,0.104137,inf,inf,inf,inf,1,1,1,1,2,0,2,1,4,1,1,0
117733427,48542209,34.0356552,108.7574837,-2.98066,-4.61334,-0.529051,0.0175174,0.00542605,0.0,0.00376722,0.0252329,0.0527854,-0.0139516,0.135211,-0.0844075,0.0647244,-0.467823,1.29867,-1.54053,-1.6804,0.013048,418.853,0.108147,0.269482,0.39014,0.133462,0.105542,inf,inf,inf,inf,1,1,1,1,2,0,2,1,4,1,1,0
117832751,48542209,34.0356552,108.7574837,-2.98135,-4.61564,-0.533753,0.0175174,0.00542605,0.0,0.0193757,0.0284514,0.0529488,-0.0169688,0.135211,-0.0844075,0.0647244,2.71814,-0.569469,0.652928,-1.68178,0.013048,418.853,0.112849,0.260717,0.390075,0.128967,0.10432,inf,inf,inf,inf,1,1,1,1,2,0,2,1,4,1,1,0
117932123,48542209,34.0356552,108.7574837,-2.98148,-4.61607,-0.539304,0.0175174,0.00542605,0.0,0.0013277,0.0461073,0.0638867,-0.0100249,0.135211,-0.0844075,0.0647244,0.615697,-1.04708,0.204206,-1.68109,0.013048,418.853,0.118401,0.269253,0.391887,0.133458,0.105733,inf,inf,inf,inf,1,1,1,1,2,0,2,1,4,1,1,0
118036359,48542209,34.0356552,108.7574837,-2.98112,-4.61569,-0.543565,0.0175174,0.00542605,0.0,0.00606474,0.0336225,0.0565509,-0.0198277,0.135211,-0.0844075,0.0647244,-1.58847,0.394954,-0.204043,-1.6809,0.013048,418.853,0.122662,0.260521,0.389388,0.128922,0.104246,inf,inf,inf,inf,1,1,1,1,2,0,2,1,4,1,1,0
118135681,48542209,34.0356552,108.7574837,-2.98179,-4.61882,-0.549283,0.0175174,0.00542605,0.0,0.00654164,0.0297261,0.0433686,-0.0357119,0.135211,-0.0844075,0.0647244,2.9938,1.2518,-1.04007,-1.68333,0.013048,418.853,0.128379,0.269052,0.391189,0.133432,0.105657,inf,inf,inf,inf,1,1,1,1,2,0,2,1,4,1,1,0
118235004,48542209,34.0356552,108.7574837,-2.98098,-4.62051,-0.556218,0.0175174,0.00542605,0.0,-0.0127496,0.0404657,0.0492233,-0.0333179,0.135211,-0.0844075,0.0647244,-3.71379,0.517972,-0.360008,-1.68168,0.013048,418.853,0.135315,0.260314,0.388709,0.129155,0.104175,inf,inf,inf,inf,1,1,1,1,2,0,2,1,4,1,1,0
118334325,48542209,34.0356552,108.7574837,-2.97962,-4.62229,-0.562934,0.0175174,0.00542605,0.0,-0.00106934,0.0321818,0.0495217,-0.0357786,0.135211,-0.0844075,0.0647244,-1.35785,-0.652445,0.954319,-1.68304,0.013048,418.853,0.14203,0.26885,0.390492,0.133592,0.10558,inf,inf,inf,inf,1,1,1,1,2,0,2,1,4,1,1,0
118433654,48542209,34.0356552,108.7574837,-2.97832,-4.62328,-0.568551,0.0175174,0.00542605,0.0,0.010922,0.0290073,0.0432162,-0.0433104,0.135211,-0.0844075,0.0647244,4.74461,-0.901103,-0.424378,-1.68328,0.013048,418.853,0.147647,0.260021,0.390408,0.129052,0.104342,inf,inf,inf,inf,1,1,1,1,2,0,2,1,4,1,1,0
118532971,48542209,34.0356552,108.7574837,-2.97588,-4.6256,-0.573221,0.0175174,0.00542605,0.0,-0.010362,0.0249537,0.0405605,-0.0458535,0.135211,-0.0844075,0.0647244,-2.85777,0.662858,-1.96363,-1.68397,0.013048,418.853,0.152317,0.268545,0.392213,0.133514,0.105753,inf,inf,inf,inf,1,1,1,1,2,0,2,1,4,1,1,0
118632292,48542209,34.0356552,108.7574837,-2.97365,-4.62738,-0.575578,0.0175174,0.00542605,0.0,0.00508122,0.0221557,0.0446424,-0.0390773,0.135211,-0.0844075,0.0647244,0.473265,-1.25122,0.821224,-1.68295,0.013048,418.853,0.154674,0.259847,0.389696,0.129051,0.104263,inf,inf,inf,inf,1,1,1,1,2,0,2,1,4,1,1,0
118741609,48542209,34.0356552,108.7574837,-2.97166,-4.63009,-0.574331,0.0175174,0.00542605,0.0,-0.00300864,0.0093617,0.0457346,-0.0319544,0.135211,-0.0844075,0.0647244,0.539881,-1.91727,1.55162,-1.68508,0.013048,418.853,0.153427,0.269255,0.392156,0.134011,0.105864,inf,inf,inf,inf,1,1,1,1,2,0,2,1,4,1,1,0
118835901,48542209,34.0356552,108.7574837,-2.96993,-4.6321,-0.574172,0.0175174,0.00542605,0.0,0.0040606,0.0133842,0.041775,-0.0324776,0.135211,-0.0844075,0.0647244,0.176914,0.496634,-1.57391,-1.68238,0.013048,418.853,0.153268,0.259613,0.388965,0.128989,0.104168,inf,inf,inf,inf,1,1,1,1,2,0,2,1,4,1,1,0
118935224,48542209,34.0356552,108.7574837,-2.96738,-4.63483,-0.574787,0.0175174,0.00542605,0.0,-0.00612814,0.0222862,0.0513289,-0.0203782,0.135211,-0.0844075,0.0647244,1.91927,0.642834,0.341298,-1.68012,0.013048,418.853,0.153883,0.268133,0.390739,0.133526,0.105572,inf,inf,inf,inf,1,1,1,1,2,0,2,1,4,1,1,0
119034716,48542209,34.0356552,108.7574837,-2.96522,-4.63578,-0.575689,0.0175174,0.00542605,0.0,-0.00809103,0.0306507,0.0570316,-0.0131308,0.135211,-0.0844075,0.0647244,0.164723,-0.618657,1.65845,-1.67653,0.013048,418.853,0.154786,0.259456,0.388251,0.129175,0.10409,inf,inf,inf,inf,1,1,1,1,2,0,2,1,4,1,1,0
119133867,48542209,34.0356552,108.7574837,-2.96203,-4.63712,-0.576381,0.0175174,0.00542605,0.0,-0.00638745,0.0412659,0.0416259,-0.0271881,0.135211,-0.0844075,0.0647244,-4.43254,1.14125,-1.83797,-1.6733,0.013048,418.853,0.155478,0.267986,0.392476,0.133674,0.105764,inf,inf,inf,inf,1,1,1,1,2,0,2,1,4,1,1,0
119233198,48542209,34.0356552,108.7574837,-2.95829,-4.63726,-0.576688,0.0175174,0.00542605,0.0,0.0123387,0.0365868,0.0491759,-0.0178389,0.135211,-0.0844075,0.0647244,1.9712,-0.0842815,0.522607,-1.66845,0.013048,418.853,0.155784,0.259262,0.389963,0.129199,0.104276,inf,inf,inf,inf,1,1,1,1,2,0,2,1,4,1,1,0
