timestamp,lat,lon,alt,alt_ellipsoid,delta_alt,eph,epv,terrain_alt,lat_lon_reset_counter,alt_reset_counter,terrain_alt_valid,dead_reckoning
99736394,34.0356226441,108.757438718,419.418,390.462,-0.0,1.4508,1.94751,419.331,2,0,1,0
99746323,34.0356226472,108.757438713,419.418,390.463,-0.0,1.45097,1.94764,419.331,2,0,1,0
99935033,34.0356227255,108.757438603,419.427,390.488,-0.0,1.45071,1.94744,419.34,2,0,1,0
100133674,34.0356228236,108.75743845,419.432,390.509,-0.0,1.45063,1.94784,419.336,2,0,1,0
100332313,34.0356229183,108.757438283,419.434,390.527,-0.0,1.45055,1.94776,419.334,2,0,1,0
100535925,34.0356230083,108.757438117,419.437,390.547,-0.0,1.45047,1.94769,419.344,2,0,1,0
100734566,34.0356231033,108.757437969,419.439,390.567,-0.0,1.45038,1.94761,419.341,2,0,1,0
100933208,34.0356231993,108.75743781,419.437,390.582,-0.0,1.45029,1.948,419.333,2,0,1,0
101131850,34.0356232865,108.757437657,419.439,390.602,-0.0,1.45021,1.94792,419.345,2,0,1,0
101340424,34.0356233724,108.757437513,419.446,390.628,-0.0,1.45029,1.94797,419.354,2,0,1,0
101529289,34.0356234468,108.757437411,419.451,390.651,-0.0,1.45004,1.94823,419.353,2,0,1,0
101732764,34.0356235405,108.757437328,419.46,390.678,-0.0,1.44996,1.94814,419.371,2,0,1,0
101936350,34.035623655,108.75743724,419.468,390.704,-0.0,1.44989,1.94805,419.37,2,0,1,0
102139960,34.0356237604,108.757437142,419.476,390.73,-0.0,1.44984,1.94796,419.38,2,0,1,0
102338765,34.0356238436,108.757437059,419.484,390.756,-0.0,1.44977,1.94835,419.385,2,0,1,0
102537252,34.0356239231,108.757436992,419.488,390.777,-0.0,1.44974,1.94826,419.385,2,0,1,0
102735884,34.0356240188,108.757436934,419.488,390.795,-0.0,1.44969,1.94815,419.379,2,0,1,0
102934526,34.0356241137,108.757436869,419.486,390.811,-0.0,1.44965,1.94853,419.377,2,0,1,0
103133335,34.0356241909,108.757436795,419.481,390.824,-0.0,1.44963,1.94842,419.369,2,0,1,0
103336776,34.0356242694,108.757436701,419.469,390.83,-0.0,1.44965,1.94833,419.354,2,0,1,0
103540434,34.0356243619,108.757436583,419.455,390.834,-0.0,1.44966,1.94871,419.342,2,0,1,0
103739026,34.0356244557,108.757436473,419.444,390.841,-0.0,1.44967,1.94859,419.341,2,0,1,0
103937755,34.0356245236,108.757436361,419.438,390.855,-0.0,1.44968,1.94846,419.342,2,0,1,0
104136320,34.0356246023,108.757436274,419.427,390.863,-0.0,1.44967,1.94882,419.322,2,0,1,0
104334953,34.0356246774,108.757436223,419.413,390.869,-0.0,1.44966,1.94869,419.311,2,0,1,0
104533596,34.0356247634,108.757436171,419.405,390.88,-0.0,1.44964,1.94855,419.313,2,0,1,0
104732265,34.0356248448,108.757436105,419.405,390.901,-0.0,1.44964,1.94891,419.322,2,0,1,0
104935846,34.0356249125,108.757436049,419.403,390.919,-0.0,1.44964,1.94877,419.313,2,0,1,0
105134521,34.0356249663,108.757435964,419.397,390.933,-0.0,1.44966,1.94864,419.305,2,0,1,0
105338097,34.0356250316,108.75743592,419.389,390.946,-0.0,1.44968,1.9485,419.294,2,0,1,0
105536799,34.0356250792,108.757435891,419.381,390.957,-0.0,1.44967,1.94886,419.286,2,0,1,0
105735382,34.0356251072,108.757435828,419.375,390.971,-0.0,1.44968,1.94872,419.287,2,0,1,0
105938990,34.0356251437,108.757435781,419.374,390.99,-0.0,1.44969,1.94859,419.292,2,0,1,0
106137632,34.0356251992,108.757435728,419.375,391.011,-0.0,1.44969,1.94845,419.294,2,0,1,0
106336275,34.035625261,108.757435668,419.377,391.033,-0.0,1.44969,1.94881,419.291,2,0,1,0
106534952,34.0356253138,108.757435635,419.382,391.058,-0.0,1.44968,1.94867,419.302,2,0,1,0
106733560,34.0356253653,108.757435637,419.395,391.091,-0.0,1.44967,1.94854,419.323,2,0,1,0
106937169,34.0356254217,108.757435611,419.405,391.121,-0.0,1.44966,1.94889,419.32,2,0,1,0
107135813,34.0356254885,108.757435566,419.413,391.149,-0.0,1.44964,1.94875,419.326,2,0,1,0
107334454,34.035625565,108.757435525,419.412,391.168,-0.0,1.44964,1.94861,419.311,2,0,1,0
107533096,34.0356256429,108.757435466,419.41,391.186,-0.0,1.44963,1.94896,419.313,2,0,1,0
107731742,34.0356257189,108.757435404,419.413,391.209,-0.0,1.44962,1.94881,419.322,2,0,1,0
107940310,34.0356257818,108.757435349,419.416,391.231,-0.0,1.44978,1.9488,419.321,2,0,1,0
108133990,34.035625838,108.757435338,419.417,391.252,-0.0,1.44961,1.94901,419.322,2,0,1,0
108342565,34.035625893,108.757435312,419.419,391.275,-0.0,1.44977,1.94899,419.326,2,0,1,0
108531435,34.035625943,108.757435271,419.425,391.301,-0.0,1.44961,1.9487,419.338,2,0,1,0
108734885,34.0356259995,108.757435232,419.427,391.322,-0.0,1.4496,1.94904,419.328,2,0,1,0
108933532,34.0356260579,108.757435187,419.426,391.342,-0.0,1.44959,1.94889,419.327,2,0,1,0
109137137,34.0356261271,108.75743515,419.426,391.361,-0.0,1.44959,1.94874,419.327,2,0,1,0
109335978,34.0356261935,108.757435115,419.431,391.387,-0.0,1.44956,1.94859,419.327,2,0,1,0
109539388,34.0356262672,108.757435076,419.44,391.415,-0.0,1.44955,1.94894,419.327,2,0,1,0
109738073,34.0356263285,108.757435019,419.447,391.442,-0.0,1.44954,1.9488,419.327,2,0,1,0
109936674,34.0356263713,108.757434956,419.447,391.462,-0.0,1.44953,1.94866,419.327,2,0,1,0
110135487,34.0356263922,108.757434912,419.445,391.48,-0.0,1.44953,1.94851,419.327,2,0,1,0
110333960,34.0356264165,108.757434863,419.443,391.498,-0.0,1.44954,1.94886,419.327,2,0,1,0
110537569,34.0356264438,108.757434809,419.44,391.515,-0.0,1.44955,1.94872,419.327,2,0,1,0
110736213,34.0356264902,108.757434733,419.44,391.535,-0.0,1.44955,1.94858,419.327,2,0,1,0
110934920,34.0356265576,108.757434645,419.443,391.558,-0.0,1.44956,1.94893,419.327,2,0,1,0
111133499,34.0356266084,108.757434546,419.439,391.575,-0.0,1.44958,1.94878,419.327,2,0,1,0
111342073,34.0356266547,108.757434463,419.433,391.589,-0.0,1.44976,1.94876,419.327,2,0,1,0
111535757,34.0356267216,108.757434424,419.428,391.603,-0.0,1.44958,1.94897,419.327,2,0,1,0
111734421,34.0356267973,108.757434398,419.424,391.62,-0.0,1.44957,1.94882,419.327,2,0,1,0
111933088,34.0356268777,108.757434377,419.423,391.638,-0.0,1.44956,1.94867,419.327,2,0,1,0
112136646,34.0356269446,108.757434353,419.42,391.655,-0.0,1.44956,1.94853,419.324,2,0,1,0
112335307,34.0356270131,108.757434312,419.422,391.677,-0.0,1.44957,1.94887,419.324,2,0,1,0
112533937,34.0356270748,108.757434274,419.424,391.699,-0.0,1.44958,1.94872,419.324,2,0,1,0
112742508,34.0356271491,108.75743423,419.422,391.717,-0.0,1.44976,1.94919,419.323,2,0,1,0
112941151,34.0356272457,108.757434184,419.424,391.74,-0.0,1.44973,1.94903,419.323,2,0,1,0
113134828,34.035627325,108.757434176,419.421,391.756,-0.0,1.44957,1.94873,419.321,2,0,1,0
113333488,34.0356274053,108.757434193,419.41,391.765,-0.0,1.44962,1.9486,419.304,2,0,1,0
113537081,34.0356274773,108.757434207,419.401,391.776,-0.0,1.44977,1.94904,419.3,2,0,1,0
113735725,34.0356275202,108.757434179,419.392,391.787,-0.0,1.44991,1.94896,419.294,2,0,1,0
113934368,34.0356275303,108.757434153,419.381,391.796,-0.0,1.44994,1.9488,419.282,2,0,1,0
114133011,34.035627527,108.757434144,419.377,391.812,-0.0,1.44997,1.94914,0.0,2,0,0,0
114336621,34.0356275522,108.757434118,419.375,391.83,-0.0,1.44997,1.94898,0.0,2,0,0,0
114535264,34.0356275826,108.757434082,419.376,391.851,-0.0,1.44997,1.94883,0.0,2,0,0,0
114733911,34.0356276122,108.757434085,419.379,391.875,-0.0,1.44996,1.94868,0.0,2,0,0,0
114932551,34.0356276582,108.757434101,419.38,391.895,-0.0,1.44992,1.94902,0.0,2,0,0,0
115131199,34.0356277205,108.757434091,419.377,391.913,-0.0,1.44988,1.94886,0.0,2,0,0,0
115334804,34.0356277899,108.757434053,419.369,391.925,-0.0,1.44982,1.94871,0.0,2,0,0,0
115533624,34.0356278665,108.757434023,419.365,391.94,-0.0,1.44976,1.94856,0.0,2,0,0,0
115742023,34.0356279412,108.757434,419.367,391.962,-0.0,1.44988,1.94904,0.0,2,0,0,0
115935701,34.0356279987,108.757433969,419.371,391.986,-0.0,1.44967,1.94875,0.0,2,0,0,0
116134345,34.0356280698,108.75743397,419.375,392.01,-0.0,1.44963,1.94861,0.0,2,0,0,0
116333117,34.0356281378,108.757433938,419.377,392.032,-0.0,1.44958,1.94896,0.0,2,0,0,0
116536600,34.0356282001,108.757433892,419.378,392.053,-0.0,1.44953,1.94881,0.0,2,0,0,0
116735303,34.0356282559,108.75743383,419.376,392.071,-0.0,1.44949,1.94867,0.0,2,0,0,0
116938853,34.0356283085,108.757433786,419.373,392.087,-0.0,1.44944,1.94853,0.0,2,0,0,0
117137607,34.0356283345,108.757433752,419.372,392.107,-0.0,1.4494,1.94888,0.0,2,0,0,0
117336139,34.035628372,108.757433727,419.371,392.125,-0.0,1.44936,1.94874,0.0,2,0,0,0
117534783,34.0356283946,108.757433678,419.373,392.148,-0.0,1.44932,1.9486,0.0,2,0,0,0
117733427,34.0356283942,108.757433634,419.382,392.176,-0.0,1.44927,1.94846,0.0,2,0,0,0
117932123,34.0356283869,108.757433605,419.392,392.207,-0.0,1.44923,1.94881,0.0,2,0,0,0
118135681,34.0356283841,108.757433575,419.402,392.237,-0.0,1.44919,1.94867,0.0,2,0,0,0
118334325,34.0356284037,108.757433537,419.416,392.271,-0.0,1.44916,1.94853,0.0,2,0,0,0
118532971,34.0356284373,108.757433501,419.426,392.302,-0.0,1.4491,1.94887,0.0,2,0,0,0
118741609,34.0356284752,108.757433453,419.427,392.321,-0.0,1.44923,1.94886,0.0,2,0,0,0
118935224,34.0356285137,108.757433401,419.428,392.34,-0.0,1.44902,1.94858,0.0,2,0,0,0
119133867,34.0356285618,108.757433376,419.429,392.36,-0.0,1.449,1.94893,0.0,2,0,0,0
119332511,34.0356286321,108.757433371,419.431,392.38,-0.0,1.44896,1.94878,0.0,2,0,0,0
119541163,34.035628715,108.757433371,419.431,392.399,-0.0,1.44909,1.94877,0.0,2,0,0,0
119734765,34.035628784,108.757433353,419.437,392.423,-0.0,1.44889,1.94898,0.0,2,0,0,0
119938375,34.0356288708,108.757433292,419.45,392.454,-0.0,1.44886,1.94883,0.0,2,0,0,0
120137019,34.0356289807,108.757433279,419.457,392.479,-0.0,1.44883,1.94868,0.0,2,0,0,0
120335688,34.0356290673,108.757433296,419.462,392.502,-0.0,1.44878,1.94901,0.0,2,0,0,0
120534308,34.0356291412,108.757433294,419.469,392.525,-0.0,1.44877,1.94886,0.0,2,0,0,0
120737923,34.0356292162,108.75743332,419.475,392.548,-0.0,1.44874,1.94871,0.0,2,0,0,0
120936562,34.0356292794,108.75743338,419.477,392.568,-0.0,1.44871,1.94856,0.0,2,0,0,0
121135238,34.0356293784,108.757433403,419.485,392.592,-0.0,1.44867,1.9489,0.0,2,0,0,0
121338817,34.0356295243,108.75743341,419.488,392.611,-0.0,1.44865,1.94875,0.0,2,0,0,0
121537461,34.0356297214,108.757433395,419.491,392.627,-0.0,1.44863,1.9486,0.0,2,0,0,0
121736106,34.0356299608,108.75743333,419.486,392.638,-0.0,1.44861,1.94895,0.0,2,0,0,0
121934750,34.0356302254,108.757433199,419.48,392.646,-0.0,1.44857,1.9488,0.0,2,0,0,0
122133394,34.0356304841,108.757433023,419.483,392.661,-0.0,1.44855,1.94866,0.0,2,0,0,0
122341972,34.0356307571,108.757432783,419.512,392.702,-0.0,1.4487,1.94865,0.0,2,0,0,0
122530837,34.035630981,108.757432531,419.565,392.767,-0.0,1.44851,1.94886,0.0,2,0,0,0
122734293,34.0356311951,108.757432223,419.631,392.844,-0.0,1.44849,1.94871,0.0,2,0,0,0
122932982,34.0356313361,108.757431858,419.695,392.918,-0.0,1.44847,1.94857,0.0,2,0,0,0
123136549,34.0356315036,108.757431426,419.749,392.979,-0.0,1.44845,1.94891,0.0,2,0,0,0
123335333,34.0356316567,108.757431047,419.808,393.047,-0.0,1.44844,1.94877,0.0,2,0,0,0
123533838,34.0356318228,108.757430689,419.871,393.116,-0.0,1.44845,1.94862,0.0,2,0,0,0
123737448,34.0356320103,108.757430296,419.938,393.19,-0.0,1.44845,1.94896,0.0,2,0,0,0
123936093,34.0356321333,108.757429927,420.021,393.28,-0.0,1.44845,1.9488,0.0,2,0,0,0
124134838,34.0356322565,108.757429641,420.116,393.383,-0.0,1.44843,1.94914,0.0,2,0,0,0
124333382,34.0356322979,108.757429422,420.217,393.492,-0.0,1.44841,1.94898,0.0,2,0,0,0
124536994,34.0356320481,108.757429311,420.302,393.584,-0.0,1.44839,1.94882,0.0,2,0,0,0
124735638,34.035631553,108.757429242,420.362,393.651,-0.0,1.44838,1.94866,0.0,2,0,0,0
124934345,34.0356309837,108.757429159,420.418,393.711,-0.0,1.44835,1.949,0.0,2,0,0,0
125137893,34.0356304793,108.757429094,420.482,393.78,-0.0,1.44834,1.94885,0.0,2,0,0,0
125336538,34.0356299854,108.757429071,420.545,393.846,-0.0,1.44832,1.9487,0.0,2,0,0,0
125535187,34.035629586,108.757429139,420.624,393.928,-0.0,1.4483,1.94855,0.0,2,0,0,0
125733903,34.0356294446,108.757429142,420.717,394.024,-0.0,1.44827,1.94889,0.0,2,0,0,0
125932487,34.0356295902,108.75742902,420.813,394.121,-0.0,1.44825,1.94874,0.0,2,0,0,0
126136083,34.0356298447,108.757428795,420.905,394.213,-0.0,1.44821,1.94859,0.0,2,0,0,0
126334728,34.0356300334,108.757428581,420.983,394.289,-0.0,1.44817,1.94894,0.0,2,0,0,0
126533373,34.0356302471,108.757428353,421.053,394.357,-0.0,1.44814,1.94879,0.0,2,0,0,0
126736984,34.0356305065,108.757428268,421.124,394.426,-0.0,1.44807,1.94864,0.0,2,0,0,0
126935629,34.0356307577,108.757428293,421.2,394.5,-0.0,1.44797,1.9485,0.0,2,0,0,0
127139244,34.0356309695,108.757428281,421.283,394.581,-0.0,1.44785,1.94885,0.0,2,0,0,0
127337935,34.0356311655,108.757428347,421.367,394.663,-0.0,1.44772,1.94871,0.0,2,0,0,0
127536530,34.0356313863,108.757428442,421.449,394.742,-0.0,1.4476,1.94857,0.0,2,0,0,0
127735175,34.0356316712,108.757428579,421.515,394.806,-0.0,1.44749,1.94843,0.0,2,0,0,0
127938786,34.0356319963,108.757428785,421.583,394.871,-0.0,1.4474,1.94878,0.0,2,0,0,0
128137432,34.0356323271,108.757428997,421.669,394.952,-0.0,1.44735,1.94863,0.0,2,0,0,0
128336139,34.0356325976,108.757429184,421.768,395.046,-0.0,1.44734,1.94849,0.0,2,0,0,0
128534724,34.0356328695,108.757429266,421.882,395.155,-0.0,1.44735,1.94884,0.0,2,0,0,0
128733370,34.0356330976,108.757429414,421.991,395.26,-0.0,1.44739,1.9487,0.0,2,0,0,0
128932015,34.0356332932,108.757429496,422.082,395.347,-0.0,1.44743,1.94855,0.0,2,0,0,0
129130667,34.0356334687,108.757429379,422.146,395.406,-0.0,1.44749,1.94889,0.0,2,0,0,0
129334269,34.0356336563,108.757429173,422.187,395.442,-0.0,1.44768,1.94884,0.0,2,0,0,0
129533079,34.0356338583,108.757428966,422.211,395.46,-0.0,1.44776,1.94868,0.0,2,0,0,0
129741491,34.0356340759,108.757428731,422.215,395.457,-0.0,1.44803,1.94867,0.0,2,0,0,0
129935171,34.0356342533,108.75742854,422.19,395.426,-0.0,1.44815,1.94901,0.0,2,0,0,0
130133816,34.0356343915,108.757428362,422.157,395.386,-0.0,1.44828,1.94886,0.0,2,0,0,0
130332584,34.0356344901,108.75742823,422.119,395.341,-0.0,1.44865,1.94889,0.0,2,0,0,0
130536075,34.0356345981,108.75742814,422.072,395.286,-0.0,1.44873,1.94923,0.0,2,0,0,0
130734718,34.0356346996,108.757428058,422.023,395.229,-0.0,1.44879,1.94907,0.0,2,0,0,0
130938330,34.0356347804,108.757428013,421.982,395.179,-0.0,1.44884,1.94891,0.0,2,0,0,0
131137082,34.0356348574,108.757427973,421.939,395.127,-0.0,1.44887,1.94875,0.0,2,0,0,0
131335621,34.0356349551,108.757427993,421.907,395.086,-0.0,1.44889,1.9491,0.0,2,0,0,0
131534267,34.0356350187,108.757428077,421.884,395.055,-0.0,1.44892,1.94894,0.0,2,0,0,0
131737878,34.0356350415,108.757428154,421.858,395.019,-0.0,1.44891,1.94879,0.0,2,0,0,0
131936660,34.0356350323,108.757428206,421.834,394.986,-0.0,1.44887,1.94914,0.0,2,0,0,0
132135169,34.0356349865,108.757428169,421.822,394.965,-0.0,1.44883,1.94898,0.0,2,0,0,0
132333814,34.0356348953,108.75742796,421.814,394.947,-0.0,1.44875,1.94883,0.0,2,0,0,0
132532460,34.0356347552,108.7574276,421.809,394.932,-0.0,1.44873,1.94868,0.0,2,0,0,0
132741098,34.035634608,108.757427163,421.803,394.917,-0.0,1.44888,1.94916,0.0,2,0,0,0
132934718,34.0356344867,108.757426786,421.801,394.904,-0.0,1.44868,1.94887,0.0,2,0,0,0
133138368,34.0356343762,108.757426374,421.805,394.897,-0.0,1.44866,1.94872,0.0,2,0,0,0
133336976,34.0356342859,108.757425846,421.814,394.895,-0.0,1.44863,1.94906,0.0,2,0,0,0
133535626,34.035634232,108.757425118,421.821,394.891,-0.0,1.44859,1.94891,0.0,2,0,0,0
133734267,34.0356341776,108.757424262,421.826,394.884,-0.0,1.44855,1.94876,0.0,2,0,0,0
133937878,34.0356341608,108.757423348,421.833,394.88,-0.0,1.44849,1.9491,0.0,2,0,0,0
134136524,34.0356342022,108.757422484,421.842,394.878,-0.0,1.44846,1.94895,0.0,2,0,0,0
134335219,34.0356342529,108.757421636,421.846,394.87,-0.0,1.44842,1.9488,0.0,2,0,0,0
134538785,34.0356343521,108.757420903,421.854,394.866,-0.0,1.44839,1.94865,0.0,2,0,0,0
134737429,34.0356344617,108.757420257,421.867,394.867,-0.0,1.44835,1.949,0.0,2,0,0,0
134936082,34.0356345691,108.757419653,421.882,394.87,-0.0,1.44832,1.94885,0.0,2,0,0,0
135134720,34.0356346774,108.757419042,421.894,394.872,-0.0,1.44828,1.9487,0.0,2,0,0,0
135333366,34.0356347637,108.757418189,421.908,394.873,-0.0,1.44824,1.94856,0.0,2,0,0,0
135536978,34.0356348303,108.757416872,421.924,394.877,-0.0,1.44821,1.94891,0.0,2,0,0,0
135735624,34.0356348959,108.757415127,421.954,394.895,-0.0,1.44817,1.94876,0.0,2,0,0,0
135934270,34.0356349307,108.757412979,421.98,394.91,-0.0,1.44814,1.94862,0.0,2,0,0,0
136132916,34.0356349505,108.757410598,422.001,394.918,-0.0,1.44811,1.94897,0.0,2,0,0,0
136341494,34.0356349494,108.757408039,422.023,394.927,-0.0,1.44825,1.94896,0.0,2,0,0,0
136530417,34.0356349668,108.757405753,422.058,394.95,-0.0,1.44806,1.94868,0.0,2,0,0,0
136733820,34.0356350607,108.757403409,422.109,394.989,-0.0,1.44804,1.94853,0.0,2,0,0,0
136932466,34.0356352535,108.75740121,422.156,395.022,-0.0,1.44801,1.94889,0.0,2,0,0,0
137136078,34.0356355078,108.757399033,422.209,395.061,-0.0,1.448,1.94874,0.0,2,0,0,0
137334857,34.0356357565,108.757396879,422.264,395.102,-0.0,1.44796,1.9486,0.0,2,0,0,0
137533371,34.0356359874,108.757394605,422.322,395.145,-0.0,1.44794,1.94847,0.0,2,0,0,0
137736983,34.0356362188,108.757392261,422.378,395.186,-0.0,1.44793,1.94882,0.0,2,0,0,0
137935633,34.0356364244,108.75739019,422.427,395.219,-0.0,1.44793,1.94868,0.0,2,0,0,0
138134374,34.0356366312,108.757388228,422.466,395.241,-0.0,1.44792,1.94854,0.0,2,0,0,0
138337891,34.0356368786,108.757386225,422.49,395.248,-0.0,1.44789,1.9484,0.0,2,0,0,0
138531568,34.0356371078,108.757384271,422.484,395.227,-0.0,1.44774,1.94862,0.0,2,0,0,0
138740148,34.0356372968,108.757382008,422.439,395.166,-0.0,1.44789,1.94863,0.0,2,0,0,0
138938933,34.0356374022,108.757379683,422.371,395.083,-0.0,1.44789,1.94849,0.0,2,0,0,0
139137440,34.0356375245,108.75737726,422.293,394.99,-0.0,1.44789,1.94885,0.0,2,0,0,0
139336087,34.0356377501,108.757374828,422.229,394.91,-0.0,1.44788,1.94872,0.0,2,0,0,0
139534732,34.035638015,108.757372573,422.204,394.868,-0.0,1.44787,1.94858,0.0,2,0,0,0
139733408,34.0356383296,108.757370497,422.205,394.852,-0.0,1.44784,1.94844,0.0,2,0,0,0
139932045,34.0356386122,108.757368426,422.197,394.824,-0.0,1.44783,1.9488,0.0,2,0,0,0
140130672,34.0356388214,108.757366293,422.199,394.807,-0.0,1.44782,1.94865,0.0,2,0,0,0
140339251,34.0356389593,108.75736398,422.212,394.8,-0.0,1.44797,1.94864,0.0,2,0,0,0
140537904,34.0356391063,108.757361686,422.241,394.809,-0.0,1.44796,1.94899,0.0,2,0,0,0
140741512,34.0356392869,108.75735926,422.282,394.83,-0.0,1.44795,1.94884,0.0,2,0,0,0
140935192,34.035639435,108.757356911,422.331,394.858,-0.0,1.44779,1.94856,0.0,2,0,0,0
141138803,34.0356396209,108.757354514,422.394,394.902,-0.0,1.44778,1.94891,0.0,2,0,0,0
141337475,34.0356398565,108.757352283,422.482,394.969,-0.0,1.44777,1.94877,0.0,2,0,0,0
141536098,34.0356400193,108.757350222,422.595,395.061,-0.0,1.44777,1.94863,0.0,2,0,0,0
141739709,34.0356401609,108.757348217,422.704,395.152,-0.0,1.44778,1.94849,0.0,2,0,0,0
141938356,34.0356402342,108.757346267,422.773,395.2,-0.0,1.44777,1.94884,0.0,2,0,0,0
142137003,34.0356403693,108.757344232,422.805,395.213,-0.0,1.44777,1.9487,0.0,2,0,0,0
142335650,34.0356405808,108.757342214,422.823,395.21,-0.0,1.44777,1.94857,0.0,2,0,0,0
142534297,34.0356407662,108.757340133,422.835,395.203,-0.0,1.44777,1.94843,0.0,2,0,0,0
142733185,34.035640922,108.75733796,422.861,395.209,-0.0,1.44777,1.94879,0.0,2,0,0,0
142936556,34.0356410852,108.757335766,422.899,395.227,-0.0,1.44777,1.94865,0.0,2,0,0,0
143135205,34.0356412562,108.757333733,422.938,395.246,-0.0,1.44777,1.94851,0.0,2,0,0,0
143333863,34.0356414082,108.757331836,422.975,395.263,-0.0,1.44777,1.94887,0.0,2,0,0,0
143542430,34.0356415245,108.757330006,423.004,395.272,-0.0,1.44792,1.94886,0.0,2,0,0,0
143741076,34.0356415683,108.75732835,423.01,395.258,-0.0,1.44792,1.94873,0.0,2,0,0,0
143939723,34.0356415876,108.757326835,422.998,395.226,-0.0,1.44789,1.94858,0.0,2,0,0,0
144133406,34.0356416192,108.757325483,422.975,395.182,-0.0,1.4477,1.94879,0.0,2,0,0,0
144332167,34.0356416495,108.757324128,422.939,395.126,-0.0,1.44768,1.94864,0.0,2,0,0,0
144530698,34.035641688,108.757322803,422.9,395.066,-0.0,1.44766,1.9485,0.0,2,0,0,0
144734311,34.0356417226,108.757321604,422.854,395.002,-0.0,1.44766,1.94884,0.0,2,0,0,0
144937924,34.0356417373,108.757320498,422.804,394.931,-0.0,1.44765,1.9487,0.0,2,0,0,0
145136682,34.0356417565,108.757319487,422.766,394.874,-0.0,1.44765,1.94856,0.0,2,0,0,0
145335218,34.0356417411,108.757318521,422.739,394.827,-0.0,1.44766,1.94842,0.0,2,0,0,0
145533867,34.0356417703,108.757317617,422.714,394.782,-0.0,1.44768,1.94877,0.0,2,0,0,0
145737479,34.0356418045,108.757316614,422.687,394.734,-0.0,1.44767,1.94863,0.0,2,0,0,0
145936191,34.0356417624,108.75731548,422.655,394.683,-0.0,1.44768,1.94849,0.0,2,0,0,0
146134773,34.0356416212,108.757314094,422.621,394.629,-0.0,1.4477,1.94884,0.0,2,0,0,0
146333420,34.0356414568,108.757312524,422.594,394.582,-0.0,1.44772,1.94871,0.0,2,0,0,0
146542003,34.035641253,108.757310877,422.56,394.528,-0.0,1.44791,1.94871,0.0,2,0,0,0
146740754,34.0356410492,108.757309368,422.528,394.476,-0.0,1.44792,1.94857,0.0,2,0,0,0
146934328,34.035640853,108.757307934,422.51,394.438,-0.0,1.44776,1.94878,0.0,2,0,0,0
147132975,34.0356406545,108.757306451,422.495,394.404,-0.0,1.44779,1.94864,0.0,2,0,0,0
147336590,34.0356404376,108.757304851,422.484,394.373,-0.0,1.44783,1.94851,0.0,2,0,0,0
147535293,34.0356402701,108.75730316,422.471,394.34,-0.0,1.44787,1.94885,0.0,2,0,0,0
147733885,34.0356401932,108.757301397,422.459,394.31,-0.0,1.44793,1.94871,0.0,2,0,0,0
147937497,34.0356402729,108.757299606,422.445,394.277,-0.0,1.44798,1.94905,0.0,2,0,0,0
148136145,34.0356404144,108.757297907,422.431,394.245,-0.0,1.44803,1.9489,0.0,2,0,0,0
148334852,34.0356405012,108.757296257,422.419,394.216,-0.0,1.44808,1.94875,0.0,2,0,0,0
148538406,34.0356406557,108.757294597,422.404,394.182,-0.0,1.4481,1.94908,0.0,2,0,0,0
148737056,34.0356408652,108.757292981,422.382,394.143,-0.0,1.44815,1.94893,0.0,2,0,0,0
148935701,34.0356411092,108.757291313,422.363,394.107,-0.0,1.44818,1.94878,0.0,2,0,0,0
149134349,34.0356413157,108.757289447,422.343,394.07,-0.0,1.44819,1.94862,0.0,2,0,0,0
149337962,34.0356414908,108.757287338,422.322,394.032,-0.0,1.4482,1.94896,0.0,2,0,0,0
149536611,34.0356416182,108.757285085,422.295,393.986,-0.0,1.44821,1.94881,0.0,2,0,0,0
149735257,34.0356417371,108.757282846,422.268,393.942,-0.0,1.44819,1.94867,0.0,2,0,0,0
149933907,34.0356418746,108.757280721,422.255,393.913,-0.0,1.44817,1.94852,0.0,2,0,0,0
150132553,34.0356421007,108.757278689,422.25,393.892,-0.0,1.44818,1.94886,0.0,2,0,0,0
150336168,34.0356423098,108.757276682,422.238,393.862,-0.0,1.44816,1.94871,0.0,2,0,0,0
150534993,34.0356424657,108.757274815,422.22,393.828,-0.0,1.44818,1.94856,0.0,2,0,0,0
150733462,34.0356426014,108.757273031,422.195,393.787,-0.0,1.44822,1.94891,0.0,2,0,0,0
150932110,34.0356427553,108.757271321,422.172,393.746,-0.0,1.44825,1.94877,0.0,2,0,0,0
151140690,34.0356428953,108.757269639,422.16,393.717,-0.0,1.44845,1.94876,0.0,2,0,0,0
151339487,34.035642992,108.757268063,422.144,393.684,-0.0,1.44849,1.94861,0.0,2,0,0,0
151533025,34.035643108,108.757266467,422.118,393.641,-0.0,1.44835,1.94882,0.0,2,0,0,0
151736633,34.0356432361,108.757264661,422.085,393.591,-0.0,1.44839,1.94868,0.0,2,0,0,0
151935284,34.0356433268,108.757262732,422.054,393.544,-0.0,1.44842,1.94854,0.0,2,0,0,0
152134021,34.0356433324,108.75726074,422.03,393.501,-0.0,1.44845,1.9484,0.0,2,0,0,0
152337543,34.0356432947,108.757258688,421.995,393.449,-0.0,1.44848,1.94875,0.0,2,0,0,0
152536191,34.0356433435,108.757256722,421.968,393.406,-0.0,1.44852,1.94861,0.0,2,0,0,0
152734839,34.0356434183,108.757254859,421.953,393.374,-0.0,1.44855,1.94848,0.0,2,0,0,0
152933542,34.0356434975,108.757253085,421.945,393.35,-0.0,1.44858,1.94883,0.0,2,0,0,0
153137101,34.0356436,108.757251322,421.938,393.326,-0.0,1.4486,1.94869,0.0,2,0,0,0
153335750,34.0356437527,108.757249634,421.935,393.307,-0.0,1.44865,1.94856,0.0,2,0,0,0
153534397,34.0356438948,108.757248026,421.927,393.281,-0.0,1.44867,1.94842,0.0,2,0,0,0
153733063,34.0356440106,108.757246512,421.909,393.246,-0.0,1.44868,1.94877,0.0,2,0,0,0
153931693,34.0356441318,108.757245056,421.886,393.205,-0.0,1.44869,1.94864,0.0,2,0,0,0
154140309,34.0356442863,108.757243511,421.864,393.166,-0.0,1.44887,1.94863,0.0,2,0,0,0
154333955,34.0356444109,108.757242059,421.845,393.131,-0.0,1.44871,1.94836,0.0,2,0,0,0
154542612,34.0356444911,108.757240466,421.83,393.1,-0.0,1.44889,1.94885,0.0,2,0,0,0
154736221,34.0356445076,108.757239057,421.82,393.076,-0.0,1.44872,1.94857,0.0,2,0,0,0
154939834,34.0356445413,108.757237708,421.816,393.06,-0.0,1.44874,1.94844,0.0,2,0,0,0
155138480,34.0356445108,108.757236442,421.824,393.054,-0.0,1.44874,1.94831,0.0,2,0,0,0
155337130,34.0356443285,108.757235251,421.839,393.057,-0.0,1.44876,1.94867,0.0,2,0,0,0
155535778,34.035643853,108.757234155,421.854,393.059,-0.0,1.44877,1.94854,0.0,2,0,0,0
155739391,34.0356431924,108.757233128,421.873,393.065,-0.0,1.44877,1.94841,0.0,2,0,0,0
155938040,34.0356425689,108.757232262,421.9,393.082,-0.0,1.44878,1.94828,0.0,2,0,0,0
156136688,34.0356419735,108.757231422,421.92,393.089,-0.0,1.44877,1.94863,0.0,2,0,0,0
156335337,34.0356413794,108.75723038,421.939,393.097,-0.0,1.44874,1.94849,0.0,2,0,0,0
156533986,34.0356408483,108.757229062,421.969,393.117,-0.0,1.44872,1.94884,0.0,2,0,0,0
156732636,34.0356403942,108.757227494,422.006,393.144,-0.0,1.4487,1.94869,0.0,2,0,0,0
156931282,34.0356399667,108.757225681,422.047,393.175,-0.0,1.44868,1.94855,0.0,2,0,0,0
157134896,34.035639602,108.757223674,422.084,393.204,-0.0,1.44865,1.94841,0.0,2,0,0,0
157333545,34.035639301,108.757221695,422.126,393.236,-0.0,1.44863,1.94876,0.0,2,0,0,0
157542139,34.0356391645,108.757219585,422.172,393.271,-0.0,1.44877,1.94876,0.0,2,0,0,0
157740774,34.0356394831,108.757217606,422.204,393.293,-0.0,1.44874,1.94862,0.0,2,0,0,0
157934507,34.0356401396,108.757215752,422.235,393.313,-0.0,1.44855,1.94883,0.0,2,0,0,0
158138071,34.0356408334,108.757213876,422.272,393.339,-0.0,1.44855,1.94869,0.0,2,0,0,0
158336903,34.0356413221,108.75721198,422.302,393.358,-0.0,1.44853,1.94856,0.0,2,0,0,0
158535369,34.0356416669,108.757209971,422.325,393.371,-0.0,1.44854,1.94842,0.0,2,0,0,0
158738980,34.0356420306,108.757207946,422.344,393.378,-0.0,1.44853,1.94877,0.0,2,0,0,0
158937679,34.0356423661,108.757206078,422.361,393.383,-0.0,1.44854,1.94864,0.0,2,0,0,0
159136394,34.0356424521,108.757204281,422.387,393.397,-0.0,1.44853,1.94851,0.0,2,0,0,0
159334929,34.0356423034,108.757202493,422.425,393.423,-0.0,1.44851,1.94837,0.0,2,0,0,0
159538569,34.0356421774,108.757200669,422.477,393.464,-0.0,1.44849,1.94873,0.0,2,0,0,0
159737195,34.0356420727,108.757198936,422.517,393.493,-0.0,1.44849,1.94859,0.0,2,0,0,0
159935907,34.0356418889,108.75719726,422.55,393.516,-0.0,1.44849,1.94845,0.0,2,0,0,0
160134490,34.0356416191,108.757195625,422.583,393.539,-0.0,1.44848,1.9488,0.0,2,0,0,0
160333140,34.0356413014,108.757194007,422.618,393.565,-0.0,1.44847,1.94866,0.0,2,0,0,0
160541720,34.0356410082,108.757192385,422.654,393.59,-0.0,1.4486,1.94865,0.0,2,0,0,0
160740473,34.0356408165,108.757190954,422.681,393.607,-0.0,1.44858,1.94851,0.0,2,0,0,0
160934053,34.0356406647,108.757189607,422.708,393.624,-0.0,1.44841,1.94873,0.0,2,0,0,0
161132701,34.03564054,108.757188155,422.73,393.636,-0.0,1.44837,1.94859,0.0,2,0,0,0
161331349,34.035640436,108.757186567,422.734,393.63,-0.0,1.44833,1.94845,0.0,2,0,0,0
161540010,34.0356402558,108.757184751,422.722,393.608,-0.0,1.44845,1.94844,0.0,2,0,0,0
161733646,34.0356400656,108.757182905,422.698,393.573,-0.0,1.44823,1.94865,0.0,2,0,0,0
161937230,34.0356398786,108.757180861,422.655,393.522,-0.0,1.44822,1.94852,0.0,2,0,0,0
162135885,34.0356397122,108.757178884,422.6,393.456,-0.0,1.44818,1.94838,0.0,2,0,0,0
162334529,34.0356395383,108.757176964,422.537,393.382,-0.0,1.44814,1.94873,0.0,2,0,0,0
162533176,34.0356393769,108.757175177,422.463,393.298,-0.0,1.44815,1.9486,0.0,2,0,0,0
162736798,34.0356391657,108.757173463,422.375,393.197,-0.0,1.44816,1.94846,0.0,2,0,0,0
162935441,34.0356389619,108.757171917,422.29,393.101,-0.0,1.44817,1.94833,0.0,2,0,0,0
163134089,34.0356387844,108.757170433,422.207,393.008,-0.0,1.4482,1.94868,0.0,2,0,0,0
163337705,34.0356386478,108.75716873,422.113,392.902,-0.0,1.44827,1.94856,0.0,2,0,0,0
163536355,34.0356384042,108.757166946,422.024,392.8,-0.0,1.44833,1.94891,0.0,2,0,0,0
163735003,34.0356382126,108.757165222,421.941,392.706,-0.0,1.44837,1.94876,0.0,2,0,0,0
163933654,34.0356379968,108.757163336,421.879,392.633,-0.0,1.44841,1.94861,0.0,2,0,0,0
164137270,34.0356377878,108.757161095,421.833,392.575,-0.0,1.44844,1.94895,0.0,2,0,0,0
164335922,34.0356376246,108.75715875,421.811,392.544,-0.0,1.44848,1.9488,0.0,2,0,0,0
164534737,34.0356378327,108.757156319,421.805,392.528,-0.0,1.44852,1.94865,0.0,2,0,0,0
164733216,34.0356384149,108.757153872,421.811,392.524,-0.0,1.44856,1.94851,0.0,2,0,0,0
164931885,34.0356390681,108.757151546,421.836,392.538,-0.0,1.44858,1.94886,0.0,2,0,0,0
165140447,34.0356396591,108.757149318,421.903,392.594,-0.0,1.44875,1.94884,0.0,2,0,0,0
165339250,34.0356402521,108.757147317,422.004,392.684,-0.0,1.44875,1.94869,0.0,2,0,0,0
165532779,34.0356408133,108.757145327,422.117,392.783,-0.0,1.44858,1.9489,0.0,2,0,0,0
165736395,34.035641339,108.757143203,422.227,392.881,-0.0,1.44857,1.94875,0.0,2,0,0,0
165935044,34.0356416806,108.757141172,422.311,392.953,-0.0,1.44857,1.9486,0.0,2,0,0,0
166133784,34.0356417678,108.757139145,422.372,393.003,-0.0,1.44857,1.94895,0.0,2,0,0,0
166337310,34.035641874,108.757137113,422.401,393.021,-0.0,1.44855,1.9488,0.0,2,0,0,0
166535959,34.0356420283,108.757135065,422.43,393.038,-0.0,1.44853,1.94865,0.0,2,0,0,0
166734605,34.0356422235,108.757132888,422.464,393.062,-0.0,1.4485,1.94899,0.0,2,0,0,0
166933307,34.0356424079,108.757130731,422.501,393.09,-0.0,1.44846,1.94884,0.0,2,0,0,0
167136874,34.0356426347,108.757128609,422.531,393.112,-0.0,1.44841,1.94868,0.0,2,0,0,0
167335524,34.0356428496,108.75712663,422.557,393.13,-0.0,1.44837,1.94854,0.0,2,0,0,0
167534174,34.035642999,108.75712469,422.582,393.147,-0.0,1.44833,1.94888,0.0,2,0,0,0
167732945,34.0356430864,108.757122766,422.598,393.156,-0.0,1.44828,1.94873,0.0,2,0,0,0
167931472,34.0356431363,108.757120873,422.607,393.159,-0.0,1.44823,1.94858,0.0,2,0,0,0
168140056,34.035643117,108.757118842,422.613,393.158,-0.0,1.44834,1.94857,0.0,2,0,0,0
168333738,34.0356430807,108.757117026,422.62,393.16,-0.0,1.44812,1.94878,0.0,2,0,0,0
168542343,34.0356429852,108.757115144,422.637,393.172,-0.0,1.44824,1.94877,0.0,2,0,0,0
168740971,34.0356428852,108.757113462,422.666,393.197,-0.0,1.44821,1.94863,0.0,2,0,0,0
168934653,34.0356427643,108.757111907,422.705,393.232,-0.0,1.44801,1.94884,0.0,2,0,0,0
169138269,34.035642642,108.757110338,422.749,393.272,-0.0,1.44798,1.9487,0.0,2,0,0,0
169336920,34.0356425216,108.757108824,422.793,393.312,-0.0,1.44794,1.94856,0.0,2,0,0,0
169535569,34.0356423812,108.757107166,422.827,393.341,-0.0,1.44791,1.94842,0.0,2,0,0,0
169739224,34.0356421824,108.757105234,422.862,393.372,-0.0,1.44788,1.94878,0.0,2,0,0,0
169937835,34.0356420056,108.757103285,422.908,393.416,-0.0,1.44785,1.94864,0.0,2,0,0,0
170136485,34.0356417557,108.757101388,422.956,393.461,-0.0,1.44783,1.94851,0.0,2,0,0,0
170335134,34.0356415214,108.757099536,422.988,393.491,-0.0,1.4478,1.94837,0.0,2,0,0,0
170538751,34.035641311,108.75709755,423.012,393.513,-0.0,1.44776,1.94872,0.0,2,0,0,0
170737401,34.0356411655,108.757095474,423.029,393.528,-0.0,1.44772,1.94859,0.0,2,0,0,0
170936050,34.0356410939,108.757093295,423.045,393.542,-0.0,1.44768,1.94845,0.0,2,0,0,0
171134702,34.0356411019,108.757091031,423.059,393.556,-0.0,1.44765,1.94881,0.0,2,0,0,0
171333351,34.0356411119,108.757088783,423.07,393.566,-0.0,1.44761,1.94867,0.0,2,0,0,0
171532167,34.0356411036,108.757086626,423.077,393.573,-0.0,1.44756,1.94854,0.0,2,0,0,0
171735617,34.0356411189,108.757084537,423.065,393.562,-0.0,1.44749,1.9484,0.0,2,0,0,0
171934263,34.0356411479,108.757082633,423.044,393.542,-0.0,1.44745,1.94874,0.0,2,0,0,0
172132918,34.0356412099,108.757080909,423.012,393.51,-0.0,1.44741,1.9486,0.0,2,0,0,0
172331681,34.0356412907,108.757079234,422.967,393.465,-0.0,1.44735,1.94845,0.0,2,0,0,0
172535184,34.0356413945,108.757077476,422.918,393.417,-0.0,1.44731,1.9488,0.0,2,0,0,0
172738800,34.0356415021,108.75707562,422.862,393.361,-0.0,1.4473,1.94866,0.0,2,0,0,0
172937450,34.0356416281,108.757073646,422.799,393.295,-0.0,1.44728,1.94852,0.0,2,0,0,0
173136249,34.0356417596,108.757071594,422.725,393.221,-0.0,1.44726,1.94839,0.0,2,0,0,0
173334757,34.0356418587,108.757069516,422.663,393.157,-0.0,1.44723,1.94874,0.0,2,0,0,0
173533402,34.0356420653,108.757067513,422.607,393.099,-0.0,1.44721,1.9486,0.0,2,0,0,0
173737017,34.0356423097,108.757065598,422.553,393.043,-0.0,1.44718,1.94846,0.0,2,0,0,0
173935729,34.0356425185,108.757063924,422.492,392.978,-0.0,1.44715,1.94881,0.0,2,0,0,0
174139284,34.0356426671,108.757062396,422.428,392.91,-0.0,1.44713,1.94867,0.0,2,0,0,0
174337935,34.0356428671,108.757061015,422.361,392.84,-0.0,1.44711,1.94853,0.0,2,0,0,0
174536585,34.0356431118,108.757059667,422.273,392.748,-0.0,1.44711,1.9484,0.0,2,0,0,0
174735267,34.0356432292,108.757058245,422.188,392.657,-0.0,1.4471,1.94875,0.0,2,0,0,0
174933943,34.035643255,108.757056728,422.115,392.581,-0.0,1.44709,1.94862,0.0,2,0,0,0
175132536,34.0356431143,108.757055169,422.052,392.514,-0.0,1.44709,1.94848,0.0,2,0,0,0
175331203,34.0356429731,108.75705361,421.976,392.434,-0.0,1.44707,1.94883,0.0,2,0,0,0
175539831,34.0356428373,108.757052089,421.887,392.341,-0.0,1.4472,1.94882,0.0,2,0,0,0
175733454,34.035642659,108.757050875,421.81,392.258,-0.0,1.44702,1.94854,0.0,2,0,0,0
175937070,34.0356424975,108.75704975,421.757,392.201,-0.0,1.447,1.94888,0.0,2,0,0,0
176135721,34.0356424784,108.757048776,421.729,392.167,-0.0,1.44697,1.94874,0.0,2,0,0,0
176334393,34.0356425826,108.757047892,421.703,392.134,-0.0,1.44695,1.9486,0.0,2,0,0,0
176537990,34.0356427373,108.75704715,421.687,392.112,-0.0,1.44692,1.94846,0.0,2,0,0,0
176736656,34.035642874,108.75704649,421.688,392.105,-0.0,1.4469,1.9488,0.0,2,0,0,0
176935290,34.0356429551,108.757045713,421.681,392.091,-0.0,1.44688,1.94866,0.0,2,0,0,0
177133940,34.0356429301,108.757044632,421.681,392.082,-0.0,1.44686,1.94851,0.0,2,0,0,0
177337557,34.0356428624,108.757043094,421.681,392.073,-0.0,1.44683,1.94885,0.0,2,0,0,0
177536208,34.0356427897,108.757041242,421.678,392.062,-0.0,1.44682,1.94871,0.0,2,0,0,0
177734890,34.0356428404,108.757039331,421.677,392.052,-0.0,1.44681,1.94856,0.0,2,0,0,0
177933510,34.0356432289,108.757037501,421.676,392.042,-0.0,1.44677,1.94842,0.0,2,0,0,0
178132160,34.0356438035,108.757035757,421.681,392.039,-0.0,1.44674,1.94877,0.0,2,0,0,0
178340743,34.0356444345,108.757034079,421.699,392.049,-0.0,1.44686,1.94876,0.0,2,0,0,0
178539581,34.0356449981,108.757032624,421.723,392.065,-0.0,1.44683,1.94861,0.0,2,0,0,0
178733079,34.0356454666,108.757031287,421.752,392.087,-0.0,1.44664,1.94882,0.0,2,0,0,0
178931729,34.0356458453,108.757029915,421.78,392.105,-0.0,1.44662,1.94868,0.0,2,0,0,0
179135347,34.0356462021,108.757028615,421.807,392.123,-0.0,1.44659,1.94853,0.0,2,0,0,0
179334126,34.0356464804,108.757027396,421.836,392.143,-0.0,1.44658,1.94887,0.0,2,0,0,0
179537616,34.0356467071,108.757026065,421.869,392.168,-0.0,1.44656,1.94873,0.0,2,0,0,0
179736268,34.0356469352,108.757024633,421.907,392.196,-0.0,1.44655,1.94858,0.0,2,0,0,0
179934916,34.0356471201,108.757022977,421.94,392.22,-0.0,1.44653,1.94844,0.0,2,0,0,0
180133659,34.0356472399,108.757021044,421.963,392.235,-0.0,1.44651,1.94879,0.0,2,0,0,0
180337186,34.0356473554,108.757018915,421.984,392.247,-0.0,1.4465,1.94864,0.0,2,0,0,0
180535836,34.0356474929,108.757016939,422.01,392.266,-0.0,1.44649,1.9485,0.0,2,0,0,0
180734487,34.0356476803,108.757015097,422.043,392.293,-0.0,1.44648,1.94885,0.0,2,0,0,0
180933188,34.0356479673,108.757013355,422.082,392.325,-0.0,1.44649,1.94871,0.0,2,0,0,0
181136755,34.0356484468,108.757011738,422.121,392.358,-0.0,1.44649,1.94857,0.0,2,0,0,0
181335406,34.0356489913,108.757010241,422.151,392.382,-0.0,1.44648,1.94843,0.0,2,0,0,0
181534057,34.0356494777,108.757008695,422.168,392.393,-0.0,1.4465,1.94878,0.0,2,0,0,0
181732769,34.0356499308,108.757007065,422.184,392.403,-0.0,1.44649,1.94864,0.0,2,0,0,0
181936326,34.0356503602,108.757005223,422.204,392.418,-0.0,1.44649,1.94849,0.0,2,0,0,0
182139952,34.035650702,108.757003234,422.226,392.436,-0.0,1.44648,1.94884,0.0,2,0,0,0
182338595,34.0356509645,108.757001094,422.239,392.444,-0.0,1.4465,1.94869,0.0,2,0,0,0
182537246,34.0356511589,108.756998702,422.247,392.447,-0.0,1.44651,1.94855,0.0,2,0,0,0
182735897,34.035651257,108.756996125,422.248,392.443,-0.0,1.44649,1.94841,0.0,2,0,0,0
182934548,34.0356513139,108.756993559,422.25,392.44,-0.0,1.44649,1.94876,0.0,2,0,0,0
183138190,34.0356513028,108.756991093,422.259,392.445,-0.0,1.4465,1.94862,0.0,2,0,0,0
183336833,34.0356512967,108.756988944,422.272,392.455,-0.0,1.4465,1.94848,0.0,2,0,0,0
183540435,34.0356513491,108.756986945,422.289,392.47,-0.0,1.44652,1.94883,0.0,2,0,0,0
183739086,34.0356515659,108.756985149,422.311,392.488,-0.0,1.44655,1.9487,0.0,2,0,0,0
183937737,34.0356520327,108.756983461,422.326,392.499,-0.0,1.44657,1.94856,0.0,2,0,0,0
184136389,34.0356525299,108.756981847,422.333,392.502,-0.0,1.44659,1.94843,0.0,2,0,0,0
184335040,34.0356529214,108.756980334,422.339,392.504,-0.0,1.44659,1.94878,0.0,2,0,0,0
184533691,34.0356532572,108.756978949,422.341,392.503,-0.0,1.44659,1.94864,0.0,2,0,0,0
184732536,34.0356535659,108.756977642,422.351,392.509,-0.0,1.44659,1.9485,0.0,2,0,0,0
184935961,34.0356538496,108.756976275,422.363,392.519,-0.0,1.44658,1.94885,0.0,2,0,0,0
185134612,34.035654018,108.756974748,422.377,392.531,-0.0,1.44658,1.9487,0.0,2,0,0,0
185333264,34.0356541456,108.756973016,422.388,392.54,-0.0,1.44658,1.94856,0.0,2,0,0,0
185541854,34.0356542294,108.756971004,422.397,392.546,-0.0,1.44674,1.94855,0.0,2,0,0,0
185740499,34.0356542177,108.756968996,422.404,392.552,-0.0,1.44673,1.9489,0.0,2,0,0,0
185939151,34.0356542208,108.75696704,422.408,392.554,-0.0,1.44672,1.94875,0.0,2,0,0,0
186132837,34.0356542185,108.756965216,422.414,392.558,-0.0,1.44655,1.94847,0.0,2,0,0,0
186331601,34.0356542276,108.756963448,422.419,392.561,-0.0,1.4465,1.94881,0.0,2,0,0,0
186535109,34.035654247,108.756961711,422.426,392.566,-0.0,1.44647,1.94867,0.0,2,0,0,0
186738724,34.0356541235,108.75695983,422.427,392.565,-0.0,1.44648,1.94853,0.0,2,0,0,0
186937409,34.0356539163,108.756957761,422.424,392.56,-0.0,1.44648,1.94839,0.0,2,0,0,0
187136127,34.0356537338,108.756955533,422.414,392.547,-0.0,1.44648,1.94875,0.0,2,0,0,0
187334681,34.0356535371,108.756953284,422.398,392.53,-0.0,1.44648,1.94861,0.0,2,0,0,0
187538297,34.0356533526,108.756951011,422.382,392.511,-0.0,1.44648,1.94847,0.0,2,0,0,0
187736962,34.035653305,108.756948886,422.361,392.487,-0.0,1.44648,1.94834,0.0,2,0,0,0
187935717,34.0356534512,108.75694689,422.338,392.461,-0.0,1.44649,1.9487,0.0,2,0,0,0
188134254,34.0356538442,108.756945039,422.328,392.447,-0.0,1.44649,1.94856,0.0,2,0,0,0
188332904,34.0356543686,108.756943305,422.315,392.429,-0.0,1.4465,1.94843,0.0,2,0,0,0
188541489,34.0356550142,108.756941582,422.288,392.398,-0.0,1.44666,1.94891,0.0,2,0,0,0
188740250,34.0356555677,108.756939957,422.25,392.354,-0.0,1.44665,1.94877,0.0,2,0,0,0
188933827,34.0356560406,108.756938317,422.211,392.31,-0.0,1.44649,1.94848,0.0,2,0,0,0
189132481,34.0356564475,108.756936531,422.166,392.259,-0.0,1.44649,1.94883,0.0,2,0,0,0
189331138,34.0356568505,108.756934703,422.125,392.214,-0.0,1.44649,1.94869,0.0,2,0,0,0
189539730,34.0356572156,108.756932647,422.082,392.166,-0.0,1.44665,1.94868,0.0,2,0,0,0
189733402,34.0356574636,108.75693063,422.044,392.123,-0.0,1.4465,1.94889,0.0,2,0,0,0
189937019,34.0356576987,108.756928416,422.015,392.09,-0.0,1.44652,1.94875,0.0,2,0,0,0
190135670,34.0356578767,108.756926156,421.999,392.069,-0.0,1.44652,1.94861,0.0,2,0,0,0
190334323,34.0356580906,108.756923906,421.982,392.046,-0.0,1.44654,1.94847,0.0,2,0,0,0
190537942,34.035658285,108.756921578,421.971,392.029,-0.0,1.44655,1.94882,0.0,2,0,0,0
190736595,34.035658435,108.756919256,421.97,392.023,-0.0,1.44657,1.94869,0.0,2,0,0,0
190935245,34.035658567,108.756917063,421.981,392.027,-0.0,1.4466,1.94855,0.0,2,0,0,0
191133897,34.0356586609,108.756915016,422.015,392.055,-0.0,1.44662,1.94842,0.0,2,0,0,0
191337516,34.035658732,108.756913078,422.066,392.1,-0.0,1.44662,1.94877,0.0,2,0,0,0
191536168,34.0356587868,108.756911255,422.127,392.156,-0.0,1.44664,1.94864,0.0,2,0,0,0
191739786,34.0356588392,108.756909307,422.188,392.211,-0.0,1.44666,1.9485,0.0,2,0,0,0
191938439,34.0356588778,108.75690726,422.247,392.265,-0.0,1.44665,1.94837,0.0,2,0,0,0
192137092,34.035658928,108.756905068,422.297,392.309,-0.0,1.44666,1.94872,0.0,2,0,0,0
192335743,34.035658966,108.756902882,422.337,392.342,-0.0,1.44666,1.94859,0.0,2,0,0,0
192534578,34.0356589951,108.756900702,422.373,392.372,-0.0,1.44667,1.94845,0.0,2,0,0,0
192733047,34.0356590365,108.756898569,422.399,392.391,-0.0,1.44669,1.94832,0.0,2,0,0,0
192931701,34.0356590564,108.756896391,422.417,392.405,-0.0,1.4467,1.94867,0.0,2,0,0,0
193135319,34.0356590628,108.756894154,422.436,392.418,-0.0,1.4467,1.94854,0.0,2,0,0,0
193334114,34.0356590553,108.75689201,422.441,392.418,-0.0,1.44669,1.9484,0.0,2,0,0,0
193537591,34.0356591018,108.756889811,422.425,392.398,-0.0,1.44669,1.94827,0.0,2,0,0,0
193736244,34.0356592876,108.756887658,422.395,392.363,-0.0,1.4467,1.94862,0.0,2,0,0,0
193939862,34.0356594936,108.756885473,422.357,392.32,-0.0,1.44671,1.94849,0.0,2,0,0,0
194138631,34.0356596891,108.756883439,422.316,392.275,-0.0,1.44668,1.94836,0.0,2,0,0,0
194337168,34.0356598968,108.756881515,422.28,392.236,-0.0,1.44668,1.94871,0.0,2,0,0,0
194540784,34.0356601127,108.756879639,422.237,392.19,-0.0,1.44668,1.94858,0.0,2,0,0,0
194739437,34.0356603703,108.756877866,422.183,392.133,-0.0,1.44667,1.94845,0.0,2,0,0,0
194938164,34.0356606319,108.756876188,422.115,392.062,-0.0,1.44669,1.94832,0.0,2,0,0,0
195136742,34.035660888,108.756874573,422.053,391.997,-0.0,1.44669,1.94867,0.0,2,0,0,0
195335395,34.035661186,108.756873002,421.984,391.925,-0.0,1.44671,1.94854,0.0,2,0,0,0
195534047,34.0356614333,108.756871414,421.9,391.837,-0.0,1.44671,1.94841,0.0,2,0,0,0
195732715,34.0356616149,108.756869833,421.815,391.749,-0.0,1.4467,1.94876,0.0,2,0,0,0
195936319,34.0356618639,108.756868245,421.735,391.666,-0.0,1.44668,1.94863,0.0,2,0,0,0
196134972,34.0356621073,108.756866674,421.667,391.596,-0.0,1.4467,1.9485,0.0,2,0,0,0
196333624,34.0356623772,108.756865112,421.617,391.544,-0.0,1.44671,1.94885,0.0,2,0,0,0
196542282,34.0356626511,108.756863475,421.576,391.501,-0.0,1.44687,1.94884,0.0,2,0,0,0
196740864,34.0356628595,108.756861904,421.553,391.475,-0.0,1.44687,1.94869,0.0,2,0,0,0
196934548,34.0356630692,108.75686053,421.551,391.473,-0.0,1.4467,1.94891,0.0,2,0,0,0
197138172,34.035663317,108.75685915,421.564,391.484,-0.0,1.4467,1.94876,0.0,2,0,0,0
197336860,34.0356635779,108.756857665,421.585,391.506,-0.0,1.44671,1.94862,0.0,2,0,0,0
197535473,34.0356638183,108.756855863,421.615,391.534,-0.0,1.44671,1.94848,0.0,2,0,0,0
197739093,34.035664034,108.756853653,421.651,391.57,-0.0,1.44671,1.94884,0.0,2,0,0,0
197937752,34.0356641401,108.756851342,421.694,391.611,-0.0,1.44673,1.9487,0.0,2,0,0,0
198136398,34.0356642229,108.756849092,421.743,391.659,-0.0,1.44674,1.94856,0.0,2,0,0,0
198335051,34.0356643514,108.756846992,421.778,391.692,-0.0,1.44673,1.94843,0.0,2,0,0,0
198533704,34.0356644514,108.756844917,421.792,391.704,-0.0,1.44673,1.94878,0.0,2,0,0,0
198732603,34.0356646779,108.756842859,421.8,391.712,-0.0,1.44672,1.94864,0.0,2,0,0,0
198935979,34.0356650665,108.756840834,421.799,391.712,-0.0,1.4467,1.9485,0.0,2,0,0,0
199134630,34.0356655134,108.756838994,421.783,391.696,-0.0,1.44668,1.94837,0.0,2,0,0,0
199333282,34.0356659468,108.756837266,421.761,391.675,-0.0,1.44666,1.94872,0.0,2,0,0,0
199532091,34.0356663605,108.75683561,421.736,391.652,-0.0,1.44664,1.94858,0.0,2,0,0,0
199735554,34.0356667833,108.756833821,421.702,391.619,-0.0,1.44662,1.94844,0.0,2,0,0,0
199939180,34.0356671605,108.75683179,421.665,391.582,-0.0,1.4466,1.94879,0.0,2,0,0,0
200137826,34.0356675194,108.75682965,421.628,391.546,-0.0,1.44659,1.94865,0.0,2,0,0,0
200336618,34.035667883,108.756827335,421.604,391.524,-0.0,1.44658,1.94851,0.0,2,0,0,0
200535137,34.0356681743,108.75682488,421.598,391.519,-0.0,1.44658,1.94837,0.0,2,0,0,0
200738752,34.035668522,108.756822433,421.602,391.525,-0.0,1.44656,1.94872,0.0,2,0,0,0
200937405,34.0356687197,108.756820152,421.628,391.551,-0.0,1.44655,1.94858,0.0,2,0,0,0
201136160,34.0356687127,108.756818089,421.662,391.587,-0.0,1.44654,1.94845,0.0,2,0,0,0
201334713,34.035668616,108.756816209,421.716,391.642,-0.0,1.44652,1.9488,0.0,2,0,0,0
201538331,34.0356684778,108.756814376,421.784,391.711,-0.0,1.44651,1.94866,0.0,2,0,0,0
201736984,34.0356683227,108.756812713,421.865,391.793,-0.0,1.4465,1.94852,0.0,2,0,0,0
201935756,34.0356681243,108.756811194,421.951,391.878,-0.0,1.44649,1.94838,0.0,2,0,0,0
202139256,34.0356679715,108.756809748,422.034,391.961,-0.0,1.44648,1.94873,0.0,2,0,0,0
202337911,34.0356677737,108.756808556,422.118,392.045,-0.0,1.44644,1.9486,0.0,2,0,0,0
202536574,34.0356674805,108.75680745,422.211,392.139,-0.0,1.44642,1.94846,0.0,2,0,0,0
202735312,34.0356672723,108.756806423,422.296,392.225,-0.0,1.44642,1.94833,0.0,2,0,0,0
202933870,34.0356670753,108.756805371,422.363,392.291,-0.0,1.4464,1.94868,0.0,2,0,0,0
203132577,34.0356668026,108.756804159,422.42,392.348,-0.0,1.44638,1.94854,0.0,2,0,0,0
203336144,34.0356664524,108.756802657,422.466,392.394,-0.0,1.44635,1.9484,0.0,2,0,0,0
203534798,34.0356661441,108.756801011,422.505,392.433,-0.0,1.44633,1.94875,0.0,2,0,0,0
203733450,34.0356658001,108.756799258,422.534,392.462,-0.0,1.4463,1.94862,0.0,2,0,0,0
203937073,34.0356655362,108.756797499,422.552,392.48,-0.0,1.44627,1.94848,0.0,2,0,0,0
204135723,34.0356655081,108.756795853,422.559,392.486,-0.0,1.44625,1.94884,0.0,2,0,0,0
204334381,34.0356656939,108.756794311,422.547,392.472,-0.0,1.44621,1.94869,0.0,2,0,0,0
204537996,34.0356659695,108.756792887,422.517,392.441,-0.0,1.44617,1.94855,0.0,2,0,0,0
204736657,34.0356662113,108.756791574,422.497,392.42,-0.0,1.44617,1.94841,0.0,2,0,0,0
204935303,34.0356664376,108.756790174,422.481,392.403,-0.0,1.44618,1.94876,0.0,2,0,0,0
205134008,34.0356666435,108.756788772,422.459,392.379,-0.0,1.44618,1.94862,0.0,2,0,0,0
205337576,34.0356669169,108.756787367,422.427,392.346,-0.0,1.44619,1.94848,0.0,2,0,0,0
205536230,34.0356671985,108.756785933,422.392,392.308,-0.0,1.4462,1.94882,0.0,2,0,0,0
205739850,34.0356675131,108.756784255,422.345,392.258,-0.0,1.44619,1.94867,0.0,2,0,0,0
205938504,34.035667798,108.756782313,422.296,392.206,-0.0,1.4462,1.94901,0.0,2,0,0,0
206137158,34.035668134,108.756780142,422.245,392.153,-0.0,1.44621,1.94886,0.0,2,0,0,0
206335806,34.0356684313,108.756777824,422.195,392.099,-0.0,1.44623,1.94871,0.0,2,0,0,0
206534659,34.0356686945,108.756775542,422.138,392.039,-0.0,1.44625,1.94856,0.0,2,0,0,0
206733121,34.0356689634,108.7567734,422.098,391.995,-0.0,1.44627,1.94891,0.0,2,0,0,0
206936786,34.0356691928,108.756771397,422.067,391.96,-0.0,1.44626,1.94875,0.0,2,0,0,0
207140359,34.0356692909,108.756769607,422.033,391.918,-0.0,1.44628,1.94861,0.0,2,0,0,0
207339164,34.035669388,108.756768053,422.03,391.909,-0.0,1.44629,1.94846,0.0,2,0,0,0
207537665,34.0356694865,108.756766517,422.063,391.934,-0.0,1.44632,1.94881,0.0,2,0,0,0
207736319,34.0356695323,108.756764677,422.132,391.996,-0.0,1.44635,1.94867,0.0,2,0,0,0
207939957,34.0356695009,108.75676245,422.245,392.101,-0.0,1.44638,1.94852,0.0,2,0,0,0
208138714,34.0356693013,108.756759885,422.377,392.225,-0.0,1.44641,1.94838,0.0,2,0,0,0
208337247,34.0356691748,108.756757169,422.534,392.373,-0.0,1.44643,1.94873,0.0,2,0,0,0
208535901,34.0356691565,108.756754508,422.708,392.539,-0.0,1.44646,1.94859,0.0,2,0,0,0
208734555,34.0356691456,108.756751961,422.87,392.693,-0.0,1.44648,1.94845,0.0,2,0,0,0
208933268,34.0356690746,108.756749548,423.032,392.847,-0.0,1.4465,1.9488,0.0,2,0,0,0
209136829,34.0356688746,108.756747249,423.19,392.999,-0.0,1.44649,1.94866,0.0,2,0,0,0
209335483,34.035668571,108.756745188,423.346,393.149,-0.0,1.4465,1.94852,0.0,2,0,0,0
209534137,34.0356681851,108.756743241,423.502,393.3,-0.0,1.4465,1.94887,0.0,2,0,0,0
209732816,34.0356677527,108.756741274,423.647,393.441,-0.0,1.44648,1.94872,0.0,2,0,0,0
209931445,34.0356673609,108.756739362,423.758,393.546,-0.0,1.44647,1.94857,0.0,2,0,0,0
210135065,34.0356670245,108.756737512,423.853,393.636,-0.0,1.44647,1.94892,0.0,2,0,0,0
210338686,34.0356667187,108.756735751,423.922,393.701,-0.0,1.44645,1.94877,0.0,2,0,0,0
210537401,34.0356665355,108.756734151,423.947,393.723,-0.0,1.44642,1.94863,0.0,2,0,0,0
210735994,34.035666495,108.75673266,423.945,393.718,-0.0,1.44642,1.94849,0.0,2,0,0,0
210934647,34.0356664602,108.756731226,423.924,393.694,-0.0,1.44641,1.94884,0.0,2,0,0,0
211138270,34.0356664385,108.756729758,423.873,393.639,-0.0,1.4464,1.9487,0.0,2,0,0,0
211336923,34.0356664347,108.756728226,423.797,393.561,-0.0,1.44639,1.94856,0.0,2,0,0,0
211535576,34.0356664432,108.756726631,423.686,393.447,-0.0,1.44637,1.94891,0.0,2,0,0,0
211734231,34.03566641,108.756724865,423.521,393.277,-0.0,1.44636,1.94876,0.0,2,0,0,0
211937852,34.035666336,108.756722969,423.335,393.085,-0.0,1.44635,1.94861,0.0,2,0,0,0
212136542,34.03566625,108.756721278,423.173,392.92,-0.0,1.44633,1.94847,0.0,2,0,0,0
212340127,34.0356662287,108.756719763,423.04,392.782,-0.0,1.44632,1.94882,0.0,2,0,0,0
212538780,34.0356662818,108.756718533,422.946,392.683,-0.0,1.44631,1.94867,0.0,2,0,0,0
212737434,34.0356663228,108.756717514,422.869,392.601,-0.0,1.44633,1.94854,0.0,2,0,0,0
212936089,34.0356663221,108.756716555,422.796,392.522,-0.0,1.44635,1.94889,0.0,2,0,0,0
213139709,34.0356664814,108.756715523,422.728,392.447,-0.0,1.44639,1.94874,0.0,2,0,0,0
213338363,34.0356668504,108.756714427,422.683,392.395,-0.0,1.44643,1.94861,0.0,2,0,0,0
213537225,34.0356673497,108.756713289,422.658,392.364,-0.0,1.44647,1.94847,0.0,2,0,0,0
213735672,34.0356677397,108.756712094,422.638,392.337,-0.0,1.4465,1.94881,0.0,2,0,0,0
213939293,34.0356680073,108.756710687,422.621,392.312,-0.0,1.44652,1.94866,0.0,2,0,0,0
214137947,34.0356682479,108.756709136,422.608,392.292,-0.0,1.44654,1.94852,0.0,2,0,0,0
214336745,34.0356684883,108.756707499,422.599,392.277,-0.0,1.44657,1.94887,0.0,2,0,0,0
214530290,34.0356687523,108.75670595,422.596,392.266,-0.0,1.44641,1.94859,0.0,2,0,0,0
214738877,34.035669014,108.756704383,422.599,392.263,-0.0,1.44659,1.94858,0.0,2,0,0,0
214937531,34.0356691466,108.756703043,422.619,392.276,-0.0,1.44661,1.94844,0.0,2,0,0,0
215136296,34.0356690733,108.756701878,422.658,392.31,-0.0,1.44663,1.94879,0.0,2,0,0,0
215334840,34.0356688364,108.756700815,422.706,392.352,-0.0,1.44664,1.94865,0.0,2,0,0,0
215533495,34.0356684668,108.756699628,422.752,392.392,-0.0,1.44663,1.9485,0.0,2,0,0,0
215737115,34.0356681344,108.75669811,422.776,392.411,-0.0,1.44661,1.94885,0.0,2,0,0,0
215935888,34.0356678314,108.756696314,422.779,392.408,-0.0,1.4466,1.94871,0.0,2,0,0,0
216139391,34.0356675584,108.756694248,422.771,392.395,-0.0,1.44661,1.94857,0.0,2,0,0,0
216338051,34.0356672707,108.756692025,422.762,392.382,-0.0,1.44659,1.94843,0.0,2,0,0,0
216536701,34.0356669503,108.756689688,422.755,392.372,-0.0,1.44659,1.94878,0.0,2,0,0,0
216735450,34.0356666392,108.756687382,422.742,392.355,-0.0,1.44658,1.94864,0.0,2,0,0,0
216934009,34.0356665336,108.756685284,422.727,392.337,-0.0,1.44658,1.9485,0.0,2,0,0,0
217132696,34.0356667343,108.75668337,422.709,392.316,-0.0,1.44655,1.94884,0.0,2,0,0,0
217336287,34.0356671698,108.756681593,422.682,392.286,-0.0,1.44653,1.94869,0.0,2,0,0,0
217534937,34.0356677188,108.756680055,422.624,392.225,-0.0,1.44649,1.94855,0.0,2,0,0,0
217738562,34.0356681894,108.756678545,422.536,392.134,-0.0,1.44648,1.9489,0.0,2,0,0,0
217932250,34.0356684224,108.756677043,422.442,392.037,-0.0,1.44631,1.94862,0.0,2,0,0,0
218140837,34.03566855,108.756675295,422.328,391.921,-0.0,1.44645,1.94862,0.0,2,0,0,0
218339493,34.0356686141,108.756673615,422.217,391.809,-0.0,1.44644,1.94848,0.0,2,0,0,0
218538150,34.0356686569,108.756672053,422.106,391.696,-0.0,1.44642,1.94883,0.0,2,0,0,0
218736801,34.0356688185,108.756670668,422.01,391.6,-0.0,1.44638,1.94869,0.0,2,0,0,0
218935456,34.0356690784,108.756669546,421.941,391.53,-0.0,1.44636,1.94854,0.0,2,0,0,0
219134111,34.0356692316,108.75666848,421.884,391.47,-0.0,1.44634,1.94889,0.0,2,0,0,0
219332766,34.0356694364,108.756667426,421.836,391.419,-0.0,1.44633,1.94874,0.0,2,0,0,0
219541354,34.0356696408,108.756666217,421.824,391.404,-0.0,1.44649,1.94872,0.0,2,0,0,0
219730266,34.0356697468,108.756664985,421.835,391.412,-0.0,1.44635,1.94893,0.0,2,0,0,0
219933700,34.035669829,108.756663493,421.853,391.427,-0.0,1.44636,1.94878,0.0,2,0,0,0
220132352,34.0356699103,108.756662018,421.883,391.452,-0.0,1.44638,1.94864,0.0,2,0,0,0
220335973,34.0356699884,108.756660521,421.922,391.487,-0.0,1.4464,1.94849,0.0,2,0,0,0
220534809,34.0356700409,108.756659048,421.94,391.5,-0.0,1.44642,1.94884,0.0,2,0,0,0
220733283,34.0356700014,108.756657532,421.94,391.497,-0.0,1.44644,1.94869,0.0,2,0,0,0
220936905,34.0356699127,108.756655908,421.929,391.483,-0.0,1.44645,1.94853,0.0,2,0,0,0
221140526,34.0356698349,108.7566543,421.916,391.468,-0.0,1.44648,1.94888,0.0,2,0,0,0
221339341,34.0356698205,108.756652716,421.912,391.463,-0.0,1.44649,1.94873,0.0,2,0,0,0
221537837,34.0356697862,108.756651031,421.904,391.455,-0.0,1.4465,1.94859,0.0,2,0,0,0
221736491,34.0356697846,108.756649264,421.888,391.438,-0.0,1.4465,1.94845,0.0,2,0,0,0
221935147,34.0356698196,108.756647303,421.852,391.402,-0.0,1.4465,1.94879,0.0,2,0,0,0
222133905,34.0356698984,108.756645357,421.818,391.369,-0.0,1.44651,1.94865,0.0,2,0,0,0
222337423,34.0356699464,108.756643478,421.797,391.348,-0.0,1.44647,1.9485,0.0,2,0,0,0
222536078,34.0356699733,108.756641774,421.792,391.342,-0.0,1.44648,1.94836,0.0,2,0,0,0
222734734,34.0356699911,108.756640204,421.814,391.364,-0.0,1.4465,1.94871,0.0,2,0,0,0
222933456,34.035670014,108.756638699,421.857,391.407,-0.0,1.44651,1.94857,0.0,2,0,0,0
223141980,34.0356699646,108.756637311,421.927,391.475,-0.0,1.44668,1.94856,0.0,2,0,0,0
223340632,34.0356698147,108.756636187,422.029,391.578,-0.0,1.4467,1.94842,0.0,2,0,0,0
223534321,34.035669697,108.756635115,422.145,391.695,-0.0,1.44654,1.94864,0.0,2,0,0,0
223733053,34.0356696067,108.756633944,422.27,391.821,-0.0,1.44654,1.94849,0.0,2,0,0,0
223936599,34.0356694849,108.756632628,422.404,391.956,-0.0,1.44656,1.94836,0.0,2,0,0,0
224135253,34.0356693966,108.756631046,422.54,392.094,-0.0,1.44657,1.94871,0.0,2,0,0,0
224338875,34.0356693765,108.756629104,422.661,392.216,-0.0,1.44658,1.94857,0.0,2,0,0,0
224537541,34.035669404,108.756626995,422.759,392.315,-0.0,1.44659,1.94843,0.0,2,0,0,0
224736185,34.0356693909,108.756624883,422.835,392.393,-0.0,1.4466,1.94879,0.0,2,0,0,0
224934841,34.035669429,108.756622832,422.896,392.454,-0.0,1.44662,1.94865,0.0,2,0,0,0
225138517,34.0356694275,108.756620807,422.921,392.478,-0.0,1.44663,1.9485,0.0,2,0,0,0
225337155,34.0356694664,108.756619016,422.905,392.462,-0.0,1.44662,1.94836,0.0,2,0,0,0
225530807,34.0356695739,108.756617403,422.856,392.413,-0.0,1.44647,1.94858,0.0,2,0,0,0
225739395,34.0356697062,108.756615825,422.773,392.33,-0.0,1.44662,1.94857,0.0,2,0,0,0
225943017,34.0356698682,108.756614432,422.686,392.244,-0.0,1.44662,1.94844,0.0,2,0,0,0
226141673,34.0356700528,108.756613041,422.594,392.152,-0.0,1.44662,1.9483,0.0,2,0,0,0
226340328,34.0356702375,108.756611369,422.472,392.028,-0.0,1.4466,1.94865,0.0,2,0,0,0
226538984,34.0356703708,108.756609337,422.307,391.861,-0.0,1.44661,1.94852,0.0,2,0,0,0
226737639,34.035670485,108.756606993,422.124,391.676,-0.0,1.44661,1.94838,0.0,2,0,0,0
226936295,34.0356707075,108.756604434,421.944,391.493,-0.0,1.44659,1.94874,0.0,2,0,0,0
227134964,34.0356709764,108.756601943,421.771,391.317,-0.0,1.44658,1.9486,0.0,2,0,0,0
227333606,34.0356712305,108.756599697,421.617,391.16,-0.0,1.44658,1.94846,0.0,2,0,0,0
227532439,34.035671436,108.75659779,421.501,391.04,-0.0,1.44658,1.94881,0.0,2,0,0,0
227735884,34.0356716201,108.756596062,421.422,390.956,-0.0,1.44659,1.94867,0.0,2,0,0,0
227939506,34.0356718932,108.756594396,421.37,390.898,-0.0,1.4466,1.94853,0.0,2,0,0,0
228138163,34.0356720966,108.75659285,421.339,390.862,-0.0,1.44663,1.9484,0.0,2,0,0,0
228336967,34.0356721425,108.756591392,421.33,390.845,-0.0,1.44662,1.94875,0.0,2,0,0,0
228535541,34.0356721311,108.75659003,421.346,390.854,-0.0,1.44663,1.94862,0.0,2,0,0,0
228734128,34.0356721385,108.756588823,421.414,390.914,-0.0,1.44664,1.94848,0.0,2,0,0,0
228937752,34.035672147,108.756587664,421.493,390.984,-0.0,1.44665,1.94835,0.0,2,0,0,0
229136521,34.0356721594,108.756586521,421.571,391.054,-0.0,1.44665,1.9487,0.0,2,0,0,0
229335062,34.0356721414,108.756585297,421.634,391.109,-0.0,1.44667,1.94857,0.0,2,0,0,0
229533718,34.0356721282,108.756584045,421.68,391.147,-0.0,1.44669,1.94843,0.0,2,0,0,0
229732374,34.0356720506,108.756582783,421.711,391.171,-0.0,1.44668,1.94878,0.0,2,0,0,0
229931112,34.0356720086,108.756581555,421.73,391.182,-0.0,1.44668,1.94863,0.0,2,0,0,0
230134652,34.0356720302,108.756580258,421.732,391.178,-0.0,1.44668,1.94849,0.0,2,0,0,0
230333307,34.0356720764,108.756578899,421.707,391.148,-0.0,1.44668,1.94884,0.0,2,0,0,0
230536930,34.0356721338,108.756577488,421.655,391.091,-0.0,1.44668,1.9487,0.0,2,0,0,0
230735681,34.0356721819,108.756576099,421.586,391.02,-0.0,1.44666,1.94856,0.0,2,0,0,0
230934249,34.03567224,108.756574695,421.481,390.912,-0.0,1.44665,1.94842,0.0,2,0,0,0
231137880,34.0356723283,108.756573327,421.364,390.793,-0.0,1.44665,1.94877,0.0,2,0,0,0
231336520,34.0356725034,108.756572144,421.263,390.688,-0.0,1.44664,1.94863,0.0,2,0,0,0
231535179,34.0356727147,108.756571041,421.17,390.59,-0.0,1.44664,1.94849,0.0,2,0,0,0
231738800,34.03567285,108.756569889,421.093,390.509,-0.0,1.44664,1.94884,0.0,2,0,0,0
231937455,34.0356730133,108.756568815,421.035,390.449,-0.0,1.44665,1.9487,0.0,2,0,0,0
232136110,34.0356731314,108.756567866,420.994,390.403,-0.0,1.44666,1.94855,0.0,2,0,0,0
232334766,34.0356732077,108.756566959,420.975,390.38,-0.0,1.44666,1.94889,0.0,2,0,0,0
232533422,34.0356732296,108.756566091,420.972,390.374,-0.0,1.44667,1.94874,0.0,2,0,0,0
232732078,34.0356731763,108.756565166,420.97,390.369,-0.0,1.44667,1.94859,0.0,2,0,0,0
232935701,34.0356731176,108.756564104,420.969,390.364,-0.0,1.44668,1.94893,0.0,2,0,0,0
233134361,34.0356730354,108.756563015,420.972,390.364,-0.0,1.44668,1.94878,0.0,2,0,0,0
233337981,34.0356729065,108.756561959,420.985,390.375,-0.0,1.44666,1.94911,0.0,2,0,0,0
233531669,34.0356727218,108.756561086,421.008,390.396,-0.0,1.44651,1.94882,0.0,2,0,0,0
233740258,34.035672533,108.756560206,421.031,390.417,-0.0,1.44668,1.94879,0.0,2,0,0,0
233938923,34.0356723426,108.756559405,421.071,390.454,-0.0,1.44669,1.94864,0.0,2,0,0,0
234137570,34.035672221,108.756558669,421.134,390.515,-0.0,1.4467,1.94898,0.0,2,0,0,0
234336229,34.0356722649,108.75655797,421.207,390.586,-0.0,1.44669,1.94881,0.0,2,0,0,0
234535065,34.0356725523,108.756557275,421.288,390.665,-0.0,1.44671,1.94865,0.0,2,0,0,0
234733539,34.0356729339,108.756556687,421.374,390.75,-0.0,1.44673,1.94899,0.0,2,0,0,0
234937162,34.0356733021,108.756556143,421.47,390.845,-0.0,1.44674,1.94883,0.0,2,0,0,0
235135818,34.0356735764,108.75655552,421.547,390.921,-0.0,1.44674,1.94916,0.0,2,0,0,0
235334620,34.0356738085,108.756554651,421.591,390.963,-0.0,1.44674,1.94899,0.0,2,0,0,0
235538097,34.0356739911,108.756553508,421.627,391.0,-0.0,1.44672,1.94883,0.0,2,0,0,0
235736754,34.0356741415,108.756552122,421.644,391.016,-0.0,1.44672,1.94867,0.0,2,0,0,0
