timestamp,x,y,z,r,flaps,aux1,aux2,aux3,aux4,aux5,aux6,mode_switch,return_switch,rattitude_switch,posctl_switch,loiter_switch,acro_switch,offboard_switch,kill_switch,arm_switch,transition_switch,gear_switch,mode_slot,data_source,stab_switch,man_switch
17664986,0.0192771,0.0282132,0.0,1.0,0.0,0.0,0.0,0.0,0.0,0.0,0.0,0,0,0,0,0,0,0,3,0,0,0,4,1,0,0
17687659,0.0192771,0.0282132,0.0,1.0,0.0,0.0,0.0,0.0,0.0,0.0,0.0,0,0,0,0,0,0,0,3,0,0,0,4,1,0,0
17866303,0.0192771,0.0282132,0.0,1.0,0.0,0.0,0.0,0.0,0.0,0.0,0.0,0,0,0,0,0,0,0,3,0,0,0,4,1,0,0
18067685,0.0192771,0.0282132,0.0,0.0504808,0.0,0.0,0.0,0.0,0.0,0.0,0.0,0,0,0,0,0,0,0,3,0,0,0,4,1,0,0
18268629,0.0192771,0.0282132,0.0,0.0,0.0,0.0,0.0,0.0,0.0,0.0,0.0,0,0,0,0,0,0,0,3,0,0,0,4,1,0,0
18469688,0.0192771,0.0282132,0.0,0.0,0.0,0.0,0.0,0.0,0.0,0.0,0.0,0,0,0,0,0,0,0,3,0,0,0,4,1,0,0
18679096,0.0192771,0.0282132,0.0,0.0,0.0,0.0,0.0,0.0,0.0,0.0,0.0,0,0,0,0,0,0,0,3,0,0,0,4,1,0,0
18872167,0.0192771,0.0282132,0.0,0.0,0.0,0.0,0.0,0.0,0.0,0.0,0.0,0,0,0,0,0,0,0,3,0,0,0,4,1,0,0
19074390,0.0192771,0.0282132,0.0,0.0,0.0,0.0,0.0,0.0,0.0,0.0,0.0,0,0,0,0,0,0,0,3,0,0,0,4,1,0,0
19274351,0.0192771,0.0282132,0.0,0.0,0.0,0.0,0.0,0.0,0.0,0.0,0.0,0,0,0,0,0,0,0,3,0,0,0,4,1,0,0
19476342,0.0192771,0.0282132,0.0,0.0,0.0,0.0,0.0,0.0,0.0,0.0,0.0,0,0,0,0,0,0,0,3,0,0,0,4,1,0,0
19675169,0.0192771,0.0282132,0.0,0.0,0.0,0.0,0.0,0.0,0.0,0.0,0.0,0,0,0,0,0,0,0,3,0,0,0,4,1,0,0
19875411,0.0192771,0.0282132,0.0,0.0,0.0,0.0,0.0,0.0,0.0,0.0,0.0,0,0,0,0,0,0,0,3,0,0,0,4,1,0,0
20077282,0.0192771,0.0282132,0.0,0.0,0.0,0.0,0.0,0.0,0.0,0.0,0.0,0,0,0,0,0,0,0,3,0,0,0,4,1,0,0
20277795,0.0192771,0.0282132,0.0,0.0,0.0,0.0,0.0,0.0,0.0,0.0,0.0,0,0,0,0,0,0,0,3,0,0,0,4,1,0,0
20479134,0.0192771,0.0282132,0.0,0.0,0.0,0.0,0.0,0.0,0.0,0.0,0.0,0,0,0,0,0,0,0,3,0,0,0,4,1,0,0
20677794,0.0192771,0.0282132,0.0,0.0,0.0,0.0,0.0,0.0,0.0,0.0,0.0,0,0,0,0,0,0,0,3,0,0,0,4,1,0,0
20878593,0.0192771,0.0282132,0.0,0.0,0.0,0.0,0.0,0.0,0.0,0.0,0.0,0,0,0,0,0,0,0,3,0,0,0,4,1,0,0
21080098,0.0192771,0.0282132,0.0,0.0,0.0,0.0,0.0,0.0,0.0,0.0,0.0,0,0,0,0,0,0,0,3,0,0,0,4,1,0,0
21281107,0.0192771,0.0282132,0.0,0.0,0.0,0.0,0.0,0.0,0.0,0.0,0.0,0,0,0,0,0,0,0,3,0,0,0,4,1,0,0
21459803,0.0192771,0.0282132,0.0,0.0,0.0,0.0,0.0,0.0,0.0,0.0,0.0,0,0,0,0,0,0,0,3,0,0,0,4,1,0,0
21661442,0.0192771,0.0282132,0.0,0.0,0.0,0.0,0.0,0.0,0.0,0.0,0.0,0,0,0,0,0,0,0,3,0,0,0,4,1,0,0
21859892,0.0192771,0.0282132,0.0,0.0,0.0,0.0,0.0,0.0,0.0,0.0,0.0,0,0,0,0,0,0,0,3,0,0,0,4,1,0,0
22083842,0.0216867,0.0282132,0.0,0.0,0.0,0.0,0.0,0.0,0.0,0.0,0.0,0,0,0,0,0,0,0,3,0,0,0,4,1,0,0
22262581,0.0216867,0.0282132,0.0,0.0,0.0,0.0,0.0,0.0,0.0,0.0,0.0,0,0,0,0,0,0,0,3,0,0,0,4,1,0,0
22463162,0.0216867,0.0282132,0.0,0.0,0.0,0.0,0.0,0.0,0.0,0.0,0.0,0,0,0,0,0,0,0,3,0,0,0,4,1,0,0
22664985,0.0216867,0.0282132,0.0,0.0,0.0,0.0,0.0,0.0,0.0,0.0,0.0,0,0,0,0,0,0,0,3,0,0,0,4,1,0,0
22865525,0.0216867,0.0282132,0.0,0.0,0.0,0.0,0.0,0.0,0.0,0.0,0.0,0,0,0,0,0,0,0,3,0,0,0,4,1,0,0
23066838,0.0216867,0.0282132,0.0,0.0,0.0,0.0,0.0,0.0,0.0,0.0,0.0,0,0,0,0,0,0,0,3,0,0,0,4,1,0,0
23267878,0.0216867,0.0282132,0.0,0.0,0.0,0.0,0.0,0.0,0.0,0.0,0.0,0,0,0,0,0,0,0,3,0,0,0,4,1,0,0
23469213,0.0216867,0.0282132,0.0,0.0480769,0.0,0.0,0.0,0.0,0.0,0.0,0.0,0,0,0,0,0,0,0,3,0,0,0,4,1,0,0
23670271,0.0216867,0.0282132,0.0,0.0264423,0.0,0.0,0.0,0.0,0.0,0.0,0.0,0,0,0,0,0,0,0,3,0,0,0,4,1,0,0
23868944,0.0216867,0.0282132,0.0,0.0144231,0.0,0.0,0.0,0.0,0.0,0.0,0.0,0,0,0,0,0,0,0,3,0,0,0,4,1,0,0
24067518,0.0216867,0.0282132,0.0208078,0.0,0.0,0.0,0.0,0.0,0.0,0.0,0.0,0,0,0,0,0,0,0,3,0,0,0,4,1,0,0
24266463,0.0216867,0.0282132,0.0208078,0.0,0.0,0.0,0.0,0.0,0.0,0.0,0.0,0,0,0,0,0,0,0,3,0,0,0,4,1,0,0
24467688,0.0192771,0.0282132,0.0208078,0.0,0.0,0.0,0.0,0.0,0.0,0.0,0.0,0,0,0,0,0,0,0,3,0,0,0,4,1,0,0
24668747,0.0192771,0.0282132,0.0183599,0.0,0.0,0.0,0.0,0.0,0.0,0.0,0.0,0,0,0,0,0,0,0,3,0,0,0,4,1,0,0
24867270,0.0192771,0.0282132,0.0183599,0.0,0.0,0.0,0.0,0.0,0.0,0.0,0.0,0,0,0,0,0,0,0,3,0,0,0,4,1,0,0
25068815,0.0192771,0.0282132,0.0159119,0.0,0.0,0.0,0.0,0.0,0.0,0.0,0.0,0,0,0,0,0,0,0,3,0,0,0,4,1,0,0
25269745,0.0216867,0.0282132,0.112607,0.0,0.0,0.0,0.0,0.0,0.0,0.0,0.0,0,0,0,0,0,0,0,3,0,0,0,4,1,0,0
25468299,0.0216867,0.0282132,0.113831,0.0,0.0,0.0,0.0,0.0,0.0,0.0,0.0,0,0,0,0,0,0,0,3,0,0,0,4,1,0,0
25666927,0.0216867,0.0282132,0.100367,0.0,0.0,0.0,0.0,0.0,0.0,0.0,0.0,0,0,0,0,0,0,0,3,0,0,0,4,1,0,0
25869048,0.0240964,0.0282132,0.101591,0.0,0.0,0.0,0.0,0.0,0.0,0.0,0.0,0,0,0,0,0,0,0,3,0,0,0,4,1,0,0
26069314,0.0216867,0.031348,0.100367,0.0,0.0,0.0,0.0,0.0,0.0,0.0,0.0,0,0,0,0,0,0,0,3,0,0,0,4,1,0,0
26268007,0.0578313,0.0219436,0.100367,0.0,0.0,0.0,0.0,0.0,0.0,0.0,0.0,0,0,0,0,0,0,0,3,0,0,0,4,1,0,0
26469406,0.026506,0.031348,0.100367,0.0,0.0,0.0,0.0,0.0,0.0,0.0,0.0,0,0,0,0,0,0,0,3,0,0,0,4,1,0,0
26670479,0.0192771,0.0282132,0.101591,0.0,0.0,0.0,0.0,0.0,0.0,0.0,0.0,0,0,0,0,0,0,0,3,0,0,0,4,1,0,0
26876691,0.0192771,0.031348,0.100367,0.0,0.0,0.0,0.0,0.0,0.0,0.0,0.0,0,0,0,0,0,0,0,3,0,0,0,4,1,0,0
27067736,0.0192771,0.0282132,0.100367,0.0,0.0,0.0,0.0,0.0,0.0,0.0,0.0,0,0,0,0,0,0,0,3,0,0,0,4,1,0,0
27266447,0.0216867,0.0282132,0.100367,0.0,0.0,0.0,0.0,0.0,0.0,0.0,0.0,0,0,0,0,0,0,0,3,0,0,0,4,1,0,0
27467856,0.0240964,0.0282132,0.112607,0.0,0.0,0.0,0.0,0.0,0.0,0.0,0.0,0,0,0,0,0,0,0,3,0,0,0,4,1,0,0
27666459,0.0240964,0.0282132,0.146879,0.0,0.0,0.0,0.0,0.0,0.0,0.0,0.0,0,0,0,0,0,0,0,3,0,0,0,4,1,0,0
27867388,0.0216867,0.0282132,0.157895,0.0,0.0,0.0,0.0,0.0,0.0,0.0,0.0,0,0,0,0,0,0,0,3,0,0,0,4,1,0,0
28069001,0.0192771,0.031348,0.152999,0.0,0.0,0.0,0.0,0.0,0.0,0.0,0.0,0,0,0,0,0,0,0,3,0,0,0,4,1,0,0
28269786,0.0192771,0.0250784,0.152999,0.0,0.0,0.0,0.0,0.0,0.0,0.0,0.0,0,0,0,0,0,0,0,3,0,0,0,4,1,0,0
28468647,0.0192771,0.031348,0.152999,0.0,0.0,0.0,0.0,0.0,0.0,0.0,0.0,0,0,0,0,0,0,0,3,0,0,0,4,1,0,0
28667244,0.0192771,0.031348,0.152999,0.0,0.0,0.0,0.0,0.0,0.0,0.0,0.0,0,0,0,0,0,0,0,3,0,0,0,4,1,0,0
28868536,0.0192771,0.0282132,0.155447,0.0,0.0,0.0,0.0,0.0,0.0,0.0,0.0,0,0,0,0,0,0,0,3,0,0,0,4,1,0,0
29069458,0.0192771,0.0282132,0.151775,0.0,0.0,0.0,0.0,0.0,0.0,0.0,0.0,0,0,0,0,0,0,0,3,0,0,0,4,1,0,0
29270798,0.0192771,0.0282132,0.156671,0.0,0.0,0.0,0.0,0.0,0.0,0.0,0.0,0,0,0,0,0,0,0,3,0,0,0,4,1,0,0
29471697,0.0192771,0.0282132,0.156671,0.0,0.0,0.0,0.0,0.0,0.0,0.0,0.0,0,0,0,0,0,0,0,3,0,0,0,4,1,0,0
29673232,0.0192771,0.0282132,0.173807,0.0,0.0,0.0,0.0,0.0,0.0,0.0,0.0,0,0,0,0,0,0,0,3,0,0,0,4,1,0,0
29874153,0.0192771,0.0282132,0.183599,0.0,0.0,0.0,0.0,0.0,0.0,0.0,0.0,0,0,0,0,0,0,0,3,0,0,0,4,1,0,0
30072694,0.0192771,0.0250784,0.189718,0.0,0.0,0.0,0.0,0.0,0.0,0.0,0.0,0,0,0,0,0,0,0,3,0,0,0,4,1,0,0
30271427,0.0192771,0.0282132,0.235006,0.0,0.0,0.0,0.0,0.0,0.0,0.0,0.0,0,0,0,0,0,0,0,3,0,0,0,4,1,0,0
30467884,0.0192771,0.0282132,0.23623,0.0,0.0,0.0,0.0,0.0,0.0,0.0,0.0,0,0,0,0,0,0,0,3,0,0,0,4,1,0,0
30668818,0.0192771,0.0282132,0.255814,0.0,0.0,0.0,0.0,0.0,0.0,0.0,0.0,0,0,0,0,0,0,0,3,0,0,0,4,1,0,0
30870757,0.0192771,0.0282132,0.244798,0.0,0.0,0.0,0.0,0.0,0.0,0.0,0.0,0,0,0,0,0,0,0,3,0,0,0,4,1,0,0
31066383,0.0192771,0.0282132,0.241126,0.0,0.0,0.0,0.0,0.0,0.0,0.0,0.0,0,0,0,0,0,0,0,3,0,0,0,4,1,0,0
31267598,0.0192771,0.0282132,0.24847,0.0,0.0,0.0,0.0,0.0,0.0,0.0,0.0,0,0,0,0,0,0,0,3,0,0,0,4,1,0,0
31468618,0.0192771,0.031348,0.265606,0.0,0.0,0.0,0.0,0.0,0.0,0.0,0.0,0,0,0,0,0,0,0,3,0,0,0,4,1,0,0
31670451,0.0192771,0.0282132,0.265606,0.0,0.0,0.0,0.0,0.0,0.0,0.0,0.0,0,0,0,0,0,0,0,3,0,0,0,4,1,0,0
31870869,0.0192771,0.0344828,0.264382,0.0,0.0,0.0,0.0,0.0,0.0,0.0,0.0,0,0,0,0,0,0,0,3,0,0,0,4,1,0,0
32067433,0.0192771,0.0282132,0.264382,0.0,0.0,0.0,0.0,0.0,0.0,0.0,0.0,0,0,0,0,0,0,0,3,0,0,0,4,1,0,0
32268158,0.0192771,0.0282132,0.26683,0.00240385,0.0,0.0,0.0,0.0,0.0,0.0,0.0,0,0,0,0,0,0,0,3,0,0,0,4,1,0,0
32469522,0.0192771,0.031348,0.27907,0.0,0.0,0.0,0.0,0.0,0.0,0.0,0.0,0,0,0,0,0,0,0,3,0,0,0,4,1,0,0
32668410,0.0192771,0.0282132,0.27907,0.0,0.0,0.0,0.0,0.0,0.0,0.0,0.0,0,0,0,0,0,0,0,3,0,0,0,4,1,0,0
32869460,0.0192771,0.031348,0.277846,0.0,0.0,0.0,0.0,0.0,0.0,0.0,0.0,0,0,0,0,0,0,0,3,0,0,0,4,1,0,0
33068023,0.0192771,0.0344828,0.277846,0.0,0.0,0.0,0.0,0.0,0.0,0.0,0.0,0,0,0,0,0,0,0,3,0,0,0,4,1,0,0
33269321,0.0192771,0.0344828,0.276622,0.0,0.0,0.0,0.0,0.0,0.0,0.0,0.0,0,0,0,0,0,0,0,3,0,0,0,4,1,0,0
33470467,0.0192771,0.031348,0.275398,0.0,0.0,0.0,0.0,0.0,0.0,0.0,0.0,0,0,0,0,0,0,0,3,0,0,0,4,1,0,0
33671814,0.0192771,0.0344828,0.275398,0.0,0.0,0.0,0.0,0.0,0.0,0.0,0.0,0,0,0,0,0,0,0,3,0,0,0,4,1,0,0
33872563,0.0192771,0.0344828,0.315789,0.0,0.0,0.0,0.0,0.0,0.0,0.0,0.0,0,0,0,0,0,0,0,3,0,0,0,4,1,0,0
34071263,0.0192771,0.0344828,0.317013,0.0,0.0,0.0,0.0,0.0,0.0,0.0,0.0,0,0,0,0,0,0,0,3,0,0,0,4,1,0,0
34269919,0.0192771,0.0282132,0.321909,0.0,0.0,0.0,0.0,0.0,0.0,0.0,0.0,0,0,0,0,0,0,0,3,0,0,0,4,1,0,0
34468821,0.0192771,0.0783699,0.320685,0.0,0.0,0.0,0.0,0.0,0.0,0.0,0.0,0,0,0,0,0,0,0,3,0,0,0,4,1,0,0
34670131,0.0192771,0.119122,0.320685,0.0,0.0,0.0,0.0,0.0,0.0,0.0,0.0,0,0,0,0,0,0,0,3,0,0,0,4,1,0,0
34871212,0.0192771,0.0344828,0.320685,0.0,0.0,0.0,0.0,0.0,0.0,0.0,0.0,0,0,0,0,0,0,0,3,0,0,0,4,1,0,0
35069857,0.0192771,0.031348,0.330477,0.0,0.0,0.0,0.0,0.0,0.0,0.0,0.0,0,0,0,0,0,0,0,3,0,0,0,4,1,0,0
35271175,0.0192771,0.031348,0.340269,0.0,0.0,0.0,0.0,0.0,0.0,0.0,0.0,0,0,0,0,0,0,0,3,0,0,0,4,1,0,0
35472051,0.0192771,0.031348,0.340269,0.0,0.0,0.0,0.0,0.0,0.0,0.0,0.0,0,0,0,0,0,0,0,3,0,0,0,4,1,0,0
35670714,0.0192771,0.031348,0.340269,0.0,0.0,0.0,0.0,0.0,0.0,0.0,0.0,0,0,0,0,0,0,0,3,0,0,0,4,1,0,0
35867277,0.0192771,0.031348,0.346389,0.0,0.0,0.0,0.0,0.0,0.0,0.0,0.0,0,0,0,0,0,0,0,3,0,0,0,4,1,0,0
36076460,0.0192771,0.031348,0.363525,0.0120192,0.0,0.0,0.0,0.0,0.0,0.0,0.0,0,0,0,0,0,0,0,3,0,0,0,4,1,0,0
36270165,0.0192771,0.031348,0.363525,0.0168269,0.0,0.0,0.0,0.0,0.0,0.0,0.0,0,0,0,0,0,0,0,3,0,0,0,4,1,0,0
36470407,0.0192771,0.031348,0.364749,0.03125,0.0,0.0,0.0,0.0,0.0,0.0,0.0,0,0,0,0,0,0,0,3,0,0,0,4,1,0,0
36669065,0.0192771,0.0344828,0.389229,0.0216346,0.0,0.0,0.0,0.0,0.0,0.0,0.0,0,0,0,0,0,0,0,3,0,0,0,4,1,0,0
36868005,0.0192771,0.0344828,0.390453,0.03125,0.0,0.0,0.0,0.0,0.0,0.0,0.0,0,0,0,0,0,0,0,3,0,0,0,4,1,0,0
37069203,0.0192771,0.0344828,0.394125,0.0408654,0.0,0.0,0.0,0.0,0.0,0.0,0.0,0,0,0,0,0,0,0,3,0,0,0,4,1,0,0
37270172,0.0192771,0.031348,0.397797,0.0528846,0.0,0.0,0.0,0.0,0.0,0.0,0.0,0,0,0,0,0,0,0,3,0,0,0,4,1,0,0
37471558,0.0192771,0.0344828,0.439412,0.0576923,0.0,0.0,0.0,0.0,0.0,0.0,0.0,0,0,0,0,0,0,0,3,0,0,0,4,1,0,0
37672504,0.0192771,0.0344828,0.440636,0.0576923,0.0,0.0,0.0,0.0,0.0,0.0,0.0,0,0,0,0,0,0,0,3,0,0,0,4,1,0,0
37871146,0.0192771,0.0344828,0.456548,0.0625,0.0,0.0,0.0,0.0,0.0,0.0,0.0,0,0,0,0,0,0,0,3,0,0,0,4,1,0,0
38070084,0.0192771,0.031348,0.468788,0.0600962,0.0,0.0,0.0,0.0,0.0,0.0,0.0,0,0,0,0,0,0,0,3,0,0,0,4,1,0,0
38271288,0.0192771,0.213166,0.468788,0.0,0.0,0.0,0.0,0.0,0.0,0.0,0.0,0,0,0,0,0,0,0,3,0,0,0,4,1,0,0
38472145,0.0192771,0.0658307,0.465116,0.0,0.0,0.0,0.0,0.0,0.0,0.0,0.0,0,0,0,0,0,0,0,3,0,0,0,4,1,0,0
38670797,0.0192771,0.0344828,0.471236,0.0,0.0,0.0,0.0,0.0,0.0,0.0,0.0,0,0,0,0,0,0,0,3,0,0,0,4,1,0,0
38869550,0.0192771,0.0344828,0.456548,-0.00696056,0.0,0.0,0.0,0.0,0.0,0.0,0.0,0,0,0,0,0,0,0,3,0,0,0,4,1,0,0
39068273,0.0192771,0.0344828,0.468788,0.0,0.0,0.0,0.0,0.0,0.0,0.0,0.0,0,0,0,0,0,0,0,3,0,0,0,4,1,0,0
39270361,0.0192771,0.0344828,0.514076,0.0,0.0,0.0,0.0,0.0,0.0,0.0,0.0,0,0,0,0,0,0,0,3,0,0,0,4,1,0,0
39468269,0.0192771,0.0344828,0.5153,0.0,0.0,0.0,0.0,0.0,0.0,0.0,0.0,0,0,0,0,0,0,0,3,0,0,0,4,1,0,0
39669290,0.0192771,0.0282132,0.516524,0.0,0.0,0.0,0.0,0.0,0.0,0.0,0.0,0,0,0,0,0,0,0,3,0,0,0,4,1,0,0
39870699,0.0216867,0.203762,0.5153,0.0,0.0,0.0,0.0,0.0,0.0,0.0,0.0,0,0,0,0,0,0,0,3,0,0,0,4,1,0,0
40071693,0.0216867,0.244514,0.5153,0.0,0.0,0.0,0.0,0.0,0.0,0.0,0.0,0,0,0,0,0,0,0,3,0,0,0,4,1,0,0
40268508,0.0216867,0.231975,0.514076,0.0,0.0,0.0,0.0,0.0,0.0,0.0,0.0,0,0,0,0,0,0,0,3,0,0,0,4,1,0,0
40468977,0.0192771,0.031348,0.514076,0.0,0.0,0.0,0.0,0.0,0.0,0.0,0.0,0,0,0,0,0,0,0,3,0,0,0,4,1,0,0
40670562,0.0192771,0.0282132,0.493268,0.0,0.0,0.0,0.0,0.0,0.0,0.0,0.0,0,0,0,0,0,0,0,3,0,0,0,4,1,0,0
40871366,0.0216867,0.0282132,0.494492,0.0,0.0,0.0,0.0,0.0,0.0,0.0,0.0,0,0,0,0,0,0,0,3,0,0,0,4,1,0,0
41069975,0.0987952,0.0282132,0.493268,0.0,0.0,0.0,0.0,0.0,0.0,0.0,0.0,0,0,0,0,0,0,0,3,0,0,0,4,1,0,0
41268873,0.0192771,0.0282132,0.532436,0.0,0.0,0.0,0.0,0.0,0.0,0.0,0.0,0,0,0,0,0,0,0,3,0,0,0,4,1,0,0
41467512,0.0192771,0.0282132,0.55814,0.0,0.0,0.0,0.0,0.0,0.0,0.0,0.0,0,0,0,0,0,0,0,3,0,0,0,4,1,0,0
41668732,0.0192771,0.0282132,0.559364,0.0,0.0,0.0,0.0,0.0,0.0,0.0,0.0,0,0,0,0,0,0,0,3,0,0,0,4,1,0,0
41869729,0.0192771,0.0282132,0.55814,0.0,0.0,0.0,0.0,0.0,0.0,0.0,0.0,0,0,0,0,0,0,0,3,0,0,0,4,1,0,0
42068555,0.0216867,0.188088,0.554468,0.0,0.0,0.0,0.0,0.0,0.0,0.0,0.0,0,0,0,0,0,0,0,3,0,0,0,4,1,0,0
42269952,0.0361446,0.282132,0.554468,0.0,0.0,0.0,0.0,0.0,0.0,0.0,0.0,0,0,0,0,0,0,0,3,0,0,0,4,1,0,0
42470868,0.0216867,0.0438871,0.554468,0.0,0.0,0.0,0.0,0.0,0.0,0.0,0.0,0,0,0,0,0,0,0,3,0,0,0,4,1,0,0
42669413,0.0216867,0.0344828,0.553244,0.0,0.0,0.0,0.0,0.0,0.0,0.0,0.0,0,0,0,0,0,0,0,3,0,0,0,4,1,0,0
42870803,0.0216867,0.0344828,0.528764,0.0,0.0,0.0,0.0,0.0,0.0,0.0,0.0,0,0,0,0,0,0,0,3,0,0,0,4,1,0,0
43069506,0.0843373,0.0282132,0.517748,0.0,0.0,0.0,0.0,0.0,0.0,0.0,0.0,0,0,0,0,0,0,0,3,0,0,0,4,1,0,0
43268112,0.0192771,0.0282132,0.514076,0.0,0.0,0.0,0.0,0.0,0.0,0.0,0.0,0,0,0,0,0,0,0,3,0,0,0,4,1,0,0
43469286,0.0192771,0.0282132,0.511628,0.0,0.0,0.0,0.0,0.0,0.0,0.0,0.0,0,0,0,0,0,0,0,3,0,0,0,4,1,0,0
43665601,0.0216867,0.0282132,0.510404,0.0,0.0,0.0,0.0,0.0,0.0,0.0,0.0,0,0,0,0,0,0,0,3,0,0,0,4,1,0,0
43866554,0.0216867,0.0344828,0.510404,0.0,0.0,0.0,0.0,0.0,0.0,0.0,0.0,0,0,0,0,0,0,0,3,0,0,0,4,1,0,0
44067901,0.0216867,0.0344828,0.49694,-0.0162413,0.0,0.0,0.0,0.0,0.0,0.0,0.0,0,0,0,0,0,0,0,3,0,0,0,4,1,0,0
44268726,0.0192771,0.0344828,0.499388,-0.0556845,0.0,0.0,0.0,0.0,0.0,0.0,0.0,0,0,0,0,0,0,0,3,0,0,0,4,1,0,0
44470209,0.0216867,0.0658307,0.499388,0.0,0.0,0.0,0.0,0.0,0.0,0.0,0.0,0,0,0,0,0,0,0,3,0,0,0,4,1,0,0
44671206,0.0216867,0.282132,0.499388,0.0,0.0,0.0,0.0,0.0,0.0,0.0,0.0,0,0,0,0,0,0,0,3,0,0,0,4,1,0,0
44872502,0.0192771,0.031348,0.499388,0.0,0.0,0.0,0.0,0.0,0.0,0.0,0.0,0,0,0,0,0,0,0,3,0,0,0,4,1,0,0
45071151,0.0192771,0.0282132,0.498164,0.0,0.0,0.0,0.0,0.0,0.0,0.0,0.0,0,0,0,0,0,0,0,3,0,0,0,4,1,0,0
45279878,0.0192771,0.0282132,0.498164,0.0,0.0,0.0,0.0,0.0,0.0,0.0,0.0,0,0,0,0,0,0,0,3,0,0,0,4,1,0,0
45470873,0.0939759,0.0282132,0.499388,0.0,0.0,0.0,0.0,0.0,0.0,0.0,0.0,0,0,0,0,0,0,0,3,0,0,0,4,1,0,0
45672240,0.106024,0.031348,0.499388,0.0144231,0.0,0.0,0.0,0.0,0.0,0.0,0.0,0,0,0,0,0,0,0,3,0,0,0,4,1,0,0
45870991,0.0192771,0.0282132,0.501836,0.0,0.0,0.0,0.0,0.0,0.0,0.0,0.0,0,0,0,0,0,0,0,3,0,0,0,4,1,0,0
46071929,0.0192771,0.0282132,0.501836,0.0120192,0.0,0.0,0.0,0.0,0.0,0.0,0.0,0,0,0,0,0,0,0,3,0,0,0,4,1,0,0
46273306,0.0192771,0.0282132,0.501836,0.0,0.0,0.0,0.0,0.0,0.0,0.0,0.0,0,0,0,0,0,0,0,3,0,0,0,4,1,0,0
46474183,0.0240964,0.0752351,0.498164,0.0,0.0,0.0,0.0,0.0,0.0,0.0,0.0,0,0,0,0,0,0,0,3,0,0,0,4,1,0,0
46672967,0.0216867,0.0282132,0.516524,0.0,0.0,0.0,0.0,0.0,0.0,0.0,0.0,0,0,0,0,0,0,0,3,0,0,0,4,1,0,0
46869326,0.0216867,0.031348,0.516524,0.0,0.0,0.0,0.0,0.0,0.0,0.0,0.0,0,0,0,0,0,0,0,3,0,0,0,4,1,0,0
47070243,0.13012,0.147335,0.5153,0.0,0.0,0.0,0.0,0.0,0.0,0.0,0.0,0,0,0,0,0,0,0,3,0,0,0,4,1,0,0
47272408,0.0409639,0.0626959,0.516524,0.0,0.0,0.0,0.0,0.0,0.0,0.0,0.0,0,0,0,0,0,0,0,3,0,0,0,4,1,0,0
47472539,0.0192771,0.031348,0.516524,0.0,0.0,0.0,0.0,0.0,0.0,0.0,0.0,0,0,0,0,0,0,0,3,0,0,0,4,1,0,0
47674598,0.0216867,0.0282132,0.50918,0.0,0.0,0.0,0.0,0.0,0.0,0.0,0.0,0,0,0,0,0,0,0,3,0,0,0,4,1,0,0
47874944,0.0192771,0.0564263,0.532436,0.0,0.0,0.0,0.0,0.0,0.0,0.0,0.0,0,0,0,0,0,0,0,3,0,0,0,4,1,0,0
48076816,0.0192771,0.197492,0.529988,0.0,0.0,0.0,0.0,0.0,0.0,0.0,0.0,0,0,0,0,0,0,0,3,0,0,0,4,1,0,0
48277338,0.0192771,0.0344828,0.529988,0.0,0.0,0.0,0.0,0.0,0.0,0.0,0.0,0,0,0,0,0,0,0,3,0,0,0,4,1,0,0
48474411,0.0192771,0.0282132,0.531212,0.0,0.0,0.0,0.0,0.0,0.0,0.0,0.0,0,0,0,0,0,0,0,3,0,0,0,4,1,0,0
48672753,0.0216867,0.0909091,0.529988,0.0,0.0,0.0,0.0,0.0,0.0,0.0,0.0,0,0,0,0,0,0,0,3,0,0,0,4,1,0,0
48871453,0.0192771,0.0344828,0.529988,0.0,0.0,0.0,0.0,0.0,0.0,0.0,0.0,0,0,0,0,0,0,0,3,0,0,0,4,1,0,0
49067201,0.0192771,0.031348,0.529988,0.0,0.0,0.0,0.0,0.0,0.0,0.0,0.0,0,0,0,0,0,0,0,3,0,0,0,4,1,0,0
49263588,0.106024,0.0344828,0.529988,0.0,0.0,0.0,0.0,0.0,0.0,0.0,0.0,0,0,0,0,0,0,0,3,0,0,0,4,1,0,0
49464478,0.106024,0.031348,0.529988,0.0,0.0,0.0,0.0,0.0,0.0,0.0,0.0,0,0,0,0,0,0,0,3,0,0,0,4,1,0,0
49666523,0.0987952,0.031348,0.529988,0.0,0.0,0.0,0.0,0.0,0.0,0.0,0.0,0,0,0,0,0,0,0,3,0,0,0,4,1,0,0
49866774,0.0192771,0.0282132,0.553244,0.0,0.0,0.0,0.0,0.0,0.0,0.0,0.0,0,0,0,0,0,0,0,3,0,0,0,4,1,0,0
50065643,0.0192771,0.0282132,0.553244,0.0,0.0,0.0,0.0,0.0,0.0,0.0,0.0,0,0,0,0,0,0,0,3,0,0,0,4,1,0,0
50267775,0.0192771,0.031348,0.553244,0.0,0.0,0.0,0.0,0.0,0.0,0.0,0.0,0,0,0,0,0,0,0,3,0,0,0,4,1,0,0
50467811,0.0192771,0.031348,0.553244,0.0,0.0,0.0,0.0,0.0,0.0,0.0,0.0,0,0,0,0,0,0,0,3,0,0,0,4,1,0,0
50666597,0.0192771,0.194357,0.553244,0.0,0.0,0.0,0.0,0.0,0.0,0.0,0.0,0,0,0,0,0,0,0,3,0,0,0,4,1,0,0
50867884,0.0216867,0.031348,0.549572,0.0,0.0,0.0,0.0,0.0,0.0,0.0,0.0,0,0,0,0,0,0,0,3,0,0,0,4,1,0,0
51066917,0.0506024,0.0282132,0.549572,0.0,0.0,0.0,0.0,0.0,0.0,0.0,0.0,0,0,0,0,0,0,0,3,0,0,0,4,1,0,0
51265615,0.110843,0.0282132,0.541004,0.00721154,0.0,0.0,0.0,0.0,0.0,0.0,0.0,0,0,0,0,0,0,0,3,0,0,0,4,1,0,0
51466267,0.122892,0.0344828,0.53978,0.0,0.0,0.0,0.0,0.0,0.0,0.0,0.0,0,0,0,0,0,0,0,3,0,0,0,4,1,0,0
51664887,0.13494,0.0344828,0.53978,0.0,0.0,0.0,0.0,0.0,0.0,0.0,0.0,0,0,0,0,0,0,0,3,0,0,0,4,1,0,0
51866315,0.161446,0.0344828,0.514076,0.0576923,0.0,0.0,0.0,0.0,0.0,0.0,0.0,0,0,0,0,0,0,0,3,0,0,0,4,1,0,0
52067242,0.13012,0.0344828,0.514076,0.0192308,0.0,0.0,0.0,0.0,0.0,0.0,0.0,0,0,0,0,0,0,0,3,0,0,0,4,1,0,0
52265999,0.106024,0.0501567,0.514076,0.0,0.0,0.0,0.0,0.0,0.0,0.0,0.0,0,0,0,0,0,0,0,3,0,0,0,4,1,0,0
52464552,0.0192771,0.0344828,0.514076,0.0,0.0,0.0,0.0,0.0,0.0,0.0,0.0,0,0,0,0,0,0,0,3,0,0,0,4,1,0,0
52663140,0.0192771,0.0344828,0.514076,0.0,0.0,0.0,0.0,0.0,0.0,0.0,0.0,0,0,0,0,0,0,0,3,0,0,0,4,1,0,0
52865397,0.0192771,0.0376176,0.514076,0.0,0.0,0.0,0.0,0.0,0.0,0.0,0.0,0,0,0,0,0,0,0,3,0,0,0,4,1,0,0
53063336,0.0192771,0.197492,0.514076,0.0,0.0,0.0,0.0,0.0,0.0,0.0,0.0,0,0,0,0,0,0,0,3,0,0,0,4,1,0,0
53264492,0.0192771,0.0344828,0.514076,0.0,0.0,0.0,0.0,0.0,0.0,0.0,0.0,0,0,0,0,0,0,0,3,0,0,0,4,1,0,0
53466388,0.0216867,0.0344828,0.507956,0.0,0.0,0.0,0.0,0.0,0.0,0.0,0.0,0,0,0,0,0,0,0,3,0,0,0,4,1,0,0
53666627,0.0216867,0.0344828,0.507956,0.0,0.0,0.0,0.0,0.0,0.0,0.0,0.0,0,0,0,0,0,0,0,3,0,0,0,4,1,0,0
53868240,0.0216867,0.106583,0.507956,0.0,0.0,0.0,0.0,0.0,0.0,0.0,0.0,0,0,0,0,0,0,0,3,0,0,0,4,1,0,0
54069170,0.0216867,0.238245,0.507956,0.0,0.0,0.0,0.0,0.0,0.0,0.0,0.0,0,0,0,0,0,0,0,3,0,0,0,4,1,0,0
54271053,0.0192771,0.0344828,0.507956,0.0,0.0,0.0,0.0,0.0,0.0,0.0,0.0,0,0,0,0,0,0,0,3,0,0,0,4,1,0,0
54476738,0.0192771,0.031348,0.507956,0.0,0.0,0.0,0.0,0.0,0.0,0.0,0.0,0,0,0,0,0,0,0,3,0,0,0,4,1,0,0
54669934,0.0746988,0.0282132,0.507956,0.0,0.0,0.0,0.0,0.0,0.0,0.0,0.0,0,0,0,0,0,0,0,3,0,0,0,4,1,0,0
54872109,0.178313,0.0219436,0.507956,0.0,0.0,0.0,0.0,0.0,0.0,0.0,0.0,0,0,0,0,0,0,0,3,0,0,0,4,1,0,0
55072334,0.125301,0.0282132,0.507956,0.0,0.0,0.0,0.0,0.0,0.0,0.0,0.0,0,0,0,0,0,0,0,3,0,0,0,4,1,0,0
55274256,0.0192771,0.0282132,0.507956,0.0,0.0,0.0,0.0,0.0,0.0,0.0,0.0,0,0,0,0,0,0,0,3,0,0,0,4,1,0,0
55474831,0.0192771,0.269592,0.507956,0.0,0.0,0.0,0.0,0.0,0.0,0.0,0.0,0,0,0,0,0,0,0,3,0,0,0,4,1,0,0
55676716,0.0192771,0.435737,0.507956,0.0,0.0,0.0,0.0,0.0,0.0,0.0,0.0,0,0,0,0,0,0,0,3,0,0,0,4,1,0,0
55877087,0.0192771,0.169279,0.507956,0.0,0.0,0.0,0.0,0.0,0.0,0.0,0.0,0,0,0,0,0,0,0,3,0,0,0,4,1,0,0
56078401,0.0192771,0.0282132,0.50918,0.0,0.0,0.0,0.0,0.0,0.0,0.0,0.0,0,0,0,0,0,0,0,3,0,0,0,4,1,0,0
56279294,0.026506,-0.00304878,0.511628,0.0,0.0,0.0,0.0,0.0,0.0,0.0,0.0,0,0,0,0,0,0,0,3,0,0,0,4,1,0,0
56480708,0.0216867,-0.0640244,0.517748,0.0,0.0,0.0,0.0,0.0,0.0,0.0,0.0,0,0,0,0,0,0,0,3,0,0,0,4,1,0,0
56681706,0.0216867,-0.140244,0.516524,0.0,0.0,0.0,0.0,0.0,0.0,0.0,0.0,0,0,0,0,0,0,0,3,0,0,0,4,1,0,0
56860430,0.0216867,-0.118902,0.516524,0.0,0.0,0.0,0.0,0.0,0.0,0.0,0.0,0,0,0,0,0,0,0,3,0,0,0,4,1,0,0
57061983,0.0337349,-0.027439,0.495716,0.0,0.0,0.0,0.0,0.0,0.0,0.0,0.0,0,0,0,0,0,0,0,3,0,0,0,4,1,0,0
57262890,0.0192771,0.0282132,0.495716,0.0,0.0,0.0,0.0,0.0,0.0,0.0,0.0,0,0,0,0,0,0,0,3,0,0,0,4,1,0,0
57461427,0.122892,0.0376176,0.492044,0.0,0.0,0.0,0.0,0.0,0.0,0.0,0.0,0,0,0,0,0,0,0,3,0,0,0,4,1,0,0
57663435,0.139759,0.0282132,0.494492,0.0,0.0,0.0,0.0,0.0,0.0,0.0,0.0,0,0,0,0,0,0,0,3,0,0,0,4,1,0,0
57864183,0.0192771,0.0282132,0.522644,0.0,0.0,0.0,0.0,0.0,0.0,0.0,0.0,0,0,0,0,0,0,0,3,0,0,0,4,1,0,0
58065646,0.0216867,0.285266,0.549572,0.0,0.0,0.0,0.0,0.0,0.0,0.0,0.0,0,0,0,0,0,0,0,3,0,0,0,4,1,0,0
58266092,0.0240964,0.231975,0.544676,0.0,0.0,0.0,0.0,0.0,0.0,0.0,0.0,0,0,0,0,0,0,0,3,0,0,0,4,1,0,0
58468201,0.0192771,0.031348,0.544676,0.0,0.0,0.0,0.0,0.0,0.0,0.0,0.0,0,0,0,0,0,0,0,3,0,0,0,4,1,0,0
58666689,0.0192771,0.031348,0.575275,0.0,0.0,0.0,0.0,0.0,0.0,0.0,0.0,0,0,0,0,0,0,0,3,0,0,0,4,1,0,0
58867240,0.0192771,0.0344828,0.578947,0.0,0.0,0.0,0.0,0.0,0.0,0.0,0.0,0,0,0,0,0,0,0,3,0,0,0,4,1,0,0
59068550,0.0216867,0.031348,0.572827,0.0,0.0,0.0,0.0,0.0,0.0,0.0,0.0,0,0,0,0,0,0,0,3,0,0,0,4,1,0,0
59269529,0.120482,0.031348,0.569155,0.0,0.0,0.0,0.0,0.0,0.0,0.0,0.0,0,0,0,0,0,0,0,3,0,0,0,4,1,0,0
59468269,0.149398,0.031348,0.566707,0.0,0.0,0.0,0.0,0.0,0.0,0.0,0.0,0,0,0,0,0,0,0,3,0,0,0,4,1,0,0
59664637,0.171084,0.0344828,0.566707,0.0,0.0,0.0,0.0,0.0,0.0,0.0,0.0,0,0,0,0,0,0,0,3,0,0,0,4,1,0,0
59865540,0.168675,0.0344828,0.567931,0.0,0.0,0.0,0.0,0.0,0.0,0.0,0.0,0,0,0,0,0,0,0,3,0,0,0,4,1,0,0
60067226,0.0506024,0.0595611,0.565483,0.0,0.0,0.0,0.0,0.0,0.0,0.0,0.0,0,0,0,0,0,0,0,3,0,0,0,4,1,0,0
60267978,0.0168675,0.169279,0.550796,0.0,0.0,0.0,0.0,0.0,0.0,0.0,0.0,0,0,0,0,0,0,0,3,0,0,0,4,1,0,0
60469328,0.0192771,0.0376176,0.537332,0.0,0.0,0.0,0.0,0.0,0.0,0.0,0.0,0,0,0,0,0,0,0,3,0,0,0,4,1,0,0
60670297,0.0192771,0.0344828,0.520196,0.0,0.0,0.0,0.0,0.0,0.0,0.0,0.0,0,0,0,0,0,0,0,3,0,0,0,4,1,0,0
60871673,0.0216867,0.031348,0.52142,0.0,0.0,0.0,0.0,0.0,0.0,0.0,0.0,0,0,0,0,0,0,0,3,0,0,0,4,1,0,0
61072582,0.0192771,0.0344828,0.520196,0.0,0.0,0.0,0.0,0.0,0.0,0.0,0.0,0,0,0,0,0,0,0,3,0,0,0,4,1,0,0
61269172,0.0192771,0.031348,0.52142,0.0,0.0,0.0,0.0,0.0,0.0,0.0,0.0,0,0,0,0,0,0,0,3,0,0,0,4,1,0,0
61470216,0.0192771,0.0282132,0.52142,0.0,0.0,0.0,0.0,0.0,0.0,0.0,0.0,0,0,0,0,0,0,0,3,0,0,0,4,1,0,0
61664966,0.0216867,0.0282132,0.520196,0.0,0.0,0.0,0.0,0.0,0.0,0.0,0.0,0,0,0,0,0,0,0,3,0,0,0,4,1,0,0
61865351,0.0216867,0.031348,0.52142,0.0,0.0,0.0,0.0,0.0,0.0,0.0,0.0,0,0,0,0,0,0,0,3,0,0,0,4,1,0,0
62066036,0.0216867,0.0282132,0.518972,0.0,0.0,0.0,0.0,0.0,0.0,0.0,0.0,0,0,0,0,0,0,0,3,0,0,0,4,1,0,0
62267542,0.0192771,0.0282132,0.499388,0.0,0.0,0.0,0.0,0.0,0.0,0.0,0.0,0,0,0,0,0,0,0,3,0,0,0,4,1,0,0
62466264,0.0192771,0.031348,0.499388,0.0,0.0,0.0,0.0,0.0,0.0,0.0,0.0,0,0,0,0,0,0,0,3,0,0,0,4,1,0,0
62674016,0.0192771,0.0282132,0.499388,0.0,0.0,0.0,0.0,0.0,0.0,0.0,0.0,0,0,0,0,0,0,0,3,0,0,0,4,1,0,0
62865782,0.0192771,0.0282132,0.498164,0.0,0.0,0.0,0.0,0.0,0.0,0.0,0.0,0,0,0,0,0,0,0,3,0,0,0,4,1,0,0
63067246,0.13494,0.031348,0.498164,0.0,0.0,0.0,0.0,0.0,0.0,0.0,0.0,0,0,0,0,0,0,0,3,0,0,0,4,1,0,0
63265897,0.103614,0.0282132,0.498164,0.0,0.0,0.0,0.0,0.0,0.0,0.0,0.0,0,0,0,0,0,0,0,3,0,0,0,4,1,0,0
63466849,0.0192771,0.0282132,0.498164,0.0,0.0,0.0,0.0,0.0,0.0,0.0,0.0,0,0,0,0,0,0,0,3,0,0,0,4,1,0,0
63668873,0.0192771,0.0282132,0.498164,0.0,0.0,0.0,0.0,0.0,0.0,0.0,0.0,0,0,0,0,0,0,0,3,0,0,0,4,1,0,0
63867843,0.0192771,0.031348,0.499388,0.0,0.0,0.0,0.0,0.0,0.0,0.0,0.0,0,0,0,0,0,0,0,3,0,0,0,4,1,0,0
64062952,0.0216867,0.0344828,0.499388,0.0,0.0,0.0,0.0,0.0,0.0,0.0,0.0,0,0,0,0,0,0,0,3,0,0,0,4,1,0,0
64261536,0.0674699,0.310345,0.504284,0.0,0.0,0.0,0.0,0.0,0.0,0.0,0.0,0,0,0,0,0,0,0,3,0,0,0,4,1,0,0
64463517,0.0192771,0.0344828,0.511628,0.0,0.0,0.0,0.0,0.0,0.0,0.0,0.0,0,0,0,0,0,0,0,3,0,0,0,4,1,0,0
64663988,0.0192771,0.031348,0.522644,0.0,0.0,0.0,0.0,0.0,0.0,0.0,0.0,0,0,0,0,0,0,0,3,0,0,0,4,1,0,0
64865368,0.0240964,0.206897,0.555692,0.0,0.0,0.0,0.0,0.0,0.0,0.0,0.0,0,0,0,0,0,0,0,3,0,0,0,4,1,0,0
65066313,0.0192771,0.0344828,0.555692,0.0,0.0,0.0,0.0,0.0,0.0,0.0,0.0,0,0,0,0,0,0,0,3,0,0,0,4,1,0,0
65263111,0.0192771,0.031348,0.554468,0.0,0.0,0.0,0.0,0.0,0.0,0.0,0.0,0,0,0,0,0,0,0,3,0,0,0,4,1,0,0
65463699,0.0626506,0.031348,0.556916,0.0,0.0,0.0,0.0,0.0,0.0,0.0,0.0,0,0,0,0,0,0,0,3,0,0,0,4,1,0,0
65665484,0.0939759,0.0282132,0.556916,0.0,0.0,0.0,0.0,0.0,0.0,0.0,0.0,0,0,0,0,0,0,0,3,0,0,0,4,1,0,0
65866067,0.0192771,0.0282132,0.556916,0.0,0.0,0.0,0.0,0.0,0.0,0.0,0.0,0,0,0,0,0,0,0,3,0,0,0,4,1,0,0
66064569,0.0698795,0.031348,0.556916,0.0,0.0,0.0,0.0,0.0,0.0,0.0,0.0,0,0,0,0,0,0,0,3,0,0,0,4,1,0,0
66263220,0.0987952,0.031348,0.554468,0.0,0.0,0.0,0.0,0.0,0.0,0.0,0.0,0,0,0,0,0,0,0,3,0,0,0,4,1,0,0
66461977,0.0192771,0.0282132,0.554468,0.0,0.0,0.0,0.0,0.0,0.0,0.0,0.0,0,0,0,0,0,0,0,3,0,0,0,4,1,0,0
66660683,0.0795181,0.0282132,0.555692,0.0,0.0,0.0,0.0,0.0,0.0,0.0,0.0,0,0,0,0,0,0,0,3,0,0,0,4,1,0,0
66884186,0.274699,0.0,0.555692,0.0,0.0,0.0,0.0,0.0,0.0,0.0,0.0,0,0,0,0,0,0,0,3,0,0,0,4,1,0,0
67063007,0.291566,-0.0579268,0.555692,0.0,0.0,0.0,0.0,0.0,0.0,0.0,0.0,0,0,0,0,0,0,0,3,0,0,0,4,1,0,0
67264355,0.226506,0.0,0.554468,0.0,0.0,0.0,0.0,0.0,0.0,0.0,0.0,0,0,0,0,0,0,0,3,0,0,0,4,1,0,0
67465336,0.0216867,0.0282132,0.555692,0.0,0.0,0.0,0.0,0.0,0.0,0.0,0.0,0,0,0,0,0,0,0,3,0,0,0,4,1,0,0
67666723,0.0216867,0.0282132,0.550796,0.0,0.0,0.0,0.0,0.0,0.0,0.0,0.0,0,0,0,0,0,0,0,3,0,0,0,4,1,0,0
67867803,0.0192771,-0.0884146,0.544676,0.0,0.0,0.0,0.0,0.0,0.0,0.0,0.0,0,0,0,0,0,0,0,3,0,0,0,4,1,0,0
68069021,0.0192771,0.031348,0.5459,0.0,0.0,0.0,0.0,0.0,0.0,0.0,0.0,0,0,0,0,0,0,0,3,0,0,0,4,1,0,0
68270057,0.0192771,0.0282132,0.5459,0.0,0.0,0.0,0.0,0.0,0.0,0.0,0.0,0,0,0,0,0,0,0,3,0,0,0,4,1,0,0
68471378,0.0192771,-0.185976,0.528764,0.0,0.0,0.0,0.0,0.0,0.0,0.0,0.0,0,0,0,0,0,0,0,3,0,0,0,4,1,0,0
68670040,0.0192771,-0.070122,0.529988,0.0,0.0,0.0,0.0,0.0,0.0,0.0,0.0,0,0,0,0,0,0,0,3,0,0,0,4,1,0,0
68868682,0.0192771,0.0282132,0.528764,0.0,0.0,0.0,0.0,0.0,0.0,0.0,0.0,0,0,0,0,0,0,0,3,0,0,0,4,1,0,0
69064890,0.0192771,0.0282132,0.514076,0.0,0.0,0.0,0.0,0.0,0.0,0.0,0.0,0,0,0,0,0,0,0,3,0,0,0,4,1,0,0
69266533,0.0192771,0.15674,0.520196,0.0,0.0,0.0,0.0,0.0,0.0,0.0,0.0,0,0,0,0,0,0,0,3,0,0,0,4,1,0,0
69467291,0.0192771,0.0250784,0.516524,0.0,0.0,0.0,0.0,0.0,0.0,0.0,0.0,0,0,0,0,0,0,0,3,0,0,0,4,1,0,0
69669073,0.0192771,0.0344828,0.516524,0.0,0.0,0.0,0.0,0.0,0.0,0.0,0.0,0,0,0,0,0,0,0,3,0,0,0,4,1,0,0
69867695,0.0192771,0.112853,0.511628,0.0,0.0,0.0,0.0,0.0,0.0,0.0,0.0,0,0,0,0,0,0,0,3,0,0,0,4,1,0,0
70068164,0.0216867,0.0376176,0.510404,0.0,0.0,0.0,0.0,0.0,0.0,0.0,0.0,0,0,0,0,0,0,0,3,0,0,0,4,1,0,0
70269974,0.0216867,0.031348,0.507956,0.0,0.0,0.0,0.0,0.0,0.0,0.0,0.0,0,0,0,0,0,0,0,3,0,0,0,4,1,0,0
70468553,0.0216867,0.222571,0.511628,0.0,0.0,0.0,0.0,0.0,0.0,0.0,0.0,0,0,0,0,0,0,0,3,0,0,0,4,1,0,0
70669145,0.0216867,0.0282132,0.516524,0.0,0.0,0.0,0.0,0.0,0.0,0.0,0.0,0,0,0,0,0,0,0,3,0,0,0,4,1,0,0
70870567,0.0216867,0.031348,0.517748,0.0,0.0,0.0,0.0,0.0,0.0,0.0,0.0,0,0,0,0,0,0,0,3,0,0,0,4,1,0,0
71071392,0.0216867,0.0376176,0.514076,0.0,0.0,0.0,0.0,0.0,0.0,0.0,0.0,0,0,0,0,0,0,0,3,0,0,0,4,1,0,0
71272798,0.0216867,0.106583,0.522644,0.0,0.0,0.0,0.0,0.0,0.0,0.0,0.0,0,0,0,0,0,0,0,3,0,0,0,4,1,0,0
71473881,0.0216867,0.0282132,0.522644,0.0,0.0,0.0,0.0,0.0,0.0,0.0,0.0,0,0,0,0,0,0,0,3,0,0,0,4,1,0,0
71672442,0.0216867,0.184953,0.523868,0.0,0.0,0.0,0.0,0.0,0.0,0.0,0.0,0,0,0,0,0,0,0,3,0,0,0,4,1,0,0
71876755,0.0216867,0.153605,0.520196,0.0,0.0,0.0,0.0,0.0,0.0,0.0,0.0,0,0,0,0,0,0,0,3,0,0,0,4,1,0,0
72069932,0.0216867,0.031348,0.542228,0.0,0.0,0.0,0.0,0.0,0.0,0.0,0.0,0,0,0,0,0,0,0,3,0,0,0,4,1,0,0
72268521,0.0216867,0.031348,0.542228,0.0,0.0,0.0,0.0,0.0,0.0,0.0,0.0,0,0,0,0,0,0,0,3,0,0,0,4,1,0,0
72467409,0.0216867,0.0282132,0.549572,0.0,0.0,0.0,0.0,0.0,0.0,0.0,0.0,0,0,0,0,0,0,0,3,0,0,0,4,1,0,0
72666092,0.0168675,-0.115854,0.544676,0.0,0.0,0.0,0.0,0.0,0.0,0.0,0.0,0,0,0,0,0,0,0,3,0,0,0,4,1,0,0
72867346,0.0192771,0.0282132,0.5459,0.0,0.0,0.0,0.0,0.0,0.0,0.0,0.0,0,0,0,0,0,0,0,3,0,0,0,4,1,0,0
73068243,0.0192771,0.0282132,0.547124,0.0,0.0,0.0,0.0,0.0,0.0,0.0,0.0,0,0,0,0,0,0,0,3,0,0,0,4,1,0,0
73266974,0.0192771,0.0282132,0.548348,0.0,0.0,0.0,0.0,0.0,0.0,0.0,0.0,0,0,0,0,0,0,0,3,0,0,0,4,1,0,0
73468530,0.0192771,0.0282132,0.542228,0.0,0.0,0.0,0.0,0.0,0.0,0.0,0.0,0,0,0,0,0,0,0,3,0,0,0,4,1,0,0
73669306,0.0192771,0.0282132,0.537332,0.0,0.0,0.0,0.0,0.0,0.0,0.0,0.0,0,0,0,0,0,0,0,3,0,0,0,4,1,0,0
73870627,0.0192771,0.0282132,0.541004,0.0,0.0,0.0,0.0,0.0,0.0,0.0,0.0,0,0,0,0,0,0,0,3,0,0,0,4,1,0,0
74071707,0.0192771,0.031348,0.537332,0.0,0.0,0.0,0.0,0.0,0.0,0.0,0.0,0,0,0,0,0,0,0,3,0,0,0,4,1,0,0
74270380,0.0192771,0.0282132,0.536108,0.0,0.0,0.0,0.0,0.0,0.0,0.0,0.0,0,0,0,0,0,0,0,3,0,0,0,4,1,0,0
74471642,0.0192771,0.0282132,0.536108,0.0,0.0,0.0,0.0,0.0,0.0,0.0,0.0,0,0,0,0,0,0,0,3,0,0,0,4,1,0,0
74672544,0.0192771,0.0282132,0.538556,0.0,0.0,0.0,0.0,0.0,0.0,0.0,0.0,0,0,0,0,0,0,0,3,0,0,0,4,1,0,0
74871265,0.0192771,0.153605,0.536108,0.0,0.0,0.0,0.0,0.0,0.0,0.0,0.0,0,0,0,0,0,0,0,3,0,0,0,4,1,0,0
75073222,0.0192771,0.184953,0.536108,0.0,0.0,0.0,0.0,0.0,0.0,0.0,0.0,0,0,0,0,0,0,0,3,0,0,0,4,1,0,0
75273731,0.0168675,0.0721003,0.534884,0.0,0.0,0.0,0.0,0.0,0.0,0.0,0.0,0,0,0,0,0,0,0,3,0,0,0,4,1,0,0
75475718,0.0192771,0.031348,0.534884,0.0,0.0,0.0,0.0,0.0,0.0,0.0,0.0,0,0,0,0,0,0,0,3,0,0,0,4,1,0,0
75675999,0.0192771,0.031348,0.536108,0.0,0.0,0.0,0.0,0.0,0.0,0.0,0.0,0,0,0,0,0,0,0,3,0,0,0,4,1,0,0
75877616,0.0216867,0.031348,0.522644,0.0,0.0,0.0,0.0,0.0,0.0,0.0,0.0,0,0,0,0,0,0,0,3,0,0,0,4,1,0,0
76078442,0.0216867,0.0282132,0.523868,0.0,0.0,0.0,0.0,0.0,0.0,0.0,0.0,0,0,0,0,0,0,0,3,0,0,0,4,1,0,0
76279679,0.0216867,0.031348,0.522644,0.0,0.0,0.0,0.0,0.0,0.0,0.0,0.0,0,0,0,0,0,0,0,3,0,0,0,4,1,0,0
76480583,0.0216867,0.0282132,0.522644,0.0,0.0,0.0,0.0,0.0,0.0,0.0,0.0,0,0,0,0,0,0,0,3,0,0,0,4,1,0,0
76682087,0.0216867,0.0282132,0.523868,0.0,0.0,0.0,0.0,0.0,0.0,0.0,0.0,0,0,0,0,0,0,0,3,0,0,0,4,1,0,0
76882932,0.0216867,0.0344828,0.518972,0.0,0.0,0.0,0.0,0.0,0.0,0.0,0.0,0,0,0,0,0,0,0,3,0,0,0,4,1,0,0
77061795,0.0216867,0.0344828,0.52142,0.0,0.0,0.0,0.0,0.0,0.0,0.0,0.0,0,0,0,0,0,0,0,3,0,0,0,4,1,0,0
77264113,0.0192771,0.0282132,0.522644,0.0,0.0,0.0,0.0,0.0,0.0,0.0,0.0,0,0,0,0,0,0,0,3,0,0,0,4,1,0,0
77464124,0.0,0.0658307,0.523868,0.0,0.0,0.0,0.0,0.0,0.0,0.0,0.0,0,0,0,0,0,0,0,3,0,0,0,4,1,0,0
77665427,0.0,0.112853,0.523868,0.0,0.0,0.0,0.0,0.0,0.0,0.0,0.0,0,0,0,0,0,0,0,3,0,0,0,4,1,0,0
77866617,0.00722892,0.144201,0.520196,0.0,0.0,0.0,0.0,0.0,0.0,0.0,0.0,0,0,0,0,0,0,0,3,0,0,0,4,1,0,0
78065122,0.0168675,0.166144,0.517748,0.0,0.0,0.0,0.0,0.0,0.0,0.0,0.0,0,0,0,0,0,0,0,3,0,0,0,4,1,0,0
78266574,0.0192771,0.0344828,0.520196,0.0,0.0,0.0,0.0,0.0,0.0,0.0,0.0,0,0,0,0,0,0,0,3,0,0,0,4,1,0,0
78467498,0.0192771,0.031348,0.52142,0.0,0.0,0.0,0.0,0.0,0.0,0.0,0.0,0,0,0,0,0,0,0,3,0,0,0,4,1,0,0
78666195,0.0144578,0.184953,0.522644,0.0,0.0,0.0,0.0,0.0,0.0,0.0,0.0,0,0,0,0,0,0,0,3,0,0,0,4,1,0,0
78868526,0.0144578,0.360502,0.522644,0.0,0.0,0.0,0.0,0.0,0.0,0.0,0.0,0,0,0,0,0,0,0,3,0,0,0,4,1,0,0
79068561,0.0168675,0.0752351,0.522644,0.0,0.0,0.0,0.0,0.0,0.0,0.0,0.0,0,0,0,0,0,0,0,3,0,0,0,4,1,0,0
79267271,0.0192771,0.031348,0.522644,0.0,0.0,0.0,0.0,0.0,0.0,0.0,0.0,0,0,0,0,0,0,0,3,0,0,0,4,1,0,0
79468659,0.0216867,0.0282132,0.522644,0.0,0.0,0.0,0.0,0.0,0.0,0.0,0.0,0,0,0,0,0,0,0,3,0,0,0,4,1,0,0
79669757,0.0216867,-0.131098,0.523868,0.0,0.0,0.0,0.0,0.0,0.0,0.0,0.0,0,0,0,0,0,0,0,3,0,0,0,4,1,0,0
79871365,0.0216867,0.0282132,0.523868,0.0,0.0,0.0,0.0,0.0,0.0,0.0,0.0,0,0,0,0,0,0,0,3,0,0,0,4,1,0,0
80080512,0.0216867,0.0282132,0.522644,0.0,0.0,0.0,0.0,0.0,0.0,0.0,0.0,0,0,0,0,0,0,0,3,0,0,0,4,1,0,0
80273808,0.0843373,-0.0243902,0.523868,0.0,0.0,0.0,0.0,0.0,0.0,0.0,0.0,0,0,0,0,0,0,0,3,0,0,0,4,1,0,0
80474379,0.178313,-0.0182927,0.520196,0.0,0.0,0.0,0.0,0.0,0.0,0.0,0.0,0,0,0,0,0,0,0,3,0,0,0,4,1,0,0
80675660,0.026506,0.0344828,0.522644,0.0,0.0,0.0,0.0,0.0,0.0,0.0,0.0,0,0,0,0,0,0,0,3,0,0,0,4,1,0,0
80876620,0.0216867,0.0282132,0.522644,0.0,0.0,0.0,0.0,0.0,0.0,0.0,0.0,0,0,0,0,0,0,0,3,0,0,0,4,1,0,0
81078070,0.0216867,0.0344828,0.523868,0.0,0.0,0.0,0.0,0.0,0.0,0.0,0.0,0,0,0,0,0,0,0,3,0,0,0,4,1,0,0
81276801,0.0216867,0.181818,0.523868,0.0,0.0,0.0,0.0,0.0,0.0,0.0,0.0,0,0,0,0,0,0,0,3,0,0,0,4,1,0,0
81475845,0.0216867,0.0282132,0.523868,0.0,0.0,0.0,0.0,0.0,0.0,0.0,0.0,0,0,0,0,0,0,0,3,0,0,0,4,1,0,0
81676320,0.0216867,0.0407524,0.523868,0.0,0.0,0.0,0.0,0.0,0.0,0.0,0.0,0,0,0,0,0,0,0,3,0,0,0,4,1,0,0
81878136,0.0361446,0.210031,0.523868,0.0,0.0,0.0,0.0,0.0,0.0,0.0,0.0,0,0,0,0,0,0,0,3,0,0,0,4,1,0,0
82073762,0.026506,0.0909091,0.522644,0.0,0.0,0.0,0.0,0.0,0.0,0.0,0.0,0,0,0,0,0,0,0,3,0,0,0,4,1,0,0
82272525,0.0216867,0.0282132,0.522644,0.0,0.0,0.0,0.0,0.0,0.0,0.0,0.0,0,0,0,0,0,0,0,3,0,0,0,4,1,0,0
82471032,0.0216867,0.0344828,0.528764,0.0,0.0,0.0,0.0,0.0,0.0,0.0,0.0,0,0,0,0,0,0,0,3,0,0,0,4,1,0,0
82672469,0.0240964,0.0721003,0.523868,0.0,0.0,0.0,0.0,0.0,0.0,0.0,0.0,0,0,0,0,0,0,0,3,0,0,0,4,1,0,0
82873467,0.0192771,0.0282132,0.522644,0.0,0.0,0.0,0.0,0.0,0.0,0.0,0.0,0,0,0,0,0,0,0,3,0,0,0,4,1,0,0
83072061,0.026506,0.0721003,0.525092,0.0,0.0,0.0,0.0,0.0,0.0,0.0,0.0,0,0,0,0,0,0,0,3,0,0,0,4,1,0,0
83274341,0.0385542,0.0344828,0.525092,0.0,0.0,0.0,0.0,0.0,0.0,0.0,0.0,0,0,0,0,0,0,0,3,0,0,0,4,1,0,0
83474434,0.0192771,0.0282132,0.534884,0.0,0.0,0.0,0.0,0.0,0.0,0.0,0.0,0,0,0,0,0,0,0,3,0,0,0,4,1,0,0
83675896,0.0216867,0.0940439,0.544676,0.0,0.0,0.0,0.0,0.0,0.0,0.0,0.0,0,0,0,0,0,0,0,3,0,0,0,4,1,0,0
83876913,0.0313253,0.203762,0.544676,0.0,0.0,0.0,0.0,0.0,0.0,0.0,0.0,0,0,0,0,0,0,0,3,0,0,0,4,1,0,0
84078247,0.0192771,0.031348,0.544676,0.0,0.0,0.0,0.0,0.0,0.0,0.0,0.0,0,0,0,0,0,0,0,3,0,0,0,4,1,0,0
84277480,0.0216867,0.031348,0.559364,0.0,0.0,0.0,0.0,0.0,0.0,0.0,0.0,0,0,0,0,0,0,0,3,0,0,0,4,1,0,0
84477792,0.0192771,0.031348,0.55814,0.0,0.0,0.0,0.0,0.0,0.0,0.0,0.0,0,0,0,0,0,0,0,3,0,0,0,4,1,0,0
84679122,0.0192771,0.0282132,0.563035,0.0,0.0,0.0,0.0,0.0,0.0,0.0,0.0,0,0,0,0,0,0,0,3,0,0,0,4,1,0,0
84880098,0.0192771,0.0282132,0.55814,0.0,0.0,0.0,0.0,0.0,0.0,0.0,0.0,0,0,0,0,0,0,0,3,0,0,0,4,1,0,0
85059015,0.0216867,0.0282132,0.555692,0.0,0.0,0.0,0.0,0.0,0.0,0.0,0.0,0,0,0,0,0,0,0,3,0,0,0,4,1,0,0
85282542,0.0216867,0.0282132,0.512852,0.0,0.0,0.0,0.0,0.0,0.0,0.0,0.0,0,0,0,0,0,0,0,3,0,0,0,4,1,0,0
85461309,0.0216867,0.0282132,0.510404,0.0,0.0,0.0,0.0,0.0,0.0,0.0,0.0,0,0,0,0,0,0,0,3,0,0,0,4,1,0,0
85683026,0.0216867,0.0282132,0.511628,0.0,0.0,0.0,0.0,0.0,0.0,0.0,0.0,0,0,0,0,0,0,0,3,0,0,0,4,1,0,0
85861745,0.0216867,0.0282132,0.499388,0.0,0.0,0.0,0.0,0.0,0.0,0.0,0.0,0,0,0,0,0,0,0,3,0,0,0,4,1,0,0
86062313,0.0216867,0.0250784,0.499388,0.0,0.0,0.0,0.0,0.0,0.0,0.0,0.0,0,0,0,0,0,0,0,3,0,0,0,4,1,0,0
86264284,0.0216867,0.0282132,0.536108,0.0,0.0,0.0,0.0,0.0,0.0,0.0,0.0,0,0,0,0,0,0,0,3,0,0,0,4,1,0,0
86464773,0.0216867,0.0282132,0.548348,0.0,0.0,0.0,0.0,0.0,0.0,0.0,0.0,0,0,0,0,0,0,0,3,0,0,0,4,1,0,0
86663565,0.0216867,0.263323,0.569155,0.0,0.0,0.0,0.0,0.0,0.0,0.0,0.0,0,0,0,0,0,0,0,3,0,0,0,4,1,0,0
86865034,0.0216867,0.0282132,0.567931,0.0,0.0,0.0,0.0,0.0,0.0,0.0,0.0,0,0,0,0,0,0,0,3,0,0,0,4,1,0,0
87065674,0.0216867,0.0282132,0.571603,0.0,0.0,0.0,0.0,0.0,0.0,0.0,0.0,0,0,0,0,0,0,0,3,0,0,0,4,1,0,0
87267522,0.0216867,0.0282132,0.572827,0.0,0.0,0.0,0.0,0.0,0.0,0.0,0.0,0,0,0,0,0,0,0,3,0,0,0,4,1,0,0
87466355,0.0216867,0.0971787,0.523868,0.0,0.0,0.0,0.0,0.0,0.0,0.0,0.0,0,0,0,0,0,0,0,3,0,0,0,4,1,0,0
87666853,0.0192771,0.0501567,0.526316,0.0,0.0,0.0,0.0,0.0,0.0,0.0,0.0,0,0,0,0,0,0,0,3,0,0,0,4,1,0,0
87868105,0.0192771,0.241379,0.528764,0.0,0.0,0.0,0.0,0.0,0.0,0.0,0.0,0,0,0,0,0,0,0,3,0,0,0,4,1,0,0
88066845,0.0192771,0.0407524,0.526316,0.0,0.0,0.0,0.0,0.0,0.0,0.0,0.0,0,0,0,0,0,0,0,3,0,0,0,4,1,0,0
88275504,0.0192771,0.031348,0.526316,0.0,0.0,0.0,0.0,0.0,0.0,0.0,0.0,0,0,0,0,0,0,0,3,0,0,0,4,1,0,0
88469022,0.0192771,0.031348,0.526316,0.0,0.0,0.0,0.0,0.0,0.0,0.0,0.0,0,0,0,0,0,0,0,3,0,0,0,4,1,0,0
88670023,0.0192771,0.0282132,0.529988,0.0,0.0,0.0,0.0,0.0,0.0,0.0,0.0,0,0,0,0,0,0,0,3,0,0,0,4,1,0,0
88868649,0.0192771,0.031348,0.554468,0.0,0.0,0.0,0.0,0.0,0.0,0.0,0.0,0,0,0,0,0,0,0,3,0,0,0,4,1,0,0
89067529,0.0192771,0.031348,0.550796,0.0,0.0,0.0,0.0,0.0,0.0,0.0,0.0,0,0,0,0,0,0,0,3,0,0,0,4,1,0,0
89268848,0.0192771,0.031348,0.517748,0.0,0.0,0.0,0.0,0.0,0.0,0.0,0.0,0,0,0,0,0,0,0,3,0,0,0,4,1,0,0
89469734,0.0192771,0.031348,0.516524,0.0,0.0,0.0,0.0,0.0,0.0,0.0,0.0,0,0,0,0,0,0,0,3,0,0,0,4,1,0,0
89671179,0.0192771,0.031348,0.516524,0.0,0.0,0.0,0.0,0.0,0.0,0.0,0.0,0,0,0,0,0,0,0,3,0,0,0,4,1,0,0
89872143,0.0192771,0.031348,0.52142,0.0,0.0,0.0,0.0,0.0,0.0,0.0,0.0,0,0,0,0,0,0,0,3,0,0,0,4,1,0,0
90073394,0.0192771,0.031348,0.55202,0.0,0.0,0.0,0.0,0.0,0.0,0.0,0.0,0,0,0,0,0,0,0,3,0,0,0,4,1,0,0
90274470,0.0192771,0.0282132,0.549572,0.0,0.0,0.0,0.0,0.0,0.0,0.0,0.0,0,0,0,0,0,0,0,3,0,0,0,4,1,0,0
90473080,0.0192771,0.031348,0.550796,0.0,0.0,0.0,0.0,0.0,0.0,0.0,0.0,0,0,0,0,0,0,0,3,0,0,0,4,1,0,0
90671845,0.0192771,0.031348,0.550796,0.0,0.0,0.0,0.0,0.0,0.0,0.0,0.0,0,0,0,0,0,0,0,3,0,0,0,4,1,0,0
90870643,0.0192771,0.106583,0.548348,0.0,0.0,0.0,0.0,0.0,0.0,0.0,0.0,0,0,0,0,0,0,0,3,0,0,0,4,1,0,0
91069141,0.0192771,0.0344828,0.542228,0.0,0.0,0.0,0.0,0.0,0.0,0.0,0.0,0,0,0,0,0,0,0,3,0,0,0,4,1,0,0
91267992,0.0192771,0.0376176,0.53978,0.0,0.0,0.0,0.0,0.0,0.0,0.0,0.0,0,0,0,0,0,0,0,3,0,0,0,4,1,0,0
91466546,0.0192771,0.231975,0.538556,0.0,0.0,0.0,0.0,0.0,0.0,0.0,0.0,0,0,0,0,0,0,0,3,0,0,0,4,1,0,0
91667877,0.0192771,0.0783699,0.542228,0.0,0.0,0.0,0.0,0.0,0.0,0.0,0.0,0,0,0,0,0,0,0,3,0,0,0,4,1,0,0
91868957,0.0192771,0.031348,0.541004,0.0,0.0,0.0,0.0,0.0,0.0,0.0,0.0,0,0,0,0,0,0,0,3,0,0,0,4,1,0,0
92070297,0.0192771,0.0344828,0.542228,0.0,0.0,0.0,0.0,0.0,0.0,0.0,0.0,0,0,0,0,0,0,0,3,0,0,0,4,1,0,0
92271214,0.0192771,0.0344828,0.53978,0.0,0.0,0.0,0.0,0.0,0.0,0.0,0.0,0,0,0,0,0,0,0,3,0,0,0,4,1,0,0
92470036,0.0192771,0.0344828,0.526316,0.0,0.0,0.0,0.0,0.0,0.0,0.0,0.0,0,0,0,0,0,0,0,3,0,0,0,4,1,0,0
92671393,0.0192771,0.031348,0.526316,0.0,0.0,0.0,0.0,0.0,0.0,0.0,0.0,0,0,0,0,0,0,0,3,0,0,0,4,1,0,0
92867440,0.0192771,0.357367,0.526316,0.0,0.0,0.0,0.0,0.0,0.0,0.0,0.0,0,0,0,0,0,0,0,3,0,0,0,4,1,0,0
93069211,0.0192771,0.0188088,0.526316,0.0,0.0,0.0,0.0,0.0,0.0,0.0,0.0,0,0,0,0,0,0,0,3,0,0,0,4,1,0,0
93269710,0.0192771,0.0282132,0.520196,0.0,0.0,0.0,0.0,0.0,0.0,0.0,0.0,0,0,0,0,0,0,0,3,0,0,0,4,1,0,0
93468427,0.0192771,0.0282132,0.526316,0.0,0.0,0.0,0.0,0.0,0.0,0.0,0.0,0,0,0,0,0,0,0,3,0,0,0,4,1,0,0
93669836,0.0216867,0.0,0.528764,-0.0440835,0.0,0.0,0.0,0.0,0.0,0.0,0.0,0,0,0,0,0,0,0,3,0,0,0,4,1,0,0
93870625,0.0192771,0.0125392,0.526316,-0.0324826,0.0,0.0,0.0,0.0,0.0,0.0,0.0,0,0,0,0,0,0,0,3,0,0,0,4,1,0,0
94069433,0.0216867,0.0,0.52142,0.0,0.0,0.0,0.0,0.0,0.0,0.0,0.0,0,0,0,0,0,0,0,3,0,0,0,4,1,0,0
94266197,0.0289157,0.0282132,0.520196,0.0,0.0,0.0,0.0,0.0,0.0,0.0,0.0,0,0,0,0,0,0,0,3,0,0,0,4,1,0,0
94467183,0.125301,0.031348,0.520196,0.0,0.0,0.0,0.0,0.0,0.0,0.0,0.0,0,0,0,0,0,0,0,3,0,0,0,4,1,0,0
94668070,0.0192771,0.0282132,0.520196,0.0,0.0,0.0,0.0,0.0,0.0,0.0,0.0,0,0,0,0,0,0,0,3,0,0,0,4,1,0,0
94869094,0.0192771,0.0282132,0.520196,0.0,0.0,0.0,0.0,0.0,0.0,0.0,0.0,0,0,0,0,0,0,0,3,0,0,0,4,1,0,0
95070476,0.0192771,0.0282132,0.523868,0.0,0.0,0.0,0.0,0.0,0.0,0.0,0.0,0,0,0,0,0,0,0,3,0,0,0,4,1,0,0
95271561,0.0313253,0.163009,0.523868,0.0,0.0,0.0,0.0,0.0,0.0,0.0,0.0,0,0,0,0,0,0,0,3,0,0,0,4,1,0,0
95473248,0.0192771,0.0282132,0.523868,0.0,0.0,0.0,0.0,0.0,0.0,0.0,0.0,0,0,0,0,0,0,0,3,0,0,0,4,1,0,0
95671469,0.026506,0.213166,0.523868,0.0,0.0,0.0,0.0,0.0,0.0,0.0,0.0,0,0,0,0,0,0,0,3,0,0,0,4,1,0,0
95870245,0.0192771,0.0282132,0.523868,0.0,0.0,0.0,0.0,0.0,0.0,0.0,0.0,0,0,0,0,0,0,0,3,0,0,0,4,1,0,0
96071296,0.0216867,0.0344828,0.520196,0.0,0.0,0.0,0.0,0.0,0.0,0.0,0.0,0,0,0,0,0,0,0,3,0,0,0,4,1,0,0
96269821,0.0216867,0.0282132,0.52142,0.0,0.0,0.0,0.0,0.0,0.0,0.0,0.0,0,0,0,0,0,0,0,3,0,0,0,4,1,0,0
96468362,0.115663,0.0407524,0.520196,0.0,0.0,0.0,0.0,0.0,0.0,0.0,0.0,0,0,0,0,0,0,0,3,0,0,0,4,1,0,0
96665452,0.180723,0.0344828,0.520196,0.0,0.0,0.0,0.0,0.0,0.0,0.0,0.0,0,0,0,0,0,0,0,3,0,0,0,4,1,0,0
96865908,0.226506,0.0407524,0.520196,0.0,0.0,0.0,0.0,0.0,0.0,0.0,0.0,0,0,0,0,0,0,0,3,0,0,0,4,1,0,0
97067248,0.159036,0.0282132,0.520196,0.0,0.0,0.0,0.0,0.0,0.0,0.0,0.0,0,0,0,0,0,0,0,3,0,0,0,4,1,0,0
97268303,0.0289157,0.231975,0.523868,0.0,0.0,0.0,0.0,0.0,0.0,0.0,0.0,0,0,0,0,0,0,0,3,0,0,0,4,1,0,0
97476993,0.026506,0.332288,0.523868,0.0,0.0,0.0,0.0,0.0,0.0,0.0,0.0,0,0,0,0,0,0,0,3,0,0,0,4,1,0,0
97670805,0.0192771,0.0282132,0.523868,0.0,0.0,0.0,0.0,0.0,0.0,0.0,0.0,0,0,0,0,0,0,0,3,0,0,0,4,1,0,0
97871880,0.0192771,0.0282132,0.522644,0.0,0.0,0.0,0.0,0.0,0.0,0.0,0.0,0,0,0,0,0,0,0,3,0,0,0,4,1,0,0
98070558,0.0192771,0.0282132,0.567931,-0.0232019,0.0,0.0,0.0,0.0,0.0,0.0,0.0,0,0,0,0,0,0,0,3,0,0,0,4,1,0,0
98269280,0.0192771,0.0282132,0.567931,0.0,0.0,0.0,0.0,0.0,0.0,0.0,0.0,0,0,0,0,0,0,0,3,0,0,0,4,1,0,0
98470291,0.0192771,0.0282132,0.566707,0.0,0.0,0.0,0.0,0.0,0.0,0.0,0.0,0,0,0,0,0,0,0,3,0,0,0,4,1,0,0
98668861,0.0192771,0.0282132,0.566707,0.0,0.0,0.0,0.0,0.0,0.0,0.0,0.0,0,0,0,0,0,0,0,3,0,0,0,4,1,0,0
98867657,0.0192771,0.0282132,0.565483,0.0,0.0,0.0,0.0,0.0,0.0,0.0,0.0,0,0,0,0,0,0,0,3,0,0,0,4,1,0,0
99066379,0.0192771,0.0564263,0.560588,0.0,0.0,0.0,0.0,0.0,0.0,0.0,0.0,0,0,0,0,0,0,0,3,0,0,0,4,1,0,0
99267721,0.0216867,0.0344828,0.561812,0.0,0.0,0.0,0.0,0.0,0.0,0.0,0.0,0,0,0,0,0,0,0,3,0,0,0,4,1,0,0
99468759,0.0192771,0.0407524,0.560588,0.0,0.0,0.0,0.0,0.0,0.0,0.0,0.0,0,0,0,0,0,0,0,3,0,0,0,4,1,0,0
99667348,0.0457831,0.45768,0.560588,0.0,0.0,0.0,0.0,0.0,0.0,0.0,0.0,0,0,0,0,0,0,0,3,0,0,0,4,1,0,0
99869443,0.0216867,0.0376176,0.559364,0.0,0.0,0.0,0.0,0.0,0.0,0.0,0.0,0,0,0,0,0,0,0,3,0,0,0,4,1,0,0
100069607,0.0192771,0.0282132,0.52754,0.0,0.0,0.0,0.0,0.0,0.0,0.0,0.0,0,0,0,0,0,0,0,3,0,0,0,4,1,0,0
100270932,0.0891566,-0.0121951,0.526316,0.0,0.0,0.0,0.0,0.0,0.0,0.0,0.0,0,0,0,0,0,0,0,3,0,0,0,4,1,0,0
100472213,0.0216867,0.0,0.528764,0.0,0.0,0.0,0.0,0.0,0.0,0.0,0.0,0,0,0,0,0,0,0,3,0,0,0,4,1,0,0
100670661,0.0192771,0.0282132,0.526316,0.0,0.0,0.0,0.0,0.0,0.0,0.0,0.0,0,0,0,0,0,0,0,3,0,0,0,4,1,0,0
100872744,0.0216867,-0.219512,0.52754,0.0,0.0,0.0,0.0,0.0,0.0,0.0,0.0,0,0,0,0,0,0,0,3,0,0,0,4,1,0,0
101073118,0.0216867,-0.158537,0.528764,0.0,0.0,0.0,0.0,0.0,0.0,0.0,0.0,0,0,0,0,0,0,0,3,0,0,0,4,1,0,0
101274542,0.0192771,0.0282132,0.52754,0.0,0.0,0.0,0.0,0.0,0.0,0.0,0.0,0,0,0,0,0,0,0,3,0,0,0,4,1,0,0
101475290,0.0240964,0.031348,0.526316,0.0,0.0,0.0,0.0,0.0,0.0,0.0,0.0,0,0,0,0,0,0,0,3,0,0,0,4,1,0,0
101676674,0.125301,0.0282132,0.489596,0.0,0.0,0.0,0.0,0.0,0.0,0.0,0.0,0,0,0,0,0,0,0,3,0,0,0,4,1,0,0
101877715,0.113253,0.031348,0.489596,0.0,0.0,0.0,0.0,0.0,0.0,0.0,0.0,0,0,0,0,0,0,0,3,0,0,0,4,1,0,0
102074646,0.0216867,0.0815047,0.49082,0.0,0.0,0.0,0.0,0.0,0.0,0.0,0.0,0,0,0,0,0,0,0,3,0,0,0,4,1,0,0
102274997,0.0216867,0.0282132,0.49082,0.0,0.0,0.0,0.0,0.0,0.0,0.0,0.0,0,0,0,0,0,0,0,3,0,0,0,4,1,0,0
102473692,0.0216867,0.0344828,0.495716,0.0,0.0,0.0,0.0,0.0,0.0,0.0,0.0,0,0,0,0,0,0,0,3,0,0,0,4,1,0,0
102675679,0.0216867,0.0344828,0.493268,0.0,0.0,0.0,0.0,0.0,0.0,0.0,0.0,0,0,0,0,0,0,0,3,0,0,0,4,1,0,0
102876318,0.0216867,0.269592,0.493268,0.0,0.0,0.0,0.0,0.0,0.0,0.0,0.0,0,0,0,0,0,0,0,3,0,0,0,4,1,0,0
103077606,0.0409639,0.394984,0.493268,0.0,0.0,0.0,0.0,0.0,0.0,0.0,0.0,0,0,0,0,0,0,0,3,0,0,0,4,1,0,0
103278523,0.0216867,0.30721,0.492044,0.0,0.0,0.0,0.0,0.0,0.0,0.0,0.0,0,0,0,0,0,0,0,3,0,0,0,4,1,0,0
103479841,0.0192771,0.031348,0.492044,0.0,0.0,0.0,0.0,0.0,0.0,0.0,0.0,0,0,0,0,0,0,0,3,0,0,0,4,1,0,0
103680931,0.0987952,0.106583,0.493268,0.0,0.0,0.0,0.0,0.0,0.0,0.0,0.0,0,0,0,0,0,0,0,3,0,0,0,4,1,0,0
103882560,0.178313,0.263323,0.493268,0.0,0.0,0.0,0.0,0.0,0.0,0.0,0.0,0,0,0,0,0,0,0,3,0,0,0,4,1,0,0
104061368,0.175904,0.191223,0.504284,0.0,0.0,0.0,0.0,0.0,0.0,0.0,0.0,0,0,0,0,0,0,0,3,0,0,0,4,1,0,0
104261922,0.0192771,0.0282132,0.501836,0.0,0.0,0.0,0.0,0.0,0.0,0.0,0.0,0,0,0,0,0,0,0,3,0,0,0,4,1,0,0
104463862,0.127711,0.288401,0.501836,0.0,0.0,0.0,0.0,0.0,0.0,0.0,0.0,0,0,0,0,0,0,0,3,0,0,0,4,1,0,0
104664392,0.0216867,0.0282132,0.559364,0.0,0.0,0.0,0.0,0.0,0.0,0.0,0.0,0,0,0,0,0,0,0,3,0,0,0,4,1,0,0
104866141,0.0192771,0.0344828,0.574051,0.0,0.0,0.0,0.0,0.0,0.0,0.0,0.0,0,0,0,0,0,0,0,3,0,0,0,4,1,0,0
105066762,0.0192771,0.031348,0.608323,0.0,0.0,0.0,0.0,0.0,0.0,0.0,0.0,0,0,0,0,0,0,0,3,0,0,0,4,1,0,0
105268492,0.0192771,0.031348,0.605875,0.0,0.0,0.0,0.0,0.0,0.0,0.0,0.0,0,0,0,0,0,0,0,3,0,0,0,4,1,0,0
105469182,0.0216867,0.031348,0.605875,0.0,0.0,0.0,0.0,0.0,0.0,0.0,0.0,0,0,0,0,0,0,0,3,0,0,0,4,1,0,0
105677250,0.0409639,0.0282132,0.578947,0.0,0.0,0.0,0.0,0.0,0.0,0.0,0.0,0,0,0,0,0,0,0,3,0,0,0,4,1,0,0
105871388,0.0626506,0.031348,0.577723,0.0,0.0,0.0,0.0,0.0,0.0,0.0,0.0,0,0,0,0,0,0,0,3,0,0,0,4,1,0,0
106072699,0.0457831,0.0376176,0.572827,0.0,0.0,0.0,0.0,0.0,0.0,0.0,0.0,0,0,0,0,0,0,0,3,0,0,0,4,1,0,0
106268862,0.0939759,0.0344828,0.547124,0.0,0.0,0.0,0.0,0.0,0.0,0.0,0.0,0,0,0,0,0,0,0,3,0,0,0,4,1,0,0
106470031,0.0746988,0.144201,0.528764,0.0,0.0,0.0,0.0,0.0,0.0,0.0,0.0,0,0,0,0,0,0,0,3,0,0,0,4,1,0,0
106671094,0.0385542,0.0752351,0.528764,0.0,0.0,0.0,0.0,0.0,0.0,0.0,0.0,0,0,0,0,0,0,0,3,0,0,0,4,1,0,0
106869652,0.0192771,0.031348,0.529988,0.0,0.0,0.0,0.0,0.0,0.0,0.0,0.0,0,0,0,0,0,0,0,3,0,0,0,4,1,0,0
107068602,0.0289157,0.30721,0.528764,0.0,0.0,0.0,0.0,0.0,0.0,0.0,0.0,0,0,0,0,0,0,0,3,0,0,0,4,1,0,0
107269804,0.0216867,0.275862,0.529988,0.0,0.0,0.0,0.0,0.0,0.0,0.0,0.0,0,0,0,0,0,0,0,3,0,0,0,4,1,0,0
107470674,0.0192771,0.031348,0.532436,0.0,0.0,0.0,0.0,0.0,0.0,0.0,0.0,0,0,0,0,0,0,0,3,0,0,0,4,1,0,0
107667737,0.0192771,0.0407524,0.531212,0.0,0.0,0.0,0.0,0.0,0.0,0.0,0.0,0,0,0,0,0,0,0,3,0,0,0,4,1,0,0
107868338,0.0192771,0.294671,0.536108,0.0,0.0,0.0,0.0,0.0,0.0,0.0,0.0,0,0,0,0,0,0,0,3,0,0,0,4,1,0,0
108069456,0.0192771,0.0282132,0.534884,0.0,0.0,0.0,0.0,0.0,0.0,0.0,0.0,0,0,0,0,0,0,0,3,0,0,0,4,1,0,0
108270452,0.0192771,0.213166,0.534884,0.0,0.0,0.0,0.0,0.0,0.0,0.0,0.0,0,0,0,0,0,0,0,3,0,0,0,4,1,0,0
108469114,0.0240964,0.0344828,0.538556,0.0,0.0,0.0,0.0,0.0,0.0,0.0,0.0,0,0,0,0,0,0,0,3,0,0,0,4,1,0,0
108667857,0.13253,0.0344828,0.53366,0.0,0.0,0.0,0.0,0.0,0.0,0.0,0.0,0,0,0,0,0,0,0,3,0,0,0,4,1,0,0
108869143,0.190361,0.0282132,0.53366,0.0,0.0,0.0,0.0,0.0,0.0,0.0,0.0,0,0,0,0,0,0,0,3,0,0,0,4,1,0,0
109070196,0.178313,0.0344828,0.532436,0.0,0.0,0.0,0.0,0.0,0.0,0.0,0.0,0,0,0,0,0,0,0,3,0,0,0,4,1,0,0
109271961,0.026506,0.0282132,0.532436,0.0,0.0,0.0,0.0,0.0,0.0,0.0,0.0,0,0,0,0,0,0,0,3,0,0,0,4,1,0,0
109472424,0.0192771,0.0282132,0.532436,0.0,0.0,0.0,0.0,0.0,0.0,0.0,0.0,0,0,0,0,0,0,0,3,0,0,0,4,1,0,0
109671231,0.0216867,0.0282132,0.529988,0.0,0.0,0.0,0.0,0.0,0.0,0.0,0.0,0,0,0,0,0,0,0,3,0,0,0,4,1,0,0
109870010,0.0192771,0.282132,0.532436,0.0,0.0,0.0,0.0,0.0,0.0,0.0,0.0,0,0,0,0,0,0,0,3,0,0,0,4,1,0,0
110071303,0.0192771,0.031348,0.532436,0.0,0.0,0.0,0.0,0.0,0.0,0.0,0.0,0,0,0,0,0,0,0,3,0,0,0,4,1,0,0
110272133,0.0192771,0.031348,0.532436,0.0,0.0,0.0,0.0,0.0,0.0,0.0,0.0,0,0,0,0,0,0,0,3,0,0,0,4,1,0,0
110474002,0.0433735,0.031348,0.532436,0.0,0.0,0.0,0.0,0.0,0.0,0.0,0.0,0,0,0,0,0,0,0,3,0,0,0,4,1,0,0
110672375,0.2,0.031348,0.529988,0.0,0.0,0.0,0.0,0.0,0.0,0.0,0.0,0,0,0,0,0,0,0,3,0,0,0,4,1,0,0
110873451,0.192771,0.031348,0.531212,0.0,0.0,0.0,0.0,0.0,0.0,0.0,0.0,0,0,0,0,0,0,0,3,0,0,0,4,1,0,0
111071810,0.168675,0.031348,0.53366,0.0,0.0,0.0,0.0,0.0,0.0,0.0,0.0,0,0,0,0,0,0,0,3,0,0,0,4,1,0,0
111273929,0.0192771,0.0282132,0.53366,0.0,0.0,0.0,0.0,0.0,0.0,0.0,0.0,0,0,0,0,0,0,0,3,0,0,0,4,1,0,0
111474500,0.0192771,0.122257,0.532436,0.0,0.0,0.0,0.0,0.0,0.0,0.0,0.0,0,0,0,0,0,0,0,3,0,0,0,4,1,0,0
111673173,0.0192771,0.332288,0.532436,0.0,0.0,0.0,0.0,0.0,0.0,0.0,0.0,0,0,0,0,0,0,0,3,0,0,0,4,1,0,0
111875058,0.0192771,0.0219436,0.532436,0.0,0.0,0.0,0.0,0.0,0.0,0.0,0.0,0,0,0,0,0,0,0,3,0,0,0,4,1,0,0
112075463,0.0192771,0.0282132,0.528764,0.0,0.0,0.0,0.0,0.0,0.0,0.0,0.0,0,0,0,0,0,0,0,3,0,0,0,4,1,0,0
112276804,0.0192771,0.0282132,0.529988,0.0,0.0,0.0,0.0,0.0,0.0,0.0,0.0,0,0,0,0,0,0,0,3,0,0,0,4,1,0,0
112475523,0.0192771,0.0282132,0.529988,0.0,0.0,0.0,0.0,0.0,0.0,0.0,0.0,0,0,0,0,0,0,0,3,0,0,0,4,1,0,0
112676319,0.0192771,0.0282132,0.528764,0.0,0.0,0.0,0.0,0.0,0.0,0.0,0.0,0,0,0,0,0,0,0,3,0,0,0,4,1,0,0
112878296,0.0192771,0.0909091,0.529988,0.0,0.0,0.0,0.0,0.0,0.0,0.0,0.0,0,0,0,0,0,0,0,3,0,0,0,4,1,0,0
113078751,0.0192771,0.175549,0.532436,0.0,0.0,0.0,0.0,0.0,0.0,0.0,0.0,0,0,0,0,0,0,0,3,0,0,0,4,1,0,0
113280211,0.0192771,0.031348,0.53366,0.0,0.0,0.0,0.0,0.0,0.0,0.0,0.0,0,0,0,0,0,0,0,3,0,0,0,4,1,0,0
113480995,0.0192771,0.0344828,0.532436,0.0,0.0,0.0,0.0,0.0,0.0,0.0,0.0,0,0,0,0,0,0,0,3,0,0,0,4,1,0,0
113682987,0.125301,0.0877743,0.528764,0.0,0.0,0.0,0.0,0.0,0.0,0.0,0.0,0,0,0,0,0,0,0,3,0,0,0,4,1,0,0
113868547,0.137349,0.0658307,0.531212,0.0,0.0,0.0,0.0,0.0,0.0,0.0,0.0,0,0,0,0,0,0,0,3,0,0,0,4,1,0,0
114062197,0.106024,0.0877743,0.529988,0.0,0.0,0.0,0.0,0.0,0.0,0.0,0.0,0,0,0,0,0,0,0,3,0,0,0,4,1,0,0
114264204,0.086747,0.112853,0.529988,0.0,0.0,0.0,0.0,0.0,0.0,0.0,0.0,0,0,0,0,0,0,0,3,0,0,0,4,1,0,0
114464559,0.0698795,0.119122,0.529988,0.0,0.0,0.0,0.0,0.0,0.0,0.0,0.0,0,0,0,0,0,0,0,3,0,0,0,4,1,0,0
114665910,0.0843373,0.0909091,0.528764,0.0,0.0,0.0,0.0,0.0,0.0,0.0,0.0,0,0,0,0,0,0,0,3,0,0,0,4,1,0,0
114866761,0.0746988,0.0689655,0.528764,0.0,0.0,0.0,0.0,0.0,0.0,0.0,0.0,0,0,0,0,0,0,0,3,0,0,0,4,1,0,0
115065542,0.026506,0.031348,0.528764,0.0,0.0,0.0,0.0,0.0,0.0,0.0,0.0,0,0,0,0,0,0,0,3,0,0,0,4,1,0,0
115267536,0.0192771,0.0282132,0.528764,0.0,0.0,0.0,0.0,0.0,0.0,0.0,0.0,0,0,0,0,0,0,0,3,0,0,0,4,1,0,0
115465926,0.0192771,0.031348,0.528764,0.0,0.0,0.0,0.0,0.0,0.0,0.0,0.0,0,0,0,0,0,0,0,3,0,0,0,4,1,0,0
115666492,0.0289157,0.191223,0.531212,0.0,0.0,0.0,0.0,0.0,0.0,0.0,0.0,0,0,0,0,0,0,0,3,0,0,0,4,1,0,0
115868320,0.0337349,0.23511,0.531212,0.0,0.0,0.0,0.0,0.0,0.0,0.0,0.0,0,0,0,0,0,0,0,3,0,0,0,4,1,0,0
116068868,0.0192771,0.0344828,0.52754,0.0,0.0,0.0,0.0,0.0,0.0,0.0,0.0,0,0,0,0,0,0,0,3,0,0,0,4,1,0,0
116270253,0.0192771,0.031348,0.531212,0.0,0.0,0.0,0.0,0.0,0.0,0.0,0.0,0,0,0,0,0,0,0,3,0,0,0,4,1,0,0
116471143,0.110843,0.0282132,0.531212,0.0,0.0,0.0,0.0,0.0,0.0,0.0,0.0,0,0,0,0,0,0,0,3,0,0,0,4,1,0,0
116673123,0.171084,0.0282132,0.531212,0.0,0.0,0.0,0.0,0.0,0.0,0.0,0.0,0,0,0,0,0,0,0,3,0,0,0,4,1,0,0
116873788,0.127711,0.0282132,0.532436,0.0,0.0,0.0,0.0,0.0,0.0,0.0,0.0,0,0,0,0,0,0,0,3,0,0,0,4,1,0,0
117072184,0.0987952,0.031348,0.531212,0.0,0.0,0.0,0.0,0.0,0.0,0.0,0.0,0,0,0,0,0,0,0,3,0,0,0,4,1,0,0
117273637,0.0795181,0.0282132,0.528764,0.0,0.0,0.0,0.0,0.0,0.0,0.0,0.0,0,0,0,0,0,0,0,3,0,0,0,4,1,0,0
117473070,0.0192771,0.031348,0.528764,0.0,0.0,0.0,0.0,0.0,0.0,0.0,0.0,0,0,0,0,0,0,0,3,0,0,0,4,1,0,0
117673292,0.0192771,0.0282132,0.528764,0.0,0.0,0.0,0.0,0.0,0.0,0.0,0.0,0,0,0,0,0,0,0,3,0,0,0,4,1,0,0
117874700,0.0192771,0.0971787,0.52754,0.0,0.0,0.0,0.0,0.0,0.0,0.0,0.0,0,0,0,0,0,0,0,3,0,0,0,4,1,0,0
118075777,0.0192771,0.222571,0.529988,0.0,0.0,0.0,0.0,0.0,0.0,0.0,0.0,0,0,0,0,0,0,0,3,0,0,0,4,1,0,0
118274233,0.0240964,0.144201,0.516524,0.0,0.0,0.0,0.0,0.0,0.0,0.0,0.0,0,0,0,0,0,0,0,3,0,0,0,4,1,0,0
118473082,0.142169,0.282132,0.516524,0.0,0.0,0.0,0.0,0.0,0.0,0.0,0.0,0,0,0,0,0,0,0,3,0,0,0,4,1,0,0
118674871,0.13253,0.0752351,0.517748,0.0,0.0,0.0,0.0,0.0,0.0,0.0,0.0,0,0,0,0,0,0,0,3,0,0,0,4,1,0,0
118875486,0.110843,0.0971787,0.517748,0.0,0.0,0.0,0.0,0.0,0.0,0.0,0.0,0,0,0,0,0,0,0,3,0,0,0,4,1,0,0
119076748,0.101205,0.0344828,0.488372,0.0,0.0,0.0,0.0,0.0,0.0,0.0,0.0,0,0,0,0,0,0,0,3,0,0,0,4,1,0,0
119277790,0.120482,0.031348,0.488372,0.0,0.0,0.0,0.0,0.0,0.0,0.0,0.0,0,0,0,0,0,0,0,3,0,0,0,4,1,0,0
119479258,0.166265,0.0219436,0.517748,0.0,0.0,0.0,0.0,0.0,0.0,0.0,0.0,0,0,0,0,0,0,0,3,0,0,0,4,1,0,0
119680148,0.183133,0.031348,0.488372,0.0,0.0,0.0,0.0,0.0,0.0,0.0,0.0,0,0,0,0,0,0,0,3,0,0,0,4,1,0,0
119881398,0.0746988,0.0344828,0.489596,0.0,0.0,0.0,0.0,0.0,0.0,0.0,0.0,0,0,0,0,0,0,0,3,0,0,0,4,1,0,0
120077537,0.0192771,0.031348,0.495716,0.0,0.0,0.0,0.0,0.0,0.0,0.0,0.0,0,0,0,0,0,0,0,3,0,0,0,4,1,0,0
120278935,0.118072,0.181818,0.49694,0.0,0.0,0.0,0.0,0.0,0.0,0.0,0.0,0,0,0,0,0,0,0,3,0,0,0,4,1,0,0
120479693,0.106024,0.144201,0.498164,0.0,0.0,0.0,0.0,0.0,0.0,0.0,0.0,0,0,0,0,0,0,0,3,0,0,0,4,1,0,0
120678403,0.0192771,0.0282132,0.559364,0.0,0.0,0.0,0.0,0.0,0.0,0.0,0.0,0,0,0,0,0,0,0,3,0,0,0,4,1,0,0
120877216,0.0192771,0.0344828,0.589963,0.0,0.0,0.0,0.0,0.0,0.0,0.0,0.0,0,0,0,0,0,0,0,3,0,0,0,4,1,0,0
121078605,0.0192771,0.0846395,0.589963,0.0,0.0,0.0,0.0,0.0,0.0,0.0,0.0,0,0,0,0,0,0,0,3,0,0,0,4,1,0,0
121278140,0.142169,0.0344828,0.583843,0.0,0.0,0.0,0.0,0.0,0.0,0.0,0.0,0,0,0,0,0,0,0,3,0,0,0,4,1,0,0
121478069,0.250602,0.0282132,0.583843,0.0,0.0,0.0,0.0,0.0,0.0,0.0,0.0,0,0,0,0,0,0,0,3,0,0,0,4,1,0,0
121676845,0.253012,0.031348,0.585067,0.0,0.0,0.0,0.0,0.0,0.0,0.0,0.0,0,0,0,0,0,0,0,3,0,0,0,4,1,0,0
121878274,0.101205,0.031348,0.583843,0.0,0.0,0.0,0.0,0.0,0.0,0.0,0.0,0,0,0,0,0,0,0,3,0,0,0,4,1,0,0
122079178,0.0192771,0.031348,0.582619,0.0,0.0,0.0,0.0,0.0,0.0,0.0,0.0,0,0,0,0,0,0,0,3,0,0,0,4,1,0,0
122277809,0.0216867,0.0344828,0.575275,0.0,0.0,0.0,0.0,0.0,0.0,0.0,0.0,0,0,0,0,0,0,0,3,0,0,0,4,1,0,0
122479779,0.0289157,0.241379,0.563035,0.00480769,0.0,0.0,0.0,0.0,0.0,0.0,0.0,0,0,0,0,0,0,0,3,0,0,0,4,1,0,0
122680232,0.0216867,0.203762,0.563035,0.0,0.0,0.0,0.0,0.0,0.0,0.0,0.0,0,0,0,0,0,0,0,3,0,0,0,4,1,0,0
122859013,0.0192771,0.031348,0.563035,0.0,0.0,0.0,0.0,0.0,0.0,0.0,0.0,0,0,0,0,0,0,0,3,0,0,0,4,1,0,0
123060379,0.0674699,0.0344828,0.510404,0.00240385,0.0,0.0,0.0,0.0,0.0,0.0,0.0,0,0,0,0,0,0,0,3,0,0,0,4,1,0,0
123261522,0.0554217,0.0344828,0.499388,0.0432692,0.0,0.0,0.0,0.0,0.0,0.0,0.0,0,0,0,0,0,0,0,3,0,0,0,4,1,0,0
123460090,0.0192771,0.031348,0.499388,0.0264423,0.0,0.0,0.0,0.0,0.0,0.0,0.0,0,0,0,0,0,0,0,3,0,0,0,4,1,0,0
123661392,0.0240964,0.332288,0.499388,0.0,0.0,0.0,0.0,0.0,0.0,0.0,0.0,0,0,0,0,0,0,0,3,0,0,0,4,1,0,0
123862340,0.0216867,0.119122,0.499388,0.0,0.0,0.0,0.0,0.0,0.0,0.0,0.0,0,0,0,0,0,0,0,3,0,0,0,4,1,0,0
124063762,0.0192771,0.031348,0.499388,0.03125,0.0,0.0,0.0,0.0,0.0,0.0,0.0,0,0,0,0,0,0,0,3,0,0,0,4,1,0,0
124264652,0.231325,0.0282132,0.499388,0.0120192,0.0,0.0,0.0,0.0,0.0,0.0,0.0,0,0,0,0,0,0,0,3,0,0,0,4,1,0,0
124466638,0.166265,0.0,0.499388,0.0264423,0.0,0.0,0.0,0.0,0.0,0.0,0.0,0,0,0,0,0,0,0,3,0,0,0,4,1,0,0
124667097,0.0216867,0.0282132,0.499388,0.0,0.0,0.0,0.0,0.0,0.0,0.0,0.0,0,0,0,0,0,0,0,3,0,0,0,4,1,0,0
124868502,0.0313253,0.0344828,0.499388,0.00721154,0.0,0.0,0.0,0.0,0.0,0.0,0.0,0,0,0,0,0,0,0,3,0,0,0,4,1,0,0
125069341,0.149398,0.197492,0.499388,0.0,0.0,0.0,0.0,0.0,0.0,0.0,0.0,0,0,0,0,0,0,0,3,0,0,0,4,1,0,0
125271508,0.026506,0.0282132,0.531212,0.0,0.0,0.0,0.0,0.0,0.0,0.0,0.0,0,0,0,0,0,0,0,3,0,0,0,4,1,0,0
125471891,0.0216867,0.0752351,0.560588,0.0,0.0,0.0,0.0,0.0,0.0,0.0,0.0,0,0,0,0,0,0,0,3,0,0,0,4,1,0,0
125673733,0.0216867,0.0470219,0.567931,0.0,0.0,0.0,0.0,0.0,0.0,0.0,0.0,0,0,0,0,0,0,0,3,0,0,0,4,1,0,0
125874201,0.026506,0.231975,0.572827,0.0,0.0,0.0,0.0,0.0,0.0,0.0,0.0,0,0,0,0,0,0,0,3,0,0,0,4,1,0,0
126076125,0.0698795,0.316614,0.572827,0.0,0.0,0.0,0.0,0.0,0.0,0.0,0.0,0,0,0,0,0,0,0,3,0,0,0,4,1,0,0
126276553,0.0192771,0.031348,0.572827,0.0,0.0,0.0,0.0,0.0,0.0,0.0,0.0,0,0,0,0,0,0,0,3,0,0,0,4,1,0,0
126477751,0.250602,0.0282132,0.572827,0.0,0.0,0.0,0.0,0.0,0.0,0.0,0.0,0,0,0,0,0,0,0,3,0,0,0,4,1,0,0
126678978,0.257831,0.0,0.571603,0.0,0.0,0.0,0.0,0.0,0.0,0.0,0.0,0,0,0,0,0,0,0,3,0,0,0,4,1,0,0
126880147,0.209639,-0.0640244,0.571603,0.0,0.0,0.0,0.0,0.0,0.0,0.0,0.0,0,0,0,0,0,0,0,3,0,0,0,4,1,0,0
127081101,0.159036,-0.0853659,0.571603,0.0,0.0,0.0,0.0,0.0,0.0,0.0,0.0,0,0,0,0,0,0,0,3,0,0,0,4,1,0,0
127282541,0.0192771,0.031348,0.571603,0.0,0.0,0.0,0.0,0.0,0.0,0.0,0.0,0,0,0,0,0,0,0,3,0,0,0,4,1,0,0
127461275,0.0192771,0.0282132,0.571603,0.0,0.0,0.0,0.0,0.0,0.0,0.0,0.0,0,0,0,0,0,0,0,3,0,0,0,4,1,0,0
127662174,0.0216867,0.031348,0.571603,0.0,0.0,0.0,0.0,0.0,0.0,0.0,0.0,0,0,0,0,0,0,0,3,0,0,0,4,1,0,0
127864136,0.0216867,0.0282132,0.561812,0.00240385,0.0,0.0,0.0,0.0,0.0,0.0,0.0,0,0,0,0,0,0,0,3,0,0,0,4,1,0,0
128064692,0.0361446,0.0250784,0.547124,0.0,0.0,0.0,0.0,0.0,0.0,0.0,0.0,0,0,0,0,0,0,0,3,0,0,0,4,1,0,0
128266681,0.0650602,0.0282132,0.520196,0.0120192,0.0,0.0,0.0,0.0,0.0,0.0,0.0,0,0,0,0,0,0,0,3,0,0,0,4,1,0,0
128466929,0.0722892,0.031348,0.507956,0.0192308,0.0,0.0,0.0,0.0,0.0,0.0,0.0,0,0,0,0,0,0,0,3,0,0,0,4,1,0,0
128665564,0.0771084,0.0344828,0.506732,0.0600962,0.0,0.0,0.0,0.0,0.0,0.0,0.0,0,0,0,0,0,0,0,3,0,0,0,4,1,0,0
128867737,0.253012,0.0407524,0.507956,0.0,0.0,0.0,0.0,0.0,0.0,0.0,0.0,0,0,0,0,0,0,0,3,0,0,0,4,1,0,0
129067878,0.209639,0.0376176,0.507956,0.0,0.0,0.0,0.0,0.0,0.0,0.0,0.0,0,0,0,0,0,0,0,3,0,0,0,4,1,0,0
129269280,0.0722892,0.0282132,0.507956,0.00480769,0.0,0.0,0.0,0.0,0.0,0.0,0.0,0,0,0,0,0,0,0,3,0,0,0,4,1,0,0
129470334,0.0216867,0.031348,0.507956,0.0120192,0.0,0.0,0.0,0.0,0.0,0.0,0.0,0,0,0,0,0,0,0,3,0,0,0,4,1,0,0
129669031,0.0216867,0.0344828,0.507956,0.0,0.0,0.0,0.0,0.0,0.0,0.0,0.0,0,0,0,0,0,0,0,3,0,0,0,4,1,0,0
129871036,0.0216867,0.0344828,0.507956,0.0,0.0,0.0,0.0,0.0,0.0,0.0,0.0,0,0,0,0,0,0,0,3,0,0,0,4,1,0,0
130071316,0.0192771,0.031348,0.507956,0.0120192,0.0,0.0,0.0,0.0,0.0,0.0,0.0,0,0,0,0,0,0,0,3,0,0,0,4,1,0,0
130280167,0.0216867,0.238245,0.507956,0.0,0.0,0.0,0.0,0.0,0.0,0.0,0.0,0,0,0,0,0,0,0,3,0,0,0,4,1,0,0
130473778,0.0216867,0.134796,0.507956,0.0,0.0,0.0,0.0,0.0,0.0,0.0,0.0,0,0,0,0,0,0,0,3,0,0,0,4,1,0,0
130675073,0.0192771,0.031348,0.507956,0.0,0.0,0.0,0.0,0.0,0.0,0.0,0.0,0,0,0,0,0,0,0,3,0,0,0,4,1,0,0
130876060,0.159036,0.0282132,0.507956,0.0,0.0,0.0,0.0,0.0,0.0,0.0,0.0,0,0,0,0,0,0,0,3,0,0,0,4,1,0,0
131078070,0.122892,0.0250784,0.507956,0.0,0.0,0.0,0.0,0.0,0.0,0.0,0.0,0,0,0,0,0,0,0,3,0,0,0,4,1,0,0
131278530,0.0192771,0.031348,0.507956,0.0,0.0,0.0,0.0,0.0,0.0,0.0,0.0,0,0,0,0,0,0,0,3,0,0,0,4,1,0,0
131479600,0.13012,0.0909091,0.507956,0.0,0.0,0.0,0.0,0.0,0.0,0.0,0.0,0,0,0,0,0,0,0,3,0,0,0,4,1,0,0
131680635,0.204819,0.0344828,0.507956,0.0,0.0,0.0,0.0,0.0,0.0,0.0,0.0,0,0,0,0,0,0,0,3,0,0,0,4,1,0,0
131882037,0.209639,0.0344828,0.507956,0.0,0.0,0.0,0.0,0.0,0.0,0.0,0.0,0,0,0,0,0,0,0,3,0,0,0,4,1,0,0
132060822,0.236145,0.0344828,0.507956,0.0,0.0,0.0,0.0,0.0,0.0,0.0,0.0,0,0,0,0,0,0,0,3,0,0,0,4,1,0,0
132261833,0.120482,0.0376176,0.507956,0.0,0.0,0.0,0.0,0.0,0.0,0.0,0.0,0,0,0,0,0,0,0,3,0,0,0,4,1,0,0
132460651,0.163855,0.401254,0.511628,0.0,0.0,0.0,0.0,0.0,0.0,0.0,0.0,0,0,0,0,0,0,0,3,0,0,0,4,1,0,0
132684268,0.0240964,0.0282132,0.501836,0.0,0.0,0.0,0.0,0.0,0.0,0.0,0.0,0,0,0,0,0,0,0,3,0,0,0,4,1,0,0
132862964,0.0192771,0.0282132,0.501836,0.0,0.0,0.0,0.0,0.0,0.0,0.0,0.0,0,0,0,0,0,0,0,3,0,0,0,4,1,0,0
133061528,0.0819277,0.0282132,0.538556,0.0,0.0,0.0,0.0,0.0,0.0,0.0,0.0,0,0,0,0,0,0,0,3,0,0,0,4,1,0,0
133263479,0.053012,0.031348,0.55814,0.0,0.0,0.0,0.0,0.0,0.0,0.0,0.0,0,0,0,0,0,0,0,3,0,0,0,4,1,0,0
133464121,0.0819277,0.0971787,0.55202,0.0,0.0,0.0,0.0,0.0,0.0,0.0,0.0,0,0,0,0,0,0,0,3,0,0,0,4,1,0,0
133665350,0.159036,0.031348,0.553244,0.0,0.0,0.0,0.0,0.0,0.0,0.0,0.0,0,0,0,0,0,0,0,3,0,0,0,4,1,0,0
133864571,0.151807,0.0282132,0.553244,0.0,0.0,0.0,0.0,0.0,0.0,0.0,0.0,0,0,0,0,0,0,0,3,0,0,0,4,1,0,0
134064869,0.0192771,0.0282132,0.553244,0.0,0.0,0.0,0.0,0.0,0.0,0.0,0.0,0,0,0,0,0,0,0,3,0,0,0,4,1,0,0
134267174,0.0361446,0.0344828,0.553244,0.0,0.0,0.0,0.0,0.0,0.0,0.0,0.0,0,0,0,0,0,0,0,3,0,0,0,4,1,0,0
134465639,0.0939759,0.166144,0.553244,0.0,0.0,0.0,0.0,0.0,0.0,0.0,0.0,0,0,0,0,0,0,0,3,0,0,0,4,1,0,0
134665998,0.159036,0.0752351,0.553244,0.0,0.0,0.0,0.0,0.0,0.0,0.0,0.0,0,0,0,0,0,0,0,3,0,0,0,4,1,0,0
134867483,0.0216867,0.0282132,0.553244,0.0,0.0,0.0,0.0,0.0,0.0,0.0,0.0,0,0,0,0,0,0,0,3,0,0,0,4,1,0,0
135066117,0.0313253,0.0282132,0.553244,0.0,0.0,0.0,0.0,0.0,0.0,0.0,0.0,0,0,0,0,0,0,0,3,0,0,0,4,1,0,0
135264719,0.0216867,0.0344828,0.55202,0.0,0.0,0.0,0.0,0.0,0.0,0.0,0.0,0,0,0,0,0,0,0,3,0,0,0,4,1,0,0
135463791,0.0216867,0.222571,0.550796,0.0,0.0,0.0,0.0,0.0,0.0,0.0,0.0,0,0,0,0,0,0,0,3,0,0,0,4,1,0,0
135662727,0.026506,0.244514,0.550796,0.0,0.0,0.0,0.0,0.0,0.0,0.0,0.0,0,0,0,0,0,0,0,3,0,0,0,4,1,0,0
