timestamp,roll_body,pitch_body,yaw_body,yaw_sp_move_rate,q_d[0],q_d[1],q_d[2],q_d[3],thrust_body[0],thrust_body[1],thrust_body[2],roll_reset_integral,pitch_reset_integral,yaw_reset_integral,fw_control_yaw,apply_flaps
17677506,0.0172352,-0.0117751,-1.66147,0.0,0.674335,0.00146364,-0.0103333,-0.738352,0.0,0.0,-0.0,0,0,0,0,0
17682555,0.0172352,-0.0117751,-1.66168,0.0,0.674258,0.00146256,-0.0103335,-0.738422,0.0,0.0,-0.0,0,0,0,0,0
17781949,0.0172352,-0.0117751,-1.66119,0.0,0.674438,0.00146508,-0.0103331,-0.738258,0.0,0.0,-0.0,0,0,0,0,0
17881086,0.0172352,-0.0117751,-1.66009,0.0,0.674844,0.00147076,-0.0103323,-0.737887,0.0,0.0,-0.0,0,0,0,0,0
17980447,0.0172352,-0.0117751,-1.6575,0.0,0.675798,0.00148413,-0.0103304,-0.737013,0.0,0.0,-0.0,0,0,0,0,0
18079835,0.0172352,-0.0117751,-1.65634,0.0,0.676226,0.00149013,-0.0103295,-0.73662,0.0,0.0,-0.0,0,0,0,0,0
18179223,0.0172352,-0.0117751,-1.65356,0.0,0.677249,0.00150448,-0.0103274,-0.73568,0.0,0.0,-0.0,0,0,0,0,0
18283393,0.0172352,-0.0117751,-1.6506,0.0,0.678338,0.00151978,-0.0103252,-0.734676,0.0,0.0,-0.0,0,0,0,0,0
18377821,0.0172352,-0.0117751,-1.64878,0.0,0.679007,0.00152918,-0.0103238,-0.734058,0.0,0.0,-0.0,0,0,0,0,0
18482130,0.0172352,-0.0117751,-1.64512,0.0,0.680346,0.00154802,-0.010321,-0.732817,0.0,0.0,-0.0,0,0,0,0,0
18581465,0.0172352,-0.0117751,-1.64134,0.0,0.68173,0.00156753,-0.0103181,-0.73153,0.0,0.0,-0.0,0,0,0,0,0
18680925,0.0172352,-0.0117751,-1.63908,0.0,0.682557,0.00157921,-0.0103163,-0.730758,0.0,0.0,-0.0,0,0,0,0,0
18780144,0.0172352,-0.0117751,-1.63637,0.0,0.683545,0.00159316,-0.0103141,-0.729834,0.0,0.0,-0.0,0,0,0,0,0
18879765,0.0172352,-0.0117751,-1.63395,0.0,0.684429,0.00160566,-0.0103122,-0.729004,0.0,0.0,-0.0,0,0,0,0,0
18983793,0.0172352,-0.0117751,-1.6311,0.0,0.685467,0.00162035,-0.0103099,-0.728029,0.0,0.0,-0.0,0,0,0,0,0
19078185,0.0172352,-0.0117751,-1.62704,0.0,0.686945,0.0016413,-0.0103066,-0.726635,0.0,0.0,-0.0,0,0,0,0,0
19182592,0.0172352,-0.0117751,-1.62397,0.0,0.688058,0.00165709,-0.0103041,-0.725581,0.0,0.0,-0.0,0,0,0,0,0
19281775,0.0172352,-0.0117751,-1.62179,0.0,0.688848,0.00166832,-0.0103022,-0.72483,0.0,0.0,-0.0,0,0,0,0,0
19381261,0.0172352,-0.0117751,-1.61889,0.0,0.689901,0.00168329,-0.0102998,-0.723829,0.0,0.0,-0.0,0,0,0,0,0
19480606,0.0172352,-0.0117751,-1.61612,0.0,0.690903,0.00169756,-0.0102975,-0.722872,0.0,0.0,-0.0,0,0,0,0,0
19579792,0.0172352,-0.0117751,-1.614,0.0,0.691666,0.00170844,-0.0102957,-0.722142,0.0,0.0,-0.0,0,0,0,0,0
19679360,0.0172352,-0.0117751,-1.6114,0.0,0.692607,0.00172185,-0.0102934,-0.72124,0.0,0.0,-0.0,0,0,0,0,0
19778530,0.0172352,-0.0117751,-1.60875,0.0,0.693562,0.00173549,-0.0102911,-0.720321,0.0,0.0,-0.0,0,0,0,0,0
19882880,0.0172352,-0.0117751,-1.60638,0.0,0.694415,0.00174768,-0.0102891,-0.719499,0.0,0.0,-0.0,0,0,0,0,0
19982321,0.0172352,-0.0117751,-1.60381,0.0,0.695338,0.0017609,-0.0102868,-0.718607,0.0,0.0,-0.0,0,0,0,0,0
20081467,0.0172352,-0.0117751,-1.60109,0.0,0.696314,0.00177487,-0.0102844,-0.717661,0.0,0.0,-0.0,0,0,0,0,0
20180909,0.0172352,-0.0117751,-1.59863,0.0,0.697195,0.0017875,-0.0102822,-0.716806,0.0,0.0,-0.0,0,0,0,0,0
20280336,0.0172352,-0.0117751,-1.59571,0.0,0.698242,0.00180253,-0.0102796,-0.715785,0.0,0.0,-0.0,0,0,0,0,0
20379504,0.0172352,-0.0117751,-1.5936,0.0,0.698996,0.00181336,-0.0102777,-0.715049,0.0,0.0,-0.0,0,0,0,0,0
20479060,0.0172352,-0.0117751,-1.59137,0.0,0.699794,0.00182483,-0.0102757,-0.714269,0.0,0.0,-0.0,0,0,0,0,0
20583240,0.0172352,-0.0117751,-1.58901,0.0,0.700636,0.00183696,-0.0102735,-0.713442,0.0,0.0,-0.0,0,0,0,0,0
20682642,0.0172352,-0.0117751,-1.58757,0.0,0.70115,0.00184436,-0.0102722,-0.712937,0.0,0.0,-0.0,0,0,0,0,0
20781892,0.0172352,-0.0117751,-1.58563,0.0,0.701841,0.00185431,-0.0102704,-0.712258,0.0,0.0,-0.0,0,0,0,0,0
20881280,0.0172352,-0.0117751,-1.5837,0.0,0.702527,0.00186422,-0.0102686,-0.71158,0.0,0.0,-0.0,0,0,0,0,0
20980618,0.0172352,-0.0117751,-1.58294,0.0,0.702796,0.0018681,-0.0102679,-0.711314,0.0,0.0,-0.0,0,0,0,0,0
21080024,0.0172352,-0.0117751,-1.58199,0.0,0.703137,0.00187302,-0.010267,-0.710978,0.0,0.0,-0.0,0,0,0,0,0
21179248,0.0172352,-0.0117751,-1.58132,0.0,0.703375,0.00187645,-0.0102664,-0.710743,0.0,0.0,-0.0,0,0,0,0,0
21278658,0.0172352,-0.0117751,-1.58156,0.0,0.703289,0.00187522,-0.0102666,-0.710827,0.0,0.0,-0.0,0,0,0,0,0
21383063,0.0172352,-0.0117751,-1.58119,0.0,0.703421,0.00187712,-0.0102662,-0.710697,0.0,0.0,-0.0,0,0,0,0,0
21482376,0.0172352,-0.0117751,-1.58088,0.0,0.703532,0.00187872,-0.010266,-0.710587,0.0,0.0,-0.0,0,0,0,0,0
21581598,0.0172352,-0.0117751,-1.5808,0.0,0.70356,0.00187913,-0.0102659,-0.710559,0.0,0.0,-0.0,0,0,0,0,0
21681003,0.0172352,-0.0117751,-1.57984,0.0,0.703899,0.00188402,-0.010265,-0.710224,0.0,0.0,-0.0,0,0,0,0,0
21780303,0.0191521,0.0205567,-1.57847,0.0,0.704248,0.0140401,0.000442732,-0.709815,0.0,0.0,-0.0,0,0,0,0,0
21879627,0.0172352,-0.0117751,-1.57883,0.0,0.704259,0.00188923,-0.010264,-0.709867,0.0,0.0,-0.0,0,0,0,0,0
21979034,0.0172355,-0.013247,-1.57837,0.0,0.704423,0.00136931,-0.010782,-0.709697,0.0,0.0,-0.0,0,0,0,0,0
22083372,0.0172355,-0.013247,-1.57792,0.0,0.704582,0.00137172,-0.0107817,-0.709539,0.0,0.0,-0.0,0,0,0,0,0
22182662,0.0172355,-0.013247,-1.5774,0.0,0.704767,0.00137453,-0.0107814,-0.709355,0.0,0.0,-0.0,0,0,0,0,0
22282071,0.0172355,-0.013247,-1.57741,0.0,0.704762,0.00137445,-0.0107814,-0.70936,0.0,0.0,-0.0,0,0,0,0,0
22381484,0.0172355,-0.013247,-1.57707,0.0,0.704884,0.00137631,-0.0107811,-0.709239,0.0,0.0,-0.0,0,0,0,0,0
22480671,0.0172355,-0.013247,-1.57706,0.0,0.704888,0.00137636,-0.0107811,-0.709236,0.0,0.0,-0.0,0,0,0,0,0
22579929,0.0172355,-0.013247,-1.57659,0.0,0.705055,0.00137891,-0.0107808,-0.709069,0.0,0.0,-0.0,0,0,0,0,0
22679568,0.0172355,-0.013247,-1.57542,0.0,0.705468,0.00138519,-0.01078,-0.708658,0.0,0.0,-0.0,0,0,0,0,0
22783705,0.0172355,-0.013247,-1.57558,0.0,0.705413,0.00138436,-0.0107801,-0.708713,0.0,0.0,-0.0,0,0,0,0,0
22883008,0.0172355,-0.013247,-1.57512,0.0,0.705577,0.00138684,-0.0107798,-0.70855,0.0,0.0,-0.0,0,0,0,0,0
22982415,0.0,-0.0132477,-1.57447,0.0,0.705792,-0.00469232,-0.00467512,-0.708388,0.0,0.0,-0.0,0,0,0,0,0
23081716,0.0172355,-0.013247,-1.57484,0.0,0.705675,0.00138833,-0.0107796,-0.708453,0.0,0.0,-0.0,0,0,0,0,0
23181220,0.0172355,-0.013247,-1.5715,0.0,0.706855,0.00140631,-0.0107773,-0.707275,0.0,0.0,-0.0,0,0,0,0,0
23280320,0.0172355,-0.013247,-1.57139,0.0,0.706896,0.00140693,-0.0107772,-0.707234,0.0,0.0,-0.0,0,0,0,0,0
23379656,0.0172352,-0.0117751,-1.57115,0.0,0.706978,0.0019286,-0.0102567,-0.707159,0.0,0.0,-0.0,0,0,0,0,0
23484084,0.0172355,-0.013247,-1.57109,0.0,0.707002,0.00140855,-0.010777,-0.707128,0.0,0.0,-0.0,0,0,0,0,0
23578510,0.0172355,-0.013247,-1.57074,0.0,0.707125,0.00141042,-0.0107767,-0.707005,0.0,0.0,-0.0,0,0,0,0,0
23682613,0.0172355,-0.013247,-1.57071,0.0,0.707137,0.00141061,-0.0107767,-0.706993,0.0,0.0,-0.0,0,0,0,0,0
23782111,0.0172355,-0.013247,-1.57046,0.0,0.707223,0.00141191,-0.0107765,-0.706907,0.0,0.0,-0.0,0,0,0,0,0
23881369,0.0172355,-0.013247,-1.57078,0.0,0.707112,0.00141022,-0.0107768,-0.707018,0.0,0.0,-0.0,0,0,0,0,0
23980993,0.0153204,-0.0132472,-1.57061,0.0,0.707173,0.000733954,-0.0100997,-0.706968,0.0,0.0,-0.0,0,0,0,0,0
24080080,0.0172355,-0.013247,-1.56974,0.0,0.707478,0.00141579,-0.010776,-0.706652,0.0,0.0,-0.021224,0,0,0,0,0
24184359,0.0172355,-0.013247,-1.56991,0.0,0.70742,0.00141491,-0.0107761,-0.70671,0.0,0.0,-0.0224725,0,0,0,0,0
24278776,0.0172355,-0.013247,-1.56975,0.0,0.707475,0.00141575,-0.010776,-0.706655,0.0,0.0,-0.021224,0,0,0,0,0
24382999,0.0172352,-0.0117751,-1.57086,0.0,0.707082,0.00193011,-0.0102564,-0.707055,0.0,0.0,-0.021224,0,0,0,0,0
24482424,0.0172352,-0.0117751,-1.57047,0.0,0.707221,0.00193213,-0.010256,-0.706916,0.0,0.0,-0.021224,0,0,0,0,0
24581728,0.0172352,-0.0117751,-1.5688,0.0,0.707809,0.00194067,-0.0102544,-0.706326,0.0,0.0,-0.0199755,0,0,0,0,0
24681010,0.0172352,-0.0117751,-1.56821,0.0,0.708018,0.00194369,-0.0102539,-0.706118,0.0,0.0,-0.018727,0,0,0,0,0
24780586,0.0172352,-0.0117751,-1.56816,0.0,0.708034,0.00194393,-0.0102538,-0.706101,0.0,0.0,-0.018727,0,0,0,0,0
24884836,0.0172352,-0.0117751,-1.56756,0.0,0.708246,0.00194701,-0.0102532,-0.705889,0.0,0.0,-0.018727,0,0,0,0,0
24979147,0.0172352,-0.0117751,-1.56769,0.0,0.708202,0.00194637,-0.0102533,-0.705933,0.0,0.0,-0.0162301,0,0,0,0,0
25083548,0.0172352,-0.0117751,-1.56803,0.0,0.708081,0.00194462,-0.0102537,-0.706054,0.0,0.0,-0.0162301,0,0,0,0,0
25177792,0.0172352,-0.0117751,-1.56837,0.0,0.707963,0.0019429,-0.010254,-0.706173,0.0,0.0,-0.0287148,0,0,0,0,0
25282115,0.0172355,-0.013247,-1.56739,0.0,0.70831,0.00142849,-0.0107743,-0.705818,0.0,0.0,-0.176842,0,0,0,0,0
25381530,0.0172355,-0.013247,-1.56739,0.0,0.70831,0.00142849,-0.0107743,-0.705818,0.0,0.0,-0.176842,0,0,0,0,0
25480716,0.0172355,-0.013247,-1.56739,0.0,0.70831,0.00142849,-0.0107743,-0.705818,0.0,0.0,-0.177895,0,0,0,0,0
25580264,0.0172352,-0.0117751,-1.56737,0.0,0.708313,0.00194799,-0.010253,-0.705821,0.0,0.0,-0.169474,0,0,0,0,0
25679490,0.0172355,-0.013247,-1.56739,0.0,0.70831,0.00142849,-0.0107743,-0.705818,0.0,0.0,-0.166316,0,0,0,0,0
25783784,0.0172355,-0.013247,-1.56739,0.0,0.70831,0.00142849,-0.0107743,-0.705818,0.0,0.0,-0.167368,0,0,0,0,0
25878392,0.0172357,-0.0147189,-1.5674,0.0,0.708306,0.000909005,-0.0112957,-0.705814,0.0,0.0,-0.167368,0,0,0,0,0
25982569,0.0172355,-0.013247,-1.56739,0.0,0.70831,0.00142849,-0.0107743,-0.705818,0.0,0.0,-0.166316,0,0,0,0,0
26081801,0.0191505,-0.0132469,-1.5674,0.0,0.708304,0.0021067,-0.0114501,-0.705812,0.0,0.0,-0.166316,0,0,0,0,0
26181144,0.0191517,-0.0191344,-1.56745,0.0,0.708287,2.87478e-05,-0.0135353,-0.705795,0.0,0.0,-0.166316,0,0,0,0,0
26280522,0.0134101,-0.0353261,-1.56751,0.0,0.708225,-0.00771997,-0.0172419,-0.705734,0.0,0.0,-0.166316,0,0,0,0,0
26379942,0.00766507,-0.0456305,-1.56745,0.0,0.708162,-0.0133904,-0.018863,-0.705671,0.0,0.0,-0.166316,0,0,0,0,0
26484240,0.0191511,-0.0161906,-1.56743,0.0,0.708296,0.00106772,-0.0124927,-0.705804,0.0,0.0,-0.166316,0,0,0,0,0
26578545,0.0172352,-0.0117751,-1.56737,0.0,0.708313,0.00194799,-0.010253,-0.705821,0.0,0.0,-0.167368,0,0,0,0,0
26682991,0.0172352,-0.0117751,-1.56737,0.0,0.708313,0.00194799,-0.010253,-0.705821,0.0,0.0,-0.167368,0,0,0,0,0
26777294,0.0172352,-0.0117751,-1.56737,0.0,0.708313,0.00194799,-0.010253,-0.705821,0.0,0.0,-0.166316,0,0,0,0,0
26881434,0.0191503,-0.011775,-1.56738,0.0,0.708307,0.00262619,-0.0109288,-0.705815,0.0,0.0,-0.166316,0,0,0,0,0
26980924,0.0191503,-0.011775,-1.56738,0.0,0.708307,0.00262619,-0.0109288,-0.705815,0.0,0.0,-0.165263,0,0,0,0,0
27080187,0.0172352,-0.0117751,-1.56737,0.0,0.708313,0.00194799,-0.010253,-0.705821,0.0,0.0,-0.166316,0,0,0,0,0
27184600,0.0172355,-0.013247,-1.56739,0.0,0.70831,0.00142849,-0.0107743,-0.705818,0.0,0.0,-0.166316,0,0,0,0,0
27279012,0.0172355,-0.013247,-1.56739,0.0,0.70831,0.00142849,-0.0107743,-0.705818,0.0,0.0,-0.166316,0,0,0,0,0
27383114,0.0172359,-0.0161908,-1.56741,0.0,0.708302,0.000389516,-0.0118169,-0.70581,0.0,0.0,-0.166316,0,0,0,0,0
27477646,0.0172357,-0.0147189,-1.5674,0.0,0.708306,0.000909005,-0.0112957,-0.705814,0.0,0.0,-0.176842,0,0,0,0,0
27581867,0.0172357,-0.0147189,-1.5674,0.0,0.708306,0.000909005,-0.0112957,-0.705814,0.0,0.0,-0.178947,0,0,0,0,0
27681182,0.0172357,-0.0147189,-1.5674,0.0,0.708306,0.000909005,-0.0112957,-0.705814,0.0,0.0,-0.206316,0,0,0,0,0
27780682,0.0172355,-0.013247,-1.56739,0.0,0.70831,0.00142849,-0.0107743,-0.705818,0.0,0.0,-0.214737,0,0,0,0,0
27879820,0.0172355,-0.013247,-1.56739,0.0,0.70831,0.00142849,-0.0107743,-0.705818,0.0,0.0,-0.215789,0,0,0,0,0
27979311,0.0172355,-0.013247,-1.56739,0.0,0.70831,0.00142849,-0.0107743,-0.705818,0.0,0.0,-0.212632,0,0,0,0,0
28083590,0.0191503,-0.011775,-1.56738,0.0,0.708307,0.00262619,-0.0109288,-0.705815,0.0,0.0,-0.211579,0,0,0,0,0
28177884,0.0191503,-0.011775,-1.56738,0.0,0.708307,0.00262619,-0.0109288,-0.705815,0.0,0.0,-0.211579,0,0,0,0,0
28282368,0.0153202,-0.0117753,-1.56736,0.0,0.708319,0.00126978,-0.00957723,-0.705827,0.0,0.0,-0.211579,0,0,0,0,0
28381750,0.0172352,-0.0117751,-1.56737,0.0,0.708313,0.00194799,-0.010253,-0.705821,0.0,0.0,-0.211579,0,0,0,0,0
28480853,0.0191503,-0.011775,-1.56738,0.0,0.708307,0.00262619,-0.0109288,-0.705815,0.0,0.0,-0.211579,0,0,0,0,0
28580335,0.0191503,-0.011775,-1.56738,0.0,0.708307,0.00262619,-0.0109288,-0.705815,0.0,0.0,-0.211579,0,0,0,0,0
28679525,0.0191503,-0.011775,-1.56738,0.0,0.708307,0.00262619,-0.0109288,-0.705815,0.0,0.0,-0.211579,0,0,0,0,0
28783935,0.0172352,-0.0117751,-1.56737,0.0,0.708313,0.00194799,-0.010253,-0.705821,0.0,0.0,-0.213684,0,0,0,0,0
28878373,0.0172352,-0.0117751,-1.56737,0.0,0.708313,0.00194799,-0.010253,-0.705821,0.0,0.0,-0.213684,0,0,0,0,0
28982623,0.0172352,-0.0117751,-1.56737,0.0,0.708313,0.00194799,-0.010253,-0.705821,0.0,0.0,-0.211579,0,0,0,0,0
29082049,0.0172352,-0.0117751,-1.56737,0.0,0.708313,0.00194799,-0.010253,-0.705821,0.0,0.0,-0.210526,0,0,0,0,0
29181404,0.0172352,-0.0117751,-1.56737,0.0,0.708313,0.00194799,-0.010253,-0.705821,0.0,0.0,-0.213684,0,0,0,0,0
29280698,0.0172352,-0.0117751,-1.56737,0.0,0.708313,0.00194799,-0.010253,-0.705821,0.0,0.0,-0.214737,0,0,0,0,0
29379996,0.0153202,-0.0117753,-1.56736,0.0,0.708319,0.00126978,-0.00957723,-0.705827,0.0,0.0,-0.214737,0,0,0,0,0
29479315,0.0172352,-0.0117751,-1.56737,0.0,0.708313,0.00194799,-0.010253,-0.705821,0.0,0.0,-0.214737,0,0,0,0,0
29578583,0.0172352,-0.0117751,-1.56737,0.0,0.708313,0.00194799,-0.010253,-0.705821,0.0,0.0,-0.218947,0,0,0,0,0
29683083,0.0172352,-0.0117751,-1.56737,0.0,0.708313,0.00194799,-0.010253,-0.705821,0.0,0.0,-0.229474,0,0,0,0,0
29782346,0.0172352,-0.0117751,-1.56737,0.0,0.708313,0.00194799,-0.010253,-0.705821,0.0,0.0,-0.237895,0,0,0,0,0
29881661,0.0172352,-0.0117751,-1.56737,0.0,0.708313,0.00194799,-0.010253,-0.705821,0.0,0.0,-0.237895,0,0,0,0,0
29980995,0.0172355,-0.013247,-1.56739,0.0,0.70831,0.00142849,-0.0107743,-0.705818,0.0,0.0,-0.24,0,0,0,0,0
30080353,0.0153202,-0.0117753,-1.56736,0.0,0.708319,0.00126978,-0.00957723,-0.705827,0.0,0.0,-0.243158,0,0,0,0,0
30179873,0.0172352,-0.0117751,-1.56737,0.0,0.708313,0.00194799,-0.010253,-0.705821,0.0,0.0,-0.244211,0,0,0,0,0
30279064,0.0172352,-0.0117751,-1.56737,0.0,0.708313,0.00194799,-0.010253,-0.705821,0.0,0.0,-0.282105,0,0,0,0,0
30383387,0.0172352,-0.0117751,-1.56737,0.0,0.708313,0.00194799,-0.010253,-0.705821,0.0,0.0,-0.28,0,0,0,0,0
30482741,0.0172352,-0.0117751,-1.56737,0.0,0.708313,0.00194799,-0.010253,-0.705821,0.0,0.0,-0.283158,0,0,0,0,0
30582134,0.0172352,-0.0117751,-1.56737,0.0,0.708313,0.00194799,-0.010253,-0.705821,0.0,0.0,-0.3,0,0,0,0,0
30681348,0.0172352,-0.0117751,-1.56737,0.0,0.708313,0.00194799,-0.010253,-0.705821,0.0,0.0,-0.3,0,0,0,0,0
30780788,0.0172352,-0.0117751,-1.56737,0.0,0.708313,0.00194799,-0.010253,-0.705821,0.0,0.0,-0.3,0,0,0,0,0
30880004,0.0172352,-0.0117751,-1.56737,0.0,0.708313,0.00194799,-0.010253,-0.705821,0.0,0.0,-0.290526,0,0,0,0,0
30979555,0.0172352,-0.0117751,-1.56737,0.0,0.708313,0.00194799,-0.010253,-0.705821,0.0,0.0,-0.289474,0,0,0,0,0
31083654,0.0172352,-0.0117751,-1.56737,0.0,0.708313,0.00194799,-0.010253,-0.705821,0.0,0.0,-0.287368,0,0,0,0,0
31183026,0.0172352,-0.0117751,-1.56737,0.0,0.708313,0.00194799,-0.010253,-0.705821,0.0,0.0,-0.287368,0,0,0,0,0
31282549,0.0172352,-0.0117751,-1.56737,0.0,0.708313,0.00194799,-0.010253,-0.705821,0.0,0.0,-0.293684,0,0,0,0,0
31381796,0.0172352,-0.0117751,-1.56737,0.0,0.708313,0.00194799,-0.010253,-0.705821,0.0,0.0,-0.308421,0,0,0,0,0
31480979,0.0191503,-0.011775,-1.56738,0.0,0.708307,0.00262619,-0.0109288,-0.705815,0.0,0.0,-0.308421,0,0,0,0,0
31580484,0.0191503,-0.011775,-1.56738,0.0,0.708307,0.00262619,-0.0109288,-0.705815,0.0,0.0,-0.309474,0,0,0,0,0
31679812,0.0172352,-0.0117751,-1.56737,0.0,0.708313,0.00194799,-0.010253,-0.705821,0.0,0.0,-0.308421,0,0,0,0,0
31779194,0.0172352,-0.0117751,-1.56737,0.0,0.708313,0.00194799,-0.010253,-0.705821,0.0,0.0,-0.307368,0,0,0,0,0
31883508,0.0210653,-0.0117748,-1.5674,0.0,0.7083,0.00330439,-0.0116046,-0.705808,0.0,0.0,-0.307368,0,0,0,0,0
31982735,0.0191503,-0.011775,-1.56738,0.0,0.708307,0.00262619,-0.0109288,-0.705815,0.0,0.0,-0.306316,0,0,0,0,0
32082182,0.0172352,-0.0117751,-1.56737,0.0,0.708313,0.00194799,-0.010253,-0.705821,0.0,0.0,-0.307368,0,0,0,0,0
32181338,0.0172352,-0.0117751,-1.56628,0.0188798,0.708699,0.0019536,-0.010252,-0.705434,0.0,0.0,-0.308421,0,0,0,0,0
32280765,0.0172352,-0.0117751,-1.56497,0.00629325,0.709162,0.00196033,-0.0102507,-0.704968,0.0,0.0,-0.309474,0,0,0,0,0
32380180,0.0172352,-0.0117751,-1.56437,0.0,0.709371,0.00196337,-0.0102501,-0.704758,0.0,0.0,-0.314737,0,0,0,0,0
32479373,0.0191503,-0.011775,-1.56438,0.0,0.709365,0.00264258,-0.0109249,-0.704752,0.0,0.0,-0.32,0,0,0,0,0
32583880,0.0172352,-0.0117751,-1.56437,0.0,0.709371,0.00196337,-0.0102501,-0.704758,0.0,0.0,-0.32,0,0,0,0,0
32683066,0.0172352,-0.0117751,-1.56437,0.0,0.709371,0.00196337,-0.0102501,-0.704758,0.0,0.0,-0.32,0,0,0,0,0
32782451,0.0191503,-0.011775,-1.56438,0.0,0.709365,0.00264258,-0.0109249,-0.704752,0.0,0.0,-0.318947,0,0,0,0,0
32881847,0.0191503,-0.011775,-1.56438,0.0,0.709365,0.00264258,-0.0109249,-0.704752,0.0,0.0,-0.318947,0,0,0,0,0
32981143,0.0210653,-0.0117748,-1.5644,0.0,0.709358,0.0033218,-0.0115996,-0.704745,0.0,0.0,-0.318947,0,0,0,0,0
33080558,0.0210653,-0.0117748,-1.5644,0.0,0.709358,0.0033218,-0.0115996,-0.704745,0.0,0.0,-0.318947,0,0,0,0,0
33179842,0.0210653,-0.0117748,-1.5644,0.0,0.709358,0.0033218,-0.0115996,-0.704745,0.0,0.0,-0.318947,0,0,0,0,0
33284080,0.0210653,-0.0117748,-1.5644,0.0,0.709358,0.0033218,-0.0115996,-0.704745,0.0,0.0,-0.317895,0,0,0,0,0
33378639,0.0191503,-0.011775,-1.56438,0.0,0.709365,0.00264258,-0.0109249,-0.704752,0.0,0.0,-0.316842,0,0,0,0,0
33482756,0.0191503,-0.011775,-1.56438,0.0,0.709365,0.00264258,-0.0109249,-0.704752,0.0,0.0,-0.316842,0,0,0,0,0
33582091,0.0210653,-0.0117748,-1.5644,0.0,0.709358,0.0033218,-0.0115996,-0.704745,0.0,0.0,-0.318947,0,0,0,0,0
33681633,0.0210653,-0.0117748,-1.5644,0.0,0.709358,0.0033218,-0.0115996,-0.704745,0.0,0.0,-0.316842,0,0,0,0,0
33780838,0.0210653,-0.0117748,-1.5644,0.0,0.709358,0.0033218,-0.0115996,-0.704745,0.0,0.0,-0.316842,0,0,0,0,0
33880144,0.0210653,-0.0117748,-1.5644,0.0,0.709358,0.0033218,-0.0115996,-0.704745,0.0,0.0,-0.351579,0,0,0,0,0
33984492,0.0210653,-0.0117748,-1.5644,0.0,0.709358,0.0033218,-0.0115996,-0.704745,0.0,0.0,-0.350526,0,0,0,0,0
34078863,0.0210653,-0.0117748,-1.5644,0.0,0.709358,0.0033218,-0.0115996,-0.704745,0.0,0.0,-0.352632,0,0,0,0,0
34183184,0.0191503,-0.011775,-1.5641,0.0,0.709464,0.00264412,-0.0109245,-0.704652,0.0,0.0,-0.355789,0,0,0,0,0
34282536,0.0172352,-0.0117751,-1.56409,0.0,0.70947,0.00196481,-0.0102498,-0.704658,0.0,0.0,-0.356842,0,0,0,0,0
34381926,0.0191503,-0.011775,-1.5641,0.0,0.709464,0.00264412,-0.0109245,-0.704652,0.0,0.0,-0.356842,0,0,0,0,0
34481349,0.0478757,-0.0117712,-1.56427,0.0,0.709293,0.0128329,-0.0210435,-0.704482,0.0,0.0,-0.355789,0,0,0,0,0
34580585,0.072771,-0.0117653,-1.56442,0.0,0.709027,0.0216606,-0.0298103,-0.704218,0.0,0.0,-0.356842,0,0,0,0,0
34684812,0.072771,-0.0117653,-1.56442,0.0,0.709027,0.0216606,-0.0298103,-0.704218,0.0,0.0,-0.355789,0,0,0,0,0
34779327,0.0574508,-0.0117692,-1.56433,0.0,0.709204,0.0162285,-0.0244157,-0.704394,0.0,0.0,-0.355789,0,0,0,0,0
34883613,0.0210653,-0.0117748,-1.56411,0.0,0.709457,0.00332343,-0.0115992,-0.704645,0.0,0.0,-0.355789,0,0,0,0,0
34977890,0.0191503,-0.011775,-1.5641,0.0,0.709464,0.00264412,-0.0109245,-0.704652,0.0,0.0,-0.355789,0,0,0,0,0
35082259,0.0191503,-0.011775,-1.5641,0.0,0.709464,0.00264412,-0.0109245,-0.704652,0.0,0.0,-0.364211,0,0,0,0,0
35181538,0.0191503,-0.011775,-1.5641,0.0,0.709464,0.00264412,-0.0109245,-0.704652,0.0,0.0,-0.372632,0,0,0,0,0
35281060,0.0191503,-0.011775,-1.5641,0.0,0.709464,0.00264412,-0.0109245,-0.704652,0.0,0.0,-0.372632,0,0,0,0,0
35380259,0.0191503,-0.011775,-1.5641,0.0,0.709464,0.00264412,-0.0109245,-0.704652,0.0,0.0,-0.372632,0,0,0,0,0
35479649,0.0191503,-0.011775,-1.5641,0.0,0.709464,0.00264412,-0.0109245,-0.704652,0.0,0.0,-0.372632,0,0,0,0,0
35583974,0.0191503,-0.011775,-1.5641,0.0,0.709464,0.00264412,-0.0109245,-0.704652,0.0,0.0,-0.372632,0,0,0,0,0
35678176,0.0191503,-0.011775,-1.5641,0.0,0.709464,0.00264412,-0.0109245,-0.704652,0.0,0.0,-0.372632,0,0,0,0,0
35782634,0.0191503,-0.011775,-1.5641,0.0,0.709464,0.00264412,-0.0109245,-0.704652,0.0,0.0,-0.372632,0,0,0,0,0
35881950,0.0191503,-0.011775,-1.5641,0.0,0.709464,0.00264412,-0.0109245,-0.704652,0.0,0.0,-0.377895,0,0,0,0,0
35981230,0.0191503,-0.011775,-1.56317,0.0188798,0.709794,0.00264924,-0.0109233,-0.704319,0.0,0.0,-0.385263,0,0,0,0,0
36080734,0.0191503,-0.011775,-1.56091,0.0314663,0.710588,0.00266155,-0.0109203,-0.703519,0.0,0.0,-0.392632,0,0,0,0,0
36179900,0.0210653,-0.0117748,-1.55796,0.0314663,0.711623,0.00335913,-0.0115889,-0.702457,0.0,0.0,-0.392632,0,0,0,0,0
36284279,0.0191503,-0.011775,-1.55404,0.0440528,0.713001,0.00269907,-0.0109111,-0.701072,0.0,0.0,-0.392632,0,0,0,0,0
36378666,0.0191503,-0.011775,-1.54904,0.0566393,0.714753,0.00272635,-0.0109043,-0.699287,0.0,0.0,-0.392632,0,0,0,0,0
36482909,0.0191503,-0.011775,-1.54138,0.0818123,0.717425,0.00276808,-0.0108938,-0.696545,0.0,0.0,-0.393684,0,0,0,0,0
36577473,0.0210653,-0.0117748,-1.5342,0.0692258,0.719917,0.00349654,-0.0115482,-0.693955,0.0,0.0,-0.397895,0,0,0,0,0
36681710,0.0210653,-0.0117748,-1.52907,0.0566393,0.721693,0.00352613,-0.0115392,-0.692108,0.0,0.0,-0.414737,0,0,0,0,0
36780934,0.0210653,-0.0117748,-1.52288,0.0629325,0.723832,0.00356182,-0.0115282,-0.689871,0.0,0.0,-0.414737,0,0,0,0,0
36880422,0.0210653,-0.0117748,-1.51569,0.0818123,0.726309,0.00360327,-0.0115153,-0.687263,0.0,0.0,-0.415789,0,0,0,0,0
36984584,0.0210653,-0.0117748,-1.50538,0.100692,0.729841,0.00366257,-0.0114966,-0.68351,0.0,0.0,-0.415789,0,0,0,0,0
37079013,0.0210653,-0.0117748,-1.4955,0.106985,0.733208,0.00371931,-0.0114784,-0.679897,0.0,0.0,-0.418947,0,0,0,0,0
37183333,0.0210653,-0.0117748,-1.48353,0.125865,0.737265,0.00378795,-0.0114559,-0.675496,0.0,0.0,-0.422105,0,0,0,0,0
37277715,0.0191503,-0.011775,-1.47111,0.138452,0.741449,0.00314902,-0.0107898,-0.670915,0.0,0.0,-0.422105,0,0,0,0,0
37381957,0.0210653,-0.0117748,-1.45624,0.144745,0.746413,0.0039439,-0.0114031,-0.665374,0.0,0.0,-0.425263,0,0,0,0,0
37481310,0.0210653,-0.0117748,-1.44152,0.151038,0.751291,0.00402774,-0.0113738,-0.659861,0.0,0.0,-0.457895,0,0,0,0,0
37580680,0.0210653,-0.0117748,-1.42667,0.151038,0.756169,0.00411207,-0.0113436,-0.654266,0.0,0.0,-0.457895,0,0,0,0,0
37679968,0.0210653,-0.0117748,-1.41166,0.151038,0.761058,0.00419708,-0.0113124,-0.648572,0.0,0.0,-0.458947,0,0,0,0,0
37779477,0.0210653,-0.0117748,-1.39719,0.144745,0.765729,0.00427881,-0.0112818,-0.64305,0.0,0.0,-0.470526,0,0,0,0,0
37883625,0.0210653,-0.0117748,-1.38085,0.163625,0.77096,0.00437088,-0.0112464,-0.636769,0.0,0.0,-0.472632,0,0,0,0,0
37978251,0.0210653,-0.0117748,-1.36549,0.163625,0.775825,0.00445708,-0.0112125,-0.630832,0.0,0.0,-0.473684,0,0,0,0,0
38082348,0.0191503,-0.011775,-1.34967,0.157331,0.780796,0.00379799,-0.0105788,-0.624684,0.0,0.0,-0.483158,0,0,0,0,0
38181653,0.0440456,-0.0117719,-1.33615,0.113279,0.784891,0.0136412,-0.0182607,-0.619215,0.0,0.0,-0.483158,0,0,0,0,0
38281203,0.130222,-0.0117425,-1.33528,0.0,0.783843,0.0474662,-0.0448841,-0.617514,0.0,0.0,-0.483158,0,0,0,0,0
38380379,0.116817,-0.011749,-1.33521,0.0,0.784167,0.0422109,-0.0407451,-0.61777,0.0,0.0,-0.483158,0,0,0,0,0
38479688,0.0402156,-0.0117725,-1.33476,0.0,0.785348,0.0121498,-0.0170666,-0.6187,0.0,0.0,-0.48,0,0,0,0,0
38584041,0.0210653,-0.0117748,-1.33464,0.0,0.785463,0.0046295,-0.0111424,-0.618791,0.0,0.0,-0.48,0,0,0,0,0
38678436,0.0210653,-0.0117748,-1.33464,0.0,0.785463,0.0046295,-0.0111424,-0.618791,0.0,0.0,-0.485263,0,0,0,0,0
38782918,0.0210653,-0.0117748,-1.34356,-0.0850392,0.782696,0.00457977,-0.011163,-0.622287,0.0,0.0,-0.473684,0,0,0,0,0
38882030,0.0210653,-0.0117748,-1.34647,-0.0182227,0.781789,0.0045635,-0.0111696,-0.623426,0.0,0.0,-0.472632,0,0,0,0,0
38981430,0.0210653,-0.0117748,-1.34714,0.0,0.781582,0.0045598,-0.0111711,-0.623686,0.0,0.0,-0.472632,0,0,0,0,0
39080861,0.0210653,-0.0117748,-1.34714,0.0,0.781582,0.0045598,-0.0111711,-0.623686,0.0,0.0,-0.483158,0,0,0,0,0
39180068,0.0210653,-0.0117748,-1.34714,0.0,0.781582,0.0045598,-0.0111711,-0.623686,0.0,0.0,-0.526193,0,0,0,0,0
39279427,0.0210653,-0.0117748,-1.34714,0.0,0.781582,0.0045598,-0.0111711,-0.623686,0.0,0.0,-0.523794,0,0,0,0,0
39378842,0.0210653,-0.0117748,-1.34714,0.0,0.781582,0.0045598,-0.0111711,-0.623686,0.0,0.0,-0.524994,0,0,0,0,0
39483086,0.0210653,-0.0117748,-1.34714,0.0,0.781582,0.0045598,-0.0111711,-0.623686,0.0,0.0,-0.524994,0,0,0,0,0
39582555,0.0172352,-0.0117751,-1.34712,0.0,0.781597,0.00306306,-0.00997683,-0.623697,0.0,0.0,-0.526193,0,0,0,0,0
39681754,0.0172352,-0.0117751,-1.34712,0.0,0.781597,0.00306306,-0.00997683,-0.623697,0.0,0.0,-0.526193,0,0,0,0,0
39781025,0.0210653,-0.0117748,-1.34714,0.0,0.781582,0.0045598,-0.0111711,-0.623686,0.0,0.0,-0.524994,0,0,0,0,0
39880564,0.124478,-0.0132135,-1.34784,0.0,0.780109,0.0444851,-0.0439669,-0.62251,0.0,0.0,-0.524994,0,0,0,0,0
39979765,0.130225,-0.0146781,-1.34797,0.0,0.779962,0.0462672,-0.0463294,-0.622393,0.0,0.0,-0.524994,0,0,0,0,0
40079100,0.149374,-0.0131985,-1.348,0.0,0.779443,0.0541925,-0.0517108,-0.621979,0.0,0.0,-0.524994,0,0,0,0,0
40183482,0.141714,-0.0132034,-1.34795,0.0,0.779661,0.0512065,-0.0493288,-0.622152,0.0,0.0,-0.524994,0,0,0,0,0
40282763,0.141714,-0.0132034,-1.34795,0.0,0.779661,0.0512065,-0.0493288,-0.622152,0.0,0.0,-0.523794,0,0,0,0,0
40382301,0.126393,-0.0132124,-1.34785,0.0,0.780062,0.0452321,-0.0445629,-0.622472,0.0,0.0,-0.523794,0,0,0,0,0
40481433,0.0191503,-0.011775,-1.34713,0.0,0.78159,0.00381143,-0.010574,-0.623692,0.0,0.0,-0.523794,0,0,0,0,0
40580755,0.0172352,-0.0117751,-1.34712,0.0,0.781597,0.00306306,-0.00997683,-0.623697,0.0,0.0,-0.505263,0,0,0,0,0
40680292,0.0172352,-0.0117751,-1.34712,0.0,0.781597,0.00306306,-0.00997683,-0.623697,0.0,0.0,-0.504211,0,0,0,0,0
40779498,0.0172352,-0.0117751,-1.34712,0.0,0.781597,0.00306306,-0.00997683,-0.623697,0.0,0.0,-0.505263,0,0,0,0,0
40878844,0.0172355,-0.013247,-1.34713,0.0,0.781593,0.00260401,-0.0105521,-0.623694,0.0,0.0,-0.505263,0,0,0,0,0
40983144,0.0172399,-0.0309097,-1.34728,0.0,0.781517,-0.00290444,-0.0174546,-0.623633,0.0,0.0,-0.505263,0,0,0,0,0
41082513,0.0172554,-0.0603475,-1.34753,0.0,0.781254,-0.0120837,-0.0289562,-0.623424,0.0,0.0,-0.504211,0,0,0,0,0
41181922,0.0172534,-0.0574038,-1.34751,0.0,0.781288,-0.0111659,-0.0278063,-0.623451,0.0,0.0,-0.512999,0,0,0,0,0
41281254,0.0172352,-0.0117751,-1.34712,0.0,0.781597,0.00306306,-0.00997683,-0.623697,0.0,0.0,-0.541787,0,0,0,0,0
41380497,0.0172352,-0.0117751,-1.34712,0.0,0.781597,0.00306306,-0.00997683,-0.623697,0.0,0.0,-0.55978,0,0,0,0,0
41479881,0.0172352,-0.0117751,-1.34712,0.0,0.781597,0.00306306,-0.00997683,-0.623697,0.0,0.0,-0.566977,0,0,0,0,0
41579250,0.0172352,-0.0117751,-1.34712,0.0,0.781597,0.00306306,-0.00997683,-0.623697,0.0,0.0,-0.566977,0,0,0,0,0
41683447,0.0172352,-0.0117751,-1.34712,0.0,0.781597,0.00306306,-0.00997683,-0.623697,0.0,0.0,-0.568176,0,0,0,0,0
41782986,0.0172352,-0.0117751,-1.34712,0.0,0.781597,0.00306306,-0.00997683,-0.623697,0.0,0.0,-0.566977,0,0,0,0,0
41882178,0.0172352,-0.0117751,-1.34712,0.0,0.781597,0.00306306,-0.00997683,-0.623697,0.0,0.0,-0.566977,0,0,0,0,0
41981640,0.0210653,-0.0117748,-1.34714,0.0,0.781582,0.0045598,-0.0111711,-0.623686,0.0,0.0,-0.565777,0,0,0,0,0
42080913,0.114903,-0.0132185,-1.34777,0.0,0.780333,0.0407495,-0.0409868,-0.622688,0.0,0.0,-0.563378,0,0,0,0,0
42180316,0.183882,-0.02781,-1.34958,0.0,0.778263,0.063033,-0.0681634,-0.621037,0.0,0.0,-0.563378,0,0,0,0,0
42279802,0.172372,-0.0219703,-1.34891,0.0,0.778691,0.0603937,-0.0622989,-0.621379,0.0,0.0,-0.563378,0,0,0,0,0
42383932,0.135969,-0.0132069,-1.34791,0.0,0.779817,0.0489665,-0.0475419,-0.622277,0.0,0.0,-0.563378,0,0,0,0,0
42478280,0.0268107,-0.0132461,-1.34719,0.0,0.781552,0.0063458,-0.0135378,-0.623661,0.0,0.0,-0.563378,0,0,0,0,0
42582581,0.0210655,-0.0132467,-1.34715,0.0,0.781579,0.00410075,-0.0117464,-0.623683,0.0,0.0,-0.563378,0,0,0,0,0
42682018,0.0210655,-0.0132467,-1.34715,0.0,0.781579,0.00410075,-0.0117464,-0.623683,0.0,0.0,-0.562179,0,0,0,0,0
42781201,0.0210655,-0.0132467,-1.34715,0.0,0.781579,0.00410075,-0.0117464,-0.623683,0.0,0.0,-0.562179,0,0,0,0,0
42880643,0.0210655,-0.0132467,-1.34715,0.0,0.781579,0.00410075,-0.0117464,-0.623683,0.0,0.0,-0.538188,0,0,0,0,0
42979906,0.017238,-0.0250222,-1.34723,0.0,0.781549,-0.00106834,-0.0151539,-0.623659,0.0,0.0,-0.538188,0,0,0,0,0
43084482,0.0172497,-0.0515162,-1.34746,0.0,0.781351,-0.00933022,-0.0255062,-0.623501,0.0,0.0,-0.527393,0,0,0,0,0
43178580,0.0172472,-0.0471005,-1.34742,0.0,0.781393,-0.00795336,-0.0237811,-0.623535,0.0,0.0,-0.524994,0,0,0,0,0
43282847,0.0172352,-0.0117751,-1.34712,0.0,0.781597,0.00306306,-0.00997683,-0.623697,0.0,0.0,-0.523794,0,0,0,0,0
43382354,0.0172352,-0.0117751,-1.34712,0.0,0.781597,0.00306306,-0.00997683,-0.623697,0.0,0.0,-0.521395,0,0,0,0,0
43481584,0.0172352,-0.0117751,-1.3776,0.0,0.772,0.00291065,-0.0100224,-0.635537,0.0,0.0,-0.521395,0,0,0,0,0
43580967,0.0191503,-0.011775,-1.37761,0.0,0.771993,0.00364983,-0.0106309,-0.635531,0.0,0.0,-0.521395,0,0,0,0,0
43680381,0.0172355,-0.013247,-1.37761,0.0,0.771996,0.00244288,-0.0105905,-0.635534,0.0,0.0,-0.520196,0,0,0,0,0
43784609,0.0172355,-0.013247,-1.37761,0.0,0.771996,0.00244288,-0.0105905,-0.635534,0.0,0.0,-0.520196,0,0,0,0,0
43879057,0.0210655,-0.0132467,-1.37764,0.0,0.771982,0.00392124,-0.0118075,-0.635522,0.0,0.0,-0.520196,0,0,0,0,0
43983349,0.0210655,-0.0132467,-1.37764,0.0,0.771982,0.00392124,-0.0118075,-0.635522,0.0,0.0,-0.518996,0,0,0,0,0
44082648,0.0210655,-0.0132467,-1.37827,-0.0425196,0.771781,0.0039175,-0.0118088,-0.635767,0.0,0.0,-0.507368,0,0,0,0,0
44181959,0.0210655,-0.0132467,-1.40119,-0.522384,0.764445,0.00378193,-0.0118529,-0.644569,0.0,0.0,-0.504211,0,0,0,0,0
44281284,0.0210653,-0.0117748,-1.44541,-0.145782,0.750004,0.00400558,-0.0113816,-0.661323,0.0,0.0,-0.509474,0,0,0,0,0
44380760,0.0210653,-0.0117748,-1.44686,0.0,0.749525,0.00399734,-0.0113845,-0.661866,0.0,0.0,-0.508421,0,0,0,0,0
44485008,0.0402161,-0.0132441,-1.44701,0.0,0.749412,0.0106865,-0.0182727,-0.661766,0.0,0.0,-0.509474,0,0,0,0,0
44579425,0.199174,-0.017547,-1.44849,0.0,0.745837,0.0686803,-0.0724106,-0.658609,0.0,0.0,-0.509474,0,0,0,0,0
44683662,0.172354,-0.0131822,-1.44788,0.0,0.746782,0.0601336,-0.0619265,-0.659443,0.0,0.0,-0.509474,0,0,0,0,0
44778096,0.164694,-0.0131879,-1.44783,0.0,0.747024,0.0572725,-0.059401,-0.659657,0.0,0.0,-0.509474,0,0,0,0,0
44882250,0.0191503,-0.011775,-1.44685,0.0,0.749532,0.00327967,-0.0107508,-0.661872,0.0,0.0,-0.509474,0,0,0,0,0
44981752,0.0191503,-0.011775,-1.44685,0.0,0.749532,0.00327967,-0.0107508,-0.661872,0.0,0.0,-0.508421,0,0,0,0,0
45081040,0.0172352,-0.0117751,-1.44684,0.0,0.749539,0.00256199,-0.0101171,-0.661878,0.0,0.0,-0.508421,0,0,0,0,0
45180383,0.0191503,-0.011775,-1.44685,0.0,0.749532,0.00327967,-0.0107508,-0.661872,0.0,0.0,-0.509474,0,0,0,0,0
45279736,0.0191503,-0.011775,-1.44685,0.0,0.749532,0.00327967,-0.0107508,-0.661872,0.0,0.0,-0.509474,0,0,0,0,0
45383980,0.017248,-0.0485724,-1.44716,0.0,0.749331,-0.00961582,-0.0239066,-0.661694,0.0,0.0,-0.508421,0,0,0,0,0
45478380,0.0172534,-0.0574038,-1.44723,0.0,0.749243,-0.0125379,-0.0272152,-0.661617,0.0,0.0,-0.509474,0,0,0,0,0
45582819,0.0172669,-0.0750665,-1.44739,0.0,0.749024,-0.0183812,-0.033831,-0.661423,0.0,0.0,-0.509474,0,0,0,0,0
45681967,0.0191762,-0.0647625,-1.44698,0.0377595,0.749276,-0.0142495,-0.0306083,-0.661396,0.0,0.0,-0.509474,0,0,0,0,0
45781601,0.0172435,-0.0397411,-1.44405,0.0,0.750407,-0.00666217,-0.0206077,-0.660621,0.0,0.0,-0.5106,0,0,0,0,0
45880789,0.0172352,-0.0117751,-1.44381,0.0,0.750542,0.00257734,-0.0101132,-0.66074,0.0,0.0,-0.511799,0,0,0,0,0
45980077,0.0172352,-0.0117751,-1.44174,0.0440528,0.751223,0.00258777,-0.0101105,-0.659966,0.0,0.0,-0.511799,0,0,0,0,0
46084423,0.0172352,-0.0117751,-1.43693,0.0314663,0.752809,0.00261209,-0.0101043,-0.658156,0.0,0.0,-0.511799,0,0,0,0,0
46178714,0.0172352,-0.0117751,-1.43321,0.0566393,0.754032,0.00263088,-0.0100994,-0.656755,0.0,0.0,-0.511799,0,0,0,0,0
46283121,0.0172352,-0.0117751,-1.43018,0.0,0.755027,0.00264619,-0.0100954,-0.655611,0.0,0.0,-0.511799,0,0,0,0,0
46377475,0.0248953,-0.0117745,-1.43022,0.0,0.754996,0.00553788,-0.0126062,-0.655584,0.0,0.0,-0.509474,0,0,0,0,0
46481728,0.0459618,-0.0147145,-1.43041,0.0,0.754848,0.0125242,-0.0206214,-0.655455,0.0,0.0,-0.508421,0,0,0,0,0
46581224,0.0306428,-0.0191325,-1.43037,0.0,0.754945,0.00529391,-0.0172676,-0.655539,0.0,0.0,-0.523794,0,0,0,0,0
46680425,0.0172355,-0.013247,-1.43019,0.0,0.755024,0.00216365,-0.0106511,-0.655608,0.0,0.0,-0.526193,0,0,0,0,0
46779732,0.0191503,-0.011775,-1.43019,0.0,0.75502,0.00336912,-0.0107231,-0.655605,0.0,0.0,-0.524994,0,0,0,0,0
46879252,0.0191505,-0.0132469,-1.4302,0.0,0.755017,0.00288658,-0.0112788,-0.655602,0.0,0.0,-0.526193,0,0,0,0,0
46983413,0.0536899,-0.0632641,-1.43162,0.0,0.75447,-0.000503288,-0.0414613,-0.655024,0.0,0.0,-0.526193,0,0,0,0,0
47077790,0.0901918,-0.0793785,-1.4335,0.0,0.753759,0.00792137,-0.0594771,-0.654406,0.0,0.0,-0.524994,0,0,0,0,0
47182099,0.161286,-0.0894019,-1.43715,0.0,0.751918,0.0312555,-0.0865058,-0.652808,0.0,0.0,-0.524994,0,0,0,0,0
47281531,0.0383068,-0.0250173,-1.4304,0.0,0.754922,0.00625701,-0.022,-0.655416,0.0,0.0,-0.526193,0,0,0,0,0
47380967,0.0172352,-0.0117751,-1.43002,0.0,0.755078,0.00264698,-0.0100952,-0.655552,0.0,0.0,-0.524994,0,0,0,0,0
47480141,0.0191503,-0.011775,-1.43003,0.0,0.755072,0.00336996,-0.0107229,-0.655546,0.0,0.0,-0.526193,0,0,0,0,0
47579518,0.0210655,-0.0132467,-1.43006,0.0,0.755061,0.00361044,-0.0119062,-0.655537,0.0,0.0,-0.508421,0,0,0,0,0
47683834,0.0172355,-0.013247,-1.43003,0.0,0.755075,0.00216448,-0.0106509,-0.655549,0.0,0.0,-0.518996,0,0,0,0,0
47778207,0.0191503,-0.011775,-1.43003,0.0,0.755072,0.00336996,-0.0107229,-0.655546,0.0,0.0,-0.544186,0,0,0,0,0
47882408,0.0344705,-0.0117734,-1.43012,0.0,0.754994,0.00915355,-0.0157438,-0.655479,0.0,0.0,-0.541787,0,0,0,0,0
47981885,0.0804311,-0.011763,-1.43039,0.0,0.754496,0.0264988,-0.0308011,-0.655046,0.0,0.0,-0.540587,0,0,0,0,0
48081137,0.120647,-0.0117472,-1.43063,0.0,0.753733,0.0416637,-0.0439645,-0.654384,0.0,0.0,-0.539388,0,0,0,0,0
48180621,0.218393,-0.0350471,-1.43376,0.0,0.750508,0.0706981,-0.0847235,-0.651584,0.0,0.0,-0.539388,0,0,0,0,0
48279803,0.0210653,-0.0117748,-1.43004,0.0,0.755064,0.00409293,-0.0113505,-0.65554,0.0,0.0,-0.539388,0,0,0,0,0
48379148,0.0191503,-0.011775,-1.43003,0.0,0.755072,0.00336996,-0.0107229,-0.655546,0.0,0.0,-0.539388,0,0,0,0,0
48478615,0.0172352,-0.0117751,-1.43002,0.0,0.755078,0.00264698,-0.0100952,-0.655552,0.0,0.0,-0.540587,0,0,0,0,0
48582854,0.0172352,-0.0117751,-1.43002,0.0,0.755078,0.00264698,-0.0100952,-0.655552,0.0,0.0,-0.540587,0,0,0,0,0
48682148,0.0555365,-0.0132409,-1.43029,0.0,0.754812,0.0166223,-0.0232021,-0.65532,0.0,0.0,-0.539388,0,0,0,0,0
48781582,0.141769,-0.036676,-1.43252,0.0,0.753097,0.0414027,-0.0602901,-0.653832,0.0,0.0,-0.539388,0,0,0,0,0
48880849,0.0210653,-0.0117748,-1.43004,0.0,0.755064,0.00409293,-0.0113505,-0.65554,0.0,0.0,-0.539388,0,0,0,0,0
48980302,0.0191503,-0.011775,-1.43003,0.0,0.755072,0.00336996,-0.0107229,-0.655546,0.0,0.0,-0.539388,0,0,0,0,0
49079607,0.0191503,-0.011775,-1.43003,0.0,0.755072,0.00336996,-0.0107229,-0.655546,0.0,0.0,-0.539388,0,0,0,0,0
49178872,0.0172422,-0.0367973,-1.43024,0.0,0.754963,-0.0055551,-0.0195419,-0.655452,0.0,0.0,-0.539388,0,0,0,0,0
49283231,0.0210938,-0.0647616,-1.4306,0.0,0.754681,-0.0132744,-0.0313519,-0.655207,0.0,0.0,-0.539388,0,0,0,0,0
49382647,0.0191762,-0.0647625,-1.43054,0.0,0.754689,-0.0139973,-0.0307244,-0.655214,0.0,0.0,-0.539388,0,0,0,0,0
49481882,0.0191762,-0.0647625,-1.43054,0.0,0.754689,-0.0139973,-0.0307244,-0.655214,0.0,0.0,-0.539388,0,0,0,0,0
49581230,0.0191762,-0.0647625,-1.43054,0.0,0.754689,-0.0139973,-0.0307244,-0.655214,0.0,0.0,-0.539388,0,0,0,0,0
49680633,0.0191727,-0.0603468,-1.4305,0.0,0.754741,-0.0125504,-0.0290581,-0.655259,0.0,0.0,-0.539388,0,0,0,0,0
49779858,0.0172352,-0.0117751,-1.43002,0.0,0.755078,0.00264698,-0.0100952,-0.655552,0.0,0.0,-0.563378,0,0,0,0,0
49879329,0.0172352,-0.0117751,-1.43002,0.0,0.755078,0.00264698,-0.0100952,-0.655552,0.0,0.0,-0.562179,0,0,0,0,0
49983505,0.0172352,-0.0117751,-1.43002,0.0,0.755078,0.00264698,-0.0100952,-0.655552,0.0,0.0,-0.562179,0,0,0,0,0
50083157,0.0172352,-0.0117751,-1.43002,0.0,0.755078,0.00264698,-0.0100952,-0.655552,0.0,0.0,-0.562179,0,0,0,0,0
50182210,0.0191503,-0.011775,-1.43003,0.0,0.755072,0.00336996,-0.0107229,-0.655546,0.0,0.0,-0.562179,0,0,0,0,0
50281608,0.0191503,-0.011775,-1.43003,0.0,0.755072,0.00336996,-0.0107229,-0.655546,0.0,0.0,-0.562179,0,0,0,0,0
50380975,0.0191503,-0.011775,-1.43003,0.0,0.755072,0.00336996,-0.0107229,-0.655546,0.0,0.0,-0.562179,0,0,0,0,0
50480254,0.0191503,-0.011775,-1.43003,0.0,0.755072,0.00336996,-0.0107229,-0.655546,0.0,0.0,-0.562179,0,0,0,0,0
50579640,0.0248953,-0.0117745,-1.43007,0.0,0.755048,0.00553886,-0.0126058,-0.655525,0.0,0.0,-0.560979,0,0,0,0,0
50679043,0.118732,-0.0117481,-1.43062,0.0,0.753776,0.0409419,-0.043338,-0.654421,0.0,0.0,-0.562179,0,0,0,0,0
50783201,0.0440462,-0.0132434,-1.43021,0.0,0.75492,0.0122855,-0.0194373,-0.655414,0.0,0.0,-0.560979,0,0,0,0,0
50882775,0.0191505,-0.0132469,-1.43005,0.0,0.755068,0.00288746,-0.0112786,-0.655543,0.0,0.0,-0.55858,0,0,0,0,0
50981923,0.0191517,-0.0191344,-1.4301,0.0,0.75505,0.000957496,-0.0135014,-0.655527,0.0,0.0,-0.55978,0,0,0,0,0
51081340,0.0172399,-0.0309097,-1.43019,0.0,0.755001,-0.00362529,-0.0173193,-0.655485,0.0,0.0,-0.55858,0,0,0,0,0
51180680,0.0172506,-0.0529881,-1.43038,0.0,0.754826,-0.0108616,-0.0256532,-0.655333,0.0,0.0,-0.554982,0,0,0,0,0
51279956,0.0172608,-0.067707,-1.43007,0.0188798,0.754802,-0.015678,-0.0312111,-0.655022,0.0,0.0,-0.550184,0,0,0,0,0
51379323,0.0211088,-0.0794802,-1.43023,0.0,0.754655,-0.0180871,-0.0369099,-0.654833,0.0,0.0,-0.547785,0,0,0,0,0
51483681,0.021104,-0.0750646,-1.43018,0.0,0.75472,-0.0166409,-0.0352437,-0.654889,0.0,0.0,-0.548984,0,0,0,0,0
51582973,0.0211105,-0.080952,-1.42999,0.0188798,0.754715,-0.0185644,-0.0374676,-0.654719,0.0,0.0,-0.548984,0,0,0,0,0
51682549,0.0211122,-0.0824239,-1.42945,0.0,0.754876,-0.0190357,-0.0380283,-0.654487,0.0,0.0,-0.548984,0,0,0,0,0
51781717,0.0211174,-0.0868395,-1.42949,0.0,0.754806,-0.020481,-0.0396948,-0.654426,0.0,0.0,-0.545386,0,0,0,0,0
51880943,0.0211329,-0.0986143,-1.42024,0.151038,0.757659,-0.0241273,-0.0442516,-0.650701,0.0,0.0,-0.523794,0,0,0,0,0
51980424,0.0211072,-0.0780083,-1.41001,0.0943988,0.761252,-0.017237,-0.0365305,-0.647197,0.0,0.0,-0.523794,0,0,0,0,0
52079710,0.0211088,-0.0794802,-1.40122,0.050346,0.764074,-0.0175498,-0.0371684,-0.643818,0.0,0.0,-0.523794,0,0,0,0,0
52183971,0.0230242,-0.0765354,-1.39973,0.025173,0.764603,-0.0158418,-0.0366725,-0.643263,0.0,0.0,-0.523794,0,0,0,0,0
52278460,0.0306819,-0.0647563,-1.39865,0.0,0.765105,-0.00910233,-0.0346404,-0.642909,0.0,0.0,-0.523794,0,0,0,0,0
52382663,0.0287381,-0.0382658,-1.39821,0.0,0.765377,-0.00131466,-0.0238872,-0.643138,0.0,0.0,-0.523794,0,0,0,0,0
52482122,0.0210653,-0.0117748,-1.39778,0.0,0.76554,0.00427549,-0.011283,-0.643275,0.0,0.0,-0.523794,0,0,0,0,0
52581521,0.0210653,-0.0117748,-1.39778,0.0,0.76554,0.00427549,-0.011283,-0.643275,0.0,0.0,-0.523794,0,0,0,0,0
52680679,0.0210653,-0.0117748,-1.39778,0.0,0.76554,0.00427549,-0.011283,-0.643275,0.0,0.0,-0.523794,0,0,0,0,0
52780033,0.0210653,-0.0117748,-1.39688,0.0,0.765832,0.0042806,-0.0112811,-0.642928,0.0,0.0,-0.523794,0,0,0,0,0
52884423,0.0229803,-0.0117747,-1.39689,0.0,0.765824,0.00501388,-0.0118966,-0.642921,0.0,0.0,-0.523794,0,0,0,0,0
52978778,0.130222,-0.0117425,-1.39752,0.0,0.764252,0.0460468,-0.0463392,-0.641601,0.0,0.0,-0.523794,0,0,0,0,0
53083104,0.120647,-0.0117472,-1.39746,0.0,0.764481,0.042387,-0.0432675,-0.641794,0.0,0.0,-0.523794,0,0,0,0,0
53182338,0.0229803,-0.0117747,-1.39689,0.0,0.765824,0.00501388,-0.0118966,-0.642921,0.0,0.0,-0.523794,0,0,0,0,0
53281809,0.0210653,-0.0117748,-1.39688,0.0,0.765832,0.0042806,-0.0112811,-0.642928,0.0,0.0,-0.523794,0,0,0,0,0
53381232,0.0191503,-0.011775,-1.39686,0.0,0.765839,0.00354732,-0.0106655,-0.642934,0.0,0.0,-0.523794,0,0,0,0,0
53480352,0.0210655,-0.0132467,-1.39689,0.0,0.765828,0.00380739,-0.0118447,-0.642925,0.0,0.0,-0.517797,0,0,0,0,0
53584774,0.0210655,-0.0132467,-1.39689,0.0,0.765828,0.00380739,-0.0118447,-0.642925,0.0,0.0,-0.517797,0,0,0,0,0
53679104,0.0210655,-0.0132467,-1.39689,0.0,0.765828,0.00380739,-0.0118447,-0.642925,0.0,0.0,-0.517797,0,0,0,0,0
53783485,0.0210655,-0.0132467,-1.39689,0.0,0.765828,0.00380739,-0.0118447,-0.642925,0.0,0.0,-0.517797,0,0,0,0,0
53877843,0.0651117,-0.0132383,-1.39718,0.0,0.765465,0.0206699,-0.0259997,-0.64262,0.0,0.0,-0.517797,0,0,0,0,0
53982040,0.120648,-0.0132156,-1.39755,0.0,0.764478,0.0419141,-0.0438308,-0.641791,0.0,0.0,-0.517797,0,0,0,0,0
54081476,0.145544,-0.013201,-1.39771,0.0,0.763844,0.0514271,-0.0518147,-0.641259,0.0,0.0,-0.517797,0,0,0,0,0
54180892,0.068941,-0.0117664,-1.39716,0.0,0.765419,0.0226089,-0.0266666,-0.642582,0.0,0.0,-0.517797,0,0,0,0,0
54285080,0.0210653,-0.0117748,-1.39688,0.0,0.765832,0.0042806,-0.0112811,-0.642928,0.0,0.0,-0.517797,0,0,0,0,0
54379667,0.0210653,-0.0117748,-1.39688,0.0,0.765832,0.0042806,-0.0112811,-0.642928,0.0,0.0,-0.517797,0,0,0,0,0
54483832,0.0191503,-0.011775,-1.39686,0.0,0.765839,0.00354732,-0.0106655,-0.642934,0.0,0.0,-0.517797,0,0,0,0,0
54578234,0.0191503,-0.011775,-1.39686,0.0,0.765839,0.00354732,-0.0106655,-0.642934,0.0,0.0,-0.517797,0,0,0,0,0
54682499,0.0172464,-0.0456286,-1.39715,0.0,0.76566,-0.00806913,-0.0230124,-0.642783,0.0,0.0,-0.517797,0,0,0,0,0
54781810,0.0172779,-0.0868416,-1.3975,0.0,0.765137,-0.0213131,-0.0387851,-0.642345,0.0,0.0,-0.517797,0,0,0,0,0
54881131,0.0134578,-0.108922,-1.39749,0.0,0.764735,-0.0298699,-0.0459986,-0.642007,0.0,0.0,-0.517797,0,0,0,0,0
54980773,0.0172922,-0.100089,-1.39762,0.0,0.7649,-0.025568,-0.043852,-0.642146,0.0,0.0,-0.517797,0,0,0,0,0
55079772,0.0172682,-0.0765384,-1.39741,0.0,0.765298,-0.0180029,-0.0348431,-0.64248,0.0,0.0,-0.517797,0,0,0,0,0
55184322,0.0153364,-0.0574044,-1.39719,0.0,0.76555,-0.0125871,-0.0269046,-0.642691,0.0,0.0,-0.517797,0,0,0,0,0
55278544,0.0172352,-0.0117751,-1.39685,0.0,0.765846,0.00281403,-0.0100499,-0.64294,0.0,0.0,-0.517797,0,0,0,0,0
55382811,0.0172352,-0.0117751,-1.39685,0.0,0.765846,0.00281403,-0.0100499,-0.64294,0.0,0.0,-0.517797,0,0,0,0,0
55477358,0.164692,-0.0117226,-1.39772,0.0,0.763279,0.0592119,-0.0573882,-0.640785,0.0,0.0,-0.517797,0,0,0,0,0
55581503,0.250868,-0.0116526,-1.39822,0.0,0.759858,0.092036,-0.0849332,-0.637912,0.0,0.0,-0.517797,0,0,0,0,0
55680826,0.266189,-0.0116371,-1.39831,0.0,0.759101,0.0978548,-0.0898155,-0.637278,0.0,0.0,-0.517797,0,0,0,0,0
55780293,0.254701,-0.0131049,-1.39843,0.0,0.759669,0.0930192,-0.0867162,-0.637754,0.0,0.0,-0.517797,0,0,0,0,0
55884494,0.103411,-0.0117547,-1.39736,0.0,0.764851,0.035797,-0.0377363,-0.642104,0.0,0.0,-0.517797,0,0,0,0,0
55978947,0.0191503,-0.011775,-1.39686,0.0,0.765839,0.00354732,-0.0106655,-0.642934,0.0,0.0,-0.517797,0,0,0,0,0
56083158,0.0172352,-0.0117751,-1.39685,0.0,0.765846,0.00281403,-0.0100499,-0.64294,0.0,0.0,-0.518996,0,0,0,0,0
56177648,0.0172362,-0.0176627,-1.3969,0.0,0.765829,0.000921183,-0.0123045,-0.642926,0.0,0.0,-0.517797,0,0,0,0,0
56282032,-0.00186256,-0.0161916,-1.39674,0.0,0.765862,-0.00591852,-0.00560168,-0.642953,0.0,0.0,-0.521395,0,0,0,0,0
56381235,0.0,-0.0161916,-1.39675,0.0,0.765862,-0.00520534,-0.00620041,-0.642954,0.0,0.0,-0.527393,0,0,0,0,0
56480613,-0.0298005,-0.0147175,-1.39653,0.0,0.765782,-0.0161425,0.0039428,-0.642886,0.0,0.0,-0.527393,0,0,0,0,0
56580025,-0.0204878,-0.0147186,-1.3966,0.0,0.765827,-0.012577,0.000949277,-0.642924,0.0,0.0,-0.526193,0,0,0,0,0
56679236,-0.0707751,-0.0132366,-1.39628,0.0,0.765391,-0.0313535,0.017675,-0.642558,0.0,0.0,-0.527393,0,0,0,0,0
56783628,-0.0838126,-0.0132322,-1.3962,0.0,0.765198,-0.0363417,0.0218635,-0.642396,0.0,0.0,-0.526193,0,0,0,0,0
56878018,-0.0726376,-0.013236,-1.39627,0.0,0.765366,-0.0320662,0.0182734,-0.642537,0.0,0.0,-0.526193,0,0,0,0,0
56982229,-0.0651885,-0.0147092,-1.39627,0.0,0.76546,-0.0296884,0.0153161,-0.642616,0.0,0.0,-0.527393,0,0,0,0,0
57081596,-0.0167639,-0.0206065,-1.39658,0.0,0.76582,-0.0130434,-0.00250282,-0.642918,0.0,0.0,-0.506316,0,0,0,0,0
57180944,0.0172355,-0.013247,-1.39687,0.0,0.765842,0.00234081,-0.0106136,-0.642937,0.0,0.0,-0.506316,0,0,0,0,0
57280245,0.0172352,-0.0117751,-1.39685,0.0,0.765846,0.00281403,-0.0100499,-0.64294,0.0,0.0,-0.506316,0,0,0,0,0
57379699,0.0229852,-0.0279649,-1.39707,0.0,0.765762,-0.000191368,-0.0180965,-0.642869,0.0,0.0,-0.503158,0,0,0,0,0
57483868,0.0230225,-0.0750636,-1.39762,0.0,0.765297,-0.0153304,-0.0361259,-0.642479,0.0,0.0,-0.503158,0,0,0,0,0
57578343,0.019201,-0.0897843,-1.39761,0.0,0.765081,-0.0215256,-0.0405265,-0.642297,0.0,0.0,-0.504211,0,0,0,0,0
57682709,0.0172764,-0.0853697,-1.39749,0.0,0.765161,-0.0208402,-0.038222,-0.642365,0.0,0.0,-0.505263,0,0,0,0,0
57781884,0.0172352,-0.0117751,-1.39685,0.0,0.765846,0.00281403,-0.0100499,-0.64294,0.0,0.0,-0.526193,0,0,0,0,0
57881533,0.0172352,-0.0117751,-1.39685,0.0,0.765846,0.00281403,-0.0100499,-0.64294,0.0,0.0,-0.532191,0,0,0,0,0
57980612,0.0823461,-0.0117624,-1.39724,0.0,0.765225,0.0277387,-0.0309725,-0.642419,0.0,0.0,-0.532191,0,0,0,0,0
58080015,0.174269,-0.0131807,-1.3979,0.0,0.762965,0.0623931,-0.0610176,-0.640521,0.0,0.0,-0.55858,0,0,0,0,0
58179385,0.120648,-0.0132156,-1.39755,0.0,0.764478,0.0419141,-0.0438308,-0.641791,0.0,0.0,-0.551383,0,0,0,0,0
58278776,0.141716,-0.0146704,-1.39779,0.0,0.763945,0.0494911,-0.05115,-0.641344,0.0,0.0,-0.553782,0,0,0,0,0
58382978,0.0268104,-0.0117743,-1.39691,0.0,0.765805,0.00648041,-0.0131278,-0.642906,0.0,0.0,-0.552583,0,0,0,0,0
58482311,0.0191503,-0.011775,-1.39686,0.0,0.765839,0.00354732,-0.0106655,-0.642934,0.0,0.0,-0.553782,0,0,0,0,0
58581753,0.0191503,-0.011775,-1.39686,0.0,0.765839,0.00354732,-0.0106655,-0.642934,0.0,0.0,-0.572974,0,0,0,0,0
58681180,0.0191503,-0.011775,-1.39686,0.0,0.765839,0.00354732,-0.0106655,-0.642934,0.0,0.0,-0.58377,0,0,0,0,0
58780360,0.0191503,-0.011775,-1.39686,0.0,0.765839,0.00354732,-0.0106655,-0.642934,0.0,0.0,-0.587368,0,0,0,0,0
58879659,0.0210653,-0.0117748,-1.39688,0.0,0.765832,0.0042806,-0.0112811,-0.642928,0.0,0.0,-0.587368,0,0,0,0,0
58979105,0.0478757,-0.0117712,-1.39703,0.0,0.765655,0.0145456,-0.0198981,-0.642779,0.0,0.0,-0.586169,0,0,0,0,0
59083351,0.0191505,-0.0132469,-1.39688,0.0,0.765836,0.0030741,-0.0112291,-0.642931,0.0,0.0,-0.581371,0,0,0,0,0
59182696,0.0210852,-0.0544587,-1.39733,0.0,0.765561,-0.00944127,-0.0276241,-0.642701,0.0,0.0,-0.580171,0,0,0,0,0
59282063,0.019184,-0.0735937,-1.39746,0.0,0.765334,-0.0163238,-0.034332,-0.64251,0.0,0.0,-0.577772,0,0,0,0,0
59381397,0.0191977,-0.0868406,-1.39759,0.0,0.76513,-0.0205799,-0.0394004,-0.642339,0.0,0.0,-0.575373,0,0,0,0,0
59480915,0.0192027,-0.0912562,-1.39763,0.0,0.765055,-0.0219984,-0.0410895,-0.642276,0.0,0.0,-0.575373,0,0,0,0,0
59580114,0.0192099,-0.0971437,-1.39769,0.0,0.764949,-0.0238895,-0.0433414,-0.642187,0.0,0.0,-0.575373,0,0,0,0,0
59679453,0.0211413,-0.104502,-1.39786,0.0,0.7648,-0.0255199,-0.046771,-0.642061,0.0,0.0,-0.575373,0,0,0,0,0
59778852,0.021148,-0.108917,-1.3979,0.0,0.764709,-0.0269379,-0.0484593,-0.641986,0.0,0.0,-0.576573,0,0,0,0,0
59883043,0.0211392,-0.10303,-1.39784,0.0,0.764829,-0.0250473,-0.0462082,-0.642086,0.0,0.0,-0.576573,0,0,0,0,0
59982472,0.0210952,-0.0662335,-1.39745,0.0,0.765425,-0.0132257,-0.032131,-0.642586,0.0,0.0,-0.575373,0,0,0,0,0
60081795,0.0363954,-0.0309044,-1.39731,0.0,0.765669,0.003995,-0.023532,-0.642791,0.0,0.0,-0.574174,0,0,0,0,0
60181067,0.0804311,-0.011763,-1.39723,0.0,0.765255,0.027006,-0.0303575,-0.642444,0.0,0.0,-0.572974,0,0,0,0,0
60280601,0.10341,-0.0102854,-1.39728,0.0,0.764854,0.0362701,-0.037173,-0.642107,0.0,0.0,-0.55978,0,0,0,0,0
60379729,0.120647,-0.0117472,-1.39746,0.0,0.764481,0.042387,-0.0432675,-0.641794,0.0,0.0,-0.545386,0,0,0,0,0
60479134,0.0229803,-0.0117747,-1.39689,0.0,0.765824,0.00501388,-0.0118966,-0.642921,0.0,0.0,-0.546585,0,0,0,0,0
60583418,0.0210653,-0.0117748,-1.39688,0.0,0.765832,0.0042806,-0.0112811,-0.642928,0.0,0.0,-0.550184,0,0,0,0,0
60682816,0.0210653,-0.0117748,-1.39688,0.0,0.765832,0.0042806,-0.0112811,-0.642928,0.0,0.0,-0.529792,0,0,0,0,0
60782084,0.0191505,-0.0132469,-1.39688,0.0,0.765836,0.0030741,-0.0112291,-0.642931,0.0,0.0,-0.530991,0,0,0,0,0
60881520,0.0191505,-0.0132469,-1.39688,0.0,0.765836,0.0030741,-0.0112291,-0.642931,0.0,0.0,-0.530991,0,0,0,0,0
60980832,0.0210653,-0.0117748,-1.39688,0.0,0.765832,0.0042806,-0.0112811,-0.642928,0.0,0.0,-0.527393,0,0,0,0,0
61080130,0.0210653,-0.0117748,-1.39688,0.0,0.765832,0.0042806,-0.0112811,-0.642928,0.0,0.0,-0.529792,0,0,0,0,0
61179629,0.0191503,-0.011775,-1.39686,0.0,0.765839,0.00354732,-0.0106655,-0.642934,0.0,0.0,-0.529792,0,0,0,0,0
61283758,0.0191503,-0.011775,-1.39686,0.0,0.765839,0.00354732,-0.0106655,-0.642934,0.0,0.0,-0.530991,0,0,0,0,0
61383149,0.0191503,-0.011775,-1.39686,0.0,0.765839,0.00354732,-0.0106655,-0.642934,0.0,0.0,-0.530991,0,0,0,0,0
61482435,0.0172352,-0.0117751,-1.39685,0.0,0.765846,0.00281403,-0.0100499,-0.64294,0.0,0.0,-0.530991,0,0,0,0,0
61581833,0.0191503,-0.011775,-1.39686,0.0,0.765839,0.00354732,-0.0106655,-0.642934,0.0,0.0,-0.529792,0,0,0,0,0
61681244,0.0172355,-0.013247,-1.39687,0.0,0.765842,0.00234081,-0.0106136,-0.642937,0.0,0.0,-0.529792,0,0,0,0,0
61780430,0.0172355,-0.013247,-1.39687,0.0,0.765842,0.00234081,-0.0106136,-0.642937,0.0,0.0,-0.529792,0,0,0,0,0
61879872,0.0191505,-0.0132469,-1.39688,0.0,0.765836,0.0030741,-0.0112291,-0.642931,0.0,0.0,-0.530991,0,0,0,0,0
61984320,0.0172352,-0.0117751,-1.39685,0.0,0.765846,0.00281403,-0.0100499,-0.64294,0.0,0.0,-0.530991,0,0,0,0,0
62078563,0.0172355,-0.013247,-1.39687,0.0,0.765842,0.00234081,-0.0106136,-0.642937,0.0,0.0,-0.528592,0,0,0,0,0
62183067,0.0172355,-0.013247,-1.39687,0.0,0.765842,0.00234081,-0.0106136,-0.642937,0.0,0.0,-0.504211,0,0,0,0,0
62282199,0.0172352,-0.0117751,-1.39685,0.0,0.765846,0.00281403,-0.0100499,-0.64294,0.0,0.0,-0.509474,0,0,0,0,0
62381502,0.0191503,-0.011775,-1.39686,0.0,0.765839,0.00354732,-0.0106655,-0.642934,0.0,0.0,-0.509474,0,0,0,0,0
62480971,0.0191503,-0.011775,-1.39686,0.0,0.765839,0.00354732,-0.0106655,-0.642934,0.0,0.0,-0.509474,0,0,0,0,0
62580139,0.0191503,-0.011775,-1.39686,0.0,0.765839,0.00354732,-0.0106655,-0.642934,0.0,0.0,-0.509474,0,0,0,0,0
62684627,0.0172352,-0.0117751,-1.39685,0.0,0.765846,0.00281403,-0.0100499,-0.64294,0.0,0.0,-0.509474,0,0,0,0,0
62779034,0.0172352,-0.0117751,-1.39685,0.0,0.765846,0.00281403,-0.0100499,-0.64294,0.0,0.0,-0.509474,0,0,0,0,0
62883186,0.0172352,-0.0117751,-1.39685,0.0,0.765846,0.00281403,-0.0100499,-0.64294,0.0,0.0,-0.508421,0,0,0,0,0
62977663,0.0191694,-0.0559312,-1.39729,0.0,0.765553,-0.0106476,-0.0275721,-0.642694,0.0,0.0,-0.509474,0,0,0,0,0
63081900,0.0191929,-0.082425,-1.39754,0.0,0.765202,-0.0191613,-0.0377111,-0.642399,0.0,0.0,-0.508421,0,0,0,0,0
63181287,0.019184,-0.0735937,-1.39746,0.0,0.765334,-0.0163238,-0.034332,-0.64251,0.0,0.0,-0.508421,0,0,0,0,0
63280618,0.0172575,-0.0632913,-1.3973,0.0,0.765476,-0.0137461,-0.0297735,-0.642629,0.0,0.0,-0.508421,0,0,0,0,0
63385005,0.0172352,-0.0117751,-1.39685,0.0,0.765846,0.00281403,-0.0100499,-0.64294,0.0,0.0,-0.508421,0,0,0,0,0
63479180,0.0172352,-0.0117751,-1.39685,0.0,0.765846,0.00281403,-0.0100499,-0.64294,0.0,0.0,-0.508421,0,0,0,0,0
63583718,0.0172352,-0.0117751,-1.39685,0.0,0.765846,0.00281403,-0.0100499,-0.64294,0.0,0.0,-0.508421,0,0,0,0,0
63677976,0.0172352,-0.0117751,-1.39685,0.0,0.765846,0.00281403,-0.0100499,-0.64294,0.0,0.0,-0.508421,0,0,0,0,0
63782278,0.0172352,-0.0117751,-1.39685,0.0,0.765846,0.00281403,-0.0100499,-0.64294,0.0,0.0,-0.509474,0,0,0,0,0
63881717,0.0191503,-0.011775,-1.39686,0.0,0.765839,0.00354732,-0.0106655,-0.642934,0.0,0.0,-0.509474,0,0,0,0,0
63980866,0.0191505,-0.0132469,-1.39688,0.0,0.765836,0.0030741,-0.0112291,-0.642931,0.0,0.0,-0.509474,0,0,0,0,0
64080327,0.0210655,-0.0132467,-1.39689,0.0,0.765828,0.00380739,-0.0118447,-0.642925,0.0,0.0,-0.509474,0,0,0,0,0
64179638,0.0459618,-0.0147145,-1.39709,0.0,0.765665,0.0128661,-0.0204099,-0.642787,0.0,0.0,-0.509474,0,0,0,0,0
64283904,0.189686,-0.0409684,-1.40065,0.0,0.762287,0.0592549,-0.0766099,-0.639952,0.0,0.0,-0.514198,0,0,0,0,0
64378394,0.0670259,-0.0117669,-1.39715,0.0,0.765444,0.021876,-0.0260514,-0.642603,0.0,0.0,-0.521395,0,0,0,0,0
64482542,0.0210653,-0.0117748,-1.39688,0.0,0.765832,0.0042806,-0.0112811,-0.642928,0.0,0.0,-0.521395,0,0,0,0,0
64582038,0.0210653,-0.0117748,-1.39688,0.0,0.765832,0.0042806,-0.0112811,-0.642928,0.0,0.0,-0.521395,0,0,0,0,0
64681401,0.0191503,-0.011775,-1.39686,0.0,0.765839,0.00354732,-0.0106655,-0.642934,0.0,0.0,-0.532191,0,0,0,0,0
64780574,0.0248953,-0.0117745,-1.3969,0.0,0.765815,0.00574715,-0.0125122,-0.642914,0.0,0.0,-0.562179,0,0,0,0,0
64880067,0.126395,-0.0146805,-1.39768,0.0,0.764338,0.0436371,-0.0462371,-0.641674,0.0,0.0,-0.564578,0,0,0,0,0
64984235,0.0919224,-0.013229,-1.39736,0.0,0.765062,0.030929,-0.0346108,-0.642282,0.0,0.0,-0.563378,0,0,0,0,0
65078768,0.0210653,-0.0117748,-1.39688,0.0,0.765832,0.0042806,-0.0112811,-0.642928,0.0,0.0,-0.564578,0,0,0,0,0
65183032,0.0172352,-0.0117751,-1.39685,0.0,0.765846,0.00281403,-0.0100499,-0.64294,0.0,0.0,-0.563378,0,0,0,0,0
65277380,0.0191503,-0.011775,-1.39686,0.0,0.765839,0.00354732,-0.0106655,-0.642934,0.0,0.0,-0.563378,0,0,0,0,0
65381738,0.0191503,-0.011775,-1.39686,0.0,0.765839,0.00354732,-0.0106655,-0.642934,0.0,0.0,-0.564578,0,0,0,0,0
65481015,0.0191587,-0.0382687,-1.39712,0.0,0.765712,-0.00497015,-0.0208104,-0.642827,0.0,0.0,-0.565777,0,0,0,0,0
65580428,0.019196,-0.0853687,-1.39757,0.0,0.765155,-0.0201071,-0.0388373,-0.642359,0.0,0.0,-0.565777,0,0,0,0,0
65679843,0.0172534,-0.0574038,-1.39725,0.0,0.765544,-0.0118539,-0.02752,-0.642686,0.0,0.0,-0.565777,0,0,0,0,0
65779053,0.017241,-0.0338535,-1.39704,0.0,0.765749,-0.00428393,-0.0185042,-0.642859,0.0,0.0,-0.565777,0,0,0,0,0
65883339,0.0172352,-0.0117751,-1.39685,0.0,0.765846,0.00281403,-0.0100499,-0.64294,0.0,0.0,-0.565777,0,0,0,0,0
65977774,0.0172352,-0.0117751,-1.39685,0.0,0.765846,0.00281403,-0.0100499,-0.64294,0.0,0.0,-0.564578,0,0,0,0,0
66082022,0.019161,-0.0426844,-1.39716,0.0,0.765678,-0.0063896,-0.0225009,-0.642799,0.0,0.0,-0.565777,0,0,0,0,0
66181415,0.0191813,-0.07065,-1.39743,0.0,0.765374,-0.0153779,-0.0332055,-0.642544,0.0,0.0,-0.563378,0,0,0,0,0
66280872,0.0191727,-0.0603468,-1.39733,0.0,0.765504,-0.0120668,-0.0292623,-0.642652,0.0,0.0,-0.563378,0,0,0,0,0
66380040,0.0172352,-0.0117751,-1.39685,0.0,0.765846,0.00281403,-0.0100499,-0.64294,0.0,0.0,-0.564578,0,0,0,0,0
66479622,0.0172352,-0.0117751,-1.39685,0.0,0.765846,0.00281403,-0.0100499,-0.64294,0.0,0.0,-0.563378,0,0,0,0,0
66583682,0.0172352,-0.0117751,-1.39685,0.0,0.765846,0.00281403,-0.0100499,-0.64294,0.0,0.0,-0.564578,0,0,0,0,0
66678075,0.017248,-0.0485724,-1.39717,0.0,0.765633,-0.00901537,-0.0241394,-0.642761,0.0,0.0,-0.564578,0,0,0,0,0
66782490,0.0173048,-0.110392,-1.39771,0.0,0.764693,-0.0288765,-0.0477918,-0.641971,0.0,0.0,-0.563378,0,0,0,0,0
66881687,0.0,-0.160444,-1.39675,0.0,0.763424,-0.0515254,-0.0613752,-0.640907,0.0,0.0,-0.564578,0,0,0,0,0
66981112,-0.0263435,-0.175144,-1.39444,0.0,0.762887,-0.066211,-0.0586189,-0.640456,0.0,0.0,-0.565777,0,0,0,0,0
67080486,-0.0357644,-0.17807,-1.39356,0.0,0.762733,-0.0707128,-0.0567512,-0.640326,0.0,0.0,-0.564578,0,0,0,0,0
67179758,-0.0206774,-0.16632,-1.39503,0.0,0.7632,-0.061247,-0.0570429,-0.640719,0.0,0.0,-0.563378,0,0,0,0,0
67279280,0.0,-0.138365,-1.39675,0.0,0.764055,-0.044447,-0.0529436,-0.641437,0.0,0.0,-0.563378,0,0,0,0,0
67378436,0.0191505,-0.0132469,-1.39688,0.0,0.765836,0.0030741,-0.0112291,-0.642931,0.0,0.0,-0.564578,0,0,0,0,0
67482850,0.0172355,-0.013247,-1.39687,0.0,0.765842,0.00234081,-0.0106136,-0.642937,0.0,0.0,-0.564578,0,0,0,0,0
67582118,0.0172355,-0.013247,-1.39687,0.0,0.765842,0.00234081,-0.0106136,-0.642937,0.0,0.0,-0.564578,0,0,0,0,0
67681520,0.0172355,-0.013247,-1.39687,0.0,0.765842,0.00234081,-0.0106136,-0.642937,0.0,0.0,-0.55978,0,0,0,0,0
67780790,0.0153202,-0.0117753,-1.39684,0.0,0.765852,0.00208073,-0.00943432,-0.642945,0.0,0.0,-0.55978,0,0,0,0,0
67880226,-0.0540119,-0.01177,-1.39643,0.0,0.765595,-0.0244652,0.0128523,-0.642729,0.0,0.0,-0.553782,0,0,0,0,0
67979415,-0.0856741,-0.0117613,-1.39625,0.0,0.765172,-0.0365812,0.0230252,-0.642374,0.0,0.0,-0.553782,0,0,0,0,0
68078952,0.0191503,-0.011775,-1.39686,0.0,0.765839,0.00354732,-0.0106655,-0.642934,0.0,0.0,-0.554982,0,0,0,0,0
68183110,0.0172352,-0.0117751,-1.39685,0.0,0.765846,0.00281403,-0.0100499,-0.64294,0.0,0.0,-0.554982,0,0,0,0,0
68282500,0.0172352,-0.0117751,-1.39685,0.0,0.765846,0.00281403,-0.0100499,-0.64294,0.0,0.0,-0.554982,0,0,0,0,0
68381807,0.0114902,-0.0117755,-1.39682,0.0,0.765862,0.000614131,-0.00820311,-0.642953,0.0,0.0,-0.553782,0,0,0,0,0
68481232,-0.113611,-0.0117504,-1.39608,0.0,0.764639,-0.0472648,0.0319961,-0.641926,0.0,0.0,-0.538188,0,0,0,0,0
68580575,0.0,-0.0117757,-1.39675,0.0,0.765874,-0.00378572,-0.00450941,-0.642963,0.0,0.0,-0.542987,0,0,0,0,0
68679880,-0.042837,-0.0117721,-1.3965,0.0,0.765698,-0.0201875,0.00926073,-0.642816,0.0,0.0,-0.539388,0,0,0,0,0
68779346,0.0172352,-0.0117751,-1.39685,0.0,0.765846,0.00281403,-0.0100499,-0.64294,0.0,0.0,-0.544186,0,0,0,0,0
68883542,0.0172352,-0.0117751,-1.39685,0.0,0.765846,0.00281403,-0.0100499,-0.64294,0.0,0.0,-0.538188,0,0,0,0,0
68982940,0.0172352,-0.0117751,-1.39685,0.0,0.765846,0.00281403,-0.0100499,-0.64294,0.0,0.0,-0.515398,0,0,0,0,0
69082264,0.0172352,-0.0117751,-1.39685,0.0,0.765846,0.00281403,-0.0100499,-0.64294,0.0,0.0,-0.523794,0,0,0,0,0
69181679,0.0172352,-0.0117751,-1.39685,0.0,0.765846,0.00281403,-0.0100499,-0.64294,0.0,0.0,-0.528592,0,0,0,0,0
69281030,0.0957513,-0.0117577,-1.39732,0.0,0.764997,0.0328672,-0.0352772,-0.642227,0.0,0.0,-0.529792,0,0,0,0,0
69380208,0.157032,-0.0117274,-1.39767,0.0,0.763515,0.0562878,-0.0549342,-0.640983,0.0,0.0,-0.529792,0,0,0,0,0
69479599,0.0153202,-0.0117753,-1.39684,0.0,0.765852,0.00208073,-0.00943432,-0.642945,0.0,0.0,-0.526193,0,0,0,0,0
69578879,0.0172352,-0.0117751,-1.39685,0.0,0.765846,0.00281403,-0.0100499,-0.64294,0.0,0.0,-0.530991,0,0,0,0,0
69683301,0.0210653,-0.0117748,-1.39688,0.0,0.765832,0.0042806,-0.0112811,-0.642928,0.0,0.0,-0.526193,0,0,0,0,0
69782599,0.0287254,-0.0117741,-1.39692,0.0,0.765795,0.00721367,-0.0137433,-0.642897,0.0,0.0,-0.526193,0,0,0,0,0
69881832,0.068941,-0.0117664,-1.39716,0.0,0.765419,0.0226089,-0.0266666,-0.642582,0.0,0.0,-0.521395,0,0,0,0,0
69981424,0.116818,-0.0132176,-1.39752,0.0,0.764565,0.0404499,-0.0426019,-0.641864,0.0,0.0,-0.520196,0,0,0,0,0
70080589,0.0229806,-0.0132465,-1.3969,0.0,0.76582,0.00454067,-0.0124603,-0.642918,0.0,0.0,-0.520196,0,0,0,0,0
70180012,0.0191505,-0.0132469,-1.39688,0.0,0.765836,0.0030741,-0.0112291,-0.642931,0.0,0.0,-0.521395,0,0,0,0,0
70279268,0.0191505,-0.0132469,-1.39688,0.0,0.765836,0.0030741,-0.0112291,-0.642931,0.0,0.0,-0.517797,0,0,0,0,0
70383603,0.0612816,-0.0132394,-1.39716,0.0,0.765511,0.0192039,-0.0247692,-0.642659,0.0,0.0,-0.516597,0,0,0,0,0
70483029,0.135969,-0.0132069,-1.39765,0.0,0.764102,0.0477691,-0.0487448,-0.641475,0.0,0.0,-0.521395,0,0,0,0,0
70582271,0.0861773,-0.0132313,-1.39732,0.0,0.76516,0.028731,-0.032766,-0.642364,0.0,0.0,-0.527393,0,0,0,0,0
70681630,0.0172355,-0.013247,-1.39687,0.0,0.765842,0.00234081,-0.0106136,-0.642937,0.0,0.0,-0.526193,0,0,0,0,0
70781066,0.0191505,-0.0132469,-1.39688,0.0,0.765836,0.0030741,-0.0112291,-0.642931,0.0,0.0,-0.526193,0,0,0,0,0
70880461,0.0191505,-0.0132469,-1.39688,0.0,0.765836,0.0030741,-0.0112291,-0.642931,0.0,0.0,-0.527393,0,0,0,0,0
70979699,0.0210653,-0.0117748,-1.39688,0.0,0.765832,0.0042806,-0.0112811,-0.642928,0.0,0.0,-0.523794,0,0,0,0,0
