timestamp,ref_timestamp,ref_lat,ref_lon,x,y,z,delta_xy[0],delta_xy[1],delta_z,vx,vy,vz,z_deriv,delta_vxy[0],delta_vxy[1],delta_vz,ax,ay,az,heading,delta_heading,ref_alt,dist_bottom,eph,epv,evh,evv,vxy_max,vz_max,hagl_min,hagl_max,xy_valid,z_valid,v_xy_valid,v_z_valid,xy_reset_counter,z_reset_counter,vxy_reset_counter,vz_reset_counter,heading_reset_counter,xy_global,z_global,dist_bottom_valid
17671994,0,0.0,0.0,0.0,0.0,-0.161671,2.4171e-06,-2.00046e-06,0.0,-0.496247,-0.366846,0.030381,-0.0299552,0.000486533,-0.00040267,0.0,-0.121266,-0.0475514,-0.00344946,-1.66115,-0.0281267,0.0,0.1,0.398352,0.627686,0.379013,0.210386,inf,inf,inf,inf,0,1,0,1,1,0,1,0,2,0,0,1
17681920,0,0.0,0.0,0.0,0.0,-0.162205,2.4171e-06,-2.00046e-06,0.0,-0.492186,-0.365637,0.0304349,-0.0300575,0.000486533,-0.00040267,0.0,-0.220448,0.00934032,-0.0622144,-1.66157,-0.0281267,0.0,0.1,0.401568,0.62945,0.380894,0.210693,inf,inf,inf,inf,0,1,0,1,1,0,1,0,2,0,0,1
17781320,0,0.0,0.0,0.0,0.0,-0.166616,2.4171e-06,-2.00046e-06,0.0,-0.459658,-0.356735,0.0282031,-0.032702,0.000486533,-0.00040267,0.0,-0.270978,-0.0109577,-0.0148458,-1.66109,-0.0281267,0.0,0.1,0.435029,0.626584,0.39985,0.208932,inf,inf,inf,inf,0,1,0,1,1,0,1,0,2,0,0,1
17880596,0,0.0,0.0,0.0,0.0,-0.169415,2.4171e-06,-2.00046e-06,0.0,-0.426371,-0.350341,0.0226169,-0.0370381,0.000486533,-0.00040267,0.0,-0.818925,-1.34528,-0.594506,-1.65999,-0.0281267,0.0,0.1,0.3966,0.633857,0.369742,0.209425,inf,inf,inf,inf,0,1,0,1,1,0,1,0,2,0,0,1
17979938,0,0.0,0.0,0.0,0.0,-0.171963,2.4171e-06,-2.00046e-06,0.0,-0.397121,-0.334101,0.0300953,-0.0280598,0.000486533,-0.00040267,0.0,-0.950959,0.0926188,0.00425237,-1.6574,-0.0281267,0.0,0.1,0.429041,0.630913,0.387796,0.20767,inf,inf,inf,inf,0,1,0,1,1,0,1,0,2,0,0,1
18069506,0,0.0,0.0,0.0,0.0,-0.176025,2.4171e-06,-2.00046e-06,0.0,-0.367143,-0.32198,0.026632,-0.0319949,0.000486533,-0.00040267,0.0,-0.0182199,0.12836,0.16375,-1.65589,-0.0281267,0.0,0.1,0.388332,0.626234,0.356827,0.205508,inf,inf,inf,inf,0,1,0,1,1,0,1,0,2,0,0,1
18173655,0,0.0,0.0,0.0,0.0,-0.182381,2.4171e-06,-2.00046e-06,0.0,-0.327859,-0.308642,0.0196809,-0.0411379,0.000486533,-0.00040267,0.0,-0.62594,-0.94314,-0.237478,-1.65343,-0.0281267,0.0,0.1,0.419529,0.623426,0.374135,0.203834,inf,inf,inf,inf,0,1,0,1,1,0,1,0,2,0,0,1
18282932,0,0.0,0.0,0.0,0.0,-0.188854,2.4171e-06,-2.00046e-06,0.0,-0.292998,-0.292771,0.0170591,-0.0448983,0.000486533,-0.00040267,0.0,-0.217912,-1.246,0.136273,-1.6505,-0.0281267,0.0,0.1,0.38683,0.622246,0.349265,0.202355,inf,inf,inf,inf,0,1,0,1,1,0,1,0,2,0,0,1
18372338,0,0.0,0.0,0.0,0.0,-0.194068,2.4171e-06,-2.00046e-06,0.0,-0.265207,-0.273942,0.0207582,-0.0416195,0.000486533,-0.00040267,0.0,-0.0820855,-0.0846164,1.03139,-1.6483,-0.0281267,0.0,0.1,0.414229,0.617804,0.364033,0.200445,inf,inf,inf,inf,0,1,0,1,1,0,1,0,2,0,0,1
18481616,0,0.0,0.0,0.0,0.0,-0.200114,2.4171e-06,-2.00046e-06,0.0,-0.233403,-0.252528,0.0172093,-0.0452141,0.000486533,-0.00040267,0.0,-0.153275,-0.283161,0.47614,-1.64502,-0.0281267,0.0,0.1,0.382066,0.616705,0.339072,0.199009,inf,inf,inf,inf,0,1,0,1,1,0,1,0,2,0,0,1
18580998,0,0.0,0.0,0.0,0.0,-0.204799,2.4171e-06,-2.00046e-06,0.0,-0.200044,-0.236052,0.0126611,-0.0488367,0.000486533,-0.00040267,0.0,0.857662,2.23541,0.741778,-1.64124,-0.0281267,0.0,0.103555,0.411672,0.613999,0.35471,0.197419,inf,inf,inf,inf,0,1,0,1,1,0,1,0,2,0,0,1
18675388,0,0.0,0.0,0.0,0.0,-0.206875,2.4171e-06,-2.00046e-06,0.0,-0.17945,-0.233572,0.0108548,-0.0478302,0.000486533,-0.00040267,0.0,-0.649813,-1.98302,-0.487156,-1.63938,-0.0281267,0.0,0.105901,0.375104,0.619214,0.328232,0.197633,inf,inf,inf,inf,0,1,0,1,1,0,1,0,2,0,0,1
18774672,0,0.0,0.0,0.0,0.0,-0.208186,2.4171e-06,-2.00046e-06,0.0,-0.147404,-0.20448,0.00892299,-0.045856,0.000486533,-0.00040267,0.0,0.375438,0.132844,-1.1282,-1.63643,-0.0281267,0.0,0.110666,0.40367,0.616502,0.343189,0.196094,inf,inf,inf,inf,0,1,0,1,1,0,1,0,2,0,0,1
18874161,0,0.0,0.0,0.0,0.0,-0.208297,2.4171e-06,-2.00046e-06,0.0,-0.129863,-0.191397,0.0136448,-0.0363699,0.000486533,-0.00040267,0.0,-0.43407,0.991473,-0.746293,-1.63351,-0.0281267,0.0,0.107733,0.370715,0.613777,0.319667,0.194501,inf,inf,inf,inf,0,1,0,1,1,0,1,0,2,0,0,1
18983290,0,0.0,0.0,0.0,0.0,-0.208629,2.4171e-06,-2.00046e-06,0.0,-0.0952283,-0.179929,0.0115971,-0.0340242,0.000486533,-0.00040267,0.0,0.193101,-0.499835,-0.763892,-1.631,-0.0281267,0.0,0.11016,0.401358,0.612736,0.33532,0.193254,inf,inf,inf,inf,0,1,0,1,1,0,1,0,2,0,0,1
19072699,0,0.0,0.0,0.0,0.0,-0.209133,2.4171e-06,-2.00046e-06,0.0,-0.0774745,-0.161676,0.00871083,-0.0339706,0.000486533,-0.00040267,0.0,-0.15409,1.33578,0.0260388,-1.62698,-0.0281267,0.0,0.110829,0.366178,0.608358,0.310512,0.19139,inf,inf,inf,inf,0,1,0,1,1,0,1,0,2,0,0,1
19177014,0,0.0,0.0,0.0,0.0,-0.209951,2.4171e-06,-2.00046e-06,0.0,-0.0539901,-0.149658,0.00924638,-0.0309084,0.000486533,-0.00040267,0.0,0.316445,0.964732,-0.340028,-1.6241,-0.0281267,0.0,0.106106,0.393101,0.614996,0.324121,0.19195,inf,inf,inf,inf,0,1,0,1,1,0,1,0,2,0,0,1
19276349,0,0.0,0.0,0.0,0.0,-0.212217,2.4171e-06,-2.00046e-06,0.0,-0.0297612,-0.141255,0.0106543,-0.0285814,0.000486533,-0.00040267,0.0,-1.29413,-1.3658,0.0445263,-1.62202,-0.0281267,0.0,0.101344,0.362207,0.612177,0.30229,0.19038,inf,inf,inf,inf,0,1,0,1,1,0,1,0,2,0,0,1
19375692,0,0.0,0.0,0.0,0.0,-0.214384,2.4171e-06,-2.00046e-06,0.0,0.0023812,-0.114819,0.00632709,-0.0317971,0.000486533,-0.00040267,0.0,0.62732,0.153665,-0.487152,-1.6192,-0.0281267,0.0,0.111174,0.388389,0.609484,0.315966,0.188965,inf,inf,inf,inf,0,1,0,1,1,0,1,0,2,0,0,1
19475033,0,0.0,0.0,0.0,0.0,-0.213728,2.4171e-06,-2.00046e-06,0.0,0.013083,-0.110066,0.00954319,-0.0248825,0.000486533,-0.00040267,0.0,-0.303616,0.399999,-0.837454,-1.61697,-0.0281267,0.0,0.110617,0.416246,0.606848,0.329257,0.187551,inf,inf,inf,inf,0,1,0,1,1,0,1,0,2,0,0,1
19574374,0,0.0,0.0,0.0,0.0,-0.214763,2.4171e-06,-2.00046e-06,0.0,0.0392848,-0.0915318,0.0115242,-0.0213338,0.000486533,-0.00040267,0.0,0.749206,-1.33021,0.386812,-1.61444,-0.0281267,0.0,0.106753,0.383524,0.604158,0.307268,0.186068,inf,inf,inf,inf,0,1,0,1,1,0,1,0,2,0,0,1
19673828,0,0.0,0.0,0.0,0.0,-0.215256,2.4171e-06,-2.00046e-06,0.0,0.0547119,-0.0719222,0.00869212,-0.0223028,0.000486533,-0.00040267,0.0,1.15442,1.3762,-0.447355,-1.61114,-0.0281267,0.0,0.108868,0.410556,0.601586,0.320031,0.184698,inf,inf,inf,inf,0,1,0,1,1,0,1,0,2,0,0,1
19778034,0,0.0,0.0,0.0,0.0,-0.214864,2.4171e-06,-2.00046e-06,0.0,0.0745846,-0.0630778,0.0116128,-0.0169773,0.000486533,-0.00040267,0.0,1.55692,0.66443,-0.290468,-1.60864,-0.0281267,0.0,0.111164,0.378538,0.598964,0.298789,0.183282,inf,inf,inf,inf,0,1,0,1,1,0,1,0,2,0,0,1
19877367,0,0.0,0.0,0.0,0.0,-0.214031,2.4171e-06,-2.00046e-06,0.0,0.0934081,-0.0555234,0.0139769,-0.0120233,0.000486533,-0.00040267,0.0,0.725008,-0.338223,0.424396,-1.60609,-0.0281267,0.0,0.110703,0.404768,0.596455,0.31163,0.181994,inf,inf,inf,inf,0,1,0,1,1,0,1,0,2,0,0,1
19976709,0,0.0,0.0,0.0,0.0,-0.212351,2.4171e-06,-2.00046e-06,0.0,0.106313,-0.0363954,0.0106043,-0.0122753,0.000486533,-0.00040267,0.0,1.28216,0.922131,0.22228,-1.60314,-0.0281267,0.0,0.112328,0.373566,0.60273,0.29121,0.182501,inf,inf,inf,inf,0,1,0,1,1,0,1,0,2,0,0,1
20076051,0,0.0,0.0,0.0,0.0,-0.211628,2.4171e-06,-2.00046e-06,0.0,0.109666,-0.0376685,0.012002,-0.00915125,0.000486533,-0.00040267,0.0,-1.23588,-0.114124,-0.143296,-1.60098,-0.0281267,0.0,0.11013,0.399056,0.600214,0.3029,0.181203,inf,inf,inf,inf,0,1,0,1,1,0,1,0,2,0,0,1
20175409,0,0.0,0.0,0.0,0.0,-0.209157,2.4171e-06,-2.00046e-06,0.0,0.134077,-0.0206779,0.0110393,-0.00699895,0.000486533,-0.00040267,0.0,-0.724572,-0.751934,0.0290788,-1.59814,-0.0281267,0.0,0.112287,0.368638,0.597654,0.283405,0.179874,inf,inf,inf,inf,0,1,0,1,1,0,1,0,2,0,0,1
20274734,0,0.0,0.0,0.0,0.0,-0.205152,2.4171e-06,-2.00046e-06,0.0,0.147046,-0.0113695,0.0123776,-0.00152066,0.000486533,-0.00040267,0.0,-0.40008,0.358236,-0.42107,-1.59567,-0.0281267,0.0,0.114857,0.393378,0.595199,0.294672,0.178638,inf,inf,inf,inf,0,1,0,1,1,0,1,0,2,0,0,1
20374076,0,0.0,0.0,0.0,0.0,-0.201439,2.4171e-06,-2.00046e-06,0.0,0.161362,-0.00682839,0.0176552,0.0069754,0.000486533,-0.00040267,0.0,-1.09053,-1.88577,-0.268039,-1.59355,-0.0281267,0.0,0.106592,0.36377,0.592703,0.275949,0.177359,inf,inf,inf,inf,0,1,0,1,1,0,1,0,2,0,0,1
20473551,0,0.0,0.0,0.0,0.0,-0.200365,2.4171e-06,-2.00046e-06,0.0,0.178171,0.0172689,0.0169532,0.00646248,0.000486533,-0.00040267,0.0,0.364204,-0.349471,-0.335137,-1.59136,-0.0281267,0.0,0.102807,0.387792,0.590266,0.286858,0.176149,inf,inf,inf,inf,0,1,0,1,1,0,1,0,2,0,0,1
20582694,0,0.0,0.0,0.0,0.0,-0.199994,2.4171e-06,-2.00046e-06,0.0,0.192272,0.0202725,0.0125757,0.00144399,0.000486533,-0.00040267,0.0,1.00957,-0.0228042,-1.10553,-1.58891,-0.0281267,0.0,0.103003,0.361276,0.589284,0.269935,0.175145,inf,inf,inf,inf,0,1,0,1,1,0,1,0,2,0,0,1
20682036,0,0.0,0.0,0.0,0.0,-0.198412,2.4171e-06,-2.00046e-06,0.0,0.199947,0.0208353,0.0188188,0.00832754,0.000486533,-0.00040267,0.0,0.234294,-0.934687,-0.918786,-1.58747,-0.0281267,0.0,0.103948,0.384745,0.586935,0.2804,0.173988,inf,inf,inf,inf,0,1,0,1,1,0,1,0,2,0,0,1
20776411,0,0.0,0.0,0.0,0.0,-0.196675,2.4171e-06,-2.00046e-06,0.0,0.210944,0.0419291,0.0216319,0.0118583,0.000486533,-0.00040267,0.0,-0.073314,0.496806,0.610107,-1.58461,-0.0281267,0.0,0.106157,0.354354,0.591473,0.262222,0.174277,inf,inf,inf,inf,0,1,0,1,1,0,1,0,2,0,0,1
20875754,0,0.0,0.0,0.0,0.0,-0.194616,2.4171e-06,-2.00046e-06,0.0,0.218778,0.0433837,0.0221465,0.0131081,0.000486533,-0.00040267,0.0,0.18877,2.01689,-0.222949,-1.58326,-0.0281267,0.0,0.104504,0.377047,0.589093,0.272314,0.173128,inf,inf,inf,inf,0,1,0,1,1,0,1,0,2,0,0,1
20975095,0,0.0,0.0,0.0,0.0,-0.19272,2.4171e-06,-2.00046e-06,0.0,0.228945,0.0475031,0.0235279,0.0148817,0.000486533,-0.00040267,0.0,-0.709829,-0.675489,0.547093,-1.58239,-0.0281267,0.0,0.106832,0.350371,0.586723,0.256796,0.17201,inf,inf,inf,inf,0,1,0,1,1,0,1,0,2,0,0,1
21074436,0,0.0,0.0,0.0,0.0,-0.188486,2.4171e-06,-2.00046e-06,0.0,0.239711,0.0591656,0.0222583,0.0160027,0.000486533,-0.00040267,0.0,0.00324575,0.194028,-0.130235,-1.58183,-0.0281267,0.0,0.106824,0.37253,0.584363,0.266547,0.17089,inf,inf,inf,inf,0,1,0,1,1,0,1,0,2,0,0,1
21173778,0,0.0,0.0,0.0,0.0,-0.184508,2.4171e-06,-2.00046e-06,0.0,0.245092,0.0578628,0.0263324,0.0216556,0.000486533,-0.00040267,0.0,-1.15738,0.418663,-1.01575,-1.58186,-0.0281267,0.0,0.105532,0.346442,0.590234,0.251049,0.171406,inf,inf,inf,inf,0,1,0,1,1,0,1,0,2,0,0,1
21273228,0,0.0,0.0,0.0,0.0,-0.181345,2.4171e-06,-2.00046e-06,0.0,0.262362,0.0688092,0.0301511,0.0258684,0.000486533,-0.00040267,0.0,-0.238844,-0.596999,0.0966292,-1.58192,-0.0281267,0.0,0.10066,0.368051,0.587838,0.260575,0.170296,inf,inf,inf,inf,0,1,0,1,1,0,1,0,2,0,0,1
21377429,0,0.0,0.0,0.0,0.0,-0.177022,2.4171e-06,-2.00046e-06,0.0,0.270962,0.0796947,0.0304068,0.0272962,0.000486533,-0.00040267,0.0,0.231826,0.0508389,-0.275699,-1.58095,-0.0281267,0.0,0.105213,0.343018,0.58542,0.245982,0.169174,inf,inf,inf,inf,0,1,0,1,1,0,1,0,2,0,0,1
21476771,0,0.0,0.0,0.0,0.0,-0.172595,2.4171e-06,-2.00046e-06,0.0,0.275897,0.0806624,0.036365,0.0343148,0.000486533,-0.00040267,0.0,1.39219,0.859789,0.169285,-1.58071,-0.0281267,0.0,0.10148,0.36414,0.583089,0.255186,0.168103,inf,inf,inf,inf,0,1,0,1,1,0,1,0,2,0,0,1
21576113,0,0.0,0.0,0.0,0.0,-0.170692,2.4171e-06,-2.00046e-06,0.0,0.284202,0.0834217,0.0390797,0.0353821,0.000486533,-0.00040267,0.0,-0.0425815,0.269177,0.963413,-1.58005,-0.0281267,0.0,0.1,0.339562,0.580778,0.241421,0.167067,inf,inf,inf,inf,0,1,0,1,1,0,1,0,2,0,0,1
21675455,0,0.0,0.0,0.0,0.0,-0.16694,2.4171e-06,-2.00046e-06,0.0,0.290358,0.0913352,0.0371119,0.0335609,0.000486533,-0.00040267,0.0,1.32845,1.35224,0.850791,-1.57914,-0.0281267,0.0,0.100452,0.360238,0.578547,0.25034,0.166043,inf,inf,inf,inf,0,1,0,1,1,0,1,0,2,0,0,1
21774797,0,0.0,0.0,0.0,0.0,-0.165061,2.4171e-06,-2.00046e-06,0.0,0.2884,0.0836805,0.0366313,0.0311545,0.000486533,-0.00040267,0.0,-1.19335,0.729035,-0.23359,-1.57944,-0.0281267,0.0,0.1,0.336111,0.576295,0.236561,0.165006,inf,inf,inf,inf,0,1,0,1,1,0,1,0,2,0,0,1
21874139,0,0.0,0.0,0.0,0.0,-0.165482,2.4171e-06,-2.00046e-06,0.0,0.302177,0.0911509,0.037054,0.0275631,0.000486533,-0.00040267,0.0,-1.08507,-0.347148,-0.34379,-1.57907,-0.0281267,0.0,0.1,0.356322,0.582003,0.245288,0.165548,inf,inf,inf,inf,0,1,0,1,1,0,1,0,2,0,0,1
21973481,0,0.0,0.0,0.0,0.0,-0.164041,2.4171e-06,-2.00046e-06,0.0,0.313442,0.100142,0.0364982,0.0251255,0.000486533,-0.00040267,0.0,0.481667,0.467693,-0.905735,-1.57874,-0.0281267,0.0,0.1,0.377619,0.579747,0.254135,0.164554,inf,inf,inf,inf,0,1,0,1,1,0,1,0,2,0,0,1
22082843,0,0.0,0.0,0.0,0.0,-0.161023,2.4171e-06,-2.00046e-06,0.0,0.308807,0.10492,0.0382772,0.0263463,0.000486533,-0.00040267,0.0,-0.103564,0.798055,-0.474305,-1.57781,-0.0281267,0.0,0.1,0.354462,0.578861,0.241302,0.163761,inf,inf,inf,inf,0,1,0,1,1,0,1,0,2,0,0,1
22182099,0,0.0,0.0,0.0,0.0,-0.156736,2.4171e-06,-2.00046e-06,0.0,0.314215,0.101297,0.0413567,0.0303132,0.000486533,-0.00040267,0.0,-1.35985,0.199641,-0.912952,-1.57729,-0.0281267,0.0,0.1,0.375385,0.576652,0.249864,0.162792,inf,inf,inf,inf,0,1,0,1,1,0,1,0,2,0,0,1
22281441,0,0.0,0.0,0.0,0.0,-0.151402,2.4171e-06,-2.00046e-06,0.0,0.325695,0.106197,0.0456148,0.0362074,0.000486533,-0.00040267,0.0,-1.07535,-1.50329,-0.46353,-1.5773,-0.0281267,0.0,0.1,0.350574,0.574466,0.236662,0.161838,inf,inf,inf,inf,0,1,0,1,1,0,1,0,2,0,0,1
22380975,0,0.0,0.0,0.0,0.0,-0.14761,2.4171e-06,-2.00046e-06,0.0,0.332379,0.117378,0.0452637,0.0356341,0.000486533,-0.00040267,0.0,0.29956,0.218778,-0.68159,-1.57695,-0.0281267,0.0,0.1,0.371036,0.572314,0.245047,0.160909,inf,inf,inf,inf,0,1,0,1,1,0,1,0,2,0,0,1
22475159,0,0.0,0.0,0.0,0.0,-0.144089,2.4171e-06,-2.00046e-06,0.0,0.328114,0.113242,0.053045,0.0430223,0.000486533,-0.00040267,0.0,-0.799126,0.519061,0.822462,-1.57683,-0.0281267,0.0,0.1,0.345248,0.568873,0.231732,0.159782,inf,inf,inf,inf,0,1,0,1,1,0,1,0,2,0,0,1
22574504,0,0.0,0.0,0.0,0.0,-0.141612,2.4171e-06,-2.00046e-06,0.0,0.338789,0.120897,0.0509481,0.0392908,0.000486533,-0.00040267,0.0,0.0710625,1.00541,1.34392,-1.57591,-0.0281267,0.0,0.1,0.365207,0.566818,0.240276,0.158941,inf,inf,inf,inf,0,1,0,1,1,0,1,0,2,0,0,1
22673899,0,0.0,0.0,0.0,0.0,-0.138486,2.4171e-06,-2.00046e-06,0.0,0.338857,0.117599,0.049629,0.037024,0.000486533,-0.00040267,0.0,-0.0102953,1.92092,-0.142548,-1.57577,-0.0281267,0.0,0.1,0.341929,0.572287,0.228081,0.159472,inf,inf,inf,inf,0,1,0,1,1,0,1,0,2,0,0,1
22783118,0,0.0,0.0,0.0,0.0,-0.13435,2.4171e-06,-2.00046e-06,0.0,0.343476,0.123249,0.0574983,0.0444208,0.000486533,-0.00040267,0.0,0.727233,1.39826,0.149303,-1.57546,-0.0281267,0.0,0.1,0.363532,0.571438,0.236904,0.158782,inf,inf,inf,inf,0,1,0,1,1,0,1,0,2,0,0,1
22882528,0,0.0,0.0,0.0,0.0,-0.131202,2.4171e-06,-2.00046e-06,0.0,0.347866,0.120311,0.0587636,0.0445592,0.000486533,-0.00040267,0.0,0.0952846,-0.359285,0.944605,-1.575,-0.0281267,0.0,0.1,0.340515,0.569271,0.225042,0.15789,inf,inf,inf,inf,0,1,0,1,1,0,1,0,2,0,0,1
22981802,0,0.0,0.0,0.0,0.0,-0.128435,2.4171e-06,-2.00046e-06,0.0,0.351108,0.129095,0.0545022,0.0387712,0.000486533,-0.00040267,0.0,0.201852,0.984211,-0.103802,-1.57447,-0.0281267,0.0,0.1,0.359821,0.567171,0.232853,0.157035,inf,inf,inf,inf,0,1,0,1,1,0,1,0,2,0,0,1
23081146,23081146,34.0356458,108.7574287,0.0,0.0,-0.124864,2.4171e-06,-2.00046e-06,0.0,0.347489,0.118178,0.0575807,0.0411556,0.000486533,-0.00040267,0.0,-1.43279,-1.11196,-0.326769,-1.57182,0.00290796,420.558,0.1,0.337216,0.565066,0.221329,0.156183,inf,inf,inf,inf,0,1,0,1,1,0,1,0,3,1,1,1
23180642,23081146,34.0356458,108.7574287,0.102641,0.0498851,-0.121316,-0.213687,-0.0609216,0.0,0.082991,0.0438945,0.0518572,0.0350082,-0.276759,-0.0866114,-0.00817516,-0.511325,-0.93189,0.151043,-1.57139,0.00290796,420.558,0.1,0.939053,0.558114,0.250371,0.197046,inf,inf,inf,inf,1,1,1,1,2,0,2,1,3,1,1,1
23279828,23081146,34.0356458,108.7574287,0.0806217,0.0436113,-0.119207,-0.213687,-0.0609216,0.0,0.0895578,0.0469523,0.0558298,0.0377691,-0.276759,-0.0866114,-0.00817516,0.637021,0.518738,0.0698556,-1.57127,0.00290796,420.558,0.1,0.939654,0.551815,0.251098,0.1974,inf,inf,inf,inf,1,1,1,1,2,0,2,1,3,1,1,1
23379194,23081146,34.0356458,108.7574287,0.0596818,0.0369528,-0.117308,-0.213687,-0.0609216,0.0,0.096018,0.047813,0.0625058,0.0432416,-0.276759,-0.0866114,-0.00817516,-0.600256,-0.1708,1.02048,-1.57105,0.00290796,420.558,0.1,0.765713,0.53963,0.216864,0.181127,inf,inf,inf,inf,1,1,1,1,2,0,2,1,3,1,1,1
23483479,23081146,34.0356458,108.7574287,0.0469828,0.0326498,-0.114928,-0.213687,-0.0609216,0.0,0.106995,0.0548356,0.0634833,0.0425915,-0.276759,-0.0866114,-0.00817516,0.0537954,-0.213105,0.294734,-1.57097,0.00290796,420.558,0.1,0.767093,0.529021,0.218181,0.181565,inf,inf,inf,inf,1,1,1,1,2,0,2,1,3,1,1,1
23572887,23081146,34.0356458,108.7574287,0.0389896,0.0288719,-0.111926,-0.213687,-0.0609216,0.0,0.111616,0.0433447,0.0629905,0.0411816,-0.276759,-0.0866114,-0.00817516,-0.264474,-1.35615,0.0787432,-1.57137,0.00290796,420.558,0.1,0.662281,0.51865,0.195066,0.168745,inf,inf,inf,inf,1,1,1,1,2,0,2,1,3,1,1,1
23682161,23081146,34.0356458,108.7574287,0.0336703,0.0254205,-0.107206,-0.213687,-0.0609216,0.0,0.115413,0.0478033,0.065317,0.0433631,-0.276759,-0.0866114,-0.00817516,-1.17407,-1.00507,0.338041,-1.57059,0.00290796,420.558,0.1,0.664381,0.510424,0.197217,0.169315,inf,inf,inf,inf,1,1,1,1,2,0,2,1,3,1,1,1
23781506,23081146,34.0356458,108.7574287,0.0310445,0.0225224,-0.10363,-0.213687,-0.0609216,0.0,0.133079,0.0592159,0.0628236,0.0400528,-0.276759,-0.0866114,-0.00817516,-0.109386,-1.24648,0.30926,-1.57035,0.00290796,420.558,0.1,0.592447,0.501707,0.180542,0.158962,inf,inf,inf,inf,1,1,1,1,2,0,2,1,3,1,1,1
23880847,23081146,34.0356458,108.7574287,0.0314731,0.0206966,-0.101421,-0.213687,-0.0609216,0.0,0.139471,0.0621555,0.0679717,0.0430829,-0.276759,-0.0866114,-0.00817516,-0.350962,-0.371795,-0.219121,-1.57066,0.00290796,420.558,0.1,0.594842,0.494879,0.183048,0.159532,inf,inf,inf,inf,1,1,1,1,2,0,2,1,3,1,1,1
23980310,23081146,34.0356458,108.7574287,0.0328673,0.0185988,-0.0992932,-0.213687,-0.0609216,0.0,0.156582,0.0671678,0.0715365,0.0445685,-0.276759,-0.0866114,-0.00817516,-0.224161,-0.879504,0.416272,-1.57051,0.00290796,420.558,0.1,0.541291,0.4872,0.170258,0.150918,inf,inf,inf,inf,1,1,1,1,2,0,2,1,3,1,1,1
24074564,23081146,34.0356458,108.7574287,0.0368963,0.0176102,-0.0971003,-0.213687,-0.0609216,0.0,0.162888,0.0698854,0.068298,0.0394738,-0.276759,-0.0866114,-0.00817516,0.941413,2.14975,0.0770174,-1.56981,0.00290796,420.558,0.1,0.543786,0.485888,0.17303,0.15157,inf,inf,inf,inf,1,1,1,1,2,0,2,1,3,1,1,1
24183841,23081146,34.0356458,108.7574287,0.0409926,0.0158035,-0.0954286,-0.213687,-0.0609216,0.0,0.177278,0.0767475,0.0713221,0.0396621,-0.276759,-0.0866114,-0.00817516,1.67596,0.84396,0.034923,-1.56979,0.00290796,420.558,0.1,0.502008,0.479207,0.163187,0.144354,inf,inf,inf,inf,1,1,1,1,2,0,2,1,3,1,1,1
24273248,23081146,34.0356458,108.7574287,0.044062,0.0139646,-0.0951064,-0.213687,-0.0609216,0.0,0.183157,0.0743152,0.0701123,0.035424,-0.276759,-0.0866114,-0.00817516,-1.83165,-0.61909,0.117443,-1.56967,0.00290796,420.558,0.1,0.504835,0.474133,0.166488,0.144981,inf,inf,inf,inf,1,1,1,1,2,0,2,1,3,1,1,1
24382522,23081146,34.0356458,108.7574287,0.0472928,0.0106661,-0.0957612,-0.213687,-0.0609216,0.0,0.19968,0.0692003,0.0771079,0.0380262,-0.276759,-0.0866114,-0.00817516,1.83215,-1.11371,0.496238,-1.57076,0.00290796,420.558,0.1,0.470976,0.468167,0.158404,0.138792,inf,inf,inf,inf,1,1,1,1,2,0,2,1,3,1,1,1
24481866,23081146,34.0356458,108.7574287,0.0518066,0.00809911,-0.0967683,-0.213687,-0.0609216,0.0,0.211974,0.0793846,0.0748701,0.031802,-0.276759,-0.0866114,-0.00817516,0.917964,-0.581877,0.149802,-1.57037,0.00290796,420.558,0.1,0.47451,0.464405,0.162586,0.139592,inf,inf,inf,inf,1,1,1,1,2,0,2,1,3,1,1,1
24576240,23081146,34.0356458,108.7574287,0.0559913,0.00531835,-0.0970639,-0.213687,-0.0609216,0.0,0.215883,0.0877708,0.0731555,0.0269598,-0.276759,-0.0866114,-0.00817516,0.796321,1.55753,-0.0948404,-1.56893,0.00290796,420.558,0.1,0.445418,0.458083,0.154837,0.133991,inf,inf,inf,inf,1,1,1,1,2,0,2,1,3,1,1,1
24675611,23081146,34.0356458,108.7574287,0.0606516,0.00229596,-0.0971887,-0.213687,-0.0609216,0.0,0.221634,0.0828209,0.0760107,0.0272387,-0.276759,-0.0866114,-0.00817516,-0.152087,-0.0881563,0.0652931,-1.56845,0.00290796,420.558,0.1,0.449255,0.458901,0.15947,0.135014,inf,inf,inf,inf,1,1,1,1,2,0,2,1,3,1,1,1
24774993,23081146,34.0356458,108.7574287,0.0645614,-0.000729318,-0.0964967,-0.213687,-0.0609216,0.0,0.226377,0.0803598,0.0719872,0.0217619,-0.276759,-0.0866114,-0.00817516,-0.197624,0.181763,-1.7859,-1.56843,0.00290796,420.558,0.1,0.42462,0.453367,0.15317,0.130193,inf,inf,inf,inf,1,1,1,1,2,0,2,1,3,1,1,1
24884245,23081146,34.0356458,108.7574287,0.0695037,-0.00342403,-0.0946848,-0.213687,-0.0609216,0.0,0.243519,0.0943862,0.0774759,0.0267143,-0.276759,-0.0866114,-0.00817516,1.72272,1.46439,1.09475,-1.56746,0.00290796,420.558,0.1,0.429269,0.451337,0.158701,0.131285,inf,inf,inf,inf,1,1,1,1,2,0,2,1,3,1,1,1
24973609,23081146,34.0356458,108.7574287,0.0719705,-0.00606271,-0.0928022,-0.213687,-0.0609216,0.0,0.238213,0.082122,0.0758727,0.0249317,-0.276759,-0.0866114,-0.00817516,-1.5166,0.307725,-0.559966,-1.56833,0.00290796,420.558,0.1,0.407307,0.445666,0.152242,0.126844,inf,inf,inf,inf,1,1,1,1,2,0,2,1,3,1,1,1
25082885,23081146,34.0356458,108.7574287,0.0759478,-0.0083761,-0.0898409,-0.213687,-0.0609216,0.0,0.252131,0.0913169,0.0795045,0.0288385,-0.276759,-0.0866114,-0.00817516,1.52238,-0.125542,-0.236425,-1.56793,0.00290796,420.558,0.1,0.412351,0.444166,0.1581,0.128017,inf,inf,inf,inf,1,1,1,1,2,0,2,1,3,1,1,1
25172312,23081146,34.0356458,108.7574287,0.0792759,-0.0103809,-0.0885156,-0.213687,-0.0609216,0.0,0.253612,0.0921009,0.0857257,0.0341122,-0.276759,-0.0866114,-0.00817516,-0.740374,-0.460446,1.31659,-1.56725,0.00290796,420.558,0.1,0.392654,0.438811,0.151798,0.123993,inf,inf,inf,inf,1,1,1,1,2,0,2,1,3,1,1,1
25281608,23081146,34.0356458,108.7574287,0.0826493,-0.0133418,-0.0874238,-0.213687,-0.0609216,0.0,0.254743,0.0868632,0.0729756,0.0197031,-0.276759,-0.0866114,-0.00817516,-0.0622485,0.370914,-1.43169,-1.56787,0.00290796,420.558,0.1,0.398081,0.437767,0.158414,0.12526,inf,inf,inf,inf,1,1,1,1,2,0,2,1,3,1,1,1
25380911,23081146,34.0356458,108.7574287,0.0836802,-0.0174019,-0.0856435,-0.213687,-0.0609216,0.0,0.264825,0.0996951,0.0787591,0.0248121,-0.276759,-0.0866114,-0.00817516,-0.403394,-0.0362885,-0.281164,-1.56711,0.00290796,420.558,0.1,0.380745,0.436589,0.156752,0.121955,inf,inf,inf,inf,1,1,1,1,2,0,2,1,3,1,1,1
25480253,23081146,34.0356458,108.7574287,0.0864167,-0.0206962,-0.0835732,-0.213687,-0.0609216,0.0,0.262962,0.0973854,0.0725431,0.0181099,-0.276759,-0.0866114,-0.00817516,-1.6295,1.99811,-3.89691,-1.56671,0.00290796,420.558,0.1,0.386095,0.435373,0.170869,0.123165,inf,inf,inf,inf,1,1,1,1,2,0,2,1,3,1,1,1
25579649,23081146,34.0356458,108.7574287,0.0864176,-0.0252935,-0.0845873,-0.213687,-0.0609216,0.0,0.260828,0.106188,0.0698745,0.0118497,-0.276759,-0.0866114,-0.00817516,0.885759,2.89754,-1.79906,-1.56561,0.00290796,420.558,0.1,0.370189,0.430992,0.173061,0.119988,inf,inf,inf,inf,1,1,1,1,2,0,2,1,3,1,1,1
25678939,23081146,34.0356458,108.7574287,0.087667,-0.0290956,-0.0853952,-0.213687,-0.0609216,0.0,0.273909,0.0657958,0.0960589,0.0350577,-0.276759,-0.0866114,-0.00817516,1.34812,-5.89855,3.57176,-1.56519,0.00290796,420.558,0.1,0.376053,0.430111,0.192358,0.121281,inf,inf,inf,inf,1,1,1,1,2,0,2,1,3,1,1,1
25778280,23081146,34.0356458,108.7574287,0.0852709,-0.0341414,-0.0881544,-0.213687,-0.0609216,0.0,0.250875,0.102108,0.0684855,0.00295015,-0.276759,-0.0866114,-0.00817516,-0.798676,3.39531,-3.91513,-1.56333,0.00290796,420.558,0.1,0.361208,0.425957,0.192255,0.118375,inf,inf,inf,inf,1,1,1,1,2,0,2,1,3,1,1,1
25877815,23081146,34.0356458,108.7574287,0.0831438,-0.0387497,-0.0913327,-0.213687,-0.0609216,0.0,0.253211,0.0700622,0.0895977,0.0198812,-0.276759,-0.0866114,-0.00817516,0.991286,-2.80911,3.36071,-1.56191,0.00290796,420.558,0.1,0.367745,0.425367,0.213339,0.11973,inf,inf,inf,inf,1,1,1,1,2,0,2,1,3,1,1,1
25981969,23081146,34.0356458,108.7574287,0.0791756,-0.0441797,-0.0942997,-0.213687,-0.0609216,0.0,0.235532,0.0696426,0.0808372,0.00737855,-0.276759,-0.0866114,-0.00817516,2.00796,-2.94999,0.660364,-1.55954,0.00290796,420.558,0.1,0.35357,0.421407,0.207209,0.117028,inf,inf,inf,inf,1,1,1,1,2,0,2,1,3,1,1,1
26081273,23081146,34.0356458,108.7574287,0.0718657,-0.0512027,-0.0964758,-0.213687,-0.0609216,0.0,0.210738,0.0683177,0.0831853,0.00774069,-0.276759,-0.0866114,-0.00817516,-0.0466081,-0.610832,1.40111,-1.55863,0.00290796,420.558,0.1,0.360831,0.42416,0.228246,0.118713,inf,inf,inf,inf,1,1,1,1,2,0,2,1,3,1,1,1
26180615,23081146,34.0356458,108.7574287,0.0604808,-0.0595805,-0.0985665,-0.213687,-0.0609216,0.0,0.185126,0.0690343,0.0773862,0.000486513,-0.276759,-0.0866114,-0.00817516,-1.25864,1.49945,-0.239872,-1.55738,0.00290796,420.558,0.1,0.347215,0.420307,0.216965,0.116187,inf,inf,inf,inf,1,1,1,1,2,0,2,1,3,1,1,1
26279958,23081146,34.0356458,108.7574287,0.0491558,-0.0675567,-0.0975679,-0.213687,-0.0609216,0.0,0.176004,0.044445,0.0881022,0.012777,-0.276759,-0.0866114,-0.00817516,1.52829,-1.81847,1.89516,-1.55559,0.00290796,420.558,0.1,0.355209,0.420201,0.236712,0.117694,inf,inf,inf,inf,1,1,1,1,2,0,2,1,3,1,1,1
26379330,23081146,34.0356458,108.7574287,0.0358944,-0.0763104,-0.095801,-0.213687,-0.0609216,0.0,0.154077,0.0460088,0.0833461,0.0101258,-0.276759,-0.0866114,-0.00817516,-0.168666,2.30558,0.389009,-1.55396,0.00290796,420.558,0.1,0.34174,0.416501,0.220692,0.115297,inf,inf,inf,inf,1,1,1,1,2,0,2,1,3,1,1,1
26483608,23081146,34.0356458,108.7574287,0.0221143,-0.0853989,-0.0928232,-0.213687,-0.0609216,0.0,0.126644,0.0347166,0.0783456,0.0076961,-0.276759,-0.0866114,-0.00817516,1.52101,-2.88255,0.488365,-1.55241,0.00290796,420.558,0.1,0.350324,0.416595,0.23881,0.116858,inf,inf,inf,inf,1,1,1,1,2,0,2,1,3,1,1,1
26573016,23081146,34.0356458,108.7574287,0.00847863,-0.0932906,-0.0909411,-0.213687,-0.0609216,0.0,0.104196,0.027829,0.0815311,0.0125963,-0.276759,-0.0866114,-0.00817516,2.60268,-2.51055,2.62834,-1.55168,0.00290796,420.558,0.1,0.336217,0.412441,0.218978,0.114387,inf,inf,inf,inf,1,1,1,1,2,0,2,1,3,1,1,1
26682471,23081146,34.0356458,108.7574287,-0.00965584,-0.103218,-0.0892368,-0.213687,-0.0609216,0.0,0.0789713,0.0285713,0.0702892,0.00268399,-0.276759,-0.0866114,-0.00817516,1.12663,1.38236,-1.15915,-1.55066,0.00290796,420.558,0.1,0.346091,0.413318,0.237092,0.11624,inf,inf,inf,inf,1,1,1,1,2,0,2,1,3,1,1,1
26771700,23081146,34.0356458,108.7574287,-0.0245504,-0.110645,-0.0906032,-0.213687,-0.0609216,0.0,0.0598872,0.0239103,0.0762483,0.00696363,-0.276759,-0.0866114,-0.00817516,-1.11211,2.88027,-0.327474,-1.5501,0.00290796,420.558,0.1,0.332202,0.412132,0.217044,0.114102,inf,inf,inf,inf,1,1,1,1,2,0,2,1,3,1,1,1
26880976,23081146,34.0356458,108.7574287,-0.0411498,-0.118426,-0.0936826,-0.213687,-0.0609216,0.0,0.0545751,0.0192335,0.0751685,0.00280558,-0.276759,-0.0866114,-0.00817516,0.926783,-0.65637,1.00641,-1.548,0.00290796,420.558,0.1,0.342505,0.413197,0.233418,0.11599,inf,inf,inf,inf,1,1,1,1,2,0,2,1,3,1,1,1
26975351,23081146,34.0356458,108.7574287,-0.0536742,-0.125104,-0.0977272,-0.213687,-0.0609216,0.0,0.0336393,0.0135838,0.0629916,-0.0133777,-0.276759,-0.0866114,-0.00817516,-1.69739,2.10085,-4.16467,-1.54774,0.00290796,420.558,0.1,0.328686,0.409205,0.213458,0.113682,inf,inf,inf,inf,1,1,1,1,2,0,2,1,3,1,1,1
27074693,23081146,34.0356458,108.7574287,-0.0660907,-0.132571,-0.102752,-0.213687,-0.0609216,0.0,0.0292023,0.0112864,0.0693317,-0.0110556,-0.276759,-0.0866114,-0.00817516,1.00299,-1.03528,-1.40711,-1.54716,0.00290796,420.558,0.103322,0.338258,0.409781,0.22694,0.11538,inf,inf,inf,inf,1,1,1,1,2,0,2,1,3,1,1,1
27184036,23081146,34.0356458,108.7574287,-0.0774774,-0.139567,-0.108575,-0.213687,-0.0609216,0.0,0.024764,0.0073039,0.0761876,-0.0081825,-0.276759,-0.0866114,-0.00817516,-1.05584,-0.482903,0.987904,-1.54772,0.00290796,420.558,0.109145,0.326246,0.407118,0.20956,0.113581,inf,inf,inf,inf,1,1,1,1,2,0,2,1,3,1,1,1
27273377,23081146,34.0356458,108.7574287,-0.0869398,-0.144842,-0.113155,-0.213687,-0.0609216,0.0,0.0141892,0.0164697,0.0642455,-0.0226858,-0.276759,-0.0866114,-0.00817516,-1.64986,4.3448,-3.09,-1.54749,0.00290796,420.558,0.113725,0.335055,0.407216,0.220569,0.115099,inf,inf,inf,inf,1,1,1,1,2,0,2,1,3,1,1,1
27382654,23081146,34.0356458,108.7574287,-0.0972681,-0.150859,-0.119027,-0.213687,-0.0609216,0.0,0.0118404,-0.00623393,0.0761329,-0.0136818,-0.276759,-0.0866114,-0.00817516,-0.302347,-0.0542769,0.167331,-1.54819,0.00290796,420.558,0.119597,0.323501,0.404669,0.204786,0.11336,inf,inf,inf,inf,1,1,1,1,2,0,2,1,3,1,1,1
27472181,23081146,34.0356458,108.7574287,-0.104266,-0.155215,-0.122613,-0.213687,-0.0609216,0.0,0.0123238,-0.00465041,0.0612294,-0.0293899,-0.276759,-0.0866114,-0.00817516,1.10344,-0.879714,-0.105654,-1.54859,0.00290796,420.558,0.123183,0.33244,0.407625,0.214853,0.115132,inf,inf,inf,inf,1,1,1,1,2,0,2,1,3,1,1,1
27581338,23081146,34.0356458,108.7574287,-0.112629,-0.160847,-0.125974,-0.213687,-0.0609216,0.0,0.00832315,0.0141022,0.0554803,-0.0349291,-0.276759,-0.0866114,-0.00817516,1.38887,0.796418,-0.668408,-1.54796,0.00290796,420.558,0.126544,0.32102,0.405101,0.19987,0.113414,inf,inf,inf,inf,1,1,1,1,2,0,2,1,3,1,1,1
27680682,23081146,34.0356458,108.7574287,-0.118817,-0.165889,-0.128122,-0.213687,-0.0609216,0.0,0.0188695,-0.00223733,0.0719711,-0.0173846,-0.276759,-0.0866114,-0.00817516,2.39081,-2.79243,1.83736,-1.54843,0.00290796,420.558,0.128692,0.33111,0.406086,0.210163,0.115209,inf,inf,inf,inf,1,1,1,1,2,0,2,1,3,1,1,1
27775055,23081146,34.0356458,108.7574287,-0.125592,-0.17159,-0.130972,-0.213687,-0.0609216,0.0,0.000260776,-0.0020799,0.0636253,-0.0260109,-0.276759,-0.0866114,-0.00817516,-0.784287,4.83325,-1.76802,-1.54768,0.00290796,420.558,0.131542,0.317839,0.402346,0.194064,0.113078,inf,inf,inf,inf,1,1,1,1,2,0,2,1,3,1,1,1
27874398,23081146,34.0356458,108.7574287,-0.132909,-0.177944,-0.134355,-0.213687,-0.0609216,0.0,-0.00178123,-0.0023512,0.0709856,-0.018696,-0.276759,-0.0866114,-0.00817516,-1.18755,-2.60111,2.01128,-1.54844,0.00290796,420.558,0.134925,0.327858,0.403383,0.203565,0.114875,inf,inf,inf,inf,1,1,1,1,2,0,2,1,3,1,1,1
27973740,23081146,34.0356458,108.7574287,-0.139817,-0.184729,-0.134543,-0.213687,-0.0609216,0.0,-0.000483096,-0.0293719,0.0684856,-0.0177452,-0.276759,-0.0866114,-0.00817516,2.07213,-5.58638,3.56083,-1.54782,0.00290796,420.558,0.135113,0.315809,0.403003,0.189424,0.11328,inf,inf,inf,inf,1,1,1,1,2,0,2,1,3,1,1,1
28083015,23081146,34.0356458,108.7574287,-0.146473,-0.192372,-0.132384,-0.213687,-0.0609216,0.0,-0.00586654,0.00503761,0.0582144,-0.0224807,-0.276759,-0.0866114,-0.00817516,0.234702,4.55095,-1.27259,-1.54747,0.00290796,420.558,0.132954,0.326923,0.402139,0.199143,0.115058,inf,inf,inf,inf,1,1,1,1,2,0,2,1,3,1,1,1
28172424,23081146,34.0356458,108.7574287,-0.151359,-0.198224,-0.129174,-0.213687,-0.0609216,0.0,-0.0109093,0.00586123,0.0562734,-0.0190512,-0.276759,-0.0866114,-0.00817516,-0.435859,3.30471,-1.13571,-1.54752,0.00290796,420.558,0.129744,0.313925,0.401132,0.18497,0.113192,inf,inf,inf,inf,1,1,1,1,2,0,2,1,3,1,1,1
28281810,23081146,34.0356458,108.7574287,-0.155935,-0.204135,-0.124998,-0.213687,-0.0609216,0.0,0.00777808,-0.00869469,0.0610492,-0.0086038,-0.276759,-0.0866114,-0.00817516,0.684597,0.950026,-1.15889,-1.54816,0.00290796,420.558,0.125568,0.325034,0.403016,0.194062,0.115252,inf,inf,inf,inf,1,1,1,1,2,0,2,1,3,1,1,1
28381043,23081146,34.0356458,108.7574287,-0.159422,-0.210436,-0.122469,-0.213687,-0.0609216,0.0,-0.00493235,-0.00277177,0.0657294,-0.00073144,-0.276759,-0.0866114,-0.00817516,-1.56511,1.29776,1.37448,-1.54857,0.00290796,420.558,0.123039,0.313149,0.400001,0.181527,0.113361,inf,inf,inf,inf,1,1,1,1,2,0,2,1,3,1,1,1
28480398,23081146,34.0356458,108.7574287,-0.161439,-0.215589,-0.119428,-0.213687,-0.0609216,0.0,0.00745992,0.000167814,0.0625729,-0.000741055,-0.276759,-0.0866114,-0.00817516,-0.835172,-1.69452,0.478418,-1.54764,0.00290796,420.558,0.119998,0.323275,0.401312,0.189303,0.115182,inf,inf,inf,inf,1,1,1,1,2,0,2,1,3,1,1,1
28574759,23081146,34.0356458,108.7574287,-0.163507,-0.221813,-0.11491,-0.213687,-0.0609216,0.0,0.0125548,-0.0177686,0.0699792,0.0105762,-0.276759,-0.0866114,-0.00817516,-0.658405,-5.6372,2.23163,-1.54804,0.00290796,420.558,0.115481,0.310582,0.400297,0.176791,0.113319,inf,inf,inf,inf,1,1,1,1,2,0,2,1,3,1,1,1
28674101,23081146,34.0356458,108.7574287,-0.165562,-0.229379,-0.111641,-0.213687,-0.0609216,0.0,0.00610064,-0.00350511,0.0522044,-0.00488293,-0.276759,-0.0866114,-0.00817516,1.39847,2.07027,-2.62192,-1.54844,0.00290796,420.558,0.112211,0.320574,0.401682,0.184128,0.11513,inf,inf,inf,inf,1,1,1,1,2,0,2,1,3,1,1,1
28783373,23081146,34.0356458,108.7574287,-0.168958,-0.238471,-0.111319,-0.213687,-0.0609216,0.0,0.0129934,-0.0083455,0.0779717,0.0199866,-0.276759,-0.0866114,-0.00817516,0.436123,-0.502295,2.36979,-1.54814,0.00290796,420.558,0.111889,0.31014,0.399394,0.173949,0.113551,inf,inf,inf,inf,1,1,1,1,2,0,2,1,3,1,1,1
28872785,23081146,34.0356458,108.7574287,-0.170906,-0.244604,-0.113229,-0.213687,-0.0609216,0.0,0.00801277,-0.0299038,0.0805241,0.0196113,-0.276759,-0.0866114,-0.00817516,-1.81996,-0.451259,-0.62981,-1.54813,0.00290796,420.558,0.1138,0.31915,0.400191,0.180239,0.115145,inf,inf,inf,inf,1,1,1,1,2,0,2,1,3,1,1,1
28982061,23081146,34.0356458,108.7574287,-0.173905,-0.251021,-0.113549,-0.213687,-0.0609216,0.0,0.00954808,-0.0117718,0.0737901,0.0116947,-0.276759,-0.0866114,-0.00817516,-4.2699,2.42009,-1.27985,-1.54805,0.00290796,420.558,0.114119,0.308704,0.397944,0.170429,0.113481,inf,inf,inf,inf,1,1,1,1,2,0,2,1,3,1,1,1
29081489,23081146,34.0356458,108.7574287,-0.17628,-0.255495,-0.112732,-0.213687,-0.0609216,0.0,0.0220523,-0.0151289,0.0847151,0.0225369,-0.276759,-0.0866114,-0.00817516,0.0781947,-1.9636,2.52403,-1.54812,0.00290796,420.558,0.113302,0.318699,0.399472,0.177106,0.115299,inf,inf,inf,inf,1,1,1,1,2,0,2,1,3,1,1,1
29175780,23081146,34.0356458,108.7574287,-0.180188,-0.258753,-0.110623,-0.213687,-0.0609216,0.0,0.0190644,-0.00686181,0.0704138,0.00900405,-0.276759,-0.0866114,-0.00817516,-2.14758,2.01502,-1.72255,-1.54859,0.00290796,420.558,0.111193,0.306421,0.395914,0.166543,0.113178,inf,inf,inf,inf,1,1,1,1,2,0,2,1,3,1,1,1
29275121,23081146,34.0356458,108.7574287,-0.185101,-0.261814,-0.108436,-0.213687,-0.0609216,0.0,0.0404119,-0.0105047,0.0825937,0.0219591,-0.276759,-0.0866114,-0.00817516,0.759367,-4.09738,2.6188,-1.54781,0.00290796,420.558,0.109006,0.316268,0.400058,0.172939,0.115234,inf,inf,inf,inf,1,1,1,1,2,0,2,1,3,1,1,1
29374654,23081146,34.0356458,108.7574287,-0.190897,-0.265493,-0.108647,-0.213687,-0.0609216,0.0,0.028041,0.000547048,0.0721206,0.00979155,-0.276759,-0.0866114,-0.00817516,-0.709773,2.67013,-0.881289,-1.54718,0.00290796,420.558,0.109217,0.305142,0.397164,0.163593,0.113378,inf,inf,inf,inf,1,1,1,1,2,0,2,1,3,1,1,1
29473806,23081146,34.0356458,108.7574287,-0.196283,-0.268684,-0.110504,-0.213687,-0.0609216,0.0,0.0254083,0.00896148,0.0676006,0.00197172,-0.276759,-0.0866114,-0.00817516,-1.78081,3.60777,-1.80047,-1.54792,0.00290796,420.558,0.111074,0.314924,0.398804,0.169752,0.115155,inf,inf,inf,inf,1,1,1,1,2,0,2,1,3,1,1,1
29573148,23081146,34.0356458,108.7574287,-0.20232,-0.271272,-0.11541,-0.213687,-0.0609216,0.0,0.0426536,-0.00879691,0.082538,0.0109162,-0.276759,-0.0866114,-0.00817516,1.43474,-3.61545,4.28209,-1.54735,0.00290796,420.558,0.11598,0.303939,0.395948,0.160846,0.113247,inf,inf,inf,inf,1,1,1,1,2,0,2,1,3,1,1,1
29677457,23081146,34.0356458,108.7574287,-0.208296,-0.273061,-0.120528,-0.213687,-0.0609216,0.0,0.0320933,-0.000603554,0.0689579,-0.00836037,-0.276759,-0.0866114,-0.00817516,-1.817,1.22709,-1.3318,-1.54759,0.00290796,420.558,0.121098,0.31365,0.397625,0.166834,0.115044,inf,inf,inf,inf,1,1,1,1,2,0,2,1,3,1,1,1
29776799,23081146,34.0356458,108.7574287,-0.21396,-0.274947,-0.123552,-0.213687,-0.0609216,0.0,0.0376809,-0.000186424,0.0754781,-0.00420411,-0.276759,-0.0866114,-0.00817516,0.298182,-3.4406,2.5331,-1.54718,0.00290796,420.558,0.124122,0.302795,0.394788,0.158351,0.113121,inf,inf,inf,inf,1,1,1,1,2,0,2,1,3,1,1,1
29876236,23081146,34.0356458,108.7574287,-0.219071,-0.277095,-0.125217,-0.213687,-0.0609216,0.0,0.0414416,-0.00831388,0.081942,0.00158722,-0.276759,-0.0866114,-0.00817516,0.910559,-1.99452,1.27849,-1.54713,0.00290796,420.558,0.125787,0.312437,0.396507,0.164213,0.114928,inf,inf,inf,inf,1,1,1,1,2,0,2,1,3,1,1,1
29975483,23081146,34.0356458,108.7574287,-0.223769,-0.278416,-0.126473,-0.213687,-0.0609216,0.0,0.045751,0.0208446,0.064319,-0.0162525,-0.276759,-0.0866114,-0.00817516,0.875616,1.6557,-1.03952,-1.54697,0.00290796,420.558,0.127043,0.301671,0.393702,0.156109,0.113001,inf,inf,inf,inf,1,1,1,1,2,0,2,1,3,1,1,1
30074826,23081146,34.0356458,108.7574287,-0.227899,-0.280258,-0.126957,-0.213687,-0.0609216,0.0,0.0510293,0.00335063,0.073724,-0.00625963,-0.276759,-0.0866114,-0.00817516,3.00559,-0.490073,0.488905,-1.54726,0.00290796,420.558,0.127527,0.311243,0.397999,0.161785,0.115008,inf,inf,inf,inf,1,1,1,1,2,0,2,1,3,1,1,1
30174331,23081146,34.0356458,108.7574287,-0.232206,-0.281927,-0.129892,-0.213687,-0.0609216,0.0,0.0526733,0.0377329,0.0669818,-0.0149932,-0.276759,-0.0866114,-0.00817516,-0.0679786,4.81321,-3.77499,-1.54645,0.00290796,420.558,0.130462,0.300592,0.395171,0.154058,0.113089,inf,inf,inf,inf,1,1,1,1,2,0,2,1,3,1,1,1
30273510,23081146,34.0356458,108.7574287,-0.2366,-0.284524,-0.133268,-0.213687,-0.0609216,0.0,0.0475226,-0.00528498,0.0744566,-0.00926672,-0.276759,-0.0866114,-0.00817516,0.0525384,-3.23252,2.06581,-1.54737,0.00290796,420.558,0.133839,0.310094,0.396968,0.15962,0.114819,inf,inf,inf,inf,1,1,1,1,2,0,2,1,3,1,1,0
30382786,23081146,34.0356458,108.7574287,-0.243087,-0.289401,-0.13332,-0.213687,-0.0609216,0.0,0.0441419,0.0126555,0.0711348,-0.0100187,-0.276759,-0.0866114,-0.00817516,-0.0475507,-1.73454,2.11593,-1.55041,0.00290796,420.558,0.13389,0.300433,0.394816,0.152738,0.113105,inf,inf,inf,inf,1,1,1,1,2,0,2,1,3,1,1,0
30482129,23081146,34.0356458,108.7574287,-0.247101,-0.292934,-0.130936,-0.213687,-0.0609216,0.0,0.0676018,0.0181855,0.0701192,-0.00721915,-0.276759,-0.0866114,-0.00817516,-0.246732,1.41804,-1.27165,-1.5507,0.00290796,420.558,0.131506,0.309934,0.396635,0.15826,0.114832,inf,inf,inf,inf,1,1,1,1,2,0,2,1,3,1,1,0
30581470,23081146,34.0356458,108.7574287,-0.252338,-0.296066,-0.131392,-0.213687,-0.0609216,0.0,0.0575944,0.0111121,0.0729553,-0.00374691,-0.276759,-0.0866114,-0.00817516,0.19465,-1.20196,2.19187,-1.5481,0.00290796,420.558,0.131962,0.299389,0.393807,0.151068,0.112868,inf,inf,inf,inf,1,1,1,1,2,0,2,1,3,1,1,0
30680862,23081146,34.0356458,108.7574287,-0.258183,-0.29897,-0.132648,-0.213687,-0.0609216,0.0,0.0407698,0.0120415,0.0583584,-0.0178066,-0.276759,-0.0866114,-0.00817516,-1.92023,-1.29883,-0.525675,-1.54662,0.00290796,420.558,0.133219,0.308821,0.398203,0.1565,0.114833,inf,inf,inf,inf,1,1,1,1,2,0,2,1,3,1,1,0
30780155,23081146,34.0356458,108.7574287,-0.264032,-0.301367,-0.132053,-0.213687,-0.0609216,0.0,0.0464484,0.0282908,0.0578109,-0.015922,-0.276759,-0.0866114,-0.00817516,0.358504,0.366105,-0.455045,-1.54553,0.00290796,420.558,0.132623,0.298279,0.395334,0.149503,0.112867,inf,inf,inf,inf,1,1,1,1,2,0,2,1,3,1,1,0
30879497,23081146,34.0356458,108.7574287,-0.268529,-0.304007,-0.129604,-0.213687,-0.0609216,0.0,0.0645569,0.0102125,0.0725165,0.00236678,-0.276759,-0.0866114,-0.00817516,0.410954,-3.26803,3.24029,-1.54244,0.00290796,420.558,0.130174,0.307636,0.397225,0.154883,0.114547,inf,inf,inf,inf,1,1,1,1,2,0,2,1,3,1,1,0
30978992,23081146,34.0356458,108.7574287,-0.273323,-0.30692,-0.12646,-0.213687,-0.0609216,0.0,0.077152,0.0339393,0.061824,-0.00497328,-0.276759,-0.0866114,-0.00817516,1.72959,2.30272,-1.92353,-1.54188,0.00290796,420.558,0.12703,0.297298,0.394386,0.148228,0.112585,inf,inf,inf,inf,1,1,1,1,2,0,2,1,3,1,1,0
31083151,23081146,34.0356458,108.7574287,-0.275153,-0.308764,-0.123918,-0.213687,-0.0609216,0.0,0.0785684,0.0228692,0.0709476,0.00582363,-0.276759,-0.0866114,-0.00817516,-0.157909,0.795328,-0.239327,-1.54263,0.00290796,420.558,0.124488,0.306595,0.396287,0.153553,0.114228,inf,inf,inf,inf,1,1,1,1,2,0,2,1,3,1,1,0
31182491,23081146,34.0356458,108.7574287,-0.278067,-0.312256,-0.122039,-0.213687,-0.0609216,0.0,0.0796934,0.0207113,0.0669349,0.0034007,-0.276759,-0.0866114,-0.00817516,2.43677,-0.589919,-0.128919,-1.54174,0.00290796,420.558,0.122609,0.296153,0.393452,0.147004,0.112264,inf,inf,inf,inf,1,1,1,1,2,0,2,1,3,1,1,0
31281833,23081146,34.0356458,108.7574287,-0.281951,-0.31689,-0.12192,-0.213687,-0.0609216,0.0,0.0825082,0.0320812,0.0712494,0.00759671,-0.276759,-0.0866114,-0.00817516,-0.459627,0.249167,0.98863,-1.5411,0.00290796,420.558,0.12249,0.305375,0.395367,0.15235,0.11391,inf,inf,inf,inf,1,1,1,1,2,0,2,1,3,1,1,0
31381175,23081146,34.0356458,108.7574287,-0.286446,-0.321973,-0.1231,-0.213687,-0.0609216,0.0,0.0727888,0.0220696,0.0657426,0.000822478,-0.276759,-0.0866114,-0.00817516,-0.718791,-1.9293,0.996811,-1.53826,0.00290796,420.558,0.12367,0.295195,0.392578,0.14612,0.11197,inf,inf,inf,inf,1,1,1,1,2,0,2,1,3,1,1,0
31480517,23081146,34.0356458,108.7574287,-0.290591,-0.326579,-0.124802,-0.213687,-0.0609216,0.0,0.060488,0.0279695,0.0596639,-0.00637646,-0.276759,-0.0866114,-0.00817516,0.154559,3.12976,-1.65589,-1.53723,0.00290796,420.558,0.125372,0.30437,0.397026,0.151406,0.113854,inf,inf,inf,inf,1,1,1,1,2,0,2,1,3,1,1,0
31579900,23081146,34.0356458,108.7574287,-0.296549,-0.330634,-0.12627,-0.213687,-0.0609216,0.0,0.0748958,0.0291383,0.0653733,-0.0014195,-0.276759,-0.0866114,-0.00817516,0.390879,0.392534,0.804604,-1.53561,0.00290796,420.558,0.12684,0.294287,0.394185,0.145352,0.11191,inf,inf,inf,inf,1,1,1,1,2,0,2,1,3,1,1,0
31679202,23081146,34.0356458,108.7574287,-0.298979,-0.333218,-0.126788,-0.213687,-0.0609216,0.0,0.0946475,0.033839,0.0687063,0.00137475,-0.276759,-0.0866114,-0.00817516,0.158495,0.288138,-0.0347174,-1.53384,0.00290796,420.558,0.127358,0.30342,0.396114,0.150668,0.1135,inf,inf,inf,inf,1,1,1,1,2,0,2,1,3,1,1,0
31778659,23081146,34.0356458,108.7574287,-0.302443,-0.335689,-0.127938,-0.213687,-0.0609216,0.0,0.112924,0.0417137,0.074526,0.00542098,-0.276759,-0.0866114,-0.00817516,1.30762,2.31693,-0.108527,-1.53051,0.00290796,420.558,0.128508,0.293394,0.393295,0.144695,0.111537,inf,inf,inf,inf,1,1,1,1,2,0,2,1,3,1,1,0
31882853,23081146,34.0356458,108.7574287,-0.304062,-0.337249,-0.128165,-0.213687,-0.0609216,0.0,0.110053,0.0289567,0.0796698,0.00958374,-0.276759,-0.0866114,-0.00817516,-0.432477,-1.72635,1.85356,-1.53023,0.00290796,420.558,0.128735,0.302488,0.395222,0.149979,0.113085,inf,inf,inf,inf,1,1,1,1,2,0,2,1,3,1,1,0
31982201,23081146,34.0356458,108.7574287,-0.306246,-0.339847,-0.127543,-0.213687,-0.0609216,0.0,0.134527,0.0241436,0.087118,0.0172821,-0.276759,-0.0866114,-0.00817516,0.869028,-2.02039,1.83179,-1.53046,0.00290796,420.558,0.128113,0.292513,0.392424,0.144309,0.111179,inf,inf,inf,inf,1,1,1,1,2,0,2,1,3,1,1,0
32076574,23081146,34.0356458,108.7574287,-0.303908,-0.34129,-0.124944,-0.213687,-0.0609216,0.0,0.159892,0.049161,0.0815076,0.0129897,-0.276759,-0.0866114,-0.00817516,0.112528,2.47707,-1.27551,-1.52995,0.00290796,420.558,0.125514,0.300643,0.396185,0.149084,0.112792,inf,inf,inf,inf,1,1,1,1,2,0,2,1,3,1,1,0
32175912,23081146,34.0356458,108.7574287,-0.301799,-0.34364,-0.121658,-0.213687,-0.0609216,0.0,0.160145,0.04129,0.0916182,0.0248951,-0.276759,-0.0866114,-0.00817516,-0.932474,-1.02583,0.93879,-1.53106,0.00290796,420.558,0.122228,0.290775,0.393381,0.143349,0.110862,inf,inf,inf,inf,1,1,1,1,2,0,2,1,3,1,1,0
32275274,23081146,34.0356458,108.7574287,-0.301457,-0.346001,-0.118824,-0.213687,-0.0609216,0.0,0.126084,0.045046,0.0613852,-0.00311349,-0.276759,-0.0866114,-0.00817516,0.573821,1.89314,-0.85642,-1.53396,0.00290796,420.558,0.119394,0.299751,0.395336,0.148824,0.112418,inf,inf,inf,inf,1,1,1,1,2,0,2,1,3,1,1,0
32374597,23081146,34.0356458,108.7574287,-0.305081,-0.349677,-0.116875,-0.213687,-0.0609216,0.0,0.095649,0.0338201,0.0452332,-0.0164403,-0.276759,-0.0866114,-0.00817516,-0.0219141,0.563495,-0.954547,-1.53584,0.00290796,420.558,0.117445,0.289921,0.39256,0.143165,0.110513,inf,inf,inf,inf,1,1,1,1,2,0,2,1,3,1,1,0
32473939,23081146,34.0356458,108.7574287,-0.309611,-0.353057,-0.116674,-0.213687,-0.0609216,0.0,0.0931507,0.0448796,0.050748,-0.00922182,-0.276759,-0.0866114,-0.00817516,0.96281,-0.358367,-0.0616174,-1.53726,0.00290796,420.558,0.117244,0.298876,0.394518,0.148618,0.112058,inf,inf,inf,inf,1,1,1,1,2,0,2,1,3,1,1,0
32583317,23081146,34.0356458,108.7574287,-0.315004,-0.357174,-0.116997,-0.213687,-0.0609216,0.0,0.111778,0.0408716,0.0549383,-0.00418811,-0.276759,-0.0866114,-0.00817516,1.08465,2.04072,-1.21103,-1.53116,0.00290796,420.558,0.117567,0.289946,0.392448,0.143537,0.110369,inf,inf,inf,inf,1,1,1,1,2,0,2,1,3,1,1,0
32682558,23081146,34.0356458,108.7574287,-0.317157,-0.359175,-0.115952,-0.213687,-0.0609216,0.0,0.131841,0.0390686,0.0664067,0.00842489,-0.276759,-0.0866114,-0.00817516,1.54445,-0.467773,-1.15286,-1.52755,0.00290796,420.558,0.116522,0.298946,0.394406,0.148944,0.111863,inf,inf,inf,inf,1,1,1,1,2,0,2,1,3,1,1,0
32781900,23081146,34.0356458,108.7574287,-0.318876,-0.362178,-0.113405,-0.213687,-0.0609216,0.0,0.161519,0.0480769,0.0734754,0.0170037,-0.276759,-0.0866114,-0.00817516,0.290408,1.21487,-0.946681,-1.52353,0.00290796,420.558,0.113976,0.28915,0.394125,0.143333,0.110238,inf,inf,inf,inf,1,1,1,1,2,0,2,1,3,1,1,0
32881242,23081146,34.0356458,108.7574287,-0.317718,-0.363046,-0.110517,-0.213687,-0.0609216,0.0,0.165162,0.0514038,0.076477,0.0208524,-0.276759,-0.0866114,-0.00817516,-1.3983,2.92163,-1.82402,-1.52452,0.00290796,420.558,0.111087,0.298136,0.396117,0.14865,0.111703,inf,inf,inf,inf,1,1,1,1,2,0,2,1,3,1,1,0
32980592,23081146,34.0356458,108.7574287,-0.32012,-0.36496,-0.109153,-0.213687,-0.0609216,0.0,0.15934,0.0443563,0.0720325,0.0158918,-0.276759,-0.0866114,-0.00817516,0.748127,2.10095,-2.0848,-1.52553,0.00290796,420.558,0.109723,0.28836,0.393328,0.143114,0.109816,inf,inf,inf,inf,1,1,1,1,2,0,2,1,3,1,1,0
33079927,23081146,34.0356458,108.7574287,-0.321731,-0.366861,-0.110177,-0.213687,-0.0609216,0.0,0.163023,0.0432225,0.0709111,0.0120627,-0.276759,-0.0866114,-0.00817516,-0.577361,1.36085,-2.32812,-1.52669,0.00290796,420.558,0.110747,0.297336,0.395297,0.148512,0.111275,inf,inf,inf,inf,1,1,1,1,2,0,2,1,3,1,1,0
33174302,23081146,34.0356458,108.7574287,-0.321464,-0.367576,-0.111796,-0.213687,-0.0609216,0.0,0.167627,0.0415762,0.0805867,0.0183773,-0.276759,-0.0866114,-0.00817516,0.164904,-0.510982,1.08482,-1.52833,0.00290796,420.558,0.112366,0.286537,0.391825,0.1423,0.109178,inf,inf,inf,inf,1,1,1,1,2,0,2,1,3,1,1,0
33283578,23081146,34.0356458,108.7574287,-0.32487,-0.369428,-0.113264,-0.213687,-0.0609216,0.0,0.157158,0.0401139,0.0862262,0.0215536,-0.276759,-0.0866114,-0.00817516,1.53385,-3.44941,2.74683,-1.5291,0.00290796,420.558,0.113834,0.296347,0.394474,0.148224,0.110819,inf,inf,inf,inf,1,1,1,1,2,0,2,1,3,1,1,0
33373018,23081146,34.0356458,108.7574287,-0.329193,-0.37224,-0.113821,-0.213687,-0.0609216,0.0,0.158349,0.0397064,0.0716961,0.0060409,-0.276759,-0.0866114,-0.00817516,1.53368,-1.18891,-0.56577,-1.52685,0.00290796,420.558,0.114391,0.285805,0.393513,0.142479,0.109074,inf,inf,inf,inf,1,1,1,1,2,0,2,1,3,1,1,0
33477297,23081146,34.0356458,108.7574287,-0.331299,-0.374672,-0.113885,-0.213687,-0.0609216,0.0,0.167038,0.0472141,0.0779908,0.0114217,-0.276759,-0.0866114,-0.00817516,-0.12437,-3.62362,2.5887,-1.5269,0.00290796,420.558,0.114455,0.294698,0.395492,0.147967,0.110518,inf,inf,inf,inf,1,1,1,1,2,0,2,1,3,1,1,0
33576641,23081146,34.0356458,108.7574287,-0.334687,-0.377267,-0.112616,-0.213687,-0.0609216,0.0,0.158267,0.0421343,0.071066,0.00540431,-0.276759,-0.0866114,-0.00817516,0.231108,-0.0578879,0.810614,-1.52813,0.00290796,420.558,0.113186,0.285084,0.39273,0.142469,0.108669,inf,inf,inf,inf,1,1,1,1,2,0,2,1,3,1,1,0
33676164,23081146,34.0356458,108.7574287,-0.338117,-0.379214,-0.112684,-0.213687,-0.0609216,0.0,0.145751,0.0346552,0.0651787,-0.000578996,-0.276759,-0.0866114,-0.00817516,-2.62056,-0.644684,-1.1275,-1.53045,0.00290796,420.558,0.113254,0.293987,0.394676,0.148145,0.110104,inf,inf,inf,inf,1,1,1,1,2,0,2,1,3,1,1,0
33775322,23081146,34.0356458,108.7574287,-0.342687,-0.380356,-0.112809,-0.213687,-0.0609216,0.0,0.14885,0.0652447,0.0622882,-0.00344387,-0.276759,-0.0866114,-0.00817516,0.38051,1.72712,-1.16736,-1.53029,0.00290796,420.558,0.113379,0.284401,0.391926,0.142744,0.108283,inf,inf,inf,inf,1,1,1,1,2,0,2,1,3,1,1,0
33874664,23081146,34.0356458,108.7574287,-0.346571,-0.380087,-0.115017,-0.213687,-0.0609216,0.0,0.142092,0.0389829,0.0645091,-0.00326295,-0.276759,-0.0866114,-0.00817516,-0.507085,-0.418839,-0.401801,-1.52885,0.00290796,420.558,0.115587,0.293313,0.393856,0.148185,0.109671,inf,inf,inf,inf,1,1,1,1,2,0,2,1,3,1,1,0
33983960,23081146,34.0356458,108.7574287,-0.35341,-0.380994,-0.117853,-0.213687,-0.0609216,0.0,0.130176,0.0621791,0.0576124,-0.012134,-0.276759,-0.0866114,-0.00817516,-0.23589,2.79247,-1.48823,-1.52691,0.00290796,420.558,0.118424,0.284677,0.39182,0.143334,0.108069,inf,inf,inf,inf,1,1,1,1,2,0,2,1,3,1,1,0
34073349,23081146,34.0356458,108.7574287,-0.358333,-0.379619,-0.120478,-0.213687,-0.0609216,0.0,0.12009,0.0445738,0.0568795,-0.0145533,-0.276759,-0.0866114,-0.00817516,0.0540194,-2.423,1.58335,-1.5297,0.00290796,420.558,0.121048,0.292743,0.395569,0.148267,0.109535,inf,inf,inf,inf,1,1,1,1,2,0,2,1,3,1,1,0
34182660,23081146,34.0356458,108.7574287,-0.366545,-0.381247,-0.124638,-0.213687,-0.0609216,0.0,0.132646,0.0669671,0.0566135,-0.0175879,-0.276759,-0.0866114,-0.00817516,-1.09934,0.0116689,0.0332191,-1.52267,0.00290796,420.558,0.125208,0.284024,0.393505,0.143375,0.107935,inf,inf,inf,inf,1,1,1,1,2,0,2,1,3,1,1,0
34282009,23081146,34.0356458,108.7574287,-0.372675,-0.381488,-0.12799,-0.213687,-0.0609216,0.0,0.13273,0.0650843,0.065416,-0.0111628,-0.276759,-0.0866114,-0.00817516,0.959121,0.454985,-0.0865098,-1.51917,0.00290796,420.558,0.12856,0.293029,0.395451,0.148836,0.109296,inf,inf,inf,inf,1,1,1,1,2,0,2,1,3,1,1,0
34381310,23081146,34.0356458,108.7574287,-0.379562,-0.383978,-0.129234,-0.213687,-0.0609216,0.0,0.151191,0.0527894,0.0796311,0.0025575,-0.276759,-0.0866114,-0.00817516,-1.31433,1.31522,-0.432492,-1.51286,0.00290796,420.558,0.129804,0.283402,0.392697,0.143246,0.107506,inf,inf,inf,inf,1,1,1,1,2,0,2,1,3,1,1,0
34480827,23081146,34.0356458,108.7574287,-0.382399,-0.385943,-0.129124,-0.213687,-0.0609216,0.0,0.180703,0.0621164,0.0873561,0.0104903,-0.276759,-0.0866114,-0.00817516,1.95013,-1.33032,2.63079,-1.50552,0.00290796,420.558,0.129694,0.292417,0.394623,0.148733,0.108863,inf,inf,inf,inf,1,1,1,1,2,0,2,1,3,1,1,0
34575028,23081146,34.0356458,108.7574287,-0.382571,-0.386446,-0.126523,-0.213687,-0.0609216,0.0,0.220303,0.0667513,0.105176,0.0292241,-0.276759,-0.0866114,-0.00817516,2.52165,-0.982314,0.814216,-1.50134,0.00290796,420.558,0.127093,0.281939,0.393687,0.142714,0.107193,inf,inf,inf,inf,1,1,1,1,2,0,2,1,3,1,1,0
34684304,23081146,34.0356458,108.7574287,-0.377718,-0.387446,-0.119866,-0.213687,-0.0609216,0.0,0.270428,0.05787,0.12314,0.0504716,-0.276759,-0.0866114,-0.00817516,1.51263,-0.498097,1.17027,-1.49845,0.00290796,420.558,0.120436,0.291834,0.393797,0.148864,0.108474,inf,inf,inf,inf,1,1,1,1,2,0,2,1,3,1,1,0
34773750,23081146,34.0356458,108.7574287,-0.372184,-0.388029,-0.116066,-0.213687,-0.0609216,0.0,0.223714,0.0919095,0.0648176,-0.00784564,-0.276759,-0.0866114,-0.00817516,-4.90931,3.57557,-4.58387,-1.50175,0.00290796,420.558,0.116636,0.281364,0.392889,0.142723,0.106822,inf,inf,inf,inf,1,1,1,1,2,0,2,1,3,1,1,0
34882999,23081146,34.0356458,108.7574287,-0.373104,-0.386274,-0.115705,-0.213687,-0.0609216,0.0,0.187184,0.0507259,0.0920318,0.0192329,-0.276759,-0.0866114,-0.00817516,-0.0194584,-3.12427,1.26843,-1.50921,0.00290796,420.558,0.116275,0.291275,0.395501,0.148631,0.108354,inf,inf,inf,inf,1,1,1,1,2,0,2,1,3,1,1,0
34972410,23081146,34.0356458,108.7574287,-0.37589,-0.390503,-0.115047,-0.213687,-0.0609216,0.0,0.154177,0.0428772,0.065232,-0.00624486,-0.276759,-0.0866114,-0.00817516,2.97197,2.82736,-1.95875,-1.5134,0.00290796,420.558,0.115617,0.280808,0.3921,0.142868,0.106414,inf,inf,inf,inf,1,1,1,1,2,0,2,1,3,1,1,0
35076703,23081146,34.0356458,108.7574287,-0.376966,-0.395663,-0.114295,-0.213687,-0.0609216,0.0,0.151659,0.0629501,0.0673375,-0.00292854,-0.276759,-0.0866114,-0.00817516,-0.99237,0.938454,-1.38005,-1.52293,0.00290796,420.558,0.114865,0.289804,0.393996,0.148352,0.107713,inf,inf,inf,inf,1,1,1,1,2,0,2,1,3,1,1,0
35176048,23081146,34.0356458,108.7574287,-0.378168,-0.398593,-0.113794,-0.213687,-0.0609216,0.0,0.148413,0.0475898,0.0553625,-0.0139338,-0.276759,-0.0866114,-0.00817516,1.07398,1.4967,-2.47709,-1.5281,0.00290796,420.558,0.114364,0.28006,0.391299,0.142583,0.105954,inf,inf,inf,inf,1,1,1,1,2,0,2,1,3,1,1,0
35275505,23081146,34.0356458,108.7574287,-0.383523,-0.40339,-0.115812,-0.213687,-0.0609216,0.0,0.139503,0.0591025,0.0610178,-0.00923509,-0.276759,-0.0866114,-0.00817516,0.358275,0.898926,-0.396843,-1.52786,0.00290796,420.558,0.116382,0.289054,0.393183,0.14831,0.107283,inf,inf,inf,inf,1,1,1,1,2,0,2,1,3,1,1,0
35374732,23081146,34.0356458,108.7574287,-0.389402,-0.404372,-0.11822,-0.213687,-0.0609216,0.0,0.150103,0.0501981,0.0657317,-0.00584023,-0.276759,-0.0866114,-0.00817516,1.12028,0.812553,0.216691,-1.52786,0.00290796,420.558,0.11879,0.279531,0.392986,0.142757,0.105852,inf,inf,inf,inf,1,1,1,1,2,0,2,1,3,1,1,0
35474122,23081146,34.0356458,108.7574287,-0.393745,-0.40362,-0.12103,-0.213687,-0.0609216,0.0,0.169761,0.0656426,0.0675145,-0.0059239,-0.276759,-0.0866114,-0.00817516,1.80868,1.61784,-1.68513,-1.52126,0.00290796,420.558,0.1216,0.288542,0.394885,0.148173,0.107149,inf,inf,inf,inf,1,1,1,1,2,0,2,1,3,1,1,0
35583351,23081146,34.0356458,108.7574287,-0.397429,-0.401718,-0.123153,-0.213687,-0.0609216,0.0,0.182416,0.0699245,0.079203,0.00392581,-0.276759,-0.0866114,-0.00817516,0.78208,-0.782003,1.02914,-1.51488,0.00290796,420.558,0.123723,0.279863,0.392883,0.143138,0.105645,inf,inf,inf,inf,1,1,1,1,2,0,2,1,3,1,1,0
35672759,23081146,34.0356458,108.7574287,-0.398794,-0.399698,-0.123026,-0.213687,-0.0609216,0.0,0.186014,0.0588088,0.0840459,0.00899757,-0.276759,-0.0866114,-0.00817516,1.08519,-1.88344,1.91212,-1.51304,0.00290796,420.558,0.123597,0.288012,0.394065,0.147961,0.106746,inf,inf,inf,inf,1,1,1,1,2,0,2,1,3,1,1,0
35782036,23081146,34.0356458,108.7574287,-0.401102,-0.399391,-0.123025,-0.213687,-0.0609216,0.0,0.166436,0.0575422,0.0707539,-0.003834,-0.276759,-0.0866114,-0.00817516,0.247649,1.88936,-0.3014,-1.51521,0.00290796,420.558,0.123595,0.279339,0.392067,0.142814,0.105255,inf,inf,inf,inf,1,1,1,1,2,0,2,1,3,1,1,0
35881378,23081146,34.0356458,108.7574287,-0.402372,-0.398566,-0.122016,-0.213687,-0.0609216,0.0,0.17164,0.063935,0.0662524,-0.0068806,-0.276759,-0.0866114,-0.00817516,1.09754,1.99346,-0.943145,-1.52242,0.00290796,420.558,0.122586,0.288436,0.393919,0.148273,0.106522,inf,inf,inf,inf,1,1,1,1,2,0,2,1,3,1,1,0
35980720,23081146,34.0356458,108.7574287,-0.404919,-0.398637,-0.121133,-0.213687,-0.0609216,0.0,0.157324,0.0525196,0.0575179,-0.0140764,-0.276759,-0.0866114,-0.00817516,-0.772121,0.921986,-1.51179,-1.52497,0.00290796,420.558,0.121703,0.278698,0.391237,0.142575,0.10485,inf,inf,inf,inf,1,1,1,1,2,0,2,1,3,1,1,0
36080165,23081146,34.0356458,108.7574287,-0.408722,-0.398686,-0.120715,-0.213687,-0.0609216,0.0,0.143754,0.0705288,0.0627089,-0.00741793,-0.276759,-0.0866114,-0.00817516,0.959017,1.61198,-1.14275,-1.5269,0.00290796,420.558,0.121285,0.287793,0.395569,0.147982,0.106382,inf,inf,inf,inf,1,1,1,1,2,0,2,1,3,1,1,0
36179407,23081146,34.0356458,108.7574287,-0.4122,-0.398558,-0.118781,-0.213687,-0.0609216,0.0,0.153943,0.0628019,0.07232,0.00467196,-0.276759,-0.0866114,-0.00817516,0.838098,0.0811109,-0.261206,-1.52467,0.00290796,420.558,0.119351,0.278079,0.39287,0.142361,0.104719,inf,inf,inf,inf,1,1,1,1,2,0,2,1,3,1,1,0
36278747,23081146,34.0356458,108.7574287,-0.414284,-0.399112,-0.115522,-0.213687,-0.0609216,0.0,0.158262,0.0721041,0.0711923,0.00681901,-0.276759,-0.0866114,-0.00817516,0.731536,1.80517,-0.97849,-1.51946,0.00290796,420.558,0.116092,0.287175,0.394712,0.147684,0.105969,inf,inf,inf,inf,1,1,1,1,2,0,2,1,3,1,1,0
36373127,23081146,34.0356458,108.7574287,-0.415788,-0.39862,-0.112223,-0.213687,-0.0609216,0.0,0.162492,0.0836655,0.0737816,0.0116319,-0.276759,-0.0866114,-0.00817516,-0.875672,0.552005,-2.22139,-1.5174,0.00290796,420.558,0.112793,0.276609,0.39136,0.141489,0.104147,inf,inf,inf,inf,1,1,1,1,2,0,2,1,3,1,1,0
36482399,23081146,34.0356458,108.7574287,-0.418938,-0.398937,-0.110013,-0.213687,-0.0609216,0.0,0.162295,0.0587715,0.0709583,0.00980322,-0.276759,-0.0866114,-0.00817516,-2.17935,-0.160453,-0.854426,-1.51519,0.00290796,420.558,0.110583,0.286579,0.39385,0.147363,0.105575,inf,inf,inf,inf,1,1,1,1,2,0,2,1,3,1,1,0
36571807,23081146,34.0356458,108.7574287,-0.42249,-0.400836,-0.110479,-0.213687,-0.0609216,0.0,0.159642,0.0650434,0.0753345,0.0128198,-0.276759,-0.0866114,-0.00817516,-0.802629,0.879336,0.704217,-1.51659,0.00290796,420.558,0.111049,0.276127,0.390541,0.141631,0.103809,inf,inf,inf,inf,1,1,1,1,2,0,2,1,3,1,1,0
36676116,23081146,34.0356458,108.7574287,-0.425163,-0.403063,-0.112695,-0.213687,-0.0609216,0.0,0.141884,0.0480947,0.0600461,-0.0051522,-0.276759,-0.0866114,-0.00817516,-0.663899,-1.84572,1.62806,-1.51992,0.00290796,420.558,0.113265,0.285182,0.394824,0.146886,0.105307,inf,inf,inf,inf,1,1,1,1,2,0,2,1,3,1,1,0
36775459,23081146,34.0356458,108.7574287,-0.42966,-0.406888,-0.114846,-0.213687,-0.0609216,0.0,0.131793,0.0565692,0.0552577,-0.0110732,-0.276759,-0.0866114,-0.00817516,-1.2076,0.589483,-1.35158,-1.52233,0.00290796,420.558,0.115416,0.275654,0.392181,0.141381,0.103698,inf,inf,inf,inf,1,1,1,1,2,0,2,1,3,1,1,0
36874844,23081146,34.0356458,108.7574287,-0.433543,-0.409741,-0.116063,-0.213687,-0.0609216,0.0,0.131241,0.0637923,0.0637606,-0.00269618,-0.276759,-0.0866114,-0.00817516,-0.539608,0.724528,-0.953049,-1.52459,0.00290796,420.558,0.116633,0.284727,0.393989,0.147107,0.104934,inf,inf,inf,inf,1,1,1,1,2,0,2,1,3,1,1,0
36984078,23081146,34.0356458,108.7574287,-0.438751,-0.411637,-0.116925,-0.213687,-0.0609216,0.0,0.150132,0.0598811,0.0686612,0.00177663,-0.276759,-0.0866114,-0.00817516,1.23614,-0.11288,-0.24045,-1.51787,0.00290796,420.558,0.117495,0.276068,0.392045,0.142048,0.103529,inf,inf,inf,inf,1,1,1,1,2,0,2,1,3,1,1,0
37073486,23081146,34.0356458,108.7574287,-0.441575,-0.41252,-0.117483,-0.213687,-0.0609216,0.0,0.159154,0.0651863,0.0724033,0.00471733,-0.276759,-0.0866114,-0.00817516,2.26421,-0.0938924,-0.844031,-1.50984,0.00290796,420.558,0.118053,0.284271,0.393173,0.146773,0.10457,inf,inf,inf,inf,1,1,1,1,2,0,2,1,3,1,1,0
37173018,23081146,34.0356458,108.7574287,-0.443887,-0.412092,-0.117402,-0.213687,-0.0609216,0.0,0.138343,0.0790817,0.0609985,-0.00679537,-0.276759,-0.0866114,-0.00817516,-0.993888,0.74546,-0.86336,-1.50281,0.00290796,420.558,0.117972,0.274635,0.390569,0.141001,0.102997,inf,inf,inf,inf,1,1,1,1,2,0,2,1,3,1,1,0
37277137,23081146,34.0356458,108.7574287,-0.448831,-0.411077,-0.117318,-0.213687,-0.0609216,0.0,0.137165,0.0555229,0.0657491,-0.00188523,-0.276759,-0.0866114,-0.00817516,3.93981,0.0537757,1.83786,-1.49852,0.00290796,420.558,0.117888,0.283709,0.392342,0.146222,0.104202,inf,inf,inf,inf,1,1,1,1,2,0,2,1,3,1,1,0
37376482,23081146,34.0356458,108.7574287,-0.452804,-0.410805,-0.116495,-0.213687,-0.0609216,0.0,0.15769,0.0637063,0.0726382,0.00586794,-0.276759,-0.0866114,-0.00817516,1.28154,-1.71616,2.05057,-1.48918,0.00290796,420.558,0.117065,0.274216,0.389776,0.14106,0.102663,inf,inf,inf,inf,1,1,1,1,2,0,2,1,3,1,1,0
37475822,23081146,34.0356458,108.7574287,-0.455351,-0.408892,-0.113865,-0.213687,-0.0609216,0.0,0.155127,0.0722001,0.0709006,0.00616098,-0.276759,-0.0866114,-0.00817516,-0.0941473,0.220667,-1.49339,-1.48198,0.00290796,420.558,0.114435,0.28331,0.394019,0.14626,0.104131,inf,inf,inf,inf,1,1,1,1,2,0,2,1,3,1,1,0
