timestamp,timestamp_sample,accel_device_id,gyro_device_id,delta_angle[0],delta_angle[1],delta_angle[2],delta_velocity[0],delta_velocity[1],delta_velocity[2],delta_angle_dt,delta_velocity_dt,delta_velocity_clipping
17677061,17676926,4259850,4325386,0.000101515,1.23188e-05,-0.000213641,0.00250793,0.00106548,-0.0478749,4987,4991,0
17682418,17682207,4259850,4325386,6.91837e-06,-6.54208e-05,-0.000291663,0.000352784,-0.000601815,-0.0568893,5281,5806,0
18180824,18180712,4259850,4325386,-8.84697e-05,0.000408832,-0.000277494,0.000737814,-0.00138398,-0.0439891,4988,4954,0
18679698,18679580,4259850,4325386,0.000111907,0.000496282,0.000257624,0.00981677,-0.000727822,-0.0434968,4945,4958,0
19183627,19183497,4259850,4325386,-0.000533348,-4.05713e-05,-9.76957e-05,-0.00485618,0.0068986,-0.0491985,4966,4964,0
19682211,19682092,4259850,4325386,0.00111646,-0.000723651,-7.5426e-05,0.0085112,-0.00178936,-0.0452391,4988,4933,0
20180473,20180344,4259850,4325386,-0.00038848,0.000307437,-0.000472709,0.00416088,0.000602109,-0.0449753,4989,4969,0
20684266,20684133,4259850,4325386,0.000211306,3.91629e-05,0.000281557,0.00392047,-0.000846785,-0.0504412,4987,4940,0
21183044,21182928,4259850,4325386,-0.000652237,0.000327619,9.52789e-05,-0.00349537,0.00254111,-0.0487688,4988,4934,0
21682060,21681941,4259850,4325386,0.000110977,-0.000673939,-0.000678405,0.00179244,-0.000426129,-0.0492814,4967,4934,0
22180379,22180128,4259850,4325386,0.000746817,0.000242809,0.00062136,0.0063673,-0.00962769,-0.059394,4991,5919,0
22679262,22679091,4259850,4325386,-0.000254218,0.000426056,0.000601246,-0.00846661,0.00488159,-0.0484071,5252,4929,0
23182728,23182610,4259850,4325386,0.000622648,-0.000713652,0.000228417,0.0100039,-0.00435167,-0.047007,4988,4970,0
23681090,23680966,4259850,4325386,7.25902e-05,0.000581097,0.000486957,0.00865434,-0.00640956,-0.0452566,5040,4933,0
24184906,24184700,4259850,4325386,-0.000572553,-0.000573664,-0.000188824,-0.00254038,0.00836445,-0.0520582,4992,4930,0
24678634,24678522,4259850,4325386,-7.00091e-05,-0.00139873,0.000342785,0.00175226,-0.00153977,-0.0523073,5003,4887,0
25181910,25181794,4259850,4325386,-0.000901156,-0.000834658,-6.85101e-05,0.00134027,0.00467204,-0.0530055,4988,4975,0
25680928,25680724,4259850,4325386,0.00326667,-0.00240303,-0.00072778,0.0196534,-0.00249102,-0.0499832,4994,5916,0
26179790,26179649,4259850,4325386,-0.000905446,-0.000345599,-0.000737705,-0.00081884,-0.00549477,-0.0480607,5241,4967,0
26683579,26683182,4259850,4325386,-0.00201233,0.00196424,0.000566363,-0.000367267,0.00262682,-0.0545647,4986,4956,0
27182087,27181977,4259850,4325386,0.000160775,-9.57775e-05,-0.000528651,0.00207781,0.0013705,-0.0435213,4953,4934,0
27680704,27680502,4259850,4325386,0.00108099,-0.00240726,-0.000804923,0.0201357,0.0164944,-0.0478522,4987,5853,0
28178494,28178289,4259850,4325386,-0.00109089,-0.000187333,-0.000911095,0.016063,0.0114012,-0.0380813,5000,4933,0
28682011,28681879,4259850,4325386,0.000555455,-0.00213693,-0.000585429,0.0275778,0.00275331,-0.0338604,4956,4964,0
29180805,29180669,4259850,4325386,-0.000355636,-6.36225e-05,0.00117169,0.0125437,0.019496,-0.0423403,4993,4933,0
29679609,29679464,4259850,4325386,0.000312655,0.000372883,-0.000372885,-0.00965669,-0.00739272,-0.0542659,4989,4935,0
30182899,30182751,4259850,4325386,0.000442325,-0.00266935,-0.000560208,0.0254895,0.00709744,-0.0396876,4987,4933,0
30682123,30681558,4259850,4325386,-0.00182271,7.51084e-05,-0.000200878,0.0058193,-0.00915331,-0.0511752,4995,4994,0
31184998,31184847,4259850,4325386,-0.000608825,1.74551e-05,1.84875e-05,0.00567989,0.00289299,-0.0435917,4995,4933,0
31678778,31678650,4259850,4325386,-0.00118147,0.00119097,0.000251773,-0.00460947,0.00374772,-0.0531666,4988,4933,0
32182610,32182440,4259850,4325386,-0.000397958,0.00112396,-0.000497618,-0.0112351,-0.00343471,-0.0566204,4986,4927,0
32681380,32681237,4259850,4325386,-0.000148719,-0.000163178,0.000763305,0.00404906,0.00583595,-0.0528702,4987,4762,0
33180159,33180042,4259850,4325386,0.000161608,0.000252617,0.000817043,-0.00580952,0.0082623,-0.0550324,4991,4943,0
33683505,33683373,4259850,4325386,-0.00154271,0.00110919,0.000272282,-0.00456192,0.00443974,-0.0489754,4988,4698,0
34182354,34182172,4259850,4325386,-0.00180117,0.000727891,0.000331203,-0.00373383,-0.00112318,-0.0619094,4988,5818,0
34686083,34685962,4259850,4325386,0.00345707,-0.000371527,0.000141451,0.00431627,0.00188716,-0.0413928,4989,4934,0
35179894,35179774,4259850,4325386,-0.00131849,0.000553948,-6.71879e-05,0.00315747,0.00143957,-0.0435985,4989,4785,0
35678689,35678571,4259850,4325386,0.000669997,0.000493552,0.000410165,-0.0095168,0.000450116,-0.0510997,4956,4932,0
36182613,36182468,4259850,4325386,0.000214578,0.000497697,-0.000144869,-0.00324484,0.00562657,-0.0521507,4956,4938,0
36681833,36681610,4259850,4325386,-0.000791361,-0.000902467,-0.000826144,-0.00180418,-0.0103348,-0.0335853,4989,3945,0
37180971,37180780,4259850,4325386,0.00111876,5.53105e-05,-0.000737245,-0.00370186,-0.00390922,-0.0449333,4940,4935,0
37684348,37684199,4259850,4325386,0.000197872,0.000507086,0.000670771,-0.0161938,-0.0071087,-0.0518164,4992,4934,0
38182147,38181997,4259850,4325386,0.0014513,-0.000744628,0.000221284,0.0111492,0.00303096,-0.0405901,4974,4967,0
38680909,38680797,4259850,4325386,0.00110464,0.000770746,-0.00183476,0.00371702,0.00265896,-0.0386707,4988,4934,0
39179231,39179110,4259850,4325386,0.000655175,9.46483e-05,-0.000463168,-0.00218738,0.00642539,-0.0561158,4991,4991,0
39682524,39682387,4259850,4325386,0.00174905,-0.00094702,-0.000341503,0.013188,0.00827509,-0.0415184,4984,4975,0
40181309,40181194,4259850,4325386,0.00311994,-0.00148382,-0.000548395,0.0079967,-0.0148212,-0.0483569,4993,4973,0
40680397,40680155,4259850,4325386,-0.00185724,0.000307242,0.000624273,-3.59161e-05,0.00266484,-0.0498855,4959,4976,0
41183984,41183846,4259850,4325386,0.000381535,-0.000694094,-0.000100554,0.00276257,0.0019231,-0.0443067,4989,4932,0
41682718,41682574,4259850,4325386,-0.000297126,-0.000205313,0.000652925,-0.00437625,-0.00225095,-0.0578846,4988,4962,0
42180178,42179961,4259850,4325386,0.0043804,-0.000132582,0.000278987,0.00755057,0.023027,-0.0461009,4964,4934,0
42678800,42678677,4259850,4325386,0.000620936,-0.000494319,-0.00137601,-5.08978e-05,-0.0191864,-0.0500444,4988,4966,0
43182629,43182466,4259850,4325386,0.000138951,-0.000688581,0.000926419,0.00601354,0.00185878,-0.0410969,4987,4939,0
43681643,43681484,4259850,4325386,0.00163142,-0.000791857,-0.000817702,0.00862642,-0.0168505,-0.0361037,4989,4934,0
44180248,44180095,4259850,4325386,-0.00177328,0.000409398,0.000236603,-0.00166633,-0.00691098,-0.0491313,5018,4913,0
44684214,44683856,4259850,4325386,0.00374958,-0.000977216,0.000130867,0.00456198,0.000550529,-0.0462486,4991,4935,0
45182363,45182213,4259850,4325386,0.00116666,-0.000848119,-0.000682297,0.00410079,0.00175813,-0.0420108,4990,4935,0
45681095,45680954,4259850,4325386,-4.77319e-05,-0.000508522,0.000907013,0.000612617,0.00557012,-0.0489592,4986,4967,0
46180397,46180271,4259850,4325386,0.000258987,-0.000155269,-0.000542135,-0.00994909,-0.0217435,-0.0508864,4942,4752,0
46679183,46679054,4259850,4325386,-0.000701433,0.000161872,0.000464153,0.000281908,-0.00076073,-0.0499009,4987,4965,0
47182769,47182346,4259850,4325386,0.00263829,-0.000187661,-4.41727e-05,0.00610607,0.0186671,-0.051168,4991,5920,0
47681402,47681242,4259850,4325386,-0.000336337,0.000439295,-2.31735e-05,-0.00340693,-0.00128596,-0.0464481,4965,4965,0
48180176,48180051,4259850,4325386,0.00107928,0.000657427,0.000834749,-0.00203657,0.0100863,-0.0530238,4991,4934,0
48683843,48683731,4259850,4325386,0.00106786,-0.000668353,-0.000605777,0.00971614,-0.00900228,-0.0422068,4988,4929,0
49177701,49177544,4259850,4325386,-0.000520755,5.56953e-05,-0.000209948,-0.00479185,-0.00290375,-0.0507769,4988,4938,0
49681667,49681554,4259850,4325386,-1.93986e-06,0.00035103,-0.000372636,-0.000202183,-0.00371419,-0.0470755,4926,4926,0
50179763,50179636,4259850,4325386,0.00227855,-0.00047983,-0.00142947,-0.00320388,-0.0275313,-0.0552125,4991,4986,0
50679226,50678954,4259850,4325386,0.00181724,0.000758662,0.000667869,0.000795761,0.00678918,-0.0521256,4955,4955,0
51183337,51183221,4259850,4325386,0.000581319,-0.000822187,-0.000405119,-0.000674685,-0.0156532,-0.0493368,4989,4965,0
51682413,51682193,4259850,4325386,-0.000303708,0.000394087,0.000721737,-0.00220676,0.0129907,-0.0537343,4992,4985,0
52181525,52181413,4259850,4325386,0.000341497,-0.000105855,-0.000275044,-0.00416907,-0.00374277,-0.0527208,5032,4915,0
52680289,52680170,4259850,4325386,-0.000209107,0.000452912,0.000555588,-0.0104469,-0.0101053,-0.0542772,4988,4867,0
53179800,53179658,4259850,4325386,-0.00321112,-0.000284768,0.000672815,0.00185232,0.0228016,-0.0431196,4967,4998,0
53683324,53683210,4259850,4325386,0.00109397,-0.000848625,-0.000376594,0.0108654,-0.0147219,-0.0384595,4991,4963,0
54182181,54182038,4259850,4325386,0.00115502,0.000284302,-0.000216146,-0.00597164,-0.0172874,-0.0509647,4968,4770,0
54681335,54681178,4259850,4325386,-0.000964684,7.12836e-05,-0.000243282,-0.0113124,-0.0182535,-0.0558763,4975,4931,0
55185091,55184601,4259850,4325386,0.000398332,0.00060495,-0.000667384,-0.00280092,-0.0168516,-0.0494949,4991,5574,0
55683515,55683398,4259850,4325386,0.00531094,-0.00188851,-0.000486147,0.00626265,-0.0128125,-0.0412289,4988,4941,0
56177517,56177321,4259850,4325386,2.26452e-05,-0.001212,-0.0012028,-0.00624243,-0.00503257,-0.0496735,4973,4976,0
56681128,56681002,4259850,4325386,-0.00158361,0.00110961,0.000684502,-0.00592314,0.0121793,-0.0571854,4991,4929,0
57179936,57179823,4259850,4325386,0.00407009,-0.000700784,-0.000501739,-0.00028008,-0.00193879,-0.0407709,4987,4963,0
57678819,57678691,4259850,4325386,0.00232745,-0.00108432,-0.0007734,0.00661481,-0.0162616,-0.0382427,4950,4951,0
58182504,58182389,4259850,4325386,0.00149448,-0.000577085,-0.000311372,-0.00257484,-0.00731615,-0.0540258,4988,4953,0
58681398,58681201,4259850,4325386,-0.00188974,0.000911262,0.000833346,0.00255835,0.022225,-0.0526918,4998,4930,0
59185127,59184984,4259850,4325386,-0.00189412,0.000196277,0.000557388,0.000437904,-0.00535899,-0.0535849,4992,4934,0
59678489,59678343,4259850,4325386,0.000436964,-0.000397762,-6.83158e-05,-0.00279657,-0.0118407,-0.0547256,4991,4933,0
60181765,60181587,4259850,4325386,0.000816906,0.00146573,-2.56535e-06,-0.00511596,0.0067182,-0.0576583,4991,4993,0
60680542,60680432,4259850,4325386,0.000607189,8.04834e-05,-0.000122138,-0.00469129,-0.0127304,-0.0524384,4980,4936,0
61179422,61179253,4259850,4325386,0.000175718,-0.000188788,-0.000406321,-0.00946914,-0.02178,-0.0510571,4937,4655,0
61683088,61682973,4259850,4325386,-0.000198831,0.000101241,0.00123177,-0.00255801,0.0023509,-0.0473899,4988,4948,0
62181688,62181507,4259850,4325386,-0.00160111,0.00107521,0.000614382,0.00769706,0.0351241,-0.042516,4719,5060,0
62684496,62684274,4259850,4325386,0.00169931,-0.000332629,-0.00135627,-0.00280723,-0.0183885,-0.0417103,4973,4973,0
63178171,63178008,4259850,4325386,0.00306402,-0.00107389,-0.00104513,0.000935688,-0.0146777,-0.0418548,4984,4946,0
63681783,63681668,4259850,4325386,0.00155859,-0.000239703,-0.000662471,-0.00114239,-0.0143428,-0.0425815,4987,4934,0
64180769,64180613,4259850,4325386,0.000841309,-0.000456445,-0.000675428,0.000790437,-0.018347,-0.0406678,4961,4936,0
64679379,64679270,4259850,4325386,0.00170125,-0.00151976,0.000567642,0.0016923,0.0076092,-0.0434076,4988,4935,0
65183765,65183066,4259850,4325386,0.000625014,-0.000832669,-0.000982943,0.00248617,-0.0078005,-0.0594651,4992,5929,0
65682269,65682123,4259850,4325386,0.00214751,-0.00199025,-0.000191853,0.00953341,0.0154638,-0.0430982,4953,4759,0
66180974,66180848,4259850,4325386,-0.000282315,-0.00104519,0.000480706,-0.00528567,-0.00772663,-0.0546419,4986,4935,0
66679606,66679463,4259850,4325386,-0.00129409,0.000840395,0.000670439,-0.00596016,0.015981,-0.0560001,4988,4930,0
67178463,67178337,4259850,4325386,0.00136416,-6.83397e-05,-0.000303859,0.00208271,-0.0215462,-0.0452399,4972,4975,0
67682212,67682054,4259850,4325386,0.000538004,-9.78056e-05,-0.00094646,-0.0054267,-0.0248657,-0.047715,4989,4939,0
68180558,68180407,4259850,4325386,0.00214406,-0.000441996,-0.000722894,0.00212681,-0.00653977,-0.0425779,4967,4937,0
68679312,68679205,4259850,4325386,0.00388763,-0.000229217,-0.000663917,-0.00545465,-0.0216283,-0.0490684,4988,4964,0
69183105,69182995,4259850,4325386,0.000794948,-0.000389629,0.000498369,0.0102164,0.0224084,-0.0393057,4989,4962,0
69681909,69681795,4259850,4325386,0.00113629,-8.20794e-05,1.63082e-05,0.00447504,0.00792346,-0.0433619,4988,4931,0
70180721,70180597,4259850,4325386,-0.00300581,0.000346543,-0.000101124,0.000134325,0.00696432,-0.0474439,4985,4933,0
70679635,70679492,4259850,4325386,-0.000918923,-0.000107647,-0.000200423,0.0076708,0.00735121,-0.0382328,4991,4935,0
71179019,71178650,4259850,4325386,0.00180714,-0.000485122,-0.000215532,-0.0044261,-0.0123078,-0.0529104,4988,4986,0
71682662,71682520,4259850,4325386,-0.000786066,0.00113422,0.000579495,-0.0071892,0.0119107,-0.0546652,4986,4965,0
72182554,72181740,4259850,4325386,-0.00071082,0.000441709,0.00044224,0.0153207,0.0208765,-0.047597,4988,5929,0
72680974,72680828,4259850,4325386,-0.00245092,0.000215491,-0.000940694,-0.0109513,-0.0125284,-0.0526572,4946,4933,0
73183948,73183831,4259850,4325386,0.000395395,2.71741e-05,-0.000674665,0.00055291,0.000911552,-0.0492461,4988,4976,0
73677625,73677349,4259850,4325386,-0.000952544,0.000168083,0.000183421,-0.0111135,-0.00428576,-0.066813,4997,5866,0
74181093,74180982,4259850,4325386,0.00121274,-0.000152479,-8.94937e-05,-0.00389057,-0.000764912,-0.0491254,4988,4961,0
74680050,74679898,4259850,4325386,-0.00013705,0.000733842,0.000508401,0.00720759,0.0229073,-0.0430533,4954,4934,0
75178699,75178585,4259850,4325386,0.000148088,0.000119421,1.42646e-06,0.0047301,0.0093543,-0.0461307,4987,4972,0
75682485,75682375,4259850,4325386,-0.000517603,-0.00019822,0.000507726,-0.00162327,0.0023214,-0.0520498,4988,4965,0
76181560,76181443,4259850,4325386,-0.000313034,-0.000443744,0.000506989,-0.00318674,-0.0054483,-0.0531384,4920,4933,0
76680106,76679978,4259850,4325386,0.0019317,-0.000274551,-0.000311561,0.000729889,-0.00714617,-0.0428333,4988,4965,0
77178923,77178780,4259850,4325386,-0.00174649,0.000814512,0.000432999,-0.0127869,-0.0107882,-0.0554808,4986,4695,0
77682737,77682609,4259850,4325386,0.00108668,1.74234e-06,0.000513721,0.00698317,0.00583895,-0.0428269,4982,4979,0
78181506,78181371,4259850,4325386,-0.00186246,0.000149999,0.000718842,-0.00185851,-0.00202052,-0.0500248,4987,4936,0
78680282,78680172,4259850,4325386,0.00223156,-0.000140421,-0.000412803,-0.00207902,-0.00450504,-0.0491235,4965,4927,0
79184183,79184060,4259850,4325386,-0.00475968,-0.000565234,-0.00110692,0.0032752,-0.000736007,-0.043066,5003,4934,0
79682769,79682219,4259850,4325386,-0.00165384,-0.000424038,-0.000667176,0.00276723,-0.0169085,-0.0467458,4989,4959,0
80181265,80181125,4259850,4325386,0.00085078,-0.000229619,-0.0001935,-0.00479329,-0.00311334,-0.0512968,4980,4986,0
80679996,80679819,4259850,4325386,-0.00096028,0.000859277,0.00149756,0.0063174,0.0303613,-0.0437172,4980,4931,0
81178757,81178621,4259850,4325386,-0.000561066,-0.000271433,0.000691276,0.00415958,-0.00147725,-0.0459863,4988,4930,0
81682525,81682411,4259850,4325386,0.000283117,-0.000424103,0.000147207,0.00187107,0.00647959,-0.0474195,4986,4956,0
82181337,82181213,4259850,4325386,-0.00482288,0.00100887,-0.00026328,-0.00868518,0.00393797,-0.0490491,4982,4934,0
82680131,82680014,4259850,4325386,0.00256458,-0.000934614,-0.00108852,-0.00516859,-0.0181883,-0.0497042,4988,4928,0
83184609,83183850,4259850,4325386,-0.00190818,0.000151933,0.000331494,-0.000415239,-0.00875747,-0.0502935,4966,4931,0
83683071,83682935,4259850,4325386,-0.00216734,0.000798016,0.000683023,0.00315048,0.0206144,-0.048036,4988,4938,0
84181548,84181407,4259850,4325386,-0.0026076,0.000266907,0.000641456,-0.00593722,0.00571697,-0.0492331,4988,4934,0
84680326,84680209,4259850,4325386,-0.00151287,0.000170757,0.000278149,0.00233237,0.017054,-0.0466061,4987,4964,0
85179367,85179207,4259850,4325386,0.000772658,-0.000547345,-0.000731306,0.00083121,-0.0034966,-0.0454617,4965,4972,0
85682967,85682811,4259850,4325386,-0.000448236,0.00029954,-0.000346845,-0.00356803,-0.00598995,-0.0480169,4998,4986,0
86181719,86181603,4259850,4325386,-0.00187356,0.000610476,0.00114628,-0.000663039,0.0204313,-0.0455637,4987,4962,0
86680990,86680714,4259850,4325386,0.00190882,-0.000403722,0.000402317,0.00609314,0.00395903,-0.0426622,4966,4974,0
87184308,87184200,4259850,4325386,0.000417375,-0.000564115,-0.000109085,0.00956894,-0.0100499,-0.0404384,4989,4930,0
87678140,87678008,4259850,4325386,-0.00135206,7.88131e-05,0.000745285,-0.00217448,-0.00458297,-0.0473974,4981,4938,0
88181481,88181319,4259850,4325386,0.00142962,0.000231526,-0.000425925,-0.00146564,-0.00400035,-0.0485945,4992,4938,0
88680236,88680102,4259850,4325386,0.000426657,-0.000154046,1.84694e-05,0.00045398,-0.0109922,-0.0515625,4988,4936,0
89179147,89179002,4259850,4325386,0.00108245,-0.000429638,-0.000507276,0.00682894,-0.00722014,-0.0430966,4971,4933,0
89682877,89682694,4259850,4325386,-0.000902265,0.000657683,0.00116409,0.00564072,0.0238383,-0.0538568,4988,5723,0
90181515,90181324,4259850,4325386,-0.00175417,0.000498785,-0.00013516,-0.0101985,0.010547,-0.0594823,4976,4973,0
90684988,90684790,4259850,4325386,0.000337667,0.00011383,0.000643567,0.002076,0.00278402,-0.0536392,4990,4934,0
91179377,91179172,4259850,4325386,-0.00314781,0.000542474,9.95049e-05,-0.00349632,-0.00696349,-0.0547003,4992,4950,0
91683478,91682892,4259850,4325386,-0.000934266,-0.000545826,-0.000290873,0.00132745,-0.0169639,-0.0442868,4987,4931,0
92182415,92182213,4259850,4325386,0.000729876,-0.000679544,-0.00132012,-0.0107479,-0.0296874,-0.0542638,4988,4936,0
92681737,92681540,4259850,4325386,-0.000204088,7.45493e-05,0.000482338,-0.000742576,0.00423063,-0.0530246,4985,4933,0
93180456,93180344,4259850,4325386,-0.00662247,-1.83403e-05,0.000234286,0.00892845,0.00118017,-0.0383837,4990,4935,0
93684983,93684405,4259850,4325386,0.000547886,-0.000458872,-0.000980557,0.00369567,-0.0088358,-0.0422542,4959,4962,0
94178061,94177951,4259850,4325386,-0.0026049,0.000616926,0.000338999,-0.00685178,0.0254233,-0.0524399,4990,4944,0
94681854,94681741,4259850,4325386,0.000405748,0.00195316,-0.000339806,0.00855504,0.011762,-0.0401952,4993,4934,0
95180733,95180619,4259850,4325386,0.00169752,-0.000144655,-0.000321407,0.00572705,-0.00883743,-0.0402369,4951,4950,0
95679466,95679348,4259850,4325386,-0.000892326,-0.000353325,-0.000389762,-0.00670416,-0.0109706,-0.0474298,4996,4934,0
96183535,96183134,4259850,4325386,-0.00039719,0.000315072,4.00958e-06,-0.00451478,-0.0115313,-0.0498135,4990,4967,0
96681494,96681386,4259850,4325386,0.00216299,-0.00144856,-0.00107821,-0.00808735,-0.009463,-0.0501932,4987,4935,0
97180315,97180204,4259850,4325386,-0.000339395,0.00384225,-0.000609577,-0.0152023,-0.0202598,-0.0535931,5000,4886,0
97684276,97684153,4259850,4325386,-0.00387907,0.00316524,-0.000152651,-0.000289712,0.0142485,-0.0493913,4972,4932,0
98178031,98177909,4259850,4325386,0.000958846,-0.000196888,-0.000934744,0.00448183,-0.0155077,-0.0452435,4988,4934,0
98682265,98681584,4259850,4325386,-0.000255463,0.000307194,1.59848e-05,-0.00591679,0.00256453,-0.0553661,4988,4936,0
99180516,99180383,4259850,4325386,0.00080817,0.000207898,-0.000179964,-0.00886803,-0.0148068,-0.0572799,4934,4932,0
99683829,99683709,4259850,4325386,0.00651511,-0.0002714,-0.000547145,0.00337227,0.00376336,-0.0484248,4996,4943,0
100182631,100182499,4259850,4325386,-0.000332333,0.000123232,-0.000612095,-0.00365813,-4.94285e-05,-0.0503989,4924,4930,0
100681396,100681282,4259850,4325386,0.000739385,-0.000153595,0.000476512,0.00351943,0.0203242,-0.0440261,4988,4978,0
101185305,101185074,4259850,4325386,0.00169953,7.32089e-06,-0.00040247,-0.000386372,0.0107091,-0.0497018,4987,4973,0
101679034,101678903,4259850,4325386,-0.000896716,-0.00210531,0.000680847,-0.00199622,0.00017268,-0.04978,4968,4970,0
102177830,102177689,4259850,4325386,0.00223684,0.000182076,0.00107574,0.00467407,0.021145,-0.041586,4987,4937,0
102681708,102681564,4259850,4325386,0.00231915,-0.000414467,0.000264559,-0.00249015,-0.000353202,-0.0455604,4985,4948,0
103179934,103179786,4259850,4325386,0.00544805,-0.000653749,-0.000914835,0.00395369,0.0125405,-0.0390354,4991,4800,0
103683916,103683577,4259850,4325386,-0.000572814,-0.000543918,0.000456214,0.0155994,0.0102979,-0.0343964,4990,4925,0
104182639,104182530,4259850,4325386,-0.00607721,0.00148051,0.00137848,0.00325756,0.0259151,-0.0411814,4943,4947,0
104681321,104681179,4259850,4325386,-0.0062628,0.00228173,-0.000878999,-0.00566165,-0.0166108,-0.0507674,4980,4934,0
105180094,105179982,4259850,4325386,-0.000813752,0.000583379,-0.000540596,0.00986128,0.0118396,-0.0485937,4989,5004,0
105678426,105678287,4259850,4325386,-0.000989707,0.000480218,0.000403568,0.00686882,-0.00604705,-0.0494148,4990,4937,0
106182308,106182186,4259850,4325386,-0.000877605,-0.000307249,0.00175512,0.0046243,0.0138256,-0.039854,4971,4048,0
106681043,106680879,4259850,4325386,-0.00210521,0.00122622,0.000632816,-0.00794849,-0.00790715,-0.0518324,4987,4933,0
107179807,107179685,4259850,4325386,0.00236856,-0.00111472,0.000189401,0.00191675,-0.0114101,-0.0444887,4989,4875,0
107683180,107683067,4259850,4325386,0.000279857,-0.000700873,-3.64142e-05,0.00928031,0.0206113,-0.0382964,4934,4931,0
108182410,108182296,4259850,4325386,-0.00306346,0.000741485,-0.000494542,-0.004622,0.00618484,-0.0465576,4979,4936,0
108681418,108681306,4259850,4325386,-0.0021822,-0.000775973,0.00108356,-0.00361807,0.0179583,-0.0496993,4971,4930,0
109180176,109180063,4259850,4325386,0.000661293,0.000368669,-0.00122282,-0.00913877,-0.0205131,-0.0530422,5010,4939,0
109678809,109678684,4259850,4325386,0.000521426,-0.000377378,-0.000754218,-0.00328943,-0.02524,-0.0342847,4987,3823,0
110182751,110182613,4259850,4325386,-0.00266785,0.000214585,-0.000958022,0.000397023,-0.0268188,-0.0450987,4963,4935,0
110681007,110680860,4259850,4325386,0.000490995,-0.00230364,-0.000891389,-0.014412,-0.0304895,-0.0548871,4993,4936,0
111179916,111179787,4259850,4325386,-0.00207063,0.000983578,0.00116928,0.00254419,0.0279568,-0.0514155,4927,4931,0
111684389,111684211,4259850,4325386,0.00242464,9.1268e-05,-0.000149335,0.000841409,-1.6688e-05,-0.0419295,4980,4971,0
112177854,112177726,4259850,4325386,-0.00180632,-0.000150869,0.000715561,0.000499406,0.000742069,-0.0515512,5025,5651,0
112681585,112681477,4259850,4325386,0.000578193,-0.000460356,0.000321779,0.00822026,-0.00214134,-0.0413153,4988,4958,0
113180449,113180302,4259850,4325386,0.00163623,-0.000241895,2.35378e-05,0.00654818,-0.0078461,-0.0423216,4970,4935,0
113679284,113679083,4259850,4325386,7.67776e-05,-0.000365075,0.000753978,0.00139975,-0.0019561,-0.059069,4990,5807,0
114182567,114182424,4259850,4325386,0.000192854,0.000148064,0.000422562,0.00135759,0.0105529,-0.0447101,4959,4928,0
114681419,114681229,4259850,4325386,-0.000848572,5.04804e-05,0.000913403,0.00104995,-0.00373087,-0.0463814,4992,4979,0
115180135,115180027,4259850,4325386,0.000283395,0.000112896,-0.000893001,0.00685251,-0.0098388,-0.0424036,4988,4975,0
115679021,115678871,4259850,4325386,0.000418357,-0.000134618,-0.000444367,-0.00510338,-0.011149,-0.0546853,4987,4991,0
116177813,116177633,4259850,4325386,-0.0024316,0.000605199,-0.000141516,-0.00520352,-0.00853264,-0.0605878,4988,5860,0
116682362,116682161,4259850,4325386,2.84793e-05,-0.000548338,0.00055215,0.00456675,0.022764,-0.0439986,5274,4989,0
117180835,117180678,4259850,4325386,0.000746257,0.000479964,-0.000169652,-0.00692612,-0.0242503,-0.0493836,4988,4941,0
117679761,117679607,4259850,4325386,0.00156548,-0.000533312,-0.00111284,-0.000934253,-0.0186882,-0.0434308,4985,4983,0
118183606,118183478,4259850,4325386,0.001346,-0.000174811,-0.000695824,-0.00664515,0.00677449,-0.0508191,4960,4931,0
118682201,118682085,4259850,4325386,-0.003081,0.000285706,0.00110637,-0.00114692,-0.0067567,-0.0505199,4985,4961,0
119181081,119180908,4259850,4325386,-0.000786736,-0.000118856,-6.55621e-05,-0.00466375,0.00709856,-0.0450642,5016,4903,0
119680012,119679883,4259850,4325386,-0.000137922,-0.000160895,-0.00029392,0.00231124,0.014622,-0.0404644,4958,4962,0
120178593,120178485,4259850,4325386,0.000494829,0.000791885,0.000250109,0.00292835,0.014264,-0.0475191,4989,4934,0
120682572,120682462,4259850,4325386,-0.00259549,0.0010639,0.000515506,-0.00919645,0.0103488,-0.0594886,4975,4934,0
121181349,121181205,4259850,4325386,-0.00120559,-0.000313612,-0.000476568,0.00162346,-0.0225258,-0.0486414,4957,4681,0
121685104,121684873,4259850,4325386,0.000522748,-0.000586151,-0.000588671,-0.000871767,-0.00204872,-0.047508,4991,4939,0
122178794,122178686,4259850,4325386,0.000381359,0.000427809,0.000362379,0.00493782,0.0168107,-0.0438506,4988,4665,0
122677175,122677039,4259850,4325386,0.000508524,-0.000624899,-0.000508362,0.0041287,-0.0205774,-0.0412856,4989,4936,0
123180555,123180441,4259850,4325386,-0.000419223,-0.000747154,9.75999e-05,-0.00401576,-0.00199094,-0.0471313,4963,4931,0
123679252,123679132,4259850,4325386,0.0048373,0.00030285,0.00054771,0.0062924,0.000650997,-0.038387,4988,4992,0
124183010,124182878,4259850,4325386,0.000195594,-0.00175909,-0.000797393,0.00592346,0.0101517,-0.0324357,4988,4667,0
124682348,124682227,4259850,4325386,0.000639022,0.00314229,0.00033026,0.00450031,0.0111622,-0.0434983,4986,4961,0
125181851,125181222,4259850,4325386,0.000880815,-0.000240105,-0.000864083,-0.00711992,-0.0103529,-0.0524002,5015,4912,0
125684956,125684826,4259850,4325386,0.000287844,-0.000467148,-0.000828691,-0.00839066,-0.0213095,-0.0493401,4989,4882,0
126178781,126178645,4259850,4325386,0.000704053,7.73745e-05,-0.00027624,-0.00174238,0.00651031,-0.0512344,4996,4937,0
126682597,126682431,4259850,4325386,-0.000620178,-0.000593655,0.000799372,0.0130779,0.015099,-0.0448907,4990,4976,0
127181610,127181494,4259850,4325386,-0.00187569,0.00128709,-0.000349363,-0.00940336,0.0014313,-0.0559591,5251,4990,0
127680202,127680038,4259850,4325386,0.00114299,-0.00055205,-0.000796829,-0.00479838,-0.0137583,-0.0500002,4989,4928,0
128179149,128178996,4259850,4325386,-0.000109717,-0.000500118,0.000176446,0.00431035,0.0181827,-0.0425287,4989,4990,0
128682991,128682820,4259850,4325386,0.000657222,0.000888808,3.00261e-05,-0.00906169,-0.0213514,-0.0479762,4965,4933,0
129181598,129181476,4259850,4325386,-0.00038838,0.000495697,0.000321702,-0.00784898,0.00600163,-0.0506778,5026,4916,0
129680355,129680237,4259850,4325386,-0.000750073,0.00138118,0.000634431,-0.00488901,0.0349432,-0.0490745,4988,4982,0
130179356,130179243,4259850,4325386,-0.000175642,-0.00037692,-0.000808533,0.000596391,0.00423154,-0.0395823,5018,4907,0
130683005,130682895,4259850,4325386,-0.000796527,-4.94366e-05,0.000150318,-0.00523297,-0.0151531,-0.0523894,5001,5000,0
131181758,131181634,4259850,4325386,-0.000963917,0.00108673,0.00113569,0.0030859,0.00394544,-0.0474802,4973,4934,0
131681043,131680931,4259850,4325386,-0.000264935,-0.00107973,-2.83704e-05,-0.00181228,0.00295973,-0.0470915,4981,4987,0
132179921,132179764,4259850,4325386,3.08445e-05,0.000130764,0.000662629,-0.00438294,-0.00699795,-0.0526168,4963,4964,0
132678659,132678519,4259850,4325386,-0.00757817,0.00284376,0.000130992,0.00180876,0.00647624,-0.0441208,5010,4910,0
133177414,133177299,4259850,4325386,-0.000159841,0.00104801,-0.000193435,-0.0105494,0.012278,-0.0586867,4986,4981,0
133681218,133681102,4259850,4325386,-0.000867112,-0.000836844,0.000614723,-0.000906385,-0.00290151,-0.0408081,4995,4885,0
134180046,134179915,4259850,4325386,0.000313501,0.000301732,0.00035338,0.000315503,0.0128197,-0.0452344,5002,4888,0
134684301,134683741,4259850,4325386,-0.000144826,-0.000427868,0.00106483,-0.000656277,-0.00367231,-0.062421,4986,5888,0
135182631,135182490,4259850,4325386,-0.00183524,0.000305921,0.000184204,-0.0148871,0.00961281,-0.0623531,4988,4932,0
135681734,135681563,4259850,4325386,-0.000902368,0.000425238,0.000530049,-0.00316324,0.00186906,-0.0499201,5253,4933,0
136180216,136180096,4259850,4325386,-0.000512178,-0.000533061,-9.86318e-05,0.000460485,-0.00182361,-0.0410556,4979,4929,0
136679018,136678901,4259850,4325386,-0.00104874,-0.00209696,0.000461201,-0.0101853,0.0136889,-0.0609202,4987,4946,0
137182461,137182251,4259850,4325386,-0.000900881,-0.000133504,0.000404792,0.00690042,0.0112265,-0.0440549,4996,4978,0
137681156,137681045,4259850,4325386,-0.000594922,-0.000722744,-0.000964574,0.00149126,-0.0149521,-0.044965,4988,4986,0
138180258,138180055,4259850,4325386,0.000215403,-0.000526896,0.000688147,0.00933177,0.00634274,-0.0393625,4976,4976,0
138683757,138683640,4259850,4325386,-0.00119355,0.00130057,0.00038398,0.00454455,0.0175722,-0.041569,4988,4956,0
139182558,139182445,4259850,4325386,0.000665743,-0.00260167,0.000657983,0.00220372,-0.00242842,-0.0414371,4988,4933,0
139681826,139681706,4259850,4325386,-0.00135708,0.000164236,0.000353077,-0.00562738,-0.00642445,-0.0571588,4996,4931,0
140180893,140180776,4259850,4325386,0.000628967,0.00175448,-0.00075079,0.0110233,-0.00894464,-0.042846,4990,4997,0
140679605,140679476,4259850,4325386,0.000318198,-0.000776725,-0.000250579,-0.00800572,-0.00823428,-0.0473482,4980,4929,0
141182343,141182233,4259850,4325386,0.000241666,-0.000436512,0.00111423,-0.00317076,0.0321615,-0.0519205,4984,4932,0
141681037,141680907,4259850,4325386,-0.000179942,-0.000526886,-0.000622488,0.00737686,-0.0151839,-0.0421319,4992,4934,0
142180064,142179870,4259850,4325386,0.00146452,-0.00372448,-0.000286977,0.00477555,-0.0223808,-0.0454762,4959,4947,0
142683611,142683499,4259850,4325386,-0.00164215,0.00203074,0.000475198,-0.00085726,0.0136657,-0.0536012,4988,4934,0
143182995,143182304,4259850,4325386,0.00147467,-0.000526034,-0.000570456,-0.00197347,0.00237399,-0.0470256,4985,4972,0
143681549,143681367,4259850,4325386,-0.000927298,0.000828638,-0.000203172,0.00287344,0.0129946,-0.0556789,4971,4970,0
144180043,144179914,4259850,4325386,-0.00123863,0.000587816,0.000731204,-0.00904583,0.00571306,-0.0500519,4988,4934,0
144678834,144678718,4259850,4325386,0.000277026,0.000224648,-0.000211338,0.00463695,-0.00420246,-0.0394685,4989,4925,0
145182638,145182523,4259850,4325386,0.000190102,-0.0012292,-0.00104331,-0.00259596,-0.0247825,-0.0397206,4969,4989,0
145681436,145681313,4259850,4325386,-0.00152523,0.000962031,0.000296445,-0.0077387,-0.00141001,-0.053482,4992,4934,0
146179879,146179730,4259850,4325386,-0.00195388,0.000921184,0.0014315,-0.00116838,0.0252883,-0.0521651,4966,4966,0
146683526,146683407,4259850,4325386,-0.000720608,-0.000100712,-0.000554534,-0.00912538,-0.0165333,-0.0558472,4989,4994,0
147177422,147177223,4259850,4325386,-0.000464382,-6.20415e-05,0.000131373,0.00768492,-0.00928651,-0.042537,4988,4990,0
147681179,147681029,4259850,4325386,0.000593726,-0.00067408,-0.000135021,0.00310127,-0.00364216,-0.0435457,4934,4753,0
148179966,148179821,4259850,4325386,0.00122962,-0.000452282,-0.000267371,0.00871861,0.00794042,-0.0436188,4991,4937,0
148678945,148678780,4259850,4325386,0.000168396,-0.000226152,-0.00062537,-0.000787105,-0.0331047,-0.048069,4988,4986,0
149182659,149182415,4259850,4325386,-0.00104688,0.000481354,0.000306081,-0.00878091,-0.00150734,-0.0534395,4987,4934,0
149681344,149681219,4259850,4325386,-0.00203734,7.39804e-05,0.000772295,-0.00637352,0.0216377,-0.0567754,4989,4939,0
150180148,150180029,4259850,4325386,0.000357886,-0.000254778,1.85771e-05,-0.0079741,-0.0154615,-0.0537225,4995,4926,0
150678477,150678329,4259850,4325386,0.000802576,-0.000249334,-0.000423967,-0.0102504,-0.0209748,-0.0512147,4988,4928,0
151178027,151177915,4259850,4325386,0.00636524,-0.000557309,-0.00010596,0.00979519,0.00196875,-0.0370425,5277,4933,0
151681734,151681425,4259850,4325386,-0.00143526,0.000618495,-1.24553e-05,-0.00845401,0.00142017,-0.0547555,4987,4933,0
152179858,152179734,4259850,4325386,0.00206294,9.26452e-05,0.000202034,0.0136174,0.00540584,-0.0370198,4996,4980,0
152683660,152683519,4259850,4325386,-6.06025e-05,0.000913606,-0.000289088,6.92387e-05,-0.00436038,-0.0407096,4988,4933,0
153182656,153182460,4259850,4325386,-0.00723351,0.000539917,0.000269167,0.00166274,-0.0101141,-0.042377,4991,4996,0
153681483,153681354,4259850,4325386,-0.000642711,-0.000754226,5.82209e-05,-0.00597562,0.00033417,-0.0520317,4967,4996,0
154179114,154178982,4259850,4325386,0.00202434,-0.00188493,-0.000683308,0.00672087,-0.0109025,-0.040903,4989,4941,0
154677901,154677785,4259850,4325386,0.000351923,0.000281574,-0.000845897,0.00457855,-0.00399017,-0.0439549,4986,4989,0
155181144,155181029,4259850,4325386,-0.00358528,0.00385009,0.000343545,0.00772617,0.00384737,-0.0416216,4986,4932,0
155679996,155679842,4259850,4325386,-0.00184498,0.000506225,0.000998917,0.00772182,0.00874206,-0.0360641,4993,3912,0
156183746,156183626,4259850,4325386,-0.000263747,-0.000424802,-0.000119767,0.00651615,-0.00479536,-0.0499434,4987,4999,0
156682564,156682430,4259850,4325386,-0.000623998,0.000449686,0.000332858,6.28763e-05,0.0140371,-0.0561083,4986,4934,0
157181068,157180948,4259850,4325386,-0.00221256,0.00106178,0.000535468,-0.00842045,0.0197844,-0.05123,4906,4657,0
157679685,157679539,4259850,4325386,0.002596,-0.000521396,-0.000356491,-0.000839867,-0.0230757,-0.0431256,4988,4920,0
158178455,158178343,4259850,4325386,-0.000442466,0.000106613,-2.05691e-06,0.000372254,-0.00392126,-0.0423564,4981,4931,0
158682251,158682136,4259850,4325386,0.000412268,-0.00103473,-0.000915527,0.00298841,-0.00903942,-0.0406037,4984,4932,0
159180585,159180441,4259850,4325386,0.00218859,-0.000122279,-0.000459059,0.00877066,-0.00848252,-0.0353398,4989,4932,0
159684442,159684235,4259850,4325386,-0.000520263,0.000255074,0.000231295,-0.0109282,-0.0113593,-0.0586442,4989,4957,0
160183173,160183037,4259850,4325386,9.04217e-05,0.000169104,0.000430927,0.000762703,-0.00062972,-0.0486735,4987,4933,0
160682138,160681845,4259850,4325386,0.000119408,0.000134777,0.00052871,-0.0035069,-0.0125822,-0.0549926,4992,5008,0
161180896,161180739,4259850,4325386,-0.00182462,0.00109908,0.000501808,-0.00438054,0.0126781,-0.0547695,4973,4973,0
161679653,161679533,4259850,4325386,-0.00378288,0.000810301,0.000625472,0.0043015,0.0184785,-0.0445841,4992,4936,0
162178404,162178253,4259850,4325386,-0.0015452,0.000477068,-0.000369119,-0.0112906,0.00301332,-0.0546698,4988,4934,0
162681225,162681095,4259850,4325386,-0.000773108,0.000257354,0.000651188,0.00368597,0.0170279,-0.0445237,4988,4931,0
163180522,163180349,4259850,4325386,0.000337799,0.000240771,-0.000597424,-0.00191642,-0.00661922,-0.0420804,4989,4933,0
163684284,163684142,4259850,4325386,0.000359518,-0.000478645,0.00113103,-0.00488582,0.00347133,-0.0459343,4985,4934,0
164183422,164183260,4259850,4325386,0.00674782,0.000337822,0.00106268,0.00293831,0.0204469,-0.0500713,5017,4914,0
164681867,164681753,4259850,4325386,0.000258798,-0.000379323,0.000312787,0.00571989,0.00244128,-0.0438949,4981,4938,0
165180710,165180554,4259850,4325386,0.0022502,-0.00225938,-0.000763023,0.00695172,-0.0218414,-0.0411146,4987,4963,0
165679680,165679566,4259850,4325386,-0.000553774,-8.27445e-05,-0.000330237,0.00339518,0.00810679,-0.0417368,4960,4930,0
166183364,166183206,4259850,4325386,0.00151312,-9.75226e-05,7.30771e-05,0.00794092,-0.00584472,-0.0391266,4991,4999,0
166682576,166682011,4259850,4325386,-0.00045128,6.8779e-05,-0.000485122,-0.0132626,-0.0217036,-0.0506433,5040,4926,0
167181106,167180892,4259850,4325386,0.00513808,0.000155987,-0.000406188,-0.00830479,0.00448642,-0.0530849,4973,4927,0
167684665,167684551,4259850,4325386,0.000292556,4.77282e-05,0.000591442,0.00183741,-0.00782339,-0.0518001,4988,4964,0
168183482,168183373,4259850,4325386,0.00135124,-0.00156701,-0.000352987,-0.00471216,-0.0174201,-0.0499977,5004,4891,0
168682444,168682333,4259850,4325386,-0.00183334,0.00108071,1.00999e-05,-0.00585275,-0.00199421,-0.0556011,4989,4934,0
169181242,169181082,4259850,4325386,0.00427316,-0.00030991,-0.000914605,0.00416594,-0.0219577,-0.0394755,4986,4936,0
169679939,169679770,4259850,4325386,0.0013323,-0.00116412,0.000299653,0.0037512,0.0050037,-0.0454053,4986,4957,0
170183763,170183563,4259850,4325386,-0.00165154,0.000803574,-0.000633437,-0.00497425,0.00541583,-0.0485975,4983,4936,0
170682504,170682364,4259850,4325386,-2.3499e-05,0.00126624,0.00050911,-0.00413194,-0.00678853,-0.0498324,4988,4936,0
171181071,171180914,4259850,4325386,-0.00139127,-0.0010887,0.000739752,-0.00256409,0.00849706,-0.0497367,4977,4978,0
171680285,171680111,4259850,4325386,0.00134454,-0.000127565,-0.000631089,0.00139304,-0.00634435,-0.0414434,4956,4947,0
172179082,172178953,4259850,4325386,-4.13936e-05,-5.6771e-05,0.000662405,-0.00037125,0.0212492,-0.0506224,5001,4933,0
172682680,172682568,4259850,4325386,9.67281e-05,0.000140805,-0.000612792,-0.00486507,0.0038412,-0.0566671,4982,4930,0
173181489,173181380,4259850,4325386,0.00156774,0.000591158,0.00102748,0.00222894,0.0166539,-0.0439526,4994,4962,0
173680590,173680443,4259850,4325386,-0.00183809,-0.000438948,-0.000392197,0.00541283,0.011284,-0.0436971,5244,4933,0
174184149,174183969,4259850,4325386,0.000943499,0.000101536,-0.000548964,-0.00432197,-0.00297643,-0.0592972,4988,5670,0
174682951,174682790,4259850,4325386,-0.000115002,0.00032593,0.000563573,0.00240305,-0.0141164,-0.0503978,4982,4928,0
175181244,175181126,4259850,4325386,0.000553597,-0.000421176,-0.000739349,-0.00400175,-0.0168036,-0.0426088,4987,4168,0
175680055,175679931,4259850,4325386,-0.000571833,0.00181763,0.000256531,0.00164948,0.00350992,-0.0491737,4987,4993,0
176179115,176178921,4259850,4325386,-0.000933187,-0.00302665,0.00115513,-0.00131347,0.0139683,-0.0487123,4967,4966,0
176682720,176682611,4259850,4325386,-0.00200524,0.00142452,0.000534341,-0.0116499,0.0242403,-0.0534192,4990,4933,0
177181511,177181332,4259850,4325386,-0.0010568,0.000807147,-0.000378614,-0.0125597,-0.00855512,-0.0551427,4986,4922,0
177685442,177685236,4259850,4325386,0.000581377,-0.000826017,-0.000690323,0.00439325,-0.0227209,-0.0417809,4981,4950,0
178184039,178183927,4259850,4325386,-0.000513911,0.000531051,-0.000452606,-0.00682042,-0.00217194,-0.0518637,4988,4979,0
178677863,178677745,4259850,4325386,-0.000197912,-0.000770186,-0.000112999,0.0106817,-0.0177979,-0.0298144,4988,3950,0
179181904,179181767,4259850,4325386,-0.000503307,-0.00211002,-5.64128e-05,0.0058001,0.0115831,-0.038517,4956,4762,0
179680643,179680488,4259850,4325386,0.0013124,-0.000927582,-5.03365e-05,0.00605964,-0.00800722,-0.0395998,4988,4940,0
180179736,180179595,4259850,4325386,-4.413e-06,0.000184162,0.000146925,0.00534076,0.0156976,-0.0446471,4986,4929,0
180683666,180683523,4259850,4325386,0.00275574,0.000250213,-0.00158968,-0.00346175,0.00998202,-0.0462738,4992,4933,0
181182796,181182690,4259850,4325386,-0.000334279,-0.000190633,-0.000605004,-0.0107003,-0.0113914,-0.053967,4988,4994,0
181681725,181681574,4259850,4325386,-0.00259772,-0.000521267,-0.000282224,0.00197273,-0.00804266,-0.0430962,4980,4974,0
182180645,182180512,4259850,4325386,0.000735538,-0.000904679,-0.000500231,-0.0011754,-0.0236375,-0.042691,4955,4929,0
182678793,182678629,4259850,4325386,0.00067456,0.000413624,-0.000607322,-0.00250821,0.00511889,-0.0451033,4954,4934,0
183183487,183182896,4259850,4325386,0.00199453,0.00132582,-0.000368326,0.00657126,-0.0188269,-0.0421193,4986,4985,0
183682029,183681843,4259850,4325386,-0.00129253,-0.000610673,0.000520492,-0.00979376,-0.000225169,-0.0588793,4967,4965,0
184180618,184180503,4259850,4325386,-0.00036277,0.000436491,0.000446262,-0.0096247,0.011057,-0.0559175,4986,4951,0
184684549,184684434,4259850,4325386,-0.00845862,0.00139229,0.00110424,0.0016944,0.0211512,-0.0483456,5002,4979,0
185183382,185183181,4259850,4325386,0.00120427,-0.000658478,-0.000762067,-0.000996058,-0.0315587,-0.0555296,4973,5925,0
185677768,185677609,4259850,4325386,-0.000470378,-7.36338e-05,-4.98973e-05,-0.00328334,0.000465714,-0.0558234,4976,4978,0
186181352,186181207,4259850,4325386,-0.000511634,0.000415256,-4.26115e-06,-0.0112371,-0.0067511,-0.0548241,4988,4929,0
186680875,186680021,4259850,4325386,0.00032912,0.000143674,-0.000604535,-0.00279938,-0.00518444,-0.0489405,4997,4933,0
187178994,187178816,4259850,4325386,0.000472438,-0.00132458,-0.000130011,-0.00631986,-0.0110481,-0.0557102,4989,4934,0
187682739,187682608,4259850,4325386,-0.000466601,-0.000237224,-0.000607346,-0.0103408,-0.0204568,-0.0543826,4988,4960,0
188181522,188181412,4259850,4325386,-0.000886172,-0.00020658,-0.000239109,-0.00715896,0.00348878,-0.0451447,4988,4934,0
188680547,188680401,4259850,4325386,-0.0027383,0.000852863,0.000849912,-0.00412159,0.0134145,-0.0532772,5048,4940,0
189179398,189179267,4259850,4325386,-0.00271119,8.19217e-05,0.000391675,-0.00831254,-0.0161986,-0.0563989,4962,4938,0
189677937,189677825,4259850,4325386,-0.00284036,0.000345879,0.000479822,-0.00173821,0.00396752,-0.0526067,4979,4984,0
190182314,190181619,4259850,4325386,-0.00226206,0.000486472,-0.000379328,-0.006481,0.00465316,-0.0539487,4989,4933,0
190680724,190680588,4259850,4325386,1.95579e-05,0.000895757,0.000677688,-0.0011618,0.0213126,-0.0519123,4967,4936,0
191179337,191179226,4259850,4325386,-0.00062141,-0.000209547,0.000616389,-0.00484688,-0.00075144,-0.0518359,4988,4926,0
191683319,191683209,4259850,4325386,0.00566508,-0.000629677,-0.000389729,0.005403,-0.0181412,-0.0393988,4994,4930,0
192182120,192181978,4259850,4325386,7.62979e-05,-0.000394983,-0.000201303,-0.00155792,0.0021478,-0.052032,4979,4980,0
192680737,192680628,4259850,4325386,-0.000433551,0.000158951,-0.000670406,0.00473153,0.00943196,-0.0432323,4985,4948,0
193179539,193179432,4259850,4325386,0.00239825,-0.000391987,0.000252322,0.00797527,-0.00804715,-0.0518652,4984,5830,0
193678460,193678315,4259850,4325386,-0.00188587,0.00212828,0.000903399,0.000298209,0.0222555,-0.0482821,4959,4934,0
194181638,194181529,4259850,4325386,-0.00119449,-0.000331087,-0.00047279,0.0058026,-0.00917121,-0.0413341,4988,4953,0
194680011,194679838,4259850,4325386,0.00176529,-0.00173152,0.000351038,0.0115348,-0.00518822,-0.0409623,4991,4934,0
195184282,195183633,4259850,4325386,3.46891e-05,0.000247741,0.00157261,-0.00239352,0.00779464,-0.0641529,4990,5965,0
195682742,195682534,4259850,4325386,0.00105631,0.00101078,0.000427344,-0.00742598,-0.00207049,-0.0586359,4967,4968,0
196181345,196181235,4259850,4325386,-0.000109468,-0.000733607,0.000317193,0.009547,-0.00905099,-0.0416545,4987,4933,0
196680149,196680040,4259850,4325386,0.000705668,-0.000499693,-0.001237,-0.00689647,-0.0248527,-0.0464532,4988,4969,0
197178540,197178393,4259850,4325386,-0.000507612,4.97199e-05,0.000145325,0.00367772,0.0207272,-0.0505108,4988,4934,0
197682400,197682186,4259850,4325386,-0.000218214,0.000387158,-0.000587498,0.00216149,0.0101302,-0.0495683,4984,4932,0
198181183,198181047,4259850,4325386,-0.000585425,-0.000228935,-0.000436324,0.00316072,-0.0031219,-0.0424937,4991,4936,0
198679984,198679794,4259850,4325386,-0.00111555,-0.00020096,0.000649792,-0.0028413,-0.000426557,-0.0558744,4988,4970,0
199183759,199183587,4259850,4325386,-0.00463233,-0.00122825,-2.57387e-05,9.184e-05,-0.0169026,-0.0504078,4988,5916,0
199677730,199677576,4259850,4325386,-0.000819976,0.000253378,-0.00143476,-0.00488112,0.00258425,-0.0552201,4959,4952,0
200181384,200181200,4259850,4325386,-0.000874811,-0.000147671,-0.00103424,0.00201124,0.0107238,-0.0520276,4989,5663,0
200680120,200680000,4259850,4325386,-0.00130726,0.00047094,-0.000145007,-0.0181359,0.00276172,-0.0597296,4988,4988,0
201178926,201178812,4259850,4325386,0.00162864,-0.00043827,-0.00285571,-0.000456361,0.00214408,-0.0437829,4991,4886,0
201682729,201682600,4259850,4325386,-0.00126389,0.000238078,-0.0021369,-0.00324986,0.0180012,-0.0512431,4991,4934,0
202181597,202181425,4259850,4325386,-8.11804e-05,-0.000556938,-0.00334128,-0.00082875,-0.00250769,-0.0523754,4981,4986,0
202685698,202684201,4259850,4325386,-0.00139591,0.000160026,-0.000213462,-0.0127156,0.004583,-0.0569101,4985,4974,0
203178215,203178062,4259850,4325386,-0.000635812,0.00104072,0.000651461,0.00127425,0.0202492,-0.0513749,4974,4972,0
203681400,203681258,4259850,4325386,0.000175662,-0.000132833,-0.000142238,0.00564727,0.0166673,-0.0478871,4988,4928,0
204180338,204180227,4259850,4325386,0.00107054,0.00010911,-0.000627706,0.00294411,0.0085815,-0.0452803,4973,4933,0
204679103,204678966,4259850,4325386,0.000139097,-0.000421955,-0.000951821,0.00368851,0.00605644,-0.0431701,4975,4933,0
205183142,205182664,4259850,4325386,-0.000358982,0.000140857,0.000411025,-0.000451105,0.00337284,-0.0501774,4991,4932,0
205680647,205680514,4259850,4325386,4.18258e-05,-0.000152358,-0.000656689,-0.0042305,-0.0103848,-0.0439737,4987,4929,0
206184534,206184383,4259850,4325386,-0.00212782,-7.71939e-06,0.000480396,-0.00135701,0.00789346,-0.0503948,4974,4972,0
206678237,206678123,4259850,4325386,0.000467429,-0.000330079,-0.000750239,0.00585396,-0.00783683,-0.0417773,4985,4926,0
207182025,207181915,4259850,4325386,0.00140894,-0.00315186,-0.000299386,0.00451022,-0.00150508,-0.042169,4987,4927,0
207681050,207680905,4259850,4325386,-0.00396403,-0.00108079,-0.000151454,0.00528096,-0.0208805,-0.042775,4974,4781,0
208179098,208178978,4259850,4325386,0.00210732,-0.000538354,-0.000178797,-0.00301273,-0.023678,-0.0472672,4983,4975,0
208682478,208682368,4259850,4325386,0.00123707,-0.000460387,-0.000669626,0.00739667,-0.00702102,-0.0355153,4987,4932,0
209181692,209181077,4259850,4325386,0.00300341,-0.000670675,-0.000682248,0.0113898,-0.0146553,-0.0468111,4988,6012,0
209685151,209685013,4259850,4325386,-0.00164019,-1.95237e-05,9.4845e-05,-0.003552,0.0128497,-0.0553982,4981,4933,0
210178800,210178685,4259850,4325386,0.00110493,-0.0002065,-0.000457681,-0.00273338,-0.0114585,-0.0538499,4989,4934,0
210682593,210682478,4259850,4325386,-0.00196928,-2.23793e-05,-0.00224401,0.000939154,-0.0279712,-0.0445931,4989,4931,0
211181613,211181500,4259850,4325386,0.000765471,-0.000109811,-0.000631793,0.0110472,0.00416201,-0.0407734,4985,4934,0
211680699,211680586,4259850,4325386,0.000766613,-0.00034975,-0.000733772,-0.0038866,-0.0234261,-0.0482313,4976,4934,0
212183676,212183490,4259850,4325386,0.0005066,0.000265534,0.000120871,0.000218571,-0.013825,-0.0523335,4962,4923,0
212681862,212681686,4259850,4325386,-0.00166069,0.000861498,0.000985175,-0.00139387,0.0150312,-0.0558056,4989,4927,0
213185785,213185631,4259850,4325386,-0.000439556,8.05192e-05,0.000526059,-0.0080892,0.00208246,-0.0590731,4967,4970,0
213679402,213679294,4259850,4325386,2.54447e-05,-0.000131989,8.77182e-05,0.00986969,-0.00048602,-0.0457428,4988,4984,0
214178713,214178099,4259850,4325386,0.000658531,-0.00100182,0.000859322,0.00635167,0.0103885,-0.0603696,4987,5925,0
214682263,214682126,4259850,4325386,-0.001584,0.000311339,0.000828799,-0.0167783,-0.00399906,-0.0619088,4986,4933,0
215181091,215180883,4259850,4325386,0.000784235,-0.00049334,-0.00122698,-0.0130344,-0.0242466,-0.0545007,4994,4996,0
215679612,215679500,4259850,4325386,0.00160762,0.000187971,0.000414628,0.0114018,0.00934422,-0.0380268,4983,4933,0
216183421,216183308,4259850,4325386,0.00261659,0.000311481,-0.000105403,-0.00189211,-0.0211136,-0.0469776,4968,4771,0
216677234,216677110,4259850,4325386,0.000143057,-0.000630632,-0.000223087,-0.000302993,0.0113421,-0.0423561,4989,4937,0
217180678,217180527,4259850,4325386,0.00218949,-0.00110509,-0.000969953,0.00864681,0.00388053,-0.0395458,4973,4697,0
217679370,217679255,4259850,4325386,0.000767896,-0.000769399,0.000432554,0.00522578,0.00689862,-0.0455971,4988,4939,0
218183202,218183050,4259850,4325386,-0.000126044,-0.000169272,-0.000869093,-0.00726121,-0.00535716,-0.0551101,4990,5018,0
218681964,218681849,4259850,4325386,-0.00167002,0.000704584,-0.000628575,-0.0109407,0.00292223,-0.0593138,4923,4933,0
219180830,219180657,4259850,4325386,-4.83626e-05,0.00026224,-0.00190857,0.0121323,0.00632791,-0.0407119,4988,4987,0
219679662,219679551,4259850,4325386,-1.21539e-07,3.8682e-05,-0.00100129,-0.00147428,0.00484373,-0.0467891,4990,4936,0
220182908,220182707,4259850,4325386,6.66972e-05,0.000323859,0.000232282,0.00363064,0.00431764,-0.0493704,4989,4937,0
220681265,220681088,4259850,4325386,0.00225478,-0.000577281,-0.00159263,-0.0062154,-0.0291429,-0.0525508,4964,4760,0
221179997,221179817,4259850,4325386,-0.00154026,0.000345996,-0.00109499,-0.00972881,-0.00358764,-0.0632354,4988,5570,0
221678822,221678629,4259850,4325386,0.000493589,-0.000360555,-0.00266748,-0.00450887,-0.0174944,-0.0507262,4993,4978,0
222182614,222182423,4259850,4325386,0.000723736,-9.42661e-05,-0.00174381,0.00682718,-0.00178153,-0.0421404,4974,4933,0
222681424,222681220,4259850,4325386,-0.000505443,0.000579287,-0.00154913,-0.000152161,0.0130097,-0.0546346,4985,5882,0
223180372,223180193,4259850,4325386,-0.00306309,-0.0001937,-0.000233312,-0.00557813,-0.0023181,-0.0510134,4966,4931,0
223683967,223683818,4259850,4325386,8.51032e-05,0.000221053,-0.000396777,-0.00280954,0.00754686,-0.0424002,4981,4668,0
224177764,224177633,4259850,4325386,0.000302416,-0.000124123,0.000485157,-0.00401218,0.000459203,-0.0518495,4989,4974,0
224681534,224681425,4259850,4325386,0.00281855,0.000846484,0.000232942,0.00452271,0.0154813,-0.0465232,4988,4934,0
225179881,225179730,4259850,4325386,-0.00151332,0.000456302,0.000207589,-0.011051,0.0168076,-0.0623327,4988,4933,0
225683230,225683113,4259850,4325386,-0.00014239,-0.000967498,0.000323847,0.00361465,-0.00472592,-0.0452579,4988,4988,0
226181979,226181828,4259850,4325386,-0.00124186,0.00553178,0.000249816,-0.00163999,0.00646617,-0.0543924,4986,4934,0
226680942,226680827,4259850,4325386,0.00361513,-0.000164995,-0.000696225,0.00972019,-0.00252992,-0.0367138,4986,4938,0
227184548,227184426,4259850,4325386,-0.00409088,0.00104757,0.000861164,0.00276742,0.0218354,-0.043823,4975,4955,0
227678387,227678249,4259850,4325386,0.000446738,-0.00100902,0.000250217,-0.00472251,0.00423571,-0.0472636,4995,4934,0
228182164,228182038,4259850,4325386,0.00104459,-0.000302927,-0.000687784,-0.00465238,-0.0237038,-0.0515102,4991,4813,0
228681089,228680972,4259850,4325386,-0.00289369,-7.53308e-05,-0.00127055,0.00360301,-0.0296549,-0.0416173,4987,4979,0
229179856,229179731,4259850,4325386,0.00167148,-0.00177106,-0.000791768,0.00399905,0.00159309,-0.0469457,5044,4932,0
229683584,229683459,4259850,4325386,0.000908351,-0.000517597,-0.00150666,-0.00618484,-0.0257078,-0.0538606,5007,4894,0
230182937,230182242,4259850,4325386,0.00106809,-0.000206522,-0.000406053,0.0017571,-0.00657728,-0.0440982,4984,4958,0
230681441,230681260,4259850,4325386,0.00141071,-5.07949e-05,0.000638804,0.00305769,0.0115391,-0.0444045,4976,4979,0
231179960,231179849,4259850,4325386,0.00185582,0.000151599,-0.000357836,0.0183262,0.0126667,-0.0350662,4988,4989,0
231678598,231678420,4259850,4325386,-0.00211187,0.000605039,0.000634884,-0.00644936,0.00308142,-0.0680669,4971,5994,0
232182105,232181995,4259850,4325386,0.000284184,-0.000300992,0.000209426,0.00235861,-0.0035691,-0.0516104,4981,4933,0
232680998,232680802,4259850,4325386,7.13623e-05,-0.000682668,-0.000819441,-0.00324428,0.00156179,-0.0484055,4989,4938,0
233179866,233179734,4259850,4325386,-0.00240102,0.000598838,0.000185042,-0.00790027,0.00602216,-0.0577515,4953,4987,0
233684117,233683909,4259850,4325386,0.00059697,0.000260415,-0.000601825,-0.00162047,0.00466341,-0.0592041,4967,5923,0
234182765,234182652,4259850,4325386,-8.7573e-05,-0.000366247,-0.000281313,-0.00587974,5.60935e-05,-0.0486406,4988,4920,0
234681588,234681463,4259850,4325386,2.25745e-05,-0.00037602,-0.000385685,-0.00296804,-0.00680875,-0.0512476,4988,4987,0
235180663,235180548,4259850,4325386,-0.000883211,0.000137531,-0.000242489,-0.0100505,0.00380467,-0.0550048,4978,4761,0
235679181,235679066,4259850,4325386,-0.000185389,5.94446e-05,0.00027778,0.00103341,-0.00848596,-0.0493262,4988,4934,0
236183543,236182877,4259850,4325386,0.000728822,2.21397e-05,0.000539034,0.0108461,-0.000993336,-0.0383365,5002,4884,0
236681806,236681663,4259850,4325386,0.00555497,-0.000618708,-0.000656998,-0.00543532,-0.0209475,-0.0488711,4981,4967,0
237180148,237180019,4259850,4325386,-0.000718591,0.000552847,0.000765258,-0.0016136,0.00560011,-0.0511685,4982,4929,0
237684450,237684267,4259850,4325386,-0.000176236,0.00024705,-0.000515534,0.00439737,0.00669236,-0.0522867,4995,5923,0
238178222,238178082,4259850,4325386,-0.0004844,-0.000139753,-0.000217899,0.0015767,-0.00953279,-0.0446312,4990,4935,0
238682322,238682135,4259850,4325386,0.000571907,-0.00104284,-0.000312122,-0.000265547,0.00778332,-0.0525768,5249,6026,0
239180793,239180674,4259850,4325386,-0.00130421,0.00105744,3.01336e-05,-0.0147636,-0.0163707,-0.0582798,4984,4959,0
239679592,239679479,4259850,4325386,-0.00852175,0.000732449,0.00114938,-0.00445056,-0.00332714,-0.0544873,4987,5004,0
240182974,240182821,4259850,4325386,0.000424439,-0.00177762,-0.000969181,-0.0036036,-0.00959138,-0.0516479,4989,4963,0
240681733,240681625,4259850,4325386,-0.00164388,-0.000163202,-0.000205735,-0.000939088,-0.00479674,-0.0501593,4988,4934,0
241180730,241180617,4259850,4325386,-0.000376875,0.00110197,0.000561003,0.00572029,0.0281258,-0.0449979,4963,4969,0
241679346,241679234,4259850,4325386,0.00275686,-0.00139078,-0.000212453,-0.00590837,-0.00284529,-0.0544503,4956,4934,0
242178648,242178061,4259850,4325386,0.00071768,-0.00071454,-0.000321437,0.0015009,-0.0202291,-0.0421173,5009,4900,0
242682349,242682141,4259850,4325386,-0.000844233,0.000714544,-7.9212e-05,-0.00441802,-0.0127739,-0.0532599,4955,4933,0
243180753,243180637,4259850,4325386,0.000985169,-0.000304169,-0.000330801,-0.00199078,-0.00413211,-0.0473605,4952,4934,0
243679554,243679443,4259850,4325386,-0.000979604,0.000276082,0.000577595,0.0101104,0.0182706,-0.0419527,4946,4933,0
244183385,244183273,4259850,4325386,0.00199668,-0.000133981,-0.000211081,0.0106592,0.00495554,-0.0355659,4962,4980,0
244682320,244682041,4259850,4325386,0.000151266,0.000485605,0.000446703,0.0054851,0.0167268,-0.0464113,4990,4930,0
245180955,245180844,4259850,4325386,0.000860467,-0.000474048,-0.00015393,0.0123598,0.0101309,-0.0424124,4989,4960,0
245680016,245679828,4259850,4325386,-0.00254734,0.00126618,0.0014208,-0.000383231,0.0261979,-0.041183,4968,3938,0
246183007,246182894,4259850,4325386,0.000580802,0.000473125,-0.000130786,-0.00407881,-0.0125076,-0.0526046,4980,4956,0
246682019,246681864,4259850,4325386,0.00148085,-0.000608462,-0.00151582,-0.00604261,-0.0156192,-0.0498088,4986,4986,0
247181176,247181050,4259850,4325386,0.000241079,0.000290856,-0.00041735,-0.00391176,0.0016091,-0.0470261,4986,4690,0
247679975,247679854,4259850,4325386,-0.000524134,-0.000644572,-0.00026984,-0.0071313,-0.0281335,-0.0523789,4988,4931,0
248183926,248183659,4259850,4325386,-0.00165467,0.000597046,0.000594723,0.00146525,0.0144046,-0.0600649,4996,5662,0
248682050,248681909,4259850,4325386,3.77295e-05,-0.000110297,0.000462485,-0.00651158,-0.0117897,-0.0561351,4991,4935,0
249180820,249180709,4259850,4325386,-0.0017563,0.00101618,0.000519484,-0.00290871,0.023142,-0.0568043,4988,4932,0
249679855,249679652,4259850,4325386,-0.000449295,-4.57222e-06,-0.000335992,-0.0058069,-0.00691955,-0.0548593,4943,4934,0
250178598,250178480,4259850,4325386,0.00148095,-0.00215935,-0.00107852,0.00468181,-0.0227717,-0.0448412,4990,4934,0
250682257,250682118,4259850,4325386,0.00151091,2.59047e-05,-0.000613994,-0.00657766,-0.00743169,-0.0392833,4993,4069,0
251181028,251180918,4259850,4325386,0.00104255,-0.000353156,-0.0011227,0.000865251,-0.0257785,-0.0457278,4990,4973,0
251684426,251684282,4259850,4325386,0.0028185,-0.000420606,-0.000275346,0.0171243,0.0161743,-0.0341633,4990,4964,0
252177720,252177531,4259850,4325386,0.000662031,-0.00124344,-0.000237122,-0.0035003,0.0061644,-0.0495178,4992,4995,0
252681434,252681320,4259850,4325386,0.00108044,-0.000998513,0.000518023,0.00325492,-0.0069381,-0.0443559,4988,4932,0
253180506,253180311,4259850,4325386,-0.000656052,-0.00160042,-0.000972073,0.0023423,-0.00111956,-0.0448263,4967,4970,0
253679247,253679121,4259850,4325386,-0.00170319,0.00231224,0.000619769,-0.00311346,0.00859585,-0.0554524,4992,4934,0
254183637,254183491,4259850,4325386,-0.00207949,-0.00259726,0.000602763,0.0024201,0.023059,-0.0447008,4971,4686,0
254681693,254681580,4259850,4325386,-0.0010629,0.00293206,2.08899e-05,0.00515619,0.0117479,-0.0451974,5041,4928,0
255184482,255184371,4259850,4325386,0.00127627,-0.000250777,-6.71008e-05,-0.000637093,-0.00560618,-0.0482599,4988,4935,0
255677800,255677691,4259850,4325386,-0.00139748,0.000559149,0.00127473,-0.00362012,0.0267359,-0.052961,4979,4949,0
256181647,256181483,4259850,4325386,-0.000688754,0.000252534,0.0003949,-0.0050698,-0.00127954,-0.0477185,4955,4936,0
256680440,256680238,4259850,4325386,-0.00261192,0.000406609,-0.0003415,0.00414254,0.00609006,-0.0457159,4988,5604,0
257179173,257179043,4259850,4325386,-0.000506973,0.000853979,0.000690729,-0.00702253,-0.00114273,-0.0544844,4985,4985,0
257682679,257682520,4259850,4325386,0.000287907,-0.000492774,0.000299283,-0.000492918,-0.000113501,-0.0424146,4991,4936,0
258181262,258181141,4259850,4325386,-0.00204068,0.0013809,-2.5297e-06,-0.0144154,-0.0198904,-0.0583451,4989,4934,0
258685061,258684948,4259850,4325386,0.00131116,0.00015761,0.000326138,0.00867735,0.0214818,-0.0444607,4979,4987,0
259178866,259178750,4259850,4325386,0.000219122,-0.00050283,0.000246048,-0.00654608,-0.00636476,-0.0562219,4987,4936,0
259682971,259682544,4259850,4325386,0.000312003,-0.000159819,-0.000366361,0.00651459,-0.0133181,-0.0401704,4986,4936,0
260181644,260181536,4259850,4325386,0.000240688,-5.34067e-05,1.99209e-05,-0.00688913,-0.00757504,-0.0579049,4962,4961,0
260680293,260680152,4259850,4325386,-0.00104719,-0.000285875,-0.000771734,-0.0109326,-0.0244248,-0.0550887,4988,4928,0
261184067,261183950,4259850,4325386,-0.000283779,0.000428209,0.000914602,-0.000242865,-0.0062573,-0.0503422,4992,4932,0
261682881,261682758,4259850,4325386,0.000515341,0.000192087,9.38599e-05,-0.00719852,0.00369983,-0.0587032,4996,4970,0
262181953,262181831,4259850,4325386,-0.000518039,-0.000918245,0.000538105,-0.0067036,0.014057,-0.055814,5262,4934,0
262679995,262679861,4259850,4325386,-0.0021235,0.000766838,0.000364936,-0.0104754,0.0135281,-0.0593258,4979,4956,0
263178828,263178666,4259850,4325386,0.00619885,0.000150394,0.000193575,0.0122947,-0.0101846,-0.035403,4989,4935,0
263682576,263682463,4259850,4325386,0.00199874,0.000182972,-0.000142692,-0.0071059,0.000789253,-0.0503647,4993,4960,0
264180897,264180763,4259850,4325386,-0.000539957,0.000382212,-0.000162874,-0.00652952,-0.0165477,-0.053451,4988,4934,0
264685060,264684567,4259850,4325386,0.000106136,0.000164261,-0.000365106,-0.00571004,-0.000495729,-0.0526924,4995,4883,0
265183510,265183401,4259850,4325386,0.00241388,-0.000283533,-0.000466304,-0.00805531,-0.0065738,-0.0562096,5027,4918,0
265682589,265682445,4259850,4325386,0.00116361,0.00570074,-5.1362e-05,0.00138526,-0.0201451,-0.0539119,5268,4992,0
266181138,266180971,4259850,4325386,0.0012295,-0.000406143,0.000360941,0.00134756,0.00107741,-0.0590684,4987,5924,0
266680395,266680281,4259850,4325386,0.000546249,-0.00104677,-0.00110927,0.00996533,-0.00457594,-0.0433198,4993,4935,0
267178947,267178810,4259850,4325386,-0.000615014,0.000117389,-0.00076567,-0.000714577,0.00504338,-0.0491055,4967,4959,0
267682572,267682381,4259850,4325386,0.000126296,-3.46156e-06,0.000670761,0.00746279,-0.00603978,-0.049783,4996,5868,0
268181825,268181180,4259850,4325386,-0.000915655,1.22577e-05,0.000363656,0.00972687,0.0155849,-0.0398075,4981,4979,0
268680314,268680134,4259850,4325386,-0.00199061,0.000510215,0.000910123,0.00753597,0.0207402,-0.0404956,4973,4970,0
269183438,269183325,4259850,4325386,0.000124725,-9.9247e-05,0.000324805,0.00322909,-0.00654773,-0.0429423,4988,4960,0
