timestamp,x,y,z,r,flaps,aux1,aux2,aux3,aux4,aux5,aux6,mode_switch,return_switch,rattitude_switch,posctl_switch,loiter_switch,acro_switch,offboard_switch,kill_switch,arm_switch,transition_switch,gear_switch,mode_slot,data_source,stab_switch,man_switch
218177527,-0.0,0.0,-0.0,1.0,0.0,0.0,0.0,0.0,0.0,0.0,0.0,0,0,0,0,3,0,0,3,0,0,0,1,1,0,0
218192461,-0.0,0.0,-0.0,1.0,0.0,0.0,0.0,0.0,0.0,0.0,0.0,0,0,0,0,3,0,0,3,0,0,0,1,1,0,0
218390767,-0.0,0.0,-0.0,1.0,0.0,0.0,0.0,0.0,0.0,0.0,0.0,0,0,0,0,3,0,0,3,0,0,0,1,1,0,0
218589538,-0.0,0.0,-0.0,0.35049018,0.0,0.0,0.0,0.0,0.0,0.0,0.0,0,0,0,0,3,0,0,3,0,0,0,1,1,0,0
218788236,-0.0,0.0,-0.0,0.0,0.0,0.0,0.0,0.0,0.0,0.0,0.0,0,0,0,0,3,0,0,3,0,0,0,1,1,0,0
218987106,-0.0,0.0,-0.0,0.0,0.0,0.0,0.0,0.0,0.0,0.0,0.0,0,0,0,0,3,0,0,3,0,0,0,1,1,0,0
219193323,-0.0,0.0,-0.0,-0.0022779044,0.0,0.0,0.0,0.0,0.0,0.0,0.0,0,0,0,0,3,0,0,3,0,0,0,1,1,0,0
219384259,-0.0,0.0,-0.0,0.0,0.0,0.0,0.0,0.0,0.0,0.0,0.0,0,0,0,0,3,0,0,3,0,0,0,1,1,0,0
219585645,-0.0,0.0,-0.0,0.0,0.0,0.0,0.0,0.0,0.0,0.0,0.0,0,0,0,0,3,0,0,3,0,0,0,1,1,0,0
219784582,-0.0,0.0,-0.0,0.0,0.0,0.0,0.0,0.0,0.0,0.0,0.0,0,0,0,0,3,0,0,3,0,0,0,1,1,0,0
219985400,-0.0,0.0,-0.0,0.0,0.0,0.0,0.0,0.0,0.0,0.0,0.0,0,0,0,0,3,0,0,3,0,0,0,1,1,0,0
220184001,-0.0,0.0,-0.0,0.0,0.0,0.0,0.0,0.0,0.0,0.0,0.0,0,0,0,0,3,0,0,3,0,0,0,1,1,0,0
220385462,-0.0,0.0,-0.0,0.0,0.0,0.0,0.0,0.0,0.0,0.0,0.0,0,0,0,0,3,0,0,3,0,0,0,1,1,0,0
220586470,-0.0,0.0,-0.0,0.0,0.0,0.0,0.0,0.0,0.0,0.0,0.0,0,0,0,0,3,0,0,3,0,0,0,1,1,0,0
220787754,-0.0,0.0,-0.0,-0.0022779044,0.0,0.0,0.0,0.0,0.0,0.0,0.0,0,0,0,0,3,0,0,3,0,0,0,1,1,0,0
220988724,-0.0,0.0,-0.0,0.0,0.0,0.0,0.0,0.0,0.0,0.0,0.0,0,0,0,0,3,0,0,3,0,0,0,1,1,0,0
221187354,-0.0,0.0,-0.0,-0.0022779044,0.0,0.0,0.0,0.0,0.0,0.0,0.0,0,0,0,0,3,0,0,3,0,0,0,1,1,0,0
221388824,-0.0,0.0,-0.0,0.0,0.0,0.0,0.0,0.0,0.0,0.0,0.0,0,0,0,0,3,0,0,3,0,0,0,1,1,0,0
221589829,-0.0,0.0,-0.0,0.0,0.0,0.0,0.0,0.0,0.0,0.0,0.0,0,0,0,0,3,0,0,3,0,0,0,1,1,0,0
221788613,-0.0,0.0,-0.0,0.0,0.0,0.0,0.0,0.0,0.0,0.0,0.0,0,0,0,0,3,0,0,3,0,0,0,1,1,0,0
221989806,-0.0,0.0,-0.0,0.0,0.0,0.0,0.0,0.0,0.0,0.0,0.0,0,0,0,0,3,0,0,3,0,0,0,1,1,0,0
222190847,-0.0,0.0,-0.0,0.9264706,0.0,0.0,0.0,0.0,0.0,0.0,0.0,0,0,0,0,3,0,0,3,0,0,0,1,1,0,0
222389455,-0.0,0.0,-0.0,1.0,0.0,0.0,0.0,0.0,0.0,0.0,0.0,0,0,0,0,3,0,0,3,0,0,0,1,1,0,0
222588304,-0.0,0.0,-0.0,1.0,0.0,0.0,0.0,0.0,0.0,0.0,0.0,0,0,0,0,3,0,0,3,0,0,0,1,1,0,0
222786961,-0.0,0.0,-0.0,0.0,0.0,0.0,0.0,0.0,0.0,0.0,0.0,0,0,0,0,3,0,0,3,0,0,0,1,1,0,0
222985837,-0.0,0.0,0.026035503,0.0,0.0,0.0,0.0,0.0,0.0,0.0,0.0,0,0,0,0,3,0,0,3,0,0,0,1,1,0,0
223186946,-0.0,0.0,0.16804734,0.0,0.0,0.0,0.0,0.0,0.0,0.0,0.0,0,0,0,0,3,0,0,3,0,0,0,1,1,0,0
223387844,-0.0,0.0,0.29467455,0.0,0.0,0.0,0.0,0.0,0.0,0.0,0.0,0,0,0,0,3,0,0,3,0,0,0,1,1,0,0
223586495,-0.0,0.0,0.28757396,0.0,0.0,0.0,0.0,0.0,0.0,0.0,0.0,0,0,0,0,3,0,0,3,0,0,0,1,1,0,0
223788065,-0.0,0.0,0.295858,0.0,0.0,0.0,0.0,0.0,0.0,0.0,0.0,0,0,0,0,3,0,0,3,0,0,0,1,1,0,0
223989099,-0.0,0.0,0.34319526,0.0,0.0,0.0,0.0,0.0,0.0,0.0,0.0,0,0,0,0,3,0,0,3,0,0,0,1,1,0,0
224190934,-0.0,0.0,0.37514794,0.0,0.0,0.0,0.0,0.0,0.0,0.0,0.0,0,0,0,0,3,0,0,3,0,0,0,1,1,0,0
224391191,-0.0,0.10361446,0.3739645,0.0,0.0,0.0,0.0,0.0,0.0,0.0,0.0,0,0,0,0,3,0,0,3,0,0,0,1,1,0,0
224593329,-0.0,0.21445782,0.37751478,0.0,0.0,0.0,0.0,0.0,0.0,0.0,0.0,0,0,0,0,3,0,0,3,0,0,0,1,1,0,0
224772210,-0.0,0.17590362,0.3810651,0.0,0.0,0.0,0.0,0.0,0.0,0.0,0.0,0,0,0,0,3,0,0,3,0,0,0,1,1,0,0
224972464,-0.0,0.084337346,0.41301775,0.0,0.0,0.0,0.0,0.0,0.0,0.0,0.0,0,0,0,0,3,0,0,3,0,0,0,1,1,0,0
225174003,-0.0,0.036144577,0.44970414,0.0,0.0,0.0,0.0,0.0,0.0,0.0,0.0,0,0,0,0,3,0,0,3,0,0,0,1,1,0,0
225374777,-0.0,0.08915663,0.49112427,0.0,0.0,0.0,0.0,0.0,0.0,0.0,0.0,0,0,0,0,3,0,0,3,0,0,0,1,1,0,0
225573493,-0.0,0.18072289,0.5100592,0.0,0.0,0.0,0.0,0.0,0.0,0.0,0.0,0,0,0,0,3,0,0,3,0,0,0,1,1,0,0
225775316,-0.0,0.23373494,0.5100592,0.0,0.0,0.0,0.0,0.0,0.0,0.0,0.0,0,0,0,0,3,0,0,3,0,0,0,1,1,0,0
225975870,-0.0,0.053012047,0.5313609,0.0,0.0,0.0,0.0,0.0,0.0,0.0,0.0,0,0,0,0,3,0,0,3,0,0,0,1,1,0,0
226177094,-0.0,0.012048192,0.54674554,0.0,0.0,0.0,0.0,0.0,0.0,0.0,0.0,0,0,0,0,3,0,0,3,0,0,0,1,1,0,0
226373419,-0.0,0.01686747,0.5704142,0.0,0.0,0.0,0.0,0.0,0.0,0.0,0.0,0,0,0,0,3,0,0,3,0,0,0,1,1,0,0
226571927,-0.0,0.13493976,0.5810651,0.0,0.0,0.0,0.0,0.0,0.0,0.0,0.0,0,0,0,0,3,0,0,3,0,0,0,1,1,0,0
226773813,-0.0,0.2626506,0.5763314,0.0,0.0,0.0,0.0,0.0,0.0,0.0,0.0,0,0,0,0,3,0,0,3,0,0,0,1,1,0,0
226974281,-0.0,0.33493975,0.57159764,0.0,0.0,0.0,0.0,0.0,0.0,0.0,0.0,0,0,0,0,3,0,0,3,0,0,0,1,1,0,0
227175714,-0.0,0.32289156,0.5727811,0.0,0.0,0.0,0.0,0.0,0.0,0.0,0.0,0,0,0,0,3,0,0,3,0,0,0,1,1,0,0
227381917,-0.0,0.3180723,0.5727811,0.0,0.0,0.0,0.0,0.0,0.0,0.0,0.0,0,0,0,0,3,0,0,3,0,0,0,1,1,0,0
227592989,-0.0,0.25060242,0.57159764,0.0,0.0,0.0,0.0,0.0,0.0,0.0,0.0,0,0,0,0,3,0,0,3,0,0,0,1,1,0,0
227771674,-0.0,0.0,0.5704142,0.0,0.0,0.0,0.0,0.0,0.0,0.0,0.0,0,0,0,0,3,0,0,3,0,0,0,1,1,0,0
227972718,-0.0,0.0,0.5704142,0.0,0.0,0.0,0.0,0.0,0.0,0.0,0.0,0,0,0,0,3,0,0,3,0,0,0,1,1,0,0
228174002,-0.0,0.0,0.5704142,0.0,0.0,0.0,0.0,0.0,0.0,0.0,0.0,0,0,0,0,3,0,0,3,0,0,0,1,1,0,0
228375035,-0.0,0.0,0.5704142,0.0,0.0,0.0,0.0,0.0,0.0,0.0,0.0,0,0,0,0,3,0,0,3,0,0,0,1,1,0,0
228576361,-0.0,0.0,0.5704142,0.0,0.0,0.0,0.0,0.0,0.0,0.0,0.0,0,0,0,0,3,0,0,3,0,0,0,1,1,0,0
228775566,-0.0,0.0,0.5704142,0.0,0.0,0.0,0.0,0.0,0.0,0.0,0.0,0,0,0,0,3,0,0,3,0,0,0,1,1,0,0
228976070,-0.0,0.0,0.5704142,0.0,0.0,0.0,0.0,0.0,0.0,0.0,0.0,0,0,0,0,3,0,0,3,0,0,0,1,1,0,0
229177446,-0.0,0.012048192,0.547929,0.0,0.0,0.0,0.0,0.0,0.0,0.0,0.0,0,0,0,0,3,0,0,3,0,0,0,1,1,0,0
229378405,-0.0,0.21204819,0.53846157,0.0,0.0,0.0,0.0,0.0,0.0,0.0,0.0,0,0,0,0,3,0,0,3,0,0,0,1,1,0,0
229579665,-0.0,0.29638556,0.5254438,0.0,0.0,0.0,0.0,0.0,0.0,0.0,0.0,0,0,0,0,3,0,0,3,0,0,0,1,1,0,0
229780616,-0.0,0.37108433,0.52071005,0.0,0.0,0.0,0.0,0.0,0.0,0.0,0.0,0,0,0,0,3,0,0,3,0,0,0,1,1,0,0
229982673,-0.0,0.0,0.52307695,0.0,0.0,0.0,0.0,0.0,0.0,0.0,0.0,0,0,0,0,3,0,0,3,0,0,0,1,1,0,0
230182971,-0.0,0.0,0.5372781,0.0,0.0,0.0,0.0,0.0,0.0,0.0,0.0,0,0,0,0,3,0,0,3,0,0,0,1,1,0,0
230381715,-0.0,0.0,0.556213,0.0,0.0,0.0,0.0,0.0,0.0,0.0,0.0,0,0,0,0,3,0,0,3,0,0,0,1,1,0,0
230580329,-0.0,0.0,0.5751479,0.0,0.0,0.0,0.0,0.0,0.0,0.0,0.0,0,0,0,0,3,0,0,3,0,0,0,1,1,0,0
230781754,-0.0,0.118072286,0.5810651,0.0,0.0,0.0,0.0,0.0,0.0,0.0,0.0,0,0,0,0,3,0,0,3,0,0,0,1,1,0,0
230982853,-0.0,0.18072289,0.5810651,0.0,0.0,0.0,0.0,0.0,0.0,0.0,0.0,0,0,0,0,3,0,0,3,0,0,0,1,1,0,0
231184632,-0.0,0.08915663,0.58343196,0.0,0.0,0.0,0.0,0.0,0.0,0.0,0.0,0,0,0,0,3,0,0,3,0,0,0,1,1,0,0
231383204,0.0647482,0.1493976,0.6035503,0.0,0.0,0.0,0.0,0.0,0.0,0.0,0.0,0,0,0,0,3,0,0,3,0,0,0,1,1,0,0
231581866,0.023980815,0.21927711,0.6035503,0.0,0.0,0.0,0.0,0.0,0.0,0.0,0.0,0,0,0,0,3,0,0,3,0,0,0,1,1,0,0
231782549,0.016786572,0.25060242,0.6035503,0.0,0.0,0.0,0.0,0.0,0.0,0.0,0.0,0,0,0,0,3,0,0,3,0,0,0,1,1,0,0
231984308,0.023980815,0.20240964,0.6047337,0.0,0.0,0.0,0.0,0.0,0.0,0.0,0.0,0,0,0,0,3,0,0,3,0,0,0,1,1,0,0
232179779,0.055155877,0.1493976,0.6047337,0.0,0.0,0.0,0.0,0.0,0.0,0.0,0.0,0,0,0,0,3,0,0,3,0,0,0,1,1,0,0
232381311,0.035971224,0.06506024,0.60591716,0.0,0.0,0.0,0.0,0.0,0.0,0.0,0.0,0,0,0,0,3,0,0,3,0,0,0,1,1,0,0
232579896,-0.0,0.0,0.5325444,0.0,0.0,0.0,0.0,0.0,0.0,0.0,0.0,0,0,0,0,3,0,0,3,0,0,0,1,1,0,0
232780847,-0.0,0.0,0.5005917,0.0,0.0,0.0,0.0,0.0,0.0,0.0,0.0,0,0,0,0,3,0,0,3,0,0,0,1,1,0,0
232983041,-0.0,0.0,0.5005917,0.0,0.0,0.0,0.0,0.0,0.0,0.0,0.0,0,0,0,0,3,0,0,3,0,0,0,1,1,0,0
233183142,-0.0,0.0,0.5005917,0.0,0.0,0.0,0.0,0.0,0.0,0.0,0.0,0,0,0,0,1,0,0,3,0,0,0,1,1,0,0
233380304,-0.0,0.0,0.5005917,0.0,0.0,0.0,0.0,0.0,0.0,0.0,0.0,0,0,0,0,1,0,0,3,0,0,0,1,1,0,0
233580696,-0.0,0.0,0.5005917,0.0,0.0,0.0,0.0,0.0,0.0,0.0,0.0,0,0,0,0,1,0,0,3,0,0,0,1,1,0,0
233782322,-0.0,0.0,0.5005917,0.0,0.0,0.0,0.0,0.0,0.0,0.0,0.0,0,0,0,0,1,0,0,3,0,0,0,1,1,0,0
233982998,-0.0,0.0,0.5005917,0.0,0.0,0.0,0.0,0.0,0.0,0.0,0.0,0,0,0,0,1,0,0,3,0,0,0,1,1,0,0
234184280,-0.0,0.0,0.5005917,0.0,0.0,0.0,0.0,0.0,0.0,0.0,0.0,0,0,0,0,1,0,0,3,0,0,0,1,1,0,0
234383462,-0.0,0.0,0.5005917,0.0,0.0,0.0,0.0,0.0,0.0,0.0,0.0,0,0,0,0,1,0,0,3,0,0,0,1,1,0,0
234584200,-0.0,0.0,0.5005917,0.0,0.0,0.0,0.0,0.0,0.0,0.0,0.0,0,0,0,0,1,0,0,3,0,0,0,1,1,0,0
234785408,-0.0,0.0,0.5005917,0.0,0.0,0.0,0.0,0.0,0.0,0.0,0.0,0,0,0,0,1,0,0,3,0,0,0,1,1,0,0
234986386,-0.0,0.0,0.5005917,0.0,0.0,0.0,0.0,0.0,0.0,0.0,0.0,0,0,0,0,1,0,0,3,0,0,0,1,1,0,0
235187679,-0.0,0.0,0.5005917,0.0,0.0,0.0,0.0,0.0,0.0,0.0,0.0,0,0,0,0,1,0,0,3,0,0,0,1,1,0,0
235388862,-0.0,0.0,0.5005917,0.0,0.0,0.0,0.0,0.0,0.0,0.0,0.0,0,0,0,0,1,0,0,3,0,0,0,1,1,0,0
235590419,-0.0,0.0,0.5005917,0.0,0.0,0.0,0.0,0.0,0.0,0.0,0.0,0,0,0,0,1,0,0,3,0,0,0,1,1,0,0
235790953,-0.0,0.0,0.5005917,0.0,0.0,0.0,0.0,0.0,0.0,0.0,0.0,0,0,0,0,1,0,0,3,0,0,0,1,1,0,0
235989617,-0.0,0.0,0.5005917,0.0,0.0,0.0,0.0,0.0,0.0,0.0,0.0,0,0,0,0,1,0,0,3,0,0,0,1,1,0,0
236191714,-0.0,0.0,0.5005917,0.0,0.0,0.0,0.0,0.0,0.0,0.0,0.0,0,0,0,0,1,0,0,3,0,0,0,1,1,0,0
236392128,-0.0,0.0,0.5005917,0.0,0.0,0.0,0.0,0.0,0.0,0.0,0.0,0,0,0,0,1,0,0,3,0,0,0,1,1,0,0
236570966,-0.0,0.0,0.5005917,0.0,0.0,0.0,0.0,0.0,0.0,0.0,0.0,0,0,0,0,1,0,0,3,0,0,0,1,1,0,0
236769545,-0.0,0.0,0.5005917,0.0,0.0,0.0,0.0,0.0,0.0,0.0,0.0,0,0,0,0,1,0,0,3,0,0,0,1,1,0,0
236993243,-0.0,0.0,0.5005917,0.0,0.0,0.0,0.0,0.0,0.0,0.0,0.0,0,0,0,0,1,0,0,3,0,0,0,1,1,0,0
237191773,-0.0,0.0,0.5005917,0.0,0.0,0.0,0.0,0.0,0.0,0.0,0.0,0,0,0,0,1,0,0,3,0,0,0,1,1,0,0
237390628,-0.0,0.0,0.5005917,0.0,0.0,0.0,0.0,0.0,0.0,0.0,0.0,0,0,0,0,1,0,0,3,0,0,0,1,1,0,0
237589215,-0.0,0.0,0.5005917,0.0,0.0,0.0,0.0,0.0,0.0,0.0,0.0,0,0,0,0,1,0,0,3,0,0,0,1,1,0,0
237787993,-0.0,0.0,0.5005917,0.0,0.0,0.0,0.0,0.0,0.0,0.0,0.0,0,0,0,0,1,0,0,3,0,0,0,1,1,0,0
237986515,-0.0,0.0,0.5005917,0.0,0.0,0.0,0.0,0.0,0.0,0.0,0.0,0,0,0,0,1,0,0,3,0,0,0,1,1,0,0
238188363,-0.0,0.0,0.5005917,0.0,0.0,0.0,0.0,0.0,0.0,0.0,0.0,0,0,0,0,1,0,0,3,0,0,0,1,1,0,0
238386649,-0.0,0.0,0.5005917,0.0,0.0,0.0,0.0,0.0,0.0,0.0,0.0,0,0,0,0,1,0,0,3,0,0,0,1,1,0,0
238587636,-0.0,0.0,0.5005917,0.0,0.0,0.0,0.0,0.0,0.0,0.0,0.0,0,0,0,0,1,0,0,3,0,0,0,1,1,0,0
238789369,-0.0,0.0,0.5005917,0.0,0.0,0.0,0.0,0.0,0.0,0.0,0.0,0,0,0,0,1,0,0,3,0,0,0,1,1,0,0
238990144,-0.0,0.0,0.5005917,0.0,0.0,0.0,0.0,0.0,0.0,0.0,0.0,0,0,0,0,1,0,0,3,0,0,0,1,1,0,0
239188732,-0.0,0.0,0.5005917,0.0,0.0,0.0,0.0,0.0,0.0,0.0,0.0,0,0,0,0,1,0,0,3,0,0,0,1,1,0,0
239390348,-0.0,0.0,0.5005917,0.0,0.0,0.0,0.0,0.0,0.0,0.0,0.0,0,0,0,0,1,0,0,3,0,0,0,1,1,0,0
239585907,-0.0,0.0,0.5005917,0.0,0.0,0.0,0.0,0.0,0.0,0.0,0.0,0,0,0,0,1,0,0,3,0,0,0,1,1,0,0
239787488,-0.0,0.0,0.49940827,0.0,0.0,0.0,0.0,0.0,0.0,0.0,0.0,0,0,0,0,1,0,0,3,0,0,0,1,1,0,0
239983506,-0.0,0.0,0.49112427,-0.038724374,0.0,0.0,0.0,0.0,0.0,0.0,0.0,0,0,0,0,1,0,0,3,0,0,0,1,1,0,0
240184721,-0.0,0.0,0.49112427,-0.04783599,0.0,0.0,0.0,0.0,0.0,0.0,0.0,0,0,0,0,1,0,0,3,0,0,0,1,1,0,0
240383805,-0.0,0.0,0.48994082,-0.034168564,0.0,0.0,0.0,0.0,0.0,0.0,0.0,0,0,0,0,1,0,0,3,0,0,0,1,1,0,0
240584394,-0.0,0.0,0.4781065,-0.050113894,0.0,0.0,0.0,0.0,0.0,0.0,0.0,0,0,0,0,1,0,0,3,0,0,0,1,1,0,0
240785847,-0.0,0.0,0.48402366,0.0,0.0,0.0,0.0,0.0,0.0,0.0,0.0,0,0,0,0,1,0,0,3,0,0,0,1,1,0,0
240984398,-0.0,0.0,0.48165682,0.0,0.0,0.0,0.0,0.0,0.0,0.0,0.0,0,0,0,0,1,0,0,3,0,0,0,1,1,0,0
241185441,-0.0,0.0,0.48165682,0.0,0.0,0.0,0.0,0.0,0.0,0.0,0.0,0,0,0,0,1,0,0,3,0,0,0,1,1,0,0
241384115,-0.0,0.0,0.48165682,0.0,0.0,0.0,0.0,0.0,0.0,0.0,0.0,0,0,0,0,1,0,0,3,0,0,0,1,1,0,0
241585499,-0.0,0.0,0.48165682,0.0,0.0,0.0,0.0,0.0,0.0,0.0,0.0,0,0,0,0,1,0,0,3,0,0,0,1,1,0,0
241784515,-0.0,0.0,0.48402366,0.0,0.0,0.0,0.0,0.0,0.0,0.0,0.0,0,0,0,0,1,0,0,3,0,0,0,1,1,0,0
241983423,-0.0,0.0,0.48639053,0.0,0.0,0.0,0.0,0.0,0.0,0.0,0.0,0,0,0,0,1,0,0,3,0,0,0,1,1,0,0
242179057,-0.0,0.0,0.48402366,0.0,0.0,0.0,0.0,0.0,0.0,0.0,0.0,0,0,0,0,1,0,0,3,0,0,0,1,1,0,0
242381509,-0.0,0.0,0.48284024,0.0,0.0,0.0,0.0,0.0,0.0,0.0,0.0,0,0,0,0,1,0,0,3,0,0,0,1,1,0,0
242578933,-0.004761905,0.0,0.48165682,0.0,0.0,0.0,0.0,0.0,0.0,0.0,0.0,0,0,0,0,1,0,0,3,0,0,0,1,1,0,0
242779930,-0.0,0.0,0.48165682,0.0,0.0,0.0,0.0,0.0,0.0,0.0,0.0,0,0,0,0,1,0,0,3,0,0,0,1,1,0,0
242976480,-0.0,0.0,0.48165682,0.0,0.0,0.0,0.0,0.0,0.0,0.0,0.0,0,0,0,0,1,0,0,3,0,0,0,1,1,0,0
243177388,-0.0,0.0,0.48165682,0.0,0.0,0.0,0.0,0.0,0.0,0.0,0.0,0,0,0,0,1,0,0,3,0,0,0,1,1,0,0
243378597,-0.0,0.0,0.48165682,0.0,0.0,0.0,0.0,0.0,0.0,0.0,0.0,0,0,0,0,1,0,0,3,0,0,0,1,1,0,0
243579787,-0.0,0.0,0.48165682,0.0,0.0,0.0,0.0,0.0,0.0,0.0,0.0,0,0,0,0,1,0,0,3,0,0,0,1,1,0,0
243781605,-0.0,0.0,0.48165682,0.0,0.0,0.0,0.0,0.0,0.0,0.0,0.0,0,0,0,0,1,0,0,3,0,0,0,1,1,0,0
243982132,-0.0,0.0,0.48402366,0.0,0.0,0.0,0.0,0.0,0.0,0.0,0.0,0,0,0,0,1,0,0,3,0,0,0,1,1,0,0
244183334,-0.0,0.0,0.48284024,0.0,0.0,0.0,0.0,0.0,0.0,0.0,0.0,0,0,0,0,1,0,0,3,0,0,0,1,1,0,0
244382611,-0.0,0.0,0.48165682,0.0,0.0,0.0,0.0,0.0,0.0,0.0,0.0,0,0,0,0,1,0,0,3,0,0,0,1,1,0,0
244582991,-0.0,0.0,0.47928995,0.0,0.0,0.0,0.0,0.0,0.0,0.0,0.0,0,0,0,0,1,0,0,3,0,0,0,1,1,0,0
244781741,-0.0,0.0,0.4852071,0.0,0.0,0.0,0.0,0.0,0.0,0.0,0.0,0,0,0,0,1,0,0,3,0,0,0,1,1,0,0
244983389,-0.0,0.0,0.48639053,0.0,0.0,0.0,0.0,0.0,0.0,0.0,0.0,0,0,0,0,1,0,0,3,0,0,0,1,1,0,0
245184005,-0.0,0.0,0.48639053,0.0,0.0,0.0,0.0,0.0,0.0,0.0,0.0,0,0,0,0,1,0,0,3,0,0,0,1,1,0,0
245382729,-0.0,0.0,0.48757395,0.0,0.0,0.0,0.0,0.0,0.0,0.0,0.0,0,0,0,0,1,0,0,3,0,0,0,1,1,0,0
245584140,-0.0,0.0,0.48639053,0.0,0.0,0.0,0.0,0.0,0.0,0.0,0.0,0,0,0,0,1,0,0,3,0,0,0,1,1,0,0
245790721,-0.0,0.0,0.4852071,0.0,0.0,0.0,0.0,0.0,0.0,0.0,0.0,0,0,0,0,1,0,0,3,0,0,0,1,1,0,0
245978775,-0.0,0.0,0.4852071,0.0,0.0,0.0,0.0,0.0,0.0,0.0,0.0,0,0,0,0,1,0,0,3,0,0,0,1,1,0,0
246181136,-0.0,0.0,0.4852071,0.0,0.0,0.0,0.0,0.0,0.0,0.0,0.0,0,0,0,0,1,0,0,3,0,0,0,1,1,0,0
246381345,-0.0,0.0,0.4852071,0.0,0.0,0.0,0.0,0.0,0.0,0.0,0.0,0,0,0,0,1,0,0,3,0,0,0,1,1,0,0
246582506,-0.0,0.0,0.4852071,0.0,0.0,0.0,0.0,0.0,0.0,0.0,0.0,0,0,0,0,1,0,0,3,0,0,0,1,1,0,0
246781653,-0.0,0.0,0.4852071,0.0,0.0,0.0,0.0,0.0,0.0,0.0,0.0,0,0,0,0,1,0,0,3,0,0,0,1,1,0,0
246979960,-0.0,0.0,0.48402366,0.0,0.0,0.0,0.0,0.0,0.0,0.0,0.0,0,0,0,0,1,0,0,3,0,0,0,1,1,0,0
247180875,-0.0,0.0,0.4852071,0.0,0.0,0.0,0.0,0.0,0.0,0.0,0.0,0,0,0,0,1,0,0,3,0,0,0,1,1,0,0
247379680,-0.0,0.0,0.4852071,0.0,0.0,0.0,0.0,0.0,0.0,0.0,0.0,0,0,0,0,1,0,0,3,0,0,0,1,1,0,0
247578449,-0.0,0.0,0.4852071,0.0,0.0,0.0,0.0,0.0,0.0,0.0,0.0,0,0,0,0,1,0,0,3,0,0,0,1,1,0,0
247779566,0.052757792,0.0,0.4852071,0.0,0.0,0.0,0.0,0.0,0.0,0.0,0.0,0,0,0,0,1,0,0,3,0,0,0,1,1,0,0
247980751,0.107913665,0.0,0.4852071,0.0,0.0,0.0,0.0,0.0,0.0,0.0,0.0,0,0,0,0,1,0,0,3,0,0,0,1,1,0,0
248182480,0.09592326,0.0,0.48402366,0.0,0.0,0.0,0.0,0.0,0.0,0.0,0.0,0,0,0,0,1,0,0,3,0,0,0,1,1,0,0
248382981,0.117506,0.0,0.4852071,0.0,0.0,0.0,0.0,0.0,0.0,0.0,0.0,0,0,0,0,1,0,0,3,0,0,0,1,1,0,0
248584971,0.08872902,0.0,0.48402366,0.0,0.0,0.0,0.0,0.0,0.0,0.0,0.0,0,0,0,0,1,0,0,3,0,0,0,1,1,0,0
248785399,0.09832134,0.0,0.48402366,0.0,0.0,0.0,0.0,0.0,0.0,0.0,0.0,0,0,0,0,1,0,0,3,0,0,0,1,1,0,0
248983958,0.107913665,0.0,0.4852071,0.0,0.0,0.0,0.0,0.0,0.0,0.0,0.0,0,0,0,0,1,0,0,3,0,0,0,1,1,0,0
249182778,0.07434053,0.0,0.48402366,0.0,0.0,0.0,0.0,0.0,0.0,0.0,0.0,0,0,0,0,1,0,0,3,0,0,0,1,1,0,0
249384240,0.04556355,0.0,0.48402366,0.0,0.0,0.0,0.0,0.0,0.0,0.0,0.0,0,0,0,0,1,0,0,3,0,0,0,1,1,0,0
249584947,-0.0,0.0,0.4852071,0.0,0.0,0.0,0.0,0.0,0.0,0.0,0.0,0,0,0,0,1,0,0,3,0,0,0,1,1,0,0
249782383,-0.0,0.0,0.4852071,0.0,0.0,0.0,0.0,0.0,0.0,0.0,0.0,0,0,0,0,1,0,0,3,0,0,0,1,1,0,0
249981066,-0.0,0.0,0.4852071,0.0,0.0,0.0,0.0,0.0,0.0,0.0,0.0,0,0,0,0,1,0,0,3,0,0,0,1,1,0,0
250181386,-0.0,0.0,0.4852071,0.0,0.0,0.0,0.0,0.0,0.0,0.0,0.0,0,0,0,0,1,0,0,3,0,0,0,1,1,0,0
250383097,-0.0,0.0,0.4852071,0.0,0.0,0.0,0.0,0.0,0.0,0.0,0.0,0,0,0,0,1,0,0,3,0,0,0,1,1,0,0
250583537,-0.0,0.0,0.48757395,0.0,0.0,0.0,0.0,0.0,0.0,0.0,0.0,0,0,0,0,1,0,0,3,0,0,0,1,1,0,0
250785351,-0.0,0.0,0.48757395,0.0,0.0,0.0,0.0,0.0,0.0,0.0,0.0,0,0,0,0,1,0,0,3,0,0,0,1,1,0,0
250985821,-0.0,0.0,0.48757395,0.0,0.0,0.0,0.0,0.0,0.0,0.0,0.0,0,0,0,0,1,0,0,3,0,0,0,1,1,0,0
251184611,-0.0,0.0,0.4887574,0.0,0.0,0.0,0.0,0.0,0.0,0.0,0.0,0,0,0,0,1,0,0,3,0,0,0,1,1,0,0
251385816,0.007194245,0.0,0.48994082,0.0,0.0,0.0,0.0,0.0,0.0,0.0,0.0,0,0,0,0,1,0,0,3,0,0,0,1,1,0,0
251586782,0.09592326,0.0,0.49112427,0.0,0.0,0.0,0.0,0.0,0.0,0.0,0.0,0,0,0,0,1,0,0,3,0,0,0,1,1,0,0
251785598,0.17505996,0.0,0.49112427,0.0,0.0,0.0,0.0,0.0,0.0,0.0,0.0,0,0,0,0,1,0,0,3,0,0,0,1,1,0,0
251984211,0.24220623,0.0,0.4887574,0.0,0.0,0.0,0.0,0.0,0.0,0.0,0.0,0,0,0,0,1,0,0,3,0,0,0,1,1,0,0
252181333,0.23980816,0.0,0.48757395,0.0,0.0,0.0,0.0,0.0,0.0,0.0,0.0,0,0,0,0,1,0,0,3,0,0,0,1,1,0,0
252379334,0.22781774,0.0,0.48639053,0.0,0.0,0.0,0.0,0.0,0.0,0.0,0.0,0,0,0,0,1,0,0,3,0,0,0,1,1,0,0
252577989,0.17505996,0.0,0.48639053,0.0,0.0,0.0,0.0,0.0,0.0,0.0,0.0,0,0,0,0,1,0,0,3,0,0,0,1,1,0,0
252779019,0.16786571,0.0,0.48639053,0.0,0.0,0.0,0.0,0.0,0.0,0.0,0.0,0,0,0,0,1,0,0,3,0,0,0,1,1,0,0
252977793,0.17985612,0.0,0.4852071,0.0,0.0,0.0,0.0,0.0,0.0,0.0,0.0,0,0,0,0,1,0,0,3,0,0,0,1,1,0,0
253179066,0.23741007,0.0,0.4852071,0.0,0.0,0.0,0.0,0.0,0.0,0.0,0.0,0,0,0,0,1,0,0,3,0,0,0,1,1,0,0
253379966,0.23021583,0.0,0.4852071,0.0,0.0,0.0,0.0,0.0,0.0,0.0,0.0,0,0,0,0,1,0,0,3,0,0,0,1,1,0,0
253581925,0.206235,0.0,0.4852071,0.0,0.0,0.0,0.0,0.0,0.0,0.0,0.0,0,0,0,0,1,0,0,3,0,0,0,1,1,0,0
253782441,0.19904077,0.0,0.4852071,0.0,0.0,0.0,0.0,0.0,0.0,0.0,0.0,0,0,0,0,1,0,0,3,0,0,0,1,1,0,0
253983752,0.19904077,0.0,0.4852071,0.0,0.0,0.0,0.0,0.0,0.0,0.0,0.0,0,0,0,0,1,0,0,3,0,0,0,1,1,0,0
254184663,0.18465228,0.0,0.4852071,0.0,0.0,0.0,0.0,0.0,0.0,0.0,0.0,0,0,0,0,1,0,0,3,0,0,0,1,1,0,0
254385968,0.1822542,0.0,0.4852071,0.0,0.0,0.0,0.0,0.0,0.0,0.0,0.0,0,0,0,0,1,0,0,3,0,0,0,1,1,0,0
254586953,0.19904077,0.0,0.4852071,0.0,0.0,0.0,0.0,0.0,0.0,0.0,0.0,0,0,0,0,1,0,0,3,0,0,0,1,1,0,0
254785809,0.206235,0.0,0.4852071,0.0,0.0,0.0,0.0,0.0,0.0,0.0,0.0,0,0,0,0,1,0,0,3,0,0,0,1,1,0,0
254991283,0.2086331,0.0,0.4852071,0.0,0.0,0.0,0.0,0.0,0.0,0.0,0.0,0,0,0,0,1,0,0,3,0,0,0,1,1,0,0
255181202,0.20143884,0.0,0.4852071,0.0,0.0,0.0,0.0,0.0,0.0,0.0,0.0,0,0,0,0,1,0,0,3,0,0,0,1,1,0,0
255381786,0.1822542,0.0,0.4852071,0.0,0.0,0.0,0.0,0.0,0.0,0.0,0.0,0,0,0,0,1,0,0,3,0,0,0,1,1,0,0
255580394,0.17985612,0.0,0.4852071,0.0,0.0,0.0,0.0,0.0,0.0,0.0,0.0,0,0,0,0,1,0,0,3,0,0,0,1,1,0,0
255779055,0.1438849,0.0,0.4852071,0.0,0.0,0.0,0.0,0.0,0.0,0.0,0.0,0,0,0,0,1,0,0,3,0,0,0,1,1,0,0
255977876,0.1031175,0.0,0.48639053,0.0,0.0,0.0,0.0,0.0,0.0,0.0,0.0,0,0,0,0,1,0,0,3,0,0,0,1,1,0,0
256179221,-0.0,0.0,0.48639053,0.0,0.0,0.0,0.0,0.0,0.0,0.0,0.0,0,0,0,0,1,0,0,3,0,0,0,1,1,0,0
256380481,-0.0,0.0,0.48639053,0.0,0.0,0.0,0.0,0.0,0.0,0.0,0.0,0,0,0,0,1,0,0,3,0,0,0,1,1,0,0
256581967,-0.0,0.0,0.48639053,0.0,0.0,0.0,0.0,0.0,0.0,0.0,0.0,0,0,0,0,1,0,0,3,0,0,0,1,1,0,0
256782718,-0.0,0.0,0.48639053,0.0,0.0,0.0,0.0,0.0,0.0,0.0,0.0,0,0,0,0,1,0,0,3,0,0,0,1,1,0,0
256984141,-0.0,0.0,0.48639053,0.0,0.0,0.0,0.0,0.0,0.0,0.0,0.0,0,0,0,0,1,0,0,3,0,0,0,1,1,0,0
257185137,-0.0,0.0,0.48757395,0.0,0.0,0.0,0.0,0.0,0.0,0.0,0.0,0,0,0,0,1,0,0,3,0,0,0,1,1,0,0
257386289,-0.0,0.0,0.48757395,0.0,0.0,0.0,0.0,0.0,0.0,0.0,0.0,0,0,0,0,1,0,0,3,0,0,0,1,1,0,0
257587218,-0.0,0.0,0.48757395,0.0,0.0,0.0,0.0,0.0,0.0,0.0,0.0,0,0,0,0,1,0,0,3,0,0,0,1,1,0,0
257785885,-0.0,0.0,0.48757395,0.0,0.0,0.0,0.0,0.0,0.0,0.0,0.0,0,0,0,0,1,0,0,3,0,0,0,1,1,0,0
257983249,-0.0,0.0,0.48757395,0.0,0.0,0.0,0.0,0.0,0.0,0.0,0.0,0,0,0,0,1,0,0,3,0,0,0,1,1,0,0
258183310,-0.023809524,0.0,0.48757395,0.0,0.0,0.0,0.0,0.0,0.0,0.0,0.0,0,0,0,0,1,0,0,3,0,0,0,1,1,0,0
258385078,-0.102380954,0.0,0.48757395,0.0,0.0,0.0,0.0,0.0,0.0,0.0,0.0,0,0,0,0,1,0,0,3,0,0,0,1,1,0,0
258585810,-0.19761905,0.0,0.48757395,0.0,0.0,0.0,0.0,0.0,0.0,0.0,0.0,0,0,0,0,1,0,0,3,0,0,0,1,1,0,0
258787172,-0.15952381,0.0,0.48757395,0.0,0.0,0.0,0.0,0.0,0.0,0.0,0.0,0,0,0,0,1,0,0,3,0,0,0,1,1,0,0
258987971,-0.11190476,0.0,0.48757395,0.0,0.0,0.0,0.0,0.0,0.0,0.0,0.0,0,0,0,0,1,0,0,3,0,0,0,1,1,0,0
259186760,-0.07857143,0.0,0.48757395,0.0,0.0,0.0,0.0,0.0,0.0,0.0,0.0,0,0,0,0,1,0,0,3,0,0,0,1,1,0,0
259385367,-0.12142857,0.0,0.48757395,0.0,0.0,0.0,0.0,0.0,0.0,0.0,0.0,0,0,0,0,1,0,0,3,0,0,0,1,1,0,0
259584206,-0.12619048,0.0,0.48757395,0.0,0.0,0.0,0.0,0.0,0.0,0.0,0.0,0,0,0,0,1,0,0,3,0,0,0,1,1,0,0
259785424,-0.13809524,0.0,0.48639053,0.0,0.0,0.0,0.0,0.0,0.0,0.0,0.0,0,0,0,0,1,0,0,3,0,0,0,1,1,0,0
259986360,-0.13571429,0.0,0.48757395,0.0,0.0,0.0,0.0,0.0,0.0,0.0,0.0,0,0,0,0,1,0,0,3,0,0,0,1,1,0,0
260185084,-0.14285715,0.0,0.48639053,0.0,0.0,0.0,0.0,0.0,0.0,0.0,0.0,0,0,0,0,1,0,0,3,0,0,0,1,1,0,0
260383815,-0.16666667,0.0,0.48757395,0.0,0.0,0.0,0.0,0.0,0.0,0.0,0.0,0,0,0,0,1,0,0,3,0,0,0,1,1,0,0
260585071,-0.16666667,0.0,0.48757395,0.0,0.0,0.0,0.0,0.0,0.0,0.0,0.0,0,0,0,0,1,0,0,3,0,0,0,1,1,0,0
260786168,-0.17142858,0.0,0.48757395,0.0,0.0,0.0,0.0,0.0,0.0,0.0,0.0,0,0,0,0,1,0,0,3,0,0,0,1,1,0,0
260984811,-0.15952381,0.0,0.48757395,0.0,0.0,0.0,0.0,0.0,0.0,0.0,0.0,0,0,0,0,1,0,0,3,0,0,0,1,1,0,0
261183592,-0.15952381,0.0,0.48757395,0.0,0.0,0.0,0.0,0.0,0.0,0.0,0.0,0,0,0,0,1,0,0,3,0,0,0,1,1,0,0
261382132,-0.16190477,0.0,0.48757395,0.0,0.0,0.0,0.0,0.0,0.0,0.0,0.0,0,0,0,0,1,0,0,3,0,0,0,1,1,0,0
261584212,-0.16904762,0.0,0.48757395,0.0,0.0,0.0,0.0,0.0,0.0,0.0,0.0,0,0,0,0,1,0,0,3,0,0,0,1,1,0,0
261784670,-0.18809524,0.0,0.48757395,0.0,0.0,0.0,0.0,0.0,0.0,0.0,0.0,0,0,0,0,1,0,0,3,0,0,0,1,1,0,0
261985915,-0.17857143,0.0,0.48757395,0.0,0.0,0.0,0.0,0.0,0.0,0.0,0.0,0,0,0,0,1,0,0,3,0,0,0,1,1,0,0
262184624,-0.17857143,0.0,0.48757395,0.0,0.0,0.0,0.0,0.0,0.0,0.0,0.0,0,0,0,0,1,0,0,3,0,0,0,1,1,0,0
262383466,-0.14285715,0.0,0.48757395,0.0,0.0,0.0,0.0,0.0,0.0,0.0,0.0,0,0,0,0,1,0,0,3,0,0,0,1,1,0,0
262584271,-0.0,0.0,0.48757395,0.0,0.0,0.0,0.0,0.0,0.0,0.0,0.0,0,0,0,0,1,0,0,3,0,0,0,1,1,0,0
262783190,-0.0,0.0,0.48757395,0.0,0.0,0.0,0.0,0.0,0.0,0.0,0.0,0,0,0,0,1,0,0,3,0,0,0,1,1,0,0
262981707,-0.0,0.0,0.48757395,0.0,0.0,0.0,0.0,0.0,0.0,0.0,0.0,0,0,0,0,1,0,0,3,0,0,0,1,1,0,0
263183613,-0.0,0.0,0.48757395,0.0,0.0,0.0,0.0,0.0,0.0,0.0,0.0,0,0,0,0,1,0,0,3,0,0,0,1,1,0,0
263382472,-0.0,0.0,0.48757395,0.0,0.0,0.0,0.0,0.0,0.0,0.0,0.0,0,0,0,0,1,0,0,3,0,0,0,1,1,0,0
263582716,0.01438849,0.0,0.48757395,0.0,0.0,0.0,0.0,0.0,0.0,0.0,0.0,0,0,0,0,1,0,0,3,0,0,0,1,1,0,0
263784768,0.13908873,0.0,0.48757395,0.0,0.0,0.0,0.0,0.0,0.0,0.0,0.0,0,0,0,0,1,0,0,3,0,0,0,1,1,0,0
263983185,0.235012,0.0,0.48757395,0.0,0.0,0.0,0.0,0.0,0.0,0.0,0.0,0,0,0,0,1,0,0,3,0,0,0,1,1,0,0
264189538,0.2326139,0.0,0.4887574,0.0,0.0,0.0,0.0,0.0,0.0,0.0,0.0,0,0,0,0,1,0,0,3,0,0,0,1,1,0,0
264377583,0.19904077,0.0,0.4887574,0.0,0.0,0.0,0.0,0.0,0.0,0.0,0.0,0,0,0,0,1,0,0,3,0,0,0,1,1,0,0
264579770,0.18705036,0.0,0.4887574,0.0,0.0,0.0,0.0,0.0,0.0,0.0,0.0,0,0,0,0,1,0,0,3,0,0,0,1,1,0,0
264779945,0.20383693,0.0,0.4887574,0.0,0.0,0.0,0.0,0.0,0.0,0.0,0.0,0,0,0,0,1,0,0,3,0,0,0,1,1,0,0
264981991,0.15827338,0.0,0.48757395,0.0,0.0,0.0,0.0,0.0,0.0,0.0,0.0,0,0,0,0,1,0,0,3,0,0,0,1,1,0,0
265182361,-0.0,0.0,0.48639053,0.0,0.0,0.0,0.0,0.0,0.0,0.0,0.0,0,0,0,0,1,0,0,3,0,0,0,1,1,0,0
265380873,-0.0,-0.014218009,0.48639053,0.0,0.0,0.0,0.0,0.0,0.0,0.0,0.0,0,0,0,0,1,0,0,3,0,0,0,1,1,0,0
265579472,-0.0,-0.24170616,0.48639053,0.0,0.0,0.0,0.0,0.0,0.0,0.0,0.0,0,0,0,0,1,0,0,3,0,0,0,1,1,0,0
265781334,-0.0,-0.33412322,0.4852071,0.0,0.0,0.0,0.0,0.0,0.0,0.0,0.0,0,0,0,0,1,0,0,3,0,0,0,1,1,0,0
265981900,-0.0,-0.23696682,0.4852071,0.0,0.0,0.0,0.0,0.0,0.0,0.0,0.0,0,0,0,0,1,0,0,3,0,0,0,1,1,0,0
266178874,-0.0,0.0,0.4852071,0.0,0.0,0.0,0.0,0.0,0.0,0.0,0.0,0,0,0,0,1,0,0,3,0,0,0,1,1,0,0
266377070,-0.0,0.0,0.4852071,0.0,0.0,0.0,0.0,0.0,0.0,0.0,0.0,0,0,0,0,1,0,0,3,0,0,0,1,1,0,0
266578090,-0.0,-0.049763035,0.48639053,0.0,0.0,0.0,0.0,0.0,0.0,0.0,0.0,0,0,0,0,1,0,0,3,0,0,0,1,1,0,0
266779307,-0.0,-0.0900474,0.48757395,0.0,0.0,0.0,0.0,0.0,0.0,0.0,0.0,0,0,0,0,1,0,0,3,0,0,0,1,1,0,0
266980232,-0.0,-0.123222746,0.48757395,0.0,0.0,0.0,0.0,0.0,0.0,0.0,0.0,0,0,0,0,1,0,0,3,0,0,0,1,1,0,0
267182186,-0.0,-0.13744076,0.48757395,0.0,0.0,0.0,0.0,0.0,0.0,0.0,0.0,0,0,0,0,1,0,0,3,0,0,0,1,1,0,0
267381504,-0.0,-0.12559241,0.48757395,0.0,0.0,0.0,0.0,0.0,0.0,0.0,0.0,0,0,0,0,1,0,0,3,0,0,0,1,1,0,0
267579828,-0.0,-0.1492891,0.48757395,0.0,0.0,0.0,0.0,0.0,0.0,0.0,0.0,0,0,0,0,1,0,0,3,0,0,0,1,1,0,0
267778516,-0.0,-0.18957347,0.48757395,0.0,0.0,0.0,0.0,0.0,0.0,0.0,0.0,0,0,0,0,1,0,0,3,0,0,0,1,1,0,0
267978702,-0.0,-0.1943128,0.48757395,0.0,0.0,0.0,0.0,0.0,0.0,0.0,0.0,0,0,0,0,1,0,0,3,0,0,0,1,1,0,0
268177672,-0.0,-0.16113745,0.48757395,0.0,0.0,0.0,0.0,0.0,0.0,0.0,0.0,0,0,0,0,1,0,0,3,0,0,0,1,1,0,0
268379780,-0.0,-0.16113745,0.48757395,0.0,0.0,0.0,0.0,0.0,0.0,0.0,0.0,0,0,0,0,1,0,0,3,0,0,0,1,1,0,0
268579637,-0.0,-0.17298578,0.48757395,0.0,0.0,0.0,0.0,0.0,0.0,0.0,0.0,0,0,0,0,1,0,0,3,0,0,0,1,1,0,0
268778402,-0.0,-0.20379147,0.48757395,0.0,0.0,0.0,0.0,0.0,0.0,0.0,0.0,0,0,0,0,1,0,0,3,0,0,0,1,1,0,0
268980521,-0.0,-0.21563981,0.48757395,0.0,0.0,0.0,0.0,0.0,0.0,0.0,0.0,0,0,0,0,1,0,0,3,0,0,0,1,1,0,0
269180835,-0.0,-0.20616114,0.48757395,0.0,0.0,0.0,0.0,0.0,0.0,0.0,0.0,0,0,0,0,1,0,0,3,0,0,0,1,1,0,0
269379488,-0.0,-0.20616114,0.48757395,0.0,0.0,0.0,0.0,0.0,0.0,0.0,0.0,0,0,0,0,1,0,0,3,0,0,0,1,1,0,0
269578218,-0.0,-0.22274882,0.48757395,0.0,0.0,0.0,0.0,0.0,0.0,0.0,0.0,0,0,0,0,1,0,0,3,0,0,0,1,1,0,0
269780209,-0.0,-0.23933649,0.48639053,0.0,0.0,0.0,0.0,0.0,0.0,0.0,0.0,0,0,0,0,1,0,0,3,0,0,0,1,1,0,0
269980609,-0.0,-0.23696682,0.48757395,0.0,0.0,0.0,0.0,0.0,0.0,0.0,0.0,0,0,0,0,1,0,0,3,0,0,0,1,1,0,0
270182671,-0.0,-0.23222749,0.48639053,0.0,0.0,0.0,0.0,0.0,0.0,0.0,0.0,0,0,0,0,1,0,0,3,0,0,0,1,1,0,0
270383107,-0.0,-0.22748815,0.48639053,0.0,0.0,0.0,0.0,0.0,0.0,0.0,0.0,0,0,0,0,1,0,0,3,0,0,0,1,1,0,0
270584200,-0.0,-0.23222749,0.48639053,0.0,0.0,0.0,0.0,0.0,0.0,0.0,0.0,0,0,0,0,1,0,0,3,0,0,0,1,1,0,0
270785199,-0.0,-0.24407583,0.48639053,0.0,0.0,0.0,0.0,0.0,0.0,0.0,0.0,0,0,0,0,1,0,0,3,0,0,0,1,1,0,0
270983920,-0.0,-0.24407583,0.48639053,0.0,0.0,0.0,0.0,0.0,0.0,0.0,0.0,0,0,0,0,1,0,0,3,0,0,0,1,1,0,0
271182692,-0.0,-0.24407583,0.48639053,0.0,0.0,0.0,0.0,0.0,0.0,0.0,0.0,0,0,0,0,1,0,0,3,0,0,0,1,1,0,0
271381232,-0.0,-0.24407583,0.48639053,0.0,0.0,0.0,0.0,0.0,0.0,0.0,0.0,0,0,0,0,1,0,0,3,0,0,0,1,1,0,0
271583237,-0.0,-0.24644549,0.48639053,0.0,0.0,0.0,0.0,0.0,0.0,0.0,0.0,0,0,0,0,1,0,0,3,0,0,0,1,1,0,0
271783565,-0.0,-0.23933649,0.48639053,0.0,0.0,0.0,0.0,0.0,0.0,0.0,0.0,0,0,0,0,1,0,0,3,0,0,0,1,1,0,0
271982299,-0.0,-0.23696682,0.48639053,0.0,0.0,0.0,0.0,0.0,0.0,0.0,0.0,0,0,0,0,1,0,0,3,0,0,0,1,1,0,0
272181040,-0.0,-0.22037914,0.48757395,0.0,0.0,0.0,0.0,0.0,0.0,0.0,0.0,0,0,0,0,1,0,0,3,0,0,0,1,1,0,0
272379781,-0.0,-0.1800948,0.48639053,0.0,0.0,0.0,0.0,0.0,0.0,0.0,0.0,0,0,0,0,1,0,0,3,0,0,0,1,1,0,0
272581586,-0.0,-0.16113745,0.4852071,0.0,0.0,0.0,0.0,0.0,0.0,0.0,0.0,0,0,0,0,1,0,0,3,0,0,0,1,1,0,0
272782341,-0.0,-0.13507108,0.4852071,0.0,0.0,0.0,0.0,0.0,0.0,0.0,0.0,0,0,0,0,1,0,0,3,0,0,0,1,1,0,0
272983366,-0.0,-0.13270143,0.50177515,0.0,0.0,0.0,0.0,0.0,0.0,0.0,0.0,0,0,0,0,1,0,0,3,0,0,0,1,1,0,0
273184349,-0.0,-0.12796208,0.49704143,0.0,0.0,0.0,0.0,0.0,0.0,0.0,0.0,0,0,0,0,1,0,0,3,0,0,0,1,1,0,0
273389931,-0.0,-0.073459715,0.49585798,0.0,0.0,0.0,0.0,0.0,0.0,0.0,0.0,0,0,0,0,1,0,0,3,0,0,0,1,1,0,0
273584568,-0.0,0.0,0.49585798,0.0,0.0,0.0,0.0,0.0,0.0,0.0,0.0,0,0,0,0,1,0,0,3,0,0,0,1,1,0,0
273785337,-0.0,0.0,0.49585798,0.0,0.0,0.0,0.0,0.0,0.0,0.0,0.0,0,0,0,0,1,0,0,3,0,0,0,1,1,0,0
273986863,-0.0,0.0,0.49585798,0.0,0.0,0.0,0.0,0.0,0.0,0.0,0.0,0,0,0,0,1,0,0,3,0,0,0,1,1,0,0
274187887,-0.0,0.05060241,0.49585798,0.0,0.0,0.0,0.0,0.0,0.0,0.0,0.0,0,0,0,0,1,0,0,3,0,0,0,1,1,0,0
274386818,-0.0,0.2,0.49585798,0.0,0.0,0.0,0.0,0.0,0.0,0.0,0.0,0,0,0,0,1,0,0,3,0,0,0,1,1,0,0
274587892,-0.0,0.20240964,0.49585798,0.0,0.0,0.0,0.0,0.0,0.0,0.0,0.0,0,0,0,0,1,0,0,3,0,0,0,1,1,0,0
274788822,-0.0,0.13253012,0.49585798,0.0,0.0,0.0,0.0,0.0,0.0,0.0,0.0,0,0,0,0,1,0,0,3,0,0,0,1,1,0,0
274990521,-0.0,0.08674699,0.49585798,0.0,0.0,0.0,0.0,0.0,0.0,0.0,0.0,0,0,0,0,1,0,0,3,0,0,0,1,1,0,0
275191241,-0.0,0.12530121,0.49585798,0.0,0.0,0.0,0.0,0.0,0.0,0.0,0.0,0,0,0,0,1,0,0,3,0,0,0,1,1,0,0
275389795,-0.0,0.14457831,0.49585798,0.0,0.0,0.0,0.0,0.0,0.0,0.0,0.0,0,0,0,0,1,0,0,3,0,0,0,1,1,0,0
275588514,-0.0,0.13253012,0.49704143,0.0,0.0,0.0,0.0,0.0,0.0,0.0,0.0,0,0,0,0,1,0,0,3,0,0,0,1,1,0,0
275787152,-0.0,0.13975903,0.49704143,0.0,0.0,0.0,0.0,0.0,0.0,0.0,0.0,0,0,0,0,1,0,0,3,0,0,0,1,1,0,0
275983717,-0.0,0.20240964,0.49704143,0.0,0.0,0.0,0.0,0.0,0.0,0.0,0.0,0,0,0,0,1,0,0,3,0,0,0,1,1,0,0
276184679,-0.0,0.20963855,0.49704143,0.0,0.0,0.0,0.0,0.0,0.0,0.0,0.0,0,0,0,0,1,0,0,3,0,0,0,1,1,0,0
276385954,-0.0,0.21445782,0.49704143,0.0,0.0,0.0,0.0,0.0,0.0,0.0,0.0,0,0,0,0,1,0,0,3,0,0,0,1,1,0,0
276586921,-0.0,0.22891566,0.49704143,0.0,0.0,0.0,0.0,0.0,0.0,0.0,0.0,0,0,0,0,1,0,0,3,0,0,0,1,1,0,0
276788397,-0.0,0.23855421,0.49704143,0.0,0.0,0.0,0.0,0.0,0.0,0.0,0.0,0,0,0,0,1,0,0,3,0,0,0,1,1,0,0
276984327,-0.0,0.2313253,0.49704143,0.0,0.0,0.0,0.0,0.0,0.0,0.0,0.0,0,0,0,0,1,0,0,3,0,0,0,1,1,0,0
277180872,-0.0,0.24096386,0.49704143,0.0,0.0,0.0,0.0,0.0,0.0,0.0,0.0,0,0,0,0,1,0,0,3,0,0,0,1,1,0,0
277381806,-0.0,0.24578314,0.49704143,0.0,0.0,0.0,0.0,0.0,0.0,0.0,0.0,0,0,0,0,1,0,0,3,0,0,0,1,1,0,0
277580570,-0.0,0.24096386,0.49704143,0.0,0.0,0.0,0.0,0.0,0.0,0.0,0.0,0,0,0,0,1,0,0,3,0,0,0,1,1,0,0
277778985,-0.0,0.2313253,0.49704143,0.0,0.0,0.0,0.0,0.0,0.0,0.0,0.0,0,0,0,0,1,0,0,3,0,0,0,1,1,0,0
277977847,-0.0,0.22650602,0.49585798,0.0,0.0,0.0,0.0,0.0,0.0,0.0,0.0,0,0,0,0,1,0,0,3,0,0,0,1,1,0,0
278179812,-0.0,0.17831326,0.49585798,0.0,0.0,0.0,0.0,0.0,0.0,0.0,0.0,0,0,0,0,1,0,0,3,0,0,0,1,1,0,0
278378611,-0.0,0.03373494,0.49585798,0.0,0.0,0.0,0.0,0.0,0.0,0.0,0.0,0,0,0,0,1,0,0,3,0,0,0,1,1,0,0
278577641,-0.0,0.0,0.49585798,0.0,0.0,0.0,0.0,0.0,0.0,0.0,0.0,0,0,0,0,1,0,0,3,0,0,0,1,1,0,0
278777546,-0.0,0.0,0.49704143,0.0,0.0,0.0,0.0,0.0,0.0,0.0,0.0,0,0,0,0,1,0,0,3,0,0,0,1,1,0,0
278979858,-0.0,0.0,0.49704143,0.0,0.0,0.0,0.0,0.0,0.0,0.0,0.0,0,0,0,0,1,0,0,3,0,0,0,1,1,0,0
279179813,-0.014285714,-0.0450237,0.49704143,0.0,0.0,0.0,0.0,0.0,0.0,0.0,0.0,0,0,0,0,1,0,0,3,0,0,0,1,1,0,0
279378526,-0.03809524,-0.109004736,0.49704143,0.0,0.0,0.0,0.0,0.0,0.0,0.0,0.0,0,0,0,0,1,0,0,3,0,0,0,1,1,0,0
279580712,-0.05,-0.15402843,0.49704143,0.0,0.0,0.0,0.0,0.0,0.0,0.0,0.0,0,0,0,0,1,0,0,3,0,0,0,1,1,0,0
279781070,-0.052380953,-0.16587678,0.49704143,0.0,0.0,0.0,0.0,0.0,0.0,0.0,0.0,0,0,0,0,1,0,0,3,0,0,0,1,1,0,0
279979674,-0.04761905,-0.16824645,0.49704143,0.0,0.0,0.0,0.0,0.0,0.0,0.0,0.0,0,0,0,0,1,0,0,3,0,0,0,1,1,0,0
280178356,-0.042857144,-0.16113745,0.49704143,0.0,0.0,0.0,0.0,0.0,0.0,0.0,0.0,0,0,0,0,1,0,0,3,0,0,0,1,1,0,0
280380339,-0.042857144,-0.17298578,0.49704143,0.0,0.0,0.0,0.0,0.0,0.0,0.0,0.0,0,0,0,0,1,0,0,3,0,0,0,1,1,0,0
282175487,0.1438849,-0.049763035,0.49585798,0.0,0.0,0.0,0.0,0.0,0.0,0.0,0.0,0,0,0,0,1,0,0,3,0,0,0,1,1,0,0
282373785,0.14868106,-0.061611373,0.49585798,0.0,0.0,0.0,0.0,0.0,0.0,0.0,0.0,0,0,0,0,1,0,0,3,0,0,0,1,1,0,0
282973086,0.19424461,-0.08293839,0.49585798,0.0,0.0,0.0,0.0,0.0,0.0,0.0,0.0,0,0,0,0,1,0,0,3,0,0,0,1,1,0,0
283171903,0.206235,-0.08056872,0.49585798,0.0,0.0,0.0,0.0,0.0,0.0,0.0,0.0,0,0,0,0,1,0,0,3,0,0,0,1,1,0,0
283392512,0.21103117,-0.073459715,0.49585798,0.0,0.0,0.0,0.0,0.0,0.0,0.0,0.0,0,0,0,0,1,0,0,3,0,0,0,1,1,0,0
283569304,0.1438849,-0.054502368,0.49822485,0.0,0.0,0.0,0.0,0.0,0.0,0.0,0.0,0,0,0,0,1,0,0,3,0,0,0,1,1,0,0
283792294,-0.0,0.0,0.49822485,0.0,0.0,0.0,0.0,0.0,0.0,0.0,0.0,0,0,0,0,1,0,0,3,0,0,0,1,1,0,0
283971698,-0.0,0.0,0.50177515,0.0,0.0,0.0,0.0,0.0,0.0,0.0,0.0,0,0,0,0,1,0,0,3,0,0,0,1,1,0,0
284172042,-0.0,0.0,0.52307695,0.0,0.0,0.0,0.0,0.0,0.0,0.0,0.0,0,0,0,0,1,0,0,3,0,0,0,1,1,0,0
284374049,-0.0,0.0,0.55857986,0.0,0.0,0.0,0.0,0.0,0.0,0.0,0.0,0,0,0,0,1,0,0,3,0,0,0,1,1,0,0
284594394,-0.0,0.0,0.59053254,0.0,0.0,0.0,0.0,0.0,0.0,0.0,0.0,0,0,0,0,1,0,0,3,0,0,0,1,1,0,0
284773176,-0.0,0.0,0.6213018,0.0,0.0,0.0,0.0,0.0,0.0,0.0,0.0,0,0,0,0,1,0,0,3,0,0,0,1,1,0,0
284974938,-0.0,0.0,0.6213018,0.0,0.0,0.0,0.0,0.0,0.0,0.0,0.0,0,0,0,0,1,0,0,3,0,0,0,1,1,0,0
285175304,-0.0,0.0,0.6213018,0.0,0.0,0.0,0.0,0.0,0.0,0.0,0.0,0,0,0,0,1,0,0,3,0,0,0,1,1,0,0
285376763,-0.0,0.0,0.6213018,0.0,0.0,0.0,0.0,0.0,0.0,0.0,0.0,0,0,0,0,1,0,0,3,0,0,0,1,1,0,0
285577672,-0.0,0.0,0.652071,0.0,0.0,0.0,0.0,0.0,0.0,0.0,0.0,0,0,0,0,1,0,0,3,0,0,0,1,1,0,0
285779122,-0.0,0.0,0.64970416,0.0,0.0,0.0,0.0,0.0,0.0,0.0,0.0,0,0,0,0,1,0,0,3,0,0,0,1,1,0,0
285980158,-0.0,0.0,0.64970416,0.0,0.0,0.0,0.0,0.0,0.0,0.0,0.0,0,0,0,0,1,0,0,3,0,0,0,1,1,0,0
286181907,-0.0,0.0,0.652071,0.0,0.0,0.0,0.0,0.0,0.0,0.0,0.0,0,0,0,0,1,0,0,3,0,0,0,1,1,0,0
286382503,-0.0,0.0,0.6828402,0.0,0.0,0.0,0.0,0.0,0.0,0.0,0.0,0,0,0,0,1,0,0,3,0,0,0,1,1,0,0
286581163,-0.0,0.0,0.6804734,0.0,0.0,0.0,0.0,0.0,0.0,0.0,0.0,0,0,0,0,1,0,0,3,0,0,0,1,1,0,0
286782536,-0.0,0.0,0.6745562,0.0,0.0,0.0,0.0,0.0,0.0,0.0,0.0,0,0,0,0,1,0,0,3,0,0,0,1,1,0,0
286983509,-0.0,0.0,0.6295858,0.0,0.0,0.0,0.0,0.0,0.0,0.0,0.0,0,0,0,0,1,0,0,3,0,0,0,1,1,0,0
287182201,-0.0,0.0,0.6295858,0.0,0.0,0.0,0.0,0.0,0.0,0.0,0.0,0,0,0,0,1,0,0,3,0,0,0,1,1,0,0
287380787,-0.0,0.0,0.62840235,0.0,0.0,0.0,0.0,0.0,0.0,0.0,0.0,0,0,0,0,1,0,0,3,0,0,0,1,1,0,0
287582744,-0.0,0.0,0.62840235,0.0,0.0,0.0,0.0,0.0,0.0,0.0,0.0,0,0,0,0,1,0,0,3,0,0,0,1,1,0,0
287783187,-0.0,0.0,0.6295858,0.0,0.0,0.0,0.0,0.0,0.0,0.0,0.0,0,0,0,0,1,0,0,3,0,0,0,1,1,0,0
287981760,-0.0,0.0,0.6295858,0.0,0.0,0.0,0.0,0.0,0.0,0.0,0.0,0,0,0,0,1,0,0,3,0,0,0,1,1,0,0
288180701,-0.0,0.0,0.62721896,0.0,0.0,0.0,0.0,0.0,0.0,0.0,0.0,0,0,0,0,1,0,0,3,0,0,0,1,1,0,0
288382866,-0.0,0.0,0.6177515,0.0,0.0,0.0,0.0,0.0,0.0,0.0,0.0,0,0,0,0,1,0,0,3,0,0,0,1,1,0,0
288582997,-0.0,0.0,0.61183435,-0.0022779044,0.0,0.0,0.0,0.0,0.0,0.0,0.0,0,0,0,0,1,0,0,3,0,0,0,1,1,0,0
288784263,-0.0,0.0,0.60236686,-0.08883827,0.0,0.0,0.0,0.0,0.0,0.0,0.0,0,0,0,0,1,0,0,3,0,0,0,1,1,0,0
288985408,-0.0,0.0,0.6,-0.12984055,0.0,0.0,0.0,0.0,0.0,0.0,0.0,0,0,0,0,1,0,0,3,0,0,0,1,1,0,0
289186832,-0.0,0.0,0.60236686,-0.12756264,0.0,0.0,0.0,0.0,0.0,0.0,0.0,0,0,0,0,1,0,0,3,0,0,0,1,1,0,0
289387611,-0.0,0.0,0.60236686,-0.19817768,0.0,0.0,0.0,0.0,0.0,0.0,0.0,0,0,0,0,1,0,0,3,0,0,0,1,1,0,0
289588860,-0.0,0.0,0.60236686,-0.18906605,0.0,0.0,0.0,0.0,0.0,0.0,0.0,0,0,0,0,1,0,0,3,0,0,0,1,1,0,0
289789941,-0.0,0.0,0.6011834,-0.19134396,0.0,0.0,0.0,0.0,0.0,0.0,0.0,0,0,0,0,1,0,0,3,0,0,0,1,1,0,0
289968832,-0.0,0.0,0.6,-0.2072893,0.0,0.0,0.0,0.0,0.0,0.0,0.0,0,0,0,0,1,0,0,3,0,0,0,1,1,0,0
290192325,-0.0,0.0,0.6,-0.261959,0.0,0.0,0.0,0.0,0.0,0.0,0.0,0,0,0,0,1,0,0,3,0,0,0,1,1,0,0
290371356,-0.0,0.0,0.60236686,-0.22551253,0.0,0.0,0.0,0.0,0.0,0.0,0.0,0,0,0,0,1,0,0,3,0,0,0,1,1,0,0
290573464,-0.0,0.0,0.6035503,-0.05922551,0.0,0.0,0.0,0.0,0.0,0.0,0.0,0,0,0,0,1,0,0,3,0,0,0,1,1,0,0
290779925,-0.0,0.0,0.60946745,0.0,0.0,0.0,0.0,0.0,0.0,0.0,0.0,0,0,0,0,1,0,0,3,0,0,0,1,1,0,0
290972164,-0.0,0.0,0.60591716,0.0,0.0,0.0,0.0,0.0,0.0,0.0,0.0,0,0,0,0,1,0,0,3,0,0,0,1,1,0,0
291174273,0.04796163,0.0,0.6071006,0.0,0.0,0.0,0.0,0.0,0.0,0.0,0.0,0,0,0,0,1,0,0,3,0,0,0,1,1,0,0
291374638,0.17026378,0.0,0.6071006,0.0,0.0,0.0,0.0,0.0,0.0,0.0,0.0,0,0,0,0,1,0,0,3,0,0,0,1,1,0,0
291575805,0.2877698,0.0,0.6071006,0.0,0.0,0.0,0.0,0.0,0.0,0.0,0.0,0,0,0,0,1,0,0,3,0,0,0,1,1,0,0
291776992,0.23980816,0.0,0.6071006,0.0,0.0,0.0,0.0,0.0,0.0,0.0,0.0,0,0,0,0,1,0,0,3,0,0,0,1,1,0,0
291975467,0.22781774,0.0,0.6071006,0.0,0.0,0.0,0.0,0.0,0.0,0.0,0.0,0,0,0,0,1,0,0,3,0,0,0,1,1,0,0
292176890,0.21103117,0.0,0.6071006,0.0,0.0,0.0,0.0,0.0,0.0,0.0,0.0,0,0,0,0,1,0,0,3,0,0,0,1,1,0,0
292375634,0.21582733,0.0,0.6071006,0.0,0.0,0.0,0.0,0.0,0.0,0.0,0.0,0,0,0,0,1,0,0,3,0,0,0,1,1,0,0
292576558,0.21822542,0.0,0.6071006,0.0,0.0,0.0,0.0,0.0,0.0,0.0,0.0,0,0,0,0,1,0,0,3,0,0,0,1,1,0,0
292775473,0.22062351,0.0,0.60591716,0.0,0.0,0.0,0.0,0.0,0.0,0.0,0.0,0,0,0,0,1,0,0,3,0,0,0,1,1,0,0
292976631,0.21103117,0.0,0.6071006,0.0,0.0,0.0,0.0,0.0,0.0,0.0,0.0,0,0,0,0,1,0,0,3,0,0,0,1,1,0,0
293177572,0.16067146,0.0,0.60591716,0.0,0.0,0.0,0.0,0.0,0.0,0.0,0.0,0,0,0,0,1,0,0,3,0,0,0,1,1,0,0
293379104,0.107913665,0.0,0.5988166,0.0,0.0,0.0,0.0,0.0,0.0,0.0,0.0,0,0,0,0,1,0,0,3,0,0,0,1,1,0,0
293580010,0.04796163,0.0,0.6,0.0,0.0,0.0,0.0,0.0,0.0,0.0,0.0,0,0,0,0,1,0,0,3,0,0,0,1,1,0,0
293778711,-0.0,-0.20379147,0.5976331,0.0,0.0,0.0,0.0,0.0,0.0,0.0,0.0,0,0,0,0,1,0,0,3,0,0,0,1,1,0,0
293980700,0.01438849,-0.21563981,0.5976331,0.0,0.0,0.0,0.0,0.0,0.0,0.0,0.0,0,0,0,0,1,0,0,3,0,0,0,1,1,0,0
294181045,0.033573143,-0.18957347,0.5976331,0.0,0.0,0.0,0.0,0.0,0.0,0.0,0.0,0,0,0,0,1,0,0,3,0,0,0,1,1,0,0
294382510,0.038369305,-0.16113745,0.5988166,0.0,0.0,0.0,0.0,0.0,0.0,0.0,0.0,0,0,0,0,1,0,0,3,0,0,0,1,1,0,0
294581187,0.035971224,-0.1800948,0.5988166,0.0,0.0,0.0,0.0,0.0,0.0,0.0,0.0,0,0,0,0,1,0,0,3,0,0,0,1,1,0,0
294782133,0.02877698,-0.20379147,0.5976331,0.0,0.0,0.0,0.0,0.0,0.0,0.0,0.0,0,0,0,0,1,0,0,3,0,0,0,1,1,0,0
294983352,0.01438849,-0.22985782,0.5988166,0.0,0.0,0.0,0.0,0.0,0.0,0.0,0.0,0,0,0,0,1,0,0,3,0,0,0,1,1,0,0
295182760,0.01438849,-0.21800947,0.5988166,0.0,0.0,0.0,0.0,0.0,0.0,0.0,0.0,0,0,0,0,1,0,0,3,0,0,0,1,1,0,0
295381441,0.016786572,-0.20616114,0.5988166,0.0,0.0,0.0,0.0,0.0,0.0,0.0,0.0,0,0,0,0,1,0,0,3,0,0,0,1,1,0,0
295581782,0.019184653,-0.21090047,0.5976331,0.0,0.0,0.0,0.0,0.0,0.0,0.0,0.0,0,0,0,0,1,0,0,3,0,0,0,1,1,0,0
295780431,0.007194245,-0.23222749,0.5976331,0.0,0.0,0.0,0.0,0.0,0.0,0.0,0.0,0,0,0,0,1,0,0,3,0,0,0,1,1,0,0
295979310,-0.0,-0.25118482,0.5976331,0.0,0.0,0.0,0.0,0.0,0.0,0.0,0.0,0,0,0,0,1,0,0,3,0,0,0,1,1,0,0
296181413,-0.0,-0.24881516,0.5976331,0.0,0.0,0.0,0.0,0.0,0.0,0.0,0.0,0,0,0,0,1,0,0,3,0,0,0,1,1,0,0
296381408,-0.0,-0.24407583,0.5976331,0.0,0.0,0.0,0.0,0.0,0.0,0.0,0.0,0,0,0,0,1,0,0,3,0,0,0,1,1,0,0
296583403,-0.0,-0.23696682,0.5976331,0.0,0.0,0.0,0.0,0.0,0.0,0.0,0.0,0,0,0,0,1,0,0,3,0,0,0,1,1,0,0
296782335,-0.0,-0.23933649,0.5976331,0.0,0.0,0.0,0.0,0.0,0.0,0.0,0.0,0,0,0,0,1,0,0,3,0,0,0,1,1,0,0
296982909,-0.0,-0.25118482,0.5976331,0.0,0.0,0.0,0.0,0.0,0.0,0.0,0.0,0,0,0,0,1,0,0,3,0,0,0,1,1,0,0
297183875,-0.0,-0.2606635,0.59644973,0.0,0.0,0.0,0.0,0.0,0.0,0.0,0.0,0,0,0,0,1,0,0,3,0,0,0,1,1,0,0
297384869,-0.0,-0.2606635,0.591716,0.0,0.0,0.0,0.0,0.0,0.0,0.0,0.0,0,0,0,0,1,0,0,3,0,0,0,1,1,0,0
297583614,-0.0,-0.2535545,0.59053254,0.0,0.0,0.0,0.0,0.0,0.0,0.0,0.0,0,0,0,0,1,0,0,3,0,0,0,1,1,0,0
297785053,-0.0,-0.24881516,0.5881657,0.0,0.0,0.0,0.0,0.0,0.0,0.0,0.0,0,0,0,0,1,0,0,3,0,0,0,1,1,0,0
297985953,-0.0,-0.25118482,0.5893491,0.0,0.0,0.0,0.0,0.0,0.0,0.0,0.0,0,0,0,0,1,0,0,3,0,0,0,1,1,0,0
298187350,-0.0,-0.25118482,0.59053254,0.0,0.0,0.0,0.0,0.0,0.0,0.0,0.0,0,0,0,0,1,0,0,3,0,0,0,1,1,0,0
298386478,-0.0,-0.24170616,0.59053254,0.0,0.0,0.0,0.0,0.0,0.0,0.0,0.0,0,0,0,0,1,0,0,3,0,0,0,1,1,0,0
298587096,-0.0,-0.23459716,0.59053254,0.0,0.0,0.0,0.0,0.0,0.0,0.0,0.0,0,0,0,0,1,0,0,3,0,0,0,1,1,0,0
298788319,-0.0,-0.23222749,0.59053254,0.0,0.0,0.0,0.0,0.0,0.0,0.0,0.0,0,0,0,0,1,0,0,3,0,0,0,1,1,0,0
298989286,-0.0,-0.22985782,0.591716,0.0,0.0,0.0,0.0,0.0,0.0,0.0,0.0,0,0,0,0,1,0,0,3,0,0,0,1,1,0,0
299188002,-0.0,-0.2535545,0.591716,0.0,0.0,0.0,0.0,0.0,0.0,0.0,0.0,0,0,0,0,1,0,0,3,0,0,0,1,1,0,0
299386764,-0.0,-0.27251184,0.591716,0.0,0.0,0.0,0.0,0.0,0.0,0.0,0.0,0,0,0,0,1,0,0,3,0,0,0,1,1,0,0
299585405,-0.0,-0.27251184,0.59053254,0.0,0.0,0.0,0.0,0.0,0.0,0.0,0.0,0,0,0,0,1,0,0,3,0,0,0,1,1,0,0
299787454,-0.0,-0.26777253,0.5893491,0.0,0.0,0.0,0.0,0.0,0.0,0.0,0.0,0,0,0,0,1,0,0,3,0,0,0,1,1,0,0
299992695,-0.0,-0.2085308,0.5928994,0.0,0.0,0.0,0.0,0.0,0.0,0.0,0.0,0,0,0,0,1,0,0,3,0,0,0,1,1,0,0
300186418,-0.0,0.0,0.5372781,0.0,0.0,0.0,0.0,0.0,0.0,0.0,0.0,0,0,0,0,1,0,0,3,0,0,0,1,1,0,0
300387716,-0.0,0.0,0.53846157,0.0,0.0,0.0,0.0,0.0,0.0,0.0,0.0,0,0,0,0,1,0,0,3,0,0,0,1,1,0,0
300586610,-0.0,0.0,0.5514793,0.0,0.0,0.0,0.0,0.0,0.0,0.0,0.0,0,0,0,0,1,0,0,3,0,0,0,1,1,0,0
300785578,-0.0,0.0,0.53017753,0.0,0.0,0.0,0.0,0.0,0.0,0.0,0.0,0,0,0,0,1,0,0,3,0,0,0,1,1,0,0
300986357,-0.0,0.0,0.5289941,0.0,0.0,0.0,0.0,0.0,0.0,0.0,0.0,0,0,0,0,1,0,0,3,0,0,0,1,1,0,0
301184863,-0.0,0.0,0.48757395,0.0,0.0,0.0,0.0,0.0,0.0,0.0,0.0,0,0,0,0,1,0,0,3,0,0,0,1,1,0,0
301386246,-0.0,0.0,0.4852071,0.0,0.0,0.0,0.0,0.0,0.0,0.0,0.0,0,0,0,0,1,0,0,3,0,0,0,1,1,0,0
301585579,-0.0,0.0,0.44497043,0.0,0.0,0.0,0.0,0.0,0.0,0.0,0.0,0,0,0,0,1,0,0,3,0,0,0,1,1,0,0
301785862,-0.0,0.0,0.44378698,0.0,0.0,0.0,0.0,0.0,0.0,0.0,0.0,0,0,0,0,1,0,0,3,0,0,0,1,1,0,0
301987353,-0.0,0.0,0.4260355,0.0,0.0,0.0,0.0,0.0,0.0,0.0,0.0,0,0,0,0,1,0,0,3,0,0,0,1,1,0,0
302186035,-0.0,0.0,0.39053255,0.0,0.0,0.0,0.0,0.0,0.0,0.0,0.0,0,0,0,0,1,0,0,3,0,0,0,1,1,0,0
302386890,-0.0,0.0,0.37869823,0.0,0.0,0.0,0.0,0.0,0.0,0.0,0.0,0,0,0,0,1,0,0,3,0,0,0,1,1,0,0
302588266,-0.0,0.0,0.37869823,0.0,0.0,0.0,0.0,0.0,0.0,0.0,0.0,0,0,0,0,1,0,0,3,0,0,0,1,1,0,0
302789246,-0.0,0.0,0.37869823,0.0,0.0,0.0,0.0,0.0,0.0,0.0,0.0,0,0,0,0,1,0,0,3,0,0,0,1,1,0,0
302987966,-0.0,0.0,0.36331362,0.0,0.0,0.0,0.0,0.0,0.0,0.0,0.0,0,0,0,0,1,0,0,3,0,0,0,1,1,0,0
303186846,-0.0,0.0,0.304142,0.0,0.0,0.0,0.0,0.0,0.0,0.0,0.0,0,0,0,0,1,0,0,3,0,0,0,1,1,0,0
303388068,-0.0,0.0,0.304142,0.0,0.0,0.0,0.0,0.0,0.0,0.0,0.0,0,0,0,0,1,0,0,3,0,0,0,1,1,0,0
303589060,-0.0,0.0,0.2627219,0.0,0.0,0.0,0.0,0.0,0.0,0.0,0.0,0,0,0,0,1,0,0,3,0,0,0,1,1,0,0
303787660,-0.0,0.0,0.2627219,0.0,0.0,0.0,0.0,0.0,0.0,0.0,0.0,0,0,0,0,1,0,0,3,0,0,0,1,1,0,0
303989340,-0.0,0.0,0.26153848,0.0,0.0,0.0,0.0,0.0,0.0,0.0,0.0,0,0,0,0,1,0,0,3,0,0,0,1,1,0,0
304187821,-0.0,0.0,0.2627219,0.0,0.0,0.0,0.0,0.0,0.0,0.0,0.0,0,0,0,0,1,0,0,3,0,0,0,1,1,0,0
304388778,-0.0,0.0,0.2627219,0.0,0.0,0.0,0.0,0.0,0.0,0.0,0.0,0,0,0,0,1,0,0,3,0,0,0,1,1,0,0
304590136,-0.0,0.0,0.2627219,0.0,0.0,0.0,0.0,0.0,0.0,0.0,0.0,0,0,0,0,1,0,0,3,0,0,0,1,1,0,0
304791308,-0.0,0.0,0.2627219,0.0,0.0,0.0,0.0,0.0,0.0,0.0,0.0,0,0,0,0,1,0,0,3,0,0,0,1,1,0,0
304989769,-0.0,0.0,0.2627219,0.0,0.0,0.0,0.0,0.0,0.0,0.0,0.0,0,0,0,0,1,0,0,3,0,0,0,1,1,0,0
305188429,-0.0,0.0,0.26153848,0.0,0.0,0.0,0.0,0.0,0.0,0.0,0.0,0,0,0,0,1,0,0,3,0,0,0,1,1,0,0
305387090,-0.0,0.0,0.25088757,0.0,0.0,0.0,0.0,0.0,0.0,0.0,0.0,0,0,0,0,1,0,0,3,0,0,0,1,1,0,0
305585951,-0.0,0.0,0.25088757,0.0,0.0,0.0,0.0,0.0,0.0,0.0,0.0,0,0,0,0,1,0,0,3,0,0,0,1,1,0,0
305784546,-0.0,0.0,0.25088757,0.0,0.0,0.0,0.0,0.0,0.0,0.0,0.0,0,0,0,0,1,0,0,3,0,0,0,1,1,0,0
305983350,-0.0,0.0,0.25088757,0.0,0.0,0.0,0.0,0.0,0.0,0.0,0.0,0,0,0,0,1,0,0,3,0,0,0,1,1,0,0
306185193,-0.0,0.0,0.25088757,0.0,0.0,0.0,0.0,0.0,0.0,0.0,0.0,0,0,0,0,1,0,0,3,0,0,0,1,1,0,0
306385710,-0.0,0.0,0.3183432,0.0,0.0,0.0,0.0,0.0,0.0,0.0,0.0,0,0,0,0,1,0,0,3,0,0,0,1,1,0,0
306582758,-0.0,0.0,0.49112427,0.0,0.0,0.0,0.0,0.0,0.0,0.0,0.0,0,0,0,0,1,0,0,3,0,0,0,1,1,0,0
306783221,-0.0,0.0,0.48994082,0.0,0.0,0.0,0.0,0.0,0.0,0.0,0.0,0,0,0,0,1,0,0,3,0,0,0,1,1,0,0
306985045,-0.0,0.0,0.48994082,0.022058824,0.0,0.0,0.0,0.0,0.0,0.0,0.0,0,0,0,0,1,0,0,3,0,0,0,1,1,0,0
307183751,-0.0,0.0,0.48994082,0.11764706,0.0,0.0,0.0,0.0,0.0,0.0,0.0,0,0,0,0,1,0,0,3,0,0,0,1,1,0,0
307384251,-0.0,0.0,0.4887574,0.1740196,0.0,0.0,0.0,0.0,0.0,0.0,0.0,0,0,0,0,1,0,0,3,0,0,0,1,1,0,0
307585340,-0.0,0.0,0.48994082,0.21323529,0.0,0.0,0.0,0.0,0.0,0.0,0.0,0,0,0,0,1,0,0,3,0,0,0,1,1,0,0
307786306,-0.0,0.0,0.48994082,0.24019608,0.0,0.0,0.0,0.0,0.0,0.0,0.0,0,0,0,0,1,0,0,3,0,0,0,1,1,0,0
307985070,-0.0,0.0,0.48994082,0.25980392,0.0,0.0,0.0,0.0,0.0,0.0,0.0,0,0,0,0,1,0,0,3,0,0,0,1,1,0,0
308186376,-0.0,0.0,0.4887574,0.16176471,0.0,0.0,0.0,0.0,0.0,0.0,0.0,0,0,0,0,1,0,0,3,0,0,0,1,1,0,0
308387319,-0.0,0.0,0.5005917,0.0,0.0,0.0,0.0,0.0,0.0,0.0,0.0,0,0,0,0,1,0,0,3,0,0,0,1,1,0,0
308586279,-0.0,0.0,0.5005917,-0.034168564,0.0,0.0,0.0,0.0,0.0,0.0,0.0,0,0,0,0,1,0,0,3,0,0,0,1,1,0,0
308787443,-0.0,0.0,0.49585798,-0.16173121,0.0,0.0,0.0,0.0,0.0,0.0,0.0,0,0,0,0,1,0,0,3,0,0,0,1,1,0,0
308988509,-0.0,0.0,0.4733728,-0.22779043,0.0,0.0,0.0,0.0,0.0,0.0,0.0,0,0,0,0,1,0,0,3,0,0,0,1,1,0,0
309167458,-0.0,0.0,0.47218934,-0.25284737,0.0,0.0,0.0,0.0,0.0,0.0,0.0,0,0,0,0,1,0,0,3,0,0,0,1,1,0,0
309388446,-0.0,0.0,0.47100592,-0.23006834,0.0,0.0,0.0,0.0,0.0,0.0,0.0,0,0,0,0,1,0,0,3,0,0,0,1,1,0,0
309587201,-0.0,0.0,0.47218934,-0.22323462,0.0,0.0,0.0,0.0,0.0,0.0,0.0,0,0,0,0,1,0,0,3,0,0,0,1,1,0,0
309788380,-0.0,0.0,0.47218934,-0.22095671,0.0,0.0,0.0,0.0,0.0,0.0,0.0,0,0,0,0,1,0,0,3,0,0,0,1,1,0,0
309989884,-0.0,0.0,0.47218934,-0.20273349,0.0,0.0,0.0,0.0,0.0,0.0,0.0,0,0,0,0,1,0,0,3,0,0,0,1,1,0,0
310190455,-0.0,0.0,0.47100592,-0.2072893,0.0,0.0,0.0,0.0,0.0,0.0,0.0,0,0,0,0,1,0,0,3,0,0,0,1,1,0,0
310389144,-0.0,0.0,0.47100592,-0.23006834,0.0,0.0,0.0,0.0,0.0,0.0,0.0,0,0,0,0,1,0,0,3,0,0,0,1,1,0,0
310587994,-0.0,0.0,0.47218934,-0.32801822,0.0,0.0,0.0,0.0,0.0,0.0,0.0,0,0,0,0,1,0,0,3,0,0,0,1,1,0,0
310786619,-0.0,0.0,0.4698225,-0.3189066,0.0,0.0,0.0,0.0,0.0,0.0,0.0,0,0,0,0,1,0,0,3,0,0,0,1,1,0,0
310985519,-0.0,0.0,0.4698225,-0.261959,0.0,0.0,0.0,0.0,0.0,0.0,0.0,0,0,0,0,1,0,0,3,0,0,0,1,1,0,0
311183898,-0.0,0.0,0.4698225,-0.27107063,0.0,0.0,0.0,0.0,0.0,0.0,0.0,0,0,0,0,1,0,0,3,0,0,0,1,1,0,0
311382688,-0.0,0.0,0.46627218,-0.309795,0.0,0.0,0.0,0.0,0.0,0.0,0.0,0,0,0,0,1,0,0,3,0,0,0,1,1,0,0
311584566,-0.0,0.0,0.46863905,-0.26879272,0.0,0.0,0.0,0.0,0.0,0.0,0.0,0,0,0,0,1,0,0,3,0,0,0,1,1,0,0
311785221,-0.0,0.0,0.46745563,-0.24601367,0.0,0.0,0.0,0.0,0.0,0.0,0.0,0,0,0,0,1,0,0,3,0,0,0,1,1,0,0
311986446,-0.0,0.0,0.46627218,-0.23006834,0.0,0.0,0.0,0.0,0.0,0.0,0.0,0,0,0,0,1,0,0,3,0,0,0,1,1,0,0
312187354,-0.0,0.0,0.46745563,-0.24373576,0.0,0.0,0.0,0.0,0.0,0.0,0.0,0,0,0,0,1,0,0,3,0,0,0,1,1,0,0
312388834,-0.0,0.0,0.46863905,-0.22551253,0.0,0.0,0.0,0.0,0.0,0.0,0.0,0,0,0,0,1,0,0,3,0,0,0,1,1,0,0
312589800,-0.0,0.0,0.4698225,-0.020501139,0.0,0.0,0.0,0.0,0.0,0.0,0.0,0,0,0,0,1,0,0,3,0,0,0,1,1,0,0
312791849,-0.0,0.0,0.4852071,0.0,0.0,0.0,0.0,0.0,0.0,0.0,0.0,0,0,0,0,1,0,0,3,0,0,0,1,1,0,0
312987099,-0.0,0.0,0.48402366,0.0,0.0,0.0,0.0,0.0,0.0,0.0,0.0,0,0,0,0,1,0,0,3,0,0,0,1,1,0,0
313188809,-0.0,0.0,0.4781065,0.0,0.0,0.0,0.0,0.0,0.0,0.0,0.0,0,0,0,0,1,0,0,3,0,0,0,1,1,0,0
313387630,-0.0,0.0,0.47692308,0.3970588,0.0,0.0,0.0,0.0,0.0,0.0,0.0,0,0,0,0,1,0,0,3,0,0,0,1,1,0,0
313588152,-0.0,0.0,0.47692308,0.40686274,0.0,0.0,0.0,0.0,0.0,0.0,0.0,0,0,0,0,1,0,0,3,0,0,0,1,1,0,0
313786780,-0.0,0.0,0.4781065,0.40441176,0.0,0.0,0.0,0.0,0.0,0.0,0.0,0,0,0,0,1,0,0,3,0,0,0,1,1,0,0
313980613,-0.0,0.0,0.48284024,0.3137255,0.0,0.0,0.0,0.0,0.0,0.0,0.0,0,0,0,0,1,0,0,3,0,0,0,1,1,0,0
314179316,-0.0,0.0,0.4852071,0.007352941,0.0,0.0,0.0,0.0,0.0,0.0,0.0,0,0,0,0,1,0,0,3,0,0,0,1,1,0,0
314382352,-0.0,0.0,0.4852071,0.017156864,0.0,0.0,0.0,0.0,0.0,0.0,0.0,0,0,0,0,1,0,0,3,0,0,0,1,1,0,0
314576666,-0.0,0.0,0.48165682,0.15686275,0.0,0.0,0.0,0.0,0.0,0.0,0.0,0,0,0,0,1,0,0,3,0,0,0,1,1,0,0
314774963,-0.0,0.0,0.48165682,0.21078432,0.0,0.0,0.0,0.0,0.0,0.0,0.0,0,0,0,0,1,0,0,3,0,0,0,1,1,0,0
314973911,-0.0,0.0,0.48284024,0.0,0.0,0.0,0.0,0.0,0.0,0.0,0.0,0,0,0,0,1,0,0,3,0,0,0,1,1,0,0
315175411,-0.0,0.0,0.48165682,0.0,0.0,0.0,0.0,0.0,0.0,0.0,0.0,0,0,0,0,1,0,0,3,0,0,0,1,1,0,0
315375880,-0.0,0.0,0.46627218,0.0,0.0,0.0,0.0,0.0,0.0,0.0,0.0,0,0,0,0,1,0,0,3,0,0,0,1,1,0,0
315577793,-0.0,0.0,0.35502958,0.0,0.0,0.0,0.0,0.0,0.0,0.0,0.0,0,0,0,0,1,0,0,3,0,0,0,1,1,0,0
315777762,-0.0,0.0,0.28284022,0.0,0.0,0.0,0.0,0.0,0.0,0.0,0.0,0,0,0,0,1,0,0,3,0,0,0,1,1,0,0
315976504,-0.0,0.0,0.28284022,0.0,0.0,0.0,0.0,0.0,0.0,0.0,0.0,0,0,0,0,1,0,0,3,0,0,0,1,1,0,0
316176993,-0.0,0.0,0.28639054,0.0,0.0,0.0,0.0,0.0,0.0,0.0,0.0,0,0,0,0,1,0,0,3,0,0,0,1,1,0,0
316374681,-0.0,0.0,0.26153848,0.0,0.0,0.0,0.0,0.0,0.0,0.0,0.0,0,0,0,0,1,0,0,3,0,0,0,1,1,0,0
316577225,-0.0,0.0,0.25443786,0.0,0.0,0.0,0.0,0.0,0.0,0.0,0.0,0,0,0,0,1,0,0,3,0,0,0,1,1,0,0
316777174,-0.0,0.0,0.25443786,0.0,0.0,0.0,0.0,0.0,0.0,0.0,0.0,0,0,0,0,1,0,0,3,0,0,0,1,1,0,0
316978555,-0.0,0.0,0.25325444,0.0,0.0,0.0,0.0,0.0,0.0,0.0,0.0,0,0,0,0,1,0,0,3,0,0,0,1,1,0,0
317179442,-0.0,0.0,0.25443786,0.0,0.0,0.0,0.0,0.0,0.0,0.0,0.0,0,0,0,0,1,0,0,3,0,0,0,1,1,0,0
317381874,-0.0,0.0,0.25443786,0.0,0.0,0.0,0.0,0.0,0.0,0.0,0.0,0,0,0,0,1,0,0,3,0,0,0,1,1,0,0
317581847,-0.0,0.0,0.25443786,0.0,0.0,0.0,0.0,0.0,0.0,0.0,0.0,0,0,0,0,1,0,0,3,0,0,0,1,1,0,0
317783800,-0.0,0.0,0.25443786,0.0,0.0,0.0,0.0,0.0,0.0,0.0,0.0,0,0,0,0,1,0,0,3,0,0,0,1,1,0,0
317982572,-0.0,0.0,0.25443786,0.0,0.0,0.0,0.0,0.0,0.0,0.0,0.0,0,0,0,0,1,0,0,3,0,0,0,1,1,0,0
318181601,-0.0,0.0,0.25443786,0.0,0.0,0.0,0.0,0.0,0.0,0.0,0.0,0,0,0,0,1,0,0,3,0,0,0,1,1,0,0
318388528,-0.0,0.0,0.25443786,0.0,0.0,0.0,0.0,0.0,0.0,0.0,0.0,0,0,0,0,1,0,0,3,0,0,0,1,1,0,0
318583032,-0.0,0.0,0.25443786,0.0,0.0,0.0,0.0,0.0,0.0,0.0,0.0,0,0,0,0,1,0,0,3,0,0,0,1,1,0,0
318784111,-0.0,0.0,0.25443786,0.0,0.0,0.0,0.0,0.0,0.0,0.0,0.0,0,0,0,0,1,0,0,3,0,0,0,1,1,0,0
318985229,-0.0,0.0,0.25443786,0.0,0.0,0.0,0.0,0.0,0.0,0.0,0.0,0,0,0,0,1,0,0,3,0,0,0,1,1,0,0
319186275,-0.0,0.0,0.25325444,0.0,0.0,0.0,0.0,0.0,0.0,0.0,0.0,0,0,0,0,1,0,0,3,0,0,0,1,1,0,0
319387816,-0.0,0.0,0.25325444,0.0,0.0,0.0,0.0,0.0,0.0,0.0,0.0,0,0,0,0,1,0,0,3,0,0,0,1,1,0,0
319588989,-0.0,0.0,0.25325444,0.0,0.0,0.0,0.0,0.0,0.0,0.0,0.0,0,0,0,0,1,0,0,3,0,0,0,1,1,0,0
319789925,-0.0,0.0,0.25325444,0.0,0.0,0.0,0.0,0.0,0.0,0.0,0.0,0,0,0,0,1,0,0,3,0,0,0,1,1,0,0
319990935,-0.0,0.0,0.25325444,0.0,0.0,0.0,0.0,0.0,0.0,0.0,0.0,0,0,0,0,1,0,0,3,0,0,0,1,1,0,0
320169751,-0.0,0.0,0.25325444,0.0,0.0,0.0,0.0,0.0,0.0,0.0,0.0,0,0,0,0,1,0,0,3,0,0,0,1,1,0,0
320371922,-0.0,0.0,0.25443786,0.0,0.0,0.0,0.0,0.0,0.0,0.0,0.0,0,0,0,0,1,0,0,3,0,0,0,1,1,0,0
320570151,-0.0,0.0,0.25443786,0.0,0.0,0.0,0.0,0.0,0.0,0.0,0.0,0,0,0,0,1,0,0,3,0,0,0,1,1,0,0
320790753,-0.0,0.0,0.25680473,0.0,0.0,0.0,0.0,0.0,0.0,0.0,0.0,0,0,0,0,1,0,0,3,0,0,0,1,1,0,0
320992012,-0.0,0.0,0.2591716,0.0,0.0,0.0,0.0,0.0,0.0,0.0,0.0,0,0,0,0,1,0,0,3,0,0,0,1,1,0,0
321193153,-0.0,0.0,0.295858,0.0,0.0,0.0,0.0,0.0,0.0,0.0,0.0,0,0,0,0,1,0,0,3,0,0,0,1,1,0,0
321371953,-0.0,0.0,0.29822487,0.0,0.0,0.0,0.0,0.0,0.0,0.0,0.0,0,0,0,0,1,0,0,3,0,0,0,1,1,0,0
321570518,-0.0,0.0,0.29467455,0.0,0.0,0.0,0.0,0.0,0.0,0.0,0.0,0,0,0,0,1,0,0,3,0,0,0,1,1,0,0
321769171,-0.0,0.0,0.36449704,0.0,0.0,0.0,0.0,0.0,0.0,0.0,0.0,0,0,0,0,1,0,0,3,0,0,0,1,1,0,0
321971030,-0.0,0.0,0.4852071,0.0,0.0,0.0,0.0,0.0,0.0,0.0,0.0,0,0,0,0,1,0,0,3,0,0,0,1,1,0,0
322191435,-0.0,0.0,0.4852071,0.0,0.0,0.0,0.0,0.0,0.0,0.0,0.0,0,0,0,0,1,0,0,3,0,0,0,1,1,0,0
322393814,-0.0,0.0,0.4852071,0.0,0.0,0.0,0.0,0.0,0.0,0.0,0.0,0,0,0,0,1,0,0,3,0,0,0,1,1,0,0
322572678,-0.0,0.0,0.4852071,0.0,0.0,0.0,0.0,0.0,0.0,0.0,0.0,0,0,0,0,1,0,0,3,0,0,0,1,1,0,0
322792542,-0.0,0.0,0.4852071,0.0,0.0,0.0,0.0,0.0,0.0,0.0,0.0,0,0,0,0,1,0,0,3,0,0,0,1,1,0,0
322991467,-0.0,0.0,0.4852071,0.0,0.0,0.0,0.0,0.0,0.0,0.0,0.0,0,0,0,0,1,0,0,3,0,0,0,1,1,0,0
323189914,-0.0,0.0,0.4852071,0.0,0.0,0.0,0.0,0.0,0.0,0.0,0.0,0,0,0,0,1,0,0,3,0,0,0,1,1,0,0
323388492,-0.0,0.0,0.4852071,0.0,0.0,0.0,0.0,0.0,0.0,0.0,0.0,0,0,0,0,1,0,0,3,0,0,0,1,1,0,0
323587304,-0.0,0.0,0.4852071,0.0,0.0,0.0,0.0,0.0,0.0,0.0,0.0,0,0,0,0,1,0,0,3,0,0,0,1,1,0,0
323789162,-0.0,0.0,0.4852071,0.0,0.0,0.0,0.0,0.0,0.0,0.0,0.0,0,0,0,0,1,0,0,3,0,0,0,1,1,0,0
323987783,-0.0,0.0,0.4934911,0.0,0.0,0.0,0.0,0.0,0.0,0.0,0.0,0,0,0,0,1,0,0,3,0,0,0,1,1,0,0
324186032,-0.0,0.0,0.5502958,0.0,0.0,0.0,0.0,0.0,0.0,0.0,0.0,0,0,0,0,1,0,0,3,0,0,0,1,1,0,0
324387046,-0.0,0.0,0.59053254,0.0,0.0,0.0,0.0,0.0,0.0,0.0,0.0,0,0,0,0,1,0,0,3,0,0,0,1,1,0,0
324589329,-0.0,0.0,0.5846154,0.0,0.0,0.0,0.0,0.0,0.0,0.0,0.0,0,0,0,0,1,0,0,3,0,0,0,1,1,0,0
324787167,-0.0,0.0,0.5573965,0.0,0.0,0.0,0.0,0.0,0.0,0.0,0.0,0,0,0,0,1,0,0,3,0,0,0,1,1,0,0
324986397,-0.0,0.0,0.4852071,0.0,0.0,0.0,0.0,0.0,0.0,0.0,0.0,0,0,0,0,1,0,0,3,0,0,0,1,1,0,0
325186750,-0.0,0.0,0.4887574,0.0,0.0,0.0,0.0,0.0,0.0,0.0,0.0,0,0,0,0,1,0,0,3,0,0,0,1,1,0,0
325385514,-0.0,0.0,0.54674554,0.0,0.0,0.0,0.0,0.0,0.0,0.0,0.0,0,0,0,0,1,0,0,3,0,0,0,1,1,0,0
325586852,-0.0,0.0,0.55266273,0.0,0.0,0.0,0.0,0.0,0.0,0.0,0.0,0,0,0,0,1,0,0,3,0,0,0,1,1,0,0
325782798,-0.0,0.0,0.5514793,0.0,0.0,0.0,0.0,0.0,0.0,0.0,0.0,0,0,0,0,1,0,0,3,0,0,0,1,1,0,0
325984138,-0.0,0.0,0.54201186,0.0,0.0,0.0,0.0,0.0,0.0,0.0,0.0,0,0,0,0,1,0,0,3,0,0,0,1,1,0,0
326185184,-0.0,0.0,0.5408284,0.0,0.0,0.0,0.0,0.0,0.0,0.0,0.0,0,0,0,0,1,0,0,3,0,0,0,1,1,0,0
326383847,-0.0,-0.04265403,0.5408284,0.0,0.0,0.0,0.0,0.0,0.0,0.0,0.0,0,0,0,0,1,0,0,3,0,0,0,1,1,0,0
326585407,-0.0,-0.16587678,0.5408284,0.0,0.0,0.0,0.0,0.0,0.0,0.0,0.0,0,0,0,0,1,0,0,3,0,0,0,1,1,0,0
326786288,-0.0,-0.2085308,0.5408284,0.0,0.0,0.0,0.0,0.0,0.0,0.0,0.0,0,0,0,0,1,0,0,3,0,0,0,1,1,0,0
326984867,-0.0,-0.1800948,0.5408284,0.0,0.0,0.0,0.0,0.0,0.0,0.0,0.0,0,0,0,0,1,0,0,3,0,0,0,1,1,0,0
327183781,-0.0,-0.18957347,0.5408284,0.0,0.0,0.0,0.0,0.0,0.0,0.0,0.0,0,0,0,0,1,0,0,3,0,0,0,1,1,0,0
327385078,-0.0,-0.19668247,0.5408284,0.0,0.0,0.0,0.0,0.0,0.0,0.0,0.0,0,0,0,0,1,0,0,3,0,0,0,1,1,0,0
327564426,-0.0,-0.2085308,0.5408284,0.0,0.0,0.0,0.0,0.0,0.0,0.0,0.0,0,0,0,0,1,0,0,3,0,0,0,1,1,0,0
327784645,-0.0,-0.21563981,0.5408284,0.0,0.0,0.0,0.0,0.0,0.0,0.0,0.0,0,0,0,0,1,0,0,3,0,0,0,1,1,0,0
327986089,-0.0,-0.20616114,0.5408284,0.0,0.0,0.0,0.0,0.0,0.0,0.0,0.0,0,0,0,0,1,0,0,3,0,0,0,1,1,0,0
328187175,-0.0,-0.18957347,0.5408284,0.0,0.0,0.0,0.0,0.0,0.0,0.0,0.0,0,0,0,0,1,0,0,3,0,0,0,1,1,0,0
328388418,-0.0,-0.18483412,0.5408284,0.0,0.0,0.0,0.0,0.0,0.0,0.0,0.0,0,0,0,0,1,0,0,3,0,0,0,1,1,0,0
328587169,-0.0,-0.101895735,0.5408284,0.0,0.0,0.0,0.0,0.0,0.0,0.0,0.0,0,0,0,0,1,0,0,3,0,0,0,1,1,0,0
328783244,-0.0,-0.059241705,0.5408284,0.0,0.0,0.0,0.0,0.0,0.0,0.0,0.0,0,0,0,0,1,0,0,3,0,0,0,1,1,0,0
328984446,-0.0,-0.12085308,0.5408284,0.0,0.0,0.0,0.0,0.0,0.0,0.0,0.0,0,0,0,0,1,0,0,3,0,0,0,1,1,0,0
329185476,-0.0,-0.23933649,0.5408284,0.0,0.0,0.0,0.0,0.0,0.0,0.0,0.0,0,0,0,0,1,0,0,3,0,0,0,1,1,0,0
329386799,-0.0,-0.26303318,0.5408284,0.0,0.0,0.0,0.0,0.0,0.0,0.0,0.0,0,0,0,0,1,0,0,3,0,0,0,1,1,0,0
329587756,-0.0,-0.23696682,0.5408284,0.0,0.0,0.0,0.0,0.0,0.0,0.0,0.0,0,0,0,0,1,0,0,3,0,0,0,1,1,0,0
329786509,-0.0,-0.18957347,0.5408284,0.0,0.0,0.0,0.0,0.0,0.0,0.0,0.0,0,0,0,0,1,0,0,3,0,0,0,1,1,0,0
329987865,-0.0,0.0,0.5408284,0.0,0.0,0.0,0.0,0.0,0.0,0.0,0.0,0,0,0,0,1,0,0,3,0,0,0,1,1,0,0
330188773,-0.0,0.0,0.5408284,0.0,0.0,0.0,0.0,0.0,0.0,0.0,0.0,0,0,0,0,1,0,0,3,0,0,0,1,1,0,0
330387637,-0.0,0.0,0.5408284,0.0,0.0,0.0,0.0,0.0,0.0,0.0,0.0,0,0,0,0,1,0,0,3,0,0,0,1,1,0,0
330588887,-0.0,0.0,0.5408284,0.0,0.0,0.0,0.0,0.0,0.0,0.0,0.0,0,0,0,0,1,0,0,3,0,0,0,1,1,0,0
330787542,-0.0,-0.15165877,0.5408284,0.0,0.0,0.0,0.0,0.0,0.0,0.0,0.0,0,0,0,0,1,0,0,3,0,0,0,1,1,0,0
330983601,-0.0,-0.19668247,0.53964496,0.0,0.0,0.0,0.0,0.0,0.0,0.0,0.0,0,0,0,0,1,0,0,3,0,0,0,1,1,0,0
331182198,-0.0,-0.22511849,0.53964496,0.0,0.0,0.0,0.0,0.0,0.0,0.0,0.0,0,0,0,0,1,0,0,3,0,0,0,1,1,0,0
331380887,-0.0,-0.21563981,0.53846157,0.0,0.0,0.0,0.0,0.0,0.0,0.0,0.0,0,0,0,0,1,0,0,3,0,0,0,1,1,0,0
331579710,-0.0,-0.21090047,0.53964496,0.0,0.0,0.0,0.0,0.0,0.0,0.0,0.0,0,0,0,0,1,0,0,3,0,0,0,1,1,0,0
331778344,-0.0,-0.20379147,0.5408284,0.0,0.0,0.0,0.0,0.0,0.0,0.0,0.0,0,0,0,0,1,0,0,3,0,0,0,1,1,0,0
331979775,-0.0,-0.20379147,0.54201186,0.0,0.0,0.0,0.0,0.0,0.0,0.0,0.0,0,0,0,0,1,0,0,3,0,0,0,1,1,0,0
332180877,-0.0,-0.22037914,0.54201186,0.0,0.0,0.0,0.0,0.0,0.0,0.0,0.0,0,0,0,0,1,0,0,3,0,0,0,1,1,0,0
332379378,-0.0,-0.2014218,0.54201186,0.0,0.0,0.0,0.0,0.0,0.0,0.0,0.0,0,0,0,0,1,0,0,3,0,0,0,1,1,0,0
332582215,-0.0,0.0,0.54201186,0.0,0.0,0.0,0.0,0.0,0.0,0.0,0.0,0,0,0,0,1,0,0,3,0,0,0,1,1,0,0
332781875,-0.0,0.0,0.54201186,0.0,0.0,0.0,0.0,0.0,0.0,0.0,0.0,0,0,0,0,1,0,0,3,0,0,0,1,1,0,0
332983472,-0.0,0.0,0.54201186,0.0,0.0,0.0,0.0,0.0,0.0,0.0,0.0,0,0,0,0,1,0,0,3,0,0,0,1,1,0,0
333182287,-0.0,0.0,0.54201186,0.0,0.0,0.0,0.0,0.0,0.0,0.0,0.0,0,0,0,0,1,0,0,3,0,0,0,1,1,0,0
333381117,-0.0,0.0,0.54201186,0.0,0.0,0.0,0.0,0.0,0.0,0.0,0.0,0,0,0,0,1,0,0,3,0,0,0,1,1,0,0
333580147,-0.0,0.0,0.54201186,0.0,0.0,0.0,0.0,0.0,0.0,0.0,0.0,0,0,0,0,1,0,0,3,0,0,0,1,1,0,0
333780051,-0.0,0.0,0.54201186,0.0,0.0,0.0,0.0,0.0,0.0,0.0,0.0,0,0,0,0,1,0,0,3,0,0,0,1,1,0,0
333978934,-0.0,0.0,0.54674554,-0.0022779044,0.0,0.0,0.0,0.0,0.0,0.0,0.0,0,0,0,0,1,0,0,3,0,0,0,1,1,0,0
334177617,-0.0,0.0,0.56094676,-0.004555809,0.0,0.0,0.0,0.0,0.0,0.0,0.0,0,0,0,0,1,0,0,3,0,0,0,1,1,0,0
334376328,-0.0,0.0,0.5597633,-0.009111618,0.0,0.0,0.0,0.0,0.0,0.0,0.0,0,0,0,0,1,0,0,3,0,0,0,1,1,0,0
334574926,-0.0,0.0,0.55857986,0.0,0.0,0.0,0.0,0.0,0.0,0.0,0.0,0,0,0,0,1,0,0,3,0,0,0,1,1,0,0
334776352,-0.0,0.0,0.52307695,0.0,0.0,0.0,0.0,0.0,0.0,0.0,0.0,0,0,0,0,1,0,0,3,0,0,0,1,1,0,0
334977512,-0.0,0.0,0.51715976,0.0,0.0,0.0,0.0,0.0,0.0,0.0,0.0,0,0,0,0,1,0,0,3,0,0,0,1,1,0,0
335179492,-0.0,0.0,0.5005917,0.0,0.0,0.0,0.0,0.0,0.0,0.0,0.0,0,0,0,0,1,0,0,3,0,0,0,1,1,0,0
335379560,-0.0,0.0,0.48757395,0.0,0.0,0.0,0.0,0.0,0.0,0.0,0.0,0,0,0,0,1,0,0,3,0,0,0,1,1,0,0
335578267,-0.0,0.0,0.48994082,0.0,0.0,0.0,0.0,0.0,0.0,0.0,0.0,0,0,0,0,1,0,0,3,0,0,0,1,1,0,0
335779824,-0.0,0.0,0.49112427,0.0,0.0,0.0,0.0,0.0,0.0,0.0,0.0,0,0,0,0,1,0,0,3,0,0,0,1,1,0,0
335980756,-0.0,0.0,0.50532544,0.0,0.0,0.0,0.0,0.0,0.0,0.0,0.0,0,0,0,0,1,0,0,3,0,0,0,1,1,0,0
336182766,-0.0,0.0,0.5739645,0.0,0.0,0.0,0.0,0.0,0.0,0.0,0.0,0,0,0,0,1,0,0,3,0,0,0,1,1,0,0
336382917,-0.0,0.0,0.5727811,0.0,0.0,0.0,0.0,0.0,0.0,0.0,0.0,0,0,0,0,1,0,0,3,0,0,0,1,1,0,0
336584489,-0.0,0.0,0.56804734,0.0,0.0,0.0,0.0,0.0,0.0,0.0,0.0,0,0,0,0,1,0,0,3,0,0,0,1,1,0,0
336793097,-0.0,0.0,0.56568044,0.0,0.0,0.0,0.0,0.0,0.0,0.0,0.0,0,0,0,0,1,0,0,3,0,0,0,1,1,0,0
336984081,-0.0,0.0,0.56568044,0.0,0.0,0.0,0.0,0.0,0.0,0.0,0.0,0,0,0,0,1,0,0,3,0,0,0,1,1,0,0
337185427,-0.0,0.0,0.56449705,0.0,0.0,0.0,0.0,0.0,0.0,0.0,0.0,0,0,0,0,1,0,0,3,0,0,0,1,1,0,0
337384659,-0.0,0.0,0.56449705,0.0,0.0,0.0,0.0,0.0,0.0,0.0,0.0,0,0,0,0,1,0,0,3,0,0,0,1,1,0,0
337585054,-0.0,0.0,0.56449705,0.0,0.0,0.0,0.0,0.0,0.0,0.0,0.0,0,0,0,0,1,0,0,3,0,0,0,1,1,0,0
337783755,-0.0,0.0,0.56449705,0.0,0.0,0.0,0.0,0.0,0.0,0.0,0.0,0,0,0,0,1,0,0,3,0,0,0,1,1,0,0
337982581,-0.004761905,0.0,0.56449705,0.0,0.0,0.0,0.0,0.0,0.0,0.0,0.0,0,0,0,0,1,0,0,3,0,0,0,1,1,0,0
338181259,-0.00952381,0.0,0.56449705,0.0,0.0,0.0,0.0,0.0,0.0,0.0,0.0,0,0,0,0,1,0,0,3,0,0,0,1,1,0,0
338383032,-0.028571429,0.0,0.56449705,0.0,0.0,0.0,0.0,0.0,0.0,0.0,0.0,0,0,0,0,1,0,0,3,0,0,0,1,1,0,0
338583550,-0.035714287,0.0,0.56449705,0.0,0.0,0.0,0.0,0.0,0.0,0.0,0.0,0,0,0,0,1,0,0,3,0,0,0,1,1,0,0
338784837,-0.033333335,0.0,0.56449705,0.0,0.0,0.0,0.0,0.0,0.0,0.0,0.0,0,0,0,0,1,0,0,3,0,0,0,1,1,0,0
338984094,-0.0,0.0,0.56449705,0.0,0.0,0.0,0.0,0.0,0.0,0.0,0.0,0,0,0,0,1,0,0,3,0,0,0,1,1,0,0
339182813,-0.0,0.0,0.56449705,0.0,0.0,0.0,0.0,0.0,0.0,0.0,0.0,0,0,0,0,1,0,0,3,0,0,0,1,1,0,0
339378322,-0.0,0.0,0.56449705,0.0,0.0,0.0,0.0,0.0,0.0,0.0,0.0,0,0,0,0,1,0,0,3,0,0,0,1,1,0,0
339580403,-0.0,0.0,0.56449705,0.0,0.0,0.0,0.0,0.0,0.0,0.0,0.0,0,0,0,0,1,0,0,3,0,0,0,1,1,0,0
339780584,-0.0,0.0,0.56449705,0.0,0.0,0.0,0.0,0.0,0.0,0.0,0.0,0,0,0,0,1,0,0,3,0,0,0,1,1,0,0
339982765,-0.0,0.0,0.56568044,0.0,0.0,0.0,0.0,0.0,0.0,0.0,0.0,0,0,0,0,1,0,0,3,0,0,0,1,1,0,0
340177970,-0.0,0.0,0.56568044,0.0,0.0,0.0,0.0,0.0,0.0,0.0,0.0,0,0,0,0,1,0,0,3,0,0,0,1,1,0,0
340379437,-0.0,0.0,0.56568044,0.0,0.0,0.0,0.0,0.0,0.0,0.0,0.0,0,0,0,0,1,0,0,3,0,0,0,1,1,0,0
340578113,-0.0,0.0,0.56568044,0.0,0.0,0.0,0.0,0.0,0.0,0.0,0.0,0,0,0,0,1,0,0,3,0,0,0,1,1,0,0
340779144,-0.0,0.0,0.56568044,0.0,0.0,0.0,0.0,0.0,0.0,0.0,0.0,0,0,0,0,1,0,0,3,0,0,0,1,1,0,0
340977798,-0.0,0.0,0.56568044,0.0,0.0,0.0,0.0,0.0,0.0,0.0,0.0,0,0,0,0,1,0,0,3,0,0,0,1,1,0,0
341179076,-0.0,0.0,0.56568044,0.0,0.0,0.0,0.0,0.0,0.0,0.0,0.0,0,0,0,0,1,0,0,3,0,0,0,1,1,0,0
341380529,-0.0,0.0,0.56568044,0.0,0.0,0.0,0.0,0.0,0.0,0.0,0.0,0,0,0,0,1,0,0,3,0,0,0,1,1,0,0
341578851,-0.0,0.0,0.56568044,0.0,0.0,0.0,0.0,0.0,0.0,0.0,0.0,0,0,0,0,1,0,0,3,0,0,0,1,1,0,0
341780882,-0.0,0.0,0.56568044,0.0,0.0,0.0,0.0,0.0,0.0,0.0,0.0,0,0,0,0,1,0,0,3,0,0,0,1,1,0,0
341981106,-0.0,0.0,0.56568044,0.0,0.0,0.0,0.0,0.0,0.0,0.0,0.0,0,0,0,0,1,0,0,3,0,0,0,1,1,0,0
342182626,-0.0,0.0,0.56568044,0.0,0.0,0.0,0.0,0.0,0.0,0.0,0.0,0,0,0,0,1,0,0,3,0,0,0,1,1,0,0
342383648,-0.028571429,0.0,0.56568044,0.0,0.0,0.0,0.0,0.0,0.0,0.0,0.0,0,0,0,0,1,0,0,3,0,0,0,1,1,0,0
342582237,-0.061904762,-0.011848342,0.56568044,0.0,0.0,0.0,0.0,0.0,0.0,0.0,0.0,0,0,0,0,1,0,0,3,0,0,0,1,1,0,0
342784205,-0.057142857,-0.0023696683,0.56568044,0.0,0.0,0.0,0.0,0.0,0.0,0.0,0.0,0,0,0,0,1,0,0,3,0,0,0,1,1,0,0
342983089,-0.05952381,-0.009478673,0.56568044,0.0,0.0,0.0,0.0,0.0,0.0,0.0,0.0,0,0,0,0,1,0,0,3,0,0,0,1,1,0,0
343181643,-0.06666667,-0.033175357,0.56568044,0.0,0.0,0.0,0.0,0.0,0.0,0.0,0.0,0,0,0,0,1,0,0,3,0,0,0,1,1,0,0
343381917,-0.07380953,-0.018957347,0.56568044,0.0,0.0,0.0,0.0,0.0,0.0,0.0,0.0,0,0,0,0,1,0,0,3,0,0,0,1,1,0,0
343583874,-0.083333336,-0.014218009,0.56568044,0.0,0.0,0.0,0.0,0.0,0.0,0.0,0.0,0,0,0,0,1,0,0,3,0,0,0,1,1,0,0
343784531,-0.10714286,-0.014218009,0.56568044,0.0,0.0,0.0,0.0,0.0,0.0,0.0,0.0,0,0,0,0,1,0,0,3,0,0,0,1,1,0,0
343986276,-0.114285715,-0.0047393367,0.56568044,0.0,0.0,0.0,0.0,0.0,0.0,0.0,0.0,0,0,0,0,1,0,0,3,0,0,0,1,1,0,0
344186813,-0.1,0.0,0.56568044,0.0,0.0,0.0,0.0,0.0,0.0,0.0,0.0,0,0,0,0,1,0,0,3,0,0,0,1,1,0,0
344383470,-0.05952381,0.0,0.56568044,0.0,0.0,0.0,0.0,0.0,0.0,0.0,0.0,0,0,0,0,1,0,0,3,0,0,0,1,1,0,0
344582262,-0.0,0.0,0.56568044,0.0,0.0,0.0,0.0,0.0,0.0,0.0,0.0,0,0,0,0,1,0,0,3,0,0,0,1,1,0,0
344782769,-0.0,0.0,0.56568044,0.0,0.0,0.0,0.0,0.0,0.0,0.0,0.0,0,0,0,0,1,0,0,3,0,0,0,1,1,0,0
344981487,-0.0,0.0,0.5633136,0.0,0.0,0.0,0.0,0.0,0.0,0.0,0.0,0,0,0,0,1,0,0,3,0,0,0,1,1,0,0
