timestamp,timestamp_sample,xyz[0],xyz[1],xyz[2]
218191998,218191767,-0.0005281064,0.0010552689,-0.0041643837
218195740,218195507,-0.0040680673,0.0013498054,-0.0019539918
218213097,218212867,-9.041868e-05,0.002192089,-0.006068982
218234241,218234009,-0.009119419,0.002656879,-0.013756399
218251591,218251364,-0.01680429,0.001981114,0.04509448
218272722,218272495,-0.020395307,-0.005452855,-0.0068588
218293815,218293584,0.048745662,-0.029602176,-0.035465967
218314937,218314699,-0.016037943,-0.026141573,0.008167204
218332317,218332093,-0.016466487,0.012033555,0.05269088
218353424,218353191,0.053234767,0.019732812,-0.013976717
218374533,218374303,-0.057896253,0.0056770383,-0.001948214
218391922,218391686,0.05281551,-0.034491614,-0.021008145
218413096,218412861,-0.0343888,-0.00309548,0.01074623
218434279,218434042,0.032889757,0.0025975297,0.012146097
218455254,218455018,-0.055162493,-0.038070593,-0.0042555844
218472636,218472403,0.057249703,0.038877,-0.008217736
218493755,218493515,-0.090884924,-0.045846134,-0.04123794
218513615,218513383,0.07078677,0.041848455,0.032796696
218532247,218532011,-0.034477644,-0.045848,0.011852438
218552109,218551879,-0.02917031,0.019525826,-0.027997773
218573226,218572990,0.027794361,0.03091234,0.019029902
218594328,218594101,0.019131677,-0.024924345,0.015623753
218611718,218611485,-0.030206397,0.012413326,-0.04302061
218632831,218632600,0.02774598,0.03612099,0.03693566
218653939,218653709,0.0023829225,-0.054494135,0.031951636
218671321,218671092,-0.0027719985,0.026531909,-0.052169856
218692547,218692320,0.014852223,0.05710528,0.01978205
218713709,218713475,-0.029665457,-0.049003452,0.048298184
218734664,218734439,-0.016911602,-0.061484966,-0.030216232
218752042,218751810,0.03765698,0.11146666,0.0006174671
218773165,218772939,-0.0323954,-0.00427398,0.054980233
218794259,218794031,-0.049948435,-0.11645676,0.0030189992
218811669,218811441,0.06496062,0.103367604,-0.04521934
218832754,218832526,0.012067302,0.07007311,0.056010727
218853864,218853637,-0.0659688,-0.112221494,0.051442143
218874985,218874747,-0.050696842,-0.085867465,-0.045164756
218892357,218892132,0.07745312,0.14136274,-0.009945018
218913468,218913243,-0.019945279,-0.009953517,0.08017991
218934578,218934349,-0.08883273,-0.12508798,0.014255404
218951989,218951765,0.04544653,0.10288117,-0.06089779
218973215,218972986,0.10041468,0.08401223,0.044099532
218994201,218993962,-0.017404094,-0.07445322,0.06005796
219015302,219015071,-0.116462395,-0.09884692,-0.03685497
219032688,219032456,0.077703945,0.10095115,-0.012054836
219053799,219053567,0.1133506,0.021259816,0.06642065
219073701,219073469,-0.08913457,-0.08905408,0.012037178
219092292,219092062,-0.070194244,0.047379572,-0.06552153
219112191,219111963,0.1259062,0.06990671,0.025619458
219133273,219133042,0.058024265,-0.05322753,0.05259393
219154387,219154157,-0.08704375,-0.06041959,-0.00850089
219171764,219171538,-0.001459978,0.0759758,-0.025386948
219195367,219195127,0.07547784,0.03122912,0.01659858
219214028,219213804,0.025226831,-0.09605746,0.022809418
219231443,219231216,-0.0731705,0.06503916,-0.039289605
219252666,219252437,-0.0056762137,0.07081978,0.017079191
219273604,219273367,0.06453081,-0.05923003,0.03003369
219294712,219294481,0.009512096,-0.07387152,-0.032185644
219312097,219311862,-0.040342197,0.11262584,-8.4764964e-05
219333212,219332973,0.022491118,0.022874484,0.057964277
219354309,219354082,0.036274448,-0.120347396,0.012030897
219372944,219372712,-0.023964789,0.0066510956,-0.06175171
219392814,219392582,-0.005888334,0.1247964,0.016568586
219413918,219413689,0.034069523,-0.01101246,0.07006367
219432548,219432317,-0.02328148,-0.11351058,-0.026505386
219452434,219452193,-0.02308975,0.07755827,-0.057881232
219473531,219473303,0.04862591,0.11114733,0.023775408
219494690,219494465,0.039742418,-0.0307319,0.0664727
219512148,219511919,-0.07580664,-0.03872069,-0.058343127
219533128,219532902,-0.01107805,0.06391692,-0.04252607
219554248,219554014,0.08734058,0.022370089,0.036813974
219574123,219573896,0.02527604,-0.06192275,0.05156881
219592742,219592509,-0.09360836,0.033368684,-0.06292962
219612612,219612387,0.021603225,0.0439583,-0.010404714
219633713,219633488,0.08229082,-0.05594775,0.049762297
219651171,219650945,-0.047632933,0.018544383,-0.019271942
219672221,219671989,-0.06253695,0.10560471,-0.041098006
219693320,219693094,0.0050090696,-0.01013901,0.00470709
219714433,219714205,0.047691323,-0.13855052,0.028121008
219731817,219731591,-0.01405679,0.08476371,-0.023036879
219753023,219752797,-0.040269956,0.13358335,0.0034902361
219774130,219773901,-0.01629311,-0.05276966,0.03391604
219791600,219791376,0.012458247,-0.07006814,-0.03283187
219812532,219812307,0.01246111,0.14151318,-0.023562467
219833650,219833418,0.012440266,0.11562984,0.0341938
219854755,219854529,-0.018339943,-0.10091967,0.043624166
219872145,219871914,-0.011280678,-0.054357708,-0.054052625
219893256,219893025,0.04558673,0.155147,-0.02672196
219914361,219914135,0.056419868,0.08800842,0.045392312
219931748,219931522,-0.07781207,-0.17016421,-0.0006681229
219952894,219952662,-0.030702576,-0.018921155,-0.06742098
219973968,219973741,0.084145404,0.16057618,-0.020431802
219995076,219994852,0.07286289,0.07280775,0.060037408
220012467,220012238,-0.11288779,-0.139722,-0.013040481
220033619,220033392,-0.039250307,-0.0028368537,-0.07455259
220053583,220053357,0.1169987,0.121843465,0.0121539915
220072103,220071862,-0.0012497832,-0.05704182,0.061841916
220093192,220092957,-0.13047911,-0.0955063,-0.030515393
220114307,220114074,-0.057886135,0.017031142,-0.07824091
220131678,220131450,0.1333098,0.03751484,0.06621706
220152793,220152562,0.009689852,-0.045938894,0.05626608
220172663,220172434,-0.13574646,-0.011853229,-0.06471304
220191304,220191073,0.057318505,0.03727092,-0.016148746
220212404,220212170,0.1306222,-0.026892139,0.076989256
220232272,220232037,-0.015105074,-0.023523623,0.010478488
220253379,220253148,-0.122735456,0.055450283,-0.06860164
220274487,220274258,-0.042361517,0.024835145,-0.022190053
220291872,220291645,0.10600755,-0.07905654,0.048427537
220313154,220312928,-0.0025721127,0.030450864,-0.023125874
220334351,220334118,-0.104594745,0.121984005,-0.036535833
220351482,220351250,0.041355874,-0.07570434,0.039856166
220372633,220372408,0.07237089,-0.110222094,0.0029198977
220393694,220393471,-0.007647971,0.04281397,-0.038673136
220414813,220414582,-0.056855183,0.1401783,0.002852274
220432199,220431966,0.020456823,-0.10885755,0.029598877
220453309,220453078,0.021404924,-0.11869556,-0.0202714
220474419,220474190,0.007763189,0.077089705,-0.041249935
220491803,220491573,-0.004962504,0.045761243,0.03991172
220512911,220512685,-0.024907809,-0.13014506,0.024826765
220534030,220533794,-0.02587804,-0.10212637,-0.036706567
220555136,220554906,0.02238443,0.114377424,-0.045951117
220572560,220572337,0.019909706,0.011732602,0.052998915
220593781,220593545,-0.03612835,-0.13839284,0.020933542
220614748,220614512,-0.08028274,-0.05511728,-0.047059607
220632125,220631898,0.082344994,0.12733038,0.013553947
220653255,220653018,0.07661913,-0.036954284,0.05668354
220673110,220672878,-0.096109144,-0.12025594,-0.019873234
220694226,220693990,-0.08475373,0.028513234,-0.050944414
220711600,220711373,0.12718739,0.058095396,0.04247748
220732712,220732483,0.041797973,-0.07859215,0.036995426
220753825,220753594,-0.11123166,-0.057337213,-0.030598318
220771208,220770979,0.011272382,0.09517738,-0.0027512605
220793618,220793386,0.10675638,0.01579239,0.03623679
220813431,220813200,0.02611558,-0.098071076,0.012875014
220834570,220834343,-0.09654816,-0.0030159296,-0.030791467
220852023,220851792,0.030948775,0.07004539,0.021078246
220873043,220872811,0.081780486,-0.06218639,0.02000075
220894144,220893917,0.008543405,-0.081731066,-0.03559959
220911550,220911324,-0.05544469,0.1047513,0.015070075
220932643,220932413,0.025127685,0.03256539,0.05139756
220953748,220953524,0.056269623,-0.09858623,-0.009182363
220972386,220972152,-0.03860187,0.005670339,-0.05313903
220992250,220992020,-0.012224854,0.116086826,0.03931514
221013355,221013129,0.041308418,-0.010896332,0.058237012
221034467,221034242,0.0017645584,-0.12059734,-0.010861321
221051856,221051626,-0.036562156,0.06852693,-0.04309192
221072963,221072737,0.051775552,0.09911415,0.028643785
221094124,221093893,0.043229148,-0.040629737,0.05958457
221115265,221115029,-0.041114416,-0.08244405,-0.0112997405
221132723,221132492,-0.01071645,0.07186606,-0.030145224
221153684,221153454,0.08214003,0.019587616,0.036461543
221174795,221174564,0.022524852,-0.063047595,0.045652244
221192174,221191949,-0.0767411,0.05443844,-0.06126674
221213295,221213059,0.013353253,0.07088263,-0.0123105515
221233158,221232928,0.06604645,-0.07047247,0.05218399
221254269,221254039,-0.0020041917,-0.057614446,0.01762804
221271651,221271424,-0.034510445,0.10743433,-0.040217854
221292760,221292535,0.0160829,-0.026237976,0.015776185
221313874,221313646,0.01907096,-0.14016458,0.028755283
221331257,221331031,-0.009830085,0.096798934,-0.03261833
221352372,221352143,-0.006756373,0.12941468,0.009314474
221374757,221374525,0.0059789186,-0.01755242,0.04388589
221394715,221394488,-0.022930253,-0.14561749,-0.0054850844
221411981,221411748,0.011929609,0.12445713,-0.032223452
221433090,221432859,0.05070033,0.11330478,0.034402173
221454274,221454045,-0.01510502,-0.08356161,0.049237575
221471580,221471354,-0.03193989,-0.06521381,-0.06443339
221493944,221493710,0.05714819,0.09812793,-0.046084072
221513815,221513579,0.060827363,0.089860454,0.06649456
221534913,221534686,-0.044807453,-0.05896652,0.051035587
221553555,221553317,-0.04946394,-0.04518647,-0.09139607
221573421,221573190,0.070650265,0.07231688,-0.018476034
221594542,221594316,0.06626247,0.017457971,0.096177354
221611909,221611678,-0.09176554,-0.03276157,-0.03181968
221633065,221632838,-0.04894217,0.008625401,-0.08875322
221654206,221653975,0.069901295,0.00053831784,0.0032360854
221672937,221672697,0.027497977,-0.01998069,0.07341788
221692658,221692433,-0.07811492,0.03076141,-0.05580882
221713739,221713506,-0.03646749,0.03567916,-0.0684351
221733602,221733377,0.056464713,-0.052192327,0.049435094
221752246,221752002,0.008337879,-0.013626308,0.028427241
221772110,221771871,-0.0382345,0.07950253,-0.054845788
221793210,221792981,-0.03434408,0.0049841735,-0.005557801
221814362,221814138,-0.0071369656,-0.09632683,0.037441783
221831705,221831477,0.037834823,0.055747095,-0.03363157
221852814,221852588,0.01444196,0.11879554,-0.024652194
221873930,221873698,-0.036971826,-0.009588845,0.045620333
221891308,221891083,-0.018055387,-0.10526671,-0.008232271
221912505,221912279,0.06144223,0.06639343,-0.06528828
221933652,221933428,0.062262338,0.12431654,0.00020438757
221955890,221955658,-0.026024453,0.03271349,0.072176635
221972025,221971800,-0.033355836,-0.089052305,-0.056426458
221993143,221992913,0.0930574,0.06567007,-0.06497603
222014250,222014022,0.08512028,0.1228608,0.045119032
222031636,222031407,-0.11335192,-0.08975938,0.033959124
222052746,222052521,-0.055020273,-0.07108237,-0.08977235
222073859,222073629,0.084028825,0.030201998,-0.062093172
222094999,222094763,0.10065471,0.058309406,0.072738506
222112351,222112124,-0.09958096,-0.0415401,0.012228423
222133478,222133247,-0.05385698,-0.032298792,-0.0964219
222154576,222154346,0.048862003,-0.009613934,-0.026528876
222171997,222171773,0.029413374,0.02103311,0.07992467
222193159,222192930,-0.051161435,0.03550673,-0.033375196
222214369,222214138,-0.05835964,0.011675065,-0.07546234
222235295,222235064,-0.006067461,-0.043339964,0.013350573
222253926,222253691,0.050271533,-0.006895034,0.045742087
222273796,222273560,0.022456767,0.07327865,-0.039489646
222293705,222293479,-0.06054073,-0.002682775,-0.017011316
222313536,222313300,-0.030903094,-0.10801025,0.0489199
222332156,222331923,0.08323105,0.028023575,-0.027653225
222353267,222353036,0.053953428,0.10434774,-0.044864528
222374372,222374145,-0.068356976,0.028409407,0.029079955
222391760,222391530,-0.027437396,-0.07933932,0.011067789
222412870,222412641,0.09767211,0.030164123,-0.058063123
222433982,222433756,0.086037874,0.09608583,-0.02191998
222451460,222451232,-0.12315416,-0.05117065,0.05568908
222472616,222472386,-0.043501604,-0.09810617,-0.014794282
222493584,222493358,0.10266978,-0.016122159,-0.070502184
222512222,222511986,0.040446494,0.07965413,0.033436123
222532137,222531908,-0.12917903,-0.04098207,0.072428696
222553197,222552964,-0.04915103,-0.060772523,-0.050524417
222574298,222574075,0.093875,0.006611169,-0.08651357
222591699,222591461,0.0020788917,0.05279285,0.08640407
222612799,222612571,-0.09417364,0.0017886182,0.040263563
222633908,222633681,-0.04427295,-0.05441292,-0.07763546
222655023,222654792,0.050746553,-0.04568947,-0.054506343
222672413,222672181,0.034796517,0.046613183,0.0809755
222693514,222693288,-0.04102868,0.030899774,0.013228517
222714634,222714407,-0.07035769,-0.033969328,-0.06542095
222732101,222731867,0.055838186,-0.019392977,0.022800857
222753316,222753084,0.046453163,0.037758775,0.061519343
222774241,222774005,-0.0136056105,0.05114868,0.002071406
222795351,222795117,-0.040673092,0.007910689,-0.056538384
222812731,222812501,-0.00032360735,-0.06049876,0.029845674
222832593,222832369,0.057312783,0.031390596,0.027047087
222853710,222853480,0.038511943,0.085470684,-0.030947361
222871091,222870866,-0.07240597,-0.06018654,0.006911377
222892252,222892025,-0.035064507,-0.08971648,0.044907548
222913314,222913087,0.074053824,0.014900124,-0.016804248
222934426,222934198,0.083340004,0.10160094,-0.046486083
222951807,222951582,-0.10135984,-0.04533989,0.042741522
222972926,222972693,-0.058384746,-0.0887442,0.023457462
222994141,222993914,0.07979717,-0.0077772485,-0.049298264
223011545,223011321,0.026991,0.08168793,0.015542576
223032529,223032300,-0.11242851,-0.02203417,0.061294287
223053642,223053411,-0.08122439,-0.09791555,0.01513955
223074753,223074521,0.06652331,-0.05261353,-0.06082915
223092136,223091906,0.06291513,0.09006033,0.015197603
223113248,223113018,-0.09234692,0.028928496,0.083477445
223134353,223134128,-0.097741805,-0.05072897,0.032223504
223151741,223151513,0.08878324,-0.04391988,-0.093471065
223172858,223172625,0.05091463,0.033135828,-0.001161786
223193959,223193734,-0.04410088,0.116101794,0.07939797
223211348,223211119,-0.0038615223,-0.037134428,0.017339224
223232461,223232230,0.12188383,-0.170165,-0.04719875
223253591,223253363,0.1536109,-0.17508252,-0.062081918
223274794,223274562,0.089370765,-0.025291493,-0.022380736
223292265,223292031,-0.074015565,0.060540415,-0.0672946
223313176,223312950,-0.10589202,0.0043494147,-0.06267571
223334293,223334059,-0.09503882,-0.033739246,-0.08221849
223354191,223353960,-0.093649976,0.08156349,-0.06228137
223372785,223372554,-0.22670908,0.092459016,-0.050998986
223392651,223392422,-0.1611927,-0.1060772,-0.001209684
223413761,223413533,-0.16464195,0.011327197,-0.009671757
223431152,223430919,-0.09668193,0.038130287,-0.00263002
223452254,223452029,-0.001115198,0.02214443,-0.034336753
223473366,223473139,-0.041787844,-0.06479129,-0.033791266
223494480,223494250,-0.018538198,0.0052434946,-0.019191798
223511866,223511642,0.05521937,0.025874073,-0.0070810537
223533025,223532801,0.086298704,-0.028480692,0.030160867
223554267,223554030,0.010590447,-0.017362198,0.023592792
223571467,223571242,0.026135586,0.011811537,0.034603763
223592576,223592352,0.042247914,-0.013021625,-0.024731455
223613694,223613463,-0.056668676,-0.02527551,-0.018345593
223634804,223634574,-0.004589098,0.03678474,-0.028216192
223652190,223651959,-0.08865434,0.05511305,0.021686397
223673299,223673070,0.005890913,-0.04284945,-0.0038630052
223694439,223694211,-0.08059132,0.03463892,-0.007439086
223711791,223711566,-0.040195722,0.01878489,-0.019295165
223734160,223733928,-0.065836266,0.09286459,-0.014851037
223754024,223753790,-0.043650948,-0.025563166,-0.009157547
223775128,223774902,-0.005233794,0.036427554,0.0038000396
223792527,223792298,-0.056123547,0.010387576,0.009660843
223813758,223813516,0.004586711,0.013404619,0.0059828116
223834739,223834504,0.019263081,-0.05381915,0.004328977
223852120,223851889,-0.015052905,-0.035160594,-0.038518667
223873242,223873000,-0.02166427,0.00014138132,-0.0050190995
223894338,223894111,-0.02309184,-0.04137021,-0.0033295276
223911736,223911500,-0.0024330476,-0.031831637,-0.0044018077
223932839,223932608,-0.05915284,-0.02730155,-0.020174544
223952746,223952516,-0.024322793,-0.038682386,-0.025781114
223973810,223973586,-0.058061857,-0.054978855,-0.011570796
223991212,223990973,-0.07292264,-0.024754697,-0.026042527
224012316,224012082,-0.018455055,-0.0035158675,0.018156508
224033424,224033193,-0.043620188,-0.045616973,0.004734784
224054565,224054342,-0.013427685,-0.03246206,-0.031811796
224071979,224071752,-0.0651194,0.011057297,-0.01336839
224093193,224092963,-0.06704026,0.014139298,0.0055165663
224114135,224113910,-0.0690627,0.007405522,0.022949057
224131528,224131297,-0.116482385,-0.0066971546,-0.011719056
224152634,224152406,-0.049907338,0.010789702,0.025291562
224173742,224173516,-0.052392416,-0.010522216,-0.028811457
224194856,224194629,-0.11267983,0.049144324,-0.012476089
224212245,224212014,-0.11808449,0.021626087,0.0007711157
224233350,224233124,-0.17559674,-0.018331263,-0.030557849
224254463,224254234,-0.10689943,0.016881865,-0.0039543654
224271843,224271619,-0.10564533,-0.037983064,-0.004743866
224292954,224292729,-0.093332574,0.029429149,0.012354047
224314075,224313840,-0.0942329,-0.050400395,0.0048865955
224335214,224334983,-0.048119593,0.03010882,0.003011072
224352682,224352458,-0.033780903,-0.023522347,-0.011049009
224373673,224373446,-0.018406017,-0.01571575,-0.031532902
224394786,224394557,-0.00698679,-0.011140236,-0.0069969296
224412171,224411942,-0.0138057,-0.029993469,-0.017225824
224433293,224433052,0.11213081,-0.057860322,0.024154678
224453156,224452922,0.059948698,-0.052978452,0.02083213
224474261,224474033,0.12687734,-0.028934615,0.039037023
224491651,224491418,0.08234493,-0.049650446,0.017155092
224514006,224513772,0.15563469,-0.009688536,0.010354888
224533871,224533640,0.1514943,-0.10786995,0.014071522
224551277,224551048,0.23160961,-0.05777566,0.0074439747
224572366,224572136,0.15386349,-0.054490756,0.014562939
224593475,224593241,0.18592362,-0.071496524,0.053037476
224614664,224614439,0.18462825,-0.051703148,0.023828845
224632142,224631912,0.21317138,-0.07463856,0.05352611
224653080,224652852,0.22399414,-0.018332208,0.030120274
224674191,224673962,0.14928192,-0.051722236,0.029617365
224692832,224692595,0.16366439,-0.035246115,0.049739417
224712693,224712462,0.14297023,-0.06516049,0.040066317
224733790,224733566,0.13975744,-0.05913339,0.027808262
224752429,224752197,0.13182224,-0.03980539,-0.013057861
224772301,224772069,0.07813811,-0.044527788,-0.001538643
224793442,224793217,0.023017174,-0.0135005005,0.033687033
224814514,224814287,0.0842788,-0.0019086729,0.0059919814
224831951,224831715,-0.0173003,-0.004107104,0.010493121
224853013,224852784,0.029156735,-0.009467252,-0.034082763
224874154,224873929,-0.08022946,0.022715628,-0.009766626
224894120,224893893,-0.010251657,0.010720781,-0.008202338
224912615,224912389,0.012613671,-0.0044778283,-0.0028325096
224933731,224933500,-0.04318578,-0.003013335,-0.022295391
224953600,224953370,-0.08665297,0.013667389,-0.033667255
224972229,224971995,-0.07922212,0.028205322,-0.012753306
224993337,224993106,-0.06968995,0.0012773959,-0.00788334
225013201,225012974,-0.063874096,-0.056630325,-0.002524992
225034316,225034086,-0.13168225,0.009576774,-0.018148677
225051697,225051471,-0.09870991,-0.008848448,-0.020414667
225072805,225072581,-0.107392035,-0.0014690076,-0.020783076
225093927,225093697,-0.15849787,0.031690773,-0.027047526
225111310,225111078,-0.14649999,0.04683899,-0.028880905
225132418,225132194,-0.12945569,0.04496911,-0.035434134
225153624,225153395,-0.1220339,0.07362361,-0.0020239572
225174834,225174604,-0.17703485,0.031116549,-0.027970888
225192020,225191794,-0.13033074,0.054216154,-0.008460521
225213138,225212907,-0.17838706,-0.030220548,-0.025350705
225234242,225234016,-0.07459106,-0.024121407,-0.035957236
225251634,225251401,-0.17578804,-0.002761081,-0.015475237
225272743,225272512,-0.1545297,-0.022927878,-0.02669844
225293848,225293622,-0.06333333,-0.043956216,-0.046621498
225314958,225314733,-0.13218877,-0.028131071,-0.0026553653
225332366,225332123,-0.10175908,-0.04792144,-0.01798113
225353458,225353229,-0.13050419,-0.011508827,0.0013478426
225374569,225374344,-0.13357612,-0.055527158,0.012636103
225391959,225391726,-0.018414404,-0.064486876,-0.0017964265
225413102,225412877,-0.010932801,-0.004958863,-0.010039079
225434327,225434088,0.011992658,-0.027148793,0.036199465
225452813,225452575,-0.029621664,-0.04393512,0.0008659333
225472679,225472444,-0.025818883,-0.057750095,-0.0020278501
225493791,225493553,0.006239076,-0.12429141,0.021145288
225511174,225510939,0.028509498,-0.11152855,-0.005092751
225532295,225532057,0.14237966,-0.0061852196,0.022037618
225552149,225551919,0.18123206,-0.043087184,0.012328124
225573255,225573029,0.1638946,0.008336989,0.024541548
225594369,225594143,0.16983078,-0.11381466,0.06753117
225611758,225611525,0.1917027,-0.10829524,0.029629542
225632863,225632636,0.20411882,-0.11281705,0.019904403
225653971,225653745,0.3272546,-0.06107729,0.043206993
225671416,225671189,0.35614702,-0.050263625,0.0056457194
225692560,225692334,0.28442892,-0.09537105,0.05310109
225713767,225713543,0.23390584,-0.12593316,0.09288962
225734694,225734462,0.25225535,-0.06949023,0.023415243
225752079,225751847,0.4117338,-0.056385137,0.06256524
225773191,225772958,0.30359077,-0.006620689,0.06890113
225794300,225794070,0.2783519,-0.030962145,0.038459424
225811683,225811454,0.3040841,-0.043680016,0.08854952
225832789,225832565,0.30125767,0.0013496019,0.046581108
225855163,225854920,0.27115127,-0.074012645,0.045351148
225875024,225874792,0.3479766,-0.021618223,0.03486349
225892408,225892175,0.13151179,0.0133315455,0.027741356
225913514,225913283,0.2254883,0.0026030135,0.010235695
225934622,225934394,0.22531965,-0.016137792,-0.0037341558
225952056,225951824,0.08178895,0.009706985,0.03349127
225973273,225973035,0.015392265,0.023157524,0.021001892
225994229,225994001,-0.21908987,-0.021479571,0.020553514
226015337,226015109,-0.47796753,0.006539299,0.041325085
226032736,226032497,-0.47020802,-0.047537953,-0.04018359
226052594,226052364,-0.47818735,-0.029195065,-0.06540257
226073711,226073476,-0.29101643,0.017279627,-0.07298181
226092337,226092102,-0.21527551,0.02961346,-0.05176954
226112210,226111972,-0.20861351,0.08257521,-0.06878945
226133325,226133090,-0.32195988,0.047985606,-0.042585406
226154419,226154192,-0.4293856,0.059533328,-0.05707429
226171802,226171575,-0.44412374,0.040421255,-0.06877749
226192922,226192690,-0.52124274,0.06024611,-0.085104235
226214054,226213821,-0.5150337,0.07193082,-0.085834704
226231513,226231284,-0.47145623,0.0798206,-0.036419496
226252536,226252302,-0.47613105,0.03219472,-0.02347506
226273630,226273405,-0.45503357,0.014250196,-0.00013692277
226294742,226294515,-0.3319342,-0.057360876,0.023697697
226312133,226311902,-0.3301975,-0.052930504,0.0076077953
226333246,226333013,-0.20978719,-0.037992746,0.0058203875
226354357,226354126,-0.091608085,-0.0908963,0.042351913
226371736,226371508,-0.035128586,-0.07414154,0.044898275
226392843,226392618,0.026725959,-0.07603778,0.049901154
226413960,226413733,0.016781256,-0.08967943,0.03941837
226435069,226434839,-0.008943119,-0.13007754,0.06003837
226452453,226452224,0.061400745,-0.14694716,0.09688074
226473561,226473336,0.061359867,-0.1271018,0.09361378
226494756,226494517,0.14205134,-0.17235097,0.14072876
226512211,226511981,0.12957667,-0.17576975,0.08939404
226533165,226532941,0.039612,-0.19770008,0.054720495
226554292,226554052,0.18556997,-0.084726796,0.04682628
226574156,226573923,0.32378918,-0.008800461,0.059894517
226592776,226592549,0.28310594,0.008723456,0.07770485
226612650,226612417,0.37514213,0.023765417,0.08692445
226633756,226633527,0.39198434,0.0373891,0.090939835
226651145,226650914,0.41497248,-0.017178534,0.04859579
226672249,226672023,0.5553585,-0.03244193,0.060163945
226693361,226693133,0.5388203,0.007463319,0.04513839
226714482,226714255,0.57005966,-0.0753392,0.044864368
226731858,226731633,0.49095243,-0.042286728,0.060443796
226754245,226754015,0.4767026,-0.013221099,0.028637283
226774222,226773978,0.49187163,-0.013116912,0.05319077
226791467,226791240,0.406948,0.10301174,0.05043176
226812577,226812347,0.42178136,0.12361338,0.0372743
226833694,226833461,0.4004414,0.17999943,0.025361482
226854793,226854569,0.36695364,0.17778207,0.019748408
226872188,226871954,0.4115417,0.1112802,0.010257389
226893295,226893065,0.39387348,0.1298007,0.025770001
226914408,226914175,0.39666703,0.10002389,0.044196267
226931790,226931560,0.42611498,0.051427983,0.05011712
226952911,226952677,0.46770522,0.042831212,0.054652553
226974016,226973782,0.4114992,0.021316674,0.05928121
226992645,226992412,0.42247498,0.038069285,0.057094283
227012509,227012280,0.3067604,0.050215196,0.040671047
227033687,227033462,0.18284138,-0.00048413555,0.024767613
227051162,227050933,0.19449474,-0.008578291,0.018854333
227072115,227071884,0.04332671,0.005996336,-0.0053397096
227093224,227092995,0.13513656,-0.013771555,-0.007343053
227113095,227112865,0.06340489,0.08838594,-0.003429443
227131734,227131491,0.02753511,0.03815671,0.0023223627
227151593,227151361,0.024767822,0.04166947,0.0018150014
227172695,227172470,-0.092819445,0.06669154,-0.0036308302
227193808,227193584,-0.06901165,0.009712851,-0.002307431
227211207,227210969,-0.10953662,0.039905954,-0.024310771
227232302,227232077,-0.10208034,0.0014312504,-0.013174616
227253413,227253189,-0.059020746,0.0085450215,-0.0053853085
227274534,227274299,-0.12618431,0.008496256,-0.013465024
227291939,227291714,-0.089716785,-0.044032145,-0.025238318
227313190,227312962,-0.040951833,-0.016548099,-0.03574748
227334132,227333904,-0.014853419,0.035675094,-0.0801326
227351531,227351290,0.09674924,0.07475334,-0.03156205
227372627,227372401,0.1581515,0.10471905,-0.05269458
227393743,227393512,0.11585493,0.05101316,-0.06140092
227414910,227414675,0.07369987,-0.0013040468,-0.040443692
227432244,227432019,0.0039566043,-0.02514204,-0.070526496
227453397,227453167,-0.096951626,-0.035823535,-0.070173204
227474454,227474229,-0.13173598,-0.03485029,-0.06830392
227491846,227491617,-0.09638355,-0.03420145,-0.07525149
227512954,227512724,-0.019160043,-0.006689648,-0.07333548
227534069,227533838,-0.008899725,-0.0038306615,-0.07254852
227555222,227554992,-0.037932012,0.0070477636,-0.05485007
227572641,227572410,-0.04664234,-0.023593368,-0.05526582
227593862,227593627,-0.14583072,-0.011479126,-0.06852976
227613544,227613312,-0.1635151,-0.04818572,-0.07355811
227632170,227631937,-0.16624142,-0.077571526,-0.09073501
227653289,227653049,-0.22578019,-0.10200449,-0.09555978
227673143,227672917,-0.30695474,-0.10422781,-0.08367103
227691781,227691541,-0.3447753,-0.052128002,-0.07181713
227711640,227711413,-0.48722607,0.01187465,-0.07516346
227732749,227732525,-0.5397593,0.00068711204,-0.07258258
227753863,227753634,-0.6024604,0.030743761,-0.087096326
227771251,227771019,-0.5977238,0.057371926,-0.08634611
227792366,227792141,-0.62253803,0.063152246,-0.0648515
227813474,227813249,-0.67092526,0.03600001,-0.06872609
227834624,227834397,-0.7379445,0.03290942,-0.061596412
227852094,227851862,-0.712894,-0.014494675,-0.090591244
227873073,227872847,-0.62652737,-0.014114328,-0.079038195
227894189,227893959,-0.56412065,-0.018286131,-0.035072576
227911584,227911347,-0.45978183,0.019082358,-0.05440543
227932678,227932454,-0.36445472,0.03773591,-0.02923937
227953790,227953565,-0.2562336,0.06321302,-0.028369704
227974923,227974695,-0.12272536,0.028056107,-0.03443211
227992288,227992062,-0.13596201,0.007957428,-0.0587188
228013400,228013171,-0.04300116,0.023886366,-0.04764744
228034516,228034282,-0.08517166,0.03363735,-0.042661503
228051890,228051667,-0.068652004,-0.010363416,-0.06983076
228073006,228072780,-0.067832276,-0.022736643,-0.0578226
228094122,228093894,-0.17431737,0.0036834788,-0.04398463
228114079,228113851,-0.13062462,0.014380061,-0.047243357
228132797,228132569,-0.12311901,0.043585222,-0.035798457
228153734,228153496,-0.11619348,0.054431442,-0.03710084
228173593,228173364,-0.060495313,0.019344054,-0.016228352
228192219,228191991,-0.040387858,0.04176835,-0.021802137
228212093,228211859,-0.029640036,0.014510221,-0.037095103
228233210,228232972,-0.0011269466,-0.0016203242,-0.02676889
228254306,228254081,-0.02231824,-0.01795097,-0.02835671
228271692,228271466,0.063743986,-0.043075614,-0.018066518
228292808,228292577,0.061201435,-0.033591803,-0.02864558
228313916,228313688,0.021929651,-0.031378873,-0.02448151
228331303,228331076,0.07922891,-0.014131563,0.015850306
228352430,228352198,0.0106563745,0.011349748,0.0154522555
228373571,228373345,0.019733895,0.018007109,0.019747578
228394784,228394558,0.024738915,-0.0018184815,0.027750537
228412022,228411790,0.008932786,-0.0035559149,0.011967627
228433132,228432902,-0.01656856,0.019031428,0.010714889
228454245,228454012,-0.049932227,0.036621243,0.013065131
228472874,228472641,-0.016235525,0.00039649993,-0.008122443
228492742,228492510,0.015028141,-0.003944471,9.53425e-05
228513846,228513618,0.043607846,-0.029488195,0.005601653
228531244,228531005,0.0030677584,-0.016762853,0.052372616
228552347,228552114,0.043308504,-0.03888989,0.04264346
228573469,228573244,0.010371328,-0.043737285,0.03847312
228594564,228594335,-0.0074217115,-0.03879377,0.04486055
228611949,228611721,-0.004324159,-0.05052536,0.029703382
228633071,228632840,0.0058737476,-0.02241514,0.01759549
228654288,228654051,-0.010039413,0.002980591,0.02974839
228675297,228675053,-0.048405465,0.045603354,0.025773015
228692662,228692437,-0.0007632335,0.025158422,0.014383899
228713779,228713548,0.036680873,0.021168076,0.015936298
228733644,228733418,0.048786853,0.03216993,0.03539384
228752296,228752051,0.040031753,0.047060847,0.055603623
228772140,228771913,0.048077375,0.047187727,0.049129266
228793255,228793028,0.0633937,-0.017577248,0.047079265
228814364,228814134,0.07133933,-0.032395035,0.04099997
228831745,228831521,0.089948975,-0.05198406,0.02131928
228852860,228852630,0.101503976,-0.0440747,0.010429921
228875224,228874984,0.06957214,-0.04239921,0.009950956
228891352,228891126,0.020098846,0.0035116388,0.044615828
228912516,228912292,-0.012760826,0.015257551,0.022156186
228933791,228933562,-0.026427163,0.022161251,0.02667176
228954695,228954461,-0.022016574,0.04443185,0.03298199
228972079,228971843,-0.0153108295,0.02530647,0.018353898
228993201,228992956,0.029273797,0.014299439,0.011773336
229014318,229014087,0.032742772,-0.007964758,0.015828477
229031673,229031450,0.058203496,-0.009641714,-0.003213289
229054042,229053806,0.042540893,-0.03877988,-0.01960525
229073907,229073672,0.025889661,-0.026814574,-0.0087742945
229095011,229094782,-0.007548515,-0.0014172853,0.0008651481
229112395,229112167,-0.008054151,0.01919286,0.016985323
229133514,229133281,-0.010179791,0.020704672,0.009137927
229154623,229154393,-0.0030324608,0.025166415,0.022665901
229172068,229171833,0.05158386,0.025259702,-0.028189704
229193239,229193000,-0.014126514,0.0536212,-0.033193152
229214229,229213996,-0.07832085,0.05802618,-0.04076148
229234095,229233865,-0.064962834,0.05457824,-0.025312105
229252727,229252491,-0.018436637,0.06483959,0.011244334
229272588,229272360,0.059247844,0.017269636,0.008958096
229293728,229293503,0.23795906,-0.031956457,-0.011335244
229311086,229310855,0.39644793,-0.05078337,0.0078754965
229332204,229331966,0.5314144,-0.07224478,0.0010985837
229353308,229353077,0.6502003,-0.048454303,0.012884879
229374419,229374190,0.64782804,-0.05050761,0.0047726394
229391799,229391573,0.6756807,-0.10015119,-0.005683386
229412913,229412685,0.58113664,-0.08520928,0.006046846
229434022,229433794,0.45855576,-0.012355611,0.0053737396
229451528,229451304,0.37404338,0.005045311,0.02155324
229472675,229472450,0.29384795,0.042095445,0.009885837
229493627,229493401,0.3183968,0.034773305,0.009481773
229514741,229514512,0.35285172,0.03129867,9.5960044e-05
229532151,229531925,0.43320417,0.030737348,-0.012724
229553238,229553012,0.4567254,0.01996544,-0.011720084
229574351,229574119,0.39665425,0.0048417617,-0.007631483
229591732,229591503,0.33915848,-0.031903103,-0.0017618964
229612841,229612615,0.29806605,-0.030703751,-0.0105780065
229633960,229633730,0.2501796,-0.03958029,-0.015270418
229655071,229654840,0.239885,-0.038135175,-0.007875751
229672446,229672221,0.14457646,-0.020901617,0.02232766
229694808,229694577,0.09272079,0.0031458724,0.024677517
229714782,229714534,0.1618059,0.015852794,0.011921215
229732167,229731943,0.22571626,0.03130803,0.0034534805
229753167,229752938,0.3476672,0.034399007,0.021498583
229774298,229774057,0.4565629,0.025408354,0.0055848695
229794148,229793918,0.49181587,-0.028206095,-0.025887543
229812779,229812549,0.46306077,-0.0450807,-0.0061911666
229832643,229832413,0.27687383,-0.021459216,0.027059227
229853756,229853525,0.119236104,-0.030061942,0.032210894
229871140,229870909,0.04015975,-0.028050877,-0.0029990864
229893498,229893264,-0.2015244,-0.027828543,-0.004753384
229913368,229913133,-0.40363416,-0.019777592,-0.01892491
229934465,229934241,-0.6400999,-0.01794205,-0.02495313
229951863,229951630,-0.84371746,0.012623999,0.020705372
229972971,229972743,-1.0127311,0.008497939,0.024449667
229994220,229993983,-1.1362118,0.029778417,0.017837951
230011643,230011412,-1.2021288,0.028576875,-0.022093078
230032580,230032347,-1.1248946,0.041309707,-0.021963624
230053679,230053454,-1.0045639,0.07584102,-0.017280158
230072318,230072085,-0.809159,0.0523702,-0.006864581
230092188,230091951,-0.5625875,0.06108158,-0.038917888
230113288,230113061,-0.37197942,0.040283393,-0.033211127
230134398,230134171,-0.21038559,0.027340775,-0.0070030475
230151786,230151558,-0.11864915,0.017863452,-0.033834647
230172895,230172668,-0.05505755,-0.028965592,-0.03899983
230194003,230193778,-0.07100801,-0.04720451,-0.027637249
230215124,230214889,-0.07359933,-0.07198934,-0.009428041
230232501,230232277,-0.15620807,-0.025748571,0.016434822
230253644,230253418,-0.18712063,0.00790012,-0.00088735827
230273607,230273382,-0.19535464,0.006986799,-0.01240647
230292110,230291880,-0.21054345,0.026494736,-0.002824754
230313264,230313033,-0.18193181,0.048409134,0.010930682
230333089,230332860,-0.11398727,0.012858545,0.017594595
230354204,230353971,-0.04516686,-0.021417908,0.010896059
230371591,230371357,-0.021276468,-0.015509307,-0.021574212
230392689,230392467,0.009100031,-0.005722957,-0.0039181425
230413807,230413578,0.004494692,-0.03870277,0.00095084216
230431198,230430963,0.03628012,-0.05154359,-0.012626542
230452307,230452074,0.03695489,-0.0068574618,-0.023493165
230473422,230473190,0.044119406,-0.019513855,-0.033655178
230494535,230494295,0.04253539,-0.0016288961,-0.039757222
230511947,230511724,0.024151525,0.022505177,0.0004926609
230533103,230532875,0.00931105,0.04598979,-0.0031687908
230554314,230554089,0.02069669,0.059681185,-0.022290165
230571513,230571287,0.033316344,0.03695187,0.002076153
230592624,230592397,0.023455862,0.037689287,-0.006661808
230613732,230613508,0.017197944,0.015189895,-0.010708246
230634885,230634660,0.05177925,0.025272897,-0.0050334497
230652234,230652004,0.012749058,0.005768509,-0.023845645
230673426,230673198,0.012677927,-0.02834635,-0.02297767
230694450,230694225,0.037244946,-0.043145657,-0.02842753
230711860,230711632,0.042518843,-0.009087817,0.015860565
230732948,230732721,0.06708275,-0.017983135,0.013438709
230754060,230753832,0.10059904,-0.010165547,-0.0034449003
230775249,230775013,0.16789319,0.0014102377,-0.0017117482
230792600,230792375,0.21373859,0.02779151,-0.007942554
230813805,230813578,0.31892657,0.036753662,-0.014923198
230834775,230834549,0.37162086,0.035445277,-0.021782875
230852172,230851944,0.44944686,0.03738646,-0.041444156
230873284,230873045,0.5250509,0.0072398167,-0.038814105
230893142,230892914,0.51119,0.018757973,-0.03106823
230914254,230914026,0.47170162,-0.013077361,-0.041765504
230931645,230931414,0.33787587,-0.026168406,0.0059336578
230952752,230952523,0.26952407,-0.05163838,-0.0028765495
230973861,230973631,0.24885164,-0.045712773,-0.0060038646
230991249,230991019,0.19739795,-0.022452459,-0.007338248
231012351,231012127,0.2107043,-0.019315263,-0.003548282
231033510,231033286,0.20926087,-0.02297904,-0.013826583
231054656,231054429,0.17380673,-0.0041652257,-0.012396177
231072068,231071831,0.13461073,-0.0016505991,-0.022070818
231093259,231093035,0.058864072,-0.0006184501,-0.0099743875
231115431,231115199,-0.041892268,0.005012749,0.002599572
231131565,231131340,-0.06871341,-0.013121756,-0.030241273
231152674,231152451,-0.1404806,-0.023587488,-0.013553174
231173789,231173561,-0.20216073,-0.017639961,-0.0015494294
231194911,231194674,-0.247133,-0.0027644872,0.023440076
231212294,231212067,-0.2619856,-0.0035770263,-0.027507072
231233403,231233168,-0.27290365,-0.010741586,-0.017768629
231254510,231254280,-0.2751177,0.0072525325,-0.0026749438
231271930,231271703,-0.17790186,-0.0075561814,-0.020369766
231293003,231292775,-0.10981576,-0.006599591,-0.0261393
231314124,231313894,-0.06542975,-0.037747793,-0.015874071
231335295,231335060,0.016266964,-0.069987945,-0.007549299
231354006,231353776,0.099817134,-0.13978983,0.00038109973
231373730,231373494,0.18361601,-0.2371791,0.020246504
231394852,231394624,0.34216613,-0.29579452,0.026161857
231412233,231411991,0.31654495,-0.30351728,0.031970322
231432095,231431857,0.29471147,-0.29717728,0.031468745
231453200,231452968,0.08670511,-0.22678915,0.024433257
231474309,231474078,-0.046595354,-0.13301753,0.012976039
231491695,231491464,-0.17961775,-0.037329495,0.008877538
231512808,231512575,-0.1807818,0.04023396,0.010593452
231533913,231533685,-0.08703698,0.13426071,-0.0017080307
231552547,231552314,-0.05170589,0.15906242,0.0077034994
231572415,231572186,0.044777747,0.13100357,0.012121183
231593539,231593312,0.10296875,0.16584705,0.0017439829
231614739,231614513,0.13912551,0.13999602,-0.0005099578
231632074,231631840,0.1938914,0.09864289,0.002489197
231653126,231652900,0.25138456,0.084976844,0.0055101123
231674235,231674009,0.2822641,0.055552214,0.01606981
231691630,231691395,0.22966543,0.07109969,-0.0060426593
231712731,231712506,0.1788644,0.07223005,0.0037443547
231733861,231733637,0.13295339,0.06074642,0.006317276
231754955,231754726,0.1259947,0.06678816,0.011424059
231772338,231772111,0.20148113,0.05727885,-0.008486562
231793452,231793224,0.13749444,0.07934637,0.0037994029
231814567,231814337,0.072573066,0.0433709,0.015178685
231831946,231831718,0.12964849,-0.006939455,-0.015071963
231853055,231852830,0.10124827,-0.03702218,-0.0005071357
231874275,231874039,0.17978977,-0.059388544,0.02764137
231894203,231893969,0.19451858,-0.06647766,0.010677504
231912659,231912435,0.1254519,-0.064673804,-0.012873238
231933779,231933546,0.07528468,-0.03454604,-0.008791799
231954899,231954662,-0.027222725,0.02817439,0.002201945
231972282,231972049,-0.032665007,0.014823653,-0.0144446455
231992191,231991961,-0.03578541,0.023415217,-0.009368797
232013255,232013026,-0.11292273,0.035437565,-0.013057248
232034361,232034133,-0.17964666,-0.005403733,-0.0010548359
232051747,232051522,-0.21014296,0.01497844,0.0020656334
232072859,232072628,-0.21693602,-0.031179862,0.00074484845
232093971,232093740,-0.16347106,-0.07581162,-0.0026101305
232111351,232111124,-0.14874385,-0.08819141,0.034156892
232132493,232132263,-0.106379844,-0.14853501,0.023878755
232153694,232153467,-0.11939,-0.1211973,0.012241591
232174690,232174459,-0.24617343,-0.086876206,0.0052635767
232192077,232191841,-0.21704361,-0.084577,0.01644675
232213184,232212952,-0.22600245,-0.07739778,0.016071612
232234290,232234062,-0.18451498,-0.080460384,0.027030358
232251678,232251449,-0.13540997,-0.052670598,0.037182778
232272789,232272558,-0.19222802,-0.042642605,0.038611297
232293896,232293669,-0.20065771,-0.036529418,0.033366058
232315015,232314780,-0.17184171,-0.050350547,0.021938045
232332417,232332189,-0.24955374,-0.032159038,0.034553867
232353503,232353276,-0.22750026,0.013709155,0.034647424
232374611,232374386,-0.27312115,0.037505955,0.017563988
232392006,232391774,-0.24162173,0.055080824,-0.0010359045
232413201,232412973,-0.22902834,0.075181566,0.012604914
232433140,232432915,-0.2334667,0.075843394,-0.012954641
232454087,232453862,-0.21998017,0.07212197,0.0036304467
232472724,232472489,-0.19744737,0.059055805,-0.007288701
232492600,232492359,-0.18250251,0.06544907,-0.012125294
232513692,232513468,-0.19066721,0.07909041,-0.004785596
232532331,232532096,-0.21665597,0.101795755,0.0015098889
232552194,232551966,-0.28928623,0.10824035,-0.0010853339
232573301,232573077,-0.32580587,0.1392915,-0.005904478
232594425,232594192,-0.34234598,0.13632871,0.011412715
232611796,232611571,-0.2718387,0.10690702,0.014671685
232632912,232632682,-0.22650729,0.10043578,0.013040838
232654025,232653797,-0.172921,0.07971575,0.022451451
232671443,232671216,-0.033400323,0.014578776,0.008583544
232692674,232692449,0.0075089806,0.02354818,-0.0022981167
232713633,232713404,0.06968431,-0.0038230384,0.0007884261
232734743,232734512,0.03148911,0.003807293,-0.005685429
232752124,232751896,-0.00915435,-0.0040496713,0.015779158
232773240,232773009,-0.0015638833,-0.033440173,0.008930484
232794343,232794117,-0.030243108,-0.024022387,0.008215496
232811730,232811502,-0.07658185,0.001684091,0.032261897
232832841,232832612,-0.08849262,0.02130937,0.023954274
232853959,232853727,-0.06522698,-0.02076241,0.01635773
232875062,232874834,0.0044977805,0.0064622285,-0.015843976
232892453,232892219,-0.035118524,0.044169646,0.020475594
232913570,232913332,0.00454525,0.031966846,0.023005886
232934735,232934500,0.0345602,0.018289028,0.020272538
232952132,232951902,0.05414125,0.00021242551,0.028020564
232972102,232971866,0.047457773,0.0131321605,0.034432158
232994278,232994047,0.039908726,0.0017949255,0.02256766
233011684,233011455,0.03305022,0.013303485,0.0035006504
233032778,233032545,0.00158605,0.026327264,0.01290913
233052641,233052413,-0.06628932,0.043978006,0.026232
233071279,233071039,-0.009348556,0.00045371059,-0.0041324603
233092387,233092153,0.0102683585,-0.00046300405,-0.006844865
233112252,233112021,-0.012598688,-0.0013994969,0.011566501
233133361,233133129,-0.017570507,0.015863726,0.036552783
233154466,233154240,-0.011763761,0.025006507,0.04356444
233171855,233171626,-0.021251252,0.014381309,-0.020831581
233192962,233192737,0.009180698,0.025782831,-0.009423643
233214194,233213959,0.013803447,0.0387199,0.12928955
233231597,233231369,0.12718731,-0.012604585,0.16885085
233252566,233252342,0.24450804,0.01517453,0.07610017
233273677,233273454,0.39448282,0.054220226,0.0375454
233294798,233294564,0.49030954,0.092262454,0.03661978
233312186,233311950,0.52512836,0.05355703,0.0016758264
233333284,233333060,0.46161178,0.046142656,-0.01210859
233354404,233354171,0.3124465,0.01661391,-0.0022727337
233371786,233371559,0.18094285,0.042513873,0.03098363
233392890,233392666,0.091597386,0.044529613,0.035192784
233414007,233413777,0.033599686,0.03300746,0.020228673
233435166,233434939,0.06042696,0.03270357,0.002693124
233452500,233452273,0.07007793,0.018959539,-0.008899345
233473732,233473493,0.12601171,0.012920776,-0.0038769643
233494823,233494595,0.14480495,-0.0032008935,0.00898475
233512300,233512073,0.09689323,0.03126973,0.020886485
233533231,233532992,0.060485844,0.024995707,0.015966432
233554335,233554102,0.02375876,-0.030864665,0.021253297
233574202,233573970,-0.020743996,-0.04245374,0.024944467
233592836,233592597,-0.00882054,-0.027951483,0.0026791426
233612695,233612466,-0.0014997243,-0.024766015,-0.00045734792
233633801,233633576,0.0023492791,0.00017129726,-0.009648867
233651190,233650962,0.024690354,4.889304e-05,-0.023555797
233672303,233672074,0.05768635,-0.02807248,-0.03131508
233693416,233693188,0.052188605,-0.04795407,-0.03327717
233714518,233714293,0.03801378,-0.06585075,-0.032639813
233731920,233731683,-0.0107568,-0.069312744,0.007535233
233753165,233752940,-0.01746958,-0.11324162,0.012396021
233774275,233774050,-0.03333232,-0.1185075,0.014634447
233791513,233791285,-0.022818116,-0.13016385,-0.024377739
233812624,233812396,0.0003401574,-0.09592515,-0.025822507
233833771,233833546,0.011872959,-0.06687337,-0.0047908113
233854852,233854618,-0.016502861,-0.054494977,-0.016340237
233872231,233872003,-0.017439326,-0.043069206,-0.03196032
233893345,233893115,-0.0568167,-0.044345744,-0.012746868
233914451,233914225,-0.11034437,-0.0349077,-0.02325344
233931835,233931610,-0.06223042,-0.05226897,-0.0009274809
233952952,233952720,-0.03977167,-0.040628042,-0.004291448
233974059,233973831,-0.020509226,-0.0430898,0.0044177896
233995174,233994941,0.0042570205,-0.05014607,0.013113941
234012561,234012337,0.011713878,-0.04780742,-0.031214345
234033777,234033543,-0.015350527,-0.024060445,-0.015474829
234054782,234054548,-0.022045676,0.00034869698,-0.017950272
234072168,234071941,-0.045524314,-0.002326436,-0.03348359
234093278,234093044,0.00048242565,-0.010025561,-0.02039527
234113136,234112913,-0.021704685,0.016968418,-0.014619875
234134253,234134025,0.015849372,0.0012539097,-0.01651272
234151641,234151409,0.008065093,-0.0023661926,0.009553616
234172743,234172520,-0.050908927,0.0033797133,0.01303314
234193860,234193630,-0.063783005,-0.010938492,0.011057456
234211242,234211015,-0.018427277,-0.037321124,-0.01868316
234232353,234232126,0.026284205,-0.031359766,-0.0023626222
234253478,234253250,-0.0099574,-0.022233255,-0.005416493
234274576,234274348,-0.06463265,0.018932242,-0.014109715
234292067,234291834,-0.09938333,0.030757751,-0.02874372
234313231,234312999,-0.091404475,0.03507975,-0.030502066
234334199,234333958,-0.048443243,0.016521536,-0.032223515
234351567,234351340,-0.05989098,0.026222363,-0.027824821
234373935,234373696,0.010441635,0.0067266254,-0.041033495
234393800,234393565,0.025099745,-0.023990039,-0.02330534
234414898,234414672,0.021146806,-0.012003744,-0.035819154
234432333,234432103,-0.067076795,0.0202119,-0.011345753
234453407,234453168,-0.04665865,0.017135829,-0.015076419
234474507,234474278,-0.0397804,-0.0132946735,-0.01862172
234493144,234492914,-0.010800634,-0.018649854,-0.019259755
234513020,234512778,-0.0059302477,-0.021532374,-0.0245098
234534111,234533885,0.0023100835,-0.028692372,-0.024836002
234552773,234552543,0.007336043,-0.039144713,-0.050546937
234572743,234572501,-0.010027237,-0.031017577,-0.057098497
234593728,234593492,-0.042514328,0.0049047815,-0.057046384
234612356,234612120,-0.033401333,-0.01955946,-0.03475563
234632226,234631988,-0.022721766,-0.0010956418,-0.017302178
234653329,234653099,-0.030728187,-0.008822357,-0.016754987
234673213,234672976,-0.030789075,0.009274291,-0.0036173475
234694304,234694078,-0.008879102,0.0033115272,0.00531015
234711698,234711465,0.018042697,-0.009198952,-0.023634797
234732799,234732575,-0.011799199,-0.016047323,-0.0195205
234753909,234753684,-0.035376333,-0.021254996,-0.011359645
234771303,234771071,0.008313986,0.0033715684,-0.03935269
234792414,234792189,-0.017378626,0.0011020818,-0.041587558
234813538,234813311,0.012854535,0.0042682495,-0.037605904
234834703,234834476,0.018057134,0.005784889,-0.024439713
234852181,234851950,0.032736253,0.001169393,-0.009997505
234873128,234872900,0.03686283,0.017322656,-0.018948164
234894249,234894014,0.013839916,0.015692916,-0.010076662
234911625,234911394,-0.02584359,0.043258604,-0.0064570527
234932739,234932504,-0.040767416,0.009597156,-0.0011860217
234953845,234953615,-0.039969184,0.02338266,0.0056552677
234974955,234974730,-0.03311178,0.01167917,0.02557376
234992338,234992111,0.047180098,-0.0059860013,-0.030191107
235013451,235013222,0.0331037,0.025635177,-0.029707037
235034562,235034332,0.03434457,0.0392531,-0.018531276
235051944,235051718,0.041690353,-0.0019678336,-0.006287579
235073056,235072828,0.03673761,-0.012191503,-0.0027153655
235094206,235093973,0.057084043,-0.014452313,-0.00092283846
235114165,235113940,0.017640293,0.015464752,0.0134345265
235132662,235132435,-0.0124765495,-0.015592612,0.025758218
235153782,235153548,-0.001076835,-0.022176387,0.012313624
235173650,235173415,0.01959258,-0.0035737683,0.022014568
235192295,235192051,0.046382245,0.0138588315,0.0022817934
235212143,235211910,0.05539033,0.014657972,-0.0006801614
235233258,235233023,0.058912653,0.01342695,-0.00096172077
235254377,235254150,0.06825811,-0.0070918985,0.0024044535
235272995,235272762,0.0242261,0.031723574,0.02812764
235292900,235292662,0.017545521,0.014660218,0.033889834
235313973,235313739,0.016692953,0.027588293,0.030854106
235332600,235332368,-0.052267164,0.011019069,0.034339294
235352470,235352235,-0.01981074,-0.026080783,0.02140154
235373649,235373424,0.0051013366,-0.022627013,0.017302899
235391145,235390913,0.005393124,-0.040183794,0.020923568
235412090,235411845,0.05414723,-0.031044826,0.028702848
235433182,235432952,0.04254207,-0.01590558,0.01969677
235454290,235454063,0.020792194,0.00090738904,0.022869097
235471677,235471449,-0.0073461663,0.022702998,0.03857835
235492784,235492558,-0.038128827,0.037024114,0.0395563
235513895,235513669,-0.040019386,0.023668604,0.033577498
235535009,235534780,-0.039324448,0.008063173,0.03505543
235552395,235552165,-0.014696185,0.0049253446,0.010307953
235573515,235573282,-0.015662251,0.0019881183,0.0182364
235594614,235594386,0.014380466,0.014240868,-0.0021226353
235612001,235611772,-0.013528795,0.02553892,0.030046742
235633146,235632919,-0.033927843,0.04143631,0.046783477
235653110,235652883,-0.028646452,-0.00642364,0.043586075
235674096,235673862,-0.00751045,0.0048841103,0.04684537
235692714,235692489,-0.014224129,0.00779301,0.030258205
235712589,235712359,0.01927594,0.00804064,0.010705212
235733698,235733469,-0.01963008,0.015200212,0.013875176
235752327,235752097,-0.041253537,0.025103189,0.010357458
235772197,235771966,-0.047436044,0.030135121,0.03015966
235793320,235793090,-0.04080646,0.027589729,0.038837984
235814419,235814192,0.0055627036,-0.019583028,0.046146937
235831808,235831581,0.02847607,-0.028364165,0.015411843
235852922,235852689,0.045590296,-0.04683719,0.012726583
235874018,235873793,0.035715282,-0.03166023,0.017981727
235891405,235891182,0.04644106,-0.013268162,-0.0037973174
235912609,235912379,0.017888943,0.0031667857,0.0074019614
235933811,235933586,-0.018677935,0.0077321534,0.020431705
235954738,235954510,-0.04031354,0.0005267145,0.021294262
235972129,235971898,-0.065111235,0.00020190557,0.022621518
235993240,235993007,-0.02670631,-0.01984288,0.027651332
236014356,236014117,0.014996726,-0.016224764,0.019776262
236032981,236032746,0.049506087,-0.037063625,-0.007201181
236052855,236052623,0.06009073,-0.025027428,-0.012812038
236073949,236073723,0.03150336,-0.019304333,-0.008869635
236092592,236092354,-0.0040029995,0.002368387,0.0029077877
236112459,236112223,-0.035217643,0.035348438,0.0076434943
236133555,236133330,-0.046676558,0.033942476,0.008802688
236152211,236151972,-0.03459652,0.04091772,-0.007692528
236172105,236171872,-0.016287437,0.018788889,-0.027410487
236193310,236193081,-0.0022314675,-0.002160438,-0.033035144
236214280,236214047,0.013320107,-0.023571687,-0.022216335
236234143,236233916,0.021470929,-0.020737445,-0.012324006
236252780,236252544,0.024913406,0.003234781,0.0011982019
236272641,236272412,0.049098972,-0.018674674,0.0030348785
236293762,236293538,0.04946469,-0.016940258,-0.003033659
236311139,236310909,0.06835576,-0.025979588,-0.032018427
236332244,236332019,0.056647923,-0.02091731,-0.028079618
236353361,236353130,0.023122383,-0.011026289,-0.03971684
236374472,236374242,-0.011175743,0.010765603,-0.04357778
236391855,236391625,0.0087664565,0.044382177,-0.0006814464
236412964,236412736,-0.007532118,0.046561453,-0.013582632
236434096,236433864,0.019725207,0.026220271,-0.019644516
236451566,236451340,-0.020224232,0.007545654,-0.02114834
236472755,236472531,-0.003661862,-0.008688142,-0.045710832
236493683,236493454,0.06952765,-0.030610455,-0.056049574
236514801,236514569,0.074197546,-0.016780132,-0.05539587
236532233,236532005,0.0751551,0.016241737,-0.018944701
236554534,236554304,0.058348484,0.024838611,-0.040959924
236574410,236574174,0.0003144699,0.041495815,-0.02754817
236591781,236591556,0.009803903,0.03874381,-0.0324661
236614150,236613912,-0.052287847,0.051050767,-0.01994322
236634012,236633780,-0.030312791,0.03850635,-0.042046156
236655117,236654888,-0.02153915,0.037712764,-0.04179519
236673753,236673519,-0.028683355,0.00631957,-0.039482612
236693617,236693385,-0.007384622,-0.007871172,-0.025744947
236713563,236713325,-0.034506295,0.009581756,-0.027843503
236732262,236732027,0.0030787245,0.0377277,-0.039777823
236753225,236752991,0.0019964287,0.02879063,-0.05159992
236774334,236774102,0.0055812793,0.039919857,-0.04860296
236792968,236792730,0.022857789,0.030807106,-0.07445359
236812844,236812603,0.045021605,-0.03280125,-0.060749996
236832705,236832471,-0.005249612,-0.01730388,-0.026977468
236852574,236852341,0.007167151,-0.027518993,-0.0014503403
236872443,236872206,-0.02191075,0.012214164,0.0008585929
236892346,236892115,-0.0914511,0.06294041,-0.02451183
236913422,236913193,-0.08218542,0.04644276,-0.004061343
236934521,236934295,-0.05539654,0.019022932,-0.016909968
236951915,236951680,-0.043839637,-0.017218709,-0.030830296
236973047,236972817,0.04758741,-0.059915204,-0.01792184
236994256,236994030,0.08041605,-0.0616191,-0.013362413
237011719,237011491,0.049276628,-0.04117202,0.0075451694
237032623,237032397,0.051870923,-0.015506182,0.014973665
237053734,237053508,-0.031636503,-0.007195282,0.013864143
237074938,237074696,-0.050491516,-0.016945327,0.032944575
237092236,237092007,0.011480718,-0.012149448,-0.028558677
237113362,237113137,-0.05112338,-0.0072464137,-0.0307117
237134461,237134226,-0.056291368,0.026559612,-0.0025311555
237151843,237151620,-0.06820028,0.02039843,-0.0036880567
237172947,237172723,-0.011637699,0.012691296,-0.0055422736
237195309,237195074,0.062767334,-0.00991216,-0.0065247524
237215185,237214944,0.07402414,-0.0013865129,0.013014927
237232577,237232355,0.101129234,-0.024392858,0.012106242
237253737,237253503,0.06374978,-0.009592543,-0.0021560676
237274973,237274739,0.037416447,-0.028265927,-0.0059052147
237292164,237291937,0.0018879386,-0.032230064,0.009584465
237313293,237313062,-0.017188467,-0.028639866,0.003012026
237333144,237332914,-0.03743168,-0.027681787,0.0294094
237354256,237354027,-0.01970031,0.008275693,0.018118203
237371635,237371410,-0.03660718,0.013018472,0.019184085
237394000,237393765,0.008497359,0.018373316,0.029611627
237413868,237413635,-0.034683023,-0.003418132,0.016439393
237431242,237431016,-0.0022445428,-0.020970782,-0.008774976
237453611,237453373,-0.02212678,-0.023710638,0.0010592373
237473477,237473242,-0.049933057,-0.040701825,0.01830278
237494573,237494349,-0.019006722,-0.04088602,0.01593625
237511993,237511763,-0.018615335,-0.008006954,0.01103726
237533205,237532969,-0.015330479,0.028027842,0.025299415
237554187,237553958,-0.019856181,0.015041911,0.024428418
237572826,237572593,0.035180442,0.009185459,-0.007062899
237592689,237592453,0.022205625,-0.0025924733,-0.00748889
237613795,237613563,0.013932187,-0.007521264,-0.008862982
237632431,237632195,-0.0041029956,0.020893972,0.010553866
237652294,237652062,-0.022658903,0.011428756,0.015594492
237673425,237673193,-0.04461493,-0.0008076598,0.019407986
237694502,237694279,-0.038988534,-0.03326594,0.020139936
237711908,237711669,0.004499555,-0.026941728,-0.027680976
237733006,237732775,0.009013086,-0.009353766,-0.029397404
237754122,237753886,0.016342785,-0.00516445,-0.026005205
237775326,237775093,0.02247747,0.0077100275,-0.029257884
237792685,237792461,0.016023219,0.024153328,-5.5288605e-05
237812644,237812415,0.022703353,0.025456082,0.0018865932
237833594,237833362,0.02927734,0.018908037,4.7193058e-05
237852219,237851989,0.019854158,-0.00071009295,-0.00070168864
237872090,237871859,0.03945359,-0.016875306,-0.021206923
237893199,237892968,0.038135175,-0.038956456,-0.00906198
237914313,237914084,0.028218322,-0.056263946,-0.020488791
237931692,237931464,0.041299738,-0.051627263,0.028284224
237952796,237952571,0.046997964,-0.028132768,0.022600923
237973916,237973686,0.065424874,-0.0113875065,0.023622354
237991293,237991069,-0.0099754315,-0.00428772,0.008335138
238012412,238012186,-0.062253814,-0.009455258,0.017494112
238033529,238033294,-0.07717875,-0.0018022221,0.023843806
238054723,238054496,-0.09197588,0.0027264392,0.01349323
238072133,238071907,-0.059141416,0.030086054,0.0012099755
238093132,238092900,-0.015414965,0.06955006,-0.0010349589
238114236,238114011,0.009468298,0.06292871,-0.014938335
238131624,238131395,-0.021703245,0.09130559,0.038597826
238152735,238152506,-0.025097225,0.07662908,0.044985726
238173884,238173659,-0.0453895,0.04214405,0.041714616
238194954,238194728,-0.027241152,0.014341725,0.033202663
238212388,238212160,-0.02919613,0.008150718,0.03575679
238233451,238233225,-0.0097537255,0.017097406,0.035374586
238254565,238254334,-0.003800476,0.040300302,0.025272924
238271965,238271735,0.0024625037,0.025269613,-0.0051763365
238293064,238292830,0.016342359,0.0015711571,0.01694037
238314217,238313988,0.0016905263,0.0068851127,0.031166062
238334121,238333897,-0.034713715,0.030600892,0.058553386
238351598,238351369,-0.016253136,-0.02400783,0.048458934
238373778,238373547,-0.0031697857,-0.01580397,0.06442218
238392418,238392184,0.013686236,0.012500083,0.024137303
238412299,238412057,0.024370603,-0.01945365,0.030350314
238432150,238431916,0.03072556,-0.031042084,0.025060948
238453255,238453024,0.029132439,-0.055512562,0.032477193
238474360,238474134,0.020243304,0.010698167,0.04826989
238491757,238491522,-0.04023399,-0.008671499,0.053010043
238512856,238512629,-0.065549076,-0.01280348,0.056435864
238533967,238533740,-0.040827412,0.00017108202,0.06980245
238551355,238551126,-0.013196868,0.024096934,0.026189659
238572470,238572247,-0.004470898,0.0136406375,0.020872334
238593612,238593389,0.03941636,-0.015261221,0.016638696
238614836,238614602,0.057390455,-0.0035552077,0.01764925
238632083,238631843,0.021033723,0.028099101,0.04771397
238653184,238652955,0.020163056,0.03330751,0.047034226
238674300,238674068,0.020062441,0.0035988644,0.04606248
238691676,238691449,0.045137204,-0.03610519,0.04299292
238712791,238712561,0.033985246,-0.01915402,0.044262547
238733901,238733672,0.01683465,-0.028874436,0.02674145
238755012,238754782,-0.015051973,-0.0010120954,0.013478267
238772391,238772166,-0.015998565,0.0024292157,0.04454958
238793518,238793278,-0.010209669,0.045363326,0.036665563
238814647,238814421,-0.042720683,0.057280634,0.055292673
238831998,238831773,0.02212588,0.027765758,0.016205687
238853113,238852883,0.040631834,0.020987187,0.0023641814
238874334,238874104,0.022244357,0.0055857254,0.010278834
238894295,238894063,0.015341926,0.007251549,0.00616618
238913974,238913735,0.004039749,0.0106283715,0.026055865
238932593,238932360,-0.013005668,-0.00455722,0.032404337
238953705,238953472,-0.007702733,0.0054978803,0.024225187
238971085,238970856,0.03272669,-0.0232744,-0.004998896
238992202,238991966,0.02921557,-0.0017623936,0.006208222
239013309,239013078,0.0013257746,0.005476874,0.0074779624
239034417,239034190,-0.039928563,0.003820065,0.011629643
239053054,239052819,-0.043336835,0.0045013744,0.03397072
239072932,239072688,-0.09002243,0.009457712,0.023223175
239094021,239093795,-0.046769876,0.0114047155,0.03877529
239112690,239112457,2.6661288e-05,-0.041151654,0.01539774
239132578,239132347,0.035186637,-0.04238814,0.020778514
239153777,239153551,0.06186432,-0.041563578,0.037541337
239174736,239174512,0.0468551,-0.00022584444,0.022191625
239192132,239191901,0.04067412,-0.0038171052,0.02414185
239213243,239213014,0.016660685,0.018210797,0.02372306
239234346,239234119,-0.018676573,0.010587339,0.00917805
239251733,239251504,-0.015856318,0.015228436,0.0025425835
239272844,239272615,-0.018238042,-0.027004084,0.012120831
239293992,239293765,0.008299653,-0.03192949,0.011650947
239315069,239314836,0.006032197,-0.014952869,0.015132794
239332446,239332221,-0.023899892,0.0328072,0.020313703
239353563,239353332,0.0040577785,-0.0042054933,0.0014731998
