timestamp,time_utc_usec,lat,lon,alt,alt_ellipsoid,s_variance_m_s,c_variance_rad,eph,epv,hdop,vdop,noise_per_ms,jamming_indicator,vel_m_s,vel_n_m_s,vel_e_m_s,vel_d_m_s,cog_rad,timestamp_time_relative,heading,heading_offset,fix_type,vel_ned_valid,satellites_used
218079166,1630026625599756,340320544,1087634610,427975,400072,0.13000001,0.4705233,0.591,0.874,0.63,1.0799999,106,5,0.017,-0.003,-0.017,-0.004,5.1134825,0,nan,0.0,4,1,17
218279960,1630026625799757,340320544,1087634609,427963,400060,0.22500001,0.47053638,0.592,0.87500006,0.63,1.0799999,106,5,0.021000002,-0.017,0.013,-0.032,5.1134825,0,nan,0.0,4,1,17
219077940,1630026626599757,340320544,1087634606,427884,399981,0.17500001,0.47058144,0.597,0.88000005,0.63,1.0799999,106,4,0.019000001,-0.003,-0.019000001,0.013,5.1134825,0,nan,0.0,4,1,17
220084933,1630026627599757,340320544,1087634602,427764,399862,0.164,0.47064182,0.60300004,0.88500005,0.63,1.0799999,106,4,0.022000002,0.016,0.016,-0.014,5.1134825,0,nan,0.0,4,1,17
221081406,1630026628599757,340320543,1087634599,427669,399766,0.164,0.4706975,0.60800004,0.89000005,0.63,1.0799999,106,4,0.044000003,0.040000003,-0.018000001,-0.011000001,5.1134825,0,nan,0.0,4,1,17
222083095,1630026629599758,340320543,1087634596,427588,399685,0.24000001,0.47075456,0.615,0.896,0.63,1.0799999,97,4,0.006,0.004,-0.0050000004,0.028,5.1134825,0,nan,0.0,4,1,17
223086139,1630026630599758,340320545,1087634590,427485,399582,0.179,0.47080866,0.619,0.90000004,0.63,1.0799999,97,4,0.002,0.002,-0.002,-0.015000001,5.1134825,0,nan,0.0,4,1,17
224088058,1630026631599758,340320545,1087634581,427402,399499,0.21700001,0.4708593,0.62,0.901,0.63,1.0799999,98,4,0.039,0.039,-0.0050000004,0.055000003,5.1134825,0,nan,0.0,4,1,17
225086932,1630026632599759,340320547,1087634575,427271,399368,0.16700001,0.4709085,0.619,0.89900005,0.63,1.0799999,98,3,0.034,-0.014,-0.031000001,-0.027,5.1134825,0,nan,0.0,4,1,17
226088016,1630026633599759,340320547,1087634570,427192,399290,0.142,0.47095335,0.619,0.89800006,0.63,1.0799999,104,4,0.085,-0.025,0.081,-0.018000001,5.1134825,0,nan,0.0,4,1,17
227088937,1630026634599760,340320552,1087634543,427306,399404,0.19800001,0.60173106,0.615,0.89100003,0.63,1.0799999,104,4,0.15400001,0.13700001,-0.071,-0.328,5.0504456,0,nan,0.0,4,1,17
228090318,1630026635599760,340320561,1087634576,427786,399883,0.19000001,0.27697152,0.61600006,0.89800006,0.63,1.0799999,104,4,0.638,0.07700001,0.633,-0.60700005,1.3291835,0,nan,0.0,4,1,17
229089303,1630026636599760,340320563,1087634597,428052,400150,0.201,0.53280133,0.61600006,0.89800006,0.63,1.0799999,104,4,0.19700001,0.104,-0.16700001,-0.293,1.1558073,0,nan,0.0,4,1,17
230089932,1630026637599761,340320563,1087634581,428321,400418,0.18,0.66297203,0.61800003,0.90400004,0.63,1.0799999,104,4,0.115,-0.115,0.002,0.047000002,5.650127,0,nan,0.0,4,1,17
231081012,1630026638599761,340320554,1087634576,428004,400102,0.20400001,0.62617433,0.61700004,0.89900005,0.61,1.0799999,104,4,0.21800001,-0.106000006,-0.19000001,0.47400004,4.885749,0,nan,0.0,4,1,18
232092010,1630026639599761,340320541,1087634572,427904,400001,0.16600001,0.7296675,0.61300004,0.892,0.63,1.0799999,104,5,0.193,-0.049000002,0.187,-0.16700001,4.204121,0,nan,0.0,4,1,17
233080932,1630026640599762,340320536,1087634602,428253,400351,0.178,0.77495164,0.611,0.8880001,0.63,1.0799999,104,6,0.192,0.119,0.15,-0.164,1.3243276,0,nan,0.0,4,1,17
234087052,1630026641599762,340320533,1087634606,428055,400152,0.21700001,0.7750017,0.61200005,0.887,0.63,1.0799999,105,5,0.037,-0.009000001,-0.035,0.098000005,1.3243276,0,nan,0.0,4,1,17
235086990,1630026642599762,340320531,1087634606,428059,400157,0.208,0.77503663,0.611,0.88100004,0.63,1.0799999,104,4,0.033,-0.001,-0.033,-0.067,1.3243276,0,nan,0.0,4,1,17
236086968,1630026643599763,340320533,1087634604,428179,400276,0.194,0.7750677,0.61200005,0.88100004,0.63,1.0799999,105,5,0.074,0.049000002,-0.055000003,-0.08800001,1.3243276,0,nan,0.0,4,1,17
237081932,1630026644599763,340320537,1087634606,428363,400460,0.18200001,0.7751021,0.611,0.882,0.63,1.0799999,105,4,0.044000003,0.041,-0.015000001,-0.048,1.3243276,0,nan,0.0,4,1,17
238086004,1630026645599763,340320538,1087634614,428440,400537,0.16900001,0.77513367,0.614,0.88100004,0.63,1.0799999,105,4,0.039,0.035,0.017,-0.017,1.3243276,0,nan,0.0,4,1,17
239080931,1630026646599764,340320538,1087634620,428460,400557,0.19700001,0.7751687,0.61800003,0.88000005,0.63,1.0799999,105,4,0.028,0.025,-0.012,-0.059000004,1.3243276,0,nan,0.0,4,1,17
240085974,1630026647599764,340320534,1087634625,428520,400618,0.17600001,0.7751981,0.61700004,0.874,0.63,1.0799999,105,3,0.046000004,-0.030000001,-0.035,-0.016,1.3243276,0,nan,0.0,4,1,17
241085075,1630026648599764,340320529,1087634627,428616,400713,0.132,0.77522415,0.61700004,0.87000006,0.63,1.0799999,105,4,0.089,0.035,-0.082,-0.027,1.3243276,0,nan,0.0,4,1,17
242087421,1630026649599765,340320528,1087634627,428748,400846,0.163,0.7752503,0.61700004,0.86800003,0.63,1.0799999,105,5,0.113000005,0.102000006,-0.049000002,0.009000001,1.3243276,0,nan,0.0,4,1,17
243081830,1630026650599765,340320530,1087634628,428863,400960,0.15200001,0.7752773,0.614,0.864,0.63,1.0799999,105,4,0.112,0.095000006,-0.060000002,-0.08400001,1.3243276,0,nan,0.0,4,1,17
244081985,1630026651599765,340320530,1087634625,428954,401051,0.14500001,0.77530277,0.61200005,0.86100006,0.63,1.0799999,105,4,0.11800001,0.087000005,-0.080000006,0.013,1.3243276,0,nan,0.0,4,1,17
245084935,1630026652599766,340320533,1087634624,428922,401019,0.14400001,0.77533036,0.609,0.85600007,0.63,1.0799999,105,4,0.098000005,0.046000004,-0.087000005,0.045,1.3243276,0,nan,0.0,4,1,17
246084930,1630026653599766,340320536,1087634626,428958,401055,0.15100001,0.77535695,0.605,0.85,0.63,1.0799999,105,3,0.09900001,0.097,-0.018000001,-0.037,1.3243276,0,nan,0.0,4,1,17
247079290,1630026654599766,340320534,1087634629,429021,401118,0.15,0.77538747,0.601,0.845,0.63,1.0799999,105,4,0.07,0.035,-0.061000004,-0.054,1.3243276,0,nan,0.0,4,1,17
248083930,1630026655599767,340320532,1087634628,429080,401177,0.15,0.7754111,0.59800005,0.84200007,0.63,1.09,105,5,0.08400001,0.029000001,-0.079,-0.07300001,1.3243276,0,nan,0.0,4,1,17
249081842,1630026656599767,340320530,1087634619,429070,401167,0.11800001,0.7754367,0.596,0.83800006,0.63,1.09,105,4,0.102000006,0.028,-0.098000005,0.010000001,1.3243276,0,nan,0.0,4,1,17
250075933,1630026657599767,340320531,1087634614,429104,401201,0.133,0.77545905,0.59400004,0.83400005,0.63,1.09,105,4,0.09200001,0.066,-0.064,-0.008,1.3243276,0,nan,0.0,4,1,17
251085001,1630026658599768,340320533,1087634614,429054,401151,0.17500001,0.7754916,0.59400004,0.83300006,0.63,1.09,105,5,0.059000004,0.059000004,-0.006,0.015000001,1.3243276,0,nan,0.0,4,1,17
252091933,1630026659599768,340320539,1087634613,429026,401123,0.155,0.7755185,0.59300005,0.83000004,0.63,1.09,105,4,0.043,0.040000003,-0.016,-0.028,1.3243276,0,nan,0.0,4,1,17
253083968,1630026660599768,340320570,1087634623,429010,401108,0.149,0.23477976,0.591,0.82400006,0.63,1.09,105,5,0.47300002,0.462,0.101,0.029000001,0.22004953,0,nan,0.0,4,1,17
254083035,1630026661599769,340320610,1087634646,429015,401112,0.148,0.23509218,0.59000003,0.82100004,0.63,1.09,105,4,0.48000002,0.44400004,0.18,-0.015000001,0.36377707,0,nan,0.0,4,1,17
255082219,1630026662599769,340320636,1087634668,428999,401097,0.16800001,0.28283757,0.588,0.81900007,0.63,1.09,105,4,0.448,0.418,0.16100001,-0.009000001,0.42048156,0,nan,0.0,4,1,17
256082950,1630026663599769,340320664,1087634686,428893,400990,0.142,0.4923443,0.58900005,0.81900007,0.63,1.09,105,5,0.21700001,0.128,0.17600001,0.020000001,0.44163424,0,nan,0.0,4,1,17
257076932,1630026664599770,340320667,1087634699,428882,400979,0.117000006,0.49238566,0.59400004,0.82500005,0.61,1.0799999,105,4,0.086,0.016,0.08400001,-0.004,0.44163424,0,nan,0.0,4,1,18
258080929,1630026665599770,340320666,1087634706,428901,400998,0.172,0.49243537,0.597,0.82900006,0.61,1.0799999,105,4,0.022000002,0.021000002,-0.008,-0.022000002,0.44163424,0,nan,0.0,4,1,18
259079030,1630026666599770,340320663,1087634705,428873,400970,0.158,0.5275687,0.60200006,0.83500004,0.63,1.09,105,4,0.259,-0.21200001,0.149,0.082,2.111938,0,nan,0.0,4,1,17
260077943,1630026667599771,340320649,1087634716,428878,400975,0.19100001,0.61472327,0.606,0.83900005,0.63,1.09,105,4,0.231,-0.18900001,0.133,-0.034,2.5800314,0,nan,0.0,4,1,17
261072942,1630026668599771,340320627,1087634729,428914,401012,0.194,0.5926438,0.611,0.84300005,0.63,1.09,105,4,0.22700001,-0.20400001,0.101,0.031000001,2.708409,0,nan,0.0,4,1,17
262085935,1630026669599771,340320597,1087634746,428922,401019,0.216,0.37636316,0.61800003,0.84800005,0.63,1.09,105,4,0.351,-0.319,0.14600001,0.006,2.7527459,0,nan,0.0,4,1,17
263077930,1630026670599772,340320573,1087634762,428943,401041,0.17500001,0.39017513,0.623,0.85300004,0.63,1.09,105,3,0.14400001,-0.018000001,0.143,-0.095000006,2.592765,0,nan,0.0,4,1,17
264077226,1630026671599772,340320571,1087634772,428915,401012,0.19700001,0.39023972,0.62700003,0.85700005,0.63,1.09,105,4,0.15900001,0.1,0.123,0.11400001,2.592765,0,nan,0.0,4,1,17
265077991,1630026672599772,340320613,1087634796,428923,401021,0.172,0.25097275,0.629,0.859,0.63,1.09,105,4,0.54700005,0.48400003,0.25300002,0.022000002,0.4535388,0,nan,0.0,4,1,17
266080097,1630026673599773,340320618,1087634806,428989,401086,0.124000005,0.36668336,0.628,0.855,0.63,1.09,105,4,0.45400003,-0.020000001,-0.45400003,-0.083000004,5.110652,0,nan,0.0,4,1,17
267077933,1630026674599773,340320616,1087634753,429002,401099,0.19000001,0.7779769,0.629,0.855,0.63,1.09,105,4,0.07700001,0.021000002,0.074,-0.09200001,4.7281566,0,nan,0.0,4,1,17
268069940,1630026675599773,340320617,1087634754,428992,401090,0.16100001,0.77800477,0.62700003,0.85200006,0.63,1.09,105,4,0.136,0.066,-0.119,0.07,4.7281566,0,nan,0.0,4,1,17
269076932,1630026676599774,340320623,1087634729,428950,401047,0.106000006,0.42774984,0.623,0.84800005,0.63,1.09,105,4,0.377,0.027,-0.37600002,-0.055000003,4.9255443,0,nan,0.0,4,1,17
270078931,1630026677599774,340320627,1087634684,428981,401079,0.12200001,0.368435,0.614,0.83900005,0.63,1.09,105,8,0.416,0.171,-0.379,0.052,4.9892006,0,nan,0.0,4,1,17
271075973,1630026678599774,340320634,1087634630,429012,401110,0.116000004,0.26564085,0.60800004,0.83300006,0.63,1.09,105,7,0.591,0.112,-0.58100003,-0.094000004,4.943361,0,nan,0.0,4,1,17
272079532,1630026679599775,340320647,1087634573,429071,401168,0.125,0.35442346,0.60700005,0.83100003,0.63,1.09,105,7,0.499,0.09,-0.49100003,0.009000001,4.9434237,0,nan,0.0,4,1,17
273075970,1630026680599775,340320664,1087634541,428992,401089,0.186,0.46530476,0.60700005,0.83000004,0.63,1.09,105,4,0.266,0.24200001,-0.11100001,0.039,5.7052884,0,nan,0.0,4,1,17
274077932,1630026681599775,340320679,1087634545,428962,401060,0.163,0.55016404,0.609,0.83400005,0.63,1.09,105,4,0.15,0.12200001,0.086,0.022000002,6.216987,0,nan,0.0,4,1,17
275073119,1630026682599776,340320687,1087634575,428988,401085,0.123,0.24218363,0.61200005,0.83900005,0.63,1.09,105,4,0.75900006,0.021000002,0.75900006,-0.120000005,1.4739901,0,nan,0.0,4,1,17
276081013,1630026683599776,340320689,1087634619,428951,401048,0.11800001,0.4924326,0.611,0.83900005,0.63,1.09,105,4,0.34,0.019000001,0.33900002,0.009000001,1.5115705,0,nan,0.0,4,1,17
277076134,1630026684599776,340320689,1087634678,428986,401083,0.128,0.28724995,0.611,0.83900005,0.63,1.09,105,4,0.684,-0.003,0.684,-0.071,1.5880812,0,nan,0.0,4,1,17
278080931,1630026685599777,340320683,1087634760,428960,401057,0.120000005,0.21138659,0.615,0.841,0.63,1.09,105,5,0.873,-0.11000001,0.86600006,0.054,1.6813055,0,nan,0.0,4,1,17
279074974,1630026686599777,340320668,1087634808,428932,401029,0.17500001,0.50166136,0.61700004,0.84200007,0.63,1.09,105,4,0.252,-0.22600001,0.11100001,-0.0050000004,2.4586267,0,nan,0.0,4,1,17
280073023,1630026687599777,340320650,1087634811,428951,401048,0.17600001,0.7238756,0.619,0.84400004,0.63,1.09,105,5,0.18800001,-0.17300001,-0.072000004,0.019000001,3.253628,0,nan,0.0,4,1,17
282083953,1630026689599778,340320626,1087634779,428973,401070,0.21700001,0.6454159,0.62700003,0.851,0.63,1.09,91,3,0.061000004,-0.049000002,0.038000003,-0.011000001,4.209086,0,nan,0.0,4,1,17
283084997,1630026690599778,340320632,1087634785,428985,401082,0.163,0.64545065,0.62100005,0.84200007,0.63,1.09,91,4,0.132,0.125,0.042000003,0.031000001,4.209086,0,nan,0.0,4,1,17
284084933,1630026691599779,340320661,1087634798,428965,401062,0.15200001,0.5199344,0.61200005,0.83300006,0.63,1.09,92,4,0.21700001,0.20600002,0.068,0.006,0.2661025,0,nan,0.0,4,1,17
285082945,1630026692599779,340320667,1087634810,428951,401048,0.192,0.5199753,0.609,0.82900006,0.61,1.0799999,92,5,0.109000005,0.051000003,0.096,-0.19900002,0.2661025,0,nan,0.0,4,1,18
286087105,1630026693599779,340320666,1087634817,429177,401274,0.245,0.52004355,0.614,0.841,0.63,1.09,98,4,0.019000001,0.015000001,0.012,-0.30100003,0.2661025,0,nan,0.0,4,1,17
287085930,1630026694599780,340320665,1087634818,429538,401635,0.223,0.65234226,0.61700004,0.851,0.61,1.0799999,98,4,0.040000003,0.039,-0.011000001,-0.268,1.2751832,0,nan,0.0,4,1,18
288079039,1630026695599780,340320656,1087634813,429848,401945,0.22600001,0.65239775,0.614,0.85400003,0.61,1.0799999,98,4,0.05,-0.043,-0.025,-0.246,1.2751832,0,nan,0.0,4,1,18
289084961,1630026696599780,340320647,1087634810,430242,402340,0.21200001,0.65244836,0.609,0.85300004,0.61,1.0799999,98,4,0.034,0.034,0.0,-0.101,1.2751832,0,nan,0.0,4,1,18
290086005,1630026697599781,340320638,1087634808,430548,402645,0.202,0.6524929,0.60700005,0.84800005,0.61,1.0799999,98,3,0.026,0.022000002,0.015000001,-0.10300001,1.2751832,0,nan,0.0,4,1,18
291085996,1630026698599781,340320635,1087634810,430792,402890,0.20600002,0.65253687,0.60400003,0.84400004,0.61,1.0799999,98,4,0.042000003,0.041,0.012,-0.158,1.2751832,0,nan,0.0,4,1,18
292079931,1630026699599782,340320654,1087634812,430972,403069,0.178,0.2200806,0.60300004,0.851,0.61,1.0799999,106,5,0.64100003,0.615,0.18100001,-0.185,0.29488158,0,nan,0.0,4,1,18
293072935,1630026700599782,340320703,1087634831,431126,403224,0.17,0.2914761,0.605,0.86100006,0.65,1.1999999,106,5,0.47000003,0.425,0.2,-0.08800001,0.40145135,0,nan,0.0,4,1,17
294074537,1630026701599782,340320711,1087634848,431350,403448,0.223,0.38398167,0.60200006,0.85700005,0.61,1.0799999,106,4,0.066,-0.062000003,-0.023000002,-0.134,0.5244887,0,nan,0.0,4,1,18
295080153,1630026702599783,340320710,1087634828,431546,403643,0.18100001,0.76913273,0.60300004,0.86700004,0.61,1.0799999,106,5,0.23400001,0.102000006,-0.21000001,-0.165,5.792018,0,nan,0.0,4,1,18
296081660,1630026703599783,340320713,1087634791,431740,403838,0.14500001,0.3980328,0.60300004,0.86800003,0.61,1.0799999,106,4,0.41000003,0.18200001,-0.367,-0.15200001,5.0636616,0,nan,0.0,4,1,18
297081929,1630026704599783,340320718,1087634744,431853,403951,0.143,0.34997323,0.60300004,0.86700004,0.61,1.0799999,106,4,0.497,-0.008,-0.497,-0.125,4.7638955,0,nan,0.0,4,1,18
298082003,1630026705599784,340320724,1087634677,431965,404062,0.133,0.294333,0.601,0.87100005,0.61,1.0799999,106,4,0.53300005,0.030000001,-0.532,-0.179,4.8444357,0,nan,0.0,4,1,18
299083932,1630026706599784,340320735,1087634619,432026,404124,0.15300001,0.40410987,0.601,0.874,0.61,1.0799999,106,4,0.48200002,0.171,-0.45100003,-0.045,5.017586,0,nan,0.0,4,1,18
300077029,1630026707599784,340320749,1087634557,432010,404108,0.124000005,0.34700793,0.59900004,0.87600005,0.61,1.0799999,106,4,0.51000005,0.12900001,-0.49300003,0.051000003,4.9511714,0,nan,0.0,4,1,18
301078460,1630026708599785,340320758,1087634542,432097,404194,0.157,0.5770697,0.601,0.87900007,0.61,1.0799999,106,4,0.14,0.089,0.108,0.025,5.3273134,0,nan,0.0,4,1,18
302080991,1630026709599785,340320766,1087634549,432031,404128,0.209,0.57710844,0.60300004,0.88400006,0.61,1.0799999,106,4,0.05,0.020000001,0.046000004,0.058000002,5.3273134,0,nan,0.0,4,1,18
303079008,1630026710599785,340320765,1087634548,431834,403932,0.18900001,0.5771545,0.60700005,0.89000005,0.61,1.0799999,106,4,0.072000004,-0.049000002,0.053000003,0.101,5.3273134,0,nan,0.0,4,1,18
304077932,1630026711599786,340320760,1087634550,431599,403696,0.21300001,0.577206,0.60400003,0.88900006,0.61,1.0799999,106,5,0.12900001,-0.12200001,0.043,0.24900001,5.3273134,0,nan,0.0,4,1,18
305084057,1630026712599786,340320757,1087634548,431304,403401,0.18900001,0.57726765,0.59800005,0.87900007,0.61,1.0799999,106,4,0.127,-0.127,-0.0050000004,0.245,5.3273134,0,nan,0.0,4,1,18
306080959,1630026713599786,340320746,1087634548,431035,403132,0.21100001,0.6023564,0.595,0.87600005,0.61,1.0799999,106,4,0.086,-0.086,0.002,0.20300001,4.4393272,0,nan,0.0,4,1,18
307076028,1630026714599787,340320743,1087634549,430830,402927,0.171,0.6024068,0.595,0.874,0.61,1.0799999,106,4,0.032,0.004,-0.031000001,-0.037,4.4393272,0,nan,0.0,4,1,18
308077335,1630026715599787,340320747,1087634552,430776,402873,0.14,0.6024438,0.59400004,0.87100005,0.61,1.0799999,106,3,0.1,0.066,0.075,-0.031000001,4.4393272,0,nan,0.0,4,1,18
309076956,1630026716599787,340320754,1087634556,430764,402862,0.18400002,0.60248154,0.59800005,0.88400006,0.61,1.0799999,106,4,0.060000002,0.045,0.039,-0.066,4.4393272,0,nan,0.0,4,1,18
310080119,1630026717599788,340320761,1087634560,430804,402901,0.208,0.6025269,0.60400003,0.90500003,0.61,1.0799999,106,4,0.055000003,0.0050000004,0.055000003,-0.063,4.4393272,0,nan,0.0,4,1,18
311079929,1630026718599788,340320766,1087634565,430721,402818,0.21100001,0.60257316,0.60300004,0.90800005,0.61,1.0799999,106,4,0.038000003,-0.033,-0.019000001,0.105000004,4.4393272,0,nan,0.0,4,1,18
312078948,1630026719599788,340320760,1087634568,430545,402642,0.18,0.6026154,0.59800005,0.89400005,0.61,1.0799999,106,3,0.109000005,-0.10700001,-0.022000002,0.117000006,4.4393272,0,nan,0.0,4,1,18
313090264,1630026720599789,340320754,1087634568,430381,402479,0.179,0.6026552,0.59400004,0.882,0.61,1.0799999,106,5,0.143,-0.128,-0.063,0.142,4.4393272,0,nan,0.0,4,1,18
314074566,1630026721599789,340320747,1087634567,430321,402419,0.19900002,0.60269535,0.591,0.87200004,0.61,1.0799999,106,4,0.036000002,-0.036000002,0.001,0.071,4.4393272,0,nan,0.0,4,1,18
315080062,1630026722599789,340320744,1087634561,430396,402493,0.193,0.60273683,0.592,0.86700004,0.61,1.0799999,105,4,0.09,0.004,-0.09,-0.089,4.4393272,0,nan,0.0,4,1,18
316081932,1630026723599790,340320746,1087634550,430393,402490,0.21800001,0.6027779,0.592,0.864,0.61,1.0799999,105,4,0.054,0.045,-0.030000001,0.21900001,4.4393272,0,nan,0.0,4,1,18
317078933,1630026724599790,340320750,1087634549,430212,402309,0.24800001,0.60282993,0.59400004,0.87200004,0.61,1.0799999,105,4,0.081,0.056,0.058000002,0.21700001,4.4393272,0,nan,0.0,4,1,18
318072942,1630026725599790,340320757,1087634554,429973,402070,0.21800001,0.6028866,0.597,0.87200004,0.61,1.0799999,105,3,0.052,0.026,0.045,0.202,4.4393272,0,nan,0.0,4,1,18
319077097,1630026726599791,340320759,1087634555,429803,401901,0.22700001,0.6029386,0.59800005,0.87200004,0.61,1.0799999,105,4,0.017,-0.015000001,0.006,0.17400001,4.4393272,0,nan,0.0,4,1,18
320076945,1630026727599791,340320762,1087634558,429566,401663,0.223,0.6029931,0.595,0.86800003,0.61,1.0799999,105,4,0.052,0.024,0.046000004,0.23,4.4393272,0,nan,0.0,4,1,18
321078972,1630026728599791,340320747,1087634557,429598,401696,0.19800001,0.6030437,0.97,1.406,0.58,0.98999995,105,5,0.047000002,-0.046000004,0.003,0.22200002,4.4393272,0,nan,0.0,4,1,19
322080134,1630026729599792,340320724,1087634551,429856,401954,0.24800001,0.60309136,0.9480001,1.373,0.58,0.98999995,105,5,0.019000001,0.019000001,-0.003,0.13900001,4.4393272,0,nan,0.0,4,1,19
323078955,1630026730599792,340320707,1087634546,430233,402331,0.19800001,0.60313743,0.90800005,1.3280001,0.58,0.98999995,105,5,0.043,0.041,0.013,-0.062000003,4.4393272,0,nan,0.0,4,1,19
324078975,1630026731599792,340320699,1087634541,430640,402737,0.163,0.7501071,0.92600006,1.3640001,0.59999996,1.04,105,4,0.108,0.108,-0.001,-0.055000003,5.184136,0,nan,0.0,4,1,18
325077937,1630026732599793,340320698,1087634543,431008,403105,0.179,0.62513083,0.87600005,1.289,0.58,0.98999995,105,4,0.12100001,0.109000005,0.054,-0.044000003,0.012024096,0,nan,0.0,4,1,19
326081012,1630026733599793,340320710,1087634546,431161,403258,0.185,0.5722749,0.60300004,0.88400006,0.61,1.0799999,105,6,0.215,0.19900002,0.082,-0.025,0.24562122,0,nan,0.0,4,1,18
327078087,1630026734599793,340320725,1087634550,431157,403255,0.171,0.7181232,0.609,0.887,0.61,1.0799999,105,4,0.147,0.066,-0.132,0.044000003,0.34558043,0,nan,0.0,4,1,18
328077115,1630026735599794,340320733,1087634527,431091,403188,0.11800001,0.5597667,0.611,0.88500005,0.61,1.0799999,105,4,0.323,0.075,-0.314,0.012,5.0580597,0,nan,0.0,4,1,18
329069575,1630026736599794,340320735,1087634513,431202,403299,0.18900001,0.6312498,0.611,0.87900007,0.58,0.98999995,105,4,0.037,0.036000002,0.008,-0.046000004,5.011911,0,nan,0.0,4,1,19
330078952,1630026737599794,340320732,1087634483,431291,403388,0.15100001,0.48811117,0.652,0.933,0.58,0.98999995,105,4,0.432,-0.09900001,-0.42000002,-0.082,4.717023,0,nan,0.0,4,1,19
331080048,1630026738599795,340320737,1087634483,431258,403355,0.171,0.4881635,0.62100005,0.883,0.58,0.98999995,105,4,0.1,0.09200001,-0.040000003,-0.055000003,4.717023,0,nan,0.0,4,1,19
332075961,1630026739599795,340320741,1087634452,431274,403372,0.15,0.650144,0.62700003,0.88900006,0.61,1.0799999,105,4,0.29900002,-0.021000002,-0.29900002,-0.063,4.738207,0,nan,0.0,4,1,18
333089003,1630026740599795,340320755,1087634424,431176,403274,0.177,0.6775347,0.628,0.89300007,0.61,1.0799999,105,4,0.105000004,0.1,-0.033,-0.038000003,5.0452414,0,nan,0.0,4,1,18
334075968,1630026741599796,340320761,1087634432,431099,403196,0.133,0.67756593,0.62600005,0.89000005,0.61,1.0799999,105,4,0.09,0.025,0.086,-0.022000002,5.0452414,0,nan,0.0,4,1,18
335079951,1630026742599796,340320762,1087634441,431080,403178,0.16000001,0.67759615,0.62600005,0.88900006,0.61,1.0799999,105,3,0.120000005,-0.093,0.076000005,0.045,5.0452414,0,nan,0.0,4,1,18
336080063,1630026743599797,340320756,1087634443,431060,403157,0.22200002,0.6776359,0.628,0.892,0.61,1.0799999,105,5,0.11000001,-0.101,-0.043,-0.047000002,5.0452414,0,nan,0.0,4,1,18
337077933,1630026744599797,340320752,1087634437,431063,403160,0.15300001,0.6776733,0.62700003,0.89000005,0.61,1.0799999,105,4,0.045,-0.026,-0.037,0.011000001,5.0452414,0,nan,0.0,4,1,18
338079021,1630026745599797,340320756,1087634437,431047,403144,0.24800001,0.6777148,0.629,0.89100003,0.61,1.0799999,105,3,0.039,-0.028,0.027,-0.08400001,5.0452414,0,nan,0.0,4,1,18
339074067,1630026746599798,340320761,1087634443,431029,403126,0.23300001,0.6777584,0.632,0.89300007,0.61,1.0799999,105,4,0.011000001,-0.011000001,-0.001,-0.067,5.0452414,0,nan,0.0,4,1,18
340073943,1630026747599798,340320759,1087634444,431047,403144,0.157,0.67779446,0.628,0.88600004,0.61,1.0799999,105,4,0.049000002,-0.048,-0.012,0.018000001,5.0452414,0,nan,0.0,4,1,18
341079988,1630026748599798,340320741,1087634442,431255,403352,0.21700001,0.6778333,0.684,0.96300006,0.58,0.98999995,105,3,0.060000002,-0.057000004,0.018000001,-0.10300001,5.0452414,0,nan,0.0,4,1,19
342080957,1630026749599799,340320738,1087634445,431260,403357,0.2,0.6778748,0.62100005,0.87200004,0.61,1.0799999,105,5,0.009000001,0.007,-0.006,-0.036000002,5.0452414,0,nan,0.0,4,1,18
343080975,1630026750599799,340320738,1087634446,431305,403403,0.18200001,0.6779183,0.62200004,0.86700004,0.58,0.98999995,105,4,0.05,0.041,-0.029000001,-0.057000004,5.0452414,0,nan,0.0,4,1,19
344080156,1630026751599799,340320727,1087634443,431572,403670,0.157,0.6779569,0.80600005,1.107,0.58,0.98999995,105,4,0.16600001,0.007,0.16600001,-0.075,5.0452414,0,nan,0.0,4,1,19
345075933,1630026752599800,340320717,1087634451,431775,403872,0.16000001,0.6779939,0.63000005,0.87000006,0.61,1.0799999,105,4,0.098000005,-0.011000001,0.098000005,-0.048,5.0452414,0,nan,0.0,4,1,18
346076953,1630026753599800,340320711,1087634456,432005,404102,0.16800001,0.67803055,0.66200006,0.92,0.58,0.98999995,105,4,0.101,0.09,0.047000002,-0.051000003,5.0452414,0,nan,0.0,4,1,19
347081345,1630026754599800,340320719,1087634460,432053,404150,0.178,0.67806715,0.62600005,0.874,0.61,1.0799999,105,4,0.124000005,0.12100001,0.026,-0.036000002,5.0452414,0,nan,0.0,4,1,18
348077966,1630026755599801,340320734,1087634463,432063,404161,0.148,0.7443841,0.62600005,0.874,0.61,1.0799999,105,3,0.19900002,0.16800001,-0.106000006,0.006,5.9000025,0,nan,0.0,4,1,18
349077157,1630026756599801,340320744,1087634404,432127,404225,0.125,0.43376178,0.623,0.87100005,0.61,1.0799999,105,4,0.42000002,0.018000001,-0.42000002,-0.120000005,4.83111,0,nan,0.0,4,1,18
350079931,1630026757599801,340320753,1087634406,432165,404262,0.162,0.43382356,0.62600005,0.87000006,0.61,1.0799999,105,4,0.102000006,0.089,0.05,-0.049000002,4.83111,0,nan,0.0,4,1,18
351074995,1630026758599802,340320761,1087634409,432160,404257,0.171,0.43387732,0.623,0.86200005,0.65,1.1999999,105,4,0.052,0.047000002,0.022000002,-0.037,4.83111,0,nan,0.0,4,1,17
352082480,1630026759599802,340320767,1087634412,432089,404186,0.22100002,0.43394172,0.619,0.855,0.61,1.0799999,105,3,0.062000003,-0.061000004,0.008,-0.059000004,4.83111,0,nan,0.0,4,1,18
353081200,1630026760599802,340320766,1087634414,432076,404173,0.21200001,0.43401086,0.615,0.84900004,0.65,1.1999999,105,5,0.054,-0.054,0.0,-0.108,4.83111,0,nan,0.0,4,1,17
354076994,1630026761599803,340320775,1087634422,432308,404405,0.16700001,0.32992586,0.61200005,0.845,0.61,1.0799999,105,4,0.38900003,0.365,0.136,-0.119,0.27750126,0,nan,0.0,4,1,18
355080029,1630026762599803,340320803,1087634435,432467,404564,0.17600001,0.41366887,0.61800003,0.86200005,0.61,1.0799999,105,4,0.333,0.291,0.163,-0.034,0.34889358,0,nan,0.0,4,1,18
356082010,1630026763599803,340320823,1087634453,432430,404527,0.16800001,0.5151484,0.614,0.864,0.61,1.0799999,105,5,0.25500003,0.185,0.17600001,0.027,0.82787687,0,nan,0.0,4,1,18
357077964,1630026764599804,340320837,1087634471,432357,404454,0.194,0.7594149,0.609,0.86500007,0.61,1.0799999,105,3,0.17300001,0.13000001,0.115,0.097,0.89416045,0,nan,0.0,4,1,18
358076928,1630026765599804,340320841,1087634486,432197,404295,0.13800001,0.75442624,0.611,0.87100005,0.61,1.0799999,105,3,0.16900001,-0.045,0.163,0.048,0.73500293,0,nan,0.0,4,1,18
359077931,1630026766599804,340320874,1087634498,432102,404200,0.231,0.17083195,0.619,0.883,0.61,1.0799999,105,4,0.777,0.77400005,0.075,0.067,0.161348,0,nan,0.0,4,1,18
360076955,1630026767599805,340320941,1087634514,431894,403991,0.19000001,0.20659548,0.61700004,0.88600004,0.61,1.0799999,105,4,0.62600005,0.60800004,0.15,0.062000003,0.20971178,0,nan,0.0,4,1,18
361079107,1630026768599805,340320995,1087634534,431721,403818,0.18900001,0.2903617,0.615,0.8880001,0.65,1.1999999,105,4,0.425,0.37500003,0.201,0.066,0.42967492,0,nan,0.0,4,1,17
362075929,1630026769599805,340321044,1087634556,431628,403725,0.18200001,0.2805182,0.61800003,0.89800006,0.61,1.0799999,105,4,0.507,0.45900002,0.21700001,-0.018000001,0.44130683,0,nan,0.0,4,1,18
363082932,1630026770599806,340321107,1087634582,431419,403516,0.185,0.1673556,0.62,0.892,0.65,1.1999999,105,4,0.77800006,0.72400004,0.28500003,-0.003,0.33566764,0,nan,0.0,4,1,17
364079058,1630026771599806,340321171,1087634608,431296,403394,0.19800001,0.14760685,0.623,0.897,0.65,1.1999999,105,5,0.915,0.892,0.208,-0.007,0.2653623,0,nan,0.0,4,1,17
365074933,1630026772599806,340321226,1087634628,431302,403399,0.202,0.20091374,0.63000005,0.9110001,0.65,1.1999999,105,5,0.763,0.71000004,0.28,0.020000001,0.3013302,0,nan,0.0,4,1,17
366080973,1630026773599807,340321280,1087634651,431681,403778,0.164,0.31101137,0.74300003,1.0890001,0.61,1.0799999,105,5,0.46300003,0.42600003,0.179,-0.216,0.32649595,0,nan,0.0,4,1,18
367077121,1630026774599807,340321344,1087634678,431541,403638,0.23,0.16945173,0.65000004,0.96800005,0.65,1.1999999,105,4,0.90400004,0.874,0.231,0.15900001,0.29592127,0,nan,0.0,4,1,17
368080930,1630026775599807,340321364,1087634702,431687,403784,0.15900001,0.50660306,0.65400004,0.97200006,0.65,1.1999999,105,4,0.31,0.23300001,0.20500001,0.007,0.7036115,0,nan,0.0,4,1,17
369075930,1630026776599808,340321395,1087634716,431573,403670,0.177,0.66507894,0.65500003,0.975,0.65,1.2099999,105,5,0.23,0.19600001,-0.120000005,-0.155,6.2816734,0,nan,0.0,4,1,17
370076962,1630026777599808,340321414,1087634637,431622,403719,0.149,0.23186034,0.65300006,0.97700006,0.65,1.2099999,105,4,0.97700006,-0.033,-0.9760001,-0.164,4.8658257,0,nan,0.0,4,1,17
371073738,1630026778599808,340321427,1087634562,431779,403876,0.142,0.24175218,0.66200006,1.0020001,0.65,1.2099999,105,4,0.767,0.11000001,-0.75900006,-0.127,4.921845,0,nan,0.0,4,1,17
372078010,1630026779599809,340321434,1087634460,432020,404117,0.16600001,0.19735922,0.67300004,1.0430001,0.61,1.0799999,105,4,1.1170001,0.314,-1.072,-0.116000004,4.909475,0,nan,0.0,4,1,18
373077041,1630026780599809,340321448,1087634382,432395,404492,0.19500001,0.49276575,0.683,1.072,0.61,1.0799999,105,4,0.142,0.14,-0.024,-0.108,5.0315495,0,nan,0.0,4,1,18
374086932,1630026781599810,340321425,1087634383,432808,404905,0.17400001,0.22447115,0.76900005,1.215,0.61,1.0799999,105,3,0.623,-0.53800005,-0.31300002,-0.059000004,3.731224,0,nan,0.0,4,1,18
375075988,1630026782599810,340321365,1087634323,432662,404759,0.177,0.1723167,0.694,1.092,0.65,1.2099999,105,4,0.961,-0.73600006,-0.61800003,-0.085,3.8523278,0,nan,0.0,4,1,17
376073943,1630026783599810,340321305,1087634236,432552,404649,0.163,0.31046823,0.694,1.082,0.65,1.2099999,105,3,0.66700006,-0.34500003,-0.57100004,-0.119,4.0653553,0,nan,0.0,4,1,17
377079949,1630026784599811,340321293,1087634224,432811,404908,0.268,0.3830132,0.69900006,1.0890001,0.61,1.0799999,105,4,0.021000002,0.018000001,0.010000001,-0.116000004,3.933967,0,nan,0.0,4,1,18
378076542,1630026785599811,340321250,1087634222,433516,405613,0.192,0.3676487,0.897,1.394,0.58,0.98999995,105,4,0.31500003,-0.314,0.024,-0.033,3.2125237,0,nan,0.0,4,1,19
379085560,1630026786599811,340321212,1087634229,433716,405813,0.24400002,0.702121,0.702,1.088,0.65,1.2099999,105,4,0.095000006,-0.066,0.068,-0.10300001,3.0032103,0,nan,0.0,4,1,17
380076972,1630026787599812,340321195,1087634241,433783,405880,0.19000001,0.24818249,0.698,1.08,0.61,1.0799999,105,5,0.549,-0.549,0.0,-0.074,3.102606,0,nan,0.0,4,1,18
381076933,1630026788599812,340321130,1087634248,433774,405871,0.21200001,0.16937216,0.69500005,1.075,0.65,1.2099999,105,4,0.80700004,-0.80100006,0.095000006,-0.102000006,3.0476215,0,nan,0.0,4,1,17
382077191,1630026789599812,340321069,1087634257,433604,405701,0.157,0.1548004,0.689,1.067,0.61,1.0799999,105,4,0.85600007,-0.85600007,0.028,0.003,3.0643277,0,nan,0.0,4,1,18
383071961,1630026790599813,340320980,1087634260,433453,405550,0.246,0.09925024,0.68500006,1.062,0.65,1.2099999,105,4,1.365,-1.3640001,-0.048,-0.10300001,3.1482534,0,nan,0.0,4,1,17
384076931,1630026791599813,340320880,1087634257,433426,405524,0.193,0.11905012,0.683,1.051,0.61,1.0799999,105,4,1.0300001,-1.0300001,-0.028,-0.128,3.1573787,0,nan,0.0,4,1,18
385076645,1630026792599813,340320818,1087634257,433496,405593,0.22200002,0.42036062,0.674,1.0250001,0.61,1.0799999,105,5,0.14600001,-0.13100001,0.063,-0.21100001,3.1310272,0,nan,0.0,4,1,18
386079689,1630026793599814,340320812,1087634262,433562,405659,0.20500001,0.6487354,0.66200006,1.0,0.61,1.0799999,105,5,0.193,-0.193,0.012,-0.123,3.0945892,0,nan,0.0,4,1,18
387073932,1630026794599814,340320806,1087634257,433533,405630,0.25,0.64878404,0.65300006,0.98700005,0.61,1.0799999,105,3,0.091000006,-0.07700001,-0.048,-0.18300001,3.0945892,0,nan,0.0,4,1,18
388078936,1630026795599814,340320795,1087634254,433711,405809,0.21900001,0.64883065,0.69500005,1.0500001,0.58,0.97999996,105,4,0.069000006,-0.053000003,0.044000003,-0.12900001,3.0945892,0,nan,0.0,4,1,19
389075934,1630026796599815,340320787,1087634261,433786,405883,0.18100001,0.53661036,0.634,0.96000004,0.61,1.0799999,105,3,0.25800002,-0.21100001,0.148,-0.136,2.7602108,0,nan,0.0,4,1,18
390078951,1630026797599815,340320782,1087634276,433663,405760,0.13900001,0.6104397,0.63000005,0.95000005,0.61,1.0799999,105,3,0.12100001,0.046000004,0.112,-0.053000003,2.6052306,0,nan,0.0,4,1,18
391079184,1630026798599815,340320788,1087634290,433545,405642,0.15900001,0.61048406,0.628,0.93900007,0.61,1.0799999,105,3,0.094000004,-0.029000001,0.089,-0.043,2.6052306,0,nan,0.0,4,1,18
392075960,1630026799599816,340320783,1087634296,433541,405638,0.19600001,0.6105308,0.625,0.93000007,0.61,1.0799999,104,7,0.108,-0.09900001,0.043,-0.062000003,2.6052306,0,nan,0.0,4,1,18
393077966,1630026800599816,340320785,1087634296,433452,405550,0.16900001,0.6105772,0.62100005,0.92600006,0.61,1.0799999,104,8,0.07300001,-0.058000002,-0.044000003,-0.0050000004,2.6052306,0,nan,0.0,4,1,18
394079929,1630026801599816,340320786,1087634288,433353,405450,0.21700001,0.6106228,0.61800003,0.92700005,0.61,1.0799999,104,3,0.060000002,-0.055000003,-0.022000002,0.13700001,2.6052306,0,nan,0.0,4,1,18
395076006,1630026802599817,340320784,1087634288,433141,405238,0.21700001,0.61067253,0.619,0.92800003,0.61,1.0799999,104,3,0.040000003,-0.028,0.029000001,0.19800001,2.6052306,0,nan,0.0,4,1,18
396074110,1630026803599817,340320784,1087634291,432777,404874,0.20500001,0.61072665,0.61700004,0.91800004,0.61,1.0799999,104,3,0.094000004,-0.055000003,-0.076000005,0.25,2.6052306,0,nan,0.0,4,1,18
397076168,1630026804599817,340320789,1087634291,432546,404643,0.231,0.6107758,0.614,0.9110001,0.61,1.0799999,104,5,0.013,0.010000001,0.008,0.051000003,2.6052306,0,nan,0.0,4,1,18
398073928,1630026805599818,340320797,1087634293,432333,404431,0.21100001,0.61082244,0.61,0.90300006,0.61,1.0799999,104,4,0.020000001,-0.019000001,0.006,0.13800001,2.6052306,0,nan,0.0,4,1,18
399074020,1630026806599818,340320793,1087634292,432194,404291,0.16900001,0.6108637,0.60700005,0.89800006,0.58,0.97999996,104,5,0.15900001,-0.157,-0.022000002,0.046000004,2.6052306,0,nan,0.0,4,1,19
400073512,1630026807599818,340320775,1087634294,432208,404305,0.15400001,0.5902592,0.606,0.90400004,0.58,0.97999996,104,3,0.23,-0.18400002,0.13900001,0.07300001,2.6330862,0,nan,0.0,4,1,19
401073975,1630026808599819,340320767,1087634311,432312,404409,0.17,0.6669364,0.60200006,0.91,0.61,1.0799999,104,4,0.23400001,0.076000005,0.22200002,0.105000004,1.4424533,0,nan,0.0,4,1,18
402075131,1630026809599819,340320777,1087634326,432289,404387,0.22600001,0.6522428,0.59800005,0.915,0.58,0.97999996,104,5,0.22700001,0.19500001,0.117000006,0.171,0.8637364,0,nan,0.0,4,1,19
403073472,1630026810599819,340320790,1087634329,432236,404333,0.15200001,0.625271,0.6,0.92800003,0.65,1.2099999,104,4,0.07700001,0.076000005,-0.011000001,-0.037,0.46034682,0,nan,0.0,4,1,17
404084987,1630026811599820,340320783,1087634315,432360,404458,0.22100002,0.62532073,0.80700004,1.2600001,0.58,0.97999996,104,5,0.083000004,-0.013,-0.082,0.171,0.46034682,0,nan,0.0,4,1,19
405074940,1630026812599820,340320774,1087634303,432400,404498,0.20500001,0.625364,0.708,1.1220001,0.59999996,1.04,104,5,0.076000005,-0.068,-0.033,0.133,0.46034682,0,nan,0.0,4,1,18
406074094,1630026813599820,340320763,1087634290,432543,404640,0.185,0.62541234,0.744,1.189,0.58,0.97999996,104,5,0.053000003,-0.007,-0.053000003,0.043,0.46034682,0,nan,0.0,4,1,19
407075933,1630026814599821,340320756,1087634276,432800,404897,0.24200001,0.62546194,0.768,1.241,0.58,0.97999996,104,5,0.074,0.074,-0.007,0.059000004,0.46034682,0,nan,0.0,4,1,19
408076993,1630026815599821,340320746,1087634269,433145,405243,0.264,0.62551904,0.855,1.393,0.58,0.97999996,104,9,0.020000001,0.015000001,0.013,0.040000003,0.46034682,0,nan,0.0,4,1,19
409073222,1630026816599822,340320741,1087634261,433525,405623,0.21300001,0.6255684,0.832,1.3700001,0.59999996,1.04,104,9,0.12900001,0.128,0.013,0.058000002,0.46034682,0,nan,0.0,4,1,18
410074927,1630026817599822,340320760,1087634257,433435,405532,0.17600001,0.7782578,0.619,1.026,0.65,1.2099999,104,9,0.163,0.163,-0.013,0.0050000004,0.24823345,0,nan,0.0,4,1,17
411075213,1630026818599822,340320778,1087634258,433483,405580,0.16600001,0.6712747,0.61800003,1.0250001,0.65,1.2099999,104,5,0.19800001,0.187,0.065000005,-0.022000002,0.2948767,0,nan,0.0,4,1,17
412076047,1630026819599823,340320796,1087634263,433329,405427,0.21000001,0.67131466,0.61300004,1.021,0.65,1.2099999,104,4,0.11400001,0.039,0.10700001,0.10300001,0.2948767,0,nan,0.0,4,1,17
413075932,1630026820599823,340320804,1087634273,433112,405209,0.18100001,0.67134714,0.60800004,1.01,0.65,1.2099999,104,4,0.163,-0.143,0.078,0.157,0.2948767,0,nan,0.0,4,1,17
414085126,1630026821599823,340320796,1087634277,433006,405103,0.15200001,0.7556057,0.609,1.014,0.65,1.2099999,104,4,0.136,-0.128,0.045,0.039,2.23763,0,nan,0.0,4,1,17
415071969,1630026822599824,340320771,1087634280,433040,405137,0.16000001,0.2750637,0.60700005,1.0150001,0.65,1.2099999,104,3,0.48100004,-0.48000002,-0.029000001,-0.057000004,3.1444075,0,nan,0.0,4,1,17
416073967,1630026823599824,340320718,1087634278,433037,405134,0.164,0.2124701,0.606,1.018,0.65,1.2099999,104,8,0.619,-0.61700004,-0.051000003,0.013,3.2042053,0,nan,0.0,4,1,17
417072945,1630026824599824,340320649,1087634267,433224,405321,0.162,0.14328699,0.60200006,1.014,0.65,1.2099999,104,8,0.89100003,-0.88500005,-0.105000004,-0.17,3.314939,0,nan,0.0,4,1,17
418075057,1630026825599825,340320580,1087634255,433190,405288,0.148,0.17434616,0.6,1.013,0.65,1.2099999,104,6,0.707,-0.703,-0.075,0.08400001,3.2821255,0,nan,0.0,4,1,17
419072411,1630026826599825,340320506,1087634247,433163,405260,0.15,0.09442143,0.59900004,1.01,0.59999996,1.04,104,4,1.307,-1.307,0.003,-0.033,3.1814044,0,nan,0.0,4,1,18
420068930,1630026827599825,340320394,1087634235,433254,405351,0.17300001,0.107238255,0.59900004,1.018,0.63,1.09,104,4,1.263,-1.2540001,-0.15,0.010000001,3.254028,0,nan,0.0,4,1,17
421074960,1630026828599826,340320280,1087634218,433289,405386,0.15400001,0.09508518,0.601,1.0270001,0.63,1.09,104,4,1.3160001,-1.2980001,-0.21800001,-0.0050000004,3.2775774,0,nan,0.0,4,1,17
422075289,1630026829599826,340320171,1087634202,433225,405323,0.158,0.109519236,0.60400003,1.0400001,0.65,1.2099999,104,4,1.125,-1.1110001,-0.17300001,0.028,3.2795203,0,nan,0.0,4,1,17
423076021,1630026830599826,340320077,1087634189,433154,405251,0.16000001,0.124386646,0.606,1.0500001,0.63,1.09,104,4,1.0730001,-1.0660001,-0.119,0.040000003,3.2531884,0,nan,0.0,4,1,17
424078336,1630026831599827,340319983,1087634167,433067,405164,0.17400001,0.13003017,0.60800004,1.051,0.63,1.09,104,5,1.056,-1.016,-0.289,-0.116000004,3.3670087,0,nan,0.0,4,1,17
425075958,1630026832599827,340319911,1087634139,432981,405078,0.17300001,0.19540723,0.60700005,1.0400001,0.63,1.09,104,4,0.60800004,-0.568,-0.215,-0.054,3.4775374,0,nan,0.0,4,1,17
426075408,1630026833599827,340319898,1087634113,432953,405050,0.13800001,0.7109274,0.60700005,1.033,0.63,1.09,104,4,0.223,-0.11400001,-0.19100001,0.058000002,4.233771,0,nan,0.0,4,1,17
427072368,1630026834599828,340319895,1087634105,432949,405046,0.162,0.7109644,0.609,1.039,0.61,1.0799999,104,4,0.083000004,0.081,0.018000001,-0.026,4.233771,0,nan,0.0,4,1,18
428075965,1630026835599828,340319906,1087634112,433001,405099,0.14600001,0.68426365,0.61300004,1.049,0.61,1.0799999,104,4,0.163,0.147,0.071,-0.08400001,5.4992495,0,nan,0.0,4,1,18
429075473,1630026836599828,340319922,1087634121,432949,405046,0.163,0.7710723,0.61800003,1.0580001,0.61,1.0799999,104,4,0.125,0.124000005,0.017,0.001,5.9734693,0,nan,0.0,4,1,18
430079567,1630026837599829,340319932,1087634131,432823,404920,0.116000004,0.4582126,0.61700004,1.0430001,0.63,1.09,104,4,0.33100003,0.058000002,0.326,-0.017,0.94911927,0,nan,0.0,4,1,17
431074956,1630026838599829,340319931,1087634193,432708,404805,0.115,0.23346029,0.615,1.0250001,0.63,1.09,104,4,0.60300004,-0.091000006,0.597,0.008,1.7023758,0,nan,0.0,4,1,17
432072933,1630026839599829,340319928,1087634250,432515,404612,0.133,0.52252954,0.61300004,1.0150001,0.63,1.09,104,5,0.335,-0.054,0.33100003,-0.004,1.7208012,0,nan,0.0,4,1,17
433074145,1630026840599830,340319918,1087634302,432349,404446,0.12200001,0.28183088,0.615,1.0070001,0.63,1.09,104,5,0.61800003,-0.108,0.609,0.133,1.8276772,0,nan,0.0,4,1,17
434076003,1630026841599830,340319899,1087634373,432174,404271,0.13900001,0.24423072,0.619,1.008,0.63,1.09,104,4,0.62600005,-0.291,0.555,0.14,2.0068355,0,nan,0.0,4,1,17
435075938,1630026842599830,340319869,1087634439,432121,404218,0.165,0.3335713,0.624,1.014,0.63,1.09,104,5,0.54,-0.34300002,0.41700003,-0.09900001,2.1327832,0,nan,0.0,4,1,17
436075047,1630026843599831,340319844,1087634458,432178,404275,0.19000001,0.60664815,0.62700003,1.021,0.63,1.09,104,3,0.165,-0.143,-0.083000004,0.009000001,2.8157685,0,nan,0.0,4,1,17
437073997,1630026844599831,340319835,1087634453,432182,404280,0.21900001,0.6066961,0.634,1.033,0.63,1.09,104,5,0.075,-0.039,-0.064,-0.046000004,2.8157685,0,nan,0.0,4,1,17
438072936,1630026845599831,340319829,1087634467,432133,404230,0.15100001,0.39161798,0.63900006,1.0350001,0.63,1.09,104,4,0.47200003,-0.13000001,0.45400003,0.006,2.126466,0,nan,0.0,4,1,17
439075618,1630026846599832,340319815,1087634496,432095,404192,0.15400001,0.5786272,0.642,1.039,0.63,1.09,104,5,0.157,-0.015000001,-0.157,-0.080000006,2.169868,0,nan,0.0,4,1,17
440075938,1630026847599832,340319811,1087634490,432121,404218,0.279,0.5786754,0.647,1.0450001,0.63,1.09,104,5,0.049000002,-0.049000002,0.001,-0.061000004,2.169868,0,nan,0.0,4,1,17
441074011,1630026848599833,340319807,1087634511,432050,404147,0.14400001,0.6549379,0.65400004,1.0530001,0.63,1.09,104,4,0.089,-0.033,0.083000004,0.033,2.036507,0,nan,0.0,4,1,17
442072958,1630026849599833,340319809,1087634511,431973,404071,0.14600001,0.6549756,0.65500003,1.056,0.63,1.09,104,4,0.042000003,0.025,-0.034,-0.016,2.036507,0,nan,0.0,4,1,17
443074266,1630026850599833,340319810,1087634513,431882,403979,0.17600001,0.6550205,0.65800005,1.059,0.63,1.09,104,4,0.101,-0.098000005,0.025,0.081,2.036507,0,nan,0.0,4,1,17
444078934,1630026851599834,340319801,1087634529,431793,403890,0.16000001,0.44498375,0.66,1.0600001,0.63,1.09,104,8,0.402,-0.178,0.36,0.011000001,2.1461635,0,nan,0.0,4,1,17
445068932,1630026852599834,340319791,1087634535,431782,403879,0.187,0.44504762,0.66700006,1.0710001,0.63,1.09,104,8,0.066,-0.061000004,-0.025,0.045,2.1461635,0,nan,0.0,4,1,17
446072025,1630026853599834,340319780,1087634532,431849,403946,0.22600001,0.44511166,0.674,1.085,0.63,1.09,104,6,0.085,-0.085,-0.006,-0.017,2.1461635,0,nan,0.0,4,1,17
447076952,1630026854599835,340319780,1087634529,431767,403864,0.13700001,0.44516385,0.67300004,1.088,0.65,1.18,104,4,0.081,0.023000002,-0.07700001,-0.015000001,2.1461635,0,nan,0.0,4,1,16
448075929,1630026855599835,340319780,1087634509,431711,403808,0.141,0.7629764,0.665,1.074,0.65,1.18,104,5,0.24800001,-0.009000001,-0.24700001,-0.006,2.7892709,0,nan,0.0,4,1,16
449079437,1630026856599835,340319773,1087634490,431733,403830,0.19900002,0.6533697,0.661,1.067,0.65,1.18,104,4,0.284,0.25,-0.134,-0.064,4.483799,0,nan,0.0,4,1,16
450073170,1630026857599836,340319778,1087634470,431877,403975,0.21300001,0.6674951,0.65900004,1.0630001,0.61,1.0799999,104,8,0.21400002,-0.208,-0.05,-0.081,4.064806,0,nan,0.0,4,1,18
451075939,1630026858599836,340319759,1087634453,431937,404035,0.13800001,0.39390266,0.656,1.052,0.63,1.16,104,8,0.402,-0.208,-0.344,0.067,4.0276003,0,nan,0.0,4,1,17
452074944,1630026859599836,340319749,1087634445,431995,404092,0.16800001,0.40713906,0.661,1.057,0.58,0.97999996,104,4,0.601,0.007,0.601,-0.091000006,2.0392456,0,nan,0.0,4,1,19
458076032,1630026865599838,340319998,1087634658,431871,403968,0.20700002,0.10672409,0.661,1.033,0.63,1.09,103,3,1.2880001,1.263,0.25500003,-0.081,0.22086775,0,nan,0.0,4,1,17
459084950,1630026866599839,340320104,1087634694,431698,403796,0.194,0.12267221,0.65800005,1.023,0.63,1.09,91,5,1.1370001,1.095,0.30800003,-0.096,0.24971716,0,nan,0.0,4,1,17
460074932,1630026867599839,340320203,1087634729,431567,403665,0.164,0.09239266,0.651,1.003,0.63,1.09,91,5,1.263,1.21,0.36200002,0.019000001,0.2741495,0,nan,0.0,4,1,17
461083932,1630026868599839,340320298,1087634772,431453,403550,0.2,0.12448473,0.643,0.9850001,0.63,1.09,91,5,0.915,0.84000003,0.363,0.001,0.34032643,0,nan,0.0,4,1,17
462083060,1630026869599840,340320372,1087634810,431418,403515,0.187,0.14473805,0.64000005,0.97800004,0.63,1.09,97,4,0.87200004,0.82500005,0.28300002,-0.055000003,0.33810464,0,nan,0.0,4,1,17
463080039,1630026870599840,340320473,1087634850,431324,403422,0.19000001,0.097091444,0.637,0.97200006,0.63,1.09,97,5,1.2620001,1.212,0.351,0.074,0.28442514,0,nan,0.0,4,1,17
464076232,1630026871599840,340320574,1087634890,431229,403326,0.19000001,0.24069765,0.638,0.96900004,0.68,1.22,97,4,0.71500003,0.61300004,0.367,0.09900001,0.3632744,0,nan,0.0,4,1,16
465082931,1630026872599841,340320602,1087634917,431304,403402,0.18400002,0.14250386,0.63600004,0.96000004,0.61,0.98999995,97,4,0.89400005,0.851,0.27400002,-0.032,0.35013574,0,nan,0.0,4,1,18
466080931,1630026873599841,340320720,1087634958,431299,403396,0.17,0.107670926,0.632,0.9480001,0.68,1.22,98,4,1.171,1.113,0.36200002,-0.132,0.27267697,0,nan,0.0,4,1,16
467085288,1630026874599841,340320747,1087634988,431295,403393,0.133,0.591584,0.628,0.94200003,0.61,0.98999995,98,6,0.257,0.087000005,0.24200001,-0.053000003,1.1699293,0,nan,0.0,4,1,18
468072313,1630026875599842,340320750,1087635003,431292,403390,0.185,0.591624,0.62,0.92800003,0.63,1.09,98,4,0.08800001,0.080000006,0.036000002,0.054,1.1699293,0,nan,0.0,4,1,17
469074927,1630026876599842,340320837,1087635019,431157,403254,0.163,0.077284575,0.614,0.91800004,0.68,1.22,98,4,1.5790001,1.5630001,0.224,0.031000001,0.15550168,0,nan,0.0,4,1,16
470075937,1630026877599843,340320961,1087635054,431105,403203,0.194,0.099915385,0.61800003,0.93100005,0.68,1.22,104,5,1.3390001,1.286,0.374,0.053000003,0.26846617,0,nan,0.0,4,1,16
471072940,1630026878599843,340321058,1087635090,430994,403091,0.19600001,0.12208613,0.62100005,0.93200004,0.65,1.2099999,104,6,1.174,1.1110001,0.38000003,-0.032,0.2807587,0,nan,0.0,4,1,17
472074945,1630026879599843,340321160,1087635129,430971,403068,0.19600001,0.11690791,0.62600005,0.947,0.65,1.2099999,104,7,1.1240001,1.07,0.344,0.104,0.29822442,0,nan,0.0,4,1,17
473073022,1630026880599844,340321219,1087635166,430943,403040,0.15200001,0.7514676,0.634,0.97300005,0.65,1.2099999,104,5,0.26700002,0.11400001,0.24100001,0.006,0.65098226,0,nan,0.0,4,1,17
474073992,1630026881599844,340321228,1087635191,430830,402927,0.165,0.5944124,0.63500005,0.98200005,0.65,1.2099999,104,4,0.29000002,0.106000006,0.27,0.094000004,1.118857,0,nan,0.0,4,1,17
475076013,1630026882599844,340321259,1087635201,430719,402816,0.20400001,0.18350688,0.638,0.99200004,0.65,1.2099999,104,4,0.725,0.725,-0.025,0.043,0.02184454,0,nan,0.0,4,1,17
476073934,1630026883599845,340321295,1087635221,430683,402780,0.15100001,0.5176243,0.64400005,1.008,0.65,1.2099999,104,4,0.101,0.054,0.085,-0.032,0.3674906,0,nan,0.0,4,1,17
477074435,1630026884599845,340321309,1087635167,430622,402719,0.162,0.29954597,0.64900005,1.01,0.65,1.2099999,104,4,0.70600003,0.20300001,-0.67700005,-0.013,5.0113664,0,nan,0.0,4,1,17
478075932,1630026885599845,340321326,1087635110,430602,402699,0.132,0.16758075,0.65400004,1.0220001,0.65,1.2099999,104,4,1.1190001,0.23600002,-1.0940001,0.044000003,4.9372926,0,nan,0.0,4,1,17
479078933,1630026886599846,340321341,1087634994,430655,402753,0.14600001,0.22025146,0.66,1.0370001,0.65,1.2099999,104,4,0.88000005,0.083000004,-0.87600005,0.081,4.815934,0,nan,0.0,4,1,17
480068169,1630026887599846,340321358,1087634935,430659,402756,0.21400002,0.686494,0.666,1.065,0.65,1.22,104,4,0.136,0.128,-0.045,0.042000003,5.194973,0,nan,0.0,4,1,17
481073663,1630026888599846,340321371,1087634922,430794,402892,0.155,0.32377654,0.66200006,1.07,0.65,1.22,104,5,0.558,0.18400002,-0.527,-0.08400001,5.104316,0,nan,0.0,4,1,17
482074951,1630026889599847,340321395,1087634858,430779,402876,0.177,0.7426446,0.67,1.095,0.65,1.22,104,5,0.14500001,0.124000005,-0.075,-0.07300001,5.129161,0,nan,0.0,4,1,17
483073929,1630026890599847,340321406,1087634835,430873,402970,0.14600001,0.21236451,0.674,1.1110001,0.65,1.22,104,4,0.841,0.13000001,-0.83100003,0.023000002,4.8987684,0,nan,0.0,4,1,17
484072016,1630026891599847,340321418,1087634752,430857,402954,0.18200001,0.58772653,0.683,1.1370001,0.65,1.22,104,5,0.094000004,0.080000006,-0.048,-0.017,4.8921494,0,nan,0.0,4,1,17
485074946,1630026892599848,340321422,1087634754,431007,403104,0.26500002,0.58777344,0.689,1.1550001,0.65,1.22,104,4,0.052,-0.007,0.051000003,-0.120000005,4.8921494,0,nan,0.0,4,1,17
486075156,1630026893599848,340321431,1087634755,430980,403077,0.185,0.58782196,0.70100003,1.1910001,0.65,1.22,104,3,0.052,0.037,0.036000002,0.0,4.8921494,0,nan,0.0,4,1,17
487074930,1630026894599848,340321436,1087634754,430864,402961,0.18900001,0.58787346,0.71000004,1.217,0.65,1.22,104,5,0.091000006,-0.08800001,0.023000002,0.051000003,4.8921494,0,nan,0.0,4,1,17
488073722,1630026895599849,340321431,1087634756,430757,402855,0.16700001,0.7649186,0.71300006,1.228,0.65,1.22,104,4,0.21000001,-0.17500001,0.117000006,0.039,3.367966,0,nan,0.0,4,1,17
489070850,1630026896599849,340321417,1087634773,430775,402872,0.16100001,0.604345,0.71500003,1.2360001,0.65,1.22,104,4,0.28500003,-0.15200001,0.24100001,-0.033,2.2798047,0,nan,0.0,4,1,17
490073933,1630026897599849,340321400,1087634783,430888,402986,0.21100001,0.7036509,0.71500003,1.243,0.65,1.22,104,4,0.18900001,-0.18800001,-0.012,-0.032,2.8878102,0,nan,0.0,4,1,17
491068948,1630026898599850,340321382,1087634754,430933,403031,0.12900001,0.26557207,0.708,1.228,0.65,1.22,104,5,0.65300006,-0.16700001,-0.632,-0.035,4.4259605,0,nan,0.0,4,1,17
492074124,1630026899599850,340321353,1087634688,431453,403550,0.13900001,0.2861804,0.707,1.2320001,0.61,1.0799999,104,5,0.62,-0.15400001,-0.601,-0.061000004,4.4910107,0,nan,0.0,4,1,18
493075929,1630026900599850,340321310,1087634611,432294,404391,0.133,0.18079585,0.81700003,1.4150001,0.61,1.0799999,104,4,0.818,-0.16100001,-0.80200005,0.036000002,4.494851,0,nan,0.0,4,1,18
494073121,1630026901599851,340321280,1087634519,432940,405037,0.13900001,0.19751419,0.76600003,1.314,0.61,1.0799999,104,4,0.78700006,-0.042000003,-0.785,-0.028,4.6369653,0,nan,0.0,4,1,18
495071513,1630026902599851,340321272,1087634415,433327,405424,0.14400001,0.26187092,0.671,1.1500001,0.61,1.0799999,104,4,0.71400005,0.12200001,-0.703,-0.127,4.7567563,0,nan,0.0,4,1,18
496074924,1630026903599851,340321283,1087634338,433375,405472,0.148,0.36632034,0.674,1.159,0.65,1.22,104,5,0.513,0.125,-0.49800003,-0.061000004,4.895065,0,nan,0.0,4,1,17
497074959,1630026904599852,340321290,1087634239,433581,405678,0.13100001,0.159669,0.671,1.154,0.61,1.0799999,104,6,1.1220001,0.052,-1.121,0.108,4.81186,0,nan,0.0,4,1,18
498072202,1630026905599852,340321295,1087634169,433958,406055,0.178,0.40366077,0.67300004,1.1630001,0.61,1.0799999,104,4,0.080000006,-0.022000002,-0.07700001,-0.017,5.1567287,0,nan,0.0,4,1,18
499073931,1630026906599853,340321291,1087634164,434192,406290,0.14500001,0.40372363,0.67,1.1620001,0.61,1.0799999,104,3,0.18200001,0.16600001,-0.075,-0.041,5.1567287,0,nan,0.0,4,1,18
500073490,1630026907599853,340321301,1087634166,434271,406368,0.136,0.4037793,0.671,1.1750001,0.65,1.22,104,7,0.096,0.063,0.072000004,-0.007,5.1567287,0,nan,0.0,4,1,17
501077255,1630026908599853,340321310,1087634176,434386,406483,0.171,0.40384018,0.67200005,1.1800001,0.61,1.0799999,104,6,0.135,0.102000006,0.08800001,0.028,5.1567287,0,nan,0.0,4,1,18
502072943,1630026909599854,340321309,1087634177,434466,406563,0.28300002,0.40392154,0.67700005,1.194,0.58,0.97999996,104,6,0.11400001,0.096,-0.063,0.18100001,5.1567287,0,nan,0.0,4,1,19
503071979,1630026910599854,340321310,1087634172,434209,406307,0.264,0.40400848,0.683,1.21,0.65,1.22,104,4,0.05,-0.033,-0.038000003,0.19500001,5.1567287,0,nan,0.0,4,1,17
504074019,1630026911599854,340321310,1087634169,433832,405929,0.26700002,0.40410253,0.689,1.215,0.65,1.22,104,5,0.086,0.003,-0.086,0.261,5.1567287,0,nan,0.0,4,1,17
505080610,1630026912599855,340321310,1087634168,433463,405560,0.277,0.40420568,0.69000006,1.2270001,0.65,1.22,104,5,0.016,-0.008,0.014,0.208,5.1567287,0,nan,0.0,4,1,17
506074075,1630026913599855,340321309,1087634173,433283,405380,0.29200003,0.40429348,0.697,1.25,0.65,1.22,104,4,0.014,0.002,0.014,-0.081,5.1567287,0,nan,0.0,4,1,17
507074938,1630026914599855,340321311,1087634176,433244,405341,0.13000001,0.40438318,0.70600003,1.2780001,0.65,1.22,104,4,0.042000003,0.001,-0.042000003,0.004,5.1567287,0,nan,0.0,4,1,17
508075189,1630026915599856,340321305,1087634171,433354,405451,0.273,0.40446362,0.71400005,1.304,0.61,1.0799999,104,4,0.102000006,0.021000002,-0.1,0.201,5.1567287,0,nan,0.0,4,1,18
509069960,1630026916599856,340321303,1087634168,433120,405217,0.277,0.4045568,0.721,1.32,0.65,1.22,104,6,0.061000004,-0.001,0.061000004,0.23300001,5.1567287,0,nan,0.0,4,1,17
510073324,1630026917599856,340321307,1087634174,432774,404871,0.26000002,0.40465772,0.72200006,1.314,0.65,1.22,104,6,0.05,0.003,0.05,0.13000001,5.1567287,0,nan,0.0,4,1,17
511072988,1630026918599857,340321314,1087634174,432715,404812,0.155,0.4047181,0.72700006,1.3260001,0.65,1.22,104,6,0.054,0.040000003,-0.037,-0.024,5.1567287,0,nan,0.0,4,1,17
512074941,1630026919599857,340321319,1087634173,432706,404803,0.314,0.4047916,0.73700005,1.3520001,0.77,1.4399999,104,4,0.052,0.034,-0.039,0.22000001,5.1567287,0,nan,0.0,4,1,16
513075028,1630026920599857,340321322,1087634171,432679,404776,0.30600002,0.40488812,0.74500006,1.376,0.65,1.22,104,3,0.058000002,0.051000003,-0.028,0.093,5.1567287,0,nan,0.0,4,1,17
514074931,1630026921599858,340321323,1087634168,432465,404562,0.29900002,0.4049881,0.754,1.404,0.65,1.22,104,4,0.032,-0.013,-0.030000001,0.19500001,5.1567287,0,nan,0.0,4,1,17
515075159,1630026922599858,340321322,1087634170,432089,404186,0.25300002,0.7578389,0.748,1.3690001,0.65,1.22,104,5,0.046000004,-0.039,0.025,0.46,4.7311363,0,nan,0.0,4,1,17
516076015,1630026923599858,340321306,1087634171,432062,404159,0.24800001,0.7578825,0.74600005,1.3590001,0.65,1.22,104,4,0.10700001,-0.10700001,0.007,0.305,4.7311363,0,nan,0.0,4,1,17
517073931,1630026924599859,340321285,1087634165,432261,404358,0.257,0.75792545,0.74200004,1.348,0.59999996,1.04,104,3,0.039,0.026,-0.029000001,0.082,4.7311363,0,nan,0.0,4,1,18
518074960,1630026925599859,340321266,1087634158,432738,404835,0.22100002,0.7579645,0.74,1.3460001,0.59999996,1.04,104,4,0.027,0.025,0.012,-0.033,4.7311363,0,nan,0.0,4,1,18
519073358,1630026926599859,340321256,1087634153,433104,405201,0.284,0.75800437,0.744,1.3620001,0.59999996,1.04,104,4,0.016,-0.001,0.015000001,-0.047000002,4.7311363,0,nan,0.0,4,1,18
520068931,1630026927599860,340321238,1087634147,433475,405572,0.29700002,0.75804836,0.753,1.388,0.59999996,1.04,103,3,0.051000003,-0.044000003,0.025,-0.083000004,4.7311363,0,nan,0.0,4,1,18
521073956,1630026928599860,340321221,1087634140,433871,405969,0.31100002,0.75810295,0.75600004,1.3980001,0.59999996,1.04,103,4,0.044000003,-0.044000003,0.007,-0.101,4.7311363,0,nan,0.0,4,1,18
522073961,1630026929599860,340321217,1087634134,433952,406049,0.28500003,0.7581495,0.75600004,1.3970001,0.65,1.22,103,4,0.021000002,0.021000002,0.002,0.021000002,4.7311363,0,nan,0.0,4,1,17
