timestamp,x,y,z,yaw,yawspeed,vx,vy,vz,acceleration[0],acceleration[1],acceleration[2],jerk[0],jerk[1],jerk[2],thrust[0],thrust[1],thrust[2]
233170388,-12.008967,1.8758068,-1.0125366,0.23691006,0.7853982,0.037660703,0.0021153595,0.22314806,-0.14508401,0.58158135,0.63212466,0.0,0.0,0.0,-0.0070587327,0.028295517,-0.477126
233200259,-12.007878,1.8758668,-1.0060031,0.23691006,0.0,0.035735197,0.0012902671,0.22133999,-0.276016,0.62831324,0.3703419,0.0,0.0,0.0,-0.013812082,0.031441342,-0.49074018
233259793,-12.005881,1.8759751,-0.9931897,0.23691006,0.0,0.02971081,0.0003520404,0.2031478,-0.21789658,0.6017033,-0.2712434,0.0,0.0,0.0,-0.0116452845,0.03215749,-0.52410614
233359137,-12.003211,1.8761173,-0.9749413,0.23691006,0.0,0.020127423,0.0006065275,0.12682647,-0.24939136,0.6943557,-1.4315745,0.0,0.0,0.0,-0.014863041,0.041381694,-0.58444977
233458484,-12.001413,1.8762094,-0.96415246,0.23691006,0.0,0.011959241,0.0048355376,0.0043211207,-0.19647528,0.69410634,-2.0845013,0.0,0.0,0.0,-0.012389821,0.043770667,-0.6184056
233557831,-12.000481,1.876252,-0.9612975,0.23691006,0.0,0.003983647,0.007330648,-0.096994504,-0.23253506,0.7607177,-1.8777287,0.0,0.0,0.0,-0.014408647,0.047136597,-0.60765225
233657171,-12.000447,1.876244,-0.96294504,0.23691006,0.0,-0.0033395307,0.005806975,-0.15279767,-0.1919193,0.6733337,-1.4831544,0.0,0.0,0.0,-0.011490551,0.040313683,-0.5871322
233756582,-12.000908,1.8762038,-0.9654936,0.23691006,0.0,0.000740089,0.0038886198,-0.17361581,-0.110375285,0.69447464,-1.4014261,0.0,0.0,0.0,-0.0065604234,0.041277792,-0.58288187
233855861,-12.001334,1.8761655,-0.96791345,0.23691006,0.0,0.009229146,-0.00040305316,-0.18476468,-0.026030324,0.6662891,-1.3850143,0.0,0.0,0.0,-0.0015448976,0.039544206,-0.5820284
233955208,-12.00174,1.8761294,-0.97020257,0.23691006,0.0,0.017775401,-0.0034391193,-0.19731128,-0.039149366,0.6180924,-1.4588423,0.0,0.0,0.0,-0.0023388288,0.036925565,-0.5858678
234059516,-12.002147,1.8760934,-0.9724947,0.23691006,0.0,0.027676452,-0.006155828,-0.21620756,-0.016994033,0.72475576,-1.5274155,0.0,0.0,0.0,-0.0010214277,0.043561503,-0.589434
234158860,-12.002516,1.8760608,-0.9745636,0.23691006,0.0,0.036140613,-0.008540492,-0.23155731,0.015115079,0.6550185,-1.5495316,0.0,0.0,0.0,0.000910291,0.03944786,-0.5905842
234258205,-12.002863,1.8760298,-0.97653145,0.23691006,0.0,0.043687854,-0.011310062,-0.24087828,0.00031777844,0.6227187,-1.5693886,0.0,0.0,0.0,1.9171082e-05,0.037567656,-0.59161687
234372451,-12.003238,1.8759961,-0.97867477,0.23691006,0.0,0.051093865,-0.013380531,-0.24808997,0.0068666814,0.5897751,-1.5103823,0.0,0.0,0.0,0.00041210235,0.035395224,-0.58854824
234471795,-12.003549,1.8759682,-0.9804389,0.23691006,0.0,0.056877125,-0.015112566,-0.25046146,0.027670503,0.6270283,-1.4399266,0.0,0.0,0.0,0.001650314,0.03739699,-0.5848841
234571241,-12.003845,1.8759419,-0.9821168,0.23691006,0.0,0.061268773,-0.015930386,-0.25231093,0.005579101,0.6629643,-1.4432201,0.0,0.0,0.0,0.00033284945,0.039552484,-0.5850554
234670484,-12.0041275,1.8759168,-0.9837067,0.23691006,0.0,0.064956665,-0.015807763,-0.25493103,0.036316488,0.6403207,-1.4079932,0.0,0.0,0.0,0.002159818,0.03808122,-0.5832234
234749961,-12.004347,1.8758975,-0.98494,0.23691006,0.0,0.0671757,-0.0155098215,-0.25518012,-0.0022380874,0.6802383,-1.3844047,0.0,0.0,0.0,-0.00013282378,0.04037011,-0.5819967
234859241,-12.004623,1.8758726,-0.98652875,0.23691006,0.0,0.07129527,-0.015595148,-0.25394988,0.0035861656,0.6450665,-1.3591893,0.0,0.0,0.0,0.00021234724,0.03819625,-0.5806853
234958582,-12.004863,1.875851,-0.98790395,0.23691006,0.0,0.07350457,-0.014892796,-0.25144368,-0.018437125,0.69990546,-1.3418009,0.0,0.0,0.0,-0.0010900083,0.04137862,-0.57978106
235057927,-12.00509,1.8758307,-0.98921436,0.23691006,0.0,0.074735545,-0.01469568,-0.24888366,0.018261943,0.68996114,-1.338063,0.0,0.0,0.0,0.0010793034,0.04077756,-0.5795867
235172172,-12.005337,1.8758084,-0.99063694,0.23691006,0.0,0.075150944,-0.013868684,-0.24351197,-0.023327898,0.6963231,-1.3138921,0.0,0.0,0.0,-0.0013757371,0.04106489,-0.5783296
235271517,-12.005543,1.8757898,-0.9918142,0.23691006,0.0,0.07615638,-0.013416537,-0.23703158,-0.007993145,0.67749614,-1.3198359,0.0,0.0,0.0,-0.00047164017,0.039976053,-0.57863873
235370972,-12.005736,1.8757722,-0.99292845,0.23691006,0.0,0.07641059,-0.0129611315,-0.23218435,-0.013566107,0.713884,-1.3002291,0.0,0.0,0.0,-0.0007990512,0.042048164,-0.5776191
235450337,-12.005887,1.875759,-0.9937815,0.23691006,0.0,0.076253876,-0.01312539,-0.22901553,-0.009761759,0.6820695,-1.3050857,0.0,0.0,0.0,-0.0005752333,0.040192455,-0.5778717
235559617,-12.006084,1.8757415,-0.9949041,0.23691006,0.0,0.07514614,-0.0129548535,-0.2231139,-0.035691984,0.69255966,-1.32642,0.0,0.0,0.0,-0.0021072505,0.040888637,-0.57898116
235659116,-12.006254,1.8757265,-0.995867,0.23691006,0.0,0.073539875,-0.012881416,-0.21977758,-0.05279521,0.71535903,-1.3078467,0.0,0.0,0.0,-0.0031118102,0.042164084,-0.57801527
235758305,-12.006415,1.8757123,-0.99678254,0.23691006,0.0,0.07160118,-0.012521233,-0.21562022,-0.028251538,0.6864975,-1.3258532,0.0,0.0,0.0,-0.0016678625,0.040528182,-0.57895166
235857650,-12.00657,1.8756986,-0.99765146,0.23691006,0.0,0.069822095,-0.01177224,-0.20915437,-0.077133775,0.6576357,-1.3374581,0.0,0.0,0.0,-0.0045584156,0.038864646,-0.5795552
235971898,-12.006741,1.8756837,-0.9986021,0.23691006,0.0,0.06695398,-0.010873842,-0.20109773,-0.042017184,0.69258296,-1.2891003,0.0,0.0,0.0,-0.0024723932,0.040753264,-0.5770403
236071241,-12.00688,1.8756715,-0.9993841,0.23691006,0.0,0.06415789,-0.0103005795,-0.19231588,-0.08130324,0.6898483,-1.2762904,0.0,0.0,0.0,-0.0047784336,0.040544447,-0.5763742
236170666,-12.007012,1.8756598,-1.0001266,0.23691006,0.0,0.061301354,-0.0097013535,-0.18232507,-0.07889253,0.7197354,-1.1953094,0.0,0.0,0.0,-0.0046028937,0.04199213,-0.5721627
236259994,-12.007127,1.8756498,-1.0007635,0.23691006,0.0,0.058841657,-0.008935962,-0.17246562,-0.074438766,0.6724938,-1.1593953,0.0,0.0,0.0,-0.0043288306,0.03910747,-0.570295
236359375,-12.007242,1.8756393,-1.0014405,0.23691006,0.0,0.055146117,-0.008422417,-0.16325033,-0.07090594,0.65448153,-1.1886585,0.0,0.0,0.0,-0.0041344385,0.03816202,-0.5718168
236458815,-12.00735,1.8756292,-1.0020812,0.23691006,0.0,0.05030956,-0.0077846334,-0.15428507,-0.11404167,0.716025,-1.1833999,0.0,0.0,0.0,-0.006646514,0.041730974,-0.57154334
236572931,-12.007466,1.8756183,-1.00278,0.23691006,0.0,0.04435938,-0.007834809,-0.14296705,-0.0908147,0.68076646,-1.165401,0.0,0.0,0.0,-0.005284111,0.039610825,-0.5706073
236672274,-12.007562,1.8756093,-1.0033561,0.23691006,0.0,0.03887697,-0.008040028,-0.13392353,-0.11569231,0.6997914,-1.1799688,0.0,0.0,0.0,-0.006740535,0.04077167,-0.5713649
236771654,-12.007653,1.8756008,-1.0039027,0.23691006,0.0,0.035008006,-0.008622601,-0.1275478,-0.073760465,0.7113174,-1.1883078,0.0,0.0,0.0,-0.004300785,0.041475106,-0.57179856
236870963,-12.00774,1.8755927,-1.0044245,0.23691006,0.0,0.033024393,-0.009364293,-0.1224246,-0.046735972,0.67604584,-1.203779,0.0,0.0,0.0,-0.0027288634,0.039473593,-0.57260317
236950438,-12.007807,1.8755865,-1.00482,0.23691006,0.0,0.031916115,-0.009900848,-0.11818558,-0.098111756,0.7115058,-1.2189069,0.0,0.0,0.0,-0.005736609,0.041601848,-0.5733899
237074696,-12.007909,1.8755774,-1.0054107,0.23691006,0.0,0.030739117,-0.012286841,-0.11369288,-0.057722222,0.6910454,-1.2292309,0.0,0.0,0.0,-0.0033781717,0.04044318,-0.5739268
237154095,-12.00797,1.8755717,-1.005769,0.23691006,0.0,0.030382678,-0.013402734,-0.11041039,-0.05750927,0.72598076,-1.2228144,0.0,0.0,0.0,-0.0033637448,0.042462964,-0.5735931
237273466,-12.008058,1.8755636,-1.0062819,0.23691006,0.0,0.030542228,-0.015947402,-0.10575169,-0.068290666,0.7377117,-1.2122823,0.0,0.0,0.0,-0.0039905584,0.043108113,-0.5730454
237372655,-12.008124,1.8755577,-1.0066831,0.23691006,0.0,0.030520763,-0.017973911,-0.10218388,-0.021803513,0.66942567,-1.2327919,0.0,0.0,0.0,-0.0012764628,0.03919079,-0.574112
237471999,-12.00819,1.8755517,-1.0070665,0.23691006,0.0,0.03038939,-0.020320607,-0.097438276,-0.06574605,0.70313966,-1.2528379,0.0,0.0,0.0,-0.003855976,0.041238826,-0.5751545
237571341,-12.008252,1.8755457,-1.0074321,0.23691006,0.0,0.029712752,-0.023337258,-0.0933364,-0.064638585,0.71946853,-1.2478954,0.0,0.0,0.0,-0.0037893832,0.04217824,-0.57489747
237670685,-12.008311,1.8755404,-1.0077779,0.23691006,0.0,0.028528653,-0.027131885,-0.08927101,-0.052027922,0.6952004,-1.2375324,0.0,0.0,0.0,-0.0030471492,0.0407162,-0.5743585
237750161,-12.008357,1.8755363,-1.0080434,0.23691006,0.0,0.027249118,-0.03032955,-0.08533174,-0.07355294,0.64413625,-1.2953959,0.0,0.0,0.0,-0.004330412,0.03792337,-0.5773677
237859440,-12.008415,1.8755311,-1.0083905,0.23691006,0.0,0.02496734,-0.036834523,-0.07727319,-0.07189629,0.6532515,-1.2951281,0.0,0.0,0.0,-0.004232785,0.038459193,-0.57735384
237958784,-12.008467,1.8755265,-1.0086898,0.23691006,0.0,0.022573033,-0.042578302,-0.07129967,-0.06050713,0.6357481,-1.2831718,0.0,0.0,0.0,-0.0035584208,0.03738831,-0.57673204
238058188,-12.008517,1.8755224,-1.008975,0.23691006,0.0,0.019836666,-0.048867676,-0.065425575,-0.114404686,0.6465732,-1.3129833,0.0,0.0,0.0,-0.006746231,0.038127217,-0.57828236
238157473,-12.00856,1.8755182,-1.0092453,0.23691006,0.0,0.017409423,-0.054796416,-0.061438024,-0.11059597,0.65992004,-1.3001871,0.0,0.0,0.0,-0.0065141837,0.038869772,-0.57761693
238256818,-12.008603,1.875514,-1.0095028,0.23691006,0.0,0.015024801,-0.061303627,-0.058404684,-0.10216051,0.5940226,-1.3457805,0.0,0.0,0.0,-0.006041831,0.035130832,-0.579988
238371064,-12.008652,1.8755093,-1.0097827,0.23691006,0.0,0.012608285,-0.0673385,-0.057376146,-0.08399618,0.5992635,-1.3632988,0.0,0.0,0.0,-0.0049756104,0.035498064,-0.58089906
238470408,-12.00869,1.875506,-1.0100131,0.23691006,0.0,0.0107698105,-0.07251268,-0.057624698,-0.07945903,0.6004526,-1.3921735,0.0,0.0,0.0,-0.004719058,0.035660777,-0.5824007
238549884,-12.00872,1.8755035,-1.0101911,0.23691006,0.0,0.009409079,-0.075623885,-0.057716787,-0.097722545,0.63939697,-1.3891674,0.0,0.0,0.0,-0.0058019403,0.037961997,-0.5822444
238659162,-12.008761,1.8755,-1.010421,0.23691006,0.0,0.008190332,-0.07951439,-0.054760277,-0.09553169,0.60785836,-1.3817508,0.0,0.0,0.0,-0.0056681586,0.036065914,-0.5818587
238758554,-12.008797,1.875497,-1.01062,0.23691006,0.0,0.00720088,-0.08222971,-0.05295521,-0.09460965,0.60807204,-1.3723747,0.0,0.0,0.0,-0.0056087193,0.036048178,-0.58137107
238857876,-12.008826,1.875494,-1.0108094,0.23691006,0.0,0.007375237,-0.08457756,-0.049845576,-0.11209797,0.5552308,-1.3663908,0.0,0.0,0.0,-0.0066419207,0.032898,-0.5810599
238972125,-12.008861,1.8754909,-1.0110139,0.23691006,0.0,0.0075706774,-0.08739152,-0.043969214,-0.08990163,0.6412078,-1.3097348,0.0,0.0,0.0,-0.0052998187,0.037800036,-0.57811344
239071442,-12.008889,1.8754884,-1.0111841,0.23691006,0.0,0.008732646,-0.09084699,-0.03705871,-0.08440999,0.62784475,-1.2859602,0.0,0.0,0.0,-0.0049654203,0.03693299,-0.576877
239170787,-12.008918,1.875486,-1.0113453,0.23691006,0.0,0.009667477,-0.094410986,-0.030486405,-0.07648748,0.5706733,-1.2869298,0.0,0.0,0.0,-0.0044998825,0.033573635,-0.5769275
239270135,-12.008945,1.8754836,-1.0114993,0.23691006,0.0,0.010688524,-0.098051526,-0.02589488,-0.11200478,0.5512201,-1.315929,0.0,0.0,0.0,-0.0066065434,0.03251343,-0.5784356
239349626,-12.008966,1.8754817,-1.0116174,0.23691006,0.0,0.011440852,-0.10019162,-0.022875488,-0.11086139,0.57561594,-1.3108895,0.0,0.0,0.0,-0.0065359734,0.033936165,-0.57817346
239453918,-12.008993,1.8754792,-1.0117639,0.23691006,0.0,0.01334287,-0.10369366,-0.020735025,-0.08529813,0.60295266,-1.3011374,0.0,0.0,0.0,-0.005024476,0.03551685,-0.57766634
239573135,-12.009022,1.8754765,-1.0119225,0.23691006,0.0,0.015080064,-0.10706578,-0.020050466,-0.060880378,0.57831824,-1.2931163,0.0,0.0,0.0,-0.003583615,0.034041673,-0.57724917
239672544,-12.009046,1.8754741,-1.0120478,0.23691006,0.0,0.01620559,-0.10979772,-0.019945502,-0.06382168,0.5602613,-1.2841878,0.0,0.0,0.0,-0.0037536835,0.03295187,-0.57678485
239771821,-12.0090685,1.8754721,-1.0121666,0.23691006,0.0,0.017549502,-0.11245753,-0.022000134,-0.07010487,0.59226924,-1.2811507,0.0,0.0,0.0,-0.004122106,0.034824926,-0.5766269
239871165,-12.009088,1.8754709,-1.0122805,0.23691006,0.0,0.020243105,-0.11611198,-0.024035811,-0.071872786,0.5733774,-1.2964692,0.0,0.0,0.0,-0.004231878,0.03376053,-0.5774236
239970513,-12.009107,1.8754697,-1.0123875,0.23691006,0.0,0.0219751,-0.118845314,-0.024870872,-0.06427602,0.56543183,-1.3014103,0.0,0.0,0.0,-0.0037863296,0.03330809,-0.5776805
240059920,-12.009124,1.8754686,-1.0124798,0.23691006,0.0,0.023080008,-0.12137752,-0.025884807,-0.09803156,0.564166,-1.3228898,0.0,0.0,0.0,-0.0057859053,0.033297557,-0.5787976
240159265,-12.009141,1.8754673,-1.0125779,0.23691006,0.0,0.02436615,-0.123095125,-0.026836812,-0.07775812,0.60675144,-1.3128402,0.0,0.0,0.0,-0.0045852363,0.035778884,-0.57827497
240273510,-12.009158,1.875466,-1.012684,0.23691006,0.0,0.028043741,-0.12516357,-0.026178062,-0.09611823,0.57017756,-1.2740469,0.0,0.0,0.0,-0.0056480328,0.033504378,-0.57625747
240372855,-12.009172,1.8754648,-1.0127717,0.23691006,0.0,0.03046488,-0.12618227,-0.025369585,-0.04833754,0.57988864,-1.2699519,0.0,0.0,0.0,-0.0028393674,0.034062903,-0.5760445
240472230,-12.009187,1.8754636,-1.0128553,0.23691006,0.0,0.032721724,-0.12688334,-0.025250971,-0.09966435,0.57178384,-1.288693,0.0,0.0,0.0,-0.0058642076,0.033643514,-0.57701916
240571544,-12.009198,1.8754624,-1.0129344,0.23691006,0.0,0.034541722,-0.12712714,-0.02621448,-0.106007926,0.6160277,-1.3253956,0.0,0.0,0.0,-0.006258065,0.03636654,-0.5789279
240670890,-12.009208,1.8754612,-1.0130101,0.23691006,0.0,0.03744172,-0.12790705,-0.028870046,-0.0763856,0.6629431,-1.355563,0.0,0.0,0.0,-0.0045216396,0.039242867,-0.5804968
240770402,-12.009217,1.87546,-1.0130817,0.23691006,0.0,0.040791404,-0.1281377,-0.031011522,-0.06903699,0.6024429,-1.3785077,0.0,0.0,0.0,-0.0040950007,0.035734527,-0.58169
240859660,-12.009227,1.875459,-1.0131431,0.23691006,0.0,0.044885844,-0.12894599,-0.031950057,-0.056014452,0.594836,-1.4064102,0.0,0.0,0.0,-0.0033309087,0.035372023,-0.5831411
240958988,-12.009236,1.8754579,-1.0132078,0.23691006,0.0,0.048854396,-0.1287916,-0.031620443,-0.08112959,0.65239024,-1.384962,0.0,0.0,0.0,-0.0048150304,0.038719274,-0.58202565
241058342,-12.009246,1.8754573,-1.0132698,0.23691006,0.0,0.05362835,-0.12909538,-0.030410111,-0.028370831,0.6157195,-1.3401952,0.0,0.0,0.0,-0.001677055,0.036396377,-0.57969755
241157711,-12.009255,1.8754567,-1.0133283,0.23691006,0.0,0.056928158,-0.12855884,-0.02966851,-0.04098032,0.5792604,-1.3738989,0.0,0.0,0.0,-0.0024297999,0.034345433,-0.58145034
241257021,-12.009265,1.8754561,-1.0133846,0.23691006,0.0,0.060271554,-0.12892127,-0.027989268,-0.02195833,0.6192546,-1.3494353,0.0,0.0,0.0,-0.0012991036,0.03663648,-0.5801781
241371267,-12.009275,1.8754553,-1.0134455,0.23691006,0.0,0.062232055,-0.12899706,-0.024501383,-0.070717074,0.57763976,-1.3661132,0.0,0.0,0.0,-0.0041899905,0.034225184,-0.58104545
241470623,-12.009285,1.8754547,-1.0134958,0.23691006,0.0,0.06389578,-0.12985772,-0.022822857,-0.031256035,0.57737577,-1.338637,0.0,0.0,0.0,-0.0018473555,0.034125194,-0.5796165
241550118,-12.009293,1.8754542,-1.0135342,0.23691006,0.0,0.064547315,-0.13039504,-0.023589194,-0.0691428,0.54658836,-1.3602871,0.0,0.0,0.0,-0.0040945704,0.03236844,-0.5807424
241654399,-12.009301,1.8754535,-1.013582,0.23691006,0.0,0.06583462,-0.13131146,-0.025241911,-0.05160992,0.53564566,-1.3472958,0.0,0.0,0.0,-0.0030527364,0.03168354,-0.5800668
241773614,-12.009311,1.8754528,-1.0136341,0.23691006,0.0,0.065506406,-0.13274008,-0.02953744,-0.08192987,0.5322335,-1.3927888,0.0,0.0,0.0,-0.0048660124,0.031610627,-0.5824327
241872958,-12.0093155,1.8754522,-1.0136749,0.23691006,0.0,0.06521031,-0.13486089,-0.032899797,-0.101699695,0.52884585,-1.3940766,0.0,0.0,0.0,-0.006040871,0.031412974,-0.5824997
241972302,-12.00932,1.8754516,-1.0137137,0.23691006,0.0,0.064686336,-0.13722171,-0.035288632,-0.085158676,0.56965756,-1.3742039,0.0,0.0,0.0,-0.005049426,0.03377746,-0.5814662
242071646,-12.009325,1.875451,-1.0137504,0.23691006,0.0,0.06353547,-0.13904007,-0.036153316,-0.11608113,0.54781437,-1.3739394,0.0,0.0,0.0,-0.0068827188,0.032481182,-0.5814524
242170991,-12.00933,1.8754504,-1.0137857,0.23691006,0.0,0.06101833,-0.14047906,-0.035666823,-0.12410013,0.6014682,-1.362425,0.0,0.0,0.0,-0.007350599,0.035625685,-0.58085364
242270335,-12.009335,1.8754498,-1.013819,0.23691006,0.0,0.05765484,-0.14163734,-0.0338068,-0.11089284,0.56318235,-1.3412666,0.0,0.0,0.0,-0.0065559167,0.033294998,-0.5797533
242359792,-12.009339,1.8754493,-1.0138477,0.23691006,0.0,0.054280724,-0.14245611,-0.03151667,-0.14681485,0.5446,-1.3417665,0.0,0.0,0.0,-0.008679859,0.032197367,-0.57977927
242474015,-12.009345,1.8754487,-1.0138823,0.23691006,0.0,0.049743563,-0.14307529,-0.02851528,-0.109598815,0.5279978,-1.3389807,0.0,0.0,0.0,-0.0064779073,0.031207643,-0.57963437
242573337,-12.00935,1.8754481,-1.0139109,0.23691006,0.0,0.045475308,-0.14320181,-0.025837421,-0.11597558,0.568558,-1.3539503,0.0,0.0,0.0,-0.0068642045,0.033651035,-0.58041286
242672681,-12.009355,1.8754475,-1.0139383,0.23691006,0.0,0.041473106,-0.14323176,-0.023788571,-0.12119305,0.5339154,-1.3928013,0.0,0.0,0.0,-0.007197929,0.031710442,-0.58243334
242772026,-12.009359,1.8754469,-1.0139645,0.23691006,0.0,0.038309995,-0.14307553,-0.022883832,-0.112087294,0.5701636,-1.4023327,0.0,0.0,0.0,-0.00666275,0.033891957,-0.582929
242871371,-12.009364,1.8754463,-1.013989,0.23691006,0.0,0.036263935,-0.14232811,-0.022663057,-0.13483822,0.5213787,-1.4082011,0.0,0.0,0.0,-0.008019262,0.031008065,-0.58323425
242970714,-12.009369,1.8754457,-1.0140126,0.23691006,0.0,0.034275044,-0.14142601,-0.023126006,-0.14941101,0.59128493,-1.3839213,0.0,0.0,0.0,-0.008866821,0.035089903,-0.5819715
243050191,-12.009373,1.8754452,-1.0140305,0.23691006,0.0,0.033263285,-0.1408398,-0.02447015,-0.089898884,0.6017578,-1.3493186,0.0,0.0,0.0,-0.005318446,0.035600185,-0.580172
243159541,-12.0093775,1.8754447,-1.0140537,0.23691006,0.0,0.031729035,-0.14001709,-0.023902714,-0.09893038,0.5589108,-1.3604801,0.0,0.0,0.0,-0.005858555,0.033098124,-0.5807525
243253846,-12.009381,1.8754442,-1.0140729,0.23691006,0.0,0.030829491,-0.14014047,-0.018854678,-0.096794166,0.5642806,-1.3342189,0.0,0.0,0.0,-0.005718658,0.033338044,-0.5793868
243373060,-12.009387,1.8754442,-1.0140957,0.23691006,0.0,0.030642107,-0.13962433,-0.010186434,-0.099561706,0.5169254,-1.3317418,0.0,0.0,0.0,-0.0058809617,0.030534014,-0.5792579
243472404,-12.009392,1.8754442,-1.0141138,0.23691006,0.0,0.031385683,-0.13973622,-0.0017025471,-0.1102638,0.60097784,-1.2966828,0.0,0.0,0.0,-0.0064925486,0.035386756,-0.57743466
243571749,-12.009397,1.8754442,-1.0141311,0.23691006,0.0,0.03200326,-0.13907145,0.006530404,-0.06176929,0.60989314,-1.2346239,0.0,0.0,0.0,-0.0036167852,0.035711154,-0.57420725
243671096,-12.009401,1.8754442,-1.0141476,0.23691006,0.0,0.032838337,-0.13796206,0.012271643,-0.08884406,0.5593507,-1.2300537,0.0,0.0,0.0,-0.0051999623,0.032738287,-0.5739696
243770438,-12.009406,1.8754442,-1.0141634,0.23691006,0.0,0.033909928,-0.13639107,0.017120719,-0.09273364,0.5527706,-1.2350286,0.0,0.0,0.0,-0.0054300483,0.032367665,-0.5742283
243859861,-12.00941,1.875444,-1.014177,0.23691006,0.0,0.03543387,-0.13496628,0.020175219,-0.06586303,0.6143895,-1.217052,0.0,0.0,0.0,-0.0038502533,0.035916287,-0.57329345
243959196,-12.009414,1.875444,-1.0141914,0.23691006,0.0,0.036554378,-0.13261457,0.021931648,-0.043286238,0.5645205,-1.269245,0.0,0.0,0.0,-0.0025424173,0.03315711,-0.5760077
244058538,-12.009414,1.875444,-1.0142052,0.23691006,0.0,0.03799984,-0.13087913,0.02258718,-0.09659028,0.6136138,-1.3343422,0.0,0.0,0.0,-0.005706752,0.036253564,-0.57939315
244157882,-12.009414,1.875444,-1.0142183,0.23691006,0.0,0.03865027,-0.12859967,0.020966768,-0.07663933,0.5756817,-1.3771025,0.0,0.0,0.0,-0.0045453683,0.03414285,-0.58161694
244257349,-12.009414,1.875444,-1.0142307,0.23691006,0.0,0.03816371,-0.12654126,0.016120195,-0.0962501,0.5548416,-1.4737203,0.0,0.0,0.0,-0.0057577076,0.03319078,-0.5866416
244371473,-12.009415,1.8754439,-1.0142438,0.23691006,0.0,0.03707527,-0.12369486,0.009639263,-0.10279496,0.60088956,-1.4889576,0.0,0.0,0.0,-0.0061575077,0.035993807,-0.587434
244470816,-12.009415,1.8754439,-1.0142542,0.23691006,0.0,0.036169123,-0.121491045,0.0055173635,-0.11409572,0.6147942,-1.4645565,0.0,0.0,0.0,-0.006819749,0.036747582,-0.586165
244575134,-12.009416,1.8754438,-1.0142648,0.23691006,0.0,0.034486767,-0.119020075,0.0015816689,-0.11737697,0.6298092,-1.4556569,0.0,0.0,0.0,-0.0070104585,0.037615992,-0.5857022
244654605,-12.009416,1.8754438,-1.0142723,0.23691006,0.0,0.03327223,-0.11746959,-0.0021637678,-0.13590717,0.5695324,-1.4757864,0.0,0.0,0.0,-0.008131313,0.034075066,-0.586749
244773834,-12.009416,1.8754438,-1.0142832,0.23691006,0.0,0.030672928,-0.115419894,-0.007849216,-0.17449483,0.6176093,-1.4751542,0.0,0.0,0.0,-0.010439789,0.03695073,-0.5867162
244853294,-12.009416,1.8754438,-1.01429,0.23691006,0.0,0.028549286,-0.11482817,-0.011988997,-0.15315048,0.5721038,-1.4665307,0.0,0.0,0.0,-0.009156054,0.03420305,-0.5862677
244972508,-12.009416,1.8754438,-1.0142999,0.23691006,0.0,0.02457998,-0.113432266,-0.017037213,-0.16071859,0.568862,-1.4866254,0.0,0.0,0.0,-0.00962529,0.034068625,-0.5873127
245072015,-12.009416,1.8754438,-1.0143077,0.23691006,0.0,0.021379016,-0.11286579,-0.020428717,-0.16087574,0.63019127,-1.4305463,0.0,0.0,0.0,-0.009586954,0.037554536,-0.5843963
245171197,-12.009416,1.8754438,-1.0143151,0.23691006,0.0,0.018670041,-0.112211324,-0.022709727,-0.1690476,0.5656683,-1.4102222,0.0,0.0,0.0,-0.010055623,0.0336482,-0.58333933
245270543,-12.009416,1.8754438,-1.014322,0.23691006,0.0,0.016919753,-0.11179186,-0.023525357,-0.20834543,0.6127594,-1.3857082,0.0,0.0,0.0,-0.01236603,0.036369413,-0.58206445
245359951,-12.009417,1.8754437,-1.0143281,0.23691006,0.0,0.01484224,-0.11145188,-0.021327734,-0.17747992,0.5972907,-1.318492,0.0,0.0,0.0,-0.010470743,0.03523822,-0.5785689
245459314,-12.009417,1.8754437,-1.0143343,0.23691006,0.0,0.0126763685,-0.11186943,-0.01620394,-0.1874994,0.55931693,-1.2726831,0.0,0.0,0.0,-0.011016476,0.03286251,-0.57618654
245558641,-12.009417,1.8754437,-1.0143402,0.23691006,0.0,0.009301462,-0.11244439,-0.011089921,-0.23410437,0.5869102,-1.2563003,0.0,0.0,0.0,-0.013734441,0.034432862,-0.57533455
245672888,-12.009417,1.8754437,-1.0143465,0.23691006,0.0,0.0042017163,-0.11432523,-0.0078219175,-0.23552786,0.593557,-1.221704,0.0,0.0,0.0,-0.0137747275,0.034713883,-0.5735353
245772232,-12.009417,1.8754437,-1.0143517,0.23691006,0.0,-0.0002965501,-0.11638353,-0.005807042,-0.2299402,0.5518407,-1.2645926,0.0,0.0,0.0,-0.013500155,0.032399446,-0.5757658
245871693,-12.009417,1.8754437,-1.0143569,0.23691006,0.0,-0.004093861,-0.119746335,-0.00554049,-0.26684538,0.5309167,-1.2916082,0.0,0.0,0.0,-0.015705116,0.031246964,-0.5771707
245970920,-12.009417,1.8754437,-1.0143616,0.23691006,0.0,-0.007850957,-0.123191364,-0.0068331957,-0.22042686,0.54278266,-1.3045658,0.0,0.0,0.0,-0.012988303,0.031982604,-0.5778446
246070267,-12.009417,1.8754437,-1.0143664,0.23691006,0.0,-0.010831935,-0.12724455,-0.009879351,-0.20852926,0.528074,-1.3509437,0.0,0.0,0.0,-0.012338682,0.031246152,-0.5802565
246159675,-12.009418,1.8754436,-1.0143702,0.23691006,0.0,-0.013214308,-0.13095921,-0.013396621,-0.24028988,0.5288784,-1.4073894,0.0,0.0,0.0,-0.014289931,0.03145216,-0.583192
246259020,-12.009418,1.8754436,-1.0143744,0.23691006,0.0,-0.015149331,-0.1358006,-0.016421735,-0.24254192,0.5447852,-1.3894743,0.0,0.0,0.0,-0.014400569,0.03234582,-0.5822603
246358376,-12.009418,1.8754436,-1.0143784,0.23691006,0.0,-0.016586412,-0.13967326,-0.018791497,-0.19746767,0.5416691,-1.3808657,0.0,0.0,0.0,-0.011715424,0.032136314,-0.5818126
246457709,-12.009418,1.8754436,-1.0143822,0.23691006,0.0,-0.017331278,-0.14406845,-0.022536814,-0.19351706,0.5089331,-1.3893458,0.0,0.0,0.0,-0.011489602,0.030216658,-0.58225363
246557054,-12.009418,1.8754436,-1.0143858,0.23691006,0.0,-0.017905751,-0.14660387,-0.02517736,-0.20654279,0.4926907,-1.4180776,0.0,0.0,0.0,-0.012294476,0.029327456,-0.58374786
246656412,-12.009418,1.8754436,-1.0143894,0.23691006,0.0,-0.016414572,-0.14972478,-0.026626706,-0.23947364,0.5099212,-1.4142591,0.0,0.0,0.0,-0.0142498575,0.030342814,-0.58354926
246770649,-12.0094185,1.8754435,-1.0143933,0.23691006,0.0,-0.014702829,-0.15112399,-0.027615786,-0.18735614,0.513944,-1.3659937,0.0,0.0,0.0,-0.01110098,0.030451532,-0.5810392
246860055,-12.009419,1.8754433,-1.0143961,0.23691006,0.0,-0.012654611,-0.15309985,-0.026895523,-0.21334094,0.5049438,-1.3977374,0.0,0.0,0.0,-0.0126760695,0.03000222,-0.58269006
246959626,-12.009419,1.8754433,-1.014399,0.23691006,0.0,-0.010182418,-0.15445054,-0.025502443,-0.22487462,0.50153804,-1.432532,0.0,0.0,0.0,-0.013403316,0.029893426,-0.58449954
247073646,-12.009419,1.8754433,-1.0144025,0.23691006,0.0,-0.006111888,-0.15702291,-0.025689304,-0.19897562,0.5243941,-1.4630773,0.0,0.0,0.0,-0.011891732,0.031340294,-0.5860881
247172995,-12.009419,1.8754433,-1.0144054,0.23691006,0.0,-0.0030526991,-0.1585785,-0.027234077,-0.20433718,0.51341265,-1.5391723,0.0,0.0,0.0,-0.012294299,0.030890357,-0.59004545
247272334,-12.009419,1.8754433,-1.014408,0.23691006,0.0,-0.00028304115,-0.16007479,-0.027502894,-0.2178513,0.49692485,-1.5878063,0.0,0.0,0.0,-0.013163811,0.030027017,-0.5925747
247371684,-12.009419,1.8754433,-1.0144104,0.23691006,0.0,0.0024636847,-0.1609903,-0.028633058,-0.22840205,0.54537076,-1.577069,0.0,0.0,0.0,-0.013788322,0.032923292,-0.5920163
247471080,-12.009419,1.8754433,-1.0144128,0.23691006,0.0,0.005002023,-0.16171579,-0.028682053,-0.17464395,0.566911,-1.5705261,0.0,0.0,0.0,-0.01053699,0.034204077,-0.59167606
247570406,-12.009419,1.8754433,-1.0144151,0.23691006,0.0,0.008429129,-0.16254117,-0.029368222,-0.1514246,0.4952535,-1.5646571,0.0,0.0,0.0,-0.009131401,0.029865412,-0.5913708
247659779,-12.00942,1.8754432,-1.0144173,0.23691006,0.0,0.0119986,-0.16313359,-0.029537141,-0.19393148,0.51242346,-1.5670955,0.0,0.0,0.0,-0.011697131,0.030907232,-0.5914976
247759260,-12.00942,1.8754432,-1.0144194,0.23691006,0.0,0.016015502,-0.16245681,-0.027750194,-0.14175336,0.56397384,-1.5202278,0.0,0.0,0.0,-0.008514759,0.033876456,-0.58906025
247853522,-12.009421,1.8754431,-1.0144213,0.23691006,0.0,0.020278592,-0.1613021,-0.023487449,-0.11490445,0.5751666,-1.4331317,0.0,0.0,0.0,-0.006849016,0.034283485,-0.5845308
247972715,-12.009421,1.8754431,-1.0144238,0.23691006,0.0,0.024441259,-0.15844806,-0.018197954,-0.12692681,0.6386659,-1.3930385,0.0,0.0,0.0,-0.0075384947,0.037931938,-0.5824457
248072062,-12.009422,1.8754431,-1.0144256,0.23691006,0.0,0.026892662,-0.15526761,-0.013821483,-0.15761474,0.6527389,-1.4106133,0.0,0.0,0.0,-0.009375941,0.03882912,-0.58335966
248171404,-12.009422,1.8754431,-1.0144274,0.23691006,0.0,0.029082322,-0.15131862,-0.009822845,-0.13198875,0.6018428,-1.3946232,0.0,0.0,0.0,-0.007840357,0.035750486,-0.5825281
248270829,-12.009422,1.8754431,-1.0144292,0.23691006,0.0,0.030883305,-0.14671981,-0.0056170225,-0.1400849,0.6952067,-1.3677046,0.0,0.0,0.0,-0.008301134,0.041196473,-0.5811282
248370093,-12.009422,1.8754431,-1.014431,0.23691006,0.0,0.032966953,-0.14177787,-0.0023448467,-0.11341529,0.6595188,-1.3669349,0.0,0.0,0.0,-0.0067203166,0.03907916,-0.5810882
248459503,-12.009423,1.875443,-1.0144325,0.23691006,0.0,0.03495879,-0.13784555,5.722046e-05,-0.15305926,0.68568045,-1.3814031,0.0,0.0,0.0,-0.009081123,0.040681947,-0.5818406
248559055,-12.009423,1.875443,-1.0144342,0.23691006,0.0,0.03661661,-0.1318241,0.0010296106,-0.12771843,0.73751646,-1.4065622,0.0,0.0,0.0,-0.0075946897,0.043855917,-0.583149
248673094,-12.009424,1.8754429,-1.0144359,0.23691006,0.0,0.03983746,-0.12478535,0.0007523298,-0.16639447,0.70311314,-1.4507998,0.0,0.0,0.0,-0.009933678,0.04197555,-0.5854496
248772444,-12.009424,1.8754429,-1.0144371,0.23691006,0.0,0.04208793,-0.118405595,0.0012257099,-0.16737723,0.6742731,-1.4815084,0.0,0.0,0.0,-0.010019565,0.04036345,-0.5870466
248871784,-12.009424,1.8754429,-1.0144383,0.23691006,0.0,0.044006836,-0.11215074,-9.095669e-05,-0.18671076,0.7117082,-1.468762,0.0,0.0,0.0,-0.01116415,0.042555753,-0.58638376
248971128,-12.009424,1.8754429,-1.0144395,0.23691006,0.0,0.04400558,-0.10586046,-0.0026364326,-0.17150094,0.70331186,-1.4641387,0.0,0.0,0.0,-0.010250612,0.042036954,-0.5861433
249070473,-12.009424,1.8754429,-1.0144407,0.23691006,0.0,0.042417392,-0.100352034,-0.0047496557,-0.19979064,0.707935,-1.4745327,0.0,0.0,0.0,-0.011952623,0.042352736,-0.58668387
249159886,-12.009425,1.8754427,-1.0144417,0.23691006,0.0,0.041140918,-0.095589355,-0.006140113,-0.1912438,0.7527119,-1.461522,0.0,0.0,0.0,-0.011427937,0.044978946,-0.58600724
249259228,-12.009425,1.8754427,-1.0144429,0.23691006,0.0,0.041180413,-0.091058835,-0.0071041584,-0.19285952,0.71387297,-1.4809715,0.0,0.0,0.0,-0.011544443,0.042731963,-0.58701867
249358647,-12.009425,1.8754427,-1.0144441,0.23691006,0.0,0.040548038,-0.08712096,-0.006821394,-0.18839116,0.75284266,-1.4600122,0.0,0.0,0.0,-0.011256026,0.044980977,-0.5859287
249457919,-12.009425,1.8754427,-1.0144453,0.23691006,0.0,0.04014818,-0.08416621,-0.00541234,-0.16530377,0.6753364,-1.4920565,0.0,0.0,0.0,-0.009904745,0.040465117,-0.58759516
249557262,-12.009425,1.8754427,-1.0144465,0.23691006,0.0,0.039494965,-0.081769295,-0.0040439367,-0.17294726,0.7365187,-1.4608005,0.0,0.0,0.0,-0.0103339795,0.04400861,-0.5859697
249671509,-12.009426,1.8754426,-1.0144477,0.23691006,0.0,0.04052232,-0.0810469,-0.0032781363,-0.1545224,0.6982485,-1.4485132,0.0,0.0,0.0,-0.009223001,0.041676458,-0.58533067
249770875,-12.009426,1.8754426,-1.0144483,0.23691006,0.0,0.040909518,-0.08074498,-0.002075076,-0.19634044,0.6624488,-1.4497834,0.0,0.0,0.0,-0.011720389,0.039544363,-0.58539677
249870210,-12.009427,1.8754425,-1.014449,0.23691006,0.0,0.041238245,-0.081209645,-0.0017495155,-0.19704995,0.69343626,-1.4202483,0.0,0.0,0.0,-0.011731781,0.04128518,-0.58386075
249959607,-12.009428,1.8754424,-1.0144496,0.23691006,0.0,0.04059291,-0.08098461,-0.001573205,-0.16645055,0.646655,-1.461279,0.0,0.0,0.0,-0.009946243,0.03864083,-0.5859946
250058956,-12.009428,1.8754424,-1.0144502,0.23691006,0.0,0.040042832,-0.08094768,-0.00025868416,-0.21911183,0.69703364,-1.4691548,0.0,0.0,0.0,-0.013101958,0.04167965,-0.58640414
250158390,-12.009428,1.8754424,-1.0144508,0.23691006,0.0,0.039315183,-0.080544636,0.001044035,-0.13972932,0.6988948,-1.4861603,0.0,0.0,0.0,-0.008367994,0.041854832,-0.58728856
250272545,-12.009429,1.8754423,-1.0144515,0.23691006,0.0,0.039102882,-0.08003407,0.00011217594,-0.20019005,0.6807547,-1.5622551,0.0,0.0,0.0,-0.012069363,0.04104238,-0.5912459
250371897,-12.009429,1.8754423,-1.0144521,0.23691006,0.0,0.039224148,-0.08053861,-0.0028504133,-0.13591784,0.68041843,-1.5967404,0.0,0.0,0.0,-0.008219427,0.04114728,-0.59303933
250471233,-12.009429,1.8754423,-1.0144527,0.23691006,0.0,0.039790265,-0.082255706,-0.0064661503,-0.12636317,0.66605496,-1.6312277,0.0,0.0,0.0,-0.007664702,0.040400323,-0.59483284
250570577,-12.009429,1.8754423,-1.0144533,0.23691006,0.0,0.040027745,-0.083490565,-0.008828998,-0.13620836,0.6095406,-1.6189504,0.0,0.0,0.0,-0.008252968,0.036932524,-0.59419435
250659988,-12.00943,1.8754421,-1.0144538,0.23691006,0.0,0.040225152,-0.08464254,-0.010335207,-0.14352915,0.6122274,-1.5958892,0.0,0.0,0.0,-0.008679096,0.037020914,-0.59299505
250754365,-12.009431,1.875442,-1.0144542,0.23691006,0.0,0.04003256,-0.08554672,-0.011495829,-0.14078702,0.7023483,-1.4987183,0.0,0.0,0.0,-0.00844067,0.042108215,-0.58794165
250873579,-12.009431,1.875442,-1.014455,0.23691006,0.0,0.03967029,-0.086432956,-0.012262225,-0.1952206,0.70191944,-1.5083009,0.0,0.0,0.0,-0.01171415,0.042118456,-0.58844
250973094,-12.009431,1.875442,-1.0144556,0.23691006,0.0,0.039165538,-0.08736907,-0.01350975,-0.18601489,0.5865979,-1.5471721,0.0,0.0,0.0,-0.011199958,0.035319064,-0.5904615
251072268,-12.009431,1.875442,-1.0144562,0.23691006,0.0,0.03862093,-0.089170754,-0.016471565,-0.14363994,0.68400085,-1.5700399,0.0,0.0,0.0,-0.0086660655,0.04126705,-0.5916507
251171613,-12.009431,1.875442,-1.0144567,0.23691006,0.0,0.037670624,-0.08973361,-0.019088626,-0.15813175,0.68419236,-1.565956,0.0,0.0,0.0,-0.00953693,0.041263662,-0.59143835
251270977,-12.009431,1.875442,-1.0144573,0.23691006,0.0,0.036859665,-0.0903362,-0.01954025,-0.17849962,0.72132134,-1.5482093,0.0,0.0,0.0,-0.010748481,0.043434877,-0.59051543
251370302,-12.009431,1.875442,-1.014458,0.23691006,0.0,0.035212487,-0.08941007,-0.019249558,-0.2028023,0.77597076,-1.5300801,0.0,0.0,0.0,-0.012192367,0.046650954,-0.5895726
251459712,-12.009432,1.8754419,-1.0144584,0.23691006,0.0,0.033454373,-0.08776751,-0.018827617,-0.1835821,0.7178118,-1.5398004,0.0,0.0,0.0,-0.011046415,0.043191835,-0.5900781
251559057,-12.009432,1.8754419,-1.0144584,0.23691006,0.0,0.03153288,-0.08511058,-0.017508209,-0.19536102,0.7507325,-1.5304363,0.0,0.0,0.0,-0.011745429,0.045135282,-0.58959115
251658402,-12.009432,1.8754419,-1.0144584,0.23691006,0.0,0.029957365,-0.08309633,-0.015133083,-0.17869985,0.7589562,-1.4873209,0.0,0.0,0.0,-0.010702745,0.045455627,-0.5873489
251757748,-12.009432,1.8754419,-1.0144584,0.23691006,0.0,0.02800586,-0.080454126,-0.013357878,-0.14835317,0.8000718,-1.4117335,0.0,0.0,0.0,-0.008825899,0.047598258,-0.58341795
251871993,-12.009432,1.8754419,-1.0144584,0.23691006,0.0,0.025010657,-0.076736964,-0.012194157,-0.17661422,0.7371913,-1.3979301,0.0,0.0,0.0,-0.010494149,0.04380279,-0.5827001
251971341,-12.009432,1.8754419,-1.0144584,0.23691006,0.0,0.021675706,-0.07394991,-0.0103930235,-0.2198298,0.78283674,-1.4244576,0.0,0.0,0.0,-0.013092861,0.046625037,-0.5840797
252070865,nan,nan,-1.0144584,0.24547392,0.0,0.024793759,0.01854983,-0.009450674,0.36626902,1.1555022,-1.498408,0.0,0.0,0.0,0.02195854,0.069274604,-0.5879255
252150159,nan,nan,-1.0144584,0.24547392,0.0,0.10082812,0.043887455,-0.009020925,1.0278898,1.1648842,-1.4998745,0.0,0.0,0.0,0.061631754,0.06984586,-0.5880017
252259446,nan,nan,-1.0144584,0.24547392,0.0,0.28626916,0.07832152,-0.007468462,2.0132465,1.1651676,-1.4487551,0.0,0.0,0.0,0.12016734,0.069546916,-0.58534324
252353815,nan,nan,-1.0144584,0.24547392,0.0,0.48023906,0.10844511,-0.00375247,1.6349555,1.1657946,-1.3655499,0.0,0.0,0.0,0.096866466,0.06907002,-0.5810161
252473028,nan,nan,-1.0144584,0.24547392,0.0,0.6243664,0.13216074,-0.00063335896,0.70664483,0.7155557,-1.2777157,0.0,0.0,0.0,0.041537482,0.042061273,-0.57644826
252572436,nan,nan,-1.0144584,0.24547392,0.0,0.6589583,0.12290088,0.0011028051,-0.19592226,0.6877883,-1.3561149,0.0,0.0,0.0,-0.011597924,0.040714707,-0.58052546
252671718,nan,nan,-1.0144584,0.24547392,0.0,0.6145674,0.112601474,0.0017772913,-0.9785614,0.64027804,-1.4412928,0.0,0.0,0.0,-0.058369957,0.038191777,-0.58495516
252771063,nan,nan,-1.0144584,0.24547392,0.0,0.49064678,0.101742364,0.0015051365,-1.882076,0.62161654,-1.5147289,0.0,0.0,0.0,-0.112996645,0.0373208,-0.58877426
252870556,nan,nan,-1.0144584,0.24547392,0.0,0.35479188,0.088801615,0.0031290054,-1.2084675,0.6096809,-1.541748,0.0,0.0,0.0,-0.07272758,0.03669161,-0.5901794
252959817,nan,nan,-1.0144584,0.24547392,0.0,0.29942882,0.07716356,0.003647089,-0.47320217,0.57902646,-1.5564665,0.0,0.0,0.0,-0.028514775,0.034891658,-0.5909448
253059162,nan,nan,-1.0144584,0.24547392,0.0,0.3126439,0.0835751,0.0024168491,0.48218066,0.8957317,-1.5803165,0.0,0.0,0.0,0.029117016,0.05408976,-0.5921852
253173408,nan,nan,-1.0144584,0.24547392,0.0,0.4254109,0.10668663,0.00076138973,1.5202823,1.0672969,-1.5748564,0.0,0.0,0.0,0.09175971,0.06441886,-0.59190124
253272753,nan,nan,-1.0144584,0.24547392,0.0,0.56316257,0.13026488,-7.045269e-05,1.2055576,0.9611809,-1.5170358,0.0,0.0,0.0,0.07239426,0.05771933,-0.58889425
253372102,nan,nan,-1.0144584,0.24547392,0.0,0.63906133,0.1546779,0.0012615919,0.5145574,1.001131,-1.3897308,0.0,0.0,0.0,0.030552095,0.059442643,-0.58227366
253471443,nan,nan,-1.0144584,0.24547392,0.0,0.6362299,0.15188347,0.0032168627,-0.4094513,0.613173,-1.3757691,0.0,0.0,0.0,-0.024281021,0.036361992,-0.58154756
253570790,nan,nan,-1.0144584,0.24547392,0.0,0.5557512,0.13868059,0.0038768053,-1.0990589,0.5614136,-1.3851651,0.0,0.0,0.0,-0.06523056,0.033320624,-0.58203626
253670243,nan,nan,-1.0144584,0.24547392,0.0,0.471945,0.12283165,0.0043497086,-0.6045884,0.52421314,-1.397128,0.0,0.0,0.0,-0.035921685,0.031146182,-0.58265835
253759542,nan,nan,-1.0144584,0.24547392,0.0,0.4385459,0.1082544,0.004913807,-0.38331515,0.51849014,-1.4534276,0.0,0.0,0.0,-0.02288917,0.030960971,-0.58558625
253858887,nan,nan,-1.0144584,0.24547392,0.0,0.4347374,0.108911835,0.006613016,0.011387348,0.67465526,-1.4777012,0.0,0.0,0.0,0.0006814333,0.040372223,-0.5868486
253958235,nan,nan,-1.0144584,0.24547392,0.0,0.43474168,0.10891422,0.008276939,0.0787635,0.79136896,-1.4430485,0.0,0.0,0.0,0.0046989094,0.047211852,-0.58504647
254057577,nan,nan,-1.0144584,0.24547392,0.0,0.43315414,0.10822286,0.011472583,-0.10399714,0.7063286,-1.444919,0.0,0.0,0.0,-0.006205184,0.042144418,-0.58514374
254156923,nan,nan,-1.0144584,0.24547392,0.0,0.40276787,0.101343825,0.014977217,-0.035172865,0.7276033,-1.4343458,0.0,0.0,0.0,-0.002096735,0.0433741,-0.5845939
254271168,nan,nan,-1.0144584,0.24547392,0.0,0.36144474,0.09163388,0.01749146,-0.2294488,0.67402923,-1.493939,0.0,0.0,0.0,-0.013750493,0.04039347,-0.5876931
254370513,nan,nan,-1.0144584,0.24547392,0.0,0.35748187,0.08967378,0.018063545,0.1537798,0.8581772,-1.5373902,0.0,0.0,0.0,0.009251164,0.05162666,-0.58995277
254459950,nan,nan,-1.0144584,0.24547392,0.0,0.35905814,0.0899535,0.018320441,0.0062979683,0.7345006,-1.5505054,0.0,0.0,0.0,0.00037931275,0.044237353,-0.5906348
254559285,nan,nan,-1.0144584,0.24547392,0.0,0.38357833,0.09655739,0.017195106,0.34174803,0.95329,-1.513399,0.0,0.0,0.0,0.020515397,0.05722673,-0.5887051
254658614,nan,nan,-1.0144584,0.24547392,0.0,0.43446955,0.106680475,0.0129265785,0.3738669,0.97339934,-1.6203179,0.0,0.0,0.0,0.022655522,0.058985878,-0.59426546
254758119,nan,nan,-1.0144584,0.24547392,0.0,0.45660123,0.11439061,0.008813977,0.045326762,0.8804729,-1.5946448,0.0,0.0,0.0,0.002740533,0.05323489,-0.5929303
254857302,nan,nan,-1.0144584,0.24547392,0.0,0.47048533,0.11743745,0.006254196,0.38451687,0.92849064,-1.6166035,0.0,0.0,0.0,0.023293404,0.05624645,-0.5940723
254956647,nan,nan,-1.0144584,0.24547392,0.0,0.4785752,0.11989566,0.002819419,0.03145192,0.8937828,-1.6429963,0.0,0.0,0.0,0.0019097292,0.0542696,-0.59544486
255070897,nan,nan,-1.0144584,0.24547392,0.0,0.4785752,0.11989566,-0.0009832382,0.029307477,0.86452395,-1.647442,0.0,0.0,0.0,0.0017801999,0.052513063,-0.59567606
255170246,nan,nan,-1.0144584,0.24547392,0.0,0.47228187,0.118407,-0.0030013323,-0.26039958,0.8914442,-1.6205546,0.0,0.0,0.0,-0.01577998,0.054020714,-0.5942778
255259686,nan,nan,-1.0144584,0.24547392,0.0,0.4357312,0.11097636,-0.0024129152,-0.37754434,0.77529967,-1.603397,0.0,0.0,0.0,-0.022844737,0.04691241,-0.5933855
255358993,nan,nan,-1.0144584,0.24547392,0.0,0.39103034,0.10024101,-0.0032681227,-0.468159,0.83019865,-1.6525984,0.0,0.0,0.0,-0.028449588,0.050450396,-0.5959442
255458338,nan,nan,-1.0144584,0.24547392,0.0,0.35946658,0.08926535,-0.00575459,-0.08839075,0.8338754,-1.6717148,0.0,0.0,0.0,-0.005380414,0.050758645,-0.5969384
255557818,nan,nan,-1.0144584,0.24547392,0.0,0.35793504,0.08934434,-0.0056642294,-0.102309786,0.99581134,-1.6464927,0.0,0.0,0.0,-0.006213988,0.060482576,-0.5956267
255671929,nan,nan,-1.0144584,0.24547392,0.0,0.34834215,0.08726886,-0.006750703,0.07847063,0.95892954,-1.6499397,0.0,0.0,0.0,0.0047675185,0.058260195,-0.59580594
255771274,nan,nan,-1.0144584,0.24547392,0.0,0.34674743,0.086200565,-0.00842607,-0.19913301,0.8499576,-1.6546204,0.0,0.0,0.0,-0.0121033965,0.051660817,-0.59604937
255870619,nan,nan,-1.0144584,0.24547392,0.0,0.29160002,0.07011985,-0.012997985,-0.94678015,0.73262835,-1.6550213,0.0,0.0,0.0,-0.05754754,0.044530887,-0.59607023
255950096,nan,nan,-1.0144584,0.24547392,0.0,0.19110823,0.05309239,-0.0144639015,-1.4820201,0.61951804,-1.6660566,0.0,0.0,0.0,-0.09016705,0.037691873,-0.59664416
256059376,nan,nan,-1.0144584,0.24547392,0.0,0.05490351,0.025913263,-0.014775991,-1.162918,0.6199405,-1.7052753,0.0,0.0,0.0,-0.07099484,0.037846673,-0.5986837
256173620,-10.598337,2.6516724,-1.0144584,0.24547392,0.0,-0.00024917792,-0.002955368,-0.017335176,-0.21242344,0.8538879,-1.7387154,0.0,0.0,0.0,-0.013005766,0.052279856,-0.6004228
256272966,-10.598337,2.6516724,-1.0144584,0.24547392,0.0,-0.00024552987,-0.016363325,-0.020370543,-0.12236691,0.8069247,-1.7431633,0.0,0.0,0.0,-0.007494959,0.049424045,-0.6006541
256372469,-10.598337,2.6516724,-1.0144584,0.24547392,0.0,0.0017467435,-0.028082993,-0.021186948,-0.0829436,0.8408141,-1.6852504,0.0,0.0,0.0,-0.005054755,0.051240955,-0.5976423
256471656,-10.598337,2.6516724,-1.0144584,0.24547392,0.0,0.002642768,-0.039124753,-0.01977247,-0.15464535,0.82309765,-1.680395,0.0,0.0,0.0,-0.009420542,0.050140698,-0.5973898
256570999,-10.598337,2.6516724,-1.0144584,0.24547392,0.0,0.0025875026,-0.05014137,-0.019529998,-0.14875537,0.7591163,-1.6829692,0.0,0.0,0.0,-0.009063751,0.0462534,-0.5975237
256670344,-10.598337,2.6516724,-1.0144584,0.24547392,0.0,0.0016633923,-0.061640657,-0.020146132,-0.20960364,0.8057715,-1.6737975,0.0,0.0,0.0,-0.012761092,0.049056996,-0.59704673
256759754,-10.598337,2.6516724,-1.0144584,0.24547392,0.0,0.0002101834,-0.07183622,-0.021926284,-0.21969786,0.733867,-1.6918883,0.0,0.0,0.0,-0.013396698,0.044749614,-0.59798753
256859100,-10.598337,2.6516724,-1.0144584,0.24547392,0.0,-0.0013227527,-0.083962,-0.020902991,-0.24669707,0.7106195,-1.6777903,0.0,0.0,0.0,-0.015024669,0.04327908,-0.59725434
256958444,-10.598337,2.6516724,-1.0144584,0.24547392,0.0,-0.0029743735,-0.095288694,-0.016808689,-0.22165628,0.7322538,-1.634062,0.0,0.0,0.0,-0.013448106,0.044426568,-0.59498024
257057789,-10.598337,2.6516724,-1.0144584,0.24547392,0.0,-0.003969151,-0.10653181,-0.013198137,-0.26640382,0.7086834,-1.6095604,0.0,0.0,0.0,-0.016128216,0.042904038,-0.593706
257157197,-10.598337,2.6516724,-1.0144584,0.24547392,0.0,-0.00524841,-0.11692171,-0.009058952,-0.23872828,0.70002204,-1.5859194,0.0,0.0,0.0,-0.014422924,0.042292282,-0.59247655
257271380,-10.598337,2.6516724,-1.0144584,0.24547392,0.0,-0.0063274447,-0.12693086,-0.001992941,-0.23514055,0.733774,-1.5320526,0.0,0.0,0.0,-0.014138871,0.044121426,-0.5896752
257370725,-10.598337,2.6516724,-1.0144584,0.24547392,0.0,-0.0063709323,-0.13543676,0.006482959,-0.24588555,0.6957575,-1.5414456,0.0,0.0,0.0,-0.0147971595,0.041870024,-0.5901637
257450380,-10.598337,2.6516724,-1.0144584,0.24547392,0.0,-0.005556447,-0.14137055,0.012907147,-0.23227923,0.7181015,-1.5274692,0.0,0.0,0.0,-0.013961388,0.043162245,-0.5894368
257559538,-10.598337,2.6516724,-1.0144584,0.24547392,0.0,-0.0045073098,-0.14916094,0.018940449,-0.23811124,0.6483129,-1.6111492,0.0,0.0,0.0,-0.014417454,0.039254848,-0.5937886
257658826,-10.598337,2.6516724,-1.0144584,0.24547392,0.0,-0.0028801507,-0.1573443,0.02278483,-0.25595984,0.710236,-1.5983782,0.0,0.0,0.0,-0.015481099,0.04295687,-0.5931245
257773071,-10.598337,2.6516724,-1.0144584,0.24547392,0.0,-0.002743346,-0.1641442,0.022435904,-0.27734664,0.6942526,-1.6017342,0.0,0.0,0.0,-0.016779184,0.042001568,-0.59329903
257872424,-10.598337,2.6516724,-1.0144584,0.24547392,0.0,-0.003018767,-0.1689686,0.020034432,-0.29048094,0.72655463,-1.6443373,0.0,0.0,0.0,-0.01763967,0.04412057,-0.5955146
257971858,-10.598337,2.6516724,-1.0144584,0.24547392,0.0,-0.0036013192,-0.17218442,0.0158149,-0.24958529,0.7030313,-1.7307109,0.0,0.0,0.0,-0.015270716,0.043014515,-0.6000065
258071106,-10.598337,2.6516724,-1.0144584,0.24547392,0.0,-0.0036511486,-0.17407861,0.010358572,-0.29723293,0.7392438,-1.7743077,0.0,0.0,0.0,-0.018254466,0.04540043,-0.6022738
258170452,-10.598337,2.6516724,-1.0144584,0.24547392,0.0,-0.0043360773,-0.17492232,0.0068831444,-0.3187759,0.7173849,-1.8024955,0.0,0.0,0.0,-0.01962519,0.044165242,-0.60373974
258260044,-10.598337,2.6516724,-1.0144584,0.24547392,0.0,-0.0049358434,-0.17504576,0.004230857,-0.30295447,0.7476524,-1.8083296,0.0,0.0,0.0,-0.018660633,0.046052027,-0.6040431
258354239,-10.598337,2.6516724,-1.0144584,0.24547392,0.0,-0.006582028,-0.17411123,0.002393365,-0.29982078,0.757396,-1.7794911,0.0,0.0,0.0,-0.018421752,0.046536338,-0.60254335
258473457,nan,nan,-1.0144584,0.24547392,0.0,-0.015737925,-0.1488663,0.002863884,-0.6761188,1.3676786,-1.7019199,0.0,0.0,0.0,-0.041264206,0.0834708,-0.59850925
258572798,nan,nan,-1.0144584,0.24547392,0.0,-0.08250036,-0.061988946,0.005550742,-1.1291013,1.6589596,-1.6244849,0.0,0.0,0.0,-0.068446316,0.10056643,-0.5944822
258672142,nan,nan,-1.0144584,0.24547392,0.0,-0.207633,-0.018534038,0.010162473,-2.0656402,0.973139,-1.5000476,0.0,0.0,0.0,-0.12385646,0.058349732,-0.5880107
258771546,nan,nan,-1.0144584,0.24547392,0.0,-0.3683173,-0.050249152,0.012828827,-1.848691,0.29670137,-1.4985667,0.0,0.0,0.0,-0.11083373,0.017788002,-0.5879337
258870832,nan,nan,-1.0144584,0.24547392,0.0,-0.4693189,-0.07529002,0.009591579,-1.1093378,0.85400224,-1.5750165,0.0,0.0,0.0,-0.066957355,0.051545825,-0.5919095
258950310,nan,nan,-1.0144584,0.24547392,0.0,-0.49361977,-0.066384405,0.0037873983,-0.4098103,0.79326224,-1.6806265,0.0,0.0,0.0,-0.02496494,0.04832417,-0.59740186
259059738,nan,nan,-1.0144584,0.24547392,0.0,-0.44441253,-0.05314799,-0.0030243397,0.56034374,0.97832966,-1.7286589,0.0,0.0,0.0,0.03427782,0.059847206,-0.5998998
259158944,nan,nan,-1.0144584,0.24547392,0.0,-0.3168491,-0.039151594,-0.0070598125,1.4047879,0.9574176,-1.7022116,0.0,0.0,0.0,0.08573768,0.058433566,-0.5985244
259258280,nan,nan,-1.0144584,0.24547392,0.0,-0.14010036,-0.02513716,-0.010139823,1.2994618,0.9591948,-1.6891447,0.0,0.0,0.0,0.079219356,0.05847559,-0.59784484
259357622,nan,nan,-1.0144584,0.24547392,0.0,-0.030983659,-0.012642412,-0.010835052,0.5773871,0.80667543,-1.5612631,0.0,0.0,0.0,0.034807913,0.048630606,-0.5911943
259456969,nan,nan,-1.0144584,0.24547392,0.0,-0.00053218985,-0.015983634,-0.009635091,-0.3893718,0.8579718,-1.5789443,0.0,0.0,0.0,-0.023509763,0.051803224,-0.5921138
259556331,nan,nan,-1.0144584,0.24547392,0.0,-0.049045436,-0.021223597,-0.009342074,-1.2115602,0.75357413,-1.6680158,0.0,0.0,0.0,-0.07372457,0.045855686,-0.596746
259670558,nan,nan,-1.0144584,0.24547392,0.0,-0.1124186,-0.027804153,-0.013168693,-0.51874053,0.7234229,-1.750432,0.0,0.0,0.0,-0.031792946,0.044337668,-0.60103214
259759968,nan,nan,-1.0144584,0.24547392,0.0,-0.11658944,-0.029758628,-0.018011332,-0.62768686,0.8046155,-1.8031124,0.0,0.0,0.0,-0.038645107,0.049538154,-0.6037718
259859439,nan,nan,-1.0144584,0.24547392,0.0,-0.1607655,-0.038896162,-0.023403466,-0.4167428,0.77307165,-1.76072,0.0,0.0,0.0,-0.025564153,0.047422342,-0.60156715
259958708,nan,nan,-1.0144584,0.24547392,0.0,-0.15433551,-0.038665105,-0.027595997,-0.3165457,0.79130316,-1.8006877,0.0,0.0,0.0,-0.019484984,0.0487087,-0.6036457
260058003,nan,nan,-1.0144584,0.24547392,0.0,-0.16048974,-0.040099576,-0.031348526,-0.38522324,0.77091026,-1.7607877,0.0,0.0,0.0,-0.023630751,0.047289956,-0.60157067
260172247,nan,nan,-1.0144584,0.24547392,0.0,-0.16467796,-0.041256156,-0.03237742,-0.18118426,0.80540246,-1.7030494,0.0,0.0,0.0,-0.011059042,0.04915978,-0.59856796
260271594,nan,nan,-1.0144584,0.24547392,0.0,-0.18537477,-0.04642638,-0.031000376,-0.1550626,0.78803384,-1.708907,0.0,0.0,0.0,-0.009469427,0.04812397,-0.5988726
260370935,nan,nan,-1.0144584,0.24547392,0.0,-0.20408607,-0.050538182,-0.02849716,-0.39257827,0.7259066,-1.6504824,0.0,0.0,0.0,-0.023852415,0.044104896,-0.5958342
260470285,nan,nan,-1.0144584,0.24547392,0.0,-0.26174518,-0.06343104,-0.024178326,-1.0807595,0.60308033,-1.6163781,0.0,0.0,0.0,-0.06546932,0.036532875,-0.5940606
260559694,nan,nan,-1.0144584,0.24547392,0.0,-0.30901653,-0.074589774,-0.018402696,-0.3811761,0.70834213,-1.6237893,0.0,0.0,0.0,-0.023105366,0.04293686,-0.594446
260659184,nan,nan,-1.0144584,0.24547392,0.0,-0.2922728,-0.07223281,-0.014267325,-0.06944515,0.75968856,-1.6365501,0.0,0.0,0.0,-0.0042141792,0.046100616,-0.59510964
260773286,nan,nan,-1.0144584,0.24547392,0.0,-0.3101344,-0.07734876,-0.011907101,-0.15928274,0.72077554,-1.609995,0.0,0.0,0.0,-0.00964356,0.04363839,-0.5937286
260872632,nan,nan,-1.0144584,0.24547392,0.0,-0.29707912,-0.07488153,-0.008960366,0.13797455,0.7108213,-1.6666042,0.0,0.0,0.0,0.008394965,0.043249425,-0.5966726
260971976,nan,nan,-1.0144584,0.24547392,0.0,-0.26612908,-0.06585,-0.0073730946,0.20454966,0.88119364,-1.665677,0.0,0.0,0.0,0.0124445595,0.053610783,-0.5966244
261071340,nan,nan,-1.0144584,0.24547392,0.0,-0.25830343,-0.064711794,-0.0069078207,-0.1267166,0.708358,-1.6875477,0.0,0.0,0.0,-0.0077239983,0.043177895,-0.5977618
261170666,nan,nan,-1.0144584,0.24547392,0.0,-0.26021662,-0.065018676,-0.005783081,-0.04740618,0.7336997,-1.643712,0.0,0.0,0.0,-0.0028785947,0.044551656,-0.5954821
261255108,nan,nan,-1.0144584,0.24547392,0.0,-0.25830346,-0.0647118,-0.0065176487,-0.24277386,0.66785836,-1.6851213,0.0,0.0,0.0,-0.0147951925,0.040700812,-0.5976356
261374378,nan,nan,-1.0144584,0.24547392,0.0,-0.25830346,-0.0647118,-0.006024599,-0.23295794,0.6997296,-1.6982615,0.0,0.0,0.0,-0.014213062,0.0426914,-0.598319
261453828,nan,nan,-1.0144584,0.24547392,0.0,-0.2687784,-0.06733606,-0.0052227974,-0.16775933,0.66637814,-1.6588049,0.0,0.0,0.0,-0.010200083,0.04051705,-0.596267
261573012,nan,nan,-1.0144584,0.24547392,0.0,-0.2687784,-0.06733606,-0.0029788017,-0.21748827,0.64542526,-1.6404005,0.0,0.0,0.0,-0.013202496,0.039180156,-0.59530985
261672360,nan,nan,-1.0144584,0.24547392,0.0,-0.30844074,-0.07591227,-6.723404e-05,-0.99189645,0.5370034,-1.583594,0.0,0.0,0.0,-0.059913628,0.032436673,-0.5923556
261771702,nan,nan,-1.0144584,0.24547392,0.0,-0.35972103,-0.08864109,0.004065752,-0.55257225,0.49040705,-1.5846366,0.0,0.0,0.0,-0.033380482,0.029625125,-0.59240985
261871048,nan,nan,-1.0144584,0.24547392,0.0,-0.39346018,-0.09985166,0.006454706,-0.4783063,0.658314,-1.5861427,0.0,0.0,0.0,-0.028897857,0.039773393,-0.59248817
261970392,nan,nan,-1.0144584,0.24547392,0.0,-0.3896549,-0.09714251,0.005228758,0.0705342,0.64861214,-1.6512233,0.0,0.0,0.0,0.0042857975,0.039410956,-0.5958727
262059803,nan,nan,-1.0144584,0.24547392,0.0,-0.3473139,-0.08856001,0.0008968115,0.033581138,0.7628057,-1.6805284,0.0,0.0,0.0,0.0020456787,0.04646821,-0.59739673
262159147,nan,nan,-1.0144584,0.24547392,0.0,-0.34261048,-0.08583292,-0.0043797493,-0.14381811,0.6607453,-1.6963003,0.0,0.0,0.0,-0.0087731555,0.04030662,-0.59821695
262258512,nan,nan,-1.0144584,0.24547392,0.0,-0.34261048,-0.08583292,-0.009738803,-0.2518337,0.6237968,-1.6897299,0.0,0.0,0.0,-0.015353576,0.038031094,-0.5978753
262357837,nan,nan,-1.0144584,0.24547392,0.0,-0.31477186,-0.078865945,-0.015589893,-0.02617374,0.76060015,-1.7646644,0.0,0.0,0.0,-0.0016061283,0.04667355,-0.6017723
262457187,nan,nan,-1.0144584,0.24547392,0.0,-0.2503377,-0.06293967,-0.023150265,0.8693837,0.84803456,-1.7844496,0.0,0.0,0.0,0.053439807,0.052127507,-0.6028012
262556675,nan,nan,-1.0144584,0.24547392,0.0,-0.114533305,-0.03829169,-0.029643297,1.1529508,0.9483101,-1.8183051,0.0,0.0,0.0,0.071077235,0.058461517,-0.6045619
262655872,nan,nan,-1.0144584,0.24547392,0.0,-0.019449558,-0.013497004,-0.032808304,0.48856738,0.8738886,-1.7626219,0.0,0.0,0.0,0.029975105,0.05361574,-0.6016661
262775085,-11.675496,3.3190188,-1.0144584,0.24547392,0.0,0.008466482,-0.013245356,-0.032259345,-0.12817892,0.63761336,-1.6875603,0.0,0.0,0.0,-0.007813136,0.038865674,-0.59776247
262859529,-11.675496,3.3190188,-1.0144584,0.24547392,0.0,0.013029051,-0.027191948,-0.030039728,-0.25843617,0.62612706,-1.7150607,0.0,0.0,0.0,-0.015790813,0.03825724,-0.5991926
262958874,-11.675496,3.3190188,-1.0144584,0.24547392,0.0,0.016891288,-0.044873487,-0.025355458,-0.20299232,0.5530786,-1.7050495,0.0,0.0,0.0,-0.01239223,0.03376422,-0.598672
263058254,-11.675496,3.3190188,-1.0144584,0.24547392,0.0,0.02442007,-0.06419215,-0.016379893,-0.15519671,0.52452445,-1.6920551,0.0,0.0,0.0,-0.009463599,0.031984497,-0.59799623
263172478,-11.675496,3.3190188,-1.0144584,0.24547392,0.0,0.030663252,-0.083922364,-0.00665009,-0.14144577,0.52504456,-1.6628016,0.0,0.0,0.0,-0.008603446,0.031935863,-0.5964749
263271811,-11.675496,3.3190188,-1.0144584,0.24547392,0.0,0.034768295,-0.09941208,0.0014281273,-0.16596125,0.5392088,-1.6368577,0.0,0.0,0.0,-0.010071594,0.03272266,-0.5951256
263371349,-11.675496,3.3190188,-1.0144584,0.24547392,0.0,0.039011955,-0.112538524,0.0059093237,-0.09285586,0.49708283,-1.6751636,0.0,0.0,0.0,-0.0056538275,0.030266488,-0.5971178
263470500,-11.675496,3.3190188,-1.0144584,0.24547392,0.0,0.043504763,-0.12393566,0.010324597,-0.12318721,0.5303096,-1.667681,0.0,0.0,0.0,-0.007495775,0.032268625,-0.5967286
263559913,-11.675496,3.3190188,-1.0144584,0.24547392,0.0,0.04730811,-0.13254212,0.014531136,-0.12670891,0.5123593,-1.7014798,0.0,0.0,0.0,-0.007732904,0.03126872,-0.59848636
263674223,-11.675496,3.3190188,-1.0144584,0.24547392,0.0,0.052300118,-0.14140362,0.01851666,-0.10659959,0.46773228,-1.7107773,0.0,0.0,0.0,-0.0065110303,0.028568769,-0.5989699
263753633,nan,nan,-1.0144584,0.24547392,0.0,0.054574154,-0.1453578,0.019447327,-0.08005377,0.51586014,-1.6782768,0.0,0.0,0.0,-0.0048756604,0.03141837,-0.59727967
263872990,nan,nan,-1.0144584,0.24547392,0.0,0.09868807,-0.09095834,0.017605662,0.74183065,1.2796161,-1.7608564,0.0,0.0,0.0,0.045506507,0.078496166,-0.60157424
263972192,nan,nan,-1.0144584,0.24547392,0.0,0.2209325,-0.01675622,0.013381004,1.5953711,1.4200068,-1.7704457,0.0,0.0,0.0,0.09794675,0.08718037,-0.60207295
264071537,nan,nan,-1.0144584,0.24547392,0.0,0.41790274,0.05755655,0.008308649,2.147959,1.3661422,-1.7663585,0.0,0.0,0.0,0.13182609,0.08384386,-0.6018604
264171072,nan,nan,-1.0144584,0.24547392,0.0,0.59156394,0.14431563,0.0006104708,1.5648926,1.4095571,-1.6589181,0.0,0.0,0.0,0.095149875,0.08570503,-0.5962729
264270227,nan,nan,-1.0144584,0.24547392,0.0,0.6931057,0.17915416,-0.0061149597,0.717723,0.6268287,-1.6185154,0.0,0.0,0.0,0.043485675,0.037978537,-0.59417176
264359637,nan,nan,-1.0144584,0.24547392,0.0,0.7170332,0.16632926,-0.009224534,-0.078823686,0.46624205,-1.6521565,0.0,0.0,0.0,-0.004789951,0.028332556,-0.5959213
264458982,nan,nan,-1.0144584,0.24547392,0.0,0.66873336,0.1500526,-0.011301398,-0.9474273,0.36303505,-1.7199243,0.0,0.0,0.0,-0.057912316,0.022190835,-0.5994456
264558327,nan,nan,-1.0144584,0.24547392,0.0,0.5413171,0.13181421,-0.010329008,-1.7542135,0.43684068,-1.7100655,0.0,0.0,0.0,-0.107137114,0.02667968,-0.59893286
264657672,nan,nan,-1.0144584,0.24547392,0.0,0.42172018,0.11263872,-0.0036361217,-0.9749985,0.39606157,-1.6232288,0.0,0.0,0.0,-0.059098594,0.024006888,-0.59441686
264771920,nan,nan,-1.0144584,0.24547392,0.0,0.38122252,0.103759624,0.0020136833,-0.008614972,0.66209745,-1.6336347,0.0,0.0,0.0,-0.0005226606,0.040168703,-0.594958
264871313,nan,nan,-1.0144584,0.24547392,0.0,0.42927334,0.10966932,0.0040100813,0.67816067,0.7248501,-1.6258162,0.0,0.0,0.0,0.041115273,0.04394594,-0.59455144
264970725,nan,nan,-1.0144584,0.24547392,0.0,0.45549113,0.10440884,0.0050280094,-0.03134734,0.54758066,-1.6061456,0.0,0.0,0.0,-0.0018972112,0.033140805,-0.59352845
265060018,nan,nan,-1.0144584,0.24547392,0.0,0.41146684,0.08950715,0.005424142,-0.8011378,0.45337373,-1.5212101,0.0,0.0,0.0,-0.048126064,0.027235134,-0.5891113
265159364,nan,nan,-1.0144584,0.24547392,0.0,0.2876518,0.06493276,0.004197955,-1.7837186,0.3826778,-1.5458935,0.0,0.0,0.0,-0.107386276,0.02303858,-0.590395
265273612,nan,nan,-1.0144584,0.24547392,0.0,0.10014293,0.036053833,0.0032219887,-1.5011953,0.38330728,-1.5613767,0.0,0.0,0.0,-0.09050048,0.023107916,-0.59120023
265372955,nan,nan,-1.0144584,0.24547392,0.0,0.0138668725,0.0109007275,0.0027867556,-0.7363704,0.39025927,-1.5387688,0.0,0.0,0.0,-0.044304118,0.023480158,-0.5900245
265472302,nan,nan,-1.0144584,0.24547392,0.0,0.0055829203,-0.0062970677,0.0017784834,0.11731647,0.26057237,-1.5810196,0.0,0.0,0.0,0.007084978,0.01573649,-0.59222174
265571660,nan,nan,-1.0144584,0.24547392,0.0,0.033138476,-0.077169515,0.0009407997,0.25764504,-0.4739703,-1.6200941,0.0,0.0,0.0,0.015612225,-0.028720645,-0.59425384
265670990,nan,nan,-1.0144584,0.24547392,0.0,0.064678386,-0.22726579,0.0009034872,0.32657453,-1.4118283,-1.6195794,0.0,0.0,0.0,0.019788569,-0.08554881,-0.5942271
265770415,nan,nan,-1.0144584,0.24547392,0.0,0.10059169,-0.4561814,-0.002110362,0.38133183,-2.2888896,-1.6215231,0.0,0.0,0.0,0.023110457,-0.13871719,-0.59432817
265859746,nan,nan,-1.0144584,0.24547392,0.0,0.14251292,-0.707991,-0.005597353,0.38186112,-2.2568412,-1.6503099,0.0,0.0,0.0,0.023200866,-0.13711965,-0.59582525
265959091,nan,nan,-1.0144584,0.24547392,0.0,0.1881303,-0.92464864,-0.008788466,0.26317227,-1.5079931,-1.6015652,0.0,0.0,0.0,0.015921593,-0.09123169,-0.5932902
266058636,nan,nan,-1.0144584,0.24547392,0.0,0.18968485,-1.0634403,-0.011006951,-0.22517109,-0.6431823,-1.6579373,0.0,0.0,0.0,-0.01368995,-0.039104197,-0.59622186
266157780,nan,nan,-1.0144584,0.24547392,0.0,0.16876717,-1.1226412,-0.013415098,-0.42573375,0.27477312,-1.7136934,0.0,0.0,0.0,-0.026009738,0.016786965,-0.5991215
266257125,nan,nan,-1.0144584,0.24547392,0.0,0.14669101,-1.1029987,-0.015506446,-0.40787655,1.1146781,-1.7487316,0.0,0.0,0.0,-0.024994358,0.06830661,-0.6009437
266371372,nan,nan,-1.0144584,0.24547392,0.0,0.12141125,-0.9830536,-0.016244352,-0.38529366,2.0424078,-1.7055112,0.0,0.0,0.0,-0.02352218,0.124689005,-0.598696
266470717,nan,nan,-1.0144584,0.24547392,0.0,0.099388935,-0.793766,-0.012784481,-0.40791583,2.9297082,-1.5932882,0.0,0.0,0.0,-0.024660483,0.17711502,-0.5928598
266570117,nan,nan,-1.0144584,0.24547392,0.0,0.07689465,-0.52569145,-0.008376241,-0.42396086,3.6542263,-1.4346923,0.0,0.0,0.0,-0.025273934,0.21784246,-0.5846119
266674374,nan,nan,-1.0144584,0.24547392,0.0,0.045218304,-0.2584563,-0.0033817291,-0.4563313,2.8750534,-1.2937042,0.0,0.0,0.0,-0.026862483,0.16924343,-0.57727975
266753850,nan,nan,-1.0144584,0.24547392,0.0,0.020962723,-0.11240426,0.00095045567,-0.45619774,2.1726818,-1.2318687,0.0,0.0,0.0,-0.026705004,0.12718493,-0.57406396
266873064,nan,nan,-1.0144584,0.24547392,0.0,-0.0027083552,0.011084575,0.0033268929,-0.15831088,1.1673965,-1.316738,0.0,0.0,0.0,-0.009338492,0.06886274,-0.5784776
266972433,nan,nan,-1.0144584,0.24547392,0.0,0.0051804553,0.027427947,0.0038554668,-0.04423873,0.25702977,-1.4349406,0.0,0.0,0.0,-0.0026374934,0.015324001,-0.5846248
267071757,nan,nan,-1.0144584,0.24547392,0.0,0.016249478,-0.035067685,0.0037978888,0.016634643,-0.61426103,-1.5180755,0.0,0.0,0.0,0.0009990028,-0.036889795,-0.5889483
267171099,nan,nan,-1.0144584,0.24547392,0.0,0.033922944,-0.15866858,0.0016319752,0.0520069,-0.87464535,-1.5679303,0.0,0.0,0.0,0.003137069,-0.052758824,-0.59154105
267270449,nan,nan,-1.0144584,0.24547392,0.0,0.043838214,-0.24256715,-7.379055e-05,-0.058584012,-0.0804123,-1.5537534,0.0,0.0,0.0,-0.0035287498,-0.004843555,-0.59080374
267359855,nan,nan,-1.0144584,0.24547392,0.0,0.041560046,-0.25050873,-0.0014141798,-0.17596067,0.6969409,-1.5447686,0.0,0.0,0.0,-0.010592383,0.041954063,-0.5903365
267459199,nan,nan,-1.0144584,0.24547392,0.0,0.03563083,-0.18442868,-0.000521183,-0.23651505,1.6228423,-1.527216,0.0,0.0,0.0,-0.01421562,0.097540125,-0.58942366
267558545,nan,nan,-1.0144584,0.24547392,0.0,0.037300237,-0.11829931,0.0012654066,-0.104218766,0.92686546,-1.4767911,0.0,0.0,0.0,-0.0062361895,0.055461302,-0.5868013
267657995,nan,nan,-1.0144584,0.24547392,0.0,0.045848787,-0.13119741,0.0052347183,0.01519236,0.14293396,-1.4119326,0.0,0.0,0.0,0.0009036176,0.008501487,-0.58342826
267757236,nan,nan,-1.0144584,0.24547392,0.0,0.0642601,-0.22332783,0.008907318,0.041500583,-0.8560364,-1.4502473,0.0,0.0,0.0,0.0024774317,-0.051102217,-0.58542085
267856585,nan,nan,-1.0144584,0.24547392,0.0,0.08280421,-0.34123155,0.010094881,0.086114265,-0.48298806,-1.4963702,0.0,0.0,0.0,0.0051618293,-0.02895109,-0.5878195
267970836,nan,nan,-1.0144584,0.24547392,0.0,0.10541041,-0.45134187,0.0080958605,0.05991754,-0.48858523,-1.5962807,0.0,0.0,0.0,0.0036232043,-0.029544674,-0.59301543
268070171,nan,nan,-1.0144584,0.24547392,0.0,0.107936256,-0.4994648,0.005740881,-0.2109896,0.34762448,-1.615111,0.0,0.0,0.0,-0.012780145,0.021056443,-0.5939947
268159582,nan,nan,-1.0144584,0.24547392,0.0,0.09806849,-0.4752792,0.0024863482,-0.26689708,1.1150432,-1.6233392,0.0,0.0,0.0,-0.016177775,0.06758754,-0.5944226
