timestamp,timestamp_sample,baro_device_id,baro_alt_meter,baro_temp_celcius,baro_pressure_pa,rho
218185879,218163114,3997730,415.2511,34.32,96435.74,1.1458161
218236035,218215884,3997730,414.96835,34.32,96439.0,1.1458548
218346626,218323974,3997730,415.18503,34.32,96436.5,1.1458251
218557820,218537677,3997730,415.1639,34.32,96436.75,1.1458281
218769013,218751306,3997730,415.20615,34.32,96436.24,1.145822
218990100,218967341,3997730,415.20615,34.32,96436.24,1.145822
219150911,219128213,3997730,415.14273,34.32,96437.0,1.1458311
219362078,219341666,3997730,415.18503,34.32,96436.5,1.1458251
219573234,219555444,3997730,415.42282,34.32,96433.75,1.1457925
219733922,219716287,3997730,415.33563,34.329998,96434.75,1.1458044
219955094,219932394,3997730,415.35944,34.329998,96434.5,1.1458014
220166057,220145941,3997730,415.09784,34.329998,96437.5,1.1458371
220377402,220359692,3997730,415.20615,34.329998,96436.26,1.1458223
220538338,220520610,3997730,414.94724,34.329998,96439.24,1.1458577
220759388,220736714,3997730,415.22733,34.329998,96436.0,1.1458192
220970417,220950187,3997730,415.2511,34.34,96435.74,1.1458161
221181624,221163967,3997730,415.2511,34.34,96435.74,1.1458161
221342686,221324866,3997730,415.18503,34.34,96436.5,1.1458251
221563841,221541012,3997730,415.3145,34.34,96435.0,1.1458074
221774826,221754640,3997730,415.444,34.34,96433.5,1.1457895
221946334,221921530,3997730,415.14273,34.34,96437.0,1.1458311
222166921,222144158,3997730,415.3383,34.34,96434.74,1.1458043
222377927,222357768,3997730,415.20615,34.34,96436.25,1.1458222
222589055,222571427,3997730,415.2511,34.34,96435.74,1.1458161
222750298,222732321,3997730,415.29337,34.34,96435.24,1.1458102
222971144,222948460,3997730,415.29337,34.34,96435.25,1.1458102
223182377,223161930,3997730,415.27222,34.35,96435.5,1.1458132
223393294,223375623,3997730,415.27222,34.35,96435.5,1.1458132
223554141,223536439,3997730,415.07672,34.35,96437.74,1.1458399
223775393,223752692,3997730,415.03442,34.35,96438.25,1.1458459
223986486,223966175,3997730,415.35944,34.35,96434.5,1.1458014
224147260,224127036,3997730,415.22733,34.36,96436.0,1.1458192
224358317,224340657,3997730,415.18503,34.35,96436.49,1.145825
224579608,224556848,3997730,415.22733,34.35,96436.0,1.1458192
224790851,224770664,3997730,415.29337,34.36,96435.25,1.1458102
224951760,224931574,3997730,415.59723,34.36,96431.75,1.1457688
225162884,225145272,3997730,415.33563,34.35,96434.75,1.1458044
225383968,225361344,3997730,415.42282,34.36,96433.74,1.1457924
225595245,225575015,3997730,415.29337,34.36,96435.25,1.1458102
225756228,225735837,3997730,415.29337,34.37,96435.24,1.1458102
225987299,225964481,3997730,415.59723,34.36,96431.75,1.1457688
226148034,226125324,3997730,415.24844,34.36,96435.76,1.1458163
226359060,226338935,3997730,415.33563,34.36,96434.75,1.1458044
226590435,226560112,3997730,415.26428,34.37,96435.59,1.1458144
226751305,226728627,3997730,415.42282,34.37,96433.75,1.1457925
226962667,226942254,3997730,415.5761,34.37,96432.0,1.1457716
227173570,227155961,3997730,415.2511,34.37,96435.74,1.1458161
227334648,227316802,3997730,415.66064,34.37,96431.0,1.1457598
227555833,227533092,3997730,415.8562,34.37,96428.75,1.1457331
227767251,227746641,3997730,415.5761,34.37,96431.99,1.1457716
227937789,227920101,3997730,416.18118,34.37,96425.0,1.1456885
228158970,228136236,3997730,416.31067,34.38,96423.5,1.1456707
228370172,228349971,3997730,416.18118,34.38,96425.0,1.1456885
228581949,228563617,3997730,416.07285,34.38,96426.25,1.1457033
228742393,228724624,3997730,416.3767,34.38,96422.75,1.1456618
228963597,228940793,3997730,416.24722,34.38,96424.25,1.1456796
229174811,229154594,3997730,416.4639,34.38,96421.75,1.1456499
229386656,229368267,3997730,416.419,34.38,96422.25,1.1456559
229546630,229529020,3997730,416.4639,34.39,96421.75,1.1456499
229767695,229745069,3997730,416.419,34.39,96422.25,1.1456559
229978801,229958654,3997730,416.744,34.39,96418.5,1.1456113
230190003,230172355,3997730,416.72287,34.39,96418.75,1.1456143
230371021,230348253,3997730,416.44278,34.39,96422.0,1.1456529
230582000,230561802,3997730,416.5511,34.39,96420.74,1.1456379
230743031,230722727,3997730,416.59338,34.39,96420.24,1.145632
230953836,230936223,3997730,416.0517,34.39,96426.5,1.1457063
231174917,231152288,3997730,416.419,34.39,96422.25,1.1456559
231386287,231365997,3997730,416.03058,34.399998,96426.74,1.1457092
231547040,231526878,3997730,416.5511,34.399998,96420.74,1.1456379
231758182,231740522,3997730,416.03058,34.399998,96426.74,1.1457092
231979476,231956798,3997730,416.16003,34.399998,96425.25,1.1456915
232190662,232170497,3997730,416.0517,34.399998,96426.5,1.1457063
232351622,232331325,3997730,416.39786,34.399998,96422.5,1.1456589
232562638,232544953,3997730,416.5273,34.399998,96421.0,1.145641
232784225,232761160,3997730,416.419,34.41,96422.25,1.1456559
232944919,232922152,3997730,416.59338,34.399998,96420.24,1.145632
233156028,233135766,3997730,416.24722,34.41,96424.25,1.1456796
233367189,233349498,3997730,416.44278,34.41,96422.0,1.1456529
233588839,233565666,3997730,416.3767,34.41,96422.75,1.1456618
233759218,233738987,3997730,416.48508,34.41,96421.5,1.1456469
233970518,233952645,3997730,416.39786,34.41,96422.5,1.1456589
234191634,234168894,3997730,416.419,34.41,96422.25,1.1456559
234352472,234329699,3997730,416.11777,34.41,96425.75,1.1456975
234563438,234543290,3997730,416.094,34.41,96426.0,1.1457003
234774536,234756892,3997730,416.11777,34.41,96425.75,1.1456975
234935423,234917677,3997730,416.00943,34.42,96427.0,1.1457123
235156562,235133786,3997730,415.92224,34.42,96428.0,1.1457242
235367788,235347512,3997730,416.20233,34.42,96424.75,1.1456856
235578943,235561255,3997730,416.3344,34.42,96423.25,1.1456677
235759937,235729686,3997730,416.1125,34.42,96425.8,1.145698
235970825,235950694,3997730,416.57227,34.42,96420.49,1.145635
236181958,236164298,3997730,415.98563,34.43,96427.25,1.1457152
236342844,236325181,3997730,416.39786,34.43,96422.5,1.1456589
236564289,236541345,3997730,416.13892,34.43,96425.5,1.1456945
236775138,236754995,3997730,416.3767,34.43,96422.75,1.1456618
236986194,236968575,3997730,416.419,34.43,96422.25,1.1456559
237147139,237129473,3997730,416.31067,34.43,96423.5,1.1456707
237368396,237345606,3997730,416.094,34.43,96426.0,1.1457003
237579349,237559160,3997730,416.57227,34.44,96420.49,1.145635
237791167,237772811,3997730,416.3344,34.43,96423.25,1.1456677
237951353,237933684,3997730,416.419,34.44,96422.25,1.1456559
238172431,238149773,3997730,416.3556,34.44,96423.0,1.1456647
238383782,238363520,3997730,416.81006,34.43,96417.75,1.1456023
238544497,238524367,3997730,416.4639,34.44,96421.75,1.1456499
238755781,238738109,3997730,416.6383,34.44,96419.74,1.1456261
238977138,238954487,3997730,416.3556,34.44,96423.0,1.1456647
239188252,239168088,3997730,416.5273,34.44,96421.0,1.145641
239349072,239328898,3997730,416.18118,34.44,96425.0,1.1456885
239560109,239542428,3997730,416.00943,34.45,96427.0,1.1457123
239781211,239758537,3997730,416.48508,34.45,96421.5,1.1456469
239992372,239972043,3997730,416.5511,34.45,96420.74,1.1456379
240153085,240132885,3997730,416.5511,34.45,96420.74,1.1456379
240384399,240354032,3997730,416.2869,34.45,96423.8,1.1456742
240545222,240522601,3997730,416.5273,34.46,96421.0,1.145641
240756436,240736253,3997730,416.5062,34.46,96421.25,1.145644
240967532,240949861,3997730,416.3767,34.45,96422.75,1.1456618
241188696,241166072,3997730,416.3767,34.46,96422.75,1.1456618
241349652,241326953,3997730,416.13892,34.46,96425.5,1.1456945
241561038,241540697,3997730,416.13892,34.46,96425.5,1.1456945
241792112,241769466,3997730,416.419,34.46,96422.25,1.1456559
241953664,241930444,3997730,416.5511,34.46,96420.74,1.1456379
242174325,242156679,3997730,416.26837,34.46,96424.0,1.1456766
242395401,242372720,3997730,416.5511,34.469997,96420.74,1.1456379
242556306,242533615,3997730,416.3344,34.469997,96423.25,1.1456677
242767619,242747342,3997730,416.16003,34.469997,96425.25,1.1456915
242978739,242961093,3997730,416.6145,34.469997,96419.99,1.145629
243139470,243121844,3997730,416.59338,34.469997,96420.24,1.145632
243360676,243338030,3997730,416.83118,34.469997,96417.5,1.1455994
243571719,243551609,3997730,416.3344,34.469997,96423.25,1.1456677
243782973,243765226,3997730,416.48508,34.469997,96421.5,1.1456469
243943827,243926166,3997730,416.48508,34.469997,96421.5,1.1456469
244164934,244142253,3997730,416.3767,34.48,96422.75,1.1456618
244376091,244355895,3997730,416.57227,34.48,96420.49,1.145635
244587058,244569378,3997730,416.31067,34.48,96423.5,1.1456707
244747859,244730177,3997730,416.3556,34.48,96423.0,1.1456647
244969118,244946409,3997730,416.419,34.48,96422.25,1.1456559
245180046,245159909,3997730,416.48508,34.48,96421.5,1.1456469
245341893,245320858,3997730,416.5062,34.489998,96421.25,1.145644
245572207,245549514,3997730,416.44278,34.48,96422.0,1.1456529
245793418,245769247,3997730,416.32123,34.489998,96423.4,1.1456695
245954183,245936558,3997730,416.2261,34.489998,96424.5,1.1456826
246175438,246152747,3997730,416.5511,34.489998,96420.74,1.1456379
246386435,246366305,3997730,416.3344,34.489998,96423.25,1.1456677
246547161,246527005,3997730,416.419,34.489998,96422.25,1.1456559
246758322,246740700,3997730,416.419,34.489998,96422.25,1.1456559
246979664,246956842,3997730,416.48508,34.489998,96421.5,1.1456469
247190602,247170456,3997730,416.5062,34.5,96421.25,1.145644
247351518,247331381,3997730,416.3556,34.5,96423.0,1.1456647
247562728,247545077,3997730,416.48508,34.5,96421.5,1.1456469
247783985,247761265,3997730,416.39786,34.5,96422.5,1.1456589
247954902,247934771,3997730,416.3344,34.5,96423.25,1.1456677
248166004,248148305,3997730,416.3767,34.5,96422.75,1.1456618
248387035,248364399,3997730,416.3556,34.5,96423.0,1.1456647
248547847,248525186,3997730,416.7889,34.5,96418.0,1.1456053
248759070,248738849,3997730,416.26837,34.5,96424.0,1.1456766
248970257,248952533,3997730,416.5062,34.5,96421.25,1.145644
249191410,249168691,3997730,416.5062,34.5,96421.25,1.145644
249352160,249329485,3997730,416.68057,34.51,96419.24,1.1456201
249563346,249543096,3997730,416.39786,34.51,96422.5,1.1456589
249774376,249756764,3997730,416.5511,34.51,96420.74,1.1456379
249935333,249917497,3997730,416.57227,34.51,96420.49,1.145635
250156526,250133878,3997730,416.26837,34.51,96424.0,1.1456766
250367594,250347396,3997730,416.83118,34.51,96417.5,1.1455994
250578824,250561178,3997730,416.3767,34.51,96422.75,1.1456618
250739822,250722010,3997730,416.48508,34.51,96421.5,1.1456469
250960682,250938050,3997730,416.31067,34.52,96423.5,1.1456707
251172035,251151728,3997730,416.4639,34.52,96421.75,1.1456499
251383213,251365537,3997730,416.68057,34.52,96419.24,1.1456201
251543991,251526372,3997730,416.3556,34.52,96423.0,1.1456647
251765275,251742529,3997730,416.28952,34.52,96423.75,1.1456736
251976385,251956225,3997730,416.4639,34.52,96421.75,1.1456499
252187488,252169879,3997730,416.74664,34.52,96418.49,1.1456112
252348478,252330788,3997730,416.39786,34.52,96422.5,1.1456589
252569579,252546953,3997730,416.5062,34.53,96421.25,1.145644
252780674,252760513,3997730,416.48508,34.53,96421.5,1.1456469
252991808,252974154,3997730,416.59338,34.53,96420.24,1.145632
253152688,253135010,3997730,416.3556,34.53,96423.0,1.1456647
253373794,253351103,3997730,416.3767,34.53,96422.75,1.1456618
253584879,253564623,3997730,416.419,34.53,96422.25,1.1456559
253745620,253725490,3997730,416.68057,34.53,96419.24,1.1456201
253956778,253939100,3997730,416.57227,34.53,96420.49,1.145635
254178101,254155429,3997730,416.5511,34.54,96420.74,1.1456379
254389058,254368927,3997730,416.5273,34.54,96421.0,1.145641
254550927,254529750,3997730,416.48508,34.53,96421.5,1.1456469
254781291,254758639,3997730,416.44278,34.54,96422.0,1.1456529
254942258,254919508,3997730,416.3767,34.54,96422.75,1.1456618
255153295,255133115,3997730,416.13892,34.54,96425.5,1.1456945
255364620,255346749,3997730,416.83383,34.54,96417.49,1.1455992
255585539,255562857,3997730,416.5273,34.55,96421.0,1.145641
255746539,255723711,3997730,416.6145,34.54,96419.99,1.145629
255957522,255937410,3997730,416.3556,34.55,96423.0,1.1456647
256168681,256151041,3997730,416.70172,34.55,96419.0,1.1456172
256389638,256367015,3997730,416.26837,34.55,96424.0,1.1456766
256550510,256527800,3997730,415.98563,34.55,96427.25,1.1457152
256761590,256741375,3997730,416.48508,34.55,96421.5,1.1456469
256972622,256954921,3997730,416.7889,34.55,96417.99,1.1456052
257133361,257115698,3997730,416.7889,34.55,96417.99,1.1456052
257354481,257331811,3997730,416.26837,34.559998,96424.0,1.1456766
257565517,257545309,3997730,416.18118,34.559998,96425.0,1.1456885
257776506,257758878,3997730,416.20233,34.559998,96424.75,1.1456856
257937446,257919789,3997730,416.7255,34.559998,96418.74,1.1456141
258158618,258135907,3997730,416.39786,34.559998,96422.5,1.1456589
258369732,258349422,3997730,416.3767,34.559998,96422.75,1.1456618
258580795,258563055,3997730,416.31067,34.57,96423.5,1.1456707
258741550,258723927,3997730,415.8139,34.57,96429.25,1.145739
258963007,258940272,3997730,416.7255,34.57,96418.74,1.1456141
259174285,259153972,3997730,416.6145,34.57,96419.99,1.145629
259385344,259367622,3997730,415.9011,34.57,96428.25,1.1457272
259546079,259528459,3997730,416.18118,34.57,96425.0,1.1456885
259767299,259744583,3997730,416.3556,34.57,96423.0,1.1456647
259978600,259958433,3997730,416.20233,34.57,96424.75,1.1456856
260189706,260172084,3997730,416.3767,34.579998,96422.75,1.1456618
260350568,260332866,3997730,416.7678,34.579998,96418.24,1.1456082
260581712,260561582,3997730,416.28952,34.57,96423.75,1.1456736
260792858,260775235,3997730,416.3556,34.579998,96423.0,1.1456647
260953714,260936081,3997730,416.7889,34.579998,96417.99,1.1456052
261175043,261152276,3997730,416.5062,34.579998,96421.25,1.145644
261336407,261313154,3997730,416.24722,34.59,96424.25,1.1456796
261557169,261539422,3997730,416.89725,34.579998,96416.75,1.1455905
261778363,261755644,3997730,416.13892,34.579998,96425.5,1.1456945
261989504,261969315,3997730,416.28952,34.59,96423.75,1.1456736
262150977,262130129,3997730,416.26837,34.59,96424.0,1.1456766
262381601,262358941,3997730,416.0517,34.59,96426.5,1.1457063
262592897,262572707,3997730,416.44278,34.59,96422.0,1.1456529
262753628,262733457,3997730,416.59338,34.59,96420.24,1.145632
262964917,262947216,3997730,416.44278,34.59,96422.0,1.1456529
263185986,263163365,3997730,416.28952,34.59,96423.75,1.1456736
263346907,263324215,3997730,416.5511,34.6,96420.74,1.1456379
263558021,263537808,3997730,416.3344,34.6,96423.25,1.1456677
263769234,263751402,3997730,416.5511,34.6,96420.74,1.1456379
263990329,263967609,3997730,415.9011,34.6,96428.25,1.1457272
264151149,264128407,3997730,416.5273,34.6,96421.0,1.145641
264372224,264354581,3997730,416.5273,34.6,96421.0,1.145641
264533103,264515428,3997730,416.3344,34.6,96423.25,1.1456677
264754139,264731432,3997730,416.65945,34.6,96419.49,1.1456231
264965322,264945162,3997730,416.2261,34.6,96424.5,1.1456826
265176428,265158773,3997730,416.24722,34.61,96424.25,1.1456796
265337470,265319640,3997730,416.20233,34.6,96424.75,1.1456856
265558658,265535892,3997730,416.07285,34.61,96426.25,1.1457033
265769662,265749470,3997730,416.24722,34.61,96424.25,1.1456796
265940953,265916351,3997730,416.23404,34.61,96424.4,1.1456814
266161611,266138993,3997730,416.2261,34.61,96424.5,1.1456826
266372685,266352489,3997730,416.5062,34.61,96421.25,1.145644
266583614,266566011,3997730,416.6145,34.61,96419.99,1.145629
266744462,266726724,3997730,416.24722,34.62,96424.25,1.1456796
266965560,266942855,3997730,415.9434,34.62,96427.75,1.1457212
267176802,267156460,3997730,416.3556,34.61,96423.0,1.1456647
267388004,267370330,3997730,416.419,34.62,96422.25,1.1456559
267548763,267531135,3997730,416.31067,34.61,96423.5,1.1456707
267770338,267747536,3997730,416.13892,34.62,96425.5,1.1456945
267981908,267961233,3997730,416.3556,34.62,96423.0,1.1456647
268152297,268134650,3997730,416.59338,34.62,96420.24,1.145632
268373646,268350834,3997730,416.24722,34.62,96424.25,1.1456796
268584577,268564371,3997730,416.28952,34.62,96423.75,1.1456736
268745459,268725266,3997730,416.31067,34.62,96423.49,1.1456707
268956481,268938864,3997730,416.5511,34.62,96420.74,1.1456379
269177526,269154892,3997730,416.3767,34.63,96422.75,1.1456618
269388602,269368485,3997730,416.7889,34.63,96417.99,1.1456052
269549210,269529072,3997730,416.48508,34.63,96421.5,1.1456469
269780522,269750231,3997730,416.51147,34.63,96421.19,1.1456432
269991611,269971326,3997730,416.81006,34.63,96417.75,1.1456023
270152774,270132201,3997730,416.24722,34.63,96424.25,1.1456796
270383591,270360970,3997730,416.3344,34.63,96423.24,1.1456677
270594664,270574502,3997730,416.4639,34.63,96421.75,1.1456499
270755453,270735293,3997730,416.6383,34.63,96419.74,1.1456261
270966645,270948900,3997730,416.28952,34.63,96423.75,1.1456736
271187839,271165144,3997730,416.31067,34.63,96423.5,1.1456707
271348906,271326072,3997730,416.3344,34.64,96423.25,1.1456677
271569979,271552275,3997730,416.3767,34.64,96422.75,1.1456618
271791321,271768556,3997730,416.2261,34.64,96424.5,1.1456826
271952215,271929505,3997730,416.26837,34.64,96424.0,1.1456766
272163357,272143216,3997730,416.24722,34.64,96424.25,1.1456796
272374579,272356827,3997730,416.7255,34.64,96418.74,1.1456141
272535242,272517557,3997730,416.1838,34.64,96424.99,1.1456884
272756347,272733665,3997730,416.26837,34.64,96424.0,1.1456766
272967394,272947189,3997730,416.31067,34.64,96423.5,1.1456707
273138671,273114060,3997730,416.131,34.649998,96425.6,1.1456957
273359501,273336754,3997730,416.18118,34.64,96425.0,1.1456885
273570749,273550574,3997730,416.13892,34.649998,96425.5,1.1456945
273781916,273764233,3997730,416.5273,34.649998,96421.0,1.145641
273943213,273925041,3997730,416.03058,34.649998,96426.75,1.1457093
274164059,274141308,3997730,416.26837,34.649998,96424.0,1.1456766
274375072,274354734,3997730,416.419,34.649998,96422.25,1.1456559
274586045,274568425,3997730,416.5273,34.649998,96421.0,1.145641
274747073,274729298,3997730,416.20233,34.649998,96424.75,1.1456856
274968131,274945437,3997730,415.98563,34.649998,96427.25,1.1457152
275179662,275159147,3997730,416.11777,34.66,96425.75,1.1456975
275390609,275372997,3997730,416.39786,34.66,96422.5,1.1456589
275551883,275533796,3997730,416.26837,34.649998,96424.0,1.1456766
275772726,275750065,3997730,416.3556,34.66,96423.0,1.1456647
275983928,275963798,3997730,416.205,34.66,96424.74,1.1456854
276144771,276124563,3997730,416.26837,34.66,96424.0,1.1456766
276355981,276338198,3997730,416.31067,34.66,96423.5,1.1456707
276577185,276554393,3997730,416.5062,34.66,96421.25,1.145644
276788191,276768017,3997730,416.28952,34.66,96423.75,1.1456736
276949107,276928928,3997730,416.13892,34.67,96425.5,1.1456945
277160623,277142777,3997730,416.3767,34.67,96422.74,1.1456617
277381732,277358995,3997730,416.419,34.67,96422.25,1.1456559
277592920,277572587,3997730,416.44278,34.67,96422.0,1.1456529
277753575,277733453,3997730,416.31067,34.67,96423.5,1.1456707
277964780,277947077,3997730,416.13892,34.67,96425.5,1.1456945
278185903,278163272,3997730,416.89725,34.67,96416.75,1.1455905
278346824,278324086,3997730,417.069,34.67,96414.75,1.1455667
278557914,278537689,3997730,416.419,34.67,96422.25,1.1456559
278769118,278751455,3997730,416.39786,34.67,96422.5,1.1456589
278949853,278919673,3997730,416.44278,34.68,96421.99,1.1456528
279161102,279140829,3997730,416.16003,34.68,96425.25,1.1456915
279372268,279354502,3997730,416.3767,34.68,96422.75,1.1456618
279593419,279570713,3997730,416.5511,34.68,96420.74,1.1456379
279754175,279731553,3997730,416.5511,34.68,96420.74,1.1456379
279965385,279945206,3997730,416.5062,34.68,96421.25,1.145644
280176556,280158936,3997730,416.13892,34.68,96425.5,1.1456945
280337421,280319777,3997730,416.3344,34.68,96423.25,1.1456677
282186960,282169351,3997730,416.4639,34.69,96421.75,1.1456499
282347752,282330106,3997730,416.3344,34.69,96423.25,1.1456677
282991446,282973765,3997730,416.26837,34.7,96424.0,1.1456766
283152483,283134784,3997730,416.5062,34.69,96421.25,1.145644
283373518,283350813,3997730,416.74664,34.7,96418.49,1.1456112
283584687,283564456,3997730,416.44278,34.69,96422.0,1.1456529
283745461,283725281,3997730,416.59338,34.7,96420.24,1.145632
283956603,283938974,3997730,416.5273,34.7,96421.0,1.145641
284177768,284155081,3997730,416.59338,34.7,96420.24,1.145632
284339710,284315969,3997730,416.5273,34.7,96421.0,1.145641
284559894,284542278,3997730,416.2261,34.7,96424.5,1.1456826
284781123,284758304,3997730,416.20233,34.71,96424.75,1.1456856
284992103,284971958,3997730,416.4639,34.7,96421.75,1.1456499
285153265,285132950,3997730,416.57227,34.7,96420.49,1.145635
285364164,285346486,3997730,416.6383,34.71,96419.74,1.1456261
285585394,285562602,3997730,416.5273,34.71,96421.0,1.145641
285746224,285723535,3997730,416.5511,34.71,96420.74,1.1456379
285957344,285937194,3997730,416.8761,34.71,96417.0,1.1455934
286168453,286150731,3997730,416.419,34.71,96422.25,1.1456559
286389484,286366831,3997730,416.59338,34.71,96420.24,1.145632
286560404,286540247,3997730,417.09277,34.71,96414.49,1.1455636
286771567,286753866,3997730,416.74664,34.71,96418.49,1.1456112
286932524,286914730,3997730,416.59338,34.71,96420.24,1.145632
287153569,287130856,3997730,416.94217,34.719997,96416.24,1.1455845
287364919,287344578,3997730,417.04788,34.719997,96415.0,1.1455697
287576034,287558256,3997730,416.93954,34.719997,96416.25,1.1455846
287736934,287719287,3997730,417.26456,34.719997,96412.49,1.1455399
287957998,287935371,3997730,417.17734,34.719997,96413.5,1.1455519
288169359,288149112,3997730,417.30945,34.71,96412.0,1.145534
288380318,288362677,3997730,417.35175,34.719997,96411.5,1.1455281
288541308,288523557,3997730,417.50497,34.719997,96409.75,1.1455073
288762356,288739688,3997730,417.30945,34.719997,96412.0,1.145534
288973544,288953121,3997730,417.43893,34.719997,96410.5,1.1455163
289184519,289166913,3997730,417.069,34.73,96414.75,1.1455667
289345371,289327630,3997730,417.30945,34.719997,96412.0,1.145534
289566697,289544010,3997730,417.76395,34.73,96406.75,1.1454717
289777882,289757624,3997730,417.58954,34.73,96408.75,1.1454954
289989069,289971361,3997730,417.30945,34.73,96412.0,1.145534
290150124,290132270,3997730,417.87225,34.73,96405.5,1.1454568
290371334,290348504,3997730,418.00174,34.73,96404.0,1.145439
290582936,290562313,3997730,417.46005,34.73,96410.25,1.1455133
290743264,290723094,3997730,417.6107,34.739998,96408.5,1.1454924
290954409,290936772,3997730,417.93567,34.73,96404.75,1.1454479
291175533,291152894,3997730,417.63446,34.739998,96408.24,1.1454895
291386590,291366477,3997730,417.69788,34.739998,96407.5,1.1454806
291547467,291527310,3997730,417.41516,34.739998,96410.76,1.1455193
291758593,291740958,3997730,417.54727,34.739998,96409.25,1.1455014
291989901,291969756,3997730,417.83002,34.739998,96405.99,1.1454626
292150913,292130714,3997730,417.93567,34.739998,96404.75,1.1454479
292382055,292359407,3997730,418.11008,34.739998,96402.75,1.1454241
292542978,292520278,3997730,417.76395,34.75,96406.75,1.1454717
292754141,292733812,3997730,418.00174,34.739998,96404.0,1.145439
292965231,292947603,3997730,418.02286,34.739998,96403.75,1.145436
293186501,293163807,3997730,418.2184,34.739998,96401.5,1.1454093
293347347,293324656,3997730,417.71902,34.739998,96407.25,1.1454777
293558572,293538423,3997730,418.3056,34.75,96400.5,1.1453974
293769662,293752034,3997730,418.0678,34.75,96403.25,1.1454301
293990952,293968198,3997730,418.00174,34.75,96404.0,1.145439
294151741,294129103,3997730,417.98062,34.75,96404.25,1.145442
294362872,294342714,3997730,418.41394,34.75,96399.25,1.1453825
294573917,294556251,3997730,418.17615,34.75,96401.99,1.1454152
294734773,294717021,3997730,418.19727,34.76,96401.74,1.1454122
294955893,294933237,3997730,418.17615,34.76,96402.0,1.1454152
295166980,295146733,3997730,418.39282,34.76,96399.5,1.1453855
295378138,295360404,3997730,418.52225,34.76,96398.0,1.1453677
295538846,295521115,3997730,418.6306,34.76,96396.75,1.1453528
295759962,295737267,3997730,418.08893,34.76,96403.0,1.1454271
295970871,295950757,3997730,418.41394,34.76,96399.25,1.1453825
296181933,296164320,3997730,418.41394,34.76,96399.25,1.1453825
296342749,296325127,3997730,418.56454,34.76,96397.5,1.1453618
296564019,296541187,3997730,418.47736,34.76,96398.5,1.1453737
296775161,296754913,3997730,418.47736,34.76,96398.5,1.1453737
296986410,296968718,3997730,418.805,34.77,96394.74,1.145329
297147151,297129537,3997730,418.4351,34.76,96399.0,1.1453795
297368350,297345671,3997730,418.41394,34.76,96399.25,1.1453825
297579444,297559250,3997730,418.47736,34.77,96398.5,1.1453737
297741390,297720144,3997730,418.7178,34.77,96395.74,1.1453409
297971478,297948756,3997730,418.23953,34.77,96401.25,1.1454064
298182865,298162576,3997730,418.6095,34.77,96397.0,1.1453558
298393780,298376169,3997730,418.6729,34.77,96396.25,1.1453469
298554818,298537064,3997730,418.91333,34.78,96393.49,1.1453141
298775861,298753170,3997730,418.65173,34.77,96396.5,1.1453499
298986949,298966701,3997730,418.69403,34.77,96396.0,1.1453439
299147656,299127544,3997730,418.3479,34.78,96400.0,1.1453915
299358801,299341181,3997730,418.97678,34.77,96392.75,1.1453053
299590257,299570091,3997730,418.7601,34.77,96395.24,1.145335
299751051,299730895,3997730,418.7178,34.77,96395.74,1.1453409
299962161,299944473,3997730,418.78387,34.78,96394.99,1.145332
300183402,300160718,3997730,419.01904,34.78,96392.25,1.1452994
300344472,300321611,3997730,419.08508,34.78,96391.49,1.1452904
300555553,300535272,3997730,418.69403,34.78,96396.0,1.1453439
300766672,300748946,3997730,419.2595,34.78,96389.5,1.1452668
300987634,300964995,3997730,419.13,34.78,96391.0,1.1452845
301148476,301125803,3997730,418.91333,34.78,96393.5,1.1453142
301359447,301339335,3997730,418.7601,34.78,96395.24,1.145335
301590852,301560584,3997730,418.72836,34.78,96395.61,1.1453393
301751639,301728964,3997730,419.06393,34.79,96391.75,1.1452935
301962838,301942603,3997730,418.78387,34.79,96394.99,1.145332
302173929,302156309,3997730,418.93448,34.79,96393.24,1.1453111
302334835,302317153,3997730,418.805,34.79,96394.74,1.145329
302555866,302533159,3997730,419.04282,34.79,96392.0,1.1452965
302767151,302746877,3997730,418.7178,34.79,96395.74,1.1453409
302978232,302960538,3997730,418.32675,34.79,96400.25,1.1453944
303138966,303121345,3997730,418.41394,34.79,96399.25,1.1453825
303360110,303337419,3997730,418.6306,34.79,96396.75,1.1453528
303571108,303550995,3997730,418.8896,34.79,96393.75,1.1453172
303782290,303764656,3997730,418.93448,34.79,96393.25,1.1453112
303943189,303925545,3997730,419.34668,34.79,96388.5,1.1452549
304174452,304154321,3997730,418.73895,34.79,96395.49,1.1453379
304385619,304367995,3997730,418.32675,34.79,96400.25,1.1453944
304546808,304528789,3997730,418.39282,34.8,96399.5,1.1453855
304767607,304744925,3997730,418.32675,34.8,96400.25,1.1453944
304978771,304958564,3997730,418.32675,34.8,96400.25,1.1453944
305189830,305172074,3997730,418.6306,34.8,96396.75,1.1453528
305370674,305340507,3997730,418.64383,34.8,96396.59,1.145351
305581722,305561604,3997730,418.50113,34.8,96398.25,1.1453707
305792737,305775090,3997730,417.93567,34.8,96404.75,1.1454479
305953723,305936072,3997730,418.6095,34.8,96397.0,1.1453558
306175196,306152455,3997730,417.74277,34.8,96407.0,1.1454747
306386124,306365970,3997730,417.98062,34.8,96404.25,1.145442
306546990,306526771,3997730,418.08893,34.8,96403.0,1.1454271
306758272,306740512,3997730,417.89343,34.8,96405.25,1.1454538
306979412,306956661,3997730,417.89343,34.8,96405.25,1.1454538
307190621,307170477,3997730,417.82736,34.809998,96406.0,1.1454628
307351390,307331266,3997730,417.70053,34.809998,96407.49,1.1454805
307562714,307544997,3997730,418.00174,34.8,96404.0,1.145439
307783812,307761007,3997730,418.0678,34.809998,96403.25,1.1454301
307944717,307922044,3997730,418.04666,34.809998,96403.5,1.1454331
308155865,308135680,3997730,418.13123,34.809998,96402.5,1.1454211
308366963,308349302,3997730,417.95944,34.809998,96404.5,1.145445
308588039,308565386,3997730,417.76395,34.809998,96406.75,1.1454717
308748907,308726224,3997730,417.63184,34.809998,96408.25,1.1454895
308959989,308939804,3997730,418.04666,34.82,96403.5,1.1454331
309171015,309153369,3997730,417.85114,34.809998,96405.75,1.1454598
309392299,309369516,3997730,418.00174,34.82,96404.0,1.145439
309553141,309530306,3997730,418.0678,34.82,96403.25,1.1454301
309764123,309743974,3997730,417.95944,34.82,96404.5,1.145445
309975006,309957397,3997730,418.56454,34.82,96397.5,1.1453618
310135878,310118112,3997730,418.91333,34.82,96393.5,1.1453142
310357037,310334184,3997730,418.6306,34.82,96396.75,1.1453528
310567935,310547779,3997730,418.26334,34.82,96401.0,1.1454034
310779150,310761376,3997730,418.36902,34.82,96399.75,1.1453885
310940025,310922357,3997730,418.6729,34.82,96396.25,1.1453469
311161104,311138417,3997730,419.06393,34.82,96391.75,1.1452935
311372197,311352059,3997730,418.5857,34.829998,96397.25,1.1453588
311583361,311565669,3997730,418.50113,34.82,96398.25,1.1453707
311764410,311741705,3997730,418.36902,34.82,96399.75,1.1453885
311975353,311955219,3997730,418.41394,34.82,96399.25,1.1453825
312186614,312168925,3997730,418.3479,34.829998,96400.0,1.1453915
312347443,312329700,3997730,418.00174,34.829998,96404.0,1.145439
312568578,312545922,3997730,417.89343,34.829998,96405.25,1.1454538
312779750,312759489,3997730,417.71902,34.829998,96407.25,1.1454777
312941338,312920383,3997730,418.0678,34.82,96403.25,1.1454301
313171573,313148939,3997730,418.56454,34.829998,96397.5,1.1453618
313382766,313362583,3997730,417.89343,34.829998,96405.25,1.1454538
313543770,313523644,3997730,417.74277,34.82,96406.99,1.1454746
313755251,313737429,3997730,417.65558,34.829998,96407.99,1.1454865
313976193,313953531,3997730,417.71902,34.829998,96407.25,1.1454777
314187433,314167267,3997730,417.83002,34.82,96405.99,1.1454626
314348300,314328092,3997730,417.82736,34.829998,96406.0,1.1454628
314559509,314541739,3997730,417.74277,34.829998,96407.0,1.1454747
314780481,314757747,3997730,417.48123,34.829998,96410.0,1.1455103
314992060,314971361,3997730,417.8062,34.829998,96406.25,1.1454657
315162391,315144742,3997730,417.58954,34.829998,96408.75,1.1454954
315383455,315360831,3997730,417.91455,34.829998,96405.0,1.1454508
315564543,315540392,3997730,417.8987,34.829998,96405.195,1.1454532
315785773,315763083,3997730,417.58954,34.829998,96408.75,1.1454954
315946605,315923924,3997730,417.78506,34.829998,96406.5,1.1454687
316157674,316137464,3997730,417.8062,34.829998,96406.25,1.1454657
316368875,316351160,3997730,417.24338,34.829998,96412.74,1.1455429
316589855,316567209,3997730,417.30945,34.829998,96412.0,1.145534
316750701,316728084,3997730,417.48123,34.829998,96410.0,1.1455103
316962057,316941783,3997730,417.78506,34.84,96406.49,1.1454686
317173197,317155429,3997730,417.4178,34.829998,96410.74,1.1455191
317333904,317316250,3997730,417.50497,34.829998,96409.75,1.1455073
317555036,317532375,3997730,417.6107,34.84,96408.5,1.1454924
317766077,317745946,3997730,417.91455,34.84,96405.0,1.1454508
317977224,317959582,3997730,417.3306,34.84,96411.74,1.1455309
318138031,318120321,3997730,417.13507,34.84,96414.0,1.1455578
318359264,318336401,3997730,417.28833,34.84,96412.24,1.1455369
318570368,318550090,3997730,417.22226,34.84,96413.0,1.145546
318781324,318763683,3997730,417.39664,34.84,96411.0,1.1455221
318942149,318924489,3997730,417.41516,34.84,96410.76,1.1455193
319163358,319140703,3997730,417.24338,34.84,96412.75,1.145543
319374521,319354367,3997730,417.0267,34.84,96415.25,1.1455727
319585578,319567968,3997730,417.1139,34.84,96414.24,1.1455607
319766518,319743852,3997730,417.17734,34.84,96413.5,1.1455519
319977815,319957658,3997730,417.17734,34.85,96413.5,1.1455519
320188907,320171279,3997730,417.04788,34.84,96415.0,1.1455697
320349981,320332241,3997730,417.39664,34.84,96411.0,1.1455221
320581037,320560903,3997730,416.81006,34.85,96417.75,1.1456023
320792129,320774418,3997730,417.069,34.84,96414.75,1.1455667
320952858,320935235,3997730,417.0267,34.85,96415.25,1.1455727
321174193,321151421,3997730,416.7255,34.85,96418.74,1.1456141
321385513,321365221,3997730,416.9184,34.84,96416.49,1.1455874
321546345,321526210,3997730,416.6383,34.85,96419.74,1.1456261
321757449,321739727,3997730,416.48508,34.85,96421.5,1.1456469
321978582,321955911,3997730,416.2261,34.85,96424.5,1.1456826
322189667,322169548,3997730,416.68057,34.85,96419.24,1.1456201
322350657,322330381,3997730,416.6145,34.85,96419.99,1.145629
322561699,322543926,3997730,416.57227,34.85,96420.49,1.145635
322782717,322760028,3997730,416.72287,34.85,96418.75,1.1456143
322943455,322920815,3997730,416.57227,34.85,96420.49,1.145635
323154534,323134393,3997730,416.7255,34.85,96418.74,1.1456141
323365633,323348023,3997730,416.83118,34.86,96417.5,1.1455994
323586924,323564129,3997730,416.8761,34.86,96416.99,1.1455934
323747631,323724918,3997730,416.48508,34.85,96421.5,1.1456469
323958789,323938508,3997730,416.5273,34.86,96421.0,1.145641
324169900,324152172,3997730,416.6383,34.86,96419.74,1.1456261
324350902,324320658,3997730,416.92896,34.85,96416.39,1.1455863
324561840,324541722,3997730,416.57227,34.85,96420.49,1.145635
324723187,324702777,3997730,416.57227,34.86,96420.49,1.145635
324954085,324931421,3997730,416.70172,34.85,96419.0,1.1456172
325165274,325144908,3997730,416.744,34.86,96418.5,1.1456113
325376104,325358448,3997730,416.3344,34.86,96423.25,1.1456677
325536816,325519081,3997730,416.7889,34.86,96417.99,1.1456052
325758073,325735314,3997730,416.74664,34.86,96418.49,1.1456112
325969819,325949048,3997730,416.7255,34.85,96418.74,1.1456141
326140101,326122493,3997730,416.65945,34.86,96419.49,1.1456231
326361224,326338561,3997730,416.59338,34.86,96420.24,1.145632
326582451,326564794,3997730,416.48508,34.86,96421.5,1.1456469
326743243,326725606,3997730,416.65945,34.86,96419.49,1.1456231
326964491,326941869,3997730,416.81006,34.86,96417.74,1.1456022
327175623,327155509,3997730,416.7889,34.86,96417.99,1.1456052
327386854,327369145,3997730,417.1139,34.86,96414.24,1.1455607
327547804,327530168,3997730,416.57227,34.86,96420.49,1.145635
327769012,327746331,3997730,416.83383,34.86,96417.49,1.1455992
327980047,327959895,3997730,417.1139,34.86,96414.24,1.1455607
328141293,328120769,3997730,416.63568,34.86,96419.75,1.1456262
328372198,328349461,3997730,416.65945,34.86,96419.49,1.1456231
328583437,328563241,3997730,416.83383,34.87,96417.49,1.1455992
328744154,328723993,3997730,416.68057,34.87,96419.24,1.1456201
328955342,328937664,3997730,416.6383,34.86,96419.74,1.1456261
329176685,329153869,3997730,416.59338,34.86,96420.24,1.145632
329387712,329367476,3997730,416.89725,34.86,96416.75,1.1455905
329548616,329528363,3997730,416.83118,34.86,96417.5,1.1455994
329759802,329742112,3997730,416.74664,34.86,96418.49,1.1456112
329980911,329958285,3997730,416.6145,34.87,96419.99,1.145629
330142908,330119076,3997730,416.3767,34.87,96422.75,1.1456618
330363036,330345384,3997730,416.5273,34.87,96421.0,1.145641
330584371,330561643,3997730,416.65945,34.86,96419.49,1.1456231
330745354,330722598,3997730,416.7255,34.87,96418.74,1.1456141
330957129,330936244,3997730,416.5062,34.87,96421.25,1.145644
331187572,331164863,3997730,416.7889,34.87,96418.0,1.1456053
331348383,331325693,3997730,416.68057,34.87,96419.24,1.1456201
331559499,331539375,3997730,416.5062,34.87,96421.25,1.145644
331770649,331753044,3997730,417.09277,34.87,96414.49,1.1455636
331951514,331928877,3997730,416.419,34.87,96422.25,1.1456559
332162646,332142511,3997730,416.7889,34.87,96418.0,1.1456053
332373864,332356206,3997730,416.3344,34.87,96423.25,1.1456677
332534785,332516954,3997730,416.6383,34.87,96419.74,1.1456261
332755887,332733121,3997730,416.74664,34.88,96418.49,1.1456112
332966757,332946616,3997730,416.8761,34.87,96416.99,1.1455934
333177852,333160120,3997730,416.83118,34.87,96417.5,1.1455994
333338711,333321046,3997730,416.8761,34.87,96417.0,1.1455934
333560043,333537106,3997730,417.069,34.87,96414.75,1.1455667
333770903,333750743,3997730,416.7889,34.87,96417.99,1.1456052
333982041,333964407,3997730,416.7678,34.88,96418.25,1.1456083
334142989,334125247,3997730,416.89725,34.88,96416.75,1.1455905
334363998,334341302,3997730,416.98447,34.87,96415.75,1.1455786
334575161,334555022,3997730,416.65945,34.88,96419.49,1.1456231
334786267,334768532,3997730,416.89725,34.88,96416.75,1.1455905
334947069,334929434,3997730,417.13507,34.88,96413.99,1.1455578
335168462,335145684,3997730,416.98447,34.88,96415.75,1.1455786
335379529,335359263,3997730,416.7255,34.88,96418.74,1.1456141
335590663,335572945,3997730,416.8761,34.88,96417.0,1.1455934
335751513,335733839,3997730,417.13507,34.88,96414.0,1.1455578
335972670,335950014,3997730,416.98447,34.88,96415.75,1.1455786
336143655,336123423,3997730,416.96066,34.88,96416.0,1.1455816
336354714,336337052,3997730,416.24722,34.88,96424.25,1.1456796
336575828,336553150,3997730,416.7889,34.88,96418.0,1.1456053
336786977,336766840,3997730,416.9184,34.88,96416.5,1.1455876
336957932,336933655,3997730,416.45862,34.88,96421.8,1.1456505
337179131,337156340,3997730,416.9184,34.88,96416.5,1.1455876
337340057,337317089,3997730,416.8761,34.88,96416.99,1.1455934
337560889,337543270,3997730,417.09277,34.88,96414.49,1.1455636
337782034,337759389,3997730,416.6383,34.88,96419.74,1.1456261
337993134,337972927,3997730,416.74664,34.88,96418.49,1.1456112
338154551,338133875,3997730,416.96066,34.89,96416.0,1.1455816
338385288,338362600,3997730,416.6383,34.89,96419.74,1.1456261
338545992,338523340,3997730,416.65945,34.89,96419.49,1.1456231
338757087,338736951,3997730,416.70172,34.88,96418.99,1.1456171
338968199,338950569,3997730,417.1562,34.88,96413.74,1.1455548
339189293,339166634,3997730,416.70172,34.88,96418.99,1.1456171
339350202,339327561,3997730,416.5062,34.88,96421.25,1.145644
339561468,339541310,3997730,416.98447,34.89,96415.75,1.1455786
339772564,339754943,3997730,416.81006,34.89,96417.75,1.1456023
339953555,339923293,3997730,416.56433,34.89,96420.59,1.1456362
340164599,340144424,3997730,416.5062,34.89,96421.25,1.145644
340375765,340358104,3997730,417.20114,34.89,96413.24,1.1455488
340536633,340519011,3997730,416.98447,34.89,96415.75,1.1455786
340757843,340735176,3997730,417.069,34.89,96414.75,1.1455667
340968722,340948597,3997730,416.7678,34.89,96418.24,1.1456082
341179877,341162249,3997730,416.93954,34.89,96416.25,1.1455846
341340738,341323130,3997730,416.7255,34.89,96418.74,1.1456141
341561964,341539223,3997730,416.6145,34.89,96419.99,1.145629
341773103,341752912,3997730,416.9184,34.89,96416.5,1.1455876
341984191,341966557,3997730,416.70172,34.89,96418.99,1.1456171
342145056,342127366,3997730,417.09277,34.89,96414.49,1.1455636
342366390,342343565,3997730,416.93954,34.89,96416.25,1.1455846
342577368,342557157,3997730,417.00558,34.89,96415.5,1.1455756
342788608,342770865,3997730,416.5511,34.899998,96420.74,1.1456379
342949456,342931762,3997730,416.93954,34.899998,96416.25,1.1455846
343170845,343148136,3997730,416.85236,34.89,96417.25,1.1455964
343381895,343361623,3997730,417.1139,34.89,96414.24,1.1455607
343593229,343575377,3997730,416.7678,34.899998,96418.24,1.1456082
343753945,343736304,3997730,416.9184,34.899998,96416.5,1.1455876
343975033,343952281,3997730,417.46005,34.899998,96410.24,1.1455132
344186192,344165974,3997730,416.89725,34.89,96416.75,1.1455905
344347110,344326872,3997730,417.00558,34.89,96415.5,1.1455756
344558394,344540688,3997730,416.98447,34.899998,96415.75,1.1455786
344779471,344756793,3997730,417.22226,34.899998,96413.0,1.145546
344990554,344970410,3997730,417.0267,34.899998,96415.25,1.1455727
345151439,345131143,3997730,417.22226,34.899998,96413.0,1.145546
345362687,345344992,3997730,417.26456,34.899998,96412.5,1.14554
345583817,345561128,3997730,417.26456,34.899998,96412.49,1.1455399
345744646,345722016,3997730,417.0267,34.899998,96415.25,1.1455727
345955847,345935687,3997730,416.93954,34.899998,96416.25,1.1455846
346167051,346149398,3997730,417.22226,34.899998,96413.0,1.145546
346388430,346365602,3997730,417.35175,34.899998,96411.5,1.1455281
346549111,346526438,3997730,417.5684,34.899998,96409.0,1.1454984
346760187,346740069,3997730,417.24338,34.899998,96412.74,1.1455429
346971367,346953635,3997730,417.26456,34.899998,96412.5,1.14554
347192449,347169775,3997730,417.20114,34.899998,96413.24,1.1455488
347353345,347330566,3997730,417.37286,34.899998,96411.24,1.1455251
347564564,347544323,3997730,417.35175,34.899998,96411.5,1.1455281
347775659,347757945,3997730,417.3306,34.899998,96411.74,1.1455309
347936561,347918931,3997730,417.46005,34.899998,96410.24,1.1455132
348157926,348135172,3997730,417.24338,34.91,96412.74,1.1455429
348368974,348348847,3997730,417.52347,34.91,96409.5,1.1455044
348580245,348562428,3997730,417.41516,34.899998,96410.76,1.1455193
348741006,348723351,3997730,417.43893,34.91,96410.5,1.1455163
348962051,348939382,3997730,417.76395,34.899998,96406.75,1.1454717
349173392,349153217,3997730,417.46005,34.91,96410.24,1.1455132
349384513,349366860,3997730,417.30945,34.91,96412.0,1.145534
349545392,349527733,3997730,417.52347,34.91,96409.5,1.1455044
349766479,349743829,3997730,417.39664,34.91,96411.0,1.1455221
349977595,349957351,3997730,417.39664,34.91,96410.99,1.1455221
350188785,350171094,3997730,417.58954,34.91,96408.75,1.1454954
350349801,350331943,3997730,417.6107,34.91,96408.5,1.1454924
350570770,350548035,3997730,417.50497,34.91,96409.74,1.1455072
350781752,350761532,3997730,417.67673,34.91,96407.74,1.1454835
350993007,350975289,3997730,417.58954,34.91,96408.75,1.1454954
351174291,351143836,3997730,417.4125,34.91,96410.79,1.1455196
351385461,351365200,3997730,417.17734,34.91,96413.5,1.1455519
351546194,351526057,3997730,417.30945,34.91,96412.0,1.145534
351757408,351739612,3997730,417.70053,34.91,96407.49,1.1454805
351978582,351955724,3997730,417.22226,34.91,96413.0,1.145546
352189413,352169293,3997730,417.76395,34.92,96406.75,1.1454717
352350419,352330076,3997730,417.6107,34.92,96408.5,1.1454924
352561463,352543779,3997730,417.6107,34.92,96408.5,1.1454924
352783262,352759985,3997730,417.04788,34.92,96415.0,1.1455697
352953544,352933401,3997730,417.20114,34.92,96413.24,1.1455488
353164722,353147076,3997730,417.43893,34.92,96410.5,1.1455163
353386039,353363242,3997730,417.43893,34.92,96410.5,1.1455163
353546747,353524057,3997730,417.3306,34.92,96411.74,1.1455309
353757934,353737765,3997730,417.35175,34.92,96411.5,1.1455281
353968920,353951309,3997730,417.46005,34.92,96410.24,1.1455132
354190182,354167422,3997730,417.50497,34.92,96409.75,1.1455073
354351038,354328235,3997730,417.67673,34.92,96407.74,1.1454835
354561974,354541765,3997730,417.71902,34.92,96407.25,1.1454777
354773355,354755681,3997730,417.91455,34.92,96405.01,1.145451
354934109,354916482,3997730,417.82736,34.92,96406.0,1.1454628
355155354,355132702,3997730,417.98062,34.92,96404.25,1.145442
355366377,355346209,3997730,417.89343,34.92,96405.25,1.1454538
355577521,355559901,3997730,418.155,34.92,96402.25,1.1454182
355738409,355720642,3997730,417.76395,34.92,96406.75,1.1454717
355959467,355936810,3997730,417.91455,34.92,96405.0,1.1454508
356170920,356150458,3997730,417.74277,34.93,96406.99,1.1454746
356341605,356323914,3997730,418.04666,34.92,96403.5,1.1454331
356563565,356540165,3997730,417.95682,34.92,96404.51,1.145445
356783951,356766258,3997730,417.91455,34.92,96405.0,1.1454508
356944729,356927067,3997730,417.91455,34.93,96405.0,1.1454508
357165874,357143216,3997730,417.39664,34.93,96411.0,1.1455221
357376915,357356788,3997730,417.82736,34.93,96406.0,1.1454628
357588090,357570458,3997730,418.17615,34.93,96402.0,1.1454152
357749117,357731417,3997730,417.74277,34.92,96407.0,1.1454747
357980511,357960337,3997730,418.08893,34.93,96403.0,1.1454271
358191547,358173935,3997730,418.2184,34.93,96401.5,1.1454093
358372354,358349699,3997730,417.93567,34.93,96404.75,1.1454479
358583455,358563322,3997730,417.65558,34.93,96407.99,1.1454865
358794577,358776920,3997730,418.08893,34.93,96403.0,1.1454271
358955457,358937668,3997730,417.87225,34.93,96405.5,1.1454568
359176607,359153892,3997730,418.08893,34.93,96403.0,1.1454271
359387969,359367729,3997730,418.04666,34.93,96403.5,1.1454331
359548788,359528649,3997730,417.50497,34.93,96409.75,1.1455073
359759950,359742317,3997730,417.87225,34.93,96405.49,1.1454567
359981081,359958434,3997730,417.78506,34.93,96406.49,1.1454686
360192228,360172035,3997730,417.8062,34.93,96406.25,1.1454657
360353128,360332857,3997730,417.43893,34.93,96410.5,1.1455163
360564061,360546404,3997730,417.48123,34.93,96410.0,1.1455103
360785193,360762473,3997730,417.39664,34.93,96411.0,1.1455221
360945979,360923308,3997730,417.069,34.93,96414.75,1.1455667
361157016,361136902,3997730,417.20114,34.93,96413.24,1.1455488
361368074,361350389,3997730,417.50497,34.93,96409.75,1.1455073
361589411,361566600,3997730,417.24338,34.93,96412.74,1.1455429
361750073,361727429,3997730,417.24338,34.93,96412.76,1.1455431
361961098,361940912,3997730,417.3306,34.93,96411.74,1.1455309
362192458,362169778,3997730,417.39664,34.93,96411.0,1.1455221
362353437,362330655,3997730,417.069,34.94,96414.75,1.1455667
362564503,362544324,3997730,417.30945,34.93,96412.0,1.145534
362775558,362757882,3997730,417.35175,34.93,96411.51,1.1455282
362936386,362918771,3997730,417.48123,34.93,96410.0,1.1455103
363157612,363134899,3997730,417.20114,34.94,96413.24,1.1455488
363369002,363348688,3997730,417.46005,34.93,96410.25,1.1455133
363580043,363562311,3997730,417.22226,34.94,96413.0,1.145546
363741859,363723064,3997730,417.0267,34.94,96415.25,1.1455727
363961974,363939343,3997730,417.20114,34.94,96413.24,1.1455488
364173125,364152943,3997730,416.96066,34.93,96416.0,1.1455816
364384243,364366603,3997730,417.30945,34.94,96412.0,1.145534
364546761,364527556,3997730,417.069,34.94,96414.75,1.1455667
364766219,364743589,3997730,416.96066,34.94,96416.0,1.1455816
364977322,364957170,3997730,417.28568,34.93,96412.25,1.145537
365188510,365170860,3997730,417.1139,34.94,96414.24,1.1455607
365349353,365331709,3997730,417.43893,34.94,96410.5,1.1455163
365570514,365547836,3997730,416.8761,34.94,96417.0,1.1455934
365781435,365761313,3997730,417.20114,34.94,96413.24,1.1455488
365992656,365975027,3997730,416.93954,34.94,96416.25,1.1455846
366153693,366135989,3997730,416.7889,34.94,96418.0,1.1456053
366374898,366352263,3997730,416.68057,34.94,96419.24,1.1456201
366585962,366565834,3997730,417.04788,34.94,96415.0,1.1455697
366746844,366726683,3997730,416.5273,34.94,96421.0,1.145641
366958056,366940261,3997730,417.13507,34.94,96413.99,1.1455578
367179172,367156406,3997730,416.44278,34.94,96422.0,1.1456529
367390357,367370143,3997730,416.6145,34.94,96419.99,1.145629
367561120,367536954,3997730,416.6145,34.94,96420.0,1.145629
367782221,367759557,3997730,416.26837,34.94,96424.0,1.1456766
367943158,367920533,3997730,416.81006,34.94,96417.75,1.1456023
368154158,368133992,3997730,416.85498,34.94,96417.24,1.1455964
368365245,368347542,3997730,416.70172,34.94,96419.0,1.1456172
368586362,368563664,3997730,416.89725,34.94,96416.75,1.1455905
368747110,368724449,3997730,416.89725,34.94,96416.75,1.1455905
368968356,368950581,3997730,416.4639,34.94,96421.75,1.1456499
369189418,369166703,3997730,416.5062,34.94,96421.25,1.145644
369360154,369340036,3997730,416.7678,34.95,96418.25,1.1456083
369571207,369553570,3997730,416.59338,34.94,96420.24,1.145632
369792453,369769739,3997730,416.7889,34.94,96418.0,1.1456053
369953304,369930519,3997730,416.20233,34.94,96424.75,1.1456856
370164538,370144212,3997730,416.8761,34.94,96417.0,1.1455934
370375563,370357896,3997730,416.4639,34.94,96421.75,1.1456499
370536325,370518707,3997730,416.7255,34.94,96418.74,1.1456141
370757506,370734843,3997730,416.7255,34.94,96418.74,1.1456141
370968643,370948508,3997730,416.63568,34.94,96419.75,1.1456262
371179648,371161967,3997730,416.68057,34.94,96419.24,1.1456201
371341037,371323127,3997730,416.6383,34.94,96419.74,1.1456261
371561922,371539285,3997730,416.81006,34.95,96417.75,1.1456023
371773341,371752886,3997730,416.83383,34.94,96417.49,1.1455992
371943879,371926231,3997730,416.70172,34.94,96419.0,1.1456172
372164953,372142217,3997730,416.744,34.94,96418.5,1.1456113
372376160,372355907,3997730,416.7678,34.94,96418.25,1.1456083
372587395,372569604,3997730,417.13507,34.94,96414.0,1.1455578
372748123,372730468,3997730,416.68057,34.95,96419.24,1.1456201
372969323,372946567,3997730,416.85236,34.95,96417.25,1.1455964
373190778,373173000,3997730,416.6145,34.94,96420.0,1.145629
373351549,373333902,3997730,416.70172,34.95,96419.0,1.1456172
373572652,373550011,3997730,416.93954,34.94,96416.25,1.1455846
373783685,373763572,3997730,416.81006,34.94,96417.75,1.1456023
373994809,373977169,3997730,416.8761,34.95,96416.99,1.1455934
374155692,374138039,3997730,416.81006,34.94,96417.75,1.1456023
374386912,374366741,3997730,416.93954,34.94,96416.25,1.1455846
374547669,374527540,3997730,416.9184,34.94,96416.5,1.1455876
374758702,374741095,3997730,416.85498,34.95,96417.24,1.1455964
374979881,374957233,3997730,417.22226,34.94,96413.0,1.145546
375191253,375170919,3997730,417.0267,34.94,96415.25,1.1455727
375352032,375331850,3997730,416.89725,34.94,96416.74,1.1455904
375563422,375545575,3997730,417.4178,34.94,96410.75,1.1455193
375784393,375761729,3997730,416.83118,34.95,96417.5,1.1455994
375945257,375922507,3997730,416.7889,34.94,96417.99,1.1456052
376156306,376136063,3997730,417.0267,34.94,96415.25,1.1455727
376367600,376349728,3997730,417.04788,34.94,96415.0,1.1455697
376588618,376565876,3997730,417.17734,34.94,96413.5,1.1455519
376749422,376726765,3997730,417.1562,34.94,96413.74,1.1455548
376960539,376940397,3997730,417.17996,34.94,96413.49,1.1455518
377171795,377154053,3997730,417.43893,34.95,96410.5,1.1455163
377393073,377370252,3997730,417.04788,34.95,96415.0,1.1455697
377553736,377531106,3997730,417.20114,34.94,96413.24,1.1455488
377764872,377744684,3997730,417.37286,34.94,96411.25,1.1455251
377975869,377958244,3997730,417.4178,34.95,96410.74,1.1455191
378136823,378119056,3997730,417.1139,34.94,96414.24,1.1455607
378357934,378335159,3997730,417.22226,34.95,96413.0,1.145546
378568898,378548713,3997730,417.6107,34.95,96408.5,1.1454924
378780095,378762368,3997730,417.65558,34.94,96407.99,1.1454865
378941661,378923226,3997730,417.1139,34.94,96414.24,1.1455607
379162105,379139466,3997730,417.59216,34.94,96408.74,1.1454953
379383345,379359067,3997730,417.35965,34.94,96411.4,1.1455269
379544146,379526523,3997730,417.85114,34.94,96405.75,1.1454598
379765406,379742557,3997730,417.1562,34.94,96413.74,1.1455548
379976293,379956073,3997730,417.5684,34.95,96409.0,1.1454984
380187478,380169834,3997730,417.74277,34.94,96406.99,1.1454746
380348191,380330523,3997730,417.76395,34.94,96406.75,1.1454717
380569579,380546769,3997730,418.00174,34.95,96404.0,1.145439
380790633,380772950,3997730,417.63184,34.95,96408.25,1.1454895
380951483,380933822,3997730,417.85114,34.94,96405.75,1.1454598
381172492,381149869,3997730,417.63184,34.95,96408.25,1.1454895
381383631,381363429,3997730,417.6107,34.95,96408.5,1.1454924
381544726,381524257,3997730,417.95944,34.95,96404.5,1.145445
381775625,381752888,3997730,417.50497,34.94,96409.75,1.1455073
381937129,381913781,3997730,417.74277,34.95,96406.99,1.1454746
382157888,382140216,3997730,417.76395,34.94,96406.74,1.1454716
382379254,382356464,3997730,417.78506,34.95,96406.49,1.1454686
382590325,382570153,3997730,417.67673,34.95,96407.75,1.1454835
382761116,382736977,3997730,417.91455,34.95,96405.0,1.1454508
382982455,382959720,3997730,417.85114,34.95,96405.75,1.1454598
383193718,383173375,3997730,417.89343,34.95,96405.25,1.1454538
383354536,383334336,3997730,417.95944,34.95,96404.5,1.145445
383565715,383547982,3997730,417.8062,34.95,96406.25,1.1454657
383786751,383764104,3997730,417.67673,34.94,96407.74,1.1454835
383947730,383925019,3997730,417.95944,34.94,96404.49,1.1454449
384158888,384138701,3997730,417.95944,34.95,96404.49,1.1454449
384370182,384352508,3997730,417.89343,34.95,96405.24,1.1454538
384591347,384568589,3997730,417.89343,34.95,96405.25,1.1454538
384752284,384729479,3997730,418.08893,34.95,96403.0,1.1454271
384963347,384943037,3997730,418.23953,34.95,96401.25,1.1454064
385174862,385156722,3997730,417.98062,34.95,96404.25,1.145442
385335196,385317512,3997730,417.95944,34.95,96404.5,1.145445
385556552,385533826,3997730,418.39282,34.95,96399.5,1.1453855
385767729,385747517,3997730,418.00174,34.95,96404.0,1.145439
385978833,385961071,3997730,418.3056,34.95,96400.5,1.1453974
386139643,386121902,3997730,418.19727,34.95,96401.75,1.1454122
386360649,386337982,3997730,418.45624,34.95,96398.75,1.1453766
386571765,386551652,3997730,418.19727,34.95,96401.75,1.1454122
386782896,386765233,3997730,418.45624,34.95,96398.75,1.1453766
386943782,386925964,3997730,418.6095,34.95,96397.0,1.1453558
387164818,387142100,3997730,418.56454,34.95,96397.5,1.1453618
387375679,387355528,3997730,418.54343,34.95,96397.75,1.1453648
387587072,387569324,3997730,418.26334,34.95,96401.0,1.1454034
387747777,387730154,3997730,418.4351,34.95,96399.0,1.1453795
387968867,387946235,3997730,418.6306,34.95,96396.75,1.1453528
388180196,388159898,3997730,418.8473,34.95,96394.24,1.145323
388391222,388373554,3997730,418.52225,34.95,96398.0,1.1453677
388552921,388534637,3997730,418.7601,34.95,96395.24,1.145335
388773548,388750904,3997730,418.805,34.95,96394.74,1.145329
388984665,388964492,3997730,418.69403,34.95,96396.0,1.1453439
389145582,389125330,3997730,418.45624,34.95,96398.75,1.1453766
389356553,389338847,3997730,418.3479,34.96,96400.0,1.1453915
389577843,389555071,3997730,418.47736,34.95,96398.5,1.1453737
389789126,389768720,3997730,418.52225,34.95,96398.0,1.1453677
389949737,389929611,3997730,418.47736,34.95,96398.5,1.1453737
390160906,390143219,3997730,418.08893,34.96,96403.0,1.1454271
390392386,390372113,3997730,418.56454,34.94,96397.5,1.1453618
390553191,390533026,3997730,418.39282,34.95,96399.5,1.1453855
390764359,390746605,3997730,418.65173,34.95,96396.5,1.1453499
390985383,390962759,3997730,418.6095,34.95,96397.0,1.1453558
391146389,391123595,3997730,418.73895,34.95,96395.49,1.1453379
391357347,391337134,3997730,418.65173,34.95,96396.5,1.1453499
391568422,391550739,3997730,418.95563,34.95,96392.99,1.1453083
391789689,391767018,3997730,418.65173,34.95,96396.5,1.1453499
391950505,391927883,3997730,418.45624,34.95,96398.75,1.1453766
392161838,392141559,3997730,418.78387,34.95,96394.99,1.145332
392393259,392362678,3997730,418.7469,34.95,96395.39,1.1453367
392563716,392543579,3997730,418.5857,34.95,96397.25,1.1453588
392775034,392757359,3997730,418.7178,34.95,96395.74,1.1453409
392955988,392933293,3997730,418.6095,34.95,96397.0,1.1453558
393167133,393146976,3997730,418.65173,34.95,96396.5,1.1453499
393378294,393360653,3997730,418.4351,34.96,96399.0,1.1453795
393539360,393521492,3997730,418.37164,34.95,96399.74,1.1453884
393760194,393737542,3997730,418.7178,34.96,96395.74,1.1453409
393971252,393951026,3997730,418.73895,34.96,96395.49,1.1453379
394142131,394117935,3997730,418.88693,34.95,96393.79,1.1453177
394363155,394340530,3997730,419.10623,34.95,96391.25,1.1452875
394574433,394554167,3997730,418.3479,34.95,96400.0,1.1453915
394785597,394767918,3997730,418.73895,34.95,96395.49,1.1453379
394946450,394928761,3997730,418.54343,34.95,96397.75,1.1453648
395167699,395145016,3997730,418.6306,34.96,96396.75,1.1453528
395378783,395358668,3997730,418.47736,34.95,96398.5,1.1453737
395589776,395572121,3997730,418.45624,34.96,96398.75,1.1453766
395770634,395740410,3997730,418.5751,34.96,96397.4,1.1453606
395981760,395961483,3997730,418.155,34.96,96402.25,1.1454182
396142806,396122498,3997730,418.23953,34.96,96401.24,1.1454062
396353749,396336103,3997730,418.02286,34.95,96403.75,1.145436
396574995,396552273,3997730,418.23953,34.95,96401.25,1.1454064
396786038,396765912,3997730,418.26334,34.95,96400.99,1.1454033
396947466,396926689,3997730,418.6306,34.95,96396.75,1.1453528
397178152,397155501,3997730,418.5857,34.95,96397.25,1.1453588
397389354,397369175,3997730,417.98062,34.96,96404.25,1.145442
397550143,397529974,3997730,418.2184,34.96,96401.5,1.1454093
397761224,397743487,3997730,418.04666,34.96,96403.5,1.1454331
397992439,397972176,3997730,418.28445,34.95,96400.75,1.1454004
398153148,398133000,3997730,417.98062,34.96,96404.25,1.145442
398384327,398361637,3997730,418.28445,34.95,96400.75,1.1454004
398545146,398522416,3997730,418.08893,34.96,96403.0,1.1454271
398756275,398736032,3997730,418.04666,34.95,96403.5,1.1454331
398967468,398949717,3997730,418.08893,34.95,96403.0,1.1454271
399148238,399118084,3997730,418.02023,34.96,96403.8,1.1454365
399359292,399339124,3997730,418.41394,34.96,96399.25,1.1453825
399590563,399560198,3997730,418.1233,34.96,96402.6,1.1454223
399751233,399728549,3997730,417.82736,34.96,96406.0,1.1454628
399963406,399942194,3997730,418.28445,34.95,96400.75,1.1454004
400153346,400130617,3997730,417.91455,34.96,96405.0,1.1454508
400364844,400344206,3997730,418.3056,34.95,96400.5,1.1453974
400575599,400557812,3997730,418.2184,34.96,96401.5,1.1454093
400736361,400718642,3997730,418.155,34.95,96402.25,1.1454182
400957528,400934892,3997730,418.26334,34.96,96401.0,1.1454034
401168577,401148462,3997730,417.98062,34.96,96404.25,1.145442
401379669,401362059,3997730,418.08893,34.96,96403.0,1.1454271
401540572,401522953,3997730,418.155,34.96,96402.25,1.1454182
401761912,401739201,3997730,418.23953,34.96,96401.25,1.1454064
401973069,401952951,3997730,417.91455,34.96,96405.0,1.1454508
402134577,402113777,3997730,417.71902,34.96,96407.25,1.1454777
402365114,402342477,3997730,417.85114,34.96,96405.75,1.1454598
402576217,402556039,3997730,417.82736,34.96,96406.0,1.1454628
402787329,402769649,3997730,417.67673,34.96,96407.75,1.1454835
402948016,402930352,3997730,417.95944,34.96,96404.5,1.145445
403168984,403146334,3997730,417.93567,34.96,96404.75,1.1454479
403380098,403359922,3997730,417.95944,34.96,96404.5,1.145445
403591366,403573647,3997730,417.65558,34.96,96408.0,1.1454865
403752547,403734661,3997730,417.63184,34.96,96408.25,1.1454895
403983453,403963196,3997730,417.52347,34.96,96409.5,1.1455044
404144367,404124092,3997730,417.35175,34.96,96411.5,1.1455281
404355478,404337714,3997730,417.69788,34.96,96407.5,1.1454806
404576679,404553897,3997730,417.52347,34.96,96409.5,1.1455044
404787774,404767564,3997730,417.22226,34.96,96412.99,1.1455458
404948631,404928459,3997730,417.3306,34.96,96411.74,1.1455309
405159672,405142066,3997730,417.35175,34.96,96411.5,1.1455281
405380848,405358206,3997730,417.00558,34.96,96415.5,1.1455756
405551923,405531734,3997730,417.13507,34.96,96414.0,1.1455578
405763020,405745395,3997730,417.43893,34.96,96410.5,1.1455163
405943860,405913632,3997730,417.29095,34.96,96412.195,1.1455364
406154950,406134728,3997730,417.28833,34.96,96412.24,1.1455369
406386129,406363411,3997730,417.39664,34.96,96411.0,1.1455221
406546912,406524212,3997730,417.26456,34.96,96412.5,1.14554
406757999,406737841,3997730,417.30945,34.96,96412.0,1.145534
406969138,406951471,3997730,417.20114,34.96,96413.24,1.1455488
407190291,407167609,3997730,417.24338,34.96,96412.76,1.1455431
407351079,407328423,3997730,417.54727,34.96,96409.25,1.1455014
407562519,407541960,3997730,417.26456,34.96,96412.5,1.14554
407773327,407755692,3997730,417.4178,34.96,96410.75,1.1455193
407994413,407971686,3997730,417.09277,34.96,96414.49,1.1455636
408155298,408132565,3997730,417.30945,34.96,96412.0,1.145534
408366147,408346001,3997730,417.3306,34.96,96411.75,1.145531
408577280,408559635,3997730,417.26456,34.96,96412.5,1.14554
408738072,408720419,3997730,417.20114,34.95,96413.24,1.1455488
408959317,408936605,3997730,417.37286,34.96,96411.26,1.1455252
409170497,409150189,3997730,417.43893,34.96,96410.5,1.1455163
409331696,409311035,3997730,416.81006,34.96,96417.75,1.1456023
409562630,409539807,3997730,417.39664,34.95,96411.0,1.1455221
409773726,409753523,3997730,417.74277,34.96,96407.0,1.1454747
409984822,409967166,3997730,417.5684,34.96,96409.0,1.1454984
410145702,410128049,3997730,417.1139,34.96,96414.24,1.1455607
410366745,410344092,3997730,417.00558,34.96,96415.5,1.1455756
410577899,410557776,3997730,417.13507,34.96,96414.0,1.1455578
410789257,410771442,3997730,417.37286,34.96,96411.26,1.1455252
410949992,410932293,3997730,417.24338,34.96,96412.74,1.1455429
411171198,411148482,3997730,417.1139,34.95,96414.25,1.1455607
