timestamp,q[0],q[1],q[2],q[3],delta_q_reset[0],delta_q_reset[1],delta_q_reset[2],delta_q_reset[3],quat_reset_counter
218189275,0.99182886,0.035756554,0.026468288,0.11956849,-0.9999983,-2.3462823e-09,9.503366e-09,0.0018889231,5
218194240,0.991828,0.035730254,0.0264664,0.11958256,-0.9999983,-2.3462823e-09,9.503366e-09,0.0018889231,5
218243913,0.9918292,0.035642285,0.026389766,0.119616084,-0.9999983,-2.3462823e-09,9.503366e-09,0.0018889231,5
218293584,0.99186003,0.03575456,0.026434075,0.11931754,-0.9999983,-2.3462823e-09,9.503366e-09,0.0018889231,5
218338289,0.9918128,0.03559707,0.0263279,0.11977882,-0.9999983,-2.3462823e-09,9.503366e-09,0.0018889231,5
218388005,0.9918513,0.03579789,0.026245719,0.11941822,-0.9999983,-2.3462823e-09,9.503366e-09,0.0018889231,5
218442750,0.99180084,0.035887953,0.02670448,0.11970792,-0.9999983,-2.3462823e-09,9.503366e-09,0.0018889231,5
218492272,0.9918722,0.03541511,0.026317645,0.119343214,-0.9999983,-2.3462823e-09,9.503366e-09,0.0018889231,5
218541974,0.99180955,0.03575985,0.026677202,0.119680874,-0.9999983,-2.3462823e-09,9.503366e-09,0.0018889231,5
218591616,0.99185246,0.03563968,0.026430085,0.11941561,-0.9999983,-2.3462823e-09,9.503366e-09,0.0018889231,5
218641343,0.99186593,0.035592947,0.026605183,0.11927811,-0.9999983,-2.3462823e-09,9.503366e-09,0.0018889231,5
218691065,0.99183935,0.035664555,0.026707394,0.1194553,-0.9999983,-2.3462823e-09,9.503366e-09,0.0018889231,5
218740632,0.9918451,0.03545518,0.026245432,0.11957203,-0.9999983,-2.3462823e-09,9.503366e-09,0.0018889231,5
218790305,0.99188733,0.03551592,0.026283517,0.11919455,-0.9999983,-2.3462823e-09,9.503366e-09,0.0018889231,5
218839979,0.99187434,0.035897553,0.026928514,0.119044684,-0.9999983,-2.3462823e-09,9.503366e-09,0.0018889231,5
218889649,0.99184275,0.035814073,0.027064336,0.119301885,-0.9999983,-2.3462823e-09,9.503366e-09,0.0018889231,5
218944332,0.99183595,0.035781227,0.02712955,0.11935378,-0.9999983,-2.3462823e-09,9.503366e-09,0.0018889231,5
218993962,0.9918509,0.03562868,0.026499795,0.11941564,-0.9999983,-2.3462823e-09,9.503366e-09,0.0018889231,5
219038665,0.9919305,0.035224784,0.026412845,0.11889322,-0.9999983,-2.3462823e-09,9.503366e-09,0.0018889231,5
219088337,0.99189955,0.035497673,0.026879579,0.11896495,-0.9999983,-2.3462823e-09,9.503366e-09,0.0018889231,5
219142976,0.9918938,0.035485454,0.027043467,0.11897936,-0.9999983,-2.3462823e-09,9.503366e-09,0.0018889231,5
219192648,0.99187,0.035934858,0.026686966,0.119123854,-0.9999983,-2.3462823e-09,9.503366e-09,0.0018889231,5
219242442,0.9918947,0.035815544,0.026185427,0.11906476,-0.9999983,-2.3462823e-09,9.503366e-09,0.0018889231,5
219291992,0.99193215,0.035472367,0.026415953,0.118805245,-0.9999983,-2.3462823e-09,9.503366e-09,0.0018889231,5
219341665,0.9919249,0.035345413,0.026934879,0.11878691,-0.9999983,-2.3462823e-09,9.503366e-09,0.0018889231,5
219391337,0.9918942,0.03544644,0.02704145,0.118988246,-0.9999983,-2.3462823e-09,9.503366e-09,0.0018889231,5
219441017,0.991872,0.035774518,0.026639363,0.119166486,-0.9999983,-2.3462823e-09,9.503366e-09,0.0018889231,5
219490704,0.99190724,0.035558227,0.026382802,0.11899411,-0.9999983,-2.3462823e-09,9.503366e-09,0.0018889231,5
219540350,0.9919503,0.035300624,0.026438484,0.11869984,-0.9999983,-2.3462823e-09,9.503366e-09,0.0018889231,5
219590033,0.9919649,0.035236277,0.026772128,0.1185221,-0.9999983,-2.3462823e-09,9.503366e-09,0.0018889231,5
219644664,0.99196076,0.035200976,0.027014732,0.11851173,-0.9999983,-2.3462823e-09,9.503366e-09,0.0018889231,5
219689378,0.99192613,0.035713743,0.026416054,0.11878306,-0.9999983,-2.3462823e-09,9.503366e-09,0.0018889231,5
219739041,0.991949,0.035771247,0.026112696,0.11864096,-0.9999983,-2.3462823e-09,9.503366e-09,0.0018889231,5
219788869,0.99196416,0.03552844,0.02660011,0.11847929,-0.9999983,-2.3462823e-09,9.503366e-09,0.0018889231,5
219843360,0.99198,0.035422277,0.026643118,0.1183689,-0.9999983,-2.3462823e-09,9.503366e-09,0.0018889231,5
219893025,0.9919535,0.035644174,0.027234115,0.118389666,-0.9999983,-2.3462823e-09,9.503366e-09,0.0018889231,5
219937730,0.99192387,0.035654318,0.026642907,0.1187686,-0.9999983,-2.3462823e-09,9.503366e-09,0.0018889231,5
219992406,0.9919219,0.035691477,0.026819462,0.118733704,-0.9999983,-2.3462823e-09,9.503366e-09,0.0018889231,5
220042128,0.9919588,0.03538668,0.026372528,0.118617564,-0.9999983,-2.3462823e-09,9.503366e-09,0.0018889231,5
220091714,0.9920145,0.035032947,0.026273133,0.118277736,-0.9999983,-2.3462823e-09,9.503366e-09,0.0018889231,5
220141385,0.99202836,0.03511662,0.026646383,0.118053295,-0.9999983,-2.3462823e-09,9.503366e-09,0.0018889231,5
220191073,0.9919925,0.035608146,0.026849346,0.11816173,-0.9999983,-2.3462823e-09,9.503366e-09,0.0018889231,5
220240729,0.9919528,0.03600604,0.026459496,0.11846231,-0.9999983,-2.3462823e-09,9.503366e-09,0.0018889231,5
220290401,0.9919654,0.03604481,0.026257655,0.11838934,-0.9999983,-2.3462823e-09,9.503366e-09,0.0018889231,5
220345042,0.9919804,0.035970137,0.026278926,0.118281916,-0.9999983,-2.3462823e-09,9.503366e-09,0.0018889231,5
220389745,0.9920102,0.035346672,0.02711158,0.11803165,-0.9999983,-2.3462823e-09,9.503366e-09,0.0018889231,5
220439420,0.99197733,0.035370402,0.027251566,0.11826774,-0.9999983,-2.3462823e-09,9.503366e-09,0.0018889231,5
220489089,0.9919857,0.035560273,0.026663946,0.11827535,-0.9999983,-2.3462823e-09,9.503366e-09,0.0018889231,5
220543729,0.9919776,0.03568009,0.026705377,0.11829736,-0.9999983,-2.3462823e-09,9.503366e-09,0.0018889231,5
220593545,0.9920127,0.03550574,0.026278717,0.11815152,-0.9999983,-2.3462823e-09,9.503366e-09,0.0018889231,5
220638105,0.9920494,0.035268787,0.026766675,0.1178035,-0.9999983,-2.3462823e-09,9.503366e-09,0.0018889231,5
220692745,0.992056,0.035281405,0.02669482,0.1177606,-0.9999983,-2.3462823e-09,9.503366e-09,0.0018889231,5
220742417,0.99200976,0.035675738,0.027033795,0.11795397,-0.9999983,-2.3462823e-09,9.503366e-09,0.0018889231,5
220792091,0.9919962,0.03600066,0.026788997,0.11802439,-0.9999983,-2.3462823e-09,9.503366e-09,0.0018889231,5
220841857,0.9920227,0.03586758,0.026296057,0.1179539,-0.9999983,-2.3462823e-09,9.503366e-09,0.0018889231,5
220891433,0.99206257,0.03558563,0.026398513,0.11767993,-0.9999983,-2.3462823e-09,9.503366e-09,0.0018889231,5
220941105,0.9920546,0.035299316,0.02697456,0.11770396,-0.9999983,-2.3462823e-09,9.503366e-09,0.0018889231,5
220990777,0.9920141,0.035465434,0.027190585,0.11794517,-0.9999983,-2.3462823e-09,9.503366e-09,0.0018889231,5
221040449,0.9920113,0.035735283,0.026838204,0.1179673,-0.9999983,-2.3462823e-09,9.503366e-09,0.0018889231,5
221090121,0.9920467,0.035559706,0.026431097,0.11781457,-0.9999983,-2.3462823e-09,9.503366e-09,0.0018889231,5
221140037,0.99208504,0.035350353,0.026412198,0.11755875,-0.9999983,-2.3462823e-09,9.503366e-09,0.0018889231,5
221189466,0.9920952,0.035244115,0.026921486,0.117389746,-0.9999983,-2.3462823e-09,9.503366e-09,0.0018889231,5
221244105,0.9920872,0.035248004,0.027229616,0.11738524,-0.9999983,-2.3462823e-09,9.503366e-09,0.0018889231,5
221288810,0.9920547,0.035689324,0.026379488,0.11771951,-0.9999983,-2.3462823e-09,9.503366e-09,0.0018889231,5
221338482,0.99208313,0.03562991,0.0261577,0.11754705,-0.9999983,-2.3462823e-09,9.503366e-09,0.0018889231,5
221393296,0.9920933,0.035467923,0.026164632,0.11750921,-0.9999983,-2.3462823e-09,9.503366e-09,0.0018889231,5
221442793,0.99210936,0.035350807,0.026504619,0.11733226,-0.9999983,-2.3462823e-09,9.503366e-09,0.0018889231,5
221492465,0.9920777,0.035739403,0.027005428,0.117367595,-0.9999983,-2.3462823e-09,9.503366e-09,0.0018889231,5
221537170,0.9920221,0.035663497,0.02682228,0.1179018,-0.9999983,-2.3462823e-09,9.503366e-09,0.0018889231,5
221591809,0.9920187,0.03572795,0.026786722,0.11791926,-0.9999983,-2.3462823e-09,9.503366e-09,0.0018889231,5
221641506,0.99205613,0.035446245,0.0265707,0.117738225,-0.9999983,-2.3462823e-09,9.503366e-09,0.0018889231,5
221691153,0.99210924,0.035212163,0.02676464,0.117315926,-0.9999983,-2.3462823e-09,9.503366e-09,0.0018889231,5
221740826,0.9921058,0.03528032,0.02689633,0.11729415,-0.9999983,-2.3462823e-09,9.503366e-09,0.0018889231,5
221790498,0.9920775,0.03538871,0.026517086,0.11758769,-0.9999983,-2.3462823e-09,9.503366e-09,0.0018889231,5
221840172,0.9920772,0.03545105,0.026266104,0.11762795,-0.9999983,-2.3462823e-09,9.503366e-09,0.0018889231,5
221889842,0.99209523,0.03541262,0.026300034,0.117478706,-0.9999983,-2.3462823e-09,9.503366e-09,0.0018889231,5
221939664,0.99210715,0.035681665,0.026733162,0.117199525,-0.9999983,-2.3462823e-09,9.503366e-09,0.0018889231,5
221989216,0.99206775,0.035847884,0.027216947,0.117370635,-0.9999983,-2.3462823e-09,9.503366e-09,0.0018889231,5
222038858,0.9920274,0.03567571,0.02725975,0.11775392,-0.9999983,-2.3462823e-09,9.503366e-09,0.0018889231,5
222093497,0.9920273,0.035830885,0.027013104,0.11776439,-0.9999983,-2.3462823e-09,9.503366e-09,0.0018889231,5
222143169,0.9920367,0.0356585,0.026696935,0.1178093,-0.9999983,-2.3462823e-09,9.503366e-09,0.0018889231,5
222192930,0.9920925,0.03533239,0.026842795,0.11740401,-0.9999983,-2.3462823e-09,9.503366e-09,0.0018889231,5
222237546,0.99211216,0.035203062,0.026784623,0.117289715,-0.9999983,-2.3462823e-09,9.503366e-09,0.0018889231,5
222292190,0.99210376,0.035195887,0.026754102,0.11736968,-0.9999983,-2.3462823e-09,9.503366e-09,0.0018889231,5
222341858,0.9920872,0.035187304,0.026272217,0.11762141,-0.9999983,-2.3462823e-09,9.503366e-09,0.0018889231,5
222391530,0.99209356,0.03526111,0.026373276,0.11752226,-0.9999983,-2.3462823e-09,9.503366e-09,0.0018889231,5
222441255,0.99210644,0.035637356,0.026768042,0.11721127,-0.9999983,-2.3462823e-09,9.503366e-09,0.0018889231,5
222490874,0.99209523,0.035977796,0.02688593,0.11717511,-0.9999983,-2.3462823e-09,9.503366e-09,0.0018889231,5
222540547,0.99206585,0.03590888,0.02697394,0.117424116,-0.9999983,-2.3462823e-09,9.503366e-09,0.0018889231,5
222590218,0.99203897,0.0354789,0.027005807,0.11777358,-0.9999983,-2.3462823e-09,9.503366e-09,0.0018889231,5
222639890,0.9920649,0.035244156,0.026881423,0.11765509,-0.9999983,-2.3462823e-09,9.503366e-09,0.0018889231,5
222689564,0.9921073,0.035312273,0.026663013,0.1173262,-0.9999983,-2.3462823e-09,9.503366e-09,0.0018889231,5
222739365,0.9921294,0.035379685,0.026510248,0.11715337,-0.9999983,-2.3462823e-09,9.503366e-09,0.0018889231,5
222793874,0.9921222,0.03532856,0.026672382,0.117193,-0.9999983,-2.3462823e-09,9.503366e-09,0.0018889231,5
222843546,0.99211335,0.035216242,0.026473107,0.11734668,-0.9999983,-2.3462823e-09,9.503366e-09,0.0018889231,5
222888251,0.9920814,0.035560258,0.026468514,0.11751324,-0.9999983,-2.3462823e-09,9.503366e-09,0.0018889231,5
222937928,0.9920977,0.035792384,0.026796663,0.11723104,-0.9999983,-2.3462823e-09,9.503366e-09,0.0018889231,5
222992608,0.9921094,0.035751224,0.026683852,0.11716943,-0.9999983,-2.3462823e-09,9.503366e-09,0.0018889231,5
223042234,0.992105,0.035949152,0.026811628,0.11711734,-0.9999983,-2.3462823e-09,9.503366e-09,0.0018889231,5
223091906,0.9920803,0.035890486,0.026796365,0.117348775,-0.9999983,-2.3462823e-09,9.503366e-09,0.0018889231,5
223141578,0.9920621,0.03554265,0.026728766,0.11762352,-0.9999983,-2.3462823e-09,9.503366e-09,0.0018889231,5
223191306,0.99205273,0.03527984,0.026745636,0.11777735,-0.9999983,-2.3462823e-09,9.503366e-09,0.0018889231,5
223240923,0.9921054,0.034455996,0.02654426,0.117623165,-0.9999983,-2.3462823e-09,9.503366e-09,0.0018889231,5
223290779,0.99220246,0.03392784,0.02559164,0.117167674,-0.9999983,-2.3462823e-09,9.503366e-09,0.0018889231,5
223340267,0.99236923,0.029929992,0.024724014,0.117030494,-0.9999983,-2.3462823e-09,9.503366e-09,0.0018889231,5
223389939,0.9925707,0.02690333,0.0236614,0.11627473,-0.9999983,-2.3462823e-09,9.503366e-09,0.0018889231,5
223439611,0.99263644,0.023969041,0.023818115,0.11632307,-0.9999983,-2.3462823e-09,9.503366e-09,0.0018889231,5
223494250,0.99270487,0.023482883,0.023847844,0.11583078,-0.9999983,-2.3462823e-09,9.503366e-09,0.0018889231,5
223544036,0.99260855,0.025282286,0.02384936,0.11627711,-0.9999983,-2.3462823e-09,9.503366e-09,0.0018889231,5
223588628,0.99259007,0.025717726,0.023685446,0.116372764,-0.9999983,-2.3462823e-09,9.503366e-09,0.0018889231,5
223638300,0.9926169,0.024872672,0.023743175,0.11631528,-0.9999983,-2.3462823e-09,9.503366e-09,0.0018889231,5
223692938,0.99267423,0.023257691,0.023625553,0.116185024,-0.9999983,-2.3462823e-09,9.503366e-09,0.0018889231,5
223742612,0.9927096,0.022612756,0.02392585,0.115947954,-0.9999983,-2.3462823e-09,9.503366e-09,0.0018889231,5
223792298,0.99271256,0.021937042,0.023990216,0.116039075,-0.9999983,-2.3462823e-09,9.503366e-09,0.0018889231,5
223841955,0.99270344,0.021586675,0.0245197,0.11607178,-0.9999983,-2.3462823e-09,9.503366e-09,0.0018889231,5
223891663,0.9927534,0.021640968,0.023362137,0.1158735,-0.9999983,-2.3462823e-09,9.503366e-09,0.0018889231,5
223941300,0.9927924,0.020999875,0.02227819,0.115870625,-0.9999983,-2.3462823e-09,9.503366e-09,0.0018889231,5
223990973,0.99287677,0.020063387,0.02157752,0.11544619,-0.9999983,-2.3462823e-09,9.503366e-09,0.0018889231,5
224040646,0.9929434,0.018943712,0.020875985,0.11519053,-0.9999983,-2.3462823e-09,9.503366e-09,0.0018889231,5
224090466,0.9929615,0.018021118,0.020669378,0.11521884,-0.9999983,-2.3462823e-09,9.503366e-09,0.0018889231,5
224139998,0.99298877,0.015963838,0.02013156,0.11538334,-0.9999983,-2.3462823e-09,9.503366e-09,0.0018889231,5
224194629,0.99305373,0.013645615,0.019981991,0.11514715,-0.9999983,-2.3462823e-09,9.503366e-09,0.0018889231,5
224239332,0.9931103,0.01052908,0.020252919,0.11493864,-0.9999983,-2.3462823e-09,9.503366e-09,0.0018889231,5
224289007,0.9931456,0.0085682,0.020125741,0.11481913,-0.9999983,-2.3462823e-09,9.503366e-09,0.0018889231,5
224338788,0.9931646,0.0062045,0.019532753,0.11490875,-0.9999983,-2.3462823e-09,9.503366e-09,0.0018889231,5
224393315,0.9932261,0.0057402905,0.018785316,0.11452625,-0.9999983,-2.3462823e-09,9.503366e-09,0.0018889231,5
224442990,0.99324054,0.007059721,0.017601432,0.11451438,-0.9999983,-2.3462823e-09,9.503366e-09,0.0018889231,5
224487695,0.9931849,0.009222697,0.017106142,0.114917725,-0.9999983,-2.3462823e-09,9.503366e-09,0.0018889231,5
224542332,0.9931239,0.013265133,0.015687631,0.11525199,-0.9999983,-2.3462823e-09,9.503366e-09,0.0018889231,5
224592042,0.9929861,0.018193545,0.014903748,0.1158693,-0.9999983,-2.3462823e-09,9.503366e-09,0.0018889231,5
224641714,0.99277955,0.023117902,0.014000013,0.11686949,-0.9999983,-2.3462823e-09,9.503366e-09,0.0018889231,5
224691349,0.9925651,0.02742767,0.013952742,0.11776142,-0.9999983,-2.3462823e-09,9.503366e-09,0.0018889231,5
224741020,0.99242365,0.031158704,0.012513327,0.11818664,-0.9999983,-2.3462823e-09,9.503366e-09,0.0018889231,5
224790692,0.99231917,0.032978598,0.012193509,0.11860232,-0.9999983,-2.3462823e-09,9.503366e-09,0.0018889231,5
224840365,0.992276,0.033607263,0.011714268,0.11883449,-0.9999983,-2.3462823e-09,9.503366e-09,0.0018889231,5
224890154,0.9923389,0.032577332,0.011935115,0.11857424,-0.9999983,-2.3462823e-09,9.503366e-09,0.0018889231,5
224939708,0.9924121,0.031721976,0.012402242,0.11814454,-0.9999983,-2.3462823e-09,9.503366e-09,0.0018889231,5
224989381,0.9925028,0.030040512,0.012141384,0.11784908,-0.9999983,-2.3462823e-09,9.503366e-09,0.0018889231,5
225039053,0.9926108,0.027525468,0.01136304,0.11763148,-0.9999983,-2.3462823e-09,9.503366e-09,0.0018889231,5
225093697,0.9927698,0.02429831,0.01128502,0.11700674,-0.9999983,-2.3462823e-09,9.503366e-09,0.0018889231,5
225143405,0.9929037,0.020804465,0.011920134,0.11647898,-0.9999983,-2.3462823e-09,9.503366e-09,0.0018889231,5
225188070,0.9929695,0.017297283,0.012404297,0.11644131,-0.9999983,-2.3462823e-09,9.503366e-09,0.0018889231,5
225242711,0.99313396,0.013559836,0.011608542,0.11561285,-0.9999983,-2.3462823e-09,9.503366e-09,0.0018889231,5
225292382,0.99325335,0.010534369,0.010720723,0.114986494,-0.9999983,-2.3462823e-09,9.503366e-09,0.0018889231,5
225342061,0.99330825,0.0077182823,0.009531885,0.114841305,-0.9999983,-2.3462823e-09,9.503366e-09,0.0018889231,5
225391726,0.99332035,0.0055533117,0.0082039125,0.11496384,-0.9999983,-2.3462823e-09,9.503366e-09,0.0018889231,5
225441595,0.9933237,0.0056416625,0.0075590727,0.1149746,-0.9999983,-2.3462823e-09,9.503366e-09,0.0018889231,5
225491069,0.99332714,0.0053618024,0.00561007,0.115069844,-0.9999983,-2.3462823e-09,9.503366e-09,0.0018889231,5
225540741,0.99326813,0.007740881,0.0040108585,0.11550996,-0.9999983,-2.3462823e-09,9.503366e-09,0.0018889231,5
225590413,0.99313605,0.0120772645,0.0035902155,0.1162844,-0.9999983,-2.3462823e-09,9.503366e-09,0.0018889231,5
225640087,0.99294406,0.017379954,0.0015736728,0.11729302,-0.9999983,-2.3462823e-09,9.503366e-09,0.0018889231,5
225689905,0.99267524,0.02511073,0.0009296346,0.118172124,-0.9999983,-2.3462823e-09,9.503366e-09,0.0018889231,5
225739430,0.9923286,0.0315296,-0.0006270874,0.11953912,-0.9999983,-2.3462823e-09,9.503366e-09,0.0018889231,5
225794070,0.9918401,0.040323727,-9.3544295e-05,0.120943524,-0.9999983,-2.3462823e-09,9.503366e-09,0.0018889231,5
225838774,0.9914385,0.047220755,-7.6020246e-05,0.121736914,-0.9999983,-2.3462823e-09,9.503366e-09,0.0018889231,5
225888446,0.99101245,0.053843476,0.00019420158,0.122454755,-0.9999983,-2.3462823e-09,9.503366e-09,0.0018889231,5
225943151,0.9906832,0.059135452,0.00087158644,0.12267447,-0.9999983,-2.3462823e-09,9.503366e-09,0.0018889231,5
225992757,0.99063754,0.05827874,0.0008539496,0.123450935,-0.9999983,-2.3462823e-09,9.503366e-09,0.0018889231,5
226042429,0.9913364,0.047034394,-0.0013036381,0.12263076,-0.9999983,-2.3462823e-09,9.503366e-09,0.0018889231,5
226092102,0.9918599,0.038954422,-0.0017101916,0.12121723,-0.9999983,-2.3462823e-09,9.503366e-09,0.0018889231,5
226141774,0.99229676,0.032205343,-0.0011941685,0.119617976,-0.9999983,-2.3462823e-09,9.503366e-09,0.0018889231,5
226191446,0.9928322,0.0204737,-0.0012420524,0.117743865,-0.9999983,-2.3462823e-09,9.503366e-09,0.0018889231,5
226241261,0.99312705,0.0076360013,-0.0006437372,0.116790324,-0.9999983,-2.3462823e-09,9.503366e-09,0.0018889231,5
226290791,0.99319905,-0.0025930614,-0.0025768701,0.116371855,-0.9999983,-2.3462823e-09,9.503366e-09,0.0018889231,5
226340462,0.9931097,-0.008759108,-0.004455156,0.11677644,-0.9999983,-2.3462823e-09,9.503366e-09,0.0018889231,5
226390134,0.99299073,-0.009620859,-0.006405246,0.11762613,-0.9999983,-2.3462823e-09,9.503366e-09,0.0018889231,5
226439808,0.99270475,-0.009614871,-0.009082591,0.11984372,-0.9999983,-2.3462823e-09,9.503366e-09,0.0018889231,5
226494517,0.9923505,-0.0061025117,-0.01283729,0.12263094,-0.9999983,-2.3462823e-09,9.503366e-09,0.0018889231,5
226539161,0.9920488,-0.0035955012,-0.016577609,0.124705754,-0.9999983,-2.3462823e-09,9.503366e-09,0.0018889231,5
226588822,0.9918221,0.0025599366,-0.016634606,0.12651348,-0.9999983,-2.3462823e-09,9.503366e-09,0.0018889231,5
226643474,0.9915166,0.013024479,-0.014718723,0.12848604,-0.9999983,-2.3462823e-09,9.503366e-09,0.0018889231,5
226693133,0.9910496,0.025533158,-0.013344146,0.13034904,-0.9999983,-2.3462823e-09,9.503366e-09,0.0018889231,5
226742807,0.9904511,0.03839525,-0.01253114,0.13181545,-0.9999983,-2.3462823e-09,9.503366e-09,0.0018889231,5
226787700,0.98986125,0.0484304,-0.010746165,0.13309292,-0.9999983,-2.3462823e-09,9.503366e-09,0.0018889231,5
226842184,0.9892344,0.058694694,-0.0052891746,0.13394882,-0.9999983,-2.3462823e-09,9.503366e-09,0.0018889231,5
226891829,0.98852795,0.06819249,-0.0006902121,0.1347664,-0.9999983,-2.3462823e-09,9.503366e-09,0.0018889231,5
226941495,0.9876367,0.078463905,0.002959146,0.13567832,-0.9999983,-2.3462823e-09,9.503366e-09,0.0018889231,5
226991170,0.9865411,0.089440934,0.0050882795,0.13678873,-0.9999983,-2.3462823e-09,9.503366e-09,0.0018889231,5
227040957,0.9858346,0.096351996,0.006112632,0.13714677,-0.9999983,-2.3462823e-09,9.503366e-09,0.0018889231,5
227090512,0.9855553,0.098939024,0.0064830016,0.13729501,-0.9999983,-2.3462823e-09,9.503366e-09,0.0018889231,5
227140233,0.98542744,0.099737234,0.0077635515,0.13756832,-0.9999983,-2.3462823e-09,9.503366e-09,0.0018889231,5
227189855,0.98557496,0.09870488,0.00856189,0.13720831,-0.9999983,-2.3462823e-09,9.503366e-09,0.0018889231,5
227239528,0.98587346,0.09572355,0.008749704,0.1371641,-0.9999983,-2.3462823e-09,9.503366e-09,0.0018889231,5
227289219,0.98615366,0.093950555,0.0081918975,0.13640787,-0.9999983,-2.3462823e-09,9.503366e-09,0.0018889231,5
227343839,0.9863123,0.093550354,0.008664364,0.13550408,-0.9999983,-2.3462823e-09,9.503366e-09,0.0018889231,5
227393512,0.98614067,0.096915685,0.010853418,0.13422495,-0.9999983,-2.3462823e-09,9.503366e-09,0.0018889231,5
227438216,0.9862395,0.09768933,0.01110407,0.13291048,-0.9999983,-2.3462823e-09,9.503366e-09,0.0018889231,5
227487892,0.986708,0.094756305,0.010189689,0.13162425,-0.9999983,-2.3462823e-09,9.503366e-09,0.0018889231,5
227542529,0.9870387,0.09387996,0.009988175,0.12977494,-0.9999983,-2.3462823e-09,9.503366e-09,0.0018889231,5
227592379,0.9874155,0.09205992,0.009642519,0.12822893,-0.9999983,-2.3462823e-09,9.503366e-09,0.0018889231,5
227641871,0.98803616,0.08826346,0.007847097,0.12622431,-0.9999983,-2.3462823e-09,9.503366e-09,0.0018889231,5
227691541,0.9889237,0.08085252,0.005038223,0.124368474,-0.9999983,-2.3462823e-09,9.503366e-09,0.0018889231,5
227741265,0.99011064,0.06807449,0.0039328705,0.12260199,-0.9999983,-2.3462823e-09,9.503366e-09,0.0018889231,5
227790888,0.99125683,0.053033557,0.003389103,0.120772,-0.9999983,-2.3462823e-09,9.503366e-09,0.0018889231,5
227840696,0.9922654,0.036694366,0.001886073,0.11857169,-0.9999983,-2.3462823e-09,9.503366e-09,0.0018889231,5
227890234,0.992909,0.020768609,7.8914796e-05,0.11704837,-0.9999983,-2.3462823e-09,9.503366e-09,0.0018889231,5
227939907,0.9932021,0.010313086,-0.00017993378,0.11594578,-0.9999983,-2.3462823e-09,9.503366e-09,0.0018889231,5
227989625,0.9933906,0.0067092823,-0.0001615386,0.11458654,-0.9999983,-2.3462823e-09,9.503366e-09,0.0018889231,5
228044216,0.99354523,0.0049404027,-3.880261e-05,0.11332909,-0.9999983,-2.3462823e-09,9.503366e-09,0.0018889231,5
228093894,0.9937106,0.0019798982,-9.5870215e-05,0.1119618,-0.9999983,-2.3462823e-09,9.503366e-09,0.0018889231,5
228138593,0.9938384,-0.000579139,0.00033040528,0.11083661,-0.9999983,-2.3462823e-09,9.503366e-09,0.0018889231,5
228188267,0.99396724,-0.0018566704,0.0010313955,0.10965668,-0.9999983,-2.3462823e-09,9.503366e-09,0.0018889231,5
228242906,0.9940116,-0.002782636,0.0011636983,0.1092337,-0.9999983,-2.3462823e-09,9.503366e-09,0.0018889231,5
228292577,0.99406326,-0.0020931643,0.0006935732,0.10878117,-0.9999983,-2.3462823e-09,9.503366e-09,0.0018889231,5
228342249,0.99406916,-0.0009461613,0.00017867633,0.10874569,-0.9999983,-2.3462823e-09,9.503366e-09,0.0018889231,5
228392068,0.9940157,-0.0003975175,0.0004288691,0.1092366,-0.9999983,-2.3462823e-09,9.503366e-09,0.0018889231,5
228441614,0.9939693,-0.00094560033,0.0007362852,0.10965252,-0.9999983,-2.3462823e-09,9.503366e-09,0.0018889231,5
228491266,0.99393684,-0.0018063093,0.0009016035,0.10993415,-0.9999983,-2.3462823e-09,9.503366e-09,0.0018889231,5
228540938,0.99382627,-0.0014800155,0.0002547081,0.11093831,-0.9999983,-2.3462823e-09,9.503366e-09,0.0018889231,5
228590610,0.9937167,-0.0015211189,-0.00078066014,0.111911654,-0.9999983,-2.3462823e-09,9.503366e-09,0.0018889231,5
228640326,0.9936567,-0.0014953768,-0.0017200002,0.11243282,-0.9999983,-2.3462823e-09,9.503366e-09,0.0018889231,5
228689976,0.99355954,-0.001850415,-0.0014615258,0.11328712,-0.9999983,-2.3462823e-09,9.503366e-09,0.0018889231,5
228744596,0.9934571,-0.0012176611,-0.0005209521,0.1141983,-0.9999983,-2.3462823e-09,9.503366e-09,0.0018889231,5
228789298,0.99333215,-7.1656796e-06,5.358468e-05,0.11528778,-0.9999983,-2.3462823e-09,9.503366e-09,0.0018889231,5
228838973,0.99321336,0.0016367169,-0.0003772757,0.11629455,-0.9999983,-2.3462823e-09,9.503366e-09,0.0018889231,5
228888655,0.9930744,0.002670702,-0.00068509195,0.117455065,-0.9999983,-2.3462823e-09,9.503366e-09,0.0018889231,5
228943290,0.9929901,0.002180395,-0.0004696837,0.118176706,-0.9999983,-2.3462823e-09,9.503366e-09,0.0018889231,5
228992956,0.99290985,0.0017145328,0.0003724093,0.11885705,-0.9999983,-2.3462823e-09,9.503366e-09,0.0018889231,5
229037659,0.99284446,0.00222458,0.0003999744,0.11939358,-0.9999983,-2.3462823e-09,9.503366e-09,0.0018889231,5
229092299,0.9928082,0.0024948868,-0.00014208381,0.119690254,-0.9999983,-2.3462823e-09,9.503366e-09,0.0018889231,5
229141970,0.99276775,0.0022273362,0.0003487142,0.12002953,-0.9999983,-2.3462823e-09,9.503366e-09,0.0018889231,5
229191746,0.9927946,0.0023747438,0.0012521448,0.11979853,-0.9999983,-2.3462823e-09,9.503366e-09,0.0018889231,5
229241315,0.9927558,0.00014514227,0.0027994893,0.12011742,-0.9999983,-2.3462823e-09,9.503366e-09,0.0018889231,5
229290988,0.99274415,0.002218283,0.0034152826,0.120176695,-0.9999983,-2.3462823e-09,9.503366e-09,0.0018889231,5
229340659,0.9926275,0.0134497825,0.0039026106,0.12039365,-0.9999983,-2.3462823e-09,9.503366e-09,0.0018889231,5
229390331,0.9922971,0.030302458,0.0037756185,0.12005826,-0.9999983,-2.3462823e-09,9.503366e-09,0.0018889231,5
229445002,0.99178344,0.044340618,0.0042290697,0.1199237,-0.9999983,-2.3462823e-09,9.503366e-09,0.0018889231,5
229489676,0.99143344,0.051500052,0.005695639,0.11989625,-0.9999983,-2.3462823e-09,9.503366e-09,0.0018889231,5
229539348,0.9908725,0.06091176,0.0077670547,0.12000522,-0.9999983,-2.3462823e-09,9.503366e-09,0.0018889231,5
229589020,0.9902171,0.07070385,0.00892527,0.11996429,-0.9999983,-2.3462823e-09,9.503366e-09,0.0018889231,5
229643706,0.9896765,0.07812283,0.0088335825,0.119830646,-0.9999983,-2.3462823e-09,9.503366e-09,0.0018889231,5
229693327,0.9893238,0.08185474,0.009089915,0.120232224,-0.9999983,-2.3462823e-09,9.503366e-09,0.0018889231,5
229738185,0.98892546,0.08678381,0.009938541,0.119984455,-0.9999983,-2.3462823e-09,9.503366e-09,0.0018889231,5
229792676,0.98786163,0.09844444,0.0119112,0.1195666,-0.9999983,-2.3462823e-09,9.503366e-09,0.0018889231,5
229842348,0.98700774,0.10687927,0.012328059,0.119334504,-0.9999983,-2.3462823e-09,9.503366e-09,0.0018889231,5
229892062,0.9870581,0.106336564,0.011619,0.1194736,-0.9999983,-2.3462823e-09,9.503366e-09,0.0018889231,5
229941692,0.98837304,0.09343444,0.009678945,0.11956186,-0.9999983,-2.3462823e-09,9.503366e-09,0.0018889231,5
229991445,0.9903578,0.06857565,0.007156364,0.120156966,-0.9999983,-2.3462823e-09,9.503366e-09,0.0018889231,5
230041036,0.99194926,0.03997545,0.004551898,0.12007451,-0.9999983,-2.3462823e-09,9.503366e-09,0.0018889231,5
230090709,0.9925646,0.020586384,0.0037987926,0.119905554,-0.9999983,-2.3462823e-09,9.503366e-09,0.0018889231,5
230140381,0.99269986,0.013109586,0.0034929842,0.11984548,-0.9999983,-2.3462823e-09,9.503366e-09,0.0018889231,5
230190054,0.99276364,0.010943629,0.003059729,0.11954588,-0.9999983,-2.3462823e-09,9.503366e-09,0.0018889231,5
230239737,0.99283713,0.007936477,0.0018734774,0.11919671,-0.9999983,-2.3462823e-09,9.503366e-09,0.0018889231,5
230289397,0.9928818,0.0032702629,0.001619298,0.119049,-0.9999983,-2.3462823e-09,9.503366e-09,0.0018889231,5
230344037,0.9928862,0.00042043987,0.0015680293,0.11905619,-0.9999983,-2.3462823e-09,9.503366e-09,0.0018889231,5
230388741,0.99290663,0.00048906513,0.0010506067,0.11889075,-0.9999983,-2.3462823e-09,9.503366e-09,0.0018889231,5
230438414,0.9929399,0.0010825255,0.00021645664,0.118614204,-0.9999983,-2.3462823e-09,9.503366e-09,0.0018889231,5
230493054,0.9929717,0.00165427,-9.1117145e-05,0.11834028,-0.9999983,-2.3462823e-09,9.503366e-09,0.0018889231,5
230542857,0.99298525,0.0021439663,0.00054142834,0.11821769,-0.9999983,-2.3462823e-09,9.503366e-09,0.0018889231,5
230592397,0.99301153,0.0027638255,0.001624385,0.11797432,-0.9999983,-2.3462823e-09,9.503366e-09,0.0018889231,5
230642070,0.9930497,0.0033316964,0.002195418,0.117628455,-0.9999983,-2.3462823e-09,9.503366e-09,0.0018889231,5
230691745,0.99304837,0.003161576,0.0020081361,0.1176477,-0.9999983,-2.3462823e-09,9.503366e-09,0.0018889231,5
230741414,0.9930453,0.0044551357,0.0015858412,0.11763832,-0.9999983,-2.3462823e-09,9.503366e-09,0.0018889231,5
230791121,0.99305415,0.008531261,0.0020921342,0.117330045,-0.9999983,-2.3462823e-09,9.503366e-09,0.0018889231,5
230840804,0.99300826,0.0172162,0.0032287752,0.11673797,-0.9999983,-2.3462823e-09,9.503366e-09,0.0018889231,5
230890430,0.99278575,0.02884432,0.0051584933,0.11626717,-0.9999983,-2.3462823e-09,9.503366e-09,0.0018889231,5
230940103,0.9924944,0.038710028,0.005796584,0.11585664,-0.9999983,-2.3462823e-09,9.503366e-09,0.0018889231,5
230989775,0.9923083,0.044912275,0.005418369,0.11522853,-0.9999983,-2.3462823e-09,9.503366e-09,0.0018889231,5
231044496,0.9921162,0.051231395,0.005710853,0.114228375,-0.9999983,-2.3462823e-09,9.503366e-09,0.0018889231,5
231089350,0.9920266,0.054108437,0.006021056,0.113662615,-0.9999983,-2.3462823e-09,9.503366e-09,0.0018889231,5
231138791,0.9921243,0.05342262,0.005606513,0.1131551,-0.9999983,-2.3462823e-09,9.503366e-09,0.0018889231,5
231193431,0.99237466,0.048021957,0.0047078044,0.11342095,-0.9999983,-2.3462823e-09,9.503366e-09,0.0018889231,5
231243102,0.9927207,0.041090045,0.0038488854,0.11314768,-0.9999983,-2.3462823e-09,9.503366e-09,0.0018889231,5
231292775,0.9929269,0.036735937,0.0032319967,0.11285507,-0.9999983,-2.3462823e-09,9.503366e-09,0.0018889231,5
231337567,0.9929606,0.03559956,0.0021645275,0.11294877,-0.9999983,-2.3462823e-09,9.503366e-09,0.0018889231,5
231392123,0.9927086,0.041573986,-0.0030897367,0.1131001,-0.9999983,-2.3462823e-09,9.503366e-09,0.0018889231,5
231441792,0.9922701,0.049745407,-0.009783971,0.11326832,-0.9999983,-2.3462823e-09,9.503366e-09,0.0018889231,5
231491464,0.99225634,0.04964209,-0.013123908,0.11309644,-0.9999983,-2.3462823e-09,9.503366e-09,0.0018889231,5
231541136,0.99241525,0.047011517,-0.011818435,0.11297009,-0.9999983,-2.3462823e-09,9.503366e-09,0.0018889231,5
231590816,0.99244213,0.047683407,-0.0076813665,0.11280958,-0.9999983,-2.3462823e-09,9.503366e-09,0.0018889231,5
231640480,0.99228805,0.051246773,-0.0042989734,0.11278159,-0.9999983,-2.3462823e-09,9.503366e-09,0.0018889231,5
231690152,0.9919324,0.057829466,-0.0021682552,0.11278864,-0.9999983,-2.3462823e-09,9.503366e-09,0.0018889231,5
231739826,0.99170136,0.06171709,8.937932e-05,0.112780444,-0.9999983,-2.3462823e-09,9.503366e-09,0.0018889231,5
231789496,0.99144524,0.06582212,0.002181449,0.11268989,-0.9999983,-2.3462823e-09,9.503366e-09,0.0018889231,5
231839169,0.9912289,0.06879569,0.0031929472,0.112793565,-0.9999983,-2.3462823e-09,9.503366e-09,0.0018889231,5
231893969,0.9908586,0.073391266,0.0023623158,0.11316964,-0.9999983,-2.3462823e-09,9.503366e-09,0.0018889231,5
231943480,0.9907167,0.075378016,0.0018921059,0.11311494,-0.9999983,-2.3462823e-09,9.503366e-09,0.0018889231,5
231988190,0.99078685,0.074336484,0.0022592347,0.11318314,-0.9999983,-2.3462823e-09,9.503366e-09,0.0018889231,5
232037904,0.9910587,0.07024659,0.0026589956,0.113406055,-0.9999983,-2.3462823e-09,9.503366e-09,0.0018889231,5
232092497,0.9914239,0.06486685,0.0010528979,0.113445394,-0.9999983,-2.3462823e-09,9.503366e-09,0.0018889231,5
232142246,0.99157935,0.06178036,-0.0019201407,0.11379775,-0.9999983,-2.3462823e-09,9.503366e-09,0.0018889231,5
232191841,0.99182796,0.056386523,-0.0048258686,0.11434447,-0.9999983,-2.3462823e-09,9.503366e-09,0.0018889231,5
232241514,0.99199814,0.051715434,-0.0071786186,0.11495159,-0.9999983,-2.3462823e-09,9.503366e-09,0.0018889231,5
232291249,0.99210745,0.048445027,-0.009129172,0.115293555,-0.9999983,-2.3462823e-09,9.503366e-09,0.0018889231,5
232340858,0.99228936,0.04342918,-0.010484096,0.115611196,-0.9999983,-2.3462823e-09,9.503366e-09,0.0018889231,5
232390530,0.99251884,0.037414066,-0.01046144,0.1157457,-0.9999983,-2.3462823e-09,9.503366e-09,0.0018889231,5
232440207,0.9927061,0.031914365,-0.009646307,0.115857884,-0.9999983,-2.3462823e-09,9.503366e-09,0.0018889231,5
232489875,0.99286485,0.026448056,-0.00860767,0.11595606,-0.9999983,-2.3462823e-09,9.503366e-09,0.0018889231,5
232539547,0.99299896,0.020199366,-0.006818723,0.11618378,-0.9999983,-2.3462823e-09,9.503366e-09,0.0018889231,5
232594192,0.9931069,0.0110332575,-0.0041403556,0.116618186,-0.9999983,-2.3462823e-09,9.503366e-09,0.0018889231,5
232643858,0.9931435,0.0053478368,-0.0023910613,0.116755284,-0.9999983,-2.3462823e-09,9.503366e-09,0.0018889231,5
232688665,0.99313366,0.004003109,-0.0017940255,0.116903014,-0.9999983,-2.3462823e-09,9.503366e-09,0.0018889231,5
232738235,0.9930733,0.004604904,-0.0015393549,0.11739648,-0.9999983,-2.3462823e-09,9.503366e-09,0.0018889231,5
232792875,0.9930538,0.004262755,-0.0019051604,0.1175687,-0.9999983,-2.3462823e-09,9.503366e-09,0.0018889231,5
232842548,0.993012,0.002383702,-0.0016719092,0.11797795,-0.9999983,-2.3462823e-09,9.503366e-09,0.0018889231,5
232892219,0.9930041,0.0015363367,-0.0014917252,0.11806041,-0.9999983,-2.3462823e-09,9.503366e-09,0.0018889231,5
232941924,0.99295187,0.0023524726,-0.0011414803,0.11849008,-0.9999983,-2.3462823e-09,9.503366e-09,0.0018889231,5
232991563,0.99289346,0.0036113695,-0.0008204964,0.11894972,-0.9999983,-2.3462823e-09,9.503366e-09,0.0018889231,5
233041236,0.99285394,0.003798462,-0.0002510041,0.11927572,-0.9999983,-2.3462823e-09,9.503366e-09,0.0018889231,5
233090909,0.99284476,0.0033755042,-0.00016528575,0.11936531,-0.9999983,-2.3462823e-09,9.503366e-09,0.0018889231,5
233140580,0.9927542,0.002539467,-0.00012403278,0.1201365,-0.9999983,-2.3462823e-09,9.503366e-09,0.0018889231,5
233190309,0.9927489,0.0020555374,0.00047510376,0.12018864,-0.9999983,-2.3462823e-09,9.503366e-09,0.0018889231,5
233240101,0.9923309,0.003926596,0.00063660176,0.12354562,-0.9999983,-2.3462823e-09,9.503366e-09,0.0018889231,5
233294564,0.99206406,0.014759754,0.0033711134,0.12481865,-0.9999983,-2.3462823e-09,9.503366e-09,0.0018889231,5
233339269,0.9918096,0.024911687,0.00617356,0.12512,-0.9999983,-2.3462823e-09,9.503366e-09,0.0018889231,5
233388942,0.99163276,0.029455896,0.0074330126,0.12546538,-0.9999983,-2.3462823e-09,9.503366e-09,0.0018889231,5
233438613,0.9915809,0.030593129,0.008266992,0.12555109,-0.9999983,-2.3462823e-09,9.503366e-09,0.0018889231,5
233493372,0.99147874,0.033472653,0.009243454,0.1255555,-0.9999983,-2.3462823e-09,9.503366e-09,0.0018889231,5
233542925,0.99137735,0.03511823,0.009673253,0.12587373,-0.9999983,-2.3462823e-09,9.503366e-09,0.0018889231,5
233592597,0.9913534,0.035215415,0.008788899,0.12609968,-0.9999983,-2.3462823e-09,9.503366e-09,0.0018889231,5
233642269,0.9913535,0.03531774,0.008623426,0.12608181,-0.9999983,-2.3462823e-09,9.503366e-09,0.0018889231,5
233691941,0.9913686,0.036486905,0.008139594,0.12566148,-0.9999983,-2.3462823e-09,9.503366e-09,0.0018889231,5
233741613,0.99136394,0.03654675,0.0065538613,0.12577307,-0.9999983,-2.3462823e-09,9.503366e-09,0.0018889231,5
233791285,0.9914046,0.036441766,0.0034534105,0.1256066,-0.9999983,-2.3462823e-09,9.503366e-09,0.0018889231,5
233840957,0.9914631,0.036911145,0.0015497345,0.12504442,-0.9999983,-2.3462823e-09,9.503366e-09,0.0018889231,5
233890631,0.99153125,0.03606137,0.00063931633,0.12475963,-0.9999983,-2.3462823e-09,9.503366e-09,0.0018889231,5
233940349,0.99160624,0.034388464,-0.00058005605,0.12463632,-0.9999983,-2.3462823e-09,9.503366e-09,0.0018889231,5
233994941,0.99164945,0.03505776,-0.0019144528,0.12409128,-0.9999983,-2.3462823e-09,9.503366e-09,0.0018889231,5
234039779,0.99169296,0.03543908,-0.0028505481,0.12361654,-0.9999983,-2.3462823e-09,9.503366e-09,0.0018889231,5
234089319,0.9917527,0.03474246,-0.003054975,0.12332993,-0.9999983,-2.3462823e-09,9.503366e-09,0.0018889231,5
234138992,0.9917826,0.034725085,-0.0031489504,0.12309204,-0.9999983,-2.3462823e-09,9.503366e-09,0.0018889231,5
234193630,0.9918359,0.034872368,-0.0034898524,0.12261082,-0.9999983,-2.3462823e-09,9.503366e-09,0.0018889231,5
234243303,0.9918387,0.03547827,-0.0043641217,0.1223857,-0.9999983,-2.3462823e-09,9.503366e-09,0.0018889231,5
234288049,0.9919503,0.03497292,-0.004380206,0.12162438,-0.9999983,-2.3462823e-09,9.503366e-09,0.0018889231,5
234342647,0.99210006,0.03296723,-0.0037134357,0.12098342,-0.9999983,-2.3462823e-09,9.503366e-09,0.0018889231,5
234392319,0.99218506,0.032902565,-0.003502075,0.120307565,-0.9999983,-2.3462823e-09,9.503366e-09,0.0018889231,5
234441991,0.99226254,0.032559082,-0.0036774622,0.11975663,-0.9999983,-2.3462823e-09,9.503366e-09,0.0018889231,5
234491663,0.99236846,0.031833902,-0.0038507916,0.11906567,-0.9999983,-2.3462823e-09,9.503366e-09,0.0018889231,5
234541338,0.99247587,0.031799998,-0.004415307,0.11815695,-0.9999983,-2.3462823e-09,9.503366e-09,0.0018889231,5
234591011,0.99261016,0.03114578,-0.004890793,0.11717986,-0.9999983,-2.3462823e-09,9.503366e-09,0.0018889231,5
234640696,0.9927081,0.030082138,-0.004832509,0.11662997,-0.9999983,-2.3462823e-09,9.503366e-09,0.0018889231,5
234690353,0.99277985,0.030220011,-0.0049750446,0.1159747,-0.9999983,-2.3462823e-09,9.503366e-09,0.0018889231,5
234740027,0.9928563,0.030970786,-0.0052976226,0.11510536,-0.9999983,-2.3462823e-09,9.503366e-09,0.0018889231,5
234789749,0.9929365,0.03109493,-0.0054519074,0.11437028,-0.9999983,-2.3462823e-09,9.503366e-09,0.0018889231,5
234839466,0.9929825,0.031237103,-0.0047474224,0.11396282,-0.9999983,-2.3462823e-09,9.503366e-09,0.0018889231,5
234894014,0.9929955,0.031625777,-0.0042524533,0.11376163,-0.9999983,-2.3462823e-09,9.503366e-09,0.0018889231,5
234938713,0.99303436,0.031183913,-0.0035579912,0.1135682,-0.9999983,-2.3462823e-09,9.503366e-09,0.0018889231,5
234988386,0.99304813,0.031047875,-0.0035130624,0.11348662,-0.9999983,-2.3462823e-09,9.503366e-09,0.0018889231,5
235043025,0.9929972,0.031896617,-0.0034297155,0.1136983,-0.9999983,-2.3462823e-09,9.503366e-09,0.0018889231,5
235092721,0.9929538,0.032677513,-0.0033366552,0.113858774,-0.9999983,-2.3462823e-09,9.503366e-09,0.0018889231,5
235142370,0.99287355,0.032921027,-0.003894076,0.11446907,-0.9999983,-2.3462823e-09,9.503366e-09,0.0018889231,5
235192051,0.99281925,0.0334573,-0.0038753443,0.11478466,-0.9999983,-2.3462823e-09,9.503366e-09,0.0018889231,5
235241714,0.99276763,0.034124836,-0.003295127,0.115053296,-0.9999983,-2.3462823e-09,9.503366e-09,0.0018889231,5
235291388,0.99267864,0.034213,-0.002672541,0.115808256,-0.9999983,-2.3462823e-09,9.503366e-09,0.0018889231,5
235341088,0.9926163,0.033992372,-0.0024198825,0.11641116,-0.9999983,-2.3462823e-09,9.503366e-09,0.0018889231,5
235390913,0.9925854,0.03403278,-0.002846634,0.116652876,-0.9999983,-2.3462823e-09,9.503366e-09,0.0018889231,5
235440402,0.992473,0.03484585,-0.0029901096,0.1173642,-0.9999983,-2.3462823e-09,9.503366e-09,0.0018889231,5
235490076,0.99241143,0.035100486,-0.002702489,0.117814355,-0.9999983,-2.3462823e-09,9.503366e-09,0.0018889231,5
235539747,0.9923881,0.03482652,-0.0026226467,0.11809374,-0.9999983,-2.3462823e-09,9.503366e-09,0.0018889231,5
235594386,0.9923331,0.03492991,-0.0024500184,0.11852843,-0.9999983,-2.3462823e-09,9.503366e-09,0.0018889231,5
235639212,0.99228066,0.03487209,-0.002057975,0.118991,-0.9999983,-2.3462823e-09,9.503366e-09,0.0018889231,5
235688763,0.9922447,0.035268676,-0.0022833433,0.11916942,-0.9999983,-2.3462823e-09,9.503366e-09,0.0018889231,5
235743403,0.9921603,0.035067108,-0.0021623594,0.11993182,-0.9999983,-2.3462823e-09,9.503366e-09,0.0018889231,5
235793090,0.9921326,0.034204993,-0.0017802183,0.12041497,-0.9999983,-2.3462823e-09,9.503366e-09,0.0018889231,5
235842748,0.99204236,0.03453084,-0.002240883,0.121056445,-0.9999983,-2.3462823e-09,9.503366e-09,0.0018889231,5
235887453,0.99196637,0.035699397,-0.0027147175,0.12132939,-0.9999983,-2.3462823e-09,9.503366e-09,0.0018889231,5
235942093,0.99193215,0.035895668,-0.0025180085,0.12155581,-0.9999983,-2.3462823e-09,9.503366e-09,0.0018889231,5
235991760,0.99190146,0.03481832,-0.0025537782,0.12211771,-0.9999983,-2.3462823e-09,9.503366e-09,0.0018889231,5
236041436,0.9918648,0.03598768,-0.0029284984,0.122068614,-0.9999983,-2.3462823e-09,9.503366e-09,0.0018889231,5
236091108,0.99181604,0.0362849,-0.0027968704,0.12237839,-0.9999983,-2.3462823e-09,9.503366e-09,0.0018889231,5
236140783,0.99182045,0.035395827,-0.0018221942,0.12262174,-0.9999983,-2.3462823e-09,9.503366e-09,0.0018889231,5
236190584,0.9918824,0.034725875,-0.0013470243,0.122318454,-0.9999983,-2.3462823e-09,9.503366e-09,0.0018889231,5
236240125,0.9918716,0.034316972,-0.0011632929,0.122522704,-0.9999983,-2.3462823e-09,9.503366e-09,0.0018889231,5
236289797,0.9918412,0.03534969,-0.0014009313,0.12247306,-0.9999983,-2.3462823e-09,9.503366e-09,0.0018889231,5
236339471,0.9918367,0.03617128,-0.0013436193,0.12226994,-0.9999983,-2.3462823e-09,9.503366e-09,0.0018889231,5
236389143,0.9918585,0.03538501,-0.00078484573,0.12232761,-0.9999983,-2.3462823e-09,9.503366e-09,0.0018889231,5
236443840,0.99192935,0.03507748,-2.0699394e-05,0.12184391,-0.9999983,-2.3462823e-09,9.503366e-09,0.0018889231,5
236493454,0.99201995,0.0351803,-0.00022015334,0.121073686,-0.9999983,-2.3462823e-09,9.503366e-09,0.0018889231,5
236538158,0.9920229,0.036201894,-0.00012333355,0.12074766,-0.9999983,-2.3462823e-09,9.503366e-09,0.0018889231,5
236587831,0.9921469,0.036857348,0.0006273695,0.11952336,-0.9999983,-2.3462823e-09,9.503366e-09,0.0018889231,5
236642470,0.9922882,0.03571549,0.0016293635,0.11868434,-0.9999983,-2.3462823e-09,9.503366e-09,0.0018889231,5
236692143,0.99240035,0.035228893,0.0016432841,0.11788951,-0.9999983,-2.3462823e-09,9.503366e-09,0.0018889231,5
236742008,0.9925148,0.03506638,0.0021087204,0.11696277,-0.9999983,-2.3462823e-09,9.503366e-09,0.0018889231,5
236791487,0.99263966,0.0358005,0.002486435,0.11566592,-0.9999983,-2.3462823e-09,9.503366e-09,0.0018889231,5
236841159,0.9926962,0.035865754,0.001945048,0.11517009,-0.9999983,-2.3462823e-09,9.503366e-09,0.0018889231,5
236890835,0.9927827,0.034919605,0.0023136176,0.11470706,-0.9999983,-2.3462823e-09,9.503366e-09,0.0018889231,5
236940503,0.99290884,0.03317603,0.002711005,0.11412329,-0.9999983,-2.3462823e-09,9.503366e-09,0.0018889231,5
236990268,0.99292034,0.033524457,0.0019339086,0.11393627,-0.9999983,-2.3462823e-09,9.503366e-09,0.0018889231,5
237039848,0.9929055,0.03476276,0.0013205132,0.11370419,-0.9999983,-2.3462823e-09,9.503366e-09,0.0018889231,5
237089520,0.99293756,0.035047695,0.00067102833,0.113341615,-0.9999983,-2.3462823e-09,9.503366e-09,0.0018889231,5
237144160,0.9929845,0.032823373,0.0008188889,0.113595046,-0.9999983,-2.3462823e-09,9.503366e-09,0.0018889231,5
237193832,0.99298567,0.033053543,0.00076560053,0.11351777,-0.9999983,-2.3462823e-09,9.503366e-09,0.0018889231,5
237238583,0.9928914,0.03527929,0.0006079731,0.11367458,-0.9999983,-2.3462823e-09,9.503366e-09,0.0018889231,5
237288209,0.9928209,0.035670567,7.2163544e-05,0.1141674,-0.9999983,-2.3462823e-09,9.503366e-09,0.0018889231,5
237342848,0.9928231,0.035439383,-0.00067659025,0.11421898,-0.9999983,-2.3462823e-09,9.503366e-09,0.0018889231,5
237392521,0.99280214,0.034873765,-0.00043329957,0.11457554,-0.9999983,-2.3462823e-09,9.503366e-09,0.0018889231,5
237442194,0.9928132,0.034489624,-0.00078098016,0.11459404,-0.9999983,-2.3462823e-09,9.503366e-09,0.0018889231,5
237491866,0.99279106,0.033521622,-0.0015974774,0.11506352,-0.9999983,-2.3462823e-09,9.503366e-09,0.0018889231,5
237541699,0.9927755,0.033145197,-0.0015686488,0.115307726,-0.9999983,-2.3462823e-09,9.503366e-09,0.0018889231,5
237591210,0.9927701,0.033684447,-0.0014515587,0.11519983,-0.9999983,-2.3462823e-09,9.503366e-09,0.0018889231,5
237640882,0.9927406,0.033496834,-0.0013337451,0.11550963,-0.9999983,-2.3462823e-09,9.503366e-09,0.0018889231,5
237690554,0.9927544,0.033344314,-0.0019737922,0.11542488,-0.9999983,-2.3462823e-09,9.503366e-09,0.0018889231,5
237740227,0.9927843,0.03326144,-0.002115983,0.115189105,-0.9999983,-2.3462823e-09,9.503366e-09,0.0018889231,5
237790004,0.9927706,0.033180557,-0.0014975652,0.115340486,-0.9999983,-2.3462823e-09,9.503366e-09,0.0018889231,5
237844538,0.99278593,0.03342766,-0.00097566284,0.115142144,-0.9999983,-2.3462823e-09,9.503366e-09,0.0018889231,5
237889243,0.992774,0.0340611,-0.0013033554,0.11505595,-0.9999983,-2.3462823e-09,9.503366e-09,0.0018889231,5
237938915,0.9927452,0.034133717,-0.0019948613,0.115272805,-0.9999983,-2.3462823e-09,9.503366e-09,0.0018889231,5
237988587,0.99269366,0.03542244,-0.0024359534,0.11532012,-0.9999983,-2.3462823e-09,9.503366e-09,0.0018889231,5
238043229,0.9926966,0.03423375,-0.0028985136,0.11564285,-0.9999983,-2.3462823e-09,9.503366e-09,0.0018889231,5
238092900,0.99273485,0.033082392,-0.0021997448,0.11566477,-0.9999983,-2.3462823e-09,9.503366e-09,0.0018889231,5
238142573,0.9927074,0.033075534,-0.0004775321,0.11592228,-0.9999983,-2.3462823e-09,9.503366e-09,0.0018889231,5
238192243,0.9926507,0.032380577,-3.0822644e-05,0.11660262,-0.9999983,-2.3462823e-09,9.503366e-09,0.0018889231,5
238241917,0.9925962,0.032078877,3.826648e-05,0.11714827,-0.9999983,-2.3462823e-09,9.503366e-09,0.0018889231,5
238291588,0.9925399,0.032222185,0.00066849025,0.1175836,-0.9999983,-2.3462823e-09,9.503366e-09,0.0018889231,5
238341393,0.99244183,0.03135298,0.00088587665,0.118640244,-0.9999983,-2.3462823e-09,9.503366e-09,0.0018889231,5
238390932,0.99234015,0.03176519,0.0007050873,0.11937993,-0.9999983,-2.3462823e-09,9.503366e-09,0.0018889231,5
238440605,0.9922221,0.032272745,0.00054261356,0.1202235,-0.9999983,-2.3462823e-09,9.503366e-09,0.0018889231,5
238490277,0.99209136,0.032084063,0.00021188712,0.121348314,-0.9999983,-2.3462823e-09,9.503366e-09,0.0018889231,5
238544919,0.9920007,0.03156561,0.00022305768,0.122221924,-0.9999983,-2.3462823e-09,9.503366e-09,0.0018889231,5
238589652,0.9919029,0.031571526,0.00020743553,0.1230122,-0.9999983,-2.3462823e-09,9.503366e-09,0.0018889231,5
238639298,0.99174225,0.03206541,0.00043459653,0.12417299,-0.9999983,-2.3462823e-09,9.503366e-09,0.0018889231,5
238688966,0.9916203,0.033300176,0.0002586916,0.1248215,-0.9999983,-2.3462823e-09,9.503366e-09,0.0018889231,5
238743607,0.99147475,0.033706497,-0.00040059295,0.12586331,-0.9999983,-2.3462823e-09,9.503366e-09,0.0018889231,5
238793278,0.9913863,0.0330378,-6.1076484e-05,0.12673517,-0.9999983,-2.3462823e-09,9.503366e-09,0.0018889231,5
238837982,0.991305,0.032735877,0.0006898483,0.12744547,-0.9999983,-2.3462823e-09,9.503366e-09,0.0018889231,5
238892808,0.9912199,0.032602035,0.0010666715,0.1281374,-0.9999983,-2.3462823e-09,9.503366e-09,0.0018889231,5
238942294,0.9911247,0.03226173,0.001158607,0.12895666,-0.9999983,-2.3462823e-09,9.503366e-09,0.0018889231,5
238991966,0.9910909,0.03239662,0.0011126399,0.12918209,-0.9999983,-2.3462823e-09,9.503366e-09,0.0018889231,5
239041639,0.99103945,0.031974055,0.0010697632,0.12968174,-0.9999983,-2.3462823e-09,9.503366e-09,0.0018889231,5
239091314,0.9910222,0.03072899,0.0010043792,0.13011426,-0.9999983,-2.3462823e-09,9.503366e-09,0.0018889231,5
239141083,0.990986,0.031162355,0.0008183878,0.13028868,-0.9999983,-2.3462823e-09,9.503366e-09,0.0018889231,5
239190657,0.9908707,0.032354206,0.0007731789,0.13087374,-0.9999983,-2.3462823e-09,9.503366e-09,0.0018889231,5
239240328,0.9908653,0.032910977,0.00091108703,0.13077532,-0.9999983,-2.3462823e-09,9.503366e-09,0.0018889231,5
239290000,0.990824,0.032054402,0.00081126794,0.13130029,-0.9999983,-2.3462823e-09,9.503366e-09,0.0018889231,5
239339672,0.99084127,0.03162518,0.0009550507,0.13127315,-0.9999983,-2.3462823e-09,9.503366e-09,0.0018889231,5
239389350,0.990804,0.03145966,0.0011956948,0.13159163,-0.9999983,-2.3462823e-09,9.503366e-09,0.0018889231,5
239443984,0.9908155,0.031656798,0.001083126,0.13145871,-0.9999983,-2.3462823e-09,9.503366e-09,0.0018889231,5
239488689,0.9907894,0.0317335,0.00075227325,0.13163912,-0.9999983,-2.3462823e-09,9.503366e-09,0.0018889231,5
239538361,0.9907925,0.03143911,8.894086e-05,0.13168815,-0.9999983,-2.3462823e-09,9.503366e-09,0.0018889231,5
239593042,0.9908457,0.030901654,0.0001923527,0.13141522,-0.9999983,-2.3462823e-09,9.503366e-09,0.0018889231,5
239642674,0.99092036,0.030358294,5.3361913e-05,0.1309785,-0.9999983,-2.3462823e-09,9.503366e-09,0.0018889231,5
239692499,0.9909262,0.030958893,-0.00023130428,0.13079354,-0.9999983,-2.3462823e-09,9.503366e-09,0.0018889231,5
239742017,0.9909844,0.03185635,-0.00045094642,0.13013494,-0.9999983,-2.3462823e-09,9.503366e-09,0.0018889231,5
239791690,0.9910533,0.030405428,0.00018878713,0.12995762,-0.9999983,-2.3462823e-09,9.503366e-09,0.0018889231,5
239841371,0.9911292,0.03075631,0.00073091383,0.12929234,-0.9999983,-2.3462823e-09,9.503366e-09,0.0018889231,5
239891035,0.99109715,0.0309992,0.0007426895,0.12947991,-0.9999983,-2.3462823e-09,9.503366e-09,0.0018889231,5
239940761,0.9911598,0.030948281,0.00029993223,0.12901382,-0.9999983,-2.3462823e-09,9.503366e-09,0.0018889231,5
239990379,0.99115366,0.029774055,0.0006595375,0.12933464,-0.9999983,-2.3462823e-09,9.503366e-09,0.0018889231,5
240040052,0.99117774,0.029806681,0.0010195463,0.12914047,-0.9999983,-2.3462823e-09,9.503366e-09,0.0018889231,5
240089724,0.9911529,0.030217843,0.00025845034,0.12923965,-0.9999983,-2.3462823e-09,9.503366e-09,0.0018889231,5
240144363,0.9911797,0.030036805,-0.0008444423,0.12907359,-0.9999983,-2.3462823e-09,9.503366e-09,0.0018889231,5
240189067,0.9912733,0.028814204,-0.0011950254,0.12863003,-0.9999983,-2.3462823e-09,9.503366e-09,0.0018889231,5
240238930,0.9913422,0.028697245,-0.0017542748,0.12811753,-0.9999983,-2.3462823e-09,9.503366e-09,0.0018889231,5
240293380,0.99137676,0.030285202,-0.0031214238,0.12745659,-0.9999983,-2.3462823e-09,9.503366e-09,0.0018889231,5
240343052,0.99146575,0.03011336,-0.0036539068,0.12678914,-0.9999983,-2.3462823e-09,9.503366e-09,0.0018889231,5
240392725,0.9915582,0.029091941,-0.0027623128,0.1263264,-0.9999983,-2.3462823e-09,9.503366e-09,0.0018889231,5
240437429,0.9916257,0.02873662,-0.0023444563,0.12588501,-0.9999983,-2.3462823e-09,9.503366e-09,0.0018889231,5
240492188,0.9917043,0.029540978,-0.002286129,0.12507913,-0.9999983,-2.3462823e-09,9.503366e-09,0.0018889231,5
240541744,0.9917789,0.031014813,-0.0018719066,0.12413371,-0.9999983,-2.3462823e-09,9.503366e-09,0.0018889231,5
240591413,0.99185485,0.031320628,-0.0017508181,0.123450644,-0.9999983,-2.3462823e-09,9.503366e-09,0.0018889231,5
240641085,0.9919233,0.03217877,-0.0011989994,0.12268439,-0.9999983,-2.3462823e-09,9.503366e-09,0.0018889231,5
240690761,0.9920642,0.032521177,0.00012418254,0.121453814,-0.9999983,-2.3462823e-09,9.503366e-09,0.0018889231,5
240740488,0.9921878,0.030650863,0.0009015199,0.12092572,-0.9999983,-2.3462823e-09,9.503366e-09,0.0018889231,5
240790140,0.9922858,0.030998275,0.00054663664,0.12003285,-0.9999983,-2.3462823e-09,9.503366e-09,0.0018889231,5
240839774,0.99236774,0.03146279,4.9642313e-05,0.1192329,-0.9999983,-2.3462823e-09,9.503366e-09,0.0018889231,5
240889446,0.99243945,0.031100586,-0.00025727806,0.1187292,-0.9999983,-2.3462823e-09,9.503366e-09,0.0018889231,5
240939120,0.992539,0.031052947,-0.00054661185,0.117906384,-0.9999983,-2.3462823e-09,9.503366e-09,0.0018889231,5
240993766,0.99260765,0.030594872,-0.00072309125,0.11744606,-0.9999983,-2.3462823e-09,9.503366e-09,0.0018889231,5
241043610,0.9926618,0.032305613,-0.0007141646,0.116526484,-0.9999983,-2.3462823e-09,9.503366e-09,0.0018889231,5
241093104,0.9926894,0.032880448,-0.00082889415,0.11612904,-0.9999983,-2.3462823e-09,9.503366e-09,0.0018889231,5
241137808,0.992756,0.033353597,-0.001036466,0.11542098,-0.9999983,-2.3462823e-09,9.503366e-09,0.0018889231,5
241192447,0.9928095,0.03369636,-0.0009845224,0.11486132,-0.9999983,-2.3462823e-09,9.503366e-09,0.0018889231,5
241242124,0.99279773,0.03401999,-0.00080989883,0.11486821,-0.9999983,-2.3462823e-09,9.503366e-09,0.0018889231,5
241291877,0.992778,0.033744864,-0.0012942614,0.11511544,-0.9999983,-2.3462823e-09,9.503366e-09,0.0018889231,5
241341464,0.9927487,0.034511562,-0.0018662815,0.115133286,-0.9999983,-2.3462823e-09,9.503366e-09,0.0018889231,5
241391136,0.99269813,0.03460643,-0.001858196,0.11553954,-0.9999983,-2.3462823e-09,9.503366e-09,0.0018889231,5
241440808,0.9926648,0.033042848,-0.0020584455,0.11627828,-0.9999983,-2.3462823e-09,9.503366e-09,0.0018889231,5
241490482,0.9926101,0.032566898,-0.0020921885,0.11687732,-0.9999983,-2.3462823e-09,9.503366e-09,0.0018889231,5
241540154,0.99251926,0.03272699,-0.0032316104,0.11757638,-0.9999983,-2.3462823e-09,9.503366e-09,0.0018889231,5
241589825,0.9924065,0.032533582,-0.0037360894,0.118562475,-0.9999983,-2.3462823e-09,9.503366e-09,0.0018889231,5
241639499,0.9923179,0.03284462,-0.0028068041,0.11924144,-0.9999983,-2.3462823e-09,9.503366e-09,0.0018889231,5
241694140,0.99216324,0.03326676,-0.0016438098,0.12042777,-0.9999983,-2.3462823e-09,9.503366e-09,0.0018889231,5
241743826,0.9919749,0.034022793,-0.002811167,0.12173936,-0.9999983,-2.3462823e-09,9.503366e-09,0.0018889231,5
241788514,0.9917925,0.034521796,-0.0037052839,0.12305408,-0.9999983,-2.3462823e-09,9.503366e-09,0.0018889231,5
241838313,0.9915991,0.033935905,-0.0035541626,0.12476819,-0.9999983,-2.3462823e-09,9.503366e-09,0.0018889231,5
241892826,0.9914352,0.032372203,-0.0025129323,0.1264989,-0.9999983,-2.3462823e-09,9.503366e-09,0.0018889231,5
241942499,0.99124134,0.031342994,-0.0010256809,0.12828602,-0.9999983,-2.3462823e-09,9.503366e-09,0.0018889231,5
241992227,0.9911313,0.029555695,-4.6148552e-06,0.12955786,-0.9999983,-2.3462823e-09,9.503366e-09,0.0018889231,5
242041845,0.9909775,0.027598571,0.0003751698,0.13115549,-0.9999983,-2.3462823e-09,9.503366e-09,0.0018889231,5
242091564,0.99088347,0.027989505,0.0006332601,0.13178144,-0.9999983,-2.3462823e-09,9.503366e-09,0.0018889231,5
242141190,0.99072224,0.028227592,0.00071783835,0.13293703,-0.9999983,-2.3462823e-09,9.503366e-09,0.0018889231,5
242190860,0.9906297,0.028062582,-0.0004188805,0.13366064,-0.9999983,-2.3462823e-09,9.503366e-09,0.0018889231,5
242240554,0.99051857,0.027278155,-0.00089916505,0.13464083,-0.9999983,-2.3462823e-09,9.503366e-09,0.0018889231,5
242290204,0.9904646,0.028079038,-6.5000255e-05,0.1348754,-0.9999983,-2.3462823e-09,9.503366e-09,0.0018889231,5
242339877,0.9903804,0.029147593,0.00091972813,0.13526362,-0.9999983,-2.3462823e-09,9.503366e-09,0.0018889231,5
242394548,0.9903594,0.029948376,0.00073873595,0.13524397,-0.9999983,-2.3462823e-09,9.503366e-09,0.0018889231,5
242439221,0.9903938,0.02896509,0.0012316161,0.13520208,-0.9999983,-2.3462823e-09,9.503366e-09,0.0018889231,5
242488895,0.9904554,0.029428536,0.0027738144,0.13462716,-0.9999983,-2.3462823e-09,9.503366e-09,0.0018889231,5
242538565,0.990496,0.030348213,0.0038687221,0.13409647,-0.9999983,-2.3462823e-09,9.503366e-09,0.0018889231,5
242593215,0.9906105,0.03019016,0.0044494662,0.13326567,-0.9999983,-2.3462823e-09,9.503366e-09,0.0018889231,5
242642999,0.9907972,0.028955057,0.0050075003,0.13212647,-0.9999983,-2.3462823e-09,9.503366e-09,0.0018889231,5
242692549,0.99093705,0.02989442,0.0051261284,0.1308583,-0.9999983,-2.3462823e-09,9.503366e-09,0.0018889231,5
242742223,0.99110097,0.030699402,0.0050582313,0.12942493,-0.9999983,-2.3462823e-09,9.503366e-09,0.0018889231,5
242791895,0.99132717,0.029097794,0.0053617046,0.12804389,-0.9999983,-2.3462823e-09,9.503366e-09,0.0018889231,5
242841567,0.9916136,0.027781116,0.004985601,0.12611862,-0.9999983,-2.3462823e-09,9.503366e-09,0.0018889231,5
242891261,0.9917664,0.028428236,0.0042673703,0.12479201,-0.9999983,-2.3462823e-09,9.503366e-09,0.0018889231,5
242940978,0.9919158,0.030547021,0.0036590423,0.12311196,-0.9999983,-2.3462823e-09,9.503366e-09,0.0018889231,5
242990583,0.992067,0.031714365,0.0031065876,0.12160444,-0.9999983,-2.3462823e-09,9.503366e-09,0.0018889231,5
243040256,0.9922358,0.031013561,0.0032469674,0.12039892,-0.9999983,-2.3462823e-09,9.503366e-09,0.0018889231,5
243094919,0.99242866,0.030566609,0.0036332146,0.11890307,-0.9999983,-2.3462823e-09,9.503366e-09,0.0018889231,5
243139601,0.99254096,0.0309824,0.0035214324,0.117856584,-0.9999983,-2.3462823e-09,9.503366e-09,0.0018889231,5
243189476,0.9926291,0.03169248,0.003947302,0.11690845,-0.9999983,-2.3462823e-09,9.503366e-09,0.0018889231,5
243238945,0.9927587,0.0319382,0.004131488,0.115729176,-0.9999983,-2.3462823e-09,9.503366e-09,0.0018889231,5
243293584,0.99286467,0.030880256,0.005279618,0.11505769,-0.9999983,-2.3462823e-09,9.503366e-09,0.0018889231,5
243343257,0.9929767,0.029683685,0.005899216,0.114373825,-0.9999983,-2.3462823e-09,9.503366e-09,0.0018889231,5
243387963,0.99302316,0.030220179,0.0050117434,0.113870926,-0.9999983,-2.3462823e-09,9.503366e-09,0.0018889231,5
243442683,0.9930135,0.03068571,0.003796737,0.11387788,-0.9999983,-2.3462823e-09,9.503366e-09,0.0018889231,5
243492274,0.99305594,0.030457936,0.002431179,0.113606356,-0.9999983,-2.3462823e-09,9.503366e-09,0.0018889231,5
243541946,0.993058,0.03060019,0.0015855276,0.1135643,-0.9999983,-2.3462823e-09,9.503366e-09,0.0018889231,5
243591618,0.99306357,0.03187907,0.0012925871,0.11316777,-0.9999983,-2.3462823e-09,9.503366e-09,0.0018889231,5
243641295,0.99306864,0.03228972,0.0010894415,0.1130088,-0.9999983,-2.3462823e-09,9.503366e-09,0.0018889231,5
243690963,0.99309987,0.031107664,0.00097358925,0.113066904,-0.9999983,-2.3462823e-09,9.503366e-09,0.0018889231,5
243740635,0.99315435,0.030521424,0.0011495826,0.11274635,-0.9999983,-2.3462823e-09,9.503366e-09,0.0018889231,5
243790309,0.9931521,0.031613294,0.001667962,0.11245751,-0.9999983,-2.3462823e-09,9.503366e-09,0.0018889231,5
243839979,0.9931359,0.032339375,0.0024705597,0.11237922,-0.9999983,-2.3462823e-09,9.503366e-09,0.0018889231,5
243889651,0.99322915,0.031381663,0.0021495314,0.1118328,-0.9999983,-2.3462823e-09,9.503366e-09,0.0018889231,5
243939324,0.9933169,0.029825518,0.0016766604,0.111486405,-0.9999983,-2.3462823e-09,9.503366e-09,0.0018889231,5
243994106,0.99338645,0.03044855,0.0013388938,0.11070008,-0.9999983,-2.3462823e-09,9.503366e-09,0.0018889231,5
244038668,0.9934196,0.031126121,0.0011693222,0.11021505,-0.9999983,-2.3462823e-09,9.503366e-09,0.0018889231,5
244088341,0.9934745,0.031258296,0.0010274614,0.10968276,-0.9999983,-2.3462823e-09,9.503366e-09,0.0018889231,5
244143003,0.993518,0.030926965,0.0015351989,0.1093767,-0.9999983,-2.3462823e-09,9.503366e-09,0.0018889231,5
244192652,0.9935368,0.030821016,0.0016168138,0.10923445,-0.9999983,-2.3462823e-09,9.503366e-09,0.0018889231,5
244242371,0.9935508,0.03071344,0.0012142021,0.10914321,-0.9999983,-2.3462823e-09,9.503366e-09,0.0018889231,5
244291997,0.9935733,0.031562503,0.00070787105,0.10869955,-0.9999983,-2.3462823e-09,9.503366e-09,0.0018889231,5
244341669,0.99357253,0.03143528,0.00053647405,0.10874438,-0.9999983,-2.3462823e-09,9.503366e-09,0.0018889231,5
244391342,0.9935911,0.02995795,0.0009544457,0.108988054,-0.9999983,-2.3462823e-09,9.503366e-09,0.0018889231,5
244441014,0.9935653,0.029734448,0.0015028002,0.109277874,-0.9999983,-2.3462823e-09,9.503366e-09,0.0018889231,5
244490687,0.9935179,0.031149339,0.0012638415,0.10931818,-0.9999983,-2.3462823e-09,9.503366e-09,0.0018889231,5
244540582,0.9934743,0.031442605,0.0009555415,0.10963222,-0.9999983,-2.3462823e-09,9.503366e-09,0.0018889231,5
244590031,0.99344873,0.030544033,0.0012617415,0.110114664,-0.9999983,-2.3462823e-09,9.503366e-09,0.0018889231,5
244639703,0.9934248,0.03040225,0.0014326512,0.110367514,-0.9999983,-2.3462823e-09,9.503366e-09,0.0018889231,5
244694349,0.99337435,0.0311505,0.0016918554,0.110608324,-0.9999983,-2.3462823e-09,9.503366e-09,0.0018889231,5
244739053,0.99335474,0.030362368,0.0020490654,0.11099676,-0.9999983,-2.3462823e-09,9.503366e-09,0.0018889231,5
244788801,0.99331844,0.029864816,0.002922623,0.11143652,-0.9999983,-2.3462823e-09,9.503366e-09,0.0018889231,5
244843365,0.99319863,0.03175448,0.003622259,0.11196016,-0.9999983,-2.3462823e-09,9.503366e-09,0.0018889231,5
244893033,0.99310875,0.032304455,0.003400282,0.11260538,-0.9999983,-2.3462823e-09,9.503366e-09,0.0018889231,5
244942704,0.99308586,0.031366467,0.0029524134,0.11308424,-0.9999983,-2.3462823e-09,9.503366e-09,0.0018889231,5
244987512,0.99301153,0.031432707,0.0028045047,0.11372013,-0.9999983,-2.3462823e-09,9.503366e-09,0.0018889231,5
245042072,0.9928939,0.03181961,0.003051518,0.11462973,-0.9999983,-2.3462823e-09,9.503366e-09,0.0018889231,5
245091721,0.9928822,0.030541882,0.0028750917,0.11508233,-0.9999983,-2.3462823e-09,9.503366e-09,0.0018889231,5
245141412,0.9928191,0.030287964,0.0019074192,0.11571203,-0.9999983,-2.3462823e-09,9.503366e-09,0.0018889231,5
245191065,0.99270016,0.031286202,0.00215449,0.116460636,-0.9999983,-2.3462823e-09,9.503366e-09,0.0018889231,5
245240739,0.992632,0.03197973,0.0027100455,0.11684056,-0.9999983,-2.3462823e-09,9.503366e-09,0.0018889231,5
