timestamp,timestamp_sample,accel_device_id,gyro_device_id,delta_angle[0],delta_angle[1],delta_angle[2],delta_velocity[0],delta_velocity[1],delta_velocity[2],delta_angle_dt,delta_velocity_dt,delta_velocity_clipping
218189997,218189558,3932170,3932170,-4.4332188e-07,4.4186786e-06,-7.277665e-05,0.0022855496,-0.0034576922,-0.04860035,4963,4963,0
218195214,218194519,3932170,3932170,-5.0171875e-05,-1.3022282e-05,3.8533974e-05,0.0021417995,-0.0036970265,-0.04886573,4961,4961,0
218688617,218688331,3932170,3932170,0.00011990142,0.0005317062,4.2432916e-05,0.0029785756,-0.0024254005,-0.0476365,4990,4990,0
219192598,219192347,3932170,3932170,0.00025421963,0.0005290474,-0.00014611437,0.0056584375,-0.011276245,-0.048410177,4990,4990,0
219691617,219691370,3932170,3932170,-0.0003377401,0.0006577207,-0.00024618476,0.0045281197,-0.00707579,-0.04985333,4952,4952,0
220190640,220190395,3932170,3932170,-0.000725494,0.00022167955,-0.0006924976,0.0037807636,-0.0067232684,-0.043045226,4990,4990,0
220694718,220694411,3932170,3932170,-0.0009090312,-0.00091962743,-0.00015728362,0.00250042,0.0023847206,-0.04701786,4991,4991,0
221188808,221188507,3932170,3932170,-0.0006771617,0.000105594496,-0.00050678203,-0.0014265811,0.0008307655,-0.045247696,4974,4974,0
221687977,221687729,3932170,3932170,-0.00068818685,0.00024193374,-0.00025948416,0.0009528955,0.002314596,-0.044217315,4993,4993,0
222191749,222191485,3932170,3932170,0.00012017254,0.0002670051,0.0003437278,0.00029555737,-0.00042657187,-0.046266913,4988,4988,0
222690839,222690514,3932170,3932170,-2.6390777e-05,0.00049938966,0.00050225575,0.001535009,-0.00088485674,-0.04735726,4993,4993,0
223194773,223194526,3932170,3932170,0.00032849496,-0.00018129709,-0.0003518753,-0.004985716,-0.000544725,-0.054395642,4993,4993,0
223694015,223693551,3932170,3932170,-0.00044449724,0.00041584388,0.00011500008,0.0031052139,-0.0022445936,-0.0496668,4991,4991,0
224192916,224192573,3932170,3932170,-0.0005202002,0.0002496445,-0.0001941519,0.0011306985,-0.0008285105,-0.046809327,4990,4990,0
224692648,224691628,3932170,3932170,0.00031738967,0.00051486184,0.0005851006,-0.009373614,0.0014203257,-0.049785703,4968,4968,0
225191108,225190822,3932170,3932170,-0.0006476435,0.00051994977,4.375154e-05,8.8307446e-05,0.0017822486,-0.049079403,4963,4963,0
225689966,225689647,3932170,3932170,0.001816347,-0.0003820554,0.00039807716,6.698946e-05,0.012053891,-0.058849756,4987,4987,0
226193913,226193662,3932170,3932170,-0.003388176,0.0004445533,-0.00017457627,-0.00559627,-0.024627233,-0.043587152,4990,4990,0
226692949,226692700,3932170,3932170,0.003030197,-0.00026546663,4.1012212e-05,0.0007487081,-0.016793476,-0.047587145,5003,5003,0
227191963,227191714,3932170,3932170,-0.00039741877,-0.00029760104,-0.00019660474,-0.0010866353,-0.02584621,-0.04332075,4990,4990,0
227691012,227690740,3932170,3932170,-0.001573716,-0.00037719842,-0.0008201364,0.001102959,-0.0010377098,-0.048185267,4991,4991,0
228190041,228189790,3932170,3932170,-0.00061219325,0.00027263287,-5.7162782e-05,0.0025601932,-0.013110585,-0.05074151,4977,4977,0
228689285,228688986,3932170,3932170,0.00013351103,0.00037281256,0.0001594607,0.0025128261,0.00212686,-0.046500657,4958,4958,0
229193063,229192804,3932170,3932170,-0.00026437634,2.4062254e-05,-0.0001269393,-0.0027548794,-0.0287872,-0.041248363,4985,4985,0
229692165,229691829,3932170,3932170,-0.00039170863,0.00018110845,0.0006709559,-0.0067153187,-0.0066427584,-0.048625458,4988,4988,0
230191241,230190857,3932170,3932170,-0.00014714725,-2.32341e-05,-0.00044350573,0.006257382,0.011616893,-0.046583425,4993,4993,0
230690222,230689924,3932170,3932170,-0.00031988916,-7.9743506e-05,0.0005098147,-0.0022853517,0.021312818,-0.0579049,5035,5035,0
231194513,231193899,3932170,3932170,-0.0027589565,0.00057949923,0.0009587745,-0.0046403212,0.00044739922,-0.05414585,4987,4987,0
231693273,231692971,3932170,3932170,0.0006582284,0.0004200976,0.000202804,-0.0035503362,-0.0036321683,-0.05538376,4990,4990,0
232192500,232192119,3932170,3932170,-0.0011786505,-0.0005539066,-0.00025691316,0.0015181842,-0.016022472,-0.04219005,4969,4969,0
232691240,232690978,3932170,3932170,-8.0375125e-05,6.653742e-05,-0.00038165788,0.0013228573,-0.017193198,-0.03767308,4997,4997,0
233190356,233189997,3932170,3932170,2.2697062e-05,0.00041415464,-0.00038070377,0.0019292271,0.0032805123,-0.04179736,4990,4990,0
233694295,233694013,3932170,3932170,0.0003794107,-0.00045552803,-5.078081e-05,-0.003819676,-0.014038345,-0.048591055,4989,4989,0
234193283,234193036,3932170,3932170,-0.0006700853,8.472405e-05,0.00039028272,-0.00018079348,0.021175086,-0.056139853,4922,4922,0
234692316,234692067,3932170,3932170,-0.0010125295,0.00040899462,0.0007864553,-0.0023992963,0.015197999,-0.05338087,4980,4980,0
235191435,235191135,3932170,3932170,0.0009842366,-2.679067e-05,-0.0004788259,0.0028078912,-0.0050067073,-0.0532509,4969,4969,0
235690590,235690286,3932170,3932170,-0.00043507095,0.0002556853,6.1864564e-05,0.0026261532,-0.015278488,-0.04434136,4968,4968,0
236189400,236189142,3932170,3932170,0.0010684867,-0.00032240836,-0.0009433822,0.0077825505,0.00014779596,-0.047321282,4990,4990,0
236693519,236693163,3932170,3932170,-0.00033160608,4.852315e-05,-0.00018498744,0.0017335165,0.0015005185,-0.0438657,4995,4995,0
237192479,237192189,3932170,3932170,0.0001002196,0.000321887,-0.00022536755,0.0027259868,0.002368632,-0.04952802,4995,4995,0
237691600,237691212,3932170,3932170,-0.0006390999,-0.00015423683,0.00017273225,0.0001605414,-0.008991649,-0.05306076,4990,4990,0
238195529,238195228,3932170,3932170,0.00081829645,-0.0001963741,-0.00046527278,0.0020964025,-0.0036436538,-0.047417924,4992,4992,0
238694572,238694253,3932170,3932170,-0.00047075728,0.00048385715,0.00024252491,-8.5334876e-05,0.0031665466,-0.052115764,4989,4989,0
239188716,239188498,3932170,3932170,0.00018500444,-0.00029535368,-0.00018923658,0.0007230777,-0.012923495,-0.04739705,4974,4974,0
239692566,239692305,3932170,3932170,-0.0009271481,0.00059564953,0.000380379,-0.0034234424,-0.015165992,-0.04927768,4990,4990,0
240191688,240191331,3932170,3932170,0.0002230855,-0.00061180687,-0.00048782834,0.0012860333,0.0013282145,-0.04669649,4990,4990,0
240690617,240690373,3932170,3932170,0.0008798811,-2.8651612e-05,-0.001101122,0.0029681476,-0.01876375,-0.04111221,4989,4989,0
241194651,241194374,3932170,3932170,1.8463e-05,-0.0001900629,4.980913e-05,-0.0061642737,-0.010724126,-0.05194158,4990,4990,0
241693651,241693401,3932170,3932170,5.2221432e-05,4.3790627e-05,-2.762635e-05,-0.0026792735,-0.024941642,-0.044346582,4989,4989,0
242192795,242192442,3932170,3932170,-0.00021735419,-0.00041599225,-0.00026530414,0.0017418141,-0.010276495,-0.044224992,4984,4984,0
242691875,242691584,3932170,3932170,0.00057851896,-0.00046093823,-0.00019603969,-0.0025234038,-0.003456824,-0.050232403,4966,4966,0
243190746,243190482,3932170,3932170,-0.0004939279,0.0004704692,0.00052879896,-0.0048814807,0.008152957,-0.05303752,4993,4993,0
243689805,243689506,3932170,3932170,-0.00036808036,0.00038636,0.000120224766,0.0033883597,-0.0014140415,-0.055702798,4990,4990,0
244193770,244193523,3932170,3932170,-0.0005661572,-0.000117636904,0.00012185958,-0.00014464353,-0.0029123346,-0.04170324,4971,4971,0
244692834,244692550,3932170,3932170,-0.00023872947,0.0005546401,0.000279956,-0.00026449116,-0.0034243024,-0.054020774,4991,4991,0
245192274,245191578,3932170,3932170,-0.0006234737,0.00073410186,0.00082530495,-0.005065248,0.009980838,-0.053624757,4991,4991,0
245695888,245695593,3932170,3932170,-0.00067298376,4.7707737e-05,0.0005236063,0.0002131509,0.0067185233,-0.053413972,4990,4990,0
246190461,246189805,3932170,3932170,-0.000118629454,0.00018659225,0.00041487897,-0.0053265225,-0.003950349,-0.047524467,4959,4959,0
246688916,246688656,3932170,3932170,0.0008206987,-0.00031584955,-0.00064358633,0.006760834,0.0020042576,-0.048653293,4990,4990,0
247192933,247192674,3932170,3932170,7.199742e-05,-0.00015918937,0.0004840808,-0.0008704568,-0.0160345,-0.049797516,4991,4991,0
247692054,247691700,3932170,3932170,-0.00016833453,-8.944268e-05,-5.9412774e-05,0.004306248,0.004340176,-0.04564904,4982,4982,0
248190995,248190753,3932170,3932170,-0.0007182615,0.0004543259,0.0006073855,-0.0016335462,0.0089975735,-0.055889353,5015,5015,0
248694994,248694745,3932170,3932170,-0.0005046271,0.00023861982,-6.2263265e-05,-0.0013829984,0.0010161933,-0.046252698,4990,4990,0
249189033,249188783,3932170,3932170,0.0010158201,-0.00045959288,-0.0009709625,0.005919701,0.0069026174,-0.050376263,4972,4972,0
249693250,249692905,3932170,3932170,-0.00026813336,-0.00014178826,0.00026085036,-0.0057775704,-0.009698117,-0.05287796,4976,4976,0
250192108,250191849,3932170,3932170,-0.0006894748,0.0004984797,0.00092848507,-0.001678512,0.01871685,-0.057943378,4955,4955,0
250691190,250690855,3932170,3932170,-0.0004906334,-6.179578e-05,0.0010671621,-0.005989498,0.011535823,-0.05569359,4992,4992,0
251190170,251189880,3932170,3932170,-3.8699156e-05,-0.0004895711,-0.00014988828,-0.0026197683,-0.02284,-0.041332662,4990,4990,0
251694200,251693901,3932170,3932170,-0.00015876621,0.0005868566,0.0003957151,-0.0045739384,0.010204033,-0.056033067,4940,4940,0
252193218,252192927,3932170,3932170,-0.0010941267,-0.0029814944,-0.00023243795,0.0009880795,-0.0028996547,-0.051986847,4991,4991,0
252692680,252691960,3932170,3932170,0.00036669688,0.0045141336,0.00025378336,-0.0059496723,-0.01726427,-0.046719916,5002,5002,0
253191311,253191064,3932170,3932170,0.00073072384,-0.0045242365,0.00019900249,0.002488578,0.0079212515,-0.05401826,4959,4959,0
253691211,253690286,3932170,3932170,-0.00077130535,0.0016533864,0.0001748978,-0.0026728157,-0.024325645,-0.047254473,5269,5269,0
254189332,254189035,3932170,3932170,-0.0011974563,0.0018198381,0.0008955266,-0.0008778004,0.0020479427,-0.053331852,4969,4969,0
254693346,254693052,3932170,3932170,-0.00022996702,-0.0010072535,0.00052584306,-0.0044016424,-0.009297802,-0.051351752,4990,4990,0
255192377,255192080,3932170,3932170,-0.0013546788,0.00042353818,0.0007655036,-0.004560323,0.009345007,-0.04654518,4991,4991,0
255691356,255691108,3932170,3932170,-0.00032500183,0.00012027981,0.00049123587,-0.0060896263,-0.010920312,-0.04988417,4979,4979,0
256190432,256190136,3932170,3932170,-0.00091522234,-0.0024734433,0.0011856495,0.0013080067,0.013693386,-0.060088295,4991,4991,0
256689603,256689308,3932170,3932170,-0.00051264756,1.7498593e-06,0.0006152276,-0.005550804,-0.010329791,-0.05265762,4973,4973,0
257193817,257193432,3932170,3932170,0.00018877641,-0.0003970767,-0.00052504626,0.001402639,-0.019876463,-0.043055587,4972,4972,0
257692461,257692209,3932170,3932170,-0.0003093059,0.0001373761,0.00031048743,-0.0030670913,0.003453295,-0.053100165,4994,4994,0
258191651,258191237,3932170,3932170,-0.00053504074,0.00010157727,0.00019988418,0.0005468639,-0.010608599,-0.053028382,4991,4991,0
258690504,258690264,3932170,3932170,-0.00017897185,0.0022985907,-0.00029566194,-0.0035334718,-0.01677436,-0.041451395,4990,4990,0
259194629,259194283,3932170,3932170,-0.00044740198,-0.0045930054,0.00028330393,0.00025455508,0.0024652707,-0.044799533,4988,4988,0
259688658,259688320,3932170,3932170,-0.0010563589,0.0013641665,0.0010228906,0.0010235594,0.0019505654,-0.055824492,4989,4989,0
260193261,260192460,3932170,3932170,-0.00089689536,-2.4944125e-05,0.00016733172,-6.8847556e-05,-0.008780407,-0.053580616,4984,4984,0
260691864,260691617,3932170,3932170,-0.0011703221,-0.002686667,0.0005090882,-0.0055851075,-0.007631023,-0.045726024,4924,4924,0
261190652,261190394,3932170,3932170,-0.00095312396,0.00072911754,0.00069046096,-0.0061934763,-0.017136563,-0.04687268,4990,4990,0
261689713,261689423,3932170,3932170,0.0006899751,0.0006828453,-0.0006109609,0.0014708085,-0.027538858,-0.042482875,4991,4991,0
262193693,262193447,3932170,3932170,-0.00015131652,0.0013261158,-0.00015947626,-0.001877391,0.002174133,-0.055562213,4991,4991,0
262692767,262692475,3932170,3932170,-2.9811203e-05,0.0014407801,0.00038085363,-0.0072646877,0.00444755,-0.05530481,4996,4996,0
263191811,263191498,3932170,3932170,-0.0002234047,0.00039442477,0.00024205513,-0.0016223694,-0.008466737,-0.04949337,4990,4990,0
263690826,263690576,3932170,3932170,-0.0010088028,0.00010999033,0.00050802686,-0.0061778654,-0.019902285,-0.04827813,4966,4966,0
264190156,264189792,3932170,3932170,0.0008757458,-0.00017076604,0.00020738301,0.002244489,0.0010905534,-0.06053256,4972,4972,0
264693871,264693573,3932170,3932170,7.6319164e-05,0.00010498583,-1.5432866e-05,0.006907374,0.0009833381,-0.044021044,4989,4989,0
265192844,265192602,3932170,3932170,0.00055411743,0.0037560032,0.00019593378,-0.0071632126,-0.007873559,-0.05146711,4991,4991,0
265692024,265691634,3932170,3932170,-0.0030005022,-3.570021e-05,0.00012840494,0.0025728398,0.0006719051,-0.049860414,4994,4994,0
266190907,266190659,3932170,3932170,0.0037345628,0.00010749251,0.00016073986,-0.0014272014,-0.021321,-0.04730197,4990,4990,0
266695267,266694683,3932170,3932170,0.0011903932,-0.00031162857,-0.0005209083,0.0040993034,-0.019321503,-0.043893013,4994,4994,0
267189093,267188849,3932170,3932170,-0.003502375,0.0006276603,0.00026536168,0.0009601521,0.0035012027,-0.049604204,4959,4959,0
267693360,267692944,3932170,3932170,-0.0027664015,0.0004951417,0.0003247782,-0.0010978677,0.010248339,-0.057415128,4972,4972,0
268192029,268191775,3932170,3932170,0.0035909966,-0.0001997233,0.0005018035,-0.0019305845,0.012878397,-0.058297325,4986,4986,0
268691044,268690794,3932170,3932170,-0.0024584273,0.0003757968,1.0679328e-05,0.0022642734,-0.011976855,-0.048600487,4992,4992,0
269195072,269194819,3932170,3932170,0.0036500634,-0.00062915613,-0.0004776629,0.0043039606,-0.0074050534,-0.046637896,4998,4998,0
269694089,269693840,3932170,3932170,-0.0010585065,0.00025303435,0.0012502962,-0.0044190763,0.0036165577,-0.052954722,4986,4986,0
270188149,270187879,3932170,3932170,0.0030066392,-0.0008852624,-0.00055908464,0.006226163,-0.004726147,-0.047776368,4982,4982,0
270692208,270691918,3932170,3932170,0.0004819963,-0.00052770326,-0.0005296449,0.006344292,0.0069596777,-0.046746355,4946,4946,0
271191472,271191129,3932170,3932170,-5.8649974e-05,-0.00010916934,0.00019869301,-0.0006381635,-0.00068579416,-0.042845197,4968,4968,0
271690270,271689958,3932170,3932170,-0.0004901426,0.00040625432,0.0003774065,0.0025999856,-0.0017122419,-0.054647483,4992,4992,0
272194308,272193979,3932170,3932170,0.0012839204,-0.0006128427,-0.0005072028,0.0007884464,-0.021143448,-0.04041397,4991,4991,0
272693256,272693004,3932170,3932170,-0.00024536013,-0.00078094675,-0.0005036161,0.0038852366,-0.000106341664,-0.05416366,4990,4990,0
273192381,273192040,3932170,3932170,-0.00021559057,5.5213746e-05,6.604313e-05,0.0020428074,-0.0070618438,-0.045575052,4996,4996,0
273691305,273691062,3932170,3932170,-0.0003639256,0.00017073787,0.00017807349,0.0026182814,0.014086769,-0.049574297,4991,4991,0
274190496,274190127,3932170,3932170,-0.00027847683,-7.840861e-05,0.00026638553,-0.0020273898,-0.00917154,-0.05427291,4939,4939,0
274689613,274689326,3932170,3932170,-0.000498167,-0.00033232218,0.00066810875,-0.0020337913,0.0092268195,-0.055901464,4989,4989,0
275193398,275193140,3932170,3932170,-0.0047326637,0.0013376924,0.0003908092,-0.0023904245,-0.009023008,-0.052234586,4971,4971,0
275692463,275692192,3932170,3932170,-0.00044353417,-2.948787e-05,0.00037777013,-0.004609008,-0.01860831,-0.047796953,5001,5001,0
276191512,276191198,3932170,3932170,0.0019108964,-0.00052070577,-9.404544e-05,-0.00137866,-0.0036217328,-0.048477087,4990,4990,0
276695494,276695219,3932170,3932170,-0.0005870696,0.0005401132,0.00066493044,-0.007434345,-0.002762437,-0.052495647,4988,4988,0
277194545,277194248,3932170,3932170,0.0010887935,-0.00027253578,0.00053549634,-0.0063946345,-0.008590527,-0.05206503,4990,4990,0
277693669,277693382,3932170,3932170,-0.0009485877,0.0003540743,0.00014761274,-0.0015567498,-0.010794482,-0.0518836,4988,4988,0
278192785,278192463,3932170,3932170,-0.003933202,0.00068727206,0.0011151984,-0.009004604,-0.0021289675,-0.050837368,4966,4966,0
278691591,278691335,3932170,3932170,0.0028655068,0.00021307521,-0.00031419145,0.0017886218,0.0008706263,-0.045071427,4989,4989,0
279190641,279190365,3932170,3932170,0.0003641985,-0.0003723629,-0.00061403675,0.0016898424,0.0014666825,-0.046038903,4990,4990,0
279694681,279694388,3932170,3932170,-0.0028416936,-0.0002697427,0.00047497847,-0.008218268,0.00976818,-0.055040535,4987,4987,0
280193703,280193414,3932170,3932170,0.0006142272,0.00024725564,-0.00046345947,0.009291562,0.010865608,-0.050024983,4987,4987,0
282189788,282189533,3932170,3932170,0.0022422678,-0.0007670303,-0.00028107126,0.0090209525,-0.006412184,-0.046578888,4990,4990,0
283187840,283187592,3932170,3932170,0.00082983816,0.0009680515,-0.0002406352,0.0031655128,-0.007504387,-0.042017594,4990,4990,0
283691946,283691612,3932170,3932170,-0.0006353111,0.0039166,-6.189686e-05,-0.0022916356,-0.0102185495,-0.04938603,4990,4990,0
284195945,284195643,3932170,3932170,-0.0003004676,-0.0006270579,0.00012869817,0.004462552,0.013076077,-0.049005702,5001,5001,0
284690013,284689673,3932170,3932170,-0.0007285972,0.00029506523,0.00035826207,-0.0066178953,-0.017148398,-0.046376705,4983,4983,0
285194086,285193830,3932170,3932170,0.000324851,-0.00033247008,-0.00043115515,-0.0015897584,-0.00013063576,-0.050362334,4981,4981,0
285692980,285692722,3932170,3932170,0.0004918903,-0.00042073103,-0.00036907877,0.002578301,-0.0025068158,-0.04682601,4966,4966,0
286192025,286191757,3932170,3932170,0.00026335407,9.0380556e-05,-0.00037766743,0.0013236,-0.015056109,-0.045747582,4995,4995,0
286691111,286690782,3932170,3932170,-0.00033291773,-9.484827e-06,0.00043369844,0.00034827346,-0.017378826,-0.037643824,4990,4990,0
287195095,287194808,3932170,3932170,-0.0014732743,0.0006002903,0.0012713037,-0.004917328,-0.007887413,-0.04999278,4982,4982,0
287694131,287693837,3932170,3932170,0.0014373913,-0.00060712104,-0.0008062166,0.003605416,-0.0075680213,-0.043077365,4994,4994,0
288193168,288192913,3932170,3932170,-0.00028206152,0.00042416283,0.0005844265,-0.0027693508,-0.0050987005,-0.052538015,4973,4973,0
288692344,288692005,3932170,3932170,0.0005415861,0.00022619791,-1.7546985e-05,0.0009223801,-0.0008163108,-0.04856791,4963,4963,0
289191241,289190927,3932170,3932170,0.0011158823,-0.00057947164,-0.0011801524,0.005100193,-0.021277843,-0.040038183,4991,4991,0
289690230,289689953,3932170,3932170,0.00070763024,-0.00016948151,-0.0008658847,-0.00028372285,-0.028487772,-0.04357339,4990,4990,0
290194225,290193975,3932170,3932170,0.00034339895,-0.00017076355,-0.0007826525,0.0016512255,-0.014689531,-0.053001422,4991,4991,0
290693286,290693006,3932170,3932170,-0.00020858277,-0.000121276906,0.00033790804,-0.00040414522,0.007313307,-0.058439936,4990,4990,0
291192338,291192035,3932170,3932170,-0.0006904284,0.00011592416,0.00042764554,-0.0025573962,-0.013286692,-0.04946873,4989,4989,0
291691410,291691067,3932170,3932170,0.0002675147,-0.003979839,-0.00018696855,-0.00067195174,-0.008417039,-0.04572091,4990,4990,0
292190518,292190222,3932170,3932170,0.0010649858,0.0040831305,-0.00025106408,0.0026489308,-0.014781196,-0.05314059,4971,4971,0
292689417,292689128,3932170,3932170,3.151336e-05,-0.0003130633,-0.00016513244,0.0014162937,-0.019751519,-0.041617464,4992,4992,0
293193405,293193147,3932170,3932170,0.0015680853,0.0026727412,-0.001030988,0.007657861,-0.0039188946,-0.048518673,4947,4947,0
293692520,293692183,3932170,3932170,0.00014768007,-0.002941284,-2.7196947e-05,-0.006491631,-0.009245705,-0.042604357,4993,4993,0
294191452,294191208,3932170,3932170,0.0020608034,-0.000113259426,0.0004352097,-0.0045198104,0.0031452095,-0.05326661,4989,4989,0
294695527,294695230,3932170,3932170,-0.0031803239,0.00022740656,-8.388765e-05,0.0041162237,0.004673552,-0.05134121,4989,4989,0
295189570,295189271,3932170,3932170,0.0042769862,-7.413422e-05,-0.00028328,-0.00019134553,-0.024034854,-0.046086796,4992,4992,0
295693745,295693484,3932170,3932170,-0.002977694,0.00018495918,0.00056540186,-0.005284992,-0.00615429,-0.048891798,4979,4979,0
296192871,296192582,3932170,3932170,0.00075827964,-3.5038473e-05,-0.00046332926,0.00066886033,-0.016155174,-0.047207303,5251,5251,0
296691649,296691395,3932170,3932170,0.00079373753,-0.00051214994,-0.00037836752,0.0062869824,0.008879587,-0.049257953,4988,4988,0
297190634,297190382,3932170,3932170,0.00017479577,-0.0004004323,-0.0009636242,0.00389822,-0.007059603,-0.04459014,4987,4987,0
297694708,297694404,3932170,3932170,4.0933908e-05,0.00031162158,-0.00026955464,-0.0038714341,-0.021833759,-0.04687514,4990,4990,0
298193782,298193438,3932170,3932170,-0.001182614,0.00014509393,0.00012896757,0.00020196407,-0.0007589578,-0.04402135,4994,4994,0
298692768,298692466,3932170,3932170,0.0022547005,5.3298976e-05,0.0010390683,-0.007860976,0.006306318,-0.056519814,4989,4989,0
299191839,299191588,3932170,3932170,-0.0007035201,-0.00013072157,0.0005487556,-0.0060427682,-0.014752831,-0.052607354,4973,4973,0
299691086,299690793,3932170,3932170,0.0002491818,-0.00017672322,0.00013269922,0.0036984237,0.0027763704,-0.056007504,5252,5252,0
300189864,300189561,3932170,3932170,0.0022760388,-0.00044081593,0.0009813446,-0.0026981677,0.0001988457,-0.058080748,4993,4993,0
300693861,300693614,3932170,3932170,-0.00087071885,0.0003329642,-4.444701e-05,0.00068493927,0.0019172076,-0.049392838,5025,5025,0
301193189,301192614,3932170,3932170,0.0007043484,-0.00023293223,-0.00068225095,0.0034996057,-0.010399218,-0.04643264,4994,4994,0
301691986,301691642,3932170,3932170,-0.0003745834,0.00015691423,7.8623176e-05,0.0010613974,0.000669087,-0.047818456,4991,4991,0
302191651,302190684,3932170,3932170,0.0004918458,-0.00034246306,-1.1007319e-05,4.810269e-05,-0.0012131651,-0.042736374,4989,4989,0
302690033,302689776,3932170,3932170,0.0008017899,-0.0005266757,-0.0004858817,0.0021534555,-0.0037689204,-0.049826264,4978,4978,0
303194800,303193955,3932170,3932170,-0.00060044706,-0.00010060742,0.00023047661,-0.0066023413,-0.014516102,-0.04568446,4969,4969,0
303693070,303692776,3932170,3932170,0.00027173967,8.1601946e-05,-0.0005885992,0.0018132107,-0.009641914,-0.040913288,5010,5010,0
304192035,304191787,3932170,3932170,-0.0012932436,0.0002737866,0.00057564623,-0.0024091443,0.0050424077,-0.05821432,4989,4989,0
304691114,304690819,3932170,3932170,-0.00034166934,0.00014558683,0.0010925268,-0.008113979,-0.0011887827,-0.05517205,4991,4991,0
305190105,305189851,3932170,3932170,-0.0007831021,0.00013646205,0.0012363774,-0.005368183,-0.0021306851,-0.05415838,4968,4968,0
305689144,305688887,3932170,3932170,0.0005819245,-0.00031609938,-0.0009973765,0.003541472,-0.0012929464,-0.047071118,4990,4990,0
306193259,306192998,3932170,3932170,-0.00013090392,-0.00022750816,-2.9605204e-05,0.0013278667,-0.011095605,-0.046412162,4972,4972,0
306692470,306692171,3932170,3932170,-0.0016593551,0.00020039124,0.0007295236,-0.0012716602,-0.019330384,-0.04866318,4969,4969,0
307191290,307190969,3932170,3932170,0.0006732753,-0.000248263,-0.00052076724,0.0075505143,-0.0050656013,-0.04328271,4979,4979,0
307690329,307690000,3932170,3932170,-0.0005533446,0.0010472259,0.0007780023,-0.0037264077,-0.013633499,-0.049137756,4993,4993,0
308189322,308189030,3932170,3932170,-3.488038e-05,0.00012450725,0.001122523,-0.004828765,-0.0076040104,-0.052092,4991,4991,0
308693466,308693054,3932170,3932170,-0.00022824055,-0.0002600306,0.00031950898,-6.028466e-05,-0.0072028018,-0.04071843,4991,4991,0
309192386,309192085,3932170,3932170,-0.00034539896,0.00036373272,-0.00025628848,0.0011567138,0.008870244,-0.04889286,4993,4993,0
309692013,309691208,3932170,3932170,0.00038143204,0.00021276053,-0.0009746944,0.006034793,0.019796727,-0.05098551,4970,4970,0
310190652,310190360,3932170,3932170,-0.00061758014,0.000414367,-0.00031299944,-0.003569737,0.006784367,-0.051103305,4931,4931,0
310694430,310694167,3932170,3932170,-0.00075296813,0.0002553221,-0.0010261773,0.00036855825,-0.0032571396,-0.041684072,4991,4991,0
311193444,311193198,3932170,3932170,4.1093474e-05,-6.1145474e-05,-0.0004442397,-0.0035931522,0.0053357985,-0.053305313,4986,4986,0
311692477,311692230,3932170,3932170,0.0014445212,-0.00094195956,-0.001808362,0.0034826621,-0.0054699737,-0.045831516,4990,4990,0
312191518,312191263,3932170,3932170,0.0005465278,-0.00024122636,-0.00061109656,0.00085590687,-0.0037376068,-0.053539094,4991,4991,0
312690614,312690299,3932170,3932170,-0.0006558293,0.00025251866,0.00023005817,0.0013588513,-0.0018851442,-0.053390257,4995,4995,0
313189658,313189413,3932170,3932170,0.0004536568,-0.00047286466,7.4553325e-05,-0.0006189123,-0.016166577,-0.05098672,5023,5023,0
313693877,313693536,3932170,3932170,-0.0003349425,0.00011739152,0.0018159432,-0.0054400642,-0.0010443099,-0.049076553,4950,4950,0
314192648,314192383,3932170,3932170,-0.0008293207,-5.4825436e-05,0.0016018605,-0.006789859,0.005626387,-0.05593825,4990,4990,0
314691736,314691414,3932170,3932170,0.00053733756,-0.00018672357,-0.00010924114,0.0008334857,0.0030703007,-0.048936516,4994,4994,0
315195736,315195440,3932170,3932170,0.0012229398,-0.0006957641,-0.0006023631,0.0072908406,-0.009012842,-0.04534928,4994,4994,0
315689774,315689474,3932170,3932170,0.0013528236,-0.00027936127,-0.00055616937,0.0030535725,-0.007310256,-0.04069492,4989,4989,0
316188778,316188508,3932170,3932170,-0.00017608468,8.369525e-06,0.00027660708,-0.0046724477,-0.02113138,-0.05003454,4991,4991,0
316692811,316692527,3932170,3932170,0.00026226218,-7.501585e-05,-0.00023675727,0.0005041394,-0.009959429,-0.04595786,4969,4969,0
317192464,317191736,3932170,3932170,0.0005210392,0.00012377351,-0.0002937261,0.0013042557,0.0012290849,-0.046018332,4956,4956,0
317690895,317690592,3932170,3932170,-0.0003352088,-3.9705432e-05,0.00010144829,-0.0017858896,0.004108873,-0.048389412,4987,4987,0
318194893,318194614,3932170,3932170,0.00068014953,-0.00012523774,-0.0006022183,0.004017759,-0.018539745,-0.04249942,4987,4987,0
318693903,318693646,3932170,3932170,0.0018330695,-0.00066029123,-0.0010374094,0.0037535292,-0.013814972,-0.045560863,4990,4990,0
319188007,319187688,3932170,3932170,-0.00017592616,6.9302405e-05,-0.0003051831,0.0013144114,-0.007854808,-0.04593274,4990,4990,0
319691967,319691710,3932170,3932170,-0.0009807993,0.00033038174,0.0006203196,-0.0025667553,-0.007575603,-0.053891443,4985,4985,0
320191143,320190794,3932170,3932170,-3.0201767e-05,0.0005532537,-0.00012527683,0.0012375065,0.0036386978,-0.046971314,4973,4973,0
320690308,320689956,3932170,3932170,-0.0013353713,0.0003896986,0.0011079167,-0.0043726563,0.009016281,-0.055920444,4973,4973,0
321194062,321193797,3932170,3932170,5.5119202e-05,-0.00014628177,-0.0003373223,0.0025850164,0.0024480452,-0.05484408,4991,4991,0
321693421,321692833,3932170,3932170,0.00047345457,-6.8278285e-05,-0.00080627436,0.0035660742,-0.0062740445,-0.046648733,4993,4993,0
322192121,322191866,3932170,3932170,0.00086132187,-0.00034564303,-0.00032636794,-0.00047442928,0.0040422734,-0.045307495,4995,4995,0
322691260,322690898,3932170,3932170,-5.54501e-05,-8.4824605e-06,0.00065108883,-0.004732425,0.002531392,-0.05646512,4993,4993,0
323190249,323189928,3932170,3932170,-0.00093056995,0.00042705584,0.00045072834,-0.002103686,-0.003274989,-0.04636471,4994,4994,0
323689957,323688987,3932170,3932170,0.0003407756,-0.00017051802,-0.00014486,0.0009778306,-0.021708718,-0.047635525,4972,4972,0
324193509,324193183,3932170,3932170,0.0003303707,7.7682555e-05,-0.00081020215,0.0022956817,-0.015732337,-0.042960208,4972,4972,0
324692277,324692012,3932170,3932170,5.048195e-05,-8.2212e-05,0.0006992373,-0.0012714496,0.011145647,-0.056417968,4991,4991,0
325191325,325191044,3932170,3932170,-0.00031415687,0.00034323006,0.00033200317,0.004479528,0.0017282709,-0.050634306,4991,4991,0
325695346,325695092,3932170,3932170,-0.001092861,0.00049418194,0.000718791,-0.007002537,-0.013579739,-0.04767696,5016,5016,0
326189358,326189110,3932170,3932170,0.0006024089,-0.00019741239,-0.0006490434,-0.0020140575,-0.029556664,-0.04018705,4987,4987,0
326688479,326688143,3932170,3932170,-0.0041921735,0.00095398223,0.000451675,-0.0012693082,0.0034085975,-0.052741528,4991,4991,0
327192474,327192187,3932170,3932170,0.0017570077,-0.00045785125,0.00048344923,-0.00748822,-0.007950964,-0.052826244,4980,4980,0
327691640,327691339,3932170,3932170,0.0016667793,4.0207997e-05,0.00052651664,-0.004158603,0.014428971,-0.05679357,4968,4968,0
328190487,328190228,3932170,3932170,-0.0016941923,0.0006139043,0.000786503,-0.00028195462,-0.0044437894,-0.05148737,4991,4991,0
328689568,328689259,3932170,3932170,0.002997294,-8.5836706e-05,0.00050641847,0.0038374178,0.003522106,-0.060050465,4988,4988,0
329193581,329193335,3932170,3932170,-0.0036519617,1.9484447e-05,-0.0006848555,0.0014716447,-0.019795306,-0.038823787,5037,5037,0
329692573,329692317,3932170,3932170,0.0037828353,9.567383e-05,-3.152866e-05,-0.0026327271,-0.023674188,-0.040138137,4993,4993,0
330192159,330191356,3932170,3932170,-0.0036675965,0.000808479,0.0006252072,0.0006672854,0.017751455,-0.051567476,4993,4993,0
330690739,330690380,3932170,3932170,0.00038847077,0.00025056567,5.774558e-05,0.0007553929,0.0035567665,-0.060507786,4991,4991,0
331189913,331189540,3932170,3932170,0.0004888805,-1.556508e-05,-0.0004368101,0.003915769,-0.004412817,-0.04443371,4964,4964,0
331693732,331693475,3932170,3932170,0.0009995259,-0.0005175136,-0.00019087791,-0.0043894886,-0.0148226805,-0.043117404,5031,5031,0
332192766,332192467,3932170,3932170,-0.00263497,0.00017941248,0.0006543587,-0.009134904,-0.002481919,-0.050274737,4990,4990,0
332691803,332691545,3932170,3932170,0.0019329024,0.00024444005,0.0011227876,-0.002707266,-0.010554551,-0.049454957,5036,5036,0
333190859,333190532,3932170,3932170,-0.0014388431,0.0005808842,0.000363972,-0.003105166,-0.016027682,-0.04952978,4990,4990,0
333689817,333689566,3932170,3932170,-0.00038061952,0.00028488174,0.00053683727,-0.0047919024,-0.0008758477,-0.044566315,4991,4991,0
334188931,334188630,3932170,3932170,-0.0002541073,-0.00013746937,0.00019539926,0.0011034186,0.003543233,-0.0469685,5021,5021,0
334692982,334692730,3932170,3932170,4.3481505e-05,-5.835223e-05,-0.0001279278,-0.0018110278,-0.013770525,-0.040645357,4975,4975,0
335191923,335191667,3932170,3932170,5.787792e-05,7.927608e-05,-0.00035030718,0.0063062822,0.004834839,-0.048023555,5005,5005,0
335696053,335695694,3932170,3932170,-0.00045838562,-0.0003283308,-0.00039736886,0.000746787,-0.020751992,-0.043212377,5009,5009,0
336189965,336189717,3932170,3932170,-0.00038917875,0.00032667065,0.00026741042,0.002709329,-0.0028366814,-0.048732948,4980,4980,0
336693987,336693740,3932170,3932170,0.00040674317,-0.00036861206,-0.00011475895,-0.00052324386,-0.009118015,-0.045934245,4992,4992,0
337193112,337192775,3932170,3932170,0.0007191831,-0.0003582986,-0.00034506922,0.0015152792,-0.020593118,-0.04763795,4993,4993,0
337692227,337691818,3932170,3932170,-0.00015326758,0.00017943162,0.00021621799,-0.002914221,-0.009126027,-0.049553633,4990,4990,0
338191181,338190926,3932170,3932170,0.0005791711,-0.0002956814,-0.0004016809,-0.0005263773,-0.004245357,-0.045414567,4971,4971,0
338691154,338690144,3932170,3932170,-0.00067699794,0.00018309327,0.00045658243,-0.00444436,-0.0068316273,-0.056557752,5264,5264,0
339194202,339193895,3932170,3932170,-0.0006839411,0.00046097202,0.0006571513,-0.001658744,0.0061787646,-0.055980317,4992,4992,0
339693232,339692931,3932170,3932170,0.0005493885,-0.0005979784,-0.0003334587,0.0015920905,0.0017756005,-0.045638036,4995,4995,0
340192207,340191959,3932170,3932170,-0.00095442176,0.00017270415,0.0005605776,-0.006234194,0.004308345,-0.056405745,4990,4990,0
340691287,340690992,3932170,3932170,0.0013123035,-0.0004066337,-0.0009369993,0.004037572,-0.016149512,-0.04681067,4986,4986,0
341190389,341190035,3932170,3932170,0.00079125015,-0.00036880485,-0.0007146218,0.0035138326,-0.014204929,-0.044871885,4999,4999,0
341689435,341689145,3932170,3932170,-0.0003941227,-0.00019076788,0.00078571704,-0.001288635,0.0067728753,-0.057266273,4962,4962,0
342193671,342193329,3932170,3932170,0.00017047628,0.0004215703,-0.00083016045,0.0016177192,-0.015204139,-0.041694645,4973,4973,0
342692409,342692113,3932170,3932170,-0.00062782946,0.00032157768,0.0003626147,-6.718316e-05,0.016014842,-0.054032266,4990,4990,0
343191566,343191148,3932170,3932170,-4.6041336e-05,-0.00014244244,0.000119269556,0.0045416527,0.015097271,-0.048445646,4964,4964,0
343690426,343690183,3932170,3932170,0.0007282716,-0.0002859798,-0.00020484884,0.0013932383,-0.011586717,-0.050494127,4988,4988,0
344189485,344189234,3932170,3932170,-0.00024012428,-0.002847235,0.0004019806,-0.0022748145,-0.01033166,-0.048534703,4976,4976,0
344693536,344693242,3932170,3932170,-0.001247245,0.00043891225,0.00084550894,-0.004082337,0.011685985,-0.055317376,4998,4998,0
345193250,345192380,3932170,3932170,0.0015378812,-0.00059352396,-0.0010147872,0.0038550613,0.003162197,-0.049298212,4972,4972,0
345691747,345691527,3932170,3932170,0.00071617326,-2.9077866e-05,-0.0008984265,0.00324967,0.0016426812,-0.053464074,4965,4965,0
346190590,346190333,3932170,3932170,0.00028502065,0.00019442076,-0.00017997753,0.0010412539,0.003131185,-0.045061063,4990,4990,0
346694705,346694357,3932170,3932170,0.0010519068,-0.0005283167,-0.0010845095,0.0034516582,-0.013234934,-0.04884536,4991,4991,0
347188678,347188399,3932170,3932170,-0.00035296462,0.00037508056,0.0013112519,0.0019832097,0.01809318,-0.054757398,4991,4991,0
347692741,347692423,3932170,3932170,-0.001102954,0.00013620793,0.0010769301,-0.0010878503,-0.005795684,-0.0505467,4991,4991,0
348191763,348191457,3932170,3932170,-0.005442927,0.0008883074,0.0011699178,-0.0041603176,0.0137177715,-0.057137135,4990,4990,0
348690869,348690552,3932170,3932170,0.0034058322,-7.329118e-05,0.0003662222,-0.0011135372,0.008858392,-0.049325265,4987,4987,0
349190081,349189750,3932170,3932170,-0.0030149978,-0.0001961835,-0.00076703774,0.002430818,-0.02043454,-0.04243266,4964,4964,0
349693841,349693544,3932170,3932170,9.273432e-05,0.00050227967,-0.00033842179,0.0001750454,0.0005045236,-0.044749945,4987,4987,0
350192901,350192577,3932170,3932170,0.00015314782,0.00029932725,0.00013290033,-0.0011282287,0.004380894,-0.053597283,4990,4990,0
350691974,350691611,3932170,3932170,0.0009434215,-0.00062093243,-0.0009943154,0.003291008,-0.0029297567,-0.049382888,4987,4987,0
351190929,351190644,3932170,3932170,0.0006906332,-0.0006130179,-0.00033207695,-0.0026734911,-0.014534336,-0.039316554,4991,4991,0
351689932,351689678,3932170,3932170,0.00032535632,4.621821e-05,-0.00055719394,0.0053494615,0.0016400042,-0.04341904,4990,4990,0
352194087,352193724,3932170,3932170,0.0003248889,0.00054383156,-0.0006443362,0.0071383487,0.0025414613,-0.046200655,4981,4981,0
352693838,352692926,3932170,3932170,0.0005272596,-0.00025938737,0.00022269796,-0.0018607442,-0.015207886,-0.050399203,4965,4965,0
353192020,353191766,3932170,3932170,0.0006376511,-0.0007294978,0.0006129637,-0.004552253,0.0043080123,-0.05520385,4990,4990,0
353691120,353690799,3932170,3932170,-0.00016199268,0.0031451897,0.00015951107,0.00089862465,-0.00401763,-0.056371856,4990,4990,0
354195118,354194824,3932170,3932170,0.0005300377,-0.0025882588,0.0006408613,0.002848255,-0.00056615437,-0.052110437,4991,4991,0
354689158,354688867,3932170,3932170,-0.0002105401,-0.0027581982,0.00059832266,0.0007026855,0.007878163,-0.049890608,4990,4990,0
355193142,355192889,3932170,3932170,-0.00030825328,0.002116913,0.0008220301,-0.0063392087,-0.0032410535,-0.056239042,4989,4989,0
355692249,355691987,3932170,3932170,0.0001292742,5.3217085e-05,5.4937245e-06,-0.0023790116,-0.011149512,-0.049411193,4963,4963,0
356191491,356191151,3932170,3932170,1.5139148e-05,-0.0011864335,-0.00042478347,0.0042702165,-0.014663993,-0.041243743,4955,4955,0
356690253,356689993,3932170,3932170,0.0001205881,0.0025688733,-0.00037052625,0.0012847064,0.013152784,-0.047738552,4995,4995,0
357194322,357194012,3932170,3932170,2.6346974e-05,0.0027343864,0.0003646269,-0.0024647622,-0.006058445,-0.052348394,4986,4986,0
357693294,357693046,3932170,3932170,0.0006311197,0.002734264,0.00018875759,-0.0032195142,0.008859881,-0.05753441,4984,4984,0
358192775,358192081,3932170,3932170,0.00036385958,-0.0033632407,-0.0008216442,0.002306972,-0.01664829,-0.04127376,4990,4990,0
358691369,358691113,3932170,3932170,-0.00015589301,0.0031174927,-0.00026637825,-0.0019829122,-0.022210268,-0.047160618,4982,4982,0
359190621,359190261,3932170,3932170,-0.0010778015,-0.0031783443,0.0003671609,0.0006850265,0.006408573,-0.04523311,4981,4981,0
359694685,359694345,3932170,3932170,0.000696908,-0.0003224847,-0.0005782736,0.0020864399,-0.0033015222,-0.05162477,4991,4991,0
360193460,360193203,3932170,3932170,-0.0009738542,0.0020294788,0.00019772275,-0.001862653,-0.0051910058,-0.0517391,4991,4991,0
360692546,360692239,3932170,3932170,0.000116769304,0.00067979994,-0.0003254736,0.006916016,0.0020639403,-0.047218844,4994,4994,0
361191558,361191311,3932170,3932170,-5.002987e-05,0.0006539927,0.00029786638,-0.006604135,-0.0018763677,-0.054155663,5033,5033,0
361690553,361690304,3932170,3932170,0.00021383214,0.00030867543,0.0005174192,-0.0049226442,-0.01771416,-0.045897707,4991,4991,0
362189591,362189337,3932170,3932170,0.0018312512,0.0019195847,-0.0011464461,0.004332198,-0.014084778,-0.042427246,4979,4979,0
362693692,362693395,3932170,3932170,0.0010589694,-0.0038299712,-0.000530278,0.006652116,0.0029987474,-0.050290797,4979,4979,0
363192843,363192549,3932170,3932170,0.0011359194,-0.0032645322,-0.00051555334,0.0014055044,-0.0115975235,-0.039056186,4968,4968,0
363691726,363691432,3932170,3932170,-0.0017838152,-0.0021005545,0.000694731,-0.010315329,-0.02010579,-0.043915924,4996,4996,0
364190733,364190460,3932170,3932170,-0.00090786995,0.003825682,0.0003914041,-0.0061295787,0.0046247714,-0.052926835,4990,4990,0
364694993,364694487,3932170,3932170,0.00029303113,0.00066827197,-8.2634295e-05,-0.0060768737,0.004927034,-0.04853516,4994,4994,0
365188807,365188531,3932170,3932170,0.0005642777,0.0010052013,-0.00023009874,-0.0028700351,0.0124675585,-0.047881033,4994,4994,0
365693064,365692552,3932170,3932170,-0.00020883376,0.0010859168,0.00031622653,-0.0065796333,-0.0055520535,-0.05070389,4990,4990,0
366191886,366191643,3932170,3932170,0.0005774854,-0.0026896722,-0.0005546196,0.0048035695,-0.0028216871,-0.050228897,4968,4968,0
366691648,366690765,3932170,3932170,-0.00038347684,-0.00032699565,-0.00014467,-0.004765578,-4.8010817e-05,-0.046106763,4971,4971,0
367194908,367194641,3932170,3932170,-0.0006770572,-0.00061930984,-4.5160108e-05,0.0028082852,-0.0130701605,-0.052594725,4990,4990,0
367693946,367693675,3932170,3932170,-0.0004886438,8.448467e-05,0.00041996408,-0.0026453822,-0.010455003,-0.046231475,4989,4989,0
368187972,368187718,3932170,3932170,0.0027750926,-0.0025168012,-0.00041880342,0.0070412606,0.009469084,-0.049998194,4984,4984,0
368692050,368691742,3932170,3932170,0.0023504684,-0.0002876503,-0.00026871226,-0.0006579428,-0.009105292,-0.04807276,4990,4990,0
369191103,369190798,3932170,3932170,-0.0021196166,-0.00031921422,-0.000287051,0.0027684162,-0.012889139,-0.046473105,4989,4989,0
369690107,369689817,3932170,3932170,0.005010643,-0.00056644256,-0.0010524533,0.0074916673,-0.0017414117,-0.046155978,4974,4974,0
370194275,370194005,3932170,3932170,-0.00058638735,-0.00016998335,-0.00083427323,0.0051859687,-0.008774568,-0.047964506,5027,5027,0
370693132,370692866,3932170,3932170,-0.00013360973,-0.00056637067,7.964732e-06,-0.0043971953,-0.018652547,-0.046956137,4966,4966,0
371192171,371191905,3932170,3932170,0.0025242732,-0.0003922636,-0.00025266924,0.0004697394,-0.004112049,-0.051050458,4995,4995,0
371691191,371690936,3932170,3932170,-0.0029613036,0.00023038223,0.0005289406,-0.0016200654,0.011472796,-0.056023303,4993,4993,0
372190266,372189967,3932170,3932170,0.00241831,0.00012867386,4.5888104e-05,-0.0006701332,0.00061055773,-0.057088844,4989,4989,0
372689257,372689003,3932170,3932170,0.00040945192,9.718806e-05,-0.0005749606,0.0031734917,-0.008149714,-0.04530083,4996,4996,0
373193309,373193027,3932170,3932170,-0.0008449485,0.00019176367,0.00012059652,-0.00076430745,-0.010497957,-0.04556325,4991,4991,0
373692536,373692209,3932170,3932170,-0.0015151858,0.004206864,-0.00030294296,-0.00227645,-0.0074748006,-0.050695755,4961,4961,0
374191357,374191096,3932170,3932170,0.0026637157,-0.0040135724,0.0007148453,-0.006559079,-0.006267953,-0.04977193,4995,4995,0
374695385,374695117,3932170,3932170,0.00088584184,0.0036162673,0.00029218977,-0.0020325633,-0.010692551,-0.041703086,4992,4992,0
375194393,375194149,3932170,3932170,-0.0032056016,-0.002364846,0.00076206157,-0.0033880735,-0.016759975,-0.05134561,4985,4985,0
375688444,375688199,3932170,3932170,0.0013280658,-0.0026190255,-0.0012226905,0.0017886648,-0.026456987,-0.042691812,4997,4997,0
376192510,376192218,3932170,3932170,-0.0029975157,0.0030709892,0.0004817338,-0.008438394,0.00030768124,-0.054240156,4992,4992,0
376691509,376691251,3932170,3932170,9.650122e-06,-6.746026e-05,0.0002731817,0.0034592296,-0.002295569,-0.049111016,4981,4981,0
377190679,377190433,3932170,3932170,-2.4639956e-05,0.0002598557,-0.0003480039,0.006045903,-0.014958644,-0.047391728,4970,4970,0
377694872,377694573,3932170,3932170,-0.0009982252,0.0023463324,-9.343348e-05,-0.00025385272,-0.0071124285,-0.047056463,5253,5253,0
378193600,378193341,3932170,3932170,0.00023568666,0.002450756,-0.00035299236,0.0001145876,0.0028182992,-0.046759296,4986,4986,0
378692777,378692378,3932170,3932170,-0.0018511667,-0.0033900884,0.0009877931,-0.0051024547,0.012058074,-0.05741651,4993,4993,0
379191709,379191408,3932170,3932170,0.00057463197,-0.00109842,-0.00070245814,0.004428283,-0.012137692,-0.045831323,4990,4990,0
379690724,379690478,3932170,3932170,0.00010443907,0.0019640115,0.00051115715,-0.0010804472,0.006361465,-0.05642624,4984,4984,0
380189792,380189483,3932170,3932170,7.2302384e-05,0.00018489808,-8.6555636e-05,-0.00036526957,-0.00960582,-0.0462515,4998,4998,0
380693914,380693566,3932170,3932170,-0.00033189953,-0.00036444442,-0.00026257307,0.0007414656,0.014259712,-0.049594913,4971,4971,0
381193095,381192777,3932170,3932170,0.00081776804,0.002897458,-0.00038417024,-0.0006728495,-0.018888606,-0.04091158,4956,4956,0
381691929,381691566,3932170,3932170,0.0011674115,0.0014853169,-0.0005986743,0.012039268,0.007242674,-0.048565317,4990,4990,0
382190851,382190606,3932170,3932170,-0.0007112225,2.807343e-05,8.0323836e-05,-0.00210617,-0.011379698,-0.047746435,4993,4993,0
382689884,382689635,3932170,3932170,0.00031463325,-0.0016464277,-4.7938454e-05,0.00280138,0.009083928,-0.048856255,4992,4992,0
383193910,383193659,3932170,3932170,-0.00047589614,0.00032433274,0.0009895406,-0.0026732387,-0.0037820726,-0.05371028,4990,4990,0
383692938,383692692,3932170,3932170,-0.00013091454,0.0032665525,-0.0005522327,0.00209314,-0.0089969775,-0.04467763,4991,4991,0
384192198,384191849,3932170,3932170,0.00053740287,-0.0034417917,-0.0006926483,-0.0003426829,-0.0045162714,-0.04427101,4982,4982,0
384691271,384690993,3932170,3932170,-0.00016997327,-0.0007345588,-0.00036506477,-0.0016844636,-0.004707186,-0.040995598,4958,4958,0
385195075,385194786,3932170,3932170,0.00049303105,-0.00064929965,-4.7609633e-06,-0.0004657111,-0.009042321,-0.05188898,4993,4993,0
385694147,385693816,3932170,3932170,0.001340966,-0.00062686653,-0.0010521817,0.0056113224,-0.018867353,-0.045058496,4986,4986,0
386193110,386192853,3932170,3932170,0.00056682917,-9.1159825e-05,-0.0008312908,-0.0018526718,-0.0255811,-0.04656496,4990,4990,0
386692232,386691883,3932170,3932170,0.00060598296,-1.5880504e-07,0.00012422504,-0.0032501067,-0.009050206,-0.051678047,4988,4988,0
387191628,387190918,3932170,3932170,0.0012483851,-0.0006503586,-0.00045425037,0.004617874,-0.012786488,-0.048264157,4990,4990,0
387690286,387690042,3932170,3932170,-0.00042493548,0.0002562779,0.0009487551,-0.007111377,-0.01170823,-0.04751251,4953,4953,0
388194639,388194189,3932170,3932170,-0.00087864214,0.0005816021,0.0007933428,0.00051042053,0.012902999,-0.051151305,4976,4976,0
388693273,388693009,3932170,3932170,0.00045687455,-5.3351436e-05,4.7986116e-05,0.00097163534,-0.0020710765,-0.04812178,4988,4988,0
389192308,389192055,3932170,3932170,-0.0007007,-0.0035500417,-0.0001858428,-0.0021286805,-0.024566505,-0.03983963,4992,4992,0
389691378,389691076,3932170,3932170,0.0008708365,0.0038804074,-0.0002092619,0.004460068,0.018364443,-0.054696925,4991,4991,0
390190409,390190109,3932170,3932170,-0.0007409102,0.00034750448,-5.6688394e-05,0.0026807934,0.00044016575,-0.05039573,4989,4989,0
390689400,390689144,3932170,3932170,-0.0005574408,0.00039437943,0.00024862893,-0.0010476519,0.0045150393,-0.052007176,4990,4990,0
391193541,391193198,3932170,3932170,0.00035916385,5.1047842e-05,-0.0013122627,0.0058485693,-0.00060643966,-0.043106373,4973,4973,0
391692898,391692404,3932170,3932170,-0.00053947343,-9.463527e-05,-0.0008510468,-0.0033094755,-0.0030213324,-0.052814547,4975,4975,0
392191529,392191235,3932170,3932170,0.0005030137,-0.00053163717,-0.0016104225,-0.00055925245,-0.021490745,-0.03961231,4990,4990,0
392695508,392695259,3932170,3932170,-0.00056619156,0.00032815812,0.0006389395,-0.0062993513,0.0003416862,-0.055676382,4988,4988,0
393189648,393189359,3932170,3932170,7.810329e-05,0.00023221003,-0.000619491,-0.0010848002,-0.015363516,-0.04589872,5047,5047,0
393688832,393688375,3932170,3932170,0.00067044195,-0.00040476074,-0.00036193704,0.003958136,-0.008544842,-0.04266574,5029,5029,0
394192605,394192360,3932170,3932170,0.00046819355,-0.00028483284,-0.0006412596,-0.0014881757,-0.026773106,-0.042659264,4991,4991,0
394692176,394691412,3932170,3932170,0.00017635286,-0.0002966334,-0.00014167231,-0.0030490463,-0.0053947126,-0.048927024,4978,4978,0
395190908,395190611,3932170,3932170,-0.0005711815,-0.00031219664,0.00012617128,-0.0033223534,-0.009184085,-0.040465713,4932,4932,0
395694703,395694451,3932170,3932170,0.00048465544,2.6515976e-05,-0.00067490916,0.001551152,-0.012152328,-0.042943407,4984,4984,0
396188749,396188494,3932170,3932170,0.0008480987,-0.00052432384,-0.0005935507,-0.00050907576,-0.011730167,-0.04773232,4990,4990,0
396692772,396692517,3932170,3932170,-0.0006163369,-0.00017494588,0.00011282922,-0.006622814,-0.020121941,-0.039112777,4989,4989,0
397191806,397191552,3932170,3932170,0.00042250002,7.616539e-05,-0.00133059,0.0075349715,0.0073238434,-0.048764635,4990,4990,0
397690880,397690634,3932170,3932170,-0.0011703119,0.00076300337,-0.0011118487,-0.008610363,0.004624079,-0.051592153,5038,5038,0
398195279,398194611,3932170,3932170,-0.00064023095,-0.00010091264,-0.0024892848,-0.005944983,-0.022338849,-0.048236262,4989,4989,0
398694186,398693851,3932170,3932170,-0.001455258,0.00021198629,-0.0032755316,-0.0066085625,0.009990987,-0.054737486,4944,4944,0
399192933,399192678,3932170,3932170,0.00081451563,-0.0005545648,-0.005262322,0.0009037555,-0.02287829,-0.047983985,4987,4987,0
399691994,399691712,3932170,3932170,0.00089388277,-0.0007744526,-0.004884439,0.001765407,-0.0076463004,-0.0414529,4991,4991,0
400191804,400190749,3932170,3932170,0.0010446792,-0.000819241,-0.0036473318,0.0021172971,-0.006995461,-0.049542114,4992,4992,0
400690117,400689822,3932170,3932170,0.00084907346,-0.00063034246,-0.0015639655,0.005708797,-0.012476465,-0.04134932,4986,4986,0
401194058,401193805,3932170,3932170,0.00024743253,2.8635918e-06,-0.003624073,0.005381782,-0.0015149147,-0.05433726,4991,4991,0
401693164,401692837,3932170,3932170,-0.00018084086,-8.984716e-05,-0.0018257188,0.00065261335,0.0035925994,-0.05950365,4936,4936,0
402192815,402192021,3932170,3932170,0.00012522432,-0.00039388725,-0.0006487028,-0.0011702809,-0.007758366,-0.04677163,4956,4956,0
402691156,402690905,3932170,3932170,0.00039592455,-4.9090817e-05,0.00028843526,0.002828943,0.015673013,-0.053986456,4990,4990,0
403195208,403194934,3932170,3932170,0.00028670157,-3.9026472e-05,-0.0002758176,0.0021803672,0.0073314714,-0.04850147,4993,4993,0
403689270,403688972,3932170,3932170,-0.00062832393,0.0005882637,0.0007023102,-0.0028154792,0.004870874,-0.051483102,4990,4990,0
404193262,404192999,3932170,3932170,0.00015219873,-0.00075886305,0.00036264106,6.0511604e-05,0.009591495,-0.049005635,4993,4993,0
404692388,404692032,3932170,3932170,-9.9017845e-05,-0.00044223544,-0.00023602037,-0.0021729115,-0.015833644,-0.041601706,4992,4992,0
405191383,405191078,3932170,3932170,-0.0006540885,0.0003783433,0.00051231694,0.0014779498,0.01894045,-0.055619016,4971,4971,0
405695477,405695225,3932170,3932170,0.00092829927,-0.00045529217,-0.0008224277,0.0034235574,-0.023302678,-0.040055078,4981,4981,0
406194382,406194122,3932170,3932170,0.00041926806,-1.1044125e-05,-0.0005675136,0.0055993083,0.0023945027,-0.051166806,4989,4989,0
406693575,406693159,3932170,3932170,-0.00097279943,0.00027018806,0.00044083726,-0.0022828479,-0.007792013,-0.05297554,4988,4988,0
407192430,407192185,3932170,3932170,0.0001223337,-7.9461104e-05,-0.00015606341,-0.001720737,-0.013094299,-0.044734962,4986,4986,0
407691579,407691227,3932170,3932170,-0.0005197484,5.4550896e-05,0.0005611465,-0.0039544953,-0.011130575,-0.050566774,4984,4984,0
408190551,408190259,3932170,3932170,-0.00014740475,0.00033278862,0.00020134362,0.0040537803,0.015031592,-0.05811445,4986,4986,0
408694956,408694283,3932170,3932170,0.00034995252,-0.00014745088,-0.0005353756,0.005798128,-0.00781322,-0.041467886,4990,4990,0
409193758,409193472,3932170,3932170,0.0013629579,-0.0006386725,-0.001029262,0.006283556,-0.005146724,-0.046502747,4965,4965,0
409692608,409692349,3932170,3932170,-0.0006962436,0.00018902676,0.00034682572,-0.0019072699,-0.0123605905,-0.0517936,4988,4988,0
410191653,410191397,3932170,3932170,-0.00097637693,-3.97795e-05,0.000810009,-0.0010519885,0.010461741,-0.056850787,4982,4982,0
410690705,410690453,3932170,3932170,0.0007957463,-0.00013186962,-0.00030043043,0.005447004,-0.009112451,-0.045043908,5027,5027,0
411189697,411189452,3932170,3932170,-0.0016136182,0.0008683838,0.0010805988,-0.0074369367,0.0017344058,-0.052675277,4988,4988,0
411693730,411693475,3932170,3932170,-0.0006024125,0.0003399595,-0.00014644601,0.002142263,0.0036764534,-0.043728627,4990,4990,0
412192908,412192511,3932170,3932170,-0.00040319844,0.00016398176,0.00075610296,-0.0039220983,0.002876543,-0.050344683,4992,4992,0
412692006,412691710,3932170,3932170,0.0007631911,0.001086403,-0.00045948845,0.0017369046,0.0016119332,-0.04954303,4995,4995,0
413190856,413190587,3932170,3932170,2.581275e-05,-0.00086410315,6.888009e-05,0.005760277,0.013054465,-0.05684206,5001,5001,0
413689877,413689610,3932170,3932170,0.0009334769,-0.00052729686,-0.00046905768,-0.0022137454,-0.0056242323,-0.05039115,4990,4990,0
414188954,414188647,3932170,3932170,7.924384e-05,-0.002236234,0.00047429954,-0.006816047,-0.014580341,-0.0491357,4994,4994,0
414692924,414692668,3932170,3932170,-0.00016523179,0.00031209167,0.00053836976,-0.0010348088,-0.0066700974,-0.054335073,4991,4991,0
415192271,415191704,3932170,3932170,0.00021693824,0.0012647869,4.1154693e-05,-0.0013360498,0.0019297776,-0.05477701,4982,4982,0
415690998,415690750,3932170,3932170,-0.00019957949,-0.0023604864,0.0008424276,-0.0029394347,0.0056610326,-0.05280966,4976,4976,0
416195145,416194828,3932170,3932170,0.00062811526,0.0019002241,-0.00050122564,-0.0014684286,-0.002801325,-0.04296579,4972,4972,0
416689316,416689069,3932170,3932170,0.00023468245,-0.00025829166,-0.00011902588,-0.0006413258,0.0013109985,-0.059232477,5256,5256,0
417193087,417192827,3932170,3932170,-0.0001392311,0.0010877168,0.0002692012,0.006020257,0.017700454,-0.05557325,4990,4990,0
417692114,417691860,3932170,3932170,-0.0002846431,-0.0016178829,0.0005086653,-0.0063832523,-0.0026174441,-0.05404844,4990,4990,0
418191142,418190896,3932170,3932170,-0.0007431743,-0.0031752265,0.0006042849,-0.0048769834,-0.02171628,-0.04832795,4990,4990,0
418690243,418689930,3932170,3932170,0.0006980349,-7.5117605e-05,-0.00028749244,-0.003224358,-0.009384011,-0.044149287,4992,4992,0
419194302,419193953,3932170,3932170,0.00087483524,0.003505078,-0.0007681946,-5.1219282e-05,-0.02444241,-0.04119699,4985,4985,0
419693350,419693100,3932170,3932170,-8.9596426e-05,0.00060257607,1.0695357e-05,-0.0045346273,-0.010288833,-0.040760428,4966,4966,0
420192609,420192277,3932170,3932170,0.0012253304,0.0005753185,-0.0003689898,0.004545132,-0.0007564172,-0.04238314,4981,4981,0
420691320,420691058,3932170,3932170,-0.00123808,0.0017566922,0.0008111625,-0.0012175872,0.0148723265,-0.054595478,4995,4995,0
421190430,421190087,3932170,3932170,0.0011485222,0.0009626673,-0.00090186,0.0036807489,-0.014250993,-0.043601457,4990,4990,0
421689484,421689175,3932170,3932170,-0.00013053196,0.0003890914,0.00025302192,0.004654394,0.003372167,-0.05259526,4989,4989,0
422193456,422193145,3932170,3932170,-0.0007066365,-0.0020687801,0.0002104884,-0.000520491,-0.020504786,-0.041727036,4990,4990,0
422692837,422692185,3932170,3932170,-0.00054410426,0.0036648228,-0.00011461098,-0.0026831673,-0.008384051,-0.044192817,4994,4994,0
423191622,423191266,3932170,3932170,0.0010024119,-0.0028869668,-0.0006741885,0.0035686472,-0.0050440873,-0.047753397,4976,4976,0
423695712,423695445,3932170,3932170,0.00024382352,-0.003306406,0.0006013996,-0.00030228027,0.0128286285,-0.059827648,4977,4977,0
424189540,424189282,3932170,3932170,-0.00054686476,-0.001682997,0.00037856432,0.0013074024,0.009826513,-0.051641434,4989,4989,0
424688611,424688314,3932170,3932170,-0.00022842047,0.003502369,-6.294988e-05,-0.0034177778,-0.0027232582,-0.04264763,4991,4991,0
425192584,425192340,3932170,3932170,0.0010281829,-0.0033135586,-0.00026336982,0.003442921,-0.005412364,-0.051564932,4991,4991,0
425691669,425691372,3932170,3932170,-0.00050877087,6.1292826e-06,-0.00025663138,0.001187217,0.0070435177,-0.043569367,4990,4990,0
426190668,426190411,3932170,3932170,-7.0686794e-05,0.00018032687,-9.590721e-05,-0.0021055264,-0.0017918684,-0.055450633,4990,4990,0
426689782,426689491,3932170,3932170,-0.0005825016,-0.0003372222,-0.002722242,-0.00083854527,-0.024462024,-0.041855108,4922,4922,0
427193976,427193674,3932170,3932170,-5.978711e-06,-5.703916e-05,-0.0018509012,0.00095487485,0.012100888,-0.04958537,4987,4987,0
427692762,427692498,3932170,3932170,0.0001503851,-1.3687935e-05,-0.0022929106,-0.0015820194,0.007677499,-0.054664735,4991,4991,0
428191778,428191531,3932170,3932170,0.00051963713,-0.00030616947,-0.0016350524,0.007321025,0.009621444,-0.049537342,4989,4989,0
428690851,428690565,3932170,3932170,-0.0008296446,0.0006200573,-0.0016824737,-0.0017562147,-0.0045698946,-0.053392127,4966,4966,0
429191090,429189603,3932170,3932170,-0.0006144784,0.0001352938,-0.00032896808,0.004620888,0.0031783155,-0.05148629,4995,4995,0
429693865,429693622,3932170,3932170,-0.0034930094,-0.0007813479,0.00038988332,0.0011403599,-0.004673914,-0.05171063,4988,4988,0
430193456,430192662,3932170,3932170,-0.0007326154,0.003573999,-0.0007846907,0.0018802999,-0.014322944,-0.041814037,4968,4968,0
430692214,430691872,3932170,3932170,0.0001384426,-0.0014444317,0.00058692327,-0.00358078,-0.0035415327,-0.046149123,4971,4971,0
431190980,431190724,3932170,3932170,0.0005886685,0.003377161,0.00051415357,-0.0041165277,0.0038173117,-0.049974877,4991,4991,0
431690091,431689757,3932170,3932170,0.00043207803,0.0015636709,-0.00013704199,0.0038813383,-0.0009145772,-0.045729164,4990,4990,0
432189078,432188794,3932170,3932170,0.0002700701,-0.0009999962,1.6185668e-05,-0.004534697,-0.018775364,-0.050171077,4984,4984,0
432693059,432692815,3932170,3932170,0.0003191461,0.0014795685,-0.00084366574,-0.0010544233,-0.020207204,-0.03963764,4952,4952,0
433192187,433191896,3932170,3932170,-0.00061711745,-0.0011818284,0.00010263376,-0.0031372597,0.0018265317,-0.05471781,5037,5037,0
433691226,433690931,3932170,3932170,0.0013396182,0.0012632686,-0.00017164162,0.0038433645,0.0035879689,-0.046029124,4969,4969,0
434190394,434190089,3932170,3932170,0.00043171315,-0.00062778266,-0.0004667563,0.0061041564,0.0025142918,-0.047408674,4962,4962,0
434694215,434693945,3932170,3932170,-0.0002466016,0.0018537003,-0.0002751251,-0.00072930387,2.3063825e-05,-0.043441962,4993,4993,0
435188291,435187985,3932170,3932170,-0.00023049547,-0.00084040867,-0.00030986464,0.004740404,-0.0054028714,-0.045131125,4992,4992,0
435692472,435692010,3932170,3932170,0.0008346808,-0.0028114377,0.00031725905,-0.0012572715,0.008392296,-0.052899662,4993,4993,0
436191327,436191041,3932170,3932170,-0.00090117473,0.00039795574,0.00084180216,-0.0013319907,0.0040564216,-0.05512414,4990,4990,0
436690730,436690076,3932170,3932170,0.0007401946,-0.00027337947,-0.00079833117,-0.0002805963,-0.02119324,-0.042201698,4990,4990,0
437194346,437194099,3932170,3932170,-0.00036106186,-0.00016017556,0.00022448285,-0.0043104035,-0.0062982338,-0.054002143,4990,4990,0
437694319,437693323,3932170,3932170,-4.42808e-05,0.00011199862,0.00028216792,-0.00020175446,0.003798054,-0.05853108,4967,4967,0
438192432,438192166,3932170,3932170,-0.00027042313,0.00013282597,0.00025436992,-0.0015784332,-0.016047556,-0.04187617,4949,4949,0
438691473,438691199,3932170,3932170,-0.0011694987,-0.0033657516,-2.0161893e-05,0.001310641,0.002395038,-0.043583907,4990,4990,0
439190528,439190233,3932170,3932170,0.0006174834,-0.00020891076,-6.5871045e-06,-0.0005531942,-0.0029902116,-0.049377084,4990,4990,0
439689568,439689267,3932170,3932170,-0.0006494538,0.00031917036,0.00013131145,0.0021507551,0.0027012702,-0.05265234,4990,4990,0
440193623,440193332,3932170,3932170,-0.0025230795,-0.003045492,0.00045220714,0.00018086823,-0.0043166066,-0.05102514,5032,5032,0
440692582,440692335,3932170,3932170,0.0012177387,0.004451647,-0.00032807095,-5.1881343e-05,0.010187316,-0.052622885,4976,4976,0
441196814,441196466,3932170,3932170,-0.0009910744,-0.00015379569,0.0005520429,-0.0029773863,-0.00090277405,-0.05673293,4981,4981,0
441690659,441690391,3932170,3932170,-0.0005699128,0.0002624907,0.0003017788,-0.00043138702,-0.006456213,-0.052449003,4989,4989,0
442189718,442189428,3932170,3932170,-0.0011571263,0.00068016775,0.0010679829,-0.0029121563,0.00940845,-0.04976612,4994,4994,0
442688799,442688462,3932170,3932170,0.0011202438,-0.00057490467,-0.00020238703,0.001546885,0.004030488,-0.044569746,4994,4994,0
443192965,443192486,3932170,3932170,-0.00048975693,0.000360177,-3.6330257e-05,-0.0010362802,0.0003998909,-0.047826625,4993,4993,0
443691760,443691516,3932170,3932170,5.665068e-05,-0.00049571425,3.5168316e-05,-0.0026882638,0.004386672,-0.053681366,4991,4991,0
444191310,444190551,3932170,3932170,7.5545024e-05,0.00013249728,-0.00059930043,0.009897891,-0.0120048765,-0.04526568,4991,4991,0
444695004,444694718,3932170,3932170,0.000284081,-0.0002931287,-0.00015663945,0.0008637753,0.010022427,-0.04825807,4970,4970,0
445193872,445193614,3932170,3932170,-0.0010013946,0.0006822334,0.00062277645,-0.009495532,-0.0025789633,-0.051496115,4992,4992,0
445692924,445692663,3932170,3932170,0.00033187043,8.840506e-05,-0.0003313239,0.0024482005,0.0037964338,-0.04755083,5009,5009,0
446191973,446191674,3932170,3932170,0.001304222,-0.00058563025,-0.002586982,0.0035204997,-0.00898166,-0.046243045,4991,4991,0
446690965,446690707,3932170,3932170,0.0008113447,-0.00072657777,-0.005690351,0.0023740602,-0.0069949934,-0.04593449,4990,4990,0
447189987,447189741,3932170,3932170,-0.00037768832,-0.00012287687,-0.0021739495,-0.0014967221,0.00049424294,-0.05338626,4991,4991,0
447694099,447693765,3932170,3932170,0.00019592502,-0.00041011628,-0.0056230137,-0.0005219522,0.005276323,-0.04961361,4991,4991,0
448193250,448192942,3932170,3932170,0.0014038428,-0.00043399044,-0.0028547307,0.0011971119,-0.01611939,-0.039724205,4979,4979,0
448692576,448692118,3932170,3932170,-0.0020768582,-0.0038750763,0.00048564866,-0.000701669,0.017951857,-0.058347456,5277,5277,0
449191147,449190878,3932170,3932170,0.0010451254,0.0037336082,-0.00024071276,0.002992794,0.0020725306,-0.046020173,4981,4981,0
449690162,449689903,3932170,3932170,-0.000635479,-0.0037131351,0.0006025053,0.00054195523,-0.0028421578,-0.04985175,4996,4996,0
450189194,450188943,3932170,3932170,-0.00012801663,-0.00016816419,0.00061842694,-0.0017249214,0.004808312,-0.05308751,5000,5000,0
450693480,450692958,3932170,3932170,-0.0024100458,0.0026538372,0.00069406856,-0.008274777,-0.011999701,-0.049477562,4992,4992,0
451192309,451192060,3932170,3932170,0.0044992943,-0.00071749795,-0.0004435312,-0.00013549536,-0.013834055,-0.03945456,5031,5031,0
