timestamp,timestamp_sample,baro_device_id,baro_alt_meter,baro_temp_celcius,baro_pressure_pa,rho
29806467,29788797,3997706,430.989,39.9,96254.2,1.14366
29866735,29844052,3997706,430.925,39.9,96255.0,1.14367
30027464,30004779,3997706,430.643,39.9,96258.2,1.14371
30240041,30219137,3997706,430.859,39.91,96255.8,1.14368
30430421,30407462,3997706,431.163,39.91,96252.2,1.14364
30652087,30634425,3997706,430.751,39.91,96257.0,1.14369
30812846,30795158,3997706,431.055,39.91,96253.5,1.14365
31034834,31011409,3997706,431.055,39.91,96253.5,1.14365
31245751,31225578,3997706,430.97,39.91,96254.5,1.14366
31456783,31439080,3997706,431.184,39.91,96252.0,1.14363
31618410,31600751,3997706,431.034,39.92,96253.8,1.14365
31839450,31816767,3997706,430.989,39.92,96254.2,1.14366
32051842,32031098,3997706,430.968,39.92,96254.5,1.14366
32262257,32244530,3997706,431.121,39.93,96252.8,1.14364
32423915,32406259,3997706,430.838,39.93,96256.0,1.14368
32644942,32622264,3997706,430.73,39.93,96257.2,1.1437
32856890,32836681,3997706,430.989,39.93,96254.2,1.14366
33017710,32997514,3997706,430.838,39.93,96256.0,1.14368
33229596,33211711,3997706,431.034,39.93,96253.8,1.14365
33450681,33427996,3997706,431.076,39.93,96253.2,1.14365
33662626,33642195,3997706,431.076,39.93,96253.2,1.14365
33823843,33803124,3997706,430.904,39.93,96255.2,1.14367
34054478,34031735,3997706,430.904,39.94,96255.2,1.14367
34266339,34246168,3997706,430.817,39.93,96256.2,1.14368
34427082,34406907,3997706,430.946,39.94,96254.8,1.14367
34638985,34621314,3997706,430.925,39.94,96255.0,1.14367
34859980,34837304,3997706,431.274,39.94,96251.0,1.14362
35021668,34998982,3997706,430.645,39.94,96258.2,1.14371
35232672,35212502,3997706,431.208,39.94,96251.8,1.14363
35445381,35426849,3997706,430.925,39.94,96255.0,1.14367
35625579,35595074,3997706,430.96,39.94,96254.6,1.14366
35836316,35816082,3997706,430.97,39.94,96254.5,1.14366
36048185,36030530,3997706,431.034,39.94,96253.8,1.14365
36208987,36191310,3997706,430.925,39.94,96255.0,1.14367
36430954,36408272,3997706,431.034,39.95,96253.8,1.14365
36641950,36621779,3997706,430.838,39.94,96256.0,1.14368
36853881,36836176,3997706,430.859,39.95,96255.8,1.14368
37014626,36996972,3997706,430.859,39.95,96255.8,1.14368
37237247,37213861,3997706,431.013,39.95,96254.0,1.14366
37407524,37387106,3997706,431.013,39.95,96254.0,1.14366
37639261,37616580,3997706,431.142,39.95,96252.5,1.14364
37850249,37830066,3997706,430.688,39.96,96257.8,1.1437
38062174,38044274,3997706,430.946,39.96,96254.8,1.14367
38222931,38205273,3997706,431.055,39.96,96253.5,1.14365
38444045,38421319,3997706,430.989,39.97,96254.2,1.14366
38655937,38635760,3997706,430.754,39.97,96257.0,1.14369
38816670,38796500,3997706,431.034,39.96,96253.8,1.14365
39029219,39010875,3997706,430.904,39.97,96255.2,1.14367
39249510,39226825,3997706,431.034,39.97,96253.8,1.14365
39421193,39401017,3997706,431.055,39.97,96253.5,1.14365
39632173,39614518,3997706,431.163,39.97,96252.2,1.14364
39854217,39831393,3997706,431.359,39.97,96250.0,1.14361
40065066,40044897,3997706,431.25,39.98,96251.2,1.14362
40225812,40205644,3997706,431.903,39.98,96243.8,1.14354
40437758,40420094,3997706,431.491,39.97,96248.5,1.14359
40658832,40636099,3997706,431.945,39.97,96243.2,1.14353
40831064,40810341,3997706,431.945,39.97,96243.2,1.14353
41041460,41023788,3997706,432.12,39.97,96241.2,1.14351
41263359,41240673,3997706,432.183,39.97,96240.5,1.1435
41424071,41401393,3997706,432.682,39.97,96234.8,1.14343
41635971,41615781,3997706,432.466,39.97,96237.2,1.14346
41846919,41829257,3997706,432.791,39.97,96233.5,1.14341
42007758,41990035,3997706,432.511,39.97,96236.7,1.14345
42229645,42206954,3997706,432.704,39.97,96234.5,1.14343
42440622,42420451,3997706,432.619,39.97,96235.5,1.14344
42602974,42582106,3997706,432.923,39.97,96232.0,1.1434
42833299,42810607,3997706,432.532,39.96,96236.5,1.14345
43045229,43025018,3997706,432.682,39.96,96234.8,1.14343
43256178,43238520,3997706,432.682,39.96,96234.8,1.14343
43417983,43400174,3997706,432.661,39.96,96235.0,1.14343
43638871,43616196,3997706,432.553,39.95,96236.2,1.14345
43850785,43830613,3997706,432.704,39.95,96234.5,1.14343
44061839,44044175,3997706,432.661,39.94,96235.0,1.14343
44223565,44205177,3997706,432.878,39.94,96232.5,1.1434
44464827,44440394,3997706,432.783,39.94,96233.6,1.14341
44625323,44607652,3997706,432.812,39.93,96233.2,1.14341
44847323,44824623,3997706,432.965,39.92,96231.5,1.14339
45058305,45038130,3997706,433.224,39.91,96228.5,1.14335
45219986,45199768,3997706,433.074,39.91,96230.2,1.14337
45430971,45413310,3997706,433.161,39.9,96229.2,1.14336
45652928,45630247,3997706,432.965,39.89,96231.5,1.14339
45863922,45843747,3997706,433.118,39.89,96229.8,1.14337
46026467,46005447,3997706,432.682,39.89,96234.8,1.14343
46256686,46226412,3997706,432.764,39.88,96233.8,1.14342
46428388,46407508,3997706,432.553,39.87,96236.2,1.14345
46639338,46621656,3997706,432.704,39.86,96234.5,1.14343
46860415,46837674,3997706,432.574,39.86,96236.0,1.14344
47022025,46999334,3997706,432.791,39.85,96233.5,1.14341
47233065,47212883,3997706,432.727,39.84,96234.2,1.14342
47445025,47427315,3997706,432.944,39.84,96231.7,1.14339
47605734,47588080,3997706,433.007,39.83,96231.0,1.14338
47828397,47804959,3997706,432.944,39.83,96231.8,1.14339
48048752,48030974,3997706,433.118,39.81,96229.8,1.14337
48210274,48192154,3997706,433.074,39.81,96230.2,1.14337
48431351,48408641,3997706,433.224,39.8,96228.5,1.14335
48643259,48622596,3997706,433.074,39.79,96230.2,1.14337
48854216,48836552,3997706,433.095,39.78,96230.0,1.14337
49014945,48997285,3997706,432.77,39.77,96233.8,1.14342
49236870,49214195,3997706,433.224,39.76,96228.5,1.14335
49447940,49427751,3997706,433.224,39.75,96228.5,1.14335
49620260,49595441,3997706,433.391,39.74,96226.6,1.14333
49850653,49830483,3997706,433.332,39.73,96227.2,1.14334
50062634,50044979,3997706,433.224,39.72,96228.5,1.14335
50223383,50205717,3997706,433.66,39.72,96223.5,1.14329
50445358,50422585,3997706,433.137,39.7,96229.5,1.14337
50656232,50636062,3997706,433.248,39.7,96228.2,1.14335
50817046,50796832,3997706,433.161,39.69,96229.2,1.14336
51028924,51011263,3997706,433.552,39.68,96224.7,1.14331
51250004,51227297,3997706,433.269,39.67,96228.0,1.14335
51412147,51388946,3997706,433.095,39.66,96230.0,1.14337
51632601,51614936,3997706,432.986,39.65,96231.2,1.14339
51854574,51831876,3997706,433.161,39.64,96229.2,1.14336
52065551,52045378,3997706,433.031,39.62,96230.8,1.14338
52227223,52206983,3997706,433.248,39.61,96228.2,1.14335
52438186,52420529,3997706,433.248,39.6,96228.2,1.14335
52660165,52637472,3997706,433.356,39.59,96227.0,1.14334
52820944,52798266,3997706,433.314,39.58,96227.5,1.14334
53032908,53012243,3997706,433.377,39.57,96226.8,1.14333
53263941,53241254,3997706,433.639,39.55,96223.8,1.1433
53424763,53402020,3997706,433.702,39.54,96223.0,1.14329
53636586,53616418,3997706,433.79,39.53,96222.0,1.14328
53847547,53829887,3997706,433.747,39.52,96222.5,1.14328
54009195,53991536,3997706,433.465,39.51,96225.8,1.14332
54230247,54207557,3997706,433.898,39.5,96220.7,1.14326
54442162,54421990,3997706,433.486,39.49,96225.5,1.14332
54653113,54635456,3997706,433.79,39.48,96222.0,1.14328
54814819,54796885,3997706,433.377,39.47,96226.7,1.14333
55055998,55031663,3997706,433.721,39.46,96222.8,1.14329
55216649,55198934,3997706,434.138,39.45,96218.0,1.14323
55438555,55415860,3997706,433.985,39.45,96219.7,1.14325
55649592,55629366,3997706,434.268,39.45,96216.5,1.14321
55861464,55843744,3997706,433.856,39.45,96221.2,1.14327
56022121,56004465,3997706,433.922,39.45,96220.5,1.14326
56244076,56221377,3997706,433.898,39.44,96220.7,1.14326
56455094,56434892,3997706,433.422,39.44,96226.2,1.14333
56667667,56649321,3997706,433.314,39.44,96227.5,1.14334
56847837,56825150,3997706,433.79,39.44,96222.0,1.14328
57059784,57039611,3997706,433.768,39.44,96222.2,1.14328
57220632,57200449,3997706,433.79,39.44,96222.0,1.14328
57432562,57414639,3997706,434.072,39.44,96218.7,1.14324
57653548,57630858,3997706,433.747,39.44,96222.5,1.14328
57865464,57844826,3997706,433.29,39.44,96227.8,1.14334
58026216,58006046,3997706,433.182,39.45,96229.0,1.14336
58237176,58219517,3997706,433.443,39.44,96226.0,1.14332
58459570,58436425,3997706,433.507,39.45,96225.2,1.14332
58629890,58609719,3997706,433.031,39.45,96230.8,1.14338
58841835,58824177,3997706,433.66,39.45,96223.5,1.14329
59062856,59040175,3997706,433.856,39.45,96221.2,1.14327
59224598,59201803,3997706,433.66,39.45,96223.5,1.14329
59435492,59415304,3997706,433.66,39.44,96223.5,1.14329
59647365,59629474,3997706,434.006,39.44,96219.5,1.14325
59808206,59790507,3997706,433.811,39.44,96221.8,1.14327
60029239,60006510,3997706,433.552,39.44,96224.8,1.14331
60241259,60220928,3997706,433.681,39.43,96223.2,1.14329
60452178,60434453,3997706,433.747,39.44,96222.5,1.14328
60613775,60596112,3997706,433.356,39.43,96227.0,1.14334
60834771,60812094,3997706,433.747,39.43,96222.5,1.14328
61046666,61026438,3997706,433.768,39.43,96222.2,1.14328
61257629,61239930,3997706,433.443,39.43,96226.0,1.14332
61419253,61401595,3997706,433.639,39.42,96223.8,1.1433
61640332,61617622,3997706,433.314,39.42,96227.5,1.14334
61853110,61832043,3997706,433.356,39.42,96227.0,1.14334
62063492,62045490,3997706,433.507,39.41,96225.2,1.14332
62223924,62206261,3997706,433.486,39.41,96225.5,1.14332
62445890,62423185,3997706,433.639,39.41,96223.8,1.1433
62656854,62636687,3997706,433.615,39.4,96224.0,1.1433
62818527,62798344,3997706,433.552,39.4,96224.8,1.14331
63029512,63011839,3997706,433.443,39.4,96226.0,1.14332
63251421,63228726,3997706,433.747,39.4,96222.5,1.14328
63462455,63442267,3997706,433.747,39.39,96222.5,1.14328
63624122,63603904,3997706,433.486,39.39,96225.5,1.14332
63855132,63824906,3997706,434.432,39.38,96214.6,1.14319
64026935,64006279,3997706,434.16,39.37,96217.7,1.14323
64237925,64220270,3997706,434.223,39.37,96217.0,1.14322
64459930,64436499,3997706,433.964,39.37,96220.0,1.14325
64620577,64597899,3997706,434.226,39.38,96217.0,1.14322
64831593,64811422,3997706,434.072,39.38,96218.7,1.14324
65043507,65025839,3997706,434.16,39.38,96217.7,1.14323
65264500,65241813,3997706,434.247,39.37,96216.8,1.14321
65426864,65403445,3997706,434.268,39.38,96216.5,1.14321
65647402,65629445,3997706,433.443,39.37,96226.0,1.14332
65808837,65790948,3997706,433.768,39.38,96222.2,1.14328
66029859,66007181,3997706,433.681,39.38,96223.2,1.14329
66241793,66221149,3997706,433.486,39.38,96225.5,1.14332
66452735,66435078,3997706,434.247,39.39,96216.8,1.14321
66613503,66595835,3997706,433.898,39.39,96220.7,1.14326
66835449,66812746,3997706,434.16,39.39,96217.8,1.14323
67046458,67026267,3997706,434.289,39.39,96216.2,1.14321
67208869,67187938,3997706,433.943,39.39,96220.2,1.14326
67449190,67429011,3997706,434.051,39.4,96219.0,1.14324
67661112,67643440,3997706,434.355,39.4,96215.5,1.1432
67821860,67804203,3997706,434.136,39.4,96218.0,1.14323
68043914,68021125,3997706,434.418,39.4,96214.8,1.14319
68254783,68234619,3997706,434.659,39.41,96212.0,1.14316
68415562,68395332,3997706,434.376,39.41,96215.2,1.1432
68627410,68609740,3997706,434.397,39.41,96215.0,1.14319
68848593,68825809,3997706,434.223,39.41,96217.0,1.14322
69020723,69000008,3997706,434.397,39.42,96215.0,1.14319
69231224,69213556,3997706,434.68,39.42,96211.7,1.14315
69453186,69430512,3997706,434.485,39.43,96214.0,1.14318
69664142,69643977,3997706,434.117,39.43,96218.2,1.14323
69825825,69805655,3997706,434.268,39.43,96216.5,1.14321
70036805,70019134,3997706,433.898,39.44,96220.7,1.14326
70258797,70236108,3997706,433.747,39.45,96222.5,1.14328
70419546,70396865,3997706,433.528,39.45,96225.0,1.14331
70631482,70611289,3997706,434.289,39.45,96216.2,1.14321
70842696,70824732,3997706,434.117,39.46,96218.2,1.14323
71064345,71041209,3997706,434.572,39.46,96213.0,1.14317
71225105,71202426,3997706,434.072,39.46,96218.7,1.14324
71436116,71415944,3997706,434.093,39.47,96218.5,1.14323
71648029,71630370,3997706,434.226,39.48,96217.0,1.14322
71808793,71791132,3997706,434.418,39.48,96214.8,1.14319
72030830,72008146,3997706,434.551,39.48,96213.2,1.14317
72241830,72221649,3997706,434.659,39.49,96212.0,1.14316
72404327,72383299,3997706,434.527,39.49,96213.5,1.14318
72634570,72611816,3997706,434.593,39.5,96212.7,1.14317
72846352,72826178,3997706,433.898,39.51,96220.7,1.14326
73057356,73039690,3997706,434.767,39.51,96210.7,1.14314
73219105,73200691,3997706,434.226,39.52,96217.0,1.14322
73440137,73417463,3997706,434.659,39.53,96212.0,1.14316
73652059,73631420,3997706,434.331,39.54,96215.8,1.1432
73863060,73845401,3997706,434.722,39.54,96211.2,1.14315
74023816,74006157,3997706,434.897,39.55,96209.2,1.14312
74246223,74223045,3997706,434.743,39.56,96211.0,1.14315
74416530,74396343,3997706,434.81,39.57,96210.2,1.14314
74628421,74610724,3997706,434.918,39.57,96209.0,1.14312
74849460,74826756,3997706,434.876,39.57,96209.5,1.14313
75061364,75041114,3997706,434.81,39.58,96210.2,1.14314
75222122,75201946,3997706,434.485,39.59,96214.0,1.14318
75434007,75416108,3997706,435.026,39.59,96207.8,1.14311
75655029,75632348,3997706,434.635,39.6,96212.2,1.14316
75815826,75793096,3997706,434.44,39.6,96214.5,1.14319
76038077,76013492,3997706,434.728,39.61,96211.2,1.14315
76259762,76236361,3997706,434.831,39.62,96210.0,1.14313
76420523,76397817,3997706,434.527,39.62,96213.5,1.14318
76631539,76611360,3997706,435.113,39.62,96206.8,1.1431
76843430,76825746,3997706,434.572,39.63,96213.0,1.14317
77064465,77041763,3997706,434.659,39.63,96212.0,1.14316
77226136,77203400,3997706,434.527,39.63,96213.5,1.14318
77437103,77416934,3997706,434.572,39.63,96213.0,1.14317
77649580,77631424,3997706,433.811,39.64,96221.8,1.14327
77829977,77807241,3997706,434.418,39.64,96214.8,1.14319
78041788,78021621,3997706,434.397,39.65,96215.0,1.14319
78252767,78235109,3997706,434.138,39.64,96218.0,1.14323
78413577,78395873,3997706,434.897,39.64,96209.2,1.14313
78635464,78612779,3997706,434.767,39.65,96210.7,1.14314
78846519,78826275,3997706,434.81,39.66,96210.2,1.14314
79058458,79040791,3997706,434.397,39.66,96215.0,1.14319
79219205,79201544,3997706,434.138,39.65,96218.0,1.14323
79441799,79418482,3997706,434.463,39.66,96214.2,1.14318
79662216,79644547,3997706,434.506,39.66,96213.7,1.14318
79823895,79806222,3997706,433.835,39.67,96221.5,1.14327
80044926,80022222,3997706,434.376,39.67,96215.2,1.1432
80256848,80236660,3997706,434.551,39.67,96213.2,1.14317
80417614,80397432,3997706,434.659,39.67,96212.0,1.14316
80629468,80611803,3997706,434.31,39.67,96216.0,1.14321
80850521,80827837,3997706,434.268,39.68,96216.5,1.14321
81063347,81041994,3997706,434.226,39.68,96217.0,1.14322
81223508,81202930,3997706,434.16,39.68,96217.8,1.14323
81434081,81416418,3997706,434.093,39.69,96218.5,1.14323
81656052,81633374,3997706,433.943,39.69,96220.2,1.14326
81816822,81794139,3997706,434.202,39.69,96217.2,1.14322
82028696,82008520,3997706,434.138,39.69,96218.0,1.14323
82239680,82222022,3997706,434.181,39.69,96217.5,1.14322
82461653,82438965,3997706,433.898,39.7,96220.7,1.14326
82622412,82599710,3997706,434.115,39.69,96218.2,1.14323
82834322,82813841,3997706,433.922,39.71,96220.5,1.14326
83065279,83042556,3997706,434.006,39.7,96219.5,1.14325
83225957,83203272,3997706,433.835,39.7,96221.5,1.14327
83437880,83417715,3997706,434.31,39.71,96216.0,1.14321
83648901,83631241,3997706,434.027,39.71,96219.2,1.14324
83810573,83792909,3997706,434.289,39.71,96216.2,1.14321
84031625,84008950,3997706,434.418,39.71,96214.8,1.14319
84243542,84223300,3997706,434.527,39.72,96213.5,1.14318
84454454,84436794,3997706,434.181,39.72,96217.5,1.14322
84616107,84598228,3997706,433.747,39.72,96222.5,1.14328
84838467,84814430,3997706,434.16,39.73,96217.8,1.14323
85018916,84993777,3997706,434.26,39.72,96216.6,1.14321
85239880,85217182,3997706,434.115,39.74,96218.2,1.14323
85450960,85430725,3997706,434.463,39.74,96214.2,1.14318
85662895,85645226,3997706,434.072,39.74,96218.7,1.14324
85823644,85805985,3997706,434.355,39.74,96215.5,1.1432
86045590,86022912,3997706,434.03,39.75,96219.2,1.14324
86256593,86236423,3997706,434.006,39.75,96219.5,1.14325
86420074,86398085,3997706,433.877,39.75,96221.0,1.14326
86649288,86626600,3997706,433.985,39.75,96219.7,1.14325
86861156,86840976,3997706,433.985,39.76,96219.7,1.14325
87021979,87001789,3997706,433.594,39.76,96224.2,1.1433
87233888,87215965,3997706,433.66,39.77,96223.5,1.14329
87454865,87432184,3997706,434.136,39.77,96218.0,1.14323
87615626,87592953,3997706,433.877,39.77,96221.0,1.14326
87827517,87807329,3997706,434.138,39.77,96218.0,1.14323
88038651,88020880,3997706,433.594,39.77,96224.2,1.1433
88221896,88190043,3997706,433.93,39.77,96220.4,1.14326
88442470,88423622,3997706,433.964,39.76,96220.0,1.14325
88663276,88640582,3997706,433.856,39.76,96221.2,1.14327
88824013,88801333,3997706,433.811,39.76,96221.8,1.14327
89035924,89015708,3997706,433.877,39.76,96221.0,1.14326
89246933,89229274,3997706,433.922,39.75,96220.5,1.14326
89408615,89390491,3997706,433.702,39.75,96223.0,1.14329
89629710,89607032,3997706,434.226,39.74,96217.0,1.14322
89841624,89821215,3997706,433.835,39.74,96221.5,1.14327
90053962,90034929,3997706,434.16,39.74,96217.8,1.14323
90233528,90210758,3997706,433.486,39.74,96225.5,1.14332
90445316,90425131,3997706,434.117,39.74,96218.2,1.14323
90656290,90638625,3997706,434.397,39.74,96215.0,1.14319
90817983,90800319,3997706,434.268,39.74,96216.5,1.14321
91039058,91016374,3997706,433.724,39.75,96222.8,1.14329
91251045,91230835,3997706,433.985,39.75,96219.7,1.14325
91462052,91444397,3997706,434.051,39.75,96219.0,1.14324
91624508,91606014,3997706,433.747,39.75,96222.5,1.14328
91844674,91821987,3997706,433.702,39.75,96223.0,1.14329
92056548,92036370,3997706,433.943,39.74,96220.2,1.14326
92217274,92197098,3997706,434.117,39.75,96218.2,1.14323
92429274,92410872,3997706,434.268,39.75,96216.5,1.14321
92650344,92627646,3997706,434.051,39.75,96219.0,1.14324
92862237,92841573,3997706,434.03,39.76,96219.2,1.14324
93023004,93002837,3997706,433.922,39.75,96220.5,1.14326
93234017,93216355,3997706,433.922,39.75,96220.5,1.14326
93466131,93445797,3997706,434.226,39.75,96217.0,1.14322
93626718,93606550,3997706,433.898,39.75,96220.7,1.14326
93838624,93820958,3997706,434.027,39.74,96219.2,1.14324
94059634,94036959,3997706,433.811,39.72,96221.8,1.14327
94221365,94198583,3997706,433.919,39.72,96220.5,1.14326
94432258,94412076,3997706,433.356,39.7,96227.0,1.14334
94644173,94626286,3997706,433.332,39.69,96227.2,1.14334
94865220,94842511,3997706,434.051,39.68,96219.0,1.14324
95026014,95003285,3997706,433.594,39.66,96224.2,1.1433
95239316,95217669,3997706,433.747,39.65,96222.5,1.14328
95450045,95431156,3997706,433.594,39.64,96224.2,1.1433
95630625,95607895,3997706,433.615,39.62,96224.0,1.1433
95841587,95821420,3997706,433.747,39.6,96222.5,1.14328
96053478,96035786,3997706,433.747,39.59,96222.5,1.14328
96214200,96196542,3997706,433.465,39.59,96225.7,1.14332
96436135,96413447,3997706,433.922,39.57,96220.5,1.14326
96647099,96626932,3997706,433.702,39.56,96223.0,1.14329
96859727,96841365,3997706,433.79,39.56,96222.0,1.14328
97040090,97017153,3997706,434.093,39.55,96218.5,1.14323
97261810,97243688,3997706,433.768,39.55,96222.2,1.14328
97422551,97404887,3997706,433.681,39.54,96223.2,1.14329
97643628,97620949,3997706,433.639,39.53,96223.8,1.1433
97855595,97835426,3997706,434.051,39.53,96219.0,1.14324
98016347,97996164,3997706,433.79,39.53,96222.0,1.14328
98228226,98210561,3997706,433.702,39.52,96223.0,1.14329
98449229,98426549,3997706,433.898,39.52,96220.7,1.14326
98661523,98640967,3997706,433.768,39.52,96222.2,1.14328
98822042,98801676,3997706,433.964,39.51,96220.0,1.14325
99033710,99015827,3997706,433.943,39.51,96220.2,1.14326
99254786,99232095,3997706,434.006,39.51,96219.5,1.14325
99415494,99392813,3997706,434.115,39.5,96218.2,1.14323
99627410,99607207,3997706,433.724,39.5,96222.8,1.14329
99838413,99820736,3997706,433.922,39.49,96220.5,1.14326
100060348,100037649,3997706,434.093,39.49,96218.5,1.14323
100221093,100198411,3997706,433.768,39.49,96222.2,1.14328
100434807,100412877,3997706,433.835,39.48,96221.5,1.14327
100645011,100626331,3997706,433.573,39.49,96224.5,1.14331
100825738,100803054,3997706,433.768,39.48,96222.2,1.14328
101036737,101016571,3997706,433.856,39.49,96221.2,1.14327
101248709,101230989,3997706,434.289,39.48,96216.2,1.14321
101409407,101391734,3997706,434.223,39.48,96217.0,1.14322
101631425,101608231,3997706,434.289,39.48,96216.2,1.14321
101842462,101822269,3997706,434.247,39.48,96216.8,1.14321
102054364,102036459,3997706,434.418,39.48,96214.8,1.14319
102236871,102212449,3997706,434.072,39.48,96218.7,1.14324
102456909,102438468,3997706,434.31,39.48,96216.0,1.14321
102617800,102600140,3997706,434.181,39.48,96217.5,1.14322
102838823,102816137,3997706,434.548,39.48,96213.2,1.14317
103050704,103030532,3997706,434.397,39.48,96215.0,1.14319
103261718,103244059,3997706,434.289,39.48,96216.2,1.14321
103423365,103405690,3997706,434.181,39.49,96217.5,1.14322
103644356,103621675,3997706,433.943,39.49,96220.2,1.14326
103856234,103835817,3997706,434.355,39.49,96215.5,1.1432
104067458,104049480,3997706,433.985,39.49,96219.7,1.14325
104228683,104210237,3997706,434.072,39.49,96218.7,1.14324
104449881,104427201,3997706,433.877,39.5,96221.0,1.14326
104660895,104640729,3997706,433.964,39.49,96220.0,1.14325
104822569,104802382,3997706,433.898,39.49,96220.7,1.14326
105033536,105015872,3997706,433.768,39.49,96222.2,1.14328
105255539,105232858,3997706,434.331,39.49,96215.8,1.1432
105466507,105446330,3997706,434.202,39.5,96217.2,1.14322
105630152,105607973,3997706,433.768,39.5,96222.2,1.14328
105820360,105796315,3997706,433.615,39.5,96224.0,1.1433
106040931,106022546,3997706,434.006,39.5,96219.5,1.14325
106261927,106239238,3997706,433.898,39.51,96220.7,1.14326
106422688,106400010,3997706,433.856,39.51,96221.2,1.14327
106634579,106614400,3997706,434.289,39.51,96216.2,1.14321
106845550,106827886,3997706,434.138,39.52,96218.0,1.14323
107007194,106989534,3997706,434.202,39.52,96217.2,1.14322
107228278,107205583,3997706,434.247,39.52,96216.8,1.14321
107441927,107419964,3997706,433.835,39.52,96221.5,1.14327
107652595,107633441,3997706,434.093,39.52,96218.5,1.14323
107812747,107794633,3997706,433.985,39.52,96219.7,1.14325
108033728,108011053,3997706,434.136,39.53,96218.0,1.14323
108244732,108224507,3997706,433.877,39.53,96221.0,1.14326
108456611,108438951,3997706,433.531,39.53,96225.0,1.14331
108617360,108599687,3997706,433.332,39.54,96227.2,1.14334
108839330,108816632,3997706,433.443,39.54,96226.0,1.14332
109050385,109030205,3997706,433.377,39.54,96226.8,1.14333
109222441,109197861,3997706,433.338,39.54,96227.2,1.14334
109443038,109420355,3997706,433.42,39.53,96226.2,1.14333
109654892,109634718,3997706,433.332,39.52,96227.2,1.14334
109815664,109795493,3997706,433.182,39.52,96229.0,1.14336
110027577,110009446,3997706,433.29,39.5,96227.8,1.14334
110248632,110225952,3997706,433.269,39.49,96228.0,1.14335
110460560,110439909,3997706,433.443,39.48,96226.0,1.14332
110621323,110601135,3997706,433.507,39.47,96225.2,1.14332
110832400,110814674,3997706,433.42,39.46,96226.2,1.14333
111054390,111031575,3997706,433.161,39.44,96229.2,1.14336
111265874,111245029,3997706,433.031,39.43,96230.8,1.14338
111426978,111406765,3997706,433.377,39.42,96226.8,1.14333
111637936,111620269,3997706,433.356,39.4,96227.0,1.14334
111859905,111837195,3997706,433.42,39.39,96226.2,1.14333
112020695,111998020,3997706,433.269,39.38,96228.0,1.14335
112232570,112212380,3997706,433.636,39.36,96223.8,1.1433
112443590,112425930,3997706,433.314,39.34,96227.5,1.14334
112667358,112642820,3997706,433.42,39.33,96226.2,1.14333
112836352,112816103,3997706,433.377,39.31,96226.8,1.14333
113048164,113029798,3997706,433.594,39.29,96224.2,1.1433
113208972,113191293,3997706,433.356,39.28,96227.0,1.14334
113430013,113407334,3997706,433.42,39.26,96226.2,1.14333
113641882,113621708,3997706,433.248,39.25,96228.2,1.14335
113852877,113835220,3997706,433.182,39.23,96229.0,1.14336
114014571,113996895,3997706,433.465,39.22,96225.8,1.14332
114235584,114212909,3997706,433.399,39.2,96226.5,1.14333
114447971,114427291,3997706,433.507,39.19,96225.2,1.14332
114659463,114640756,3997706,433.095,39.17,96230.0,1.14337
114840119,114817204,3997706,432.878,39.16,96232.5,1.1434
115051170,115030998,3997706,433.269,39.15,96228.0,1.14335
115263047,115245147,3997706,433.422,39.14,96226.2,1.14333
115423814,115406153,3997706,433.377,39.13,96226.8,1.14333
115644867,115622139,3997706,433.465,39.13,96225.8,1.14332
115856727,115836558,3997706,433.724,39.11,96222.8,1.14329
116017506,115997314,3997706,433.182,39.11,96229.0,1.14336
116229802,116211727,3997706,434.03,39.1,96219.2,1.14324
116461427,116440288,3997706,433.14,39.1,96229.5,1.14337
116622116,116601944,3997706,433.182,39.1,96229.0,1.14336
116833195,116815498,3997706,433.486,39.09,96225.5,1.14332
117055100,117032420,3997706,433.052,39.09,96230.5,1.14338
117215874,117193184,3997706,433.137,39.09,96229.5,1.14337
117427749,117407131,3997706,433.42,39.08,96226.2,1.14333
117638780,117621079,3997706,433.507,39.08,96225.2,1.14332
117860715,117837550,3997706,433.377,39.09,96226.7,1.14333
118042900,118017309,3997706,433.406,39.08,96226.4,1.14333
118222285,118199602,3997706,433.42,39.07,96226.2,1.14333
118434146,118413974,3997706,433.356,39.08,96227.0,1.14334
118645142,118627483,3997706,433.639,39.07,96223.8,1.1433
118806847,118789154,3997706,433.399,39.07,96226.5,1.14333
119027895,119005213,3997706,433.29,39.06,96227.8,1.14334
119239877,119219667,3997706,433.399,39.06,96226.5,1.14333
119450833,119433176,3997706,433.573,39.05,96224.5,1.14331
119612537,119594618,3997706,433.42,39.05,96226.2,1.14333
119855191,119829355,3997706,433.391,39.04,96226.6,1.14333
120015280,119996588,3997706,433.681,39.03,96223.2,1.14329
120236209,120213532,3997706,433.118,39.03,96229.8,1.14337
120447184,120427016,3997706,433.332,39.02,96227.2,1.14334
120659141,120641468,3997706,432.986,39.02,96231.2,1.14339
120819908,120802252,3997706,433.182,39.02,96229.0,1.14336
121041983,121019249,3997706,432.857,39.01,96232.7,1.1434
121252938,121232771,3997706,433.248,39.0,96228.2,1.14335
121415443,121394424,3997706,433.248,39.01,96228.2,1.14335
121655809,121635474,3997706,433.118,39.01,96229.8,1.14337
121817276,121796646,3997706,433.399,39.0,96226.5,1.14333
122028299,122010633,3997706,433.269,39.01,96228.0,1.14335
122250237,122227094,3997706,433.573,39.01,96224.5,1.14331
122461224,122441056,3997706,433.224,39.0,96228.5,1.14335
122621945,122601779,3997706,433.898,39.0,96220.7,1.14326
122833863,122816197,3997706,433.552,39.0,96224.8,1.14331
123054926,123032240,3997706,433.615,39.0,96224.0,1.1433
123217251,123193862,3997706,433.528,38.99,96225.0,1.14331
123457662,123434978,3997706,433.465,39.0,96225.8,1.14332
123619262,123596585,3997706,433.486,38.99,96225.5,1.14332
123830218,123810043,3997706,433.399,38.98,96226.5,1.14333
124042147,124024222,3997706,433.182,38.99,96229.0,1.14336
124263112,124240434,3997706,433.269,38.98,96228.0,1.14335
124423845,124401168,3997706,433.377,38.97,96226.8,1.14333
124635809,124615643,3997706,433.399,38.97,96226.5,1.14333
124846927,124829174,3997706,433.182,38.97,96229.0,1.14336
125029107,124998371,3997706,433.443,38.97,96226.0,1.14332
125239600,125219426,3997706,433.681,38.95,96223.2,1.14329
125451519,125433851,3997706,433.528,38.96,96225.0,1.14331
125612234,125594573,3997706,433.573,38.95,96224.5,1.14331
125834290,125811559,3997706,433.79,38.95,96222.0,1.14328
126045224,126025051,3997706,433.486,38.95,96225.5,1.14332
126257099,126239436,3997706,433.528,38.95,96225.0,1.14331
126417969,126400282,3997706,433.399,38.95,96226.5,1.14333
126640749,126617175,3997706,433.465,38.95,96225.8,1.14332
126850988,126830600,3997706,433.639,38.94,96223.8,1.1433
127021564,127003886,3997706,433.681,38.93,96223.2,1.14329
127243565,127220826,3997706,433.573,38.93,96224.5,1.14331
127454495,127434314,3997706,433.702,38.92,96223.0,1.14329
127666458,127648722,3997706,433.681,38.92,96223.2,1.14329
127827145,127809489,3997706,433.615,38.91,96224.0,1.1433
128049122,128026443,3997706,434.006,38.91,96219.5,1.14325
128260149,128239976,3997706,434.051,38.9,96219.0,1.14324
128422603,128401668,3997706,433.768,38.9,96222.2,1.14328
128652845,128622633,3997706,433.824,38.89,96221.6,1.14327
128864761,128844592,3997706,433.898,38.89,96220.7,1.14326
129025494,129005320,3997706,433.724,38.88,96222.8,1.14329
129237414,129219017,3997706,433.877,38.88,96221.0,1.14326
129458493,129435754,3997706,433.877,38.86,96221.0,1.14326
129619168,129596487,3997706,433.811,38.86,96221.8,1.14327
129831118,129810948,3997706,433.835,38.85,96221.5,1.14327
130042157,130024500,3997706,433.702,38.85,96223.0,1.14329
130264286,130241428,3997706,433.856,38.85,96221.2,1.14327
130424856,130402157,3997706,433.79,38.84,96222.0,1.14328
130636808,130616614,3997706,433.768,38.84,96222.2,1.14328
130847802,130830136,3997706,433.79,38.84,96222.0,1.14328
131009470,130991795,3997706,433.835,38.83,96221.5,1.14327
131230536,131207836,3997706,433.618,38.82,96224.0,1.1433
131442466,131422275,3997706,433.42,38.82,96226.2,1.14333
131653455,131635777,3997706,433.486,38.82,96225.5,1.14332
131815119,131797199,3997706,433.507,38.81,96225.2,1.14332
132036311,132013388,3997706,433.507,38.8,96225.2,1.14332
132247981,132227113,3997706,433.465,38.8,96225.8,1.14332
132458992,132441331,3997706,433.332,38.79,96227.2,1.14334
132619785,132602122,3997706,433.747,38.78,96222.5,1.14328
132841753,132819069,3997706,432.986,38.77,96231.2,1.14339
133052719,133032552,3997706,433.182,38.76,96229.0,1.14336
133214453,133194213,3997706,433.118,38.75,96229.8,1.14337
133425429,133407729,3997706,433.528,38.75,96225.0,1.14331
133648130,133624655,3997706,433.486,38.75,96225.5,1.14332
133818179,133798014,3997706,433.79,38.74,96222.0,1.14328
134030098,134012433,3997706,433.856,38.74,96221.2,1.14327
134251127,134228452,3997706,433.835,38.74,96221.5,1.14327
134463021,134442850,3997706,433.594,38.74,96224.2,1.1433
134623774,134603605,3997706,434.006,38.73,96219.5,1.14325
134835667,134817552,3997706,433.964,38.73,96220.0,1.14325
135056778,135034097,3997706,433.856,38.73,96221.2,1.14327
135217609,135194854,3997706,433.835,38.73,96221.5,1.14327
135429768,135409235,3997706,433.856,38.73,96221.2,1.14327
135660525,135637778,3997706,433.66,38.73,96223.5,1.14329
135822092,135799409,3997706,433.507,38.74,96225.2,1.14332
136033053,136012885,3997706,433.681,38.73,96223.2,1.14329
136244963,136227306,3997706,433.681,38.74,96223.2,1.14329
136466022,136443319,3997706,433.702,38.74,96223.0,1.14329
136627716,136605002,3997706,433.747,38.74,96222.5,1.14328
136838718,136818551,3997706,433.835,38.75,96221.5,1.14327
137051471,137033031,3997706,433.507,38.75,96225.2,1.14332
137231719,137208776,3997706,433.639,38.75,96223.8,1.1433
137443354,137422718,3997706,433.747,38.75,96222.5,1.14328
137654289,137636625,3997706,433.443,38.76,96226.0,1.14332
137815051,137797387,3997706,434.093,38.76,96218.5,1.14323
138036999,138014304,3997706,433.747,38.77,96222.5,1.14328
138248080,138227908,3997706,433.811,38.77,96221.8,1.14327
138460033,138442368,3997706,433.552,38.78,96224.8,1.14331
138620798,138603136,3997706,433.747,38.78,96222.5,1.14328
138843300,138820038,3997706,433.943,38.79,96220.2,1.14326
139063746,139046070,3997706,434.115,38.79,96218.2,1.14323
139225413,139207721,3997706,433.898,38.8,96220.7,1.14326
139446410,139423716,3997706,434.03,38.8,96219.2,1.14324
139658356,139638083,3997706,434.03,38.8,96219.2,1.14324
139819086,139798874,3997706,434.115,38.81,96218.2,1.14323
140030034,140012344,3997706,434.03,38.81,96219.2,1.14324
140251927,140229248,3997706,433.985,38.82,96219.7,1.14325
140462956,140442734,3997706,434.03,38.83,96219.2,1.14324
140626290,140604369,3997706,433.985,38.83,96219.7,1.14325
140855584,140832866,3997706,433.702,38.84,96223.0,1.14329
141017177,140994486,3997706,433.856,38.85,96221.2,1.14327
141228207,141208041,3997706,433.681,38.85,96223.2,1.14329
141440187,141422473,3997706,434.006,38.85,96219.5,1.14325
141661251,141638570,3997706,434.117,38.86,96218.2,1.14323
141822901,141799771,3997706,433.702,38.86,96223.0,1.14329
142033929,142013758,3997706,433.811,38.87,96221.8,1.14327
142245880,142227946,3997706,433.747,38.87,96222.5,1.14328
142466840,142444163,3997706,434.268,38.88,96216.5,1.14321
142638256,142617465,3997706,433.964,38.88,96220.0,1.14325
142849589,142831933,3997706,434.397,38.89,96215.0,1.14319
143010382,142992683,3997706,434.093,38.89,96218.5,1.14323
143232315,143209612,3997706,434.093,38.9,96218.5,1.14323
143443316,143423131,3997706,434.006,38.9,96219.5,1.14325
143655225,143637554,3997706,434.051,38.9,96219.0,1.14324
143816017,143798359,3997706,433.943,38.91,96220.2,1.14326
144039707,144015294,3997706,433.985,38.9,96219.7,1.14325
144210220,144188548,3997706,433.877,38.9,96221.0,1.14326
144440755,144418063,3997706,434.181,38.9,96217.5,1.14322
144651767,144631601,3997706,433.702,38.9,96223.0,1.14329
144863740,144845984,3997706,434.117,38.9,96218.2,1.14323
145024426,145006731,3997706,433.985,38.9,96219.7,1.14325
145246384,145222968,3997706,434.31,38.9,96216.0,1.14321
145457407,145437207,3997706,433.985,38.9,96219.7,1.14325
145618215,145597977,3997706,433.943,38.9,96220.2,1.14326
145851663,145827444,3997706,433.594,38.9,96224.2,1.1433
146021752,146000740,3997706,434.006,38.89,96219.5,1.14325
146232795,146215134,3997706,433.877,38.9,96221.0,1.14326
146453863,146431180,3997706,433.964,38.9,96220.0,1.14325
146665737,146645560,3997706,434.181,38.9,96217.5,1.14322
146826500,146806325,3997706,433.877,38.89,96221.0,1.14326
147038335,147020439,3997706,434.181,38.89,96217.5,1.14322
147259470,147236742,3997706,433.922,38.89,96220.5,1.14326
147421149,147397754,3997706,433.79,38.89,96222.0,1.14328
147632538,147611899,3997706,433.443,38.9,96226.0,1.14332
147864133,147840706,3997706,433.528,38.89,96225.0,1.14331
148024805,148002131,3997706,433.594,38.89,96224.2,1.1433
148235837,148215656,3997706,433.594,38.89,96224.2,1.1433
148447775,148430098,3997706,433.443,38.9,96226.0,1.14332
148608559,148590887,3997706,433.42,38.89,96226.2,1.14333
148830584,148807839,3997706,433.095,38.89,96230.0,1.14337
149041554,149021367,3997706,433.356,38.89,96227.0,1.14334
149203820,149183002,3997706,433.332,38.88,96227.2,1.14334
149444235,149424060,3997706,433.507,38.87,96225.2,1.14332
149656222,149638549,3997706,432.986,38.87,96231.2,1.14339
149817061,149799402,3997706,433.29,38.87,96227.8,1.14334
150039100,150016323,3997706,432.902,38.86,96232.2,1.1434
150250011,150229842,3997706,433.161,38.85,96229.2,1.14336
150461891,150443991,3997706,433.314,38.84,96227.5,1.14334
150622641,150604980,3997706,433.314,38.84,96227.5,1.14334
150843724,150820993,3997706,433.182,38.83,96229.0,1.14336
151065741,151041397,3997706,433.375,38.83,96226.8,1.14333
151247161,151223683,3997706,433.399,38.82,96226.5,1.14333
151458248,151438073,3997706,433.203,38.81,96228.8,1.14336
151619029,151598863,3997706,433.594,38.81,96224.2,1.1433
151831012,151813232,3997706,433.573,38.8,96224.5,1.14331
152051963,152029247,3997706,433.248,38.8,96228.2,1.14335
152263864,152243691,3997706,433.052,38.79,96230.5,1.14338
152424650,152404486,3997706,433.29,38.79,96227.8,1.14334
152636605,152618200,3997706,433.224,38.79,96228.5,1.14335
152817595,152787119,3997706,433.338,38.78,96227.2,1.14334
153058545,153035799,3997706,432.923,38.77,96232.0,1.1434
153220208,153197514,3997706,433.203,38.78,96228.8,1.14336
153431257,153411087,3997706,433.074,38.78,96230.2,1.14337
153643145,153625484,3997706,433.052,38.77,96230.5,1.14338
153864163,153841486,3997706,433.031,38.77,96230.8,1.14338
154025852,154003166,3997706,433.269,38.77,96228.0,1.14335
154236817,154216648,3997706,433.269,38.76,96228.0,1.14335
154400619,154378419,3997706,433.182,38.76,96229.0,1.14336
154640766,154619466,3997706,432.899,38.76,96232.2,1.1434
154851653,154833936,3997706,432.923,38.76,96232.0,1.1434
155012412,154994731,3997706,433.332,38.76,96227.2,1.14334
155234366,155211177,3997706,433.42,38.76,96226.2,1.14333
155445295,155425114,3997706,433.118,38.76,96229.8,1.14337
155656298,155638600,3997706,432.836,38.76,96233.0,1.14341
155817991,155800318,3997706,433.182,38.76,96229.0,1.14336
156038999,156016303,3997706,432.727,38.76,96234.2,1.14342
156252494,156230696,3997706,433.031,38.76,96230.8,1.14338
156422577,156403945,3997706,433.182,38.77,96229.0,1.14336
156643518,156620824,3997706,433.031,38.77,96230.8,1.14338
156854497,156834315,3997706,433.118,38.77,96229.8,1.14337
157016152,156995512,3997706,433.269,38.77,96228.0,1.14335
157227116,157209454,3997706,433.79,38.77,96222.0,1.14328
157449079,157425693,3997706,433.528,38.77,96225.0,1.14331
157660077,157639902,3997706,433.332,38.77,96227.2,1.14334
157820834,157800666,3997706,433.42,38.77,96226.2,1.14333
158034291,158015099,3997706,433.182,38.78,96229.0,1.14336
158214447,158183338,3997706,433.2,38.78,96228.8,1.14336
158455642,158432941,3997706,433.118,38.78,96229.8,1.14337
158666689,158646511,3997706,433.248,38.78,96228.2,1.14335
158828369,158808187,3997706,433.031,38.79,96230.8,1.14338
159039348,159021675,3997706,433.332,38.78,96227.2,1.14334
159261295,159238590,3997706,433.465,38.79,96225.8,1.14332
159422074,159399391,3997706,433.095,38.79,96230.0,1.14337
159634603,159613807,3997706,433.161,38.8,96229.2,1.14336
159866329,159842349,3997706,433.42,38.8,96226.2,1.14333
160026476,160003128,3997706,433.356,38.8,96227.0,1.14334
160237782,160217574,3997706,433.507,38.8,96225.2,1.14332
160448814,160431063,3997706,433.594,38.8,96224.2,1.1433
160610446,160592747,3997706,433.443,38.81,96226.0,1.14332
160831457,160808751,3997706,433.137,38.81,96229.5,1.14337
161043351,161023172,3997706,433.052,38.82,96230.5,1.14338
161254349,161236674,3997706,433.269,38.81,96228.0,1.14335
161436714,161405943,3997706,433.251,38.82,96228.2,1.14335
161618343,161592829,3997706,433.251,38.83,96228.2,1.14335
161838973,161816294,3997706,432.923,38.83,96232.0,1.1434
162049954,162029785,3997706,433.074,38.84,96230.2,1.14337
162261855,162244149,3997706,433.007,38.84,96231.0,1.14338
162422613,162404937,3997706,433.031,38.84,96230.7,1.14338
162644560,162621416,3997706,433.182,38.85,96229.0,1.14336
162855596,162835425,3997706,433.486,38.85,96225.5,1.14332
163016346,162996174,3997706,433.377,38.85,96226.8,1.14333
163229824,163210561,3997706,433.552,38.86,96224.7,1.14331
163409889,163378816,3997706,433.652,38.86,96223.6,1.1433
163630985,163613322,3997706,433.615,38.87,96224.0,1.1433
163852033,163829354,3997706,433.66,38.88,96223.5,1.14329
164063981,164043791,3997706,433.702,38.88,96223.0,1.14329
164224725,164204562,3997706,433.66,38.88,96223.5,1.14329
164436615,164418941,3997706,433.922,38.89,96220.5,1.14326
164657741,164635027,3997706,434.006,38.89,96219.5,1.14325
164820350,164796725,3997706,433.724,38.9,96222.8,1.14329
165060624,165037835,3997706,433.768,38.9,96222.2,1.14328
165222234,165198846,3997706,433.877,38.9,96221.0,1.14326
165433238,165413070,3997706,434.051,38.91,96219.0,1.14324
165645175,165627031,3997706,434.16,38.91,96217.7,1.14323
165866262,165843580,3997706,433.702,38.92,96223.0,1.14329
166027093,166004376,3997706,433.747,38.92,96222.5,1.14328
166238999,166218788,3997706,433.811,38.93,96221.8,1.14327
166450059,166432299,3997706,433.573,38.94,96224.5,1.14331
166632022,166601500,3997706,433.998,38.94,96219.6,1.14325
166843473,166822513,3997706,433.877,38.95,96221.0,1.14326
167054546,167036884,3997706,433.573,38.95,96224.5,1.14331
167215282,167197613,3997706,433.639,38.95,96223.8,1.1433
167437271,167414554,3997706,433.507,38.96,96225.2,1.14332
167648257,167628083,3997706,433.552,38.96,96224.8,1.14331
167860187,167842521,3997706,433.486,38.97,96225.5,1.14332
168021018,168003359,3997706,433.552,38.97,96224.8,1.14331
168244932,168220047,3997706,433.356,38.97,96227.0,1.14334
168455605,168433764,3997706,433.269,38.98,96228.0,1.14335
168624719,168607065,3997706,433.182,38.97,96229.0,1.14336
168846671,168823995,3997706,433.097,38.99,96230.0,1.14337
169057667,169037463,3997706,433.377,39.0,96226.8,1.14333
169219353,169199167,3997706,433.095,39.0,96230.0,1.14337
169430383,169412719,3997706,433.42,39.0,96226.2,1.14333
169652392,169629660,3997706,433.314,39.01,96227.5,1.14334
169863331,169843156,3997706,432.923,39.01,96232.0,1.1434
170025568,170004821,3997706,432.598,39.01,96235.7,1.14344
170257106,170233339,3997706,433.007,39.02,96231.0,1.14338
170427794,170407366,3997706,432.749,39.02,96234.0,1.14342
170638820,170621162,3997706,432.468,39.03,96237.2,1.14346
170860921,170838123,3997706,432.815,39.03,96233.2,1.14341
171021643,170998917,3997706,432.532,39.04,96236.5,1.14345
171233557,171212921,3997706,432.162,39.04,96240.8,1.1435
171444568,171426900,3997706,432.532,39.05,96236.5,1.14345
171666524,171643369,3997706,432.12,39.05,96241.2,1.14351
171828717,171804540,3997706,432.12,39.07,96241.2,1.14351
172039018,172018012,3997706,431.837,39.07,96244.5,1.14354
172250086,172232427,3997706,431.945,39.07,96243.2,1.14353
172410837,172393181,3997706,432.141,39.07,96241.0,1.1435
172632752,172610080,3997706,431.686,39.08,96246.2,1.14356
172843786,172823608,3997706,431.599,39.09,96247.2,1.14358
173055697,173038029,3997706,431.316,39.09,96250.5,1.14362
173216473,173198793,3997706,431.641,39.09,96246.8,1.14357
173438415,173415489,3997706,431.359,39.1,96250.0,1.14361
173660700,173635203,3997706,431.62,39.11,96247.0,1.14357
173820718,173802496,3997706,431.404,39.1,96249.5,1.1436
174042084,174019400,3997706,431.38,39.12,96249.8,1.14361
174253047,174232878,3997706,431.599,39.11,96247.2,1.14358
174464996,174447330,3997706,431.599,39.12,96247.2,1.14358
174625760,174608104,3997706,431.491,39.13,96248.5,1.14359
174847716,174825010,3997706,431.359,39.14,96250.0,1.14361
175058738,175038559,3997706,431.467,39.14,96248.8,1.14359
175221037,175200179,3997706,431.467,39.14,96248.8,1.14359
175451492,175428798,3997706,431.491,39.14,96248.5,1.14359
175663394,175643208,3997706,431.425,39.15,96249.2,1.1436
175824127,175803952,3997706,431.575,39.16,96247.5,1.14358
176035149,176017427,3997706,431.491,39.16,96248.5,1.14359
176257069,176234385,3997706,431.533,39.17,96248.0,1.14359
176417839,176395153,3997706,431.554,39.17,96247.8,1.14358
176629764,176609590,3997706,431.663,39.18,96246.5,1.14357
176840766,176823106,3997706,431.316,39.19,96250.5,1.14362
177063115,177040032,3997706,431.663,39.19,96246.5,1.14357
177233493,177213285,3997706,431.359,39.2,96250.0,1.14361
