timestamp,q[0],q[1],q[2],q[3],delta_q_reset[0],delta_q_reset[1],delta_q_reset[2],delta_q_reset[3],quat_reset_counter
29862530,0.999605,-0.000848729,-0.00241545,-0.0280003,0.999999,4.09796e-10,-1.68411e-10,-0.00114305,3
29867532,0.999609,-0.00107245,-0.00176441,-0.0279025,0.999999,4.09796e-10,-1.68411e-10,-0.00114305,3
29912579,0.99964,0.000413902,-0.0012085,-0.0268159,0.999999,4.09796e-10,-1.68411e-10,-0.00114305,3
29962630,0.999611,-0.00188087,-0.0011129,-0.0278086,0.999999,4.09796e-10,-1.68411e-10,-0.00114305,3
30012682,0.999611,-0.00141367,-0.00327579,-0.0276673,0.999999,4.09796e-10,-1.68411e-10,-0.00114305,3
30062738,0.999628,-0.00103569,-0.00191564,-0.0271797,0.999999,4.09796e-10,-1.68411e-10,-0.00114305,3
30112786,0.999634,-0.000933371,-0.00111008,-0.0270318,0.999999,4.09796e-10,-1.68411e-10,-0.00114305,3
30162838,0.999626,-0.00119387,-0.0014235,-0.0272864,0.999999,4.09796e-10,-1.68411e-10,-0.00114305,3
30212890,0.999638,-0.0010483,-0.00165845,-0.02684,0.999999,4.09796e-10,-1.68411e-10,-0.00114305,3
30262943,0.999648,-0.00101427,-0.00167407,-0.0264753,0.999999,4.09796e-10,-1.68411e-10,-0.00114305,3
30312994,0.999623,-0.0012591,-0.00136416,-0.0274059,0.999999,4.09796e-10,-1.68411e-10,-0.00114305,3
30363046,0.999631,-0.000984931,-0.00342247,-0.0269374,0.999999,4.09796e-10,-1.68411e-10,-0.00114305,3
30413099,0.99965,-0.00097508,-0.00116606,-0.0264055,0.999999,4.09796e-10,-1.68411e-10,-0.00114305,3
30463150,0.999631,0.00180406,-0.00339492,-0.0268939,0.999999,4.09796e-10,-1.68411e-10,-0.00114305,3
30513202,0.999647,0.00176089,-0.00079016,-0.026483,0.999999,4.09796e-10,-1.68411e-10,-0.00114305,3
30563256,0.999638,0.00358062,-0.00170262,-0.0266212,0.999999,4.09796e-10,-1.68411e-10,-0.00114305,3
30613306,0.999635,0.0029116,-0.00287342,-0.0267129,0.999999,4.09796e-10,-1.68411e-10,-0.00114305,3
30663358,0.999637,0.00176176,-2.42847e-05,-0.0268858,0.999999,4.09796e-10,-1.68411e-10,-0.00114305,3
30713410,0.999636,0.00310608,-0.00395361,-0.0265265,0.999999,4.09796e-10,-1.68411e-10,-0.00114305,3
30763464,0.999643,0.00132127,-0.00125379,-0.0266716,0.999999,4.09796e-10,-1.68411e-10,-0.00114305,3
30813514,0.999656,0.00307329,-0.000886333,-0.026027,0.999999,4.09796e-10,-1.68411e-10,-0.00114305,3
30863575,0.999648,0.00401919,-0.00278329,-0.0260739,0.999999,4.09796e-10,-1.68411e-10,-0.00114305,3
30913618,0.999653,0.0026818,-0.00115891,-0.0261732,0.999999,4.09796e-10,-1.68411e-10,-0.00114305,3
30963670,0.99962,0.00528845,-0.002139,-0.0269898,0.999999,4.09796e-10,-1.68411e-10,-0.00114305,3
31013734,0.999637,0.00487585,-0.00239634,-0.026389,0.999999,4.09796e-10,-1.68411e-10,-0.00114305,3
31063774,0.999619,0.00764248,-0.00186583,-0.0264523,0.999999,4.09796e-10,-1.68411e-10,-0.00114305,3
31113826,0.999632,0.00845404,-0.00229524,-0.0256838,0.999999,4.09796e-10,-1.68411e-10,-0.00114305,3
31163878,0.999647,0.00863545,-0.00327085,-0.0249107,0.999999,4.09796e-10,-1.68411e-10,-0.00114305,3
31213930,0.999678,0.00817535,-0.00138486,-0.0239722,0.999999,4.09796e-10,-1.68411e-10,-0.00114305,3
31263982,0.999678,0.00774401,-0.00217658,-0.024065,0.999999,4.09796e-10,-1.68411e-10,-0.00114305,3
31314034,0.999661,0.00846548,-0.00297977,-0.0244498,0.999999,4.09796e-10,-1.68411e-10,-0.00114305,3
31364086,0.99968,0.00621616,-0.00064301,-0.0245164,0.999999,4.09796e-10,-1.68411e-10,-0.00114305,3
31414146,0.999647,0.00794321,-0.00323623,-0.0251433,0.999999,4.09796e-10,-1.68411e-10,-0.00114305,3
31464190,0.99966,0.00369835,-0.00156552,-0.0257738,0.999999,4.09796e-10,-1.68411e-10,-0.00114305,3
31514242,0.999652,0.00539456,-0.00112208,-0.0258005,0.999999,4.09796e-10,-1.68411e-10,-0.00114305,3
31559289,0.999656,0.00310414,-0.00124604,-0.0260087,0.999999,4.09796e-10,-1.68411e-10,-0.00114305,3
31614347,0.99966,0.00431353,-0.0004935,-0.0257088,0.999999,4.09796e-10,-1.68411e-10,-0.00114305,3
31664411,0.999646,0.00797827,-0.00391443,-0.0250961,0.999999,4.09796e-10,-1.68411e-10,-0.00114305,3
31714450,0.999645,0.00673924,-0.00248547,-0.0256723,0.999999,4.09796e-10,-1.68411e-10,-0.00114305,3
31764503,0.999623,0.00986606,-0.00183159,-0.025553,0.999999,4.09796e-10,-1.68411e-10,-0.00114305,3
31814554,0.999631,0.00828429,-0.00441075,-0.0254733,0.999999,4.09796e-10,-1.68411e-10,-0.00114305,3
31864606,0.999641,0.00788166,-0.0018105,-0.0255381,0.999999,4.09796e-10,-1.68411e-10,-0.00114305,3
31909653,0.999639,0.00659147,-0.00330862,-0.0258277,0.999999,4.09796e-10,-1.68411e-10,-0.00114305,3
31964711,0.999646,0.00578537,-0.00250634,-0.025859,0.999999,4.09796e-10,-1.68411e-10,-0.00114305,3
32014763,0.999635,0.00728258,-0.00264047,-0.0258839,0.999999,4.09796e-10,-1.68411e-10,-0.00114305,3
32059809,0.999641,0.00875148,-0.00284762,-0.0251677,0.999999,4.09796e-10,-1.68411e-10,-0.00114305,3
32114867,0.999639,0.00882554,-0.00443646,-0.0249826,0.999999,4.09796e-10,-1.68411e-10,-0.00114305,3
32164919,0.999672,0.00558406,-0.00244863,-0.0248615,0.999999,4.09796e-10,-1.68411e-10,-0.00114305,3
32214971,0.999679,0.00541757,-0.00363956,-0.0244839,0.999999,4.09796e-10,-1.68411e-10,-0.00114305,3
32260018,0.999706,0.00263998,-0.00244298,-0.0239991,0.999999,4.09796e-10,-1.68411e-10,-0.00114305,3
32315075,0.999721,0.00184627,-0.00305389,-0.0233542,0.999999,4.09796e-10,-1.68411e-10,-0.00114305,3
32365127,0.999711,0.00405291,-0.00246509,-0.0235739,0.999999,4.09796e-10,-1.68411e-10,-0.00114305,3
32410174,0.999699,0.00415749,-0.00359757,-0.0239113,0.999999,4.09796e-10,-1.68411e-10,-0.00114305,3
32465237,0.999685,0.00613398,-0.00366255,-0.0240589,0.999999,4.09796e-10,-1.68411e-10,-0.00114305,3
32515285,0.999673,0.00519697,-0.00285153,-0.0248678,0.999999,4.09796e-10,-1.68411e-10,-0.00114305,3
32560333,0.99966,0.00665982,-0.00485029,-0.0247335,0.999999,4.09796e-10,-1.68411e-10,-0.00114305,3
32610382,0.999679,0.00259758,-0.00317259,-0.0250202,0.999999,4.09796e-10,-1.68411e-10,-0.00114305,3
32665440,0.999684,-0.000607274,-0.00210746,-0.0250622,0.999999,4.09796e-10,-1.68411e-10,-0.00114305,3
32715496,0.99967,1.85938e-05,-0.00423493,-0.0253315,0.999999,4.09796e-10,-1.68411e-10,-0.00114305,3
32760538,0.999672,-0.00231313,-0.00326788,-0.0252969,0.999999,4.09796e-10,-1.68411e-10,-0.00114305,3
32815595,0.999678,-0.000281783,-0.00248609,-0.0252491,0.999999,4.09796e-10,-1.68411e-10,-0.00114305,3
32865648,0.999661,0.00572524,-0.00524888,-0.0248632,0.999999,4.09796e-10,-1.68411e-10,-0.00114305,3
32910695,0.999637,0.00803471,-0.00293007,-0.0255338,0.999999,4.09796e-10,-1.68411e-10,-0.00114305,3
32960746,0.99959,0.0111364,-0.00602055,-0.0256917,0.999999,4.09796e-10,-1.68411e-10,-0.00114305,3
33015804,0.999578,0.0110483,-0.00521155,-0.0263732,0.999999,4.09796e-10,-1.68411e-10,-0.00114305,3
33060851,0.999525,0.0134495,-0.00427921,-0.0274055,0.999999,4.09796e-10,-1.68411e-10,-0.00114305,3
33110903,0.999567,0.00848504,-0.00482609,-0.0277445,0.999999,4.09796e-10,-1.68411e-10,-0.00114305,3
33160958,0.999584,0.00462776,-0.0039583,-0.0281855,0.999999,4.09796e-10,-1.68411e-10,-0.00114305,3
33216016,0.999594,0.000837267,-0.00448124,-0.0281147,0.999999,4.09796e-10,-1.68411e-10,-0.00114305,3
33261059,0.999606,-0.00304584,-0.00541583,-0.0273649,0.999999,4.09796e-10,-1.68411e-10,-0.00114305,3
33311111,0.999622,-0.00342064,-0.00401785,-0.0269709,0.999999,4.09796e-10,-1.68411e-10,-0.00114305,3
33366168,0.999617,-0.00347152,-0.00386911,-0.0271795,0.999999,4.09796e-10,-1.68411e-10,-0.00114305,3
33411217,0.999616,0.0010096,-0.00607648,-0.0270223,0.999999,4.09796e-10,-1.68411e-10,-0.00114305,3
33461274,0.999613,0.00174863,-0.00332833,-0.0275689,0.999999,4.09796e-10,-1.68411e-10,-0.00114305,3
33516325,0.999599,0.00563804,-0.00251548,-0.0276413,0.999999,4.09796e-10,-1.68411e-10,-0.00114305,3
33561372,0.999576,0.00725894,-0.00568884,-0.0276154,0.999999,4.09796e-10,-1.68411e-10,-0.00114305,3
33611435,0.999565,0.0091488,-0.00374633,-0.0277778,0.999999,4.09796e-10,-1.68411e-10,-0.00114305,3
33661476,0.999545,0.0103754,-0.00569977,-0.0277309,0.999999,4.09796e-10,-1.68411e-10,-0.00114305,3
33716533,0.999547,0.00947504,-0.00620421,-0.0278778,0.999999,4.09796e-10,-1.68411e-10,-0.00114305,3
33761580,0.999495,0.0117869,-0.00576772,-0.0289271,0.999999,4.09796e-10,-1.68411e-10,-0.00114305,3
33811635,0.999513,0.0102099,-0.00578929,-0.0289156,0.999999,4.09796e-10,-1.68411e-10,-0.00114305,3
33866689,0.999512,0.0101678,-0.00605217,-0.0289094,0.999999,4.09796e-10,-1.68411e-10,-0.00114305,3
33911736,0.999554,0.00822181,-0.00447924,-0.0283467,0.999999,4.09796e-10,-1.68411e-10,-0.00114305,3
33961788,0.999562,0.00779649,-0.00584309,-0.0279368,0.999999,4.09796e-10,-1.68411e-10,-0.00114305,3
34011841,0.999591,0.00263781,-0.0053615,-0.0279544,0.999999,4.09796e-10,-1.68411e-10,-0.00114305,3
34061899,0.999594,0.00206796,-0.00412968,-0.0281024,0.999999,4.09796e-10,-1.68411e-10,-0.00114305,3
34111945,0.999576,0.0032944,-0.00693777,-0.0280944,0.999999,4.09796e-10,-1.68411e-10,-0.00114305,3
34161997,0.999574,0.00425987,-0.00435367,-0.0285536,0.999999,4.09796e-10,-1.68411e-10,-0.00114305,3
34217058,0.999559,0.0078756,-0.00423943,-0.0283121,0.999999,4.09796e-10,-1.68411e-10,-0.00114305,3
34262101,0.999539,0.00935052,-0.00571354,-0.0283278,0.999999,4.09796e-10,-1.68411e-10,-0.00114305,3
34312154,0.999502,0.0114255,-0.00529931,-0.0289365,0.999999,4.09796e-10,-1.68411e-10,-0.00114305,3
34362206,0.999494,0.0111356,-0.00665315,-0.0290306,0.999999,4.09796e-10,-1.68411e-10,-0.00114305,3
34412258,0.999504,0.0101818,-0.00637531,-0.0291153,0.999999,4.09796e-10,-1.68411e-10,-0.00114305,3
34462310,0.999508,0.0105972,-0.00603626,-0.0288965,0.999999,4.09796e-10,-1.68411e-10,-0.00114305,3
34512364,0.99956,0.00749999,-0.00685976,-0.0278707,0.999999,4.09796e-10,-1.68411e-10,-0.00114305,3
34562414,0.999582,0.00654939,-0.00620742,-0.0274777,0.999999,4.09796e-10,-1.68411e-10,-0.00114305,3
34612466,0.999625,0.00282828,-0.00565669,-0.0266425,0.999999,4.09796e-10,-1.68411e-10,-0.00114305,3
34662519,0.99964,0.00157248,-0.00689805,-0.0258738,0.999999,4.09796e-10,-1.68411e-10,-0.00114305,3
34712571,0.999637,-0.00207355,-0.00552043,-0.0262753,0.999999,4.09796e-10,-1.68411e-10,-0.00114305,3
34762623,0.999646,-0.000794564,-0.0064814,-0.0258025,0.999999,4.09796e-10,-1.68411e-10,-0.00114305,3
34812675,0.999636,-0.000799836,-0.00631573,-0.0262048,0.999999,4.09796e-10,-1.68411e-10,-0.00114305,3
34862727,0.999637,-0.00144552,-0.00495614,-0.0264416,0.999999,4.09796e-10,-1.68411e-10,-0.00114305,3
34912779,0.999627,0.0025564,-0.00715573,-0.0262491,0.999999,4.09796e-10,-1.68411e-10,-0.00114305,3
34962831,0.999623,0.00133445,-0.00565606,-0.0268484,0.999999,4.09796e-10,-1.68411e-10,-0.00114305,3
35012884,0.999632,0.00253582,-0.00524173,-0.0265016,0.999999,4.09796e-10,-1.68411e-10,-0.00114305,3
35062936,0.999608,0.0044438,-0.00708818,-0.0267195,0.999999,4.09796e-10,-1.68411e-10,-0.00114305,3
35112988,0.999632,0.00136949,-0.00448362,-0.0267146,0.999999,4.09796e-10,-1.68411e-10,-0.00114305,3
35163040,0.999608,0.00552751,-0.00607745,-0.0267732,0.999999,4.09796e-10,-1.68411e-10,-0.00114305,3
35213095,0.999599,0.00688253,-0.00762159,-0.0263976,0.999999,4.09796e-10,-1.68411e-10,-0.00114305,3
35263145,0.999582,0.00814485,-0.00824205,-0.0264722,0.999999,4.09796e-10,-1.68411e-10,-0.00114305,3
35313197,0.999597,0.00842093,-0.00760151,-0.0260368,0.999999,4.09796e-10,-1.68411e-10,-0.00114305,3
35363251,0.999619,0.00608497,-0.00798343,-0.0257081,0.999999,4.09796e-10,-1.68411e-10,-0.00114305,3
35413303,0.999624,0.00199551,-0.00759749,-0.0262574,0.999999,4.09796e-10,-1.68411e-10,-0.00114305,3
35463354,0.999602,-0.0030539,-0.00732454,-0.0270738,0.999999,4.09796e-10,-1.68411e-10,-0.00114305,3
35513406,0.999561,-0.00755792,-0.00820476,-0.0274542,0.999999,4.09796e-10,-1.68411e-10,-0.00114305,3
35563458,0.999548,-0.00964679,-0.0085667,-0.0271575,0.999999,4.09796e-10,-1.68411e-10,-0.00114305,3
35613510,0.999564,-0.00944042,-0.00721696,-0.0270244,0.999999,4.09796e-10,-1.68411e-10,-0.00114305,3
35663562,0.999572,-0.00696039,-0.00805264,-0.0272538,0.999999,4.09796e-10,-1.68411e-10,-0.00114305,3
35713615,0.999514,-0.00383502,-0.00952376,-0.0294479,0.999999,4.09796e-10,-1.68411e-10,-0.00114305,3
35763667,0.99944,-0.000944342,-0.00843334,-0.0323588,0.999999,4.09796e-10,-1.68411e-10,-0.00114305,3
35813719,0.999311,0.00258262,-0.00847435,-0.0360529,0.999999,4.09796e-10,-1.68411e-10,-0.00114305,3
35863771,0.9992,0.00507465,-0.00926217,-0.0385631,0.999999,4.09796e-10,-1.68411e-10,-0.00114305,3
35913824,0.999095,0.0068909,-0.0091395,-0.0409659,0.999999,4.09796e-10,-1.68411e-10,-0.00114305,3
35963875,0.999022,0.00603357,-0.00748044,-0.0431503,0.999999,4.09796e-10,-1.68411e-10,-0.00114305,3
36013928,0.998947,0.00191553,-0.00799524,-0.0451471,0.999999,4.09796e-10,-1.68411e-10,-0.00114305,3
36063980,0.998846,-0.00162426,-0.00883427,-0.0471739,0.999999,4.09796e-10,-1.68411e-10,-0.00114305,3
36114032,0.998796,-0.00354942,-0.00862849,-0.0481524,0.999999,4.09796e-10,-1.68411e-10,-0.00114305,3
36164084,0.998778,-0.00410087,-0.010067,-0.0482032,0.999999,4.09796e-10,-1.68411e-10,-0.00114305,3
36214137,0.998786,-0.00529317,-0.00930869,-0.0480754,0.999999,4.09796e-10,-1.68411e-10,-0.00114305,3
36264191,0.998794,-0.00589382,-0.00760522,-0.0481411,0.999999,4.09796e-10,-1.68411e-10,-0.00114305,3
36314241,0.998796,-0.00450295,-0.00881607,-0.0480564,0.999999,4.09796e-10,-1.68411e-10,-0.00114305,3
36364296,0.998801,-0.000426681,-0.00942186,-0.0480489,0.999999,4.09796e-10,-1.68411e-10,-0.00114305,3
36414346,0.998799,0.00135062,-0.00832053,-0.0482643,0.999999,4.09796e-10,-1.68411e-10,-0.00114305,3
36459400,0.998744,0.00454057,-0.0101997,-0.0488484,0.999999,4.09796e-10,-1.68411e-10,-0.00114305,3
36514450,0.998684,0.00529454,-0.0109962,-0.0498066,0.999999,4.09796e-10,-1.68411e-10,-0.00114305,3
36564504,0.998637,0.00366324,-0.00794635,-0.051447,0.999999,4.09796e-10,-1.68411e-10,-0.00114305,3
36614555,0.998574,0.0079001,-0.0104131,-0.0517669,0.999999,4.09796e-10,-1.68411e-10,-0.00114305,3
36664607,0.998534,0.00779061,-0.00926025,-0.0527548,0.999999,4.09796e-10,-1.68411e-10,-0.00114305,3
36714661,0.998485,0.00992237,-0.0095038,-0.0532822,0.999999,4.09796e-10,-1.68411e-10,-0.00114305,3
36764712,0.998372,0.0135263,-0.0112388,-0.0542564,0.999999,4.09796e-10,-1.68411e-10,-0.00114305,3
36809758,0.998374,0.0119667,-0.00927772,-0.0549632,0.999999,4.09796e-10,-1.68411e-10,-0.00114305,3
36864816,0.998264,0.0128755,-0.00993843,-0.0566112,0.999999,4.09796e-10,-1.68411e-10,-0.00114305,3
36914868,0.9982,0.010621,-0.011133,-0.0579746,0.999999,4.09796e-10,-1.68411e-10,-0.00114305,3
36959915,0.998178,0.00769811,-0.00991359,-0.0590125,0.999999,4.09796e-10,-1.68411e-10,-0.00114305,3
37014973,0.998155,0.00397052,-0.00964792,-0.0598079,0.999999,4.09796e-10,-1.68411e-10,-0.00114305,3
37065028,0.998125,-0.000141429,-0.0100899,-0.0603756,0.999999,4.09796e-10,-1.68411e-10,-0.00114305,3
37110072,0.998151,-0.000693674,-0.00921941,-0.0600784,0.999999,4.09796e-10,-1.68411e-10,-0.00114305,3
37160124,0.998194,0.000335544,-0.0106924,-0.0591078,0.999999,4.09796e-10,-1.68411e-10,-0.00114305,3
37215182,0.998321,0.00142319,-0.00896361,-0.0572096,0.999999,4.09796e-10,-1.68411e-10,-0.00114305,3
37265234,0.998489,0.00444337,-0.00880544,-0.0540676,0.999999,4.09796e-10,-1.68411e-10,-0.00114305,3
37310283,0.998633,0.00563687,-0.00890866,-0.0512048,0.999999,4.09796e-10,-1.68411e-10,-0.00114305,3
37365339,0.99887,0.00363792,-0.00957697,-0.0464048,0.999999,4.09796e-10,-1.68411e-10,-0.00114305,3
37415391,0.99906,-0.000617484,-0.00933751,-0.0423158,0.999999,4.09796e-10,-1.68411e-10,-0.00114305,3
37460438,0.999201,-0.00687423,-0.00835209,-0.0384856,0.999999,4.09796e-10,-1.68411e-10,-0.00114305,3
37510505,0.999284,-0.0125365,-0.00913248,-0.0344973,0.999999,4.09796e-10,-1.68411e-10,-0.00114305,3
37565548,0.999395,-0.0144618,-0.00913335,-0.0302782,0.999999,4.09796e-10,-1.68411e-10,-0.00114305,3
37610595,0.999485,-0.015095,-0.0088202,-0.0269113,0.999999,4.09796e-10,-1.68411e-10,-0.00114305,3
37660647,0.999607,-0.011914,-0.00870203,-0.0238408,0.999999,4.09796e-10,-1.68411e-10,-0.00114305,3
37715707,0.999677,-0.0102785,-0.00882521,-0.0215135,0.999999,4.09796e-10,-1.68411e-10,-0.00114305,3
37765766,0.999726,-0.00921841,-0.00766611,-0.020093,0.999999,4.09796e-10,-1.68411e-10,-0.00114305,3
37810804,0.999707,-0.0106263,-0.00913929,-0.0197441,0.999999,4.09796e-10,-1.68411e-10,-0.00114305,3
37860864,0.999639,-0.0144914,-0.010103,-0.0202619,0.999999,4.09796e-10,-1.68411e-10,-0.00114305,3
37915915,0.999593,-0.0193769,-0.00844554,-0.0191776,0.999999,4.09796e-10,-1.68411e-10,-0.00114305,3
37960961,0.999631,-0.0190821,-0.00721332,-0.0179311,0.999999,4.09796e-10,-1.68411e-10,-0.00114305,3
38011016,0.999703,-0.0163206,-0.00762221,-0.016406,0.999999,4.09796e-10,-1.68411e-10,-0.00114305,3
38061066,0.999784,-0.0123236,-0.0079262,-0.0147449,0.999999,4.09796e-10,-1.68411e-10,-0.00114305,3
38111119,0.999851,-0.00824034,-0.00739908,-0.013242,0.999999,4.09796e-10,-1.68411e-10,-0.00114305,3
38161171,0.999891,-0.00574131,-0.00740452,-0.0114605,0.999999,4.09796e-10,-1.68411e-10,-0.00114305,3
38211236,0.999912,-0.00408453,-0.00673828,-0.0106935,0.999999,4.09796e-10,-1.68411e-10,-0.00114305,3
38266281,0.999923,-0.00548091,-0.00632142,-0.00922452,0.999999,4.09796e-10,-1.68411e-10,-0.00114305,3
38311328,0.999908,-0.00848303,-0.00685125,-0.00807755,0.999999,4.09796e-10,-1.68411e-10,-0.00114305,3
38361380,0.999902,-0.00935671,-0.00799179,-0.00670204,0.999999,4.09796e-10,-1.68411e-10,-0.00114305,3
38416438,0.99992,-0.00767207,-0.00833073,-0.00565849,0.999999,4.09796e-10,-1.68411e-10,-0.00114305,3
38461485,0.999914,-0.00771,-0.00921825,-0.00532301,0.999999,4.09796e-10,-1.68411e-10,-0.00114305,3
38511537,0.999897,-0.00912728,-0.00965997,-0.00552109,0.999999,4.09796e-10,-1.68411e-10,-0.00114305,3
38561597,0.999879,-0.0107668,-0.00990248,-0.00529147,0.999999,4.09796e-10,-1.68411e-10,-0.00114305,3
38611642,0.999865,-0.0120278,-0.00962027,-0.00567133,0.999999,4.09796e-10,-1.68411e-10,-0.00114305,3
38661694,0.999848,-0.0131357,-0.00874054,-0.00741944,0.999999,4.09796e-10,-1.68411e-10,-0.00114305,3
38711747,0.999827,-0.0123994,-0.00950717,-0.0101391,0.999999,4.09796e-10,-1.68411e-10,-0.00114305,3
38766804,0.999794,-0.0107347,-0.00950496,-0.0143773,0.999999,4.09796e-10,-1.68411e-10,-0.00114305,3
38811851,0.999703,-0.011986,-0.0112267,-0.0180197,0.999999,4.09796e-10,-1.68411e-10,-0.00114305,3
38861904,0.999596,-0.0120577,-0.0138619,-0.0216846,0.999999,4.09796e-10,-1.68411e-10,-0.00114305,3
38911963,0.999509,-0.011865,-0.0146133,-0.0250679,0.999999,4.09796e-10,-1.68411e-10,-0.00114305,3
38962008,0.999411,-0.0125163,-0.0140205,-0.0287117,0.999999,4.09796e-10,-1.68411e-10,-0.00114305,3
39012061,0.999323,-0.014769,-0.0131612,-0.0310297,0.999999,4.09796e-10,-1.68411e-10,-0.00114305,3
39062113,0.999231,-0.0189861,-0.0123697,-0.031991,0.999999,4.09796e-10,-1.68411e-10,-0.00114305,3
39112166,0.999124,-0.0214156,-0.0136449,-0.0332558,0.999999,4.09796e-10,-1.68411e-10,-0.00114305,3
39162220,0.999101,-0.0173707,-0.0190529,-0.033658,0.999999,4.09796e-10,-1.68411e-10,-0.00114305,3
39212286,0.999119,-0.0110702,-0.0233627,-0.0330612,0.999999,4.09796e-10,-1.68411e-10,-0.00114305,3
39262323,0.999202,-0.00896611,-0.0220802,-0.0320627,0.999999,4.09796e-10,-1.68411e-10,-0.00114305,3
39312376,0.999217,-0.013436,-0.0202984,-0.031182,0.999999,4.09796e-10,-1.68411e-10,-0.00114305,3
39362428,0.99923,-0.0169479,-0.0190335,-0.0298216,0.999999,4.09796e-10,-1.68411e-10,-0.00114305,3
39412480,0.999243,-0.0186845,-0.0169839,-0.0295962,0.999999,4.09796e-10,-1.68411e-10,-0.00114305,3
39462533,0.999234,-0.0175766,-0.0169603,-0.030585,0.999999,4.09796e-10,-1.68411e-10,-0.00114305,3
39512585,0.999126,-0.0190646,-0.0204118,-0.0310937,0.999999,4.09796e-10,-1.68411e-10,-0.00114305,3
39562637,0.998923,-0.024885,-0.0229288,-0.0317616,0.999999,4.09796e-10,-1.68411e-10,-0.00114305,3
39612690,0.998606,-0.033506,-0.0234964,-0.0333431,0.999999,4.09796e-10,-1.68411e-10,-0.00114305,3
39662742,0.99832,-0.0398957,-0.0228847,-0.0352498,0.999999,4.09796e-10,-1.68411e-10,-0.00114305,3
39712799,0.998354,-0.0410046,-0.0168984,-0.0363662,0.999999,4.09796e-10,-1.68411e-10,-0.00114305,3
39762847,0.998667,-0.035211,-0.00610937,-0.0372368,0.999999,4.09796e-10,-1.68411e-10,-0.00114305,3
39812899,0.99901,-0.0216026,0.00479263,-0.0386,0.999999,4.09796e-10,-1.68411e-10,-0.00114305,3
39862952,0.999205,-0.00620418,0.00679591,-0.0387981,0.999999,4.09796e-10,-1.68411e-10,-0.00114305,3
39913004,0.999228,-0.00201961,0.00308914,-0.0391049,0.999999,4.09796e-10,-1.68411e-10,-0.00114305,3
39963057,0.999201,-0.0067609,-0.00276607,-0.0393056,0.999999,4.09796e-10,-1.68411e-10,-0.00114305,3
40013109,0.99913,-0.0138616,-0.00606679,-0.0388578,0.999999,4.09796e-10,-1.68411e-10,-0.00114305,3
40063162,0.999036,-0.0194904,-0.00566645,-0.0389121,0.999999,4.09796e-10,-1.68411e-10,-0.00114305,3
40113216,0.998997,-0.019997,-0.00599162,-0.039615,0.999999,4.09796e-10,-1.68411e-10,-0.00114305,3
40163273,0.999121,-0.0126968,-0.00741229,-0.0392462,0.999999,4.09796e-10,-1.68411e-10,-0.00114305,3
40213322,0.999178,-0.00777504,-0.00879797,-0.0388055,0.999999,4.09796e-10,-1.68411e-10,-0.00114305,3
40263372,0.999161,-0.0106322,-0.00974325,-0.038339,0.999999,4.09796e-10,-1.68411e-10,-0.00114305,3
40313424,0.999004,-0.0209098,-0.0110732,-0.0378375,0.999999,4.09796e-10,-1.68411e-10,-0.00114305,3
40363478,0.998697,-0.0326366,-0.0128148,-0.0370932,0.999999,4.09796e-10,-1.68411e-10,-0.00114305,3
40413529,0.998291,-0.042812,-0.0142902,-0.0371103,0.999999,4.09796e-10,-1.68411e-10,-0.00114305,3
40463581,0.998165,-0.0459067,-0.0152232,-0.0364457,0.999999,4.09796e-10,-1.68411e-10,-0.00114305,3
40513634,0.998211,-0.0447517,-0.0169103,-0.0358671,0.999999,4.09796e-10,-1.68411e-10,-0.00114305,3
40563686,0.998427,-0.0384045,-0.0204535,-0.0353653,0.999999,4.09796e-10,-1.68411e-10,-0.00114305,3
40613739,0.998505,-0.0335828,-0.0254805,-0.0348037,0.999999,4.09796e-10,-1.68411e-10,-0.00114305,3
40663791,0.998335,-0.0329767,-0.0311977,-0.0355776,0.999999,4.09796e-10,-1.68411e-10,-0.00114305,3
40713847,0.997979,-0.0352943,-0.0373549,-0.0373801,0.999999,4.09796e-10,-1.68411e-10,-0.00114305,3
40763896,0.997831,-0.0367323,-0.039152,-0.0380902,0.999999,4.09796e-10,-1.68411e-10,-0.00114305,3
40813948,0.99772,-0.0403457,-0.0369894,-0.0394959,0.999999,4.09796e-10,-1.68411e-10,-0.00114305,3
40864001,0.997868,-0.0378721,-0.0335572,-0.0412266,0.999999,4.09796e-10,-1.68411e-10,-0.00114305,3
40914053,0.997991,-0.0347543,-0.0317385,-0.0424032,0.999999,4.09796e-10,-1.68411e-10,-0.00114305,3
40964106,0.997909,-0.0350511,-0.0316439,-0.0441267,0.999999,4.09796e-10,-1.68411e-10,-0.00114305,3
41009153,0.997514,-0.0402588,-0.0363141,-0.0450147,0.999999,4.09796e-10,-1.68411e-10,-0.00114305,3
41064211,0.997307,-0.0397974,-0.0405184,-0.0464,0.999999,4.09796e-10,-1.68411e-10,-0.00114305,3
41114269,0.997373,-0.0354618,-0.0415011,-0.0476055,0.999999,4.09796e-10,-1.68411e-10,-0.00114305,3
41164316,0.997781,-0.0256746,-0.0389603,-0.047499,0.999999,4.09796e-10,-1.68411e-10,-0.00114305,3
41214372,0.998034,-0.0191524,-0.0350787,-0.0482834,0.999999,4.09796e-10,-1.68411e-10,-0.00114305,3
41264421,0.997913,-0.0152605,-0.0389288,-0.0492166,0.999999,4.09796e-10,-1.68411e-10,-0.00114305,3
41314473,0.997552,-0.0148986,-0.0468509,-0.0497315,0.999999,4.09796e-10,-1.68411e-10,-0.00114305,3
41359521,0.997174,-0.0172016,-0.0528632,-0.0505364,0.999999,4.09796e-10,-1.68411e-10,-0.00114305,3
41414581,0.997085,-0.015451,-0.0541191,-0.0515205,0.999999,4.09796e-10,-1.68411e-10,-0.00114305,3
41464631,0.997494,-0.0118773,-0.0459344,-0.0524821,0.999999,4.09796e-10,-1.68411e-10,-0.00114305,3
41509678,0.997937,-0.00409421,-0.0356605,-0.0532292,0.999999,4.09796e-10,-1.68411e-10,-0.00114305,3
41564741,0.998106,0.0128195,-0.0246189,-0.0548909,0.999999,4.09796e-10,-1.68411e-10,-0.00114305,3
41614788,0.998758,0.0223583,-0.022472,-0.0384454,0.999853,-3.52141e-10,-8.19683e-10,0.0171471,4
41664841,0.998789,0.0191793,-0.0223342,-0.0394146,0.999853,-3.52141e-10,-8.19683e-10,0.0171471,4
41709888,0.998929,0.008307,-0.023297,-0.0390977,0.999853,-3.52141e-10,-8.19683e-10,0.0171471,4
41764946,0.999099,-0.00831752,-0.015547,-0.0385935,0.999853,-3.52141e-10,-8.19683e-10,0.0171471,4
41814999,0.999139,-0.0180765,-0.00605698,-0.0368542,0.999853,-3.52141e-10,-8.19683e-10,0.0171471,4
41860046,0.999289,-0.0153922,0.00105661,-0.0343965,0.999853,-3.52141e-10,-8.19683e-10,0.0171471,4
41915104,0.999436,-0.00767031,0.00312257,-0.0325448,0.999853,-3.52141e-10,-8.19683e-10,0.0171471,4
41965156,0.999493,0.00288013,-0.00230896,-0.0316105,0.999853,-3.52141e-10,-8.19683e-10,0.0171471,4
42010204,0.999473,0.00611291,-0.00819684,-0.0308066,0.999853,-3.52141e-10,-8.19683e-10,0.0171471,4
42060257,0.999458,-0.00175108,-0.0151974,-0.0291524,0.999853,-3.52141e-10,-8.19683e-10,0.0171471,4
42115314,0.999091,-0.0251546,-0.0208837,-0.027361,0.999853,-3.52141e-10,-8.19683e-10,0.0171471,4
42165367,0.998286,-0.0467243,-0.0245144,-0.0253132,0.999853,-3.52141e-10,-8.19683e-10,0.0171471,4
42210414,0.997707,-0.0573056,-0.0276461,-0.0230902,0.999853,-3.52141e-10,-8.19683e-10,0.0171471,4
42265471,0.997484,-0.0591207,-0.0332711,-0.0205882,0.999853,-3.52141e-10,-8.19683e-10,0.0171471,4
42315524,0.997401,-0.055492,-0.0426307,-0.0171406,0.999853,-3.52141e-10,-8.19683e-10,0.0171471,4
42360573,0.997371,-0.0515624,-0.0486702,-0.0149393,0.999853,-3.52141e-10,-8.19683e-10,0.0171471,4
42410628,0.997159,-0.0523436,-0.052487,-0.013364,0.999853,-3.52141e-10,-8.19683e-10,0.0171471,4
42465682,0.996607,-0.0639485,-0.0504247,-0.0119288,0.999853,-3.52141e-10,-8.19683e-10,0.0171471,4
42510729,0.996657,-0.0668749,-0.0456763,-0.0107673,0.999853,-3.52141e-10,-8.19683e-10,0.0171471,4
42560782,0.997386,-0.0601407,-0.0388764,-0.00962711,0.999853,-3.52141e-10,-8.19683e-10,0.0171471,4
42615839,0.99857,-0.0407376,-0.0337157,-0.00787874,0.999853,-3.52141e-10,-8.19683e-10,0.0171471,4
42665892,0.999446,-0.013809,-0.0293721,-0.00734575,0.999853,-3.52141e-10,-8.19683e-10,0.0171471,4
42710946,0.9996,0.00636285,-0.0267105,-0.00681447,0.999853,-3.52141e-10,-8.19683e-10,0.0171471,4
42760994,0.999716,0.00717234,-0.0215688,-0.00710473,0.999853,-3.52141e-10,-8.19683e-10,0.0171471,4
42816050,0.999828,-0.00936458,-0.013643,-0.00835361,0.999853,-3.52141e-10,-8.19683e-10,0.0171471,4
42861097,0.999721,-0.0201766,-0.00802385,-0.00933517,0.999853,-3.52141e-10,-8.19683e-10,0.0171471,4
42911150,0.999521,-0.0285529,-0.00504656,-0.0108034,0.999853,-3.52141e-10,-8.19683e-10,0.0171471,4
42966207,0.999777,-0.0155824,-0.00705151,-0.0123906,0.999853,-3.52141e-10,-8.19683e-10,0.0171471,4
43011255,0.99988,-1.10871e-05,-0.00647596,-0.0141003,0.999853,-3.52141e-10,-8.19683e-10,0.0171471,4
43061314,0.999743,0.0141894,-0.00665517,-0.0163982,0.999853,-3.52141e-10,-8.19683e-10,0.0171471,4
43111363,0.999595,0.0208858,-0.00458659,-0.0187912,0.999853,-3.52141e-10,-8.19683e-10,0.0171471,4
43166418,0.999657,0.0132259,-0.00720127,-0.0214237,0.999853,-3.52141e-10,-8.19683e-10,0.0171471,4
43211467,0.999651,0.00496187,-0.0103802,-0.0237671,0.999853,-3.52141e-10,-8.19683e-10,0.0171471,4
43261518,0.999555,0.00433434,-0.0124326,-0.0267612,0.999853,-3.52141e-10,-8.19683e-10,0.0171471,4
43316577,0.999285,0.0203238,-0.00896765,-0.0305931,0.999853,-3.52141e-10,-8.19683e-10,0.0171471,4
43361624,0.998927,0.0315891,-0.00778214,-0.0329744,0.999853,-3.52141e-10,-8.19683e-10,0.0171471,4
43411683,0.998793,0.0323122,-0.00876121,-0.03595,0.999853,-3.52141e-10,-8.19683e-10,0.0171471,4
43461728,0.999032,0.0134229,-0.0166093,-0.0384452,0.999853,-3.52141e-10,-8.19683e-10,0.0171471,4
43511781,0.998711,-0.0157495,-0.0255881,-0.040901,0.999853,-3.52141e-10,-8.19683e-10,0.0171471,4
43561834,0.997924,-0.0392389,-0.0271417,-0.0432596,0.999853,-3.52141e-10,-8.19683e-10,0.0171471,4
43611898,0.997432,-0.0486326,-0.0264925,-0.0454151,0.999853,-3.52141e-10,-8.19683e-10,0.0171471,4
43666944,0.99727,-0.0480126,-0.0303895,-0.047165,0.999853,-3.52141e-10,-8.19683e-10,0.0171471,4
43711991,0.997647,-0.0385988,-0.0298842,-0.0481488,0.999853,-3.52141e-10,-8.19683e-10,0.0171471,4
43762047,0.998052,-0.0294361,-0.0218678,-0.0504705,0.999853,-3.52141e-10,-8.19683e-10,0.0171471,4
43812105,0.998134,-0.0290663,-0.0149037,-0.0515947,0.999853,-3.52141e-10,-8.19683e-10,0.0171471,4
43862149,0.997963,-0.0340476,-0.0105348,-0.0529052,0.999853,-3.52141e-10,-8.19683e-10,0.0171471,4
43912202,0.997803,-0.0375381,-0.0107099,-0.0535345,0.999853,-3.52141e-10,-8.19683e-10,0.0171471,4
43962254,0.997519,-0.0405324,-0.0152322,-0.0555029,0.999853,-3.52141e-10,-8.19683e-10,0.0171471,4
44012307,0.997063,-0.0452979,-0.0211201,-0.0580267,0.999853,-3.52141e-10,-8.19683e-10,0.0171471,4
44062361,0.996743,-0.0488419,-0.0204843,-0.0608086,0.999853,-3.52141e-10,-8.19683e-10,0.0171471,4
44112421,0.996698,-0.0477026,-0.0168269,-0.0635101,0.999853,-3.52141e-10,-8.19683e-10,0.0171471,4
44162465,0.997017,-0.0384784,-0.0122502,-0.0657815,0.999853,-3.52141e-10,-8.19683e-10,0.0171471,4
44212520,0.997297,-0.0244812,-0.010064,-0.068538,0.999853,-3.52141e-10,-8.19683e-10,0.0171471,4
44262570,0.997297,-0.0147751,-0.0128376,-0.0708236,0.999853,-3.52141e-10,-8.19683e-10,0.0171471,4
44312623,0.99711,-0.0132401,-0.0197838,-0.0721516,0.999853,-3.52141e-10,-8.19683e-10,0.0171471,4
44362678,0.996756,-0.0178814,-0.0263264,-0.0739251,0.999853,-3.52141e-10,-8.19683e-10,0.0171471,4
44412731,0.996447,-0.0238297,-0.0299275,-0.0750294,0.999853,-3.52141e-10,-8.19683e-10,0.0171471,4
44462791,0.99636,-0.0290781,-0.0252998,-0.0760283,0.999853,-3.52141e-10,-8.19683e-10,0.0171471,4
44512833,0.996674,-0.0250836,-0.0167236,-0.0757059,0.999853,-3.52141e-10,-8.19683e-10,0.0171471,4
44562886,0.997061,-0.0173705,-0.00641451,-0.0743347,0.999853,-3.52141e-10,-8.19683e-10,0.0171471,4
44612939,0.997419,-0.00501188,-0.00421469,-0.0715008,0.999853,-3.52141e-10,-8.19683e-10,0.0171471,4
44662991,0.997655,0.00175102,-0.00609298,-0.0681522,0.999853,-3.52141e-10,-8.19683e-10,0.0171471,4
44713044,0.997848,0.000231407,-0.0105768,-0.0647131,0.999853,-3.52141e-10,-8.19683e-10,0.0171471,4
44763097,0.997994,-0.0101357,-0.0115011,-0.0614316,0.999853,-3.52141e-10,-8.19683e-10,0.0171471,4
44813153,0.998038,-0.0187657,-0.0093899,-0.0589981,0.999853,-3.52141e-10,-8.19683e-10,0.0171471,4
44863202,0.998165,-0.0226022,-0.00765027,-0.0556458,0.999853,-3.52141e-10,-8.19683e-10,0.0171471,4
44913254,0.998289,-0.0229075,-0.00836189,-0.0531492,0.999853,-3.52141e-10,-8.19683e-10,0.0171471,4
44963309,0.998468,-0.0183245,-0.0107562,-0.0510834,0.999853,-3.52141e-10,-8.19683e-10,0.0171471,4
45013360,0.998606,-0.011501,-0.0136898,-0.0496708,0.999853,-3.52141e-10,-8.19683e-10,0.0171471,4
45063413,0.998707,-0.00579254,-0.0140245,-0.0485228,0.999853,-3.52141e-10,-8.19683e-10,0.0171471,4
45113465,0.998784,-0.00336673,-0.0126312,-0.0475288,0.999853,-3.52141e-10,-8.19683e-10,0.0171471,4
45163521,0.998868,-0.000669068,-0.0098898,-0.0465131,0.999853,-3.52141e-10,-8.19683e-10,0.0171471,4
45213570,0.998905,0.00166694,-0.00718954,-0.0461976,0.999853,-3.52141e-10,-8.19683e-10,0.0171471,4
45263623,0.998913,0.00466244,-0.00523569,-0.0460938,0.999853,-3.52141e-10,-8.19683e-10,0.0171471,4
45313676,0.998868,0.0101063,-0.00636183,-0.0460485,0.999853,-3.52141e-10,-8.19683e-10,0.0171471,4
45363729,0.998713,0.0184867,-0.00961403,-0.0462364,0.999853,-3.52141e-10,-8.19683e-10,0.0171471,4
45413781,0.998504,0.0239744,-0.0136773,-0.0472045,0.999853,-3.52141e-10,-8.19683e-10,0.0171471,4
45463834,0.998496,0.0181609,-0.0171079,-0.048828,0.999853,-3.52141e-10,-8.19683e-10,0.0171471,4
45513886,0.998422,0.00609395,-0.0229122,-0.0509021,0.999853,-3.52141e-10,-8.19683e-10,0.0171471,4
45563939,0.998228,-0.0113432,-0.0235791,-0.0534498,0.999853,-3.52141e-10,-8.19683e-10,0.0171471,4
45613992,0.997715,-0.025232,-0.0282096,-0.0559686,0.999853,-3.52141e-10,-8.19683e-10,0.0171471,4
45664044,0.997244,-0.0330139,-0.0330657,-0.057633,0.999853,-3.52141e-10,-8.19683e-10,0.0171471,4
45714099,0.997167,-0.0264964,-0.0385957,-0.0588832,0.999853,-3.52141e-10,-8.19683e-10,0.0171471,4
45764152,0.997482,-0.0150579,-0.0343312,-0.0602092,0.999853,-3.52141e-10,-8.19683e-10,0.0171471,4
45814202,0.9977,-0.0033762,-0.0283698,-0.061462,0.999853,-3.52141e-10,-8.19683e-10,0.0171471,4
45864255,0.997805,-0.00119991,-0.0193463,-0.0633191,0.999853,-3.52141e-10,-8.19683e-10,0.0171471,4
45909303,0.997744,-0.00781571,-0.0149591,-0.0649817,0.999853,-3.52141e-10,-8.19683e-10,0.0171471,4
45964362,0.997521,-0.0173413,-0.0166152,-0.0661396,0.999853,-3.52141e-10,-8.19683e-10,0.0171471,4
46014413,0.997008,-0.026533,-0.0258094,-0.0678651,0.999853,-3.52141e-10,-8.19683e-10,0.0171471,4
46064466,0.996449,-0.0282142,-0.0367264,-0.0703155,0.999853,-3.52141e-10,-8.19683e-10,0.0171471,4
46114519,0.996053,-0.0258428,-0.0416951,-0.0739762,0.999853,-3.52141e-10,-8.19683e-10,0.0171471,4
46164571,0.995895,-0.0185524,-0.0430079,-0.0774592,0.999853,-3.52141e-10,-8.19683e-10,0.0171471,4
46214635,0.995906,-0.013808,-0.0371408,-0.0812413,0.999853,-3.52141e-10,-8.19683e-10,0.0171471,4
46259671,0.995743,-0.0166497,-0.0321356,-0.0847663,0.999853,-3.52141e-10,-8.19683e-10,0.0171471,4
46314729,0.995467,-0.0183782,-0.0277241,-0.0891026,0.999853,-3.52141e-10,-8.19683e-10,0.0171471,4
46364782,0.994699,-0.028708,-0.030018,-0.0940672,0.999853,-3.52141e-10,-8.19683e-10,0.0171471,4
46409829,0.993807,-0.0397545,-0.0332723,-0.098282,0.999853,-3.52141e-10,-8.19683e-10,0.0171471,4
46464887,0.993346,-0.0347718,-0.0355159,-0.103895,0.999853,-3.52141e-10,-8.19683e-10,0.0171471,4
46514940,0.993212,-0.0230611,-0.0358937,-0.108216,0.999853,-3.52141e-10,-8.19683e-10,0.0171471,4
46564999,0.993118,-0.00730686,-0.0303794,-0.112876,0.999853,-3.52141e-10,-8.19683e-10,0.0171471,4
46610040,0.992841,-0.00010525,-0.0277706,-0.116174,0.999853,-3.52141e-10,-8.19683e-10,0.0171471,4
46665098,0.992377,0.00637551,-0.0273353,-0.119997,0.999853,-3.52141e-10,-8.19683e-10,0.0171471,4
46715150,0.991875,-0.00374606,-0.0312458,-0.123259,0.999853,-3.52141e-10,-8.19683e-10,0.0171471,4
46760198,0.990897,-0.0267727,-0.0370078,-0.126636,0.999853,-3.52141e-10,-8.19683e-10,0.0171471,4
46815256,0.989748,-0.0434337,-0.0412948,-0.129646,0.999853,-3.52141e-10,-8.19683e-10,0.0171471,4
46865309,0.989448,-0.0452614,-0.0427938,-0.130815,0.999853,-3.52141e-10,-8.19683e-10,0.0171471,4
46910356,0.989538,-0.0428937,-0.03951,-0.131961,0.999853,-3.52141e-10,-8.19683e-10,0.0171471,4
46960409,0.990088,-0.0273813,-0.035996,-0.132966,0.999853,-3.52141e-10,-8.19683e-10,0.0171471,4
47015474,0.990399,-0.00172128,-0.0357724,-0.133518,0.999853,-3.52141e-10,-8.19683e-10,0.0171471,4
47065521,0.990033,0.012236,-0.041202,-0.134115,0.999853,-3.52141e-10,-8.19683e-10,0.0171471,4
47110567,0.989826,0.0117435,-0.04438,-0.134677,0.999853,-3.52141e-10,-8.19683e-10,0.0171471,4
47165627,0.989637,0.0135693,-0.0445391,-0.13583,0.999853,-3.52141e-10,-8.19683e-10,0.0171471,4
47215677,0.989755,0.0059558,-0.0392918,-0.137132,0.999853,-3.52141e-10,-8.19683e-10,0.0171471,4
47260725,0.989744,-0.00527601,-0.0384929,-0.137467,0.999853,-3.52141e-10,-8.19683e-10,0.0171471,4
47310777,0.989827,-0.0074393,-0.0389262,-0.136646,0.999853,-3.52141e-10,-8.19683e-10,0.0171471,4
47365838,0.990143,0.000740785,-0.0349412,-0.13563,0.999853,-3.52141e-10,-8.19683e-10,0.0171471,4
47410883,0.990355,0.0010706,-0.0302878,-0.135201,0.999853,-3.52141e-10,-8.19683e-10,0.0171471,4
47460935,0.990662,0.00464387,-0.0233679,-0.13424,0.999853,-3.52141e-10,-8.19683e-10,0.0171471,4
47510988,0.990837,0.000574894,-0.020929,-0.133434,0.999853,-3.52141e-10,-8.19683e-10,0.0171471,4
47566046,0.991073,-0.00283863,-0.024145,-0.131084,0.999853,-3.52141e-10,-8.19683e-10,0.0171471,4
47611093,0.991277,-0.00840415,-0.0284449,-0.128414,0.999853,-3.52141e-10,-8.19683e-10,0.0171471,4
47661146,0.99141,-0.0109408,-0.0339205,-0.125838,0.999853,-3.52141e-10,-8.19683e-10,0.0171471,4
47716197,0.99169,-0.0063065,-0.0389308,-0.12246,0.999853,-3.52141e-10,-8.19683e-10,0.0171471,4
47761251,0.991995,-0.00544655,-0.0406635,-0.119426,0.999853,-3.52141e-10,-8.19683e-10,0.0171471,4
47811304,0.992482,-0.000417881,-0.0403463,-0.115546,0.999853,-3.52141e-10,-8.19683e-10,0.0171471,4
47866362,0.993124,0.00268103,-0.0323224,-0.112488,0.999853,-3.52141e-10,-8.19683e-10,0.0171471,4
47911416,0.993633,-0.00324487,-0.0259145,-0.109594,0.999853,-3.52141e-10,-8.19683e-10,0.0171471,4
47961462,0.994082,-0.00739259,-0.0207364,-0.106376,0.999853,-3.52141e-10,-8.19683e-10,0.0171471,4
48011515,0.99433,-0.00869533,-0.0205782,-0.103965,0.999853,-3.52141e-10,-8.19683e-10,0.0171471,4
48066577,0.99442,-0.00845169,-0.0256813,-0.10197,0.999853,-3.52141e-10,-8.19683e-10,0.0171471,4
48111623,0.994319,-0.0152408,-0.0309846,-0.100689,0.999853,-3.52141e-10,-8.19683e-10,0.0171471,4
48161673,0.994141,-0.0229614,-0.0351163,-0.0996133,0.999853,-3.52141e-10,-8.19683e-10,0.0171471,4
48211725,0.993948,-0.0312481,-0.0365914,-0.0987523,0.999853,-3.52141e-10,-8.19683e-10,0.0171471,4
48261778,0.993801,-0.0375575,-0.0360333,-0.098237,0.999853,-3.52141e-10,-8.19683e-10,0.0171471,4
48311831,0.993558,-0.0438204,-0.0345989,-0.0986133,0.999853,-3.52141e-10,-8.19683e-10,0.0171471,4
48361884,0.993356,-0.046314,-0.0353309,-0.099247,0.999853,-3.52141e-10,-8.19683e-10,0.0171471,4
48411936,0.993127,-0.0478382,-0.0369671,-0.100215,0.999853,-3.52141e-10,-8.19683e-10,0.0171471,4
48461989,0.99325,-0.0428596,-0.0355017,-0.101774,0.999853,-3.52141e-10,-8.19683e-10,0.0171471,4
48512042,0.993641,-0.0291944,-0.0342654,-0.103203,0.999853,-3.52141e-10,-8.19683e-10,0.0171471,4
48562094,0.993754,-0.0137408,-0.0342482,-0.105315,0.999853,-3.52141e-10,-8.19683e-10,0.0171471,4
48612142,0.993628,-0.00665999,-0.0365554,-0.106408,0.999853,-3.52141e-10,-8.19683e-10,0.0171471,4
48662200,0.993447,-0.0109436,-0.0340605,-0.108547,0.999853,-3.52141e-10,-8.19683e-10,0.0171471,4
48712252,0.993182,-0.0200632,-0.0324843,-0.110142,0.999853,-3.52141e-10,-8.19683e-10,0.0171471,4
48762305,0.992986,-0.0271155,-0.0288492,-0.111405,0.999853,-3.52141e-10,-8.19683e-10,0.0171471,4
48812358,0.992938,-0.0271772,-0.022759,-0.113211,0.999853,-3.52141e-10,-8.19683e-10,0.0171471,4
48862410,0.99304,-0.0194252,-0.0155791,-0.115115,0.999853,-3.52141e-10,-8.19683e-10,0.0171471,4
48912463,0.993091,-0.00460048,-0.0140619,-0.11641,0.999853,-3.52141e-10,-8.19683e-10,0.0171471,4
48962516,0.992836,0.00517342,-0.0156378,-0.118341,0.999853,-3.52141e-10,-8.19683e-10,0.0171471,4
49012568,0.992646,0.00717516,-0.0220383,-0.118812,0.999853,-3.52141e-10,-8.19683e-10,0.0171471,4
49062621,0.992526,-0.000207383,-0.026276,-0.119171,0.999853,-3.52141e-10,-8.19683e-10,0.0171471,4
49112674,0.992629,-0.00862867,-0.026318,-0.117986,0.999853,-3.52141e-10,-8.19683e-10,0.0171471,4
49162726,0.992765,-0.0129104,-0.0214486,-0.117434,0.999853,-3.52141e-10,-8.19683e-10,0.0171471,4
49212779,0.993012,-0.00978359,-0.0194079,-0.115995,0.999853,-3.52141e-10,-8.19683e-10,0.0171471,4
49262832,0.99316,-0.000992679,-0.019584,-0.115099,0.999853,-3.52141e-10,-8.19683e-10,0.0171471,4
49312884,0.99321,0.00959416,-0.0219995,-0.113832,0.999853,-3.52141e-10,-8.19683e-10,0.0171471,4
49362937,0.993109,0.0170941,-0.0256168,-0.113074,0.999853,-3.52141e-10,-8.19683e-10,0.0171471,4
49412990,0.993028,0.0164585,-0.0313517,-0.112436,0.999853,-3.52141e-10,-8.19683e-10,0.0171471,4
49463042,0.992972,0.0051509,-0.0363832,-0.112504,0.999853,-3.52141e-10,-8.19683e-10,0.0171471,4
49513098,0.992979,-0.00965478,-0.039707,-0.111011,0.999853,-3.52141e-10,-8.19683e-10,0.0171471,4
49563148,0.993152,-0.0191904,-0.0375249,-0.108964,0.999853,-3.52141e-10,-8.19683e-10,0.0171471,4
49613200,0.993516,-0.0196788,-0.0336419,-0.106801,0.999853,-3.52141e-10,-8.19683e-10,0.0171471,4
49663253,0.993942,-0.0123878,-0.0306385,-0.104818,0.999853,-3.52141e-10,-8.19683e-10,0.0171471,4
49713308,0.994166,-0.00303516,-0.0316091,-0.103085,0.999853,-3.52141e-10,-8.19683e-10,0.0171471,4
49763359,0.994111,-0.000266046,-0.0354006,-0.10242,0.999853,-3.52141e-10,-8.19683e-10,0.0171471,4
49813411,0.993961,-0.00865069,-0.0388491,-0.102258,0.999853,-3.52141e-10,-8.19683e-10,0.0171471,4
49863464,0.993556,-0.0233785,-0.0404686,-0.103254,0.999853,-3.52141e-10,-8.19683e-10,0.0171471,4
49913520,0.993117,-0.0370718,-0.0401052,-0.103618,0.999853,-3.52141e-10,-8.19683e-10,0.0171471,4
49963569,0.993017,-0.041004,-0.0377581,-0.103973,0.999853,-3.52141e-10,-8.19683e-10,0.0171471,4
50013629,0.993312,-0.0315933,-0.036423,-0.104908,0.999853,-3.52141e-10,-8.19683e-10,0.0171471,4
50063674,0.993586,-0.0130994,-0.0363135,-0.106287,0.999853,-3.52141e-10,-8.19683e-10,0.0171471,4
50113727,0.993621,0.0073263,-0.0363331,-0.10651,0.999853,-3.52141e-10,-8.19683e-10,0.0171471,4
50163790,0.993364,0.0189212,-0.0360518,-0.107567,0.999853,-3.52141e-10,-8.19683e-10,0.0171471,4
50213832,0.993558,0.006894,-0.036831,-0.106947,0.999853,-3.52141e-10,-8.19683e-10,0.0171471,4
50263885,0.99332,-0.0232185,-0.0367073,-0.106904,0.999853,-3.52141e-10,-8.19683e-10,0.0171471,4
50313937,0.99255,-0.0478643,-0.036391,-0.105973,0.999853,-3.52141e-10,-8.19683e-10,0.0171471,4
50363998,0.992581,-0.0503788,-0.0381878,-0.103858,0.999853,-3.52141e-10,-8.19683e-10,0.0171471,4
50414043,0.993516,-0.0339639,-0.0381701,-0.101564,0.999853,-3.52141e-10,-8.19683e-10,0.0171471,4
50464095,0.994392,-0.0104346,-0.0329116,-0.0999642,0.999853,-3.52141e-10,-8.19683e-10,0.0171471,4
50514148,0.994785,0.00485192,-0.0278421,-0.0980021,0.999853,-3.52141e-10,-8.19683e-10,0.0171471,4
50564201,0.99499,0.00379642,-0.0274146,-0.0960691,0.999853,-3.52141e-10,-8.19683e-10,0.0171471,4
50614253,0.99489,-0.0134711,-0.030994,-0.0951381,0.999853,-3.52141e-10,-8.19683e-10,0.0171471,4
50659302,0.994657,-0.0259398,-0.0332177,-0.094244,0.999853,-3.52141e-10,-8.19683e-10,0.0171471,4
50714359,0.994513,-0.0379069,-0.0296056,-0.0928969,0.999853,-3.52141e-10,-8.19683e-10,0.0171471,4
50764411,0.994968,-0.0317323,-0.0257758,-0.0914738,0.999853,-3.52141e-10,-8.19683e-10,0.0171471,4
50809459,0.99543,-0.0206167,-0.0228437,-0.0904056,0.999853,-3.52141e-10,-8.19683e-10,0.0171471,4
50864517,0.995446,-0.0188872,-0.0239532,-0.0903176,0.999853,-3.52141e-10,-8.19683e-10,0.0171471,4
50914569,0.995357,-0.0171512,-0.0245923,-0.0914642,0.999853,-3.52141e-10,-8.19683e-10,0.0171471,4
50959616,0.995328,-0.0118665,-0.0233073,-0.0929391,0.999853,-3.52141e-10,-8.19683e-10,0.0171471,4
51014674,0.995156,-0.016931,-0.02101,-0.0945335,0.999853,-3.52141e-10,-8.19683e-10,0.0171471,4
51064736,0.994894,-0.0221762,-0.0164329,-0.0970814,0.999853,-3.52141e-10,-8.19683e-10,0.0171471,4
51114780,0.994646,-0.0230839,-0.0125303,-0.0999497,0.999853,-3.52141e-10,-8.19683e-10,0.0171471,4
51159827,0.994473,-0.0143885,-0.0130597,-0.103181,0.999853,-3.52141e-10,-8.19683e-10,0.0171471,4
51214885,0.994074,-0.0106306,-0.0218784,-0.105946,0.999853,-3.52141e-10,-8.19683e-10,0.0171471,4
51264938,0.993658,-0.0113942,-0.0282157,-0.108248,0.999853,-3.52141e-10,-8.19683e-10,0.0171471,4
51309985,0.993433,-0.0148396,-0.0298605,-0.109452,0.999853,-3.52141e-10,-8.19683e-10,0.0171471,4
51365043,0.99297,-0.0286248,-0.0306401,-0.11069,0.999853,-3.52141e-10,-8.19683e-10,0.0171471,4
51415101,0.992658,-0.0354835,-0.0314765,-0.111264,0.999853,-3.52141e-10,-8.19683e-10,0.0171471,4
51460143,0.992609,-0.0340382,-0.0322765,-0.111926,0.999853,-3.52141e-10,-8.19683e-10,0.0171471,4
51510196,0.992686,-0.0296187,-0.0324129,-0.112459,0.999853,-3.52141e-10,-8.19683e-10,0.0171471,4
51565255,0.992489,-0.0282474,-0.0347234,-0.113848,0.999853,-3.52141e-10,-8.19683e-10,0.0171471,4
51615306,0.99224,-0.0252635,-0.0383361,-0.115553,0.999853,-3.52141e-10,-8.19683e-10,0.0171471,4
51660354,0.991916,-0.0185394,-0.0444284,-0.11741,0.999853,-3.52141e-10,-8.19683e-10,0.0171471,4
51715411,0.991453,-0.0208216,-0.0500618,-0.118661,0.999853,-3.52141e-10,-8.19683e-10,0.0171471,4
51765464,0.990958,-0.0228473,-0.0532278,-0.121023,0.999853,-3.52141e-10,-8.19683e-10,0.0171471,4
51810511,0.990776,-0.019156,-0.0511703,-0.124008,0.999853,-3.52141e-10,-8.19683e-10,0.0171471,4
51860567,0.990527,-0.0182197,-0.0493424,-0.126842,0.999853,-3.52141e-10,-8.19683e-10,0.0171471,4
51915622,0.990276,-0.0143109,-0.0489036,-0.129446,0.999853,-3.52141e-10,-8.19683e-10,0.0171471,4
51960669,0.990023,-0.00113094,-0.0506371,-0.131485,0.999853,-3.52141e-10,-8.19683e-10,0.0171471,4
52010722,0.989574,-0.000267722,-0.0526954,-0.134039,0.999853,-3.52141e-10,-8.19683e-10,0.0171471,4
52065780,0.988891,-0.0200952,-0.0519035,-0.137827,0.999853,-3.52141e-10,-8.19683e-10,0.0171471,4
52115836,0.988265,-0.0347675,-0.0477938,-0.14085,0.999853,-3.52141e-10,-8.19683e-10,0.0171471,4
52160880,0.988414,-0.0299207,-0.0405044,-0.143183,0.999853,-3.52141e-10,-8.19683e-10,0.0171471,4
52210932,0.988931,-0.0144054,-0.0311058,-0.14436,0.999853,-3.52141e-10,-8.19683e-10,0.0171471,4
52265990,0.988875,-0.00313123,-0.0268627,-0.14627,0.999853,-3.52141e-10,-8.19683e-10,0.0171471,4
52311037,0.988533,-0.000471293,-0.0273336,-0.148507,0.999853,-3.52141e-10,-8.19683e-10,0.0171471,4
52361090,0.988268,-0.0108782,-0.0287445,-0.149604,0.999853,-3.52141e-10,-8.19683e-10,0.0171471,4
52416148,0.98802,-0.0270337,-0.0291716,-0.149111,0.999853,-3.52141e-10,-8.19683e-10,0.0171471,4
52461195,0.988223,-0.0263198,-0.0264664,-0.148397,0.999853,-3.52141e-10,-8.19683e-10,0.0171471,4
52511248,0.988533,-0.0245791,-0.0260607,-0.146695,0.999853,-3.52141e-10,-8.19683e-10,0.0171471,4
52561307,0.98871,-0.0215166,-0.0299688,-0.145227,0.999853,-3.52141e-10,-8.19683e-10,0.0171471,4
52616359,0.988828,-0.0273565,-0.0344494,-0.142424,0.999853,-3.52141e-10,-8.19683e-10,0.0171471,4
52661406,0.989087,-0.0286619,-0.0353242,-0.140133,0.999853,-3.52141e-10,-8.19683e-10,0.0171471,4
52711458,0.989353,-0.0352682,-0.0322646,-0.137466,0.999853,-3.52141e-10,-8.19683e-10,0.0171471,4
52766516,0.989901,-0.0355739,-0.0245426,-0.135015,0.999853,-3.52141e-10,-8.19683e-10,0.0171471,4
52811570,0.99058,-0.0239005,-0.0191763,-0.133465,0.999853,-3.52141e-10,-8.19683e-10,0.0171471,4
52861616,0.991128,-0.00927059,-0.0158806,-0.131633,0.999853,-3.52141e-10,-8.19683e-10,0.0171471,4
52911669,0.991309,-0.001895,-0.0189772,-0.130163,0.999853,-3.52141e-10,-8.19683e-10,0.0171471,4
52961722,0.991283,-0.00322677,-0.0254322,-0.129235,0.999853,-3.52141e-10,-8.19683e-10,0.0171471,4
53011775,0.99125,-0.00814003,-0.0293704,-0.12843,0.999853,-3.52141e-10,-8.19683e-10,0.0171471,4
53061830,0.99117,-0.0131493,-0.0322652,-0.127936,0.999853,-3.52141e-10,-8.19683e-10,0.0171471,4
53116885,0.991238,-0.0136964,-0.0324094,-0.127317,0.999853,-3.52141e-10,-8.19683e-10,0.0171471,4
53161934,0.991228,-0.013249,-0.031504,-0.12767,0.999853,-3.52141e-10,-8.19683e-10,0.0171471,4
53211984,0.991287,-0.00620424,-0.0321179,-0.127593,0.999853,-3.52141e-10,-8.19683e-10,0.0171471,4
53262037,0.991197,0.00420413,-0.030962,-0.128654,0.999853,-3.52141e-10,-8.19683e-10,0.0171471,4
53312090,0.99096,0.0164691,-0.0282729,-0.13011,0.999853,-3.52141e-10,-8.19683e-10,0.0171471,4
53362142,0.990616,0.0210924,-0.0282504,-0.132051,0.999853,-3.52141e-10,-8.19683e-10,0.0171471,4
53412195,0.990432,0.0171002,-0.0285341,-0.133933,0.999853,-3.52141e-10,-8.19683e-10,0.0171471,4
53462251,0.990218,0.00824951,-0.0288353,-0.136271,0.999853,-3.52141e-10,-8.19683e-10,0.0171471,4
53512300,0.989914,0.00278444,-0.0283724,-0.138774,0.999853,-3.52141e-10,-8.19683e-10,0.0171471,4
53562356,0.989628,0.00365779,-0.0250426,-0.14141,0.999853,-3.52141e-10,-8.19683e-10,0.0171471,4
53612405,0.989319,0.00758237,-0.0206245,-0.144099,0.999853,-3.52141e-10,-8.19683e-10,0.0171471,4
53662458,0.989013,0.00945454,-0.0163949,-0.14661,0.999853,-3.52141e-10,-8.19683e-10,0.0171471,4
53712513,0.988699,0.00640217,-0.015494,-0.148974,0.999853,-3.52141e-10,-8.19683e-10,0.0171471,4
53762563,0.988334,-0.000554585,-0.0179222,-0.151243,0.999853,-3.52141e-10,-8.19683e-10,0.0171471,4
53812618,0.9879,-0.00738755,-0.0202023,-0.15359,0.999853,-3.52141e-10,-8.19683e-10,0.0171471,4
53862668,0.987595,-0.0119484,-0.0180175,-0.155526,0.999853,-3.52141e-10,-8.19683e-10,0.0171471,4
53912721,0.987324,-0.0137421,-0.0118658,-0.157677,0.999853,-3.52141e-10,-8.19683e-10,0.0171471,4
53962776,0.987082,-0.00915615,-0.0041511,-0.159899,0.999853,-3.52141e-10,-8.19683e-10,0.0171471,4
54012826,0.986856,0.000198491,-0.002628,-0.161579,0.999853,-3.52141e-10,-8.19683e-10,0.0171471,4
54062884,0.98654,0.00778819,-0.0103034,-0.163012,0.999853,-3.52141e-10,-8.19683e-10,0.0171471,4
54112931,0.986165,0.00479976,-0.0188659,-0.164622,0.999853,-3.52141e-10,-8.19683e-10,0.0171471,4
54162984,0.985892,-0.0133203,-0.0267024,-0.164699,0.999853,-3.52141e-10,-8.19683e-10,0.0171471,4
54213037,0.985482,-0.0322179,-0.0272158,-0.164462,0.999853,-3.52141e-10,-8.19683e-10,0.0171471,4
54263089,0.985434,-0.0394287,-0.020869,-0.164104,0.999853,-3.52141e-10,-8.19683e-10,0.0171471,4
54313141,0.985657,-0.0337592,-0.0133416,-0.164811,0.999853,-3.52141e-10,-8.19683e-10,0.0171471,4
54363194,0.986018,-0.0190792,-0.0133348,-0.165008,0.999853,-3.52141e-10,-8.19683e-10,0.0171471,4
54413247,0.986032,-0.00294021,-0.0239982,-0.164794,0.999853,-3.52141e-10,-8.19683e-10,0.0171471,4
54463300,0.985972,-0.00166536,-0.029385,-0.164297,0.999853,-3.52141e-10,-8.19683e-10,0.0171471,4
54513352,0.986189,-0.0124403,-0.0273326,-0.162877,0.999853,-3.52141e-10,-8.19683e-10,0.0171471,4
54563413,0.986347,-0.0286662,-0.0179774,-0.161169,0.999853,-3.52141e-10,-8.19683e-10,0.0171471,4
54613457,0.986665,-0.0329691,-0.00978017,-0.159087,0.999853,-3.52141e-10,-8.19683e-10,0.0171471,4
54663510,0.987129,-0.0318256,-0.00377066,-0.156679,0.999853,-3.52141e-10,-8.19683e-10,0.0171471,4
54713562,0.98754,-0.0284404,-0.00705867,-0.154618,0.999853,-3.52141e-10,-8.19683e-10,0.0171471,4
54763622,0.987487,-0.0342047,-0.0163795,-0.153074,0.999853,-3.52141e-10,-8.19683e-10,0.0171471,4
54813668,0.98698,-0.0487307,-0.0216678,-0.151744,0.999853,-3.52141e-10,-8.19683e-10,0.0171471,4
54863720,0.985945,-0.0677134,-0.0206134,-0.151338,0.999853,-3.52141e-10,-8.19683e-10,0.0171471,4
54913773,0.985118,-0.0809133,-0.0197442,-0.150353,0.999853,-3.52141e-10,-8.19683e-10,0.0171471,4
54963825,0.984725,-0.0865882,-0.016761,-0.150127,0.999853,-3.52141e-10,-8.19683e-10,0.0171471,4
55013891,0.985259,-0.0816573,-0.0156918,-0.149501,0.999853,-3.52141e-10,-8.19683e-10,0.0171471,4
55063931,0.98642,-0.0678835,-0.011883,-0.149083,0.999853,-3.52141e-10,-8.19683e-10,0.0171471,4
55113983,0.987353,-0.0540851,-0.00917874,-0.148745,0.999853,-3.52141e-10,-8.19683e-10,0.0171471,4
55164036,0.987795,-0.0473685,-0.0100064,-0.148046,0.999853,-3.52141e-10,-8.19683e-10,0.0171471,4
55214089,0.987744,-0.0493497,-0.0134089,-0.147467,0.999853,-3.52141e-10,-8.19683e-10,0.0171471,4
55264141,0.987586,-0.0522937,-0.018942,-0.146902,0.999853,-3.52141e-10,-8.19683e-10,0.0171471,4
55314194,0.987508,-0.0508605,-0.0269374,-0.146684,0.999853,-3.52141e-10,-8.19683e-10,0.0171471,4
55359241,0.987608,-0.045282,-0.0305221,-0.147131,0.999853,-3.52141e-10,-8.19683e-10,0.0171471,4
55414300,0.98807,-0.0262064,-0.0328752,-0.148157,0.999853,-3.52141e-10,-8.19683e-10,0.0171471,4
55464352,0.988231,-0.0140835,-0.0318208,-0.148956,0.999853,-3.52141e-10,-8.19683e-10,0.0171471,4
55514404,0.988234,-0.00483788,-0.0277431,-0.150337,0.999853,-3.52141e-10,-8.19683e-10,0.0171471,4
55559452,0.988164,-0.00449168,-0.0256692,-0.151175,0.999853,-3.52141e-10,-8.19683e-10,0.0171471,4
55614510,0.987938,-0.00854341,-0.0223553,-0.152987,0.999853,-3.52141e-10,-8.19683e-10,0.0171471,4
55664562,0.987565,-0.0190125,-0.017838,-0.155036,0.999853,-3.52141e-10,-8.19683e-10,0.0171471,4
55709610,0.987113,-0.0268542,-0.0113894,-0.157343,0.999853,-3.52141e-10,-8.19683e-10,0.0171471,4
55764668,0.986476,-0.0246559,-0.0035829,-0.162003,0.999853,-3.52141e-10,-8.19683e-10,0.0171471,4
55814720,0.985895,-0.0115374,-0.00383011,-0.166923,0.999853,-3.52141e-10,-8.19683e-10,0.0171471,4
55859768,0.985337,0.00761079,-0.00915775,-0.170205,0.999853,-3.52141e-10,-8.19683e-10,0.0171471,4
55914826,0.9845,0.0193723,-0.015721,-0.173602,0.999853,-3.52141e-10,-8.19683e-10,0.0171471,4
55964878,0.984044,0.0150796,-0.0193453,-0.176228,0.999853,-3.52141e-10,-8.19683e-10,0.0171471,4
56014931,0.98383,0.00143066,-0.0210763,-0.177855,0.999853,-3.52141e-10,-8.19683e-10,0.0171471,4
56059978,0.983517,-0.017854,-0.0209001,-0.178714,0.999853,-3.52141e-10,-8.19683e-10,0.0171471,4
56115036,0.982749,-0.0396918,-0.0197863,-0.179547,0.999853,-3.52141e-10,-8.19683e-10,0.0171471,4
56165089,0.982647,-0.0421419,-0.0217949,-0.179313,0.999853,-3.52141e-10,-8.19683e-10,0.0171471,4
56210136,0.983076,-0.029753,-0.025292,-0.178986,0.999853,-3.52141e-10,-8.19683e-10,0.0171471,4
56265194,0.983319,-0.0121989,-0.0317705,-0.178678,0.999853,-3.52141e-10,-8.19683e-10,0.0171471,4
56315247,0.983299,0.00125752,-0.0365628,-0.178282,0.999853,-3.52141e-10,-8.19683e-10,0.0171471,4
56360305,0.983207,0.0031378,-0.0402673,-0.177968,0.999853,-3.52141e-10,-8.19683e-10,0.0171471,4
56410347,0.983356,-0.00490388,-0.0387515,-0.17744,0.999853,-3.52141e-10,-8.19683e-10,0.0171471,4
56465405,0.98347,-0.0213754,-0.0306924,-0.177167,0.999853,-3.52141e-10,-8.19683e-10,0.0171471,4
56515458,0.983561,-0.0298547,-0.027982,-0.175876,0.999853,-3.52141e-10,-8.19683e-10,0.0171471,4
56560505,0.983721,-0.0294083,-0.0287969,-0.174927,0.999853,-3.52141e-10,-8.19683e-10,0.0171471,4
56615575,0.984207,-0.0122935,-0.0320086,-0.173667,0.999853,-3.52141e-10,-8.19683e-10,0.0171471,4
56665616,0.98442,0.00261846,-0.031766,-0.172919,0.999853,-3.52141e-10,-8.19683e-10,0.0171471,4
56710677,0.984644,0.00583271,-0.0323399,-0.171456,0.999853,-3.52141e-10,-8.19683e-10,0.0171471,4
56760715,0.984972,0.00151605,-0.031866,-0.169744,0.999853,-3.52141e-10,-8.19683e-10,0.0171471,4
56815773,0.985223,-0.00707088,-0.028886,-0.168675,0.999853,-3.52141e-10,-8.19683e-10,0.0171471,4
56860821,0.985541,-0.0109153,-0.0245576,-0.167295,0.999853,-3.52141e-10,-8.19683e-10,0.0171471,4
56910873,0.986085,-0.00174378,-0.0204816,-0.164965,0.999853,-3.52141e-10,-8.19683e-10,0.0171471,4
56960926,0.986257,0.012524,-0.0184496,-0.163709,0.999853,-3.52141e-10,-8.19683e-10,0.0171471,4
57015984,0.986078,0.0236627,-0.0181056,-0.163592,0.999853,-3.52141e-10,-8.19683e-10,0.0171471,4
57061031,0.986018,0.0246115,-0.0217882,-0.163367,0.999853,-3.52141e-10,-8.19683e-10,0.0171471,4
57111084,0.986055,0.0198151,-0.0275966,-0.162916,0.999853,-3.52141e-10,-8.19683e-10,0.0171471,4
57166142,0.986132,0.00321,-0.0303167,-0.163136,0.999853,-3.52141e-10,-8.19683e-10,0.0171471,4
57211189,0.986178,-0.0126097,-0.0296407,-0.162525,0.999853,-3.52141e-10,-8.19683e-10,0.0171471,4
57261242,0.986343,-0.0182458,-0.0258244,-0.161638,0.999853,-3.52141e-10,-8.19683e-10,0.0171471,4
57316300,0.986709,-0.00904281,-0.0201063,-0.160994,0.999853,-3.52141e-10,-8.19683e-10,0.0171471,4
57361348,0.986925,0.00502816,-0.0149685,-0.160405,0.999853,-3.52141e-10,-8.19683e-10,0.0171471,4
57411400,0.986903,0.0185202,-0.010998,-0.159873,0.999853,-3.52141e-10,-8.19683e-10,0.0171471,4
57461453,0.986943,0.0227999,-0.00940992,-0.159169,0.999853,-3.52141e-10,-8.19683e-10,0.0171471,4
57516511,0.987123,0.00802498,-0.0103945,-0.159421,0.999853,-3.52141e-10,-8.19683e-10,0.0171471,4
57561558,0.987089,-0.0127352,-0.0116825,-0.15924,0.999853,-3.52141e-10,-8.19683e-10,0.0171471,4
57611611,0.986543,-0.0369997,-0.0129394,-0.158737,0.999853,-3.52141e-10,-8.19683e-10,0.0171471,4
57661664,0.985853,-0.0556488,-0.0125231,-0.157607,0.999853,-3.52141e-10,-8.19683e-10,0.0171471,4
57711716,0.985727,-0.0610049,-0.0138791,-0.156294,0.999853,-3.52141e-10,-8.19683e-10,0.0171471,4
57761769,0.986071,-0.057549,-0.0123551,-0.155562,0.999853,-3.52141e-10,-8.19683e-10,0.0171471,4
57811822,0.986644,-0.0507262,-0.0106429,-0.154427,0.999853,-3.52141e-10,-8.19683e-10,0.0171471,4
57861874,0.986804,-0.0489533,-0.00609037,-0.154225,0.999853,-3.52141e-10,-8.19683e-10,0.0171471,4
57911940,0.98691,-0.0484185,-0.00329019,-0.153798,0.999853,-3.52141e-10,-8.19683e-10,0.0171471,4
57961980,0.98666,-0.0513091,-0.00249974,-0.154477,0.999853,-3.52141e-10,-8.19683e-10,0.0171471,4
58017038,0.986233,-0.0578618,-0.00430589,-0.154848,0.999853,-3.52141e-10,-8.19683e-10,0.0171471,4
58062085,0.986539,-0.0477176,-0.0064988,-0.156274,0.999853,-3.52141e-10,-8.19683e-10,0.0171471,4
58112138,0.986987,-0.0314776,-0.00706238,-0.157532,0.999853,-3.52141e-10,-8.19683e-10,0.0171471,4
58162191,0.987221,-0.0121851,-0.00997443,-0.158576,0.999853,-3.52141e-10,-8.19683e-10,0.0171471,4
58212243,0.986981,0.000775094,-0.0184933,-0.159771,0.999853,-3.52141e-10,-8.19683e-10,0.0171471,4
58262296,0.986551,0.00400493,-0.0296292,-0.160696,0.999853,-3.52141e-10,-8.19683e-10,0.0171471,4
58312349,0.986012,0.00123778,-0.035973,-0.162739,0.999853,-3.52141e-10,-8.19683e-10,0.0171471,4
58362401,0.985652,-0.00428322,-0.0370847,-0.16461,0.999853,-3.52141e-10,-8.19683e-10,0.0171471,4
58412454,0.985413,-0.00957602,-0.0336437,-0.166548,0.999853,-3.52141e-10,-8.19683e-10,0.0171471,4
58462507,0.985413,-0.00916435,-0.02721,-0.167743,0.999853,-3.52141e-10,-8.19683e-10,0.0171471,4
58512560,0.985458,-0.00712268,-0.0186536,-0.168745,0.999853,-3.52141e-10,-8.19683e-10,0.0171471,4
58562612,0.985453,-0.001221,-0.0133665,-0.169415,0.999853,-3.52141e-10,-8.19683e-10,0.0171471,4
58612665,0.985204,0.0073751,-0.013583,-0.170688,0.999853,-3.52141e-10,-8.19683e-10,0.0171471,4
58662718,0.984838,0.0174839,-0.0195379,-0.171482,0.999853,-3.52141e-10,-8.19683e-10,0.0171471,4
58712770,0.984425,0.0225464,-0.0254848,-0.172481,0.999853,-3.52141e-10,-8.19683e-10,0.0171471,4
58762823,0.984143,0.0206467,-0.0276169,-0.173991,0.999853,-3.52141e-10,-8.19683e-10,0.0171471,4
58812876,0.984151,0.00880025,-0.027511,-0.174965,0.999853,-3.52141e-10,-8.19683e-10,0.0171471,4
58862929,0.984038,-0.00705972,-0.0241545,-0.17617,0.999853,-3.52141e-10,-8.19683e-10,0.0171471,4
58912981,0.983745,-0.0159615,-0.024917,-0.177115,0.999853,-3.52141e-10,-8.19683e-10,0.0171471,4
58963034,0.983422,-0.0165289,-0.028287,-0.178345,0.999853,-3.52141e-10,-8.19683e-10,0.0171471,4
59013090,0.983225,-0.0115698,-0.029587,-0.179609,0.999853,-3.52141e-10,-8.19683e-10,0.0171471,4
59063139,0.98316,-0.00672567,-0.0281284,-0.180442,0.999853,-3.52141e-10,-8.19683e-10,0.0171471,4
59113192,0.983113,-0.0111271,-0.02541,-0.180886,0.999853,-3.52141e-10,-8.19683e-10,0.0171471,4
59163277,0.982788,-0.0239586,-0.021278,-0.181938,0.999853,-3.52141e-10,-8.19683e-10,0.0171471,4
59213298,0.982216,-0.0377777,-0.0197475,-0.182854,0.999853,-3.52141e-10,-8.19683e-10,0.0171471,4
59263351,0.981668,-0.0449101,-0.0224286,-0.183868,0.999853,-3.52141e-10,-8.19683e-10,0.0171471,4
59313403,0.98166,-0.0391845,-0.0264045,-0.18469,0.999853,-3.52141e-10,-8.19683e-10,0.0171471,4
59363456,0.982195,-0.0219977,-0.0319912,-0.183811,0.999853,-3.52141e-10,-8.19683e-10,0.0171471,4
59413508,0.982453,-0.00819459,-0.0374598,-0.182526,0.999853,-3.52141e-10,-8.19683e-10,0.0171471,4
59463561,0.982654,-0.00162256,-0.0394113,-0.181207,0.999853,-3.52141e-10,-8.19683e-10,0.0171471,4
59513614,0.982888,-0.000849192,-0.0369272,-0.180461,0.999853,-3.52141e-10,-8.19683e-10,0.0171471,4
59563667,0.983276,-0.00020576,-0.0314855,-0.179382,0.999853,-3.52141e-10,-8.19683e-10,0.0171471,4
59613719,0.98368,-0.00169709,-0.0250292,-0.178171,0.999853,-3.52141e-10,-8.19683e-10,0.0171471,4
59663772,0.98405,-0.00247467,-0.0201815,-0.176728,0.999853,-3.52141e-10,-8.19683e-10,0.0171471,4
59713825,0.984322,-0.00289127,-0.0210134,-0.175098,0.999853,-3.52141e-10,-8.19683e-10,0.0171471,4
59763878,0.984629,-0.0020515,-0.0201952,-0.173473,0.999853,-3.52141e-10,-8.19683e-10,0.0171471,4
59813930,0.984995,0.00167979,-0.0177232,-0.171661,0.999853,-3.52141e-10,-8.19683e-10,0.0171471,4
59863983,0.985188,0.00183534,-0.0165943,-0.170666,0.999853,-3.52141e-10,-8.19683e-10,0.0171471,4
59914036,0.985427,0.000628237,-0.0160494,-0.16934,0.999853,-3.52141e-10,-8.19683e-10,0.0171471,4
59964088,0.985634,-0.00200937,-0.0142337,-0.168284,0.999853,-3.52141e-10,-8.19683e-10,0.0171471,4
