timestamp,lat,lon,alt,alt_ellipsoid,delta_alt,eph,epv,terrain_alt,lat_lon_reset_counter,alt_reset_counter,terrain_alt_valid,dead_reckoning
29857525,34.034838633,108.756712552,418.348,390.436,-0.0,1.3453,2.09997,418.247,2,0,1,0
29867532,34.034838625,108.756712545,418.348,390.434,-0.0,1.34555,2.1001,418.247,2,0,1,0
30057729,34.0348383864,108.756712536,418.349,390.432,-0.0,1.34463,2.10023,418.246,2,0,1,0
30257937,34.0348381035,108.756712552,418.352,390.433,-0.0,1.34405,2.10001,418.246,2,0,1,0
30458145,34.0348378595,108.756712619,418.356,390.435,-0.0,1.34351,2.0998,418.246,2,0,1,0
30658359,34.0348375907,108.75671269,418.364,390.441,-0.0,1.34301,2.10007,418.246,2,0,1,0
30858561,34.0348373066,108.756712813,418.371,390.445,-0.0,1.34257,2.09986,418.246,2,0,1,0
31058769,34.034837018,108.756712941,418.377,390.45,-0.0,1.34213,2.10013,418.246,2,0,1,0
31258977,34.0348367236,108.756713063,418.385,390.456,-0.0,1.34175,2.09993,418.246,2,0,1,0
31459185,34.0348364524,108.756713183,418.392,390.461,-0.0,1.34139,2.09974,418.246,2,0,1,0
31659405,34.0348362283,108.75671331,418.4,390.469,-0.0,1.34106,2.10004,418.246,2,0,1,0
31859602,34.0348360627,108.756713552,418.414,390.482,-0.0,1.34074,2.09985,418.246,2,0,1,0
32059809,34.0348358923,108.75671372,418.434,390.501,-0.0,1.34043,2.09968,418.246,2,0,1,0
32260018,34.0348357123,108.7567138,418.45,390.517,-0.0,1.34013,2.09951,418.246,2,0,1,0
32460236,34.0348355386,108.756713874,418.459,390.526,-0.0,1.33988,2.09982,418.246,2,0,1,0
32660438,34.0348353648,108.756713901,418.468,390.535,-0.0,1.33961,2.09965,418.246,2,0,1,0
32860642,34.034835185,108.756713932,418.475,390.542,-0.0,1.33938,2.09949,418.246,2,0,1,0
33060851,34.0348350268,108.756713932,418.48,390.547,-0.0,1.33912,2.09933,418.246,2,0,1,0
33261059,34.0348348837,108.75671389,418.482,390.55,-0.0,1.33887,2.09965,418.246,2,0,1,0
33461274,34.0348347654,108.756713874,418.482,390.55,-0.0,1.33864,2.0995,418.246,2,0,1,0
33661476,34.0348346416,108.756713851,418.487,390.555,-0.0,1.33842,2.09934,418.246,2,0,1,0
33861684,34.0348345204,108.756713864,418.491,390.56,-0.0,1.33821,2.09919,418.246,2,0,1,0
34061899,34.0348343997,108.756713835,418.493,390.564,-0.0,1.338,2.09951,418.246,2,0,1,0
34262101,34.0348342747,108.756713889,418.495,390.568,-0.0,1.33782,2.09936,418.246,2,0,1,0
34462310,34.0348341569,108.756713895,418.494,390.569,-0.0,1.33764,2.09968,418.246,2,0,1,0
34662519,34.0348340521,108.756713893,418.494,390.571,-0.0,1.33747,2.09953,418.246,2,0,1,0
34862727,34.0348339644,108.756713908,418.493,390.573,-0.0,1.33731,2.09937,418.246,2,0,1,0
35062936,34.0348338758,108.756713942,418.491,390.574,-0.0,1.33714,2.09922,0.0,2,0,0,0
35263145,34.0348337894,108.756713984,418.487,390.574,-0.0,1.33699,2.09954,0.0,2,0,0,0
35463354,34.0348337253,108.756713989,418.487,390.577,-0.0,1.33685,2.0994,0.0,2,0,0,0
35663562,34.0348336596,108.756714016,418.489,390.584,-0.0,1.33669,2.09925,0.0,2,0,0,0
35863771,34.0348336012,108.756714074,418.496,390.595,-0.0,1.33654,2.09957,0.0,2,0,0,0
36063980,34.0348335483,108.756714142,418.503,390.605,-0.0,1.33638,2.09941,0.0,2,0,0,0
36264191,34.0348334912,108.756714211,418.507,390.613,-0.0,1.33623,2.09926,0.0,2,0,0,0
36454397,34.0348334234,108.756714233,418.511,390.621,-0.0,1.33585,2.09945,0.0,2,0,0,0
36664607,34.0348333602,108.756714273,418.518,390.632,-0.0,1.33596,2.09942,0.0,2,0,0,0
36864816,34.0348333135,108.756714357,418.52,390.639,-0.0,1.33584,2.09927,0.0,2,0,0,0
37065028,34.0348332777,108.756714451,418.519,390.642,-0.0,1.33572,2.09912,0.0,2,0,0,0
37265234,34.0348332523,108.756714561,418.517,390.645,-0.0,1.33561,2.09944,0.0,2,0,0,0
37455444,34.0348331938,108.7567146,418.518,390.651,-0.0,1.33527,2.09916,0.0,2,0,0,0
37655642,34.0348331154,108.756714628,418.519,390.657,-0.0,1.33517,2.09947,0.0,2,0,0,0
37855851,34.0348330398,108.756714636,418.52,390.662,-0.0,1.33507,2.09931,0.0,2,0,0,0
38056061,34.0348329608,108.756714696,418.529,390.676,-0.0,1.33499,2.09915,0.0,2,0,0,0
38266281,34.0348328839,108.756714748,418.534,390.686,-0.0,1.33513,2.09912,0.0,2,0,0,0
38456483,34.0348328446,108.756714813,418.537,390.695,-0.0,1.3348,2.0993,0.0,2,0,0,0
38656689,34.0348328081,108.756714866,418.546,390.709,-0.0,1.33471,2.09915,0.0,2,0,0,0
38856899,34.0348327817,108.756715002,418.552,390.72,-0.0,1.33461,2.09899,0.0,2,0,0,0
39057108,34.0348326893,108.756715156,418.559,390.732,-0.0,1.3345,2.0993,0.0,2,0,0,0
39257318,34.0348325361,108.756715441,418.587,390.765,-0.0,1.3344,2.09915,0.0,2,0,0,0
39457530,34.0348323655,108.756715757,418.651,390.835,-0.0,1.33431,2.099,0.0,2,0,0,0
39657738,34.0348322577,108.756716164,418.747,390.937,-0.0,1.33422,2.09931,0.0,2,0,0,0
39857947,34.0348320694,108.756716496,418.843,391.041,-0.0,1.33413,2.09916,0.0,2,0,0,0
40058157,34.0348317879,108.756716863,418.936,391.141,-0.0,1.33403,2.099,0.0,2,0,0,0
40258373,34.0348314454,108.756717319,419.049,391.262,-0.0,1.33393,2.09931,0.0,2,0,0,0
40458576,34.0348310638,108.756717715,419.178,391.399,-0.0,1.33384,2.09916,0.0,2,0,0,0
40658788,34.0348306849,108.75671797,419.316,391.546,-0.0,1.33375,2.09901,0.0,2,0,0,0
40858996,34.0348302992,108.756717984,419.462,391.701,-0.0,1.33366,2.09886,0.0,2,0,0,0
41059206,34.0348300118,108.756717913,419.593,391.842,-0.0,1.33358,2.09917,0.0,2,0,0,0
41259416,34.0348297511,108.756717745,419.709,391.968,-0.0,1.3335,2.09902,0.0,2,0,0,0
41459631,34.0348296507,108.756717556,419.826,392.094,-0.0,1.33342,2.09886,0.0,2,0,0,0
41659836,34.0348296818,108.756717564,419.94,392.217,-0.0,1.33335,2.09918,0.0,2,0,0,0
41860046,34.0348297121,108.756717736,420.058,392.343,-0.0,1.33322,2.09902,0.0,2,0,0,0
42060257,34.0348296791,108.756717922,420.163,392.456,-0.0,1.33307,2.09887,0.0,2,0,0,0
42260466,34.0348296142,108.756718084,420.233,392.535,-0.0,1.3329,2.09919,0.0,2,0,0,0
42460683,34.0348296936,108.756718033,420.248,392.558,-0.0,1.33272,2.09904,0.0,2,0,0,0
42660887,34.0348298625,108.756717782,420.22,392.539,-0.0,1.33256,2.09889,0.0,2,0,0,0
42861097,34.0348300479,108.756717484,420.176,392.502,-0.0,1.33243,2.09921,0.0,2,0,0,0
43061314,34.0348301318,108.756717462,420.152,392.485,-0.0,1.33233,2.09905,0.0,2,0,0,0
43261518,34.0348301179,108.756717502,420.155,392.494,-0.0,1.33227,2.09891,0.0,2,0,0,0
43461728,34.0348300763,108.756717982,420.196,392.54,-0.0,1.33225,2.09876,0.0,2,0,0,0
43661939,34.0348300622,108.75671851,420.258,392.608,-0.0,1.33224,2.09908,0.0,2,0,0,0
43862149,34.0348300891,108.756718776,420.335,392.691,-0.0,1.33228,2.09893,0.0,2,0,0,0
44062361,34.0348300808,108.756718908,420.424,392.787,-0.0,1.33229,2.09879,0.0,2,0,0,0
44262570,34.0348299546,108.756718786,420.534,392.904,-0.0,1.33228,2.09912,0.0,2,0,0,0
44462791,34.0348298212,108.756718589,420.643,393.02,-0.0,1.33226,2.09898,0.0,2,0,0,0
44662991,34.0348297081,108.756718503,420.738,393.122,-0.0,1.33222,2.0993,0.0,2,0,0,0
44863202,34.0348294752,108.756718423,420.793,393.186,-0.0,1.33217,2.09916,0.0,2,0,0,0
45063413,34.0348292228,108.756718341,420.8,393.203,-0.0,1.33212,2.09901,0.0,2,0,0,0
45263623,34.0348288736,108.756718244,420.774,393.185,-0.0,1.33205,2.09887,0.0,2,0,0,0
45463834,34.0348284674,108.756718314,420.724,393.146,-0.0,1.33198,2.09919,0.0,2,0,0,0
45664044,34.0348280902,108.75671842,420.667,393.098,-0.0,1.33191,2.09906,0.0,2,0,0,0
45864255,34.0348277501,108.756718539,420.617,393.058,-0.0,1.33186,2.09892,0.0,2,0,0,0
46064466,34.0348274619,108.756718556,420.576,393.026,-0.0,1.33179,2.09879,0.0,2,0,0,0
46254669,34.0348271607,108.7567186,420.544,393.005,-0.0,1.33147,2.09899,0.0,2,0,0,0
46464887,34.0348269704,108.756718596,420.53,392.999,-0.0,1.33162,2.09899,0.0,2,0,0,0
46665098,34.0348268028,108.756718536,420.532,393.012,-0.0,1.33156,2.09931,0.0,2,0,0,0
46865309,34.0348267599,108.756718445,420.547,393.036,-0.0,1.33147,2.09917,0.0,2,0,0,0
47065521,34.0348268337,108.756718289,420.577,393.075,-0.0,1.33137,2.09903,0.0,2,0,0,0
47255719,34.0348269747,108.756718142,420.616,393.123,-0.0,1.33109,2.09923,0.0,2,0,0,0
47455930,34.0348272824,108.756718163,420.663,393.18,-0.0,1.33103,2.0991,0.0,2,0,0,0
47656141,34.0348275651,108.7567182,420.706,393.233,-0.0,1.33098,2.09896,0.0,2,0,0,0
47866362,34.0348278824,108.756718347,420.731,393.268,-0.0,1.33115,2.09896,0.0,2,0,0,0
48066577,34.0348282626,108.756718554,420.723,393.27,-0.0,1.33108,2.09929,0.0,2,0,0,0
48256773,34.0348286396,108.756718684,420.698,393.255,-0.0,1.33078,2.09902,0.0,2,0,0,0
48456984,34.0348290919,108.756718672,420.687,393.254,-0.0,1.3307,2.09935,0.0,2,0,0,0
48657194,34.0348295688,108.756718547,420.696,393.271,-0.0,1.33063,2.09922,0.0,2,0,0,0
48857405,34.0348300918,108.756718457,420.717,393.301,-0.0,1.33056,2.09908,0.0,2,0,0,0
49057617,34.0348306172,108.756718388,420.747,393.34,-0.0,1.3305,2.09895,0.0,2,0,0,0
49257826,34.0348311713,108.756718525,420.775,393.376,-0.0,1.33043,2.09928,0.0,2,0,0,0
49458037,34.0348317433,108.756718701,420.795,393.404,-0.0,1.33034,2.09915,0.0,2,0,0,0
49658248,34.0348323919,108.756718971,420.82,393.436,-0.0,1.33025,2.09901,0.0,2,0,0,0
49858459,34.0348330829,108.756719158,420.841,393.465,-0.0,1.3302,2.09934,0.0,2,0,0,0
50058669,34.0348338333,108.756719354,420.871,393.501,-0.0,1.33012,2.0992,0.0,2,0,0,0
50258879,34.0348346206,108.756719489,420.914,393.551,-0.0,1.33008,2.09952,0.0,2,0,0,0
50459090,34.0348354975,108.756719785,420.941,393.584,-0.0,1.33005,2.09937,0.0,2,0,0,0
50659302,34.0348364074,108.756719962,420.927,393.577,-0.0,1.33001,2.09922,0.0,2,0,0,0
50859511,34.0348373587,108.756720253,420.885,393.541,-0.0,1.32997,2.09908,0.0,2,0,0,0
51059722,34.0348383229,108.756720486,420.845,393.506,-0.0,1.32996,2.0994,0.0,2,0,0,0
51259939,34.0348393082,108.756720774,420.819,393.486,-0.0,1.32993,2.09925,0.0,2,0,0,0
51460143,34.034840249,108.756721007,420.791,393.462,-0.0,1.3299,2.09911,0.0,2,0,0,0
51660354,34.0348412696,108.756721184,420.767,393.442,-0.0,1.32989,2.09943,0.0,2,0,0,0
51860567,34.0348423884,108.756721307,420.751,393.429,-0.0,1.32987,2.09928,0.0,2,0,0,0
52060785,34.0348437326,108.756721468,420.76,393.44,-0.0,1.32987,2.09914,0.0,2,0,0,0
52260985,34.0348451836,108.756721632,420.799,393.482,-0.0,1.32986,2.09946,0.0,2,0,0,0
52461195,34.0348466449,108.756721698,420.845,393.53,-0.0,1.32985,2.09931,0.0,2,0,0,0
52661406,34.0348482101,108.756721848,420.879,393.565,-0.0,1.32983,2.09916,0.0,2,0,0,0
52861616,34.0348497678,108.756721935,420.907,393.595,-0.0,1.32981,2.09902,0.0,2,0,0,0
53061830,34.0348513227,108.756721978,420.917,393.606,-0.0,1.32976,2.09934,0.0,2,0,0,0
53262037,34.0348529373,108.756722156,420.908,393.598,-0.0,1.3297,2.09919,0.0,2,0,0,0
53462251,34.03485461,108.756722433,420.892,393.583,-0.0,1.32963,2.09905,0.0,2,0,0,0
53662458,34.0348563352,108.756722952,420.894,393.585,-0.0,1.32958,2.09936,0.0,2,0,0,0
53862668,34.0348580401,108.756723522,420.925,393.614,-0.0,1.3295,2.09921,0.0,2,0,0,0
54062884,34.0348597314,108.756724238,420.974,393.661,-0.0,1.32941,2.09907,0.0,2,0,0,0
54263089,34.0348613976,108.756724994,421.026,393.712,-0.0,1.32932,2.09938,0.0,2,0,0,0
54463300,34.0348630807,108.756725776,421.064,393.747,-0.0,1.32923,2.09924,0.0,2,0,0,0
54663510,34.0348646657,108.756726494,421.099,393.78,-0.0,1.32913,2.09909,0.0,2,0,0,0
54863720,34.0348662607,108.756727097,421.127,393.804,-0.0,1.32903,2.09894,0.0,2,0,0,0
55063931,34.0348677524,108.756727373,421.145,393.819,-0.0,1.32893,2.09926,0.0,2,0,0,0
55264141,34.0348691493,108.756727236,421.132,393.802,-0.0,1.32882,2.09911,0.0,2,0,0,0
55464352,34.0348705899,108.756727046,421.1,393.767,-0.0,1.32871,2.09942,0.0,2,0,0,0
55664562,34.0348720691,108.756726739,421.073,393.736,-0.0,1.32859,2.09926,0.0,2,0,0,0
55854762,34.0348735044,108.756726534,421.059,393.72,-0.0,1.32825,2.09898,0.0,2,0,0,0
56054973,34.0348749303,108.75672638,421.084,393.741,-0.0,1.32814,2.09929,0.0,2,0,0,0
56265194,34.0348765159,108.756726326,421.127,393.78,-0.0,1.32827,2.09926,0.0,2,0,0,0
56465405,34.0348780215,108.756726104,421.169,393.816,-0.0,1.32815,2.09911,0.0,2,0,0,0
56665616,34.034879649,108.756725964,421.206,393.849,-0.0,1.32804,2.09896,0.0,2,0,0,0
56855819,34.034881208,108.756725784,421.238,393.877,-0.0,1.32771,2.09915,0.0,2,0,0,0
57056026,34.0348829661,108.756725868,421.274,393.909,-0.0,1.3276,2.099,0.0,2,0,0,0
57256237,34.0348847067,108.756726101,421.295,393.928,-0.0,1.32751,2.09931,0.0,2,0,0,0
57456448,34.0348864898,108.756726507,421.301,393.932,-0.0,1.32739,2.09915,0.0,2,0,0,0
57656658,34.034888237,108.756726935,421.303,393.932,-0.0,1.32726,2.099,0.0,2,0,0,0
57856878,34.034889907,108.75672723,421.296,393.924,-0.0,1.32714,2.09885,0.0,2,0,0,0
58057080,34.034891462,108.756727221,421.289,393.916,-0.0,1.32701,2.09916,0.0,2,0,0,0
58257291,34.0348929271,108.756727139,421.288,393.914,-0.0,1.32691,2.09901,0.0,2,0,0,0
58457502,34.0348945014,108.756727107,421.292,393.918,-0.0,1.3268,2.09887,0.0,2,0,0,0
58657713,34.0348961806,108.756727139,421.296,393.922,-0.0,1.3267,2.09873,0.0,2,0,0,0
58857924,34.0348978141,108.75672733,421.314,393.94,-0.0,1.32662,2.09904,0.0,2,0,0,0
59058134,34.034899561,108.756727613,421.341,393.967,-0.0,1.32652,2.09889,0.0,2,0,0,0
59258347,34.034901297,108.75672773,421.382,394.008,-0.0,1.32642,2.09874,0.0,2,0,0,0
59458564,34.0349030792,108.756727841,421.419,394.045,-0.0,1.32632,2.09905,0.0,2,0,0,0
59658767,34.0349049137,108.756727928,421.432,394.059,-0.0,1.32621,2.09891,0.0,2,0,0,0
59858978,34.0349067824,108.756728106,421.417,394.045,-0.0,1.3261,2.09876,0.0,2,0,0,0
60059197,34.034908622,108.756728355,421.367,393.995,-0.0,1.326,2.09908,0.0,2,0,0,0
60259400,34.0349103714,108.756728686,421.304,393.934,-0.0,1.32585,2.09893,0.0,2,0,0,0
60459610,34.0349120669,108.756729102,421.25,393.88,-0.0,1.32575,2.09879,0.0,2,0,0,0
60659822,34.0349137295,108.756729517,421.211,393.841,-0.0,1.32566,2.09865,0.0,2,0,0,0
60860032,34.0349155251,108.756729953,421.193,393.822,-0.0,1.32554,2.09897,0.0,2,0,0,0
61060252,34.0349173527,108.75673036,421.191,393.819,-0.0,1.32546,2.09883,0.0,2,0,0,0
61260454,34.0349191747,108.756730624,421.203,393.829,-0.0,1.32537,2.09869,0.0,2,0,0,0
61460665,34.0349209639,108.756730726,421.224,393.849,-0.0,1.32529,2.09856,0.0,2,0,0,0
61660876,34.0349228303,108.756730756,421.247,393.869,-0.0,1.32522,2.09888,0.0,2,0,0,0
61861087,34.0349246702,108.756730764,421.27,393.891,-0.0,1.32514,2.09874,0.0,2,0,0,0
62061302,34.0349265274,108.75673069,421.29,393.909,-0.0,1.32507,2.09861,0.0,2,0,0,0
62261516,34.0349283436,108.756730678,421.285,393.902,-0.0,1.325,2.09893,0.0,2,0,0,0
62461721,34.0349300578,108.756730686,421.25,393.867,-0.0,1.32492,2.0988,0.0,2,0,0,0
62661930,34.0349316532,108.75673063,421.204,393.82,-0.0,1.32488,2.09867,0.0,2,0,0,0
62862141,34.0349330691,108.756730666,421.166,393.782,-0.0,1.32488,2.09854,0.0,2,0,0,0
63062352,34.0349345876,108.756730754,421.137,393.752,-0.0,1.32488,2.09886,0.0,2,0,0,0
63262563,34.0349360663,108.756730895,421.105,393.719,-0.0,1.32488,2.09873,0.0,2,0,0,0
63462773,34.0349375699,108.756731072,421.076,393.689,-0.0,1.32489,2.0986,0.0,2,0,0,0
63662984,34.0349391156,108.756731174,421.065,393.677,-0.0,1.32491,2.09847,0.0,2,0,0,0
63863195,34.0349407288,108.75673129,421.076,393.687,-0.0,1.32491,2.09879,0.0,2,0,0,0
64063405,34.0349423575,108.756731532,421.106,393.714,-0.0,1.32491,2.09866,0.0,2,0,0,0
64263616,34.0349439775,108.756731925,421.152,393.759,-0.0,1.32491,2.09897,0.0,2,0,0,0
64463827,34.0349456414,108.756732367,421.184,393.789,-0.0,1.32489,2.09883,0.0,2,0,0,0
64664040,34.034947399,108.756732903,421.183,393.787,-0.0,1.32487,2.09869,0.0,2,0,0,0
64864250,34.0349491793,108.756733416,421.154,393.756,-0.0,1.32484,2.099,0.0,2,0,0,0
65064460,34.0349508386,108.756733752,421.135,393.733,-0.0,1.32482,2.09886,0.0,2,0,0,0
65264676,34.0349524286,108.756734001,421.133,393.727,-0.0,1.32481,2.09872,0.0,2,0,0,0
65464879,34.0349539787,108.756734381,421.142,393.73,-0.0,1.32479,2.09858,0.0,2,0,0,0
65655079,34.0349555142,108.756734778,421.161,393.743,-0.0,1.32454,2.09878,0.0,2,0,0,0
65855290,34.0349573164,108.75673538,421.161,393.737,-0.0,1.32452,2.09864,0.0,2,0,0,0
66065511,34.0349592887,108.756736078,421.15,393.719,-0.0,1.32469,2.09862,0.0,2,0,0,0
66265721,34.0349612752,108.756736772,421.156,393.719,-0.0,1.32466,2.09893,0.0,2,0,0,0
66465932,34.0349632658,108.756737514,421.18,393.736,-0.0,1.32464,2.09879,0.0,2,0,0,0
66656132,34.0349649856,108.756738086,421.217,393.766,-0.0,1.3244,2.09853,0.0,2,0,0,0
66856343,34.0349665935,108.756738421,421.265,393.806,-0.0,1.32437,2.09885,0.0,2,0,0,0
67056553,34.0349680981,108.756738566,421.318,393.852,-0.0,1.32432,2.09871,0.0,2,0,0,0
67256764,34.0349694842,108.756738517,421.371,393.897,-0.0,1.32427,2.09857,0.0,2,0,0,0
67466985,34.034971025,108.756738265,421.424,393.941,-0.0,1.32444,2.09901,0.0,2,0,0,0
67657185,34.034972496,108.756738028,421.454,393.962,-0.0,1.32421,2.09874,0.0,2,0,0,0
67857396,34.0349740083,108.756737826,421.489,393.988,-0.0,1.32417,2.09905,0.0,2,0,0,0
68057608,34.0349754836,108.75673769,421.542,394.032,-0.0,1.32413,2.0989,0.0,2,0,0,0
68257832,34.034977062,108.756737673,421.601,394.082,-0.0,1.32409,2.09875,0.0,2,0,0,0
68458030,34.0349786751,108.756737766,421.662,394.132,-0.0,1.32407,2.09861,0.0,2,0,0,0
68658239,34.0349803128,108.756737812,421.717,394.176,-0.0,1.32405,2.09892,0.0,2,0,0,0
68858449,34.034981881,108.756737932,421.741,394.19,-0.0,1.32403,2.09878,0.0,2,0,0,0
69058660,34.0349833748,108.756738173,421.745,394.184,-0.0,1.32401,2.09864,0.0,2,0,0,0
69258871,34.0349848378,108.756738553,421.724,394.153,-0.0,1.32399,2.09895,0.0,2,0,0,0
69459081,34.0349863091,108.756739092,421.695,394.113,-0.0,1.32397,2.09881,0.0,2,0,0,0
69659293,34.0349877005,108.756739721,421.665,394.072,-0.0,1.32394,2.09866,0.0,2,0,0,0
69859519,34.0349890933,108.756740369,421.647,394.043,-0.0,1.32391,2.09898,0.0,2,0,0,0
70059714,34.0349903948,108.756740938,421.621,394.005,-0.0,1.32388,2.09883,0.0,2,0,0,0
70259925,34.0349917255,108.756741351,421.607,393.981,-0.0,1.32382,2.09869,0.0,2,0,0,0
70460136,34.0349931605,108.756741516,421.599,393.962,-0.0,1.32378,2.09855,0.0,2,0,0,0
70660358,34.0349947295,108.756741721,421.61,393.962,-0.0,1.32373,2.09887,0.0,2,0,0,0
70860558,34.034996299,108.756742086,421.642,393.983,-0.0,1.3237,2.09873,0.0,2,0,0,0
71060769,34.034997768,108.756742484,421.691,394.022,-0.0,1.32365,2.09859,0.0,2,0,0,0
71260981,34.0349992088,108.756742917,421.738,394.059,-0.0,1.32362,2.09846,0.0,2,0,0,0
71461191,34.0350006442,108.756743299,421.774,394.084,-0.0,1.3236,2.09878,0.0,2,0,0,0
71661402,34.0350021013,108.756743719,421.755,394.056,-0.0,1.32356,2.09865,0.0,2,0,0,0
71861613,34.0350036694,108.756744118,421.69,393.982,-0.0,1.32352,2.09851,0.0,2,0,0,0
72061825,34.0350052621,108.756744659,421.618,393.901,-0.0,1.32347,2.09883,0.0,2,0,0,0
72262036,34.0350066332,108.756745177,421.577,393.849,-0.0,1.32342,2.0987,0.0,2,0,0,0
72462249,34.0350079306,108.75674569,421.559,393.821,-0.0,1.3234,2.09857,0.0,2,0,0,0
72662458,34.0350091688,108.756746214,421.569,393.821,-0.0,1.32339,2.09889,0.0,2,0,0,0
72862669,34.0350103997,108.756746628,421.608,393.848,-0.0,1.32339,2.09876,0.0,2,0,0,0
73062881,34.0350117379,108.756746951,421.666,393.895,-0.0,1.32341,2.09862,0.0,2,0,0,0
73263092,34.0350130915,108.756747183,421.725,393.942,-0.0,1.32343,2.09849,0.0,2,0,0,0
73463310,34.0350143348,108.756747319,421.792,393.998,-0.0,1.32344,2.09881,0.0,2,0,0,0
73663515,34.0350155889,108.756747485,421.854,394.049,-0.0,1.32348,2.09867,0.0,2,0,0,0
73863726,34.0350168111,108.75674757,421.898,394.081,-0.0,1.32355,2.09854,0.0,2,0,0,0
74063961,34.0350178791,108.756747591,421.922,394.094,-0.0,1.32362,2.09886,0.0,2,0,0,0
74264152,34.0350190359,108.75674763,421.929,394.092,-0.0,1.32368,2.09873,0.0,2,0,0,0
74454349,34.0350201732,108.756747654,421.911,394.065,-0.0,1.32353,2.09848,0.0,2,0,0,0
74664570,34.0350213255,108.756747657,421.887,394.031,-0.0,1.32375,2.09892,0.0,2,0,0,0
74864781,34.0350224487,108.75674774,421.874,394.007,-0.0,1.32378,2.09878,0.0,2,0,0,0
75064992,34.0350236177,108.756747679,421.883,394.005,-0.0,1.3238,2.09865,0.0,2,0,0,0
75255192,34.035024823,108.756747601,421.885,393.996,-0.0,1.32363,2.09884,0.0,2,0,0,0
75455402,34.0350261572,108.756747673,421.889,393.988,-0.0,1.32363,2.09871,0.0,2,0,0,0
75655613,34.0350275554,108.75674786,421.909,393.995,-0.0,1.32363,2.09857,0.0,2,0,0,0
75855823,34.035028966,108.756748029,421.927,394.002,-0.0,1.32363,2.09844,0.0,2,0,0,0
76066044,34.0350304336,108.756748122,421.921,393.983,-0.0,1.32383,2.09843,0.0,2,0,0,0
76256244,34.0350317403,108.756748107,421.895,393.945,-0.0,1.32361,2.09863,0.0,2,0,0,0
76456454,34.0350330675,108.756747974,421.868,393.905,-0.0,1.32361,2.09849,0.0,2,0,0,0
76656665,34.0350342702,108.756747646,421.859,393.883,-0.0,1.32358,2.09881,0.0,2,0,0,0
76856875,34.0350355155,108.756747261,421.871,393.881,-0.0,1.32359,2.09867,0.0,2,0,0,0
77057085,34.0350369071,108.756746885,421.893,393.889,-0.0,1.32357,2.09854,0.0,2,0,0,0
77257299,34.0350383383,108.756746507,421.921,393.902,-0.0,1.32359,2.09886,0.0,2,0,0,0
77457507,34.0350396866,108.756746195,421.961,393.926,-0.0,1.32361,2.09872,0.0,2,0,0,0
77657716,34.035041036,108.75674597,422.004,393.956,-0.0,1.32363,2.09859,0.0,2,0,0,0
77857924,34.0350424123,108.756745725,422.032,393.968,-0.0,1.32367,2.09846,0.0,2,0,0,0
78058134,34.0350440133,108.756745486,422.047,393.969,-0.0,1.3237,2.09877,0.0,2,0,0,0
78258347,34.0350456112,108.756745107,422.048,393.956,-0.0,1.32375,2.09864,0.0,2,0,0,0
78458554,34.0350472584,108.756744815,422.011,393.906,-0.0,1.32379,2.0985,0.0,2,0,0,0
78658764,34.0350489433,108.756744739,421.982,393.864,-0.0,1.32383,2.09882,0.0,2,0,0,0
78858976,34.0350505687,108.75674478,421.988,393.855,-0.0,1.32388,2.09868,0.0,2,0,0,0
79059183,34.0350522126,108.756744877,422.006,393.86,-0.0,1.32392,2.09855,0.0,2,0,0,0
79259386,34.0350537341,108.756744831,422.032,393.872,-0.0,1.32397,2.09887,0.0,2,0,0,0
79459603,34.0350552905,108.756744592,422.068,393.894,-0.0,1.32401,2.09874,0.0,2,0,0,0
79659812,34.0350569343,108.756744358,422.106,393.918,-0.0,1.32405,2.0986,0.0,2,0,0,0
79860022,34.0350583954,108.756744063,422.14,393.938,-0.0,1.32408,2.09892,0.0,2,0,0,0
80060242,34.035060042,108.756743845,422.144,393.929,-0.0,1.32411,2.09878,0.0,2,0,0,0
80260450,34.0350616591,108.756743695,422.107,393.879,-0.0,1.32413,2.09864,0.0,2,0,0,0
80460651,34.0350632555,108.756743786,422.06,393.82,-0.0,1.32415,2.09851,0.0,2,0,0,0
80660861,34.0350648899,108.756744023,422.027,393.775,-0.0,1.32417,2.09882,0.0,2,0,0,0
80861070,34.0350665704,108.756744402,421.991,393.728,-0.0,1.32419,2.09869,0.0,2,0,0,0
81061281,34.035068229,108.756744871,421.95,393.676,-0.0,1.3242,2.09855,0.0,2,0,0,0
81261490,34.0350698031,108.756745388,421.91,393.624,-0.0,1.32421,2.09842,0.0,2,0,0,0
81461700,34.0350713879,108.756746026,421.869,393.573,-0.0,1.32421,2.09874,0.0,2,0,0,0
81661917,34.0350728235,108.75674663,421.837,393.529,-0.0,1.32421,2.09861,0.0,2,0,0,0
81862120,34.0350740512,108.75674704,421.808,393.489,-0.0,1.32421,2.09848,0.0,2,0,0,0
82062331,34.0350751199,108.756747326,421.779,393.45,-0.0,1.32421,2.0988,0.0,2,0,0,0
82262539,34.0350760997,108.756747544,421.756,393.416,-0.0,1.32421,2.09867,0.0,2,0,0,0
82462749,34.0350771155,108.756747595,421.753,393.403,-0.0,1.3242,2.09854,0.0,2,0,0,0
82662959,34.0350783403,108.756747529,421.751,393.391,-0.0,1.32421,2.09841,0.0,2,0,0,0
82863169,34.03507963,108.756747412,421.743,393.375,-0.0,1.32421,2.09873,0.0,2,0,0,0
83063379,34.035081042,108.756747386,421.751,393.373,-0.0,1.32423,2.09861,0.0,2,0,0,0
83263589,34.0350823725,108.756747489,421.772,393.384,-0.0,1.32422,2.09847,0.0,2,0,0,0
83463799,34.0350836543,108.75674771,421.8,393.404,-0.0,1.32422,2.09879,0.0,2,0,0,0
83664009,34.0350848099,108.75674794,421.832,393.427,-0.0,1.32422,2.09866,0.0,2,0,0,0
83864227,34.0350859824,108.756748222,421.842,393.429,-0.0,1.32422,2.09853,0.0,2,0,0,0
84054419,34.0350871057,108.756748534,421.837,393.416,-0.0,1.32401,2.09872,0.0,2,0,0,0
84264640,34.0350881828,108.756748766,421.84,393.412,-0.0,1.32422,2.09871,0.0,2,0,0,0
84464850,34.0350890158,108.756748973,421.852,393.416,-0.0,1.32424,2.09858,0.0,2,0,0,0
84665063,34.0350895287,108.75674902,421.857,393.412,-0.0,1.3243,2.09845,0.0,2,0,0,0
84865279,34.0350899008,108.756748881,421.846,393.395,-0.0,1.32435,2.09878,0.0,2,0,0,0
85055482,34.0350901862,108.756748496,421.796,393.337,-0.0,1.3242,2.09853,0.0,2,0,0,0
85255683,34.0350906046,108.75674761,421.717,393.252,-0.0,1.32427,2.09884,0.0,2,0,0,0
85455891,34.0350910435,108.756746426,421.631,393.159,-0.0,1.32436,2.0987,0.0,2,0,0,0
85656102,34.0350915174,108.756745156,421.557,393.078,-0.0,1.32445,2.09856,0.0,2,0,0,0
85866323,34.0350917772,108.756743712,421.512,393.025,-0.0,1.32473,2.09854,0.0,2,0,0,0
86056523,34.0350918804,108.756742271,421.474,392.979,-0.0,1.32457,2.09873,0.0,2,0,0,0
86256733,34.0350918301,108.756740776,421.427,392.925,-0.0,1.32461,2.09859,0.0,2,0,0,0
86456943,34.035091576,108.75673935,421.417,392.909,-0.0,1.32465,2.09845,0.0,2,0,0,0
86657154,34.0350911537,108.756737897,421.405,392.891,-0.0,1.3247,2.09877,0.0,2,0,0,0
86857364,34.0350906822,108.756736391,421.407,392.887,-0.0,1.32473,2.09862,0.0,2,0,0,0
87057579,34.0350900499,108.756735032,421.431,392.906,-0.0,1.32475,2.09894,0.0,2,0,0,0
87257786,34.0350892067,108.756733836,421.474,392.943,-0.0,1.32477,2.09879,0.0,2,0,0,0
87457996,34.0350881896,108.756732877,421.529,392.993,-0.0,1.32479,2.09865,0.0,2,0,0,0
87658206,34.0350870803,108.756732136,421.588,393.046,-0.0,1.32482,2.09852,0.0,2,0,0,0
87858416,34.0350858057,108.756731652,421.641,393.095,-0.0,1.32485,2.09883,0.0,2,0,0,0
88058620,34.035084263,108.756731389,421.676,393.125,-0.0,1.32488,2.09869,0.0,2,0,0,0
88258839,34.0350825546,108.756731322,421.688,393.132,-0.0,1.32494,2.09856,0.0,2,0,0,0
88459047,34.0350807068,108.756731526,421.672,393.112,-0.0,1.32498,2.09887,0.0,2,0,0,0
88659259,34.0350788496,108.756731871,421.655,393.089,-0.0,1.32504,2.09872,0.0,2,0,0,0
88859467,34.0350770693,108.756732437,421.638,393.067,-0.0,1.32508,2.09857,0.0,2,0,0,0
89059678,34.0350752908,108.756733273,421.621,393.044,-0.0,1.32512,2.09888,0.0,2,0,0,0
89259888,34.0350735346,108.75673408,421.615,393.033,-0.0,1.32518,2.09874,0.0,2,0,0,0
89460098,34.0350718262,108.756734846,421.611,393.023,-0.0,1.32522,2.09859,0.0,2,0,0,0
89660319,34.035070131,108.756735473,421.621,393.028,-0.0,1.32525,2.09891,0.0,2,0,0,0
89860522,34.0350685173,108.756735924,421.626,393.028,-0.0,1.32531,2.09876,0.0,2,0,0,0
90060729,34.0350669729,108.756736111,421.631,393.027,-0.0,1.32535,2.09863,0.0,2,0,0,0
90260952,34.0350653698,108.756736187,421.631,393.023,-0.0,1.32541,2.09849,0.0,2,0,0,0
90461150,34.035063848,108.756736153,421.626,393.013,-0.0,1.32549,2.0988,0.0,2,0,0,0
90661360,34.0350624589,108.756735667,421.602,392.984,-0.0,1.32555,2.09866,0.0,2,0,0,0
90861570,34.0350610758,108.75673502,421.587,392.963,-0.0,1.32561,2.09852,0.0,2,0,0,0
91061780,34.0350597436,108.756734381,421.576,392.946,-0.0,1.32567,2.09883,0.0,2,0,0,0
91261999,34.0350584761,108.756733825,421.578,392.942,-0.0,1.32574,2.0987,0.0,2,0,0,0
91462201,34.0350571636,108.756733491,421.599,392.956,-0.0,1.32581,2.09856,0.0,2,0,0,0
91662411,34.0350557977,108.75673299,421.622,392.973,-0.0,1.32587,2.09888,0.0,2,0,0,0
91862621,34.0350544818,108.756732613,421.646,392.99,-0.0,1.32595,2.09874,0.0,2,0,0,0
92062831,34.0350532555,108.756732114,421.651,392.99,-0.0,1.326,2.09861,0.0,2,0,0,0
92263042,34.0350521051,108.756731529,421.637,392.972,-0.0,1.32601,2.09848,0.0,2,0,0,0
92463254,34.0350510974,108.756730705,421.616,392.946,-0.0,1.32603,2.0988,0.0,2,0,0,0
92663462,34.0350502792,108.756729758,421.605,392.931,-0.0,1.32604,2.09867,0.0,2,0,0,0
92863673,34.0350494331,108.756728756,421.595,392.919,-0.0,1.32604,2.09854,0.0,2,0,0,0
93063882,34.0350484685,108.756727771,421.611,392.933,-0.0,1.32607,2.09841,0.0,2,0,0,0
93264109,34.0350474537,108.756726667,421.601,392.92,-0.0,1.32608,2.09873,0.0,2,0,0,0
93464303,34.0350463399,108.756725463,421.568,392.883,-0.0,1.32611,2.09861,0.0,2,0,0,0
93664513,34.0350452926,108.756724276,421.533,392.845,-0.0,1.32615,2.09848,0.0,2,0,0,0
93854712,34.0350443217,108.756723175,421.507,392.816,-0.0,1.32598,2.09867,0.0,2,0,0,0
94064932,34.0350433844,108.756722054,421.5,392.804,-0.0,1.32624,2.09866,0.0,2,0,0,0
94265142,34.0350426496,108.756720824,421.485,392.785,-0.0,1.32629,2.09853,0.0,2,0,0,0
94465353,34.0350419483,108.756719619,421.468,392.763,-0.0,1.32634,2.09886,0.0,2,0,0,0
94665562,34.0350411867,108.756718454,421.441,392.731,-0.0,1.32637,2.09872,0.0,2,0,0,0
94855761,34.0350404044,108.756717255,421.432,392.717,-0.0,1.32621,2.09847,0.0,2,0,0,0
95055971,34.0350396047,108.756716145,421.475,392.756,-0.0,1.32624,2.09879,0.0,2,0,0,0
95256180,34.035038871,108.756714901,421.557,392.831,-0.0,1.32629,2.09866,0.0,2,0,0,0
95466400,34.0350380371,108.756713649,421.635,392.904,-0.0,1.32655,2.09866,0.0,2,0,0,0
95666609,34.0350373006,108.756712409,421.699,392.962,-0.0,1.32658,2.09853,0.0,2,0,0,0
95856808,34.03503669,108.756711279,421.742,393.001,-0.0,1.32642,2.09873,0.0,2,0,0,0
96057017,34.0350360592,108.756710157,421.79,393.043,-0.0,1.32649,2.09859,0.0,2,0,0,0
96257226,34.0350353071,108.756709116,421.833,393.081,-0.0,1.32659,2.09846,0.0,2,0,0,0
96457435,34.0350344806,108.756708082,421.848,393.09,-0.0,1.32667,2.09878,0.0,2,0,0,0
96657644,34.035033752,108.756706985,421.836,393.074,-0.0,1.3268,2.09865,0.0,2,0,0,0
96857852,34.0350332689,108.756705865,421.808,393.041,-0.0,1.32693,2.09851,0.0,2,0,0,0
97058061,34.0350329312,108.756704634,421.771,393.002,-0.0,1.32706,2.09884,0.0,2,0,0,0
97258277,34.035032547,108.756703234,421.73,392.96,-0.0,1.32717,2.0987,0.0,2,0,0,0
97458477,34.0350322287,108.756701656,421.696,392.926,-0.0,1.32728,2.09901,0.0,2,0,0,0
97658688,34.0350317537,108.756700045,421.668,392.899,-0.0,1.32737,2.09886,0.0,2,0,0,0
97858894,34.0350310721,108.756698492,421.644,392.874,-0.0,1.32745,2.09872,0.0,2,0,0,0
98059102,34.0350301773,108.756697125,421.624,392.855,-0.0,1.32753,2.09858,0.0,2,0,0,0
98259310,34.0350291068,108.756695839,421.616,392.848,-0.0,1.32759,2.09889,0.0,2,0,0,0
98459525,34.035027958,108.756694466,421.621,392.853,-0.0,1.32766,2.09875,0.0,2,0,0,0
98659725,34.0350269888,108.756692997,421.63,392.862,-0.0,1.32771,2.09861,0.0,2,0,0,0
98859933,34.0350262259,108.756691559,421.647,392.879,-0.0,1.32776,2.09848,0.0,2,0,0,0
99060141,34.0350255557,108.756690226,421.646,392.878,-0.0,1.32778,2.09879,0.0,2,0,0,0
99260348,34.0350251611,108.75668882,421.604,392.837,-0.0,1.32779,2.09866,0.0,2,0,0,0
99460556,34.0350248326,108.756687443,421.548,392.781,-0.0,1.32779,2.09852,0.0,2,0,0,0
99660766,34.0350246833,108.75668599,421.508,392.742,-0.0,1.32779,2.09884,0.0,2,0,0,0
99860980,34.0350244744,108.75668435,421.486,392.72,-0.0,1.32779,2.09871,0.0,2,0,0,0
100061178,34.0350243441,108.756682696,421.463,392.697,-0.0,1.32777,2.09858,0.0,2,0,0,0
100261394,34.0350242396,108.756680984,421.473,392.706,-0.0,1.32776,2.09844,0.0,2,0,0,0
100461593,34.0350240588,108.756679291,421.496,392.727,-0.0,1.32773,2.09876,0.0,2,0,0,0
100661802,34.035023978,108.756677574,421.52,392.75,-0.0,1.3277,2.09863,0.0,2,0,0,0
100862007,34.0350237642,108.75667595,421.543,392.771,-0.0,1.32766,2.09851,0.0,2,0,0,0
101062218,34.035023567,108.756674233,421.572,392.798,-0.0,1.3276,2.09882,0.0,2,0,0,0
101262422,34.0350233047,108.756672539,421.601,392.826,-0.0,1.32756,2.09869,0.0,2,0,0,0
101462629,34.0350230679,108.75667079,421.625,392.847,-0.0,1.32753,2.09855,0.0,2,0,0,0
101662840,34.0350229852,108.75666905,421.642,392.861,-0.0,1.32749,2.09887,0.0,2,0,0,0
101863044,34.0350229517,108.756667304,421.663,392.879,-0.0,1.32745,2.09873,0.0,2,0,0,0
102063253,34.0350230766,108.756665442,421.69,392.902,-0.0,1.32741,2.0986,0.0,2,0,0,0
102263458,34.0350232387,108.756663523,421.742,392.949,-0.0,1.32738,2.09847,0.0,2,0,0,0
102463665,34.0350235846,108.756661637,421.783,392.985,-0.0,1.32733,2.09878,0.0,2,0,0,0
102663880,34.0350239556,108.756659694,421.832,393.027,-0.0,1.3273,2.09864,0.0,2,0,0,0
102864080,34.0350244115,108.756657628,421.868,393.057,-0.0,1.32725,2.09895,0.0,2,0,0,0
103064289,34.0350249424,108.756655461,421.874,393.058,-0.0,1.32721,2.09881,0.0,2,0,0,0
103264495,34.0350253757,108.75665325,421.866,393.045,-0.0,1.32716,2.09866,0.0,2,0,0,0
103454692,34.035025789,108.756651017,421.83,393.003,-0.0,1.32693,2.09885,0.0,2,0,0,0
103654899,34.0350262122,108.756648732,421.785,392.952,-0.0,1.32687,2.09871,0.0,2,0,0,0
103865117,34.0350266962,108.756646487,421.751,392.913,-0.0,1.32703,2.0987,0.0,2,0,0,0
104065324,34.0350273321,108.756644581,421.719,392.874,-0.0,1.32698,2.09856,0.0,2,0,0,0
104265539,34.035027904,108.756642787,421.696,392.844,-0.0,1.32695,2.09888,0.0,2,0,0,0
104465741,34.0350285037,108.756640938,421.686,392.827,-0.0,1.32689,2.09874,0.0,2,0,0,0
104655939,34.0350291106,108.756639153,421.677,392.81,-0.0,1.32666,2.09849,0.0,2,0,0,0
104856143,34.0350298881,108.756637156,421.651,392.779,-0.0,1.32665,2.09881,0.0,2,0,0,0
105056353,34.0350306879,108.756635123,421.624,392.745,-0.0,1.32664,2.09868,0.0,2,0,0,0
105266568,34.03503164,108.756633084,421.597,392.712,-0.0,1.32684,2.09867,0.0,2,0,0,0
105456766,34.0350324791,108.756631376,421.595,392.706,-0.0,1.32662,2.09841,0.0,2,0,0,0
105656973,34.0350334368,108.756629712,421.619,392.725,-0.0,1.32663,2.09874,0.0,2,0,0,0
105857180,34.03503468,108.756628112,421.66,392.761,-0.0,1.32664,2.09861,0.0,2,0,0,0
106057399,34.0350360258,108.75662649,421.696,392.793,-0.0,1.32665,2.09892,0.0,2,0,0,0
106257597,34.0350374669,108.756624982,421.721,392.814,-0.0,1.32666,2.09877,0.0,2,0,0,0
106457806,34.0350388678,108.756623519,421.707,392.797,-0.0,1.32666,2.09862,0.0,2,0,0,0
106658012,34.0350401997,108.75662217,421.662,392.749,-0.0,1.32664,2.09893,0.0,2,0,0,0
106858220,34.0350414103,108.756620874,421.593,392.678,-0.0,1.32662,2.09878,0.0,2,0,0,0
107058426,34.0350424434,108.756619512,421.529,392.61,-0.0,1.3266,2.09864,0.0,2,0,0,0
107258634,34.0350436802,108.756618188,421.463,392.539,-0.0,1.32656,2.09895,0.0,2,0,0,0
107458845,34.0350451464,108.756616934,421.408,392.479,-0.0,1.32652,2.09881,0.0,2,0,0,0
107659049,34.0350468595,108.756615815,421.369,392.434,-0.0,1.32654,2.09867,0.0,2,0,0,0
107859256,34.0350484949,108.756614924,421.346,392.405,-0.0,1.32658,2.09853,0.0,2,0,0,0
108059464,34.0350501756,108.756614095,421.333,392.387,-0.0,1.32662,2.09885,0.0,2,0,0,0
108259672,34.0350518566,108.756613326,421.344,392.392,-0.0,1.32665,2.09871,0.0,2,0,0,0
108459886,34.0350535082,108.756612341,421.358,392.402,-0.0,1.32668,2.09858,0.0,2,0,0,0
108660087,34.035055204,108.756611186,421.351,392.392,-0.0,1.32667,2.09844,0.0,2,0,0,0
108860305,34.0350569831,108.756609918,421.311,392.349,-0.0,1.32668,2.09876,0.0,2,0,0,0
109060507,34.0350588343,108.756608603,421.243,392.279,-0.0,1.32667,2.09862,0.0,2,0,0,0
109260711,34.0350606009,108.756607174,421.178,392.213,-0.0,1.32664,2.09849,0.0,2,0,0,0
109460919,34.035062282,108.756605778,421.134,392.168,-0.0,1.32661,2.09881,0.0,2,0,0,0
109661126,34.0350639266,108.75660461,421.13,392.162,-0.0,1.32658,2.09867,0.0,2,0,0,0
109861334,34.0350655952,108.7566038,421.141,392.173,-0.0,1.32655,2.09853,0.0,2,0,0,0
110061541,34.0350673346,108.756603241,421.145,392.177,-0.0,1.32652,2.09885,0.0,2,0,0,0
110261749,34.0350689758,108.756602523,421.133,392.165,-0.0,1.32648,2.09872,0.0,2,0,0,0
110461957,34.0350706294,108.756601956,421.099,392.132,-0.0,1.32645,2.09858,0.0,2,0,0,0
110662171,34.0350723234,108.756601461,421.078,392.113,-0.0,1.32641,2.09845,0.0,2,0,0,0
110862372,34.0350740484,108.756601192,421.057,392.094,-0.0,1.32636,2.09877,0.0,2,0,0,0
111062580,34.0350757891,108.75660101,421.038,392.078,-0.0,1.32633,2.09863,0.0,2,0,0,0
111262787,34.035077523,108.756600901,421.036,392.079,-0.0,1.32627,2.0985,0.0,2,0,0,0
111462995,34.0350793499,108.756600738,421.023,392.07,-0.0,1.32623,2.09883,0.0,2,0,0,0
111663203,34.0350813005,108.756600463,420.997,392.049,-0.0,1.32621,2.0987,0.0,2,0,0,0
111863420,34.0350832617,108.756600357,420.985,392.041,-0.0,1.32618,2.09857,0.0,2,0,0,0
112063618,34.0350852739,108.756600391,420.983,392.044,-0.0,1.32614,2.09844,0.0,2,0,0,0
112263825,34.0350872526,108.756600552,420.994,392.061,-0.0,1.3261,2.09876,0.0,2,0,0,0
112464048,34.0350891754,108.75660052,421.013,392.087,-0.0,1.32606,2.09863,0.0,2,0,0,0
112664240,34.0350910115,108.75660027,421.028,392.108,-0.0,1.32602,2.09851,0.0,2,0,0,0
112864447,34.0350928082,108.756600152,421.019,392.106,-0.0,1.32596,2.09838,0.0,2,0,0,0
113064655,34.0350945089,108.75659987,420.992,392.086,-0.0,1.32591,2.0987,0.0,2,0,0,0
113254855,34.0350960356,108.756599777,420.962,392.063,-0.0,1.32565,2.09844,0.0,2,0,0,0
113455059,34.0350974695,108.756599711,420.931,392.039,-0.0,1.3256,2.09876,0.0,2,0,0,0
113655272,34.0350988124,108.756599879,420.912,392.025,-0.0,1.32554,2.09863,0.0,2,0,0,0
113865483,34.0351001062,108.756600124,420.913,392.031,-0.0,1.32569,2.09862,0.0,2,0,0,0
114065691,34.035101266,108.756600151,420.917,392.04,-0.0,1.32565,2.09849,0.0,2,0,0,0
114255898,34.0351022713,108.756599863,420.919,392.047,-0.0,1.32543,2.09869,0.0,2,0,0,0
114456095,34.0351033231,108.756599362,420.919,392.051,-0.0,1.32539,2.09856,0.0,2,0,0,0
114656302,34.0351042773,108.756598774,420.91,392.047,-0.0,1.32537,2.09844,0.0,2,0,0,0
114856515,34.0351051379,108.756598077,420.913,392.054,-0.0,1.32534,2.09876,0.0,2,0,0,0
115066727,34.0351059761,108.756597295,420.921,392.067,-0.0,1.32552,2.09875,0.0,2,0,0,0
115256928,34.0351065754,108.756596384,420.923,392.074,-0.0,1.3253,2.09849,0.0,2,0,0,0
115457131,34.0351071666,108.756595124,420.925,392.081,-0.0,1.32528,2.09881,0.0,2,0,0,0
115657338,34.0351076427,108.756593698,420.913,392.075,-0.0,1.32525,2.09868,0.0,2,0,0,0
115857545,34.0351080035,108.756592302,420.888,392.054,-0.0,1.32521,2.09855,0.0,2,0,0,0
116057754,34.0351081626,108.756590987,420.87,392.042,-0.0,1.32517,2.09841,0.0,2,0,0,0
116257960,34.0351081145,108.756589787,420.858,392.035,-0.0,1.32514,2.09873,0.0,2,0,0,0
116458166,34.0351078771,108.756588726,420.854,392.037,-0.0,1.3251,2.0986,0.0,2,0,0,0
116658374,34.0351073055,108.756587819,420.855,392.044,-0.0,1.32507,2.09847,0.0,2,0,0,0
116858581,34.0351066617,108.756586872,420.854,392.048,-0.0,1.32507,2.09878,0.0,2,0,0,0
117058788,34.0351058099,108.756586038,420.849,392.049,-0.0,1.32507,2.09865,0.0,2,0,0,0
117258995,34.0351047613,108.756585075,420.837,392.043,-0.0,1.32506,2.09851,0.0,2,0,0,0
117459202,34.0351034605,108.756584162,420.83,392.042,-0.0,1.32505,2.09883,0.0,2,0,0,0
117659409,34.0351019864,108.75658311,420.826,392.044,-0.0,1.32505,2.0987,0.0,2,0,0,0
117859617,34.0351003741,108.756582215,420.838,392.061,-0.0,1.32507,2.09856,0.0,2,0,0,0
118059824,34.0350987481,108.75658162,420.866,392.093,-0.0,1.32511,2.09843,0.0,2,0,0,0
118260033,34.0350971156,108.756581236,420.906,392.139,-0.0,1.32514,2.09874,0.0,2,0,0,0
118460252,34.0350954671,108.756581046,420.954,392.191,-0.0,1.3252,2.09905,0.0,2,0,0,0
118660446,34.0350938104,108.756580976,420.998,392.24,-0.0,1.32527,2.0989,0.0,2,0,0,0
118860653,34.0350920249,108.756581001,421.034,392.28,-0.0,1.32536,2.09875,0.0,2,0,0,0
119060860,34.0350901921,108.756580772,421.031,392.281,-0.0,1.32545,2.09906,0.0,2,0,0,0
119261067,34.0350884145,108.756580773,420.996,392.25,-0.0,1.32555,2.09891,0.0,2,0,0,0
119461281,34.0350866766,108.756580772,420.932,392.189,-0.0,1.32569,2.09876,0.0,2,0,0,0
119661482,34.0350850523,108.756580985,420.865,392.126,-0.0,1.32582,2.09862,0.0,2,0,0,0
119861689,34.0350835391,108.756581183,420.827,392.09,-0.0,1.32597,2.09893,0.0,2,0,0,0
120061897,34.035082077,108.756581612,420.811,392.076,-0.0,1.32614,2.09878,0.0,2,0,0,0
120262103,34.0350805451,108.756582379,420.787,392.054,-0.0,1.3263,2.09908,0.0,2,0,0,0
120462310,34.0350788418,108.756583076,420.759,392.027,-0.0,1.32648,2.09892,0.0,2,0,0,0
120662517,34.0350771981,108.756583767,420.724,391.992,-0.0,1.32668,2.09877,0.0,2,0,0,0
120862724,34.0350755342,108.756584224,420.691,391.958,-0.0,1.3269,2.09862,0.0,2,0,0,0
121062934,34.0350739605,108.75658454,420.67,391.936,-0.0,1.32711,2.09893,0.0,2,0,0,0
121263140,34.0350723052,108.756584592,420.656,391.921,-0.0,1.32734,2.09878,0.0,2,0,0,0
121463346,34.0350704963,108.756584865,420.659,391.923,-0.0,1.32756,2.09864,0.0,2,0,0,0
121663552,34.0350685669,108.756585306,420.685,391.948,-0.0,1.32779,2.09895,0.0,2,0,0,0
121863760,34.0350665764,108.756585781,420.72,391.983,-0.0,1.32803,2.09879,0.0,2,0,0,0
122053956,34.0350645932,108.756585934,420.759,392.022,-0.0,1.32801,2.09897,0.0,2,0,0,0
122264173,34.0350623708,108.75658595,420.794,392.057,-0.0,1.32835,2.09894,0.0,2,0,0,0
122464381,34.0350601623,108.75658569,420.811,392.073,-0.0,1.32843,2.09878,0.0,2,0,0,0
122664588,34.0350579918,108.756585468,420.828,392.088,-0.0,1.32851,2.09863,0.0,2,0,0,0
122864794,34.0350558394,108.756585351,420.857,392.116,-0.0,1.32857,2.09893,0.0,2,0,0,0
123054995,34.0350537509,108.756585179,420.874,392.13,-0.0,1.32842,2.09866,0.0,2,0,0,0
123255198,34.0350514864,108.756585014,420.892,392.145,-0.0,1.32843,2.09851,0.0,2,0,0,0
123465426,34.0350491373,108.75658484,420.923,392.173,-0.0,1.32864,2.09894,0.0,2,0,0,0
123665623,34.0350469397,108.756584664,420.958,392.204,-0.0,1.32863,2.09878,0.0,2,0,0,0
123865829,34.035044773,108.756584623,420.996,392.237,-0.0,1.3286,2.09908,0.0,2,0,0,0
124056026,34.0350427228,108.756584646,421.033,392.268,-0.0,1.32837,2.0988,0.0,2,0,0,0
124256233,34.0350405541,108.756584602,421.072,392.3,-0.0,1.32835,2.09865,0.0,2,0,0,0
124456447,34.0350384431,108.756584487,421.104,392.325,-0.0,1.32831,2.09895,0.0,2,0,0,0
124656646,34.0350363362,108.756584323,421.124,392.339,-0.0,1.32828,2.0988,0.0,2,0,0,0
124856859,34.0350341666,108.756583985,421.138,392.346,-0.0,1.32824,2.09865,0.0,2,0,0,0
125057059,34.035031995,108.75658346,421.148,392.349,-0.0,1.32816,2.09851,0.0,2,0,0,0
125257272,34.0350296847,108.756582796,421.144,392.339,-0.0,1.3281,2.09881,0.0,2,0,0,0
125457473,34.0350272827,108.756582382,421.147,392.337,-0.0,1.32804,2.09866,0.0,2,0,0,0
125657679,34.0350248572,108.756582227,421.151,392.336,-0.0,1.32801,2.09851,0.0,2,0,0,0
125857893,34.0350224079,108.756582266,421.155,392.335,-0.0,1.32797,2.09882,0.0,2,0,0,0
126058092,34.0350199819,108.756582407,421.161,392.338,-0.0,1.32792,2.09867,0.0,2,0,0,0
126258304,34.0350175102,108.756582388,421.167,392.339,-0.0,1.32787,2.09853,0.0,2,0,0,0
126458505,34.0350150206,108.756582295,421.18,392.348,-0.0,1.32782,2.09884,0.0,2,0,0,0
126658714,34.0350125735,108.756582146,421.206,392.37,-0.0,1.32779,2.0987,0.0,2,0,0,0
126858919,34.0350101925,108.75658202,421.246,392.406,-0.0,1.32774,2.09856,0.0,2,0,0,0
127059125,34.0350078014,108.756581856,421.291,392.447,-0.0,1.32771,2.09842,0.0,2,0,0,0
127259334,34.0350054263,108.756581753,421.319,392.471,-0.0,1.32768,2.09873,0.0,2,0,0,0
127459538,34.0350029672,108.756581595,421.339,392.488,-0.0,1.32766,2.09858,0.0,2,0,0,0
127659744,34.0350004876,108.756581492,421.352,392.499,-0.0,1.32766,2.09844,0.0,2,0,0,0
127859950,34.0349979765,108.756581388,421.358,392.504,-0.0,1.32765,2.09875,0.0,2,0,0,0
128060156,34.0349954946,108.756581264,421.356,392.5,-0.0,1.32763,2.09861,0.0,2,0,0,0
128260363,34.0349929949,108.756581143,421.34,392.485,-0.0,1.32763,2.09847,0.0,2,0,0,0
128460569,34.0349904912,108.756581002,421.311,392.455,-0.0,1.32762,2.09834,0.0,2,0,0,0
128660775,34.0349879873,108.756580892,421.284,392.427,-0.0,1.32759,2.09865,0.0,2,0,0,0
128860983,34.0349855534,108.756580921,421.262,392.403,-0.0,1.32757,2.09851,0.0,2,0,0,0
129061187,34.0349831595,108.756580968,421.257,392.396,-0.0,1.32755,2.09882,0.0,2,0,0,0
129261394,34.0349808023,108.756581087,421.26,392.395,-0.0,1.32752,2.09868,0.0,2,0,0,0
129461600,34.0349784438,108.756581148,421.253,392.385,-0.0,1.3275,2.09854,0.0,2,0,0,0
129661805,34.0349760755,108.756581179,421.251,392.38,-0.0,1.3275,2.09841,0.0,2,0,0,0
129862011,34.0349736691,108.756581126,421.269,392.394,-0.0,1.32751,2.09872,0.0,2,0,0,0
130062217,34.0349712495,108.756580936,421.301,392.422,-0.0,1.32751,2.09859,0.0,2,0,0,0
130262424,34.034968791,108.756580641,421.331,392.448,-0.0,1.3275,2.09845,0.0,2,0,0,0
130462629,34.034966274,108.756580292,421.34,392.452,-0.0,1.32751,2.09832,0.0,2,0,0,0
130662835,34.034963677,108.756579873,421.339,392.447,-0.0,1.32748,2.09863,0.0,2,0,0,0
130863041,34.0349611141,108.756579485,421.334,392.439,-0.0,1.32748,2.0985,0.0,2,0,0,0
131063247,34.034958674,108.756579131,421.313,392.415,-0.0,1.32746,2.09837,0.0,2,0,0,0
131263453,34.0349563414,108.75657883,421.284,392.382,-0.0,1.32744,2.09869,0.0,2,0,0,0
131463659,34.0349540445,108.756578573,421.258,392.353,-0.0,1.32744,2.09856,0.0,2,0,0,0
131663865,34.0349517769,108.756578353,421.227,392.318,-0.0,1.32745,2.09843,0.0,2,0,0,0
131864071,34.0349495735,108.756578211,421.191,392.279,-0.0,1.32743,2.0983,0.0,2,0,0,0
132064282,34.0349473659,108.756578092,421.146,392.23,-0.0,1.32744,2.09862,0.0,2,0,0,0
132264482,34.0349452583,108.756578029,421.094,392.175,-0.0,1.32746,2.0985,0.0,2,0,0,0
132464687,34.0349432009,108.75657799,421.042,392.121,-0.0,1.32747,2.09837,0.0,2,0,0,0
132664893,34.0349413129,108.756578127,421.007,392.083,-0.0,1.3275,2.09824,0.0,2,0,0,0
132855088,34.0349394592,108.756578057,421.002,392.076,-0.0,1.32734,2.09845,0.0,2,0,0,0
133055294,34.0349374416,108.756577789,421.028,392.098,-0.0,1.32738,2.09832,0.0,2,0,0,0
133265510,34.0349352617,108.756577466,421.09,392.158,-0.0,1.32767,2.09832,0.0,2,0,0,0
133465716,34.0349331768,108.756577235,421.167,392.231,-0.0,1.32777,2.09864,0.0,2,0,0,0
133665921,34.0349310302,108.756577131,421.233,392.295,-0.0,1.32791,2.09851,0.0,2,0,0,0
133856116,34.0349289682,108.756577226,421.294,392.354,-0.0,1.32783,2.09827,0.0,2,0,0,0
134056322,34.0349267335,108.75657746,421.35,392.408,-0.0,1.32795,2.09858,0.0,2,0,0,0
134256527,34.034924446,108.756577641,421.397,392.455,-0.0,1.32808,2.09845,0.0,2,0,0,0
134456733,34.0349221136,108.756577715,421.411,392.469,-0.0,1.32821,2.09833,0.0,2,0,0,0
134656938,34.0349197692,108.756577718,421.376,392.435,-0.0,1.32829,2.09864,0.0,2,0,0,0
134857144,34.0349173817,108.756577544,421.318,392.379,-0.0,1.32835,2.09851,0.0,2,0,0,0
135057365,34.0349149974,108.756577346,421.26,392.323,-0.0,1.32838,2.09838,0.0,2,0,0,0
135257566,34.0349126364,108.756577101,421.211,392.275,-0.0,1.32841,2.09826,0.0,2,0,0,0
135457761,34.0349103769,108.756577044,421.185,392.251,-0.0,1.32841,2.09858,0.0,2,0,0,0
135657967,34.0349081031,108.756576972,421.176,392.242,-0.0,1.32841,2.09845,0.0,2,0,0,0
135858173,34.0349058052,108.756576826,421.184,392.249,-0.0,1.3284,2.09832,0.0,2,0,0,0
136058379,34.0349035081,108.756576594,421.216,392.279,-0.0,1.32837,2.09864,0.0,2,0,0,0
136258584,34.034901307,108.756576443,421.264,392.325,-0.0,1.32835,2.0985,0.0,2,0,0,0
136458791,34.0348991543,108.756576343,421.307,392.365,-0.0,1.32832,2.09837,0.0,2,0,0,0
136658995,34.0348969795,108.75657632,421.33,392.386,-0.0,1.32828,2.09869,0.0,2,0,0,0
136859201,34.034894727,108.756576259,421.337,392.39,-0.0,1.32826,2.09856,0.0,2,0,0,0
137059407,34.0348923901,108.756576074,421.338,392.389,-0.0,1.32819,2.09842,0.0,2,0,0,0
137259613,34.0348900135,108.756575713,421.336,392.384,-0.0,1.32817,2.09829,0.0,2,0,0,0
137459818,34.034887684,108.756575315,421.343,392.39,-0.0,1.32814,2.09861,0.0,2,0,0,0
137660035,34.0348853902,108.756575031,421.374,392.419,-0.0,1.32809,2.09847,0.0,2,0,0,0
137860248,34.0348830963,108.756574788,421.414,392.456,-0.0,1.32806,2.09834,0.0,2,0,0,0
138060456,34.034880788,108.756574532,421.449,392.488,-0.0,1.32801,2.09866,0.0,2,0,0,0
138260642,34.034878481,108.756574257,421.486,392.523,-0.0,1.32798,2.09852,0.0,2,0,0,0
138460848,34.0348761565,108.756573877,421.515,392.549,-0.0,1.32793,2.09839,0.0,2,0,0,0
138661055,34.0348738646,108.756573393,421.54,392.57,-0.0,1.3279,2.09871,0.0,2,0,0,0
138861260,34.0348715912,108.756572891,421.556,392.584,-0.0,1.32785,2.09857,0.0,2,0,0,0
139061467,34.0348692936,108.756572379,421.576,392.602,-0.0,1.3278,2.09844,0.0,2,0,0,0
139261680,34.0348670144,108.75657191,421.596,392.62,-0.0,1.32774,2.09875,0.0,2,0,0,0
139461902,34.0348647493,108.756571464,421.614,392.638,-0.0,1.32766,2.09862,0.0,2,0,0,0
139662085,34.0348624977,108.756571085,421.624,392.647,-0.0,1.32758,2.09848,0.0,2,0,0,0
139862292,34.0348602712,108.7565708,421.631,392.654,-0.0,1.3275,2.09835,0.0,2,0,0,0
140062499,34.0348581266,108.756570679,421.637,392.66,-0.0,1.32742,2.09867,0.0,2,0,0,0
140262713,34.0348558923,108.756570634,421.648,392.672,-0.0,1.32732,2.09853,0.0,2,0,0,0
140462913,34.0348536152,108.756570705,421.649,392.672,-0.0,1.32725,2.0984,0.0,2,0,0,0
140663118,34.0348512804,108.756570871,421.646,392.67,-0.0,1.32718,2.09827,0.0,2,0,0,0
140863329,34.034848943,108.756571147,421.644,392.67,-0.0,1.32711,2.09859,0.0,2,0,0,0
141063531,34.0348467376,108.756571718,421.651,392.679,-0.0,1.32705,2.09845,0.0,2,0,0,0
141263738,34.0348447852,108.756572787,421.659,392.691,-0.0,1.32699,2.09877,0.0,2,0,0,0
141463945,34.0348431221,108.756574238,421.672,392.706,-0.0,1.32693,2.09863,0.0,2,0,0,0
141664151,34.0348416659,108.756575823,421.69,392.727,-0.0,1.32685,2.09849,0.0,2,0,0,0
141864359,34.034840391,108.756577279,421.7,392.741,-0.0,1.32677,2.09836,0.0,2,0,0,0
142064565,34.0348395063,108.756578486,421.694,392.739,-0.0,1.3267,2.09867,0.0,2,0,0,0
142264772,34.0348391309,108.756579454,421.664,392.714,-0.0,1.32664,2.09854,0.0,2,0,0,0
142464979,34.0348391142,108.756580299,421.617,392.672,-0.0,1.32658,2.09841,0.0,2,0,0,0
142655176,34.0348395382,108.756580822,421.559,392.619,-0.0,1.32632,2.09861,0.0,2,0,0,0
142855383,34.0348402948,108.756581102,421.494,392.56,-0.0,1.32627,2.09847,0.0,2,0,0,0
143055590,34.0348412606,108.756581157,421.424,392.497,-0.0,1.32621,2.09833,0.0,2,0,0,0
143265808,34.0348426574,108.756581253,421.362,392.44,-0.0,1.32637,2.09877,0.0,2,0,0,0
143466015,34.0348444784,108.756581805,421.319,392.401,-0.0,1.32634,2.09863,0.0,2,0,0,0
143656214,34.0348464849,108.756582503,421.306,392.395,-0.0,1.32612,2.09838,0.0,2,0,0,0
143856419,34.0348485877,108.756583635,421.299,392.392,-0.0,1.3261,2.09869,0.0,2,0,0,0
144056626,34.034850598,108.756584962,421.307,392.405,-0.0,1.32607,2.09856,0.0,2,0,0,0
144256840,34.0348524379,108.7565862,421.324,392.428,-0.0,1.32604,2.09843,0.0,2,0,0,0
144457041,34.0348542288,108.756587136,421.352,392.461,-0.0,1.32601,2.09874,0.0,2,0,0,0
144657248,34.0348560833,108.756587721,421.379,392.494,-0.0,1.32597,2.09859,0.0,2,0,0,0
144857456,34.0348579041,108.756588063,421.402,392.524,-0.0,1.326,2.09845,0.0,2,0,0,0
145057663,34.034859715,108.756588343,421.424,392.551,-0.0,1.32602,2.09876,0.0,2,0,0,0
145257870,34.0348616462,108.7565889,421.425,392.558,-0.0,1.32607,2.09862,0.0,2,0,0,0
145458077,34.0348634937,108.756589495,421.425,392.564,-0.0,1.32611,2.09848,0.0,2,0,0,0
145658289,34.0348652661,108.756590066,421.42,392.565,-0.0,1.32618,2.09834,0.0,2,0,0,0
145858492,34.0348668716,108.756590255,421.425,392.576,-0.0,1.32625,2.09865,0.0,2,0,0,0
146058700,34.0348684295,108.756590225,421.438,392.595,-0.0,1.32629,2.09851,0.0,2,0,0,0
146258907,34.0348698911,108.756590023,421.453,392.615,-0.0,1.32632,2.09881,0.0,2,0,0,0
146459115,34.0348714004,108.756589731,421.452,392.621,-0.0,1.32634,2.09866,0.0,2,0,0,0
146659323,34.0348730243,108.756589268,421.428,392.604,-0.0,1.32634,2.09851,0.0,2,0,0,0
146859530,34.034874715,108.756588895,421.391,392.572,-0.0,1.32633,2.09882,0.0,2,0,0,0
147059756,34.0348763668,108.756588633,421.353,392.541,-0.0,1.32632,2.09867,0.0,2,0,0,0
147259946,34.0348780004,108.756588393,421.312,392.507,-0.0,1.32628,2.09853,0.0,2,0,0,0
147460154,34.0348795161,108.756588077,421.272,392.472,-0.0,1.32626,2.09839,0.0,2,0,0,0
147660362,34.034881075,108.756587808,421.236,392.442,-0.0,1.32624,2.0987,0.0,2,0,0,0
147860569,34.034882792,108.756587627,421.203,392.413,-0.0,1.32622,2.09856,0.0,2,0,0,0
148060777,34.0348845331,108.756587515,421.169,392.385,-0.0,1.32621,2.09842,0.0,2,0,0,0
148260985,34.0348862589,108.756587501,421.14,392.361,-0.0,1.3262,2.09873,0.0,2,0,0,0
148461193,34.0348879442,108.756587601,421.131,392.357,-0.0,1.32618,2.09858,0.0,2,0,0,0
148661401,34.0348896341,108.756587941,421.138,392.368,-0.0,1.32615,2.09844,0.0,2,0,0,0
148861609,34.0348913605,108.756588403,421.143,392.377,-0.0,1.32611,2.09875,0.0,2,0,0,0
149061817,34.0348931032,108.756588994,421.134,392.371,-0.0,1.32606,2.09861,0.0,2,0,0,0
149262025,34.0348948892,108.756589549,421.107,392.348,-0.0,1.32602,2.09848,0.0,2,0,0,0
149462236,34.0348966356,108.756590126,421.086,392.332,-0.0,1.32598,2.09879,0.0,2,0,0,0
149662441,34.0348983365,108.756591017,421.077,392.328,-0.0,1.32595,2.09864,0.0,2,0,0,0
149862652,34.0349000145,108.756592028,421.084,392.341,-0.0,1.32589,2.09849,0.0,2,0,0,0
150062857,34.0349016686,108.756593194,421.112,392.375,-0.0,1.32583,2.0988,0.0,2,0,0,0
150263065,34.0349033466,108.756594561,421.137,392.405,-0.0,1.32577,2.09865,0.0,2,0,0,0
150463287,34.0349050829,108.756596077,421.162,392.437,-0.0,1.32572,2.09851,0.0,2,0,0,0
150663482,34.0349068301,108.756597643,421.177,392.46,-0.0,1.32567,2.09882,0.0,2,0,0,0
150863740,34.0349085992,108.756599082,421.188,392.478,-0.0,1.32564,2.09868,0.0,2,0,0,0
151063898,34.0349102939,108.756600628,421.205,392.504,-0.0,1.32561,2.09854,0.0,2,0,0,0
151264106,34.0349119562,108.75660218,421.224,392.531,-0.0,1.32558,2.09885,0.0,2,0,0,0
151454306,34.0349134161,108.756603811,421.231,392.549,-0.0,1.32537,2.09858,0.0,2,0,0,0
151664522,34.0349148719,108.756605687,421.212,392.54,-0.0,1.32555,2.09855,0.0,2,0,0,0
151864731,34.0349161302,108.756607621,421.164,392.504,-0.0,1.32553,2.09885,0.0,2,0,0,0
152064939,34.0349173047,108.756609543,421.094,392.447,-0.0,1.32552,2.0987,0.0,2,0,0,0
152265147,34.0349184615,108.756611415,421.028,392.395,-0.0,1.32552,2.09856,0.0,2,0,0,0
152455346,34.034919528,108.756613416,420.965,392.347,-0.0,1.32533,2.09875,0.0,2,0,0,0
152655554,34.0349206174,108.75661571,420.903,392.3,-0.0,1.32533,2.0986,0.0,2,0,0,0
152865780,34.0349216074,108.756618226,420.858,392.268,-0.0,1.32552,2.09859,0.0,2,0,0,0
153065981,34.0349224825,108.756620673,420.827,392.25,-0.0,1.3255,2.09889,0.0,2,0,0,0
153256181,34.0349230684,108.756623119,420.806,392.242,-0.0,1.3253,2.09861,0.0,2,0,0,0
153456387,34.0349235359,108.756625739,420.801,392.249,-0.0,1.32529,2.09891,0.0,2,0,0,0
153656596,34.0349238977,108.75662842,420.79,392.252,-0.0,1.32528,2.09875,0.0,2,0,0,0
153856807,34.0349242299,108.756631178,420.772,392.248,-0.0,1.32526,2.0986,0.0,2,0,0,0
154057013,34.0349245274,108.756633903,420.751,392.241,-0.0,1.32523,2.0989,0.0,2,0,0,0
154257225,34.0349249162,108.756636569,420.717,392.223,-0.0,1.32521,2.09875,0.0,2,0,0,0
154457430,34.0349252471,108.756639299,420.689,392.211,-0.0,1.32515,2.0986,0.0,2,0,0,0
154657647,34.0349255618,108.756642087,420.664,392.202,-0.0,1.32509,2.09891,0.0,2,0,0,0
154857847,34.0349257172,108.756644893,420.647,392.199,-0.0,1.32504,2.09875,0.0,2,0,0,0
155058056,34.0349258167,108.756647722,420.637,392.205,-0.0,1.32494,2.09859,0.0,2,0,0,0
155258277,34.0349258433,108.7566505,420.618,392.2,-0.0,1.32489,2.09889,0.0,2,0,0,0
155458473,34.0349256991,108.756653271,420.591,392.189,-0.0,1.32483,2.09873,0.0,2,0,0,0
155658682,34.0349254488,108.756656027,420.569,392.183,-0.0,1.32477,2.09858,0.0,2,0,0,0
155858890,34.0349251261,108.756658839,420.559,392.19,-0.0,1.32471,2.09889,0.0,2,0,0,0
156059101,34.0349248826,108.756661673,420.555,392.202,-0.0,1.32465,2.09874,0.0,2,0,0,0
156259319,34.0349246566,108.756664449,420.56,392.223,-0.0,1.32459,2.09859,0.0,2,0,0,0
156459517,34.0349242836,108.75666717,420.585,392.263,-0.0,1.32458,2.09845,0.0,2,0,0,0
156659726,34.0349237538,108.756669866,420.607,392.3,-0.0,1.32458,2.09875,0.0,2,0,0,0
156859935,34.0349229367,108.756672495,420.626,392.334,-0.0,1.3246,2.09861,0.0,2,0,0,0
157060144,34.0349218931,108.756674977,420.641,392.365,-0.0,1.32462,2.09846,0.0,2,0,0,0
157260354,34.034920738,108.756677369,420.657,392.395,-0.0,1.32467,2.09877,0.0,2,0,0,0
157460562,34.0349196791,108.756679797,420.675,392.428,-0.0,1.32473,2.09863,0.0,2,0,0,0
157660773,34.0349187339,108.756682235,420.682,392.448,-0.0,1.32479,2.09849,0.0,2,0,0,0
157860986,34.0349177916,108.756684712,420.666,392.447,-0.0,1.32485,2.09835,0.0,2,0,0,0
158061189,34.034916904,108.75668726,420.645,392.439,-0.0,1.32492,2.09866,0.0,2,0,0,0
158261401,34.034915976,108.756689805,420.632,392.441,-0.0,1.32499,2.09852,0.0,2,0,0,0
158461607,34.0349150055,108.75669224,420.643,392.465,-0.0,1.32507,2.09883,0.0,2,0,0,0
158661816,34.0349138968,108.756694472,420.654,392.489,-0.0,1.32514,2.09868,0.0,2,0,0,0
158862025,34.0349126407,108.756696523,420.669,392.516,-0.0,1.32518,2.09898,0.0,2,0,0,0
159062250,34.0349112955,108.756698512,420.684,392.545,-0.0,1.32519,2.09882,0.0,2,0,0,0
159262443,34.0349099102,108.756700453,420.703,392.576,-0.0,1.32522,2.09867,0.0,2,0,0,0
159462652,34.0349084504,108.756702372,420.74,392.626,-0.0,1.32523,2.09852,0.0,2,0,0,0
159662862,34.0349069351,108.756704283,420.789,392.688,-0.0,1.32524,2.09882,0.0,2,0,0,0
159863071,34.0349053423,108.756706134,420.829,392.74,-0.0,1.32527,2.09868,0.0,2,0,0,0
160063281,34.03490357,108.756707802,420.861,392.784,-0.0,1.32531,2.09853,0.0,2,0,0,0
160263490,34.0349016084,108.756709305,420.884,392.82,-0.0,1.32534,2.09883,0.0,2,0,0,0
160463703,34.034899573,108.756710723,420.905,392.852,-0.0,1.32535,2.09868,0.0,2,0,0,0
160663908,34.0348975751,108.756712181,420.917,392.876,-0.0,1.32538,2.09854,0.0,2,0,0,0
160864117,34.0348955855,108.756713621,420.905,392.875,-0.0,1.32542,2.09884,0.0,2,0,0,0
161054319,34.0348936577,108.756714889,420.879,392.86,-0.0,1.32523,2.09858,0.0,2,0,0,0
161254526,34.0348915766,108.756716116,420.84,392.83,-0.0,1.32526,2.09844,0.0,2,0,0,0
161464745,34.0348895499,108.756717494,420.805,392.805,-0.0,1.32546,2.09841,0.0,2,0,0,0
161664954,34.0348877055,108.756718824,420.796,392.805,-0.0,1.32546,2.09872,0.0,2,0,0,0
161865164,34.0348859163,108.756720086,420.815,392.83,-0.0,1.32548,2.09902,0.0,2,0,0,0
162055366,34.0348843088,108.756721187,420.841,392.865,-0.0,1.32531,2.09874,0.0,2,0,0,0
162255572,34.0348826185,108.756722191,420.882,392.912,-0.0,1.32532,2.09858,0.0,2,0,0,0
162455782,34.034880922,108.756722914,420.937,392.973,-0.0,1.32535,2.09889,0.0,2,0,0,0
162655991,34.0348791761,108.756723297,421.001,393.046,-0.0,1.32536,2.09873,0.0,2,0,0,0
162866215,34.0348773258,108.756723492,421.094,393.149,-0.0,1.32556,2.0987,0.0,2,0,0,0
163056413,34.0348755272,108.756723572,421.175,393.239,-0.0,1.32536,2.09843,0.0,2,0,0,0
163256620,34.0348735233,108.756723762,421.247,393.32,-0.0,1.32538,2.09874,0.0,2,0,0,0
163456829,34.0348714247,108.756723957,421.292,393.375,-0.0,1.32541,2.0986,0.0,2,0,0,0
163657038,34.0348692758,108.756724256,421.317,393.408,-0.0,1.32544,2.0989,0.0,2,0,0,0
163857248,34.0348671978,108.75672443,421.345,393.444,-0.0,1.32549,2.09874,0.0,2,0,0,0
164057468,34.0348652594,108.756724475,421.376,393.483,-0.0,1.32554,2.09859,0.0,2,0,0,0
164257667,34.0348633718,108.756724347,421.411,393.525,-0.0,1.3256,2.09889,0.0,2,0,0,0
164457877,34.0348615479,108.756724192,421.441,393.563,-0.0,1.32568,2.09874,0.0,2,0,0,0
164658086,34.0348597801,108.756723902,421.445,393.573,-0.0,1.32575,2.09859,0.0,2,0,0,0
164858296,34.034858025,108.756723574,421.443,393.579,-0.0,1.32583,2.09844,0.0,2,0,0,0
165058505,34.0348562825,108.756723153,421.441,393.585,-0.0,1.32593,2.09875,0.0,2,0,0,0
165258715,34.0348545241,108.756722662,421.438,393.59,-0.0,1.32604,2.0986,0.0,2,0,0,0
165458924,34.0348527578,108.75672212,421.442,393.602,-0.0,1.32615,2.0989,0.0,2,0,0,0
165659138,34.0348510096,108.756721508,421.452,393.619,-0.0,1.32626,2.09874,0.0,2,0,0,0
165859346,34.0348493451,108.756720833,421.449,393.624,-0.0,1.32637,2.09859,0.0,2,0,0,0
166059560,34.0348476733,108.756720179,421.434,393.616,-0.0,1.32651,2.09889,0.0,2,0,0,0
166259766,34.0348460542,108.756719647,421.418,393.608,-0.0,1.32663,2.09874,0.0,2,0,0,0
166459972,34.0348444943,108.756719221,421.415,393.612,-0.0,1.32675,2.09859,0.0,2,0,0,0
166660182,34.0348429955,108.75671896,421.425,393.627,-0.0,1.32686,2.09845,0.0,2,0,0,0
166860392,34.0348415613,108.756718799,421.44,393.649,-0.0,1.32698,2.09875,0.0,2,0,0,0
