timestamp,roll,pitch,yaw,thrust_body[0],thrust_body[1],thrust_body[2]
29863634,-0.0488961,-0.0865447,0.000570732,0.0,0.0,-0.0133333
29868667,-0.0462667,-0.0949025,-0.000537286,0.0,0.0,-0.0133333
29883673,-0.0654621,-0.0919246,0.000478591,0.0,0.0,-0.0133333
29903740,-0.0390196,-0.103421,-0.00142268,0.0,0.0,-0.0922182
29923709,-0.0519585,-0.105641,-0.00092441,0.0,0.0,-0.0912
29943772,-0.0522432,-0.103244,-0.00541263,0.0,0.0,-0.0912
29963748,-0.0371741,-0.103079,-0.00049143,0.0,0.0,-0.0912
29983789,-0.04867,-0.0636103,-0.00121795,0.0,0.0,-0.0912
30003800,-0.0471423,-0.101,-0.00487587,0.0,0.0,-0.0912
30023844,-0.034246,-0.0860415,-0.00274134,0.0,0.0,-0.0912
30043831,-0.0211889,-0.0569862,-0.000862984,0.0,0.0,-0.0912
30063883,-0.0303573,-0.0732076,-0.0039554,0.0,0.0,-0.0912
30083883,-0.0336507,-0.0955011,-0.00411555,0.0,0.0,-0.0912
30103895,-0.0294662,-0.0792648,-0.00229498,0.0,0.0,-0.0912
30123967,-0.0498009,-0.0645379,-0.00286318,0.0,0.0,-0.0922182
30143972,-0.044864,-0.0908882,-0.00497028,0.0,0.0,-0.0912
30163955,-0.0366706,-0.0795443,-0.0033695,0.0,0.0,-0.0912
30183994,-0.0432114,-0.0686414,-0.00331583,0.0,0.0,-0.0932364
30204053,-0.0364488,-0.0695255,-0.00330298,0.0,0.0,-0.0932364
30224020,-0.0228847,-0.0752484,-0.00391574,0.0,0.0,-0.0932364
30244025,-0.0241228,-0.0786588,-0.00738356,0.0,0.0,-0.0932364
30264059,-0.0306247,-0.0861572,-0.00790974,0.0,0.0,-0.0922182
30284097,-0.0404553,-0.0794706,-0.00720209,0.0,0.0,-0.0922182
30304101,-0.0324972,-0.0617433,-0.00628534,0.0,0.0,-0.0912
30324108,-0.0643122,-0.0544475,-0.00514951,0.0,0.0,-0.0912
30344142,-0.0655534,-0.0542209,-0.00512662,0.0,0.0,-0.0912
30364150,-0.0724683,-0.053555,-0.0052045,0.0,0.0,-0.0912
30384195,-0.0698048,-0.0444895,-0.00554602,0.0,0.0,-0.0922182
30404191,-0.0765509,-0.0405976,-0.00536407,0.0,0.0,-0.0922182
30424237,-0.0929292,-0.0503726,-0.00530571,0.0,0.0,-0.0912
30444236,-0.0978244,-0.0512593,-0.00497238,0.0,0.0,-0.0912
30464308,-0.10313,-0.0548977,-0.00533393,0.0,0.0,-0.0912
30484289,-0.174922,-0.0492156,-0.00526704,0.0,0.0,-0.0922182
30504327,-0.202943,-0.0595579,-0.00555152,0.0,0.0,-0.0912
30524333,-0.240619,-0.0626992,-0.00611795,0.0,0.0,-0.0912
30544365,-0.219283,-0.0576368,-0.00645281,0.0,0.0,-0.0912
30564378,-0.196095,-0.0674421,-0.00681573,0.0,0.0,-0.0922182
30584425,-0.195762,-0.0889388,-0.00633313,0.0,0.0,-0.0912
30604457,-0.143086,-0.0981914,-0.00594427,0.0,0.0,-0.0912
30624447,-0.106105,-0.0915905,-0.00553662,0.0,0.0,-0.0912
30644519,-0.106955,-0.0906881,-0.00526694,0.0,0.0,-0.0922182
30664485,-0.0852783,-0.13812,-0.00549682,0.0,0.0,-0.0912
30684509,-0.071323,-0.0594945,-0.00550771,0.0,0.0,-0.0912
30704527,-0.0681131,-0.0969032,-0.00523257,0.0,0.0,-0.0912
30724583,-0.0594785,-0.0937114,-0.00515515,0.0,0.0,-0.0922182
30744568,-0.0611476,-0.0884085,-0.00604102,0.0,0.0,-0.0922182
30764628,-0.0972074,-0.0825112,-0.00669252,0.0,0.0,-0.0912
30784617,-0.104044,-0.0898822,-0.00789646,0.0,0.0,-0.0912
30804655,-0.0919311,-0.0742431,-0.00909336,0.0,0.0,-0.0901818
30824690,-0.0909998,-0.0690262,-0.00983091,0.0,0.0,-0.0901818
30844690,-0.097451,-0.0743124,-0.00999844,0.0,0.0,-0.0891636
30864705,-0.102754,-0.0635619,-0.00989535,0.0,0.0,-0.0901818
30884705,-0.0973894,-0.0639964,-0.0092825,0.0,0.0,-0.0901818
30904779,-0.105431,-0.0651243,-0.0080714,0.0,0.0,-0.0901818
30924768,-0.075494,-0.152054,-0.00682823,0.0,0.0,-0.0891636
30944767,-0.103854,-0.0664442,-0.00563214,0.0,0.0,-0.0891636
30964792,-0.0589109,-0.07261,-0.00478896,0.0,0.0,-0.0901818
30984800,-0.0646858,-0.0778918,-0.00461748,0.0,0.0,-0.0901818
31004853,-0.118388,-0.0937819,-0.00471799,0.0,0.0,-0.0891636
31024872,-0.129906,-0.0827128,-0.00569848,0.0,0.0,-0.0891636
31044946,-0.133907,-0.0821408,-0.00731875,0.0,0.0,-0.0901818
31064932,-0.142275,-0.076812,-0.00764994,0.0,0.0,-0.0901818
31084982,-0.132712,-0.0430903,-0.00864259,0.0,0.0,-0.0891636
31104919,-0.138562,-0.0284116,-0.00956593,0.0,0.0,-0.0901818
31124956,-0.149101,-0.0356822,-0.0114221,0.0,0.0,-0.0901818
31144974,-0.165463,-0.0619313,-0.0136731,0.0,0.0,-0.0891636
31165032,-0.16196,-0.0487325,-0.0162238,0.0,0.0,-0.0901818
31185010,-0.157974,-0.0577357,-0.0185903,0.0,0.0,-0.0901818
31205032,-0.154866,-0.0592845,-0.0197485,0.0,0.0,-0.0901818
31225052,-0.160647,-0.062751,-0.0202718,0.0,0.0,-0.0901818
31245081,-0.134535,-0.0656307,-0.0208436,0.0,0.0,-0.0891636
31265086,-0.127294,-0.0626683,-0.0210582,0.0,0.0,-0.0901818
31285140,-0.154027,-0.0752031,-0.0213753,0.0,0.0,-0.0901818
31305130,-0.153928,-0.0790891,-0.021536,0.0,0.0,-0.0891636
31325162,-0.158622,-0.083034,-0.0208277,0.0,0.0,-0.0901818
31345170,-0.143084,-0.0881235,-0.0197385,0.0,0.0,-0.0891636
31365204,-0.118223,-0.0820936,-0.0186209,0.0,0.0,-0.0901818
31385270,-0.117747,-0.0907388,-0.0171458,0.0,0.0,-0.0901818
31405249,-0.111022,-0.087573,-0.0159469,0.0,0.0,-0.0891636
31420277,-0.125823,-0.0874114,-0.0145137,0.0,0.0,-0.0891636
31445297,-0.0996519,-0.0797476,-0.0130271,0.0,0.0,-0.0901818
31465318,-0.0989048,-0.0792328,-0.0116273,0.0,0.0,-0.0891636
31485342,-0.101453,-0.0639973,-0.0112288,0.0,0.0,-0.0901818
31505443,-0.079091,-0.0737345,-0.0111329,0.0,0.0,-0.0901818
31525388,-0.0833744,-0.0677081,-0.0113595,0.0,0.0,-0.0891636
31545454,-0.102846,-0.0519838,-0.0124483,0.0,0.0,-0.0901818
31560502,-0.0840098,-0.0733863,-0.0103644,0.0,0.0,-0.0901818
31585460,-0.132609,-0.0500395,-0.013807,0.0,0.0,-0.0891636
31605505,-0.136802,-0.039135,-0.01446,0.0,0.0,-0.0901818
31625513,-0.142144,-0.0476764,-0.0145798,0.0,0.0,-0.0901818
31645520,-0.148493,-0.0482761,-0.0153009,0.0,0.0,-0.0901818
31665538,-0.171364,-0.0499488,-0.0151224,0.0,0.0,-0.0901818
31685547,-0.170443,-0.0521518,-0.014946,0.0,0.0,-0.0901818
31700577,-0.165274,-0.0490685,-0.0141508,0.0,0.0,-0.0891636
31725573,-0.187928,-0.0666698,-0.0137316,0.0,0.0,-0.0901818
31745608,-0.191206,-0.0722456,-0.0127841,0.0,0.0,-0.0901818
31765613,-0.191463,-0.0777647,-0.0125731,0.0,0.0,-0.0901818
31785651,-0.192053,-0.0790558,-0.0123031,0.0,0.0,-0.0901818
31805651,-0.188304,-0.0879501,-0.0123036,0.0,0.0,-0.0891636
31825684,-0.183543,-0.0865074,-0.0124954,0.0,0.0,-0.0891636
31840722,-0.194273,-0.0516864,-0.012449,0.0,0.0,-0.0901818
31865777,-0.169671,-0.0872034,-0.0127086,0.0,0.0,-0.0891636
31885749,-0.162939,-0.0776332,-0.0123811,0.0,0.0,-0.0901818
31905765,-0.155415,-0.07703,-0.0117525,0.0,0.0,-0.0901818
31920858,-0.161615,-0.0784559,-0.0121213,0.0,0.0,-0.0901818
31945862,-0.145548,-0.081008,-0.0108379,0.0,0.0,-0.0891636
31965814,-0.146758,-0.0676507,-0.0110034,0.0,0.0,-0.0901818
31980847,-0.154568,-0.0763418,-0.0110017,0.0,0.0,-0.0901818
32005869,-0.155238,-0.0655001,-0.0119561,0.0,0.0,-0.0901818
32025890,-0.161707,-0.0668542,-0.0127903,0.0,0.0,-0.0901818
32045902,-0.167118,-0.0668823,-0.013594,0.0,0.0,-0.0901818
32060919,-0.17955,-0.0640913,-0.0147351,0.0,0.0,-0.0901818
32085939,-0.172413,-0.0605618,-0.0148031,0.0,0.0,-0.0901818
32105973,-0.167497,-0.0568239,-0.0158829,0.0,0.0,-0.0901818
32120994,-0.16392,-0.0426452,-0.0178668,0.0,0.0,-0.0901818
32146026,-0.144178,-0.059534,-0.0169185,0.0,0.0,-0.0901818
32166067,-0.144646,-0.0681311,-0.0166015,0.0,0.0,-0.0901818
32186056,-0.139009,-0.076389,-0.0169694,0.0,0.0,-0.0901818
32201078,-0.12548,-0.0713936,-0.0196177,0.0,0.0,-0.0901818
32226098,-0.126945,-0.0844445,-0.0177703,0.0,0.0,-0.0891636
32246119,-0.122556,-0.0714349,-0.0180055,0.0,0.0,-0.0901818
32261140,-0.104161,-0.0671119,-0.0215659,0.0,0.0,-0.0901818
32286227,-0.115281,-0.0811408,-0.0205918,0.0,0.0,-0.0891636
32306182,-0.113726,-0.0721995,-0.0226378,0.0,0.0,-0.0901818
32326262,-0.113965,-0.0729359,-0.0242244,0.0,0.0,-0.0901818
32341280,-0.105488,-0.0840101,-0.0249205,0.0,0.0,-0.0891636
32366248,-0.127966,-0.0671546,-0.0238775,0.0,0.0,-0.0901818
32386311,-0.137319,-0.0582658,-0.0227249,0.0,0.0,-0.0901818
32401301,-0.126575,-0.0748435,-0.0232728,0.0,0.0,-0.0891636
32421412,-0.138425,-0.0611768,-0.0213495,0.0,0.0,-0.0901818
32446345,-0.148394,-0.0473797,-0.0212052,0.0,0.0,-0.0901818
32466422,-0.151178,-0.062232,-0.0209947,0.0,0.0,-0.0891636
32481387,-0.153381,-0.0562295,-0.0193484,0.0,0.0,-0.0891636
32506408,-0.154898,-0.0634928,-0.0192792,0.0,0.0,-0.0901818
32526421,-0.144161,-0.065792,-0.0182815,0.0,0.0,-0.0901818
32541456,-0.15314,-0.0412597,-0.0176379,0.0,0.0,-0.0901818
32561468,-0.157175,-0.0372617,-0.0171688,0.0,0.0,-0.0901818
32586475,-0.12055,-0.0643641,-0.018329,0.0,0.0,-0.0901818
32606512,-0.118949,-0.0622677,-0.0176744,0.0,0.0,-0.0901818
32621543,-0.130808,-0.0419199,-0.0157865,0.0,0.0,-0.0901818
32646565,-0.0901027,-0.0769242,-0.0166662,0.0,0.0,-0.0891636
32666555,-0.0682351,-0.0705364,-0.0157593,0.0,0.0,-0.0901818
32681581,-0.0826165,-0.0658039,-0.015206,0.0,0.0,-0.0901818
32701605,-0.0693161,-0.0659828,-0.0145553,0.0,0.0,-0.0901818
32726655,-0.0636025,-0.0518729,-0.0140399,0.0,0.0,-0.0901818
32746675,-0.0639873,-0.0432952,-0.0151557,0.0,0.0,-0.0901818
32761647,-0.0580003,-0.0548641,-0.0144551,0.0,0.0,-0.0901818
32781682,-0.0607325,-0.0521424,-0.0147521,0.0,0.0,-0.0901818
32806797,-0.10196,-0.0487859,-0.0163445,0.0,0.0,-0.0891636
32821729,-0.0907772,-0.0579666,-0.0141548,0.0,0.0,-0.0891636
32841731,-0.103962,-0.043832,-0.0138012,0.0,0.0,-0.0901818
32866808,-0.138787,-0.0318378,-0.0164854,0.0,0.0,-0.0901818
32886786,-0.158936,-0.0267545,-0.0165304,0.0,0.0,-0.0901818
32901817,-0.157571,-0.019269,-0.0144991,0.0,0.0,-0.0901818
32921829,-0.172818,-0.0189429,-0.0141449,0.0,0.0,-0.0901818
32946908,-0.202323,-0.0386223,-0.0125354,0.0,0.0,-0.0901818
32961903,-0.206665,-0.033659,-0.0115112,0.0,0.0,-0.0891636
32981890,-0.209378,-0.029356,-0.0101515,0.0,0.0,-0.0901818
33006922,-0.225334,-0.0591553,-0.00859232,0.0,0.0,-0.0901818
33026934,-0.228191,-0.060204,-0.00673963,0.0,0.0,-0.0901818
33042007,-0.233613,-0.0447485,-0.00435455,0.0,0.0,-0.0901818
33061972,-0.231375,-0.0476823,-0.00193551,0.0,0.0,-0.0901818
33086980,-0.194925,-0.0598442,-0.00210513,0.0,0.0,-0.0891636
33102013,-0.194582,-0.0529641,0.0011875,0.0,0.0,-0.0891636
33122145,-0.173373,-0.0541479,0.00186934,0.0,0.0,-0.0901818
33147065,-0.138905,-0.0369698,0.000187667,0.0,0.0,-0.0901818
33162088,-0.134205,-0.0488294,0.00204336,0.0,0.0,-0.0901818
33182114,-0.115854,-0.0407371,0.00159265,0.0,0.0,-0.0901818
33202127,-0.0973519,-0.0337623,0.00126796,0.0,0.0,-0.0901818
33227139,-0.061693,-0.0306108,-0.00293381,0.0,0.0,-0.0891636
33242163,-0.0530327,-0.0271854,-0.00164966,0.0,0.0,-0.0891636
33262168,-0.0503647,-0.0269759,-0.0028073,0.0,0.0,-0.0901818
33282206,-0.0441776,-0.0291534,-0.00332425,0.0,0.0,-0.0901818
33307225,-0.0310596,-0.0418247,-0.00559762,0.0,0.0,-0.0901818
33322256,-0.031914,-0.0360557,-0.00484914,0.0,0.0,-0.0901818
33342294,-0.0318162,-0.0442223,-0.00478639,0.0,0.0,-0.0901818
33367291,-0.0452452,-0.0567503,-0.0039448,0.0,0.0,-0.0891636
33382345,-0.0443874,-0.05715,-0.00352994,0.0,0.0,-0.0901818
33402347,-0.0644956,-0.0611242,-0.00310406,0.0,0.0,-0.0901818
33422365,-0.0754102,-0.0600561,-0.00256114,0.0,0.0,-0.0901818
33447376,-0.148367,-0.0278917,-0.00285667,0.0,0.0,-0.0901818
33462393,-0.184562,-0.0558151,-0.00142094,0.0,0.0,-0.0901818
33482419,-0.248097,-0.0629658,-0.000560284,0.0,0.0,-0.0891636
33507450,-0.18177,-0.0211004,-0.00248695,0.0,0.0,-0.0901818
33522464,-0.141659,-0.0415859,-0.000123571,0.0,0.0,-0.0901818
33542484,-0.154048,-0.0439129,-0.000260141,0.0,0.0,-0.0891636
33562518,-0.15551,-0.0271868,-0.000986237,0.0,0.0,-0.0891636
33587525,-0.178695,-0.0213542,-0.00130984,0.0,0.0,-0.0891636
33602543,-0.128565,-0.136876,-0.000653726,0.0,0.0,-0.0901818
33622570,-0.177621,-0.0186795,-0.000520499,0.0,0.0,-0.0891636
33647647,-0.191196,-0.0384046,-0.000472178,0.0,0.0,-0.0891636
33662741,-0.197978,-0.0281955,-0.000182914,0.0,0.0,-0.0901818
33682685,-0.200507,-0.0325527,0.000175094,0.0,0.0,-0.0901818
33702640,-0.20247,-0.0453397,0.00123183,0.0,0.0,-0.0891636
33727685,-0.201173,-0.0483793,0.00249047,0.0,0.0,-0.0922182
33742682,-0.209594,-0.0331322,0.00541732,0.0,0.0,-0.0922182
33762708,-0.2134,-0.0281212,0.00658153,0.0,0.0,-0.0912
33782775,-0.211641,-0.0305315,0.00770677,0.0,0.0,-0.0901818
33802744,-0.203707,-0.032948,0.00809128,0.0,0.0,-0.0901818
33822811,-0.209111,-0.0349572,0.00847867,0.0,0.0,-0.0901818
33842786,-0.212159,-0.0329336,0.00884334,0.0,0.0,-0.0901818
33867831,-0.195691,-0.0238193,0.00642563,0.0,0.0,-0.0901818
33882835,-0.209654,-0.0148674,0.00716501,0.0,0.0,-0.0901818
33902885,-0.191751,-0.00958389,0.00483998,0.0,0.0,-0.0891636
33922869,-0.191159,-0.011111,0.0031363,0.0,0.0,-0.0901818
33942906,-0.179937,-0.0183548,0.00184556,0.0,0.0,-0.0901818
33962913,-0.169649,-0.0254437,0.000866633,0.0,0.0,-0.0901818
33982964,-0.144679,-0.0317858,0.000518133,0.0,0.0,-0.0901818
34007969,-0.112968,-0.0529308,0.000858499,0.0,0.0,-0.0901818
34022994,-0.124077,-0.0381521,0.000850739,0.0,0.0,-0.0901818
34042999,-0.105068,-0.0416771,0.0015163,0.0,0.0,-0.0891636
34063024,-0.106123,-0.0456524,0.00147869,0.0,0.0,-0.0901818
34083040,-0.103558,-0.0500696,0.00209809,0.0,0.0,-0.0901818
34103062,-0.0979139,-0.05236,0.00279648,0.0,0.0,-0.0901818
34123083,-0.113953,-0.0609917,0.00327837,0.0,0.0,-0.0891636
34148100,-0.123693,-0.0171876,0.00322615,0.0,0.0,-0.0901818
34163106,-0.130244,-0.0436273,0.00410774,0.0,0.0,-0.0901818
34183149,-0.138373,-0.0506333,0.00443735,0.0,0.0,-0.0891636
34203148,-0.149014,-0.0500372,0.00416307,0.0,0.0,-0.0891636
34223182,-0.161901,-0.0386786,0.00401119,0.0,0.0,-0.0901818
34243190,-0.174769,-0.0450498,0.00341352,0.0,0.0,-0.0891636
34263227,-0.186657,-0.0277822,0.00311732,0.0,0.0,-0.0901818
34283235,-0.186254,-0.0192584,0.00293847,0.0,0.0,-0.0901818
34303273,-0.198608,-0.0212694,0.00340945,0.0,0.0,-0.0891636
34323287,-0.201444,-0.0170426,0.00441517,0.0,0.0,-0.0891636
34343361,-0.204451,-0.0106666,0.00558721,0.0,0.0,-0.0901818
34363334,-0.206509,-0.0163997,0.00717227,0.0,0.0,-0.0901818
34383360,-0.20029,-0.0232019,0.00788503,0.0,0.0,-0.0891636
34403423,-0.209681,-0.0264148,0.00830268,0.0,0.0,-0.0901818
34423483,-0.208342,-0.0286523,0.00783847,0.0,0.0,-0.0901818
34443455,-0.195076,-0.0260867,0.00722363,0.0,0.0,-0.0891636
34463444,-0.200408,-0.0241825,0.00637073,0.0,0.0,-0.0901818
34483464,-0.198834,-0.0232833,0.00566931,0.0,0.0,-0.0901818
34503489,-0.189332,-0.0331018,0.00417434,0.0,0.0,-0.0891636
34523509,-0.175788,-0.0228143,0.00188109,0.0,0.0,-0.0901818
34543532,-0.164963,-0.0209468,-4.77406e-05,0.0,0.0,-0.0901818
34563601,-0.156093,-0.0201604,-0.0017421,0.0,0.0,-0.0901818
34583572,-0.140705,-0.0240835,-0.00320235,0.0,0.0,-0.0901818
34603656,-0.139421,-0.0357996,-0.0058084,0.0,0.0,-0.0891636
34623608,-0.118412,-0.0233124,-0.00854676,0.0,0.0,-0.0901818
34643657,-0.120654,-0.0144255,-0.0104571,0.0,0.0,-0.0901818
34663641,-0.109964,-0.0189441,-0.0108683,0.0,0.0,-0.0891636
34683744,-0.103332,-0.0167196,-0.0107004,0.0,0.0,-0.0912
34703683,-0.0875899,-0.016996,-0.0111908,0.0,0.0,-0.0912
34723711,-0.0806937,-0.0162412,-0.01138,0.0,0.0,-0.0912
34743711,-0.0120043,-0.00860019,-0.0118431,0.0,0.0,-0.0901818
34763745,-0.0755818,-0.0137023,-0.0114199,0.0,0.0,-0.0901818
34783767,-0.0734574,-0.0203887,-0.0111279,0.0,0.0,-0.0901818
34803789,-0.0727088,-0.0340257,-0.0106423,0.0,0.0,-0.0891636
34823811,-0.0706377,-0.0370313,-0.0097825,0.0,0.0,-0.0891636
34843836,-0.0606927,-0.0294166,-0.00895699,0.0,0.0,-0.0901818
34863849,-0.0679139,-0.0333899,-0.00793363,0.0,0.0,-0.0901818
34883892,-0.00727376,-0.0349901,-0.00693522,0.0,0.0,-0.0901818
34903892,-0.071289,-0.0338091,-0.00579597,0.0,0.0,-0.0901818
34923912,-0.0786182,-0.0320786,-0.00538568,0.0,0.0,-0.0901818
34943923,-0.075653,-0.0314747,-0.00522094,0.0,0.0,-0.0912
34963954,-0.0822211,-0.025372,-0.00555692,0.0,0.0,-0.0912
34983973,-0.0242278,-0.0331256,-0.00591414,0.0,0.0,-0.0912
35003995,-0.0303147,-0.0288663,-0.00597556,0.0,0.0,-0.0912
35024006,-0.0353288,-0.015613,-0.00613517,0.0,0.0,-0.0912
35044052,-0.041609,-0.0128415,-0.0063201,0.0,0.0,-0.0912
35064054,-0.0675806,-0.0178018,-0.00625239,0.0,0.0,-0.0912
35084086,-0.0720177,-0.013793,-0.00646282,0.0,0.0,-0.0912
35104087,-0.0899481,0.0266813,-0.00732523,0.0,0.0,-0.0932364
35124132,-0.109977,0.0227218,-0.139564,0.0,0.0,-0.122764
35144130,-0.112642,-0.00412461,-0.139509,0.0,0.0,-0.153309
35164163,-0.122159,-0.0126419,-0.145859,0.0,0.0,-0.155345
35184224,-0.0998365,-0.0334677,-0.152877,0.0,0.0,-0.155345
35204211,-0.109008,-0.00555663,-0.166186,0.0,0.0,-0.155345
35224282,-0.125735,-0.0669655,-0.192786,0.0,0.0,-0.155345
35244249,-0.161458,-0.0641875,-0.208466,0.0,0.0,-0.155345
35264281,-0.17999,-0.0356969,-0.269673,0.0,0.0,-0.153309
35284297,-0.189122,-0.0611995,-0.268335,0.0,0.0,-0.153309
35304319,-0.198169,-0.0274427,-0.306172,0.0,0.0,-0.153309
35324347,-0.192093,-0.046147,-0.3195,0.0,0.0,-0.153309
35344418,-0.195819,-0.0257437,-0.352721,0.0,0.0,-0.153309
35364390,-0.167088,0.0035277,-0.366717,0.0,0.0,-0.153309
35384568,-0.147277,0.00410669,-0.312011,0.0,0.0,-0.153309
35404506,-0.125154,-0.0144624,-0.326768,0.0,0.0,-0.154327
35424534,-0.0957206,-0.0270051,-0.33504,0.0,0.0,-0.153309
35444523,-0.0610821,-0.00411448,-0.337696,0.0,0.0,-0.153309
35464574,-0.0501143,0.00360109,-0.344772,0.0,0.0,-0.153309
35484514,-0.00680088,-0.000615272,-0.351715,0.0,0.0,-0.153309
35504525,0.0379552,0.00298084,-0.361893,0.0,0.0,-0.153309
35524542,0.0173538,0.0184091,-0.331979,0.0,0.0,-0.156364
35544585,-0.00173897,0.0338919,-0.381179,0.0,0.0,-0.153309
35564621,-0.00502948,0.0188382,-0.383796,0.0,0.0,-0.152291
35584609,-0.0325431,0.01247,-0.398915,0.0,0.0,-0.153309
35604617,-0.0321317,0.00875461,-0.411304,0.0,0.0,-0.153309
35624645,-0.0567937,0.0165573,-0.42167,0.0,0.0,-0.152291
35644710,-0.0956434,0.000904997,-0.417885,0.0,0.0,-0.152291
35664685,-0.129117,0.0889775,-0.410027,0.0,0.0,-0.148218
35684710,-0.125166,0.0583129,-0.395291,0.0,0.0,-0.1472
35704727,-0.123069,0.0670052,-0.399023,0.0,0.0,-0.1472
35724745,-0.00623524,0.0326172,-0.375053,0.0,0.0,-0.142109
35744769,-0.0230484,0.0314926,-0.373781,0.0,0.0,-0.142109
35764790,-0.0604978,0.00740975,-0.370439,0.0,0.0,-0.138036
35784810,-0.0718436,-0.00214789,-0.366185,0.0,0.0,-0.138036
35804818,-0.0525222,-0.00719576,-0.36991,0.0,0.0,-0.139055
35824871,-0.0490361,0.00317951,-0.344795,0.0,0.0,-0.139055
35844870,-0.0846185,0.0166898,-0.342979,0.0,0.0,-0.139055
35864894,-0.127201,0.0125059,-0.342501,0.0,0.0,-0.138036
35884956,-0.158801,0.0177763,-0.320627,0.0,0.0,-0.138036
35904992,-0.126628,0.0211,-0.292231,0.0,0.0,-0.138036
35924991,-0.118141,0.0108993,-0.28334,0.0,0.0,-0.137018
35944978,-0.11692,5.88856e-05,-0.281287,0.0,0.0,-0.137018
35964998,-0.085293,-0.00529721,-0.245838,0.0,0.0,-0.137018
35985017,-0.0643565,0.0102625,-0.241273,0.0,0.0,-0.137018
36005074,-0.0650228,0.030447,-0.238283,0.0,0.0,-0.137018
36025072,-0.0542947,0.0424994,-0.232849,0.0,0.0,-0.137018
36045093,-0.0667882,0.0281405,-0.227345,0.0,0.0,-0.122764
36065108,-0.0510083,0.0219615,-0.223373,0.0,0.0,-0.122764
36085138,-0.0296118,0.00171312,-0.220559,0.0,0.0,-0.122764
36105144,-0.00495136,-0.00312954,-0.219439,0.0,0.0,-0.123782
36125223,0.00428271,0.011924,-0.218831,0.0,0.0,-0.112582
36145186,-0.0253165,0.0221221,-0.218831,0.0,0.0,-0.106473
36165311,-0.0246149,0.0398948,-0.217652,0.0,0.0,-0.101382
36180280,-0.0223991,0.0402005,-0.217945,0.0,0.0,-0.0993455
36205280,-0.0198374,0.0328244,-0.21809,0.0,0.0,-0.0901818
36225282,-0.0160875,0.0220369,-0.218308,0.0,0.0,-0.0901818
36245336,-0.0139954,0.013543,-0.218085,0.0,0.0,-0.0901818
36265339,-0.00321226,0.00944803,-0.218159,0.0,0.0,-0.0912
36285369,-0.0174273,0.0103472,-0.218506,0.0,0.0,-0.0922182
36305351,-0.0314248,0.0161334,-0.218808,0.0,0.0,-0.0912
36320448,-0.0231468,-0.0018025,-0.21837,0.0,0.0,-0.0932364
36345410,-0.0508358,0.0191515,-0.219138,0.0,0.0,-0.0932364
36365428,-0.0650261,0.0186628,-0.218396,0.0,0.0,-0.0932364
36385449,-0.0899687,0.025764,-0.216914,0.0,0.0,-0.0952727
36405473,-0.100601,0.0218689,-0.215645,0.0,0.0,-0.0861091
36425522,-0.076876,0.0151583,-0.215542,0.0,0.0,-0.0922182
36445507,-0.123119,0.00738556,-0.214515,0.0,0.0,-0.0922182
36460535,-0.144631,0.0262887,-0.213536,0.0,0.0,-0.0922182
36485556,-0.133451,0.0112756,-0.210244,0.0,0.0,-0.0922182
36505562,-0.15238,-0.00523162,-0.207472,0.0,0.0,-0.0922182
36520579,-0.197016,0.0170615,-0.207319,0.0,0.0,-0.0922182
36545612,-0.173732,-0.00563139,-0.201709,0.0,0.0,-0.0922182
36565636,-0.182383,0.000584981,-0.198921,0.0,0.0,-0.0922182
36585643,-0.187092,-0.00283873,-0.196311,0.0,0.0,-0.0922182
36600644,-0.221499,-0.00192515,-0.196353,0.0,0.0,-0.0932364
36625684,-0.220245,-0.00179239,-0.192797,0.0,0.0,-0.0932364
36645709,-0.273751,-0.00229262,-0.191824,0.0,0.0,-0.0973091
36665772,-0.269525,0.0163215,-0.191122,0.0,0.0,-0.0983273
36680744,-0.153182,-0.0151963,-0.190127,0.0,0.0,-0.0952727
36705806,-0.185862,0.0158273,-0.189264,0.0,0.0,-0.0942545
36725794,-0.198824,0.0204838,-0.187507,0.0,0.0,-0.0942545
36740847,-0.187526,0.00198223,-0.185519,0.0,0.0,-0.0942545
36765851,-0.24317,0.0406099,-0.1828,0.0,0.0,-0.0942545
36785860,-0.248287,0.0421176,-0.180584,0.0,0.0,-0.0942545
36805876,-0.224135,0.0421589,-0.178164,0.0,0.0,-0.0912
36820942,-0.223192,0.0471464,-0.175372,0.0,0.0,-0.0912
36845921,-0.190835,0.0418275,-0.173087,0.0,0.0,-0.0922182
36866003,-0.193892,0.0213276,-0.169877,0.0,0.0,-0.0932364
36880982,-0.21468,0.0488937,-0.167067,0.0,0.0,-0.0932364
36905991,-0.187044,0.0216156,-0.163861,0.0,0.0,-0.0942545
36926002,-0.19331,0.0120712,-0.160665,0.0,0.0,-0.0932364
36946057,-0.172834,0.015702,-0.158239,0.0,0.0,-0.0942545
36961032,-0.194332,0.0283157,-0.156371,0.0,0.0,-0.0942545
36986076,-0.148588,0.0259779,-0.153721,0.0,0.0,-0.100364
37006085,-0.129698,0.0315813,-0.152381,0.0,0.0,-0.117673
37021095,-0.123786,0.0148132,-0.150524,0.0,0.0,-0.117673
37046190,-0.102283,0.03458,0.124707,0.0,0.0,-0.141091
37066151,-0.118318,0.0376979,0.160269,0.0,0.0,-0.141091
37086159,-0.121469,0.0434265,0.175199,0.0,0.0,-0.141091
37101190,-0.0664079,0.0177901,0.187333,0.0,0.0,-0.141091
37126204,-0.09322,0.0466065,0.22528,0.0,0.0,-0.141091
37146280,-0.0906813,0.0306358,0.241519,0.0,0.0,-0.140073
37161253,-0.0957757,0.0422003,0.272254,0.0,0.0,-0.141091
37181278,-0.098422,0.026827,0.301262,0.0,0.0,-0.141091
37206302,-0.0867827,0.0209388,0.319307,0.0,0.0,-0.142109
37226348,-0.10069,0.0405239,0.346376,0.0,0.0,-0.153309
37241353,-0.107546,0.0328904,0.363284,0.0,0.0,-0.154327
37266379,-0.128962,0.0159314,0.405849,0.0,0.0,-0.160436
37286429,-0.11371,0.0237235,0.438223,0.0,0.0,-0.168582
37301404,-0.122846,0.0151339,0.490923,0.0,0.0,-0.176727
37321428,-0.115946,0.0372976,0.51286,0.0,0.0,-0.176727
37346450,-0.124415,0.0230124,0.534215,0.0,0.0,-0.176727
37366506,-0.107083,0.0252857,0.555823,0.0,0.0,-0.175709
37381471,-0.0998785,0.025881,0.561286,0.0,0.0,-0.179782
37406556,-0.0804952,0.0284883,0.581696,0.0,0.0,-0.181818
37426535,-0.0581436,0.0131273,0.579279,0.0,0.0,-0.186909
37441551,-0.0361828,0.00260414,0.55046,0.0,0.0,-0.189964
37461555,-0.00797959,0.0130051,0.487926,0.0,0.0,-0.195055
37486619,0.0202989,0.0103669,0.466404,0.0,0.0,-0.202182
37506616,0.042594,0.0187573,0.392635,0.0,0.0,-0.210327
37521635,0.0516204,0.0259355,0.395827,0.0,0.0,-0.210327
37546680,0.0759713,0.0145408,0.381001,0.0,0.0,-0.218473
37566734,0.0749656,0.0128298,0.360417,0.0,0.0,-0.235782
37581720,0.0852725,0.00651081,0.341509,0.0,0.0,-0.239855
37601743,0.071033,0.00837631,0.25431,0.0,0.0,-0.239855
37626741,0.078488,0.0218125,0.226568,0.0,0.0,-0.244945
37646780,0.0639863,0.0172356,0.176245,0.0,0.0,-0.245964
37661765,0.0437505,0.0113061,0.170735,0.0,0.0,-0.245964
37681845,0.0328183,0.0105447,0.164455,0.0,0.0,-0.245964
37706805,0.0317761,0.0122533,0.159957,0.0,0.0,-0.250036
37721828,0.0345614,0.0218974,0.15801,0.0,0.0,-0.254109
37741903,0.00815547,0.0207176,0.152455,0.0,0.0,-0.254109
37766899,0.0296001,0.0182935,0.149832,0.0,0.0,-0.256145
37786917,0.0502192,0.0519245,0.146638,0.0,0.0,-0.256145
37801922,0.0999943,0.0593597,0.147084,0.0,0.0,-0.256145
37821964,0.113045,0.061749,0.150857,0.0,0.0,-0.256145
37846964,0.146554,0.064727,0.150555,0.0,0.0,-0.256145
37862026,0.15301,0.0539569,0.150354,0.0,0.0,-0.2592
37881983,0.180468,0.038882,0.149102,0.0,0.0,-0.263273
37907069,0.194271,0.0348587,0.146297,0.0,0.0,-0.264291
37922024,0.170986,0.0558339,0.144418,0.0,0.0,-0.275491
37942124,0.155464,0.0542692,0.140629,0.0,0.0,-0.275491
37962063,0.210239,0.0662422,0.13751,0.0,0.0,-0.277527
37987115,0.153999,0.0668207,0.133467,0.0,0.0,-0.277527
38002107,0.145659,0.0685157,0.130422,0.0,0.0,-0.277527
38022146,0.116646,0.0656221,0.126221,0.0,0.0,-0.277527
38047177,0.0878136,0.0700935,0.115661,0.0,0.0,-0.277527
38062287,0.070091,0.0720003,0.113202,0.0,0.0,-0.279564
38082257,0.039033,0.0768448,0.0908096,0.0,0.0,-0.2816
38102226,0.0241414,0.0746915,0.0855736,0.0,0.0,-0.2816
38127263,0.00770342,0.0720296,0.0792896,0.0,0.0,-0.2816
38142275,-0.000320086,0.0474736,0.0755507,0.0,0.0,-0.288727
38162293,-0.0106094,0.0551346,0.0694393,0.0,0.0,-0.291782
38182336,-0.0113298,0.0450693,0.0671305,0.0,0.0,-0.295855
38207352,-0.0321329,0.0140562,0.0751981,0.0,0.0,-0.296873
38222365,-0.0331098,0.0236495,0.0719599,0.0,0.0,-0.297891
38242423,-0.0292154,0.00259181,0.074612,0.0,0.0,-0.297891
38267480,-0.0120915,-0.0179495,0.0719182,0.0,0.0,-0.297891
38282464,0.000689828,-0.0202006,0.0756013,0.0,0.0,-0.298909
38302456,0.00347037,-0.0127704,0.0726809,0.0,0.0,-0.298909
38322464,0.0122137,-0.0129065,0.0693266,0.0,0.0,-0.306036
38347527,0.0261206,0.00493885,0.0592772,0.0,0.0,-0.310109
38362506,0.0212347,0.014583,0.0184853,0.0,0.0,-0.316218
38382539,0.0178522,0.0094875,0.014707,0.0,0.0,-0.318255
38407585,-0.012681,-0.0162985,0.0155815,0.0,0.0,-0.317236
38422568,-0.0187158,0.00328372,0.0116637,0.0,0.0,-0.318255
38442649,-0.0115982,0.0121893,0.00889458,0.0,0.0,-0.322327
38462653,-0.00531552,0.0109287,0.00588191,0.0,0.0,-0.323345
38487671,-0.00301155,0.0108557,0.0232462,0.0,0.0,-0.325382
38502647,0.0113225,0.0137321,0.0235647,0.0,0.0,-0.325382
38522696,-0.00959921,0.0132189,0.0354069,0.0,0.0,-0.328436
38547716,0.0197564,0.0280724,0.0213119,0.0,0.0,-0.329455
38562715,0.0189996,0.0211754,-0.0402366,0.0,0.0,-0.330473
38582721,0.0205774,0.0653419,-0.114637,0.0,0.0,-0.330473
38602748,0.0237367,0.0245917,-0.208671,0.0,0.0,-0.331491
38627802,0.0311521,0.0314428,-0.222934,0.0,0.0,-0.332509
38642801,0.028435,0.0286701,-0.229518,0.0,0.0,-0.332509
38662811,0.0326977,0.0128612,-0.236573,0.0,0.0,-0.336582
38682842,0.0431241,0.0198095,-0.244817,0.0,0.0,-0.338618
38702859,0.0238145,0.0143177,-0.243376,0.0,0.0,-0.341673
38722918,0.0140201,0.0248186,-0.248362,0.0,0.0,-0.341673
38742886,0.0152728,0.0174463,-0.251725,0.0,0.0,-0.343709
38768029,0.0136071,0.0221973,-0.203573,0.0,0.0,-0.345745
38782929,0.019491,0.0320495,-0.203737,0.0,0.0,-0.345745
38802969,0.00735202,0.0207068,-0.191334,0.0,0.0,-0.346764
38822966,0.00990274,0.0244063,-0.191739,0.0,0.0,-0.346764
38843000,0.0208724,0.0518063,-0.159789,0.0,0.0,-0.36
38863008,0.0179958,0.109185,-0.157642,0.0,0.0,-0.369164
38883056,0.0227925,0.0971367,-0.143431,0.0,0.0,-0.3712
38908159,0.00509473,0.0954039,-0.12872,0.0,0.0,-0.374255
38923084,0.00252213,0.093915,-0.0941861,0.0,0.0,-0.375273
38943143,0.0154863,0.0870605,-0.0379669,0.0,0.0,-0.385455
38963125,0.0504126,0.0890126,-0.0193962,0.0,0.0,-0.390545
38983224,0.0416806,0.0874715,-0.00648453,0.0,0.0,-0.390545
39003163,0.0482295,0.0784515,-0.00158998,0.0,0.0,-0.390545
39023183,0.0861849,0.0641984,0.00231309,0.0,0.0,-0.390545
39043209,0.118982,0.0550073,0.0048378,0.0,0.0,-0.390545
39063272,0.155278,0.0699369,0.00453304,0.0,0.0,-0.390545
39083274,0.177406,0.05951,0.00861879,0.0,0.0,-0.390545
39103277,0.191295,0.0442773,0.0588746,0.0,0.0,-0.390545
39123299,0.191948,0.0602354,0.0760967,0.0,0.0,-0.390545
39143318,0.207188,0.157769,0.0923569,0.0,0.0,-0.390545
39163360,0.188925,0.182264,0.132146,0.0,0.0,-0.389527
39183427,0.140744,0.13739,0.131411,0.0,0.0,-0.392582
39203390,0.0952665,0.17125,0.129396,0.0,0.0,-0.391564
39223479,0.0382006,0.188809,0.118312,0.0,0.0,-0.400727
39243432,-0.0135076,0.167607,0.106648,0.0,0.0,-0.402764
39263465,0.0131233,0.179815,0.101257,0.0,0.0,-0.402764
39283481,-0.00745717,0.162938,0.0894123,0.0,0.0,-0.4048
39303507,-0.0158787,0.140051,0.095844,0.0,0.0,-0.403782
39323514,0.0206142,0.152149,0.0902505,0.0,0.0,-0.4048
39343585,0.0456716,0.145825,0.0413466,0.0,0.0,-0.403782
39363540,0.00928318,0.142599,0.0407712,0.0,0.0,-0.4048
39383585,-0.0259533,0.112365,0.0419721,0.0,0.0,-0.4048
39403596,-0.194674,0.0936151,0.0417118,0.0,0.0,-0.4048
39423633,-0.237677,0.0998998,0.0417983,0.0,0.0,-0.4048
39443632,-0.232398,0.104656,0.041603,0.0,0.0,-0.403782
39463650,-0.229437,0.10202,0.0469083,0.0,0.0,-0.403782
39483683,-0.247534,0.122798,0.0492976,0.0,0.0,-0.4048
39503692,-0.27638,0.144536,0.0512748,0.0,0.0,-0.4048
39523700,-0.2555,0.15069,0.0522653,0.0,0.0,-0.4048
39543734,-0.189332,0.176988,0.05311,0.0,0.0,-0.402764
39563743,-0.159179,0.191149,0.0546735,0.0,0.0,-0.403782
39583788,-0.181162,0.183968,0.0602846,0.0,0.0,-0.403782
39603827,-0.150041,0.182219,0.0632711,0.0,0.0,-0.402764
39623828,-0.0863349,0.203579,0.0642966,0.0,0.0,-0.403782
39643874,-0.0209832,0.206483,0.0676631,0.0,0.0,-0.400727
39663870,0.0143573,0.184823,0.0733639,0.0,0.0,-0.3936
39683979,0.0253185,0.152678,0.075391,0.0,0.0,-0.377309
39703902,0.0350953,0.124658,0.0770334,0.0,0.0,-0.377309
39723927,0.0566475,0.0790504,0.0777001,0.0,0.0,-0.381382
39743943,0.069647,0.0266723,0.0786407,0.0,0.0,-0.381382
39763976,0.00163015,-0.0448393,0.0808007,0.0,0.0,-0.380364
39783993,-0.0932259,-0.114858,0.0841683,0.0,0.0,-0.391564
39804084,-0.161815,-0.168607,0.0853533,0.0,0.0,-0.3936
39824103,-0.208253,-0.206223,0.0861066,0.0,0.0,-0.396655
39844167,-0.276195,-0.213117,0.0863658,0.0,0.0,-0.396655
39864138,-0.345777,-0.206602,0.0883208,0.0,0.0,-0.395636
39884092,-0.382731,-0.200862,0.0907851,0.0,0.0,-0.394618
39904118,-0.360299,-0.184082,0.0930721,0.0,0.0,-0.394618
39924162,-0.217696,-0.140675,0.0906397,0.0,0.0,-0.392582
39944206,-0.144392,-0.0947695,0.0896472,0.0,0.0,-0.392582
39964174,-0.0966724,-0.0749398,0.0928763,0.0,0.0,-0.392582
39984183,-0.0737434,-0.0603678,0.0934281,0.0,0.0,-0.392582
40004217,-0.0532889,-0.0504951,0.0913915,0.0,0.0,-0.394618
40024295,0.0191072,-0.0186112,0.0889727,0.0,0.0,-0.395636
40044271,0.0777109,-0.0225534,0.0881288,0.0,0.0,-0.395636
40064284,0.0668335,-0.0310167,0.0903095,0.0,0.0,-0.403782
40084313,0.0469006,-0.0471034,0.0925282,0.0,0.0,-0.407855
40104316,0.00838067,-0.0287687,0.0928864,0.0,0.0,-0.411927
40124375,-0.119279,-0.0109141,0.0934097,0.0,0.0,-0.410909
40144375,-0.0568272,-0.00882536,0.0929317,0.0,0.0,-0.410909
40164406,-0.237905,-0.0382047,0.093355,0.0,0.0,-0.410909
40184422,-0.33863,-0.0327606,0.0924563,0.0,0.0,-0.410909
40204448,-0.365414,-0.0175501,0.0925149,0.0,0.0,-0.411927
40224442,-0.372325,-0.0050707,0.0892003,0.0,0.0,-0.409891
40244475,-0.346028,-0.000742838,0.0882507,0.0,0.0,-0.409891
40264483,-0.368242,-0.011494,0.0893391,0.0,0.0,-0.407855
40284557,-0.353173,-0.0065549,0.0868369,0.0,0.0,-0.407855
40304546,-0.308488,0.0142818,0.0851888,0.0,0.0,-0.407855
40324570,-0.22005,0.0274142,0.0818908,0.0,0.0,-0.406836
40344581,-0.148383,0.0354818,0.0814189,0.0,0.0,-0.407855
40364601,-0.109965,-0.0200885,0.0811651,0.0,0.0,-0.407855
40384615,-0.0579071,-0.0349864,0.0804167,0.0,0.0,-0.4048
40404647,0.00980348,-0.0824518,0.0767784,0.0,0.0,-0.3936
40424688,0.0723367,-0.108743,0.0753855,0.0,0.0,-0.3936
40444681,0.121537,-0.186415,0.0735553,0.0,0.0,-0.3936
40464747,0.0962389,-0.188091,0.0726456,0.0,0.0,-0.3936
40484721,0.0797809,-0.192216,0.0714134,0.0,0.0,-0.390545
40504741,0.0744214,-0.188586,0.0690992,0.0,0.0,-0.391564
40524761,0.102876,-0.221888,0.0592656,0.0,0.0,-0.3824
40544813,0.098069,-0.234593,0.0589825,0.0,0.0,-0.3824
40564804,0.029461,-0.220638,0.0663193,0.0,0.0,-0.3824
40584873,-0.0163919,-0.216116,0.0585865,0.0,0.0,-0.3824
40604845,-0.068579,-0.197293,0.0559431,0.0,0.0,-0.3824
40624919,-0.0389257,-0.170146,0.0547574,0.0,0.0,-0.3824
40644905,-0.0949747,-0.146518,0.0594768,0.0,0.0,-0.3824
40664919,-0.148384,-0.124957,0.0642818,0.0,0.0,-0.3824
40684930,-0.15599,-0.0863186,0.0548932,0.0,0.0,-0.3824
40704957,-0.129779,-0.0613405,0.0621393,0.0,0.0,-0.381382
40724985,-0.0878409,-0.00977746,0.0571386,0.0,0.0,-0.381382
40745002,-0.0958728,0.0314271,0.0544704,0.0,0.0,-0.3824
40765000,-0.11984,0.019708,0.0565683,0.0,0.0,-0.379345
40785045,-0.124953,0.0105322,0.055637,0.0,0.0,-0.379345
40805081,-0.0351182,-0.0154835,0.0510496,0.0,0.0,-0.363055
40825079,0.028485,-0.00336712,0.0518999,0.0,0.0,-0.362036
40845084,0.0179779,-0.0427247,0.0595562,0.0,0.0,-0.362036
40865117,0.0281151,-0.0890945,0.0744818,0.0,0.0,-0.362036
40885127,0.0304837,-0.106092,0.0772242,0.0,0.0,-0.362036
40905160,0.0392191,-0.101973,0.0768248,0.0,0.0,-0.362036
40925167,0.128121,-0.111465,0.0710221,0.0,0.0,-0.363055
40940266,0.107609,-0.102492,0.0721204,0.0,0.0,-0.363055
40965210,0.104901,-0.111853,0.0784921,0.0,0.0,-0.365091
40985256,0.13245,-0.0795634,0.0800012,0.0,0.0,-0.365091
41005253,0.0980311,-0.182786,0.0862527,0.0,0.0,-0.366109
41025303,0.21395,-0.153714,0.092808,0.0,0.0,-0.366109
41045314,0.217464,-0.121476,0.0883452,0.0,0.0,-0.367127
41065336,0.197878,-0.101243,0.0913824,0.0,0.0,-0.367127
41080371,0.190211,-0.102395,0.093527,0.0,0.0,-0.368145
41105390,0.15336,-0.0900793,0.103442,0.0,0.0,-0.368145
41125444,0.151511,-0.0906572,0.0839165,0.0,0.0,-0.3712
41145436,0.0975973,-0.116405,0.0916459,0.0,0.0,-0.373236
41165529,0.074991,-0.12702,0.0827611,0.0,0.0,-0.376291
41185479,0.0553194,-0.162242,0.0824741,0.0,0.0,-0.376291
41205483,0.0838622,-0.169726,0.0881141,0.0,0.0,-0.377309
41220505,0.10186,-0.220979,0.0960042,0.0,0.0,-0.377309
41245580,0.117575,-0.214072,0.110529,0.0,0.0,-0.376291
41265547,0.071246,-0.208602,0.107474,0.0,0.0,-0.376291
41285625,0.0641346,-0.145444,0.106926,0.0,0.0,-0.379345
41305596,0.065383,-0.0798114,0.116372,0.0,0.0,-0.379345
41325676,0.105905,-0.0181835,0.116285,0.0,0.0,-0.378327
41345624,0.108137,0.0306696,0.120161,0.0,0.0,-0.377309
41360660,0.10989,0.0532242,0.120824,0.0,0.0,-0.377309
41385660,0.128581,0.177443,0.122843,0.0,0.0,-0.376291
41405690,0.138242,0.244079,0.124848,0.0,0.0,-0.379345
41425749,0.160885,0.284524,0.123711,0.0,0.0,-0.380364
41440751,0.131569,0.242232,0.127741,0.0,0.0,-0.380364
41465732,0.122533,0.180075,0.132139,0.0,0.0,-0.3824
41485770,0.0513592,0.115026,0.134531,0.0,0.0,-0.385455
41500846,0.0316362,0.0621239,0.137603,0.0,0.0,-0.388509
41525820,-0.0202826,-0.00164255,0.141876,0.0,0.0,-0.390545
41545818,-0.0598259,0.0464192,0.144657,0.0,0.0,-0.391564
41565860,-0.141964,0.00720165,0.149266,0.0,0.0,-0.392582
41580882,-0.232395,-0.0180628,0.150136,0.0,0.0,-0.392582
41605971,-0.340646,-0.0565528,0.153763,0.0,0.0,-0.390545
41625961,-0.31674,-0.0183619,0.155195,0.0,0.0,-0.388509
41640943,-0.326075,-0.0283024,0.155775,0.0,0.0,-0.388509
41665958,-0.265876,0.034055,0.159436,0.0,0.0,-0.385455
41685992,-0.23848,0.0642511,0.159645,0.0,0.0,-0.380364
41705987,-0.196412,0.141467,0.159701,0.0,0.0,-0.379345
41721035,-0.142414,0.143446,0.159134,0.0,0.0,-0.379345
41746092,-0.0224614,0.144266,0.154868,0.0,0.0,-0.379345
41766100,0.0250504,0.0933883,0.152272,0.0,0.0,-0.381382
41781085,0.0539707,0.0515306,0.149915,0.0,0.0,-0.380364
41806116,0.0677162,-0.0155505,0.144422,0.0,0.0,-0.383418
41826122,0.0368388,-0.071045,0.137595,0.0,0.0,-0.3824
41846148,0.0393072,-0.100875,0.130861,0.0,0.0,-0.3824
41861170,-0.0727458,-0.147343,0.127618,0.0,0.0,-0.383418
41886191,-0.201638,-0.199979,0.121972,0.0,0.0,-0.380364
41906255,-0.26572,-0.211862,0.11925,0.0,0.0,-0.380364
41921283,-0.371078,-0.262048,0.117354,0.0,0.0,-0.379345
41941254,-0.422547,-0.239551,0.11462,0.0,0.0,-0.380364
41966282,-0.458862,-0.292723,0.113768,0.0,0.0,-0.373236
41986304,-0.523844,-0.311097,0.114392,0.0,0.0,-0.362036
42001335,-0.512254,-0.307586,0.112476,0.0,0.0,-0.344727
42026411,-0.479819,-0.284376,0.10935,0.0,0.0,-0.338618
42046374,-0.413171,-0.274016,0.104293,0.0,0.0,-0.335564
42061408,-0.392539,-0.249514,0.102059,0.0,0.0,-0.335564
42081472,-0.287541,-0.208612,0.097093,0.0,0.0,-0.336582
42106441,-0.215446,-0.282894,0.090716,0.0,0.0,-0.334545
42126450,-0.10822,-0.259995,0.0856765,0.0,0.0,-0.333527
42141480,-0.0322029,-0.24067,0.0802394,0.0,0.0,-0.333527
42166489,0.0933306,-0.330104,0.0700972,0.0,0.0,-0.331491
42186532,0.118848,-0.315982,0.0643729,0.0,0.0,-0.334545
42201593,0.17988,-0.305256,0.0601859,0.0,0.0,-0.334545
42221560,0.178427,-0.302649,0.0545778,0.0,0.0,-0.334545
42246574,0.176158,-0.257034,0.0461462,0.0,0.0,-0.335564
42266604,0.175674,-0.222002,0.0428252,0.0,0.0,-0.336582
42281629,0.162152,-0.173725,0.0355084,0.0,0.0,-0.336582
42306657,0.0721577,-0.130542,0.0322973,0.0,0.0,-0.336582
42326646,0.045998,-0.0997931,0.0256629,0.0,0.0,-0.336582
42341707,0.0237016,-0.0816451,0.0229463,0.0,0.0,-0.336582
42361699,0.0459487,-0.0408613,0.0177713,0.0,0.0,-0.336582
42386719,0.0389283,0.0103496,0.0159957,0.0,0.0,-0.334545
42406723,0.0315514,0.0437282,0.0133349,0.0,0.0,-0.334545
42421815,0.0706791,0.164142,0.0134197,0.0,0.0,-0.336582
42441778,0.151585,0.146597,0.00707289,0.0,0.0,-0.336582
42466809,0.270676,0.143489,-0.000164991,0.0,0.0,-0.3488
42481897,0.36579,0.144053,-0.00293466,0.0,0.0,-0.350836
42501882,0.381284,0.119455,-0.00786345,0.0,0.0,-0.350836
42526918,0.506313,0.0909748,-0.0141703,0.0,0.0,-0.350836
42546886,0.529821,0.0881668,-0.0185105,0.0,0.0,-0.350836
42561917,0.475287,0.0514214,-0.0182277,0.0,0.0,-0.350836
42581913,0.434756,0.0356017,-0.02263,0.0,0.0,-0.350836
42606940,0.344066,0.103775,-0.0214565,0.0,0.0,-0.355927
42621955,0.275454,0.094638,-0.0212548,0.0,0.0,-0.355927
42641989,0.164532,0.148666,-0.021856,0.0,0.0,-0.373236
42667020,0.066267,0.275733,-0.0222694,0.0,0.0,-0.390545
42687066,-0.0560848,0.25043,-0.0224202,0.0,0.0,-0.3936
42702100,-0.102949,0.252622,-0.023629,0.0,0.0,-0.3936
42722075,-0.198056,0.203579,-0.0499748,0.0,0.0,-0.395636
42747103,-0.166323,0.198487,-0.0598061,0.0,0.0,-0.408873
42762123,-0.157132,0.171404,-0.0599004,0.0,0.0,-0.408873
42782150,-0.0898944,0.148595,-0.059563,0.0,0.0,-0.407855
42807168,-0.0451041,0.11722,-0.0728908,0.0,0.0,-0.406836
42822182,0.0736403,0.086282,-0.0801383,0.0,0.0,-0.406836
42842204,0.133874,0.0945726,-0.0749003,0.0,0.0,-0.406836
42862300,0.219935,0.039591,-0.0605016,0.0,0.0,-0.406836
42887262,0.272693,-0.0216309,-0.0711162,0.0,0.0,-0.407855
42902334,0.295698,-0.0308161,-0.070906,0.0,0.0,-0.407855
42922313,0.270426,-0.013854,-0.0695747,0.0,0.0,-0.410909
42942329,0.227722,-0.00333508,-0.0702326,0.0,0.0,-0.410909
42967333,0.168895,0.0176819,-0.0889137,0.0,0.0,-0.429236
42982402,0.123513,0.0221368,-0.0886709,0.0,0.0,-0.429236
43002389,0.0001213,-0.0058636,-0.0799873,0.0,0.0,-0.434327
43027412,-0.158972,0.023229,-0.0779184,0.0,0.0,-0.434327
43042421,-0.217383,-0.00258996,-0.0767436,0.0,0.0,-0.434327
43062454,-0.240563,0.00326809,-0.0747208,0.0,0.0,-0.434327
43082452,-0.276504,0.00244198,-0.0800363,0.0,0.0,-0.436364
43107471,-0.332068,-0.0295174,-0.0761783,0.0,0.0,-0.436364
43122491,-0.351982,-0.0308079,-0.0542985,0.0,0.0,-0.435345
43142534,-0.304244,-0.0425402,-0.0597157,0.0,0.0,-0.436364
43167562,-0.213572,-0.0293004,-0.043115,0.0,0.0,-0.436364
43182566,-0.149083,0.00567204,-0.008087,0.0,0.0,-0.436364
43202637,-0.107701,0.0121137,0.00450186,0.0,0.0,-0.436364
43222602,-0.100627,-0.00893344,0.0108764,0.0,0.0,-0.436364
43247642,-0.0146624,-0.0560428,0.0179544,0.0,0.0,-0.436364
43262648,-0.0497035,-0.0861489,0.0236617,0.0,0.0,-0.434327
43282658,-0.0943077,-0.0954443,0.0314941,0.0,0.0,-0.434327
43302702,-0.192266,-0.136985,0.0401154,0.0,0.0,-0.434327
43322697,-0.28748,-0.206289,0.0495053,0.0,0.0,-0.434327
43342733,-0.421239,-0.235979,0.056185,0.0,0.0,-0.434327
43362736,-0.442122,-0.326498,0.0640243,0.0,0.0,-0.435345
43387841,-0.551056,-0.366759,0.063341,0.0,0.0,-0.436364
43402775,-0.578795,-0.362106,0.0744236,0.0,0.0,-0.435345
43422818,-0.569476,-0.328196,0.0528789,0.0,0.0,-0.436364
43442816,-0.505777,-0.271285,0.0470157,0.0,0.0,-0.436364
43462909,-0.425056,-0.162407,0.0879961,0.0,0.0,-0.4384
43482919,-0.339739,-0.0980583,0.088245,0.0,0.0,-0.435345
43502894,-0.220608,-0.0564786,0.092073,0.0,0.0,-0.435345
43527933,-0.135318,0.0454155,0.105107,0.0,0.0,-0.430255
43542940,-0.0734553,0.0584526,0.108107,0.0,0.0,-0.430255
43562970,0.0260078,0.08005,0.111295,0.0,0.0,-0.418036
43582988,0.104636,0.0695991,0.116804,0.0,0.0,-0.411927
43603038,0.111283,0.0648798,0.120395,0.0,0.0,-0.405818
43623027,0.0833235,0.0842979,0.125523,0.0,0.0,-0.403782
43643115,0.0661322,0.126885,0.129314,0.0,0.0,-0.402764
43668084,0.0222981,0.159705,0.135247,0.0,0.0,-0.403782
43683089,0.00855304,0.171685,0.136683,0.0,0.0,-0.403782
43703121,-0.0595706,0.205151,0.139999,0.0,0.0,-0.403782
43723186,-0.167977,0.151487,0.146063,0.0,0.0,-0.401745
43743153,-0.213174,0.102032,0.150355,0.0,0.0,-0.403782
43763172,-0.195738,0.0758675,0.153895,0.0,0.0,-0.403782
43783188,-0.168852,0.0435954,0.15597,0.0,0.0,-0.403782
43803217,-0.136374,-0.0028044,0.158338,0.0,0.0,-0.396655
43823235,-0.128471,-0.0492119,0.159703,0.0,0.0,-0.3936
43843256,-0.100739,-0.108396,0.161335,0.0,0.0,-0.392582
43863271,-0.0396198,-0.104256,0.163068,0.0,0.0,-0.392582
43883308,0.0171739,-0.0950991,0.161207,0.0,0.0,-0.392582
43903342,0.0555677,-0.0815564,0.165142,0.0,0.0,-0.3936
43923355,0.0452192,-0.0724079,0.170105,0.0,0.0,-0.3936
43943364,0.0364995,-0.0409955,0.175331,0.0,0.0,-0.394618
43963396,0.0867988,-0.0178172,0.177952,0.0,0.0,-0.3936
43983441,0.156406,0.0301569,0.180985,0.0,0.0,-0.3936
44003434,0.22085,0.0923601,0.188294,0.0,0.0,-0.3936
44023445,0.21964,0.105394,0.195173,0.0,0.0,-0.394618
44043479,0.202217,0.101641,0.203989,0.0,0.0,-0.3936
44063499,0.208005,0.0853301,0.208272,0.0,0.0,-0.3936
44083513,0.20438,0.109918,0.214381,0.0,0.0,-0.3936
44103522,0.187442,0.0916828,0.219171,0.0,0.0,-0.3936
44123555,0.14698,0.0534372,0.22674,0.0,0.0,-0.3936
44143565,0.0535946,0.0251544,0.220329,0.0,0.0,-0.3936
44163610,0.0314065,-0.0123199,0.202857,0.0,0.0,-0.392582
44183625,0.171417,-0.0583486,0.203499,0.0,0.0,-0.389527
44203647,0.137109,-0.0711669,0.208439,0.0,0.0,-0.389527
44223717,0.117883,-0.161693,0.22007,0.0,0.0,-0.378327
44243775,0.142826,-0.194985,0.179321,0.0,0.0,-0.376291
44263756,0.102756,-0.211108,0.1922,0.0,0.0,-0.3712
44283792,0.115561,-0.257783,0.187543,0.0,0.0,-0.372218
44303839,0.142969,-0.215687,0.189175,0.0,0.0,-0.372218
44323760,0.127418,-0.20988,0.203376,0.0,0.0,-0.372218
44343831,0.133207,-0.119544,0.187002,0.0,0.0,-0.372218
44363807,0.138131,-0.0910337,0.186803,0.0,0.0,-0.372218
44383845,0.214334,0.115264,0.185288,0.0,0.0,-0.3712
44403843,0.291292,0.263378,0.177776,0.0,0.0,-0.3712
44423914,0.311673,0.26849,0.189758,0.0,0.0,-0.369164
44443885,0.295565,0.318876,0.197496,0.0,0.0,-0.370182
44463918,0.306936,0.254189,0.209733,0.0,0.0,-0.358982
44483928,0.321525,0.252795,0.20649,0.0,0.0,-0.358982
44503987,0.327228,0.151638,0.224013,0.0,0.0,-0.351855
44523963,0.294048,0.104432,0.215154,0.0,0.0,-0.3488
44543993,0.224188,0.0261305,0.197869,0.0,0.0,-0.345745
44564017,0.134301,-0.0140922,0.16482,0.0,0.0,-0.346764
44584043,0.0721932,-0.0548374,0.155288,0.0,0.0,-0.346764
44604047,0.042952,-0.0393985,0.143846,0.0,0.0,-0.346764
44624087,0.00397535,-0.0526723,0.132871,0.0,0.0,-0.346764
44644083,-0.0565744,-0.0441761,0.12414,0.0,0.0,-0.346764
44664116,-0.0927556,-0.03506,0.126385,0.0,0.0,-0.347782
44684133,-0.0864287,-0.0123668,0.115844,0.0,0.0,-0.347782
44704160,-0.0590136,0.0116749,0.124774,0.0,0.0,-0.345745
44724191,-0.0211953,-0.0278099,0.109659,0.0,0.0,-0.340655
44744198,-0.0070484,-0.0759458,0.112574,0.0,0.0,-0.332509
44764208,0.0369953,-0.0631532,0.103218,0.0,0.0,-0.332509
44784243,0.0915826,-0.0639948,0.0940367,0.0,0.0,-0.331491
44804259,0.157026,-0.0739757,0.0860984,0.0,0.0,-0.328436
44824290,0.196806,-0.0785223,0.0783388,0.0,0.0,-0.329455
44844311,0.192123,-0.088992,0.0704207,0.0,0.0,-0.329455
44864342,0.165867,-0.122123,0.0219082,0.0,0.0,-0.328436
44884391,0.203766,-0.0811703,0.0199723,0.0,0.0,-0.330473
44904391,0.228585,-0.0539737,0.0100225,0.0,0.0,-0.330473
44924448,0.202188,0.00761975,0.00238489,0.0,0.0,-0.330473
44944436,0.154227,-0.0317224,-0.0117553,0.0,0.0,-0.330473
44964448,0.114523,-0.0454174,-0.00615352,0.0,0.0,-0.330473
44984466,0.0997207,-0.0165605,-0.000667429,0.0,0.0,-0.330473
45004520,0.0870079,0.041578,-0.0184192,0.0,0.0,-0.335564
45024509,0.053138,0.0803439,-0.0237334,0.0,0.0,-0.3376
45044588,-0.0142655,0.0908165,-0.0205954,0.0,0.0,-0.340655
45064559,-0.0429902,0.0771278,-0.0255332,0.0,0.0,-0.347782
45084597,-0.021571,0.0719312,-0.0182984,0.0,0.0,-0.352873
45104587,-0.0157774,0.0703453,-0.0156184,0.0,0.0,-0.356945
45124635,-0.047289,0.0556667,-0.0380017,0.0,0.0,-0.357964
45144631,-0.0847427,0.0230983,-0.0550984,0.0,0.0,-0.357964
45164670,-0.0728087,0.0107323,-0.0550905,0.0,0.0,-0.354909
45184675,-0.052097,-0.00568483,-0.072508,0.0,0.0,-0.355927
45204730,-0.0503613,-0.00928014,-0.0707855,0.0,0.0,-0.355927
45224709,-0.0401243,-0.0997905,-0.0671172,0.0,0.0,-0.354909
45244749,-0.0779745,-0.117844,-0.0686367,0.0,0.0,-0.354909
45264743,-0.088284,-0.112502,-0.0727084,0.0,0.0,-0.355927
45284811,-0.0460202,-0.127006,-0.070836,0.0,0.0,-0.355927
45304776,-0.0589398,-0.127672,-0.065697,0.0,0.0,-0.357964
45324811,-0.131926,-0.237219,-0.0711874,0.0,0.0,-0.361018
45344831,-0.199224,-0.236493,-0.0711669,0.0,0.0,-0.366109
45364857,-0.252393,-0.203127,-0.0685644,0.0,0.0,-0.381382
45384869,-0.296064,-0.169386,-0.123651,0.0,0.0,-0.388509
45404910,-0.315782,-0.176372,-0.117526,0.0,0.0,-0.3936
45424914,-0.368759,-0.193619,-0.0979716,0.0,0.0,-0.392582
45444935,-0.362898,-0.199998,-0.111195,0.0,0.0,-0.3936
45464959,-0.314764,-0.235561,-0.125131,0.0,0.0,-0.3936
45484980,-0.239199,-0.208377,-0.133945,0.0,0.0,-0.392582
45504985,-0.186226,-0.199382,-0.134767,0.0,0.0,-0.3936
45525019,-0.163183,-0.20184,-0.126057,0.0,0.0,-0.395636
45545050,-0.103629,-0.223872,-0.133827,0.0,0.0,-0.403782
45565076,0.00123166,-0.204323,-0.143782,0.0,0.0,-0.4048
45585070,0.0841537,-0.169962,-0.139778,0.0,0.0,-0.407855
45605104,0.097404,-0.132138,-0.145521,0.0,0.0,-0.410909
45625123,0.125228,-0.113503,-0.144662,0.0,0.0,-0.410909
45645191,0.146587,-0.107243,-0.140513,0.0,0.0,-0.409891
45665205,0.122919,-0.0679189,-0.136986,0.0,0.0,-0.409891
45685188,0.0967475,0.0360347,-0.137365,0.0,0.0,-0.408873
45700201,0.0636652,0.0468308,-0.137987,0.0,0.0,-0.408873
45725297,-0.0374258,0.0640424,-0.124911,0.0,0.0,-0.408873
45745253,-0.168988,0.0822473,-0.124231,0.0,0.0,-0.407855
45765289,-0.180914,0.100914,-0.125774,0.0,0.0,-0.408873
45785362,-0.197143,0.0887091,-0.120709,0.0,0.0,-0.407855
45805388,-0.24462,0.0560721,-0.122223,0.0,0.0,-0.407855
45825385,-0.31978,-0.0125277,-0.121147,0.0,0.0,-0.407855
45840413,-0.220034,-0.0366609,-0.11711,0.0,0.0,-0.406836
45865399,-0.221769,-0.0987844,-0.116372,0.0,0.0,-0.406836
45885439,-0.169928,-0.161353,-0.131674,0.0,0.0,-0.409891
45905445,-0.126242,-0.191062,-0.133304,0.0,0.0,-0.409891
45925447,-0.112356,-0.226673,-0.143536,0.0,0.0,-0.409891
45945471,-0.0544049,-0.313108,-0.155657,0.0,0.0,-0.406836
45965486,-0.0148932,-0.29355,-0.160159,0.0,0.0,-0.410909
45980513,0.00832149,-0.253715,-0.167343,0.0,0.0,-0.410909
46005574,0.10994,-0.288769,-0.187417,0.0,0.0,-0.410909
46025611,0.131824,-0.216887,-0.203695,0.0,0.0,-0.408873
46045566,0.0998723,-0.163355,-0.194891,0.0,0.0,-0.408873
46065652,0.102086,-0.116165,-0.201736,0.0,0.0,-0.411927
46085606,0.0967376,0.0239178,-0.200102,0.0,0.0,-0.411927
46105630,0.0768447,0.0747164,-0.202159,0.0,0.0,-0.410909
46120649,0.042821,0.10213,-0.203182,0.0,0.0,-0.410909
46145682,-0.0889907,0.128746,-0.20449,0.0,0.0,-0.411927
46165687,-0.182003,0.135063,-0.183625,0.0,0.0,-0.409891
46185716,-0.255879,0.103304,-0.167146,0.0,0.0,-0.409891
46200736,-0.287399,0.0647731,-0.152697,0.0,0.0,-0.411927
46225763,-0.263882,0.0234699,-0.142505,0.0,0.0,-0.410909
46245786,-0.290017,-0.0106412,-0.151873,0.0,0.0,-0.410909
46260782,-0.264487,-0.0274783,-0.157446,0.0,0.0,-0.411927
46285874,-0.264621,-0.0952201,-0.150713,0.0,0.0,-0.410909
46305852,-0.1929,-0.107684,-0.1695,0.0,0.0,-0.410909
46325943,-0.140058,-0.11558,-0.159423,0.0,0.0,-0.410909
46340860,0.0448349,-0.0969186,-0.166889,0.0,0.0,-0.411927
46365913,0.114275,-0.0996331,-0.152333,0.0,0.0,-0.410909
46385932,0.158944,-0.0686429,-0.15085,0.0,0.0,-0.410909
46400936,0.200945,-0.0299596,-0.150703,0.0,0.0,-0.410909
46425984,0.297633,0.0152483,-0.147685,0.0,0.0,-0.411927
46446043,0.291065,0.0406618,-0.143357,0.0,0.0,-0.410909
46466018,0.246543,0.110649,-0.137005,0.0,0.0,-0.410909
46481021,0.227304,0.148593,-0.120912,0.0,0.0,-0.411927
46506072,0.181573,0.236014,-0.122903,0.0,0.0,-0.410909
46526110,0.113283,0.247983,-0.130878,0.0,0.0,-0.411927
46541092,-0.0407166,0.196788,-0.127862,0.0,0.0,-0.410909
46566138,-0.226021,0.0879825,-0.086576,0.0,0.0,-0.410909
46586184,-0.388168,-0.0355156,-0.0629649,0.0,0.0,-0.410909
46606167,-0.431322,-0.084085,-0.0526279,0.0,0.0,-0.411927
46621226,-0.505524,-0.171341,-0.0269498,0.0,0.0,-0.410909
46646205,-0.493993,-0.195518,-0.0280227,0.0,0.0,-0.410909
46666218,-0.514644,-0.194434,-0.0218209,0.0,0.0,-0.410909
46681260,-0.461152,-0.17548,-0.000737807,0.0,0.0,-0.409891
46701275,-0.353842,-0.26465,0.0246472,0.0,0.0,-0.408873
46726299,-0.125411,-0.197608,0.0488622,0.0,0.0,-0.407855
46746308,-0.00588192,-0.0445636,0.0562955,0.0,0.0,-0.407855
46761339,0.119055,-0.0144581,0.05994,0.0,0.0,-0.406836
46786358,0.229642,0.0181227,0.0667196,0.0,0.0,-0.407855
46806384,0.335182,0.0893571,0.0706287,0.0,0.0,-0.409891
46821407,0.375377,0.134776,0.0736362,0.0,0.0,-0.407855
46841426,0.43494,0.152148,0.0750397,0.0,0.0,-0.406836
46866432,0.379886,0.121489,0.0795012,0.0,0.0,-0.403782
46886461,0.390626,0.00671623,0.0801737,0.0,0.0,-0.397673
46901599,0.360725,-0.0164172,0.0815202,0.0,0.0,-0.397673
46926511,0.308413,0.028469,0.0870432,0.0,0.0,-0.391564
46946561,0.227021,-0.00631818,0.0922398,0.0,0.0,-0.389527
46961540,0.18987,-0.133342,0.0931724,0.0,0.0,-0.389527
46981565,0.0610051,-0.0634084,0.0985223,0.0,0.0,-0.392582
47006605,-0.0233393,-0.0535114,0.0999455,0.0,0.0,-0.392582
47026620,-0.138996,-0.0498352,0.104059,0.0,0.0,-0.395636
47041606,-0.218551,-0.0449768,0.104671,0.0,0.0,-0.395636
47066710,-0.333157,-0.0263015,0.111528,0.0,0.0,-0.403782
47086668,-0.373779,-0.00586759,0.111779,0.0,0.0,-0.403782
47101677,-0.392689,0.00983018,0.115118,0.0,0.0,-0.403782
47121726,-0.339584,0.0242261,0.115483,0.0,0.0,-0.402764
47146760,-0.245646,0.0326881,0.115913,0.0,0.0,-0.402764
47166753,-0.196088,0.0299501,0.118501,0.0,0.0,-0.402764
47181753,-0.157748,0.00653133,0.119914,0.0,0.0,-0.400727
47201810,-0.12846,0.0927153,0.121984,0.0,0.0,-0.400727
47226837,-0.0360528,0.0778276,0.124781,0.0,0.0,-0.400727
47241882,-0.00917007,0.0861764,0.120572,0.0,0.0,-0.400727
47261849,0.0402215,0.102537,0.12275,0.0,0.0,-0.400727
47286945,0.0611004,0.107975,0.119725,0.0,0.0,-0.400727
47306904,0.0901885,0.174252,0.116562,0.0,0.0,-0.400727
47321986,0.05059,0.194285,0.116248,0.0,0.0,-0.400727
47341933,0.0834428,0.254028,0.160367,0.0,0.0,-0.396655
47366954,-0.00820319,0.20485,0.115897,0.0,0.0,-0.394618
47381968,-0.000865376,0.19122,0.113816,0.0,0.0,-0.391564
47402019,-0.0286256,0.156159,0.157713,0.0,0.0,-0.390545
47427032,-0.0335432,0.0276085,0.160259,0.0,0.0,-0.387491
47442032,-0.0475513,-0.0582039,0.162589,0.0,0.0,-0.387491
47462076,-0.0698831,-0.0994044,0.163109,0.0,0.0,-0.387491
47482083,-0.0717412,-0.176411,0.163856,0.0,0.0,-0.387491
47507107,-0.0173597,-0.187249,0.172275,0.0,0.0,-0.387491
47522116,-0.030978,-0.169112,0.161731,0.0,0.0,-0.388509
47542124,0.0150703,-0.22866,0.159726,0.0,0.0,-0.386473
47567162,0.0146678,-0.205811,0.157758,0.0,0.0,-0.386473
47582163,0.0211881,-0.189339,0.161565,0.0,0.0,-0.381382
47602237,0.0393151,-0.101695,0.151928,0.0,0.0,-0.379345
47622205,0.0772243,-0.126824,0.146634,0.0,0.0,-0.361018
47647243,0.0766719,-0.0999587,0.141635,0.0,0.0,-0.355927
47662251,0.099069,-0.067558,0.14574,0.0,0.0,-0.355927
47682308,0.055548,-0.0448017,0.136158,0.0,0.0,-0.355927
47702332,0.0515247,0.0745296,0.139127,0.0,0.0,-0.361018
47727430,0.0172338,0.137962,0.081509,0.0,0.0,-0.361018
47742340,0.00478146,0.155434,0.0745003,0.0,0.0,-0.361018
47762388,-0.0852763,0.225722,0.069848,0.0,0.0,-0.367127
47787481,-0.120471,0.239817,0.0590333,0.0,0.0,-0.367127
47802453,-0.185269,0.233305,0.0541621,0.0,0.0,-0.368145
47822437,-0.186603,0.223093,0.046335,0.0,0.0,-0.366109
47842468,-0.172685,0.182882,0.0396665,0.0,0.0,-0.366109
47867503,-0.197692,0.0873467,0.0316189,0.0,0.0,-0.366109
47882504,-0.180477,0.0381875,0.0245037,0.0,0.0,-0.366109
47902589,-0.16422,-0.0679225,0.0176219,0.0,0.0,-0.362036
47927612,-0.0818438,-0.101828,0.00797213,0.0,0.0,-0.361018
47942575,-0.0551367,-0.126106,0.00115084,0.0,0.0,-0.356945
47962593,-0.0508967,-0.14513,-0.00572963,0.0,0.0,-0.357964
47982628,-0.0899616,-0.164904,-0.00996998,0.0,0.0,-0.358982
48007649,-0.0366971,-0.12802,-0.019634,0.0,0.0,-0.361018
48022699,-0.0592562,-0.11802,-0.0224087,0.0,0.0,-0.380364
48042671,-0.0339103,-0.0919421,-0.0267362,0.0,0.0,-0.380364
48067709,-0.129249,-0.117614,-0.0292561,0.0,0.0,-0.391564
48082706,-0.147983,-0.102891,-0.0313829,0.0,0.0,-0.395636
48102783,-0.143695,-0.0396051,-0.0355251,0.0,0.0,-0.395636
48122789,-0.0865831,-0.00899093,-0.0383791,0.0,0.0,-0.395636
48147798,-0.0652176,-0.00574278,-0.0418431,0.0,0.0,-0.395636
48162790,-0.0566233,-0.0235337,-0.0428085,0.0,0.0,-0.395636
48182840,-0.0595661,-0.0228237,-0.047101,0.0,0.0,-0.395636
48202886,-0.0358081,-0.0169164,-0.0485069,0.0,0.0,-0.395636
48222873,0.0336765,-0.00244169,-0.0519071,0.0,0.0,-0.396655
48242861,0.109848,-0.00826945,-0.0528099,0.0,0.0,-0.395636
48262895,0.133988,-0.0119101,-0.0540576,0.0,0.0,-0.397673
48287939,0.169095,-0.0284095,-0.0557947,0.0,0.0,-0.400727
48302941,0.194014,-0.0260333,-0.0541045,0.0,0.0,-0.403782
48322958,0.23872,-0.022845,-0.0558,0.0,0.0,-0.403782
48342987,0.293804,-0.0196244,-0.0548432,0.0,0.0,-0.403782
48362988,0.288464,-0.0103414,-0.0513345,0.0,0.0,-0.403782
48383083,0.273083,1.32164e-05,-0.0490506,0.0,0.0,-0.405818
48403038,0.238735,-0.0055977,-0.0531248,0.0,0.0,-0.405818
48428164,0.32845,0.0224993,-0.0456578,0.0,0.0,-0.405818
48443073,0.322148,0.0033482,-0.0502726,0.0,0.0,-0.405818
48463172,0.333525,-0.013748,-0.0389115,0.0,0.0,-0.405818
48483115,0.262664,-0.037886,-0.0351232,0.0,0.0,-0.403782
48503149,0.197568,-0.0520494,-0.0299426,0.0,0.0,-0.403782
48523156,0.135961,-0.0615019,-0.0240183,0.0,0.0,-0.403782
48543193,0.0946421,-0.0451975,-0.0192545,0.0,0.0,-0.403782
48568232,0.0132622,0.00858509,-0.0117503,0.0,0.0,-0.403782
48583233,0.0320278,0.0287996,-0.0359103,0.0,0.0,-0.403782
48603305,-0.0139957,0.052711,-0.0400856,0.0,0.0,-0.401745
48623308,-0.0116082,0.0555152,-0.0385961,0.0,0.0,-0.401745
48643416,0.0211503,0.0438734,-0.0460387,0.0,0.0,-0.402764
48663374,0.0788654,0.061608,-0.00185089,0.0,0.0,-0.401745
48683439,0.156182,0.0542976,0.00191797,0.0,0.0,-0.401745
48703409,0.106597,0.150157,0.00791702,0.0,0.0,-0.418036
48723454,0.230826,0.152768,0.00741345,0.0,0.0,-0.403782
48743410,0.264806,0.176268,0.0088278,0.0,0.0,-0.403782
48763436,0.304304,0.165573,0.012353,0.0,0.0,-0.403782
48783452,0.281998,0.166833,0.0182091,0.0,0.0,-0.403782
48803525,0.246943,0.117453,0.0240683,0.0,0.0,-0.403782
48823505,0.213073,0.0652202,0.0274827,0.0,0.0,-0.403782
48843527,0.207135,-0.0258375,0.0307946,0.0,0.0,-0.403782
48863535,0.195787,-0.0954485,0.033702,0.0,0.0,-0.401745
48883582,0.114014,-0.12283,0.0378772,0.0,0.0,-0.401745
48903598,0.0235911,-0.171544,0.0437592,0.0,0.0,-0.401745
48923606,-0.037285,-0.180609,0.0475894,0.0,0.0,-0.401745
48943612,-0.134205,-0.168024,0.0527341,0.0,0.0,-0.403782
48963643,-0.13735,-0.151761,0.0557613,0.0,0.0,-0.403782
48983665,-0.185493,-0.1301,0.0577036,0.0,0.0,-0.402764
49003709,-0.207503,-0.0952271,0.0607116,0.0,0.0,-0.403782
49023683,-0.192288,-0.0659027,0.0609645,0.0,0.0,-0.401745
49043712,-0.0932426,-0.0272585,0.0609005,0.0,0.0,-0.401745
49063722,-0.0260439,-0.00512379,0.059446,0.0,0.0,-0.401745
49083787,-0.000816395,0.0180246,0.0571141,0.0,0.0,-0.389527
49103794,0.0137799,0.0237141,0.0546392,0.0,0.0,-0.370182
49123796,0.0275085,0.0103156,0.0534629,0.0,0.0,-0.370182
49143807,0.071963,0.009799,0.0496691,0.0,0.0,-0.372218
49163838,0.117346,0.0301704,0.0480433,0.0,0.0,-0.375273
49183872,0.0991683,0.0159283,0.0448985,0.0,0.0,-0.376291
49203909,0.0555989,0.00335367,0.0422974,0.0,0.0,-0.376291
49223894,0.0172032,0.00567325,0.040065,0.0,0.0,-0.379345
49243936,0.00133727,-0.0225489,0.038455,0.0,0.0,-0.380364
49263933,-0.0104771,-0.0805296,0.0361687,0.0,0.0,-0.3936
49283965,-0.0630351,-0.128985,0.0352094,0.0,0.0,-0.398691
49304015,-0.141815,-0.218523,0.0347503,0.0,0.0,-0.400727
49324026,-0.246176,-0.227253,0.0328083,0.0,0.0,-0.402764
49344068,-0.279189,-0.226027,0.0319581,0.0,0.0,-0.405818
49364057,-0.272225,-0.22635,0.0299758,0.0,0.0,-0.4048
49384071,-0.326015,-0.205273,0.0294927,0.0,0.0,-0.407855
49404123,-0.33544,-0.173703,0.0763587,0.0,0.0,-0.408873
49424157,-0.318639,-0.137704,0.076692,0.0,0.0,-0.408873
49444139,-0.259873,-0.0956787,0.0990626,0.0,0.0,-0.406836
49464224,-0.116557,-0.0091815,0.100385,0.0,0.0,-0.4048
49484190,-0.0414901,0.0184457,0.102106,0.0,0.0,-0.4048
49504334,-0.00250096,-0.00933554,0.086871,0.0,0.0,-0.397673
49524224,0.0543599,-0.00248341,0.0840367,0.0,0.0,-0.394618
49544243,0.114295,0.0149668,0.0269503,0.0,0.0,-0.3936
49564269,0.168695,-0.0201425,0.0217183,0.0,0.0,-0.3936
49584291,0.169777,-0.0441524,0.0184719,0.0,0.0,-0.3936
49604318,0.138804,-0.068383,0.0130816,0.0,0.0,-0.389527
49624350,0.129867,-0.0891218,0.00764278,0.0,0.0,-0.379345
49644349,0.161529,-0.104366,0.00207835,0.0,0.0,-0.381382
49664401,0.100318,-0.118997,-0.000430059,0.0,0.0,-0.384436
49684447,-0.0344036,-0.140194,-0.00109102,0.0,0.0,-0.385455
49704424,-0.133705,-0.134642,-0.00412573,0.0,0.0,-0.387491
49724434,-0.220599,-0.122252,-0.00490193,0.0,0.0,-0.396655
49744462,-0.252158,-0.102914,-0.00633094,0.0,0.0,-0.396655
49764529,-0.227529,-0.0732507,-0.00760741,0.0,0.0,-0.396655
49784504,-0.229417,-0.0645553,-0.00752132,0.0,0.0,-0.396655
49804526,-0.249573,-0.03883,-0.00764057,0.0,0.0,-0.396655
49824555,-0.187869,-0.0169414,-0.00811089,0.0,0.0,-0.396655
49844566,-0.0977936,0.0198786,-0.00814188,0.0,0.0,-0.396655
49864586,-0.0130272,0.0234658,-0.00635574,0.0,0.0,-0.396655
49884613,0.00977422,0.0204793,-0.00446955,0.0,0.0,-0.395636
49904629,0.0363499,0.0276616,-0.00643941,0.0,0.0,-0.395636
49924633,0.178847,0.0546524,-0.00825644,0.0,0.0,-0.394618
49944678,0.24707,0.0641717,-0.00835137,0.0,0.0,-0.394618
49964688,0.273469,0.0515522,-0.00751815,0.0,0.0,-0.394618
49984707,0.243272,0.0249111,-0.00304964,0.0,0.0,-0.3936
50004753,0.15575,0.0151142,-0.001453,0.0,0.0,-0.3936
50024795,0.08428,0.00784487,0.00184959,0.0,0.0,-0.3936
50044816,0.0167769,0.0114388,0.00553516,0.0,0.0,-0.3936
50064792,-0.127526,-0.0256622,0.0123926,0.0,0.0,-0.3936
50084807,-0.327415,-0.0512496,0.0156305,0.0,0.0,-0.392582
50104870,-0.470695,-0.049973,0.0203836,0.0,0.0,-0.3936
50124850,-0.548754,-0.0890845,0.0232684,0.0,0.0,-0.3936
50144876,-0.595563,-0.0879652,0.0268532,0.0,0.0,-0.3936
50164940,-0.591073,-0.0949603,0.0284091,0.0,0.0,-0.3936
50184942,-0.519149,-0.083476,0.0201563,0.0,0.0,-0.3936
50205012,-0.410847,-0.0758976,0.0229291,0.0,0.0,-0.391564
50224972,-0.295521,-0.0618494,0.0193265,0.0,0.0,-0.391564
50245029,-0.123591,-0.0458774,0.00781891,0.0,0.0,-0.392582
50265001,0.0971833,-0.0255739,0.00408826,0.0,0.0,-0.390545
