timestamp,q[0],q[1],q[2],q[3],delta_q_reset[0],delta_q_reset[1],delta_q_reset[2],delta_q_reset[3],quat_reset_counter
141099398,-0.029606,0.0155685,0.0191911,0.999256,0.999978,-4.45101e-09,-2.54856e-09,0.00665154,3
141104354,-0.0294282,0.0155591,0.0192188,0.999261,0.999978,-4.45101e-09,-2.54856e-09,0.00665154,3
141154012,-0.030057,0.0157614,0.0192094,0.999239,0.999978,-4.45101e-09,-2.54856e-09,0.00665154,3
141203672,-0.0293929,0.0157001,0.019207,0.99926,0.999978,-4.45101e-09,-2.54856e-09,0.00665154,3
141253334,-0.0300095,0.0156218,0.0192539,0.999242,0.999978,-4.45101e-09,-2.54856e-09,0.00665154,3
141302996,-0.0296872,0.0156368,0.0193859,0.999249,0.999978,-4.45101e-09,-2.54856e-09,0.00665154,3
141352830,-0.0296514,0.0158882,0.0192735,0.999248,0.999978,-4.45101e-09,-2.54856e-09,0.00665154,3
141402314,-0.0299559,0.0157222,0.0194189,0.999239,0.999978,-4.45101e-09,-2.54856e-09,0.00665154,3
141452000,-0.0296086,0.0156941,0.0194019,0.99925,0.999978,-4.45101e-09,-2.54856e-09,0.00665154,3
141501636,-0.0296336,0.0159843,0.0193697,0.999245,0.999978,-4.45101e-09,-2.54856e-09,0.00665154,3
141556269,-0.0297532,0.0160455,0.0191349,0.999245,0.999978,-4.45101e-09,-2.54856e-09,0.00665154,3
141601038,-0.0300367,0.0158223,0.0194441,0.999234,0.999978,-4.45101e-09,-2.54856e-09,0.00665154,3
141650617,-0.030002,0.0156532,0.0199157,0.999229,0.999978,-4.45101e-09,-2.54856e-09,0.00665154,3
141705275,-0.0300271,0.0158967,0.0199454,0.999224,0.999978,-4.45101e-09,-2.54856e-09,0.00665154,3
141754904,-0.0301155,0.0161139,0.0196313,0.999224,0.999978,-4.45101e-09,-2.54856e-09,0.00665154,3
141804566,-0.0301514,0.016016,0.0192333,0.999232,0.999978,-4.45101e-09,-2.54856e-09,0.00665154,3
141854236,-0.0300464,0.0155898,0.0192131,0.999242,0.999978,-4.45101e-09,-2.54856e-09,0.00665154,3
141903886,-0.0301062,0.0153861,0.0194877,0.999238,0.999978,-4.45101e-09,-2.54856e-09,0.00665154,3
141953547,-0.030224,0.015589,0.0197936,0.999226,0.999978,-4.45101e-09,-2.54856e-09,0.00665154,3
142003209,-0.0303443,0.0159445,0.0195623,0.999221,0.999978,-4.45101e-09,-2.54856e-09,0.00665154,3
142052868,-0.0302369,0.0161952,0.0192755,0.999226,0.999978,-4.45101e-09,-2.54856e-09,0.00665154,3
142107497,-0.0304153,0.0159873,0.0193786,0.999222,0.999978,-4.45101e-09,-2.54856e-09,0.00665154,3
142152375,-0.0300088,0.0158755,0.0193356,0.999237,0.999978,-4.45101e-09,-2.54856e-09,0.00665154,3
142206859,-0.030049,0.0159136,0.0193985,0.999233,0.999978,-4.45101e-09,-2.54856e-09,0.00665154,3
142256477,-0.0302259,0.0158831,0.0196119,0.999225,0.999978,-4.45101e-09,-2.54856e-09,0.00665154,3
142301171,-0.0307445,0.0161791,0.0192536,0.999211,0.999978,-4.45101e-09,-2.54856e-09,0.00665154,3
142350832,-0.0306526,0.0161912,0.0191325,0.999216,0.999978,-4.45101e-09,-2.54856e-09,0.00665154,3
142405585,-0.0307308,0.015977,0.0192424,0.999215,0.999978,-4.45101e-09,-2.54856e-09,0.00665154,3
142455119,-0.0304243,0.0159733,0.0192595,0.999224,0.999978,-4.45101e-09,-2.54856e-09,0.00665154,3
142504780,-0.0302361,0.0162269,0.0194909,0.999221,0.999978,-4.45101e-09,-2.54856e-09,0.00665154,3
142554445,-0.0303457,0.0164632,0.0195856,0.999212,0.999978,-4.45101e-09,-2.54856e-09,0.00665154,3
142604102,-0.0306372,0.0164746,0.0193734,0.999207,0.999978,-4.45101e-09,-2.54856e-09,0.00665154,3
142653852,-0.0308546,0.0162832,0.0193356,0.999204,0.999978,-4.45101e-09,-2.54856e-09,0.00665154,3
142703425,-0.0309514,0.016022,0.0193115,0.999206,0.999978,-4.45101e-09,-2.54856e-09,0.00665154,3
142753083,-0.0309111,0.0160851,0.0194281,0.999204,0.999978,-4.45101e-09,-2.54856e-09,0.00665154,3
142802749,-0.0308526,0.0162659,0.0196497,0.999198,0.999978,-4.45101e-09,-2.54856e-09,0.00665154,3
142852404,-0.0309193,0.0167249,0.0195567,0.999191,0.999978,-4.45101e-09,-2.54856e-09,0.00665154,3
142907119,-0.0309002,0.0163975,0.0195991,0.999196,0.999978,-4.45101e-09,-2.54856e-09,0.00665154,3
142951824,-0.0310843,0.0168758,0.0190232,0.999193,0.999978,-4.45101e-09,-2.54856e-09,0.00665154,3
143001386,-0.0311067,0.0165368,0.0192314,0.999194,0.999978,-4.45101e-09,-2.54856e-09,0.00665154,3
143051047,-0.0311317,0.0162324,0.0195523,0.999192,0.999978,-4.45101e-09,-2.54856e-09,0.00665154,3
143105674,-0.0310411,0.0159824,0.0190702,0.999208,0.999978,-4.45101e-09,-2.54856e-09,0.00665154,3
143155334,-0.0311712,0.0157153,0.0191346,0.999207,0.999978,-4.45101e-09,-2.54856e-09,0.00665154,3
143200066,-0.0312622,0.0163251,0.019506,0.999188,0.999978,-4.45101e-09,-2.54856e-09,0.00665154,3
143254655,-0.0313235,0.0154716,0.0193792,0.999202,0.999978,-4.45101e-09,-2.54856e-09,0.00665154,3
143304315,-0.0315099,0.0154489,0.0197191,0.999189,0.999978,-4.45101e-09,-2.54856e-09,0.00665154,3
143354026,-0.031582,0.0160178,0.0200145,0.999172,0.999978,-4.45101e-09,-2.54856e-09,0.00665154,3
143403638,-0.0316575,0.0166645,0.0197454,0.999165,0.999978,-4.45101e-09,-2.54856e-09,0.00665154,3
143453297,-0.0312783,0.0166348,0.0192182,0.999187,0.999978,-4.45101e-09,-2.54856e-09,0.00665154,3
143503117,-0.0314812,0.0162195,0.0209397,0.999153,0.999978,-4.45101e-09,-2.54856e-09,0.00665154,3
143552631,-0.0320393,0.0159747,0.0196814,0.999165,0.999978,-4.45101e-09,-2.54856e-09,0.00665154,3
143602280,-0.0314764,0.0163903,0.020137,0.999167,0.999978,-4.45101e-09,-2.54856e-09,0.00665154,3
143651941,-0.0319436,0.0159467,0.0193023,0.999176,0.999978,-4.45101e-09,-2.54856e-09,0.00665154,3
143701602,-0.0317355,0.0161883,0.0205293,0.999154,0.999978,-4.45101e-09,-2.54856e-09,0.00665154,3
143751335,-0.0320754,0.0154718,0.0197843,0.99917,0.999978,-4.45101e-09,-2.54856e-09,0.00665154,3
143805920,-0.0319887,0.0152295,0.0194671,0.999183,0.999978,-4.45101e-09,-2.54856e-09,0.00665154,3
143855548,-0.0319887,0.0155427,0.0191523,0.999184,0.999978,-4.45101e-09,-2.54856e-09,0.00665154,3
143900243,-0.0317328,0.0158408,0.0202022,0.999167,0.999978,-4.45101e-09,-2.54856e-09,0.00665154,3
143954900,-0.0327116,0.0156664,0.0194454,0.999153,0.999978,-4.45101e-09,-2.54856e-09,0.00665154,3
144004531,-0.0319786,0.0149516,0.0188115,0.9992,0.999978,-4.45101e-09,-2.54856e-09,0.00665154,3
144054191,-0.0324195,0.0160258,0.0200002,0.999146,0.999978,-4.45101e-09,-2.54856e-09,0.00665154,3
144103851,-0.0321262,0.0157955,0.0201237,0.999156,0.999978,-4.45101e-09,-2.54856e-09,0.00665154,3
144153512,-0.0322788,0.0157651,0.0202242,0.99915,0.999978,-4.45101e-09,-2.54856e-09,0.00665154,3
144203173,-0.0323534,0.0153015,0.0192053,0.999175,0.999978,-4.45101e-09,-2.54856e-09,0.00665154,3
144252852,-0.0322846,0.0153097,0.019059,0.99918,0.999978,-4.45101e-09,-2.54856e-09,0.00665154,3
144302615,-0.0318517,0.0159132,0.0197435,0.999171,0.999978,-4.45101e-09,-2.54856e-09,0.00665154,3
144352155,-0.0319055,0.0160745,0.0205381,0.999151,0.999978,-4.45101e-09,-2.54856e-09,0.00665154,3
144401811,-0.0319525,0.0153078,0.0198623,0.999175,0.999978,-4.45101e-09,-2.54856e-09,0.00665154,3
144451476,-0.0319748,0.0161342,0.0203911,0.99915,0.999978,-4.45101e-09,-2.54856e-09,0.00665154,3
144506104,-0.0321117,0.0149378,0.0186022,0.9992,0.999978,-4.45101e-09,-2.54856e-09,0.00665154,3
144555813,-0.0323296,0.0149131,0.0196462,0.999173,0.999978,-4.45101e-09,-2.54856e-09,0.00665154,3
144600461,-0.0320833,0.0156769,0.0200496,0.999161,0.999978,-4.45101e-09,-2.54856e-09,0.00665154,3
144650135,-0.0319682,0.0160182,0.0211765,0.999136,0.999978,-4.45101e-09,-2.54856e-09,0.00665154,3
144704744,-0.031884,0.0153168,0.0199713,0.999175,0.999978,-4.45101e-09,-2.54856e-09,0.00665154,3
144754414,-0.0322968,0.0162252,0.0213098,0.999119,0.999978,-4.45101e-09,-2.54856e-09,0.00665154,3
144804067,-0.0325609,0.0156072,0.0185358,0.999176,0.999978,-4.45101e-09,-2.54856e-09,0.00665154,3
144853922,-0.0318435,0.0157765,0.0206881,0.999154,0.999978,-4.45101e-09,-2.54856e-09,0.00665154,3
144903388,-0.0323954,0.0159759,0.0196392,0.999154,0.999978,-4.45101e-09,-2.54856e-09,0.00665154,3
144953096,-0.0325146,0.0173809,0.0209349,0.999101,0.999978,-4.45101e-09,-2.54856e-09,0.00665154,3
145002709,-0.0326014,0.0164846,0.0192165,0.999148,0.999978,-4.45101e-09,-2.54856e-09,0.00665154,3
145052369,-0.0327447,0.0149299,0.0200515,0.999151,0.999978,-4.45101e-09,-2.54856e-09,0.00665154,3
145102198,-0.0324417,0.0161313,0.02101,0.999123,0.999978,-4.45101e-09,-2.54856e-09,0.00665154,3
145151692,-0.0322196,0.0168242,0.0193815,0.999151,0.999978,-4.45101e-09,-2.54856e-09,0.00665154,3
145206318,-0.0327213,0.016201,0.0208512,0.999116,0.999978,-4.45101e-09,-2.54856e-09,0.00665154,3
145255978,-0.032741,0.0150948,0.0193671,0.999162,0.999978,-4.45101e-09,-2.54856e-09,0.00665154,3
145300672,-0.0322114,0.016413,0.0209121,0.999128,0.999978,-4.45101e-09,-2.54856e-09,0.00665154,3
145355359,-0.0325706,0.0160926,0.0204707,0.99913,0.999978,-4.45101e-09,-2.54856e-09,0.00665154,3
145404959,-0.0325645,0.0160666,0.0211137,0.999117,0.999978,-4.45101e-09,-2.54856e-09,0.00665154,3
145454620,-0.0328783,0.01589,0.0189574,0.999153,0.999978,-4.45101e-09,-2.54856e-09,0.00665154,3
145504287,-0.0325103,0.0163428,0.0206037,0.999125,0.999978,-4.45101e-09,-2.54856e-09,0.00665154,3
145553941,-0.0328858,0.0161105,0.0216643,0.999094,0.999978,-4.45101e-09,-2.54856e-09,0.00665154,3
145603604,-0.0328164,0.0158166,0.0202478,0.999131,0.999978,-4.45101e-09,-2.54856e-09,0.00665154,3
145653409,-0.0325649,0.0165365,0.0207761,0.999117,0.999978,-4.45101e-09,-2.54856e-09,0.00665154,3
145702924,-0.0328164,0.0152943,0.0194196,0.999156,0.999978,-4.45101e-09,-2.54856e-09,0.00665154,3
145752583,-0.0325569,0.0151705,0.0196132,0.999162,0.999978,-4.45101e-09,-2.54856e-09,0.00665154,3
145802246,-0.0332375,0.0153794,0.0187917,0.999152,0.999978,-4.45101e-09,-2.54856e-09,0.00665154,3
145851911,-0.0328529,0.0160375,0.0198598,0.999134,0.999978,-4.45101e-09,-2.54856e-09,0.00665154,3
145906607,-0.0331438,0.0151009,0.0185509,0.999164,0.999978,-4.45101e-09,-2.54856e-09,0.00665154,3
145951227,-0.0331187,0.0154192,0.018728,0.999157,0.999978,-4.45101e-09,-2.54856e-09,0.00665154,3
146000887,-0.0331142,0.0141039,0.0182231,0.999186,0.999978,-4.45101e-09,-2.54856e-09,0.00665154,3
146055555,-0.0333935,0.0130882,0.0173249,0.999206,0.999978,-4.45101e-09,-2.54856e-09,0.00665154,3
146105174,-0.0335835,0.0130565,0.0173021,0.999201,0.999978,-4.45101e-09,-2.54856e-09,0.00665154,3
146154835,-0.0337718,0.0134463,0.01723,0.999191,0.999978,-4.45101e-09,-2.54856e-09,0.00665154,3
146204495,-0.0340182,0.013604,0.0168608,0.999186,0.999978,-4.45101e-09,-2.54856e-09,0.00665154,3
146254156,-0.0338103,0.0133861,0.0170453,0.999193,0.999978,-4.45101e-09,-2.54856e-09,0.00665154,3
146303819,-0.0344087,0.0132922,0.0160167,0.999191,0.999978,-4.45101e-09,-2.54856e-09,0.00665154,3
146353477,-0.0345509,0.0136222,0.0153593,0.999192,0.999978,-4.45101e-09,-2.54856e-09,0.00665154,3
146403138,-0.0350179,0.0134071,0.0140246,0.999198,0.999978,-4.45101e-09,-2.54856e-09,0.00665154,3
146452914,-0.0356258,0.0130971,0.011415,0.999214,0.999978,-4.45101e-09,-2.54856e-09,0.00665154,3
146502472,-0.0356626,0.0131666,0.0101622,0.999225,0.999978,-4.45101e-09,-2.54856e-09,0.00665154,3
146552121,-0.0360783,0.0135616,0.0105019,0.999202,0.999978,-4.45101e-09,-2.54856e-09,0.00665154,3
146606748,-0.0377782,0.0145859,0.0110294,0.999119,0.999978,-4.45101e-09,-2.54856e-09,0.00665154,3
146651441,-0.0389847,0.0165776,0.0111427,0.99904,0.999978,-4.45101e-09,-2.54856e-09,0.00665154,3
146701150,-0.0412065,0.0194244,0.0143732,0.998858,0.999978,-4.45101e-09,-2.54856e-09,0.00665154,3
146755779,-0.0433977,0.0215782,0.0151006,0.998711,0.999978,-4.45101e-09,-2.54856e-09,0.00665154,3
146805389,-0.0448072,0.0203973,0.0163326,0.998654,0.999978,-4.45101e-09,-2.54856e-09,0.00665154,3
146855050,-0.0457784,0.0175191,0.0173271,0.998648,0.999978,-4.45101e-09,-2.54856e-09,0.00665154,3
146899744,-0.046064,0.0182662,0.0187468,0.998596,0.999978,-4.45101e-09,-2.54856e-09,0.00665154,3
146954375,-0.0464943,0.0176664,0.0202164,0.998558,0.999978,-4.45101e-09,-2.54856e-09,0.00665154,3
147004212,-0.0466618,0.0154036,0.0202485,0.998587,0.999978,-4.45101e-09,-2.54856e-09,0.00665154,3
147053692,-0.0463788,0.0150464,0.0196601,0.998617,0.999978,-4.45101e-09,-2.54856e-09,0.00665154,3
147103353,-0.0455469,0.0151087,0.0197068,0.998654,0.999978,-4.45101e-09,-2.54856e-09,0.00665154,3
147153014,-0.0445507,0.0135932,0.0193058,0.998728,0.999978,-4.45101e-09,-2.54856e-09,0.00665154,3
147202674,-0.0423559,0.0132913,0.0226133,0.998758,0.999978,-4.45101e-09,-2.54856e-09,0.00665154,3
147252410,-0.0398609,0.0131728,0.023437,0.998843,0.999978,-4.45101e-09,-2.54856e-09,0.00665154,3
147306962,-0.0369941,0.0108465,0.0265494,0.998904,0.999978,-4.45101e-09,-2.54856e-09,0.00665154,3
147351655,-0.0348107,0.0100598,0.0271632,0.998974,0.999978,-4.45101e-09,-2.54856e-09,0.00665154,3
147401360,-0.0328403,0.0114157,0.0252194,0.999077,0.999978,-4.45101e-09,-2.54856e-09,0.00665154,3
147455983,-0.0308568,0.0144637,0.0241492,0.999127,0.999978,-4.45101e-09,-2.54856e-09,0.00665154,3
147505605,-0.0294726,0.0161065,0.0240614,0.999146,0.999978,-4.45101e-09,-2.54856e-09,0.00665154,3
147555264,-0.0284828,0.0175659,0.0245535,0.999138,0.999978,-4.45101e-09,-2.54856e-09,0.00665154,3
147599959,-0.0275004,0.0191906,0.0260618,0.999098,0.999978,-4.45101e-09,-2.54856e-09,0.00665154,3
147654585,-0.0275126,0.0207999,0.0261379,0.999063,0.999978,-4.45101e-09,-2.54856e-09,0.00665154,3
147704247,-0.0270309,0.0213722,0.0264354,0.999056,0.999978,-4.45101e-09,-2.54856e-09,0.00665154,3
147753909,-0.0267319,0.0226403,0.0263566,0.999039,0.999978,-4.45101e-09,-2.54856e-09,0.00665154,3
147803697,-0.0268246,0.0233349,0.0244084,0.99907,0.999978,-4.45101e-09,-2.54856e-09,0.00665154,3
147853275,-0.0271265,0.0238036,0.0240963,0.999058,0.999978,-4.45101e-09,-2.54856e-09,0.00665154,3
147902893,-0.0268165,0.0238243,0.0263075,0.99901,0.999978,-4.45101e-09,-2.54856e-09,0.00665154,3
147952551,-0.0269808,0.0236721,0.0268116,0.998996,0.999978,-4.45101e-09,-2.54856e-09,0.00665154,3
148002210,-0.0273792,0.0238176,0.0251587,0.999025,0.999978,-4.45101e-09,-2.54856e-09,0.00665154,3
148051908,-0.0309233,0.0239561,0.0236174,0.998956,0.999996,-3.47733e-09,2.66865e-09,0.00291812,4
148101531,-0.0299118,0.0235459,0.0246659,0.998971,0.999996,-3.47733e-09,2.66865e-09,0.00291812,4
148151220,-0.0299067,0.0223299,0.0242932,0.999008,0.999996,-3.47733e-09,2.66865e-09,0.00291812,4
148205818,-0.0299219,0.0217877,0.0226284,0.999059,0.999996,-3.47733e-09,2.66865e-09,0.00291812,4
148255479,-0.0302301,0.0207592,0.0222827,0.999079,0.999996,-3.47733e-09,2.66865e-09,0.00291812,4
148300174,-0.0302759,0.0192362,0.0210517,0.999135,0.999996,-3.47733e-09,2.66865e-09,0.00291812,4
148354995,-0.0308772,0.0174708,0.0213847,0.999142,0.999996,-3.47733e-09,2.66865e-09,0.00291812,4
148404461,-0.0310372,0.0173523,0.0222372,0.99912,0.999996,-3.47733e-09,2.66865e-09,0.00291812,4
148454122,-0.0312242,0.0177173,0.0216696,0.99912,0.999996,-3.47733e-09,2.66865e-09,0.00291812,4
148503782,-0.0318187,0.0171212,0.0207225,0.999132,0.999996,-3.47733e-09,2.66865e-09,0.00291812,4
148553443,-0.0324703,0.0168796,0.019688,0.999136,0.999996,-3.47733e-09,2.66865e-09,0.00291812,4
148603257,-0.0324164,0.0173844,0.0203014,0.999117,0.999996,-3.47733e-09,2.66865e-09,0.00291812,4
148652765,-0.0328034,0.0168207,0.0210428,0.999099,0.999996,-3.47733e-09,2.66865e-09,0.00291812,4
148702425,-0.0332079,0.0158885,0.0196533,0.999129,0.999996,-3.47733e-09,2.66865e-09,0.00291812,4
148752085,-0.0336624,0.0155408,0.0186067,0.999139,0.999996,-3.47733e-09,2.66865e-09,0.00291812,4
148801747,-0.0339596,0.015178,0.0188114,0.999131,0.999996,-3.47733e-09,2.66865e-09,0.00291812,4
148856444,-0.0341627,0.0144211,0.0184504,0.999142,0.999996,-3.47733e-09,2.66865e-09,0.00291812,4
148906033,-0.0343457,0.0132095,0.0185942,0.99915,0.999996,-3.47733e-09,2.66865e-09,0.00291812,4
148950728,-0.0341633,0.0122421,0.019126,0.999158,0.999996,-3.47733e-09,2.66865e-09,0.00291812,4
149000388,-0.0343472,0.0115705,0.0186513,0.999169,0.999996,-3.47733e-09,2.66865e-09,0.00291812,4
149055018,-0.0344035,0.0111222,0.0198677,0.999149,0.999996,-3.47733e-09,2.66865e-09,0.00291812,4
149104676,-0.0342625,0.0115259,0.0218963,0.999107,0.999996,-3.47733e-09,2.66865e-09,0.00291812,4
149154491,-0.0349814,0.0121995,0.0222312,0.999066,0.999996,-3.47733e-09,2.66865e-09,0.00291812,4
149204033,-0.0293623,0.0119765,0.0209418,0.999278,0.999996,-3.47733e-09,2.66865e-09,0.00291812,4
149253658,-0.0175147,0.0101792,0.0202645,0.99959,0.999996,-3.47733e-09,2.66865e-09,0.00291812,4
149303321,-0.00389612,0.00304029,0.0163849,0.999854,0.999996,-3.47733e-09,2.66865e-09,0.00291812,4
149352979,0.0122989,-0.00603713,0.00610674,0.999888,0.999996,-3.47733e-09,2.66865e-09,0.00291812,4
149402718,0.0293401,-0.0179121,-0.00750352,0.999381,0.999996,-3.47733e-09,2.66865e-09,0.00291812,4
149452300,0.048122,-0.0295366,-0.0183111,0.998237,0.999996,-3.47733e-09,2.66865e-09,0.00291812,4
149501961,0.0676734,-0.0396771,-0.0289726,0.996497,0.999996,-3.47733e-09,2.66865e-09,0.00291812,4
149556587,0.0894769,-0.0486796,-0.0425549,0.993888,0.999996,-3.47733e-09,2.66865e-09,0.00291812,4
149606250,0.109609,-0.0535649,-0.0551253,0.990998,0.999996,-3.47733e-09,2.66865e-09,0.00291812,4
149651013,0.128707,-0.0562571,-0.0620973,0.988136,0.999996,-3.47733e-09,2.66865e-09,0.00291812,4
149700795,0.150769,-0.0579322,-0.0640994,0.984786,0.999996,-3.47733e-09,2.66865e-09,0.00291812,4
149755234,0.174866,-0.0560762,-0.0611481,0.98109,0.999996,-3.47733e-09,2.66865e-09,0.00291812,4
149804891,0.196837,-0.0503255,-0.0553743,0.977577,0.999996,-3.47733e-09,2.66865e-09,0.00291812,4
149854551,0.219345,-0.0422848,-0.0469463,0.973599,0.999996,-3.47733e-09,2.66865e-09,0.00291812,4
149899311,0.238994,-0.0348185,-0.0392916,0.969601,0.999996,-3.47733e-09,2.66865e-09,0.00291812,4
149953987,0.263312,-0.0240815,-0.0277988,0.964009,0.999996,-3.47733e-09,2.66865e-09,0.00291812,4
150003533,0.284885,-0.0145002,-0.0178142,0.958286,0.999996,-3.47733e-09,2.66865e-09,0.00291812,4
150053199,0.306498,-0.0068054,-0.00779933,0.951815,0.999996,-3.47733e-09,2.66865e-09,0.00291812,4
150102855,0.327732,-0.00103344,-0.00085893,0.94477,0.999996,-3.47733e-09,2.66865e-09,0.00291812,4
150152535,0.348929,0.00303989,0.00251983,0.937141,0.999996,-3.47733e-09,2.66865e-09,0.00291812,4
150202233,0.369381,0.00479991,0.00454791,0.929255,0.999996,-3.47733e-09,2.66865e-09,0.00291812,4
150256802,0.391082,0.00605491,0.00584324,0.920317,0.999996,-3.47733e-09,2.66865e-09,0.00291812,4
150306463,0.410778,0.00705309,0.00696631,0.911682,0.999996,-3.47733e-09,2.66865e-09,0.00291812,4
150351158,0.428467,0.00772306,0.00746237,0.903494,0.999996,-3.47733e-09,2.66865e-09,0.00291812,4
150400819,0.447425,0.00858227,0.00825751,0.894242,0.999996,-3.47733e-09,2.66865e-09,0.00291812,4
150455445,0.467822,0.00998984,0.0101227,0.883708,0.999996,-3.47733e-09,2.66865e-09,0.00291812,4
150505292,0.486436,0.0103987,0.011426,0.873579,0.999996,-3.47733e-09,2.66865e-09,0.00291812,4
150554766,0.503871,0.00954872,0.0103232,0.863664,0.999996,-3.47733e-09,2.66865e-09,0.00291812,4
150604427,0.520922,0.0104277,0.00991724,0.853483,0.999996,-3.47733e-09,2.66865e-09,0.00291812,4
150654089,0.538096,0.0111404,0.00988875,0.842752,0.999996,-3.47733e-09,2.66865e-09,0.00291812,4
150703748,0.554882,0.00984441,0.00865423,0.831826,0.999996,-3.47733e-09,2.66865e-09,0.00291812,4
150753486,0.571215,0.00882114,0.00789394,0.820715,0.999996,-3.47733e-09,2.66865e-09,0.00291812,4
150803069,0.587505,0.00973289,0.00833515,0.809119,0.999996,-3.47733e-09,2.66865e-09,0.00291812,4
150852747,0.603616,0.0116778,0.00921398,0.797137,0.999996,-3.47733e-09,2.66865e-09,0.00291812,4
150902392,0.61896,0.0134955,0.00903287,0.785255,0.999996,-3.47733e-09,2.66865e-09,0.00291812,4
150957078,0.63562,0.0147781,0.00859368,0.771812,0.999996,-3.47733e-09,2.66865e-09,0.00291812,4
151001751,0.649309,0.0154893,0.00809056,0.760324,0.999996,-3.47733e-09,2.66865e-09,0.00291812,4
151051373,0.664138,0.0157382,0.00621915,0.747418,0.999996,-3.47733e-09,2.66865e-09,0.00291812,4
151101034,0.678381,0.0155409,0.00436937,0.734533,0.999996,-3.47733e-09,2.66865e-09,0.00291812,4
151155661,0.694272,0.0162073,0.00483943,0.719514,0.999996,-3.47733e-09,2.66865e-09,0.00291812,4
151205322,0.708172,0.0194502,0.0069116,0.705738,0.999996,-3.47733e-09,2.66865e-09,0.00291812,4
151254983,0.721739,0.0210406,0.00571729,0.691822,0.999996,-3.47733e-09,2.66865e-09,0.00291812,4
151299848,0.733809,0.0198755,0.00396863,0.679054,0.999996,-3.47733e-09,2.66865e-09,0.00291812,4
151354302,0.747956,0.0217099,0.00328038,0.663386,0.999996,-3.47733e-09,2.66865e-09,0.00291812,4
151403963,0.76069,0.0230296,0.00298452,0.6487,0.999996,-3.47733e-09,2.66865e-09,0.00291812,4
151453623,0.773258,0.0214338,0.00253439,0.633725,0.999996,-3.47733e-09,2.66865e-09,0.00291812,4
151503285,0.785426,0.0210127,0.00258785,0.618594,0.999996,-3.47733e-09,2.66865e-09,0.00291812,4
151552986,0.797414,0.022809,0.00275766,0.602995,0.999996,-3.47733e-09,2.66865e-09,0.00291812,4
151602606,0.808903,0.0263273,0.00321971,0.587344,0.999996,-3.47733e-09,2.66865e-09,0.00291812,4
151652266,0.820192,0.0275509,0.00320936,0.571416,0.999996,-3.47733e-09,2.66865e-09,0.00291812,4
151701928,0.831161,0.0287735,0.00317569,0.555278,0.999996,-3.47733e-09,2.66865e-09,0.00291812,4
151751587,0.839387,0.0308308,0.00373883,0.542646,0.999996,-3.47733e-09,2.66865e-09,0.00291812,4
151801251,0.844055,0.0339412,0.00474747,0.53516,0.999996,-3.47733e-09,2.66865e-09,0.00291812,4
151855878,0.847017,0.042268,0.00610217,0.529848,0.999996,-3.47733e-09,2.66865e-09,0.00291812,4
151905535,0.848526,0.050814,0.00919527,0.526627,0.999996,-3.47733e-09,2.66865e-09,0.00291812,4
151950230,0.849239,0.05745,0.0123344,0.524729,0.999996,-3.47733e-09,2.66865e-09,0.00291812,4
152004857,0.84917,0.0655442,0.0178349,0.523733,0.999996,-3.47733e-09,2.66865e-09,0.00291812,4
152054519,0.848386,0.0715836,0.0250316,0.523919,0.999996,-3.47733e-09,2.66865e-09,0.00291812,4
152104280,0.84718,0.0757465,0.0308164,0.524976,0.999996,-3.47733e-09,2.66865e-09,0.00291812,4
152153838,0.8457,0.0825568,0.0371542,0.525924,0.999996,-3.47733e-09,2.66865e-09,0.00291812,4
152203500,0.843838,0.0886665,0.0437638,0.527409,0.999996,-3.47733e-09,2.66865e-09,0.00291812,4
152253160,0.841924,0.0917142,0.0471726,0.529648,0.999996,-3.47733e-09,2.66865e-09,0.00291812,4
152302821,0.840175,0.0903011,0.0455721,0.532799,0.999996,-3.47733e-09,2.66865e-09,0.00291812,4
152352489,0.838729,0.088158,0.042546,0.535679,0.999996,-3.47733e-09,2.66865e-09,0.00291812,4
152402142,0.837254,0.086341,0.0385005,0.53858,0.999996,-3.47733e-09,2.66865e-09,0.00291812,4
152451803,0.836091,0.0810263,0.0310699,0.541683,0.999996,-3.47733e-09,2.66865e-09,0.00291812,4
152501464,0.835006,0.0748002,0.0220805,0.544685,0.999996,-3.47733e-09,2.66865e-09,0.00291812,4
152556091,0.832994,0.0683667,0.0143002,0.548856,0.999996,-3.47733e-09,2.66865e-09,0.00291812,4
152605750,0.826864,0.0611043,0.0107243,0.55897,0.999996,-3.47733e-09,2.66865e-09,0.00291812,4
152650579,0.819437,0.0558722,0.0120255,0.570313,0.999996,-3.47733e-09,2.66865e-09,0.00291812,4
152700199,0.809383,0.0520988,0.0198713,0.584628,0.999996,-3.47733e-09,2.66865e-09,0.00291812,4
152754732,0.797045,0.0484032,0.0306206,0.601198,0.999996,-3.47733e-09,2.66865e-09,0.00291812,4
152804393,0.784613,0.0448149,0.0397901,0.617083,0.999996,-3.47733e-09,2.66865e-09,0.00291812,4
152854053,0.771104,0.0425224,0.0493302,0.63337,0.999996,-3.47733e-09,2.66865e-09,0.00291812,4
152903811,0.756896,0.038974,0.0569741,0.64988,0.999996,-3.47733e-09,2.66865e-09,0.00291812,4
152953375,0.741599,0.0345633,0.0621847,0.66706,0.999996,-3.47733e-09,2.66865e-09,0.00291812,4
153003036,0.725724,0.0309219,0.067376,0.68398,0.999996,-3.47733e-09,2.66865e-09,0.00291812,4
153052696,0.709382,0.0273907,0.073341,0.700463,0.999996,-3.47733e-09,2.66865e-09,0.00291812,4
153102357,0.692403,0.0228634,0.0785426,0.716859,0.999996,-3.47733e-09,2.66865e-09,0.00291812,4
153152094,0.67512,0.0178325,0.0823497,0.732881,0.999996,-3.47733e-09,2.66865e-09,0.00291812,4
153201681,0.657521,0.0138825,0.0872097,0.748243,0.999996,-3.47733e-09,2.66865e-09,0.00291812,4
153256306,0.637884,0.0113898,0.092185,0.764511,0.999996,-3.47733e-09,2.66865e-09,0.00291812,4
153305965,0.619789,0.0114382,0.0905526,0.779443,0.999996,-3.47733e-09,2.66865e-09,0.00291812,4
153350660,0.604033,0.0167376,0.0882208,0.791884,0.999996,-3.47733e-09,2.66865e-09,0.00291812,4
153405312,0.583895,0.026927,0.0859205,0.80682,0.999996,-3.47733e-09,2.66865e-09,0.00291812,4
153455074,0.565675,0.0328004,0.0792813,0.820153,0.999996,-3.47733e-09,2.66865e-09,0.00291812,4
153504608,0.547502,0.0354077,0.0704888,0.833078,0.999996,-3.47733e-09,2.66865e-09,0.00291812,4
153554269,0.529137,0.0392199,0.0632966,0.845263,0.999996,-3.47733e-09,2.66865e-09,0.00291812,4
153603930,0.51052,0.0404238,0.0527098,0.857296,0.999996,-3.47733e-09,2.66865e-09,0.00291812,4
153653590,0.492061,0.0397848,0.0406299,0.868702,0.999996,-3.47733e-09,2.66865e-09,0.00291812,4
153703313,0.473522,0.0390159,0.0296114,0.879419,0.999996,-3.47733e-09,2.66865e-09,0.00291812,4
153752919,0.454962,0.0391724,0.0198253,0.889428,0.999996,-3.47733e-09,2.66865e-09,0.00291812,4
153802573,0.436566,0.0398428,0.00958575,0.898738,0.999996,-3.47733e-09,2.66865e-09,0.00291812,4
153852238,0.418433,0.0387372,-0.00355749,0.907414,0.999996,-3.47733e-09,2.66865e-09,0.00291812,4
153901894,0.400305,0.0379531,-0.0146498,0.915479,0.999996,-3.47733e-09,2.66865e-09,0.00291812,4
153956531,0.38044,0.0368611,-0.0200366,0.923854,0.999996,-3.47733e-09,2.66865e-09,0.00291812,4
154001383,0.36389,0.036168,-0.0184689,0.930556,0.999996,-3.47733e-09,2.66865e-09,0.00291812,4
154050875,0.345807,0.0356944,-0.0162054,0.937486,0.999996,-3.47733e-09,2.66865e-09,0.00291812,4
154100584,0.327423,0.0353835,-0.0151298,0.944094,0.999996,-3.47733e-09,2.66865e-09,0.00291812,4
154155163,0.307459,0.0351112,-0.0133047,0.95082,0.999996,-3.47733e-09,2.66865e-09,0.00291812,4
154204823,0.289103,0.0332355,-0.0115946,0.956651,0.999996,-3.47733e-09,2.66865e-09,0.00291812,4
154249595,0.273,0.0317097,-0.00899937,0.961449,0.999996,-3.47733e-09,2.66865e-09,0.00291812,4
154304145,0.252415,0.0295155,-0.00593528,0.967151,0.999996,-3.47733e-09,2.66865e-09,0.00291812,4
154353808,0.233995,0.0283719,-0.00404801,0.971815,0.999996,-3.47733e-09,2.66865e-09,0.00291812,4
154403467,0.215415,0.0265044,-0.00223495,0.97616,0.999996,-3.47733e-09,2.66865e-09,0.00291812,4
154453170,0.196345,0.0258041,-0.000496699,0.980195,0.999996,-3.47733e-09,2.66865e-09,0.00291812,4
154502834,0.177356,0.0255059,0.00175772,0.983815,0.999996,-3.47733e-09,2.66865e-09,0.00291812,4
154552449,0.158462,0.0251929,0.00228161,0.987041,0.999996,-3.47733e-09,2.66865e-09,0.00291812,4
154602109,0.139453,0.0245165,0.00229362,0.989922,0.999996,-3.47733e-09,2.66865e-09,0.00291812,4
154656735,0.118988,0.0247244,0.00487559,0.992576,0.999996,-3.47733e-09,2.66865e-09,0.00291812,4
154701430,0.101549,0.0248989,0.00587839,0.994502,0.999996,-3.47733e-09,2.66865e-09,0.00291812,4
154751090,0.0826913,0.0262482,0.00741965,0.996202,0.999996,-3.47733e-09,2.66865e-09,0.00291812,4
154805913,0.0618627,0.0266435,0.0108146,0.99767,0.999996,-3.47733e-09,2.66865e-09,0.00291812,4
154855377,0.0431456,0.0265594,0.0116849,0.998647,0.999996,-3.47733e-09,2.66865e-09,0.00291812,4
154905065,0.0239388,0.0266396,0.0110529,0.999297,0.999996,-3.47733e-09,2.66865e-09,0.00291812,4
154949733,0.00733956,0.0271741,0.0128431,0.999521,0.999996,-3.47733e-09,2.66865e-09,0.00291812,4
155004361,-0.0138573,0.0267042,0.0136019,0.999455,0.999996,-3.47733e-09,2.66865e-09,0.00291812,4
155054063,-0.0326059,0.0267487,0.0135966,0.999018,0.999996,-3.47733e-09,2.66865e-09,0.00291812,4
155103681,-0.0506461,0.0270698,0.0148049,0.99824,0.999996,-3.47733e-09,2.66865e-09,0.00291812,4
155153383,-0.0608448,0.0286566,0.0149789,0.997623,0.999996,-3.47733e-09,2.66865e-09,0.00291812,4
155203003,-0.0678433,0.0300748,0.0151168,0.997128,0.999996,-3.47733e-09,2.66865e-09,0.00291812,4
155252663,-0.0719823,0.0306057,0.0160426,0.996807,0.999996,-3.47733e-09,2.66865e-09,0.00291812,4
155302323,-0.0748436,0.0301312,0.0173869,0.996588,0.999996,-3.47733e-09,2.66865e-09,0.00291812,4
155356962,-0.0763093,0.0300994,0.018022,0.996467,0.999996,-3.47733e-09,2.66865e-09,0.00291812,4
155401645,-0.0763416,0.029482,0.0193428,0.996458,0.999996,-3.47733e-09,2.66865e-09,0.00291812,4
155451306,-0.0753175,0.0287771,0.022783,0.996484,0.999996,-3.47733e-09,2.66865e-09,0.00291812,4
155500966,-0.0742338,0.028015,0.0228519,0.996585,0.999996,-3.47733e-09,2.66865e-09,0.00291812,4
155555597,-0.0719907,0.0259026,0.0201251,0.996866,0.999996,-3.47733e-09,2.66865e-09,0.00291812,4
155605425,-0.0697457,0.0240774,0.0194295,0.997085,0.999996,-3.47733e-09,2.66865e-09,0.00291812,4
155650000,-0.0673219,0.0237838,0.0252816,0.997127,0.999996,-3.47733e-09,2.66865e-09,0.00291812,4
155704576,-0.0639354,0.0238803,0.0268387,0.997307,0.999996,-3.47733e-09,2.66865e-09,0.00291812,4
155754235,-0.0610507,0.0227949,0.0245799,0.997572,0.999996,-3.47733e-09,2.66865e-09,0.00291812,4
155803896,-0.0583658,0.0210005,0.0262642,0.997729,0.999996,-3.47733e-09,2.66865e-09,0.00291812,4
155853671,-0.0552377,0.0207449,0.0282455,0.997858,0.999996,-3.47733e-09,2.66865e-09,0.00291812,4
155903218,-0.0524356,0.0211263,0.0270873,0.998033,0.999996,-3.47733e-09,2.66865e-09,0.00291812,4
155952878,-0.0495413,0.0202745,0.0275966,0.998185,0.999996,-3.47733e-09,2.66865e-09,0.00291812,4
156002538,-0.046995,0.0193895,0.0291304,0.998282,0.999996,-3.47733e-09,2.66865e-09,0.00291812,4
156052204,-0.0449277,0.0195864,0.0291819,0.998372,0.999996,-3.47733e-09,2.66865e-09,0.00291812,4
156101872,-0.0427947,0.0187083,0.0286856,0.998497,0.999996,-3.47733e-09,2.66865e-09,0.00291812,4
156151672,-0.0407455,0.0174387,0.0276721,0.998634,0.999996,-3.47733e-09,2.66865e-09,0.00291812,4
156201181,-0.0386527,0.0168289,0.0280834,0.998716,0.999996,-3.47733e-09,2.66865e-09,0.00291812,4
156255808,-0.0374654,0.0164588,0.0283479,0.99876,0.999996,-3.47733e-09,2.66865e-09,0.00291812,4
156305468,-0.0363487,0.0158175,0.0274721,0.998836,0.999996,-3.47733e-09,2.66865e-09,0.00291812,4
156350164,-0.0347202,0.0159633,0.02636,0.998922,0.999996,-3.47733e-09,2.66865e-09,0.00291812,4
156404869,-0.0336473,0.0162036,0.0267004,0.998946,0.999996,-3.47733e-09,2.66865e-09,0.00291812,4
156454451,-0.0327078,0.0171169,0.0288212,0.998903,0.999996,-3.47733e-09,2.66865e-09,0.00291812,4
156504113,-0.0317741,0.0178518,0.0291312,0.998911,0.999996,-3.47733e-09,2.66865e-09,0.00291812,4
156553817,-0.0313929,0.0182008,0.0292875,0.998912,0.999996,-3.47733e-09,2.66865e-09,0.00291812,4
156603433,-0.030758,0.0182016,0.0293429,0.99893,0.999996,-3.47733e-09,2.66865e-09,0.00291812,4
156653094,-0.0306264,0.0175572,0.029482,0.998942,0.999996,-3.47733e-09,2.66865e-09,0.00291812,4
156702754,-0.0301875,0.0171981,0.0306319,0.998927,0.999996,-3.47733e-09,2.66865e-09,0.00291812,4
156752415,-0.0298701,0.0172464,0.0304623,0.998941,0.999996,-3.47733e-09,2.66865e-09,0.00291812,4
156802075,-0.0292565,0.0179738,0.0288497,0.998994,0.999996,-3.47733e-09,2.66865e-09,0.00291812,4
156851741,-0.0289774,0.0198343,0.0303202,0.998923,0.999996,-3.47733e-09,2.66865e-09,0.00291812,4
156901396,-0.0287134,0.0202511,0.0320885,0.998867,0.999996,-3.47733e-09,2.66865e-09,0.00291812,4
156956150,-0.0292287,0.0185257,0.0291613,0.998976,0.999996,-3.47733e-09,2.66865e-09,0.00291812,4
157000718,-0.028952,0.0180903,0.0282904,0.999017,0.999996,-3.47733e-09,2.66865e-09,0.00291812,4
157050379,-0.0289618,0.0182609,0.0293908,0.998982,0.999996,-3.47733e-09,2.66865e-09,0.00291812,4
157105008,-0.0291352,0.0190769,0.0285876,0.998985,0.999996,-3.47733e-09,2.66865e-09,0.00291812,4
157154665,-0.0293939,0.0191198,0.027722,0.999001,0.999996,-3.47733e-09,2.66865e-09,0.00291812,4
157204408,-0.0296102,0.0195764,0.0275835,0.998989,0.999996,-3.47733e-09,2.66865e-09,0.00291812,4
157253987,-0.0301134,0.0199014,0.0260278,0.999009,0.999996,-3.47733e-09,2.66865e-09,0.00291812,4
157303648,-0.0304361,0.0198045,0.0246665,0.999036,0.999996,-3.47733e-09,2.66865e-09,0.00291812,4
157353308,-0.0306712,0.0194743,0.0261654,0.998997,0.999996,-3.47733e-09,2.66865e-09,0.00291812,4
157402969,-0.0309001,0.0197557,0.0269834,0.998963,0.999996,-3.47733e-09,2.66865e-09,0.00291812,4
157452631,-0.0312076,0.0201898,0.0267391,0.998951,0.999996,-3.47733e-09,2.66865e-09,0.00291812,4
157502459,-0.0316439,0.0204021,0.023236,0.999021,0.999996,-3.47733e-09,2.66865e-09,0.00291812,4
157551951,-0.0319277,0.0205358,0.0229364,0.999016,0.999996,-3.47733e-09,2.66865e-09,0.00291812,4
157606581,-0.0320907,0.0207615,0.0263768,0.998921,0.999996,-3.47733e-09,2.66865e-09,0.00291812,4
157656238,-0.0327926,0.0211708,0.0263335,0.998891,0.999996,-3.47733e-09,2.66865e-09,0.00291812,4
157700966,-0.0326356,0.0215552,0.0259768,0.998897,0.999996,-3.47733e-09,2.66865e-09,0.00291812,4
157750663,-0.032964,0.0217884,0.0267775,0.99886,0.999996,-3.47733e-09,2.66865e-09,0.00291812,4
157805222,-0.0333526,0.0212696,0.0262979,0.998871,0.999996,-3.47733e-09,2.66865e-09,0.00291812,4
157854881,-0.0334811,0.0211823,0.0257635,0.998883,0.999996,-3.47733e-09,2.66865e-09,0.00291812,4
157904542,-0.0339699,0.0217397,0.024769,0.998879,0.999996,-3.47733e-09,2.66865e-09,0.00291812,4
157954249,-0.0344271,0.0222151,0.0244135,0.998862,0.999996,-3.47733e-09,2.66865e-09,0.00291812,4
158003861,-0.0346998,0.0222387,0.0242922,0.998855,0.999996,-3.47733e-09,2.66865e-09,0.00291812,4
158053524,-0.0343966,0.0223028,0.0250431,0.998846,0.999996,-3.47733e-09,2.66865e-09,0.00291812,4
158103184,-0.0347409,0.0223274,0.0255179,0.998821,0.999996,-3.47733e-09,2.66865e-09,0.00291812,4
158152845,-0.0349947,0.0226725,0.0257041,0.9988,0.999996,-3.47733e-09,2.66865e-09,0.00291812,4
158202506,-0.0351288,0.0231298,0.025803,0.998782,0.999996,-3.47733e-09,2.66865e-09,0.00291812,4
158252166,-0.0353829,0.0223287,0.0238918,0.998839,0.999996,-3.47733e-09,2.66865e-09,0.00291812,4
158306944,-0.0351683,0.0218886,0.0238364,0.998857,0.999996,-3.47733e-09,2.66865e-09,0.00291812,4
158356453,-0.0354613,0.0228362,0.0239699,0.998823,0.999996,-3.47733e-09,2.66865e-09,0.00291812,4
158401148,-0.0353403,0.0233412,0.0231632,0.998834,0.999996,-3.47733e-09,2.66865e-09,0.00291812,4
158450810,-0.035176,0.0236294,0.0222538,0.998854,0.999996,-3.47733e-09,2.66865e-09,0.00291812,4
158505439,-0.0355055,0.0234333,0.0200979,0.998893,0.999996,-3.47733e-09,2.66865e-09,0.00291812,4
158555154,-0.0356904,0.0233877,0.0199885,0.998889,0.999996,-3.47733e-09,2.66865e-09,0.00291812,4
158604757,-0.0358172,0.0228417,0.0210466,0.998876,0.999996,-3.47733e-09,2.66865e-09,0.00291812,4
158654418,-0.0359097,0.0226305,0.0216464,0.998864,0.999996,-3.47733e-09,2.66865e-09,0.00291812,4
158704078,-0.036204,0.0231107,0.0214171,0.998848,0.999996,-3.47733e-09,2.66865e-09,0.00291812,4
158753738,-0.0358971,0.0230998,0.0223301,0.998839,0.999996,-3.47733e-09,2.66865e-09,0.00291812,4
158803400,-0.0363837,0.0221811,0.021665,0.998857,0.999996,-3.47733e-09,2.66865e-09,0.00291812,4
158853285,-0.0369075,0.0222631,0.022462,0.998818,0.999996,-3.47733e-09,2.66865e-09,0.00291812,4
158902723,-0.0370694,0.0231448,0.0225491,0.99879,0.999996,-3.47733e-09,2.66865e-09,0.00291812,4
158952381,-0.0372467,0.0231948,0.0212736,0.99881,0.999996,-3.47733e-09,2.66865e-09,0.00291812,4
159002042,-0.0369907,0.0227705,0.020626,0.998843,0.999996,-3.47733e-09,2.66865e-09,0.00291812,4
159051702,-0.0369358,0.0231056,0.0212451,0.998825,0.999996,-3.47733e-09,2.66865e-09,0.00291812,4
159101453,-0.036701,0.0236326,0.0205268,0.998836,0.999996,-3.47733e-09,2.66865e-09,0.00291812,4
159151031,-0.0365015,0.024376,0.0192921,0.99885,0.999996,-3.47733e-09,2.66865e-09,0.00291812,4
159205651,-0.0363765,0.024202,0.0205887,0.998833,0.999996,-3.47733e-09,2.66865e-09,0.00291812,4
159255313,-0.0365236,0.0236318,0.0209159,0.998834,0.999996,-3.47733e-09,2.66865e-09,0.00291812,4
159304983,-0.0364702,0.0238209,0.0194839,0.998861,0.999996,-3.47733e-09,2.66865e-09,0.00291812,4
159349663,-0.0360815,0.0241828,0.020536,0.998845,0.999996,-3.47733e-09,2.66865e-09,0.00291812,4
159404293,-0.0361331,0.0239678,0.0203164,0.998853,0.999996,-3.47733e-09,2.66865e-09,0.00291812,4
159453954,-0.0355002,0.0239077,0.0211677,0.998859,0.999996,-3.47733e-09,2.66865e-09,0.00291812,4
159503615,-0.0356453,0.0238228,0.0232496,0.99881,0.999996,-3.47733e-09,2.66865e-09,0.00291812,4
159553275,-0.0357464,0.0247143,0.0234646,0.99878,0.999996,-3.47733e-09,2.66865e-09,0.00291812,4
159602936,-0.0354747,0.0253745,0.0215557,0.998816,0.999996,-3.47733e-09,2.66865e-09,0.00291812,4
159652746,-0.0355938,0.0240454,0.0201926,0.998873,0.999996,-3.47733e-09,2.66865e-09,0.00291812,4
159702298,-0.0353255,0.0232239,0.0215367,0.998874,0.999996,-3.47733e-09,2.66865e-09,0.00291812,4
159751918,-0.035202,0.0234395,0.0221109,0.998861,0.999996,-3.47733e-09,2.66865e-09,0.00291812,4
159801579,-0.0350823,0.0236606,0.0208093,0.998888,0.999996,-3.47733e-09,2.66865e-09,0.00291812,4
159851242,-0.0350306,0.0232879,0.019468,0.998925,0.999996,-3.47733e-09,2.66865e-09,0.00291812,4
159905967,-0.0346835,0.0221882,0.0200504,0.998951,0.999996,-3.47733e-09,2.66865e-09,0.00291812,4
159955526,-0.0349455,0.0216947,0.0204039,0.998945,0.999996,-3.47733e-09,2.66865e-09,0.00291812,4
160000222,-0.0349662,0.0218231,0.0192151,0.998965,0.999996,-3.47733e-09,2.66865e-09,0.00291812,4
160049882,-0.0350081,0.0214657,0.0177161,0.998999,0.999996,-3.47733e-09,2.66865e-09,0.00291812,4
160104509,-0.0348839,0.0212902,0.0178652,0.999005,0.999996,-3.47733e-09,2.66865e-09,0.00291812,4
160154261,-0.0348587,0.0217997,0.0179146,0.998994,0.999996,-3.47733e-09,2.66865e-09,0.00291812,4
160203830,-0.0351182,0.0219006,0.0166307,0.999005,0.999996,-3.47733e-09,2.66865e-09,0.00291812,4
160253492,-0.0351379,0.0214712,0.0176842,0.998995,0.999996,-3.47733e-09,2.66865e-09,0.00291812,4
160303151,-0.0351014,0.0214642,0.0202412,0.998948,0.999996,-3.47733e-09,2.66865e-09,0.00291812,4
160352812,-0.0347556,0.02223,0.0202057,0.998944,0.999996,-3.47733e-09,2.66865e-09,0.00291812,4
160402524,-0.034754,0.0215436,0.0190418,0.998982,0.999996,-3.47733e-09,2.66865e-09,0.00291812,4
160452251,-0.034932,0.0206794,0.0187108,0.999001,0.999996,-3.47733e-09,2.66865e-09,0.00291812,4
160501794,-0.0351074,0.021251,0.018851,0.99898,0.999996,-3.47733e-09,2.66865e-09,0.00291812,4
160551456,-0.0348934,0.0213352,0.0172569,0.999014,0.999996,-3.47733e-09,2.66865e-09,0.00291812,4
160606081,-0.035309,0.0203711,0.0173695,0.999018,0.999996,-3.47733e-09,2.66865e-09,0.00291812,4
160655742,-0.035186,0.0201869,0.0207472,0.998961,0.999996,-3.47733e-09,2.66865e-09,0.00291812,4
160700455,-0.0353959,0.0206588,0.0209235,0.998941,0.999996,-3.47733e-09,2.66865e-09,0.00291812,4
160750097,-0.0358097,0.0207919,0.0179201,0.998982,0.999996,-3.47733e-09,2.66865e-09,0.00291812,4
160804724,-0.0354775,0.021217,0.0184731,0.998975,0.999996,-3.47733e-09,2.66865e-09,0.00291812,4
160854385,-0.0359301,0.022397,0.0191773,0.998919,0.999996,-3.47733e-09,2.66865e-09,0.00291812,4
160904050,-0.0362897,0.0227014,0.0190546,0.998902,0.999996,-3.47733e-09,2.66865e-09,0.00291812,4
160953708,-0.0361403,0.0218678,0.0193757,0.99892,0.999996,-3.47733e-09,2.66865e-09,0.00291812,4
161003550,-0.0361226,0.0219517,0.0206308,0.998893,0.999996,-3.47733e-09,2.66865e-09,0.00291812,4
161053028,-0.036328,0.0231662,0.0215475,0.998839,0.999996,-3.47733e-09,2.66865e-09,0.00291812,4
161102731,-0.0363227,0.0241763,0.0197926,0.998852,0.999996,-3.47733e-09,2.66865e-09,0.00291812,4
161152353,-0.0363332,0.0236645,0.0178116,0.998901,0.999996,-3.47733e-09,2.66865e-09,0.00291812,4
161202010,-0.0359729,0.022934,0.0180396,0.998927,0.999996,-3.47733e-09,2.66865e-09,0.00291812,4
161251749,-0.0357154,0.022998,0.0183324,0.998929,0.999996,-3.47733e-09,2.66865e-09,0.00291812,4
161306297,-0.0359119,0.0233334,0.0176481,0.998927,0.999996,-3.47733e-09,2.66865e-09,0.00291812,4
161355965,-0.0356266,0.0232002,0.0179124,0.998935,0.999996,-3.47733e-09,2.66865e-09,0.00291812,4
161400652,-0.0353541,0.0223823,0.0165135,0.998988,0.999996,-3.47733e-09,2.66865e-09,0.00291812,4
161455279,-0.0349674,0.0223244,0.0137977,0.999044,0.999996,-3.47733e-09,2.66865e-09,0.00291812,4
161504955,-0.0348484,0.0218093,0.0155558,0.999034,0.999996,-3.47733e-09,2.66865e-09,0.00291812,4
161554604,-0.0344068,0.0225143,0.0179515,0.998993,0.999996,-3.47733e-09,2.66865e-09,0.00291812,4
161604261,-0.0344375,0.0237949,0.0179537,0.998962,0.999996,-3.47733e-09,2.66865e-09,0.00291812,4
161653923,-0.034421,0.0231425,0.0179476,0.998978,0.999996,-3.47733e-09,2.66865e-09,0.00291812,4
161703582,-0.0341274,0.0221805,0.0193086,0.998985,0.999996,-3.47733e-09,2.66865e-09,0.00291812,4
161753243,-0.034098,0.0217237,0.019899,0.998984,0.999996,-3.47733e-09,2.66865e-09,0.00291812,4
161803089,-0.0343975,0.0214317,0.0203528,0.998971,0.999996,-3.47733e-09,2.66865e-09,0.00291812,4
161852564,-0.0351024,0.0214604,0.0199732,0.998954,0.999996,-3.47733e-09,2.66865e-09,0.00291812,4
161902229,-0.0357925,0.0208556,0.0208771,0.998923,0.999996,-3.47733e-09,2.66865e-09,0.00291812,4
161951885,-0.035992,0.0212107,0.0221014,0.998883,0.999996,-3.47733e-09,2.66865e-09,0.00291812,4
162006512,-0.0368728,0.0215752,0.0236865,0.998806,0.999996,-3.47733e-09,2.66865e-09,0.00291812,4
162051308,-0.0373969,0.0230344,0.0238473,0.99875,0.999996,-3.47733e-09,2.66865e-09,0.00291812,4
162100868,-0.0381562,0.0250338,0.0236846,0.998677,0.999996,-3.47733e-09,2.66865e-09,0.00291812,4
162155494,-0.0384171,0.0254366,0.0244406,0.998639,0.999996,-3.47733e-09,2.66865e-09,0.00291812,4
162205155,-0.0388857,0.0243967,0.0242284,0.998652,0.999996,-3.47733e-09,2.66865e-09,0.00291812,4
162254816,-0.0391105,0.0243704,0.021732,0.998701,0.999996,-3.47733e-09,2.66865e-09,0.00291812,4
162304501,-0.0389844,0.0238707,0.0204371,0.998746,0.999996,-3.47733e-09,2.66865e-09,0.00291812,4
162354142,-0.038857,0.0230367,0.0205542,0.998768,0.999996,-3.47733e-09,2.66865e-09,0.00291812,4
162403797,-0.0386811,0.023734,0.0203891,0.998762,0.999996,-3.47733e-09,2.66865e-09,0.00291812,4
162453458,-0.0385813,0.0244382,0.0193901,0.998768,0.999996,-3.47733e-09,2.66865e-09,0.00291812,4
162503119,-0.0383991,0.0241189,0.0181197,0.998807,0.999996,-3.47733e-09,2.66865e-09,0.00291812,4
162552783,-0.0375734,0.0238752,0.0175995,0.998854,0.999996,-3.47733e-09,2.66865e-09,0.00291812,4
162602538,-0.0369153,0.0243586,0.0189123,0.998843,0.999996,-3.47733e-09,2.66865e-09,0.00291812,4
162652103,-0.0366406,0.0240658,0.018973,0.998859,0.999996,-3.47733e-09,2.66865e-09,0.00291812,4
162706734,-0.0362106,0.0235992,0.0185521,0.998893,0.999996,-3.47733e-09,2.66865e-09,0.00291812,4
162751437,-0.0354447,0.0236237,0.017698,0.998936,0.999996,-3.47733e-09,2.66865e-09,0.00291812,4
162801083,-0.0346739,0.0235345,0.0157662,0.998997,0.999996,-3.47733e-09,2.66865e-09,0.00291812,4
162855733,-0.0335943,0.0229783,0.0168558,0.999029,0.999996,-3.47733e-09,2.66865e-09,0.00291812,4
162905370,-0.0330115,0.0233006,0.0159208,0.999057,0.999996,-3.47733e-09,2.66865e-09,0.00291812,4
162955028,-0.032503,0.0231271,0.0133293,0.999115,0.999996,-3.47733e-09,2.66865e-09,0.00291812,4
162999727,-0.031724,0.0232426,0.0150361,0.999113,0.999996,-3.47733e-09,2.66865e-09,0.00291812,4
163054355,-0.0319399,0.022359,0.0169341,0.999096,0.999996,-3.47733e-09,2.66865e-09,0.00291812,4
163104020,-0.0315769,0.0221325,0.018488,0.999085,0.999996,-3.47733e-09,2.66865e-09,0.00291812,4
163153833,-0.0311003,0.0227703,0.0185955,0.999084,0.999996,-3.47733e-09,2.66865e-09,0.00291812,4
163203383,-0.0308299,0.0232948,0.0172633,0.999104,0.999996,-3.47733e-09,2.66865e-09,0.00291812,4
163252995,-0.0305771,0.0227301,0.0174806,0.999121,0.999996,-3.47733e-09,2.66865e-09,0.00291812,4
163302656,-0.0306768,0.0220727,0.0183787,0.999117,0.999996,-3.47733e-09,2.66865e-09,0.00291812,4
163352316,-0.0304935,0.0221829,0.0178161,0.99913,0.999996,-3.47733e-09,2.66865e-09,0.00291812,4
163402125,-0.0304554,0.0224337,0.0168291,0.999143,0.999996,-3.47733e-09,2.66865e-09,0.00291812,4
163451638,-0.0304776,0.0220174,0.01699,0.999149,0.999996,-3.47733e-09,2.66865e-09,0.00291812,4
163501299,-0.0302087,0.0217409,0.017368,0.999156,0.999996,-3.47733e-09,2.66865e-09,0.00291812,4
163555926,-0.029961,0.0229488,0.0159813,0.99916,0.999996,-3.47733e-09,2.66865e-09,0.00291812,4
163605586,-0.0301542,0.0220571,0.0143384,0.999199,0.999996,-3.47733e-09,2.66865e-09,0.00291812,4
163655355,-0.0302066,0.0209755,0.0150202,0.999211,0.999996,-3.47733e-09,2.66865e-09,0.00291812,4
163700142,-0.0300225,0.0202417,0.0161533,0.999214,0.999996,-3.47733e-09,2.66865e-09,0.00291812,4
163754569,-0.0300924,0.0203435,0.015705,0.999217,0.999996,-3.47733e-09,2.66865e-09,0.00291812,4
163804229,-0.0302069,0.0205073,0.0151957,0.999218,0.999996,-3.47733e-09,2.66865e-09,0.00291812,4
163853890,-0.0304106,0.0203735,0.0146535,0.999222,0.999996,-3.47733e-09,2.66865e-09,0.00291812,4
163903553,-0.0304097,0.0200999,0.0152136,0.99922,0.999996,-3.47733e-09,2.66865e-09,0.00291812,4
163953341,-0.0306014,0.0204443,0.0149859,0.99921,0.999996,-3.47733e-09,2.66865e-09,0.00291812,4
164002871,-0.0301844,0.0214787,0.0164983,0.999177,0.999996,-3.47733e-09,2.66865e-09,0.00291812,4
164052532,-0.0303838,0.0223761,0.0169118,0.999145,0.999996,-3.47733e-09,2.66865e-09,0.00291812,4
164102193,-0.0305614,0.0219535,0.0161341,0.999162,0.999996,-3.47733e-09,2.66865e-09,0.00291812,4
164151853,-0.0310083,0.0213608,0.0153541,0.999173,0.999996,-3.47733e-09,2.66865e-09,0.00291812,4
164201587,-0.031356,0.0209614,0.0152251,0.999172,0.999996,-3.47733e-09,2.66865e-09,0.00291812,4
164251175,-0.0316594,0.0209739,0.015107,0.999164,0.999996,-3.47733e-09,2.66865e-09,0.00291812,4
164305801,-0.0314793,0.0210472,0.0148633,0.999172,0.999996,-3.47733e-09,2.66865e-09,0.00291812,4
164355458,-0.0320363,0.0207597,0.0152191,0.999155,0.999996,-3.47733e-09,2.66865e-09,0.00291812,4
164400158,-0.0321094,0.0199713,0.0162338,0.999153,0.999996,-3.47733e-09,2.66865e-09,0.00291812,4
164454798,-0.03251,0.0196496,0.0156958,0.999155,0.999996,-3.47733e-09,2.66865e-09,0.00291812,4
164504624,-0.0326401,0.019727,0.0168068,0.999131,0.999996,-3.47733e-09,2.66865e-09,0.00291812,4
164554104,-0.0329753,0.0202869,0.0184483,0.99908,0.999996,-3.47733e-09,2.66865e-09,0.00291812,4
164603768,-0.033245,0.0206488,0.0176347,0.999078,0.999996,-3.47733e-09,2.66865e-09,0.00291812,4
164653426,-0.0333876,0.019977,0.0132024,0.999156,0.999996,-3.47733e-09,2.66865e-09,0.00291812,4
164703087,-0.0336341,0.0183477,0.0150691,0.999152,0.999996,-3.47733e-09,2.66865e-09,0.00291812,4
164752828,-0.0335981,0.0182771,0.0199803,0.999069,0.999996,-3.47733e-09,2.66865e-09,0.00291812,4
164802408,-0.033853,0.0193783,0.0192976,0.999053,0.999996,-3.47733e-09,2.66865e-09,0.00291812,4
164852070,-0.0338321,0.0200672,0.0181461,0.999061,0.999996,-3.47733e-09,2.66865e-09,0.00291812,4
164901731,-0.0338707,0.0203883,0.0185305,0.999047,0.999996,-3.47733e-09,2.66865e-09,0.00291812,4
164951390,-0.0340386,0.0210024,0.0189226,0.999021,0.999996,-3.47733e-09,2.66865e-09,0.00291812,4
165006076,-0.03386,0.0216985,0.0183011,0.999023,0.999996,-3.47733e-09,2.66865e-09,0.00291812,4
165050712,-0.0335736,0.0214209,0.0186965,0.999032,0.999996,-3.47733e-09,2.66865e-09,0.00291812,4
165100374,-0.0335125,0.0216409,0.0197792,0.999008,0.999996,-3.47733e-09,2.66865e-09,0.00291812,4
165154999,-0.0338444,0.0222719,0.0201069,0.998977,0.999996,-3.47733e-09,2.66865e-09,0.00291812,4
165204660,-0.0336517,0.0224443,0.0200877,0.99898,0.999996,-3.47733e-09,2.66865e-09,0.00291812,4
165254321,-0.0333665,0.0225452,0.0205126,0.998978,0.999996,-3.47733e-09,2.66865e-09,0.00291812,4
165299201,-0.0335475,0.0225349,0.0196789,0.998989,0.999996,-3.47733e-09,2.66865e-09,0.00291812,4
165353642,-0.0330229,0.0230961,0.0201294,0.998985,0.999996,-3.47733e-09,2.66865e-09,0.00291812,4
165403302,-0.0328471,0.0225874,0.0204714,0.998995,0.999996,-3.47733e-09,2.66865e-09,0.00291812,4
165452963,-0.032863,0.02236,0.0195665,0.999018,0.999996,-3.47733e-09,2.66865e-09,0.00291812,4
165502661,-0.0326095,0.022441,0.020093,0.999014,0.999996,-3.47733e-09,2.66865e-09,0.00291812,4
165552328,-0.032182,0.0231446,0.0209712,0.998994,0.999996,-3.47733e-09,2.66865e-09,0.00291812,4
165601945,-0.0316748,0.0230064,0.020464,0.999024,0.999996,-3.47733e-09,2.66865e-09,0.00291812,4
165656572,-0.03177,0.0223043,0.0200397,0.999045,0.999996,-3.47733e-09,2.66865e-09,0.00291812,4
165706233,-0.0313577,0.0224619,0.0208046,0.999039,0.999996,-3.47733e-09,2.66865e-09,0.00291812,4
165750927,-0.0313338,0.0232582,0.0208597,0.999021,0.999996,-3.47733e-09,2.66865e-09,0.00291812,4
165800589,-0.0315357,0.0228824,0.0207284,0.999026,0.999996,-3.47733e-09,2.66865e-09,0.00291812,4
165855214,-0.0313934,0.0218284,0.0212048,0.999044,0.999996,-3.47733e-09,2.66865e-09,0.00291812,4
165904875,-0.0313741,0.0211663,0.0211865,0.999059,0.999996,-3.47733e-09,2.66865e-09,0.00291812,4
165954536,-0.031859,0.0216504,0.0210094,0.999037,0.999996,-3.47733e-09,2.66865e-09,0.00291812,4
166004204,-0.032038,0.0221646,0.0210399,0.999019,0.999996,-3.47733e-09,2.66865e-09,0.00291812,4
166053857,-0.0321405,0.0220504,0.0206733,0.999026,0.999996,-3.47733e-09,2.66865e-09,0.00291812,4
166103622,-0.0324727,0.021929,0.0208062,0.999015,0.999996,-3.47733e-09,2.66865e-09,0.00291812,4
166153178,-0.0326171,0.0226807,0.0213946,0.998981,0.999996,-3.47733e-09,2.66865e-09,0.00291812,4
166202841,-0.0332118,0.022947,0.0211568,0.998961,0.999996,-3.47733e-09,2.66865e-09,0.00291812,4
166252500,-0.0336675,0.0230294,0.0206893,0.998954,0.999996,-3.47733e-09,2.66865e-09,0.00291812,4
166302161,-0.0340527,0.0230236,0.0207085,0.99894,0.999996,-3.47733e-09,2.66865e-09,0.00291812,4
166356875,-0.0340296,0.0227219,0.0204722,0.998953,0.999996,-3.47733e-09,2.66865e-09,0.00291812,4
166406448,-0.0346348,0.0220557,0.0202878,0.998951,0.999996,-3.47733e-09,2.66865e-09,0.00291812,4
166451144,-0.0344006,0.0217377,0.0210996,0.998949,0.999996,-3.47733e-09,2.66865e-09,0.00291812,4
166500803,-0.0346843,0.0212998,0.0217715,0.998934,0.999996,-3.47733e-09,2.66865e-09,0.00291812,4
166555430,-0.0346869,0.0211517,0.0211207,0.998951,0.999996,-3.47733e-09,2.66865e-09,0.00291812,4
166605089,-0.0348701,0.0215254,0.0206281,0.998947,0.999996,-3.47733e-09,2.66865e-09,0.00291812,4
166654927,-0.035432,0.0220964,0.0213757,0.998899,0.999996,-3.47733e-09,2.66865e-09,0.00291812,4
166704415,-0.0358731,0.0224034,0.0228422,0.998844,0.999996,-3.47733e-09,2.66865e-09,0.00291812,4
166754073,-0.0360887,0.0224162,0.0220781,0.998853,0.999996,-3.47733e-09,2.66865e-09,0.00291812,4
166803733,-0.0362823,0.0224754,0.0208136,0.998872,0.999996,-3.47733e-09,2.66865e-09,0.00291812,4
166853397,-0.0362736,0.0229541,0.0205694,0.998867,0.999996,-3.47733e-09,2.66865e-09,0.00291812,4
166903164,-0.0361626,0.0229855,0.0213613,0.998853,0.999996,-3.47733e-09,2.66865e-09,0.00291812,4
166952718,-0.0367351,0.0224145,0.0200667,0.998872,0.999996,-3.47733e-09,2.66865e-09,0.00291812,4
167002376,-0.0370518,0.0227502,0.0188834,0.998876,0.999996,-3.47733e-09,2.66865e-09,0.00291812,4
167057003,-0.0369702,0.022903,0.0198201,0.998857,0.999996,-3.47733e-09,2.66865e-09,0.00291812,4
167101698,-0.0374297,0.0230991,0.0193837,0.998844,0.999996,-3.47733e-09,2.66865e-09,0.00291812,4
167151378,-0.0371933,0.0233501,0.020707,0.998821,0.999996,-3.47733e-09,2.66865e-09,0.00291812,4
167201019,-0.0376694,0.0232844,0.0192443,0.998834,0.999996,-3.47733e-09,2.66865e-09,0.00291812,4
167255646,-0.037805,0.0233544,0.0205554,0.998801,0.999996,-3.47733e-09,2.66865e-09,0.00291812,4
167305307,-0.0378393,0.0238403,0.0219124,0.998759,0.999996,-3.47733e-09,2.66865e-09,0.00291812,4
167354967,-0.037743,0.0240842,0.0207057,0.998783,0.999996,-3.47733e-09,2.66865e-09,0.00291812,4
167404628,-0.0379898,0.0244032,0.0186426,0.998806,0.999996,-3.47733e-09,2.66865e-09,0.00291812,4
167454424,-0.0375527,0.0241734,0.019449,0.998813,0.999996,-3.47733e-09,2.66865e-09,0.00291812,4
167503949,-0.0374578,0.0236771,0.0202963,0.998812,0.999996,-3.47733e-09,2.66865e-09,0.00291812,4
167553610,-0.0375118,0.0234885,0.0206381,0.998807,0.999996,-3.47733e-09,2.66865e-09,0.00291812,4
167603272,-0.0374415,0.0242388,0.0218486,0.998766,0.999996,-3.47733e-09,2.66865e-09,0.00291812,4
167652933,-0.0374889,0.02468,0.021025,0.998771,0.999996,-3.47733e-09,2.66865e-09,0.00291812,4
167702672,-0.0370314,0.0237878,0.0219976,0.998789,0.999996,-3.47733e-09,2.66865e-09,0.00291812,4
167752252,-0.0363336,0.0233568,0.0228286,0.998806,0.999996,-3.47733e-09,2.66865e-09,0.00291812,4
167801914,-0.0363085,0.0237683,0.0205318,0.998847,0.999996,-3.47733e-09,2.66865e-09,0.00291812,4
167851574,-0.0362098,0.0235364,0.0197851,0.998871,0.999996,-3.47733e-09,2.66865e-09,0.00291812,4
167901239,-0.0364099,0.023404,0.0196939,0.998869,0.999996,-3.47733e-09,2.66865e-09,0.00291812,4
167955866,-0.0360308,0.0232192,0.0185573,0.998909,0.999996,-3.47733e-09,2.66865e-09,0.00291812,4
168005711,-0.036325,0.022949,0.0158047,0.998952,0.999996,-3.47733e-09,2.66865e-09,0.00291812,4
168050217,-0.0363284,0.0232351,0.0161119,0.99894,0.999996,-3.47733e-09,2.66865e-09,0.00291812,4
168099877,-0.0366445,0.0231466,0.0177843,0.998902,0.999996,-3.47733e-09,2.66865e-09,0.00291812,4
168154504,-0.0366584,0.0232917,0.018402,0.998887,0.999996,-3.47733e-09,2.66865e-09,0.00291812,4
168204181,-0.0371239,0.0234551,0.0174746,0.998883,0.999996,-3.47733e-09,2.66865e-09,0.00291812,4
168253927,-0.0375211,0.0232657,0.0176584,0.998869,0.999996,-3.47733e-09,2.66865e-09,0.00291812,4
168303487,-0.0374953,0.023128,0.0186601,0.998855,0.999996,-3.47733e-09,2.66865e-09,0.00291812,4
168353147,-0.037474,0.0230188,0.0195199,0.998842,0.999996,-3.47733e-09,2.66865e-09,0.00291812,4
168402808,-0.0377026,0.0226717,0.0188114,0.998855,0.999996,-3.47733e-09,2.66865e-09,0.00291812,4
168457435,-0.0377488,0.0225886,0.0186655,0.998858,0.999996,-3.47733e-09,2.66865e-09,0.00291812,4
168502129,-0.037887,0.022338,0.017515,0.998879,0.999996,-3.47733e-09,2.66865e-09,0.00291812,4
168551790,-0.0373021,0.0222356,0.0189299,0.998877,0.999996,-3.47733e-09,2.66865e-09,0.00291812,4
168601451,-0.0370043,0.0217027,0.0190624,0.998898,0.999996,-3.47733e-09,2.66865e-09,0.00291812,4
168656078,-0.0367621,0.0219638,0.0169263,0.998939,0.999996,-3.47733e-09,2.66865e-09,0.00291812,4
168705738,-0.0365088,0.0225505,0.0185975,0.998906,0.999996,-3.47733e-09,2.66865e-09,0.00291812,4
168750432,-0.0366371,0.0213671,0.0169047,0.998957,0.999996,-3.47733e-09,2.66865e-09,0.00291812,4
168800221,-0.0362844,0.0202973,0.0161492,0.999005,0.999996,-3.47733e-09,2.66865e-09,0.00291812,4
168854720,-0.0366282,0.02095,0.0172608,0.99896,0.999996,-3.47733e-09,2.66865e-09,0.00291812,4
168904425,-0.0363607,0.0219651,0.0175404,0.998943,0.999996,-3.47733e-09,2.66865e-09,0.00291812,4
168954043,-0.0361252,0.0228984,0.0164076,0.99895,0.999996,-3.47733e-09,2.66865e-09,0.00291812,4
169003706,-0.0357616,0.0229066,0.015675,0.998975,0.999996,-3.47733e-09,2.66865e-09,0.00291812,4
169053413,-0.0355234,0.0219282,0.0151727,0.999013,0.999996,-3.47733e-09,2.66865e-09,0.00291812,4
169103023,-0.0353594,0.0212623,0.0156403,0.999026,0.999996,-3.47733e-09,2.66865e-09,0.00291812,4
169152701,-0.0347288,0.021966,0.0172642,0.999006,0.999996,-3.47733e-09,2.66865e-09,0.00291812,4
169202345,-0.0344701,0.0224945,0.0161065,0.999023,0.999996,-3.47733e-09,2.66865e-09,0.00291812,4
169252005,-0.0339478,0.0233046,0.016263,0.99902,0.999996,-3.47733e-09,2.66865e-09,0.00291812,4
169301674,-0.0339533,0.0233019,0.0162373,0.99902,0.999996,-3.47733e-09,2.66865e-09,0.00291812,4
169356293,-0.0335677,0.0230655,0.0155356,0.99905,0.999996,-3.47733e-09,2.66865e-09,0.00291812,4
169406001,-0.033403,0.0234078,0.0152985,0.999051,0.999996,-3.47733e-09,2.66865e-09,0.00291812,4
169450648,-0.0332432,0.0232581,0.0153443,0.999059,0.999996,-3.47733e-09,2.66865e-09,0.00291812,4
169500309,-0.0326664,0.0231393,0.0165947,0.999061,0.999996,-3.47733e-09,2.66865e-09,0.00291812,4
169554947,-0.0324817,0.0225367,0.0163665,0.999084,0.999996,-3.47733e-09,2.66865e-09,0.00291812,4
169604775,-0.0321612,0.0230245,0.0146638,0.99911,0.999996,-3.47733e-09,2.66865e-09,0.00291812,4
169654257,-0.0314505,0.0229738,0.0149173,0.99913,0.999996,-3.47733e-09,2.66865e-09,0.00291812,4
169703923,-0.0311314,0.0222507,0.0160196,0.999139,0.999996,-3.47733e-09,2.66865e-09,0.00291812,4
169753578,-0.0309274,0.0224121,0.0178908,0.99911,0.999996,-3.47733e-09,2.66865e-09,0.00291812,4
169803239,-0.0307054,0.0229011,0.017956,0.999105,0.999996,-3.47733e-09,2.66865e-09,0.00291812,4
169852919,-0.0307077,0.0225101,0.0158958,0.999148,0.999996,-3.47733e-09,2.66865e-09,0.00291812,4
169902561,-0.0303976,0.0217761,0.0155104,0.99918,0.999996,-3.47733e-09,2.66865e-09,0.00291812,4
169952224,-0.0300774,0.0217985,0.0146675,0.999202,0.999996,-3.47733e-09,2.66865e-09,0.00291812,4
170001882,-0.0299696,0.0219669,0.0140951,0.99921,0.999996,-3.47733e-09,2.66865e-09,0.00291812,4
170056508,-0.0304446,0.0210467,0.0146057,0.999208,0.999996,-3.47733e-09,2.66865e-09,0.00291812,4
170101205,-0.0306391,0.0209283,0.0142525,0.99921,0.999996,-3.47733e-09,2.66865e-09,0.00291812,4
170151019,-0.0309584,0.0210807,0.0142829,0.999196,0.999996,-3.47733e-09,2.66865e-09,0.00291812,4
170205491,-0.0309603,0.0209725,0.0160971,0.999171,0.999996,-3.47733e-09,2.66865e-09,0.00291812,4
170255151,-0.0314778,0.0207143,0.0158593,0.999164,0.999996,-3.47733e-09,2.66865e-09,0.00291812,4
170304863,-0.0316744,0.0204778,0.0156471,0.999166,0.999996,-3.47733e-09,2.66865e-09,0.00291812,4
170354473,-0.0318988,0.0199615,0.015946,0.999165,0.999996,-3.47733e-09,2.66865e-09,0.00291812,4
170404213,-0.0323772,0.0200961,0.0168989,0.999131,0.999996,-3.47733e-09,2.66865e-09,0.00291812,4
170453794,-0.0326193,0.0205923,0.0176119,0.999101,0.999996,-3.47733e-09,2.66865e-09,0.00291812,4
170503455,-0.0330642,0.0211225,0.0175745,0.999075,0.999996,-3.47733e-09,2.66865e-09,0.00291812,4
170553119,-0.0332616,0.0210217,0.018119,0.999061,0.999996,-3.47733e-09,2.66865e-09,0.00291812,4
170602776,-0.0331835,0.0216935,0.0179921,0.999052,0.999996,-3.47733e-09,2.66865e-09,0.00291812,4
170652438,-0.0328245,0.0223121,0.0174733,0.999059,0.999996,-3.47733e-09,2.66865e-09,0.00291812,4
170702098,-0.0327358,0.0216694,0.0183091,0.999061,0.999996,-3.47733e-09,2.66865e-09,0.00291812,4
170756726,-0.0327196,0.0227536,0.0197398,0.999011,0.999996,-3.47733e-09,2.66865e-09,0.00291812,4
170801419,-0.0332905,0.0240511,0.0197232,0.998962,0.999996,-3.47733e-09,2.66865e-09,0.00291812,4
170851081,-0.0334509,0.02422,0.0185113,0.998975,0.999996,-3.47733e-09,2.66865e-09,0.00291812,4
170900742,-0.0331649,0.023952,0.01697,0.999019,0.999996,-3.47733e-09,2.66865e-09,0.00291812,4
170955500,-0.03302,0.0232579,0.0163714,0.99905,0.999996,-3.47733e-09,2.66865e-09,0.00291812,4
171005035,-0.0329925,0.0225786,0.016864,0.999058,0.999996,-3.47733e-09,2.66865e-09,0.00291812,4
171049724,-0.0326631,0.02283,0.0173469,0.999055,0.999996,-3.47733e-09,2.66865e-09,0.00291812,4
171104352,-0.0328426,0.0227894,0.0173237,0.999051,0.999996,-3.47733e-09,2.66865e-09,0.00291812,4
171154010,-0.0327101,0.022382,0.0179454,0.999053,0.999996,-3.47733e-09,2.66865e-09,0.00291812,4
171203762,-0.0324317,0.0215605,0.0183852,0.999072,0.999996,-3.47733e-09,2.66865e-09,0.00291812,4
171253332,-0.0320178,0.0212001,0.0175214,0.999109,0.999996,-3.47733e-09,2.66865e-09,0.00291812,4
171302992,-0.0318575,0.0207599,0.0150279,0.999164,0.999996,-3.47733e-09,2.66865e-09,0.00291812,4
171352653,-0.0308596,0.0202866,0.0160681,0.999189,0.999996,-3.47733e-09,2.66865e-09,0.00291812,4
171402313,-0.0304916,0.0198992,0.0166587,0.999198,0.999996,-3.47733e-09,2.66865e-09,0.00291812,4
171456952,-0.0304004,0.0204151,0.0150353,0.999216,0.999996,-3.47733e-09,2.66865e-09,0.00291812,4
171501811,-0.030076,0.0210873,0.0148789,0.999214,0.999996,-3.47733e-09,2.66865e-09,0.00291812,4
171551299,-0.0298292,0.0218812,0.014768,0.999206,0.999996,-3.47733e-09,2.66865e-09,0.00291812,4
171605922,-0.0291762,0.0218202,0.0142328,0.999235,0.999996,-3.47733e-09,2.66865e-09,0.00291812,4
171655586,-0.0291653,0.0216413,0.0142747,0.999238,0.999996,-3.47733e-09,2.66865e-09,0.00291812,4
