timestamp,lat,lon,alt,alt_ellipsoid,delta_alt,eph,epv,terrain_alt,lat_lon_reset_counter,alt_reset_counter,terrain_alt_valid,dead_reckoning
141099398,34.0343352928,108.755107208,423.172,396.035,-0.0,0.675677,0.925977,423.082,2,0,1,0
141109317,34.0343352996,108.755107216,423.172,396.034,-0.0,0.676016,0.926255,423.082,2,0,1,0
141298027,34.0343354421,108.75510738,423.168,396.049,-0.0,0.67564,0.925675,423.084,2,0,1,0
141506602,34.034335605,108.755107573,423.169,396.068,-0.0,0.675946,0.926671,423.089,2,0,1,0
141705275,34.0343357374,108.755107742,423.173,396.089,-0.0,0.675917,0.926365,423.09,2,0,1,0
141894200,34.0343358517,108.755107903,423.176,396.11,-0.0,0.675518,0.926794,423.094,2,0,1,0
142107497,34.0343359778,108.755108112,423.18,396.129,-0.0,0.675789,0.926749,423.096,2,0,1,0
142296206,34.0343360921,108.755108283,423.182,396.147,-0.0,0.675428,0.926141,423.094,2,0,1,0
142499814,34.0343362281,108.755108447,423.182,396.162,-0.0,0.675373,0.926837,423.089,2,0,1,0
142698638,34.0343363636,108.75510863,423.18,396.175,-0.0,0.675358,0.926511,423.089,2,0,1,0
142907119,34.0343364936,108.755108828,423.183,396.191,-0.0,0.675686,0.926471,423.097,2,0,1,0
143100722,34.0343366299,108.75510902,423.186,396.208,-0.0,0.675341,0.925873,423.094,2,0,1,0
143304315,34.0343367959,108.755109231,423.184,396.219,-0.0,0.675335,0.926585,423.084,2,0,1,0
143503117,34.0343369782,108.755109448,423.181,396.229,-0.0,0.675332,0.926277,423.084,2,0,1,0
143701602,34.0343371731,108.755109667,423.178,396.238,-0.0,0.675345,0.925975,423.082,2,0,1,0
143900243,34.0343373517,108.755109851,423.179,396.252,-0.0,0.675361,0.925672,423.082,2,0,1,0
144098885,34.0343375019,108.755109996,423.177,396.262,-0.0,0.675383,0.926391,423.08,2,0,1,0
144297629,34.0343376466,108.755110128,423.175,396.272,-0.0,0.675417,0.926088,423.08,2,0,1,0
144506104,34.0343378119,108.755110279,423.174,396.282,-0.0,0.67582,0.926068,423.08,2,0,1,0
144699811,34.0343379548,108.755110417,423.172,396.291,-0.0,0.6755,0.926506,423.083,2,0,1,0
144898422,34.0343380707,108.75511057,423.172,396.302,-0.0,0.67558,0.926208,423.08,2,0,1,0
145097235,34.034338181,108.755110729,423.17,396.311,-0.0,0.675651,0.925916,423.072,2,0,1,0
145300672,34.0343383003,108.75511088,423.163,396.313,-0.0,0.675706,0.925618,423.063,2,0,1,0
145499315,34.0343384421,108.755111036,423.154,396.315,-0.0,0.675745,0.926345,423.052,2,0,1,0
145697957,34.0343386037,108.755111196,423.144,396.315,-0.0,0.675766,0.926057,423.048,2,0,1,0
145906607,34.0343387534,108.755111351,423.139,396.32,-0.0,0.676133,0.926044,423.047,2,0,1,0
146100208,34.0343388808,108.75511149,423.135,396.325,-0.0,0.675796,0.92548,423.044,2,0,1,0
146298851,34.0343389984,108.755111638,423.134,396.334,-0.0,0.675809,0.926208,423.044,2,0,1,0
146497497,34.0343391176,108.755111837,423.137,396.346,-0.0,0.675788,0.925905,423.044,2,0,1,0
146696158,34.0343392384,108.755112025,423.166,396.383,-0.0,0.67582,0.926625,423.044,2,0,1,0
146894778,34.0343393244,108.755112186,423.255,396.48,-0.0,0.675866,0.92632,423.044,2,0,1,0
147103353,34.0343393958,108.755112377,423.447,396.681,-0.0,0.676282,0.926296,423.044,2,0,1,0
147306962,34.0343394913,108.75511256,423.723,396.962,-0.0,0.676363,0.925995,423.044,2,0,1,0
147505605,34.0343396565,108.755112795,424.034,397.279,-0.0,0.676358,0.926711,423.044,2,0,1,0
147699280,34.0343399018,108.755113071,424.313,397.563,-0.0,0.676024,0.926114,423.044,2,0,1,0
147897922,34.0343400175,108.755113173,424.562,397.82,-0.0,0.676108,0.925806,423.044,2,0,1,0
148096565,34.0343399333,108.755113168,424.781,398.047,-0.0,0.67618,0.92651,423.044,2,0,1,0
148295208,34.0343397416,108.755113028,424.966,398.24,-0.0,0.676235,0.926186,423.044,2,0,1,0
148498816,34.0343396232,108.755112794,425.117,398.398,-0.0,0.676211,0.925863,423.044,2,0,1,0
148702425,34.0343394732,108.755112574,425.235,398.523,-0.0,0.676195,0.926573,423.044,2,0,1,0
148901067,34.03433922,108.755112473,425.323,398.619,-0.0,0.676146,0.926265,423.044,2,0,1,0
149099710,34.034339025,108.755112487,425.395,398.697,-0.0,0.676075,0.925962,423.044,2,0,1,0
149298353,34.0343388626,108.755112473,425.466,398.775,-0.0,0.676007,0.925658,423.044,2,0,1,0
149496995,34.0343387579,108.755112529,425.543,398.859,-0.0,0.675948,0.926374,423.044,2,0,1,0
149695808,34.0343390486,108.755112997,425.604,398.925,-0.0,0.6759,0.926069,423.044,2,0,1,0
149899311,34.034339865,108.755114048,425.645,398.972,-0.0,0.675864,0.926776,423.044,2,0,1,0
150102855,34.0343409349,108.755115425,425.68,399.013,-0.0,0.675838,0.926462,423.044,2,0,1,0
150301497,34.0343420747,108.755116901,425.72,399.059,-0.0,0.675835,0.926158,423.044,2,0,1,0
150500294,34.0343432358,108.75511844,425.755,399.099,-0.0,0.675811,0.926873,0.0,2,0,0,0
150698785,34.034344481,108.755119941,425.784,399.131,-0.0,0.675812,0.926549,0.0,2,0,0,0
150897425,34.0343457977,108.755121269,425.804,399.153,-0.0,0.675835,0.926232,0.0,2,0,0,0
151101034,34.0343471768,108.755122543,425.814,399.166,-0.0,0.675806,0.925914,0.0,2,0,0,0
151299848,34.0343485801,108.755123719,425.823,399.175,-0.0,0.675794,0.926629,0.0,2,0,0,0
151498318,34.0343500191,108.755124815,425.837,399.19,-0.0,0.675734,0.926321,0.0,2,0,0,0
151696961,34.0343514853,108.755125779,425.853,399.206,-0.0,0.675679,0.926017,0.0,2,0,0,0
151905535,34.0343529431,108.755126759,425.875,399.227,-0.0,0.675905,0.92701,0.0,2,0,0,0
152104280,34.0343540817,108.755127924,425.887,399.236,-0.0,0.675811,0.926695,0.0,2,0,0,0
152297855,34.0343547855,108.755129288,425.899,399.246,-0.0,0.675357,0.926096,0.0,2,0,0,0
152501464,34.0343550413,108.755130907,425.918,399.263,-0.0,0.675266,0.926814,0.0,2,0,0,0
152700199,34.0343548642,108.755132586,425.946,399.289,-0.0,0.675241,0.926513,0.0,2,0,0,0
152898807,34.0343543503,108.755134103,425.981,399.322,-0.0,0.67524,0.926219,0.0,2,0,0,0
153097391,34.0343534616,108.75513522,426.009,399.348,-0.0,0.675246,0.92592,0.0,2,0,0,0
153300999,34.0343522508,108.755135844,426.03,399.367,-0.0,0.675219,0.926647,0.0,2,0,0,0
153504608,34.0343508262,108.755135903,426.044,399.381,-0.0,0.675194,0.926337,0.0,2,0,0,0
153703313,34.0343492589,108.755135572,426.057,399.391,-0.0,0.675212,0.926031,0.0,2,0,0,0
153901894,34.0343475784,108.755135219,426.066,399.399,-0.0,0.675238,0.926762,0.0,2,0,0,0
154100584,34.0343458928,108.755135129,426.074,399.406,-0.0,0.675294,0.926465,0.0,2,0,0,0
154299178,34.0343442574,108.755135292,426.074,399.404,-0.0,0.675367,0.926171,0.0,2,0,0,0
154497847,34.0343427131,108.755135566,426.071,399.399,-0.0,0.675427,0.926902,0.0,2,0,0,0
154696464,34.0343412446,108.75513592,426.071,399.398,-0.0,0.675524,0.926605,0.0,2,0,0,0
154900074,34.0343397205,108.75513637,426.074,399.4,-0.0,0.675632,0.92631,0.0,2,0,0,0
155098715,34.0343381897,108.755136882,426.079,399.403,-0.0,0.675718,0.926017,0.0,2,0,0,0
155297358,34.0343365448,108.755137436,426.094,399.417,-0.0,0.675763,0.926755,0.0,2,0,0,0
155496000,34.0343347605,108.755137954,426.112,399.433,-0.0,0.675771,0.926447,0.0,2,0,0,0
155699609,34.0343328349,108.755138468,426.13,399.449,-0.0,0.675714,0.927157,0.0,2,0,0,0
155898252,34.0343309196,108.755138891,426.148,399.466,-0.0,0.675671,0.926834,0.0,2,0,0,0
156096897,34.0343290293,108.755139225,426.163,399.479,-0.0,0.675582,0.926518,0.0,2,0,0,0
156300502,34.0343271199,108.755139502,426.17,399.484,-0.0,0.675474,0.927235,0.0,2,0,0,0
156499145,34.0343253127,108.755139757,426.178,399.491,-0.0,0.675401,0.926923,0.0,2,0,0,0
156697985,34.0343235435,108.755139968,426.184,399.495,-0.0,0.675298,0.926614,0.0,2,0,0,0
156901396,34.0343217258,108.755140051,426.183,399.493,-0.0,0.675236,0.926307,0.0,2,0,0,0
157100039,34.0343199482,108.755139995,426.183,399.492,-0.0,0.67518,0.926008,0.0,2,0,0,0
157298681,34.034318214,108.755139939,426.191,399.5,-0.0,0.67513,0.926737,0.0,2,0,0,0
157497465,34.0343165226,108.755139866,426.204,399.513,-0.0,0.675062,0.927456,0.0,2,0,0,0
157700966,34.0343147993,108.7551397,426.209,399.516,-0.0,0.675011,0.927113,0.0,2,0,0,0
157899576,34.0343131137,108.755139456,426.21,399.517,-0.0,0.675024,0.926785,0.0,2,0,0,0
158098218,34.0343114596,108.755139216,426.204,399.509,-0.0,0.675056,0.926455,0.0,2,0,0,0
158306944,34.0343097557,108.755138997,426.189,399.493,-0.0,0.675468,0.927454,0.0,2,0,0,0
158505439,34.0343081407,108.755138779,426.183,399.486,-0.0,0.675441,0.927119,0.0,2,0,0,0
158699113,34.0343065571,108.755138537,426.182,399.484,-0.0,0.675037,0.926496,0.0,2,0,0,0
158897755,34.0343049335,108.75513828,426.173,399.472,-0.0,0.674993,0.927198,0.0,2,0,0,0
159096472,34.0343032973,108.755138017,426.162,399.457,-0.0,0.674931,0.926855,0.0,2,0,0,0
159300051,34.0343016272,108.755137803,426.154,399.446,-0.0,0.674814,0.926506,0.0,2,0,0,0
159498650,34.0343000107,108.755137559,426.152,399.44,-0.0,0.674686,0.927202,0.0,2,0,0,0
159697320,34.034298324,108.755137243,426.163,399.448,-0.0,0.674582,0.92686,0.0,2,0,0,0
159905967,34.0342964792,108.75513686,426.183,399.466,-0.0,0.674817,0.926804,0.0,2,0,0,0
160104509,34.0342947146,108.755136525,426.199,399.478,-0.0,0.674675,0.926465,0.0,2,0,0,0
160298185,34.0342929812,108.755136289,426.206,399.482,-0.0,0.674184,0.926882,0.0,2,0,0,0
160501794,34.0342911379,108.755136089,426.2,399.472,-0.0,0.674034,0.926546,0.0,2,0,0,0
160700455,34.0342893806,108.755135891,426.185,399.452,-0.0,0.673906,0.926218,0.0,2,0,0,0
160899119,34.0342876788,108.755135702,426.178,399.441,-0.0,0.673829,0.926932,0.0,2,0,0,0
161097750,34.0342859757,108.755135414,426.174,399.431,-0.0,0.673763,0.926615,0.0,2,0,0,0
161306297,34.0342841371,108.755135082,426.162,399.415,-0.0,0.674019,0.926575,0.0,2,0,0,0
161504955,34.0342823391,108.75513489,426.156,399.404,-0.0,0.673964,0.926255,0.0,2,0,0,0
161698616,34.0342805994,108.755134777,426.161,399.404,-0.0,0.673596,0.926686,0.0,2,0,0,0
161897260,34.0342788639,108.75513466,426.167,399.405,-0.0,0.67359,0.926378,0.0,2,0,0,0
162100868,34.0342771455,108.755134494,426.16,399.392,-0.0,0.67355,0.926068,0.0,2,0,0,0
162299546,34.0342754566,108.75513428,426.15,399.375,-0.0,0.673502,0.926784,0.0,2,0,0,0
162498156,34.034273769,108.755134024,426.136,399.353,-0.0,0.673483,0.92648,0.0,2,0,0,0
162706734,34.0342720068,108.755133772,426.125,399.334,-0.0,0.673752,0.926456,0.0,2,0,0,0
162900404,34.0342703593,108.75513355,426.115,399.314,-0.0,0.673335,0.925873,0.0,2,0,0,0
163099051,34.0342686316,108.755133317,426.106,399.297,-0.0,0.67325,0.926593,0.0,2,0,0,0
163302656,34.0342667863,108.755133025,426.106,399.289,-0.0,0.673185,0.926298,0.0,2,0,0,0
163501299,34.0342649615,108.755132697,426.11,399.286,-0.0,0.673118,0.926005,0.0,2,0,0,0
163700142,34.0342631335,108.755132399,426.124,399.292,-0.0,0.673086,0.925719,0.0,2,0,0,0
163903553,34.0342612767,108.755132157,426.136,399.297,-0.0,0.673012,0.926449,0.0,2,0,0,0
164102193,34.0342594758,108.755131945,426.141,399.295,-0.0,0.672937,0.926144,0.0,2,0,0,0
164300835,34.0342576444,108.755131767,426.144,399.292,-0.0,0.672844,0.926852,0.0,2,0,0,0
164499634,34.0342557861,108.755131636,426.146,399.288,-0.0,0.672752,0.926527,0.0,2,0,0,0
164698121,34.0342539542,108.755131513,426.149,399.284,-0.0,0.672621,0.926202,0.0,2,0,0,0
164896763,34.0342521833,108.755131432,426.146,399.275,-0.0,0.672495,0.926909,0.0,2,0,0,0
165095406,34.0342504486,108.755131431,426.139,399.261,-0.0,0.672386,0.926585,0.0,2,0,0,0
165294213,34.0342487076,108.755131428,426.135,399.25,-0.0,0.672278,0.926263,0.0,2,0,0,0
165497658,34.0342469052,108.755131413,426.133,399.242,-0.0,0.67215,0.925938,0.0,2,0,0,0
165706233,34.0342450361,108.755131375,426.133,399.236,-0.0,0.672445,0.925905,0.0,2,0,0,0
165899912,34.0342432793,108.755131292,426.132,399.23,-0.0,0.672035,0.926336,0.0,2,0,0,0
166098642,34.0342414997,108.755131192,426.125,399.217,-0.0,0.672017,0.926015,0.0,2,0,0,0
166297200,34.0342397279,108.755131126,426.113,399.198,-0.0,0.671994,0.92672,0.0,2,0,0,0
166500803,34.0342378915,108.755131,426.101,399.181,-0.0,0.671963,0.926384,0.0,2,0,0,0
166699485,34.0342361472,108.755130802,426.095,399.168,-0.0,0.671938,0.926049,0.0,2,0,0,0
166898182,34.034234442,108.755130624,426.095,399.163,-0.0,0.671907,0.92675,0.0,2,0,0,0
167101698,34.0342326674,108.755130449,426.102,399.164,-0.0,0.671883,0.926421,0.0,2,0,0,0
167300341,34.0342309172,108.755130289,426.113,399.17,-0.0,0.671865,0.926102,0.0,2,0,0,0
167498984,34.0342291656,108.755130149,426.118,399.17,-0.0,0.67185,0.926813,0.0,2,0,0,0
167697687,34.0342274015,108.755129957,426.122,399.169,-0.0,0.671824,0.926492,0.0,2,0,0,0
167901239,34.0342255926,108.755129692,426.128,399.17,-0.0,0.671816,0.926173,0.0,2,0,0,0
168099877,34.0342238156,108.755129428,426.131,399.168,-0.0,0.671824,0.925864,0.0,2,0,0,0
168298520,34.0342220009,108.75512921,426.134,399.167,-0.0,0.671833,0.926576,0.0,2,0,0,0
168497164,34.0342201862,108.755128972,426.139,399.167,-0.0,0.671839,0.926268,0.0,2,0,0,0
168705738,34.0342182934,108.755128715,426.14,399.162,-0.0,0.672178,0.926237,0.0,2,0,0,0
168904425,34.0342165013,108.755128448,426.141,399.158,-0.0,0.67213,0.925923,0.0,2,0,0,0
169098058,34.0342147646,108.755128186,426.133,399.145,-0.0,0.671739,0.926355,0.0,2,0,0,0
169296701,34.0342129812,108.755127938,426.128,399.135,-0.0,0.671724,0.926048,0.0,2,0,0,0
169495343,34.0342111677,108.755127699,426.132,399.133,-0.0,0.671676,0.925741,0.0,2,0,0,0
169698951,34.0342092883,108.755127467,426.137,399.134,-0.0,0.671633,0.926451,0.0,2,0,0,0
169902561,34.0342073869,108.755127257,426.14,399.133,-0.0,0.671616,0.926137,0.0,2,0,0,0
170101205,34.0342055432,108.755127104,426.146,399.135,-0.0,0.671568,0.926837,0.0,2,0,0,0
170299895,34.0342037202,108.755126968,426.15,399.134,-0.0,0.671563,0.926511,0.0,2,0,0,0
170503455,34.0342018877,108.755126826,426.149,399.129,-0.0,0.671557,0.926181,0.0,2,0,0,0
170702098,34.0342001409,108.755126667,426.151,399.127,-0.0,0.671573,0.926877,0.0,2,0,0,0
170900742,34.0341983912,108.755126489,426.155,399.128,-0.0,0.671556,0.926547,0.0,2,0,0,0
171099384,34.0341966035,108.755126287,426.159,399.129,-0.0,0.671525,0.926221,0.0,2,0,0,0
171298026,34.0341948024,108.755126074,426.166,399.132,-0.0,0.671498,0.925895,0.0,2,0,0,0
171496817,34.0341930074,108.755125896,426.168,399.131,-0.0,0.671437,0.926592,0.0,2,0,0,0
171705259,34.0341911126,108.7551258,426.17,399.131,-0.0,0.671749,0.926546,0.0,2,0,0,0
171898920,34.0341893688,108.755125816,426.17,399.128,-0.0,0.671402,0.925948,0.0,2,0,0,0
172097563,34.0341876389,108.755125877,426.164,399.118,-0.0,0.671388,0.926647,0.0,2,0,0,0
172296318,34.034185964,108.755125888,426.153,399.103,-0.0,0.671327,0.926316,0.0,2,0,0,0
172504781,34.0341842222,108.755125809,426.138,399.084,-0.0,0.6716,0.92626,0.0,2,0,0,0
172698458,34.0341826049,108.75512575,426.127,399.069,-0.0,0.671235,0.926676,0.0,2,0,0,0
172902067,34.0341808876,108.755125722,426.118,399.057,-0.0,0.671204,0.926352,0.0,2,0,0,0
173100860,34.0341791495,108.755125697,426.112,399.047,-0.0,0.671213,0.926037,0.0,2,0,0,0
173299352,34.034177388,108.755125623,426.11,399.042,-0.0,0.671239,0.925726,0.0,2,0,0,0
173502961,34.0341755216,108.755125458,426.113,399.042,-0.0,0.671276,0.926438,0.0,2,0,0,0
173701604,34.0341736338,108.755125228,426.115,399.041,-0.0,0.671308,0.926131,0.0,2,0,0,0
173900378,34.034171778,108.75512495,426.12,399.045,-0.0,0.671352,0.925826,0.0,2,0,0,0
174098890,34.0341699522,108.755124633,426.125,399.048,-0.0,0.67139,0.926541,0.0,2,0,0,0
174297533,34.034168078,108.75512432,426.126,399.047,-0.0,0.671436,0.926224,0.0,2,0,0,0
174496175,34.0341661802,108.755124056,426.127,399.046,-0.0,0.671438,0.925903,0.0,2,0,0,0
174704841,34.0341642106,108.755123794,426.129,399.047,-0.0,0.671782,0.925861,0.0,2,0,0,0
174898428,34.0341623904,108.755123603,426.131,399.049,-0.0,0.671525,0.926292,0.0,2,0,0,0
175107002,34.0341604392,108.755123455,426.137,399.054,-0.0,0.671935,0.926259,0.0,2,0,0,0
175305645,34.0341586091,108.755123321,426.146,399.063,-0.0,0.671981,0.925948,0.0,2,0,0,0
175504347,34.034156808,108.755123203,426.148,399.065,-0.0,0.672032,0.926663,0.0,2,0,0,0
175697965,34.0341550957,108.755123076,426.146,399.064,-0.0,0.671756,0.926072,0.0,2,0,0,0
175896627,34.0341533405,108.755122954,426.153,399.07,-0.0,0.671839,0.925774,0.0,2,0,0,0
176100216,34.0341515167,108.755122892,426.15,399.068,-0.0,0.671889,0.926492,0.0,2,0,0,0
176298860,34.0341497258,108.755122841,426.143,399.059,-0.0,0.671917,0.926192,0.0,2,0,0,0
176502468,34.0341478976,108.755122748,426.141,399.057,-0.0,0.671925,0.925896,0.0,2,0,0,0
176701111,34.0341461025,108.755122597,426.143,399.058,-0.0,0.671967,0.925612,0.0,2,0,0,0
176899753,34.0341443404,108.75512244,426.141,399.056,-0.0,0.672004,0.926341,0.0,2,0,0,0
177098434,34.0341426324,108.7551223,426.143,399.056,-0.0,0.672021,0.926053,0.0,2,0,0,0
177302005,34.0341409118,108.755122184,426.144,399.056,-0.0,0.672036,0.925765,0.0,2,0,0,0
177500648,34.0341392056,108.755122101,426.142,399.052,-0.0,0.672034,0.925478,0.0,2,0,0,0
177699294,34.0341374729,108.755121973,426.141,399.05,-0.0,0.672018,0.926209,0.0,2,0,0,0
177897934,34.0341357429,108.755121783,426.136,399.042,-0.0,0.67199,0.92591,0.0,2,0,0,0
178106509,34.0341339149,108.755121569,426.126,399.031,-0.0,0.672244,0.925884,0.0,2,0,0,0
178300186,34.0341321849,108.755121361,426.122,399.023,-0.0,0.671831,0.926322,0.0,2,0,0,0
178498991,34.0341303707,108.755121134,426.121,399.021,-0.0,0.671778,0.926026,0.0,2,0,0,0
178697506,34.0341285309,108.75512092,426.132,399.029,-0.0,0.671723,0.92573,0.0,2,0,0,0
178896115,34.034126711,108.755120702,426.138,399.033,-0.0,0.671661,0.926452,0.0,2,0,0,0
179094757,34.0341249038,108.755120496,426.143,399.035,-0.0,0.671556,0.926153,0.0,2,0,0,0
179303489,34.0341229625,108.755120321,426.148,399.037,-0.0,0.67179,0.926133,0.0,2,0,0,0
179506943,34.0341210859,108.755120201,426.152,399.037,-0.0,0.671687,0.925834,0.0,2,0,0,0
179705584,34.0341193181,108.755120092,426.156,399.038,-0.0,0.671589,0.925536,0.0,2,0,0,0
179899260,34.0341176402,108.755119973,426.161,399.04,-0.0,0.671226,0.925979,0.0,2,0,0,0
180098047,34.0341159315,108.755119877,426.157,399.032,-0.0,0.671211,0.92569,0.0,2,0,0,0
180301513,34.0341142026,108.755119794,426.155,399.027,-0.0,0.671153,0.925399,0.0,2,0,0,0
180500210,34.0341125016,108.755119711,426.151,399.019,-0.0,0.671075,0.926126,0.0,2,0,0,0
180698799,34.0341107749,108.755119601,426.152,399.018,-0.0,0.671028,0.925843,0.0,2,0,0,0
180897550,34.0341090186,108.755119459,426.158,399.021,-0.0,0.670959,0.925557,0.0,2,0,0,0
181101056,34.0341072063,108.755119288,426.169,399.029,-0.0,0.670836,0.925272,0.0,2,0,0,0
181299695,34.0341053792,108.755119123,426.171,399.029,-0.0,0.670737,0.926002,0.0,2,0,0,0
181498337,34.0341035255,108.755118971,426.173,399.028,-0.0,0.670587,0.925718,0.0,2,0,0,0
181696991,34.0341017096,108.755118853,426.178,399.032,-0.0,0.670477,0.925438,0.0,2,0,0,0
181895622,34.034099926,108.755118766,426.19,399.042,-0.0,0.670369,0.926167,0.0,2,0,0,0
182099234,34.0340980819,108.755118644,426.196,399.046,-0.0,0.670249,0.925884,0.0,2,0,0,0
182302842,34.0340961891,108.755118505,426.192,399.039,-0.0,0.67013,0.925602,0.0,2,0,0,0
182501488,34.0340942796,108.75511835,426.182,399.027,-0.0,0.669979,0.925321,0.0,2,0,0,0
182700126,34.0340923979,108.755118145,426.172,399.015,-0.0,0.669873,0.926056,0.0,2,0,0,0
182898768,34.0340905813,108.75511797,426.165,399.006,-0.0,0.669719,0.925775,0.0,2,0,0,0
183097411,34.0340888195,108.755117872,426.16,399.0,-0.0,0.669572,0.925495,0.0,2,0,0,0
183296054,34.0340870912,108.755117831,426.148,398.986,-0.0,0.669482,0.925217,0.0,2,0,0,0
183499664,34.0340853158,108.755117779,426.145,398.981,-0.0,0.669306,0.925942,0.0,2,0,0,0
183698307,34.0340835564,108.755117777,426.148,398.984,-0.0,0.669212,0.925665,0.0,2,0,0,0
183901915,34.034081765,108.755117728,426.157,398.994,-0.0,0.669086,0.925389,0.0,2,0,0,0
184100558,34.0340800616,108.755117625,426.166,399.004,-0.0,0.668962,0.92511,0.0,2,0,0,0
184299205,34.0340783385,108.755117454,426.169,399.009,-0.0,0.668879,0.925845,0.0,2,0,0,0
184497844,34.034076566,108.755117255,426.167,399.009,-0.0,0.668743,0.92557,0.0,2,0,0,0
184696689,34.0340747761,108.755117064,426.16,399.004,-0.0,0.668633,0.925294,0.0,2,0,0,0
184900098,34.0340729596,108.75511687,426.155,399.002,-0.0,0.668475,0.926024,0.0,2,0,0,0
185098739,34.0340711666,108.755116704,426.151,398.999,-0.0,0.668347,0.925748,0.0,2,0,0,0
185297382,34.0340694003,108.755116522,426.145,398.997,-0.0,0.668211,0.925456,0.0,2,0,0,0
185505987,34.0340675907,108.755116313,426.142,398.998,-0.0,0.668396,0.926459,0.0,2,0,0,0
185704600,34.0340658569,108.75511614,426.143,399.003,-0.0,0.668256,0.926164,0.0,2,0,0,0
185898279,34.0340641098,108.755115967,426.142,399.007,-0.0,0.667809,0.925591,0.0,2,0,0,0
186096922,34.0340623066,108.755115777,426.137,399.007,-0.0,0.667668,0.926306,0.0,2,0,0,0
186295675,34.0340605587,108.755115592,426.131,399.006,-0.0,0.667535,0.925999,0.0,2,0,0,0
186499172,34.0340587826,108.755115446,426.125,399.005,-0.0,0.667373,0.926704,0.0,2,0,0,0
186697814,34.0340570485,108.755115352,426.117,399.002,-0.0,0.667241,0.926384,0.0,2,0,0,0
186901423,34.0340552643,108.755115313,426.112,399.003,-0.0,0.667116,0.926051,0.0,2,0,0,0
187100240,34.0340534644,108.755115308,426.109,399.007,-0.0,0.66701,0.92675,0.0,2,0,0,0
187298709,34.034051603,108.755115293,426.112,399.017,-0.0,0.666925,0.926427,0.0,2,0,0,0
187502321,34.0340497045,108.75511521,426.115,399.026,-0.0,0.666803,0.926103,0.0,2,0,0,0
187700961,34.0340479253,108.755115113,426.111,399.03,-0.0,0.666735,0.925789,0.0,2,0,0,0
187899720,34.0340461522,108.755115031,426.109,399.035,-0.0,0.66668,0.926497,0.0,2,0,0,0
188098247,34.0340443807,108.755114935,426.108,399.042,-0.0,0.666635,0.926184,0.0,2,0,0,0
188296890,34.0340425612,108.755114864,426.113,399.054,-0.0,0.666562,0.925867,0.0,2,0,0,0
188505483,34.0340406403,108.755114766,426.113,399.062,-0.0,0.666846,0.925835,0.0,2,0,0,0
188704214,34.0340388193,108.75511465,426.113,399.071,-0.0,0.666788,0.926543,0.0,2,0,0,0
188897786,34.0340370269,108.755114549,426.12,399.085,-0.0,0.666413,0.925952,0.0,2,0,0,0
189096428,34.0340352059,108.755114417,426.127,399.101,-0.0,0.666358,0.925648,0.0,2,0,0,0
189300037,34.0340333359,108.755114257,426.137,399.12,-0.0,0.666296,0.92636,0.0,2,0,0,0
189498720,34.0340314979,108.755114104,426.144,399.137,-0.0,0.666205,0.92605,0.0,2,0,0,0
189697323,34.034029683,108.755113931,426.152,399.153,-0.0,0.666199,0.925758,0.0,2,0,0,0
189900973,34.0340278366,108.75511375,426.157,399.167,-0.0,0.666181,0.925461,0.0,2,0,0,0
190099574,34.0340260282,108.75511356,426.156,399.177,-0.0,0.666166,0.926185,0.0,2,0,0,0
190298217,34.0340241858,108.755113334,426.149,399.18,-0.0,0.66614,0.925897,0.0,2,0,0,0
190501829,34.0340223216,108.755113066,426.143,399.183,-0.0,0.666119,0.925607,0.0,2,0,0,0
190705435,34.0340204766,108.755112771,426.137,399.188,-0.0,0.66614,0.925325,0.0,2,0,0,0
190904079,34.0340186501,108.755112544,426.131,399.192,-0.0,0.666177,0.92606,0.0,2,0,0,0
191102730,34.0340168205,108.755112381,426.128,399.2,-0.0,0.666214,0.925786,0.0,2,0,0,0
191301363,34.0340150363,108.755112239,426.127,399.21,-0.0,0.666248,0.925502,0.0,2,0,0,0
191500007,34.0340133239,108.755112078,426.125,399.221,-0.0,0.666243,0.926224,0.0,2,0,0,0
191698650,34.0340116439,108.755111898,426.124,399.231,-0.0,0.666237,0.925923,0.0,2,0,0,0
191907228,34.0340098563,108.755111691,426.127,399.246,-0.0,0.666573,0.9259,0.0,2,0,0,0
192105868,34.0340081526,108.755111444,426.126,399.257,-0.0,0.666608,0.925602,0.0,2,0,0,0
192299545,34.0340065038,108.755111227,426.124,399.267,-0.0,0.66634,0.926047,0.0,2,0,0,0
192498361,34.0340048371,108.755111035,426.123,399.278,-0.0,0.666391,0.925752,0.0,2,0,0,0
192696831,34.0340031622,108.755110863,426.121,399.288,-0.0,0.666452,0.925459,0.0,2,0,0,0
192895523,34.0340014431,108.755110735,426.113,399.291,-0.0,0.666484,0.92618,0.0,2,0,0,0
193099082,34.0339996477,108.755110622,426.106,399.296,-0.0,0.666507,0.92588,0.0,2,0,0,0
193297859,34.0339978703,108.755110543,426.113,399.315,-0.0,0.666545,0.925587,0.0,2,0,0,0
193501334,34.033996045,108.755110427,426.125,399.338,-0.0,0.666565,0.925302,0.0,2,0,0,0
193699978,34.0339942486,108.755110289,426.139,399.365,-0.0,0.666605,0.926036,0.0,2,0,0,0
193898620,34.0339924507,108.755110191,426.151,399.388,-0.0,0.666588,0.925753,0.0,2,0,0,0
194097362,34.0339906683,108.755110158,426.152,399.401,-0.0,0.666556,0.92547,0.0,2,0,0,0
194300873,34.0339888236,108.755110136,426.156,399.418,-0.0,0.666512,0.926197,0.0,2,0,0,0
194499516,34.0339870258,108.755110063,426.165,399.439,-0.0,0.666459,0.925916,0.0,2,0,0,0
194698174,34.0339852139,108.755109971,426.165,399.451,-0.0,0.666397,0.925638,0.0,2,0,0,0
194906873,34.0339833109,108.755109894,426.162,399.461,-0.0,0.666639,0.92563,0.0,2,0,0,0
195105378,34.0339815262,108.755109854,426.166,399.479,-0.0,0.666526,0.926359,0.0,2,0,0,0
195299053,34.0339798125,108.755109772,426.169,399.494,-0.0,0.666103,0.925792,0.0,2,0,0,0
195497696,34.0339780811,108.755109627,426.161,399.499,-0.0,0.665968,0.925508,0.0,2,0,0,0
195696358,34.0339764001,108.755109424,426.146,399.494,-0.0,0.665923,0.925229,0.0,2,0,0,0
195894983,34.033974694,108.755109154,426.131,399.491,-0.0,0.66585,0.925956,0.0,2,0,0,0
196098592,34.0339728816,108.755108816,426.132,399.504,-0.0,0.665839,0.925675,0.0,2,0,0,0
196297238,34.0339710768,108.755108488,426.138,399.521,-0.0,0.665832,0.925398,0.0,2,0,0,0
196505893,34.0339691617,108.755108181,426.138,399.533,-0.0,0.666138,0.925395,0.0,2,0,0,0
196699487,34.0339673491,108.755107955,426.139,399.547,-0.0,0.665829,0.925852,0.0,2,0,0,0
196898129,34.0339654932,108.755107859,426.146,399.565,-0.0,0.665882,0.925582,0.0,2,0,0,0
197101741,34.0339636205,108.755107792,426.149,399.581,-0.0,0.665895,0.925305,0.0,2,0,0,0
197300382,34.033961786,108.755107652,426.151,399.595,-0.0,0.665922,0.926038,0.0,2,0,0,0
197499025,34.0339599634,108.755107473,426.15,399.605,-0.0,0.665962,0.925766,0.0,2,0,0,0
197697668,34.0339581637,108.755107296,426.155,399.621,-0.0,0.665995,0.92549,0.0,2,0,0,0
197906243,34.0339562495,108.755107104,426.154,399.632,-0.0,0.66635,0.925493,0.0,2,0,0,0
198104886,34.0339544393,108.755106947,426.149,399.638,-0.0,0.666402,0.92623,0.0,2,0,0,0
198298563,34.0339526982,108.755106831,426.147,399.647,-0.0,0.666129,0.92567,0.0,2,0,0,0
198502172,34.0339508949,108.755106716,426.139,399.649,-0.0,0.666226,0.925395,0.0,2,0,0,0
198700815,34.0339491525,108.755106638,426.128,399.649,-0.0,0.666374,0.925129,0.0,2,0,0,0
198899458,34.0339473721,108.755106623,426.118,399.649,-0.0,0.66652,0.92587,0.0,2,0,0,0
199098101,34.0339455531,108.75510661,426.11,399.651,-0.0,0.66664,0.925598,0.0,2,0,0,0
199296744,34.0339437097,108.755106513,426.113,399.664,-0.0,0.666758,0.925325,0.0,2,0,0,0
199495547,34.03394185,108.755106359,426.127,399.688,-0.0,0.666836,0.926045,0.0,2,0,0,0
199699027,34.0339399612,108.755106115,426.137,399.709,-0.0,0.66698,0.925757,0.0,2,0,0,0
199902605,34.033938056,108.755105922,426.14,399.722,-0.0,0.667146,0.925469,0.0,2,0,0,0
200101253,34.0339361602,108.755105797,426.14,399.732,-0.0,0.667316,0.926197,0.0,2,0,0,0
200300036,34.0339342605,108.7551057,426.142,399.744,-0.0,0.66749,0.925904,0.0,2,0,0,0
200498536,34.0339324052,108.755105619,426.144,399.756,-0.0,0.667666,0.925601,0.0,2,0,0,0
200697178,34.0339306068,108.755105526,426.141,399.762,-0.0,0.667865,0.926322,0.0,2,0,0,0
200900786,34.0339288755,108.75510542,426.135,399.765,-0.0,0.66805,0.926019,0.0,2,0,0,0
201099534,34.0339272592,108.755105284,426.129,399.768,-0.0,0.668187,0.925718,0.0,2,0,0,0
201298073,34.0339256403,108.755105165,426.125,399.774,-0.0,0.668305,0.92644,0.0,2,0,0,0
201496711,34.0339239692,108.755105054,426.123,399.78,-0.0,0.668367,0.926131,0.0,2,0,0,0
201700324,34.0339221987,108.755104918,426.124,399.79,-0.0,0.668452,0.925818,0.0,2,0,0,0
201899040,34.03392046,108.755104703,426.128,399.802,-0.0,0.668521,0.926527,0.0,2,0,0,0
202097610,34.0339186965,108.755104494,426.132,399.813,-0.0,0.668617,0.92622,0.0,2,0,0,0
202296256,34.033916891,108.755104339,426.134,399.822,-0.0,0.668648,0.925913,0.0,2,0,0,0
202504845,34.0339149784,108.75510417,426.134,399.829,-0.0,0.668991,0.925881,0.0,2,0,0,0
202703591,34.0339131727,108.755104007,426.135,399.837,-0.0,0.669008,0.926595,0.0,2,0,0,0
202897152,34.0339114184,108.755103854,426.14,399.849,-0.0,0.6687,0.926009,0.0,2,0,0,0
203100758,34.0339095817,108.75510366,426.142,399.857,-0.0,0.668695,0.925709,0.0,2,0,0,0
203299402,34.0339077911,108.755103439,426.139,399.861,-0.0,0.668689,0.925418,0.0,2,0,0,0
203498163,34.033906006,108.755103253,426.14,399.868,-0.0,0.668706,0.926143,0.0,2,0,0,0
203696686,34.0339042656,108.755103089,426.146,399.881,-0.0,0.668684,0.925847,0.0,2,0,0,0
203900296,34.033902477,108.75510291,426.149,399.89,-0.0,0.668649,0.925553,0.0,2,0,0,0
204098939,34.0339007495,108.755102727,426.145,399.893,-0.0,0.668603,0.926279,0.0,2,0,0,0
204297673,34.0338990818,108.755102577,426.142,399.897,-0.0,0.668549,0.92599,0.0,2,0,0,0
204496225,34.0338974547,108.755102419,426.137,399.898,-0.0,0.668486,0.9257,0.0,2,0,0,0
204699834,34.0338957738,108.755102262,426.135,399.904,-0.0,0.668417,0.926425,0.0,2,0,0,0
204903443,34.0338940517,108.755102104,426.137,399.913,-0.0,0.668393,0.926122,0.0,2,0,0,0
205102210,34.0338923171,108.755101964,426.138,399.922,-0.0,0.668324,0.925822,0.0,2,0,0,0
205300729,34.0338905667,108.755101855,426.14,399.931,-0.0,0.668253,0.925524,0.0,2,0,0,0
205499372,34.0338887989,108.755101747,426.139,399.938,-0.0,0.668176,0.926241,0.0,2,0,0,0
205698015,34.0338869934,108.7551016,426.14,399.946,-0.0,0.66811,0.925925,0.0,2,0,0,0
205896671,34.033885138,108.755101436,426.147,399.96,-0.0,0.668038,0.926635,0.0,2,0,0,0
206100268,34.0338832457,108.75510125,426.146,399.965,-0.0,0.667961,0.92632,0.0,2,0,0,0
206298912,34.0338814654,108.755101088,426.145,399.972,-0.0,0.667897,0.926015,0.0,2,0,0,0
206497553,34.0338797232,108.755100948,426.141,399.975,-0.0,0.667826,0.925708,0.0,2,0,0,0
206696205,34.0338779745,108.755100802,426.13,399.97,-0.0,0.667752,0.926422,0.0,2,0,0,0
206904771,34.0338761191,108.755100657,426.124,399.971,-0.0,0.667988,0.926396,0.0,2,0,0,0
207098449,34.0338743909,108.75510054,426.124,399.977,-0.0,0.667592,0.925814,0.0,2,0,0,0
207302058,34.0338725303,108.755100447,426.128,399.988,-0.0,0.667523,0.925512,0.0,2,0,0,0
207500713,34.0338707093,108.755100377,426.131,399.998,-0.0,0.667467,0.926232,0.0,2,0,0,0
207699344,34.0338689,108.75510028,426.134,400.007,-0.0,0.667457,0.925925,0.0,2,0,0,0
207902954,34.0338670607,108.755100199,426.133,400.013,-0.0,0.667415,0.925618,0.0,2,0,0,0
208101642,34.0338652667,108.755100168,426.133,400.02,-0.0,0.667429,0.926336,0.0,2,0,0,0
208300239,34.0338634529,108.755100046,426.138,400.032,-0.0,0.66741,0.926036,0.0,2,0,0,0
208503848,34.0338615915,108.755099851,426.145,400.047,-0.0,0.667394,0.925734,0.0,2,0,0,0
208702491,34.0338597785,108.755099616,426.154,400.062,-0.0,0.667416,0.925444,0.0,2,0,0,0
208901134,34.0338579403,108.75509934,426.153,400.068,-0.0,0.667438,0.926167,0.0,2,0,0,0
209099775,34.0338560821,108.755099053,426.143,400.064,-0.0,0.667472,0.925873,0.0,2,0,0,0
209298420,34.0338542499,108.755098775,426.135,400.065,-0.0,0.667452,0.925581,0.0,2,0,0,0
209497063,34.0338524526,108.755098553,426.136,400.073,-0.0,0.667434,0.926302,0.0,2,0,0,0
209695853,34.0338506559,108.755098431,426.138,400.083,-0.0,0.667418,0.926006,0.0,2,0,0,0
209899318,34.0338488411,108.755098343,426.142,400.094,-0.0,0.667403,0.925707,0.0,2,0,0,0
210102925,34.0338470234,108.755098222,426.147,400.107,-0.0,0.667391,0.925417,0.0,2,0,0,0
210301563,34.0338452111,108.755098032,426.148,400.116,-0.0,0.667402,0.926149,0.0,2,0,0,0
210500348,34.0338433694,108.755097858,426.141,400.117,-0.0,0.667377,0.925867,0.0,2,0,0,0
210698854,34.0338415435,108.755097708,426.133,400.118,-0.0,0.66734,0.92558,0.0,2,0,0,0
210897497,34.0338397316,108.755097575,426.132,400.125,-0.0,0.667306,0.926305,0.0,2,0,0,0
211101106,34.0338378659,108.755097469,426.132,400.135,-0.0,0.667277,0.925999,0.0,2,0,0,0
211299851,34.0338360408,108.755097405,426.13,400.142,-0.0,0.667235,0.925698,0.0,2,0,0,0
211503358,34.033834177,108.755097364,426.129,400.151,-0.0,0.667202,0.925406,0.0,2,0,0,0
211702001,34.0338323531,108.755097272,426.127,400.159,-0.0,0.667196,0.926122,0.0,2,0,0,0
211900674,34.0338305361,108.75509712,426.122,400.164,-0.0,0.667177,0.925815,0.0,2,0,0,0
212099349,34.0338287371,108.755096951,426.122,400.173,-0.0,0.66711,0.926524,0.0,2,0,0,0
212297930,34.033826932,108.755096783,426.127,400.19,-0.0,0.667052,0.926215,0.0,2,0,0,0
212496573,34.0338251093,108.755096629,426.139,400.212,-0.0,0.667002,0.925905,0.0,2,0,0,0
212700182,34.0338232436,108.755096526,426.157,400.241,-0.0,0.666908,0.925597,0.0,2,0,0,0
212898852,34.0338214197,108.755096463,426.176,400.271,-0.0,0.666837,0.926307,0.0,2,0,0,0
213102436,34.0338195948,108.755096324,426.184,400.289,-0.0,0.666813,0.926006,0.0,2,0,0,0
213301078,34.0338178346,108.75509617,426.179,400.295,-0.0,0.666809,0.92571,0.0,2,0,0,0
213499721,34.0338161048,108.755096055,426.171,400.298,-0.0,0.666784,0.925416,0.0,2,0,0,0
213698406,34.0338143648,108.755095929,426.16,400.296,-0.0,0.666797,0.926134,0.0,2,0,0,0
213901973,34.0338125772,108.755095828,426.148,400.294,-0.0,0.666809,0.925838,0.0,2,0,0,0
214100616,34.0338107829,108.755095786,426.14,400.295,-0.0,0.666858,0.925554,0.0,2,0,0,0
214299259,34.0338089803,108.755095763,426.132,400.296,-0.0,0.666852,0.926275,0.0,2,0,0,0
214497902,34.0338071872,108.755095767,426.128,400.302,-0.0,0.666833,0.925983,0.0,2,0,0,0
214701511,34.0338053595,108.755095738,426.137,400.32,-0.0,0.666816,0.925679,0.0,2,0,0,0
214900154,34.0338035718,108.755095672,426.144,400.337,-0.0,0.666789,0.926395,0.0,2,0,0,0
215103764,34.0338017326,108.755095569,426.148,400.35,-0.0,0.666802,0.926097,0.0,2,0,0,0
215302408,34.033799964,108.755095429,426.15,400.361,-0.0,0.666779,0.925798,0.0,2,0,0,0
215501050,34.0337982283,108.755095264,426.158,400.378,-0.0,0.66676,0.925504,0.0,2,0,0,0
215699693,34.0337964673,108.755095097,426.164,400.392,-0.0,0.666727,0.926225,0.0,2,0,0,0
215903302,34.0337946463,108.755094919,426.166,400.403,-0.0,0.666699,0.925927,0.0,2,0,0,0
216101947,34.0337928897,108.755094738,426.165,400.41,-0.0,0.666674,0.925631,0.0,2,0,0,0
216300589,34.0337911421,108.755094521,426.161,400.415,-0.0,0.666653,0.926355,0.0,2,0,0,0
216499243,34.0337894395,108.755094345,426.159,400.42,-0.0,0.666635,0.926061,0.0,2,0,0,0
216698036,34.0337877626,108.75509417,426.157,400.426,-0.0,0.66662,0.925762,0.0,2,0,0,0
216896518,34.0337860824,108.755093957,426.155,400.433,-0.0,0.66662,0.926473,0.0,2,0,0,0
217095160,34.033784396,108.755093739,426.159,400.445,-0.0,0.666621,0.926164,0.0,2,0,0,0
217298769,34.033782653,108.755093543,426.163,400.457,-0.0,0.666622,0.925853,0.0,2,0,0,0
217497541,34.0337809542,108.755093371,426.158,400.459,-0.0,0.666636,0.925548,0.0,2,0,0,0
217705988,34.0337791757,108.755093153,426.149,400.457,-0.0,0.666963,0.926544,0.0,2,0,0,0
217899718,34.0337775049,108.755092898,426.141,400.456,-0.0,0.666649,0.925965,0.0,2,0,0,0
218103274,34.0337757489,108.755092617,426.135,400.457,-0.0,0.666647,0.925668,0.0,2,0,0,0
218302049,34.033774025,108.755092314,426.131,400.461,-0.0,0.666631,0.92639,0.0,2,0,0,0
218500560,34.0337722804,108.755092013,426.133,400.469,-0.0,0.666655,0.926086,0.0,2,0,0,0
218699205,34.0337705198,108.755091763,426.132,400.475,-0.0,0.666663,0.925784,0.0,2,0,0,0
218897846,34.0337687281,108.755091526,426.136,400.485,-0.0,0.666636,0.926501,0.0,2,0,0,0
219096542,34.0337669175,108.755091345,426.137,400.492,-0.0,0.666611,0.926196,0.0,2,0,0,0
219300110,34.0337650364,108.755091234,426.136,400.497,-0.0,0.666589,0.925889,0.0,2,0,0,0
219498741,34.0337631946,108.755091112,426.135,400.502,-0.0,0.666534,0.925589,0.0,2,0,0,0
219697384,34.033761358,108.755090923,426.135,400.507,-0.0,0.666536,0.926308,0.0,2,0,0,0
219906028,34.0337594074,108.755090749,426.14,400.518,-0.0,0.666849,0.926277,0.0,2,0,0,0
220099637,34.033757579,108.75509063,426.157,400.54,-0.0,0.666552,0.925684,0.0,2,0,0,0
220298280,34.0337557121,108.755090525,426.164,400.552,-0.0,0.666567,0.926395,0.0,2,0,0,0
220496922,34.0337538632,108.755090416,426.16,400.552,-0.0,0.666579,0.926087,0.0,2,0,0,0
220705525,34.0337519122,108.75509033,426.153,400.55,-0.0,0.666915,0.926058,0.0,2,0,0,0
220899195,34.0337501422,108.75509027,426.155,400.556,-0.0,0.666637,0.92649,0.0,2,0,0,0
221097818,34.0337483719,108.755090192,426.154,400.56,-0.0,0.666669,0.926185,0.0,2,0,0,0
221301427,34.0337465857,108.755090111,426.152,400.562,-0.0,0.666696,0.925885,0.0,2,0,0,0
221500079,34.0337448282,108.755090065,426.15,400.563,-0.0,0.66672,0.9266,0.0,2,0,0,0
221698713,34.033743048,108.75508999,426.148,400.564,-0.0,0.666756,0.926283,0.0,2,0,0,0
221902322,34.0337412132,108.75508991,426.143,400.562,-0.0,0.666786,0.925963,0.0,2,0,0,0
222100987,34.0337394316,108.755089845,426.136,400.558,-0.0,0.666847,0.926665,0.0,2,0,0,0
222299613,34.0337376583,108.755089774,426.13,400.554,-0.0,0.666881,0.92634,0.0,2,0,0,0
222498252,34.0337358782,108.755089704,426.129,400.556,-0.0,0.666924,0.926002,0.0,2,0,0,0
222696894,34.0337341058,108.755089593,426.134,400.564,-0.0,0.66699,0.926695,0.0,2,0,0,0
222905470,34.0337322403,108.755089445,426.144,400.576,-0.0,0.667368,0.926636,0.0,2,0,0,0
223104113,34.0337304995,108.755089308,426.15,400.583,-0.0,0.667485,0.926293,0.0,2,0,0,0
223297790,34.0337288078,108.755089162,426.143,400.578,-0.0,0.667297,0.926701,0.0,2,0,0,0
223496433,34.0337270765,108.755089017,426.142,400.579,-0.0,0.667401,0.926359,0.0,2,0,0,0
223705013,34.0337253071,108.755088844,426.139,400.577,-0.0,0.667883,0.9263,0.0,2,0,0,0
223903651,34.0337235981,108.755088678,426.136,400.576,-0.0,0.668067,0.925967,0.0,2,0,0,0
224097328,34.0337218562,108.755088525,426.139,400.58,-0.0,0.667922,0.926381,0.0,2,0,0,0
224300938,34.0337199999,108.755088377,426.143,400.586,-0.0,0.668099,0.926057,0.0,2,0,0,0
224499728,34.0337181605,108.755088239,426.153,400.598,-0.0,0.668313,0.925743,0.0,2,0,0,0
224698223,34.0337162916,108.75508806,426.162,400.608,-0.0,0.66848,0.92645,0.0,2,0,0,0
224901835,34.0337144072,108.755087841,426.167,400.615,-0.0,0.668635,0.926138,0.0,2,0,0,0
225100475,34.0337126379,108.755087645,426.169,400.618,-0.0,0.66883,0.925832,0.0,2,0,0,0
225299272,34.0337108881,108.755087524,426.169,400.62,-0.0,0.668977,0.925529,0.0,2,0,0,0
225497761,34.0337091254,108.755087474,426.163,400.615,-0.0,0.669102,0.926242,0.0,2,0,0,0
225701373,34.0337072519,108.755087354,426.154,400.606,-0.0,0.669206,0.925939,0.0,2,0,0,0
225900014,34.0337053595,108.755087186,426.144,400.596,-0.0,0.669329,0.925645,0.0,2,0,0,0
226098721,34.0337035205,108.75508703,426.14,400.593,-0.0,0.669399,0.926367,0.0,2,0,0,0
226297306,34.0337017367,108.75508686,426.141,400.594,-0.0,0.669457,0.92607,0.0,2,0,0,0
226500910,34.033699941,108.755086682,426.143,400.596,-0.0,0.669504,0.925775,0.0,2,0,0,0
226699552,34.0336982559,108.755086552,426.152,400.606,-0.0,0.669578,0.925484,0.0,2,0,0,0
226898227,34.033696573,108.755086454,426.164,400.618,-0.0,0.669642,0.926211,0.0,2,0,0,0
227106770,34.0336947665,108.755086317,426.174,400.629,-0.0,0.669969,0.926197,0.0,2,0,0,0
227300447,34.033693052,108.755086178,426.182,400.638,-0.0,0.669618,0.92563,0.0,2,0,0,0
227504056,34.0336912018,108.755086038,426.191,400.647,-0.0,0.669561,0.925345,0.0,2,0,0,0
227702767,34.0336893717,108.755085919,426.189,400.647,-0.0,0.669482,0.926064,0.0,2,0,0,0
227901342,34.0336875616,108.755085826,426.186,400.646,-0.0,0.669367,0.925764,0.0,2,0,0,0
228099988,34.0336857439,108.755085719,426.192,400.653,-0.0,0.669236,0.925469,0.0,2,0,0,0
228303595,34.0336839099,108.755085612,426.197,400.66,-0.0,0.669108,0.926189,0.0,2,0,0,0
228502238,34.0336821434,108.755085547,426.205,400.669,-0.0,0.668983,0.925894,0.0,2,0,0,0
228700881,34.0336803796,108.755085442,426.213,400.679,-0.0,0.668861,0.925603,0.0,2,0,0,0
228899568,34.033678613,108.755085284,426.221,400.689,-0.0,0.668756,0.92633,0.0,2,0,0,0
229098233,34.0336768183,108.755085113,426.222,400.691,-0.0,0.66865,0.926034,0.0,2,0,0,0
229296811,34.0336749895,108.755084956,426.215,400.686,-0.0,0.668596,0.925736,0.0,2,0,0,0
229495453,34.0336731848,108.755084809,426.212,400.685,-0.0,0.668516,0.926446,0.0,2,0,0,0
229699062,34.0336713561,108.755084716,426.212,400.687,-0.0,0.668463,0.926136,0.0,2,0,0,0
229902671,34.0336695288,108.755084627,426.212,400.687,-0.0,0.668447,0.925828,0.0,2,0,0,0
230101315,34.033667735,108.755084473,426.213,400.69,-0.0,0.668468,0.925529,0.0,2,0,0,0
230299961,34.0336659354,108.755084247,426.219,400.698,-0.0,0.668531,0.926248,0.0,2,0,0,0
230498618,34.0336641532,108.755084007,426.219,400.699,-0.0,0.668629,0.925952,0.0,2,0,0,0
230697417,34.0336624085,108.755083824,426.213,400.695,-0.0,0.668742,0.925657,0.0,2,0,0,0
230895887,34.0336606934,108.755083688,426.206,400.689,-0.0,0.668833,0.926374,0.0,2,0,0,0
231099495,34.0336589227,108.755083541,426.197,400.682,-0.0,0.668946,0.926078,0.0,2,0,0,0
231303106,34.0336571492,108.755083381,426.196,400.682,-0.0,0.669044,0.925787,0.0,2,0,0,0
231501900,34.0336553876,108.755083148,426.198,400.686,-0.0,0.66908,0.925498,0.0,2,0,0,0
231700391,34.0336535902,108.755082853,426.2,400.689,-0.0,0.669132,0.926226,0.0,2,0,0,0
231899034,34.0336517629,108.755082539,426.195,400.684,-0.0,0.669147,0.925938,0.0,2,0,0,0
232102693,34.033649873,108.755082217,426.185,400.673,-0.0,0.669144,0.92565,0.0,2,0,0,0
232301404,34.0336480459,108.755081903,426.176,400.665,-0.0,0.669146,0.92537,0.0,2,0,0,0
232499937,34.0336462621,108.755081641,426.17,400.659,-0.0,0.669122,0.926104,0.0,2,0,0,0
232698572,34.0336445154,108.755081465,426.16,400.65,-0.0,0.669087,0.925822,0.0,2,0,0,0
232897215,34.0336427659,108.755081312,426.149,400.639,-0.0,0.668992,0.925535,0.0,2,0,0,0
233105895,34.0336409171,108.755081125,426.139,400.629,-0.0,0.669213,0.92653,0.0,2,0,0,0
233304484,34.033639133,108.755080939,426.136,400.627,-0.0,0.669076,0.926224,0.0,2,0,0,0
233498110,34.0336373615,108.755080801,426.138,400.63,-0.0,0.668624,0.925637,0.0,2,0,0,0
233696753,34.0336355353,108.755080679,426.142,400.636,-0.0,0.668528,0.926359,0.0,2,0,0,0
233895416,34.0336337304,108.755080509,426.148,400.642,-0.0,0.668448,0.926061,0.0,2,0,0,0
234099006,34.0336319303,108.755080381,426.153,400.649,-0.0,0.668365,0.925762,0.0,2,0,0,0
234297648,34.0336301589,108.755080348,426.158,400.654,-0.0,0.668294,0.925471,0.0,2,0,0,0
234501258,34.0336283194,108.755080316,426.161,400.659,-0.0,0.668235,0.926194,0.0,2,0,0,0
234699913,34.0336265313,108.755080312,426.16,400.658,-0.0,0.668171,0.925891,0.0,2,0,0,0
234898566,34.0336247706,108.755080306,426.155,400.653,-0.0,0.668101,0.925588,0.0,2,0,0,0
235102153,34.0336229384,108.755080274,426.144,400.643,-0.0,0.668028,0.926304,0.0,2,0,0,0
235300796,34.0336211338,108.755080251,426.128,400.627,-0.0,0.66795,0.926004,0.0,2,0,0,0
235499501,34.0336194001,108.755080233,426.115,400.614,-0.0,0.66785,0.925706,0.0,2,0,0,0
235698082,34.0336176632,108.755080216,426.111,400.61,-0.0,0.667749,0.925409,0.0,2,0,0,0
235896725,34.0336158878,108.755080124,426.106,400.605,-0.0,0.667667,0.926127,0.0,2,0,0,0
236100334,34.0336140814,108.755079955,426.111,400.611,-0.0,0.667599,0.925829,0.0,2,0,0,0
236298983,34.0336123558,108.755079772,426.121,400.622,-0.0,0.667528,0.926547,0.0,2,0,0,0
236497620,34.0336106701,108.755079624,426.133,400.635,-0.0,0.667454,0.926235,0.0,2,0,0,0
236706238,34.0336088756,108.755079534,426.142,400.644,-0.0,0.667675,0.926205,0.0,2,0,0,0
236904842,34.03360711,108.755079408,426.145,400.647,-0.0,0.66758,0.925897,0.0,2,0,0,0
237103523,34.0336053233,108.755079287,426.143,400.645,-0.0,0.667469,0.92661,0.0,2,0,0,0
237297159,34.0336035603,108.755079214,426.146,400.647,-0.0,0.667047,0.926021,0.0,2,0,0,0
237500802,34.0336016876,108.755079104,426.154,400.656,-0.0,0.666903,0.925717,0.0,2,0,0,0
237699593,34.0335998734,108.755078893,426.161,400.663,-0.0,0.666801,0.925418,0.0,2,0,0,0
237898058,34.0335980764,108.755078591,426.164,400.666,-0.0,0.666738,0.926145,0.0,2,0,0,0
238101662,34.0335962399,108.755078271,426.161,400.662,-0.0,0.666635,0.925848,0.0,2,0,0,0
238300306,34.0335944236,108.755077964,426.159,400.66,-0.0,0.666548,0.92556,0.0,2,0,0,0
238499099,34.0335925826,108.755077707,426.163,400.662,-0.0,0.666476,0.926287,0.0,2,0,0,0
238697593,34.0335907763,108.755077509,426.166,400.664,-0.0,0.666401,0.925998,0.0,2,0,0,0
238901205,34.0335889404,108.755077311,426.168,400.666,-0.0,0.666337,0.925709,0.0,2,0,0,0
239099872,34.0335871131,108.755077144,426.172,400.669,-0.0,0.666305,0.926436,0.0,2,0,0,0
239298592,34.0335852401,108.755077003,426.174,400.67,-0.0,0.666282,0.926135,0.0,2,0,0,0
239497137,34.0335833698,108.755076893,426.178,400.673,-0.0,0.666229,0.925834,0.0,2,0,0,0
239705705,34.0335814218,108.755076798,426.186,400.68,-0.0,0.666421,0.925801,0.0,2,0,0,0
239904348,34.0335795943,108.755076733,426.193,400.684,-0.0,0.666389,0.926516,0.0,2,0,0,0
240103090,34.0335778268,108.755076719,426.189,400.678,-0.0,0.666347,0.926199,0.0,2,0,0,0
240296689,34.0335761501,108.755076704,426.179,400.665,-0.0,0.665968,0.926622,0.0,2,0,0,0
240500277,34.0335743934,108.755076617,426.17,400.654,-0.0,0.665928,0.926307,0.0,2,0,0,0
240703886,34.0335726259,108.755076425,426.166,400.648,-0.0,0.665932,0.925998,0.0,2,0,0,0
240902587,34.0335708862,108.755076197,426.166,400.645,-0.0,0.665903,0.925682,0.0,2,0,0,0
241101172,34.0335691371,108.755075971,426.169,400.645,-0.0,0.665868,0.926389,0.0,2,0,0,0
241299815,34.0335673719,108.755075778,426.176,400.65,-0.0,0.665822,0.926074,0.0,2,0,0,0
241503424,34.0335655692,108.755075653,426.184,400.655,-0.0,0.665783,0.925762,0.0,2,0,0,0
241702152,34.0335638188,108.755075566,426.193,400.662,-0.0,0.665752,0.926475,0.0,2,0,0,0
241900712,34.0335620761,108.755075451,426.206,400.671,-0.0,0.665745,0.926173,0.0,2,0,0,0
242099374,34.0335603179,108.755075292,426.214,400.677,-0.0,0.665742,0.92587,0.0,2,0,0,0
242297998,34.0335585551,108.755075145,426.214,400.674,-0.0,0.665705,0.926585,0.0,2,0,0,0
242506633,34.0335567063,108.755075045,426.205,400.661,-0.0,0.66598,0.926541,0.0,2,0,0,0
242700249,34.0335549735,108.755074967,426.195,400.648,-0.0,0.665641,0.925944,0.0,2,0,0,0
242898891,34.0335532184,108.755074852,426.185,400.636,-0.0,0.665617,0.925634,0.0,2,0,0,0
243102551,34.0335514583,108.7550747,426.176,400.623,-0.0,0.665597,0.92634,0.0,2,0,0,0
243301140,34.0335497048,108.755074565,426.166,400.61,-0.0,0.665597,0.926029,0.0,2,0,0,0
243499786,34.0335478911,108.755074432,426.161,400.602,-0.0,0.665598,0.925726,0.0,2,0,0,0
243698429,34.0335460515,108.755074252,426.157,400.597,-0.0,0.665615,0.926438,0.0,2,0,0,0
243902038,34.033544173,108.755074024,426.149,400.588,-0.0,0.666076,0.926133,0.0,2,0,0,0
244100682,34.0335423655,108.755073782,426.147,400.587,-0.0,0.666817,0.925816,0.0,2,0,0,0
244299324,34.0335405456,108.755073587,426.149,400.59,-0.0,0.667874,0.926523,0.0,2,0,0,0
244497968,34.0335386987,108.75507341,426.152,400.594,-0.0,0.66758,0.926212,0.0,2,0,0,0
244696826,34.0335367927,108.755073192,426.153,400.596,-0.0,0.667321,0.9259,0.0,2,0,0,0
244900220,34.0335347921,108.755072982,426.152,400.597,-0.0,0.66711,0.92559,0.0,2,0,0,0
245098862,34.0335328471,108.755072799,426.148,400.594,-0.0,0.666942,0.926305,0.0,2,0,0,0
245302494,34.0335309503,108.755072657,426.149,400.597,-0.0,0.66681,0.926002,0.0,2,0,0,0
245501274,34.0335291998,108.755072453,426.155,400.604,-0.0,0.66673,0.925705,0.0,2,0,0,0
245699772,34.0335274693,108.755072193,426.165,400.616,-0.0,0.66668,0.926427,0.0,2,0,0,0
245898401,34.0335257239,108.755071937,426.175,400.626,-0.0,0.666601,0.926127,0.0,2,0,0,0
246097044,34.0335239846,108.755071685,426.186,400.639,-0.0,0.666567,0.925824,0.0,2,0,0,0
246295784,34.0335222534,108.755071465,426.194,400.649,-0.0,0.666504,0.926532,0.0,2,0,0,0
246504266,34.033520426,108.755071279,426.198,400.653,-0.0,0.666774,0.926496,0.0,2,0,0,0
246697939,34.0335187219,108.755071149,426.196,400.652,-0.0,0.666456,0.925903,0.0,2,0,0,0
246906514,34.0335168526,108.755071022,426.188,400.644,-0.0,0.666777,0.925873,0.0,2,0,0,0
247105307,34.0335150667,108.755070949,426.182,400.639,-0.0,0.666801,0.92659,0.0,2,0,0,0
247298834,34.0335133823,108.755070923,426.174,400.633,-0.0,0.66651,0.926,0.0,2,0,0,0
247497477,34.0335116858,108.755070904,426.169,400.628,-0.0,0.666546,0.925684,0.0,2,0,0,0
247701086,34.0335099443,108.755070822,426.171,400.631,-0.0,0.666606,0.926391,0.0,2,0,0,0
247899786,34.0335082307,108.755070675,426.171,400.632,-0.0,0.666701,0.926076,0.0,2,0,0,0
248098372,34.0335065388,108.755070545,426.172,400.636,-0.0,0.666815,0.925771,0.0,2,0,0,0
248301983,34.033504812,108.755070485,426.177,400.644,-0.0,0.66812,0.926487,0.0,2,0,0,0
248505590,34.0335030465,108.755070492,426.174,400.645,-0.0,0.66971,0.926185,0.0,2,0,0,0
248704269,34.0335013091,108.755070462,426.164,400.64,-0.0,0.671431,0.925889,0.0,2,0,0,0
248902877,34.0334996272,108.755070435,426.146,400.627,-0.0,0.673197,0.9256,0.0,2,0,0,0
249101522,34.033497932,108.755070435,426.129,400.615,-0.0,0.674873,0.926328,0.0,2,0,0,0
249300162,34.0334962118,108.75507042,426.117,400.61,-0.0,0.676366,0.926033,0.0,2,0,0,0
249498830,34.0334944556,108.755070356,426.108,400.608,-0.0,0.676361,0.925736,0.0,2,0,0,0
249697448,34.0334926101,108.755070221,426.104,400.611,-0.0,0.675037,0.925443,0.0,2,0,0,0
249906026,34.0334905763,108.755070022,426.106,400.618,-0.0,0.674275,0.926444,0.0,2,0,0,0
250099749,34.0334886587,108.755069814,426.113,400.633,-0.0,0.673156,0.925873,0.0,2,0,0,0
250298340,34.033486681,108.755069545,426.126,400.654,-0.0,0.673419,0.92558,0.0,2,0,0,0
250501952,34.0334846791,108.755069165,426.142,400.681,-0.0,0.673963,0.926307,0.0,2,0,0,0
250700595,34.0334827221,108.755068693,426.16,400.71,-0.0,0.674578,0.926026,0.0,2,0,0,0
250899238,34.0334807786,108.755068287,426.178,400.74,-0.0,0.675147,0.925743,0.0,2,0,0,0
251097888,34.0334789242,108.75506799,426.188,400.762,-0.0,0.675613,0.925461,0.0,2,0,0,0
251301490,34.0334770779,108.75506771,426.195,400.782,-0.0,0.6759,0.926189,0.0,2,0,0,0
251500188,34.0334752155,108.755067446,426.203,400.803,-0.0,0.674699,0.925908,0.0,2,0,0,0
251698972,34.0334733056,108.755067145,426.209,400.822,-0.0,0.673723,0.92563,0.0,2,0,0,0
251902385,34.033471385,108.755066858,426.216,400.842,-0.0,0.672858,0.92535,0.0,2,0,0,0
252096062,34.0334695905,108.75506655,426.223,400.861,-0.0,0.671861,0.92581,0.0,2,0,0,0
252304637,34.0334677007,108.755066204,426.236,400.886,-0.0,0.671608,0.925817,0.0,2,0,0,0
252503469,34.0334659395,108.755065964,426.245,400.907,-0.0,0.671109,0.925547,0.0,2,0,0,0
252701928,34.0334642403,108.75506581,426.247,400.918,-0.0,0.67069,0.925277,0.0,2,0,0,0
252900566,34.0334625753,108.755065741,426.249,400.93,-0.0,0.670322,0.926015,0.0,2,0,0,0
253099210,34.0334609079,108.755065761,426.258,400.951,-0.0,0.670015,0.925739,0.0,2,0,0,0
253297965,34.0334592359,108.755065819,426.271,400.974,-0.0,0.669708,0.92546,0.0,2,0,0,0
253501492,34.0334575166,108.755065839,426.28,400.993,-0.0,0.669415,0.925182,0.0,2,0,0,0
253700102,34.0334558618,108.755065809,426.28,401.001,-0.0,0.669205,0.925916,0.0,2,0,0,0
253898746,34.0334541914,108.755065732,426.274,401.004,-0.0,0.669081,0.926646,0.0,2,0,0,0
254097466,34.0334524709,108.755065578,426.272,401.009,-0.0,0.668962,0.926332,0.0,2,0,0,0
254300999,34.0334507349,108.755065437,426.269,401.015,-0.0,0.668872,0.926019,0.0,2,0,0,0
254499643,34.0334492086,108.755065513,426.271,401.023,-0.0,0.66883,0.925714,0.0,2,0,0,0
254703251,34.0334480036,108.755066092,426.27,401.031,-0.0,0.668785,0.926427,0.0,2,0,0,0
254901953,34.0334473414,108.755067305,426.272,401.041,-0.0,0.668765,0.926123,0.0,2,0,0,0
255100538,34.033447072,108.75506907,426.263,401.038,-0.0,0.668792,0.925823,0.0,2,0,0,0
255299182,34.0334470365,108.755071169,426.246,401.027,-0.0,0.668837,0.925527,0.0,2,0,0,0
255497822,34.0334471027,108.755073372,426.223,401.01,-0.0,0.668826,0.926231,0.0,2,0,0,0
255696476,34.0334471671,108.75507558,426.201,400.993,-0.0,0.668853,0.925912,0.0,2,0,0,0
255900075,34.033447193,108.755077799,426.183,400.981,-0.0,0.668846,0.926613,0.0,2,0,0,0
256098717,34.0334471409,108.755079845,426.174,400.977,-0.0,0.668894,0.9263,0.0,2,0,0,0
256307318,34.0334470369,108.755081911,426.163,400.971,-0.0,0.669278,0.926269,0.0,2,0,0,0
256505998,34.0334468657,108.755083787,426.156,400.972,-0.0,0.66934,0.925956,0.0,2,0,0,0
256704578,34.0334466519,108.755085586,426.154,400.975,-0.0,0.669417,0.926665,0.0,2,0,0,0
256898256,34.0334464328,108.755087331,426.146,400.973,-0.0,0.669195,0.926059,0.0,2,0,0,0
257096898,34.0334461365,108.755089099,426.141,400.973,-0.0,0.669319,0.925738,0.0,2,0,0,0
257295541,34.0334457621,108.75509089,426.151,400.989,-0.0,0.669465,0.926431,0.0,2,0,0,0
257499152,34.0334454021,108.755092839,426.157,401.0,-0.0,0.669627,0.926099,0.0,2,0,0,0
257697793,34.0334450789,108.755094769,426.161,401.009,-0.0,0.669801,0.925774,0.0,2,0,0,0
257901399,34.0334447841,108.755096739,426.17,401.023,-0.0,0.669971,0.926472,0.0,2,0,0,0
258100045,34.0334445418,108.755098649,426.177,401.033,-0.0,0.670134,0.926149,0.0,2,0,0,0
258298688,34.0334443364,108.755100566,426.18,401.04,-0.0,0.670292,0.925837,0.0,2,0,0,0
258502300,34.0334441793,108.755102566,426.18,401.043,-0.0,0.670391,0.926539,0.0,2,0,0,0
258700948,34.033444055,108.75510456,426.184,401.051,-0.0,0.670522,0.926228,0.0,2,0,0,0
258899579,34.0334439482,108.755106598,426.19,401.061,-0.0,0.670649,0.925923,0.0,2,0,0,0
259103197,34.0334438081,108.755108634,426.201,401.076,-0.0,0.670769,0.925617,0.0,2,0,0,0
259301835,34.0334436692,108.755110549,426.216,401.095,-0.0,0.670919,0.926335,0.0,2,0,0,0
259500641,34.0334435401,108.755112475,426.222,401.105,-0.0,0.671023,0.926033,0.0,2,0,0,0
259699120,34.0334433978,108.755114428,426.225,401.111,-0.0,0.67112,0.925717,0.0,2,0,0,0
259897764,34.0334432075,108.755116415,426.224,401.113,-0.0,0.671238,0.926425,0.0,2,0,0,0
260096407,34.0334430057,108.755118479,426.225,401.117,-0.0,0.671397,0.926113,0.0,2,0,0,0
260295206,34.0334427649,108.755120592,426.228,401.123,-0.0,0.671508,0.925798,0.0,2,0,0,0
260498659,34.0334424956,108.755122716,426.232,401.129,-0.0,0.671596,0.926495,0.0,2,0,0,0
260697303,34.0334422405,108.755124737,426.237,401.135,-0.0,0.671666,0.926168,0.0,2,0,0,0
260905877,34.0334419434,108.755126875,426.234,401.134,-0.0,0.672053,0.926105,0.0,2,0,0,0
261104652,34.0334416977,108.755128936,426.234,401.133,-0.0,0.672091,0.926799,0.0,2,0,0,0
261298204,34.0334415465,108.755130957,426.228,401.127,-0.0,0.671751,0.926178,0.0,2,0,0,0
261501809,34.0334414347,108.75513311,426.22,401.118,-0.0,0.671701,0.925848,0.0,2,0,0,0
261700448,34.0334413472,108.755135242,426.212,401.108,-0.0,0.67177,0.926554,0.0,2,0,0,0
261899142,34.0334412409,108.755137405,426.2,401.094,-0.0,0.671794,0.926239,0.0,2,0,0,0
262102710,34.0334410974,108.75513963,426.194,401.085,-0.0,0.67181,0.925923,0.0,2,0,0,0
262301343,34.0334409208,108.755141798,426.193,401.081,-0.0,0.671836,0.925617,0.0,2,0,0,0
262504952,34.0334407347,108.755144035,426.19,401.075,-0.0,0.671857,0.926329,0.0,2,0,0,0
262703634,34.0334405789,108.755146216,426.187,401.07,-0.0,0.671936,0.92603,0.0,2,0,0,0
262902238,34.033440396,108.755148354,426.181,401.061,-0.0,0.672019,0.925733,0.0,2,0,0,0
263100881,34.0334401824,108.755150422,426.184,401.062,-0.0,0.672082,0.925436,0.0,2,0,0,0
263299524,34.0334399758,108.75515244,426.186,401.062,-0.0,0.672163,0.926155,0.0,2,0,0,0
263498167,34.0334397541,108.755154484,426.187,401.061,-0.0,0.672259,0.925858,0.0,2,0,0,0
263696810,34.0334394568,108.755156569,426.191,401.063,-0.0,0.672354,0.925562,0.0,2,0,0,0
263900419,34.0334391617,108.755158679,426.197,401.068,-0.0,0.67245,0.926279,0.0,2,0,0,0
264099067,34.0334389274,108.755160702,426.206,401.075,-0.0,0.672544,0.925984,0.0,2,0,0,0
264297707,34.0334386921,108.755162746,426.204,401.072,-0.0,0.672641,0.925693,0.0,2,0,0,0
264501314,34.0334384685,108.755164844,426.2,401.067,-0.0,0.672723,0.925403,0.0,2,0,0,0
264699957,34.0334382943,108.755166892,426.2,401.065,-0.0,0.672857,0.926132,0.0,2,0,0,0
264898600,34.0334381616,108.755168982,426.199,401.062,-0.0,0.672975,0.925851,0.0,2,0,0,0
265097243,34.033438087,108.75517108,426.199,401.059,-0.0,0.673092,0.925567,0.0,2,0,0,0
265300852,34.0334379987,108.755173219,426.2,401.058,-0.0,0.67316,0.926297,0.0,2,0,0,0
265499494,34.0334378695,108.755175297,426.194,401.049,-0.0,0.673253,0.926018,0.0,2,0,0,0
265698147,34.0334377681,108.755177414,426.18,401.032,-0.0,0.67325,0.925731,0.0,2,0,0,0
265896801,34.0334376559,108.755179583,426.164,401.014,-0.0,0.67328,0.925448,0.0,2,0,0,0
266100389,34.0334374919,108.755181808,426.149,400.997,-0.0,0.673291,0.926177,0.0,2,0,0,0
266299033,34.0334372935,108.75518397,426.148,400.992,-0.0,0.673286,0.925895,0.0,2,0,0,0
266497832,34.0334371125,108.755186136,426.146,400.988,-0.0,0.673283,0.925614,0.0,2,0,0,0
266696318,34.0334369564,108.755188281,426.14,400.98,-0.0,0.673279,0.926335,0.0,2,0,0,0
266904893,34.033436757,108.755190504,426.135,400.972,-0.0,0.673594,0.926313,0.0,2,0,0,0
267098571,34.0334365334,108.755192595,426.131,400.964,-0.0,0.67323,0.925737,0.0,2,0,0,0
267297340,34.0334362827,108.755194756,426.126,400.957,-0.0,0.673188,0.92544,0.0,2,0,0,0
267500826,34.0334360199,108.755196952,426.131,400.959,-0.0,0.673104,0.92616,0.0,2,0,0,0
267699468,34.0334357633,108.755199063,426.137,400.963,-0.0,0.673053,0.925872,0.0,2,0,0,0
267898108,34.0334355095,108.755201147,426.149,400.973,-0.0,0.67298,0.925585,0.0,2,0,0,0
268096889,34.0334352567,108.755203247,426.163,400.984,-0.0,0.672902,0.926311,0.0,2,0,0,0
268300359,34.0334349984,108.75520542,426.17,400.988,-0.0,0.672835,0.926022,0.0,2,0,0,0
268499004,34.0334347404,108.755207529,426.172,400.986,-0.0,0.672764,0.925737,0.0,2,0,0,0
268697650,34.0334345019,108.755209657,426.163,400.974,-0.0,0.672687,0.926459,0.0,2,0,0,0
268896330,34.0334343015,108.755211796,426.152,400.96,-0.0,0.672622,0.926156,0.0,2,0,0,0
269099897,34.0334340932,108.755213971,426.142,400.947,-0.0,0.672551,0.925852,0.0,2,0,0,0
269298540,34.0334338785,108.7552161,426.132,400.933,-0.0,0.672478,0.925556,0.0,2,0,0,0
269497183,34.0334336782,108.755218236,426.128,400.926,-0.0,0.672415,0.926276,0.0,2,0,0,0
269695842,34.0334334681,108.755220386,426.127,400.922,-0.0,0.672362,0.925979,0.0,2,0,0,0
269899435,34.0334332424,108.755222624,426.129,400.921,-0.0,0.672317,0.925683,0.0,2,0,0,0
270098078,34.0334330099,108.755224814,426.132,400.922,-0.0,0.672281,0.925393,0.0,2,0,0,0
270296721,34.0334327622,108.755226992,426.142,400.928,-0.0,0.672235,0.926117,0.0,2,0,0,0
270505321,34.033432516,108.755229289,426.154,400.937,-0.0,0.672525,0.926102,0.0,2,0,0,0
270698973,34.0334322588,108.755231432,426.158,400.937,-0.0,0.672148,0.925534,0.0,2,0,0,0
270897616,34.0334319908,108.755233616,426.158,400.933,-0.0,0.672122,0.926262,0.0,2,0,0,0
271096262,34.0334317748,108.755235793,426.149,400.919,-0.0,0.672135,0.925976,0.0,2,0,0,0
271304870,34.0334316435,108.755238065,426.142,400.907,-0.0,0.672443,0.925964,0.0,2,0,0,0
271498512,34.0334315458,108.755240118,426.149,400.91,-0.0,0.672094,0.925401,0.0,2,0,0,0
271702121,34.0334314107,108.755242217,426.16,400.917,-0.0,0.672078,0.926129,0.0,2,0,0,0
271900762,34.0334312562,108.755244252,426.172,400.924,-0.0,0.6721,0.925846,0.0,2,0,0,0
272099405,34.03343108,108.755246314,426.185,400.932,-0.0,0.672137,0.92555,0.0,2,0,0,0
272298048,34.0334308638,108.755248396,426.192,400.936,-0.0,0.672133,0.926271,0.0,2,0,0,0
272501657,34.0334306087,108.755250545,426.192,400.931,-0.0,0.672143,0.925976,0.0,2,0,0,0
272700300,34.0334303348,108.755252702,426.185,400.919,-0.0,0.672163,0.925681,0.0,2,0,0,0
272898943,34.033430077,108.755254895,426.177,400.907,-0.0,0.672195,0.925392,0.0,2,0,0,0
273097586,34.0334298502,108.755257051,426.17,400.896,-0.0,0.672223,0.926114,0.0,2,0,0,0
273306164,34.0334296517,108.755259309,426.165,400.888,-0.0,0.67259,0.9261,0.0,2,0,0,0
273504807,34.0334294712,108.755261424,426.156,400.876,-0.0,0.672586,0.925796,0.0,2,0,0,0
273703462,34.0334292651,108.755263521,426.146,400.862,-0.0,0.672615,0.926506,0.0,2,0,0,0
273897124,34.0334291095,108.755265609,426.138,400.851,-0.0,0.672275,0.925912,0.0,2,0,0,0
274100733,34.0334289599,108.755267851,426.129,400.839,-0.0,0.672299,0.925607,0.0,2,0,0,0
274299509,34.0334287875,108.755270073,426.125,400.832,-0.0,0.67237,0.926326,0.0,2,0,0,0
