timestamp,timestamp_sample,accel_device_id,gyro_device_id,delta_angle[0],delta_angle[1],delta_angle[2],delta_velocity[0],delta_velocity[1],delta_velocity[2],delta_angle_dt,delta_velocity_dt,delta_velocity_clipping
141102776,141102664,4259850,4325386,-2.69481e-05,7.23483e-05,-0.000228224,-0.00164972,-0.00105887,-0.0478785,4987,4970,0
141107756,141107649,4259850,4325386,7.37144e-05,-5.65338e-05,-0.000504212,-8.47264e-05,-0.000418577,-0.0484709,4985,4955,0
141601529,141601394,4259850,4325386,-0.000591561,-0.000406669,0.000346168,-0.00180871,-0.00722232,-0.0473096,4984,4927,0
142105410,142105296,4259850,4325386,6.81184e-05,0.000163455,0.000292396,-0.00470465,0.00253569,-0.0553566,4967,4987,0
142603992,142603846,4259850,4325386,2.90754e-06,-0.000141834,-0.000752444,-0.00259821,0.00130437,-0.0458734,4989,4929,0
143103136,143103024,4259850,4325386,-0.0012483,0.000599035,-0.000264418,-0.0032923,-0.00380728,-0.0499053,4992,4992,0
143601926,143601749,4259850,4325386,0.00174515,-0.00133044,-0.000565923,0.00777707,-0.00569219,-0.0447046,4987,5914,0
144100800,144100606,4259850,4325386,-6.4361e-05,0.000351395,0.000153818,0.00625375,0.0046247,-0.0448755,4958,4951,0
144604613,144604478,4259850,4325386,-0.000884549,1.239e-05,-0.000436811,-0.0104417,-0.000674805,-0.0651484,5259,5644,0
145103037,145102926,4259850,4325386,0.000595797,-0.00182937,-0.000607188,0.00624331,-0.00924697,-0.0429215,4945,4926,0
145601766,145601655,4259850,4325386,5.38599e-05,0.000637163,0.000587377,-0.0065741,-0.000947563,-0.0515629,4976,4928,0
146105595,146105448,4259850,4325386,0.00104796,3.77723e-05,-0.000861387,-0.0069021,0.00183748,-0.0481126,4967,4990,0
146604215,146604102,4259850,4325386,1.53869e-05,-0.000542127,0.000310936,-0.00594495,0.00405132,-0.0594025,4985,4927,0
147102962,147102832,4259850,4325386,0.000153211,9.81323e-05,-0.000373925,0.00847887,-0.00900875,-0.0506519,4988,4992,0
147601857,147601738,4259850,4325386,0.000789852,-0.000906496,-0.0011122,-0.00809092,-0.01747,-0.0482485,4974,4975,0
148100698,148100563,4259850,4325386,0.00243183,-0.000689432,-0.00135428,0.0149464,-0.00953106,-0.0323771,5257,4926,0
148604155,148604016,4259850,4325386,-0.000111564,-0.000334281,-0.000443679,-0.0085561,-0.00622036,-0.0494686,4991,4988,0
149102865,149102744,4259850,4325386,0.00128801,-0.000623359,-0.000195848,0.0115246,-0.00342427,-0.0388076,4992,4990,0
149606128,149606004,4259850,4325386,-0.00255717,0.000758938,-0.00394405,-0.00176107,-0.00880676,-0.0534964,4983,4928,0
150104566,150104389,4259850,4325386,0.000199613,0.00012649,-0.00380705,-0.00318875,0.00803327,-0.0510462,4981,4981,0
150603032,150602923,4259850,4325386,-0.00136039,2.91513e-05,-0.0030018,-0.00117036,0.00867481,-0.0455163,4938,4924,0
151102174,151101652,4259850,4325386,-0.000755866,0.000884772,-0.00324502,0.0101618,0.0186477,-0.0397594,4988,4962,0
151604981,151604867,4259850,4325386,0.000725812,-0.000249893,-0.00356639,-0.00514597,-0.01614,-0.0530543,4987,4968,0
152103707,152103597,4259850,4325386,8.05803e-07,0.00103566,0.0016127,-0.0108022,0.0270752,-0.0605501,4987,4977,0
152602535,152602368,4259850,4325386,-0.000825504,0.000236263,0.00245131,0.00183752,-0.0132514,-0.0427584,4974,4972,0
153106173,153106044,4259850,4325386,-6.17685e-05,0.00136727,0.00455691,0.00608885,-0.00827746,-0.0427288,4987,5000,0
153605563,153605450,4259850,4325386,-0.00148853,-0.00122019,0.00407015,-0.0065945,-0.0105334,-0.0524056,4967,4930,0
154104116,154104003,4259850,4325386,0.001169,0.000308233,0.00425415,0.00843172,0.000359335,-0.0428931,4988,4992,0
154602919,154602738,4259850,4325386,-0.00145786,0.000696111,0.00512068,0.00465231,0.0150734,-0.0444719,4941,4925,0
155101867,155101729,4259850,4325386,-0.000359008,-1.36546e-06,0.00320272,-0.0108787,-0.00592265,-0.0567568,5046,4943,0
155605524,155605366,4259850,4325386,-0.000919147,0.000406552,0.000549368,-0.00255058,-0.00507519,-0.0524322,4978,4915,0
156104020,156103912,4259850,4325386,-0.00018507,0.00033528,-0.000368177,0.000939145,0.00678906,-0.0443282,4982,4923,0
156602757,156602640,4259850,4325386,0.000552379,0.000153266,0.000659059,0.00837144,0.016431,-0.0403374,4987,4930,0
157106002,157105883,4259850,4325386,0.000196965,-0.000208379,-0.0003428,-0.00410514,0.00558347,-0.0498288,4980,4988,0
157604842,157604731,4259850,4325386,4.11714e-05,0.000232578,0.000645904,-0.000623903,0.0230653,-0.0487232,4984,4964,0
158103636,158103468,4259850,4325386,0.00182975,-0.000585202,-0.000643441,0.0023474,0.00237282,-0.0432331,4975,4926,0
158602160,158602049,4259850,4325386,-0.00070141,6.45518e-05,0.000706952,-0.0114022,0.00459877,-0.0574585,4987,4930,0
159105882,159105769,4259850,4325386,-0.000543148,-0.000147882,0.000170273,-0.010127,0.00445399,-0.0582064,4990,4981,0
159604670,159604498,4259850,4325386,0.00095951,-0.000782482,-0.000586439,0.00277917,-0.00705195,-0.041387,4982,4946,0
160103363,160103230,4259850,4325386,0.00169058,-0.000807203,-0.00139124,0.00228724,-0.0234742,-0.0393837,4990,4735,0
160607095,160606971,4259850,4325386,-0.00136774,0.00107516,0.00162736,-0.00191058,0.0293195,-0.0477817,4982,4985,0
161100994,161100840,4259850,4325386,-0.00165896,0.000217827,0.00122622,-0.00352174,-0.000466808,-0.0493101,5004,4928,0
161604708,161604535,4259850,4325386,-0.000502554,9.17249e-05,0.000857151,0.00203672,0.00130897,-0.0443758,4967,4927,0
162103257,162103136,4259850,4325386,0.000439806,-0.000805809,-0.000573592,0.0028202,-0.00766802,-0.0423318,4986,4980,0
162601979,162601866,4259850,4325386,0.00122085,-0.000403191,-0.000839001,0.0051359,-0.00651075,-0.0395936,4988,4777,0
163105695,163105584,4259850,4325386,-0.00118556,0.000379397,0.000725413,-0.00569594,0.00238552,-0.0540176,4949,4921,0
163604440,163604313,4259850,4325386,-0.00057715,0.000649144,0.000685689,-0.00480177,-0.00629516,-0.057364,4988,4993,0
164103845,164103727,4259850,4325386,-0.000528954,0.000148047,-0.000675459,-0.00993578,-0.00990056,-0.050962,4983,4929,0
164602382,164602271,4259850,4325386,-0.000697737,0.000665059,0.000775761,-0.000780341,0.006194,-0.0459202,4986,4980,0
165100826,165100652,4259850,4325386,0.00166801,-0.000628427,-0.00115041,-0.00313078,-0.0129203,-0.0466412,4971,4926,0
165604329,165604220,4259850,4325386,-0.000129476,-4.78265e-05,-7.32001e-05,-0.00985987,-0.00777487,-0.0589524,4958,4923,0
166103061,166102951,4259850,4325386,-0.000380959,-0.000298203,-0.000619775,-0.00282546,-0.0126533,-0.0470613,4990,4927,0
166601796,166601683,4259850,4325386,-0.000100483,0.000492466,0.00101482,0.00340204,0.0207444,-0.0445763,4988,4795,0
167105524,167105398,4259850,4325386,-0.00112746,0.000865556,0.000735102,-0.00161334,0.0147157,-0.0488633,4984,4927,0
167604340,167604160,4259850,4325386,0.000111224,8.06641e-05,0.000656964,0.00638667,0.0103349,-0.042916,4992,4989,0
168103472,168103358,4259850,4325386,0.00144625,-9.60887e-05,-0.000434345,0.0126885,-0.0137793,-0.0373666,4987,4985,0
168602225,168602090,4259850,4325386,0.00176851,4.9784e-05,-0.00081508,0.0129441,-0.0134705,-0.0379867,4987,4977,0
169101164,169101019,4259850,4325386,0.00111781,0.000239892,-0.000690771,-0.00098705,-0.0247637,-0.0505136,4972,4928,0
169604875,169604714,4259850,4325386,-0.000556105,-0.000147105,-0.000274484,-0.00738353,-0.016294,-0.0547075,4989,4937,0
170103384,170103267,4259850,4325386,-0.000983931,4.04966e-05,0.00039802,-0.0011882,0.0174283,-0.0435314,4987,4932,0
170602118,170601998,4259850,4325386,0.000543806,-0.00022277,-0.000224003,0.000269371,-0.0197261,-0.0485921,4988,4929,0
171106022,171105898,4259850,4325386,0.000985316,0.000577581,-1.87188e-05,-0.00294333,-0.0133615,-0.0486286,4928,4661,0
171604553,171604445,4259850,4325386,-0.000207681,-0.000141338,-8.91807e-05,0.00442722,0.00646252,-0.0431688,4987,4928,0
172103299,172103176,4259850,4325386,0.00109264,0.000230032,-0.000603371,-0.00667603,-0.0226572,-0.04992,4986,4672,0
172602337,172602110,4259850,4325386,-2.92232e-05,-0.000277009,-0.000102087,-0.001383,-0.00265048,-0.0558315,4992,5914,0
173105935,173105803,4259850,4325386,0.000495253,0.000787346,-0.000278561,-0.00551563,-0.00805517,-0.0523499,4995,4978,0
173604463,173604354,4259850,4325386,0.000826806,-0.000324348,-0.000695049,0.00511391,-0.00713146,-0.0404861,4988,4986,0
174103209,174103085,4259850,4325386,-0.000315854,-4.91517e-05,0.000531925,-0.000594563,0.0107076,-0.0509901,4988,4979,0
174607071,174606957,4259850,4325386,-0.000969896,0.000442846,0.000617833,-0.0134577,0.00845679,-0.0564221,4974,4931,0
175105701,175105543,4259850,4325386,0.00124909,5.14541e-05,-0.000607028,-0.00339745,-0.0132963,-0.0432545,4996,4950,0
175604423,175604311,4259850,4325386,-0.00183083,2.18794e-05,0.000193062,-0.00695411,0.00238962,-0.0524241,5033,4922,0
176103289,176103167,4259850,4325386,-0.000328633,0.000485081,0.000132639,-0.0163683,0.00809542,-0.0582115,4993,4929,0
176602015,176601894,4259850,4325386,-0.000474033,0.000664231,0.000703039,-0.00869085,0.00538245,-0.0535493,4995,4920,0
177105558,177105442,4259850,4325386,0.000669218,-0.000315534,-0.000477705,0.00725114,0.000741387,-0.0365145,4988,4926,0
177604291,177604172,4259850,4325386,-0.000453452,9.3214e-05,0.00029326,0.0020231,0.011259,-0.0405531,4986,4918,0
178103167,178103056,4259850,4325386,0.000588495,0.000114475,-0.000233295,0.00615043,0.0219545,-0.0390661,4954,4925,0
178606737,178606621,4259850,4325386,0.00146244,-0.00116622,-0.00126716,0.00731191,-0.0251344,-0.0425854,4988,4963,0
179100473,179100364,4259850,4325386,-0.00132158,-0.000280342,0.000373021,-0.0100016,0.0101049,-0.04286,4986,3941,0
179604423,179604254,4259850,4325386,-0.000338192,0.000346927,0.000500319,2.77284e-06,-0.0110391,-0.0521148,4967,4968,0
180103104,180102983,4259850,4325386,0.00116174,-0.000573442,-0.00095406,-0.00349175,-0.01941,-0.04765,4995,4930,0
180601654,180601543,4259850,4325386,0.00122093,-0.000937678,-0.000863319,0.00375934,-0.00956479,-0.0379507,4987,4672,0
181105380,181105264,4259850,4325386,0.000833275,-0.000249307,-3.89134e-05,0.00506616,0.0139318,-0.0390957,4990,4974,0
181603667,181603504,4259850,4325386,-0.00187627,0.000726203,0.00139721,-0.00530861,0.0139816,-0.0437189,4996,4139,0
182107553,182107346,4259850,4325386,1.1267e-05,0.000521129,0.000749776,0.00530443,0.00485419,-0.0420425,4970,4930,0
182601252,182601075,4259850,4325386,-0.00107346,-0.000208339,6.8868e-06,0.00356415,0.0114803,-0.0466408,4956,4934,0
183104784,183104672,4259850,4325386,0.000664919,-0.000587806,-0.00019694,0.0102281,-0.0111707,-0.0372218,4988,4950,0
183603520,183603406,4259850,4325386,0.000231905,0.000400092,0.000391031,0.00290784,0.0170828,-0.0405351,4980,4796,0
184102252,184102133,4259850,4325386,4.48933e-05,-0.0001321,-0.00110545,0.000695477,-0.0221373,-0.0456046,4986,4932,0
184605975,184605854,4259850,4325386,7.09792e-05,-1.40633e-05,-0.000389854,0.00541,0.00570773,-0.0399466,4991,4928,0
185104702,185104582,4259850,4325386,0.000652924,-0.000273785,-0.000879325,-0.00205364,-0.00679333,-0.043227,4966,4747,0
185603616,185603444,4259850,4325386,-0.00124773,0.000162049,0.000870471,-0.0142549,0.00862976,-0.0676697,4992,5919,0
186102652,186102541,4259850,4325386,0.000286255,-0.000304028,-0.000535758,-0.00393925,0.00405373,-0.0422128,4986,4952,0
186601588,186601477,4259850,4325386,0.00068294,0.000365678,-7.71169e-05,0.00549261,-0.00862612,-0.0426344,4907,4664,0
187105300,187105165,4259850,4325386,0.000206108,8.12476e-05,0.00104382,0.000131233,0.00145164,-0.0475155,4986,4975,0
187603933,187603721,4259850,4325386,0.00190912,-0.000357142,-0.00146361,0.00595604,-0.0224559,-0.0391135,4988,4697,0
188102630,188102451,4259850,4325386,-0.00286347,0.000443325,0.000526573,-0.0152282,0.00208113,-0.068503,4987,5809,0
188606430,188606315,4259850,4325386,0.000678262,0.000151114,-0.000686983,0.000288966,-0.0200452,-0.0441666,4979,4931,0
189100023,189099913,4259850,4325386,-0.00131464,0.000158674,0.00038552,-0.00699477,-0.00144075,-0.0524004,4988,4991,0
189603748,189603634,4259850,4325386,8.3547e-05,-0.000214735,0.000642045,0.0129876,-0.00497543,-0.0386149,4989,4953,0
190102641,190102532,4259850,4325386,-0.000443756,0.000135222,0.000496541,-0.00660392,-0.0214072,-0.0552806,4995,4930,0
190601380,190601260,4259850,4325386,-0.000866479,6.36548e-05,-0.000182587,-0.00416007,-0.0162121,-0.0568916,4986,4928,0
191104938,191104815,4259850,4325386,0.00101751,-0.000798929,-0.000663166,0.00220616,-0.00931164,-0.0429325,4992,4929,0
191603660,191603541,4259850,4325386,-6.93335e-05,-0.000805791,-0.000360656,0.00250383,0.00117034,-0.0430219,4988,4955,0
192107018,192106761,4259850,4325386,0.000270816,3.98064e-06,0.000193216,-0.000609458,-0.0188509,-0.0508805,4976,4739,0
192605803,192605625,4259850,4325386,-0.000336892,-0.000971403,-0.00045317,0.00210057,-0.0219342,-0.0522276,4986,5915,0
193104483,193104321,4259850,4325386,-0.0016743,0.000230165,0.000509789,-0.0126126,0.00773312,-0.0545085,4964,4928,0
193603059,193602952,4259850,4325386,-0.0012095,-0.000303976,-0.000267788,-0.0117311,0.00284953,-0.0565443,4987,4928,0
194101801,194101688,4259850,4325386,0.000250915,0.000450782,-3.72691e-05,0.0115921,0.00872715,-0.0352178,4992,4960,0
194605570,194605409,4259850,4325386,0.000225251,-0.000479292,-0.000566993,0.00223822,-0.00243358,-0.0529516,4986,5905,0
195104267,195104135,4259850,4325386,-0.00155845,0.000550622,0.00094549,-0.0209781,0.012374,-0.0610341,4991,4949,0
195608139,195607853,4259850,4325386,-0.000725713,-0.000120443,0.000209009,-0.00772213,-0.0103965,-0.0582316,4988,4927,0
196101910,196101723,4259850,4325386,-0.000404483,0.000296172,0.000520266,-0.0103732,-0.00271605,-0.0575489,4989,4971,0
196603983,196603862,4259850,4325386,-0.00149289,0.000458314,-0.000200236,-0.0167536,-0.0065093,-0.0569861,4987,4926,0
197103041,197102268,4259850,4325386,-0.00108227,0.000362773,0.000554008,0.00249638,0.00294368,-0.0429345,4976,4974,0
197601064,197600939,4259850,4325386,0.000556642,-0.000475273,-0.000704559,-0.000327674,0.00296865,-0.0441586,4985,4927,0
198104608,198104497,4259850,4325386,0.000822914,-0.000878348,-0.00101353,0.00504483,-0.0182293,-0.0428288,4989,4929,0
198603356,198603239,4259850,4325386,-0.0013953,0.00060386,0.00116601,-0.00487528,0.023091,-0.0482174,5000,4981,0
199107180,199107061,4259850,4325386,0.000112415,-0.000678057,9.69676e-05,0.000634286,0.0103522,-0.0405316,4961,4929,0
199605464,199605310,4259850,4325386,0.00020158,0.000399124,0.000493522,0.00772216,0.00399079,-0.0395774,4989,4987,0
200104576,200104406,4259850,4325386,-0.000942553,7.25314e-05,0.000881882,-0.0136259,-0.0045608,-0.0699319,4987,5920,0
200603515,200603289,4259850,4325386,0.000291102,-0.000324751,-0.000534787,-0.00230878,0.00826796,-0.03262,4953,3939,0
201102162,201102028,4259850,4325386,0.000468872,0.000310867,0.000468727,-0.00827354,0.0159505,-0.0626162,4986,5913,0
201605696,201605586,4259850,4325386,-0.00223739,0.00047056,0.00116777,-0.0153013,0.0148451,-0.057211,4987,4928,0
202104992,202104882,4259850,4325386,-0.000246397,-0.000154316,-0.00025404,-0.00679858,0.002389,-0.0496614,4959,4971,0
202603901,202603755,4259850,4325386,-0.00130332,0.000687032,0.00091185,-0.0108969,0.0115308,-0.0548017,5000,4956,0
203107428,203107313,4259850,4325386,0.00168432,2.43501e-06,-0.000844132,-0.000252717,-0.0129842,-0.0449473,4985,4926,0
203601804,203601693,4259850,4325386,0.000853122,-5.22221e-06,-0.000274785,-0.00309985,-0.00628876,-0.0483619,4987,4928,0
204105623,204105496,4259850,4325386,-0.000487674,-0.000473406,-0.000320759,-0.000651183,0.0153383,-0.0418394,4978,4972,0
204604066,204603956,4259850,4325386,-0.000948857,0.000662426,0.00081879,-0.0105571,0.0137169,-0.0549653,4985,4991,0
205103443,205102688,4259850,4325386,0.000620604,-0.000104658,-0.000319022,0.0093899,-0.0281606,-0.0443622,4986,5589,0
205606556,205606423,4259850,4325386,-0.000179361,0.000221276,0.00142328,0.00150401,0.0148747,-0.0466638,4964,4928,0
206105301,206105151,4259850,4325386,0.000892931,-0.000284482,-0.00124021,0.00547166,-0.0321719,-0.0420919,4999,4987,0
206604024,206603876,4259850,4325386,0.00113235,-0.000115744,-0.000498852,-0.00695138,0.000277548,-0.0496697,4980,4924,0
207102984,207102787,4259850,4325386,-0.00125044,-0.000222756,0.00040703,-0.00241422,0.00459153,-0.0505741,4980,4983,0
207601733,207601548,4259850,4325386,0.000858395,-0.00011648,-1.5908e-05,0.00827311,0.0108065,-0.0369972,4973,4967,0
208105157,208105047,4259850,4325386,-0.00106972,0.000594526,0.00126245,-0.00983677,0.0152595,-0.0535304,4988,4943,0
208604197,208603779,4259850,4325386,0.00130158,-0.000465328,-0.000439359,0.00989597,-0.0115118,-0.0399056,4987,4992,0
209102719,209102592,4259850,4325386,-0.00094443,-0.000445399,-0.00019256,-0.00396307,0.00288829,-0.0481997,5020,4916,0
209606368,209606228,4259850,4325386,-4.548e-05,0.000145183,-0.000219506,0.0019317,0.0233042,-0.0380678,4987,4924,0
210100131,210100023,4259850,4325386,-0.00119763,0.000191577,0.000866874,-0.0095946,0.0201014,-0.0516937,4961,4974,0
210604018,210603873,4259850,4325386,-0.000922578,7.94719e-06,0.000272769,-0.0171395,0.00699581,-0.0600365,4989,4930,0
211102764,211102630,4259850,4325386,-0.000255209,0.000100976,-8.88433e-05,0.00574598,-0.0155172,-0.0404505,4974,4930,0
211601270,211601150,4259850,4325386,0.000976993,0.000637259,0.000106683,-0.0038308,-0.00784666,-0.053244,4985,4916,0
212105026,212104870,4259850,4325386,-0.000437856,0.000431156,0.000664764,-0.00719484,-0.00494778,-0.0526052,4987,4929,0
212603806,212603668,4259850,4325386,0.00138718,-0.000620062,-0.00094375,0.00133221,-0.0214018,-0.0378665,4948,4665,0
213107461,213107323,4259850,4325386,0.00140852,-0.000112953,-0.00031086,0.0149905,-0.0194615,-0.0366683,4991,4997,0
213601189,213601073,4259850,4325386,-0.000401801,7.24054e-05,0.00100513,0.00227419,0.0260945,-0.0441677,4991,4934,0
214100126,214099975,4259850,4325386,0.000618114,-0.000381396,-0.0010233,-0.00471888,-0.0159968,-0.0499408,4990,4986,0
214603884,214603713,4259850,4325386,0.000355471,-0.000220884,0.000196007,-0.00224629,-0.0251664,-0.0538527,4960,4957,0
215102357,215102243,4259850,4325386,-0.00112974,0.000333277,0.000687507,0.00065801,0.00642012,-0.0463845,4987,4928,0
215606179,215605974,4259850,4325386,-0.000741491,1.40935e-05,0.000738708,-0.00647041,-0.00706903,-0.0517017,5000,4997,0
216104837,216104703,4259850,4325386,-0.000211099,-0.000170146,-0.000233456,-0.000873056,-0.00648444,-0.0441718,4961,4989,0
216603143,216602973,4259850,4325386,-0.000766938,-0.00065909,-2.8208e-05,-0.0103609,0.0046219,-0.0553762,4989,4985,0
217101867,217101705,4259850,4325386,-0.000744285,-0.00032502,0.000662975,0.00444566,0.0299534,-0.0515975,4986,5839,0
217600554,217600433,4259850,4325386,0.000973632,1.24851e-05,-0.000407269,-0.00462809,-0.00140677,-0.0499651,4987,4928,0
218104369,218104155,4259850,4325386,0.000597113,-0.000382763,-0.000563243,-0.00670045,0.00331584,-0.0517611,4990,4962,0
218603030,218602893,4259850,4325386,-0.00158537,0.000455734,0.00105832,-0.00334177,0.0137299,-0.052097,4968,4977,0
219101958,219101804,4259850,4325386,-0.00025068,-6.04275e-05,-0.000141561,0.00141543,0.0231227,-0.0434873,4989,4927,0
219605614,219605437,4259850,4325386,-0.00155246,0.000657185,0.00103884,-0.0144178,0.00968031,-0.0584313,4988,4927,0
220104660,220104515,4259850,4325386,-0.000416978,0.000119793,0.000152886,-0.000692839,0.0111159,-0.0423274,4987,4988,0
220603414,220603252,4259850,4325386,-0.00110211,0.000184591,0.000553951,-0.00691899,0.00459864,-0.0522747,4978,4958,0
221102585,221102474,4259850,4325386,0.001343,-0.000382926,-0.000321092,0.0105014,-0.00593289,-0.0397808,4987,4928,0
221601315,221601207,4259850,4325386,-8.98176e-05,0.000148739,0.000233188,-0.00571945,-0.00458221,-0.0567185,4988,4931,0
222105346,222105182,4259850,4325386,-0.00129769,0.000549186,0.000934604,-0.00120372,0.0132739,-0.047279,4937,4930,0
222603790,222603654,4259850,4325386,0.00195789,-2.77736e-05,-0.000454916,0.00177128,-0.0201124,-0.0491979,4982,4981,0
223102495,223102385,4259850,4325386,0.000888261,-0.000535301,-0.000394786,0.0147165,-0.0131536,-0.0332397,4987,4689,0
223606830,223606684,4259850,4325386,0.000939747,-0.000275346,-0.000445412,0.006362,0.0104409,-0.038512,4997,4931,0
224100510,224100346,4259850,4325386,0.000499346,9.43282e-05,-0.000410514,-0.000798835,-0.00812385,-0.043816,4987,4959,0
224604373,224604145,4259850,4325386,0.00181582,-0.000538342,-0.00102986,0.00402253,-0.0129448,-0.0407133,4963,4961,0
225102989,225102795,4259850,4325386,0.000563234,5.66854e-05,-0.000348969,-0.00738012,-0.00816948,-0.0585562,4987,5623,0
225601698,225601526,4259850,4325386,-0.000609038,0.000454292,0.000819977,-0.00682831,0.0069779,-0.057487,4987,5914,0
226104935,226104749,4259850,4325386,0.000438399,0.000195752,0.000897425,0.00507789,0.0128945,-0.0550519,4986,5764,0
226603648,226603527,4259850,4325386,0.00160634,-0.000542807,-0.000901615,0.00453459,-0.030012,-0.0420857,5036,4927,0
227107907,227107202,4259850,4325386,0.000204691,0.000398163,-4.5379e-05,0.00523584,0.0099631,-0.0500584,4991,6102,0
227601358,227601215,4259850,4325386,-0.000588253,0.000758675,0.000707979,-0.00631749,0.015656,-0.0491073,5009,4615,0
228104773,228104659,4259850,4325386,0.00120847,-0.000341776,-0.00101969,-0.0056721,-0.0116851,-0.0496659,4989,4933,0
228603506,228603389,4259850,4325386,0.0010237,3.60632e-05,-0.000743005,-0.00523751,-0.0354284,-0.0493324,4988,4971,0
229102546,229102426,4259850,4325386,-0.000543083,-0.000249071,-0.00091443,-0.0135976,0.000623001,-0.0544761,5010,4891,0
229606033,229605834,4259850,4325386,-0.00103947,0.000144038,0.000773669,0.00176543,0.0267898,-0.0402367,4933,4929,0
230104725,230104613,4259850,4325386,0.00165265,-0.000336131,-0.00069136,0.00938671,-0.0185535,-0.0379682,5031,4917,0
230603493,230603304,4259850,4325386,-0.000193291,-0.000368987,-0.00076299,-0.00774184,-0.0221431,-0.0525305,4989,4922,0
231107367,231107224,4259850,4325386,0.000199733,-0.000830825,-0.000997115,0.00295146,-0.0184379,-0.0437918,4963,4925,0
231600873,231600761,4259850,4325386,-0.000113592,-4.02559e-05,0.000411804,0.00220574,-0.00353509,-0.047659,4986,4992,0
232104594,232104480,4259850,4325386,0.000914145,0.000199626,-0.000460423,-0.00283034,-0.0218839,-0.0550503,4986,4925,0
232603605,232603449,4259850,4325386,0.00170208,-0.000548277,-0.000815065,-0.0013065,-0.00508562,-0.0452702,4962,4956,0
233107077,233106933,4259850,4325386,0.000710021,-0.000315651,0.000143203,0.00594141,0.00985841,-0.0401662,4991,4975,0
233605770,233605660,4259850,4325386,0.00104676,-0.000303303,-0.000973486,-0.00377299,-0.010579,-0.0500209,4987,4959,0
234105639,234105483,4259850,4325386,-0.00127737,0.000313561,0.000637132,-0.00203638,0.014278,-0.051944,4939,4923,0
234603747,234603621,4259850,4325386,0.000436083,-0.00017924,-0.000183713,0.00652378,0.0127341,-0.0381194,4984,4951,0
235102705,235102447,4259850,4325386,-0.00106649,5.48125e-05,-7.6175e-05,-0.00477056,-0.0110207,-0.0641292,4977,5915,0
235601189,235601083,4259850,4325386,0.000967729,-0.000358677,0.000150862,0.00845464,-0.0108493,-0.0401075,4987,4928,0
236104918,236104802,4259850,4325386,0.00103443,8.56571e-05,-0.000909412,0.00775056,0.00560378,-0.038226,4988,4927,0
236603642,236603533,4259850,4325386,-0.000565969,-5.41552e-05,-0.000538404,-0.00780673,-0.0283479,-0.0570902,4992,4929,0
237102665,237102514,4259850,4325386,-0.000409452,-2.56432e-05,-0.000291271,-0.00141947,0.00317988,-0.0432807,4962,4954,0
237606689,237606576,4259850,4325386,-0.00135331,-0.000252621,0.000335707,-0.0020166,-0.0120667,-0.0485514,4962,4943,0
238100332,238100225,4259850,4325386,0.000524788,-0.000155089,-0.000682663,-0.0119002,-0.00564725,-0.0559807,4972,4987,0
238604113,238603945,4259850,4325386,-0.000362676,-0.000278205,-0.000710912,-0.0109697,-0.00734641,-0.0514918,4987,4927,0
239102999,239102805,4259850,4325386,-0.00154608,0.000204082,0.000437033,-0.0082831,0.0220703,-0.0533786,4975,4962,0
239601530,239601405,4259850,4325386,0.00175961,-0.00066328,-0.00105069,0.00441667,-0.0195573,-0.0453544,4988,4929,0
240105252,240105123,4259850,4325386,0.00117744,-0.000420254,-0.000105771,0.0089756,-0.0139762,-0.0363792,4987,4929,0
240603981,240603855,4259850,4325386,0.00142325,-0.000436792,-0.000513685,-0.000464252,-0.0205604,-0.0494048,4988,4965,0
241102870,241102703,4259850,4325386,-0.000649158,0.000206915,0.00050605,-0.0111551,-0.0110341,-0.0702599,4979,5910,0
241601425,241601317,4259850,4325386,-0.000269179,0.000155383,0.000858764,-0.00150377,-0.00413465,-0.0507794,4988,4939,0
242105148,242105038,4259850,4325386,0.00121432,-0.000195776,-0.000743131,-0.00274031,-0.0139331,-0.0363724,4988,3942,0
242604055,242603879,4259850,4325386,-0.000309945,0.000575221,0.000961613,-0.00192128,0.0102326,-0.052688,4962,4930,0
243102623,243102500,4259850,4325386,0.00119222,-0.000261167,-0.000591801,-0.00032031,0.00218986,-0.0419209,4991,4928,0
243606331,243606218,4259850,4325386,0.00163913,9.79707e-06,-0.00022814,-0.00206,-0.0162067,-0.0463827,4990,4925,0
244105062,244104951,4259850,4325386,-0.000651043,-0.00013828,-0.000171226,0.00266182,0.0052227,-0.043663,4992,4928,0
244603359,244603246,4259850,4325386,0.000296853,0.000786116,0.000579717,-0.00527615,0.00666598,-0.0518499,4969,4926,0
245102038,245101911,4259850,4325386,0.000443195,-8.71855e-05,-0.000445935,0.00089853,-0.00855338,-0.0433178,4989,4928,0
245600853,245600708,4259850,4325386,-0.00148984,5.07253e-05,0.000277519,-0.00471196,-0.00860543,-0.0543278,4965,4928,0
246104468,246104359,4259850,4325386,0.000397566,7.04202e-05,-0.000112979,-0.00530414,-0.0222678,-0.0557585,4987,4925,0
246603233,246603090,4259850,4325386,-0.000286687,-0.000428974,-0.000698915,-0.000413806,0.00121288,-0.0422746,4987,4779,0
247101937,247101822,4259850,4325386,-0.000162063,-0.000624503,-0.000541982,0.00292374,-0.00755484,-0.0435906,4981,4924,0
247605916,247605760,4259850,4325386,-0.00121508,-3.25832e-05,-2.9677e-05,-0.015434,-0.00291032,-0.062367,4964,5377,0
248103901,248103774,4259850,4325386,0.000600744,-0.000265002,-0.00116942,-0.00870274,-0.00651,-0.0516012,4988,4971,0
248602150,248602004,4259850,4325386,-3.42195e-05,0.000111891,-0.000273356,-0.00144577,0.00777594,-0.0461505,4986,4955,0
249100743,249100555,4259850,4325386,-0.000269949,0.000381559,0.000620128,0.00431926,-0.00327557,-0.0521434,5257,5948,0
249604111,249604003,4259850,4325386,-0.000384402,-0.000212588,-0.000885484,-0.012284,-0.0126251,-0.0469791,4987,4097,0
250102841,250102734,4259850,4325386,0.00147536,-6.47127e-05,-0.000989409,0.00609913,-0.0112416,-0.0440122,4988,4981,0
250601784,250601637,4259850,4325386,-0.000861815,-1.69963e-05,0.000500248,-0.00513063,0.00785276,-0.0504842,4915,4738,0
251105442,251105270,4259850,4325386,-0.00198988,0.000540873,0.000824431,-0.0102131,0.008533,-0.0560244,4992,5001,0
251604058,251603916,4259850,4325386,0.00087169,-5.77732e-05,-0.000820141,0.00270533,0.000705009,-0.0411051,4989,4966,0
252101730,252101600,4259850,4325386,-0.000576035,-3.84854e-05,6.44792e-05,-0.00532609,-0.00647088,-0.0525001,4933,4920,0
252600938,252600829,4259850,4325386,0.000215881,-0.000575642,-0.000729995,0.00206718,-0.00222481,-0.0409494,4987,4953,0
253104888,253104644,4259850,4325386,-0.000902229,-0.00019989,0.000368887,-0.0015719,0.0034551,-0.0511016,4964,4927,0
253603700,253603543,4259850,4325386,-0.00124967,0.000249057,-0.000604521,-0.0174341,-0.00663734,-0.0582396,5249,4927,0
254102133,254102010,4259850,4325386,5.91565e-05,0.000205814,-0.000334917,-0.00861885,0.00526111,-0.0542334,4987,4926,0
254605888,254605727,4259850,4325386,-0.000539029,-9.08392e-05,-0.00430132,0.00206405,-0.00370955,-0.0405187,4984,4933,0
255104648,255104536,4259850,4325386,0.00314853,-0.000897638,-0.00502188,0.00591437,-0.00107552,-0.0429318,4973,4978,0
255603302,255603189,4259850,4325386,0.000906619,-0.000896707,-0.00476713,0.00951072,-0.0191116,-0.0393629,4942,4924,0
256102030,256101921,4259850,4325386,0.000727803,-0.000460866,-0.00170351,0.00379776,0.0083049,-0.0423762,4988,4970,0
256600953,256600761,4259850,4325386,-0.0010062,0.000236685,0.00173707,-0.0058124,0.0171149,-0.042767,4956,3934,0
257104770,257104621,4259850,4325386,-0.000904654,0.000446349,0.000746965,0.00255995,0.00402818,-0.0493675,4955,4926,0
257603217,257603102,4259850,4325386,-0.00076985,-0.000233676,0.000992325,-0.000563688,0.0022789,-0.0478804,4987,4926,0
258106946,258106829,4259850,4325386,0.000884275,-0.000710696,-0.00105927,0.012025,-0.0202444,-0.0348833,4997,4777,0
258605267,258605110,4259850,4325386,5.98274e-05,-5.99956e-05,-0.000345252,-0.00711991,0.00245638,-0.0455608,4995,4926,0
259104612,259103783,4259850,4325386,0.000117303,0.000165113,0.000303167,-0.0010515,-0.0153102,-0.0517788,4988,4969,0
259602788,259602564,4259850,4325386,-0.000125369,0.000381857,0.00086517,0.00979494,0.0065848,-0.0507178,4967,5916,0
260101356,260101244,4259850,4325386,-0.000470084,0.000545147,0.000489898,-0.00319785,-3.79022e-06,-0.0541066,4987,4929,0
260605123,260604962,4259850,4325386,0.000220638,-4.70444e-05,8.47514e-05,-0.00343216,-0.0162154,-0.0546935,4985,4932,0
261103859,261103700,4259850,4325386,0.000977407,0.000362092,0.000185608,0.00712143,-0.00937463,-0.0414255,4984,4983,0
261602779,261602664,4259850,4325386,0.000294834,-0.000225755,-0.00027262,0.000541235,0.00827555,-0.0425651,4986,4931,0
262105281,262105145,4259850,4325386,-0.00103003,-0.000202076,0.000124777,0.00155979,0.0149972,-0.0461692,4986,4925,0
262603991,262603876,4259850,4325386,-0.000183495,0.000298296,-0.00011852,-0.00953183,-0.00116709,-0.0562066,4983,4932,0
263102917,263102804,4259850,4325386,0.000325785,5.37951e-05,-0.000588205,-0.00712135,0.000248503,-0.0499119,5029,4725,0
263601669,263601535,4259850,4325386,-0.000500003,-0.000437708,-2.17572e-05,0.00156429,0.0164877,-0.0426216,4953,4960,0
264105175,264105057,4259850,4325386,0.00156345,6.68315e-05,8.63742e-05,0.0122561,-0.000370961,-0.0370103,4987,4932,0
264603916,264603787,4259850,4325386,0.00138894,7.04793e-05,-0.000835984,-0.00353246,-0.00935898,-0.0482805,4988,4928,0
265102277,265102134,4259850,4325386,-0.00129472,0.0002826,0.000644353,-0.0103532,-0.0074701,-0.056311,4989,4926,0
265606429,265606236,4259850,4325386,0.000728332,7.13805e-05,-0.000391146,-0.00616961,-0.00970416,-0.0568848,4986,4954,0
266105074,266104963,4259850,4325386,0.00131702,-0.00021317,-0.000716842,0.00376124,-0.0216536,-0.0418053,4960,4756,0
266604006,266603849,4259850,4325386,0.00056111,-1.07223e-05,-0.000234883,-0.00565001,-0.019801,-0.0549453,4977,4945,0
267102706,267102574,4259850,4325386,0.000690761,0.000392933,-0.000299508,0.00447989,0.0175672,-0.0435046,4970,4930,0
267601304,267601164,4259850,4325386,2.62119e-05,0.000336591,1.8193e-05,-0.00313535,-0.0252399,-0.0550584,4990,4930,0
268104993,268104879,4259850,4325386,-0.000166115,-0.000311947,3.56318e-05,-0.00666511,-0.0131336,-0.0513565,4988,4977,0
268603728,268603610,4259850,4325386,0.000428895,-0.000374474,-0.000423332,-0.00223757,0.0107138,-0.0432646,4987,4929,0
269107013,269106881,4259850,4325386,-0.00122623,0.000614294,0.00073288,-0.00383192,0.0268049,-0.0511164,4992,4929,0
269601294,269601077,4259850,4325386,-0.000552595,-0.000542116,-0.000200786,0.00273785,-0.00749858,-0.0516473,4992,5908,0
270105093,270104949,4259850,4325386,0.00103948,-0.000307734,-0.00122557,0.00155029,-0.0024527,-0.0420457,4987,4953,0
270603826,270603650,4259850,4325386,-0.0020813,0.000286236,0.000924689,-0.00563903,0.0212815,-0.0518125,4959,4959,0
271102367,271102252,4259850,4325386,-0.000506219,5.20877e-05,-0.000536842,-0.00642836,-0.0181297,-0.0527757,4984,4928,0
271606094,271605971,4259850,4325386,0.00141985,-2.25219e-06,-0.00100947,0.00639962,-0.0185752,-0.0416914,4989,4978,0
272104853,272104702,4259850,4325386,0.00102539,-0.000621887,-0.000880001,0.00504873,-0.0308715,-0.0426286,4987,4997,0
272603110,272602981,4259850,4325386,9.93352e-05,0.000620944,-0.000101824,-0.00726062,-0.00133949,-0.0502869,4985,4965,0
273106814,273106699,4259850,4325386,0.000559184,0.000176684,4.93814e-05,-0.00675626,-0.011786,-0.053833,4987,4931,0
273600800,273600679,4259850,4325386,0.00159374,-0.000607644,-0.00134179,0.00336135,-0.0210647,-0.0425477,4965,4925,0
274104277,274104160,4259850,4325386,0.00103563,-0.000548858,-0.00029944,0.00587455,0.00364114,-0.0412863,4986,4960,0
274603345,274602895,4259850,4325386,-0.000902134,0.000346471,-8.08908e-05,-0.0159196,0.00347009,-0.0592014,4986,4957,0
275101917,275101781,4259850,4325386,0.00148415,2.20111e-05,-0.000553399,0.00116519,0.0111302,-0.0436029,4994,4928,0
275604913,275604800,4259850,4325386,0.00171763,-0.000740623,-0.00142123,0.000159497,-0.0243701,-0.0479521,4993,4973,0
276108306,276108120,4259850,4325386,-0.000764357,0.000312849,-0.000122842,-0.0123086,-0.0110161,-0.0550925,5000,4795,0
276606871,276606745,4259850,4325386,0.000476648,-0.000381484,-0.000305043,-0.00710527,0.0139952,-0.0546282,4987,4927,0
277100663,277100517,4259850,4325386,-0.00222327,0.000361032,0.00083593,-0.00566307,0.0239077,-0.052168,4964,4928,0
277604356,277604211,4259850,4325386,8.97172e-05,-0.000403887,-0.00061445,-0.00143749,-0.000961197,-0.046251,4990,4945,0
278103048,278102938,4259850,4325386,0.000485406,-0.000552468,-0.000862468,-0.00936648,-0.0190345,-0.0574897,4987,4924,0
278601797,278601682,4259850,4325386,0.000470149,-0.000617908,-0.00118693,-0.0085875,-0.0173606,-0.0544005,4980,4978,0
279105725,279105569,4259850,4325386,0.000832002,-0.000137858,-0.000673792,0.00239947,-0.00272099,-0.0441298,4961,4963,0
279603827,279603622,4259850,4325386,-0.00221794,0.000588363,0.00138363,-0.0138141,0.0285013,-0.0539757,4988,4973,0
280107677,280107477,4259850,4325386,-0.0015091,0.000941536,0.000391332,-0.00175258,0.0092181,-0.0455655,4971,4928,0
280601204,280601081,4259850,4325386,0.000216401,-0.00018364,-0.00024652,0.0036168,-0.00233435,-0.0439463,4987,4964,0
281104912,281104800,4259850,4325386,0.0018591,-0.000448618,-0.000830118,0.00729359,-0.0243859,-0.0402139,4988,4924,0
281603818,281603703,4259850,4325386,0.000369433,-0.000526255,-0.000828681,0.00633752,-0.00597813,-0.0398764,4953,4928,0
282107615,282107433,4259850,4325386,-6.04802e-05,0.00011246,-1.58803e-05,-0.000739631,0.0177775,-0.0530015,4998,5999,0
282606098,282605988,4259850,4325386,-0.000493008,-8.5479e-06,0.000134287,-0.00785114,-0.00403184,-0.0565727,4995,4874,0
283105868,283105746,4259850,4325386,0.000287595,-0.00031867,-0.000441267,0.00218669,-0.0152149,-0.0422392,4964,4989,0
283604074,283603941,4259850,4325386,0.001243,-0.0003199,-0.000791826,0.00139895,-0.019318,-0.0439055,4973,4929,0
284102899,284102728,4259850,4325386,-6.21225e-05,-0.000153852,-0.000108169,-0.00344421,-0.0169057,-0.0538537,4949,4958,0
284601545,284601402,4259850,4325386,-0.000598189,0.000646963,0.00128866,0.00696177,0.0057002,-0.0441669,4987,4928,0
285105258,285105121,4259850,4325386,-0.00108301,6.77827e-05,0.000354097,-0.00406429,0.0157214,-0.048468,4987,4961,0
285603967,285603852,4259850,4325386,0.000351496,0.000117787,0.000185664,0.00168329,0.013574,-0.04451,4983,4923,0
286102199,286102084,4259850,4325386,0.00126009,-0.00064448,-0.00131961,0.010663,-0.0276345,-0.0369159,4988,4688,0
286606452,286606338,4259850,4325386,0.000363384,-0.000641655,-0.0004516,0.00717474,0.00149247,-0.0385183,4990,4927,0
287105165,287105032,4259850,4325386,0.000927243,-0.000355181,-0.000832819,0.00385812,0.00484828,-0.042363,4984,4973,0
287603911,287603762,4259850,4325386,-0.000330637,0.000352381,0.000941792,0.00706044,0.0171977,-0.0385962,4963,4928,0
288102635,288102494,4259850,4325386,-0.000602495,0.000264218,0.000707996,-0.0053241,0.00844563,-0.0508057,4987,4928,0
288601343,288601224,4259850,4325386,-0.0011779,1.23357e-05,0.000526536,-0.00306065,0.00754266,-0.0508571,4984,4929,0
289105049,289104939,4259850,4325386,-0.0011457,0.00039534,0.00117615,0.00506324,0.00441403,-0.0448674,4971,4965,0
289603966,289603850,4259850,4325386,0.000435363,-0.000333637,5.59798e-05,0.0134079,-0.00151671,-0.0385645,4970,4993,0
290103056,290102942,4259850,4325386,0.000959626,0.000131312,-3.63637e-05,0.00978127,-0.0114715,-0.0379248,4957,4926,0
290606764,290606623,4259850,4325386,-0.000869277,0.000328989,0.00043563,0.00330293,-0.000518612,-0.0428351,4987,4958,0
291100690,291100369,4259850,4325386,-0.000397716,0.000572924,0.000873963,0.000255736,0.0189719,-0.0552799,4990,5649,0
291604316,291604143,4259850,4325386,0.000320351,-0.000485887,-0.000666781,-0.00369117,0.00245343,-0.0457767,4975,4989,0
292103188,292103023,4259850,4325386,-8.25786e-05,0.000154044,0.00013199,-0.000417873,0.0190782,-0.0434216,4972,4929,0
292601658,292601546,4259850,4325386,-0.00102875,-0.000335762,-0.000264122,-0.0108104,0.000313528,-0.0531898,4987,4994,0
293105379,293105269,4259850,4325386,-0.000328808,0.000313384,-0.000229389,0.00240405,-0.00376261,-0.0383839,4992,4928,0
293604189,293604077,4259850,4325386,0.00152699,-0.00015551,-0.000919302,-0.00305742,-0.0240943,-0.0465146,4957,4675,0
294102361,294102231,4259850,4325386,-0.00114742,0.000708399,0.000549469,-0.0143141,0.0134773,-0.0605324,4788,4915,0
294601211,294600959,4259850,4325386,0.000805266,-6.3746e-05,-0.000270947,0.0082497,-0.00909491,-0.0372925,4968,4926,0
295105390,295105236,4259850,4325386,1.24004e-05,-0.000106657,-0.000306423,-0.00576252,0.00983767,-0.0511851,4993,4927,0
295604268,295604098,4259850,4325386,0.0011223,-0.000135,-9.35903e-05,0.00783675,0.0190487,-0.03906,4959,4927,0
296102761,296102637,4259850,4325386,-0.000361624,0.000215854,0.000524853,-0.000995488,-0.00955631,-0.0540531,4987,4993,0
296602119,296601953,4259850,4325386,-0.000210709,-0.000683313,-0.00021068,0.00453535,-0.00511843,-0.0403276,4989,4965,0
297106476,297106338,4259850,4325386,-0.00100738,0.000461557,0.00104933,0.00254019,0.0209214,-0.0423584,5237,4928,0
297599945,297599828,4259850,4325386,-0.000292545,0.000472417,0.000343938,-0.0124907,0.0211005,-0.0539315,4938,4448,0
298103809,298103665,4259850,4325386,0.00163882,-0.000173694,-0.000121335,0.0111476,0.00772932,-0.0343067,4966,4927,0
298602501,298602368,4259850,4325386,0.000957381,-0.000136885,-0.000777273,-0.000607157,-0.0195411,-0.0452292,4966,4924,0
299101211,299101011,4259850,4325386,-0.00119028,0.000218024,0.000832499,0.00455678,0.0217818,-0.0414146,4990,4932,0
299604835,299604727,4259850,4325386,0.000348373,-0.000249486,-0.000821515,-0.00176211,-0.0152598,-0.0514668,4988,4963,0
300103637,300103459,4259850,4325386,-0.00134852,-9.72249e-05,0.000846529,0.00134612,0.0208789,-0.0444065,4986,4927,0
300606855,300606725,4259850,4325386,-0.00276945,0.00138331,-0.00136521,-0.00823237,0.00332819,-0.056281,4984,4965,0
301105569,301105456,4259850,4325386,2.6797e-05,0.000491518,-0.00448005,-0.00918481,-0.014053,-0.057076,4988,4929,0
301605109,301604364,4259850,4325386,0.00178982,-0.000518516,-0.0046514,0.00198088,0.00949993,-0.0444797,4961,4929,0
302102590,302102473,4259850,4325386,7.83293e-05,6.48628e-06,-0.00333673,0.00783074,-0.00748193,-0.0386239,4959,4766,0
302601458,302601298,4259850,4325386,-0.000460727,0.000763114,-0.00101357,-0.0121209,0.00361726,-0.0566195,4969,4927,0
303104932,303104820,4259850,4325386,-0.00142553,0.000131474,0.00142818,-0.00431045,0.00489349,-0.0550748,4987,4928,0
303603364,303603212,4259850,4325386,-0.00129371,-0.000126123,0.000852542,0.00110727,0.0156172,-0.0454341,4969,4969,0
304107896,304106273,4259850,4325386,-6.29574e-05,0.000535048,-6.81977e-05,-0.00804018,-0.0175749,-0.0522818,4987,4963,0
304605254,304605108,4259850,4325386,-0.000307197,-3.31724e-05,0.000280812,-0.00796261,-0.0220384,-0.0557435,4950,4924,0
305103849,305103734,4259850,4325386,5.22943e-05,0.000265754,-9.77525e-05,-0.00587545,-0.00259373,-0.0493411,4985,4771,0
305602197,305602062,4259850,4325386,0.000228521,-0.000625772,-0.000704296,0.00671281,0.00585985,-0.0416554,4980,4930,0
306105805,306105687,4259850,4325386,0.000994499,-0.000476335,-8.86482e-05,0.00869787,-0.00871584,-0.0463448,4990,4968,0
306605093,306604419,4259850,4325386,-0.00133498,-2.1294e-05,0.00066667,-0.00547991,0.00134368,-0.0629002,4988,5730,0
307103272,307103149,4259850,4325386,-0.000209167,-0.000218149,-0.000662281,-0.0112429,-0.0159044,-0.0579632,4988,4951,0
307606580,307606414,4259850,4325386,0.000382548,-0.000388666,-0.000731156,-0.00490286,-0.0110439,-0.050985,4984,4952,0
308100286,308100161,4259850,4325386,-0.00220929,0.000457464,0.00146834,-0.0144884,0.0254331,-0.0573787,4945,4932,0
308604169,308604054,4259850,4325386,-0.0011187,0.000399133,0.00048787,-0.00114895,0.0187032,-0.0431873,4929,4663,0
309102698,309102152,4259850,4325386,-0.00108491,0.000380179,0.000253357,-0.0129626,0.00912088,-0.0551232,4987,4985,0
309601128,309600977,4259850,4325386,-0.00150071,5.79915e-05,0.000557171,-0.00300432,-0.0150073,-0.0542561,4962,4912,0
310104627,310104510,4259850,4325386,-0.00031819,-0.000970813,-0.000159232,0.00301203,0.0013975,-0.0451211,4987,4970,0
310603355,310603242,4259850,4325386,-0.000115762,0.000354373,0.000420628,0.00137785,0.0129771,-0.0463552,4989,4928,0
311106084,311105962,4259850,4325386,0.00151871,8.40038e-05,-0.000278739,0.00869291,0.0114641,-0.0379776,4986,4934,0
311605002,311604788,4259850,4325386,-0.000654198,-5.02553e-05,-0.00027094,0.00162212,0.00599516,-0.0429856,4969,4927,0
312103543,312103431,4259850,4325386,-0.000129976,0.000339275,0.00019457,-0.0039238,-0.000442756,-0.053605,4995,4963,0
312602340,312602156,4259850,4325386,-0.000591348,-0.000522142,-0.000657662,-0.00479647,-0.0156769,-0.0577346,4989,5914,0
313106162,313105978,4259850,4325386,-0.000246968,-0.000775075,-0.000859653,-0.00662676,-0.033276,-0.0535326,4971,4926,0
313605175,313605017,4259850,4325386,0.000553333,0.000475681,7.17936e-05,0.00305187,0.00775149,-0.0551726,5266,5986,0
314103494,314103342,4259850,4325386,0.00108454,-0.000363232,-0.000797637,0.000806298,-0.0249903,-0.0492436,4993,4927,0
314602703,314602560,4259850,4325386,0.000565359,0.00022841,-0.000232003,0.000269799,0.0128006,-0.0441713,4977,4932,0
315106014,315105865,4259850,4325386,-0.00146893,0.000375262,0.000233153,-0.00643447,0.00706635,-0.0472302,4961,4926,0
315604638,315604515,4259850,4325386,-0.00108762,0.000228277,0.000342209,-0.0198651,0.0145196,-0.0608067,4987,4963,0
316103395,316103285,4259850,4325386,0.00111903,-0.000165542,-0.000745846,-0.00216934,-0.004756,-0.0475282,5025,4910,0
316602283,316602163,4259850,4325386,-0.0013138,-0.00038604,0.000859517,0.0016951,0.0102878,-0.0471946,5047,4935,0
317106221,317106099,4259850,4325386,-0.000688222,0.000369314,0.000583693,-0.000478885,0.00945784,-0.0499702,5267,4926,0
317604572,317604427,4259850,4325386,5.66171e-06,-0.000183058,0.000175247,-0.00566938,-0.0105146,-0.0534905,4986,4977,0
318103278,318103157,4259850,4325386,0.000422679,-0.00061607,-0.000714549,0.00629306,-0.0104301,-0.0451151,4987,5002,0
318607182,318606957,4259850,4325386,0.001523,-0.000389076,-0.000175122,0.0133312,-0.0163859,-0.0376825,4972,4974,0
319100732,319100618,4259850,4325386,0.000589722,-0.000780336,-0.000160057,0.00725826,0.00357917,-0.0432752,4987,4928,0
319604493,319604340,4259850,4325386,0.00035002,-0.000154432,5.34855e-05,0.00251171,-0.0186772,-0.0464179,4990,4974,0
320103283,320103165,4259850,4325386,1.00402e-07,-0.000526325,-0.00112897,-0.00334954,-0.00567041,-0.0490206,4956,4924,0
320602349,320602186,4259850,4325386,0.00069066,9.00838e-05,0.000159301,0.00178332,-0.00718444,-0.0555036,5254,5961,0
321105668,321105518,4259850,4325386,-0.000128114,0.000389308,0.000409684,-0.00967692,-0.015366,-0.0556368,4989,4923,0
321604150,321603971,4259850,4325386,0.00106693,-0.000226107,1.74231e-05,0.00369259,0.0075691,-0.0426217,4966,4952,0
322102601,322102485,4259850,4325386,0.00156098,-6.97778e-05,-0.000249754,0.00019464,-0.00642272,-0.0455494,4992,4997,0
322601404,322601292,4259850,4325386,-0.000829815,0.000181097,0.000170871,0.00373855,-0.00152572,-0.0379844,4985,4930,0
323105093,323104964,4259850,4325386,-0.00194212,0.00070263,0.00113417,-0.0107807,0.010801,-0.0575731,4966,4927,0
323603962,323603663,4259850,4325386,0.000248577,-0.000659446,-0.00104395,0.00337202,-0.0202883,-0.052186,4986,5675,0
324102506,324102392,4259850,4325386,-0.000559595,7.18483e-06,4.31858e-05,-0.0116541,-0.0153748,-0.0566331,4988,4988,0
324606804,324606124,4259850,4325386,-0.00177263,0.000426123,0.00115605,0.00301441,0.0156182,-0.044339,5000,4894,0
325103976,325103860,4259850,4325386,-0.000316953,-0.000266267,4.80949e-05,0.00192564,0.0179397,-0.0412471,4957,4955,0
325602698,325602573,4259850,4325386,0.00110493,-7.48414e-05,-0.00111741,-0.000602078,-0.0389675,-0.0495654,4987,4928,0
326101750,326101309,4259850,4325386,-0.000329155,0.000263268,-0.00017808,0.00131828,0.0018515,-0.0523437,4991,5758,0
326605244,326605034,4259850,4325386,0.000960968,-0.000278216,-5.47151e-05,0.0160481,-0.0134316,-0.0358378,4987,4922,0
327104632,327104079,4259850,4325386,0.000536014,0.000528147,0.000337741,-0.00899026,0.0099483,-0.0644709,4950,5915,0
327602593,327602484,4259850,4325386,0.000117769,-0.000117128,-0.000785415,0.00275388,0.00422796,-0.0427248,4948,4928,0
328106316,328106205,4259850,4325386,0.000941516,-5.18997e-05,-0.000584824,-0.0102247,-0.0087905,-0.0587065,4989,4928,0
328603845,328603650,4259850,4325386,-0.000565284,-0.000478448,0.000116765,0.00513382,0.017006,-0.038199,4977,4931,0
329102317,329102169,4259850,4325386,0.0013858,-0.000196265,-0.000919104,0.00120466,-0.014722,-0.045416,4986,4986,0
329601082,329600971,4259850,4325386,-0.00106915,0.00025997,-0.000263554,-0.0144359,-0.0103794,-0.060472,4984,4962,0
330104816,330104691,4259850,4325386,0.000534514,3.51378e-05,-0.000454624,-0.0130376,-0.00858721,-0.0601743,5005,4900,0
330603484,330603348,4259850,4325386,0.000846159,0.000543762,0.00105238,0.00858909,0.00507013,-0.0420575,4949,4926,0
331102190,331102080,4259850,4325386,-0.00102166,0.000518999,0.000952286,-0.00580517,0.0371124,-0.0501988,4987,4925,0
331600922,331600811,4259850,4325386,-0.0015219,0.000532703,0.000796303,-0.00813147,0.0168499,-0.0540955,4987,4968,0
332104434,332104246,4259850,4325386,0.0010555,-0.000145142,-0.000908991,0.00527758,-0.0218601,-0.0440556,4978,4976,0
332608007,332607804,4259850,4325386,-0.000979167,0.000310775,0.000123178,-0.00837598,0.00368655,-0.055286,4995,4978,0
333101155,333100993,4259850,4325386,0.00100097,-0.000402732,-0.00117305,0.00529812,-0.0233562,-0.0427952,4988,4940,0
333604912,333604766,4259850,4325386,0.000485546,-0.00042457,-0.000144719,0.00180006,0.01707,-0.042428,4992,4990,0
334103905,334103754,4259850,4325386,0.00129519,-0.000680905,-0.00094847,0.00274798,-0.0131893,-0.0470363,4962,4948,0
334602293,334602173,4259850,4325386,0.00264053,-0.00024683,-0.000837348,0.00193099,-0.00807992,-0.0420384,4987,4988,0
335106085,335105891,4259850,4325386,0.00110866,-0.000182446,-0.00089202,0.00315801,-0.00917572,-0.0471631,4987,5769,0
335604769,335604648,4259850,4325386,-4.77462e-05,2.13899e-05,0.00118364,0.0151223,0.000746853,-0.0371772,5004,4894,0
336103355,336102994,4259850,4325386,4.42084e-05,-0.00031956,-0.000708204,-0.00562183,-0.0162348,-0.0613492,4995,5817,0
336601695,336601585,4259850,4325386,-0.00142733,-4.54577e-05,0.000947707,-0.0111596,0.0054782,-0.0568523,4986,4927,0
337100810,337100591,4259850,4325386,-0.000433642,-0.000397917,-5.7338e-05,-0.00872917,0.00345345,-0.0599072,5262,6003,0
337604219,337604037,4259850,4325386,-0.000395711,0.00100713,0.00130948,-0.00391096,0.0286676,-0.0517292,4983,4980,0
338102935,338102768,4259850,4325386,-0.00192135,0.00043275,0.000776666,-0.00754512,0.0215377,-0.0521601,4990,4945,0
338606668,338606547,4259850,4325386,-0.00140601,4.95821e-05,0.00124682,-0.00571158,0.0067796,-0.0506118,4960,4922,0
339105334,339105216,4259850,4325386,0.00132691,-0.000605682,-0.00112769,0.00493832,-0.0140163,-0.0433832,4985,4927,0
339604576,339604448,4259850,4325386,-0.000707533,-6.37112e-05,0.000311994,0.000548507,-0.000846582,-0.0448384,4987,4926,0
340103291,340103175,4259850,4325386,-0.000455974,0.00015447,0.000962776,0.00325332,0.00854865,-0.047477,4987,4976,0
340602125,340601908,4259850,4325386,-0.00180565,0.000602029,0.000979148,-0.0105198,0.0301731,-0.0544956,4986,4928,0
341106094,341105920,4259850,4325386,-0.000776728,-0.000587898,-6.54526e-05,-0.000621934,0.012212,-0.0440331,4973,4927,0
341604474,341604355,4259850,4325386,0.000548231,-6.11238e-05,5.74797e-05,0.00439062,-0.00400017,-0.0420173,4987,4979,0
342104137,342103913,4259850,4325386,0.000609043,3.31366e-05,-0.000740317,0.00340636,0.000858996,-0.0484436,5266,6031,0
342602668,342602513,4259850,4325386,-0.000243844,0.000436638,0.00128015,0.0120678,-0.00601595,-0.0387542,4987,4982,0
343106277,343106084,4259850,4325386,0.000687641,-0.000331369,-0.000585225,0.0021028,-0.00943381,-0.0452371,4989,4940,0
343605081,343604962,4259850,4325386,0.000583891,-0.000438282,-0.000847789,0.00104256,0.00313598,-0.0439085,5030,4921,0
344103655,344103543,4259850,4325386,-0.000622514,-0.000450909,0.000108443,0.00376711,-0.00585962,-0.0428327,4983,5425,0
344602386,344602277,4259850,4325386,-0.000274529,4.97587e-06,0.000570127,-0.00427098,0.0122639,-0.0489213,4989,4917,0
345106265,345106115,4259850,4325386,0.000227674,7.15752e-05,0.000410308,0.00759551,0.0103884,-0.0382956,4999,4996,0
345605295,345605174,4259850,4325386,-0.00179877,0.000771785,0.00104301,-0.0119469,0.018177,-0.0555267,4987,4921,0
346104281,346104069,4259850,4325386,-0.000682318,0.000188758,0.000471173,-0.00794549,0.0042632,-0.0551892,4963,4928,0
346607043,346606884,4259850,4325386,-0.00156421,0.000460651,0.000793355,-0.0126983,0.0260277,-0.0668924,5239,6030,0
347100513,347100373,4259850,4325386,-0.00056634,0.00017603,0.000189628,0.00201422,0.0202876,-0.047787,4992,4989,0
347604755,347604634,4259850,4325386,-0.000563759,-0.000188026,-0.00021401,-0.00597542,0.0106966,-0.050845,4986,4925,0
348103524,348103365,4259850,4325386,0.00111453,-0.000185881,-0.00106543,0.00697539,-0.0080924,-0.0400313,4988,4965,0
348602348,348602152,4259850,4325386,0.000110953,-0.000328146,0.000116624,0.00647954,0.00282655,-0.0415756,4998,4997,0
349104934,349104819,4259850,4325386,0.00129771,5.16919e-05,-0.00089877,0.000145348,0.00148182,-0.0427376,4971,4931,0
349603661,349603501,4259850,4325386,-0.000359458,0.00049861,0.000674747,-0.00364366,0.00846223,-0.050764,4984,4926,0
350103116,350103002,4259850,4325386,0.00112683,-0.000424432,-0.000781468,0.000989665,-0.0310992,-0.0494915,5260,4994,0
350601573,350601461,4259850,4325386,0.000501712,-0.00069607,-0.000618193,0.00808486,-0.0109352,-0.0398421,4989,4930,0
351105647,351105280,4259850,4325386,0.00115543,-0.000333402,-0.000962448,-0.00238892,-0.0132618,-0.0509541,4994,4994,0
351603589,351603410,4259850,4325386,0.000813803,2.33345e-05,-0.000267644,0.00482939,0.0119138,-0.0414698,4987,4952,0
352101961,352101831,4259850,4325386,0.000449074,-3.26325e-05,0.000597861,0.00262374,0.00484844,-0.0323408,4765,3724,0
352605583,352605363,4259850,4325386,-0.000513873,-0.000143438,-0.000899318,-0.0149804,-0.00277702,-0.055474,4987,4927,0
353104816,353104691,4259850,4325386,-0.000373797,-3.68855e-05,0.000180709,-0.00557911,-0.0152959,-0.0576635,5041,4932,0
353603720,353603324,4259850,4325386,-0.000946163,0.000300976,0.000623084,-0.00887817,-0.0168096,-0.0555714,4990,4959,0
354102171,354102052,4259850,4325386,-0.00126728,0.000304141,-0.000521342,-0.0139827,-0.0108928,-0.0582593,4987,4934,0
354601157,354601011,4259850,4325386,0.000965593,-0.000163303,-0.000708549,-0.00232455,0.000856057,-0.0466896,4968,4927,0
355104624,355104502,4259850,4325386,-0.000907216,0.000684851,0.000247412,-0.00743462,-0.00453924,-0.0580076,4989,4970,0
355603345,355603233,4259850,4325386,0.00146344,-0.000192722,-0.00066164,-0.00511003,-0.000446543,-0.0491508,4987,4928,0
356102229,356102112,4259850,4325386,0.000808635,-0.000356913,-0.000565514,0.00135195,-0.00770197,-0.043107,4999,4916,0
356605880,356605727,4259850,4325386,0.00010857,0.000150319,-8.83071e-06,-0.00317266,-0.00218201,-0.0540103,4987,4930,0
357104063,357103914,4259850,4325386,0.00132585,-0.000345055,-0.00098702,0.00964153,-0.0233371,-0.0365439,4973,4759,0
357602781,357602643,4259850,4325386,0.000886997,0.000298597,0.000107362,0.00726214,0.00981448,-0.0368806,4985,4926,0
358101496,358101376,4259850,4325386,-0.00103722,0.000284511,0.000827851,-0.00497197,-0.00862137,-0.0523872,4988,4787,0
358605244,358605123,4259850,4325386,-3.07307e-05,0.000421449,0.000700382,-0.00257975,0.00272808,-0.0505494,4933,4924,0
359104349,359104184,4259850,4325386,0.00124605,5.26587e-05,-0.000479229,0.000703155,-0.0205398,-0.0444852,4816,4935,0
359602666,359602554,4259850,4325386,-0.000122163,0.000135392,0.000923071,0.00164349,-0.00322251,-0.0458903,4975,4924,0
360106936,360106811,4259850,4325386,-0.00116658,0.000718633,0.000947379,-0.00783381,0.026418,-0.0525505,4983,4928,0
360605657,360605502,4259850,4325386,0.00113926,0.00030586,-0.000295598,-0.00911948,-0.0150026,-0.051138,4983,4927,0
361104344,361104234,4259850,4325386,1.35617e-05,-0.0001944,0.00018055,0.0082902,-0.00459335,-0.0423525,4988,4973,0
361603313,361603162,4259850,4325386,-0.000512833,-0.000112071,-0.000509134,-0.011654,0.0041209,-0.0538045,4951,4927,0
362101862,362101697,4259850,4325386,0.00133722,-0.000409075,-0.000449491,0.00723044,-0.00516151,-0.038763,4990,4980,0
362605449,362605263,4259850,4325386,-0.000333699,-0.000260701,-0.000244606,-0.00585201,0.00612793,-0.0497296,4976,4952,0
363103752,363103645,4259850,4325386,0.00114505,-0.000302983,-0.000629604,0.00860785,0.00030462,-0.0391586,4986,4926,0
363603037,363602900,4259850,4325386,-0.000367346,1.02637e-05,0.000217445,0.00842191,0.00506988,-0.0397825,4983,4929,0
364101801,364101613,4259850,4325386,-0.00149194,0.000387686,0.000555558,-0.0064265,0.0128589,-0.0545439,4995,4970,0
364600454,364600336,4259850,4325386,-0.000377855,0.00018467,0.000560243,-0.0128403,0.0164024,-0.0602516,4986,4930,0
365104469,365104245,4259850,4325386,0.00013947,1.98261e-05,6.38512e-05,0.00214707,0.0103888,-0.0406528,4963,4962,0
365602931,365602785,4259850,4325386,0.000557642,0.000288005,0.000275112,0.0033757,0.0174703,-0.044942,4988,4979,0
366106459,366106344,4259850,4325386,-0.000860051,-0.00010911,0.00027182,-0.0130337,-0.0103437,-0.0613143,4993,4928,0
366604861,366604739,4259850,4325386,-0.00187258,-2.08238e-05,9.65922e-05,-0.0154597,-0.00964902,-0.0586011,4987,4927,0
367104177,367104039,4259850,4325386,-0.000264443,0.000162059,6.03795e-05,-0.00975801,-0.00579798,-0.0535888,5040,4929,0
367607877,367607687,4259850,4325386,-0.000552,-6.51912e-06,0.000232409,-0.00980818,0.000860853,-0.0578741,4986,4932,0
368101539,368101428,4259850,4325386,0.000512667,0.000271395,0.000239937,0.00888409,0.00150485,-0.0372132,4977,4920,0
368606227,368605703,4259850,4325386,-0.000541267,0.000142185,-0.000311368,-0.0118841,0.000750311,-0.0667509,4994,5917,0
369104609,369104468,4259850,4325386,0.000588004,7.38026e-05,-0.000505267,-0.00874701,-0.0150847,-0.0552598,4969,4970,0
369604297,369603692,4259850,4325386,0.000757721,0.000448095,-0.000330522,-0.00359662,-0.0193098,-0.051196,4966,4931,0
370102833,370102689,4259850,4325386,0.00169184,-7.56909e-05,-0.000334567,0.00306725,-0.0124869,-0.0416783,4990,4928,0
370606236,370606100,4259850,4325386,-0.00113046,-0.000153974,8.96034e-05,-0.0131554,-0.0169125,-0.0591762,4987,4928,0
371104981,371104872,4259850,4325386,0.00151633,-0.00038149,-0.000977162,0.00238052,-0.0275812,-0.0450974,5029,4917,0
371603741,371603631,4259850,4325386,0.000569103,1.25327e-05,0.000606099,0.0071779,0.00600234,-0.0421221,5013,4909,0
372102011,372101870,4259850,4325386,-0.000629953,0.000495438,0.000951523,-0.00235586,0.00824835,-0.0496451,5058,4944,0
372605681,372605533,4259850,4325386,0.00036977,-8.82511e-05,-0.000594812,-0.000999453,0.0106433,-0.0426945,4951,4948,0
373104352,373104200,4259850,4325386,-5.94648e-05,-0.000435111,-0.000173711,0.00284362,0.0113602,-0.0406194,4978,4924,0
373603036,373602925,4259850,4325386,-0.000605979,0.000230454,0.000812533,-0.0066739,0.00375834,-0.0539153,4983,4978,0
374105400,374105266,4259850,4325386,-0.00121132,-0.000420391,0.000482364,-0.00110278,0.0178652,-0.0454868,4939,4654,0
374603994,374603872,4259850,4325386,0.00050049,-0.000312861,-0.000412051,-0.00480204,0.00686705,-0.0484908,4977,4992,0
375102828,375102717,4259850,4325386,9.15295e-05,6.88092e-05,-0.000290366,-0.000553681,-0.00232962,-0.0456413,4977,4922,0
375601488,375601340,4259850,4325386,0.00163243,-0.000151695,-0.0008471,0.00524857,-0.0220792,-0.0442391,4988,4928,0
376105509,376105331,4259850,4325386,0.000466926,0.000262029,0.000832425,0.00506494,0.00520235,-0.0577205,5256,6002,0
376603900,376603788,4259850,4325386,-0.000663171,0.000579624,0.00163026,-0.0022989,0.0241707,-0.0489834,4987,4959,0
377102723,377102522,4259850,4325386,-0.00143058,0.000483702,0.000836737,-0.00660667,-0.00475877,-0.0533512,4988,4981,0
377605918,377605789,4259850,4325386,-0.000601983,6.46608e-05,0.00037608,-0.00113926,-0.00647718,-0.0543081,4987,4975,0
378104678,378104517,4259850,4325386,-0.0018072,0.000462809,0.00033463,-0.0148584,0.0179194,-0.0585803,4987,4939,0
378603433,378603267,4259850,4325386,0.00137387,-7.88832e-05,-0.000511962,-0.00659243,-0.0257925,-0.0504632,4977,4929,0
379101605,379101463,4259850,4325386,0.000694286,7.81115e-05,0.000213288,0.00869238,-0.0195189,-0.0403532,4989,4964,0
379605326,379605147,4259850,4325386,0.000594068,-0.000217276,-0.000510032,0.00380034,0.0137936,-0.0411316,4949,4928,0
380104024,380103881,4259850,4325386,-0.00011037,0.000216081,-6.75703e-05,0.00473526,0.0198394,-0.042172,4988,4976,0
380602721,380602611,4259850,4325386,-0.000981412,-0.000355406,0.000556421,0.00211446,0.000606843,-0.0483947,4987,4974,0
381105956,381105825,4259850,4325386,0.00175713,-0.000664523,-0.000879969,0.00954586,-0.0334878,-0.0410843,4926,4928,0
381604904,381604731,4259850,4325386,0.000982583,-0.000540064,-0.000925499,0.00366473,-0.00532052,-0.0513774,4993,5804,0
382103429,382103293,4259850,4325386,0.00163026,-0.000598458,-0.000774259,0.011619,-0.0204237,-0.0306004,4987,3926,0
382602394,382602169,4259850,4325386,-0.000105735,-0.000543108,-0.000185389,0.00114829,0.00730286,-0.0515513,4963,5916,0
383105860,383105745,4259850,4325386,0.00172051,-0.000120763,-0.000707646,0.00218429,-0.0164453,-0.0408083,4990,4775,0
383604583,383604472,4259850,4325386,0.00137192,-0.000530201,-0.00112725,0.0109992,-0.0294876,-0.0385701,4985,4928,0
384103405,384103290,4259850,4325386,0.00106473,-0.000107759,-0.000850226,0.008728,-0.00819416,-0.0378016,4991,4928,0
384607543,384607423,4259850,4325386,-0.00114612,-0.000167211,0.000162733,-0.00317628,0.00221858,-0.0492631,4991,4970,0
385101451,385101338,4259850,4325386,0.000253695,-0.000379433,1.62758e-05,-0.00508239,-0.0173483,-0.0513007,4967,4929,0
385600083,385599896,4259850,4325386,-0.00163034,0.000536614,0.00060381,-0.0132796,0.00699227,-0.0558422,4981,4988,0
386103868,386103629,4259850,4325386,0.000894687,-0.000504378,-0.000687271,0.00569948,-0.0044843,-0.0404805,4990,4923,0
386602761,386602538,4259850,4325386,-0.00107718,-4.2733e-05,0.000343126,0.00215836,0.00566329,-0.0432815,4970,4981,0
387106252,387106060,4259850,4325386,0.00238777,-0.000624401,-0.00101275,0.00281377,-0.0250901,-0.0514399,4987,5687,0
387604902,387604791,4259850,4325386,0.000102231,-0.000421616,-0.00108532,0.00217218,-0.0239763,-0.0462043,4988,4971,0
388103647,388103522,4259850,4325386,0.000191893,-0.000319828,-0.000550974,-0.00299871,0.00633388,-0.0441161,4987,4972,0
388602009,388601899,4259850,4325386,-0.000121135,9.15445e-05,5.14273e-05,-0.00105675,0.012616,-0.0445887,4984,4928,0
389101260,389100510,4259850,4325386,-0.00049599,0.000324598,0.000194478,-0.0120566,0.00978453,-0.0584454,5011,4907,0
389604451,389604318,4259850,4325386,-0.00060201,-2.27027e-05,0.000132397,-0.000113758,-0.00931116,-0.0460762,4962,4927,0
390103039,390102933,4259850,4325386,-0.000738242,-0.000245649,0.00061795,-0.00249464,-0.00118154,-0.050475,4987,4927,0
390601773,390601664,4259850,4325386,-0.00030785,-0.000147885,-0.000329004,-0.00878557,-0.0152024,-0.0516806,4983,4966,0
391105562,391105449,4259850,4325386,0.000229596,9.07065e-05,-0.000124213,0.00180805,-0.0153838,-0.0469849,4936,4926,0
391604542,391604146,4259850,4325386,4.15516e-06,-6.12016e-05,3.78906e-05,0.0038144,0.0128747,-0.0424658,4970,4973,0
