timestamp,yaw_composite,yaw_variance,yaw[0],yaw[1],yaw[2],yaw[3],yaw[4],innov_vn[0],innov_vn[1],innov_vn[2],innov_vn[3],innov_vn[4],innov_ve[0],innov_ve[1],innov_ve[2],innov_ve[3],innov_ve[4],weight[0],weight[1],weight[2],weight[3],weight[4]
143443365,2.941,3.73601,-2.51327,-1.25664,0.0,1.25664,2.51327,0.0,0.0,0.0,0.0,0.0,0.0,0.0,0.0,0.0,0.0,0.2,0.2,0.2,0.2,0.2
143453297,2.37306,3.57274,-2.5132,-1.25657,7.12043e-05,1.25671,2.51335,0.0,0.0,0.0,0.0,0.0,0.0,0.0,0.0,0.0,0.0,0.2,0.2,0.2,0.2,0.2
143642010,-0.326421,3.65909,-2.51326,-1.25663,-8.02178e-05,1.25651,2.5132,0.0386568,0.0335231,0.0359584,0.042597,0.0442648,0.0376472,0.0334186,0.0272296,0.0276331,0.0340715,0.19998,0.200021,0.200033,0.2,0.199967
143840650,-1.57356,3.65333,-2.51274,-1.25618,0.000426922,1.25712,2.51383,0.0352825,0.0407699,0.0443724,0.041112,0.0354941,0.0311491,0.029144,0.0337429,0.0385904,0.0369876,0.200021,0.200038,0.200002,0.199963,0.199975
144039446,3.02359,3.8108,-2.51301,-1.25643,0.000529569,1.25743,2.5139,0.0333029,0.0500402,0.0377887,0.013474,0.0107022,0.00875335,0.0270759,0.048658,0.043675,0.0190091,0.20011,0.19994,0.199853,0.199969,0.200128
144247877,-3.05942,3.8507,-2.51248,-1.25593,0.000946315,1.25782,2.51436,-0.0137642,-0.00999233,-0.0179229,-0.0265955,-0.0240225,-0.0265595,-0.0169975,-0.0104542,-0.0159771,-0.0259292,0.200099,0.199978,0.199887,0.199952,0.200083
144446525,-2.81286,3.64072,-2.51317,-1.25673,0.000160274,1.25716,2.51376,0.00601449,-0.0079427,-0.0296535,-0.0291066,-0.00706386,-0.00366202,0.0146286,0.0070035,-0.0159999,-0.0225869,0.200153,0.200009,0.199853,0.1999,0.200086
144640197,-2.82605,3.64834,-2.51394,-1.25749,-0.000583767,1.25641,2.513,0.00601449,-0.0079427,-0.0296535,-0.0291066,-0.00706386,-0.00366202,0.0146286,0.0070035,-0.0159999,-0.0225869,0.200153,0.200009,0.199853,0.1999,0.200086
145439722,2.941,3.73601,-2.51327,-1.25664,0.0,1.25664,2.51327,0.0,0.0,0.0,0.0,0.0,0.0,0.0,0.0,0.0,0.0,0.2,0.2,0.2,0.2,0.2
145449654,2.51468,3.55307,-2.51469,-1.25805,-0.00141244,1.25522,2.51186,0.0,0.0,0.0,0.0,0.0,0.0,0.0,0.0,0.0,0.0,0.2,0.2,0.2,0.2,0.2
145638442,-2.8526,3.6664,-2.51385,-1.25735,-0.000543571,1.25633,2.51295,0.0500507,0.0649289,0.0716134,0.0608666,0.0475403,0.0218582,0.0196638,0.0331357,0.043656,0.0366863,0.200099,0.2,0.199901,0.199938,0.200061
145837008,-2.9417,3.73482,-2.51363,-1.25711,-0.000258178,1.25663,2.51321,0.0202333,0.0239148,0.024017,0.020398,0.0180601,-0.00167024,-0.000581597,0.00325668,0.0045394,0.00149428,0.200104,0.199992,0.199891,0.199941,0.200073
146040617,-2.83674,3.65495,-2.51383,-1.25741,-0.000485236,1.25656,2.51315,0.00226502,0.0238378,0.0278052,0.00867481,-0.00710426,-0.000336703,0.00250139,0.0239014,0.0342828,0.0192984,0.200169,0.200005,0.199834,0.199892,0.2001
146239258,-2.75484,3.6097,-2.5117,-1.25532,0.00159507,1.25866,2.51528,0.0170588,0.0147813,0.0145028,0.016611,0.0181895,-0.0413958,-0.0418434,-0.0441493,-0.0451258,-0.0434225,0.200181,0.200021,0.199831,0.199875,0.200091
146437985,-2.75405,3.6098,-2.51074,-1.25436,0.00255375,1.25962,2.51624,0.0170588,0.0147813,0.0145028,0.016611,0.0181895,-0.0413958,-0.0418434,-0.0441493,-0.0451258,-0.0434225,0.200181,0.200021,0.199831,0.199875,0.200091
146636543,-2.48242,3.55032,-2.50706,-1.25092,0.00583089,1.26304,2.51992,0.0180831,0.00824471,0.0156686,0.0301038,0.0315888,-0.00575739,-0.0167586,-0.0295216,-0.026399,-0.0117085,0.200252,0.200076,0.199795,0.199798,0.20008
146835185,-3.09232,3.90098,-2.49844,-1.2421,0.0151233,1.27242,2.52888,0.0462948,0.0541713,0.0361301,0.0170923,0.0233867,0.0186731,0.040198,0.0543506,0.0415552,0.0195024,0.200289,0.199896,0.199647,0.199885,0.200282
147043760,-0.822025,3.71126,-2.48422,-1.2282,0.0272721,1.2838,2.54153,-0.109447,-0.0833788,-0.0951335,-0.128485,-0.137304,-0.0885712,-0.0677539,-0.0365079,-0.0380556,-0.070235,0.199955,0.200447,0.200321,0.199751,0.199525
147242427,-2.66543,3.56917,-2.48697,-1.23211,0.0258057,1.28501,2.54196,0.0675137,0.132694,0.143283,0.0846292,0.0377425,0.0089476,0.0190453,0.0841302,0.114363,0.0678676,0.201106,0.200158,0.198993,0.199219,0.200524
147436079,-2.67889,3.56921,-2.50039,-1.24552,0.0123917,1.2716,2.52854,0.0675137,0.132694,0.143283,0.0846292,0.0377425,0.0089476,0.0190453,0.0841302,0.114363,0.0678676,0.201106,0.200158,0.198993,0.199219,0.200524
147639690,0.212681,3.57105,-2.51624,-1.25715,-0.00365205,1.24859,2.50565,-0.2109,-0.158897,-0.157555,-0.208933,-0.241803,-0.292151,-0.276644,-0.222277,-0.204284,-0.247569,0.198099,0.200205,0.202035,0.201046,0.198615
147838330,2.72735,3.5737,-2.52843,-1.27134,-0.0100704,1.249,2.5025,0.101004,0.172756,0.138822,0.0460529,0.022706,-0.0190499,0.0399459,0.126444,0.120879,0.0309378,0.20105,0.198662,0.198124,0.200173,0.20199
148036973,2.73428,3.47747,-2.53893,-1.28057,-0.00340745,1.26419,2.50707,0.256573,0.363446,0.329065,0.20096,0.156702,0.0354239,0.105878,0.22957,0.234633,0.114831,0.204747,0.193974,0.191549,0.200702,0.209027
148235618,-3.07629,3.68,-2.5336,-1.28737,-0.0097976,1.27025,2.52028,-0.0424495,0.0998224,0.0817932,-0.0722265,-0.145939,0.0643161,0.127443,0.284074,0.312704,0.177501,0.21029,0.197025,0.188091,0.195369,0.209225
148439223,-3.07737,3.68002,-2.53468,-1.28845,-0.0108751,1.26917,2.51921,-0.0424495,0.0998224,0.0817932,-0.0722265,-0.145939,0.0643161,0.127443,0.284074,0.312704,0.177501,0.21029,0.197025,0.188091,0.195369,0.209225
148642832,-3.11067,3.56179,-2.54522,-1.30623,-0.00958689,1.2894,2.53189,0.244225,0.397333,0.393474,0.23163,0.143766,-0.0377987,0.0157023,0.182175,0.226213,0.0876008,0.218888,0.193557,0.177876,0.191897,0.217781
148841481,3.00481,3.44209,-2.55099,-1.30449,0.000262805,1.29654,2.52935,0.0564829,0.210323,0.231231,0.0815521,-0.019565,-0.212747,-0.185805,-0.0247562,0.0389987,-0.0805317,0.217673,0.189253,0.17633,0.19513,0.221614
149040118,3.05309,3.47642,-2.5483,-1.30449,-7.63498e-05,1.29875,2.53341,-0.0525752,0.0803755,0.114865,-0.00439775,-0.10149,-0.0455181,-0.0398172,0.0941825,0.162924,0.0738204,0.218932,0.190012,0.175649,0.193878,0.22153
149238760,3.08246,3.42275,-2.55218,-1.31309,0.00100851,1.31063,2.542,0.158836,0.282553,0.304821,0.187852,0.103834,0.0308453,0.0462466,0.174173,0.229563,0.138549,0.223881,0.188376,0.170143,0.191549,0.226052
149437438,3.0452,3.39505,-2.59557,-1.35788,-0.0399477,1.2736,2.50347,0.11268,0.185351,0.199127,0.129766,0.0807653,0.0174795,0.0257012,0.101328,0.134073,0.0803451,0.225708,0.187597,0.168029,0.190772,0.227894
149636045,2.93963,3.32464,-2.73674,-1.50689,-0.176743,1.15139,2.377,-0.216495,-0.319353,-0.314622,-0.20251,-0.14938,-0.162427,-0.198253,-0.313177,-0.337343,-0.242933,0.232094,0.185791,0.161297,0.187515,0.233303
149839653,3.01281,2.8441,-2.90722,-1.72176,-0.374246,1.01137,2.24859,0.0258691,-0.388707,-0.40433,0.0364357,0.266758,0.0467049,-0.0621706,-0.520541,-0.644913,-0.285083,0.259446,0.191338,0.141941,0.166667,0.240608
150043262,2.85629,1.9097,-3.12814,-2.02898,-0.587527,0.944599,2.16147,-0.14404,-0.85279,-0.922136,-0.126195,0.267119,0.1467,-0.0106554,-0.818992,-1.05594,-0.412753,0.33854,0.174792,0.0813808,0.121002,0.284285
150241938,2.7119,1.07609,2.93824,-2.35308,-0.82022,0.886203,2.08799,-0.137937,-0.929302,-1.13725,-0.132252,0.279091,0.0835539,0.0194907,-0.960731,-1.27186,-0.506264,0.438262,0.147678,0.0313687,0.0659936,0.316698
150440547,2.53435,1.07599,2.76068,-2.53087,-0.997967,0.70864,1.91046,-0.137937,-0.929302,-1.13725,-0.132252,0.279091,0.0835539,0.0194907,-0.960731,-1.27186,-0.506264,0.438262,0.147678,0.0313687,0.0659936,0.316698
150639191,2.36073,0.634015,2.55344,-2.82528,-1.20505,0.652477,1.82959,-0.239633,-0.949578,-1.27322,-0.209522,0.122654,-0.0114998,0.026421,-0.947128,-1.27588,-0.500819,0.511703,0.111982,0.00946591,0.0325225,0.334326
150837832,2.14744,0.393463,2.33182,-3.09817,-1.37425,0.603133,1.72964,-0.126893,-0.607652,-1.03383,-0.164204,0.0650191,0.0175411,0.200081,-0.529042,-0.877431,-0.288891,0.556517,0.0674345,0.00184908,0.0150906,0.359109
151036620,1.98839,0.393472,2.17275,3.02604,-1.53328,0.444053,1.57065,-0.126893,-0.607652,-1.03383,-0.164204,0.0650191,0.0175411,0.200081,-0.529042,-0.877431,-0.288891,0.556517,0.0674345,0.00184908,0.0150906,0.359109
151240087,1.81917,0.31078,1.98504,2.80553,-1.70587,0.347988,1.4561,-0.205629,-0.521069,-0.92476,-0.300061,-0.100799,-0.00560677,0.200969,-0.276933,-0.633936,-0.210868,0.578396,0.0498748,0.000608422,0.00862069,0.3625
151438725,1.66279,0.310796,1.82862,2.64927,-1.86216,0.191565,1.29976,-0.205629,-0.521069,-0.92476,-0.300061,-0.100799,-0.00560677,0.200969,-0.276933,-0.633936,-0.210868,0.578396,0.0498748,0.000608422,0.00862069,0.3625
151637368,1.49588,0.278936,1.65426,2.47131,-2.01712,0.0746015,1.16634,-0.206461,-0.391799,-0.704415,-0.320816,-0.156203,0.126757,0.310027,0.0470472,-0.27048,-0.000559479,0.583879,0.0406418,0.000330323,0.00670225,0.368447
151836118,1.34075,0.278954,1.49912,2.3163,-2.17213,-0.0805377,1.01124,-0.206461,-0.391799,-0.704415,-0.320816,-0.156203,0.126757,0.310027,0.0470472,-0.27048,-0.000559479,0.583879,0.0406418,0.000330323,0.00670225,0.368447
152034653,1.26012,0.26821,1.40795,2.21642,-2.26737,-0.167122,0.941597,-0.107458,-0.185997,-0.245528,-0.104924,-0.069556,-0.216858,-0.147683,-0.268304,-0.365205,-0.249426,0.589797,0.0400376,0.000273902,0.00569757,0.364194
152238312,1.24982,0.268228,1.39765,2.20611,-2.27765,-0.177412,0.931307,-0.107458,-0.185997,-0.245528,-0.104924,-0.069556,-0.216858,-0.147683,-0.268304,-0.365205,-0.249426,0.589797,0.0400376,0.000273902,0.00569757,0.364194
152441870,1.26096,0.265657,1.40957,2.22182,-2.25238,-0.159957,0.95028,-0.239738,-0.257149,-0.0292352,-0.052965,-0.184063,-0.127689,-0.196351,-0.272183,-0.0835756,-0.0755033,0.58564,0.0389091,0.000271918,0.00586981,0.369309
152640649,1.24868,0.229288,1.39777,2.16336,-2.23452,-0.0731954,0.976287,-0.158317,-0.0635156,0.881376,0.484469,-0.0518579,-0.175925,-0.575247,-0.59552,0.29169,0.0634991,0.576364,0.029873,0.000110974,0.00487364,0.388778
152839157,1.33454,0.201403,1.47146,2.18237,-2.19353,0.0813134,1.08096,0.0142172,0.136006,1.30484,0.736529,0.122109,-0.0368949,-0.511869,-0.506827,0.564073,0.244045,0.585596,0.0262524,3.97696e-05,0.0032311,0.384881
153037800,1.4847,0.17765,1.61408,2.28053,-2.05443,0.31224,1.25474,-0.00994331,0.147902,1.38833,0.616764,0.0611587,-0.165163,-0.618073,-0.53035,0.541127,0.119645,0.586002,0.0216328,1.23697e-05,0.00234998,0.390003
153241407,1.66786,0.177676,1.79726,2.46362,-1.87138,0.495569,1.43786,-0.00994331,0.147902,1.38833,0.616764,0.0611587,-0.165163,-0.618073,-0.53035,0.541127,0.119645,0.586002,0.0216328,1.23697e-05,0.00234998,0.390003
153440115,1.84731,0.157529,1.96993,2.59867,-1.70016,0.747981,1.63809,-0.0586505,0.194437,1.4985,0.355987,-0.0585636,-0.181581,-0.593948,-0.227713,0.682,0.105716,0.584648,0.0179441,3.6651e-06,0.00178081,0.395624
153633726,1.99863,0.138518,2.11427,2.70414,-1.55569,0.975774,1.81011,-0.00962436,0.355975,1.66628,0.12639,-0.0901314,-0.218218,-0.568823,0.17684,0.773254,0.0594258,0.58182,0.014512,8.2832e-07,0.00134096,0.402326
153832368,2.15576,0.119571,2.26173,2.80213,-1.41391,1.22649,1.99005,0.152236,0.580168,1.94042,0.0921442,0.0249893,-0.152052,-0.470739,0.554284,0.900308,0.112971,0.579661,0.0112087,9.45635e-08,0.000915997,0.408214
154040944,2.2966,0.0959783,2.39029,2.87145,-1.27237,1.50156,2.16198,0.141413,0.434141,1.76883,0.0318735,0.0520111,-0.152448,-0.434103,0.44065,0.656515,0.0401182,0.569152,0.00724941,1.85624e-09,0.000572876,0.423026
154239661,2.45332,0.0905866,2.5417,3.00496,-1.13444,1.68886,2.325,0.0800546,0.272966,1.48307,0.0374212,0.0285859,0.0203397,-0.238577,0.37272,0.664864,0.176634,0.572399,0.00683572,5.43526e-10,0.000461039,0.420304
154438234,2.60504,0.0906077,2.69342,-3.12639,-0.982783,1.84071,2.47672,0.0800546,0.272966,1.48307,0.0374212,0.0285859,0.0203397,-0.238577,0.37272,0.664864,0.176634,0.572399,0.00683572,5.43526e-10,0.000461039,0.420304
154636870,2.7645,0.0858674,2.84727,-2.9885,-0.844913,2.02746,2.64159,0.115618,0.15972,1.02297,0.186669,0.11725,0.0304566,-0.163964,-0.0315455,0.41206,0.128184,0.577943,0.00663185,1.61342e-10,0.000362038,0.415063
154840480,2.91724,0.0845976,2.99831,-2.84204,-0.695804,2.1911,2.79632,0.130466,0.145088,0.88079,0.214201,0.14087,-0.00487265,-0.173199,-0.135044,0.303783,0.0753932,0.579128,0.00653287,1.0791e-10,0.000340068,0.413999
155039122,3.07161,0.0836819,-3.13178,-2.69222,-0.54212,2.35611,2.95249,0.169148,0.156458,0.779504,0.270674,0.188399,-0.068774,-0.215778,-0.270668,0.176248,-0.00297734,0.579562,0.00641582,7.71676e-11,0.00032732,0.413695
155237765,-3.05909,0.0828713,-2.98117,-2.54696,-0.395304,2.51854,3.10659,0.292267,0.282676,0.829594,0.370303,0.307524,0.0419872,-0.0852359,-0.117441,0.257344,0.0986736,0.581739,0.00644344,5.62667e-11,0.000308954,0.411508
155436408,-2.98825,0.0822107,-2.91164,-2.48122,-0.326022,2.59895,-3.10416,0.281257,0.271262,0.768604,0.348675,0.294978,-0.0425346,-0.157372,-0.188636,0.151782,0.00803146,0.582593,0.0063974,4.23868e-11,0.000298966,0.41071
155640016,-2.98519,0.0822292,-2.90856,-2.47902,-0.322512,2.60111,-3.10112,0.281257,0.271262,0.768604,0.348675,0.294978,-0.0425346,-0.157372,-0.188636,0.151782,0.00803146,0.582593,0.0063974,4.23868e-11,0.000298966,0.41071
155838662,-3.00467,0.081188,-2.93015,-2.50725,-0.343378,2.59686,-3.11789,0.232689,0.243322,0.65295,0.247284,0.23429,0.00247823,-0.0852722,-0.0224411,0.171609,0.0430213,0.583677,0.0063234,2.6657e-11,0.000285469,0.409714
156037301,-3.02854,0.0812082,-2.95403,-2.53116,-0.367279,2.57299,3.14142,0.232689,0.243322,0.65295,0.247284,0.23429,0.00247823,-0.0852722,-0.0224411,0.171609,0.0430213,0.583677,0.0063234,2.6657e-11,0.000285469,0.409714
156240911,-3.05203,0.0808739,-2.97811,-2.55743,-0.38803,2.55584,3.11911,0.313343,0.329719,0.648876,0.299803,0.309678,-0.037432,-0.101701,0.00255944,0.100129,-0.00653242,0.583244,0.006253,2.24772e-11,0.000285214,0.410218
156439552,-3.07326,0.0805016,-2.99947,-2.57997,-0.398085,2.54253,3.09945,0.286419,0.316606,0.425618,0.208088,0.270631,-0.0873713,-0.0978594,0.109798,-0.020878,-0.0780658,0.580792,0.00608168,1.91922e-11,0.000296309,0.41283
156638201,-3.08138,0.0805214,-3.00758,-2.5881,-0.406207,2.53441,3.09133,0.286419,0.316606,0.425618,0.208088,0.270631,-0.0873713,-0.0978594,0.109798,-0.020878,-0.0780658,0.580792,0.00608168,1.91922e-11,0.000296309,0.41283
156841804,-3.09751,0.0800514,-3.0232,-2.60455,-0.404098,2.52564,3.07695,0.387771,0.431194,0.363854,0.255772,0.361476,0.0746202,0.108698,0.407078,0.0840321,0.0665639,0.576132,0.00580287,1.69264e-11,0.000319412,0.417745
157040446,-3.10445,0.0797467,-3.02986,-2.61144,-0.403745,2.52158,3.0707,0.275525,0.331318,0.200753,0.112764,0.242174,-0.0490608,0.00239338,0.366017,-0.0554374,-0.062954,0.574091,0.00568142,1.60158e-11,0.000329522,0.419898
157239091,-3.10747,0.0794058,-3.03254,-2.61385,-0.399699,2.52082,3.0682,0.28417,0.345181,0.165147,0.105824,0.247412,-0.125033,-0.0612815,0.331546,-0.146155,-0.143488,0.57218,0.00557853,1.56134e-11,0.000340292,0.421901
157437731,-3.10615,0.0794255,-3.03122,-2.61253,-0.39837,2.52214,3.06952,0.28417,0.345181,0.165147,0.105824,0.247412,-0.125033,-0.0612815,0.331546,-0.146155,-0.143488,0.57218,0.00557853,1.56134e-11,0.000340292,0.421901
157641340,-3.10739,0.0789851,-3.03218,-2.61402,-0.392779,2.52416,3.06906,0.257929,0.323064,0.0959308,0.0662765,0.218304,-0.0353105,0.0399661,0.456174,-0.0707368,-0.0580943,0.570013,0.0054412,1.43455e-11,0.000350209,0.424196
157839982,-3.11624,0.0781456,-3.04032,-2.62299,-0.385582,2.52183,3.06184,0.231931,0.28753,0.0187362,0.054849,0.196205,-0.036225,0.0444591,0.417353,-0.091169,-0.0625973,0.564965,0.00513709,1.21294e-11,0.00037486,0.429523
158038781,-3.11605,0.0777321,-3.03991,-2.62286,-0.380537,2.52432,3.06256,0.242616,0.302604,0.0124007,0.0567108,0.204612,-0.0682264,0.0179404,0.41057,-0.128139,-0.0963504,0.563375,0.00504407,1.14324e-11,0.000382942,0.431198
158237268,-3.11569,0.0773467,-3.0395,-2.62284,-0.377924,2.52644,3.06327,0.187358,0.246865,-0.0350454,0.00693315,0.150135,-0.0977716,-0.01431,0.369248,-0.15521,-0.124842,0.562527,0.00499101,1.08597e-11,0.000386835,0.432096
158435913,-3.11618,0.0773664,-3.03998,-2.62333,-0.378411,2.52595,3.06279,0.187358,0.246865,-0.0350454,0.00693315,0.150135,-0.0977716,-0.01431,0.369248,-0.15521,-0.124842,0.562527,0.00499101,1.08597e-11,0.000386835,0.432096
158639520,-3.11738,0.0770419,-3.04096,-2.62344,-0.374214,2.52803,3.06224,0.242382,0.291544,0.0178699,0.0831664,0.210277,0.0200509,0.0986092,0.429685,-0.0406245,-0.006312,0.560613,0.00487897,1.01138e-11,0.00039632,0.434111
158838284,-3.12369,0.0764494,-3.04678,-2.62958,-0.37069,2.52555,3.05689,0.239431,0.280813,0.0122594,0.0987028,0.211437,0.0409199,0.115398,0.402181,-0.0224015,0.0152566,0.557373,0.00469878,9.09958e-12,0.000413516,0.437515
159036805,-3.12262,0.0762301,-3.04559,-2.62832,-0.367402,2.52738,3.05815,0.203869,0.243625,-0.0218736,0.0684988,0.176906,-0.0881543,-0.0152347,0.259779,-0.151309,-0.113374,0.556687,0.00466635,8.9962e-12,0.000418066,0.438229
159240427,-3.12303,0.0762498,-3.046,-2.62874,-0.367819,2.52696,3.05773,0.203869,0.243625,-0.0218736,0.0684988,0.176906,-0.0881543,-0.0152347,0.259779,-0.151309,-0.113374,0.556687,0.00466635,8.9962e-12,0.000418066,0.438229
159439057,-3.12555,0.0760573,-3.04846,-2.63148,-0.368573,2.5256,3.05547,0.14905,0.17957,-0.0787646,0.0318199,0.126551,-0.0103145,0.0585385,0.287032,-0.0764341,-0.0350119,0.556019,0.00462646,8.66441e-12,0.000421212,0.438933
159637778,-3.13162,0.0757856,-3.05391,-2.63651,-0.36459,2.52172,3.05009,0.295683,0.322837,0.0928882,0.192764,0.275812,0.054676,0.115605,0.316455,-0.0040397,0.0328448,0.552918,0.00447523,8.29327e-12,0.000440387,0.442167
159836342,-3.13598,0.0757082,-3.05805,-2.64054,-0.365308,2.5182,3.046,0.205458,0.222317,0.031138,0.128636,0.191418,0.0896299,0.138902,0.28158,0.0380061,0.0713416,0.551779,0.00442022,8.13923e-12,0.000447473,0.443354
160034986,-3.13621,0.0757279,-3.05827,-2.64077,-0.365537,2.51797,3.04577,0.205458,0.222317,0.031138,0.128636,0.191418,0.0896299,0.138902,0.28158,0.0380061,0.0713416,0.551779,0.00442022,8.13923e-12,0.000447473,0.443354
160238593,-3.13694,0.0756796,-3.0589,-2.64116,-0.364879,2.51725,3.04506,0.19448,0.206895,0.0232738,0.127491,0.182732,-0.0440964,0.00223821,0.120779,-0.0958096,-0.061725,0.551429,0.00440981,8.24686e-12,0.000450816,0.44371
160437277,-3.13796,0.0756377,-3.05978,-2.64163,-0.364022,2.51604,3.04404,0.246928,0.255071,0.0560184,0.184473,0.236684,-0.0340912,0.0148101,0.115537,-0.093514,-0.0533196,0.550981,0.00439842,8.45401e-12,0.000455392,0.444165
160640844,-3.13946,0.0756077,-3.06112,-2.64271,-0.363423,2.51463,3.04262,0.206872,0.20754,0.0277287,0.161237,0.200564,0.0557376,0.0984101,0.15922,-0.00172572,0.0381466,0.550407,0.00437689,8.53997e-12,0.000460055,0.444756
160839487,-3.14026,0.0755063,-3.06173,-2.64446,-0.361785,2.51339,3.0419,0.17232,0.166906,-0.0297069,0.134317,0.168318,0.0664512,0.111561,0.145559,-0.000302047,0.0470845,0.549788,0.00435018,8.51995e-12,0.00046458,0.445397
161038129,-3.13981,0.0754564,-3.06114,-2.64244,-0.358938,2.51505,3.04255,0.131958,0.119023,-0.0884745,0.104343,0.130995,0.161463,0.207389,0.208634,0.0866962,0.140808,0.548918,0.0043103,8.46935e-12,0.00047038,0.446302
161236779,-3.13824,0.0754761,-3.05956,-2.64086,-0.357363,2.51663,3.04413,0.131958,0.119023,-0.0884745,0.104343,0.130995,0.161463,0.207389,0.208634,0.0866962,0.140808,0.548918,0.0043103,8.46935e-12,0.00047038,0.446302
161435414,-3.13978,0.0754502,-3.06102,-2.64193,-0.358314,2.51443,3.04247,0.272621,0.259703,0.0496311,0.244959,0.271619,-0.000472136,0.0460142,0.0464679,-0.076142,-0.0213526,0.548902,0.00432175,8.80429e-12,0.000472594,0.446304
161639023,-3.14084,0.0754163,-3.0622,-2.64322,-0.360966,2.51313,3.04131,0.126648,0.113264,-0.0712418,0.105432,0.126645,-0.0996444,-0.0592188,-0.0676582,-0.167298,-0.118078,0.549439,0.00434925,8.89317e-12,0.000469615,0.445742
161837666,3.14053,0.0753261,-3.06401,-2.64509,-0.362516,2.51151,3.03953,0.0123212,-0.00641066,-0.18996,0.000616133,0.0147697,0.0270923,0.0660665,0.0317369,-0.0435601,0.00857647,0.549362,0.00434571,8.8655e-12,0.000470279,0.445822
162036365,-3.14083,0.0753458,-3.0622,-2.64328,-0.3607,2.51333,3.04135,0.0123212,-0.00641066,-0.18996,0.000616133,0.0147697,0.0270923,0.0660665,0.0317369,-0.0435601,0.00857647,0.549362,0.00434571,8.8655e-12,0.000470279,0.445822
162239917,-3.13485,0.0753071,-3.05622,-2.63731,-0.354857,2.51926,3.04731,0.122166,0.0946761,-0.0884579,0.124993,0.128521,0.038511,0.0753868,0.00088644,-0.0370746,0.019755,0.549433,0.0043507,8.90912e-12,0.000470165,0.445746
162438560,-3.13304,0.0752346,-3.05437,-2.63542,-0.352315,2.5212,3.04916,0.0653883,0.0544727,-0.108162,0.0464166,0.0651051,-0.00101648,0.0347283,0.0284682,-0.0604337,-0.0172004,0.549215,0.00434145,8.90784e-12,0.000471843,0.445972
162637207,-3.13439,0.0752542,-3.05572,-2.63677,-0.353665,2.51985,3.04781,0.0653883,0.0544727,-0.108162,0.0464166,0.0651051,-0.00101648,0.0347283,0.0284682,-0.0604337,-0.0172004,0.549215,0.00434145,8.90784e-12,0.000471843,0.445972
162835845,-3.13732,0.0752361,-3.05866,-2.63974,-0.356704,2.51695,3.04488,0.0810062,0.0737934,-0.0802119,0.0581422,0.0793739,-0.00927391,0.0252545,0.0330614,-0.0637606,-0.0244839,0.549251,0.0043432,8.90411e-12,0.000471658,0.445934
163039454,3.13895,0.0752356,-3.06555,-2.64657,-0.363304,2.51001,3.03797,0.096938,0.0915429,-0.0289536,0.0783652,0.0955254,0.0200311,0.04712,0.055046,-0.0223849,0.00813119,0.549169,0.00434064,8.93269e-12,0.000472425,0.446018
163233131,3.13421,0.0752488,-3.0702,-2.65101,-0.367004,2.50516,3.03325,0.166178,0.16153,0.0625126,0.151081,0.165094,0.0907013,0.112927,0.118898,0.0557676,0.0809095,0.548889,0.00433108,9.01872e-12,0.000474842,0.446305
163441708,3.13249,0.0752579,-3.0718,-2.6523,-0.367506,2.50313,3.03151,0.0886856,0.0740258,-0.00951755,0.0932117,0.0925006,0.088385,0.104766,0.0615565,0.052697,0.0797406,0.548592,0.00432387,9.20224e-12,0.000477882,0.446606
163640348,3.13196,0.0752669,-3.07233,-2.65278,-0.368255,2.5024,3.03093,0.127886,0.115914,0.0209281,0.125854,0.130189,-0.00358555,0.0160593,-0.0129535,-0.0415482,-0.0132393,0.548696,0.0043314,9.28789e-12,0.000477639,0.446495
163843957,3.1311,0.0752708,-3.07319,-2.65363,-0.369062,2.50154,3.03007,0.0539497,0.038549,-0.0518436,0.0585064,0.0579114,0.0334942,0.0513002,0.0056107,-0.00497368,0.024165,0.548684,0.00433115,9.29478e-12,0.000477784,0.446507
164042600,3.13164,0.0752754,-3.07263,-2.65296,-0.368446,2.50185,3.03057,0.124376,0.104426,-0.000423193,0.133335,0.129919,0.0643816,0.0845511,0.0214178,0.0184748,0.053496,0.548702,0.00433529,9.39874e-12,0.000478205,0.446485
164241292,3.1331,0.0752551,-3.07128,-2.65169,-0.368496,2.50298,3.03192,0.162639,0.130049,0.0159698,0.190051,0.173482,0.00465842,0.0241866,-0.0936943,-0.0516512,-0.00757032,0.549218,0.00436217,9.50329e-12,0.000475231,0.445945
164439886,3.13559,0.0752446,-3.0688,-2.64916,-0.366364,2.50521,3.03435,0.128743,0.100599,-0.0167959,0.148447,0.137542,0.0564181,0.0776854,-0.0197394,0.00154618,0.0440324,0.549373,0.00437268,9.61212e-12,0.000474723,0.44578
164638528,3.13674,0.0752643,-3.06765,-2.64801,-0.365212,2.50636,3.0355,0.128743,0.100599,-0.0167959,0.148447,0.137542,0.0564181,0.0776854,-0.0197394,0.00154618,0.0440324,0.549373,0.00437268,9.61212e-12,0.000474723,0.44578
164837174,3.13854,0.0752414,-3.06587,-2.64629,-0.363571,2.50823,3.03731,0.0563988,0.0269066,-0.0959153,0.0772164,0.0656385,0.0399933,0.0622263,-0.0401952,-0.0174943,0.0270342,0.549413,0.00437361,9.57907e-12,0.000474333,0.445739
165035960,3.14085,0.075179,-3.06378,-2.64475,-0.363426,2.51095,3.03962,0.0433879,0.00662589,-0.13458,0.0721293,0.0552892,-0.0904954,-0.0655903,-0.196638,-0.158279,-0.105485,0.550002,0.00439321,9.33039e-12,0.000469242,0.445135
165244389,-3.1411,0.0750937,-3.06271,-2.644,-0.36398,2.51228,3.04081,0.0886217,0.0647956,-0.0689428,0.0983917,0.0950751,-0.029589,-0.00362855,-0.0788055,-0.0874004,-0.0433676,0.550538,0.00441541,9.24194e-12,0.000465302,0.444581
165438065,3.14085,0.0751123,-3.06394,-2.64523,-0.365212,2.51105,3.03958,0.0886217,0.0647956,-0.0689428,0.0983917,0.0950751,-0.029589,-0.00362855,-0.0788055,-0.0874004,-0.0433676,0.550538,0.00441541,9.24194e-12,0.000465302,0.444581
165636714,3.13916,0.0750697,-3.0657,-2.64708,-0.36778,2.50923,3.03783,0.0877923,0.0700781,-0.0449878,0.0917628,0.0921233,0.00335573,0.0262974,-0.0259153,-0.0447904,-0.00839777,0.550829,0.00442993,9.27041e-12,0.000463541,0.444278
165835460,3.13803,0.0750894,-3.06683,-2.64821,-0.368906,2.5081,3.03671,0.0877923,0.0700781,-0.0449878,0.0917628,0.0921233,0.00335573,0.0262974,-0.0259153,-0.0447904,-0.00839777,0.550829,0.00442993,9.27041e-12,0.000463541,0.444278
166038960,3.1372,0.0750727,-3.06768,-2.64913,-0.369863,2.5074,3.0359,-0.0180933,-0.0241387,-0.120343,-0.028886,-0.0183368,-0.0497701,-0.028621,-0.0330148,-0.0850039,-0.0593002,0.550852,0.0044294,9.21597e-12,0.000463155,0.444255
166237605,3.13954,0.0750886,-3.06533,-2.64673,-0.367622,2.50959,3.0382,0.101653,0.100853,0.0306584,0.087894,0.0998781,-0.0514375,-0.0351958,-0.0220243,-0.0750557,-0.0582691,0.550907,0.00443398,9.28016e-12,0.000463096,0.444196
166441210,3.14147,0.0750898,-3.06337,-2.6448,-0.364942,2.51185,3.04022,0.0239878,0.0289269,-0.0508731,-0.000996351,0.0193967,0.119702,0.139479,0.180459,0.0961776,0.112135,0.550631,0.00441766,9.16474e-12,0.000464416,0.444486
166639945,-3.13956,0.0750935,-3.06127,-2.64285,-0.363369,2.5141,3.04237,-0.0623249,-0.0537214,-0.118329,-0.0899867,-0.0680737,-0.0253529,-0.00831418,0.0455671,-0.0417386,-0.0313203,0.550789,0.00442308,9.10466e-12,0.000463083,0.444325
166838496,-3.13737,0.0750997,-3.05908,-2.64068,-0.361226,2.51633,3.04457,0.0227649,0.0330945,-0.0303689,-0.00741023,0.0162923,-0.0238196,-0.00666284,0.0546585,-0.0388506,-0.0296174,0.550798,0.00442305,9.08951e-12,0.000462956,0.444316
167042106,-3.13564,0.0751101,-3.05734,-2.63893,-0.359238,2.51811,3.04631,0.0551822,0.0655844,0.0162944,0.0278755,0.0491027,-0.000236191,0.0136243,0.072014,-0.0105388,-0.00465947,0.550711,0.00441857,9.07503e-12,0.000463478,0.444407
167240783,-3.13379,0.0751209,-3.0555,-2.63711,-0.357585,2.51994,3.04816,0.00235838,0.013904,-0.0333239,-0.0263316,-0.00416124,-0.0498769,-0.036245,0.0267426,-0.0588445,-0.0540602,0.550776,0.00442172,9.07971e-12,0.000463071,0.444339
167439504,-3.13277,0.0751332,-3.05449,-2.63613,-0.356603,2.52103,3.04919,-0.00233084,0.00752336,-0.0197514,-0.0241135,-0.00750816,0.0141881,0.0227799,0.0736362,0.0108518,0.0118778,0.550775,0.00442076,9.04937e-12,0.000462934,0.444341
167638033,-3.133,0.0751442,-3.05472,-2.63641,-0.356733,2.52093,3.04898,0.0260984,0.0377389,0.0219986,0.00386584,0.0204793,0.0420304,0.0483279,0.104551,0.0435307,0.0408969,0.550725,0.00441691,9.00012e-12,0.00046304,0.444395
167831710,-3.13505,0.0751629,-3.05677,-2.63846,-0.358778,2.51888,3.04693,0.0260984,0.0377389,0.0219986,0.00386584,0.0204793,0.0420304,0.0483279,0.104551,0.0435307,0.0408969,0.550725,0.00441691,9.00012e-12,0.00046304,0.444395
168040285,-3.13654,0.0751764,-3.05826,-2.63999,-0.36013,2.51751,3.04546,0.0686225,0.0789477,0.0860726,0.0533112,0.0642679,-0.0501037,-0.0494431,-0.0043424,-0.0417975,-0.0490696,0.550663,0.00441246,8.95155e-12,0.000463234,0.444462
168238950,-3.1362,0.0751882,-3.05793,-2.6397,-0.359797,2.51796,3.04583,0.0231339,0.0356165,0.0508139,0.00604856,0.0180703,0.0300196,0.0292773,0.0822002,0.0422306,0.0319083,0.550651,0.00441057,8.9092e-12,0.000463117,0.444476
168437572,-3.13471,0.0752072,-3.05645,-2.63823,-0.358383,2.51945,3.04731,-0.000883818,0.00115633,0.015705,-0.00127447,-0.00136149,0.0479166,0.0449808,0.0511759,0.053933,0.0493899,0.550671,0.00441145,8.90652e-12,0.000462965,0.444454
168636218,-3.13356,0.0752258,-3.0553,-2.63709,-0.357262,2.5206,3.04847,-0.0025878,-0.00100684,0.0207869,-0.000717759,-0.00264621,0.0128871,0.00815637,0.0106307,0.0210359,0.0150456,0.55068,0.0044118,8.90468e-12,0.000462897,0.444445
168834856,-3.13578,0.0752455,-3.05751,-2.6393,-0.359477,2.51839,3.04625,-0.0025878,-0.00100684,0.0207869,-0.000717759,-0.00264621,0.0128871,0.00815637,0.0106307,0.0210359,0.0150456,0.55068,0.0044118,8.90468e-12,0.000462897,0.444445
169033511,-3.13626,0.0752638,-3.05801,-2.63983,-0.360082,2.51792,3.04576,0.0150836,0.0175458,0.0292627,0.0134431,0.0143374,0.104141,0.10196,0.110636,0.109456,0.105356,0.550714,0.00441305,8.89445e-12,0.000462624,0.44441
169237107,-3.1383,0.0752827,-3.06005,-2.64185,-0.36218,2.51582,3.04371,0.0492615,0.0413421,0.0317124,0.0599104,0.0524583,0.0605538,0.0610216,0.0278872,0.0528617,0.0593552,0.550741,0.00441498,8.91555e-12,0.000462547,0.444382
169435750,-3.14053,0.0753036,-3.06227,-2.64407,-0.364404,2.5136,3.04149,0.0492615,0.0413421,0.0317124,0.0599104,0.0524583,0.0605538,0.0610216,0.0278872,0.0528617,0.0593552,0.550741,0.00441498,8.91555e-12,0.000462547,0.444382
169639359,3.14013,0.0753217,-3.06481,-2.64659,-0.366967,2.51103,3.03895,0.0393339,0.0311066,0.00989842,0.048072,0.0423225,0.0308512,0.0339517,0.00203241,0.019148,0.0285231,0.550756,0.00441612,8.92861e-12,0.000462509,0.444365
169838010,3.13767,0.0753242,-3.06732,-2.64919,-0.370077,2.50852,3.03646,0.0282836,0.0117421,0.00958395,0.0544041,0.0355067,0.000869177,-0.00234903,-0.0758958,-0.00928458,0.000104174,0.550958,0.00442541,8.92547e-12,0.00046116,0.444156
170041613,3.13477,0.075344,-3.07022,-2.65208,-0.372971,2.50563,3.03356,0.0282836,0.0117421,0.00958395,0.0544041,0.0355067,0.000869177,-0.00234903,-0.0758958,-0.00928458,0.000104174,0.550958,0.00442541,8.92547e-12,0.00046116,0.444156
170240253,3.13501,0.0753244,-3.07001,-2.65194,-0.373125,2.50587,3.03379,0.0191089,-0.00587487,-0.00911963,0.0586256,0.0300243,0.0559634,0.0510944,-0.0601333,0.0406301,0.0548127,0.551077,0.00443053,8.91207e-12,0.000460321,0.444032
170429160,3.13645,0.0753431,-3.06857,-2.6505,-0.371684,2.50731,3.03523,0.0191089,-0.00587487,-0.00911963,0.0586256,0.0300243,0.0559634,0.0510944,-0.0601333,0.0406301,0.0548127,0.551077,0.00443053,8.91207e-12,0.000460321,0.444032
170642507,3.13962,0.0752922,-3.06535,-2.64727,-0.367677,2.51074,3.03847,-0.0445645,-0.075332,-0.0893911,0.00202775,-0.0314198,0.0779634,0.0743161,-0.0604691,0.0557486,0.0755744,0.550794,0.00441479,8.8331e-12,0.000461858,0.444329
170841150,3.13962,0.0752742,-3.06539,-2.64738,-0.368148,2.51073,3.03846,0.0456207,0.011605,-0.0227332,0.0932056,0.0595919,0.058238,0.0586017,-0.0861874,0.0274464,0.053776,0.550938,0.00442115,8.8222e-12,0.000460863,0.44418
171039790,3.14091,0.0752804,-3.0641,-2.64606,-0.366974,2.51192,3.03972,0.0437315,0.0208997,-0.0089376,0.0742508,0.0529073,0.0753193,0.0771404,-0.0184869,0.0524144,0.071671,0.550989,0.00442483,8.86143e-12,0.000460714,0.444125
171238480,3.13963,0.0752708,-3.0654,-2.6474,-0.368345,2.51069,3.03845,0.00241947,-0.0266075,-0.0268521,0.0490936,0.0152084,0.0528419,0.0463619,-0.0837508,0.0361911,0.0518465,0.55101,0.00442492,8.83526e-12,0.000460467,0.444105
171437076,3.13781,0.0752905,-3.06722,-2.64922,-0.370168,2.50887,3.03662,0.00241947,-0.0266075,-0.0268521,0.0490936,0.0152084,0.0528419,0.0463619,-0.0837508,0.0361911,0.0518465,0.55101,0.00442492,8.83526e-12,0.000460467,0.444105
171635721,3.13543,0.0752433,-3.06974,-2.65213,-0.373947,2.50685,3.03427,0.0410643,0.0141985,-0.0155309,0.0781348,0.0520253,-0.047909,-0.047033,-0.16084,-0.0730666,-0.051676,0.551379,0.00443613,8.65097e-12,0.000457162,0.443728
171839328,3.13302,0.0752198,-3.07224,-2.65493,-0.376846,2.50493,3.03194,-0.0155351,-0.0443984,-0.0759723,0.0243985,-0.00374573,-0.0822163,-0.081374,-0.203795,-0.109098,-0.0862204,0.55145,0.00443251,8.44265e-12,0.000455691,0.443661
172038137,3.13337,0.0751964,-3.07188,-2.65473,-0.375978,2.50579,3.03239,-0.0700117,-0.102242,-0.143807,-0.026702,-0.0570329,-0.00223242,0.000166424,-0.135222,-0.0342998,-0.00730387,0.551222,0.00441584,8.26589e-12,0.000456332,0.443906
172236616,3.13551,0.0752161,-3.06974,-2.65259,-0.373837,2.50793,3.03453,-0.0700117,-0.102242,-0.143807,-0.026702,-0.0570329,-0.00223242,0.000166424,-0.135222,-0.0342998,-0.00730387,0.551222,0.00441584,8.26589e-12,0.000456332,0.443906
172435263,3.1373,0.075218,-3.0679,-2.65069,-0.371374,2.50982,3.03636,-0.0446278,-0.0689633,-0.106891,-0.0132993,-0.0350249,0.0823276,0.0856636,-0.0151187,0.0559684,0.0778685,0.551007,0.00440523,8.24813e-12,0.000457671,0.44413
172638869,3.13802,0.0752034,-3.06717,-2.65002,-0.370301,2.51081,3.03714,-0.038583,-0.0688077,-0.0954781,0.00456297,-0.0260525,0.0275519,0.0269462,-0.102877,0.00156001,0.0239807,0.550865,0.00439554,8.15845e-12,0.000458169,0.444282
172837634,3.13884,0.075216,-3.06634,-2.64924,-0.369169,2.51183,3.03801,-0.0884243,-0.0995277,-0.095937,-0.0698246,-0.0834273,-0.0788319,-0.0821752,-0.13286,-0.0839494,-0.0788528,0.550741,0.00438753,8.09302e-12,0.000458655,0.444413
173041125,3.14083,0.075234,-3.06435,-2.64725,-0.367081,2.51386,3.04001,-0.0145225,-0.0112153,0.016607,-0.0141224,-0.0151597,-0.0490929,-0.054833,-0.0461674,-0.0380164,-0.0463012,0.550706,0.00438549,8.08061e-12,0.000458824,0.44445
173239759,-3.14092,0.075248,-3.06292,-2.64583,-0.365927,2.5152,3.04141,-0.0766021,-0.0698714,-0.00559026,-0.0741603,-0.0776687,0.0360758,0.0226182,0.0384504,0.0611404,0.0424949,0.550804,0.00439106,8.11008e-12,0.000458324,0.444346
173443368,-3.14074,0.0752475,-3.06279,-2.64588,-0.366136,2.51565,3.04164,0.0913529,0.0985689,0.175834,0.0957061,0.0904565,0.0398924,0.0235206,0.0385915,0.0695258,0.0475797,0.550882,0.00439082,8.00047e-12,0.000457251,0.44427
173642173,3.14156,0.0752384,-3.06374,-2.64697,-0.367513,2.51492,3.04076,-0.0133876,0.0036602,0.109592,-0.0189567,-0.0177709,0.0260458,0.00522531,0.0580651,0.0707184,0.0368156,0.551005,0.00439408,7.93134e-12,0.000456087,0.444144
173840658,-3.14041,0.0752289,-3.06262,-2.64601,-0.367652,2.51598,3.04191,-0.112242,-0.0897132,0.0100914,-0.127934,-0.119225,0.0551612,0.0370119,0.11592,0.100907,0.0655159,0.55143,0.00441435,7.94767e-12,0.00045339,0.443703
174039304,3.14148,0.0752179,-3.06401,-2.64767,-0.36993,2.51492,3.04063,0.00174141,0.0207711,0.103678,-0.0118237,-0.00420105,0.0959559,0.0809608,0.147902,0.134134,0.104564,0.55169,0.00442252,7.83809e-12,0.000451126,0.443436
174237940,-3.14103,0.0752147,-3.06335,-2.6471,-0.369027,2.51588,3.04135,0.0563844,0.0740635,0.149137,0.0433506,0.0508026,-0.0158945,-0.0293574,0.0332898,0.0189119,-0.00809228,0.551578,0.00441379,7.74154e-12,0.000451361,0.443557
174436629,-3.14054,0.0752344,-3.06286,-2.64661,-0.368531,2.51638,3.04185,0.0563844,0.0740635,0.149137,0.0433506,0.0508026,-0.0158945,-0.0293574,0.0332898,0.0189119,-0.00809228,0.551578,0.00441379,7.74154e-12,0.000451361,0.443557
174635227,-3.13969,0.0752425,-3.06205,-2.64586,-0.368147,2.5172,3.04268,-0.029447,-0.0229528,0.0535536,-0.0241392,-0.0300558,0.0560976,0.0397718,0.0517074,0.0850441,0.0636739,0.551717,0.00442007,7.73628e-12,0.000450426,0.443412
174838834,-3.1394,0.0752499,-3.06178,-2.64566,-0.368158,2.51753,3.04297,0.0158486,0.0112561,0.0405604,0.0292922,0.0187354,-0.0213146,-0.0291779,-0.0564969,-0.0142194,-0.0186398,0.551804,0.00442339,7.71602e-12,0.000449754,0.443322
175037477,-3.14035,0.0752631,-3.06272,-2.64658,-0.368978,2.51657,3.04202,-0.0357092,-0.0497553,-0.0240036,-0.00773662,-0.0287589,0.0442525,0.0350711,-0.0340623,0.044838,0.0462818,0.551767,0.00442185,7.72249e-12,0.000450037,0.443362
175236143,-3.1394,0.0752828,-3.06177,-2.64562,-0.368023,2.51753,3.04297,-0.0357092,-0.0497553,-0.0240036,-0.00773662,-0.0287589,0.0442525,0.0350711,-0.0340623,0.044838,0.0462818,0.551767,0.00442185,7.72249e-12,0.000450037,0.443362
175434763,-3.13935,0.0752923,-3.06173,-2.6456,-0.367966,2.51762,3.04303,-0.00855112,-0.0250454,-0.0268003,0.0176857,-0.00133181,0.0164954,0.0131541,-0.060752,0.00660971,0.0157972,0.551754,0.00442057,7.70338e-12,0.000450022,0.443375
175638371,-3.139,0.0752882,-3.06135,-2.64527,-0.367125,2.51823,3.04344,-0.0648413,-0.0891682,-0.0948061,-0.0267608,-0.0542828,0.00685582,0.00264096,-0.105703,-0.00873276,0.00553245,0.551573,0.00440934,7.6275e-12,0.000450806,0.443567
175837014,-3.14043,0.0752859,-3.06279,-2.64679,-0.368381,2.51704,3.04206,0.0129863,-0.00395286,-0.0163125,0.0377346,0.0200865,-0.0583962,-0.0593658,-0.132883,-0.0720367,-0.060132,0.551485,0.00440235,7.54967e-12,0.00045097,0.443662
176035658,3.14123,0.0753056,-3.06431,-2.64831,-0.369898,2.51552,3.04054,0.0129863,-0.00395286,-0.0163125,0.0377346,0.0200865,-0.0583962,-0.0593658,-0.132883,-0.0720367,-0.060132,0.551485,0.00440235,7.54967e-12,0.00045097,0.443662
176239266,3.14013,0.0753109,-3.06544,-2.64951,-0.371259,2.51448,3.03944,0.0233825,0.0044508,-0.0135959,0.0501781,0.0311939,-0.00348489,-0.0035876,-0.0848212,-0.0201191,-0.00583004,0.55155,0.00440429,7.51992e-12,0.000450386,0.443595
176442875,3.14011,0.0753198,-3.06545,-2.64954,-0.371013,2.51461,3.03946,-0.0510912,-0.0680242,-0.0694743,-0.0240905,-0.0436721,-0.00479987,-0.00830826,-0.0843121,-0.014823,-0.00548289,0.551452,0.00439811,7.47691e-12,0.000450797,0.443699
176641518,3.14159,0.0753334,-3.06396,-2.64802,-0.369466,2.51603,3.04093,-0.0421294,-0.0489475,-0.0205721,-0.0253012,-0.0382916,0.0237681,0.0156235,-0.021532,0.029293,0.0262781,0.551441,0.00439838,7.49795e-12,0.000450987,0.44371
176840243,3.14103,0.0753524,-3.0645,-2.64853,-0.369858,2.51546,3.04037,-0.0693801,-0.0716135,-0.0414383,-0.0595799,-0.0675102,-0.0147514,-0.022276,-0.0391544,-0.00604687,-0.0119209,0.551393,0.00439644,7.5053e-12,0.000451338,0.443759
177038803,3.13839,0.0753692,-3.0671,-2.65105,-0.37196,2.51285,3.03775,-0.119675,-0.129304,-0.102444,-0.0986269,-0.114644,0.00854359,0.000115439,-0.0493651,0.011981,0.0108168,0.551229,0.00438903,7.50967e-12,0.000452429,0.443929
177242412,3.13824,0.0753842,-3.06723,-2.65119,-0.371922,2.51277,3.03763,-0.0436747,-0.052042,-0.0300717,-0.0256752,-0.0393432,-0.0233498,-0.0303545,-0.0730241,-0.0208187,-0.0215074,0.551166,0.00438543,7.49174e-12,0.000452747,0.443996
177441055,3.13933,0.0753949,-3.06615,-2.65012,-0.370738,2.51394,3.03873,-0.0242691,-0.0342803,0.0123159,0.00146145,-0.0184882,-0.00683326,-0.019929,-0.0756003,0.00289332,-0.00267657,0.551126,0.00438266,7.46757e-12,0.000452882,0.444039
177639698,3.13958,0.075406,-3.0659,-2.64983,-0.370659,2.51404,3.03895,-0.0590287,-0.0663063,0.00506675,-0.032598,-0.0537232,0.0799314,0.0616995,0.0127376,0.0993737,0.0865583,0.551199,0.00438771,7.51246e-12,0.000452648,0.443961
177838341,3.1404,0.0754183,-3.06508,-2.64898,-0.369901,2.51476,3.03974,-0.0658085,-0.0693877,0.00167638,-0.0454017,-0.0621417,0.0474173,0.0300899,-0.00211965,0.0688505,0.0541359,0.55123,0.00439028,7.54294e-12,0.00045261,0.443927
178036984,3.14066,0.075438,-3.06482,-2.64872,-0.369639,2.51503,3.04001,-0.0658085,-0.0693877,0.00167638,-0.0454017,-0.0621417,0.0474173,0.0300899,-0.00211965,0.0688505,0.0541359,0.55123,0.00439028,7.54294e-12,0.00045261,0.443927
178235864,-3.14022,0.0754394,-3.06255,-2.64653,-0.367651,2.5174,3.04231,-0.0091759,-0.00655782,0.0884419,0.00617993,-0.00753427,0.0268239,0.00533392,-0.00436053,0.0596581,0.0360464,0.551313,0.00439294,7.51182e-12,0.000451906,0.443842
178439260,-3.13777,0.0754177,-3.06016,-2.6443,-0.365992,2.51991,3.04475,-0.00284135,-0.0112644,0.076416,0.0288146,0.00344992,0.0359498,0.0136651,-0.0442047,0.0601416,0.0441115,0.551541,0.00440195,7.47079e-12,0.000450208,0.443607
178637889,-3.13643,0.075416,-3.05886,-2.64309,-0.365048,2.52133,3.04609,-0.0085305,-0.0069052,0.0943413,0.00970507,-0.00627041,0.0331004,0.00994175,-0.00569678,0.067438,0.0428894,0.551648,0.00440563,7.43661e-12,0.000449329,0.443497
178836522,-3.13603,0.0754191,-3.05845,-2.64264,-0.364512,2.52169,3.04649,-0.0740576,-0.0788077,0.0179858,-0.0464523,-0.0691187,0.0208739,-0.00269274,-0.0461079,0.05015,0.0300297,0.551613,0.0044046,7.45212e-12,0.000449643,0.443533
179035317,-3.1376,0.0754387,-3.06002,-2.64421,-0.36608,2.52012,3.04492,-0.0740576,-0.0788077,0.0179858,-0.0464523,-0.0691187,0.0208739,-0.00269274,-0.0461079,0.05015,0.0300297,0.551613,0.0044046,7.45212e-12,0.000449643,0.443533
179243739,-3.13975,0.0754059,-3.06227,-2.6468,-0.368976,2.51844,3.04283,0.033128,0.0211092,0.108545,0.0705352,0.040995,-0.0314619,-0.0545022,-0.128617,-0.00936519,-0.0234385,0.551763,0.00440473,7.2734e-12,0.000447707,0.443385
179437417,-3.14121,0.0754247,-3.06372,-2.64826,-0.370428,2.51699,3.04138,0.033128,0.0211092,0.108545,0.0705352,0.040995,-0.0314619,-0.0545022,-0.128617,-0.00936519,-0.0234385,0.551763,0.00440473,7.2734e-12,0.000447707,0.443385
179636062,3.13972,0.0754333,-3.06596,-2.65048,-0.372346,2.51481,3.03914,-0.0578139,-0.0691293,-0.0148062,-0.0283826,-0.0512334,-0.00684091,-0.022028,-0.0854522,0.00472509,-0.00198011,0.55165,0.00439873,7.25324e-12,0.000448327,0.443503
179834829,3.13929,0.075444,-3.06635,-2.65077,-0.372337,2.51434,3.03872,-0.088378,-0.102048,-0.0527329,-0.0561841,-0.080908,0.0505812,0.0360252,-0.0368808,0.0591664,0.0548843,0.55153,0.00439415,7.27973e-12,0.00044926,0.443627
180038318,3.13984,0.0754522,-3.06581,-2.65029,-0.37176,2.51501,3.03929,-0.014309,-0.0292258,-0.0088231,0.013938,-0.00713831,-0.0157901,-0.0239164,-0.0958541,-0.0174499,-0.0143063,0.551502,0.0043913,7.23963e-12,0.000449222,0.443658
180241941,3.14057,0.0754591,-3.06503,-2.64947,-0.370376,2.51588,3.04007,-0.0915523,-0.109019,-0.0879135,-0.0590475,-0.0832376,0.0111707,0.00230451,-0.081316,0.00830924,0.0126403,0.551291,0.00438042,7.21062e-12,0.000450433,0.443878
180440563,-3.14109,0.0754719,-3.06349,-2.64792,-0.368559,2.51749,3.04162,-0.0552604,-0.0659296,-0.0304377,-0.0307721,-0.0495191,-0.0115673,-0.0222282,-0.0784155,-0.00586646,-0.00850065,0.551192,0.00437514,7.19183e-12,0.000450972,0.443982
180639358,3.14088,0.0754801,-3.06469,-2.64913,-0.36946,2.51641,3.04044,-0.0484474,-0.0602795,-0.0198779,-0.0210773,-0.0420499,-0.0258474,-0.0379085,-0.100457,-0.0191857,-0.0223476,0.551081,0.00436865,7.15674e-12,0.000451503,0.444099
180837848,-3.14116,0.0754823,-3.06354,-2.64802,-0.368306,2.51763,3.0416,-0.0227901,-0.037077,0.0193847,0.0118375,-0.0148405,0.0182087,0.00186984,-0.0754065,0.0287778,0.0231701,0.551068,0.00436714,7.13304e-12,0.000451455,0.444113
181041479,3.14081,0.0754976,-3.06476,-2.6492,-0.369606,2.51631,3.04036,-0.0803971,-0.0771602,-0.0127839,-0.0724081,-0.0799355,0.024018,0.00980424,0.00987513,0.0470607,0.0303028,0.551109,0.00437024,7.16442e-12,0.000451367,0.44407
181240102,3.1413,0.0754957,-3.06431,-2.64884,-0.369338,2.51694,3.04086,0.00263274,0.00444007,0.104123,0.0201964,0.0047611,0.00816009,-0.0145698,-0.0289707,0.042038,0.0177901,0.551152,0.00437019,7.11203e-12,0.000450793,0.444027
181438807,-3.14134,0.0754907,-3.06379,-2.64847,-0.368995,2.51772,3.04145,0.0303273,0.0303643,0.127026,0.0501167,0.0331453,-0.00590824,-0.0283328,-0.0500526,0.0259735,0.00337265,0.551179,0.0043683,7.03191e-12,0.000450165,0.444002
181637386,-3.14088,0.0754912,-3.06333,-2.64803,-0.36838,2.51828,3.04192,-0.0285026,-0.0218976,0.0774332,-0.018775,-0.0285022,-0.0261764,-0.0477273,-0.0403808,0.0102709,-0.0164322,0.551116,0.0043643,7.00333e-12,0.000450412,0.444069
181836029,3.14104,0.0755004,-3.06453,-2.64908,-0.368933,2.51693,3.04067,-0.123028,-0.121567,-0.0247179,-0.105517,-0.120834,-0.0434823,-0.065619,-0.0809456,-0.0107498,-0.0341424,0.55092,0.00435697,7.04582e-12,0.00045194,0.444272
182039638,3.14011,0.0755068,-3.06548,-2.65008,-0.370009,2.51607,3.03975,-0.0063436,-0.00294888,0.0749975,0.00417018,-0.00555491,0.010781,-0.00654026,-0.00881535,0.0383735,0.0183705,0.550954,0.00435757,7.02081e-12,0.000451573,0.444237
182238306,3.13989,0.0755174,-3.0657,-2.65032,-0.370366,2.51582,3.03952,-0.029145,-0.0346504,0.0318747,-0.00663066,-0.024772,0.0385166,0.0218357,-0.0180633,0.0573383,0.0447229,0.550999,0.00435983,7.02595e-12,0.000451312,0.44419
182441890,3.14055,0.0755161,-3.06512,-2.64994,-0.370301,2.51674,3.0402,0.106735,0.0996907,0.161245,0.13071,0.111639,-0.0230072,-0.0388837,-0.0846086,-0.00668653,-0.017327,0.551135,0.00436229,6.93034e-12,0.00044988,0.444053
182640534,3.14016,0.075527,-3.06555,-2.65045,-0.37126,2.51631,3.03979,0.0226177,0.0189579,0.0798097,0.0409822,0.0260092,0.0784454,0.0635005,0.033202,0.0964384,0.0841654,0.551309,0.00437022,6.92885e-12,0.000448745,0.443872
182839179,-3.14092,0.0755457,-3.06342,-2.64828,-0.368925,2.51841,3.04191,-0.0685443,-0.0694063,-0.0332341,-0.0597616,-0.0671087,-0.0338937,-0.0424853,-0.0545397,-0.0224551,-0.0304513,0.551243,0.00436747,6.93612e-12,0.000449216,0.44394
183037822,-3.14081,0.0755657,-3.06331,-2.64815,-0.368845,2.51846,3.042,-0.0663205,-0.0607303,-0.0443138,-0.0720073,-0.0683063,-0.0490416,-0.0515938,-0.0299834,-0.0404881,-0.0472886,0.551258,0.00436891,6.95449e-12,0.000449222,0.443924
183236461,-3.14134,0.0755875,-3.06382,-2.64859,-0.369171,2.51786,3.04146,-0.0689431,-0.0642501,-0.0449284,-0.0725847,-0.0704485,-0.127597,-0.131026,-0.114134,-0.11859,-0.125594,0.55121,0.00436777,6.98167e-12,0.000449692,0.443973
183440070,-3.1412,0.0756072,-3.06368,-2.64844,-0.369008,2.518,3.0416,-0.0347748,-0.0360471,-0.0389857,-0.0333659,-0.0343054,0.0359955,0.0363766,0.0313666,0.0343193,0.0356728,0.551201,0.00436735,6.98157e-12,0.000449749,0.443982
183638713,3.14025,0.0756296,-3.06541,-2.65013,-0.370754,2.51618,3.03985,-0.0179656,-0.0129024,-0.0154473,-0.0266977,-0.0202758,-0.124157,-0.122434,-0.0988987,-0.122144,-0.124239,0.551218,0.0043692,7.00866e-12,0.000449795,0.443963
183837360,3.13987,0.0756493,-3.06579,-2.6505,-0.371127,2.51579,3.03947,-0.0210796,-0.0188544,-0.00860977,-0.022604,-0.0217645,-0.0179047,-0.0197893,-0.011988,-0.0132722,-0.0168507,0.551217,0.00436924,7.01124e-12,0.000449817,0.443964
184040966,-3.14065,0.0756706,-3.06312,-2.6478,-0.368508,2.51836,3.04211,-0.127318,-0.125637,-0.102991,-0.125416,-0.1274,0.0303099,0.0254264,0.0279519,0.0387229,0.0325366,0.551243,0.00437152,7.03897e-12,0.000449807,0.443936
184239609,-3.13952,0.0756876,-3.06201,-2.64673,-0.367648,2.51948,3.04323,-0.0610825,-0.051778,-0.0450333,-0.0747483,-0.0649891,0.00314582,0.00367415,0.0442597,0.0106048,0.00409045,0.551325,0.00437531,7.03884e-12,0.000449272,0.443851
184438251,-3.1373,0.0757028,-3.0598,-2.64456,-0.365754,2.52167,3.04544,-0.00530642,-0.00415564,0.0406339,0.00200635,-0.00450474,0.0701239,0.0599852,0.0550744,0.0855371,0.0744592,0.551427,0.00438014,7.04142e-12,0.000448622,0.443744
184636924,-3.13739,0.0757153,-3.05989,-2.64466,-0.365802,2.52161,3.04536,-0.00854486,0.00254303,0.0465636,-0.0174286,-0.0121447,-0.0218755,-0.0295846,0.010581,-0.00113245,-0.0172975,0.551411,0.00437903,7.03278e-12,0.000448683,0.443762
184840503,-3.13773,0.0757254,-3.06028,-2.64509,-0.366752,2.52114,3.04497,-0.0876712,-0.0755557,-0.0160995,-0.0950397,-0.0912712,0.0392955,0.02824,0.0695397,0.0657019,0.0453875,0.551606,0.00438894,7.05559e-12,0.000447551,0.443558
185039146,-3.1381,0.0757337,-3.06064,-2.64544,-0.366997,2.52081,3.04462,-0.0158849,-0.000173271,0.0561575,-0.0297058,-0.0211623,-0.0396935,-0.0492063,0.00904376,-0.0122962,-0.033788,0.551566,0.00438684,7.04813e-12,0.000447766,0.443599
185237789,-3.13855,0.0757472,-3.0611,-2.6459,-0.367537,2.52034,3.04416,-0.0357022,-0.0252676,0.0184551,-0.043596,-0.0390235,-0.0112682,-0.0190546,0.0182208,0.00900958,-0.00674032,0.551595,0.00438833,7.05214e-12,0.000447604,0.443569
185436432,-3.13841,0.0757582,-3.06101,-2.64587,-0.368198,2.52032,3.04425,-0.10313,-0.0921217,-0.0343785,-0.109067,-0.106293,0.068891,0.0579836,0.0946567,0.0941128,0.0747829,0.551854,0.00440148,7.08183e-12,0.000446101,0.443299
185635107,-3.1395,0.0757696,-3.0621,-2.64693,-0.369375,2.51913,3.04314,-0.0634468,-0.0487991,0.00213891,-0.0766659,-0.0684149,-0.041661,-0.0501604,0.00449483,-0.0166386,-0.0363083,0.551895,0.00440457,7.11151e-12,0.000446006,0.443255
185838686,-3.13659,0.0757804,-3.05921,-2.64408,-0.366594,2.5221,3.04605,0.00240898,0.0048365,0.0639639,0.0106176,0.00306857,0.0108863,-0.00229054,-0.00474186,0.0317556,0.0166405,0.551924,0.00440512,7.09149e-12,0.000445708,0.443226
186037496,-3.1357,0.0757909,-3.05833,-2.64327,-0.365649,2.52313,3.04697,0.0466667,0.0567325,0.10187,0.0396549,0.0435483,0.00217126,-0.00602354,0.0292408,0.0227105,0.00682228,0.551884,0.00440141,7.04471e-12,0.000445704,0.443269
186235969,-3.13657,0.0758038,-3.05922,-2.64415,-0.367083,2.52205,3.04604,-0.119879,-0.109025,-0.0460681,-0.124502,-0.122822,0.030885,0.0187387,0.0535087,0.0577373,0.0372703,0.552084,0.00441292,7.10038e-12,0.000444728,0.443059
186439578,-3.13924,0.0758147,-3.06189,-2.64677,-0.369809,2.51926,3.04335,-0.0817105,-0.0762707,0.00108564,-0.0746183,-0.0818445,0.00748906,-0.00922925,-0.00224742,0.0360622,0.0150881,0.552118,0.00441591,7.13577e-12,0.000444709,0.443022
186638241,-3.14138,0.0758216,-3.06405,-2.64896,-0.372116,2.51714,3.04121,-0.0271353,-0.0217613,0.0568798,-0.0196676,-0.0272019,0.0124839,-0.00454992,0.00183543,0.0414482,0.0202055,0.552164,0.00441761,7.12407e-12,0.000444347,0.442974
186836999,-3.14147,0.0758254,-3.06408,-2.64893,-0.371422,2.51718,3.04117,-0.0707783,-0.0723231,0.014583,-0.0504285,-0.0675517,-0.061196,-0.0817209,-0.108503,-0.0333846,-0.0528981,0.551918,0.00440542,7.10393e-12,0.000445821,0.44323
187040475,-3.14022,0.0758216,-3.06283,-2.64776,-0.369848,2.51873,3.04248,-0.0100262,-0.0179821,0.0589659,0.0186239,-0.00426584,-0.0541169,-0.0737873,-0.127238,-0.0331968,-0.0469793,0.551778,0.00439541,7.01493e-12,0.000446227,0.44338
187239116,-3.13799,0.0758049,-3.06062,-2.64577,-0.367411,2.52148,3.04481,0.0441869,0.0401783,0.137634,0.0706626,0.0488064,-0.0714087,-0.0949302,-0.135211,-0.0415231,-0.0621818,0.55164,0.00438274,6.85785e-12,0.000446221,0.443531
187432794,-3.13581,0.0758002,-3.05849,-2.64379,-0.365613,2.52387,3.04702,0.0308988,0.0359111,0.12396,0.0408441,0.0312629,0.0203046,0.0010252,0.00369801,0.0521273,0.0289065,0.551723,0.0043837,6.78771e-12,0.000445283,0.443448
187641530,-3.13624,0.0758114,-3.05889,-2.64403,-0.365981,2.52311,3.04653,-0.142878,-0.139582,-0.0389741,-0.127596,-0.141392,0.0255286,0.00295663,-0.00500798,0.0605214,0.0352776,0.551752,0.00438915,6.88765e-12,0.000445675,0.443413
187840011,-3.13743,0.0758128,-3.06005,-2.64517,-0.366819,2.522,3.04537,-0.0359758,-0.0267653,0.0648567,-0.032073,-0.037357,-0.044672,-0.0638275,-0.0429947,-0.00931417,-0.0355941,0.551641,0.00438339,6.87204e-12,0.000446307,0.443529
188038667,-3.137,0.0758146,-3.05967,-2.64483,-0.367026,2.5223,3.04575,-0.0818249,-0.0675709,0.0158734,-0.0877463,-0.0856676,0.0244145,0.00829848,0.0538226,0.0599002,0.0328668,0.551845,0.0043938,6.89592e-12,0.000445134,0.443316
188237297,-3.1371,0.0758165,-3.05975,-2.64492,-0.366668,2.52239,3.0457,0.0166996,0.0287533,0.10567,0.0129881,0.013634,-0.0564148,-0.0715154,-0.0344754,-0.0243086,-0.0486581,0.551684,0.00438443,6.84826e-12,0.0004459,0.443486
188436003,-3.13568,0.075816,-3.05837,-2.64366,-0.365657,2.52393,3.04713,0.0162556,0.0154991,0.0986888,0.0345159,0.0190187,0.0250658,0.00560358,-0.0167119,0.052056,0.0330196,0.551787,0.00438733,6.80303e-12,0.000444979,0.443381
188634582,-3.1367,0.075824,-3.05941,-2.64472,-0.367056,2.52282,3.04608,-0.0698323,-0.0560457,0.00515854,-0.0795813,-0.074123,0.00281978,-0.00824101,0.0402503,0.0307055,0.00912046,0.551912,0.00439386,6.82105e-12,0.000444282,0.44325
188838201,-3.13843,0.0758264,-3.06111,-2.6478,-0.368023,2.52046,3.04438,0.0397385,0.0521545,0.108604,0.0312252,0.0359123,-0.032607,-0.0428764,0.000489075,-0.00705328,-0.0268054,0.5518,0.00438671,6.7732e-12,0.000444727,0.443369
189036834,-3.13516,0.075836,-3.05787,-2.64322,-0.365265,2.52454,3.04766,-0.0396125,-0.0283815,0.0490245,-0.0419132,-0.0423034,-0.0143308,-0.029723,0.00351196,0.0174583,-0.00655796,0.551811,0.00438713,6.77009e-12,0.000444637,0.443357
189235553,-3.13473,0.0758417,-3.05748,-2.64295,-0.365334,2.52503,3.04808,-0.0269893,-0.013708,0.0350569,-0.0384802,-0.0314218,0.0467293,0.0384376,0.0874914,0.0702299,0.0518203,0.551949,0.00439236,6.74158e-12,0.000443583,0.443215
189439111,-3.13475,0.0758465,-3.0575,-2.64303,-0.365276,2.52518,3.0481,0.0288579,0.0432053,0.0906551,0.0153666,0.0239155,-0.00225931,-0.00999921,0.0441841,0.0213991,0.00273675,0.551905,0.00438831,6.69399e-12,0.000443592,0.443263
189637732,-3.13433,0.0758561,-3.05711,-2.64269,-0.365248,2.52557,3.0485,-0.049512,-0.0369763,0.0182459,-0.0584854,-0.0534289,0.0190642,0.00911377,0.0533324,0.0442646,0.0247475,0.552023,0.00439378,6.6936e-12,0.000442833,0.44314
189841338,-3.13112,0.0758673,-3.05392,-2.63956,-0.362263,2.52881,3.05171,-0.0183743,-0.00702667,0.028266,-0.0295177,-0.0223504,0.0198338,0.0142303,0.0576205,0.0378045,0.0235692,0.552082,0.00439586,6.67727e-12,0.000442356,0.443079
190039996,-3.1296,0.0758792,-3.05242,-2.63808,-0.360935,2.53031,3.05322,-0.0342355,-0.0197803,0.00634611,-0.0522847,-0.0398493,-0.0188117,-0.0215833,0.0379789,-0.00212768,-0.0158592,0.55214,0.00439856,6.67818e-12,0.000441996,0.44302
190238625,-3.129,0.0758917,-3.05183,-2.63755,-0.360323,2.53105,3.05384,0.045922,0.0549313,0.0681248,0.0340208,0.0423302,0.0556956,0.0546788,0.0925414,0.0650778,0.0572392,0.552115,0.00439573,6.63775e-12,0.000441915,0.443047
190442233,-3.1297,0.0759072,-3.05254,-2.63829,-0.361119,2.53038,3.05315,-0.00834596,-0.000142634,0.0155889,-0.0184249,-0.0115083,0.0195328,0.0177453,0.0513838,0.0292989,0.0212942,0.55214,0.00439639,6.62585e-12,0.000441685,0.443022
190635911,-3.13117,0.0759205,-3.05405,-2.6399,-0.363105,2.52896,3.05167,-0.0614337,-0.0535156,-0.0376413,-0.0710233,-0.0644658,0.113042,0.111157,0.143473,0.122695,0.114808,0.552283,0.00440196,6.60038e-12,0.000440619,0.442874
190834550,-3.13289,0.0759346,-3.05578,-2.64168,-0.364901,2.5273,3.04996,0.0100676,0.0194455,0.0505078,0.00122523,0.00683451,0.016759,0.0116941,0.0471492,0.0322258,0.0200239,0.552296,0.00440164,6.57864e-12,0.000440409,0.442862
191033201,-3.13381,0.0759534,-3.0567,-2.64256,-0.365676,2.52637,3.04904,0.0267445,0.0335523,0.0415657,0.0173326,0.0239713,-0.0495336,-0.0498495,-0.0207515,-0.0430933,-0.0485566,0.552253,0.00439983,6.58316e-12,0.000440711,0.442906
191241771,-3.13432,0.0759689,-3.05716,-2.64297,-0.365629,2.52593,3.04856,-0.0910464,-0.101955,-0.0978546,-0.0726144,-0.0861241,0.0187532,0.0153017,-0.0349693,0.0140289,0.0188093,0.552083,0.00439157,6.57508e-12,0.000441752,0.443084
191440414,-3.13497,0.0759886,-3.05781,-2.64362,-0.366278,2.52528,3.04791,-0.0910464,-0.101955,-0.0978546,-0.0726144,-0.0861241,0.0187532,0.0153017,-0.0349693,0.0140289,0.0188093,0.552083,0.00439157,6.57508e-12,0.000441752,0.443084
191639057,-3.13714,0.0760035,-3.05995,-2.64705,-0.367623,2.52234,3.04575,-0.104235,-0.110221,-0.109444,-0.0944458,-0.10158,0.046075,0.0445166,0.0173102,0.0429987,0.0459638,0.551981,0.00438697,6.57741e-12,0.000442414,0.443189
191837703,-3.13621,0.0760084,-3.05905,-2.64489,-0.367293,2.5242,3.04671,-0.000942111,-0.019461,-0.0175593,0.0293288,0.00726867,-0.00500444,-0.00967519,-0.0939077,-0.0147046,-0.00539716,0.551994,0.00438563,6.53244e-12,0.00044207,0.443179
192036343,-3.13666,0.0760273,-3.05946,-2.64521,-0.367445,2.52365,3.04625,-0.0244011,-0.0359222,-0.0400535,-0.00667423,-0.0194507,0.10852,0.106838,0.0556748,0.100742,0.107768,0.551924,0.00438399,6.56953e-12,0.00044274,0.443249
192239954,-3.13588,0.076044,-3.05866,-2.64437,-0.366382,2.52444,3.04703,-0.0428375,-0.0532908,-0.0603836,-0.0274459,-0.0384443,0.0546929,0.0539408,0.00830248,0.046531,0.0536887,0.55184,0.00438028,6.57403e-12,0.00044331,0.443337
192438595,-3.13485,0.0760591,-3.05761,-2.64329,-0.364913,2.52556,3.04809,-0.0816755,-0.09209,-0.0794238,-0.0623015,-0.0767226,-0.00535236,-0.010667,-0.060642,-0.00698953,-0.00446344,0.551697,0.00437292,6.55609e-12,0.000444119,0.443486
192637241,-3.13335,0.0760698,-3.05604,-2.64157,-0.362686,2.52699,3.0496,-0.102231,-0.117399,-0.0803559,-0.0701935,-0.0944734,0.0658879,0.0538546,-0.0232082,0.0696173,0.0689618,0.551497,0.00436519,6.5921e-12,0.000445627,0.443693
192835881,-3.13247,0.0760726,-3.05518,-2.64082,-0.361836,2.52809,3.05052,0.00931478,-0.00218302,0.0357673,0.035605,0.0154819,-0.0467695,-0.0581764,-0.118796,-0.0407006,-0.0434958,0.551473,0.00436139,6.52735e-12,0.000445389,0.44372
193034685,-3.13262,0.0760717,-3.05535,-2.64102,-0.362191,2.52794,3.05036,-0.0147932,-0.0290868,0.0299106,0.0203142,-0.0067811,0.0453539,0.0284451,-0.0496476,0.0567868,0.0505544,0.551533,0.00436395,6.52278e-12,0.00044498,0.443658
193238134,-3.13272,0.0760536,-3.05545,-2.64128,-0.362046,2.52826,3.05036,-0.0115598,-0.0255176,0.0583876,0.0281067,-0.00296855,-0.0449182,-0.0675152,-0.149776,-0.0250988,-0.0373216,0.551404,0.00435305,6.40681e-12,0.000445112,0.443798
193441742,-3.13422,0.076024,-3.05698,-2.6429,-0.363683,2.52691,3.04887,-0.0349874,-0.0530816,0.0496345,0.0151796,-0.0240293,0.0343418,0.00646772,-0.0988421,0.0580299,0.0436039,0.551421,0.00435184,6.36001e-12,0.000444719,0.443782
193640385,-3.13737,0.075955,-3.0602,-2.64634,-0.367362,2.52406,3.04576,0.0144632,0.00320101,0.118822,0.0562358,0.0227879,0.00420638,-0.0251001,-0.102409,0.0359518,0.0149165,0.551536,0.00435283,6.26235e-12,0.00044339,0.443668
193839170,-3.14019,0.0759747,-3.06302,-2.64916,-0.37018,2.52124,3.04294,0.0144632,0.00320101,0.118822,0.0562358,0.0227879,0.00420638,-0.0251001,-0.102409,0.0359518,0.0149165,0.551536,0.00435283,6.26235e-12,0.00044339,0.443668
194037677,-3.14153,0.0759424,-3.06426,-2.65034,-0.369926,2.52032,3.04173,-0.0984207,-0.109542,0.020947,-0.0538599,-0.089729,-0.0583269,-0.0910267,-0.171147,-0.0216159,-0.0461946,0.551014,0.00432526,6.1782e-12,0.000446225,0.444215
194241280,-3.14008,0.0759199,-3.0628,-2.64904,-0.367813,2.52235,3.04331,0.0097779,0.0056746,0.116269,0.0389106,0.0147961,-0.0849438,-0.111439,-0.155107,-0.0508975,-0.0745038,0.550739,0.00430639,6.03508e-12,0.00044708,0.444508
194439946,-3.13934,0.0759079,-3.06208,-2.64839,-0.367253,2.52315,3.04405,-0.0371576,-0.0432001,0.0656072,-0.00530022,-0.0313424,0.0246281,-0.00187496,-0.0539084,0.0569792,0.0348272,0.550779,0.00430718,6.01162e-12,0.000446669,0.444467
194638678,-3.14049,0.0758798,-3.06327,-2.65111,-0.368303,2.52143,3.04293,-0.0067209,-0.0124774,0.105399,0.0265175,-0.0007689,0.0162934,-0.0122366,-0.0650441,0.0517804,0.0273667,0.550864,0.00430796,5.94416e-12,0.000445686,0.444382
194837211,-3.13743,0.0758684,-3.06025,-2.64685,-0.365822,2.52552,3.04603,-0.00914276,-0.00944316,0.105021,0.0145863,-0.00569391,-0.00641958,-0.0329197,-0.0602121,0.0309813,0.00449585,0.550854,0.00430452,5.87834e-12,0.000445315,0.444396
195035854,-3.13873,0.0758584,-3.06147,-2.6494,-0.365546,2.52372,3.04482,-0.0315218,-0.0278684,0.074852,-0.0165746,-0.0301565,-0.0983801,-0.121268,-0.127939,-0.0626424,-0.0884653,0.550499,0.00428593,5.82373e-12,0.000447243,0.444768
195239462,-3.13711,0.0758609,-3.05981,-2.64767,-0.36346,2.52534,3.04645,-0.0783083,-0.078974,0.0143778,-0.0583159,-0.0753161,-0.0193884,-0.0410863,-0.0651883,0.010856,-0.0105064,0.550365,0.00428026,5.83155e-12,0.000448164,0.444907
195438182,-3.13463,0.0758666,-3.05736,-2.64526,-0.36128,2.52783,3.04893,-0.0366042,-0.0244581,0.0450311,-0.0421093,-0.0399394,0.0114592,-0.00184536,0.0376575,0.0410106,0.0184699,0.550453,0.00428386,5.82357e-12,0.000447544,0.444816
195636747,-3.13323,0.0758809,-3.05596,-2.6438,-0.360063,2.52904,3.05029,-0.107171,-0.0987211,-0.0341628,-0.107723,-0.109024,0.00031583,-0.0126833,0.0111475,0.026192,0.006739,0.550535,0.00428976,5.87045e-12,0.000447331,0.444728
195835392,-3.13287,0.0758862,-3.05566,-2.64357,-0.360406,2.52931,3.0506,-0.0638343,-0.0523787,0.0174393,-0.0681573,-0.0668561,0.049846,0.0363098,0.0725811,0.0791269,0.056867,0.550749,0.00429978,5.87723e-12,0.000445997,0.444505
196038999,-3.13086,0.0758793,-3.05373,-2.64055,-0.359662,2.53241,3.05265,0.00574899,0.0248485,0.090344,-0.0117846,-0.000762105,0.0684015,0.0575942,0.129539,0.100518,0.0752486,0.55093,0.00430384,5.78794e-12,0.000444237,0.444322
196237669,-3.13074,0.0758584,-3.05371,-2.64083,-0.360305,2.53292,3.05281,0.0128326,0.035798,0.104021,-0.0104076,0.00469661,0.0648998,0.0543525,0.143268,0.100036,0.0721201,0.551093,0.00430565,5.67037e-12,0.000442399,0.444159
196436311,-3.13171,0.0758611,-3.05468,-2.6418,-0.361304,2.53194,3.05183,-0.0393679,-0.0230717,0.0459656,-0.0517086,-0.0445488,-0.0310454,-0.043276,0.0151832,0.000630707,-0.0239625,0.551102,0.00430614,5.67121e-12,0.000442349,0.444149
