timestamp,timestamp_sample,control[0],control[1],control[2],control[3],control[4],control[5],control[6],control[7]
271170689,271169823,-0.18201,-0.124799,-0.0198593,0.106473,0.0,0.0,0.0,-1.0
271173189,271172329,-0.160568,-0.0159885,-0.0203231,0.106473,0.0,0.0,0.0,-1.0
271273273,271272401,-0.198467,0.242791,0.0180134,0.107491,0.0,0.0,0.0,-1.0
271370831,271369976,-0.0865728,-0.0454499,-0.00613971,0.106473,0.0,0.0,0.0,-1.0
271473417,271472556,0.0698355,0.0184427,-0.00821708,0.106473,0.0,0.0,0.0,-1.0
271575996,271575138,-0.251448,0.200439,-0.000796242,0.107491,0.0,0.0,0.0,-1.0
271673576,271672712,-0.140596,0.105926,0.00896841,0.106473,0.0,0.0,0.0,-1.0
271773661,271772799,0.0565778,-0.170523,0.00264161,0.106473,0.0,0.0,0.0,-1.0
271871225,271870366,0.144637,-0.0931484,-0.0171362,0.106473,0.0,0.0,0.0,-1.0
271973808,271972946,-0.418753,-0.0555082,-0.0240218,0.106473,0.0,0.0,0.0,-1.0
272071393,272070522,0.0237088,0.0894093,0.0255876,0.106473,0.0,0.0,0.0,-1.0
272178969,272178109,-0.200468,-0.198839,-0.00110447,0.107491,0.0,0.0,0.0,-1.0
272274037,272273179,0.0162231,0.159342,0.0164256,0.107491,0.0,0.0,0.0,-1.0
272371611,272370755,-0.235704,0.284747,0.00924945,0.106473,0.0,0.0,0.0,-1.0
272474197,272473336,0.280499,0.133067,0.0207141,0.106473,0.0,0.0,0.0,-1.0
272571764,272570911,-0.218514,-0.021252,-0.0127222,0.107491,0.0,0.0,0.0,-1.0
272674355,272673491,0.0942217,-0.191385,-0.0257068,0.122764,0.0,0.0,0.0,-1.0
272771923,272771067,-0.481573,0.13507,0.00237189,0.1472,0.0,0.0,0.0,-1.0
272874510,272873647,-0.365804,-0.161286,-0.0188269,0.1696,0.0,0.0,0.0,-1.0
272974593,272973725,-0.0449906,0.158772,0.00150491,0.194036,0.0,0.0,0.0,-1.0
273072154,273071302,-0.291535,0.244145,0.0124254,0.194036,0.0,0.0,0.0,-1.0
273174744,273173884,0.0227294,0.27842,0.00113812,0.209309,0.0,0.0,0.0,-1.0
273272316,273271457,-0.115093,0.112535,-0.00925317,0.210327,0.0,0.0,0.0,-1.0
273374905,273374037,0.0125767,0.145318,-0.01137,0.219491,0.0,0.0,0.0,-1.0
273472475,273471613,-0.0947006,-0.116167,0.00430032,0.222545,0.0,0.0,0.0,-1.0
273572544,273571691,-0.0901775,-0.150943,-0.00774296,0.213382,0.0,0.0,0.0,-1.0
273675138,273674277,0.125137,-0.198173,-0.0102415,0.213382,0.0,0.0,0.0,-1.0
273772701,273771848,-0.214188,0.0261544,-0.00756934,0.216436,0.0,0.0,0.0,-1.0
273875293,273874427,-0.00350474,-0.00325917,-0.0235394,0.257164,0.0,0.0,0.0,-1.0
273972856,273972003,0.133276,0.0654165,0.000723967,0.261236,0.0,0.0,0.0,-1.0
274072938,274072081,0.0714358,0.250806,-0.0238208,0.261236,0.0,0.0,0.0,-1.0
274170514,274169658,0.0515659,0.121829,-0.0154662,0.262255,0.0,0.0,0.0,-1.0
274273097,274272238,0.152009,-0.0498539,-0.00456554,0.262255,0.0,0.0,0.0,-1.0
274375674,274374818,0.00101723,0.119195,-0.0141628,0.266327,0.0,0.0,0.0,-1.0
274473248,274472394,-0.145008,0.0845639,-0.00647049,0.278545,0.0,0.0,0.0,-1.0
274573334,274572475,-0.127434,-0.301771,-0.00993254,0.301964,0.0,0.0,0.0,-1.0
274673419,274672550,-0.00455357,0.199116,-0.00824114,0.308073,0.0,0.0,0.0,-1.0
274773480,274772628,0.0230868,-0.0222756,0.00439432,0.314182,0.0,0.0,0.0,-1.0
274871064,274870204,-0.205138,0.0444267,-0.00348905,0.323345,0.0,0.0,0.0,-1.0
274973636,274972784,-0.00285519,0.00978939,0.00110076,0.323345,0.0,0.0,0.0,-1.0
275073724,275072862,0.0483197,0.00979714,-0.00343345,0.332509,0.0,0.0,0.0,-1.0
275173794,275172940,0.117952,0.0985879,0.0137726,0.332509,0.0,0.0,0.0,-1.0
275273875,275273018,-0.000607889,0.137732,0.00501333,0.336582,0.0,0.0,0.0,-1.0
275371451,275370594,-0.02754,0.0224592,8.21624e-05,0.3376,0.0,0.0,0.0,-1.0
275474053,275473183,-0.0507825,-0.0440515,0.00337066,0.338618,0.0,0.0,0.0,-1.0
275571614,275570751,0.118224,-0.0450485,-0.00231277,0.341673,0.0,0.0,0.0,-1.0
275674188,275673331,-0.093551,-0.145298,0.00420778,0.344727,0.0,0.0,0.0,-1.0
275774269,275773409,0.0688838,-0.0302831,0.00178164,0.355927,0.0,0.0,0.0,-1.0
275871842,275870985,-0.00800532,0.105405,-0.00621228,0.357964,0.0,0.0,0.0,-1.0
275974432,275973565,-0.0367616,0.162685,-0.0222581,0.356945,0.0,0.0,0.0,-1.0
276072005,276071145,-0.0630243,0.0796826,-0.0227262,0.362036,0.0,0.0,0.0,-1.0
276174587,276173721,-0.043611,0.0604391,-0.015134,0.362036,0.0,0.0,0.0,-1.0
276272157,276271298,0.0479627,0.108829,-0.0150919,0.36,0.0,0.0,0.0,-1.0
276372250,276371378,-0.0478877,-0.0450118,-0.0045116,0.36,0.0,0.0,0.0,-1.0
276474811,276473956,0.042315,-0.032264,-0.00767026,0.36,0.0,0.0,0.0,-1.0
276572389,276571532,-0.0320879,0.0459908,-0.00709596,0.361018,0.0,0.0,0.0,-1.0
276674971,276674112,0.0432263,-0.0615438,0.000740828,0.375273,0.0,0.0,0.0,-1.0
276772546,276771688,0.0913099,0.00583991,0.00357608,0.378327,0.0,0.0,0.0,-1.0
276872637,276871766,-0.00618908,0.0464679,0.0190112,0.381382,0.0,0.0,0.0,-1.0
276972702,276971844,-0.000376383,0.0204173,0.0192778,0.390545,0.0,0.0,0.0,-1.0
277072779,277071923,-0.0150206,0.0429642,0.0209203,0.392582,0.0,0.0,0.0,-1.0
277175373,277174509,-0.0981066,0.117114,0.0162309,0.3936,0.0,0.0,0.0,-1.0
277272936,277272079,0.00898169,0.0153806,0.0068819,0.400727,0.0,0.0,0.0,-1.0
277373014,277372157,0.0175986,0.107473,0.00515903,0.408873,0.0,0.0,0.0,-1.0
277473107,277472235,-0.0208906,-0.0515137,0.00489245,0.407855,0.0,0.0,0.0,-1.0
277573171,277572314,-0.122753,0.138512,0.00549855,0.424145,0.0,0.0,0.0,-1.0
277670758,277669900,-0.00956271,0.0494313,-0.00111714,0.423127,0.0,0.0,0.0,-1.0
277773345,277772470,-0.0179311,0.0351464,-0.00618107,0.423127,0.0,0.0,0.0,-1.0
277875921,277875050,-0.0350527,-0.00769178,-0.00653479,0.430255,0.0,0.0,0.0,-1.0
277973484,277972626,-0.0505536,0.0740362,-0.012309,0.432291,0.0,0.0,0.0,-1.0
278073562,278072704,-0.0198567,-0.0246231,-0.00324538,0.432291,0.0,0.0,0.0,-1.0
278171136,278170281,0.0302643,0.00887468,-0.00176947,0.432291,0.0,0.0,0.0,-1.0
278273729,278272863,0.0350714,0.0401274,0.00436612,0.441455,0.0,0.0,0.0,-1.0
278371326,278370440,-0.0121093,0.0746769,0.00100326,0.442473,0.0,0.0,0.0,-1.0
278473874,278473017,-0.0598126,0.0848553,0.00700871,0.441455,0.0,0.0,0.0,-1.0
278573953,278573095,-0.0358174,0.0611456,-0.0075698,0.440436,0.0,0.0,0.0,-1.0
278671526,278670672,0.0209081,0.085586,-0.0180925,0.442473,0.0,0.0,0.0,-1.0
278774118,278773252,0.0230075,0.116953,-0.0128879,0.451636,0.0,0.0,0.0,-1.0
278871698,278870828,-0.0451173,-0.00669433,-0.00286501,0.467927,0.0,0.0,0.0,-1.0
278974277,278973408,-0.0241142,0.0538335,-0.00666436,0.467927,0.0,0.0,0.0,-1.0
279071855,279070998,-0.013648,0.0577829,-0.0124775,0.467927,0.0,0.0,0.0,-1.0
279174438,279173565,-0.0173222,0.129148,-0.0128335,0.467927,0.0,0.0,0.0,-1.0
279274500,279273643,0.0473615,0.0396257,-0.0143366,0.468945,0.0,0.0,0.0,-1.0
279372078,279371223,-0.0182555,0.0109682,-0.011396,0.467927,0.0,0.0,0.0,-1.0
279474665,279473803,-0.0394168,0.029971,-0.0212645,0.467927,0.0,0.0,0.0,-1.0
279572250,279571378,-0.00649241,0.03484,-0.0143148,0.472,0.0,0.0,0.0,-1.0
279674814,279673956,0.0204024,0.032485,-0.00879813,0.472,0.0,0.0,0.0,-1.0
279772407,279771532,-0.0102191,-0.0364773,-0.0132601,0.472,0.0,0.0,0.0,-1.0
279872472,279871611,-0.0470405,0.0291897,-0.0134777,0.469964,0.0,0.0,0.0,-1.0
279975065,279974191,0.0113248,0.0836468,-0.00589097,0.469964,0.0,0.0,0.0,-1.0
280072621,280071767,0.0552504,0.105739,-0.0145012,0.469964,0.0,0.0,0.0,-1.0
280175205,280174347,-0.0323061,-0.056996,-0.00578226,0.469964,0.0,0.0,0.0,-1.0
280272791,280271923,-0.0621279,0.0220103,-0.0157574,0.469964,0.0,0.0,0.0,-1.0
280372856,280372002,-0.00950945,0.0674013,-0.0157841,0.469964,0.0,0.0,0.0,-1.0
280472953,280472080,0.00681311,0.00198296,-0.0153853,0.466909,0.0,0.0,0.0,-1.0
280573014,280572158,-0.00209266,0.0425263,-0.0195505,0.466909,0.0,0.0,0.0,-1.0
280675598,280674740,-0.0723064,0.0607614,-0.0221195,0.4832,0.0,0.0,0.0,-1.0
280773174,280772317,-0.0610087,-0.0547576,-0.0187856,0.481164,0.0,0.0,0.0,-1.0
280873254,280872397,-0.0426048,-0.0530479,-0.0133469,0.481164,0.0,0.0,0.0,-1.0
280973360,280972481,-0.0966281,0.0531603,-0.0131526,0.481164,0.0,0.0,0.0,-1.0
281073407,281072550,0.00188444,0.0532268,-0.0120309,0.481164,0.0,0.0,0.0,-1.0
281170987,281170126,-0.00977656,0.0247825,-0.0072603,0.486255,0.0,0.0,0.0,-1.0
281273586,281272706,-0.0404364,-0.0184503,-0.0088225,0.486255,0.0,0.0,0.0,-1.0
281373643,281372784,-0.0544368,0.0082836,-0.00539841,0.486255,0.0,0.0,0.0,-1.0
281473717,281472863,-0.0874453,-0.0152315,-0.0129747,0.486255,0.0,0.0,0.0,-1.0
281573795,281572941,-0.0901284,0.0439043,-0.0093566,0.488291,0.0,0.0,0.0,-1.0
281671379,281670517,-0.067509,0.010614,-0.00752945,0.492364,0.0,0.0,0.0,-1.0
281773952,281773097,0.0125687,0.0728508,0.000842326,0.493382,0.0,0.0,0.0,-1.0
281871531,281870674,0.00136449,0.122208,-0.0105866,0.490327,0.0,0.0,0.0,-1.0
281974126,281973254,-0.0706809,-0.00575584,-0.000452004,0.490327,0.0,0.0,0.0,-1.0
282074190,282073336,-0.0104665,0.0433633,-0.0048447,0.491345,0.0,0.0,0.0,-1.0
282171766,282170909,-0.0270714,0.038174,-0.00491488,0.491345,0.0,0.0,0.0,-1.0
282271846,282270989,0.102903,-0.0140297,0.00482152,0.490327,0.0,0.0,0.0,-1.0
282371932,282371065,-0.025691,0.0101175,0.00354515,0.488291,0.0,0.0,0.0,-1.0
282474503,282473646,-0.0383334,0.00486932,-0.000471599,0.490327,0.0,0.0,0.0,-1.0
282572088,282571224,-0.0314799,0.0189042,-0.00388942,0.492364,0.0,0.0,0.0,-1.0
282672159,282671302,0.0338015,0.0435829,-0.00370858,0.491345,0.0,0.0,0.0,-1.0
282772241,282771378,0.0301742,0.0126205,-0.00229734,0.493382,0.0,0.0,0.0,-1.0
282872327,282871457,-0.12618,0.0828659,-0.0047411,0.493382,0.0,0.0,0.0,-1.0
282974902,282974037,-0.00951743,-0.0102997,-0.00265595,0.491345,0.0,0.0,0.0,-1.0
283072470,283071613,0.0103905,0.0140362,-0.000431296,0.491345,0.0,0.0,0.0,-1.0
283172556,283171692,-0.0514017,0.0406783,-0.011559,0.493382,0.0,0.0,0.0,-1.0
283272630,283271770,0.0156156,0.0456896,-0.0122659,0.491345,0.0,0.0,0.0,-1.0
283372712,283371855,0.0437734,0.0191764,-0.0122554,0.493382,0.0,0.0,0.0,-1.0
283475322,283474429,-0.0308862,0.0230826,-0.0113031,0.491345,0.0,0.0,0.0,-1.0
283572862,283572005,-0.0112983,0.0361013,-0.0144797,0.492364,0.0,0.0,0.0,-1.0
283675454,283674587,0.0320612,0.0406736,-0.0102128,0.513939,0.0,0.0,0.0,-1.0
283773024,283772162,0.0198102,0.00696521,-0.00614405,0.512727,0.0,0.0,0.0,-1.0
283873107,283872240,-0.0803839,0.0277123,-0.0129222,0.512727,0.0,0.0,0.0,-1.0
283970669,283969816,-0.0300369,0.00948293,-0.0108919,0.512727,0.0,0.0,0.0,-1.0
284073255,284072397,-0.0304045,0.00691526,-0.00903931,0.512727,0.0,0.0,0.0,-1.0
284175832,284174977,-0.0897134,0.0694424,-0.0106637,0.512727,0.0,0.0,0.0,-1.0
284273416,284272553,-0.128688,0.0750007,-0.0221858,0.512727,0.0,0.0,0.0,-1.0
284373489,284372632,0.0380418,0.014386,-0.0114688,0.512727,0.0,0.0,0.0,-1.0
284471062,284470208,0.0182454,-0.0519313,-0.0157862,0.513939,0.0,0.0,0.0,-1.0
284573654,284572788,-0.0507914,0.0438855,-0.0231996,0.512727,0.0,0.0,0.0,-1.0
284671234,284670366,0.0196005,0.0649852,-0.0192397,0.513939,0.0,0.0,0.0,-1.0
284773808,284772948,-0.0807199,-0.0244711,-0.0151327,0.513939,0.0,0.0,0.0,-1.0
284873882,284873023,-0.0952701,-0.000455633,-0.0055718,0.513939,0.0,0.0,0.0,-1.0
284973972,284973102,0.06708,-0.00618779,-0.00839525,0.513939,0.0,0.0,0.0,-1.0
285074037,285073180,-0.070346,0.057605,-0.00681777,0.512727,0.0,0.0,0.0,-1.0
285171609,285170756,0.0295351,0.0949552,-0.00858097,0.512727,0.0,0.0,0.0,-1.0
285274194,285273337,-0.149403,0.085003,0.00132992,0.517576,0.0,0.0,0.0,-1.0
285371769,285370916,0.0028802,-0.0135672,0.0027493,0.517576,0.0,0.0,0.0,-1.0
285474365,285473494,-0.0479052,0.0840652,0.00198193,0.512727,0.0,0.0,0.0,-1.0
285574436,285573574,0.00377293,-0.0302765,0.00706362,0.512727,0.0,0.0,0.0,-1.0
285672001,285671148,-0.0374415,-0.0300911,-0.00118855,0.512727,0.0,0.0,0.0,-1.0
285774596,285773729,0.0491611,-0.0200957,-0.000813008,0.512727,0.0,0.0,0.0,-1.0
285872176,285871305,-0.0743494,0.0616595,-0.00425148,0.513939,0.0,0.0,0.0,-1.0
285974742,285973885,-0.0656669,0.0588834,-0.00441089,0.513939,0.0,0.0,0.0,-1.0
286072332,286071461,0.0547991,0.0711513,-0.00550078,0.513939,0.0,0.0,0.0,-1.0
286172408,286171546,-0.11179,0.0767637,-0.000324952,0.512727,0.0,0.0,0.0,-1.0
286274982,286274120,0.0513966,-0.0281628,-0.0010393,0.512727,0.0,0.0,0.0,-1.0
286372549,286371696,-0.130728,0.0360402,-0.0114121,0.513939,0.0,0.0,0.0,-1.0
286475138,286474281,0.0816571,0.0608197,-0.00683743,0.513939,0.0,0.0,0.0,-1.0
286572724,286571857,-0.100596,-0.00872992,-0.00578318,0.513939,0.0,0.0,0.0,-1.0
286672784,286671931,-0.0184805,-0.0252445,0.0042645,0.513939,0.0,0.0,0.0,-1.0
286772875,286772010,-0.169763,-0.0177172,-0.0098583,0.513939,0.0,0.0,0.0,-1.0
286872941,286872088,-0.00338346,0.0068851,0.00450556,0.513939,0.0,0.0,0.0,-1.0
286975526,286974669,0.0655283,0.0110198,0.0140051,0.513939,0.0,0.0,0.0,-1.0
287073106,287072245,-0.00461683,0.0980629,0.00239634,0.512727,0.0,0.0,0.0,-1.0
287173176,287172324,-0.0100602,0.0498397,-0.00470359,0.513939,0.0,0.0,0.0,-1.0
287273267,287272402,-0.0603987,-0.038955,-0.000379896,0.510303,0.0,0.0,0.0,-1.0
287373341,287372480,-0.0400256,0.00405365,-0.00176081,0.513939,0.0,0.0,0.0,-1.0
287470913,287470056,-0.0639428,0.0304326,0.00129126,0.513939,0.0,0.0,0.0,-1.0
287573489,287572637,0.0941554,0.073923,-0.00342435,0.513939,0.0,0.0,0.0,-1.0
287673568,287672715,-0.0447957,0.0350408,-0.0034321,0.513939,0.0,0.0,0.0,-1.0
287773646,287772793,-0.00503955,0.077075,-0.00644375,0.513939,0.0,0.0,0.0,-1.0
287873724,287872872,-0.0756187,-0.01447,-0.00661632,0.513939,0.0,0.0,0.0,-1.0
287971325,287970451,-0.0532888,0.072001,-0.0065516,0.513939,0.0,0.0,0.0,-1.0
288073882,288073028,-0.00452194,0.0712829,-0.012131,0.513939,0.0,0.0,0.0,-1.0
288171467,288170605,0.0191015,-0.0491729,-0.0101906,0.513939,0.0,0.0,0.0,-1.0
288274043,288273185,-0.0521847,0.0429553,-0.00860672,0.513939,0.0,0.0,0.0,-1.0
288374141,288373276,0.0122312,0.00765051,-0.0164318,0.513939,0.0,0.0,0.0,-1.0
288471697,288470840,-0.043818,0.0250223,-0.0111188,0.513939,0.0,0.0,0.0,-1.0
288574287,288573423,-0.049162,0.0968683,-0.00180564,0.513939,0.0,0.0,0.0,-1.0
288671853,288670996,-0.00662649,0.0479387,0.00311998,0.513939,0.0,0.0,0.0,-1.0
288774430,288773577,-0.0260643,0.0805146,-0.0064243,0.513939,0.0,0.0,0.0,-1.0
288872010,288871153,0.0957211,-0.012914,-7.45142e-05,0.513939,0.0,0.0,0.0,-1.0
288972088,288971232,-0.0154834,0.106498,0.000579131,0.513939,0.0,0.0,0.0,-1.0
289074691,289073826,-0.0470033,0.0740712,-0.00167313,0.513939,0.0,0.0,0.0,-1.0
289172256,289171388,-0.0457704,-0.00883239,-0.00411044,0.513939,0.0,0.0,0.0,-1.0
289274824,289273969,0.0596163,0.0114817,0.00571816,0.513939,0.0,0.0,0.0,-1.0
289372403,289371545,-0.0843617,-0.015491,0.00447311,0.513939,0.0,0.0,0.0,-1.0
289474998,289474125,0.0348453,0.000711501,0.000527293,0.513939,0.0,0.0,0.0,-1.0
289572559,289571702,-0.0521407,0.0770256,-0.00388976,0.513939,0.0,0.0,0.0,-1.0
289672641,289671780,-0.0816083,0.0125306,-0.00449177,0.513939,0.0,0.0,0.0,-1.0
289775229,289774361,-0.0603877,0.022011,0.000671215,0.513939,0.0,0.0,0.0,-1.0
289872794,289871937,0.093024,0.0182455,-0.00114051,0.513939,0.0,0.0,0.0,-1.0
289975398,289974518,-0.0762517,-0.0026981,-0.000506561,0.513939,0.0,0.0,0.0,-1.0
290072954,290072094,-0.0696515,0.0360287,-0.00575196,0.513939,0.0,0.0,0.0,-1.0
290173032,290172172,0.0473189,0.0427556,-0.00626228,0.513939,0.0,0.0,0.0,-1.0
290270609,290269749,-0.00469925,-0.0129766,-0.00169069,0.513939,0.0,0.0,0.0,-1.0
290373192,290372332,0.000773147,0.0229877,0.00140993,0.513939,0.0,0.0,0.0,-1.0
290475780,290474916,-0.0555134,0.0514894,0.00347797,0.513939,0.0,0.0,0.0,-1.0
290573348,290572486,-0.0682428,0.089835,0.00550726,0.513939,0.0,0.0,0.0,-1.0
290673421,290672564,0.026452,-0.0186665,0.0154693,0.513939,0.0,0.0,0.0,-1.0
290773506,290772642,-0.0922052,0.0630815,0.00634708,0.513939,0.0,0.0,0.0,-1.0
290873581,290872721,-0.056411,-0.0327506,0.00947481,0.513939,0.0,0.0,0.0,-1.0
290971154,290970300,-0.00263408,0.104645,0.00247744,0.513939,0.0,0.0,0.0,-1.0
291073741,291072881,0.0401101,0.0674777,-0.00530947,0.513939,0.0,0.0,0.0,-1.0
291173813,291172956,-0.0365568,0.0938586,-0.00581064,0.513939,0.0,0.0,0.0,-1.0
291273901,291273034,-0.00425305,0.0265395,-0.00686888,0.513939,0.0,0.0,0.0,-1.0
291373970,291373112,-0.153929,0.109676,-0.00338959,0.513939,0.0,0.0,0.0,-1.0
291471555,291470689,0.0531435,-0.0127701,-0.00250466,0.513939,0.0,0.0,0.0,-1.0
291574137,291573275,-0.0155864,0.0484255,-0.00894845,0.513939,0.0,0.0,0.0,-1.0
291671708,291670854,-0.0871322,0.0856841,-0.00781095,0.513939,0.0,0.0,0.0,-1.0
291774306,291773426,-0.081154,0.00937491,-0.00585201,0.513939,0.0,0.0,0.0,-1.0
291874367,291873504,-0.0389697,0.123981,-0.00596152,0.513939,0.0,0.0,0.0,-1.0
291971943,291971081,-0.0374466,0.0229341,-0.00347541,0.513939,0.0,0.0,0.0,-1.0
292074518,292073661,0.112931,0.0334191,-0.00489289,0.513939,0.0,0.0,0.0,-1.0
292172110,292171238,-0.0195056,-0.000964996,-0.00443196,0.513939,0.0,0.0,0.0,-1.0
292274687,292273818,0.0957848,-0.0153247,-0.0142164,0.513939,0.0,0.0,0.0,-1.0
292372261,292371396,-0.0552781,0.0550223,-0.0141764,0.513939,0.0,0.0,0.0,-1.0
292472339,292471473,-0.0244102,-0.0770056,-0.00850152,0.513939,0.0,0.0,0.0,-1.0
292574910,292574053,-0.00274751,0.0615603,-0.00491926,0.513939,0.0,0.0,0.0,-1.0
292672491,292671629,-0.0597114,0.0531302,-0.00570407,0.513939,0.0,0.0,0.0,-1.0
292775069,292774210,-0.118677,0.0615171,-0.0044984,0.513939,0.0,0.0,0.0,-1.0
292872645,292871786,0.0396114,0.104276,-0.00452446,0.513939,0.0,0.0,0.0,-1.0
292972719,292971865,-0.0196359,-0.026199,0.00277691,0.513939,0.0,0.0,0.0,-1.0
293072797,293071943,-0.0429265,0.0113241,0.0114096,0.513939,0.0,0.0,0.0,-1.0
293172876,293172022,-0.0528343,0.0718256,0.0160252,0.513939,0.0,0.0,0.0,-1.0
293275460,293274603,-0.0101162,0.0344038,0.00800258,0.513939,0.0,0.0,0.0,-1.0
293373032,293372178,-0.0559646,0.0808076,0.000603175,0.512727,0.0,0.0,0.0,-1.0
293473134,293472262,-0.0829184,0.0255849,0.000735717,0.513939,0.0,0.0,0.0,-1.0
293573192,293572335,-0.014117,0.04493,0.00372295,0.512727,0.0,0.0,0.0,-1.0
293673282,293672413,0.00848234,0.0324867,0.00021003,0.512727,0.0,0.0,0.0,-1.0
293770846,293769990,0.00394224,-0.0703161,-0.00302745,0.513939,0.0,0.0,0.0,-1.0
293873429,293872572,0.0174331,0.00432161,-0.00361416,0.513939,0.0,0.0,0.0,-1.0
293976010,293975150,-0.0863476,0.0115817,-0.00304571,0.512727,0.0,0.0,0.0,-1.0
294073593,294072736,0.00329028,0.117845,-0.00914033,0.512727,0.0,0.0,0.0,-1.0
294173665,294172805,0.100092,-0.00733635,-0.0037424,0.512727,0.0,0.0,0.0,-1.0
294271241,294270381,-0.00709994,0.0508464,-0.00803984,0.513939,0.0,0.0,0.0,-1.0
294373816,294372962,-0.0576729,0.00953216,0.000204498,0.513939,0.0,0.0,0.0,-1.0
294471395,294470538,-0.121519,0.0748924,-0.00611433,0.513939,0.0,0.0,0.0,-1.0
294573988,294573131,-0.0881568,-0.0332873,0.00449815,0.513939,0.0,0.0,0.0,-1.0
294674062,294673200,-0.0760195,0.0369552,0.00147166,0.513939,0.0,0.0,0.0,-1.0
294771630,294770773,0.00390182,-0.0185613,-0.00211215,0.513939,0.0,0.0,0.0,-1.0
294871719,294870852,-0.0480777,0.0742113,-0.00334358,0.512727,0.0,0.0,0.0,-1.0
294971790,294970930,-0.0758017,0.0879034,-0.000474586,0.513939,0.0,0.0,0.0,-1.0
295074370,295073510,-0.0817647,0.0411443,-0.0101207,0.513939,0.0,0.0,0.0,-1.0
295171949,295171087,-0.0720582,-0.0101765,0.00119784,0.513939,0.0,0.0,0.0,-1.0
295272032,295271172,-0.0597095,0.0538335,0.000416767,0.513939,0.0,0.0,0.0,-1.0
295372110,295371243,-0.00412914,-0.0137187,0.00294842,0.513939,0.0,0.0,0.0,-1.0
295472179,295471322,0.0303204,0.0998349,-0.00223881,0.513939,0.0,0.0,0.0,-1.0
295574768,295573904,-0.0193529,0.0658267,0.00866304,0.513939,0.0,0.0,0.0,-1.0
295672341,295671478,0.0362718,0.00950297,0.00594753,0.513939,0.0,0.0,0.0,-1.0
295774928,295774060,0.0524823,0.0754194,0.00992033,0.513939,0.0,0.0,0.0,-1.0
295872494,295871635,-0.0284485,0.0346013,0.0124166,0.513939,0.0,0.0,0.0,-1.0
295972570,295971713,-0.034523,-0.0336733,0.0100149,0.513939,0.0,0.0,0.0,-1.0
296075161,296074301,0.0363202,0.0949136,0.0169302,0.513939,0.0,0.0,0.0,-1.0
296172729,296171870,-0.0109982,0.0201481,0.0121384,0.529697,0.0,0.0,0.0,-1.0
296275328,296274457,0.0633184,-0.0266004,0.00595166,0.512727,0.0,0.0,0.0,-1.0
296372883,296372027,-0.0583316,0.0583633,-0.00147202,0.512727,0.0,0.0,0.0,-1.0
296472977,296472111,-0.147997,0.059844,-0.00654814,0.512727,0.0,0.0,0.0,-1.0
296570534,296569681,0.0183163,0.040224,-0.00363694,0.513939,0.0,0.0,0.0,-1.0
296673128,296672271,-0.000838453,0.0987149,-0.0005408,0.513939,0.0,0.0,0.0,-1.0
296775696,296774842,-0.0133109,0.0192686,0.00627637,0.513939,0.0,0.0,0.0,-1.0
296873295,296872420,-0.0505921,0.0409621,0.00165276,0.513939,0.0,0.0,0.0,-1.0
296973373,296972497,-0.0141036,0.0313688,-0.00352131,0.512727,0.0,0.0,0.0,-1.0
297073447,297072575,0.00467837,-0.0310161,0.00117215,0.512727,0.0,0.0,0.0,-1.0
297173521,297172653,-0.0364116,-0.0173969,-0.00415679,0.512727,0.0,0.0,0.0,-1.0
297271103,297270238,-0.0627218,0.0257788,-0.00566288,0.512727,0.0,0.0,0.0,-1.0
297373670,297372810,-0.0252083,0.0184216,-0.0121957,0.513939,0.0,0.0,0.0,-1.0
297473745,297472888,-0.121218,0.0568,-0.00655735,0.512727,0.0,0.0,0.0,-1.0
297573823,297572966,-0.0130722,0.000447867,-0.00444907,0.513939,0.0,0.0,0.0,-1.0
297673910,297673045,-0.0371615,0.0477298,-0.00263569,0.512727,0.0,0.0,0.0,-1.0
297771491,297770621,0.0190494,0.0208007,-0.00755023,0.513939,0.0,0.0,0.0,-1.0
297874073,297873201,-0.112025,0.0492049,-0.0105059,0.512727,0.0,0.0,0.0,-1.0
297971631,297970778,-0.0770595,-0.0417942,-0.0105528,0.512727,0.0,0.0,0.0,-1.0
298074228,298073358,0.0176941,0.0174699,-0.00182732,0.512727,0.0,0.0,0.0,-1.0
298174302,298173436,-0.0777013,-0.0122822,-0.000701052,0.512727,0.0,0.0,0.0,-1.0
298271868,298271013,-0.0385454,0.0273605,-0.0101948,0.512727,0.0,0.0,0.0,-1.0
298374450,298373593,-0.0304701,-0.0236784,-0.000499564,0.512727,0.0,0.0,0.0,-1.0
298472028,298471169,-0.0497933,0.0503922,-0.00190296,0.512727,0.0,0.0,0.0,-1.0
298574618,298573749,-0.0487054,0.0719281,0.00270208,0.512727,0.0,0.0,0.0,-1.0
298672179,298671326,-0.0951321,-0.0936656,0.00306791,0.512727,0.0,0.0,0.0,-1.0
298772258,298771404,0.0823262,0.0289396,0.000411244,0.512727,0.0,0.0,0.0,-1.0
298874841,298873984,-0.10451,0.0119313,0.00254447,0.513939,0.0,0.0,0.0,-1.0
298972434,298971562,0.0254629,0.0203473,-0.00923961,0.513939,0.0,0.0,0.0,-1.0
299075004,299074141,0.0297223,0.0424526,-0.0117565,0.513939,0.0,0.0,0.0,-1.0
299172569,299171717,0.00777273,0.0292067,-0.0077007,0.512727,0.0,0.0,0.0,-1.0
299272650,299271798,-0.0426416,0.0538099,-0.00674756,0.513939,0.0,0.0,0.0,-1.0
299372727,299371874,0.0856094,0.0249649,0.00341093,0.513939,0.0,0.0,0.0,-1.0
299472805,299471952,-0.0834838,0.00692837,-0.000715596,0.513939,0.0,0.0,0.0,-1.0
299575403,299574532,-0.0292353,-0.00443428,0.00385178,0.513939,0.0,0.0,0.0,-1.0
299672979,299672109,-0.122355,0.0416474,-0.000202707,0.513939,0.0,0.0,0.0,-1.0
299775562,299774689,0.0176719,-0.0396221,-0.00280954,0.512727,0.0,0.0,0.0,-1.0
299873134,299872272,-0.126724,0.0033615,-0.0010318,0.513939,0.0,0.0,0.0,-1.0
299973196,299972344,-0.0311624,0.0207529,-0.000157354,0.513939,0.0,0.0,0.0,-1.0
300070780,300069921,0.0371074,0.0295313,0.000538805,0.513939,0.0,0.0,0.0,-1.0
300173362,300172500,-0.0530474,0.0199182,-0.00343909,0.513939,0.0,0.0,0.0,-1.0
300275963,300275080,-0.0200386,0.0225252,-0.00940599,0.512727,0.0,0.0,0.0,-1.0
300373509,300372656,-0.0372117,-0.0818812,-0.0116319,0.512727,0.0,0.0,0.0,-1.0
300473587,300472735,0.00374858,0.0732585,-0.0143667,0.512727,0.0,0.0,0.0,-1.0
300571171,300570311,-0.0273319,0.00355059,-0.0126331,0.512727,0.0,0.0,0.0,-1.0
300673744,300672891,0.00864184,0.0410288,-0.0140264,0.513939,0.0,0.0,0.0,-1.0
300771338,300770467,-0.0547626,-0.0163249,-0.0097006,0.513939,0.0,0.0,0.0,-1.0
300873903,300873048,-0.0799086,0.0442266,-0.0074339,0.513939,0.0,0.0,0.0,-1.0
300973979,300973126,0.0541853,0.0511302,0.000732147,0.513939,0.0,0.0,0.0,-1.0
301071559,301070702,-0.121122,-0.0930295,0.0119853,0.513939,0.0,0.0,0.0,-1.0
301174136,301173283,-0.0436804,0.0292471,0.0120002,0.513939,0.0,0.0,0.0,-1.0
301271715,301270859,0.0113609,0.00964156,0.0133966,0.513939,0.0,0.0,0.0,-1.0
301374299,301373439,-0.140582,0.0447728,0.0149167,0.511515,0.0,0.0,0.0,-1.0
301471878,301471015,0.0710603,0.00203338,0.0217649,0.512727,0.0,0.0,0.0,-1.0
301574463,301573597,0.0807154,-0.00355065,0.00460328,0.512727,0.0,0.0,0.0,-1.0
301674529,301673674,-0.0144523,0.0709352,0.000812289,0.512727,0.0,0.0,0.0,-1.0
301772113,301771250,0.027918,0.0754323,-0.00402776,0.513939,0.0,0.0,0.0,-1.0
301874689,301873830,-0.106376,0.00356513,-0.00324015,0.513939,0.0,0.0,0.0,-1.0
301972274,301971406,0.0130813,0.0109223,-0.00341822,0.513939,0.0,0.0,0.0,-1.0
302074839,302073986,-0.0163888,0.0473265,-0.00515948,0.513939,0.0,0.0,0.0,-1.0
302172420,302171563,0.0114917,0.041704,-0.0101332,0.512727,0.0,0.0,0.0,-1.0
302272498,302271641,-0.0743169,0.0333107,-0.00896141,0.512727,0.0,0.0,0.0,-1.0
302375101,302374237,-0.0747587,0.0376606,-0.00671718,0.513939,0.0,0.0,0.0,-1.0
302472655,302471797,0.0352556,0.020803,-0.0118794,0.513939,0.0,0.0,0.0,-1.0
302575237,302574378,-0.0111374,0.101519,-0.0183089,0.513939,0.0,0.0,0.0,-1.0
302672813,302671954,0.0197497,0.00489966,-0.013541,0.513939,0.0,0.0,0.0,-1.0
302772895,302772032,-0.0520728,-0.0231898,-0.0180505,0.513939,0.0,0.0,0.0,-1.0
302872978,302872110,-0.0227384,0.0751878,-0.0158074,0.513939,0.0,0.0,0.0,-1.0
302973048,302972189,0.0416695,0.0283841,-0.0138168,0.513939,0.0,0.0,0.0,-1.0
303075623,303074771,-0.0271512,0.089772,-0.0215344,0.513939,0.0,0.0,0.0,-1.0
303173205,303172345,0.0271156,0.0288814,-0.0157066,0.512727,0.0,0.0,0.0,-1.0
303273291,303272423,-0.0768533,0.0582523,-0.0100054,0.512727,0.0,0.0,0.0,-1.0
303373362,303372501,0.0339264,0.0585837,-0.0115042,0.513939,0.0,0.0,0.0,-1.0
303473443,303472580,-0.0224475,-0.00933813,-0.0110471,0.513939,0.0,0.0,0.0,-1.0
303571026,303570169,-0.039439,-0.00207173,-0.00486681,0.512727,0.0,0.0,0.0,-1.0
303673596,303672736,-0.0414166,0.00454361,-0.00845704,0.512727,0.0,0.0,0.0,-1.0
303773674,303772814,0.0568984,0.0107478,-0.0127734,0.512727,0.0,0.0,0.0,-1.0
303873750,303872893,-0.0391578,-0.0395259,0.00474729,0.512727,0.0,0.0,0.0,-1.0
303973831,303972971,-0.0541241,0.0608041,-0.00457505,0.513939,0.0,0.0,0.0,-1.0
304071416,304070547,0.0295777,0.0476921,-0.00459722,0.512727,0.0,0.0,0.0,-1.0
304173989,304173129,-0.0595448,0.102425,-0.00592119,0.513939,0.0,0.0,0.0,-1.0
304271569,304270704,0.0827686,0.00786393,-0.00319935,0.513939,0.0,0.0,0.0,-1.0
304374141,304373284,-0.0387869,0.0575341,-0.000279444,0.512727,0.0,0.0,0.0,-1.0
304474221,304473362,-0.0605154,0.0278921,-0.00700583,0.513939,0.0,0.0,0.0,-1.0
304571792,304570938,0.0313467,0.018859,-0.0055345,0.513939,0.0,0.0,0.0,-1.0
304674383,304673518,0.0136977,0.01111,-0.00492321,0.512727,0.0,0.0,0.0,-1.0
304771949,304771094,-0.0799397,-0.0464678,-0.00829363,0.512727,0.0,0.0,0.0,-1.0
304874531,304873675,0.041864,0.0885813,-0.00641568,0.512727,0.0,0.0,0.0,-1.0
304972117,304971253,-0.0320039,-0.00771388,-0.00992766,0.513939,0.0,0.0,0.0,-1.0
305072186,305071332,-0.0811045,-0.00755126,-0.00542404,0.512727,0.0,0.0,0.0,-1.0
305174766,305173909,-0.0103271,0.0144701,-0.0140984,0.513939,0.0,0.0,0.0,-1.0
305272359,305271486,-0.0157964,-0.03097,-0.0015933,0.513939,0.0,0.0,0.0,-1.0
305374933,305374066,0.007199,0.0769798,-0.0108454,0.512727,0.0,0.0,0.0,-1.0
305472496,305471642,-0.00439967,-0.00302917,-0.00615097,0.513939,0.0,0.0,0.0,-1.0
305572574,305571720,-0.0161939,0.0459242,-1.94683e-05,0.513939,0.0,0.0,0.0,-1.0
305672654,305671800,0.0170069,-0.0300611,-0.00426481,0.513939,0.0,0.0,0.0,-1.0
305772734,305771876,-0.0491012,0.0725897,-0.00345293,0.513939,0.0,0.0,0.0,-1.0
305875331,305874457,-0.0788904,-0.00923646,-0.0010583,0.512727,0.0,0.0,0.0,-1.0
305972906,305972035,-0.0498295,0.0196848,0.00423774,0.513939,0.0,0.0,0.0,-1.0
306075481,306074613,-0.000840822,0.112389,-0.00639144,0.513939,0.0,0.0,0.0,-1.0
306173069,306172198,0.0628199,0.0338873,-0.0102401,0.513939,0.0,0.0,0.0,-1.0
306273130,306272276,-0.0265368,-0.0734215,-0.000514254,0.512727,0.0,0.0,0.0,-1.0
306370704,306369844,-0.0668925,0.0596183,0.000541836,0.512727,0.0,0.0,0.0,-1.0
306473294,306472426,-0.0793899,0.0940644,-0.00758724,0.512727,0.0,0.0,0.0,-1.0
306575861,306575004,-0.0532847,-0.0154136,-0.00475568,0.512727,0.0,0.0,0.0,-1.0
306673451,306672580,-0.108443,0.0499465,-0.000837898,0.512727,0.0,0.0,0.0,-1.0
306773513,306772659,0.0101989,-0.0257867,-0.00696542,0.513939,0.0,0.0,0.0,-1.0
306871098,306870235,-0.0965815,0.0783525,-0.00546561,0.513939,0.0,0.0,0.0,-1.0
306973685,306972817,0.014552,0.0159772,-0.00504496,0.513939,0.0,0.0,0.0,-1.0
307071258,307070391,-0.0200854,0.0310098,-0.0082463,0.513939,0.0,0.0,0.0,-1.0
307173828,307172971,-0.0550564,0.0644454,-0.00863867,0.513939,0.0,0.0,0.0,-1.0
307273903,307273049,0.0667639,-0.00508568,-0.00721226,0.513939,0.0,0.0,0.0,-1.0
307374011,307373129,0.00428231,-0.0434077,-0.00747638,0.513939,0.0,0.0,0.0,-1.0
307474067,307473206,-0.0234844,0.0275032,-0.0153755,0.512727,0.0,0.0,0.0,-1.0
307571641,307570782,0.0280948,-0.022575,-0.00889578,0.513939,0.0,0.0,0.0,-1.0
307674234,307673362,-0.0228199,0.0446905,-0.00868484,0.513939,0.0,0.0,0.0,-1.0
307774318,307773442,0.011557,-0.00295524,-0.0149811,0.513939,0.0,0.0,0.0,-1.0
307874375,307873518,0.00429423,0.0315315,-0.0112608,0.513939,0.0,0.0,0.0,-1.0
307971955,307971095,-0.0405769,0.0458787,-0.0145033,0.513939,0.0,0.0,0.0,-1.0
308072037,308071175,0.0402101,0.047447,-0.00993287,0.513939,0.0,0.0,0.0,-1.0
308174630,308173755,-0.0675553,-0.000471634,-0.00944948,0.513939,0.0,0.0,0.0,-1.0
308272189,308271329,-0.0182663,-0.000288304,-0.00650641,0.513939,0.0,0.0,0.0,-1.0
308374779,308373914,-0.00666758,-0.0305221,0.00121909,0.512727,0.0,0.0,0.0,-1.0
308472351,308471486,-0.00385918,0.058977,-0.00292363,0.512727,0.0,0.0,0.0,-1.0
308572425,308571564,-0.0186142,0.0570299,0.00145817,0.513939,0.0,0.0,0.0,-1.0
308672509,308671642,-0.0442763,-0.0331287,0.00791909,0.513939,0.0,0.0,0.0,-1.0
308772577,308771720,-0.137172,0.0716,0.0116276,0.513939,0.0,0.0,0.0,-1.0
308875155,308874300,-0.0636327,-0.0140621,0.0126431,0.512727,0.0,0.0,0.0,-1.0
308972733,308971876,0.00602681,0.0689273,0.0115196,0.511515,0.0,0.0,0.0,-1.0
309072811,309071954,0.0308375,0.0333883,0.0122862,0.509091,0.0,0.0,0.0,-1.0
309175420,309174544,-0.0222997,0.0201004,0.00419,0.513939,0.0,0.0,0.0,-1.0
309272971,309272111,-0.146166,0.0786665,-0.0208093,0.507879,0.0,0.0,0.0,-1.0
309375549,309374695,-0.125359,0.0329239,-0.0266769,0.507879,0.0,0.0,0.0,-1.0
309473130,309472274,-0.0354394,0.078687,-0.0566236,0.511515,0.0,0.0,0.0,-1.0
309573223,309572351,-0.0383039,0.0938177,-0.0417399,0.511515,0.0,0.0,0.0,-1.0
309673291,309672423,-0.00596063,0.00925546,-0.0514031,0.509091,0.0,0.0,0.0,-1.0
309773365,309772502,0.0104554,-0.0114815,-0.0429112,0.489309,0.0,0.0,0.0,-1.0
309870930,309870078,-0.0457223,0.0144301,-0.0679449,0.489309,0.0,0.0,0.0,-1.0
309973515,309972658,-0.0162008,-0.0391479,-0.100728,0.491345,0.0,0.0,0.0,-1.0
310073596,310072736,-0.0772913,0.0120991,-0.05577,0.491345,0.0,0.0,0.0,-1.0
310173679,310172822,-0.00650336,0.0459714,-0.0550528,0.490327,0.0,0.0,0.0,-1.0
310273767,310272902,-0.0326051,0.0137656,-0.0552415,0.491345,0.0,0.0,0.0,-1.0
310371327,310370469,-0.0244011,0.0378933,-0.0483298,0.491345,0.0,0.0,0.0,-1.0
310473906,310473049,-0.0391636,-0.000729826,-0.0454231,0.490327,0.0,0.0,0.0,-1.0
310571477,310570625,-0.0106918,0.0684303,-0.0553505,0.490327,0.0,0.0,0.0,-1.0
310674064,310673205,-0.15423,-0.0134673,-0.0365162,0.490327,0.0,0.0,0.0,-1.0
310774152,310773284,0.0331727,0.0649657,-0.0395286,0.490327,0.0,0.0,0.0,-1.0
310871721,310870859,0.036357,-0.037949,-0.0345736,0.490327,0.0,0.0,0.0,-1.0
310974317,310973439,-0.0177349,0.0527612,-0.0305092,0.490327,0.0,0.0,0.0,-1.0
311071869,311071016,-0.0821598,0.119976,-0.0158283,0.490327,0.0,0.0,0.0,-1.0
311174453,311173596,-0.0502821,0.0729685,-0.0157381,0.490327,0.0,0.0,0.0,-1.0
311272027,311271175,-0.00758475,0.110545,-0.00636669,0.490327,0.0,0.0,0.0,-1.0
311372108,311371250,0.0938493,0.0839565,-0.0184017,0.490327,0.0,0.0,0.0,-1.0
311474705,311473830,0.040582,-0.00706083,-0.0162736,0.492364,0.0,0.0,0.0,-1.0
311572261,311571407,-0.091419,0.108579,-0.0163433,0.492364,0.0,0.0,0.0,-1.0
311674846,311673986,0.0198913,-0.0226159,-0.00337097,0.490327,0.0,0.0,0.0,-1.0
311772415,311771563,0.024804,0.0320217,0.0412815,0.490327,0.0,0.0,0.0,-1.0
311875009,311874144,0.0114881,-0.026948,0.00445661,0.490327,0.0,0.0,0.0,-1.0
311972579,311971719,-0.0490422,0.037601,0.023517,0.492364,0.0,0.0,0.0,-1.0
312072655,312071797,-0.0918787,-0.00942928,0.10867,0.491345,0.0,0.0,0.0,-1.0
312175251,312174385,-0.0504829,-0.0290908,0.054837,0.491345,0.0,0.0,0.0,-1.0
312272813,312271961,0.201637,0.0125104,0.0280732,0.490327,0.0,0.0,0.0,-1.0
312375416,312374534,-0.0948368,-0.0303701,0.0206584,0.492364,0.0,0.0,0.0,-1.0
312472963,312472110,-0.0665923,-0.0339002,0.00799748,0.491345,0.0,0.0,0.0,-1.0
312573044,312572188,-0.0647249,0.109989,-0.00373522,0.491345,0.0,0.0,0.0,-1.0
312670621,312669764,-0.0936625,0.0188621,-0.00632175,0.491345,0.0,0.0,0.0,-1.0
312773217,312772351,-0.0428057,-0.0329197,-0.00419493,0.491345,0.0,0.0,0.0,-1.0
312875798,312874924,0.00176829,-0.0482767,-0.00621193,0.491345,0.0,0.0,0.0,-1.0
312973377,312972508,-0.0129125,-0.00848088,-0.00714627,0.491345,0.0,0.0,0.0,-1.0
313073439,313072579,-0.0612385,0.0750443,-0.0144801,0.491345,0.0,0.0,0.0,-1.0
313171025,313170155,-0.0476481,-0.0544846,-0.00678951,0.491345,0.0,0.0,0.0,-1.0
313273591,313272735,-0.0388464,0.0289666,-0.0237437,0.491345,0.0,0.0,0.0,-1.0
313371168,313370311,0.0224993,0.0117741,-0.0219051,0.491345,0.0,0.0,0.0,-1.0
313473744,313472891,-0.00709895,-0.0118005,-0.0625231,0.491345,0.0,0.0,0.0,-1.0
313573822,313572969,-0.0145312,-0.0808184,-0.0588342,0.491345,0.0,0.0,0.0,-1.0
313673928,313673050,0.0786644,0.0497066,-0.0564671,0.491345,0.0,0.0,0.0,-1.0
313773981,313773126,-0.0382875,0.0806063,-0.0418245,0.491345,0.0,0.0,0.0,-1.0
313871568,313870702,-0.0377771,0.0540243,-0.0343181,0.491345,0.0,0.0,0.0,-1.0
313974136,313973282,0.0103975,0.0501952,-0.0306784,0.490327,0.0,0.0,0.0,-1.0
314071718,314070858,0.0267973,-0.0829275,-0.0215562,0.490327,0.0,0.0,0.0,-1.0
314174306,314173438,-0.055637,0.00988669,-0.0203264,0.491345,0.0,0.0,0.0,-1.0
314274370,314273516,-0.0508938,0.0882768,-0.021559,0.491345,0.0,0.0,0.0,-1.0
314371950,314371092,-0.0425694,0.0212366,-0.0103049,0.490327,0.0,0.0,0.0,-1.0
314474525,314473673,-0.000290323,0.0474523,-0.00923702,0.490327,0.0,0.0,0.0,-1.0
314572110,314571249,-0.0512474,0.136921,-0.013264,0.491345,0.0,0.0,0.0,-1.0
314674683,314673829,-0.0675958,0.0359887,-0.0156113,0.491345,0.0,0.0,0.0,-1.0
314772276,314771405,0.037274,0.034421,-0.0117607,0.491345,0.0,0.0,0.0,-1.0
314872346,314871483,0.0281422,-0.0779626,-0.017394,0.491345,0.0,0.0,0.0,-1.0
314974916,314974063,-0.0613784,-0.0488464,-0.0121789,0.491345,0.0,0.0,0.0,-1.0
315072496,315071639,0.00549786,0.0242856,-0.00896577,0.491345,0.0,0.0,0.0,-1.0
315175087,315174221,0.00231119,-0.040843,-0.019445,0.491345,0.0,0.0,0.0,-1.0
315272657,315271796,0.0379347,0.0267323,-0.017032,0.491345,0.0,0.0,0.0,-1.0
315372747,315371880,-0.0490419,0.0717166,-0.020324,0.491345,0.0,0.0,0.0,-1.0
315472809,315471952,0.0397662,-0.0413366,-0.0067475,0.491345,0.0,0.0,0.0,-1.0
315572887,315572030,0.00374062,0.0096841,0.0161176,0.491345,0.0,0.0,0.0,-1.0
315675466,315674613,0.0171413,-0.0729018,0.0223417,0.491345,0.0,0.0,0.0,-1.0
315773048,315772186,-0.0279724,0.00880572,0.0233635,0.491345,0.0,0.0,0.0,-1.0
315873127,315872270,-0.0766376,-0.0767337,0.0216899,0.491345,0.0,0.0,0.0,-1.0
315973199,315972343,-0.0817199,0.091527,0.0125867,0.491345,0.0,0.0,0.0,-1.0
316073288,316072420,0.118243,-0.0367147,0.00742261,0.491345,0.0,0.0,0.0,-1.0
316170853,316170000,-0.0275625,0.0356834,0.00419999,0.491345,0.0,0.0,0.0,-1.0
316273435,316272577,-0.0182241,-0.00472346,0.0117737,0.491345,0.0,0.0,0.0,-1.0
316373543,316372655,-0.0428085,-0.00787932,0.0021005,0.491345,0.0,0.0,0.0,-1.0
316473589,316472733,0.0155985,0.022518,-0.00772634,0.491345,0.0,0.0,0.0,-1.0
316573679,316572818,-0.042208,0.0680704,-0.00969585,0.491345,0.0,0.0,0.0,-1.0
316671246,316670387,-0.0112581,-0.000502881,-0.00673815,0.489309,0.0,0.0,0.0,-1.0
316773824,316772967,-0.0584626,0.0216405,-0.00514617,0.490327,0.0,0.0,0.0,-1.0
316871419,316870545,-0.0128924,-0.0611144,-0.00263284,0.490327,0.0,0.0,0.0,-1.0
316973988,316973123,-0.0230004,-0.00497782,-0.0108508,0.490327,0.0,0.0,0.0,-1.0
317074063,317073201,0.0286295,-0.0587329,-0.000952914,0.490327,0.0,0.0,0.0,-1.0
317171631,317170777,0.0159454,0.0263868,0.00426153,0.490327,0.0,0.0,0.0,-1.0
317274218,317273357,0.00128562,0.0717369,-0.000252263,0.490327,0.0,0.0,0.0,-1.0
317371787,317370933,-0.000172432,0.016854,0.00512124,0.490327,0.0,0.0,0.0,-1.0
317474372,317473513,-0.0931559,-0.0285546,0.0165661,0.491345,0.0,0.0,0.0,-1.0
317571943,317571089,-0.112396,-0.0234151,0.0226658,0.491345,0.0,0.0,0.0,-1.0
317672028,317671168,-0.00260047,0.0507801,0.0112553,0.491345,0.0,0.0,0.0,-1.0
317774617,317773747,-0.0491944,0.0407146,0.00985326,0.491345,0.0,0.0,0.0,-1.0
317872179,317871325,0.0476714,0.0578467,0.00181736,0.491345,0.0,0.0,0.0,-1.0
317974760,317973903,-0.0593061,-0.0275949,0.00553579,0.491345,0.0,0.0,0.0,-1.0
318072355,318071480,-0.0103569,-0.0241934,0.00292618,0.490327,0.0,0.0,0.0,-1.0
318174930,318174059,0.00327179,-0.0400384,-0.00775429,0.490327,0.0,0.0,0.0,-1.0
318272494,318271639,0.0381361,0.0241689,-0.00443941,0.490327,0.0,0.0,0.0,-1.0
318372568,318371714,-0.033785,-0.0698321,-0.00697663,0.488291,0.0,0.0,0.0,-1.0
318475164,318474294,-0.0367516,-0.0456054,-0.00470652,0.491345,0.0,0.0,0.0,-1.0
318572727,318571870,0.0356719,-0.00578052,-0.00793799,0.491345,0.0,0.0,0.0,-1.0
318675329,318674450,-0.0171608,0.0989782,-0.0093448,0.490327,0.0,0.0,0.0,-1.0
318772883,318772026,-0.013713,0.0874146,-0.0119153,0.490327,0.0,0.0,0.0,-1.0
318872966,318872104,0.000111296,-0.0128792,-0.000714786,0.488291,0.0,0.0,0.0,-1.0
318970537,318969680,0.00238498,0.0358006,-0.00201471,0.488291,0.0,0.0,0.0,-1.0
319073137,319072273,0.0232975,0.0507406,0.00632662,0.490327,0.0,0.0,0.0,-1.0
319175696,319174839,0.00399384,-0.0176651,0.0108199,0.491345,0.0,0.0,0.0,-1.0
319273288,319272416,-0.0855236,0.0761443,0.0033551,0.491345,0.0,0.0,0.0,-1.0
319373366,319372493,-0.0124929,0.0287072,0.0012033,0.491345,0.0,0.0,0.0,-1.0
319473441,319472571,-0.022808,0.0309211,0.00112909,0.491345,0.0,0.0,0.0,-1.0
319573507,319572650,-0.0229476,-0.00838807,0.00132814,0.491345,0.0,0.0,0.0,-1.0
319671089,319670226,0.0169758,0.0151365,0.00316202,0.493382,0.0,0.0,0.0,-1.0
319773663,319772806,0.113072,0.00566459,-0.0059409,0.490327,0.0,0.0,0.0,-1.0
319873745,319872883,0.0931621,-0.00311954,-0.013751,0.491345,0.0,0.0,0.0,-1.0
319973817,319972963,0.0352796,-0.0472288,-0.0146773,0.490327,0.0,0.0,0.0,-1.0
320073896,320073039,-0.0147339,0.0553592,-0.0140786,0.491345,0.0,0.0,0.0,-1.0
320171480,320170615,-0.0384515,0.10401,-0.0201043,0.491345,0.0,0.0,0.0,-1.0
320274053,320273196,0.0641857,0.0198753,-0.0252256,0.491345,0.0,0.0,0.0,-1.0
320371634,320370771,-0.0158466,-0.0393504,-0.0224737,0.491345,0.0,0.0,0.0,-1.0
320474228,320473369,0.0145482,-0.0883335,-0.0255039,0.491345,0.0,0.0,0.0,-1.0
320571794,320570927,-0.053326,-0.0129348,-0.0340015,0.490327,0.0,0.0,0.0,-1.0
320671862,320671005,0.0135207,0.00163946,-0.0251754,0.490327,0.0,0.0,0.0,-1.0
320771951,320771083,0.0020126,0.00671109,-0.0292081,0.490327,0.0,0.0,0.0,-1.0
320872037,320871161,0.00145172,-0.0196341,-0.0245754,0.490327,0.0,0.0,0.0,-1.0
320974619,320973743,-0.0958201,-0.0251888,0.0114446,0.490327,0.0,0.0,0.0,-1.0
321072180,321071317,-0.00208465,0.030407,0.0469724,0.490327,0.0,0.0,0.0,-1.0
321172253,321171395,-0.131644,-0.000294003,0.0242945,0.522424,0.0,0.0,0.0,-1.0
321272343,321271473,0.0526081,0.111112,0.0161694,0.518788,0.0,0.0,0.0,-1.0
321374920,321374054,-0.00751507,-0.0056156,0.0282165,0.512727,0.0,0.0,0.0,-1.0
321474986,321474131,0.0128709,-0.0164843,0.0513196,0.512727,0.0,0.0,0.0,-1.0
321572571,321571706,-0.0229384,-0.00116723,0.040689,0.512727,0.0,0.0,0.0,-1.0
321672645,321671784,0.0452983,-0.00242027,0.0106652,0.512727,0.0,0.0,0.0,-1.0
321772731,321771869,-0.00384528,-0.0197134,0.00431253,0.511515,0.0,0.0,0.0,-1.0
321872806,321871940,-0.0241388,-0.000290817,0.00808983,0.511515,0.0,0.0,0.0,-1.0
321975404,321974522,0.0616822,-0.0408012,-0.00320549,0.511515,0.0,0.0,0.0,-1.0
322072953,322072096,0.113241,-0.00212287,-0.0747996,0.510303,0.0,0.0,0.0,-1.0
322173030,322172174,-0.103488,0.0406822,-0.0607005,0.510303,0.0,0.0,0.0,-1.0
322273121,322272252,-0.0482905,0.0675601,-0.0429459,0.509091,0.0,0.0,0.0,-1.0
322373196,322372339,0.0233385,0.0155767,-0.0289558,0.509091,0.0,0.0,0.0,-1.0
322470758,322469905,0.0450881,-0.100856,-0.0296435,0.509091,0.0,0.0,0.0,-1.0
322573349,322572485,-0.157339,0.107542,-0.033993,0.510303,0.0,0.0,0.0,-1.0
322675933,322675065,0.0385864,0.0374144,-0.0310903,0.510303,0.0,0.0,0.0,-1.0
322773498,322772641,0.0304142,0.0473078,-0.0253572,0.510303,0.0,0.0,0.0,-1.0
322873575,322872719,0.109811,-0.100948,-0.0252747,0.509091,0.0,0.0,0.0,-1.0
322971148,322970295,-0.0985139,0.113291,-0.0205121,0.510303,0.0,0.0,0.0,-1.0
323073742,323072882,-0.041755,-0.0155973,-0.0180619,0.509091,0.0,0.0,0.0,-1.0
323171309,323170450,0.0420522,0.0102071,-0.0100984,0.510303,0.0,0.0,0.0,-1.0
323273891,323273030,0.0164586,-0.0351714,-0.00318367,0.510303,0.0,0.0,0.0,-1.0
323373968,323373108,-0.0537683,0.0339613,-0.00197358,0.510303,0.0,0.0,0.0,-1.0
323471536,323470684,0.0977936,-0.0785417,-0.00527706,0.509091,0.0,0.0,0.0,-1.0
323574128,323573271,-0.0910455,0.0319045,-0.0137336,0.510303,0.0,0.0,0.0,-1.0
323671692,323670839,0.128372,-0.0318689,-0.00503677,0.510303,0.0,0.0,0.0,-1.0
323774295,323773419,0.0708481,-0.0470813,-0.00528994,0.509091,0.0,0.0,0.0,-1.0
323871848,323870995,-0.065228,0.0280341,-0.0157325,0.507879,0.0,0.0,0.0,-1.0
323974443,323973575,0.0266998,0.0564143,-0.0180544,0.509091,0.0,0.0,0.0,-1.0
324074513,324073653,0.115959,-0.117496,-0.0199033,0.509091,0.0,0.0,0.0,-1.0
324172081,324171229,-0.0393414,0.0441851,-0.0215213,0.510303,0.0,0.0,0.0,-1.0
324274667,324273808,-0.0544605,0.0354045,-0.0259082,0.509091,0.0,0.0,0.0,-1.0
324372244,324371384,0.0611972,-0.0232276,-0.0231952,0.509091,0.0,0.0,0.0,-1.0
324474829,324473964,-0.0242477,0.0928577,-0.0215776,0.509091,0.0,0.0,0.0,-1.0
324572392,324571540,-0.012637,0.075579,-0.0241488,0.510303,0.0,0.0,0.0,-1.0
324672473,324671618,0.014579,-0.0129825,-0.0290057,0.509091,0.0,0.0,0.0,-1.0
324775060,324774198,-0.0575239,0.0392923,-0.0359681,0.510303,0.0,0.0,0.0,-1.0
324872628,324871773,0.0557175,0.0832816,-0.0316755,0.509091,0.0,0.0,0.0,-1.0
324975215,324974356,0.015713,-0.0260395,-0.0205286,0.509091,0.0,0.0,0.0,-1.0
325072781,325071929,0.0688117,0.0597031,-0.0231402,0.511515,0.0,0.0,0.0,-1.0
325172865,325172007,-0.101629,0.106633,0.00164495,0.511515,0.0,0.0,0.0,-1.0
325272965,325272096,-0.0462071,0.0358196,0.025588,0.518788,0.0,0.0,0.0,-1.0
325373022,325372169,0.0459231,0.0149866,0.00875861,0.518788,0.0,0.0,0.0,-1.0
325475612,325474742,-0.0349329,0.0422616,0.00846922,0.532121,0.0,0.0,0.0,-1.0
325573176,325572318,0.077553,-0.00732975,0.0107893,0.535758,0.0,0.0,0.0,-1.0
325673262,325672396,-0.131844,0.00167111,0.0194972,0.532121,0.0,0.0,0.0,-1.0
325773347,325772482,0.0372828,0.00513201,0.021066,0.524848,0.0,0.0,0.0,-1.0
325873421,325872554,0.0212839,-0.0288286,0.0227215,0.523636,0.0,0.0,0.0,-1.0
325970983,325970127,0.0410347,0.0453358,0.00970916,0.523636,0.0,0.0,0.0,-1.0
326073566,326072713,0.0339234,0.0676598,-0.0124101,0.526061,0.0,0.0,0.0,-1.0
326173640,326172787,-0.0113752,0.0517,-0.0850521,0.517576,0.0,0.0,0.0,-1.0
326273718,326272862,-0.0722585,0.0566078,-0.0501182,0.518788,0.0,0.0,0.0,-1.0
326373793,326372940,0.00779447,0.0405054,-0.0476501,0.518788,0.0,0.0,0.0,-1.0
326471380,326470516,0.0655566,0.0225035,-0.0460401,0.518788,0.0,0.0,0.0,-1.0
326573961,326573095,-0.0132216,0.0477756,-0.0298928,0.52,0.0,0.0,0.0,-1.0
326671528,326670671,-0.0710101,0.0146035,-0.0242053,0.52,0.0,0.0,0.0,-1.0
326774112,326773251,-0.0325275,-0.0170246,-0.0180721,0.52,0.0,0.0,0.0,-1.0
326874191,326873332,-0.0678487,0.0143281,-0.0189897,0.52,0.0,0.0,0.0,-1.0
326971764,326970904,-0.0295143,-0.0796019,-0.0180795,0.52,0.0,0.0,0.0,-1.0
327074346,327073484,-0.12335,0.0194144,-0.0135587,0.518788,0.0,0.0,0.0,-1.0
327171924,327171060,-0.0291344,0.0983629,-0.0124723,0.52,0.0,0.0,0.0,-1.0
327274495,327273639,-0.0210573,0.000733433,-0.016587,0.518788,0.0,0.0,0.0,-1.0
327372076,327371217,-0.0449236,0.0789471,-0.0155018,0.52,0.0,0.0,0.0,-1.0
327472150,327471293,0.00703127,-0.00320794,-0.0130555,0.518788,0.0,0.0,0.0,-1.0
327574731,327573873,0.0625833,0.013067,-0.0148415,0.518788,0.0,0.0,0.0,-1.0
327672327,327671448,0.0174816,-0.0283612,-0.00674816,0.518788,0.0,0.0,0.0,-1.0
327774899,327774034,-0.0517538,-0.0249736,-0.0139823,0.52,0.0,0.0,0.0,-1.0
327872475,327871606,-0.055571,-0.0513546,-0.0140593,0.518788,0.0,0.0,0.0,-1.0
327972544,327971682,-0.0569602,0.0679797,-0.0182917,0.518788,0.0,0.0,0.0,-1.0
328072618,328071759,-0.0213019,-0.01765,-0.0155661,0.518788,0.0,0.0,0.0,-1.0
328172694,328171837,-0.0393493,0.0647585,-0.0151082,0.518788,0.0,0.0,0.0,-1.0
328275277,328274416,-0.0246275,-0.0426306,0.00153845,0.526061,0.0,0.0,0.0,-1.0
328372849,328371992,-0.0391773,-0.00672777,-0.00137829,0.517576,0.0,0.0,0.0,-1.0
328475446,328474579,0.000998426,0.0459191,-0.00724583,0.518788,0.0,0.0,0.0,-1.0
328573004,328572148,-0.123819,-0.00748448,-0.00223467,0.52,0.0,0.0,0.0,-1.0
328673088,328672226,0.106978,-0.0874863,-0.00495332,0.52,0.0,0.0,0.0,-1.0
328770655,328769801,-0.0152382,0.0669777,-0.011307,0.518788,0.0,0.0,0.0,-1.0
328873239,328872381,0.0265592,-0.0277543,-0.00870585,0.522424,0.0,0.0,0.0,-1.0
328975817,328974960,-0.0656751,0.0774387,-0.00445603,0.523636,0.0,0.0,0.0,-1.0
329073397,329072536,0.0567082,0.0486427,0.0432296,0.528485,0.0,0.0,0.0,-1.0
329173474,329172614,-0.0767913,-0.0105083,0.0503708,0.530909,0.0,0.0,0.0,-1.0
329271047,329270190,-0.00961393,-0.0194503,0.0594314,0.530909,0.0,0.0,0.0,-1.0
329373627,329372769,-0.0503547,0.0257446,0.060521,0.529697,0.0,0.0,0.0,-1.0
329471202,329470348,-0.0201042,0.0120448,0.0334953,0.528485,0.0,0.0,0.0,-1.0
329573782,329572924,-0.0596812,-0.097825,0.0515778,0.527273,0.0,0.0,0.0,-1.0
329673859,329673002,0.066389,-0.0884233,0.043695,0.527273,0.0,0.0,0.0,-1.0
329773950,329773080,-0.0269913,0.130302,0.0244512,0.524848,0.0,0.0,0.0,-1.0
329874015,329873157,-0.123956,0.094818,-0.0286644,0.526061,0.0,0.0,0.0,-1.0
329971587,329970733,-0.0155829,0.100852,-0.0784637,0.52,0.0,0.0,0.0,-1.0
330074170,330073313,-0.0363337,0.052066,-0.0560569,0.527273,0.0,0.0,0.0,-1.0
330171748,330170890,-0.0987228,-0.0298886,-0.0508298,0.52,0.0,0.0,0.0,-1.0
330274338,330273471,-0.0212105,-0.0457112,-0.0418849,0.52,0.0,0.0,0.0,-1.0
330374409,330373552,0.0141065,-0.029571,-0.0337101,0.521212,0.0,0.0,0.0,-1.0
330471978,330471121,-0.0484112,0.03047,-0.0200025,0.521212,0.0,0.0,0.0,-1.0
330574585,330573701,-0.0618919,0.0904843,-0.0271988,0.517576,0.0,0.0,0.0,-1.0
330672145,330671285,-0.0439909,0.114084,-0.026089,0.518788,0.0,0.0,0.0,-1.0
330774719,330773856,0.0247748,-0.0924973,-0.0136023,0.518788,0.0,0.0,0.0,-1.0
330872306,330871432,-0.0167784,-0.0328778,-0.0185754,0.518788,0.0,0.0,0.0,-1.0
330972366,330971509,-0.0355892,0.063653,-0.016818,0.518788,0.0,0.0,0.0,-1.0
331074946,331074089,-0.00273559,-0.0376782,-0.0101298,0.518788,0.0,0.0,0.0,-1.0
331172519,331171665,-0.0443451,0.050796,-0.00440283,0.518788,0.0,0.0,0.0,-1.0
331275112,331274247,-0.0162284,0.100135,-0.00500312,0.518788,0.0,0.0,0.0,-1.0
331372674,331371820,0.015779,-0.0268073,-0.00330489,0.518788,0.0,0.0,0.0,-1.0
331472768,331471911,-0.00177255,-0.0105037,-0.0101626,0.518788,0.0,0.0,0.0,-1.0
331572836,331571975,0.00471584,-0.0192481,-0.00457911,0.522424,0.0,0.0,0.0,-1.0
331672913,331672052,-0.100138,0.0583175,-0.00773879,0.52,0.0,0.0,0.0,-1.0
331775495,331774633,0.0112512,0.0836026,-0.00970414,0.52,0.0,0.0,0.0,-1.0
331873066,331872208,0.0170967,-0.0195387,-0.0108786,0.52,0.0,0.0,0.0,-1.0
331973146,331972289,0.0840469,0.0119879,-0.00786374,0.52,0.0,0.0,0.0,-1.0
332073225,332072363,0.0363509,0.019902,-0.00505492,0.524848,0.0,0.0,0.0,-1.0
332173327,332172444,-0.0747408,-0.0480793,0.00225221,0.517576,0.0,0.0,0.0,-1.0
332270876,332270016,-0.091034,0.106532,0.000897074,0.517576,0.0,0.0,0.0,-1.0
332373449,332372595,-0.00227994,-0.0237683,-0.00601055,0.52,0.0,0.0,0.0,-1.0
332473544,332472682,-0.0465258,0.0554525,-0.00531302,0.522424,0.0,0.0,0.0,-1.0
332573606,332572751,-0.000519133,0.00955159,0.0382436,0.526061,0.0,0.0,0.0,-1.0
332673686,332672828,0.133678,-0.034283,0.0368171,0.526061,0.0,0.0,0.0,-1.0
332771278,332770405,0.0477711,-0.0117077,0.0518279,0.524848,0.0,0.0,0.0,-1.0
332873849,332872992,-0.00773971,-0.0020259,0.068929,0.524848,0.0,0.0,0.0,-1.0
332971421,332970559,0.168084,0.000972487,0.0565352,0.524848,0.0,0.0,0.0,-1.0
333073995,333073138,-0.0604902,-0.0193547,0.0518528,0.523636,0.0,0.0,0.0,-1.0
333174072,333173218,0.145234,-0.0276576,0.0500846,0.524848,0.0,0.0,0.0,-1.0
333271658,333270792,0.000602544,0.0332434,0.0372883,0.524848,0.0,0.0,0.0,-1.0
333374241,333373371,-0.0904473,0.0608333,0.0264221,0.523636,0.0,0.0,0.0,-1.0
333471811,333470954,-0.0155488,0.0186909,-0.0273598,0.523636,0.0,0.0,0.0,-1.0
333574397,333573526,-0.062075,0.0198219,-0.081291,0.52,0.0,0.0,0.0,-1.0
333671959,333671102,-0.0570295,0.0267078,-0.066609,0.52,0.0,0.0,0.0,-1.0
333772054,333771182,-0.0365377,-0.0136872,-0.0434792,0.52,0.0,0.0,0.0,-1.0
333872125,333871259,-0.135611,0.106303,-0.0464312,0.522424,0.0,0.0,0.0,-1.0
333972192,333971335,0.0664472,0.0115477,-0.0381626,0.52,0.0,0.0,0.0,-1.0
334074772,334073914,0.0179508,0.0337426,-0.0304146,0.521212,0.0,0.0,0.0,-1.0
334172359,334171489,0.0138525,-0.0360516,-0.0263279,0.521212,0.0,0.0,0.0,-1.0
334274940,334274072,0.0033924,0.0148886,-0.0224339,0.52,0.0,0.0,0.0,-1.0
334375024,334374148,-0.00586525,0.0276086,-0.0181345,0.521212,0.0,0.0,0.0,-1.0
334472579,334471722,-0.0280173,0.0312581,-0.00555468,0.521212,0.0,0.0,0.0,-1.0
334575158,334574303,0.0262526,-0.00789209,-0.00395681,0.521212,0.0,0.0,0.0,-1.0
334672737,334671877,-0.041596,-0.0348346,0.00456794,0.521212,0.0,0.0,0.0,-1.0
334775329,334774456,0.0172878,0.0264286,0.00375029,0.521212,0.0,0.0,0.0,-1.0
334872899,334872034,-0.0491255,0.0233392,0.00665569,0.521212,0.0,0.0,0.0,-1.0
334972971,334972111,0.0958311,0.0343973,-0.00617524,0.521212,0.0,0.0,0.0,-1.0
335070541,335069685,0.0802449,-0.0141717,-0.00164166,0.521212,0.0,0.0,0.0,-1.0
335173130,335172273,-0.137549,0.00965706,-0.00425996,0.521212,0.0,0.0,0.0,-1.0
335275698,335274844,0.00857096,-0.00689343,-0.00398694,0.521212,0.0,0.0,0.0,-1.0
335373290,335372420,0.00709053,0.000282983,-0.00397562,0.522424,0.0,0.0,0.0,-1.0
335473367,335472502,-0.00886634,0.0202931,-0.0150324,0.521212,0.0,0.0,0.0,-1.0
335573453,335572577,-0.03374,-0.0336227,-0.0179659,0.52,0.0,0.0,0.0,-1.0
335673509,335672652,-0.00976985,-0.0248813,-0.0251066,0.521212,0.0,0.0,0.0,-1.0
335771089,335770228,0.0181899,0.024798,-0.0287768,0.52,0.0,0.0,0.0,-1.0
335873664,335872807,-0.0633426,-0.0387077,-0.024038,0.52,0.0,0.0,0.0,-1.0
335973744,335972885,0.0574919,0.0121618,-0.02796,0.518788,0.0,0.0,0.0,-1.0
336073827,336072962,-0.00245224,0.0530819,-0.0273591,0.521212,0.0,0.0,0.0,-1.0
336173907,336173040,-0.0266002,0.044357,-0.0259132,0.52,0.0,0.0,0.0,-1.0
336271468,336270615,-0.0275633,0.0638854,-0.0235572,0.52,0.0,0.0,0.0,-1.0
336374060,336373195,0.00486878,0.0686065,-0.0235344,0.522424,0.0,0.0,0.0,-1.0
336471623,336470770,-0.0566739,-0.0411893,-0.010987,0.52,0.0,0.0,0.0,-1.0
336574207,336573350,-0.0044341,0.129231,-0.0216452,0.521212,0.0,0.0,0.0,-1.0
336674298,336673427,0.0787542,0.072594,-0.015067,0.52,0.0,0.0,0.0,-1.0
336771856,336771003,0.0667718,0.0437197,-0.0116868,0.522424,0.0,0.0,0.0,-1.0
336874439,336873582,-0.0388373,-0.0152097,-0.0142063,0.521212,0.0,0.0,0.0,-1.0
336972020,336971164,-0.057537,-0.0311414,-0.00947064,0.521212,0.0,0.0,0.0,-1.0
337074609,337073739,0.0252463,0.104542,-0.00709455,0.521212,0.0,0.0,0.0,-1.0
337172166,337171313,0.0497138,0.0735998,-0.0122576,0.521212,0.0,0.0,0.0,-1.0
337272252,337271391,0.0365955,-0.0336501,-0.00837092,0.521212,0.0,0.0,0.0,-1.0
337374827,337373970,-0.0366268,-0.0143208,-0.018917,0.521212,0.0,0.0,0.0,-1.0
337472398,337471545,-0.0610104,0.0114799,-0.0143922,0.521212,0.0,0.0,0.0,-1.0
337574985,337574125,0.00472859,0.0941675,-0.021421,0.521212,0.0,0.0,0.0,-1.0
337672553,337671700,0.119271,-0.0373759,-0.022203,0.521212,0.0,0.0,0.0,-1.0
337772633,337771778,-0.0402364,-0.00608022,-0.017522,0.521212,0.0,0.0,0.0,-1.0
337872715,337871856,-0.0572813,0.0370344,-0.0177675,0.52,0.0,0.0,0.0,-1.0
337972789,337971933,-0.0241846,0.058162,-0.0127262,0.521212,0.0,0.0,0.0,-1.0
338075374,338074512,-0.0394913,0.0941159,-0.00849354,0.521212,0.0,0.0,0.0,-1.0
338172941,338172088,-0.0337555,0.0709846,-0.014069,0.52,0.0,0.0,0.0,-1.0
338273032,338272171,0.00526224,-0.0153284,-0.00383817,0.522424,0.0,0.0,0.0,-1.0
338373103,338372243,0.0222997,0.0822672,-0.000226051,0.510303,0.0,0.0,0.0,-1.0
338473180,338472326,-0.00367235,0.00475653,-0.183491,0.534545,0.0,0.0,0.0,-1.0
338570754,338569896,-0.0679726,0.0403975,-0.161127,0.504242,0.0,0.0,0.0,-1.0
338673352,338672475,-0.0497467,0.136877,-0.153997,0.506667,0.0,0.0,0.0,-1.0
338775947,338775062,0.000312136,0.17763,-0.177693,0.505455,0.0,0.0,0.0,-1.0
338873502,338872630,-0.0785033,0.0331636,-0.0900274,0.500606,0.0,0.0,0.0,-1.0
338973563,338972708,0.0100119,0.129314,-0.0679968,0.50303,0.0,0.0,0.0,-1.0
339071144,339070284,-0.0630509,0.0212262,-0.0598739,0.507879,0.0,0.0,0.0,-1.0
339173721,339172869,0.0276058,-0.0492234,-0.0421969,0.506667,0.0,0.0,0.0,-1.0
339271304,339270439,-0.0687782,0.0051423,-0.0342215,0.504242,0.0,0.0,0.0,-1.0
339373871,339373018,-0.0289053,-0.0221499,-0.0253533,0.501818,0.0,0.0,0.0,-1.0
339473948,339473095,-0.0244759,-0.00886467,-0.0148556,0.500606,0.0,0.0,0.0,-1.0
339571535,339570671,-0.0496526,0.062444,-0.0192156,0.50303,0.0,0.0,0.0,-1.0
339674120,339673258,-0.0435282,0.060584,-0.0321018,0.50303,0.0,0.0,0.0,-1.0
339771684,339770826,0.0529159,0.0485281,-0.0397031,0.500606,0.0,0.0,0.0,-1.0
339874288,339873413,0.000437807,0.0189018,-0.0314797,0.50303,0.0,0.0,0.0,-1.0
339971840,339970981,0.00614178,-0.0588011,-0.030498,0.501818,0.0,0.0,0.0,-1.0
340074431,340073564,0.0102956,0.0418184,-0.0117048,0.500606,0.0,0.0,0.0,-1.0
340174492,340173640,0.0229552,0.0815493,-0.0247075,0.500606,0.0,0.0,0.0,-1.0
340272079,340271216,-0.0231267,0.0510512,-0.0279924,0.504242,0.0,0.0,0.0,-1.0
340374665,340373793,-0.00905197,0.0420615,-0.0468629,0.50303,0.0,0.0,0.0,-1.0
340472229,340471369,-0.0232447,0.0750832,-0.0198452,0.500606,0.0,0.0,0.0,-1.0
340574810,340573948,0.014313,-0.0096755,0.157349,0.495418,0.0,0.0,0.0,-1.0
340672381,340671524,-0.0433562,-0.0541079,0.104699,0.495418,0.0,0.0,0.0,-1.0
340772459,340771601,0.0308677,0.180152,0.0744028,0.4944,0.0,0.0,0.0,-1.0
340875034,340874181,0.046326,-0.0841524,0.0429997,0.493382,0.0,0.0,0.0,-1.0
340972614,340971756,0.0512497,0.0561244,0.031561,0.495418,0.0,0.0,0.0,-1.0
341075192,341074336,0.00961914,-0.04083,0.0154822,0.495418,0.0,0.0,0.0,-1.0
341172769,341171912,-0.0410112,0.0750071,-0.00140843,0.495418,0.0,0.0,0.0,-1.0
341272846,341271989,0.038759,-0.0111471,-0.0137732,0.495418,0.0,0.0,0.0,-1.0
341372944,341372066,0.0309704,0.0389851,-0.0214242,0.495418,0.0,0.0,0.0,-1.0
341473014,341472144,-0.0591956,0.04629,-0.0251186,0.495418,0.0,0.0,0.0,-1.0
341575577,341574724,0.0249219,0.118771,-0.0216289,0.495418,0.0,0.0,0.0,-1.0
341673165,341672301,-0.012919,0.0444471,-0.0221594,0.495418,0.0,0.0,0.0,-1.0
341773237,341772377,0.00804202,0.0555807,-0.0271171,0.495418,0.0,0.0,0.0,-1.0
341873325,341872461,0.0538331,0.0717131,-0.0258266,0.495418,0.0,0.0,0.0,-1.0
341973391,341972532,-0.0414164,0.0514775,-0.0241014,0.495418,0.0,0.0,0.0,-1.0
342070968,342070111,-0.0452424,0.0649364,-0.0159994,0.495418,0.0,0.0,0.0,-1.0
342173544,342172687,0.0380451,0.0244654,-0.0122321,0.495418,0.0,0.0,0.0,-1.0
342273623,342272764,-0.016218,0.0536256,-0.0140022,0.495418,0.0,0.0,0.0,-1.0
342373702,342372842,-0.0736026,-0.00734461,-0.0194164,0.495418,0.0,0.0,0.0,-1.0
342473777,342472919,-0.0424763,0.0449644,-0.0108291,0.495418,0.0,0.0,0.0,-1.0
342571364,342570495,-0.0544216,0.0366907,-0.00938479,0.495418,0.0,0.0,0.0,-1.0
342673932,342673074,0.0168237,0.0071792,-0.0111358,0.495418,0.0,0.0,0.0,-1.0
342771523,342770650,-0.0118473,0.0273421,-0.0108555,0.495418,0.0,0.0,0.0,-1.0
342874101,342873229,-0.0416068,-0.00234198,-0.0118572,0.495418,0.0,0.0,0.0,-1.0
342974171,342973307,0.00362209,-0.0149681,-0.011287,0.495418,0.0,0.0,0.0,-1.0
343071737,343070883,-0.0110913,-0.000659764,-0.00326639,0.495418,0.0,0.0,0.0,-1.0
343174326,343173462,-0.0181337,-0.00817472,-0.00968567,0.495418,0.0,0.0,0.0,-1.0
343271892,343271038,0.038936,0.0522654,-0.0030987,0.495418,0.0,0.0,0.0,-1.0
343374474,343373617,-0.0644051,0.0534076,-0.0179188,0.4944,0.0,0.0,0.0,-1.0
343472063,343471192,-0.0440158,0.082346,-0.0127324,0.495418,0.0,0.0,0.0,-1.0
343572130,343571276,-0.00742199,-0.0246066,-0.0102315,0.495418,0.0,0.0,0.0,-1.0
343674707,343673849,0.00955226,0.0371818,-0.0136456,0.495418,0.0,0.0,0.0,-1.0
343772300,343771425,0.00122765,0.0874339,-0.0116206,0.495418,0.0,0.0,0.0,-1.0
343874862,343874004,0.00509354,-0.0415246,-0.00810988,0.495418,0.0,0.0,0.0,-1.0
343972440,343971583,-0.0679021,0.0164796,-0.00586359,0.495418,0.0,0.0,0.0,-1.0
344072529,344071661,-0.0365893,0.0933052,-0.00419278,0.493382,0.0,0.0,0.0,-1.0
344172600,344171735,-0.0656871,0.0111987,-0.00603068,0.493382,0.0,0.0,0.0,-1.0
344272673,344271819,0.0133636,0.0377711,-0.00775497,0.4944,0.0,0.0,0.0,-1.0
344375251,344374392,-0.0195325,0.0664654,-0.0047747,0.489309,0.0,0.0,0.0,-1.0
344472821,344471967,-0.084799,0.0723114,0.0026498,0.4944,0.0,0.0,0.0,-1.0
344575429,344574547,-0.00524897,0.0230864,-0.0113068,0.4944,0.0,0.0,0.0,-1.0
344672977,344672122,-0.0672792,0.0355707,-0.0190565,0.495418,0.0,0.0,0.0,-1.0
344773067,344772200,-0.0322892,0.0214021,-0.00730484,0.497455,0.0,0.0,0.0,-1.0
344870632,344869775,0.019316,0.0690814,-0.0341824,0.505455,0.0,0.0,0.0,-1.0
344973217,344972357,0.00818863,0.0186795,-0.0834622,0.501818,0.0,0.0,0.0,-1.0
345075798,345074934,-0.0727025,-0.00396567,-0.0586605,0.501818,0.0,0.0,0.0,-1.0
345173366,345172509,-0.0950065,0.0513085,-0.0853737,0.501818,0.0,0.0,0.0,-1.0
345273449,345272588,-0.0152338,0.00878073,-0.0539318,0.501818,0.0,0.0,0.0,-1.0
345373536,345372665,-0.0401379,-0.0453361,-0.0593275,0.504242,0.0,0.0,0.0,-1.0
345473597,345472742,0.00816005,-0.0458476,-0.0603788,0.506667,0.0,0.0,0.0,-1.0
345571179,345570320,0.020886,0.00241925,-0.0551937,0.504242,0.0,0.0,0.0,-1.0
345673755,345672897,0.0397902,0.0438448,0.0384872,0.501818,0.0,0.0,0.0,-1.0
345773867,345773003,0.0289403,-0.0312936,0.056666,0.500606,0.0,0.0,0.0,-1.0
345873920,345873052,0.0200828,0.0141309,0.032437,0.501818,0.0,0.0,0.0,-1.0
345973990,345973135,0.00732675,-0.0315369,0.0251556,0.501818,0.0,0.0,0.0,-1.0
346071566,346070705,-0.0203607,0.149974,0.0199339,0.501818,0.0,0.0,0.0,-1.0
346174150,346173293,0.016614,0.110959,0.00759789,0.500606,0.0,0.0,0.0,-1.0
346271716,346270859,-0.00653571,-0.0699845,-0.00674875,0.500606,0.0,0.0,0.0,-1.0
346374306,346373439,-0.0648196,0.0269827,-0.00813576,0.500606,0.0,0.0,0.0,-1.0
346471883,346471015,0.0532392,0.0433999,-0.0021919,0.500606,0.0,0.0,0.0,-1.0
346571952,346571092,0.0179401,-0.00868375,0.00639706,0.500606,0.0,0.0,0.0,-1.0
346674563,346673671,0.0919163,-0.00987476,-0.0028522,0.500606,0.0,0.0,0.0,-1.0
346772110,346771247,-0.121575,0.103366,-0.0122627,0.500606,0.0,0.0,0.0,-1.0
346874692,346873826,-0.0298034,0.0340613,-0.018174,0.500606,0.0,0.0,0.0,-1.0
346972274,346971401,0.0172014,-0.02417,-0.0198576,0.498473,0.0,0.0,0.0,-1.0
