timestamp,ref_timestamp,ref_lat,ref_lon,x,y,z,delta_xy[0],delta_xy[1],delta_z,vx,vy,vz,z_deriv,delta_vxy[0],delta_vxy[1],delta_vz,ax,ay,az,heading,delta_heading,ref_alt,dist_bottom,eph,epv,evh,evv,vxy_max,vz_max,hagl_min,hagl_max,xy_valid,z_valid,v_xy_valid,v_z_valid,xy_reset_counter,z_reset_counter,vxy_reset_counter,vz_reset_counter,heading_reset_counter,xy_global,z_global,dist_bottom_valid
271162315,65222418,34.0348619,108.756711,-1.45431,2.09876,-1.62273,-0.0511265,-0.0257923,0.0,-0.0758852,0.0162664,-0.0554244,-0.0291768,-0.0714168,-0.0348164,0.0633587,-6.19745,1.84247,-3.64016,0.0337242,0.00111277,427.744,0.118052,0.284195,0.387663,0.133146,0.10539,inf,inf,inf,inf,1,1,1,1,2,0,2,1,4,1,1,1
271172329,65222418,34.0348619,108.756711,-1.45533,2.09906,-1.62281,-0.0511265,-0.0257923,0.0,-0.0105595,0.0515355,-0.0707427,-0.0441855,-0.0714168,-0.0348164,0.0633587,9.59057,1.85989,-0.262729,0.0346294,0.00111277,427.744,0.11813,0.28499,0.388317,0.133598,0.105585,inf,inf,inf,inf,1,1,1,1,2,0,2,1,4,1,1,1
271272401,65222418,34.0348619,108.756711,-1.4616,2.10098,-1.62322,-0.0511265,-0.0257923,0.0,-0.000614751,0.00979746,-0.0286797,-0.000314575,-0.0714168,-0.0348164,0.0633587,-6.17716,-4.5409,6.18926,0.0317289,0.00111277,427.744,0.118542,0.293236,0.390118,0.138294,0.107035,inf,inf,inf,inf,1,1,1,1,2,0,2,1,4,1,1,1
271362477,65222418,34.0348619,108.756711,-1.46759,2.1022,-1.62474,-0.0511265,-0.0257923,0.0,-0.0534026,0.00980526,-0.0378433,-0.00921805,-0.0714168,-0.0348164,0.0633587,-7.95721,1.44566,3.05423,0.0316273,0.00111277,427.744,0.120061,0.283597,0.387042,0.133364,0.105295,inf,inf,inf,inf,1,1,1,1,2,0,2,1,4,1,1,1
271472556,65222418,34.0348619,108.756711,-1.47602,2.10332,-1.62787,-0.0511265,-0.0257923,0.0,-0.0355477,0.00493643,-0.0526928,-0.025271,-0.0714168,-0.0348164,0.0633587,-3.60869,-0.413403,1.5677,0.0325967,0.00111277,427.744,0.123195,0.292682,0.3895,0.138552,0.106938,inf,inf,inf,inf,1,1,1,1,2,0,2,1,4,1,1,1
271572637,65222418,34.0348619,108.756711,-1.48203,2.10367,-1.63273,-0.0511265,-0.0257923,0.0,-0.0365273,0.0250078,-0.0379228,-0.0139096,-0.0714168,-0.0348164,0.0633587,0.680411,2.2822,-3.44027,0.0332318,0.00111277,427.744,0.128048,0.283854,0.387077,0.134178,0.105384,inf,inf,inf,inf,1,1,1,1,2,0,2,1,4,1,1,1
271672712,65222418,34.0348619,108.756711,-1.48561,2.10438,-1.63956,-0.0511265,-0.0257923,0.0,-0.0282102,0.0124371,-0.0155706,0.00334781,-0.0714168,-0.0348164,0.0633587,-1.33395,-1.25417,5.3515,0.0316112,0.00111277,427.744,0.134877,0.292172,0.391299,0.138981,0.107086,inf,inf,inf,inf,1,1,1,1,2,0,2,1,4,1,1,1
271772799,65222418,34.0348619,108.756711,-1.48949,2.1064,-1.64447,-0.0511265,-0.0257923,0.0,-0.0355124,0.0202664,-0.0352808,-0.0195754,-0.0714168,-0.0348164,0.0633587,-4.30017,-0.733041,5.6511,0.0324135,0.00111277,427.744,0.139794,0.283537,0.388851,0.134795,0.105542,inf,inf,inf,inf,1,1,1,1,2,0,2,1,4,1,1,1
271862860,65222418,34.0348619,108.756711,-1.49403,2.10816,-1.65019,-0.0511265,-0.0257923,0.0,-0.011518,0.0238733,-0.017818,-0.00613181,-0.0714168,-0.0348164,0.0633587,1.75032,1.32803,-2.67692,0.0302008,0.00111277,427.744,0.145515,0.291039,0.390007,0.13908,0.10679,inf,inf,inf,inf,1,1,1,1,2,0,2,1,4,1,1,1
271972946,65222418,34.0348619,108.756711,-1.49865,2.1104,-1.65814,-0.0511265,-0.0257923,0.0,-0.0171355,0.0214979,-0.0804958,-0.0739485,-0.0714168,-0.0348164,0.0633587,1.23884,-3.01162,-8.93401,0.0322803,0.00111277,427.744,0.153459,0.283342,0.388237,0.135254,0.105446,inf,inf,inf,inf,1,1,1,1,2,0,2,1,4,1,1,1
272073027,65222418,34.0348619,108.756711,-1.50424,2.11343,-1.66318,-0.0511265,-0.0257923,0.0,-0.0228815,0.0566024,-0.0623141,-0.0578838,-0.0714168,-0.0348164,0.0633587,0.0258791,2.29971,-4.59693,0.0321719,0.00111277,427.744,0.158502,0.29175,0.390058,0.140337,0.106886,inf,inf,inf,inf,1,1,1,1,2,0,2,1,4,1,1,1
272173101,65222418,34.0348619,108.756711,-1.50781,2.11655,-1.66583,-0.0511265,-0.0257923,0.0,-0.00313462,0.0299724,-0.0416908,-0.0366207,-0.0714168,-0.0348164,0.0633587,5.69077,-0.675103,-7.72699,0.0292175,0.00111277,427.744,0.161152,0.283245,0.387623,0.135765,0.105344,inf,inf,inf,inf,1,1,1,1,2,0,2,1,4,1,1,1
272273179,65222418,34.0348619,108.756711,-1.50991,2.11873,-1.66449,-0.0511265,-0.0257923,0.0,-0.0205066,0.0481888,-0.0458429,-0.0365831,-0.0714168,-0.0348164,0.0633587,0.738777,2.92564,-3.92633,0.0287487,0.00111277,427.744,0.159817,0.291701,0.389436,0.140855,0.106778,inf,inf,inf,inf,1,1,1,1,2,0,2,1,4,1,1,1
272373257,65222418,34.0348619,108.756711,-1.5142,2.12101,-1.66654,-0.0511265,-0.0257923,0.0,-0.0284894,0.0144234,-0.00872952,0.00163016,-0.0714168,-0.0348164,0.0633587,2.71519,-1.45291,-1.07664,0.0243717,0.00111277,427.744,0.161861,0.283248,0.389404,0.136399,0.105496,inf,inf,inf,inf,1,1,1,1,2,0,2,1,4,1,1,1
272473336,65222418,34.0348619,108.756711,-1.51847,2.12373,-1.66991,-0.0511265,-0.0257923,0.0,-0.0446894,0.0381916,-0.00377922,0.00599728,-0.0714168,-0.0348164,0.0633587,-3.17095,3.27418,8.79796,0.0255039,0.00111277,427.744,0.165235,0.291752,0.391252,0.141598,0.106935,inf,inf,inf,inf,1,1,1,1,2,0,2,1,4,1,1,1
272563406,65222418,34.0348619,108.756711,-1.52199,2.12581,-1.67291,-0.0511265,-0.0257923,0.0,-0.0167962,0.0436704,-0.054557,-0.0451736,-0.0714168,-0.0348164,0.0633587,1.15959,0.995964,-4.7728,0.0276053,0.00111277,427.744,0.168237,0.282398,0.38812,0.136257,0.105181,inf,inf,inf,inf,1,1,1,1,2,0,2,1,4,1,1,1
272673491,65222418,34.0348619,108.756711,-1.52615,2.12754,-1.67691,-0.0511265,-0.0257923,0.0,-0.0263492,0.0299765,-0.0439201,-0.0353921,-0.0714168,-0.0348164,0.0633587,-2.19584,-0.744353,7.6384,0.0270685,0.00111277,427.744,0.172228,0.291762,0.390617,0.142129,0.106812,inf,inf,inf,inf,1,1,1,1,2,0,2,1,4,1,1,1
272773569,65222418,34.0348619,108.756711,-1.53009,2.12902,-1.68375,-0.0511265,-0.0257923,0.0,-0.0239142,0.0295753,-0.0952065,-0.0903001,-0.0714168,-0.0348164,0.0633587,-1.50187,1.91955,-11.266,0.0265616,0.00111277,427.744,0.179073,0.283274,0.388159,0.137265,0.105259,inf,inf,inf,inf,1,1,1,1,2,0,2,1,4,1,1,1
272873647,65222418,34.0348619,108.756711,-1.53454,2.13055,-1.68672,-0.0511265,-0.0257923,0.0,-0.0238344,0.0331836,-0.0711828,-0.0656658,-0.0714168,-0.0348164,0.0633587,-1.91973,0.198167,-3.77787,0.0289987,0.00111277,427.744,0.182046,0.291852,0.389979,0.142295,0.106686,inf,inf,inf,inf,1,1,1,1,2,0,2,1,4,1,1,1
272973725,65222418,34.0348619,108.756711,-1.53753,2.13323,-1.68695,-0.0511265,-0.0257923,0.0,-0.0133558,0.0487558,0.0209288,0.0289926,-0.0714168,-0.0348164,0.0633587,1.75004,-0.0262935,6.05054,0.028485,0.00111277,427.744,0.182274,0.283408,0.389912,0.137404,0.10539,inf,inf,inf,inf,1,1,1,1,2,0,2,1,4,1,1,1
273063796,65222418,34.0348619,108.756711,-1.5388,2.13353,-1.68691,-0.0511265,-0.0257923,0.0,-0.0337431,0.00474113,0.00937549,0.0181333,-0.0714168,-0.0348164,0.0633587,1.78954,1.26,11.8106,0.0278094,0.00111277,427.744,0.182234,0.291135,0.391055,0.14222,0.106623,inf,inf,inf,inf,1,1,1,1,2,0,2,1,4,1,1,1
273173884,65222418,34.0348619,108.756711,-1.54195,2.13044,-1.69362,-0.0511265,-0.0257923,0.0,-0.028853,-0.00274492,-0.00609601,-0.00106867,-0.0714168,-0.0348164,0.0633587,1.00304,3.50324,-5.22324,0.0270837,0.00111277,427.744,0.188939,0.283527,0.389207,0.137613,0.105255,inf,inf,inf,inf,1,1,1,1,2,0,2,1,4,1,1,1
273263952,65222418,34.0348619,108.756711,-1.54483,2.12589,-1.6987,-0.0511265,-0.0257923,0.0,-0.0273396,-0.0148984,-0.00993493,-0.0100141,-0.0714168,-0.0348164,0.0633587,-2.19918,3.49609,2.60607,0.0288089,0.00111277,427.744,0.194021,0.291281,0.392783,0.1423,0.106744,inf,inf,inf,inf,1,1,1,1,2,0,2,1,4,1,1,1
273374037,65222418,34.0348619,108.756711,-1.54728,2.12174,-1.70833,-0.0511265,-0.0257923,0.0,-0.0157928,-0.00337126,-0.067013,-0.0719528,-0.0714168,-0.0348164,0.0633587,1.72426,0.36456,-1.02838,0.0340423,0.00111277,427.744,0.203655,0.28368,0.390894,0.137768,0.105384,inf,inf,inf,inf,1,1,1,1,2,0,2,1,4,1,1,1
273474115,65222418,34.0348619,108.756711,-1.54981,2.12118,-1.71977,-0.0511265,-0.0257923,0.0,-0.0294744,0.039338,-0.0517332,-0.0606604,-0.0714168,-0.0348164,0.0633587,-2.17557,4.53393,5.84381,0.0377722,0.00111277,427.744,0.215093,0.292357,0.392709,0.14295,0.106809,inf,inf,inf,inf,1,1,1,1,2,0,2,1,4,1,1,1
273564186,65222418,34.0348619,108.756711,-1.55183,2.12228,-1.73422,-0.0511265,-0.0257923,0.0,-0.0147468,-0.00159758,-0.140209,-0.153972,-0.0714168,-0.0348164,0.0633587,1.47045,-5.93855,-1.08475,0.0389492,0.00111277,427.744,0.229544,0.282813,0.389497,0.13749,0.105054,inf,inf,inf,inf,1,1,1,1,2,0,2,1,4,1,1,1
273674277,65222418,34.0348619,108.756711,-1.55573,2.1205,-1.76105,-0.0511265,-0.0257923,0.0,-0.0497631,0.00862742,-0.240328,-0.256339,-0.0714168,-0.0348164,0.0633587,-0.845276,1.17645,6.86162,0.0413405,0.00111277,427.744,0.256377,0.292353,0.391963,0.143037,0.10667,inf,inf,inf,inf,1,1,1,1,2,0,2,1,4,1,1,1
273764342,65222418,34.0348619,108.756711,-1.5603,2.1193,-1.77932,-0.0511265,-0.0257923,0.0,-0.0369767,0.00321837,-0.198982,-0.213068,-0.0714168,-0.0348164,0.0633587,3.11172,0.76402,1.0791,0.0417138,0.00111277,427.744,0.274646,0.282757,0.388759,0.137753,0.10492,inf,inf,inf,inf,1,1,1,1,2,0,2,1,4,1,1,1
273874427,65222418,34.0348619,108.756711,-1.56709,2.11877,-1.80444,-0.0511265,-0.0257923,0.0,-0.0420817,-0.00145006,-0.31981,-0.325815,-0.0714168,-0.0348164,0.0633587,-0.24054,-2.08654,1.56814,0.043671,0.00111277,427.744,0.299761,0.292333,0.391213,0.143352,0.106529,inf,inf,inf,inf,1,1,1,1,2,0,2,1,4,1,1,1
273964505,65222418,34.0348619,108.756711,-1.57215,2.11908,-1.82624,-0.0511265,-0.0257923,0.0,-0.0414463,-0.00664462,-0.387686,-0.385737,-0.0714168,-0.0348164,0.0633587,-3.2898,1.30087,-9.65172,0.0450649,0.00111277,427.744,0.321559,0.282716,0.390449,0.137902,0.105048,inf,inf,inf,inf,1,1,1,1,2,0,2,1,4,1,1,1
274064582,65222418,34.0348619,108.756711,-1.58027,2.11892,-1.85219,-0.0511265,-0.0257923,0.0,-0.0373009,-0.0038634,-0.352663,-0.340957,-0.0714168,-0.0348164,0.0633587,-1.68581,-1.29508,4.96643,0.0449427,0.00111277,427.744,0.347516,0.291416,0.392259,0.143001,0.106471,inf,inf,inf,inf,1,1,1,1,2,0,2,1,4,1,1,1
274164657,65222418,34.0348619,108.756711,-1.58626,2.11888,-1.87438,-0.0511265,-0.0257923,0.0,-0.0356201,-0.00110264,-0.332786,-0.311763,-0.0714168,-0.0348164,0.0633587,0.0856999,-0.40935,-0.051225,0.0437898,0.00111277,427.744,0.369704,0.282599,0.389721,0.137973,0.104919,inf,inf,inf,inf,1,1,1,1,2,0,2,1,4,1,1,1
274264732,65222418,34.0348619,108.756711,-1.58963,2.11883,-1.88625,-0.0511265,-0.0257923,0.0,-0.0261648,-0.0331684,-0.296282,-0.257871,-0.0714168,-0.0348164,0.0633587,0.467992,-4.51728,1.99276,0.0411965,0.00111277,427.744,0.381572,0.291309,0.391521,0.142787,0.106338,inf,inf,inf,inf,1,1,1,1,2,0,2,1,4,1,1,1
274374818,65222418,34.0348619,108.756711,-1.59366,2.11865,-1.89765,-0.0511265,-0.0257923,0.0,-0.0231286,-0.0161803,-0.332128,-0.274877,-0.0714168,-0.0348164,0.0633587,2.22173,-3.56993,-3.13883,0.0435818,0.00111277,427.744,0.392977,0.283408,0.389664,0.138187,0.105003,inf,inf,inf,inf,1,1,1,1,2,0,2,1,4,1,1,1
274464888,65222418,34.0348619,108.756711,-1.59918,2.1198,-1.90576,-0.0511265,-0.0257923,0.0,-0.0511299,0.0174438,-0.298966,-0.22678,-0.0714168,-0.0348164,0.0633587,0.277548,3.62437,8.21524,0.0428589,0.00111277,427.744,0.401083,0.291279,0.390793,0.142455,0.106224,inf,inf,inf,inf,1,1,1,1,2,0,2,1,4,1,1,1
274564968,65222418,34.0348619,108.756711,-1.60511,2.12197,-1.91407,-0.0511265,-0.0257923,0.0,-0.0311172,-0.00352297,-0.288857,-0.202187,-0.0714168,-0.0348164,0.0633587,4.13123,-2.84442,-4.53533,0.0423278,0.00111277,427.744,0.409397,0.282446,0.390702,0.137458,0.104958,inf,inf,inf,inf,1,1,1,1,2,0,2,1,4,1,1,1
274665054,65222418,34.0348619,108.756711,-1.60783,2.12216,-1.9195,-0.0511265,-0.0257923,0.0,-0.00693292,-0.0136603,-0.315525,-0.214159,-0.0714168,-0.0348164,0.0633587,-3.21565,4.40683,1.12236,0.0396488,0.00111277,427.744,0.414822,0.29117,0.392498,0.142156,0.106377,inf,inf,inf,inf,1,1,1,1,2,0,2,1,4,1,1,1
274765122,65222418,34.0348619,108.756711,-1.60892,2.12191,-1.93146,-0.0511265,-0.0257923,0.0,-0.00994128,-0.0203337,-0.299904,-0.192073,-0.0714168,-0.0348164,0.0633587,2.89695,-2.22616,-2.27134,0.0363128,0.00111277,427.744,0.426785,0.282127,0.389941,0.136858,0.104818,inf,inf,inf,inf,1,1,1,1,2,0,2,1,4,1,1,1
274875210,65222418,34.0348619,108.756711,-1.61706,2.1251,-1.9362,-0.0511265,-0.0257923,0.0,-0.04612,0.00794638,-0.297567,-0.176887,-0.0714168,-0.0348164,0.0633587,0.61106,0.28619,-1.92707,0.033436,0.00111277,427.744,0.431522,0.291735,0.3924,0.142148,0.106428,inf,inf,inf,inf,1,1,1,1,2,0,2,1,4,1,1,1
274965284,65222418,34.0348619,108.756711,-1.62462,2.12818,-1.94043,-0.0511265,-0.0257923,0.0,-0.0397889,0.000392035,-0.301853,-0.172587,-0.0714168,-0.0348164,0.0633587,1.11069,0.102359,-9.59712,0.0330389,0.00111277,427.744,0.435748,0.281864,0.389191,0.136407,0.104696,inf,inf,inf,inf,1,1,1,1,2,0,2,1,4,1,1,1
275065364,65222418,34.0348619,108.756711,-1.62929,2.12868,-1.93739,-0.0511265,-0.0257923,0.0,-0.00463391,-0.0310339,-0.290502,-0.145536,-0.0714168,-0.0348164,0.0633587,3.08152,-2.04329,-2.44526,0.0302308,0.00111277,427.744,0.432716,0.29056,0.390964,0.141236,0.106109,inf,inf,inf,inf,1,1,1,1,2,0,2,1,4,1,1,1
275165434,65222418,34.0348619,108.756711,-1.63193,2.12754,-1.93943,-0.0511265,-0.0257923,0.0,-0.00548975,-0.028938,-0.260271,-0.105668,-0.0714168,-0.0348164,0.0633587,0.492333,-1.09461,4.88207,0.027679,0.00111277,427.744,0.434756,0.281544,0.39087,0.136084,0.104838,inf,inf,inf,inf,1,1,1,1,2,0,2,1,4,1,1,1
275265515,65222418,34.0348619,108.756711,-1.63598,2.12941,-1.93812,-0.0511265,-0.0257923,0.0,-0.0191226,0.00586694,-0.279949,-0.114168,-0.0714168,-0.0348164,0.0633587,-2.13005,0.299969,6.26363,0.0242138,0.00111277,427.744,0.433442,0.290231,0.392673,0.140889,0.106259,inf,inf,inf,inf,1,1,1,1,2,0,2,1,4,1,1,1
275365592,65222418,34.0348619,108.756711,-1.64012,2.13392,-1.93627,-0.0511265,-0.0257923,0.0,-0.0362,0.0292975,-0.257703,-0.0831169,-0.0714168,-0.0348164,0.0633587,-2.94463,0.93444,-1.02859,0.0254969,0.00111277,427.744,0.431589,0.28117,0.390124,0.135704,0.104724,inf,inf,inf,inf,1,1,1,1,2,0,2,1,4,1,1,1
275465669,65222418,34.0348619,108.756711,-1.64569,2.13823,-1.93038,-0.0511265,-0.0257923,0.0,-0.0415682,0.0245111,-0.287624,-0.100774,-0.0714168,-0.0348164,0.0633587,1.37672,0.0935053,-7.02181,0.027293,0.00111277,427.744,0.425703,0.289844,0.391916,0.140419,0.106142,inf,inf,inf,inf,1,1,1,1,2,0,2,1,4,1,1,1
275565747,65222418,34.0348619,108.756711,-1.65154,2.14088,-1.92931,-0.0511265,-0.0257923,0.0,-0.0419966,0.00288925,-0.279917,-0.0856459,-0.0714168,-0.0348164,0.0633587,2.66598,-3.47082,-1.93631,0.0293165,0.00111277,427.744,0.42463,0.280782,0.38939,0.135314,0.104614,inf,inf,inf,inf,1,1,1,1,2,0,2,1,4,1,1,1
275665825,65222418,34.0348619,108.756711,-1.65539,2.14133,-1.92775,-0.0511265,-0.0257923,0.0,-0.00616305,-0.0122468,-0.247525,-0.0479578,-0.0714168,-0.0348164,0.0633587,3.51311,-5.21619,3.68672,0.032675,0.00111277,427.744,0.423068,0.289443,0.391172,0.140173,0.106029,inf,inf,inf,inf,1,1,1,1,2,0,2,1,4,1,1,1
275765904,65222418,34.0348619,108.756711,-1.65582,2.14222,-1.92976,-0.0511265,-0.0257923,0.0,0.0105872,0.0120135,-0.208153,-0.00870161,-0.0714168,-0.0348164,0.0633587,0.750257,-5.36781,7.98138,0.0331039,0.00111277,427.744,0.42508,0.280378,0.388652,0.134936,0.104505,inf,inf,inf,inf,1,1,1,1,2,0,2,1,4,1,1,1
275865990,65222418,34.0348619,108.756711,-1.65828,2.14626,-1.92605,-0.0511265,-0.0257923,0.0,-0.00248326,0.0364085,-0.208242,-0.00470063,-0.0714168,-0.0348164,0.0633587,0.915253,-4.55491,4.07264,0.0353969,0.00111277,427.744,0.421374,0.289024,0.392884,0.139676,0.106186,inf,inf,inf,inf,1,1,1,1,2,0,2,1,4,1,1,1
275966064,65222418,34.0348619,108.756711,-1.6623,2.15067,-1.92984,-0.0511265,-0.0257923,0.0,-0.0333933,0.0393984,-0.237798,-0.0376777,-0.0714168,-0.0348164,0.0633587,-1.31367,3.05085,1.06478,0.0394494,0.00111277,427.744,0.425162,0.279986,0.39034,0.134531,0.104659,inf,inf,inf,inf,1,1,1,1,2,0,2,1,4,1,1,1
276066137,65222418,34.0348619,108.756711,-1.669,2.15197,-1.93101,-0.0511265,-0.0257923,0.0,-0.0396354,0.0347068,-0.217598,-0.0182656,-0.0714168,-0.0348164,0.0633587,-2.09994,5.03195,4.79467,0.0444017,0.00111277,427.744,0.426328,0.288615,0.392142,0.139175,0.106081,inf,inf,inf,inf,1,1,1,1,2,0,2,1,4,1,1,1
276166217,65222418,34.0348619,108.756711,-1.6735,2.15319,-1.93354,-0.0511265,-0.0257923,0.0,-0.00520109,0.0030085,-0.238286,-0.041791,-0.0714168,-0.0348164,0.0633587,-1.12699,-0.00857508,-1.08195,0.047994,0.00111277,427.744,0.428864,0.279548,0.389613,0.134187,0.104558,inf,inf,inf,inf,1,1,1,1,2,0,2,1,4,1,1,0
276266294,65222418,34.0348619,108.756711,-1.67384,2.15477,-1.92986,-0.0511265,-0.0257923,0.0,0.00771915,0.0247314,-0.211358,-0.0132506,-0.0714168,-0.0348164,0.0633587,-2.01484,1.10918,-0.107156,0.0495468,0.00111277,427.744,0.425178,0.288164,0.391387,0.138821,0.105971,inf,inf,inf,inf,1,1,1,1,2,0,2,1,4,1,1,0
276366372,65222418,34.0348619,108.756711,-1.6752,2.159,-1.93136,-0.0511265,-0.0257923,0.0,0.000827294,0.0370259,-0.20521,-0.0112643,-0.0714168,-0.0348164,0.0633587,0.165819,-1.86131,-2.56106,0.0480746,0.00111277,427.744,0.426686,0.279105,0.388857,0.133843,0.104451,inf,inf,inf,inf,1,1,1,1,2,0,2,1,4,1,1,0
276466451,65222418,34.0348619,108.756711,-1.68145,2.1634,-1.93187,-0.0511265,-0.0257923,0.0,-0.00823146,0.0147186,-0.190013,0.000790553,-0.0714168,-0.0348164,0.0633587,2.06816,-4.18447,-5.31956,0.0449968,0.00111277,427.744,0.427189,0.287704,0.393085,0.138431,0.106132,inf,inf,inf,inf,1,1,1,1,2,0,2,1,4,1,1,0
276566530,65222418,34.0348619,108.756711,-1.68654,2.16592,-1.93422,-0.0511265,-0.0257923,0.0,-0.017989,0.0326627,-0.183546,0.00201425,-0.0714168,-0.0348164,0.0633587,2.57938,0.312113,-0.17099,0.0445986,0.00111277,427.744,0.42954,0.278647,0.390532,0.133562,0.104608,inf,inf,inf,inf,1,1,1,1,2,0,2,1,4,1,1,0
276666606,65222418,34.0348619,108.756711,-1.69048,2.16866,-1.93065,-0.0511265,-0.0257923,0.0,-0.0186662,0.0467503,-0.174253,0.0119395,-0.0714168,-0.0348164,0.0633587,1.43507,-0.907377,3.02317,0.0429394,0.00111277,427.744,0.425976,0.287232,0.392318,0.138103,0.106024,inf,inf,inf,inf,1,1,1,1,2,0,2,1,4,1,1,0
276766684,65222418,34.0348619,108.756711,-1.69318,2.17082,-1.9288,-0.0511265,-0.0257923,0.0,0.00256213,0.0068463,-0.169128,0.0154366,-0.0714168,-0.0348164,0.0633587,1.694,-4.28339,1.60894,0.0385776,0.00111277,427.744,0.42412,0.278211,0.389781,0.133161,0.104506,inf,inf,inf,inf,1,1,1,1,2,0,2,1,4,1,1,0
276866762,65222418,34.0348619,108.756711,-1.69488,2.17055,-1.92444,-0.0511265,-0.0257923,0.0,0.0152908,0.00269445,-0.161366,0.0235893,-0.0714168,-0.0348164,0.0633587,0.389815,-1.55078,0.441704,0.0288996,0.00111277,427.744,0.41976,0.286781,0.391564,0.137771,0.105922,inf,inf,inf,inf,1,1,1,1,2,0,2,1,4,1,1,0
276966840,65222418,34.0348619,108.756711,-1.69603,2.17317,-1.92319,-0.0511265,-0.0257923,0.0,0.00942523,0.0449408,-0.15901,0.0223366,-0.0714168,-0.0348164,0.0633587,-0.869816,2.02918,-2.94251,0.0201405,0.00111277,427.744,0.418513,0.277851,0.389049,0.133012,0.104422,inf,inf,inf,inf,1,1,1,1,2,0,2,1,4,1,1,0
277066919,65222418,34.0348619,108.756711,-1.69941,2.17727,-1.91851,-0.0511265,-0.0257923,0.0,0.0237767,0.0264782,-0.136818,0.0433825,-0.0714168,-0.0348164,0.0633587,1.22188,-1.31797,0.97265,0.0136965,0.00111277,427.744,0.413836,0.286418,0.390815,0.137573,0.105834,inf,inf,inf,inf,1,1,1,1,2,0,2,1,4,1,1,0
277166997,65222418,34.0348619,108.756711,-1.70205,2.18062,-1.91874,-0.0511265,-0.0257923,0.0,-0.00427908,0.0489689,-0.130161,0.0445692,-0.0714168,-0.0348164,0.0633587,-1.47891,3.96795,0.590914,0.0108463,0.00111277,427.744,0.414065,0.277394,0.390728,0.132637,0.104584,inf,inf,inf,inf,1,1,1,1,2,0,2,1,4,1,1,0
277267075,65222418,34.0348619,108.756711,-1.70577,2.1822,-1.91753,-0.0511265,-0.0257923,0.0,-0.0155693,0.0327569,-0.124128,0.046676,-0.0714168,-0.0348164,0.0633587,-0.12103,-3.90895,2.66677,0.0120223,0.00111277,427.744,0.412853,0.285947,0.392525,0.13736,0.106005,inf,inf,inf,inf,1,1,1,1,2,0,2,1,4,1,1,0
277367153,65222418,34.0348619,108.756711,-1.70896,2.18306,-1.916,-0.0511265,-0.0257923,0.0,0.00332626,0.0356937,-0.132906,0.0344483,-0.0714168,-0.0348164,0.0633587,-1.15389,5.1138,2.1459,0.0135742,0.00111277,427.744,0.411325,0.277008,0.389992,0.132542,0.104502,inf,inf,inf,inf,1,1,1,1,2,0,2,1,4,1,1,0
277467241,65222418,34.0348619,108.756711,-1.7102,2.18248,-1.9136,-0.0511265,-0.0257923,0.0,0.0234638,0.0169178,-0.121702,0.0427235,-0.0714168,-0.0348164,0.0633587,0.364515,-4.32942,-1.27886,0.0165536,0.00111277,427.744,0.408918,0.285558,0.391779,0.137158,0.10592,inf,inf,inf,inf,1,1,1,1,2,0,2,1,4,1,1,0
277567311,65222418,34.0348619,108.756711,-1.71209,2.18546,-1.91269,-0.0511265,-0.0257923,0.0,0.0107936,0.0691756,-0.111883,0.0482107,-0.0714168,-0.0348164,0.0633587,-0.91524,4.73778,0.9168,0.0185312,0.00111277,427.744,0.408012,0.276609,0.389269,0.132397,0.104423,inf,inf,inf,inf,1,1,1,1,2,0,2,1,4,1,1,0
277667388,65222418,34.0348619,108.756711,-1.71578,2.19026,-1.90995,-0.0511265,-0.0257923,0.0,0.015888,0.0511695,-0.107543,0.0493148,-0.0714168,-0.0348164,0.0633587,0.421613,-1.42211,-2.1759,0.0218024,0.00111277,427.744,0.405274,0.285154,0.391046,0.136976,0.105838,inf,inf,inf,inf,1,1,1,1,2,0,2,1,4,1,1,0
277767469,65222418,34.0348619,108.756711,-1.71811,2.1943,-1.90645,-0.0511265,-0.0257923,0.0,0.0220739,0.0622434,-0.105466,0.0486782,-0.0714168,-0.0348164,0.0633587,-0.476787,0.245298,-2.91932,0.0255852,0.00111277,427.744,0.401767,0.276199,0.38855,0.132243,0.104346,inf,inf,inf,inf,1,1,1,1,2,0,2,1,4,1,1,0
277867544,65222418,34.0348619,108.756711,-1.719,2.19702,-1.89983,-0.0511265,-0.0257923,0.0,0.0305244,0.0505698,-0.0829752,0.070742,-0.0714168,-0.0348164,0.0633587,0.574875,-2.32982,3.39196,0.0317588,0.00111277,427.744,0.395156,0.28474,0.392776,0.136736,0.106027,inf,inf,inf,inf,1,1,1,1,2,0,2,1,4,1,1,0
277967624,65222418,34.0348619,108.756711,-1.71883,2.20216,-1.89281,-0.0511265,-0.0257923,0.0,0.0477444,0.0896509,-0.0759878,0.0768837,-0.0714168,-0.0348164,0.0633587,-0.770098,2.92738,-1.87356,0.0352928,0.00111277,427.744,0.388136,0.275861,0.390245,0.132052,0.104538,inf,inf,inf,inf,1,1,1,1,2,0,2,1,4,1,1,0
278067700,65222418,34.0348619,108.756711,-1.71727,2.20825,-1.88667,-0.0511265,-0.0257923,0.0,0.0626739,0.0908782,-0.0826842,0.0672247,-0.0714168,-0.0348164,0.0633587,1.30768,-2.95451,-3.20879,0.0376594,0.00111277,427.744,0.38199,0.284405,0.392028,0.136751,0.105955,inf,inf,inf,inf,1,1,1,1,2,0,2,1,4,1,1,0
278167779,65222418,34.0348619,108.756711,-1.71497,2.21578,-1.88087,-0.0511265,-0.0257923,0.0,0.0637198,0.108972,-0.0820556,0.0656099,-0.0714168,-0.0348164,0.0633587,-1.28561,-0.555814,-2.04917,0.0377929,0.00111277,427.744,0.37619,0.275457,0.389497,0.131862,0.104453,inf,inf,inf,inf,1,1,1,1,2,0,2,1,4,1,1,0
278267857,65222418,34.0348619,108.756711,-1.7129,2.22451,-1.876,-0.0511265,-0.0257923,0.0,0.0742648,0.120487,-0.064172,0.0797197,-0.0714168,-0.0348164,0.0633587,0.489789,-2.77778,0.276285,0.035822,0.00111277,427.744,0.371317,0.283995,0.39127,0.136526,0.105868,inf,inf,inf,inf,1,1,1,1,2,0,2,1,4,1,1,0
278367937,65222418,34.0348619,108.756711,-1.70935,2.23616,-1.87407,-0.0511265,-0.0257923,0.0,0.0832894,0.139981,-0.0620021,0.0756104,-0.0714168,-0.0348164,0.0633587,0.00985382,-1.52972,3.15964,0.0334558,0.00111277,427.744,0.369393,0.275074,0.388754,0.131817,0.10437,inf,inf,inf,inf,1,1,1,1,2,0,2,1,4,1,1,0
278468013,65222418,34.0348619,108.756711,-1.70536,2.24995,-1.86998,-0.0511265,-0.0257923,0.0,0.101681,0.160689,-0.0570474,0.0760306,-0.0714168,-0.0348164,0.0633587,0.298349,-0.427385,0.933734,0.0318028,0.00111277,427.744,0.365298,0.28361,0.39298,0.136381,0.106053,inf,inf,inf,inf,1,1,1,1,2,0,2,1,4,1,1,0
278568091,65222418,34.0348619,108.756711,-1.70081,2.26483,-1.86754,-0.0511265,-0.0257923,0.0,0.0896782,0.183308,-0.0424439,0.0847131,-0.0714168,-0.0348164,0.0633587,-0.352125,5.02156,1.38822,0.0311751,0.00111277,427.744,0.36286,0.274742,0.39044,0.131781,0.10455,inf,inf,inf,inf,1,1,1,1,2,0,2,1,4,1,1,0
278668170,65222418,34.0348619,108.756711,-1.69696,2.27927,-1.86359,-0.0511265,-0.0257923,0.0,0.101679,0.177007,-0.047488,0.0751335,-0.0714168,-0.0348164,0.0633587,-0.407046,0.00867027,1.2453,0.0358219,0.00111277,427.744,0.358917,0.283276,0.392227,0.136318,0.105968,inf,inf,inf,inf,1,1,1,1,2,0,2,1,4,1,1,0
278768249,65222418,34.0348619,108.756711,-1.69178,2.29519,-1.85826,-0.0511265,-0.0257923,0.0,0.0995273,0.185472,-0.03993,0.0801588,-0.0714168,-0.0348164,0.0633587,-0.248756,2.09889,3.53342,0.0394007,0.00111277,427.744,0.353587,0.274337,0.389695,0.131542,0.104454,inf,inf,inf,inf,1,1,1,1,2,0,2,1,4,1,1,0
278868326,65222418,34.0348619,108.756711,-1.68658,2.31227,-1.85715,-0.0511265,-0.0257923,0.0,0.109058,0.207208,-0.093747,0.0212282,-0.0714168,-0.0348164,0.0633587,0.343093,3.97385,-4.73491,0.0393679,0.00111277,427.744,0.35247,0.28286,0.39148,0.136096,0.105871,inf,inf,inf,inf,1,1,1,1,2,0,2,1,4,1,1,0
278968404,65222418,34.0348619,108.756711,-1.68034,2.3312,-1.85957,-0.0511265,-0.0257923,0.0,0.12026,0.21922,-0.110806,-0.000461037,-0.0714168,-0.0348164,0.0633587,0.0679398,2.49736,-2.41169,0.0386345,0.00111277,427.744,0.354894,0.274064,0.38897,0.131558,0.104376,inf,inf,inf,inf,1,1,1,1,2,0,2,1,4,1,1,0
279068502,65222418,34.0348619,108.756711,-1.6747,2.35126,-1.86347,-0.0511265,-0.0257923,0.0,0.122621,0.233842,-0.125496,-0.0179461,-0.0714168,-0.0348164,0.0633587,0.162579,2.76462,1.47221,0.0398135,0.00111277,427.744,0.35879,0.282591,0.390737,0.13616,0.105789,inf,inf,inf,inf,1,1,1,1,2,0,2,1,4,1,1,0
279168561,65222418,34.0348619,108.756711,-1.66687,2.3728,-1.86821,-0.0511265,-0.0257923,0.0,0.136277,0.250898,-0.117075,-0.0126483,-0.0714168,-0.0348164,0.0633587,0.743298,3.0473,1.22433,0.0418346,0.00111277,427.744,0.363529,0.273744,0.390653,0.131594,0.104545,inf,inf,inf,inf,1,1,1,1,2,0,2,1,4,1,1,0
279268639,65222418,34.0348619,108.756711,-1.65893,2.39436,-1.87117,-0.0511265,-0.0257923,0.0,0.145054,0.240963,-0.104073,-0.00186488,-0.0714168,-0.0348164,0.0633587,0.307227,0.0586404,1.11103,0.0443563,0.00111277,427.744,0.366487,0.282272,0.392451,0.136227,0.105966,inf,inf,inf,inf,1,1,1,1,2,0,2,1,4,1,1,0
279368719,65222418,34.0348619,108.756711,-1.65021,2.41545,-1.87137,-0.0511265,-0.0257923,0.0,0.147851,0.230455,-0.0791853,0.0217163,-0.0714168,-0.0348164,0.0633587,0.587368,1.13805,-0.327687,0.0463765,0.00111277,427.744,0.366697,0.273582,0.38993,0.13156,0.104469,inf,inf,inf,inf,1,1,1,1,2,0,2,1,4,1,1,0
279468803,65222418,34.0348619,108.756711,-1.64191,2.43679,-1.86762,-0.0511265,-0.0257923,0.0,0.151611,0.243313,-0.0480637,0.0529062,-0.0714168,-0.0348164,0.0633587,-0.236696,3.64388,1.98553,0.0481958,0.00111277,427.744,0.362937,0.282112,0.391702,0.136028,0.105882,inf,inf,inf,inf,1,1,1,1,2,0,2,1,4,1,1,0
279568874,65222418,34.0348619,108.756711,-1.63273,2.45824,-1.86406,-0.0511265,-0.0257923,0.0,0.157598,0.23064,-0.0278808,0.0705874,-0.0714168,-0.0348164,0.0633587,0.680918,1.94827,2.69283,0.0490696,0.00111277,427.744,0.35938,0.273416,0.38918,0.131388,0.104384,inf,inf,inf,inf,1,1,1,1,2,0,2,1,4,1,1,0
279668954,65222418,34.0348619,108.756711,-1.62417,2.47868,-1.86062,-0.0511265,-0.0257923,0.0,0.173408,0.200488,-0.0159795,0.0787519,-0.0714168,-0.0348164,0.0633587,1.28178,0.355317,1.72133,0.0493931,0.00111277,427.744,0.355943,0.281944,0.390942,0.135831,0.105794,inf,inf,inf,inf,1,1,1,1,2,0,2,1,4,1,1,0
279769030,65222418,34.0348619,108.756711,-1.61209,2.49648,-1.85652,-0.0511265,-0.0257923,0.0,0.197867,0.170131,0.00136467,0.0914058,-0.0714168,-0.0348164,0.0633587,-0.164373,3.74678,-2.33177,0.0497087,0.00111277,427.744,0.351846,0.27324,0.39085,0.131228,0.104558,inf,inf,inf,inf,1,1,1,1,2,0,2,1,4,1,1,0
279869113,65222418,34.0348619,108.756711,-1.59719,2.51213,-1.84977,-0.0511265,-0.0257923,0.0,0.243734,0.130096,0.0406488,0.126175,-0.0714168,-0.0348164,0.0633587,0.409665,-0.42221,0.0832118,0.0503311,0.00111277,427.744,0.345096,0.281768,0.392644,0.135685,0.105977,inf,inf,inf,inf,1,1,1,1,2,0,2,1,4,1,1,0
279969187,65222418,34.0348619,108.756711,-1.57473,2.52333,-1.84227,-0.0511265,-0.0257923,0.0,0.32836,0.0735431,0.102507,0.180853,-0.0714168,-0.0348164,0.0633587,0.48928,-2.73604,6.78058,0.0517355,0.00111277,427.744,0.337595,0.273087,0.390106,0.13101,0.104474,inf,inf,inf,inf,1,1,1,1,2,0,2,1,4,1,1,0
280069271,65222418,34.0348619,108.756711,-1.54474,2.52884,-1.83164,-0.0511265,-0.0257923,0.0,0.419814,0.0227052,0.129331,0.200331,-0.0714168,-0.0348164,0.0633587,1.21236,-2.9582,2.73998,0.0508471,0.00111277,427.744,0.326959,0.281611,0.391889,0.13543,0.105886,inf,inf,inf,inf,1,1,1,1,2,0,2,1,4,1,1,0
280169348,65222418,34.0348619,108.756711,-1.50361,2.53118,-1.81921,-0.0511265,-0.0257923,0.0,0.530897,-0.0103039,0.139199,0.203339,-0.0714168,-0.0348164,0.0633587,1.61765,-6.32753,0.332851,0.0484333,0.00111277,427.744,0.314536,0.272957,0.389366,0.130826,0.104383,inf,inf,inf,inf,1,1,1,1,2,0,2,1,4,1,1,0
280269422,65222418,34.0348619,108.756711,-1.45205,2.53208,-1.80397,-0.0511265,-0.0257923,0.0,0.643838,-0.0209165,0.180627,0.237847,-0.0714168,-0.0348164,0.0633587,0.989176,1.23188,1.49135,0.0480988,0.00111277,427.744,0.29929,0.281475,0.39114,0.135275,0.105788,inf,inf,inf,inf,1,1,1,1,2,0,2,1,4,1,1,0
280369500,65222418,34.0348619,108.756711,-1.38939,2.53153,-1.78434,-0.0511265,-0.0257923,0.0,0.755007,-0.0285188,0.196684,0.249022,-0.0714168,-0.0348164,0.0633587,1.61101,-1.2217,1.109,0.0484364,0.00111277,427.744,0.279657,0.272838,0.388631,0.130711,0.10429,inf,inf,inf,inf,1,1,1,1,2,0,2,1,4,1,1,0
280469578,65222418,34.0348619,108.756711,-1.32039,2.53066,-1.76903,-0.0511265,-0.0257923,0.0,0.81164,-0.035113,0.133409,0.179835,-0.0714168,-0.0348164,0.0633587,1.78155,-5.08029,-2.19553,0.0473622,0.00111277,427.744,0.264356,0.281353,0.392854,0.135159,0.105967,inf,inf,inf,inf,1,1,1,1,2,0,2,1,4,1,1,0
280569656,65222418,34.0348619,108.756711,-1.25029,2.53105,-1.77091,-0.0511265,-0.0257923,0.0,0.813645,-0.0286049,-0.00597769,0.0301905,-0.0714168,-0.0348164,0.0633587,0.288023,-2.63967,1.38323,0.0481973,0.00111277,427.744,0.266231,0.27272,0.390328,0.130829,0.10448,inf,inf,inf,inf,1,1,1,1,2,0,2,1,4,1,1,0
280669741,65222418,34.0348619,108.756711,-1.18031,2.53512,-1.78073,-0.0511265,-0.0257923,0.0,0.818328,0.00980852,-0.0632278,-0.035584,-0.0714168,-0.0348164,0.0633587,0.0216797,2.6943,-2.52661,0.0490112,0.00111277,427.744,0.276049,0.281251,0.392115,0.135742,0.105892,inf,inf,inf,inf,1,1,1,1,2,0,2,1,4,1,1,0
280769816,65222418,34.0348619,108.756711,-1.10779,2.53979,-1.79349,-0.0511265,-0.0257923,0.0,0.809207,0.0293561,-0.0989938,-0.0785549,-0.0714168,-0.0348164,0.0633587,-1.0274,2.07195,-5.35407,0.0506983,0.00111277,427.744,0.288808,0.272333,0.389583,0.131356,0.104372,inf,inf,inf,inf,1,1,1,1,2,0,2,1,4,1,1,0
280869891,65222418,34.0348619,108.756711,-1.03857,2.54452,-1.80408,-0.0511265,-0.0257923,0.0,0.794075,0.0558744,-0.09603,-0.078171,-0.0714168,-0.0348164,0.0633587,-0.729254,4.72676,-3.96693,0.0510633,0.00111277,427.744,0.299404,0.280873,0.391367,0.136027,0.105788,inf,inf,inf,inf,1,1,1,1,2,0,2,1,4,1,1,0
280969973,65222418,34.0348619,108.756711,-0.966801,2.55094,-1.81138,-0.0511265,-0.0257923,0.0,0.795563,0.0743367,-0.0811413,-0.062697,-0.0714168,-0.0348164,0.0633587,-0.747773,2.96578,-0.868294,0.0489562,0.00111277,427.744,0.306701,0.272032,0.388857,0.13138,0.104283,inf,inf,inf,inf,1,1,1,1,2,0,2,1,4,1,1,0
281070049,65222418,34.0348619,108.756711,-0.892127,2.55883,-1.81441,-0.0511265,-0.0257923,0.0,0.796316,0.0667976,-0.0587365,-0.0375794,-0.0714168,-0.0348164,0.0633587,-0.110086,-1.83941,-1.12981,0.0469255,0.00111277,427.744,0.309735,0.28057,0.393078,0.135926,0.105961,inf,inf,inf,inf,1,1,1,1,2,0,2,1,4,1,1,0
281170126,65222418,34.0348619,108.756711,-0.816284,2.56633,-1.81558,-0.0511265,-0.0257923,0.0,0.794915,0.0751165,-0.0598312,-0.0354226,-0.0714168,-0.0348164,0.0633587,-0.528475,0.214321,-2.39518,0.0433503,0.00111277,427.744,0.310898,0.271826,0.390534,0.131299,0.104462,inf,inf,inf,inf,1,1,1,1,2,0,2,1,4,1,1,0
281270204,65222418,34.0348619,108.756711,-0.739619,2.57247,-1.81514,-0.0511265,-0.0257923,0.0,0.784618,0.0853597,-0.0631262,-0.0347248,-0.0714168,-0.0348164,0.0633587,0.289427,-0.510791,-2.17384,0.0392047,0.00111277,427.744,0.310465,0.280362,0.392315,0.135793,0.105877,inf,inf,inf,inf,1,1,1,1,2,0,2,1,4,1,1,0
281370283,65222418,34.0348619,108.756711,-0.661831,2.57998,-1.81337,-0.0511265,-0.0257923,0.0,0.784414,0.107535,-0.047413,-0.014406,-0.0714168,-0.0348164,0.0633587,-0.425995,3.70661,-1.71544,0.0368354,0.00111277,427.744,0.308688,0.271612,0.389778,0.13117,0.10438,inf,inf,inf,inf,1,1,1,1,2,0,2,1,4,1,1,0
281470361,65222418,34.0348619,108.756711,-0.581701,2.58762,-1.81187,-0.0511265,-0.0257923,0.0,0.776922,0.114076,-0.0505903,-0.0152088,-0.0714168,-0.0348164,0.0633587,-0.939583,1.46706,-2.71369,0.0367995,0.00111277,427.744,0.307192,0.28015,0.391549,0.135737,0.105791,inf,inf,inf,inf,1,1,1,1,2,0,2,1,4,1,1,0
281570439,65222418,34.0348619,108.756711,-0.503827,2.59682,-1.81049,-0.0511265,-0.0257923,0.0,0.773637,0.117728,-0.00762165,0.0283935,-0.0714168,-0.0348164,0.0633587,0.16052,-0.337208,2.38281,0.0353185,0.00111277,427.744,0.305811,0.271399,0.389037,0.131084,0.1043,inf,inf,inf,inf,1,1,1,1,2,0,2,1,4,1,1,0
281670517,65222418,34.0348619,108.756711,-0.429969,2.60627,-1.8105,-0.0511265,-0.0257923,0.0,0.764323,0.128657,0.00491135,0.0386,-0.0714168,-0.0348164,0.0633587,0.114791,-0.67593,2.64629,0.0337519,0.00111277,427.744,0.305825,0.279935,0.390798,0.135606,0.105709,inf,inf,inf,inf,1,1,1,1,2,0,2,1,4,1,1,0
281770596,65222418,34.0348619,108.756711,-0.355255,2.61596,-1.809,-0.0511265,-0.0257923,0.0,0.764409,0.130964,0.0239585,0.0558808,-0.0714168,-0.0348164,0.0633587,-0.113562,-0.774581,3.43249,0.0310478,0.00111277,427.744,0.304326,0.271152,0.390712,0.130968,0.104478,inf,inf,inf,inf,1,1,1,1,2,0,2,1,4,1,1,0
281870674,65222418,34.0348619,108.756711,-0.278855,2.62447,-1.8075,-0.0511265,-0.0257923,0.0,0.764868,0.119117,0.0295077,0.0577651,-0.0714168,-0.0348164,0.0633587,0.242844,-4.90138,-3.58072,0.0285329,0.00111277,427.744,0.302821,0.279685,0.392506,0.135428,0.105897,inf,inf,inf,inf,1,1,1,1,2,0,2,1,4,1,1,0
281970752,65222418,34.0348619,108.756711,-0.203066,2.63362,-1.8047,-0.0511265,-0.0257923,0.0,0.757702,0.14054,0.0703994,0.0938219,-0.0714168,-0.0348164,0.0633587,-0.140002,1.60447,-1.85228,0.0270675,0.00111277,427.744,0.300018,0.270969,0.389976,0.130793,0.104402,inf,inf,inf,inf,1,1,1,1,2,0,2,1,4,1,1,0
282070830,65222418,34.0348619,108.756711,-0.128271,2.64369,-1.80068,-0.0511265,-0.0257923,0.0,0.759221,0.133409,0.0994216,0.116772,-0.0714168,-0.0348164,0.0633587,-0.131005,-0.576701,3.06964,0.0256714,0.00111277,427.744,0.296001,0.2795,0.39176,0.135223,0.105818,inf,inf,inf,inf,1,1,1,1,2,0,2,1,4,1,1,0
282170909,65222418,34.0348619,108.756711,-0.0528863,2.65413,-1.79664,-0.0511265,-0.0257923,0.0,0.748706,0.13572,0.0926511,0.102924,-0.0714168,-0.0348164,0.0633587,-0.861684,-1.93601,-4.30556,0.024953,0.00111277,427.744,0.291965,0.270778,0.389244,0.130579,0.104326,inf,inf,inf,inf,1,1,1,1,2,0,2,1,4,1,1,0
282270989,65222418,34.0348619,108.756711,0.0232882,2.66528,-1.79426,-0.0511265,-0.0257923,0.0,0.750037,0.151147,0.0848208,0.087892,-0.0714168,-0.0348164,0.0633587,0.0977608,4.08579,-0.507385,0.0228694,0.00111277,427.744,0.289579,0.279303,0.391018,0.135031,0.105738,inf,inf,inf,inf,1,1,1,1,2,0,2,1,4,1,1,0
282371065,65222418,34.0348619,108.756711,0.0992714,2.67716,-1.79685,-0.0511265,-0.0257923,0.0,0.745634,0.144901,0.101781,0.0938311,-0.0714168,-0.0348164,0.0633587,-0.338116,0.911569,1.67228,0.0215943,0.00111277,427.744,0.292172,0.270429,0.38851,0.130437,0.104237,inf,inf,inf,inf,1,1,1,1,2,0,2,1,4,1,1,0
282471145,65222418,34.0348619,108.756711,0.173903,2.68794,-1.80548,-0.0511265,-0.0257923,0.0,0.7469,0.135374,0.108077,0.0833407,-0.0714168,-0.0348164,0.0633587,0.665285,-1.74327,0.816001,0.0210557,0.00111277,427.744,0.300801,0.278946,0.392732,0.134999,0.105916,inf,inf,inf,inf,1,1,1,1,2,0,2,1,4,1,1,0
282571224,65222418,34.0348619,108.756711,0.24817,2.69949,-1.80918,-0.0511265,-0.0257923,0.0,0.740932,0.144987,0.123206,0.0868851,-0.0714168,-0.0348164,0.0633587,-0.864861,1.40173,-0.0018326,0.0220416,0.00111277,427.744,0.304505,0.270075,0.390206,0.130464,0.104423,inf,inf,inf,inf,1,1,1,1,2,0,2,1,4,1,1,0
282671302,65222418,34.0348619,108.756711,0.322077,2.71165,-1.81151,-0.0511265,-0.0257923,0.0,0.751324,0.141928,0.127506,0.0815945,-0.0714168,-0.0348164,0.0633587,-1.14843,-0.385975,-1.30701,0.022659,0.00111277,427.744,0.306828,0.278589,0.392002,0.134862,0.105842,inf,inf,inf,inf,1,1,1,1,2,0,2,1,4,1,1,0
282771378,65222418,34.0348619,108.756711,0.396199,2.72434,-1.81134,-0.0511265,-0.0257923,0.0,0.749731,0.142919,0.144111,0.090647,-0.0714168,-0.0348164,0.0633587,0.755745,1.03164,1.68353,0.0236906,0.00111277,427.744,0.306665,0.269554,0.389483,0.130242,0.104338,inf,inf,inf,inf,1,1,1,1,2,0,2,1,4,1,1,0
282871457,65222418,34.0348619,108.756711,0.466753,2.7361,-1.81152,-0.0511265,-0.0257923,0.0,0.752913,0.15722,0.13876,0.0785735,-0.0714168,-0.0348164,0.0633587,0.039729,-3.55609,1.31577,0.0259508,0.00111277,427.744,0.306841,0.278053,0.391253,0.134725,0.10575,inf,inf,inf,inf,1,1,1,1,2,0,2,1,4,1,1,0
282971537,65222418,34.0348619,108.756711,0.538768,2.74908,-1.81263,-0.0511265,-0.0257923,0.0,0.757312,0.148353,0.110608,0.044436,-0.0714168,-0.0348164,0.0633587,-0.154022,-2.85622,-4.80108,0.0277239,0.00111277,427.744,0.307951,0.269145,0.388739,0.130185,0.104259,inf,inf,inf,inf,1,1,1,1,2,0,2,1,4,1,1,0
283071613,65222418,34.0348619,108.756711,0.61163,2.76251,-1.81417,-0.0511265,-0.0257923,0.0,0.759217,0.172183,0.129019,0.0576401,-0.0714168,-0.0348164,0.0633587,0.225688,4.90327,1.32523,0.029311,0.00111277,427.744,0.309492,0.277644,0.392952,0.134734,0.105937,inf,inf,inf,inf,1,1,1,1,2,0,2,1,4,1,1,0
283171692,65222418,34.0348619,108.756711,0.685217,2.77548,-1.81084,-0.0511265,-0.0257923,0.0,0.767108,0.156335,0.153768,0.0812394,-0.0714168,-0.0348164,0.0633587,-0.187332,0.438509,4.48517,0.0318402,0.00111277,427.744,0.306165,0.268726,0.390415,0.130229,0.104441,inf,inf,inf,inf,1,1,1,1,2,0,2,1,4,1,1,0
283271770,65222418,34.0348619,108.756711,0.758025,2.78689,-1.81469,-0.0511265,-0.0257923,0.0,0.772435,0.148716,0.148013,0.066896,-0.0714168,-0.0348164,0.0633587,0.332031,-1.47683,2.70414,0.0339379,0.00111277,427.744,0.310008,0.277227,0.392198,0.134753,0.105857,inf,inf,inf,inf,1,1,1,1,2,0,2,1,4,1,1,0
283371855,65222418,34.0348619,108.756711,0.832266,2.79764,-1.81529,-0.0511265,-0.0257923,0.0,0.776488,0.144906,0.141985,0.0561782,-0.0714168,-0.0348164,0.0633587,-0.476085,0.761143,2.08699,0.0348359,0.00111277,427.744,0.310616,0.268389,0.389674,0.130273,0.104376,inf,inf,inf,inf,1,1,1,1,2,0,2,1,4,1,1,0
283471927,65222418,34.0348619,108.756711,0.90782,2.80712,-1.81479,-0.0511265,-0.0257923,0.0,0.784207,0.140425,0.120399,0.0325148,-0.0714168,-0.0348164,0.0633587,-0.00556713,0.0903241,-1.3409,0.0359045,0.00111277,427.744,0.31011,0.276898,0.391449,0.134756,0.105789,inf,inf,inf,inf,1,1,1,1,2,0,2,1,4,1,1,0
283572005,65222418,34.0348619,108.756711,0.98519,2.8176,-1.81788,-0.0511265,-0.0257923,0.0,0.802514,0.1462,0.125661,0.0330756,-0.0714168,-0.0348164,0.0633587,0.405033,-0.211608,-0.974563,0.0372614,0.00111277,427.744,0.313201,0.268263,0.388947,0.1304,0.104313,inf,inf,inf,inf,1,1,1,1,2,0,2,1,4,1,1,0
283672083,65222418,34.0348619,108.756711,1.0653,2.82843,-1.82049,-0.0511265,-0.0257923,0.0,0.809629,0.165432,0.11081,0.0147493,-0.0714168,-0.0348164,0.0633587,0.35935,-1.164,0.188897,0.0384811,0.00111277,427.744,0.315809,0.276791,0.390713,0.134981,0.105723,inf,inf,inf,inf,1,1,1,1,2,0,2,1,4,1,1,0
283772162,65222418,34.0348619,108.756711,1.14538,2.842,-1.82255,-0.0511265,-0.0257923,0.0,0.82101,0.190502,0.0765898,-0.0197768,-0.0714168,-0.0348164,0.0633587,-0.707331,3.02211,-2.57543,0.0388523,0.00111277,427.744,0.317869,0.26824,0.390629,0.130476,0.104494,inf,inf,inf,inf,1,1,1,1,2,0,2,1,4,1,1,0
283872240,65222418,34.0348619,108.756711,1.22377,2.85706,-1.82677,-0.0511265,-0.0257923,0.0,0.820344,0.189115,0.0199328,-0.074191,-0.0714168,-0.0348164,0.0633587,0.4401,-2.76492,0.71753,0.0392465,0.00111277,427.744,0.322094,0.276779,0.392427,0.135033,0.105914,inf,inf,inf,inf,1,1,1,1,2,0,2,1,4,1,1,0
283972319,65222418,34.0348619,108.756711,1.30312,2.87325,-1.83609,-0.0511265,-0.0257923,0.0,0.822698,0.206137,-0.012145,-0.104899,-0.0714168,-0.0348164,0.0633587,0.267458,1.4314,-0.728196,0.0389904,0.00111277,427.744,0.331413,0.268256,0.3899,0.130744,0.104418,inf,inf,inf,inf,1,1,1,1,2,0,2,1,4,1,1,0
284072397,65222418,34.0348619,108.756711,1.38269,2.88936,-1.84972,-0.0511265,-0.0257923,0.0,0.812826,0.19725,-0.0619092,-0.153861,-0.0714168,-0.0348164,0.0633587,-1.20113,-0.921316,-3.82301,0.039343,0.00111277,427.744,0.345046,0.276817,0.391688,0.135462,0.105835,inf,inf,inf,inf,1,1,1,1,2,0,2,1,4,1,1,0
284172478,65222418,34.0348619,108.756711,1.4619,2.90578,-1.86727,-0.0511265,-0.0257923,0.0,0.816516,0.201957,-0.0891796,-0.179783,-0.0714168,-0.0348164,0.0633587,0.200708,4.56897,5.72759,0.0396079,0.00111277,427.744,0.362587,0.26828,0.389183,0.131033,0.104345,inf,inf,inf,inf,1,1,1,1,2,0,2,1,4,1,1,0
284272553,65222418,34.0348619,108.756711,1.54059,2.92257,-1.88257,-0.0511265,-0.0257923,0.0,0.821816,0.184355,-0.114748,-0.199082,-0.0714168,-0.0348164,0.0633587,0.401962,-3.76413,3.34269,0.0418052,0.00111277,427.744,0.377888,0.276862,0.390962,0.135793,0.105758,inf,inf,inf,inf,1,1,1,1,2,0,2,1,4,1,1,0
284372632,65222418,34.0348619,108.756711,1.62029,2.93583,-1.89656,-0.0511265,-0.0257923,0.0,0.829836,0.117354,-0.137739,-0.212212,-0.0714168,-0.0348164,0.0633587,1.09965,-1.38751,2.41133,0.0415753,0.00111277,427.744,0.39188,0.268251,0.38847,0.131359,0.104271,inf,inf,inf,inf,1,1,1,1,2,0,2,1,4,1,1,0
284472710,65222418,34.0348619,108.756711,1.70184,2.94024,-1.91303,-0.0511265,-0.0257923,0.0,0.832872,0.0571861,-0.131539,-0.199138,-0.0714168,-0.0348164,0.0633587,-0.281223,2.69086,6.45963,0.0430936,0.00111277,427.744,0.40835,0.276849,0.390247,0.135971,0.105683,inf,inf,inf,inf,1,1,1,1,2,0,2,1,4,1,1,0
284572788,65222418,34.0348619,108.756711,1.78414,2.93663,-1.92786,-0.0511265,-0.0257923,0.0,0.840892,-0.0753812,-0.106464,-0.168451,-0.0714168,-0.0348164,0.0633587,0.266421,-4.07551,-0.920606,0.0437166,0.00111277,427.744,0.42318,0.268141,0.390179,0.131407,0.104455,inf,inf,inf,inf,1,1,1,1,2,0,2,1,4,1,1,0
284672867,65222418,34.0348619,108.756711,1.867,2.92265,-1.93368,-0.0511265,-0.0257923,0.0,0.838958,-0.191653,-0.0663166,-0.119278,-0.0714168,-0.0348164,0.0633587,-0.291757,-2.05767,-2.83912,0.0443517,0.00111277,427.744,0.429,0.276744,0.391979,0.135849,0.105864,inf,inf,inf,inf,1,1,1,1,2,0,2,1,4,1,1,0
284772948,65222418,34.0348619,108.756711,1.9494,2.90031,-1.93725,-0.0511265,-0.0257923,0.0,0.835742,-0.238919,-0.013773,-0.0612838,-0.0714168,-0.0348164,0.0633587,-0.80688,0.0851002,-2.19606,0.0432171,0.00111277,427.744,0.432567,0.268024,0.389475,0.130999,0.104364,inf,inf,inf,inf,1,1,1,1,2,0,2,1,4,1,1,0
284873023,65222418,34.0348619,108.756711,2.03089,2.8724,-1.94017,-0.0511265,-0.0257923,0.0,0.828294,-0.300616,0.0155372,-0.0306042,-0.0714168,-0.0348164,0.0633587,-0.105419,0.982036,3.56555,0.0417801,0.00111277,427.744,0.435487,0.276616,0.391265,0.135409,0.105771,inf,inf,inf,inf,1,1,1,1,2,0,2,1,4,1,1,0
284973102,65222418,34.0348619,108.756711,2.11095,2.84143,-1.94318,-0.0511265,-0.0257923,0.0,0.823401,-0.312554,0.00693202,-0.0393049,-0.0714168,-0.0348164,0.0633587,-0.017137,-1.42124,-6.23668,0.0376085,0.00111277,427.744,0.438503,0.267935,0.388772,0.130758,0.104294,inf,inf,inf,inf,1,1,1,1,2,0,2,1,4,1,1,0
285073180,65222418,34.0348619,108.756711,2.19003,2.81268,-1.9448,-0.0511265,-0.0257923,0.0,0.816098,-0.305015,0.0497078,0.00334427,-0.0714168,-0.0348164,0.0633587,0.159632,-1.01652,3.29981,0.0359757,0.00111277,427.744,0.440117,0.276522,0.390552,0.135231,0.105708,inf,inf,inf,inf,1,1,1,1,2,0,2,1,4,1,1,0
285163251,65222418,34.0348619,108.756711,2.26109,2.78703,-1.94291,-0.0511265,-0.0257923,0.0,0.807805,-0.279699,0.0593693,0.0145319,-0.0714168,-0.0348164,0.0633587,0.239181,3.95359,-1.49517,0.0335938,0.00111277,427.744,0.438231,0.266869,0.389822,0.130164,0.104287,inf,inf,inf,inf,1,1,1,1,2,0,2,1,4,1,1,0
285273337,65222418,34.0348619,108.756711,2.34766,2.7587,-1.93764,-0.0511265,-0.0257923,0.0,0.811026,-0.272561,0.0900261,0.0478901,-0.0714168,-0.0348164,0.0633587,1.11004,-2.16666,2.47598,0.0300308,0.00111277,427.744,0.432958,0.276277,0.392293,0.134996,0.105901,inf,inf,inf,inf,1,1,1,1,2,0,2,1,4,1,1,0
285373415,65222418,34.0348619,108.756711,2.42741,2.73315,-1.9329,-0.0511265,-0.0257923,0.0,0.812658,-0.240388,0.0992695,0.0575878,-0.0714168,-0.0348164,0.0633587,-0.130192,3.96848,0.273437,0.0263176,0.00111277,427.744,0.428219,0.267393,0.38978,0.130366,0.104408,inf,inf,inf,inf,1,1,1,1,2,0,2,1,4,1,1,0
285473494,65222418,34.0348619,108.756711,2.50855,2.70806,-1.92647,-0.0511265,-0.0257923,0.0,0.829356,-0.237594,0.101998,0.0607773,-0.0714168,-0.0348164,0.0633587,0.618177,-2.34758,-0.388995,0.0233443,0.00111277,427.744,0.421794,0.275961,0.391583,0.134786,0.105825,inf,inf,inf,inf,1,1,1,1,2,0,2,1,4,1,1,0
285573574,65222418,34.0348619,108.756711,2.59205,2.68233,-1.92232,-0.0511265,-0.0257923,0.0,0.838569,-0.218945,0.120849,0.0774707,-0.0714168,-0.0348164,0.0633587,-0.295285,4.08524,6.66179,0.0206349,0.00111277,427.744,0.417638,0.267057,0.389082,0.130157,0.104335,inf,inf,inf,inf,1,1,1,1,2,0,2,1,4,1,1,0
285663642,65222418,34.0348619,108.756711,2.6685,2.65809,-1.91733,-0.0511265,-0.0257923,0.0,0.847267,-0.209197,0.13158,0.087566,-0.0714168,-0.0348164,0.0633587,0.189968,0.32934,3.8299,0.0199353,0.00111277,427.744,0.412655,0.274737,0.390203,0.134151,0.105554,inf,inf,inf,inf,1,1,1,1,2,0,2,1,4,1,1,0
285773729,65222418,34.0348619,108.756711,2.76212,2.62759,-1.91394,-0.0511265,-0.0257923,0.0,0.851429,-0.227784,0.136199,0.0859146,-0.0714168,-0.0348164,0.0633587,-0.382385,0.810681,-5.33938,0.0198968,0.00111277,427.744,0.409258,0.266696,0.388386,0.130144,0.104261,inf,inf,inf,inf,1,1,1,1,2,0,2,1,4,1,1,0
285863799,65222418,34.0348619,108.756711,2.83808,2.6002,-1.90858,-0.0511265,-0.0257923,0.0,0.846869,-0.2301,0.176024,0.121208,-0.0714168,-0.0348164,0.0633587,0.13745,-0.491622,-0.704079,0.0218304,0.00111277,427.744,0.403901,0.274371,0.391933,0.134116,0.105744,inf,inf,inf,inf,1,1,1,1,2,0,2,1,4,1,1,0
285973885,65222418,34.0348619,108.756711,2.92963,2.56934,-1.89263,-0.0511265,-0.0257923,0.0,0.837513,-0.211187,0.190555,0.137833,-0.0714168,-0.0348164,0.0633587,0.0994839,-3.43338,-2.11577,0.0237214,0.00111277,427.744,0.387954,0.266315,0.390053,0.129875,0.104435,inf,inf,inf,inf,1,1,1,1,2,0,2,1,4,1,1,0
286073963,65222418,34.0348619,108.756711,3.0116,2.54338,-1.87369,-0.0511265,-0.0257923,0.0,0.841619,-0.221146,0.226328,0.17688,-0.0714168,-0.0348164,0.0633587,0.394708,-1.55018,0.762661,0.0252756,0.00111277,427.744,0.369008,0.274855,0.3918,0.134308,0.105838,inf,inf,inf,inf,1,1,1,1,2,0,2,1,4,1,1,0
286164034,65222418,34.0348619,108.756711,3.08555,2.52129,-1.85626,-0.0511265,-0.0257923,0.0,0.832606,-0.205943,0.225411,0.177031,-0.0714168,-0.0348164,0.0633587,-0.509458,-5.81602,-6.43714,0.0245546,0.00111277,427.744,0.351585,0.265124,0.391017,0.129209,0.104402,inf,inf,inf,inf,1,1,1,1,2,0,2,1,4,1,1,0
286274120,65222418,34.0348619,108.756711,3.17579,2.49287,-1.8348,-0.0511265,-0.0257923,0.0,0.846733,-0.180551,0.282659,0.233515,-0.0714168,-0.0348164,0.0633587,0.759213,4.49126,4.67201,0.0257887,0.00111277,427.744,0.330123,0.27448,0.393457,0.134102,0.106009,inf,inf,inf,inf,1,1,1,1,2,0,2,1,4,1,1,0
286364191,65222418,34.0348619,108.756711,3.25379,2.47402,-1.81472,-0.0511265,-0.0257923,0.0,0.891509,-0.129071,0.300065,0.250459,-0.0714168,-0.0348164,0.0633587,1.12359,0.308305,0.352057,0.027282,0.00111277,427.744,0.31004,0.264654,0.39021,0.128966,0.104293,inf,inf,inf,inf,1,1,1,1,2,0,2,1,4,1,1,0
286474281,65222418,34.0348619,108.756711,3.3541,2.45352,-1.79259,-0.0511265,-0.0257923,0.0,0.926341,-0.105595,0.237781,0.186857,-0.0714168,-0.0348164,0.0633587,0.0975238,3.72219,0.249806,0.0309248,0.00111277,427.744,0.287912,0.273991,0.392636,0.133864,0.105898,inf,inf,inf,inf,1,1,1,1,2,0,2,1,4,1,1,0
286564349,65222418,34.0348619,108.756711,3.43938,2.44044,-1.78137,-0.0511265,-0.0257923,0.0,0.963444,-0.0688772,0.183413,0.129441,-0.0714168,-0.0348164,0.0633587,-0.274852,-1.43709,-6.77743,0.0327254,0.00111277,427.744,0.276691,0.26432,0.389425,0.128992,0.104201,inf,inf,inf,inf,1,1,1,1,2,0,2,1,4,1,1,0
286664429,65222418,34.0348619,108.756711,3.53518,2.42816,-1.77434,-0.0511265,-0.0257923,0.0,0.996708,-0.0397826,0.184549,0.125559,-0.0714168,-0.0348164,0.0633587,-0.221088,0.0558464,2.21285,0.0315022,0.00111277,427.744,0.269666,0.272786,0.391168,0.133655,0.105601,inf,inf,inf,inf,1,1,1,1,2,0,2,1,4,1,1,0
286764511,65222418,34.0348619,108.756711,3.63324,2.42023,-1.76604,-0.0511265,-0.0257923,0.0,1.00129,0.00956391,0.132651,0.0736684,-0.0714168,-0.0348164,0.0633587,0.384647,1.39313,2.30328,0.0299775,0.00111277,427.744,0.261363,0.263844,0.39106,0.129219,0.10435,inf,inf,inf,inf,1,1,1,1,2,0,2,1,4,1,1,0
286864584,65222418,34.0348619,108.756711,3.72654,2.41414,-1.76435,-0.0511265,-0.0257923,0.0,0.999554,-0.00597985,0.0567184,-0.00284909,-0.0714168,-0.0348164,0.0633587,0.315349,-2.69658,-0.907273,0.0291978,0.00111277,427.744,0.259672,0.272311,0.392834,0.133867,0.105768,inf,inf,inf,inf,1,1,1,1,2,0,2,1,4,1,1,0
286974669,65222418,34.0348619,108.756711,3.83087,2.40903,-1.77379,-0.0511265,-0.0257923,0.0,1.00358,0.0124125,0.00172859,-0.0623011,-0.0714168,-0.0348164,0.0633587,-0.212109,0.0271107,-0.727275,0.0233533,0.00111277,427.744,0.269112,0.264272,0.390942,0.130024,0.104461,inf,inf,inf,inf,1,1,1,1,2,0,2,1,4,1,1,0
287064739,65222418,34.0348619,108.756711,3.91607,2.40392,-1.78492,-0.0511265,-0.0257923,0.0,0.999419,0.00103384,-0.0329985,-0.100663,-0.0714168,-0.0348164,0.0633587,0.10337,-1.53163,-3.61501,0.0205387,0.00111277,427.744,0.280243,0.271932,0.39204,0.1343,0.105679,inf,inf,inf,inf,1,1,1,1,2,0,2,1,4,1,1,0
287164817,65222418,34.0348619,108.756711,4.01137,2.39797,-1.79789,-0.0511265,-0.0257923,0.0,0.990849,-0.00697791,-0.0440777,-0.113474,-0.0714168,-0.0348164,0.0633587,0.0464928,-0.0814011,-1.93444,0.0216452,0.00111277,427.744,0.29321,0.263016,0.389506,0.129888,0.104184,inf,inf,inf,inf,1,1,1,1,2,0,2,1,4,1,1,0
287264896,65222418,34.0348619,108.756711,4.10691,2.39152,-1.80523,-0.0511265,-0.0257923,0.0,0.991305,0.0101101,-0.0324455,-0.0977222,-0.0714168,-0.0348164,0.0633587,0.252382,0.693662,3.11506,0.0226952,0.00111277,427.744,0.300554,0.271513,0.391261,0.134512,0.105595,inf,inf,inf,inf,1,1,1,1,2,0,2,1,4,1,1,0
287364975,65222418,34.0348619,108.756711,4.20292,2.38752,-1.8153,-0.0511265,-0.0257923,0.0,0.987307,-0.000154822,-0.0597976,-0.122478,-0.0714168,-0.0348164,0.0633587,0.91526,-1.89652,1.73272,0.0239158,0.00111277,427.744,0.310624,0.262466,0.388738,0.129844,0.104091,inf,inf,inf,inf,1,1,1,1,2,0,2,1,4,1,1,0
287475060,65222418,34.0348619,108.756711,4.30873,2.38663,-1.82375,-0.0511265,-0.0257923,0.0,0.981606,0.0237535,-0.0697361,-0.127119,-0.0714168,-0.0348164,0.0633587,-0.587808,-1.43159,-0.974659,0.0245006,0.00111277,427.744,0.319075,0.271835,0.391153,0.134911,0.105694,inf,inf,inf,inf,1,1,1,1,2,0,2,1,4,1,1,0
287565133,65222418,34.0348619,108.756711,4.39558,2.38744,-1.83139,-0.0511265,-0.0257923,0.0,0.981712,0.0226581,-0.0639521,-0.118346,-0.0714168,-0.0348164,0.0633587,0.0914793,1.59231,-0.560991,0.0249305,0.00111277,427.744,0.326716,0.262009,0.390397,0.129793,0.104271,inf,inf,inf,inf,1,1,1,1,2,0,2,1,4,1,1,0
287675219,65222418,34.0348619,108.756711,4.50173,2.38883,-1.8412,-0.0511265,-0.0257923,0.0,0.983774,0.0250876,-0.0462122,-0.0984444,-0.0714168,-0.0348164,0.0633587,0.725026,-3.18784,1.71368,0.0263657,0.00111277,427.744,0.336526,0.27138,0.392822,0.134823,0.105877,inf,inf,inf,inf,1,1,1,1,2,0,2,1,4,1,1,0
287765288,65222418,34.0348619,108.756711,4.58935,2.3914,-1.84999,-0.0511265,-0.0257923,0.0,0.985952,0.046507,-0.0301781,-0.0826237,-0.0714168,-0.0348164,0.0633587,-0.570424,4.38741,0.557485,0.0279454,0.00111277,427.744,0.345311,0.261548,0.389611,0.129736,0.104187,inf,inf,inf,inf,1,1,1,1,2,0,2,1,4,1,1,0
287865366,65222418,34.0348619,108.756711,4.68734,2.39631,-1.85469,-0.0511265,-0.0257923,0.0,0.985164,0.0395218,-0.0189755,-0.0689062,-0.0714168,-0.0348164,0.0633587,0.694147,-4.48598,-1.21708,0.031119,0.00111277,427.744,0.350009,0.27004,0.391353,0.134154,0.105596,inf,inf,inf,inf,1,1,1,1,2,0,2,1,4,1,1,0
287965444,65222418,34.0348619,108.756711,4.78558,2.40078,-1.8554,-0.0511265,-0.0257923,0.0,0.988616,0.0572887,0.0148989,-0.030993,-0.0714168,-0.0348164,0.0633587,-0.529581,4.00861,-0.507465,0.0339406,0.00111277,427.744,0.350722,0.261049,0.388833,0.129569,0.104105,inf,inf,inf,inf,1,1,1,1,2,0,2,1,4,1,1,0
288065523,65222418,34.0348619,108.756711,4.88401,2.40584,-1.85345,-0.0511265,-0.0257923,0.0,0.984211,0.0670842,0.0417853,-0.000307657,-0.0714168,-0.0348164,0.0633587,0.257994,1.33147,0.693021,0.0356902,0.00111277,427.744,0.348776,0.269534,0.393029,0.133904,0.105781,inf,inf,inf,inf,1,1,1,1,2,0,2,1,4,1,1,0
288165608,65222418,34.0348619,108.756711,4.98142,2.41086,-1.84995,-0.0511265,-0.0257923,0.0,0.971702,0.0609269,0.0371677,-0.00165813,-0.0714168,-0.0348164,0.0633587,-0.0666891,0.371721,1.58269,0.0374953,0.00111277,427.744,0.345269,0.260548,0.390486,0.129277,0.104284,inf,inf,inf,inf,1,1,1,1,2,0,2,1,4,1,1,0
288265679,65222418,34.0348619,108.756711,5.07619,2.41588,-1.8494,-0.0511265,-0.0257923,0.0,0.964743,0.0638163,0.0168054,-0.0201245,-0.0714168,-0.0348164,0.0633587,-0.357432,1.58267,-1.45152,0.0387534,0.00111277,427.744,0.344718,0.269023,0.392251,0.133668,0.1057,inf,inf,inf,inf,1,1,1,1,2,0,2,1,4,1,1,0
288365758,65222418,34.0348619,108.756711,5.17167,2.4219,-1.84682,-0.0511265,-0.0257923,0.0,0.958714,0.0742533,0.0268151,-0.00697942,-0.0714168,-0.0348164,0.0633587,-0.484413,0.655079,-0.40863,0.0403609,0.00111277,427.744,0.34214,0.26004,0.389716,0.129157,0.104205,inf,inf,inf,inf,1,1,1,1,2,0,2,1,4,1,1,0
288465836,65222418,34.0348619,108.756711,5.26754,2.42858,-1.84488,-0.0511265,-0.0257923,0.0,0.951413,0.0788626,0.04521,0.0130715,-0.0714168,-0.0348164,0.0633587,0.273062,1.06411,2.7397,0.0404436,0.00111277,427.744,0.340201,0.268517,0.391473,0.133677,0.105618,inf,inf,inf,inf,1,1,1,1,2,0,2,1,4,1,1,0
288565914,65222418,34.0348619,108.756711,5.36386,2.43597,-1.84893,-0.0511265,-0.0257923,0.0,0.963357,0.0833041,0.0393754,0.00178094,-0.0714168,-0.0348164,0.0633587,-0.357321,-0.430872,-3.90432,0.0374796,0.00111277,427.744,0.344251,0.259607,0.388954,0.129108,0.104127,inf,inf,inf,inf,1,1,1,1,2,0,2,1,4,1,1,0
288665993,65222418,34.0348619,108.756711,5.4609,2.4442,-1.8527,-0.0511265,-0.0257923,0.0,0.964396,0.0952185,0.0638016,0.0212793,-0.0714168,-0.0348164,0.0633587,0.417466,0.604415,2.19661,0.0342776,0.00111277,427.744,0.348019,0.268085,0.390701,0.133568,0.105537,inf,inf,inf,inf,1,1,1,1,2,0,2,1,4,1,1,0
288766092,65222418,34.0348619,108.756711,5.55793,2.4522,-1.84854,-0.0511265,-0.0257923,0.0,0.96717,0.0912023,0.0804609,0.0389833,-0.0714168,-0.0348164,0.0633587,-0.235005,-2.21164,-3.90962,0.0313977,0.00111277,427.744,0.34386,0.259183,0.39061,0.128958,0.104295,inf,inf,inf,inf,1,1,1,1,2,0,2,1,4,1,1,0
288866149,65222418,34.0348619,108.756711,5.65245,2.4602,-1.84211,-0.0511265,-0.0257923,0.0,0.963774,0.101375,0.109423,0.068956,-0.0714168,-0.0348164,0.0633587,0.794092,-2.27219,3.13544,0.0302497,0.00111277,427.744,0.337435,0.267653,0.392389,0.133332,0.105715,inf,inf,inf,inf,1,1,1,1,2,0,2,1,4,1,1,0
288966228,65222418,34.0348619,108.756711,5.74697,2.46778,-1.83671,-0.0511265,-0.0257923,0.0,0.962967,0.0990506,0.114219,0.072461,-0.0714168,-0.0348164,0.0633587,0.0312447,4.95504,-0.729412,0.0288423,0.00111277,427.744,0.332033,0.258903,0.389862,0.128767,0.104223,inf,inf,inf,inf,1,1,1,1,2,0,2,1,4,1,1,0
289066309,65222418,34.0348619,108.756711,5.84126,2.4765,-1.83256,-0.0511265,-0.0257923,0.0,0.961259,0.0945313,0.091408,0.0479709,-0.0714168,-0.0348164,0.0633587,0.664774,-1.36068,-0.543196,0.0286724,0.00111277,427.744,0.327882,0.267372,0.391632,0.133196,0.10564,inf,inf,inf,inf,1,1,1,1,2,0,2,1,4,1,1,0
289166384,65222418,34.0348619,108.756711,5.9354,2.48582,-1.8255,-0.0511265,-0.0257923,0.0,0.954522,0.107587,0.102471,0.0603472,-0.0714168,-0.0348164,0.0633587,-0.130118,0.58294,-2.36441,0.0290365,0.00111277,427.744,0.320822,0.258695,0.389121,0.128743,0.10415,inf,inf,inf,inf,1,1,1,1,2,0,2,1,4,1,1,0
289266463,65222418,34.0348619,108.756711,6.02895,2.49665,-1.82383,-0.0511265,-0.0257923,0.0,0.955052,0.110358,0.113326,0.0667983,-0.0714168,-0.0348164,0.0633587,0.700929,3.21169,2.9996,0.0280765,0.00111277,427.744,0.319153,0.267172,0.390865,0.133203,0.10556,inf,inf,inf,inf,1,1,1,1,2,0,2,1,4,1,1,0
289366541,65222418,34.0348619,108.756711,6.12345,2.50797,-1.8265,-0.0511265,-0.0257923,0.0,0.957587,0.109335,0.102181,0.0476341,-0.0714168,-0.0348164,0.0633587,0.538882,-2.04207,0.087151,0.027412,0.00111277,427.744,0.321827,0.258523,0.390775,0.128746,0.104329,inf,inf,inf,inf,1,1,1,1,2,0,2,1,4,1,1,0
289466620,65222418,34.0348619,108.756711,6.21846,2.5185,-1.82592,-0.0511265,-0.0257923,0.0,0.961391,0.0844715,0.112951,0.0542293,-0.0714168,-0.0348164,0.0633587,0.918237,0.884213,3.83842,0.0268777,0.00111277,427.744,0.321238,0.267009,0.392543,0.133237,0.105746,inf,inf,inf,inf,1,1,1,1,2,0,2,1,4,1,1,0
289566698,65222418,34.0348619,108.756711,6.31422,2.52519,-1.82311,-0.0511265,-0.0257923,0.0,0.964099,0.0604971,0.0894896,0.0297439,-0.0714168,-0.0348164,0.0633587,-0.362618,0.637713,-3.17667,0.027059,0.00111277,427.744,0.318429,0.258347,0.390009,0.128646,0.10425,inf,inf,inf,inf,1,1,1,1,2,0,2,1,4,1,1,0
289666776,65222418,34.0348619,108.756711,6.40947,2.52926,-1.81966,-0.0511265,-0.0257923,0.0,0.967894,0.0372918,0.112513,0.0526886,-0.0714168,-0.0348164,0.0633587,-0.28771,-0.539649,2.10425,0.0303333,0.00111277,427.744,0.314985,0.26684,0.391768,0.133224,0.105664,inf,inf,inf,inf,1,1,1,1,2,0,2,1,4,1,1,0
289766855,65222418,34.0348619,108.756711,6.50535,2.53161,-1.81407,-0.0511265,-0.0257923,0.0,0.966348,0.0294961,0.114544,0.055181,-0.0714168,-0.0348164,0.0633587,-0.360072,0.811479,-0.857457,0.0313976,0.00111277,427.744,0.309391,0.258161,0.38925,0.128755,0.10417,inf,inf,inf,inf,1,1,1,1,2,0,2,1,4,1,1,0
289866940,65222418,34.0348619,108.756711,6.60086,2.53361,-1.80825,-0.0511265,-0.0257923,0.0,0.964343,0.0176271,0.111417,0.0528734,-0.0714168,-0.0348164,0.0633587,0.462048,-3.54289,1.22767,0.0311179,0.00111277,427.744,0.303576,0.26666,0.391,0.133181,0.105581,inf,inf,inf,inf,1,1,1,1,2,0,2,1,4,1,1,0
289967011,65222418,34.0348619,108.756711,6.69593,2.53652,-1.80268,-0.0511265,-0.0257923,0.0,0.953682,0.0298459,0.0794562,0.022963,-0.0714168,-0.0348164,0.0633587,-0.122158,-0.0401327,-1.38356,0.031187,0.00111277,427.744,0.298002,0.257902,0.388497,0.128666,0.104093,inf,inf,inf,inf,1,1,1,1,2,0,2,1,4,1,1,0
290067090,65222418,34.0348619,108.756711,6.78867,2.54312,-1.80026,-0.0511265,-0.0257923,0.0,0.944087,0.0370795,0.0799613,0.0234221,-0.0714168,-0.0348164,0.0633587,-0.457464,0.3994,-3.342,0.0332627,0.00111277,427.744,0.295582,0.266402,0.392695,0.133153,0.105771,inf,inf,inf,inf,1,1,1,1,2,0,2,1,4,1,1,0
290167168,65222418,34.0348619,108.756711,6.88107,2.54871,-1.79607,-0.0511265,-0.0257923,0.0,0.941277,0.0469136,0.122814,0.0664778,-0.0714168,-0.0348164,0.0633587,0.501254,-1.15413,5.05491,0.0348862,0.00111277,427.744,0.291395,0.257625,0.390175,0.128787,0.10429,inf,inf,inf,inf,1,1,1,1,2,0,2,1,4,1,1,0
290267253,65222418,34.0348619,108.756711,6.97238,2.55283,-1.7932,-0.0511265,-0.0257923,0.0,0.928998,0.0593062,0.0997043,0.0414298,-0.0714168,-0.0348164,0.0633587,0.181319,1.12133,-3.27564,0.0347315,0.00111277,427.744,0.288522,0.266138,0.391949,0.133246,0.105708,inf,inf,inf,inf,1,1,1,1,2,0,2,1,4,1,1,0
290367334,65222418,34.0348619,108.756711,7.06316,2.55961,-1.78548,-0.0511265,-0.0257923,0.0,0.924449,0.099535,0.118346,0.0634206,-0.0714168,-0.0348164,0.0633587,0.392668,1.53415,2.80697,0.0339101,0.00111277,427.744,0.280797,0.257243,0.389429,0.128602,0.104214,inf,inf,inf,inf,1,1,1,1,2,0,2,1,4,1,1,0
290467403,65222418,34.0348619,108.756711,7.15469,2.56786,-1.77522,-0.0511265,-0.0257923,0.0,0.927212,0.109668,0.0987381,0.0492371,-0.0714168,-0.0348164,0.0633587,0.0386522,-0.054617,-1.76004,0.0317226,0.00111277,427.744,0.270544,0.265752,0.391194,0.133139,0.105629,inf,inf,inf,inf,1,1,1,1,2,0,2,1,4,1,1,0
