timestamp,voltage_v,voltage_filtered_v,current_a,current_filtered_a,average_current_a,discharged_mah,remaining,scale,temperature,cell_count,voltage_cell_v[0],voltage_cell_v[1],voltage_cell_v[2],voltage_cell_v[3],voltage_cell_v[4],voltage_cell_v[5],voltage_cell_v[6],voltage_cell_v[7],voltage_cell_v[8],voltage_cell_v[9],max_cell_voltage_delta,capacity,cycle_count,run_time_to_empty,average_time_to_empty,serial_number,state_of_health,max_error,connected,source,priority,id,is_powering_off,warning
66918794,12.6139,12.7173,0.586,0.0326893,0.0,14.2237,1.0,1.0,nan,0,0.0,0.0,0.0,0.0,0.0,0.0,0.0,0.0,0.0,0.0,0.0,0,0,0,0,0,0,0,1,0,0,1,0,0
66928795,12.5701,12.7159,2.4905,0.0808816,0.0,14.2306,1.0,1.0,nan,0,0.0,0.0,0.0,0.0,0.0,0.0,0.0,0.0,0.0,0.0,0.0,0,0,0,0,0,0,0,1,0,0,1,0,0
67228869,12.6285,12.6622,2.6077,2.0301,0.0,14.6149,1.0,1.0,nan,0,0.0,0.0,0.0,0.0,0.0,0.0,0.0,0.0,0.0,0.0,0.0,0,0,0,0,0,0,0,1,0,0,1,0,0
67528793,12.5847,12.6468,2.3147,2.1809,0.0,14.8127,1.0,1.0,nan,0,0.0,0.0,0.0,0.0,0.0,0.0,0.0,0.0,0.0,0.0,0.0,0,0,0,0,0,0,0,1,0,0,1,0,0
67828792,12.5847,12.6377,2.3147,2.26087,0.0,15.0096,1.0,1.0,nan,0,0.0,0.0,0.0,0.0,0.0,0.0,0.0,0.0,0.0,0.0,0.0,0,0,0,0,0,0,0,1,0,0,1,0,0
68128796,11.7098,12.5357,22.6196,6.5321,0.0,15.8698,1.0,1.0,nan,0,0.0,0.0,0.0,0.0,0.0,0.0,0.0,0.0,0.0,0.0,0.0,0,0,0,0,0,0,0,1,0,0,1,0,0
68428793,12.2347,12.4445,11.5442,9.73383,0.0,17.0421,1.0,1.0,nan,0,0.0,0.0,0.0,0.0,0.0,0.0,0.0,0.0,0.0,0.0,0.0,0,0,0,0,0,0,0,1,0,0,1,0,0
68728793,12.2056,12.3814,12.3939,10.9311,0.0,18.0751,1.0,1.0,nan,0,0.0,0.0,0.0,0.0,0.0,0.0,0.0,0.0,0.0,0.0,0.0,0,0,0,0,0,0,0,1,0,0,1,0,0
69028793,12.1181,12.3332,13.8589,11.5556,0.0,19.1047,1.0,1.0,nan,0,0.0,0.0,0.0,0.0,0.0,0.0,0.0,0.0,0.0,0.0,0.0,0,0,0,0,0,0,0,1,0,0,1,0,0
69318809,12.2347,12.3,12.7162,11.7588,0.0,20.0718,1.0,1.0,nan,0,0.0,0.0,0.0,0.0,0.0,0.0,0.0,0.0,0.0,0.0,0.0,0,0,0,0,0,0,0,1,0,0,1,0,0
69628854,11.5785,12.1831,28.3331,15.6895,0.0,21.7077,1.0,1.0,nan,0,0.0,0.0,0.0,0.0,0.0,0.0,0.0,0.0,0.0,0.0,0.0,0,0,0,0,0,0,0,1,0,0,1,0,0
69928793,11.4764,12.0242,31.2045,21.6271,0.0,24.1006,1.0,1.0,nan,0,0.0,0.0,0.0,0.0,0.0,0.0,0.0,0.0,0.0,0.0,0.0,0,0,0,0,0,0,0,1,0,0,1,0,0
70228794,11.4619,11.8545,32.7867,27.031,0.0,26.8996,1.0,1.0,nan,0,0.0,0.0,0.0,0.0,0.0,0.0,0.0,0.0,0.0,0.0,0.0,0,0,0,0,0,0,0,1,0,0,1,0,0
70528921,11.5348,11.7666,27.7178,27.9977,0.0,29.3511,1.0,1.0,nan,0,0.0,0.0,0.0,0.0,0.0,0.0,0.0,0.0,0.0,0.0,0.0,0,0,0,0,0,0,0,1,0,0,1,0,0
70828811,11.7389,11.7282,23.2935,26.856,0.0,31.4916,1.0,1.0,nan,0,0.0,0.0,0.0,0.0,0.0,0.0,0.0,0.0,0.0,0.0,0.0,0,0,0,0,0,0,0,1,0,0,1,0,0
71129013,11.8264,11.7268,21.1253,24.7196,0.0,33.3391,1.0,1.0,nan,0,0.0,0.0,0.0,0.0,0.0,0.0,0.0,0.0,0.0,0.0,0.0,0,0,0,0,0,0,0,1,0,0,1,0,0
71428810,11.4619,11.6998,25.0515,24.06,0.0,35.2591,1.0,1.0,nan,0,0.0,0.0,0.0,0.0,0.0,0.0,0.0,0.0,0.0,0.0,0.0,0,0,0,0,0,0,0,1,0,0,1,0,0
71728793,11.666,11.6604,25.8719,24.8265,0.0,37.405,1.0,1.0,nan,0,0.0,0.0,0.0,0.0,0.0,0.0,0.0,0.0,0.0,0.0,0.0,0,0,0,0,0,0,0,1,0,0,1,0,0
72028799,11.6223,11.631,25.7254,25.1495,0.0,39.5337,1.0,1.0,nan,0,0.0,0.0,0.0,0.0,0.0,0.0,0.0,0.0,0.0,0.0,0.0,0,0,0,0,0,0,0,1,0,0,1,0,0
72328900,11.5202,11.589,25.7547,25.2919,0.0,41.6558,1.0,1.0,nan,0,0.0,0.0,0.0,0.0,0.0,0.0,0.0,0.0,0.0,0.0,0.0,0,0,0,0,0,0,0,1,0,0,1,0,0
72628871,11.3889,11.534,25.7547,25.3887,0.0,43.7764,1.0,1.0,nan,0,0.0,0.0,0.0,0.0,0.0,0.0,0.0,0.0,0.0,0.0,0.0,0,0,0,0,0,0,0,1,0,0,1,0,0
72928793,11.2723,11.4549,25.3738,25.4992,0.0,45.9111,1.0,1.0,nan,0,0.0,0.0,0.0,0.0,0.0,0.0,0.0,0.0,0.0,0.0,0.0,0,0,0,0,0,0,0,1,0,0,1,0,0
73228794,11.0681,11.3539,23.9967,25.885,0.0,48.1053,1.0,1.0,nan,0,0.0,0.0,0.0,0.0,0.0,0.0,0.0,0.0,0.0,0.0,0.0,0,0,0,0,0,0,0,1,0,0,1,0,0
73518793,11.0244,11.2967,25.5203,25.3036,0.0,50.0733,1.0,1.0,nan,0,0.0,0.0,0.0,0.0,0.0,0.0,0.0,0.0,0.0,0.0,0.0,0,0,0,0,0,0,0,1,0,0,1,0,0
73828839,11.1119,11.2275,25.3152,25.4176,0.0,52.2794,1.0,1.0,nan,0,0.0,0.0,0.0,0.0,0.0,0.0,0.0,0.0,0.0,0.0,0.0,0,0,0,0,0,0,0,1,0,0,1,0,0
74128801,11.0535,11.1624,27.835,25.8959,0.0,54.475,1.0,1.0,nan,0,0.0,0.0,0.0,0.0,0.0,0.0,0.0,0.0,0.0,0.0,0.0,0,0,0,0,0,0,0,1,0,0,1,0,0
74428793,11.141,11.1134,26.4286,26.5268,0.0,56.754,1.0,1.0,nan,0,0.0,0.0,0.0,0.0,0.0,0.0,0.0,0.0,0.0,0.0,0.0,0,0,0,0,0,0,0,1,0,0,1,0,0
74728928,11.2431,11.1031,25.6375,26.2183,0.0,58.9116,1.0,1.0,nan,0,0.0,0.0,0.0,0.0,0.0,0.0,0.0,0.0,0.0,0.0,0.0,0,0,0,0,0,0,0,1,0,0,1,0,0
75028863,11.141,11.0821,28.9191,26.5094,0.0,61.1312,1.0,1.0,nan,0,0.0,0.0,0.0,0.0,0.0,0.0,0.0,0.0,0.0,0.0,0.0,0,0,0,0,0,0,0,1,0,0,1,0,0
75328793,11.1119,11.0569,26.077,26.3385,0.0,63.3104,1.0,1.0,nan,0,0.0,0.0,0.0,0.0,0.0,0.0,0.0,0.0,0.0,0.0,0.0,0,0,0,0,0,0,0,1,0,0,1,0,0
75628876,11.1556,11.042,25.9012,26.4036,0.0,65.5182,1.0,1.0,nan,0,0.0,0.0,0.0,0.0,0.0,0.0,0.0,0.0,0.0,0.0,0.0,0,0,0,0,0,0,0,1,0,0,1,0,0
75928867,11.0827,11.0287,26.2235,26.361,0.0,67.7101,1.0,1.0,nan,0,0.0,0.0,0.0,0.0,0.0,0.0,0.0,0.0,0.0,0.0,0.0,0,0,0,0,0,0,0,1,0,0,1,0,0
76228794,11.1848,11.0222,26.7509,26.4925,0.0,69.9301,1.0,1.0,nan,0,0.0,0.0,0.0,0.0,0.0,0.0,0.0,0.0,0.0,0.0,0.0,0,0,0,0,0,0,0,1,0,0,1,0,0
76528912,11.0681,11.0097,25.5789,26.0599,0.0,72.0601,1.0,1.0,nan,0,0.0,0.0,0.0,0.0,0.0,0.0,0.0,0.0,0.0,0.0,0.0,0,0,0,0,0,0,0,1,0,0,1,0,0
76828793,11.0681,11.0006,26.6044,26.0584,0.0,74.2279,1.0,1.0,nan,0,0.0,0.0,0.0,0.0,0.0,0.0,0.0,0.0,0.0,0.0,0.0,0,0,0,0,0,0,0,1,0,0,1,0,0
77128796,11.0681,10.9891,25.9891,26.2359,0.0,76.4325,1.0,1.0,nan,0,0.0,0.0,0.0,0.0,0.0,0.0,0.0,0.0,0.0,0.0,0.0,0,0,0,0,0,0,0,1,0,0,1,0,0
77428883,11.1265,10.9886,25.7547,26.0055,0.0,78.5801,1.0,1.0,nan,0,0.0,0.0,0.0,0.0,0.0,0.0,0.0,0.0,0.0,0.0,0.0,0,0,0,0,0,0,0,1,0,0,1,0,0
77729054,11.0973,10.9869,25.9598,25.925,0.0,80.7317,1.0,1.0,nan,0,0.0,0.0,0.0,0.0,0.0,0.0,0.0,0.0,0.0,0.0,0.0,0,0,0,0,0,0,0,1,0,0,1,0,0
78028795,11.0681,10.9801,25.8426,25.9277,0.0,82.888,1.0,1.0,nan,0,0.0,0.0,0.0,0.0,0.0,0.0,0.0,0.0,0.0,0.0,0.0,0,0,0,0,0,0,0,1,0,0,1,0,0
78328793,11.0244,10.9727,26.37,26.4114,0.0,85.1527,1.0,1.0,nan,0,0.0,0.0,0.0,0.0,0.0,0.0,0.0,0.0,0.0,0.0,0.0,0,0,0,0,0,0,0,1,0,0,1,0,0
78628796,11.039,10.9558,27.3955,26.6944,0.0,87.4026,1.0,1.0,nan,0,0.0,0.0,0.0,0.0,0.0,0.0,0.0,0.0,0.0,0.0,0.0,0,0,0,0,0,0,0,1,0,0,1,0,0
78928949,11.0973,10.9479,26.7216,26.736,0.0,89.6359,1.0,1.0,nan,0,0.0,0.0,0.0,0.0,0.0,0.0,0.0,0.0,0.0,0.0,0.0,0,0,0,0,0,0,0,1,0,0,1,0,0
79228793,11.0535,10.952,26.8388,26.5695,0.0,91.8297,1.0,1.0,nan,0,0.0,0.0,0.0,0.0,0.0,0.0,0.0,0.0,0.0,0.0,0.0,0,0,0,0,0,0,0,1,0,0,1,0,0
79528793,11.0681,10.9488,26.4579,26.5029,0.0,94.0328,1.0,1.0,nan,0,0.0,0.0,0.0,0.0,0.0,0.0,0.0,0.0,0.0,0.0,0.0,0,0,0,0,0,0,0,1,0,0,1,0,0
79829140,11.0244,10.9456,26.6923,26.4927,0.0,96.2401,1.0,1.0,nan,0,0.0,0.0,0.0,0.0,0.0,0.0,0.0,0.0,0.0,0.0,0.0,0,0,0,0,0,0,0,1,0,0,1,0,0
80128858,11.1119,10.944,30.472,26.521,0.0,98.4449,1.0,1.0,nan,0,0.0,0.0,0.0,0.0,0.0,0.0,0.0,0.0,0.0,0.0,0.0,0,0,0,0,0,0,0,1,0,0,1,0,0
80428793,11.1702,10.9938,24.8757,26.0863,0.0,100.586,1.0,1.0,nan,0,0.0,0.0,0.0,0.0,0.0,0.0,0.0,0.0,0.0,0.0,0.0,0,0,0,0,0,0,0,1,0,0,1,0,0
80729320,11.2577,11.024,25.1101,25.7851,0.0,102.706,1.0,1.0,nan,0,0.0,0.0,0.0,0.0,0.0,0.0,0.0,0.0,0.0,0.0,0.0,0,0,0,0,0,0,0,1,0,0,1,0,0
81028825,11.1265,11.0501,25.2566,25.5012,0.0,104.798,1.0,1.0,nan,0,0.0,0.0,0.0,0.0,0.0,0.0,0.0,0.0,0.0,0.0,0.0,0,0,0,0,0,0,0,1,0,0,1,0,0
81328794,11.214,11.0646,26.1063,25.747,0.0,106.966,1.0,1.0,nan,0,0.0,0.0,0.0,0.0,0.0,0.0,0.0,0.0,0.0,0.0,0.0,0,0,0,0,0,0,0,1,0,0,1,0,0
81629000,10.8931,11.0487,26.077,25.8051,0.0,109.123,1.0,1.0,nan,0,0.0,0.0,0.0,0.0,0.0,0.0,0.0,0.0,0.0,0.0,0.0,0,0,0,0,0,0,0,1,0,0,1,0,0
81918793,10.9952,11.0521,26.1063,26.041,0.0,111.245,1.0,1.0,nan,0,0.0,0.0,0.0,0.0,0.0,0.0,0.0,0.0,0.0,0.0,0.0,0,0,0,0,0,0,0,1,0,0,1,0,0
82228793,11.1994,11.0666,25.8719,25.8316,0.0,113.449,1.0,1.0,nan,0,0.0,0.0,0.0,0.0,0.0,0.0,0.0,0.0,0.0,0.0,0.0,0,0,0,0,0,0,0,1,0,0,1,0,0
82528793,11.0098,11.0796,25.3738,25.6168,0.0,115.565,1.0,1.0,nan,0,0.0,0.0,0.0,0.0,0.0,0.0,0.0,0.0,0.0,0.0,0.0,0,0,0,0,0,0,0,1,0,0,1,0,0
82828822,11.1556,11.0828,25.3152,25.6263,0.0,117.701,1.0,1.0,nan,0,0.0,0.0,0.0,0.0,0.0,0.0,0.0,0.0,0.0,0.0,0.0,0,0,0,0,0,0,0,1,0,0,1,0,0
83128831,11.214,11.0886,25.784,25.6822,0.0,119.844,1.0,1.0,nan,0,0.0,0.0,0.0,0.0,0.0,0.0,0.0,0.0,0.0,0.0,0.0,0,0,0,0,0,0,0,1,0,0,1,0,0
83428812,11.2285,11.0887,26.3114,25.864,0.0,122.014,1.0,1.0,nan,0,0.0,0.0,0.0,0.0,0.0,0.0,0.0,0.0,0.0,0.0,0.0,0,0,0,0,0,0,0,1,0,0,1,0,0
83728793,11.1265,11.0736,26.3114,25.9771,0.0,124.186,1.0,1.0,nan,0,0.0,0.0,0.0,0.0,0.0,0.0,0.0,0.0,0.0,0.0,0.0,0,0,0,0,0,0,0,1,0,0,1,0,0
84028859,11.2285,11.0679,26.2235,26.0605,0.0,126.367,1.0,1.0,nan,0,0.0,0.0,0.0,0.0,0.0,0.0,0.0,0.0,0.0,0.0,0.0,0,0,0,0,0,0,0,1,0,0,1,0,0
84328939,11.3015,11.0812,26.1063,25.9823,0.0,128.525,1.0,1.0,nan,0,0.0,0.0,0.0,0.0,0.0,0.0,0.0,0.0,0.0,0.0,0.0,0,0,0,0,0,0,0,1,0,0,1,0,0
84628793,11.3889,11.1167,25.4324,25.8106,0.0,130.66,1.0,1.0,nan,0,0.0,0.0,0.0,0.0,0.0,0.0,0.0,0.0,0.0,0.0,0.0,0,0,0,0,0,0,0,1,0,0,1,0,0
84929727,11.4035,11.1515,25.5203,25.7401,0.0,132.805,1.0,1.0,nan,0,0.0,0.0,0.0,0.0,0.0,0.0,0.0,0.0,0.0,0.0,0.0,0,0,0,0,0,0,0,1,0,0,1,0,0
85228895,11.4035,11.1803,25.9012,25.643,0.0,134.923,1.0,1.0,nan,0,0.0,0.0,0.0,0.0,0.0,0.0,0.0,0.0,0.0,0.0,0.0,0,0,0,0,0,0,0,1,0,0,1,0,0
85528793,11.4035,11.2147,25.4324,25.4835,0.0,137.031,1.0,1.0,nan,0,0.0,0.0,0.0,0.0,0.0,0.0,0.0,0.0,0.0,0.0,0.0,0,0,0,0,0,0,0,1,0,0,1,0,0
85828859,11.4473,11.239,24.9636,25.4281,0.0,139.148,1.0,1.0,nan,0,0.0,0.0,0.0,0.0,0.0,0.0,0.0,0.0,0.0,0.0,0.0,0,0,0,0,0,0,0,1,0,0,1,0,0
86118829,11.2431,11.2565,25.4324,25.4217,0.0,141.191,1.0,1.0,nan,0,0.0,0.0,0.0,0.0,0.0,0.0,0.0,0.0,0.0,0.0,0.0,0,0,0,0,0,0,0,1,0,0,1,0,0
86428859,11.4181,11.2718,25.198,25.4711,0.0,143.391,1.0,1.0,nan,0,0.0,0.0,0.0,0.0,0.0,0.0,0.0,0.0,0.0,0.0,0.0,0,0,0,0,0,0,0,1,0,0,1,0,0
86728948,11.4181,11.2851,25.7254,25.4159,0.0,145.501,1.0,1.0,nan,0,0.0,0.0,0.0,0.0,0.0,0.0,0.0,0.0,0.0,0.0,0.0,0,0,0,0,0,0,0,1,0,0,1,0,0
87028812,11.4181,11.2999,25.7254,25.3283,0.0,147.6,1.0,1.0,nan,0,0.0,0.0,0.0,0.0,0.0,0.0,0.0,0.0,0.0,0.0,0.0,0,0,0,0,0,0,0,1,0,0,1,0,0
87328863,11.4619,11.304,25.8133,25.4244,0.0,149.731,1.0,1.0,nan,0,0.0,0.0,0.0,0.0,0.0,0.0,0.0,0.0,0.0,0.0,0.0,0,0,0,0,0,0,0,1,0,0,1,0,0
87628793,11.4327,11.3084,25.491,25.5467,0.0,151.873,1.0,1.0,nan,0,0.0,0.0,0.0,0.0,0.0,0.0,0.0,0.0,0.0,0.0,0.0,0,0,0,0,0,0,0,1,0,0,1,0,0
87929139,11.4473,11.3144,25.491,25.5962,0.0,154.015,1.0,1.0,nan,0,0.0,0.0,0.0,0.0,0.0,0.0,0.0,0.0,0.0,0.0,0.0,0,0,0,0,0,0,0,1,0,0,1,0,0
88228796,11.4473,11.3172,26.1649,25.6564,0.0,156.154,1.0,1.0,nan,0,0.0,0.0,0.0,0.0,0.0,0.0,0.0,0.0,0.0,0.0,0.0,0,0,0,0,0,0,0,1,0,0,1,0,0
88528823,11.4035,11.3244,25.9305,25.5946,0.0,158.278,1.0,1.0,nan,0,0.0,0.0,0.0,0.0,0.0,0.0,0.0,0.0,0.0,0.0,0.0,0,0,0,0,0,0,0,1,0,0,1,0,0
88828795,11.4473,11.3302,26.0184,25.5378,0.0,160.398,1.0,1.0,nan,0,0.0,0.0,0.0,0.0,0.0,0.0,0.0,0.0,0.0,0.0,0.0,0,0,0,0,0,0,0,1,0,0,1,0,0
89128914,11.4619,11.3401,25.4324,25.4727,0.0,162.516,1.0,1.0,nan,0,0.0,0.0,0.0,0.0,0.0,0.0,0.0,0.0,0.0,0.0,0.0,0,0,0,0,0,0,0,1,0,0,1,0,0
89428793,11.3889,11.3422,26.1356,25.5781,0.0,164.656,1.0,1.0,nan,0,0.0,0.0,0.0,0.0,0.0,0.0,0.0,0.0,0.0,0.0,0.0,0,0,0,0,0,0,0,1,0,0,1,0,0
89728793,11.4473,11.3476,25.9305,25.5831,0.0,166.789,1.0,1.0,nan,0,0.0,0.0,0.0,0.0,0.0,0.0,0.0,0.0,0.0,0.0,0.0,0,0,0,0,0,0,0,1,0,0,1,0,0
90029781,11.4619,11.355,25.7547,25.5371,0.0,168.918,1.0,1.0,nan,0,0.0,0.0,0.0,0.0,0.0,0.0,0.0,0.0,0.0,0.0,0.0,0,0,0,0,0,0,0,1,0,0,1,0,0
90318793,11.214,11.3595,25.4031,25.3732,0.0,170.941,1.0,1.0,nan,0,0.0,0.0,0.0,0.0,0.0,0.0,0.0,0.0,0.0,0.0,0.0,0,0,0,0,0,0,0,1,0,0,1,0,0
90628879,11.4619,11.3653,25.0808,25.286,0.0,173.113,1.0,1.0,nan,0,0.0,0.0,0.0,0.0,0.0,0.0,0.0,0.0,0.0,0.0,0.0,0,0,0,0,0,0,0,1,0,0,1,0,0
90928900,11.4619,11.3641,25.6082,25.3913,0.0,175.238,1.0,1.0,nan,0,0.0,0.0,0.0,0.0,0.0,0.0,0.0,0.0,0.0,0.0,0.0,0,0,0,0,0,0,0,1,0,0,1,0,0
91228793,11.4619,11.3629,25.1101,25.4665,0.0,177.371,1.0,1.0,nan,0,0.0,0.0,0.0,0.0,0.0,0.0,0.0,0.0,0.0,0.0,0.0,0,0,0,0,0,0,0,1,0,0,1,0,0
91529479,11.491,11.3646,25.2566,25.4772,0.0,179.503,1.0,1.0,nan,0,0.0,0.0,0.0,0.0,0.0,0.0,0.0,0.0,0.0,0.0,0.0,0,0,0,0,0,0,0,1,0,0,1,0,0
91828794,11.4764,11.3627,25.1101,25.5574,0.0,181.635,1.0,1.0,nan,0,0.0,0.0,0.0,0.0,0.0,0.0,0.0,0.0,0.0,0.0,0.0,0,0,0,0,0,0,0,1,0,0,1,0,0
92128819,11.4473,11.3675,25.7254,25.5883,0.0,183.767,1.0,1.0,nan,0,0.0,0.0,0.0,0.0,0.0,0.0,0.0,0.0,0.0,0.0,0.0,0,0,0,0,0,0,0,1,0,0,1,0,0
92428902,11.4327,11.3729,25.4031,25.5468,0.0,185.893,1.0,1.0,nan,0,0.0,0.0,0.0,0.0,0.0,0.0,0.0,0.0,0.0,0.0,0.0,0,0,0,0,0,0,0,1,0,0,1,0,0
92728829,11.4619,11.3841,25.784,25.4738,0.0,188.008,1.0,1.0,nan,0,0.0,0.0,0.0,0.0,0.0,0.0,0.0,0.0,0.0,0.0,0.0,0,0,0,0,0,0,0,1,0,0,1,0,0
93028793,11.3889,11.3879,25.9891,25.4851,0.0,190.133,1.0,1.0,nan,0,0.0,0.0,0.0,0.0,0.0,0.0,0.0,0.0,0.0,0.0,0.0,0,0,0,0,0,0,0,1,0,0,1,0,0
93328793,11.4619,11.3898,25.5496,25.5734,0.0,192.275,1.0,1.0,nan,0,0.0,0.0,0.0,0.0,0.0,0.0,0.0,0.0,0.0,0.0,0.0,0,0,0,0,0,0,0,1,0,0,1,0,0
93628818,11.4327,11.3954,25.7547,25.6657,0.0,194.423,1.0,1.0,nan,0,0.0,0.0,0.0,0.0,0.0,0.0,0.0,0.0,0.0,0.0,0.0,0,0,0,0,0,0,0,1,0,0,1,0,0
93928794,11.4473,11.3919,25.2566,25.7629,0.0,196.583,1.0,1.0,nan,0,0.0,0.0,0.0,0.0,0.0,0.0,0.0,0.0,0.0,0.0,0.0,0,0,0,0,0,0,0,1,0,0,1,0,0
94228895,11.5056,11.3995,25.1394,25.6227,0.0,198.708,1.0,1.0,nan,0,0.0,0.0,0.0,0.0,0.0,0.0,0.0,0.0,0.0,0.0,0.0,0,0,0,0,0,0,0,1,0,0,1,0,0
94518793,11.4764,11.4024,25.4324,25.4823,0.0,200.744,1.0,1.0,nan,0,0.0,0.0,0.0,0.0,0.0,0.0,0.0,0.0,0.0,0.0,0.0,0,0,0,0,0,0,0,1,0,0,1,0,0
94828794,11.491,11.4061,25.491,25.5343,0.0,202.948,1.0,1.0,nan,0,0.0,0.0,0.0,0.0,0.0,0.0,0.0,0.0,0.0,0.0,0.0,0,0,0,0,0,0,0,1,0,0,1,0,0
95129716,11.4035,11.4026,26.077,25.7047,0.0,205.116,1.0,1.0,nan,0,0.0,0.0,0.0,0.0,0.0,0.0,0.0,0.0,0.0,0.0,0.0,0,0,0,0,0,0,0,1,0,0,1,0,0
95428793,11.4473,11.4032,26.077,25.7472,0.0,207.26,1.0,1.0,nan,0,0.0,0.0,0.0,0.0,0.0,0.0,0.0,0.0,0.0,0.0,0.0,0,0,0,0,0,0,0,1,0,0,1,0,0
95728824,11.4327,11.4021,25.9012,25.7186,0.0,209.401,1.0,1.0,nan,0,0.0,0.0,0.0,0.0,0.0,0.0,0.0,0.0,0.0,0.0,0.0,0,0,0,0,0,0,0,1,0,0,1,0,0
96028943,11.4473,11.4097,25.5496,25.6781,0.0,211.54,1.0,1.0,nan,0,0.0,0.0,0.0,0.0,0.0,0.0,0.0,0.0,0.0,0.0,0.0,0,0,0,0,0,0,0,1,0,0,1,0,0
96328793,11.4327,11.411,25.6082,25.6732,0.0,213.679,1.0,1.0,nan,0,0.0,0.0,0.0,0.0,0.0,0.0,0.0,0.0,0.0,0.0,0.0,0,0,0,0,0,0,0,1,0,0,1,0,0
96629603,11.4764,11.4103,25.6961,25.7258,0.0,215.835,1.0,1.0,nan,0,0.0,0.0,0.0,0.0,0.0,0.0,0.0,0.0,0.0,0.0,0.0,0,0,0,0,0,0,0,1,0,0,1,0,0
96928793,11.3889,11.4064,25.9891,25.8211,0.0,217.993,1.0,1.0,nan,0,0.0,0.0,0.0,0.0,0.0,0.0,0.0,0.0,0.0,0.0,0.0,0,0,0,0,0,0,0,1,0,0,1,0,0
97228793,11.4473,11.4026,25.3445,25.6535,0.0,220.115,1.0,1.0,nan,0,0.0,0.0,0.0,0.0,0.0,0.0,0.0,0.0,0.0,0.0,0.0,0,0,0,0,0,0,0,1,0,0,1,0,0
97528829,11.4619,11.4055,25.3738,25.5222,0.0,222.229,1.0,1.0,nan,0,0.0,0.0,0.0,0.0,0.0,0.0,0.0,0.0,0.0,0.0,0.0,0,0,0,0,0,0,0,1,0,0,1,0,0
97828802,11.4327,11.4048,25.9012,25.4053,0.0,224.332,1.0,1.0,nan,0,0.0,0.0,0.0,0.0,0.0,0.0,0.0,0.0,0.0,0.0,0.0,0,0,0,0,0,0,0,1,0,0,1,0,0
98129311,11.4327,11.4048,25.784,25.561,0.0,226.481,1.0,1.0,nan,0,0.0,0.0,0.0,0.0,0.0,0.0,0.0,0.0,0.0,0.0,0.0,0,0,0,0,0,0,0,1,0,0,1,0,0
98428793,11.4327,11.4026,25.1394,25.5903,0.0,228.612,1.0,1.0,nan,0,0.0,0.0,0.0,0.0,0.0,0.0,0.0,0.0,0.0,0.0,0.0,0,0,0,0,0,0,0,1,0,0,1,0,0
98718793,11.4327,11.4003,25.5203,25.6697,0.0,230.685,1.0,1.0,nan,0,0.0,0.0,0.0,0.0,0.0,0.0,0.0,0.0,0.0,0.0,0.0,0,0,0,0,0,0,0,1,0,0,1,0,0
99028793,11.4764,11.4051,25.8133,25.6959,0.0,232.899,1.0,1.0,nan,0,0.0,0.0,0.0,0.0,0.0,0.0,0.0,0.0,0.0,0.0,0.0,0,0,0,0,0,0,0,1,0,0,1,0,0
99328916,11.4327,11.4087,25.2273,25.631,0.0,235.033,1.0,1.0,nan,0,0.0,0.0,0.0,0.0,0.0,0.0,0.0,0.0,0.0,0.0,0.0,0,0,0,0,0,0,0,1,0,0,1,0,0
99629054,11.3744,11.4076,25.8719,25.4508,0.0,237.136,1.0,1.0,nan,0,0.0,0.0,0.0,0.0,0.0,0.0,0.0,0.0,0.0,0.0,0.0,0,0,0,0,0,0,0,1,0,0,1,0,0
99928800,11.4181,11.4036,26.2235,25.6245,0.0,239.286,1.0,1.0,nan,0,0.0,0.0,0.0,0.0,0.0,0.0,0.0,0.0,0.0,0.0,0.0,0,0,0,0,0,0,0,1,0,0,1,0,0
100229754,11.4764,11.3996,25.5789,25.6784,0.0,241.439,1.0,1.0,nan,0,0.0,0.0,0.0,0.0,0.0,0.0,0.0,0.0,0.0,0.0,0.0,0,0,0,0,0,0,0,1,0,0,1,0,0
100528793,11.4619,11.3974,25.9012,25.7405,0.0,243.582,1.0,1.0,nan,0,0.0,0.0,0.0,0.0,0.0,0.0,0.0,0.0,0.0,0.0,0.0,0,0,0,0,0,0,0,1,0,0,1,0,0
100818831,11.4327,11.395,25.7254,25.7882,0.0,245.663,1.0,1.0,nan,0,0.0,0.0,0.0,0.0,0.0,0.0,0.0,0.0,0.0,0.0,0.0,0,0,0,0,0,0,0,1,0,0,1,0,0
101128793,11.4473,11.3931,25.3445,25.6788,0.0,247.865,1.0,1.0,nan,0,0.0,0.0,0.0,0.0,0.0,0.0,0.0,0.0,0.0,0.0,0.0,0,0,0,0,0,0,0,1,0,0,1,0,0
101428793,11.4327,11.3953,25.6668,25.6171,0.0,249.993,1.0,1.0,nan,0,0.0,0.0,0.0,0.0,0.0,0.0,0.0,0.0,0.0,0.0,0.0,0,0,0,0,0,0,0,1,0,0,1,0,0
101729230,11.4473,11.3943,26.0184,25.7185,0.0,252.148,1.0,1.0,nan,0,0.0,0.0,0.0,0.0,0.0,0.0,0.0,0.0,0.0,0.0,0.0,0,0,0,0,0,0,0,1,0,0,1,0,0
102028848,11.4327,11.3943,25.5789,25.7113,0.0,254.287,1.0,1.0,nan,0,0.0,0.0,0.0,0.0,0.0,0.0,0.0,0.0,0.0,0.0,0.0,0,0,0,0,0,0,0,1,0,0,1,0,0
102328793,11.4473,11.3949,26.0184,25.765,0.0,256.438,1.0,1.0,nan,0,0.0,0.0,0.0,0.0,0.0,0.0,0.0,0.0,0.0,0.0,0.0,0,0,0,0,0,0,0,1,0,0,1,0,0
102628794,11.4181,11.3865,25.8719,25.8853,0.0,258.608,1.0,1.0,nan,0,0.0,0.0,0.0,0.0,0.0,0.0,0.0,0.0,0.0,0.0,0.0,0,0,0,0,0,0,0,1,0,0,1,0,0
102918795,11.2723,11.3862,25.3152,25.7827,0.0,260.674,1.0,1.0,nan,0,0.0,0.0,0.0,0.0,0.0,0.0,0.0,0.0,0.0,0.0,0.0,0,0,0,0,0,0,0,1,0,0,1,0,0
103229152,11.3889,11.3869,25.6961,25.7245,0.0,262.887,1.0,1.0,nan,0,0.0,0.0,0.0,0.0,0.0,0.0,0.0,0.0,0.0,0.0,0.0,0,0,0,0,0,0,0,1,0,0,1,0,0
103528795,11.4035,11.3801,25.7547,25.7442,0.0,265.032,1.0,1.0,nan,0,0.0,0.0,0.0,0.0,0.0,0.0,0.0,0.0,0.0,0.0,0.0,0,0,0,0,0,0,0,1,0,0,1,0,0
103828839,11.4181,11.3815,26.1649,25.8495,0.0,267.195,1.0,1.0,nan,0,0.0,0.0,0.0,0.0,0.0,0.0,0.0,0.0,0.0,0.0,0.0,0,0,0,0,0,0,0,1,0,0,1,0,0
104128793,11.4181,11.3808,26.2235,25.9384,0.0,269.365,1.0,1.0,nan,0,0.0,0.0,0.0,0.0,0.0,0.0,0.0,0.0,0.0,0.0,0.0,0,0,0,0,0,0,0,1,0,0,1,0,0
104428889,11.4035,11.3795,26.2821,26.0108,0.0,271.542,1.0,1.0,nan,0,0.0,0.0,0.0,0.0,0.0,0.0,0.0,0.0,0.0,0.0,0.0,0,0,0,0,0,0,0,1,0,0,1,0,0
104728814,11.4035,11.3745,25.9305,26.0907,0.0,273.723,1.0,1.0,nan,0,0.0,0.0,0.0,0.0,0.0,0.0,0.0,0.0,0.0,0.0,0.0,0,0,0,0,0,0,0,1,0,0,1,0,0
105018832,11.4327,11.3748,26.4286,26.0677,0.0,275.82,1.0,1.0,nan,0,0.0,0.0,0.0,0.0,0.0,0.0,0.0,0.0,0.0,0.0,0.0,0,0,0,0,0,0,0,1,0,0,1,0,0
105328793,11.4327,11.3783,25.9305,26.0261,0.0,278.058,1.0,1.0,nan,0,0.0,0.0,0.0,0.0,0.0,0.0,0.0,0.0,0.0,0.0,0.0,0,0,0,0,0,0,0,1,0,0,1,0,0
105628795,11.3744,11.3706,26.4872,25.9866,0.0,280.218,1.0,1.0,nan,0,0.0,0.0,0.0,0.0,0.0,0.0,0.0,0.0,0.0,0.0,0.0,0,0,0,0,0,0,0,1,0,0,1,0,0
105928806,11.4327,11.3693,25.784,25.9767,0.0,282.384,1.0,1.0,nan,0,0.0,0.0,0.0,0.0,0.0,0.0,0.0,0.0,0.0,0.0,0.0,0,0,0,0,0,0,0,1,0,0,1,0,0
106228793,11.4035,11.3618,25.491,25.9518,0.0,284.547,1.0,1.0,nan,0,0.0,0.0,0.0,0.0,0.0,0.0,0.0,0.0,0.0,0.0,0.0,0,0,0,0,0,0,0,1,0,0,1,0,0
106528793,11.4473,11.3669,25.4031,25.7223,0.0,286.67,1.0,1.0,nan,0,0.0,0.0,0.0,0.0,0.0,0.0,0.0,0.0,0.0,0.0,0.0,0,0,0,0,0,0,0,1,0,0,1,0,0
106829494,11.4327,11.3742,24.8757,25.6083,0.0,288.799,1.0,1.0,nan,0,0.0,0.0,0.0,0.0,0.0,0.0,0.0,0.0,0.0,0.0,0.0,0,0,0,0,0,0,0,1,0,0,1,0,0
107118793,11.491,11.3804,25.1394,25.4682,0.0,290.832,1.0,1.0,nan,0,0.0,0.0,0.0,0.0,0.0,0.0,0.0,0.0,0.0,0.0,0.0,0,0,0,0,0,0,0,1,0,0,1,0,0
107428813,11.4181,11.3799,25.4617,25.51,0.0,293.031,1.0,1.0,nan,0,0.0,0.0,0.0,0.0,0.0,0.0,0.0,0.0,0.0,0.0,0.0,0,0,0,0,0,0,0,1,0,0,1,0,0
107728795,11.4035,11.3762,25.8719,25.572,0.0,295.169,1.0,1.0,nan,0,0.0,0.0,0.0,0.0,0.0,0.0,0.0,0.0,0.0,0.0,0.0,0,0,0,0,0,0,0,1,0,0,1,0,0
108028793,11.4181,11.3749,25.6375,25.7899,0.0,297.34,1.0,1.0,nan,0,0.0,0.0,0.0,0.0,0.0,0.0,0.0,0.0,0.0,0.0,0.0,0,0,0,0,0,0,0,1,0,0,1,0,0
108329250,11.4035,11.3715,25.7254,25.7637,0.0,299.488,1.0,1.0,nan,0,0.0,0.0,0.0,0.0,0.0,0.0,0.0,0.0,0.0,0.0,0.0,0,0,0,0,0,0,0,1,0,0,1,0,0
108628846,11.3889,11.3708,25.8133,25.8586,0.0,301.648,1.0,1.0,nan,0,0.0,0.0,0.0,0.0,0.0,0.0,0.0,0.0,0.0,0.0,0.0,0,0,0,0,0,0,0,1,0,0,1,0,0
108928796,11.4327,11.3682,25.2273,25.828,0.0,303.798,1.0,1.0,nan,0,0.0,0.0,0.0,0.0,0.0,0.0,0.0,0.0,0.0,0.0,0.0,0,0,0,0,0,0,0,1,0,0,1,0,0
109218835,11.4035,11.3684,25.4031,25.854,0.0,305.886,1.0,1.0,nan,0,0.0,0.0,0.0,0.0,0.0,0.0,0.0,0.0,0.0,0.0,0.0,0,0,0,0,0,0,0,1,0,0,1,0,0
109528885,11.3744,11.3675,25.8133,25.9359,0.0,308.127,1.0,1.0,nan,0,0.0,0.0,0.0,0.0,0.0,0.0,0.0,0.0,0.0,0.0,0.0,0,0,0,0,0,0,0,1,0,0,1,0,0
109828799,11.4035,11.3647,26.077,25.9785,0.0,310.297,1.0,1.0,nan,0,0.0,0.0,0.0,0.0,0.0,0.0,0.0,0.0,0.0,0.0,0.0,0,0,0,0,0,0,0,1,0,0,1,0,0
110128824,11.4181,11.3699,25.6961,25.8573,0.0,312.442,1.0,1.0,nan,0,0.0,0.0,0.0,0.0,0.0,0.0,0.0,0.0,0.0,0.0,0.0,0,0,0,0,0,0,0,1,0,0,1,0,0
110428793,11.4327,11.3708,25.9305,25.7704,0.0,314.579,1.0,1.0,nan,0,0.0,0.0,0.0,0.0,0.0,0.0,0.0,0.0,0.0,0.0,0.0,0,0,0,0,0,0,0,1,0,0,1,0,0
110728794,11.4035,11.3698,25.6082,25.7486,0.0,316.723,1.0,1.0,nan,0,0.0,0.0,0.0,0.0,0.0,0.0,0.0,0.0,0.0,0.0,0.0,0,0,0,0,0,0,0,1,0,0,1,0,0
111028793,11.4181,11.3724,25.784,25.7042,0.0,318.862,1.0,1.0,nan,0,0.0,0.0,0.0,0.0,0.0,0.0,0.0,0.0,0.0,0.0,0.0,0,0,0,0,0,0,0,1,0,0,1,0,0
111328800,11.4327,11.3725,25.6375,25.6848,0.0,321.001,1.0,1.0,nan,0,0.0,0.0,0.0,0.0,0.0,0.0,0.0,0.0,0.0,0.0,0.0,0,0,0,0,0,0,0,1,0,0,1,0,0
111628794,11.3744,11.3724,25.5203,25.6966,0.0,323.143,1.0,1.0,nan,0,0.0,0.0,0.0,0.0,0.0,0.0,0.0,0.0,0.0,0.0,0.0,0,0,0,0,0,0,0,1,0,0,1,0,0
111929584,11.4035,11.3716,25.4324,25.7882,0.0,325.307,1.0,1.0,nan,0,0.0,0.0,0.0,0.0,0.0,0.0,0.0,0.0,0.0,0.0,0.0,0,0,0,0,0,0,0,1,0,0,1,0,0
112228793,11.3598,11.3632,26.1649,25.9154,0.0,327.476,1.0,1.0,nan,0,0.0,0.0,0.0,0.0,0.0,0.0,0.0,0.0,0.0,0.0,0.0,0,0,0,0,0,0,0,1,0,0,1,0,0
112528793,11.3744,11.3608,26.5165,26.0205,0.0,329.655,1.0,1.0,nan,0,0.0,0.0,0.0,0.0,0.0,0.0,0.0,0.0,0.0,0.0,0.0,0,0,0,0,0,0,0,1,0,0,1,0,0
112828801,11.4181,11.3584,26.1942,26.1174,0.0,331.842,1.0,1.0,nan,0,0.0,0.0,0.0,0.0,0.0,0.0,0.0,0.0,0.0,0.0,0.0,0,0,0,0,0,0,0,1,0,0,1,0,0
113128850,11.4035,11.3604,25.8133,26.0843,0.0,334.011,1.0,1.0,nan,0,0.0,0.0,0.0,0.0,0.0,0.0,0.0,0.0,0.0,0.0,0.0,0,0,0,0,0,0,0,1,0,0,1,0,0
113429254,11.3889,11.3612,26.1649,26.1829,0.0,336.203,1.0,1.0,nan,0,0.0,0.0,0.0,0.0,0.0,0.0,0.0,0.0,0.0,0.0,0.0,0,0,0,0,0,0,0,1,0,0,1,0,0
113728902,11.3744,11.357,25.9891,26.1975,0.0,338.385,1.0,1.0,nan,0,0.0,0.0,0.0,0.0,0.0,0.0,0.0,0.0,0.0,0.0,0.0,0,0,0,0,0,0,0,1,0,0,1,0,0
114028793,11.3889,11.3579,26.0477,26.0111,0.0,340.533,1.0,1.0,nan,0,0.0,0.0,0.0,0.0,0.0,0.0,0.0,0.0,0.0,0.0,0.0,0,0,0,0,0,0,0,1,0,0,1,0,0
114328797,11.3452,11.3578,25.9891,25.9616,0.0,342.69,1.0,1.0,nan,0,0.0,0.0,0.0,0.0,0.0,0.0,0.0,0.0,0.0,0.0,0.0,0,0,0,0,0,0,0,1,0,0,1,0,0
114628794,11.3744,11.3501,26.0184,26.0382,0.0,344.865,1.0,1.0,nan,0,0.0,0.0,0.0,0.0,0.0,0.0,0.0,0.0,0.0,0.0,0.0,0,0,0,0,0,0,0,1,0,0,1,0,0
114928961,11.3889,11.3519,25.491,25.991,0.0,347.027,1.0,1.0,nan,0,0.0,0.0,0.0,0.0,0.0,0.0,0.0,0.0,0.0,0.0,0.0,0,0,0,0,0,0,0,1,0,0,1,0,0
115228849,11.3598,11.3524,25.2273,25.9681,0.0,349.189,1.0,1.0,nan,0,0.0,0.0,0.0,0.0,0.0,0.0,0.0,0.0,0.0,0.0,0.0,0,0,0,0,0,0,0,1,0,0,1,0,0
115528796,11.3598,11.3547,25.4617,25.893,0.0,351.339,1.0,1.0,nan,0,0.0,0.0,0.0,0.0,0.0,0.0,0.0,0.0,0.0,0.0,0.0,0,0,0,0,0,0,0,1,0,0,1,0,0
115828793,11.3744,11.3589,25.7254,25.774,0.0,353.476,1.0,1.0,nan,0,0.0,0.0,0.0,0.0,0.0,0.0,0.0,0.0,0.0,0.0,0.0,0,0,0,0,0,0,0,1,0,0,1,0,0
116128793,11.4181,11.3581,25.6961,25.7485,0.0,355.619,1.0,1.0,nan,0,0.0,0.0,0.0,0.0,0.0,0.0,0.0,0.0,0.0,0.0,0.0,0,0,0,0,0,0,0,1,0,0,1,0,0
116428793,11.4035,11.3636,25.6082,25.7694,0.0,357.768,1.0,1.0,nan,0,0.0,0.0,0.0,0.0,0.0,0.0,0.0,0.0,0.0,0.0,0.0,0,0,0,0,0,0,0,1,0,0,1,0,0
116728794,11.3744,11.3582,26.0184,25.7917,0.0,359.917,1.0,1.0,nan,0,0.0,0.0,0.0,0.0,0.0,0.0,0.0,0.0,0.0,0.0,0.0,0,0,0,0,0,0,0,1,0,0,1,0,0
117029558,11.4181,11.3606,25.5203,25.8228,0.0,362.078,1.0,1.0,nan,0,0.0,0.0,0.0,0.0,0.0,0.0,0.0,0.0,0.0,0.0,0.0,0,0,0,0,0,0,0,1,0,0,1,0,0
117328968,11.4181,11.359,25.6668,25.8385,0.0,364.226,1.0,1.0,nan,0,0.0,0.0,0.0,0.0,0.0,0.0,0.0,0.0,0.0,0.0,0.0,0,0,0,0,0,0,0,1,0,0,1,0,0
117628867,11.3889,11.3596,25.4617,25.7471,0.0,366.363,1.0,1.0,nan,0,0.0,0.0,0.0,0.0,0.0,0.0,0.0,0.0,0.0,0.0,0.0,0,0,0,0,0,0,0,1,0,0,1,0,0
117928800,11.3306,11.358,25.9305,25.793,0.0,368.515,1.0,1.0,nan,0,0.0,0.0,0.0,0.0,0.0,0.0,0.0,0.0,0.0,0.0,0.0,0,0,0,0,0,0,0,1,0,0,1,0,0
118228824,11.3452,11.3533,25.7254,25.8913,0.0,370.685,1.0,1.0,nan,0,0.0,0.0,0.0,0.0,0.0,0.0,0.0,0.0,0.0,0.0,0.0,0,0,0,0,0,0,0,1,0,0,1,0,0
118528807,11.3744,11.3519,25.8133,25.9127,0.0,372.849,1.0,1.0,nan,0,0.0,0.0,0.0,0.0,0.0,0.0,0.0,0.0,0.0,0.0,0.0,0,0,0,0,0,0,0,1,0,0,1,0,0
118828793,11.3889,11.3534,25.8426,25.8734,0.0,375.001,1.0,1.0,nan,0,0.0,0.0,0.0,0.0,0.0,0.0,0.0,0.0,0.0,0.0,0.0,0,0,0,0,0,0,0,1,0,0,1,0,0
119128793,11.3452,11.3559,26.37,25.8969,0.0,377.162,1.0,1.0,nan,0,0.0,0.0,0.0,0.0,0.0,0.0,0.0,0.0,0.0,0.0,0.0,0,0,0,0,0,0,0,1,0,0,1,0,0
119428819,11.3889,11.3487,26.2235,25.9929,0.0,379.338,1.0,1.0,nan,0,0.0,0.0,0.0,0.0,0.0,0.0,0.0,0.0,0.0,0.0,0.0,0,0,0,0,0,0,0,1,0,0,1,0,0
119718805,11.3889,11.3518,25.5789,25.8769,0.0,381.41,1.0,1.0,nan,0,0.0,0.0,0.0,0.0,0.0,0.0,0.0,0.0,0.0,0.0,0.0,0,0,0,0,0,0,0,1,0,0,1,0,0
120029176,11.3744,11.3473,25.6961,25.8794,0.0,383.64,1.0,1.0,nan,0,0.0,0.0,0.0,0.0,0.0,0.0,0.0,0.0,0.0,0.0,0.0,0,0,0,0,0,0,0,1,0,0,1,0,0
120328850,11.3598,11.3489,25.6082,25.7734,0.0,385.778,1.0,1.0,nan,0,0.0,0.0,0.0,0.0,0.0,0.0,0.0,0.0,0.0,0.0,0.0,0,0,0,0,0,0,0,1,0,0,1,0,0
120628821,11.3889,11.3534,25.2273,25.5976,0.0,387.892,1.0,1.0,nan,0,0.0,0.0,0.0,0.0,0.0,0.0,0.0,0.0,0.0,0.0,0.0,0,0,0,0,0,0,0,1,0,0,1,0,0
120928798,11.3452,11.3521,25.9891,25.6526,0.0,390.034,1.0,1.0,nan,0,0.0,0.0,0.0,0.0,0.0,0.0,0.0,0.0,0.0,0.0,0.0,0,0,0,0,0,0,0,1,0,0,1,0,0
121228820,11.4181,11.3521,25.3152,25.7616,0.0,392.194,1.0,1.0,nan,0,0.0,0.0,0.0,0.0,0.0,0.0,0.0,0.0,0.0,0.0,0.0,0,0,0,0,0,0,0,1,0,0,1,0,0
121528795,11.4035,11.3513,25.9891,25.7587,0.0,394.34,1.0,1.0,nan,0,0.0,0.0,0.0,0.0,0.0,0.0,0.0,0.0,0.0,0.0,0.0,0,0,0,0,0,0,0,1,0,0,1,0,0
121828793,11.4327,11.3517,25.8133,25.894,0.0,396.509,1.0,1.0,nan,0,0.0,0.0,0.0,0.0,0.0,0.0,0.0,0.0,0.0,0.0,0.0,0,0,0,0,0,0,0,1,0,0,1,0,0
122129079,11.3306,11.3443,26.077,26.0136,0.0,398.69,1.0,1.0,nan,0,0.0,0.0,0.0,0.0,0.0,0.0,0.0,0.0,0.0,0.0,0.0,0,0,0,0,0,0,0,1,0,0,1,0,0
122428794,11.3306,11.3359,26.37,26.1602,0.0,400.884,1.0,1.0,nan,0,0.0,0.0,0.0,0.0,0.0,0.0,0.0,0.0,0.0,0.0,0.0,0,0,0,0,0,0,0,1,0,0,1,0,0
122728804,11.3744,11.3353,25.8719,26.1366,0.0,403.063,1.0,1.0,nan,0,0.0,0.0,0.0,0.0,0.0,0.0,0.0,0.0,0.0,0.0,0.0,0,0,0,0,0,0,0,1,0,0,1,0,0
123028798,11.3452,11.3351,25.6668,26.0046,0.0,405.217,1.0,1.0,nan,0,0.0,0.0,0.0,0.0,0.0,0.0,0.0,0.0,0.0,0.0,0.0,0,0,0,0,0,0,0,1,0,0,1,0,0
123328804,11.3452,11.3341,26.5165,26.0033,0.0,407.386,1.0,1.0,nan,0,0.0,0.0,0.0,0.0,0.0,0.0,0.0,0.0,0.0,0.0,0.0,0,0,0,0,0,0,0,1,0,0,1,0,0
123629525,11.3744,11.3358,26.4872,26.0717,0.0,409.569,1.0,1.0,nan,0,0.0,0.0,0.0,0.0,0.0,0.0,0.0,0.0,0.0,0.0,0.0,0,0,0,0,0,0,0,1,0,0,1,0,0
123918829,11.3598,11.3294,26.1649,26.1838,0.0,411.685,1.0,1.0,nan,0,0.0,0.0,0.0,0.0,0.0,0.0,0.0,0.0,0.0,0.0,0.0,0,0,0,0,0,0,0,1,0,0,1,0,0
124228793,11.3306,11.3348,25.8426,25.9432,0.0,413.896,1.0,1.0,nan,0,0.0,0.0,0.0,0.0,0.0,0.0,0.0,0.0,0.0,0.0,0.0,0,0,0,0,0,0,0,1,0,0,1,0,0
124528793,11.3744,11.336,26.1356,25.8311,0.0,416.037,1.0,1.0,nan,0,0.0,0.0,0.0,0.0,0.0,0.0,0.0,0.0,0.0,0.0,0.0,0,0,0,0,0,0,0,1,0,0,1,0,0
124828796,11.3889,11.3409,25.2859,25.774,0.0,418.179,1.0,1.0,nan,0,0.0,0.0,0.0,0.0,0.0,0.0,0.0,0.0,0.0,0.0,0.0,0,0,0,0,0,0,0,1,0,0,1,0,0
125128793,11.3744,11.3404,25.6082,25.6961,0.0,420.313,1.0,1.0,nan,0,0.0,0.0,0.0,0.0,0.0,0.0,0.0,0.0,0.0,0.0,0.0,0,0,0,0,0,0,0,1,0,0,1,0,0
125428797,11.316,11.3365,25.7547,25.8356,0.0,422.479,1.0,1.0,nan,0,0.0,0.0,0.0,0.0,0.0,0.0,0.0,0.0,0.0,0.0,0.0,0,0,0,0,0,0,0,1,0,0,1,0,0
125728864,11.3598,11.3314,25.5789,25.9326,0.0,424.653,1.0,1.0,nan,0,0.0,0.0,0.0,0.0,0.0,0.0,0.0,0.0,0.0,0.0,0.0,0,0,0,0,0,0,0,1,0,0,1,0,0
126018793,11.3889,11.3372,25.4617,25.87,0.0,426.73,1.0,1.0,nan,0,0.0,0.0,0.0,0.0,0.0,0.0,0.0,0.0,0.0,0.0,0.0,0,0,0,0,0,0,0,1,0,0,1,0,0
126328797,11.3452,11.3405,25.5203,25.8356,0.0,428.952,1.0,1.0,nan,0,0.0,0.0,0.0,0.0,0.0,0.0,0.0,0.0,0.0,0.0,0.0,0,0,0,0,0,0,0,1,0,0,1,0,0
126628984,11.3306,11.3433,25.9598,25.8346,0.0,431.106,1.0,1.0,nan,0,0.0,0.0,0.0,0.0,0.0,0.0,0.0,0.0,0.0,0.0,0.0,0,0,0,0,0,0,0,1,0,0,1,0,0
126928793,11.3598,11.3474,25.6961,25.7702,0.0,433.248,1.0,1.0,nan,0,0.0,0.0,0.0,0.0,0.0,0.0,0.0,0.0,0.0,0.0,0.0,0,0,0,0,0,0,0,1,0,0,1,0,0
127229743,11.2723,11.3446,26.0477,25.7717,0.0,435.402,1.0,1.0,nan,0,0.0,0.0,0.0,0.0,0.0,0.0,0.0,0.0,0.0,0.0,0.0,0,0,0,0,0,0,0,1,0,0,1,0,0
127528793,11.4181,11.3431,26.4286,25.853,0.0,437.559,1.0,1.0,nan,0,0.0,0.0,0.0,0.0,0.0,0.0,0.0,0.0,0.0,0.0,0.0,0,0,0,0,0,0,0,1,0,0,1,0,0
127828832,11.3452,11.334,26.1942,25.9747,0.0,439.736,1.0,1.0,nan,0,0.0,0.0,0.0,0.0,0.0,0.0,0.0,0.0,0.0,0.0,0.0,0,0,0,0,0,0,0,1,0,0,1,0,0
128118793,11.3452,11.3335,26.4872,26.0958,0.0,441.849,1.0,1.0,nan,0,0.0,0.0,0.0,0.0,0.0,0.0,0.0,0.0,0.0,0.0,0.0,0,0,0,0,0,0,0,1,0,0,1,0,0
128428793,11.3452,11.3248,25.9598,26.1821,0.0,444.11,1.0,1.0,nan,0,0.0,0.0,0.0,0.0,0.0,0.0,0.0,0.0,0.0,0.0,0.0,0,0,0,0,0,0,0,1,0,0,1,0,0
128728993,11.3744,11.3288,25.9305,26.0957,0.0,446.276,1.0,1.0,nan,0,0.0,0.0,0.0,0.0,0.0,0.0,0.0,0.0,0.0,0.0,0.0,0,0,0,0,0,0,0,1,0,0,1,0,0
129028792,11.3744,11.3277,25.6668,25.9363,0.0,448.418,1.0,1.0,nan,0,0.0,0.0,0.0,0.0,0.0,0.0,0.0,0.0,0.0,0.0,0.0,0,0,0,0,0,0,0,1,0,0,1,0,0
129328793,11.3452,11.3316,25.9598,25.9202,0.0,450.573,1.0,1.0,nan,0,0.0,0.0,0.0,0.0,0.0,0.0,0.0,0.0,0.0,0.0,0.0,0,0,0,0,0,0,0,1,0,0,1,0,0
129628792,11.316,11.3319,26.0477,26.0135,0.0,452.748,1.0,1.0,nan,0,0.0,0.0,0.0,0.0,0.0,0.0,0.0,0.0,0.0,0.0,0.0,0,0,0,0,0,0,0,1,0,0,1,0,0
129928793,11.3452,11.3303,25.5789,26.0464,0.0,454.922,1.0,1.0,nan,0,0.0,0.0,0.0,0.0,0.0,0.0,0.0,0.0,0.0,0.0,0.0,0,0,0,0,0,0,0,1,0,0,1,0,0
130229365,11.316,11.332,26.3407,26.1278,0.0,457.109,1.0,1.0,nan,0,0.0,0.0,0.0,0.0,0.0,0.0,0.0,0.0,0.0,0.0,0.0,0,0,0,0,0,0,0,1,0,0,1,0,0
130528836,11.3598,11.33,25.3738,26.0912,0.0,459.276,1.0,1.0,nan,0,0.0,0.0,0.0,0.0,0.0,0.0,0.0,0.0,0.0,0.0,0.0,0,0,0,0,0,0,0,1,0,0,1,0,0
130828824,11.3889,11.3308,25.6082,25.9294,0.0,461.418,1.0,1.0,nan,0,0.0,0.0,0.0,0.0,0.0,0.0,0.0,0.0,0.0,0.0,0.0,0,0,0,0,0,0,0,1,0,0,1,0,0
131128793,11.3889,11.3315,25.0808,25.822,0.0,463.558,1.0,1.0,nan,0,0.0,0.0,0.0,0.0,0.0,0.0,0.0,0.0,0.0,0.0,0.0,0,0,0,0,0,0,0,1,0,0,1,0,0
131428863,11.3598,11.3318,25.6375,25.806,0.0,465.704,1.0,1.0,nan,0,0.0,0.0,0.0,0.0,0.0,0.0,0.0,0.0,0.0,0.0,0.0,0,0,0,0,0,0,0,1,0,0,1,0,0
131728795,11.3598,11.3307,25.784,25.797,0.0,467.853,1.0,1.0,nan,0,0.0,0.0,0.0,0.0,0.0,0.0,0.0,0.0,0.0,0.0,0.0,0,0,0,0,0,0,0,1,0,0,1,0,0
132028830,11.2869,11.3315,25.9891,25.7319,0.0,469.991,1.0,1.0,nan,0,0.0,0.0,0.0,0.0,0.0,0.0,0.0,0.0,0.0,0.0,0.0,0,0,0,0,0,0,0,1,0,0,1,0,0
132318793,11.3598,11.3295,26.2821,25.834,0.0,472.083,1.0,1.0,nan,0,0.0,0.0,0.0,0.0,0.0,0.0,0.0,0.0,0.0,0.0,0.0,0,0,0,0,0,0,0,1,0,0,1,0,0
132628793,11.2869,11.3232,27.3369,26.0938,0.0,474.355,1.0,1.0,nan,0,0.0,0.0,0.0,0.0,0.0,0.0,0.0,0.0,0.0,0.0,0.0,0,0,0,0,0,0,0,1,0,0,1,0,0
132928792,11.2723,11.3228,26.3993,26.2225,0.0,476.555,1.0,1.0,nan,0,0.0,0.0,0.0,0.0,0.0,0.0,0.0,0.0,0.0,0.0,0.0,0,0,0,0,0,0,0,1,0,0,1,0,0
133228834,11.316,11.3201,26.6044,26.3043,0.0,478.755,1.0,1.0,nan,0,0.0,0.0,0.0,0.0,0.0,0.0,0.0,0.0,0.0,0.0,0.0,0,0,0,0,0,0,0,1,0,0,1,0,0
133528793,11.316,11.3175,26.2528,26.233,0.0,480.933,1.0,1.0,nan,0,0.0,0.0,0.0,0.0,0.0,0.0,0.0,0.0,0.0,0.0,0.0,0,0,0,0,0,0,0,1,0,0,1,0,0
133829029,11.2869,11.3136,26.1356,26.159,0.0,483.108,1.0,1.0,nan,0,0.0,0.0,0.0,0.0,0.0,0.0,0.0,0.0,0.0,0.0,0.0,0,0,0,0,0,0,0,1,0,0,1,0,0
134128816,11.316,11.3111,26.0477,26.0654,0.0,485.271,1.0,1.0,nan,0,0.0,0.0,0.0,0.0,0.0,0.0,0.0,0.0,0.0,0.0,0.0,0,0,0,0,0,0,0,1,0,0,1,0,0
134418793,11.141,11.3129,25.8426,25.9453,0.0,487.35,1.0,1.0,nan,0,0.0,0.0,0.0,0.0,0.0,0.0,0.0,0.0,0.0,0.0,0.0,0,0,0,0,0,0,0,1,0,0,1,0,0
134728796,11.316,11.3167,26.1942,25.9482,0.0,489.585,1.0,1.0,nan,0,0.0,0.0,0.0,0.0,0.0,0.0,0.0,0.0,0.0,0.0,0.0,0,0,0,0,0,0,0,1,0,0,1,0,0
135028793,11.316,11.3227,25.9012,25.9119,0.0,491.742,1.0,1.0,nan,0,0.0,0.0,0.0,0.0,0.0,0.0,0.0,0.0,0.0,0.0,0.0,0,0,0,0,0,0,0,1,0,0,1,0,0
135328795,11.3452,11.3246,25.784,25.9236,0.0,493.905,1.0,1.0,nan,0,0.0,0.0,0.0,0.0,0.0,0.0,0.0,0.0,0.0,0.0,0.0,0,0,0,0,0,0,0,1,0,0,1,0,0
135628850,11.3452,11.3228,26.1356,25.9542,0.0,496.072,1.0,1.0,nan,0,0.0,0.0,0.0,0.0,0.0,0.0,0.0,0.0,0.0,0.0,0.0,0,0,0,0,0,0,0,1,0,0,1,0,0
135928814,11.3744,11.3261,25.5496,25.9057,0.0,498.23,1.0,1.0,nan,0,0.0,0.0,0.0,0.0,0.0,0.0,0.0,0.0,0.0,0.0,0.0,0,0,0,0,0,0,0,1,0,0,1,0,0
136228850,11.3598,11.3202,25.5789,25.8574,0.0,500.384,1.0,1.0,nan,0,0.0,0.0,0.0,0.0,0.0,0.0,0.0,0.0,0.0,0.0,0.0,0,0,0,0,0,0,0,1,0,0,1,0,0
136518793,11.3744,11.3245,25.6961,25.8061,0.0,502.458,1.0,1.0,nan,0,0.0,0.0,0.0,0.0,0.0,0.0,0.0,0.0,0.0,0.0,0.0,0,0,0,0,0,0,0,1,0,0,1,0,0
136828805,11.3452,11.3208,25.4031,25.7386,0.0,504.67,1.0,1.0,nan,0,0.0,0.0,0.0,0.0,0.0,0.0,0.0,0.0,0.0,0.0,0.0,0,0,0,0,0,0,0,1,0,0,1,0,0
137128831,11.3306,11.3229,25.5496,25.673,0.0,506.804,1.0,1.0,nan,0,0.0,0.0,0.0,0.0,0.0,0.0,0.0,0.0,0.0,0.0,0.0,0,0,0,0,0,0,0,1,0,0,1,0,0
137428793,11.316,11.3225,25.7547,25.6541,0.0,508.939,1.0,1.0,nan,0,0.0,0.0,0.0,0.0,0.0,0.0,0.0,0.0,0.0,0.0,0.0,0,0,0,0,0,0,0,1,0,0,1,0,0
137728828,11.316,11.3199,25.4031,25.6667,0.0,511.081,1.0,1.0,nan,0,0.0,0.0,0.0,0.0,0.0,0.0,0.0,0.0,0.0,0.0,0.0,0,0,0,0,0,0,0,1,0,0,1,0,0
138028793,11.3015,11.3191,25.8426,25.7369,0.0,513.233,1.0,1.0,nan,0,0.0,0.0,0.0,0.0,0.0,0.0,0.0,0.0,0.0,0.0,0.0,0,0,0,0,0,0,0,1,0,0,1,0,0
138328801,11.3015,11.3116,25.9891,25.9183,0.0,515.411,1.0,1.0,nan,0,0.0,0.0,0.0,0.0,0.0,0.0,0.0,0.0,0.0,0.0,0.0,0,0,0,0,0,0,0,1,0,0,1,0,0
138628792,11.316,11.3128,25.9891,25.9942,0.0,517.588,1.0,1.0,nan,0,0.0,0.0,0.0,0.0,0.0,0.0,0.0,0.0,0.0,0.0,0.0,0,0,0,0,0,0,0,1,0,0,1,0,0
138930087,11.316,11.3151,26.2821,25.9719,0.0,519.759,1.0,1.0,nan,0,0.0,0.0,0.0,0.0,0.0,0.0,0.0,0.0,0.0,0.0,0.0,0,0,0,0,0,0,0,1,0,0,1,0,0
139228793,11.3452,11.3157,26.3407,26.0162,0.0,521.925,1.0,1.0,nan,0,0.0,0.0,0.0,0.0,0.0,0.0,0.0,0.0,0.0,0.0,0.0,0,0,0,0,0,0,0,1,0,0,1,0,0
139528798,11.3452,11.315,26.5458,26.0022,0.0,524.091,1.0,1.0,nan,0,0.0,0.0,0.0,0.0,0.0,0.0,0.0,0.0,0.0,0.0,0.0,0,0,0,0,0,0,0,1,0,0,1,0,0
139828802,11.316,11.3133,25.7547,25.9367,0.0,526.246,1.0,1.0,nan,0,0.0,0.0,0.0,0.0,0.0,0.0,0.0,0.0,0.0,0.0,0.0,0,0,0,0,0,0,0,1,0,0,1,0,0
140128793,11.316,11.3133,25.5789,25.8657,0.0,528.397,1.0,1.0,nan,0,0.0,0.0,0.0,0.0,0.0,0.0,0.0,0.0,0.0,0.0,0.0,0,0,0,0,0,0,0,1,0,0,1,0,0
140429167,11.316,11.3152,25.6082,25.8569,0.0,530.554,1.0,1.0,nan,0,0.0,0.0,0.0,0.0,0.0,0.0,0.0,0.0,0.0,0.0,0.0,0,0,0,0,0,0,0,1,0,0,1,0,0
140718793,11.3306,11.3162,25.7254,25.8421,0.0,532.633,1.0,1.0,nan,0,0.0,0.0,0.0,0.0,0.0,0.0,0.0,0.0,0.0,0.0,0.0,0,0,0,0,0,0,0,1,0,0,1,0,0
141028806,11.3015,11.3155,25.7547,25.8965,0.0,534.869,1.0,1.0,nan,0,0.0,0.0,0.0,0.0,0.0,0.0,0.0,0.0,0.0,0.0,0.0,0,0,0,0,0,0,0,1,0,0,1,0,0
141328851,11.3598,11.3168,25.4617,25.9601,0.0,537.039,1.0,1.0,nan,0,0.0,0.0,0.0,0.0,0.0,0.0,0.0,0.0,0.0,0.0,0.0,0,0,0,0,0,0,0,1,0,0,1,0,0
141628793,11.2431,11.3083,25.784,26.0155,0.0,539.212,1.0,1.0,nan,0,0.0,0.0,0.0,0.0,0.0,0.0,0.0,0.0,0.0,0.0,0.0,0,0,0,0,0,0,0,1,0,0,1,0,0
141928823,11.3306,11.2994,25.9598,26.0108,0.0,541.379,1.0,1.0,nan,0,0.0,0.0,0.0,0.0,0.0,0.0,0.0,0.0,0.0,0.0,0.0,0,0,0,0,0,0,0,1,0,0,1,0,0
142228889,11.3452,11.297,25.9891,26.1395,0.0,543.568,1.0,1.0,nan,0,0.0,0.0,0.0,0.0,0.0,0.0,0.0,0.0,0.0,0.0,0.0,0,0,0,0,0,0,0,1,0,0,1,0,0
142528793,11.316,11.2905,26.37,26.1879,0.0,545.752,1.0,1.0,nan,0,0.0,0.0,0.0,0.0,0.0,0.0,0.0,0.0,0.0,0.0,0.0,0,0,0,0,0,0,0,1,0,0,1,0,0
142818793,11.3015,11.2934,25.9305,26.0928,0.0,547.845,1.0,1.0,nan,0,0.0,0.0,0.0,0.0,0.0,0.0,0.0,0.0,0.0,0.0,0.0,0,0,0,0,0,0,0,1,0,0,1,0,0
143128800,11.0973,11.2919,25.3445,25.8467,0.0,550.049,1.0,1.0,nan,0,0.0,0.0,0.0,0.0,0.0,0.0,0.0,0.0,0.0,0.0,0.0,0,0,0,0,0,0,0,1,0,0,1,0,0
143428793,11.3015,11.2916,25.6375,25.834,0.0,552.203,1.0,1.0,nan,0,0.0,0.0,0.0,0.0,0.0,0.0,0.0,0.0,0.0,0.0,0.0,0,0,0,0,0,0,0,1,0,0,1,0,0
143728797,11.2869,11.2886,25.9305,25.923,0.0,554.372,1.0,1.0,nan,0,0.0,0.0,0.0,0.0,0.0,0.0,0.0,0.0,0.0,0.0,0.0,0,0,0,0,0,0,0,1,0,0,1,0,0
144029577,11.214,11.2777,26.3993,26.116,0.0,556.573,1.0,1.0,nan,0,0.0,0.0,0.0,0.0,0.0,0.0,0.0,0.0,0.0,0.0,0.0,0,0,0,0,0,0,0,1,0,0,1,0,0
144328793,11.1702,11.2708,26.4286,26.2421,0.0,558.766,1.0,1.0,nan,0,0.0,0.0,0.0,0.0,0.0,0.0,0.0,0.0,0.0,0.0,0.0,0,0,0,0,0,0,0,1,0,0,1,0,0
144628796,11.1994,11.262,25.7547,26.2292,0.0,560.951,1.0,1.0,nan,0,0.0,0.0,0.0,0.0,0.0,0.0,0.0,0.0,0.0,0.0,0.0,0,0,0,0,0,0,0,1,0,0,1,0,0
144918793,11.1119,11.2553,26.3114,26.0992,0.0,563.039,1.0,1.0,nan,0,0.0,0.0,0.0,0.0,0.0,0.0,0.0,0.0,0.0,0.0,0.0,0,0,0,0,0,0,0,1,0,0,1,0,0
145228793,11.141,11.2439,25.9598,26.1604,0.0,565.298,1.0,1.0,nan,0,0.0,0.0,0.0,0.0,0.0,0.0,0.0,0.0,0.0,0.0,0.0,0,0,0,0,0,0,0,1,0,0,1,0,0
145528794,11.141,11.2319,25.9891,26.1696,0.0,567.482,1.0,1.0,nan,0,0.0,0.0,0.0,0.0,0.0,0.0,0.0,0.0,0.0,0.0,0.0,0,0,0,0,0,0,0,1,0,0,1,0,0
145828794,11.1556,11.229,26.077,26.1996,0.0,569.666,1.0,1.0,nan,0,0.0,0.0,0.0,0.0,0.0,0.0,0.0,0.0,0.0,0.0,0.0,0,0,0,0,0,0,0,1,0,0,1,0,0
146128801,11.1119,11.2298,25.2273,25.9154,0.0,571.796,1.0,1.0,nan,0,0.0,0.0,0.0,0.0,0.0,0.0,0.0,0.0,0.0,0.0,0.0,0,0,0,0,0,0,0,1,0,0,1,0,0
146428812,11.1556,11.2272,26.7802,25.7863,0.0,573.931,1.0,1.0,nan,0,0.0,0.0,0.0,0.0,0.0,0.0,0.0,0.0,0.0,0.0,0.0,0,0,0,0,0,0,0,1,0,0,1,0,0
146728792,11.141,11.2203,25.0222,25.6078,0.0,576.05,1.0,1.0,nan,0,0.0,0.0,0.0,0.0,0.0,0.0,0.0,0.0,0.0,0.0,0.0,0,0,0,0,0,0,0,1,0,0,1,0,0
147029017,11.1265,11.2181,25.6375,25.6862,0.0,578.198,1.0,1.0,nan,0,0.0,0.0,0.0,0.0,0.0,0.0,0.0,0.0,0.0,0.0,0.0,0,0,0,0,0,0,0,1,0,0,1,0,0
147328802,11.0973,11.2135,25.5203,25.7846,0.0,580.355,1.0,1.0,nan,0,0.0,0.0,0.0,0.0,0.0,0.0,0.0,0.0,0.0,0.0,0.0,0,0,0,0,0,0,0,1,0,0,1,0,0
147628818,11.1119,11.2113,25.8426,25.7946,0.0,582.505,1.0,1.0,nan,0,0.0,0.0,0.0,0.0,0.0,0.0,0.0,0.0,0.0,0.0,0.0,0,0,0,0,0,0,0,1,0,0,1,0,0
147928794,11.0827,11.2032,25.5496,25.8559,0.0,584.663,1.0,1.0,nan,0,0.0,0.0,0.0,0.0,0.0,0.0,0.0,0.0,0.0,0.0,0.0,0,0,0,0,0,0,0,1,0,0,1,0,0
148228821,11.039,11.1991,25.9598,25.9056,0.0,586.826,1.0,1.0,nan,0,0.0,0.0,0.0,0.0,0.0,0.0,0.0,0.0,0.0,0.0,0.0,0,0,0,0,0,0,0,1,0,0,1,0,0
148528793,11.0827,11.1978,25.5789,25.8468,0.0,588.977,1.0,1.0,nan,0,0.0,0.0,0.0,0.0,0.0,0.0,0.0,0.0,0.0,0.0,0.0,0,0,0,0,0,0,0,1,0,0,1,0,0
148828793,11.0244,11.1965,26.2821,25.8268,0.0,591.127,1.0,1.0,nan,0,0.0,0.0,0.0,0.0,0.0,0.0,0.0,0.0,0.0,0.0,0.0,0,0,0,0,0,0,0,1,0,0,1,0,0
149119203,11.3015,11.2016,25.6668,25.6927,0.0,593.188,1.0,1.0,nan,0,0.0,0.0,0.0,0.0,0.0,0.0,0.0,0.0,0.0,0.0,0.0,0,0,0,0,0,0,0,1,0,0,1,0,0
149428796,11.1265,11.1961,25.9891,25.7921,0.0,595.417,1.0,1.0,nan,0,0.0,0.0,0.0,0.0,0.0,0.0,0.0,0.0,0.0,0.0,0.0,0,0,0,0,0,0,0,1,0,0,1,0,0
149728793,11.0827,11.1927,26.3114,25.9105,0.0,597.591,1.0,1.0,nan,0,0.0,0.0,0.0,0.0,0.0,0.0,0.0,0.0,0.0,0.0,0.0,0,0,0,0,0,0,0,1,0,0,1,0,0
150028934,11.0681,11.1841,25.9891,26.079,0.0,599.783,1.0,1.0,nan,0,0.0,0.0,0.0,0.0,0.0,0.0,0.0,0.0,0.0,0.0,0.0,0,0,0,0,0,0,0,1,0,0,1,0,0
150328840,11.0827,11.1837,25.9012,26.0797,0.0,601.958,1.0,1.0,nan,0,0.0,0.0,0.0,0.0,0.0,0.0,0.0,0.0,0.0,0.0,0.0,0,0,0,0,0,0,0,1,0,0,1,0,0
150629336,11.1265,11.1837,25.5496,25.9285,0.0,604.109,1.0,1.0,nan,0,0.0,0.0,0.0,0.0,0.0,0.0,0.0,0.0,0.0,0.0,0.0,0,0,0,0,0,0,0,1,0,0,1,0,0
150928794,11.0827,11.189,25.0222,25.7101,0.0,606.228,1.0,1.0,nan,0,0.0,0.0,0.0,0.0,0.0,0.0,0.0,0.0,0.0,0.0,0.0,0,0,0,0,0,0,0,1,0,0,1,0,0
151218818,11.316,11.1916,26.0184,25.6558,0.0,608.289,1.0,1.0,nan,0,0.0,0.0,0.0,0.0,0.0,0.0,0.0,0.0,0.0,0.0,0.0,0,0,0,0,0,0,0,1,0,0,1,0,0
151528793,11.0827,11.1887,25.9891,25.8809,0.0,610.539,1.0,1.0,nan,0,0.0,0.0,0.0,0.0,0.0,0.0,0.0,0.0,0.0,0.0,0.0,0,0,0,0,0,0,0,1,0,0,1,0,0
151828794,11.1119,11.1859,26.2528,26.159,0.0,612.751,1.0,1.0,nan,0,0.0,0.0,0.0,0.0,0.0,0.0,0.0,0.0,0.0,0.0,0.0,0,0,0,0,0,0,0,1,0,0,1,0,0
152128837,11.0681,11.1767,25.7254,26.2367,0.0,614.946,1.0,1.0,nan,0,0.0,0.0,0.0,0.0,0.0,0.0,0.0,0.0,0.0,0.0,0.0,0,0,0,0,0,0,0,1,0,0,1,0,0
152428793,11.1265,11.179,25.6082,26.1127,0.0,617.111,1.0,1.0,nan,0,0.0,0.0,0.0,0.0,0.0,0.0,0.0,0.0,0.0,0.0,0.0,0,0,0,0,0,0,0,1,0,0,1,0,0
152728793,11.0827,11.1781,25.1687,25.9782,0.0,619.261,1.0,1.0,nan,0,0.0,0.0,0.0,0.0,0.0,0.0,0.0,0.0,0.0,0.0,0.0,0,0,0,0,0,0,0,1,0,0,1,0,0
153028801,11.0681,11.1797,25.6668,25.9056,0.0,621.41,1.0,1.0,nan,0,0.0,0.0,0.0,0.0,0.0,0.0,0.0,0.0,0.0,0.0,0.0,0,0,0,0,0,0,0,1,0,0,1,0,0
153318966,11.2431,11.1777,26.1063,25.9142,0.0,623.497,1.0,1.0,nan,0,0.0,0.0,0.0,0.0,0.0,0.0,0.0,0.0,0.0,0.0,0.0,0,0,0,0,0,0,0,1,0,0,1,0,0
153628920,11.0681,11.174,26.4579,26.0245,0.0,625.749,1.0,1.0,nan,0,0.0,0.0,0.0,0.0,0.0,0.0,0.0,0.0,0.0,0.0,0.0,0,0,0,0,0,0,0,1,0,0,1,0,0
153928794,11.0535,11.1726,26.0477,26.054,0.0,627.924,1.0,1.0,nan,0,0.0,0.0,0.0,0.0,0.0,0.0,0.0,0.0,0.0,0.0,0.0,0,0,0,0,0,0,0,1,0,0,1,0,0
154229563,11.0535,11.1691,26.4872,26.1676,0.0,630.12,1.0,1.0,nan,0,0.0,0.0,0.0,0.0,0.0,0.0,0.0,0.0,0.0,0.0,0.0,0,0,0,0,0,0,0,1,0,0,1,0,0
154528793,11.0681,11.1679,25.784,26.2332,0.0,632.311,1.0,1.0,nan,0,0.0,0.0,0.0,0.0,0.0,0.0,0.0,0.0,0.0,0.0,0.0,0,0,0,0,0,0,0,1,0,0,1,0,0
154828965,11.0973,11.1677,25.5496,26.1202,0.0,634.478,1.0,1.0,nan,0,0.0,0.0,0.0,0.0,0.0,0.0,0.0,0.0,0.0,0.0,0.0,0,0,0,0,0,0,0,1,0,0,1,0,0
155128793,11.0827,11.1741,25.7254,26.049,0.0,636.637,1.0,1.0,nan,0,0.0,0.0,0.0,0.0,0.0,0.0,0.0,0.0,0.0,0.0,0.0,0,0,0,0,0,0,0,1,0,0,1,0,0
155418793,11.1265,11.1766,26.2821,25.9286,0.0,638.712,1.0,1.0,nan,0,0.0,0.0,0.0,0.0,0.0,0.0,0.0,0.0,0.0,0.0,0.0,0,0,0,0,0,0,0,1,0,0,1,0,0
155729398,11.0681,11.1742,26.0477,26.0381,0.0,640.97,1.0,1.0,nan,0,0.0,0.0,0.0,0.0,0.0,0.0,0.0,0.0,0.0,0.0,0.0,0,0,0,0,0,0,0,1,0,0,1,0,0
156028794,11.0827,11.1749,25.7254,26.0632,0.0,643.142,1.0,1.0,nan,0,0.0,0.0,0.0,0.0,0.0,0.0,0.0,0.0,0.0,0.0,0.0,0,0,0,0,0,0,0,1,0,0,1,0,0
156328793,11.0244,11.1638,26.1063,26.1662,0.0,645.331,1.0,1.0,nan,0,0.0,0.0,0.0,0.0,0.0,0.0,0.0,0.0,0.0,0.0,0.0,0,0,0,0,0,0,0,1,0,0,1,0,0
156628794,11.0827,11.1672,25.784,26.0393,0.0,647.489,1.0,1.0,nan,0,0.0,0.0,0.0,0.0,0.0,0.0,0.0,0.0,0.0,0.0,0.0,0,0,0,0,0,0,0,1,0,0,1,0,0
156928795,11.0827,11.1726,25.4031,25.8217,0.0,649.623,1.0,1.0,nan,0,0.0,0.0,0.0,0.0,0.0,0.0,0.0,0.0,0.0,0.0,0.0,0,0,0,0,0,0,0,1,0,0,1,0,0
157229484,11.1119,11.1716,25.3152,25.7748,0.0,651.771,1.0,1.0,nan,0,0.0,0.0,0.0,0.0,0.0,0.0,0.0,0.0,0.0,0.0,0.0,0,0,0,0,0,0,0,1,0,0,1,0,0
157518908,11.2577,11.1749,26.1356,25.8465,0.0,653.853,1.0,1.0,nan,0,0.0,0.0,0.0,0.0,0.0,0.0,0.0,0.0,0.0,0.0,0.0,0,0,0,0,0,0,0,1,0,0,1,0,0
157828792,11.0535,11.1683,26.1942,25.9708,0.0,656.1,1.0,1.0,nan,0,0.0,0.0,0.0,0.0,0.0,0.0,0.0,0.0,0.0,0.0,0.0,0,0,0,0,0,0,0,1,0,0,1,0,0
158128807,10.9952,11.1657,26.663,26.1443,0.0,658.298,1.0,1.0,nan,0,0.0,0.0,0.0,0.0,0.0,0.0,0.0,0.0,0.0,0.0,0.0,0,0,0,0,0,0,0,1,0,0,1,0,0
158428862,11.1119,11.1657,25.8133,26.1516,0.0,660.481,1.0,1.0,nan,0,0.0,0.0,0.0,0.0,0.0,0.0,0.0,0.0,0.0,0.0,0.0,0,0,0,0,0,0,0,1,0,0,1,0,0
158729096,11.0827,11.1646,25.4617,26.1055,0.0,662.655,1.0,1.0,nan,0,0.0,0.0,0.0,0.0,0.0,0.0,0.0,0.0,0.0,0.0,0.0,0,0,0,0,0,0,0,1,0,0,1,0,0
159028794,11.0973,11.1663,25.3152,25.9763,0.0,664.804,1.0,1.0,nan,0,0.0,0.0,0.0,0.0,0.0,0.0,0.0,0.0,0.0,0.0,0.0,0,0,0,0,0,0,0,1,0,0,1,0,0
159328798,11.039,11.1676,26.0184,25.8977,0.0,666.953,1.0,1.0,nan,0,0.0,0.0,0.0,0.0,0.0,0.0,0.0,0.0,0.0,0.0,0.0,0,0,0,0,0,0,0,1,0,0,1,0,0
159618793,11.3306,11.1656,25.7547,25.9841,0.0,669.054,1.0,1.0,nan,0,0.0,0.0,0.0,0.0,0.0,0.0,0.0,0.0,0.0,0.0,0.0,0,0,0,0,0,0,0,1,0,0,1,0,0
159928852,11.214,11.1657,25.9305,25.9276,0.0,671.281,1.0,1.0,nan,0,0.0,0.0,0.0,0.0,0.0,0.0,0.0,0.0,0.0,0.0,0.0,0,0,0,0,0,0,0,1,0,0,1,0,0
160228818,11.0535,11.1667,25.8719,25.7812,0.0,673.412,1.0,1.0,nan,0,0.0,0.0,0.0,0.0,0.0,0.0,0.0,0.0,0.0,0.0,0.0,0,0,0,0,0,0,0,1,0,0,1,0,0
160528793,11.0681,11.1597,25.9012,25.7179,0.0,675.546,1.0,1.0,nan,0,0.0,0.0,0.0,0.0,0.0,0.0,0.0,0.0,0.0,0.0,0.0,0,0,0,0,0,0,0,1,0,0,1,0,0
160829029,11.0827,11.1633,25.5496,25.7188,0.0,677.694,1.0,1.0,nan,0,0.0,0.0,0.0,0.0,0.0,0.0,0.0,0.0,0.0,0.0,0.0,0,0,0,0,0,0,0,1,0,0,1,0,0
161128863,11.039,11.165,25.6961,25.7768,0.0,679.848,1.0,1.0,nan,0,0.0,0.0,0.0,0.0,0.0,0.0,0.0,0.0,0.0,0.0,0.0,0,0,0,0,0,0,0,1,0,0,1,0,0
161428792,11.0827,11.1593,25.6082,25.9458,0.0,682.027,1.0,1.0,nan,0,0.0,0.0,0.0,0.0,0.0,0.0,0.0,0.0,0.0,0.0,0.0,0,0,0,0,0,0,0,1,0,0,1,0,0
161728925,11.0973,11.16,25.4324,25.9152,0.0,684.183,1.0,1.0,nan,0,0.0,0.0,0.0,0.0,0.0,0.0,0.0,0.0,0.0,0.0,0.0,0,0,0,0,0,0,0,1,0,0,1,0,0
162028794,11.0681,11.1639,25.7547,25.8287,0.0,686.324,1.0,1.0,nan,0,0.0,0.0,0.0,0.0,0.0,0.0,0.0,0.0,0.0,0.0,0.0,0,0,0,0,0,0,0,1,0,0,1,0,0
162329593,11.1119,11.1614,25.784,25.9081,0.0,688.5,1.0,1.0,nan,0,0.0,0.0,0.0,0.0,0.0,0.0,0.0,0.0,0.0,0.0,0.0,0,0,0,0,0,0,0,1,0,0,1,0,0
162628897,11.0535,11.1638,25.2859,25.8431,0.0,690.641,1.0,1.0,nan,0,0.0,0.0,0.0,0.0,0.0,0.0,0.0,0.0,0.0,0.0,0.0,0,0,0,0,0,0,0,1,0,0,1,0,0
162928798,11.0681,11.1686,25.7254,25.7226,0.0,692.769,1.0,1.0,nan,0,0.0,0.0,0.0,0.0,0.0,0.0,0.0,0.0,0.0,0.0,0.0,0,0,0,0,0,0,0,1,0,0,1,0,0
163228799,11.0827,11.1661,25.6375,25.811,0.0,694.928,1.0,1.0,nan,0,0.0,0.0,0.0,0.0,0.0,0.0,0.0,0.0,0.0,0.0,0.0,0,0,0,0,0,0,0,1,0,0,1,0,0
163528793,11.0244,11.1641,25.784,25.9465,0.0,697.102,1.0,1.0,nan,0,0.0,0.0,0.0,0.0,0.0,0.0,0.0,0.0,0.0,0.0,0.0,0,0,0,0,0,0,0,1,0,0,1,0,0
163828793,11.0098,11.1596,26.2528,25.9137,0.0,699.255,1.0,1.0,nan,0,0.0,0.0,0.0,0.0,0.0,0.0,0.0,0.0,0.0,0.0,0.0,0,0,0,0,0,0,0,1,0,0,1,0,0
164128798,11.0535,11.1621,25.8719,25.858,0.0,701.406,1.0,1.0,nan,0,0.0,0.0,0.0,0.0,0.0,0.0,0.0,0.0,0.0,0.0,0.0,0,0,0,0,0,0,0,1,0,0,1,0,0
164428795,11.0827,11.1662,25.9012,25.9015,0.0,703.568,1.0,1.0,nan,0,0.0,0.0,0.0,0.0,0.0,0.0,0.0,0.0,0.0,0.0,0.0,0,0,0,0,0,0,0,1,0,0,1,0,0
164728793,11.0681,11.1641,26.2821,25.9701,0.0,705.739,1.0,1.0,nan,0,0.0,0.0,0.0,0.0,0.0,0.0,0.0,0.0,0.0,0.0,0.0,0,0,0,0,0,0,0,1,0,0,1,0,0
165028840,11.039,11.1684,25.8426,25.958,0.0,707.904,1.0,1.0,nan,0,0.0,0.0,0.0,0.0,0.0,0.0,0.0,0.0,0.0,0.0,0.0,0,0,0,0,0,0,0,1,0,0,1,0,0
165328819,11.0973,11.1659,26.3407,26.0812,0.0,710.087,1.0,1.0,nan,0,0.0,0.0,0.0,0.0,0.0,0.0,0.0,0.0,0.0,0.0,0.0,0,0,0,0,0,0,0,1,0,0,1,0,0
165628793,11.141,11.1704,26.1356,25.98,0.0,712.242,1.0,1.0,nan,0,0.0,0.0,0.0,0.0,0.0,0.0,0.0,0.0,0.0,0.0,0.0,0,0,0,0,0,0,0,1,0,0,1,0,0
165929814,11.0681,11.1787,25.6961,25.941,0.0,714.407,1.0,1.0,nan,0,0.0,0.0,0.0,0.0,0.0,0.0,0.0,0.0,0.0,0.0,0.0,0,0,0,0,0,0,0,1,0,0,1,0,0
166228793,11.141,11.1824,25.7254,25.9387,0.0,716.56,1.0,1.0,nan,0,0.0,0.0,0.0,0.0,0.0,0.0,0.0,0.0,0.0,0.0,0.0,0,0,0,0,0,0,0,1,0,0,1,0,0
166528792,11.0244,11.1841,26.1356,25.8745,0.0,718.708,1.0,1.0,nan,0,0.0,0.0,0.0,0.0,0.0,0.0,0.0,0.0,0.0,0.0,0.0,0,0,0,0,0,0,0,1,0,0,1,0,0
166828878,11.0681,11.1949,25.2566,25.6294,0.0,720.822,1.0,1.0,nan,0,0.0,0.0,0.0,0.0,0.0,0.0,0.0,0.0,0.0,0.0,0.0,0,0,0,0,0,0,0,1,0,0,1,0,0
167128794,11.2723,11.2053,25.7547,25.5196,0.0,722.937,1.0,1.0,nan,0,0.0,0.0,0.0,0.0,0.0,0.0,0.0,0.0,0.0,0.0,0.0,0,0,0,0,0,0,0,1,0,0,1,0,0
167429409,11.1119,11.1921,26.37,25.6664,0.0,725.093,1.0,1.0,nan,0,0.0,0.0,0.0,0.0,0.0,0.0,0.0,0.0,0.0,0.0,0.0,0,0,0,0,0,0,0,1,0,0,1,0,0
167728815,11.0098,11.1933,26.6923,25.9569,0.0,727.279,1.0,1.0,nan,0,0.0,0.0,0.0,0.0,0.0,0.0,0.0,0.0,0.0,0.0,0.0,0,0,0,0,0,0,0,1,0,0,1,0,0
168028793,11.214,11.1959,26.1356,26.1042,0.0,729.472,1.0,1.0,nan,0,0.0,0.0,0.0,0.0,0.0,0.0,0.0,0.0,0.0,0.0,0.0,0,0,0,0,0,0,0,1,0,0,1,0,0
168328830,11.0535,11.1926,26.5165,26.2095,0.0,731.668,1.0,1.0,nan,0,0.0,0.0,0.0,0.0,0.0,0.0,0.0,0.0,0.0,0.0,0.0,0,0,0,0,0,0,0,1,0,0,1,0,0
168628793,11.2431,11.1929,26.3114,26.2355,0.0,733.857,1.0,1.0,nan,0,0.0,0.0,0.0,0.0,0.0,0.0,0.0,0.0,0.0,0.0,0.0,0,0,0,0,0,0,0,1,0,0,1,0,0
168929174,11.2431,11.1954,26.2235,26.2293,0.0,736.046,1.0,1.0,nan,0,0.0,0.0,0.0,0.0,0.0,0.0,0.0,0.0,0.0,0.0,0.0,0,0,0,0,0,0,0,1,0,0,1,0,0
169228793,11.2577,11.2042,25.8719,26.1029,0.0,738.207,1.0,1.0,nan,0,0.0,0.0,0.0,0.0,0.0,0.0,0.0,0.0,0.0,0.0,0.0,0,0,0,0,0,0,0,1,0,0,1,0,0
169528805,11.2869,11.1986,25.7254,25.9059,0.0,740.344,1.0,1.0,nan,0,0.0,0.0,0.0,0.0,0.0,0.0,0.0,0.0,0.0,0.0,0.0,0,0,0,0,0,0,0,1,0,0,1,0,0
169828798,11.2577,11.2044,26.1063,25.9889,0.0,742.517,1.0,1.0,nan,0,0.0,0.0,0.0,0.0,0.0,0.0,0.0,0.0,0.0,0.0,0.0,0,0,0,0,0,0,0,1,0,0,1,0,0
170118845,11.2577,11.1923,26.6044,26.1061,0.0,744.631,1.0,1.0,nan,0,0.0,0.0,0.0,0.0,0.0,0.0,0.0,0.0,0.0,0.0,0.0,0,0,0,0,0,0,0,1,0,0,1,0,0
170428793,11.0681,11.1855,26.1649,26.1972,0.0,746.896,1.0,1.0,nan,0,0.0,0.0,0.0,0.0,0.0,0.0,0.0,0.0,0.0,0.0,0.0,0,0,0,0,0,0,0,1,0,0,1,0,0
170728856,11.2577,11.1859,26.4286,26.3537,0.0,749.106,1.0,1.0,nan,0,0.0,0.0,0.0,0.0,0.0,0.0,0.0,0.0,0.0,0.0,0.0,0,0,0,0,0,0,0,1,0,0,1,0,0
171029246,11.0535,11.187,25.7547,26.3022,0.0,751.298,1.0,1.0,nan,0,0.0,0.0,0.0,0.0,0.0,0.0,0.0,0.0,0.0,0.0,0.0,0,0,0,0,0,0,0,1,0,0,1,0,0
171328793,11.039,11.1866,25.784,26.1883,0.0,753.467,1.0,1.0,nan,0,0.0,0.0,0.0,0.0,0.0,0.0,0.0,0.0,0.0,0.0,0.0,0,0,0,0,0,0,0,1,0,0,1,0,0
171628801,11.2577,11.1887,25.9891,26.1851,0.0,755.649,1.0,1.0,nan,0,0.0,0.0,0.0,0.0,0.0,0.0,0.0,0.0,0.0,0.0,0.0,0,0,0,0,0,0,0,1,0,0,1,0,0
171928925,11.3015,11.1947,25.784,26.0362,0.0,757.807,1.0,1.0,nan,0,0.0,0.0,0.0,0.0,0.0,0.0,0.0,0.0,0.0,0.0,0.0,0,0,0,0,0,0,0,1,0,0,1,0,0
172228794,11.0098,11.1924,25.6082,25.884,0.0,759.945,1.0,1.0,nan,0,0.0,0.0,0.0,0.0,0.0,0.0,0.0,0.0,0.0,0.0,0.0,0,0,0,0,0,0,0,1,0,0,1,0,0
172529514,11.2869,11.1962,26.077,25.9345,0.0,762.115,1.0,1.0,nan,0,0.0,0.0,0.0,0.0,0.0,0.0,0.0,0.0,0.0,0.0,0.0,0,0,0,0,0,0,0,1,0,0,1,0,0
172828857,11.2285,11.1972,26.1649,25.9023,0.0,764.264,1.0,1.0,nan,0,0.0,0.0,0.0,0.0,0.0,0.0,0.0,0.0,0.0,0.0,0.0,0,0,0,0,0,0,0,1,0,0,1,0,0
173128797,11.2577,11.2021,26.1649,25.8643,0.0,766.415,1.0,1.0,nan,0,0.0,0.0,0.0,0.0,0.0,0.0,0.0,0.0,0.0,0.0,0.0,0,0,0,0,0,0,0,1,0,0,1,0,0
173429008,11.0535,11.2001,26.0184,25.9191,0.0,768.581,1.0,1.0,nan,0,0.0,0.0,0.0,0.0,0.0,0.0,0.0,0.0,0.0,0.0,0.0,0,0,0,0,0,0,0,1,0,0,1,0,0
173728793,11.039,11.1989,26.1649,26.0208,0.0,770.758,1.0,1.0,nan,0,0.0,0.0,0.0,0.0,0.0,0.0,0.0,0.0,0.0,0.0,0.0,0,0,0,0,0,0,0,1,0,0,1,0,0
174028793,11.214,11.1932,26.1649,26.1698,0.0,772.953,1.0,1.0,nan,0,0.0,0.0,0.0,0.0,0.0,0.0,0.0,0.0,0.0,0.0,0.0,0,0,0,0,0,0,0,1,0,0,1,0,0
174328795,11.2869,11.1963,26.077,26.1206,0.0,775.128,1.0,1.0,nan,0,0.0,0.0,0.0,0.0,0.0,0.0,0.0,0.0,0.0,0.0,0.0,0,0,0,0,0,0,0,1,0,0,1,0,0
174628860,11.2723,11.1972,26.0184,26.0533,0.0,777.292,1.0,1.0,nan,0,0.0,0.0,0.0,0.0,0.0,0.0,0.0,0.0,0.0,0.0,0.0,0,0,0,0,0,0,0,1,0,0,1,0,0
174928793,11.0827,11.2026,25.6668,25.9922,0.0,779.45,1.0,1.0,nan,0,0.0,0.0,0.0,0.0,0.0,0.0,0.0,0.0,0.0,0.0,0.0,0,0,0,0,0,0,0,1,0,0,1,0,0
175228816,11.2577,11.201,25.9305,25.8602,0.0,781.591,1.0,1.0,nan,0,0.0,0.0,0.0,0.0,0.0,0.0,0.0,0.0,0.0,0.0,0.0,0,0,0,0,0,0,0,1,0,0,1,0,0
175528983,10.9952,11.1971,26.1649,25.9296,0.0,783.761,1.0,1.0,nan,0,0.0,0.0,0.0,0.0,0.0,0.0,0.0,0.0,0.0,0.0,0.0,0,0,0,0,0,0,0,1,0,0,1,0,0
175828793,11.214,11.1945,26.1063,25.9425,0.0,785.924,1.0,1.0,nan,0,0.0,0.0,0.0,0.0,0.0,0.0,0.0,0.0,0.0,0.0,0.0,0,0,0,0,0,0,0,1,0,0,1,0,0
176129247,11.039,11.1915,26.2235,26.2632,0.0,788.145,1.0,1.0,nan,0,0.0,0.0,0.0,0.0,0.0,0.0,0.0,0.0,0.0,0.0,0.0,0,0,0,0,0,0,0,1,0,0,1,0,0
176418794,11.2285,11.1907,26.2821,26.1816,0.0,790.242,1.0,1.0,nan,0,0.0,0.0,0.0,0.0,0.0,0.0,0.0,0.0,0.0,0.0,0.0,0,0,0,0,0,0,0,1,0,0,1,0,0
176728800,11.2869,11.1943,26.077,26.0809,0.0,792.479,1.0,1.0,nan,0,0.0,0.0,0.0,0.0,0.0,0.0,0.0,0.0,0.0,0.0,0.0,0,0,0,0,0,0,0,1,0,0,1,0,0
177028793,11.0535,11.2008,25.8133,25.9403,0.0,794.629,1.0,1.0,nan,0,0.0,0.0,0.0,0.0,0.0,0.0,0.0,0.0,0.0,0.0,0.0,0,0,0,0,0,0,0,1,0,0,1,0,0
177328793,11.3015,11.2032,25.5203,25.7328,0.0,796.754,1.0,1.0,nan,0,0.0,0.0,0.0,0.0,0.0,0.0,0.0,0.0,0.0,0.0,0.0,0,0,0,0,0,0,0,1,0,0,1,0,0
177629630,11.039,11.1917,26.077,25.8397,0.0,798.922,1.0,1.0,nan,0,0.0,0.0,0.0,0.0,0.0,0.0,0.0,0.0,0.0,0.0,0.0,0,0,0,0,0,0,0,1,0,0,1,0,0
177928805,11.0681,11.1881,25.6961,26.0331,0.0,801.106,1.0,1.0,nan,0,0.0,0.0,0.0,0.0,0.0,0.0,0.0,0.0,0.0,0.0,0.0,0,0,0,0,0,0,0,1,0,0,1,0,0
178228794,10.9952,11.1849,26.5751,26.0522,0.0,803.278,1.0,1.0,nan,0,0.0,0.0,0.0,0.0,0.0,0.0,0.0,0.0,0.0,0.0,0.0,0,0,0,0,0,0,0,1,0,0,1,0,0
178528796,11.0535,11.1723,25.8719,26.2207,0.0,805.479,1.0,1.0,nan,0,0.0,0.0,0.0,0.0,0.0,0.0,0.0,0.0,0.0,0.0,0.0,0,0,0,0,0,0,0,1,0,0,1,0,0
178828833,11.2577,11.184,25.4031,26.0661,0.0,807.636,1.0,1.0,nan,0,0.0,0.0,0.0,0.0,0.0,0.0,0.0,0.0,0.0,0.0,0.0,0,0,0,0,0,0,0,1,0,0,1,0,0
179129132,11.2577,11.1888,25.9012,25.853,0.0,809.771,1.0,1.0,nan,0,0.0,0.0,0.0,0.0,0.0,0.0,0.0,0.0,0.0,0.0,0.0,0,0,0,0,0,0,0,1,0,0,1,0,0
179428793,11.0681,11.1794,26.1356,25.9135,0.0,811.934,1.0,1.0,nan,0,0.0,0.0,0.0,0.0,0.0,0.0,0.0,0.0,0.0,0.0,0.0,0,0,0,0,0,0,0,1,0,0,1,0,0
179728793,11.2577,11.1775,26.4286,26.1456,0.0,814.135,1.0,1.0,nan,0,0.0,0.0,0.0,0.0,0.0,0.0,0.0,0.0,0.0,0.0,0.0,0,0,0,0,0,0,0,1,0,0,1,0,0
180028793,11.0244,11.1701,26.1356,26.1825,0.0,816.323,1.0,1.0,nan,0,0.0,0.0,0.0,0.0,0.0,0.0,0.0,0.0,0.0,0.0,0.0,0,0,0,0,0,0,0,1,0,0,1,0,0
180328891,11.2723,11.1663,25.4324,26.4808,0.0,818.551,1.0,1.0,nan,0,0.0,0.0,0.0,0.0,0.0,0.0,0.0,0.0,0.0,0.0,0.0,0,0,0,0,0,0,0,1,0,0,1,0,0
180628943,11.2431,11.1708,26.37,26.2517,0.0,820.709,1.0,1.0,nan,0,0.0,0.0,0.0,0.0,0.0,0.0,0.0,0.0,0.0,0.0,0.0,0,0,0,0,0,0,0,1,0,0,1,0,0
180928820,11.1994,11.1688,26.7216,26.4583,0.0,822.932,1.0,1.0,nan,0,0.0,0.0,0.0,0.0,0.0,0.0,0.0,0.0,0.0,0.0,0.0,0,0,0,0,0,0,0,1,0,0,1,0,0
181228801,10.9952,11.1581,27.0439,26.5901,0.0,825.161,1.0,1.0,nan,0,0.0,0.0,0.0,0.0,0.0,0.0,0.0,0.0,0.0,0.0,0.0,0,0,0,0,0,0,0,1,0,0,1,0,0
181528802,10.9661,11.1552,26.1356,26.6391,0.0,827.39,1.0,1.0,nan,0,0.0,0.0,0.0,0.0,0.0,0.0,0.0,0.0,0.0,0.0,0.0,0,0,0,0,0,0,0,1,0,0,1,0,0
181828793,11.2431,11.1636,26.37,26.6208,0.0,829.605,1.0,1.0,nan,0,0.0,0.0,0.0,0.0,0.0,0.0,0.0,0.0,0.0,0.0,0.0,0,0,0,0,0,0,0,1,0,0,1,0,0
182128793,11.2577,11.1593,26.4579,26.5789,0.0,831.817,1.0,1.0,nan,0,0.0,0.0,0.0,0.0,0.0,0.0,0.0,0.0,0.0,0.0,0.0,0,0,0,0,0,0,0,1,0,0,1,0,0
182428916,11.0681,11.1588,25.6961,26.8344,0.0,834.094,1.0,1.0,nan,0,0.0,0.0,0.0,0.0,0.0,0.0,0.0,0.0,0.0,0.0,0.0,0,0,0,0,0,0,0,1,0,0,1,0,0
182729550,11.141,11.1647,26.077,26.5763,0.0,836.287,1.0,1.0,nan,0,0.0,0.0,0.0,0.0,0.0,0.0,0.0,0.0,0.0,0.0,0.0,0,0,0,0,0,0,0,1,0,0,1,0,0
183028870,11.1702,11.1743,26.3114,26.3378,0.0,838.451,1.0,1.0,nan,0,0.0,0.0,0.0,0.0,0.0,0.0,0.0,0.0,0.0,0.0,0.0,0,0,0,0,0,0,0,1,0,0,1,0,0
183328826,11.1702,11.1764,25.8719,26.2209,0.0,840.624,1.0,1.0,nan,0,0.0,0.0,0.0,0.0,0.0,0.0,0.0,0.0,0.0,0.0,0.0,0,0,0,0,0,0,0,1,0,0,1,0,0
183628793,11.2431,11.1793,26.077,26.2055,0.0,842.804,1.0,1.0,nan,0,0.0,0.0,0.0,0.0,0.0,0.0,0.0,0.0,0.0,0.0,0.0,0,0,0,0,0,0,0,1,0,0,1,0,0
183928793,11.039,11.18,26.3114,26.1384,0.0,844.974,1.0,1.0,nan,0,0.0,0.0,0.0,0.0,0.0,0.0,0.0,0.0,0.0,0.0,0.0,0,0,0,0,0,0,0,1,0,0,1,0,0
184228795,11.1994,11.183,25.9891,26.091,0.0,847.145,1.0,1.0,nan,0,0.0,0.0,0.0,0.0,0.0,0.0,0.0,0.0,0.0,0.0,0.0,0,0,0,0,0,0,0,1,0,0,1,0,0
184528895,11.0535,11.1772,26.7216,26.1434,0.0,849.328,1.0,1.0,nan,0,0.0,0.0,0.0,0.0,0.0,0.0,0.0,0.0,0.0,0.0,0.0,0,0,0,0,0,0,0,1,0,0,1,0,0
184828795,11.0244,11.1792,26.3114,26.2881,0.0,851.534,1.0,1.0,nan,0,0.0,0.0,0.0,0.0,0.0,0.0,0.0,0.0,0.0,0.0,0.0,0,0,0,0,0,0,0,1,0,0,1,0,0
185128793,11.2285,11.1802,26.2235,26.2781,0.0,853.724,1.0,1.0,nan,0,0.0,0.0,0.0,0.0,0.0,0.0,0.0,0.0,0.0,0.0,0.0,0,0,0,0,0,0,0,1,0,0,1,0,0
185428954,11.0244,11.1821,26.3407,26.3171,0.0,855.923,1.0,1.0,nan,0,0.0,0.0,0.0,0.0,0.0,0.0,0.0,0.0,0.0,0.0,0.0,0,0,0,0,0,0,0,1,0,0,1,0,0
185728912,11.2285,11.186,26.3993,26.3839,0.0,858.128,1.0,1.0,nan,0,0.0,0.0,0.0,0.0,0.0,0.0,0.0,0.0,0.0,0.0,0.0,0,0,0,0,0,0,0,1,0,0,1,0,0
186028840,11.214,11.1881,26.663,26.421,0.0,860.331,1.0,1.0,nan,0,0.0,0.0,0.0,0.0,0.0,0.0,0.0,0.0,0.0,0.0,0.0,0,0,0,0,0,0,0,1,0,0,1,0,0
186328796,11.0244,11.1816,26.3993,26.5178,0.0,862.553,1.0,1.0,nan,0,0.0,0.0,0.0,0.0,0.0,0.0,0.0,0.0,0.0,0.0,0.0,0,0,0,0,0,0,0,1,0,0,1,0,0
186628801,11.141,11.1762,26.1942,26.3602,0.0,864.733,1.0,1.0,nan,0,0.0,0.0,0.0,0.0,0.0,0.0,0.0,0.0,0.0,0.0,0.0,0,0,0,0,0,0,0,1,0,0,1,0,0
186928795,11.1702,11.1732,26.1649,26.3216,0.0,866.921,1.0,1.0,nan,0,0.0,0.0,0.0,0.0,0.0,0.0,0.0,0.0,0.0,0.0,0.0,0,0,0,0,0,0,0,1,0,0,1,0,0
187228801,11.2285,11.1837,25.9891,26.1736,0.0,869.086,1.0,1.0,nan,0,0.0,0.0,0.0,0.0,0.0,0.0,0.0,0.0,0.0,0.0,0.0,0,0,0,0,0,0,0,1,0,0,1,0,0
187528793,10.9515,11.1687,26.6337,26.2557,0.0,871.281,1.0,1.0,nan,0,0.0,0.0,0.0,0.0,0.0,0.0,0.0,0.0,0.0,0.0,0.0,0,0,0,0,0,0,0,1,0,0,1,0,0
187829014,11.2285,11.1687,25.9305,26.2756,0.0,873.478,1.0,1.0,nan,0,0.0,0.0,0.0,0.0,0.0,0.0,0.0,0.0,0.0,0.0,0.0,0,0,0,0,0,0,0,1,0,0,1,0,0
188128852,11.1848,11.1804,26.077,26.1685,0.0,875.645,1.0,1.0,nan,0,0.0,0.0,0.0,0.0,0.0,0.0,0.0,0.0,0.0,0.0,0.0,0,0,0,0,0,0,0,1,0,0,1,0,0
188428803,11.214,11.1638,26.4286,26.2827,0.0,877.847,1.0,1.0,nan,0,0.0,0.0,0.0,0.0,0.0,0.0,0.0,0.0,0.0,0.0,0.0,0,0,0,0,0,0,0,1,0,0,1,0,0
188728819,10.9661,11.166,26.4872,26.3622,0.0,880.052,1.0,1.0,nan,0,0.0,0.0,0.0,0.0,0.0,0.0,0.0,0.0,0.0,0.0,0.0,0,0,0,0,0,0,0,1,0,0,1,0,0
189018796,11.214,11.1614,26.3114,26.432,0.0,882.188,1.0,1.0,nan,0,0.0,0.0,0.0,0.0,0.0,0.0,0.0,0.0,0.0,0.0,0.0,0,0,0,0,0,0,0,1,0,0,1,0,0
189329116,11.0535,11.1695,25.6375,26.1939,0.0,884.424,1.0,1.0,nan,0,0.0,0.0,0.0,0.0,0.0,0.0,0.0,0.0,0.0,0.0,0.0,0,0,0,0,0,0,0,1,0,0,1,0,0
189628913,11.039,11.1616,26.3114,26.2007,0.0,886.604,1.0,1.0,nan,0,0.0,0.0,0.0,0.0,0.0,0.0,0.0,0.0,0.0,0.0,0.0,0,0,0,0,0,0,0,1,0,0,1,0,0
189928793,11.1994,11.1538,26.3407,26.3305,0.0,888.812,1.0,1.0,nan,0,0.0,0.0,0.0,0.0,0.0,0.0,0.0,0.0,0.0,0.0,0.0,0,0,0,0,0,0,0,1,0,0,1,0,0
190228798,10.9952,11.1576,26.0184,26.2202,0.0,890.986,1.0,1.0,nan,0,0.0,0.0,0.0,0.0,0.0,0.0,0.0,0.0,0.0,0.0,0.0,0,0,0,0,0,0,0,1,0,0,1,0,0
190528793,10.9806,11.1544,26.37,26.2413,0.0,893.176,1.0,1.0,nan,0,0.0,0.0,0.0,0.0,0.0,0.0,0.0,0.0,0.0,0.0,0.0,0,0,0,0,0,0,0,1,0,0,1,0,0
190828794,11.2431,11.1644,25.6961,26.1971,0.0,895.357,1.0,1.0,nan,0,0.0,0.0,0.0,0.0,0.0,0.0,0.0,0.0,0.0,0.0,0.0,0,0,0,0,0,0,0,1,0,0,1,0,0
191128829,11.0098,11.1653,25.9891,26.1419,0.0,897.527,1.0,1.0,nan,0,0.0,0.0,0.0,0.0,0.0,0.0,0.0,0.0,0.0,0.0,0.0,0,0,0,0,0,0,0,1,0,0,1,0,0
191428814,11.1994,11.1638,26.0477,26.219,0.0,899.721,1.0,1.0,nan,0,0.0,0.0,0.0,0.0,0.0,0.0,0.0,0.0,0.0,0.0,0.0,0,0,0,0,0,0,0,1,0,0,1,0,0
191728827,11.0244,11.1637,26.5751,26.2601,0.0,901.91,1.0,1.0,nan,0,0.0,0.0,0.0,0.0,0.0,0.0,0.0,0.0,0.0,0.0,0.0,0,0,0,0,0,0,0,1,0,0,1,0,0
192028793,11.1994,11.1653,26.1356,26.1844,0.0,904.084,1.0,1.0,nan,0,0.0,0.0,0.0,0.0,0.0,0.0,0.0,0.0,0.0,0.0,0.0,0,0,0,0,0,0,0,1,0,0,1,0,0
192328798,11.0244,11.1549,26.8095,26.3844,0.0,906.3,1.0,1.0,nan,0,0.0,0.0,0.0,0.0,0.0,0.0,0.0,0.0,0.0,0.0,0.0,0,0,0,0,0,0,0,1,0,0,1,0,0
192628795,11.141,11.1526,26.5458,26.5596,0.0,908.534,1.0,1.0,nan,0,0.0,0.0,0.0,0.0,0.0,0.0,0.0,0.0,0.0,0.0,0.0,0,0,0,0,0,0,0,1,0,0,1,0,0
192929498,11.214,11.153,26.5751,26.548,0.0,910.751,1.0,1.0,nan,0,0.0,0.0,0.0,0.0,0.0,0.0,0.0,0.0,0.0,0.0,0.0,0,0,0,0,0,0,0,1,0,0,1,0,0
193218798,11.1848,11.1469,26.8681,26.602,0.0,912.892,1.0,1.0,nan,0,0.0,0.0,0.0,0.0,0.0,0.0,0.0,0.0,0.0,0.0,0.0,0,0,0,0,0,0,0,1,0,0,1,0,0
193528793,11.1702,11.1463,26.5751,26.714,0.0,915.204,1.0,1.0,nan,0,0.0,0.0,0.0,0.0,0.0,0.0,0.0,0.0,0.0,0.0,0.0,0,0,0,0,0,0,0,1,0,0,1,0,0
193828795,11.214,11.1471,26.663,26.6644,0.0,917.42,1.0,1.0,nan,0,0.0,0.0,0.0,0.0,0.0,0.0,0.0,0.0,0.0,0.0,0.0,0,0,0,0,0,0,0,1,0,0,1,0,0
194128793,10.9806,11.151,25.9305,26.392,0.0,919.594,1.0,1.0,nan,0,0.0,0.0,0.0,0.0,0.0,0.0,0.0,0.0,0.0,0.0,0.0,0,0,0,0,0,0,0,1,0,0,1,0,0
194429007,10.9806,11.1442,26.6044,26.4411,0.0,921.802,1.0,1.0,nan,0,0.0,0.0,0.0,0.0,0.0,0.0,0.0,0.0,0.0,0.0,0.0,0,0,0,0,0,0,0,1,0,0,1,0,0
194728793,10.9369,11.1392,27.0146,26.6464,0.0,924.041,1.0,1.0,nan,0,0.0,0.0,0.0,0.0,0.0,0.0,0.0,0.0,0.0,0.0,0.0,0,0,0,0,0,0,0,1,0,0,1,0,0
195028793,10.9952,11.1352,26.8681,26.6323,0.0,926.258,1.0,1.0,nan,0,0.0,0.0,0.0,0.0,0.0,0.0,0.0,0.0,0.0,0.0,0.0,0,0,0,0,0,0,0,1,0,0,1,0,0
195318793,11.214,11.1289,26.4872,26.6983,0.0,928.417,1.0,1.0,nan,0,0.0,0.0,0.0,0.0,0.0,0.0,0.0,0.0,0.0,0.0,0.0,0,0,0,0,0,0,0,1,0,0,1,0,0
