timestamp,roll,pitch,yaw,thrust_body[0],thrust_body[1],thrust_body[2]
66927516,-0.191613,-0.112605,0.00129955,0.0,0.0,-0.0
66932521,-0.191547,-0.111937,0.00144718,0.0,0.0,-0.0
66952383,-0.190858,-0.111748,0.00133156,0.0,0.0,-0.0
66967189,-0.192125,-0.111454,0.00147691,0.0,0.0,-0.0
66987055,-0.191179,-0.12229,0.00103923,0.0,0.0,-0.0
67011879,-0.190111,-0.123192,0.000528976,0.0,0.0,-0.0
67086440,-0.192163,-0.121391,0.000658113,0.0,0.0,-0.0
67106242,-0.188472,-0.113435,0.000527565,0.0,0.0,-0.0
67126089,-0.19288,-0.113903,0.00121764,0.0,0.0,-0.0
67150810,-0.18914,-0.12451,0.00290283,0.0,0.0,-0.0
67165675,-0.198472,-0.121485,-7.71151e-05,0.0,0.0,-0.0
67185537,-0.187323,-0.125847,0.00124884,0.0,0.0,-0.0
67210440,-0.192178,-0.125517,0.00331025,0.0,0.0,-0.0
67225336,-0.192499,-0.120431,-0.000151051,0.0,0.0,-0.0
67245182,-0.191586,-0.124143,0.00193003,0.0,0.0,-0.0
67270004,-0.192308,-0.124375,0.00237449,0.0,0.0,-0.0
67289964,-0.194206,-0.113785,0.00111491,0.0,0.0,-0.0
67304841,-0.192726,-0.122985,0.00114633,0.0,0.0,-0.0
67329720,-0.194187,-0.125584,0.00239585,0.0,0.0,-0.0
67349531,-0.195269,-0.117028,0.00198306,0.0,0.0,-0.0
67369392,-0.193061,-0.12208,-0.000678121,0.0,0.0,-0.0
67389303,-0.192103,-0.121076,0.00141183,0.0,0.0,-0.0
67409159,-0.198096,-0.125059,0.00343422,0.0,0.0,-0.0
67428996,-0.19496,-0.126344,0.000766151,0.0,0.0,-0.0
67448868,-0.189714,-0.122409,0.000317716,0.0,0.0,-0.0
67468665,-0.194421,-0.120483,0.00262732,0.0,0.0,-0.0
67488533,-0.198866,-0.124289,0.00157346,0.0,0.0,-0.0
67508327,-0.192208,-0.118577,-0.000889894,0.0,0.0,-0.0
67528258,-0.189935,-0.123982,0.00185923,0.0,0.0,-0.0
67548105,-0.197514,-0.119573,0.00359839,0.0,0.0,-0.0
67568042,-0.197741,-0.123604,0.000282403,0.0,0.0,-0.0
67587973,-0.191812,-0.128793,-0.0011287,0.0,0.0,-0.0
67607741,-0.192808,-0.114291,0.0026692,0.0,0.0,-0.0
67627617,-0.196376,-0.11874,0.00376776,0.0,0.0,-0.0
67647571,-0.194902,-0.123816,-0.000117313,0.0,0.0,-0.0
67667399,-0.192811,-0.128392,-0.00100532,0.0,0.0,-0.0
67687275,-0.195624,-0.124392,0.00249376,0.0,0.0,-0.0
67707097,-0.196062,-0.122558,0.00316328,0.0,0.0,-0.0
67726845,-0.193325,-0.12536,0.000428493,0.0,0.0,-0.0
67746701,-0.193742,-0.124592,-0.00022463,0.0,0.0,-0.0
67766548,-0.197257,-0.121741,0.00166197,0.0,0.0,-0.0
67791446,-0.197485,-0.121545,0.00171733,0.0,0.0,-0.0
67806344,-0.19138,-0.128487,0.00107612,0.0,0.0,-0.0
67826318,-0.194975,-0.11122,0.00071044,0.0,0.0,-0.0
67851138,-0.195889,-0.108398,0.000986502,0.0,0.0,-0.0
67866111,-0.194882,-0.118987,0.00128023,0.0,0.0,-0.0
67885921,-0.192372,-0.123002,0.0012583,0.0,0.0,-0.0
67910725,-0.193401,-0.131092,0.00199477,0.0,0.0,-0.0
67930595,-0.193082,-0.11723,0.00107646,0.0,0.0,-0.0
67945539,-0.195665,-0.127929,0.00118506,0.0,0.0,-0.0224725
67970157,-0.195285,-0.130602,0.00108104,0.0,0.0,-0.0436964
67990017,-0.19785,-0.131259,0.00263773,0.0,0.0,-0.114859
68004932,-0.189911,-0.103288,-8.86188e-05,0.0,0.0,-0.225263
68029752,-0.187324,-0.107404,0.000560465,0.0,0.0,-0.245263
68049690,-0.188728,-0.119252,0.00207868,0.0,0.0,-0.268421
68069530,-0.187235,-0.130001,0.00218573,0.0,0.0,-0.311579
68089499,-0.184617,-0.128795,0.0016845,0.0,0.0,-0.311579
68109439,-0.187828,-0.116886,0.00013631,0.0,0.0,-0.314737
68129402,-0.193236,-0.0961651,0.00138723,0.0,0.0,-0.314737
68149122,-0.176536,-0.108125,0.000255929,0.0,0.0,-0.314737
68168951,-0.174026,-0.0962697,0.000386919,0.0,0.0,-0.314737
68188830,-0.173889,-0.0970468,-0.00144191,0.0,0.0,-0.313684
68208697,-0.170003,-0.0914508,0.000524318,0.0,0.0,-0.314737
68228436,-0.166121,-0.0809772,-0.000797355,0.0,0.0,-0.314737
68248338,-0.157183,-0.078519,6.76049e-05,0.0,0.0,-0.314737
68268124,-0.154319,-0.0704231,-0.0024417,0.0,0.0,-0.314737
68288017,-0.158721,-0.0660059,-0.000861367,0.0,0.0,-0.314737
68307933,-0.151455,-0.0671395,-0.0034973,0.0,0.0,-0.314737
68327824,-0.15618,-0.0626138,-0.00143735,0.0,0.0,-0.314737
68347711,-0.146958,-0.0581416,-0.0029572,0.0,0.0,-0.314737
68367549,-0.156769,-0.0640789,-0.00130932,0.0,0.0,-0.314737
68387467,-0.149081,-0.0592625,-0.00223085,0.0,0.0,-0.314737
68407354,-0.153518,-0.0662292,-0.0027059,0.0,0.0,-0.313684
68427207,-0.151728,-0.0679089,-0.00226729,0.0,0.0,-0.313684
68447052,-0.156188,-0.0573206,-0.00197395,0.0,0.0,-0.313684
68466848,-0.152164,-0.0729059,-0.00255258,0.0,0.0,-0.313684
68491613,-0.152016,-0.0679033,-0.00317504,0.0,0.0,-0.313684
68506570,-0.151842,-0.0675566,-0.00400387,0.0,0.0,-0.313684
68526342,-0.160925,-0.066756,-0.00316167,0.0,0.0,-0.313684
68551286,-0.154018,-0.0697357,-0.00378997,0.0,0.0,-0.313684
68566121,-0.153426,-0.0589539,-0.00446494,0.0,0.0,-0.313684
68585982,-0.151738,-0.0564834,-0.00259419,0.0,0.0,-0.313684
68610881,-0.149434,-0.0624582,-0.00326213,0.0,0.0,-0.313684
68625775,-0.151421,-0.049372,-0.00303356,0.0,0.0,-0.313684
68645678,-0.14014,-0.0619717,-0.00579645,0.0,0.0,-0.313684
68670649,-0.140993,-0.0572053,-0.00588599,0.0,0.0,-0.313684
68690288,-0.146926,-0.0548998,-0.00442422,0.0,0.0,-0.313684
68705184,-0.14738,-0.0560619,-0.00395645,0.0,0.0,-0.313684
68730133,-0.148058,-0.0529133,-0.00381921,0.0,0.0,-0.313684
68750002,-0.134245,-0.0676094,-0.00657712,0.0,0.0,-0.313684
68764805,-0.135321,-0.06618,-0.0075376,0.0,0.0,-0.313684
68789673,-0.1366,-0.0561843,-0.00819361,0.0,0.0,-0.313684
68809470,-0.143483,-0.0548286,-0.00732549,0.0,0.0,-0.313684
68829332,-0.142951,-0.0570466,-0.00523778,0.0,0.0,-0.313684
68849200,-0.135904,-0.0554131,-0.00684823,0.0,0.0,-0.313684
68869128,-0.141989,-0.0515934,-0.00484164,0.0,0.0,-0.313684
68889046,-0.138769,-0.042905,-0.00798303,0.0,0.0,-0.313684
68908922,-0.138158,-0.0397017,-0.00651946,0.0,0.0,-0.313684
68928750,-0.137075,-0.0485985,-0.00789912,0.0,0.0,-0.313684
68948513,-0.133528,-0.0523785,-0.0067453,0.0,0.0,-0.313684
68968383,-0.138632,-0.039852,-0.00803739,0.0,0.0,-0.312632
68988245,-0.13566,-0.053182,-0.00684939,0.0,0.0,-0.312632
69008173,-0.131859,-0.045493,-0.00904212,0.0,0.0,-0.313684
69028071,-0.144702,-0.0517171,-0.00791112,0.0,0.0,-0.313684
69047885,-0.133587,-0.0579443,-0.0086976,0.0,0.0,-0.312632
69067771,-0.138302,-0.0426315,-0.00795924,0.0,0.0,-0.313684
69087605,-0.137378,-0.0570888,-0.00759098,0.0,0.0,-0.312632
69107423,-0.136169,-0.0542966,-0.00943366,0.0,0.0,-0.312632
69127310,-0.135294,-0.0526526,-0.00734793,0.0,0.0,-0.312632
69147161,-0.135184,-0.0531121,-0.00951747,0.0,0.0,-0.312632
69166999,-0.131573,-0.0428767,-0.00829713,0.0,0.0,-0.312632
69191935,-0.13378,-0.0400277,-0.0081605,0.0,0.0,-0.312632
69206843,-0.131025,-0.0502039,-0.00865201,0.0,0.0,-0.312632
69226608,-0.131995,-0.0381298,-0.0101036,0.0,0.0,-0.312632
69251597,-0.129618,-0.0402711,-0.0102683,0.0,0.0,-0.312632
69266535,-0.126507,-0.0493567,-0.0103451,0.0,0.0,-0.312632
69286333,-0.137325,-0.0411265,-0.00893889,0.0,0.0,-0.312632
69311239,-0.13258,-0.0426074,-0.010371,0.0,0.0,-0.312632
69326024,-0.134203,-0.0403585,-0.0107595,0.0,0.0,-0.312632
69345797,-0.130178,-0.045502,-0.00976397,0.0,0.0,-0.312632
69370576,-0.131912,-0.0414522,-0.0100779,0.0,0.0,-0.312632
69390498,-0.123115,-0.0409091,-0.011032,0.0,0.0,-0.312632
69405400,-0.127322,-0.0388805,-0.0104518,0.0,0.0,-0.312632
69430217,-0.124767,-0.0384771,-0.0113463,0.0,0.0,-0.312632
69450174,-0.125071,-0.037645,-0.011156,0.0,0.0,-0.312632
69465109,-0.123767,-0.0377642,-0.0116221,0.0,0.0,-0.312632
69489875,-0.126774,-0.0363193,-0.0112459,0.0,0.0,-0.312632
69509761,-0.220964,0.0161523,-0.771211,0.0,0.0,-0.50992
69529621,-0.217048,-0.0484134,-0.24628,0.0,0.0,-0.505541
69549493,-0.161611,0.0214809,0.00889812,0.0,0.0,-0.509245
69569357,-0.0871689,-0.0679457,0.00907886,0.0,0.0,-0.50922
69589126,-0.0969967,0.0182616,0.00449588,0.0,0.0,-0.516037
69608913,-0.038072,-0.0124593,0.000154256,0.0,0.0,-0.520399
69628782,0.0273002,-0.0261728,-0.00292886,0.0,0.0,-0.524925
69648752,0.0441019,-0.00831836,-0.00406072,0.0,0.0,-0.530908
69668597,0.0802482,0.00615446,-0.00357025,0.0,0.0,-0.533365
69688402,0.0597997,-0.0208584,-0.00393902,0.0,0.0,-0.539771
69708325,0.0935953,-0.0333815,-0.0035068,0.0,0.0,-0.542363
69728276,0.122091,-0.0529927,-0.00227255,0.0,0.0,-0.54859
69748230,0.137596,-0.0538896,-0.00213687,0.0,0.0,-0.552563
69767949,0.143495,-0.0896263,-0.00354452,0.0,0.0,-0.558447
69787782,0.150735,-0.0479733,-0.00502551,0.0,0.0,-0.564641
69807655,0.181101,-0.0697684,-0.00542219,0.0,0.0,-0.569729
69827461,0.232035,-0.0673679,-0.00562491,0.0,0.0,-0.576208
69847359,0.168086,-0.0898671,-0.00562113,0.0,0.0,-0.580881
69867178,0.162296,-0.0757169,-0.0045539,0.0,0.0,-0.5855
69892060,0.165851,-0.0667674,-0.00325744,0.0,0.0,-0.591136
69906870,0.186112,-0.0618022,0.000803589,0.0,0.0,-0.595074
69926763,0.196533,-0.0250528,0.00239242,0.0,0.0,-0.600647
69951610,0.210739,-0.0296673,0.00218418,0.0,0.0,-0.605297
69966630,0.195721,-0.0287151,0.00434564,0.0,0.0,-0.610318
69986457,0.176682,-0.0462529,0.00509703,0.0,0.0,-0.615213
70011405,0.240934,-0.0269498,0.00658092,0.0,0.0,-0.620682
70026262,0.274937,0.0206501,0.00591994,0.0,0.0,-0.625853
70046064,0.303463,0.000761573,0.00649438,0.0,0.0,-0.628673
70070953,0.299466,0.0201512,0.00943993,0.0,0.0,-0.632252
70090707,0.292689,-0.00875812,0.0105317,0.0,0.0,-0.634941
70105563,0.223098,0.0170156,0.0116663,0.0,0.0,-0.63731
70130344,0.199651,-0.0132127,0.0122468,0.0,0.0,-0.639809
70150203,0.1774,0.00171162,0.0140285,0.0,0.0,-0.63731
70165165,0.249897,0.0134182,0.0155213,0.0,0.0,-0.63463
70185056,0.300421,0.0531617,0.0145251,0.0,0.0,-0.631147
70209882,0.221932,0.000978566,0.0187761,0.0,0.0,-0.626941
70229752,0.153504,-0.0380537,0.019887,0.0,0.0,-0.621218
70244603,0.0939662,-0.0482492,0.0204334,0.0,0.0,-0.616737
70269591,0.0752189,-0.0622951,0.0201519,0.0,0.0,-0.611894
70289540,0.125957,-0.0389761,0.0199763,0.0,0.0,-0.609403
70309288,0.096687,-0.0413933,0.0207808,0.0,0.0,-0.604557
70329083,0.109205,-0.0463171,0.0215458,0.0,0.0,-0.60061
70348902,0.0803211,-0.0454826,0.0217333,0.0,0.0,-0.5981
70368836,0.0656503,-0.0602926,0.0221596,0.0,0.0,-0.594508
70388601,0.0830662,-0.0475033,0.0211776,0.0,0.0,-0.591554
70408607,0.051285,-0.060389,0.0203975,0.0,0.0,-0.587653
70428523,0.0270902,-0.0499672,0.0186669,0.0,0.0,-0.585622
70448285,0.0164816,-0.0646949,0.0175404,0.0,0.0,-0.581921
70468160,0.0190795,-0.0582709,0.0161196,0.0,0.0,-0.579995
70488000,0.0270828,-0.0599107,0.0148159,0.0,0.0,-0.577267
70507814,0.0423782,-0.0564853,0.0128285,0.0,0.0,-0.574886
70527768,0.0609417,-0.0552784,0.0101617,0.0,0.0,-0.571996
70547782,0.083266,-0.0435693,0.00702636,0.0,0.0,-0.569674
70567454,0.105854,-0.0390675,0.00404794,0.0,0.0,-0.565706
70587380,0.108091,-0.0362615,0.00160338,0.0,0.0,-0.56179
70607216,0.102466,-0.0207359,-0.00111774,0.0,0.0,-0.558384
70627038,0.0862732,-0.0250653,-0.00340183,0.0,0.0,-0.554036
70651883,0.0386053,0.0172603,-0.00417008,0.0,0.0,-0.550539
70666739,0.0261332,0.0200938,-0.00915028,0.0,0.0,-0.546987
70686574,-0.00126961,0.0483769,-0.0124983,0.0,0.0,-0.543018
70706435,-0.0201845,0.0483168,-0.0146809,0.0,0.0,-0.539889
70726372,-0.0140646,0.0561652,-0.0171418,0.0,0.0,-0.535908
70746253,0.00669313,0.0500276,-0.0188968,0.0,0.0,-0.532545
70766140,0.0226411,0.0207208,-0.0200718,0.0,0.0,-0.528602
70790887,0.0384649,0.0164332,-0.020636,0.0,0.0,-0.524964
70805789,0.0404217,0.0066487,-0.0229173,0.0,0.0,-0.521711
70825741,0.0494326,0.0087667,-0.0243558,0.0,0.0,-0.518612
70850507,0.0472128,0.00585668,-0.0260466,0.0,0.0,-0.515647
70870383,0.0442606,0.00293194,-0.0278532,0.0,0.0,-0.512399
70885283,0.0325786,-0.00353632,-0.0275197,0.0,0.0,-0.509381
70910075,0.0163193,-0.00104234,-0.0296599,0.0,0.0,-0.506396
70929985,0.0279848,-0.00700621,-0.0293131,0.0,0.0,-0.503759
70944948,0.0592732,0.0049919,-0.031699,0.0,0.0,-0.501197
70969680,0.0747781,0.015845,-0.0308702,0.0,0.0,-0.499741
70989580,0.0692458,0.0324623,-0.0328755,0.0,0.0,-0.498386
71009354,0.0392271,0.0370624,-0.03482,0.0,0.0,-0.49682
71029168,0.0107932,0.0182969,-0.0358035,0.0,0.0,-0.494029
71049119,0.0387546,0.00803553,-0.0355973,0.0,0.0,-0.490579
71069068,0.0203538,0.00175276,-0.0358281,0.0,0.0,-0.486675
71089042,0.0536137,0.00801455,-0.0353486,0.0,0.0,-0.483843
71108745,0.0534885,0.0407313,-0.0363154,0.0,0.0,-0.48143
71128632,0.0467973,0.0472867,-0.0388721,0.0,0.0,-0.480185
71148519,0.0548565,0.0358809,-0.0400135,0.0,0.0,-0.482364
71168424,0.064289,0.0183852,-0.0399288,0.0,0.0,-0.484576
71188162,0.0832606,-0.019846,-0.0395404,0.0,0.0,-0.486084
71207942,0.0288562,-0.00176713,-0.0383507,0.0,0.0,-0.490233
71227803,-0.000764239,0.00393163,-0.0367323,0.0,0.0,-0.494745
71247760,-0.0611842,0.00836849,-0.0386425,0.0,0.0,-0.499409
71267622,-0.0988963,0.00954185,-0.0390103,0.0,0.0,-0.503411
71287454,-0.0427692,-0.000173577,-0.0379701,0.0,0.0,-0.505521
71307299,-0.0196407,0.00284621,-0.0370919,0.0,0.0,-0.508205
71327212,-0.00835724,0.0246585,-0.0358586,0.0,0.0,-0.511733
71347261,-0.0100882,0.00937019,-0.0337997,0.0,0.0,-0.515352
71367046,-0.0534604,0.0248299,-0.0335281,0.0,0.0,-0.518566
71386880,-0.0773655,0.0155417,-0.032954,0.0,0.0,-0.521605
71406730,-0.10828,0.0147935,-0.0324831,0.0,0.0,-0.524395
71426666,-0.138598,0.0144848,-0.0312851,0.0,0.0,-0.526401
71446514,-0.112181,0.00845424,-0.0298521,0.0,0.0,-0.52811
71466166,-0.114543,0.0161798,-0.0300166,0.0,0.0,-0.530154
71491111,-0.136408,-0.0118125,-0.335084,0.0,0.0,-0.531801
71505979,-0.100595,-0.00770434,-0.0450962,0.0,0.0,-0.532842
71525821,-0.0543405,-0.00918609,-0.0395984,0.0,0.0,-0.533304
71550659,-0.0122212,-0.0102425,-0.036784,0.0,0.0,-0.533989
71570496,-0.0118671,0.0143952,-0.0359093,0.0,0.0,-0.537657
71585410,-0.011648,0.0180018,-0.0320997,0.0,0.0,-0.537657
71610364,-0.0582321,0.0162573,-0.0337169,0.0,0.0,-0.540101
71630307,-0.0789329,0.00311597,-0.0320297,0.0,0.0,-0.541441
71645046,-0.0869489,0.00661896,-0.0299501,0.0,0.0,-0.541441
71669985,-0.0497407,-0.0131779,-0.0288415,0.0,0.0,-0.539835
71689745,-0.0322446,-0.00361865,-0.027926,0.0,0.0,-0.539499
71704650,-0.00902522,-0.00973145,-0.026934,0.0,0.0,-0.541247
71729457,-0.0197311,-0.00364217,-0.0255219,0.0,0.0,-0.541443
71749398,-0.0230564,-0.00426005,-0.0246689,0.0,0.0,-0.541926
71769225,-0.0446478,0.00500228,-0.0238095,0.0,0.0,-0.542221
71789074,-0.0540656,0.0128368,-0.0233355,0.0,0.0,-0.542825
71808875,-0.0520258,0.0199948,-0.0230302,0.0,0.0,-0.543145
71828740,-0.0290077,0.017507,-0.0227932,0.0,0.0,-0.543578
71848612,0.0188121,0.0253816,-0.0228077,0.0,0.0,-0.543801
71868445,0.0333865,0.0111478,-0.0219449,0.0,0.0,-0.543466
71888447,0.0292734,0.0176089,-0.0217721,0.0,0.0,-0.543909
71908282,0.0126871,0.0201786,-0.0210496,0.0,0.0,-0.543934
71928227,-0.00279102,0.0243712,-0.0199999,0.0,0.0,-0.544021
71948034,0.00400215,0.0323686,-0.0190731,0.0,0.0,-0.543705
71967898,0.0173586,0.0478733,-0.0184765,0.0,0.0,-0.543756
71987822,0.0276457,0.0386456,-0.0172317,0.0,0.0,-0.543384
72007772,0.0293524,0.0637515,-0.0169567,0.0,0.0,-0.543561
72027685,0.0146648,0.0418469,-0.0161438,0.0,0.0,-0.543234
72047182,0.013038,0.0581633,-0.0156471,0.0,0.0,-0.542443
72067115,-0.00737513,0.0465874,-0.0149003,0.0,0.0,-0.542253
72086999,-0.0106498,0.0477207,-0.0144353,0.0,0.0,-0.541192
72106828,-0.00969436,0.0209795,-0.013651,0.0,0.0,-0.541056
72126718,0.0218706,0.0312524,-0.0134876,0.0,0.0,-0.540392
72146624,0.0339465,0.013645,-0.0128542,0.0,0.0,-0.54057
72166601,0.0320344,0.0166111,-0.0123442,0.0,0.0,-0.540664
72191351,-0.0457481,0.0231428,-0.0110829,0.0,0.0,-0.544377
72206303,-0.0532862,0.0163385,-0.0103082,0.0,0.0,-0.544532
72226112,-0.0594173,-0.00218033,-0.00879048,0.0,0.0,-0.543202
72251012,-0.0541072,-0.00865615,-0.00992311,0.0,0.0,-0.543504
72265740,-0.0310454,-0.0217919,-0.00690937,0.0,0.0,-0.543143
72285569,-0.00377348,-0.0179536,-0.00699183,0.0,0.0,-0.543149
72310397,0.0160331,-0.0308881,-0.00828003,0.0,0.0,-0.543193
72330328,0.0272686,-0.0167852,-0.00770161,0.0,0.0,-0.543259
72345198,0.0184743,-0.0182805,-0.00715077,0.0,0.0,-0.543665
72370033,0.0175646,-0.00777473,-0.00706274,0.0,0.0,-0.543981
72389894,-0.000551747,-0.00816726,-0.0063632,0.0,0.0,-0.544429
72409854,-0.00916154,-0.00333294,-0.00597407,0.0,0.0,-0.545161
72429893,-0.0342198,0.000487503,-0.00573257,0.0,0.0,-0.546005
72449586,-0.0379445,-0.00181335,-0.00539156,0.0,0.0,-0.546756
72469411,-0.0181964,-0.00700315,-0.00463474,0.0,0.0,-0.548144
72489286,-0.0145228,0.00149596,-0.00407751,0.0,0.0,-0.548501
72509209,-0.0278094,-0.00280263,-0.00338048,0.0,0.0,-0.548089
72529058,-0.0424346,0.000506166,-0.00232884,0.0,0.0,-0.548566
72548831,-0.0479231,-0.00373533,-0.00147327,0.0,0.0,-0.548707
72568646,-0.0261412,-0.0167832,-0.000506033,0.0,0.0,-0.548605
72588483,-0.00455628,-0.00517065,-0.00100758,0.0,0.0,-0.54836
72608414,-0.00216464,-0.00717086,-0.00155586,0.0,0.0,-0.548686
72628247,-0.00518908,0.00352326,-0.00252469,0.0,0.0,-0.549231
72648167,-0.00906709,0.00455975,-0.0031207,0.0,0.0,-0.549492
72668047,0.00557148,0.0134809,-0.0036839,0.0,0.0,-0.550053
72687975,0.00832192,0.0216095,-0.00432513,0.0,0.0,-0.550999
72707882,0.0264489,0.0252893,-0.00467055,0.0,0.0,-0.551359
72727628,0.00632569,0.0249896,-0.00483202,0.0,0.0,-0.552512
72747456,-0.0162589,0.0247464,-0.00486464,0.0,0.0,-0.55319
72767450,-0.0415163,0.013552,-0.00451679,0.0,0.0,-0.553728
72787292,-0.054219,0.0107355,-0.00410772,0.0,0.0,-0.55416
72807050,-0.0345224,0.00528336,-0.00367413,0.0,0.0,-0.554562
72831963,-0.00550387,-0.00357803,-0.00337681,0.0,0.0,-0.558134
72846770,0.00483271,-0.00474563,-0.00370079,0.0,0.0,-0.558138
72866618,0.0190357,-0.0188796,-0.00358808,0.0,0.0,-0.558221
72891524,0.0068152,-0.0120873,-0.00383522,0.0,0.0,-0.55765
72906390,-0.00362299,-0.0114114,-0.0025743,0.0,0.0,-0.557566
72926268,-0.00904613,-0.0035683,-0.0024425,0.0,0.0,-0.557156
72951157,-0.019089,-0.00220699,-0.00483357,0.0,0.0,-0.5571
72971062,-0.0312095,-0.0118576,-0.00498798,0.0,0.0,-0.556866
72985853,-0.0467827,-0.00772182,-0.00245755,0.0,0.0,-0.556406
73010753,0.0463409,0.0005881,-0.00565806,0.0,0.0,-0.55627
73030507,0.0219158,0.00969523,-0.00568949,0.0,0.0,-0.558972
73045451,0.0153257,0.0145647,-0.0036567,0.0,0.0,-0.558972
73070237,-0.0397283,0.00438721,0.0799939,0.0,0.0,-0.557714
73090293,-0.165043,-0.0397876,-0.826458,0.0,0.0,-0.554209
73105122,-0.178054,-0.0385907,-0.830492,0.0,0.0,-0.554209
73129912,-0.293486,-0.0488504,-0.903521,0.0,0.0,-0.551157
73149727,-0.337102,0.0105308,-0.933437,0.0,0.0,-0.548396
73169666,-0.301494,0.00244573,-0.958618,0.0,0.0,-0.544459
73184454,-0.289165,0.0281935,-0.939667,0.0,0.0,-0.544459
73209318,-0.400072,0.0232784,-0.996519,0.0,0.0,-0.541607
73229178,-0.42363,0.0174653,-1.00875,0.0,0.0,-0.540727
73249291,-0.385122,-0.0125889,-1.02459,0.0,0.0,-0.53825
73268940,-0.371744,-0.048771,-1.03646,0.0,0.0,-0.537008
73288787,-0.388678,-0.0475897,-1.04595,0.0,0.0,-0.537523
73308651,-0.415996,-0.078048,-1.05277,0.0,0.0,-0.538052
73328544,-0.462415,-0.0697461,-1.05683,0.0,0.0,-0.539183
73348356,-0.39484,-0.0684019,-1.06266,0.0,0.0,-0.539599
73368185,-0.435744,-0.0728048,-1.06555,0.0,0.0,-0.542586
73388112,-0.487433,-0.0519456,-1.06772,0.0,0.0,-0.54542
73407962,-0.409662,-0.0329826,-1.06965,0.0,0.0,-0.54615
73427832,-0.451062,-0.076338,-1.07567,0.0,0.0,-0.549022
73447648,-0.514308,-0.0817486,-1.07397,0.0,0.0,-0.550926
73467451,-0.480348,-0.11169,-1.0733,0.0,0.0,-0.550813
73487373,-0.456241,-0.112694,-1.07489,0.0,0.0,-0.553006
73507375,-0.467247,-0.119499,-1.07141,0.0,0.0,-0.557302
73527196,-0.495689,-0.126256,-1.06696,0.0,0.0,-0.55963
73547056,-0.432637,-0.123918,-1.06319,0.0,0.0,-0.559632
73566920,-0.401997,-0.149545,-1.06231,0.0,0.0,-0.561496
73591721,-0.359881,-0.104658,-1.04235,0.0,0.0,-0.563227
73606591,-0.296392,-0.0804397,-1.05216,0.0,0.0,-0.564762
73626527,-0.20027,-0.0487074,-1.0428,0.0,0.0,-0.563515
73651317,-0.0939108,-0.0359304,-1.02406,0.0,0.0,-0.562612
73671175,-0.0338686,0.00141193,-1.01382,0.0,0.0,-0.562188
73686027,-0.00447172,0.00986216,-1.02009,0.0,0.0,-0.563884
73710797,0.0475632,0.036157,-0.995715,0.0,0.0,-0.5642
73730696,0.0950818,0.0578795,-0.987223,0.0,0.0,-0.563626
73745610,0.162037,0.0457171,-0.990891,0.0,0.0,-0.562717
73765603,0.170753,0.0779579,-0.982006,0.0,0.0,-0.562114
73790427,0.187536,0.0774023,-0.964067,0.0,0.0,-0.56237
73810218,0.260194,0.121635,-0.964114,0.0,0.0,-0.563249
73825111,0.23865,0.111684,-0.927507,0.0,0.0,-0.563249
73849909,0.275137,0.130561,-0.949551,0.0,0.0,-0.562791
73869726,0.305842,0.132752,-0.939823,0.0,0.0,-0.562174
73884693,0.302505,0.137794,-0.923391,0.0,0.0,-0.56241
73909572,0.309472,0.141696,-0.906439,0.0,0.0,-0.56264
73929431,0.3451,0.167585,-0.917268,0.0,0.0,-0.56362
73949293,0.321834,0.166002,-0.910209,0.0,0.0,-0.563767
73969072,0.289239,0.184436,-0.904034,0.0,0.0,-0.563688
73988938,0.293323,0.176223,-0.894447,0.0,0.0,-0.562144
74008817,0.290371,0.184647,-0.891296,0.0,0.0,-0.565176
74028792,0.27739,0.205558,-0.8863,0.0,0.0,-0.569953
74048759,0.278046,0.217798,-0.882145,0.0,0.0,-0.575721
74068438,0.278859,0.227801,-0.878242,0.0,0.0,-0.580733
74088306,0.251585,0.210269,-0.87167,0.0,0.0,-0.583142
74108157,0.189145,0.170211,-0.865992,0.0,0.0,-0.583793
74128049,0.138019,0.136011,-0.860027,0.0,0.0,-0.584173
74147861,0.111906,0.100047,-0.85515,0.0,0.0,-0.584166
74167790,0.107073,0.0727727,-0.850133,0.0,0.0,-0.583936
74187636,0.104934,0.0510512,-0.84771,0.0,0.0,-0.583815
74207502,0.0826156,0.0478412,-0.843193,0.0,0.0,-0.583919
74227306,0.0657342,0.026789,-0.838634,0.0,0.0,-0.584136
74247119,0.0468356,0.0219117,-0.834157,0.0,0.0,-0.584765
74266975,0.0506186,-0.00734176,-0.827423,0.0,0.0,-0.584249
74286951,0.0300843,-0.0294589,-0.822853,0.0,0.0,-0.583777
74306868,0.01156,-0.0522636,-0.819192,0.0,0.0,-0.582399
74326802,-0.0179653,-0.0637887,-0.815869,0.0,0.0,-0.581189
74346505,-0.0341102,-0.0755686,-0.812222,0.0,0.0,-0.57965
74366551,-0.0743129,-0.0686136,-0.811502,0.0,0.0,-0.57765
74386432,-0.07653,-0.0844022,-0.809183,0.0,0.0,-0.575716
74406171,-0.0903674,-0.0867015,-0.807488,0.0,0.0,-0.574075
74431090,-0.076006,-0.0876078,-0.79599,0.0,0.0,-0.572533
74445901,-0.071049,-0.0956299,-0.801862,0.0,0.0,-0.571222
74465716,-0.0566418,-0.0768612,-0.800907,0.0,0.0,-0.570358
74490582,-0.0443223,-0.075731,-0.788602,0.0,0.0,-0.569681
74505388,-0.0512958,-0.0691286,-0.797531,0.0,0.0,-0.569207
74525269,-0.0573248,-0.0634784,-0.795977,0.0,0.0,-0.569216
74550117,-0.0624063,-0.0669564,-0.784824,0.0,0.0,-0.568881
74570011,-0.0659522,-0.0821063,-0.783043,0.0,0.0,-0.568731
74585029,-0.0761475,-0.0611725,-0.794029,0.0,0.0,-0.568909
74609815,-0.0378548,-0.0904084,-0.792036,0.0,0.0,-0.567378
74629633,-0.0523882,-0.0663253,-0.78963,0.0,0.0,-0.566736
74649512,-0.0556408,-0.087005,-0.788593,0.0,0.0,-0.566674
74669263,-0.0793771,-0.075039,-0.78789,0.0,0.0,-0.566375
74689124,-0.0587307,-0.0767325,-0.787209,0.0,0.0,-0.566148
74708958,-0.043113,-0.07311,-0.788592,0.0,0.0,-0.565669
74728868,-0.017319,-0.0492987,-0.78914,0.0,0.0,-0.565756
74748715,-0.0189869,-0.059809,-0.789371,0.0,0.0,-0.566273
74768634,-0.0114079,-0.0473405,-0.789263,0.0,0.0,-0.56648
74788445,-0.0082965,-0.0699746,-0.788299,0.0,0.0,-0.567001
74808298,-0.011151,-0.0592708,-0.786691,0.0,0.0,-0.567061
74828189,-0.00486895,-0.067922,-0.782619,0.0,0.0,-0.567307
74848203,-0.0286021,-0.0866901,-0.781462,0.0,0.0,-0.56615
74868005,-0.0302214,-0.0864163,-0.78207,0.0,0.0,-0.56554
74887820,-0.0362728,-0.0768491,-0.782581,0.0,0.0,-0.565459
74907740,-0.0283593,-0.0755777,-0.783146,0.0,0.0,-0.565067
74927613,0.0190417,-0.0699949,-0.783669,0.0,0.0,-0.565344
74947526,0.0598108,-0.0559361,-0.435737,0.0,0.0,-0.565752
74967278,0.0926079,-0.0380354,0.0656878,0.0,0.0,-0.566403
74987030,0.0459169,-0.0257866,0.103178,0.0,0.0,-0.568103
75006889,0.0151066,-0.0375857,0.132326,0.0,0.0,-0.567883
75026774,0.0269444,-0.0580312,0.156344,0.0,0.0,-0.565981
75046688,-0.00628662,-0.0722275,0.176659,0.0,0.0,-0.56406
75071553,-0.0153446,-0.12309,0.198436,0.0,0.0,-0.563061
75086474,-0.0061511,-0.111473,0.211052,0.0,0.0,-0.561927
75106379,-0.00779499,-0.100493,0.223144,0.0,0.0,-0.563322
75131300,-0.0558831,-0.0594923,0.234985,0.0,0.0,-0.564093
75146163,-0.035276,-0.066131,0.239488,0.0,0.0,-0.564083
75165956,-0.0178039,-0.0499921,0.247721,0.0,0.0,-0.564553
75190858,-0.013668,-0.0644645,0.256316,0.0,0.0,-0.564723
75210623,0.0492452,-0.0708341,0.262471,0.0,0.0,-0.564585
75225451,0.0221671,-0.0822023,0.264944,0.0,0.0,-0.564585
75250240,0.0153905,-0.0857325,0.267005,0.0,0.0,-0.564774
75270101,0.0182706,-0.10724,0.267779,0.0,0.0,-0.56567
75285075,0.00212171,-0.0875001,0.266483,0.0,0.0,-0.564961
75309910,0.0232092,-0.0722185,0.263741,0.0,0.0,-0.567391
75329792,-0.0171002,-0.0332076,0.260708,0.0,0.0,-0.568618
75349670,-0.0148885,-0.0445638,0.260237,0.0,0.0,-0.569688
75369545,-0.00875176,-0.0461515,0.260745,0.0,0.0,-0.570102
75389457,-0.00972846,-0.0424821,0.25724,0.0,0.0,-0.570211
75409309,-0.0258344,-0.0365577,0.253557,0.0,0.0,-0.571336
75429084,-0.0117809,-0.0440951,0.247426,0.0,0.0,-0.572344
75448941,0.00256209,-0.054266,0.243376,0.0,0.0,-0.571994
75468870,0.000785677,-0.0555057,0.238141,0.0,0.0,-0.573022
75488682,-0.0155707,-0.0443834,0.230283,0.0,0.0,-0.57326
75508573,-0.0291651,-0.0257329,0.222778,0.0,0.0,-0.574097
75528437,-0.0240046,-0.0410102,0.214996,0.0,0.0,-0.573867
75548292,-0.0214336,-0.0316812,0.203868,0.0,0.0,-0.573286
75568091,-0.0208997,-0.0427207,0.190141,0.0,0.0,-0.573044
75587964,-0.0180328,-0.0433225,0.184325,0.0,0.0,-0.572768
75607917,-0.00970365,-0.0345581,0.176863,0.0,0.0,-0.572491
75627759,-0.0173471,-0.0394967,0.169116,0.0,0.0,-0.572653
75647686,-0.0163465,-0.0458885,0.161832,0.0,0.0,-0.572743
75667711,0.00323476,-0.0327302,0.153222,0.0,0.0,-0.572923
75687295,-0.0438262,-0.0431424,0.146587,0.0,0.0,-0.573426
75707173,-0.0550035,-0.0393499,0.136834,0.0,0.0,-0.573169
75727125,-0.0356868,-0.0410813,0.129144,0.0,0.0,-0.572741
75746980,-0.0211196,-0.0221875,0.118337,0.0,0.0,-0.572115
75771943,-0.0336872,-0.0139954,0.101666,0.0,0.0,-0.5725
75786730,-0.021345,-0.00154651,0.0969028,0.0,0.0,-0.572025
75806516,-0.00682832,-0.00805154,0.090401,0.0,0.0,-0.572022
75831360,0.0115929,0.00446946,0.0823679,0.0,0.0,-0.571424
75846254,0.0145861,-0.0298938,0.0785757,0.0,0.0,-0.571707
75866133,0.0151099,-0.0102847,0.0716403,0.0,0.0,-0.571986
75890885,0.0112948,-0.0182899,0.0644078,0.0,0.0,-0.572916
75905866,0.0251263,-0.0194158,0.0585797,0.0,0.0,-0.572787
75925745,0.0339816,-0.00335413,0.0532437,0.0,0.0,-0.573212
75950599,0.0203501,-0.0108763,0.0444518,0.0,0.0,-0.574688
75970394,-0.0290719,-0.0292162,0.0343733,0.0,0.0,-0.57204
75985302,-0.00479881,-0.0452662,0.0307508,0.0,0.0,-0.572435
76010135,0.00383377,-0.0370324,0.0213568,0.0,0.0,-0.572019
76029971,0.050714,-0.0368563,0.0162137,0.0,0.0,-0.572302
76044935,0.0542204,-0.0354823,0.0156355,0.0,0.0,-0.572302
76069787,0.0474831,-0.0376745,0.00842161,0.0,0.0,-0.573418
76089584,0.022065,-0.0166936,0.00439008,0.0,0.0,-0.573247
76109441,-0.0189597,-0.0161066,-0.00206215,0.0,0.0,-0.574068
76129220,-0.0328555,-0.000311573,-0.00448909,0.0,0.0,-0.574108
76149065,-0.0371551,-0.00814682,-0.0154864,0.0,0.0,-0.573867
76168935,-0.0295939,-0.0147329,-0.02612,0.0,0.0,-0.572663
76188937,-0.0345801,-0.0202934,-0.025978,0.0,0.0,-0.571566
76208902,-0.000587169,-0.0256566,-0.0246478,0.0,0.0,-0.569843
76228635,-0.0177879,-0.0342533,-0.0251168,0.0,0.0,-0.568157
76248488,-0.0139378,-0.0418067,-0.0271402,0.0,0.0,-0.566669
76268359,-0.0239214,-0.0340117,-0.0303443,0.0,0.0,-0.565271
76288342,-0.0225853,-0.01799,-0.0337451,0.0,0.0,-0.565152
76308226,-0.00937059,-0.00810704,-0.0375171,0.0,0.0,-0.565015
76327981,0.00322354,-0.00372132,-0.0381654,0.0,0.0,-0.565071
76347744,0.0132897,-0.00754861,-0.0460456,0.0,0.0,-0.564694
76367573,0.00447673,-0.00444212,-0.0535142,0.0,0.0,-0.565052
76387440,-0.0243958,-0.0101928,-0.0560108,0.0,0.0,-0.565165
76407306,-0.0313908,-0.016751,-0.057202,0.0,0.0,-0.565958
76427227,-0.0253892,-0.0143134,-0.058965,0.0,0.0,-0.5662
76447164,-0.0230825,-0.0246175,-0.057067,0.0,0.0,-0.566302
76467166,-0.00457214,-0.0182879,-0.0577261,0.0,0.0,-0.566111
76486917,-0.0146518,-0.0192159,-0.0568108,0.0,0.0,-0.566404
76506723,-0.023789,-0.0153431,-0.0581789,0.0,0.0,-0.566486
76531687,-0.0355574,-0.0177089,-0.059144,0.0,0.0,-0.566666
76546534,-0.0373576,-0.000173361,-0.0558312,0.0,0.0,-0.566444
76566313,-0.0308798,0.00813624,-0.0513835,0.0,0.0,-0.567258
76591136,-0.0181476,0.00293154,-0.0488742,0.0,0.0,-0.567949
76605981,0.01351,-0.00716859,-0.0476595,0.0,0.0,-0.568512
76625798,0.0199815,-0.00528374,-0.0463704,0.0,0.0,-0.569044
76650634,0.00195986,0.00154253,-0.0452244,0.0,0.0,-0.570586
76670496,0.00189122,0.00718835,-0.0449994,0.0,0.0,-0.571262
76685413,-0.00894413,0.00131617,-0.044021,0.0,0.0,-0.571741
76710351,-0.0232091,-0.0100774,-0.0449189,0.0,0.0,-0.571691
76730296,-0.0291544,-0.0223766,-0.0420764,0.0,0.0,-0.571123
76750106,-0.0455775,-0.0178754,-0.039861,0.0,0.0,-0.57128
76769974,-0.0304194,-0.0287035,-0.0371894,0.0,0.0,-0.571178
76789829,-0.00101919,-0.0201928,-0.0352013,0.0,0.0,-0.571097
76809666,0.0289688,-0.0222178,-0.0321903,0.0,0.0,-0.570571
76824489,0.0472538,-0.0107074,-0.029418,0.0,0.0,-0.567785
76849312,0.0364716,0.00985899,-0.0276458,0.0,0.0,-0.569482
76869211,0.0305662,-0.0118405,-0.0256347,0.0,0.0,-0.569932
76884099,0.0450401,0.00053056,-0.0266817,0.0,0.0,-0.570526
76908942,0.040755,0.0153858,-0.0206849,0.0,0.0,-0.571794
76928858,0.0445033,0.00687404,-0.0187096,0.0,0.0,-0.572432
76948752,0.0128996,-0.000471976,-0.0356671,0.0,0.0,-0.573153
76968567,-0.0175418,-6.7273e-05,-0.0588701,0.0,0.0,-0.573048
76988523,-0.0309501,-0.00835536,-0.0570788,0.0,0.0,-0.572397
77008466,-0.000814481,0.00432093,0.495601,0.0,0.0,-0.571853
77028207,-0.00515027,-0.0184529,0.000464756,0.0,0.0,-0.570547
77048061,0.0186398,0.0023649,-0.00396544,0.0,0.0,-0.571495
77067881,0.0558355,0.0115948,-0.00655738,0.0,0.0,-0.571308
77087738,0.111624,0.00877048,-0.00902444,0.0,0.0,-0.57125
77107578,0.150417,-0.00532676,-0.0100045,0.0,0.0,-0.571545
77127452,0.189117,-0.00541264,-0.0109155,0.0,0.0,-0.571657
77147288,0.203087,-0.0280884,-0.0104713,0.0,0.0,-0.571028
77172120,0.215795,-0.0137429,-0.0105444,0.0,0.0,-0.570004
77187065,0.15208,-0.0285073,-0.00944212,0.0,0.0,-0.56873
77206914,0.065961,-0.018578,-0.00956419,0.0,0.0,-0.566587
77231749,-0.0254886,-0.0298961,-0.0119668,0.0,0.0,-0.565217
77246663,-0.0493227,-0.012212,-0.01076,0.0,0.0,-0.56331
77266625,-0.0714534,0.013112,-0.0127252,0.0,0.0,-0.561413
77291313,-0.0619128,0.00974254,-0.0140051,0.0,0.0,-0.561536
77306349,-0.103343,0.0293875,-0.0150226,0.0,0.0,-0.561299
77326180,-0.167789,0.0394836,-0.0152928,0.0,0.0,-0.565882
77350986,-0.141085,-0.000885147,-0.0148932,0.0,0.0,-0.566523
77370843,-0.148543,-0.00293617,-0.0156341,0.0,0.0,-0.566302
77385657,-0.1035,-0.0191273,-0.0158718,0.0,0.0,-0.566486
77405511,-0.0854207,-0.00537504,-0.0167276,0.0,0.0,-0.566851
77430403,-0.0593205,-0.00792804,-0.0161159,0.0,0.0,-0.567364
77450252,-0.0492756,-0.00948758,-0.0164658,0.0,0.0,-0.56745
77465146,-0.0424631,-0.0172172,-0.0158601,0.0,0.0,-0.566719
77489981,-0.0385901,-0.013067,-0.0178525,0.0,0.0,-0.56642
77509764,-0.0478118,-0.02272,-0.0182185,0.0,0.0,-0.566316
77524669,-0.0639219,-0.0166822,-0.0157924,0.0,0.0,-0.566427
77549812,-0.0298918,-0.0296848,-0.0174496,0.0,0.0,-0.567032
77569448,-0.0231876,-0.0237509,-0.0169445,0.0,0.0,-0.566636
77589306,-0.0203739,-0.0182214,-0.0169769,0.0,0.0,-0.567863
77609168,-0.0355207,-0.0218326,-0.0165167,0.0,0.0,-0.568554
77629052,-0.0389819,-0.0143393,-0.0165243,0.0,0.0,-0.569291
77648866,-0.030909,-0.00211678,-0.0169854,0.0,0.0,-0.569654
77668700,-0.0226051,0.00480451,-0.0174239,0.0,0.0,-0.570522
77688713,-0.0149082,0.000880958,-0.0176696,0.0,0.0,-0.57089
77708557,0.0042737,-0.0200252,-0.0176526,0.0,0.0,-0.570881
77728407,0.0123714,-0.0146449,-0.0177486,0.0,0.0,-0.57021
77748119,-0.00530247,-0.0219532,-0.0177208,0.0,0.0,-0.570638
77767968,-0.0142343,-0.0180464,-0.0175352,0.0,0.0,-0.570406
77787853,0.0250177,-0.0322591,-0.0165119,0.0,0.0,-0.570297
77807867,0.0128255,-0.0220294,-0.0159388,0.0,0.0,-0.569705
77827669,0.00960993,-0.0131342,-0.0160898,0.0,0.0,-0.570388
77847513,-0.00625907,-0.00421116,-0.0161048,0.0,0.0,-0.57081
77867453,-0.00137628,-0.0177682,-0.0155108,0.0,0.0,-0.571329
77887373,0.0139992,0.00580228,-0.0154652,0.0,0.0,-0.57131
77907224,0.0306777,-0.00982653,-0.0149662,0.0,0.0,-0.571698
77932025,0.0204634,-0.000813437,-0.0156343,0.0,0.0,-0.572493
77946803,0.0172904,0.000165977,-0.0140314,0.0,0.0,-0.572575
77966661,0.00627446,0.00678675,-0.0141827,0.0,0.0,-0.572454
77986478,0.0198274,0.0291267,-0.0147984,0.0,0.0,-0.572369
78006407,-0.00897434,0.0171803,-0.0148332,0.0,0.0,-0.571682
78026259,-0.0305024,0.00900307,-0.0146195,0.0,0.0,-0.571639
78046150,0.0456056,0.0758713,0.812891,0.0,0.0,-0.569492
78071070,0.105,0.11601,0.853914,0.0,0.0,-0.568832
78086240,0.146564,0.169528,0.884755,0.0,0.0,-0.567815
78105709,0.275854,0.230831,0.921486,0.0,0.0,-0.566904
78130638,0.304089,0.26052,0.938525,0.0,0.0,-0.564989
78150457,0.26761,0.274363,0.956085,0.0,0.0,-0.562092
78165393,0.267346,0.299621,0.97894,0.0,0.0,-0.562052
78190148,0.325422,0.291208,0.981964,0.0,0.0,-0.562476
78210071,0.402315,0.320697,0.993174,0.0,0.0,-0.565274
78224935,0.384137,0.355675,1.00895,0.0,0.0,-0.566487
78249822,0.413646,0.316687,1.00909,0.0,0.0,-0.566169
78269689,0.356915,0.314524,1.01686,0.0,0.0,-0.565735
78284577,0.387352,0.315395,1.02855,0.0,0.0,-0.566608
78309369,0.324483,0.319313,1.02077,0.0,0.0,-0.567787
78329190,0.366752,0.290802,1.02639,0.0,0.0,-0.568673
78349113,0.394376,0.330693,1.02361,0.0,0.0,-0.572401
78368979,0.427298,0.33264,1.02367,0.0,0.0,-0.574582
78388832,0.363919,0.356524,1.03266,0.0,0.0,-0.573758
78408682,0.292606,0.351179,1.02734,0.0,0.0,-0.574283
78428577,0.280336,0.376138,1.0232,0.0,0.0,-0.576084
78448394,0.259582,0.390574,1.01843,0.0,0.0,-0.57856
78468325,0.242341,0.40587,1.01083,0.0,0.0,-0.579822
78488249,0.259214,0.397624,1.0054,0.0,0.0,-0.581539
78508022,0.234646,0.408853,0.999098,0.0,0.0,-0.582419
78527873,0.246232,0.391339,0.994066,0.0,0.0,-0.583148
78547751,0.234261,0.384356,0.986264,0.0,0.0,-0.582461
78567498,0.218506,0.319935,0.984646,0.0,0.0,-0.583007
78587386,0.191321,0.253419,0.983133,0.0,0.0,-0.582226
78607292,0.139922,0.138652,0.986843,0.0,0.0,-0.581913
78627319,0.105764,0.0743084,0.982414,0.0,0.0,-0.581263
78647102,0.0570168,-0.0268901,0.983349,0.0,0.0,-0.579706
78667005,0.0257363,-0.0571495,0.979195,0.0,0.0,-0.58031
78686824,0.00224966,-0.11441,0.97923,0.0,0.0,-0.580103
78706648,-0.00471822,-0.135485,0.976391,0.0,0.0,-0.580068
78726492,-0.00958498,-0.189291,0.97868,0.0,0.0,-0.580336
78746413,-0.0383731,-0.217504,0.976664,0.0,0.0,-0.57926
78771229,-0.0580017,-0.217129,0.95821,0.0,0.0,-0.580807
78786040,-0.133012,-0.175432,0.964774,0.0,0.0,-0.579684
78805898,-0.161279,-0.184817,0.959396,0.0,0.0,-0.579668
78830682,-0.21806,-0.167583,0.937621,0.0,0.0,-0.577765
78850551,-0.256272,-0.169111,0.933483,0.0,0.0,-0.577837
78865517,-0.306343,-0.134066,0.938631,0.0,0.0,-0.576891
78890572,-0.334714,-0.116602,0.917671,0.0,0.0,-0.57707
78910294,-0.340119,-0.108067,0.914923,0.0,0.0,-0.576463
78925234,-0.311569,-0.0926602,0.878577,0.0,0.0,-0.576463
78949980,-0.410351,-0.0642413,0.910907,0.0,0.0,-0.576306
78969852,-0.420954,-0.0753348,0.906097,0.0,0.0,-0.575282
78984717,-0.380948,-0.0683117,0.868699,0.0,0.0,-0.575282
79009454,-0.400982,-0.0509796,0.871162,0.0,0.0,-0.574121
79029327,-0.41046,-0.0454053,0.864664,0.0,0.0,-0.573748
79049201,-0.453574,-0.0246322,0.876245,0.0,0.0,-0.573281
79069170,-0.446836,-0.0178112,0.86995,0.0,0.0,-0.573032
79088967,-0.465047,0.00163269,0.865141,0.0,0.0,-0.573319
79108824,-0.438994,-0.0356125,0.85852,0.0,0.0,-0.577435
79128790,-0.416876,-0.0745642,0.856562,0.0,0.0,-0.578104
79148639,-0.377686,-0.107454,0.852287,0.0,0.0,-0.578702
79168659,-0.357093,-0.137138,0.845518,0.0,0.0,-0.579242
79188405,-0.348137,-0.165924,0.8407,0.0,0.0,-0.580206
79208256,-0.271059,-0.111442,0.833607,0.0,0.0,-0.580348
79228236,-0.183325,-0.0508282,0.828217,0.0,0.0,-0.580392
79248041,-0.0949957,-0.00811157,0.823406,0.0,0.0,-0.580227
79267715,-0.0186166,0.0246272,0.819118,0.0,0.0,-0.580053
79287566,0.0309705,0.0149044,0.815754,0.0,0.0,-0.579295
79307468,0.0358758,0.0115486,0.814512,0.0,0.0,-0.578512
79327405,0.0309553,0.0143087,0.810656,0.0,0.0,-0.578019
79347206,0.0258301,0.00236601,0.807797,0.0,0.0,-0.577397
79367114,0.0211366,0.0130716,0.804365,0.0,0.0,-0.577161
79386954,0.0379331,0.00287577,0.798943,0.0,0.0,-0.576903
79411850,0.0612302,0.00693969,0.782905,0.0,0.0,-0.576713
79426963,0.0897805,0.0372721,0.79142,0.0,0.0,-0.576311
79446616,0.105718,0.0281717,0.788536,0.0,0.0,-0.576581
79471500,0.0876466,0.0392301,0.774616,0.0,0.0,-0.576532
79486375,0.0894108,0.0199345,0.78672,0.0,0.0,-0.576406
79506135,0.0928789,0.0190009,0.784677,0.0,0.0,-0.576075
79530924,0.087385,0.010633,0.772063,0.0,0.0,-0.575604
79545782,0.0884724,0.0150383,0.780155,0.0,0.0,-0.57594
79565650,0.0707666,0.0065816,0.77679,0.0,0.0,-0.576129
79590544,0.0604999,0.00596341,0.765159,0.0,0.0,-0.576055
79610446,0.0600949,0.0104135,0.763597,0.0,0.0,-0.575954
79625335,0.0536462,0.0272645,0.772684,0.0,0.0,-0.576394
79650168,0.0387508,0.0167419,0.759977,0.0,0.0,-0.576385
79669996,0.0592608,0.00336003,0.761421,0.0,0.0,-0.575412
79690012,0.0598842,0.0046416,0.759481,0.0,0.0,-0.574631
79704942,0.0292928,-0.0029783,0.773502,0.0,0.0,-0.573675
79729754,0.0709249,0.0454619,0.76912,0.0,0.0,-0.575722
79749496,0.0584944,0.0375025,0.766355,0.0,0.0,-0.575803
79769318,0.0546645,0.0413222,0.746816,0.0,0.0,-0.575765
79789154,0.0397497,0.0398533,0.764837,0.0,0.0,-0.575578
79809033,0.0343095,0.0205169,0.764896,0.0,0.0,-0.575174
79829041,0.0116509,0.0340355,0.765446,0.0,0.0,-0.575174
79848799,-0.0136577,0.0386025,0.768503,0.0,0.0,-0.57501
79868653,-0.00559905,0.0224134,0.769986,0.0,0.0,-0.575072
79888544,-0.0139346,0.0239729,0.771675,0.0,0.0,-0.573755
79908399,-0.00301287,0.0101096,0.772462,0.0,0.0,-0.572792
79928239,-0.023498,0.0184625,0.773071,0.0,0.0,-0.57179
79948205,-0.0287588,0.017421,0.774544,0.0,0.0,-0.570885
79968139,-0.0136151,0.0150475,0.771388,0.0,0.0,-0.569415
79987865,-0.0228107,0.0528015,0.771451,0.0,0.0,-0.569802
80007685,-0.0168147,0.00733045,0.772901,0.0,0.0,-0.568895
80027539,0.0227342,0.00731628,0.774166,0.0,0.0,-0.567578
80047423,0.0189391,0.00787386,0.774553,0.0,0.0,-0.567597
80067443,0.0149998,-0.0127322,0.514112,0.0,0.0,-0.567723
80087255,0.0115367,-0.0246897,-0.0625102,0.0,0.0,-0.56727
80107023,0.0120648,-0.0148907,-0.1014,0.0,0.0,-0.567466
80126890,0.0397116,-0.0214555,-0.131989,0.0,0.0,-0.567528
80146724,0.0287198,0.0097738,-0.157,0.0,0.0,-0.567687
80171563,0.0269832,0.0174018,-0.179349,0.0,0.0,-0.566404
80186437,-0.0161047,-0.00631679,-0.190569,0.0,0.0,-0.562938
80206304,-0.0304573,-0.0372124,-0.203769,0.0,0.0,-0.559047
80231206,0.0767024,-0.0170742,-0.217573,0.0,0.0,-0.557296
80246283,0.0517197,-0.0123648,-0.227996,0.0,0.0,-0.557777
80266001,0.00741932,-0.0148279,-0.234285,0.0,0.0,-0.556602
80290859,-0.0109183,-0.0315601,-0.243354,0.0,0.0,-0.553542
80310735,0.0216456,-0.0340182,-0.246434,0.0,0.0,-0.55286
80325580,0.0534377,-0.0139465,-0.252716,0.0,0.0,-0.55244
80350362,0.00990761,-0.00256852,-0.255005,0.0,0.0,-0.555034
80370203,0.00461375,-0.0180895,-0.257679,0.0,0.0,-0.552328
80385151,0.0556413,-0.0363368,-0.25575,0.0,0.0,-0.551541
80405013,0.0881004,-0.04019,-0.257789,0.0,0.0,-0.55126
80429771,0.0261525,-0.032591,-0.253223,0.0,0.0,-0.552802
80449593,-0.0060356,-0.0224855,-0.253694,0.0,0.0,-0.553706
80464489,-0.042901,-0.0303794,-0.24935,0.0,0.0,-0.552619
80489395,0.015091,-0.0281387,-0.246254,0.0,0.0,-0.552408
80509393,0.0441303,0.00293315,-0.241705,0.0,0.0,-0.554143
80524225,0.0285799,-0.00936239,-0.240555,0.0,0.0,-0.556269
80549131,0.0194412,0.00169313,-0.233829,0.0,0.0,-0.556923
80568977,0.0228766,-0.0360568,-0.228958,0.0,0.0,-0.556435
80588814,0.0574348,-0.0748043,-0.221693,0.0,0.0,-0.553283
80608739,0.101159,-0.0725395,-0.214634,0.0,0.0,-0.553928
80628514,0.10071,-0.061513,-0.208359,0.0,0.0,-0.553746
80648457,0.0614132,-0.0474711,-0.203267,0.0,0.0,-0.555616
80668150,0.032877,-0.0423664,-0.1971,0.0,0.0,-0.55567
80688004,0.0266506,-0.0289454,-0.19228,0.0,0.0,-0.555198
80707817,0.0145305,-0.038747,-0.185928,0.0,0.0,-0.554678
80727724,0.0202177,-0.021416,-0.179138,0.0,0.0,-0.554604
80747611,0.0298049,-0.0255112,-0.170924,0.0,0.0,-0.554662
80767596,0.0650587,-0.0257199,-0.163154,0.0,0.0,-0.554637
80787445,0.0818883,-0.0161631,-0.156364,0.0,0.0,-0.555516
80812254,0.0636702,-0.0250249,-0.148567,0.0,0.0,-0.556608
80827162,0.0537294,-0.0217727,-0.142678,0.0,0.0,-0.557149
80847020,0.0402912,-0.0352597,-0.135362,0.0,0.0,-0.556807
80871748,0.028157,-0.0266459,-0.127018,0.0,0.0,-0.556465
80886676,-0.000594649,-0.044095,-0.123582,0.0,0.0,-0.556827
80906531,-0.00661056,-0.0470105,-0.116046,0.0,0.0,-0.556981
80931339,0.0142575,-0.0569764,-0.106893,0.0,0.0,-0.55674
80946266,0.0369303,-0.0137264,-0.102693,0.0,0.0,-0.557286
80966053,0.0206422,-0.0259122,-0.0954039,0.0,0.0,-0.558478
80985963,0.00998074,-0.0118688,-0.0890463,0.0,0.0,-0.559349
81010840,0.0231277,-0.0184373,-0.0838959,0.0,0.0,-0.560149
81025829,0.0202791,-0.0210064,-0.0781074,0.0,0.0,-0.560867
81045738,0.0162683,-0.0365651,-0.0725869,0.0,0.0,-0.561393
81070473,0.0215789,-0.030866,-0.0652053,0.0,0.0,-0.56173
81085321,-0.044804,-0.0310803,-0.0624399,0.0,0.0,-0.563525
81105176,-0.0535434,-0.034144,-0.0553334,0.0,0.0,-0.564245
81130109,-0.0238999,-0.029843,-0.0501362,0.0,0.0,-0.564303
81149922,-0.0202854,-0.024004,-0.0456042,0.0,0.0,-0.56469
81164815,-0.0194194,-0.0284072,-0.0391924,0.0,0.0,-0.564731
81189612,-0.00836999,-0.0352272,-0.0366499,0.0,0.0,-0.564663
81209453,-0.0075625,-0.041931,-0.032557,0.0,0.0,-0.565902
81224278,-0.0401514,-0.0469681,-0.0265375,0.0,0.0,-0.56589
81249158,-0.00938015,-0.064966,-0.0239159,0.0,0.0,-0.565898
81269038,-0.0107059,-0.0552887,-0.0200444,0.0,0.0,-0.56589
81288913,0.00375935,-0.0692798,-0.0149364,0.0,0.0,-0.566496
81308868,0.0264298,-0.0435565,-0.0121571,0.0,0.0,-0.56644
81328626,0.0300065,-0.0349512,-0.0101056,0.0,0.0,-0.567619
81348671,-0.0632518,-0.0788514,-0.00591935,0.0,0.0,-0.566308
81368468,-0.0520846,-0.0689787,-0.0033845,0.0,0.0,-0.566157
81388266,-0.0673271,-0.0824647,-0.00137375,0.0,0.0,-0.566366
81408207,-0.041166,-0.0838,0.00137081,0.0,0.0,-0.566518
81428036,0.00192113,-0.0641443,0.00269563,0.0,0.0,-0.566845
81447890,0.0211897,-0.0524378,0.00307441,0.0,0.0,-0.567516
81467662,0.0557433,-0.0610223,0.00499272,0.0,0.0,-0.568627
81487537,0.0708423,-0.0553628,0.00576068,0.0,0.0,-0.568832
81507380,0.0631825,-0.0575163,0.00688039,0.0,0.0,-0.570345
81527200,0.010203,-0.0677367,0.00872531,0.0,0.0,-0.571333
81547089,0.00929878,-0.0809033,0.0113425,0.0,0.0,-0.571293
81567097,0.0160285,-0.0581361,0.0127492,0.0,0.0,-0.572067
81587107,0.0115727,-0.0843849,0.0150069,0.0,0.0,-0.572009
81606825,0.0284111,-0.0531992,0.0163556,0.0,0.0,-0.571421
81626666,0.0176177,-0.0724923,0.0175159,0.0,0.0,-0.571548
81651589,0.00787994,-0.0542888,0.0150019,0.0,0.0,-0.571678
81666414,0.0130405,-0.0866419,0.0196384,0.0,0.0,-0.571518
81686197,0.028307,-0.0514595,0.0189545,0.0,0.0,-0.571135
81710947,0.0268331,-0.0662809,0.0186372,0.0,0.0,-0.571567
81725835,0.0411171,-0.0526982,0.0180941,0.0,0.0,-0.571353
81745716,0.0575978,-0.0408292,0.0181848,0.0,0.0,-0.57127
81770588,0.0210442,-0.0311494,0.0197436,0.0,0.0,-0.571658
81785558,0.0226335,-0.0548003,0.0193897,0.0,0.0,-0.571305
81805386,0.024905,-0.0429667,0.0190888,0.0,0.0,-0.570772
81830377,0.0260926,-0.0438876,0.0190764,0.0,0.0,-0.570673
81850203,-0.000962047,-0.0275619,0.0177293,0.0,0.0,-0.570083
81865003,0.0186874,-0.0567493,0.0193928,0.0,0.0,-0.569198
81889881,0.00176836,-0.0267602,0.0163608,0.0,0.0,-0.567813
81909743,-0.0171025,-0.0303421,0.0151741,0.0,0.0,-0.568278
81924637,-0.0201979,-0.0215752,0.0171836,0.0,0.0,-0.566919
81949350,0.010596,-0.0477033,0.0141709,0.0,0.0,-0.565836
81969186,0.000635497,-0.0177563,0.0130182,0.0,0.0,-0.564473
81989062,0.0142394,-0.0360881,0.0138965,0.0,0.0,-0.564044
82008999,0.0282036,-0.013314,0.0140723,0.0,0.0,-0.563377
82028826,0.0470833,0.00522176,0.0139118,0.0,0.0,-0.562622
82048709,0.0408616,0.0120018,0.0124103,0.0,0.0,-0.563274
82068590,0.0189527,0.0117185,0.0116776,0.0,0.0,-0.563123
82088458,0.0155782,-0.0179725,0.0117065,0.0,0.0,-0.563035
82108342,0.00899987,-0.00328698,0.0110067,0.0,0.0,-0.562322
82128360,0.0202596,-0.00507552,0.0103516,0.0,0.0,-0.56267
82148100,0.0295431,-0.0239941,0.00998184,0.0,0.0,-0.561248
82168040,0.0411318,-0.00877985,0.00838388,0.0,0.0,-0.560793
82187902,0.0218265,-0.00600631,0.00681521,0.0,0.0,-0.561382
82207567,-0.00167351,-0.006955,0.00699631,0.0,0.0,-0.561581
82227434,0.00911391,-0.00390263,0.00764083,0.0,0.0,-0.560849
82247278,0.0250093,0.00998889,0.00749212,0.0,0.0,-0.560523
82267216,-0.0314789,-0.0101157,0.00817333,0.0,0.0,-0.559212
82287098,-0.0232076,-0.0376378,0.00833186,0.0,0.0,-0.557677
82306945,-0.0352129,-0.000413314,0.00598559,0.0,0.0,-0.557317
82326768,-0.0602842,0.0158078,0.00380669,0.0,0.0,-0.556911
82346686,-0.035156,0.0193847,0.00244952,0.0,0.0,-0.557733
82366678,-0.00766476,0.0236064,0.00129983,0.0,0.0,-0.556576
82386533,0.018478,0.027528,-0.000334659,0.0,0.0,-0.557786
82411389,-0.0246428,0.0367628,0.000682455,0.0,0.0,-0.558592
82426205,-0.0536022,0.00904347,0.000464812,0.0,0.0,-0.558937
82446032,-0.0480517,0.0106794,0.000528078,0.0,0.0,-0.558546
82470861,-0.0546512,-0.0107692,-0.000419093,0.0,0.0,-0.558791
82490646,-0.0490825,-0.0138555,-0.000892842,0.0,0.0,-0.558596
82505587,-0.037845,-0.0168594,-0.000236995,0.0,0.0,-0.558458
82530324,-0.0445397,0.00270183,-0.0024929,0.0,0.0,-0.55882
82550189,-0.0191852,-0.0258903,-0.000735153,0.0,0.0,-0.558471
82565137,0.00777147,-0.00199727,-0.00198834,0.0,0.0,-0.558727
82590032,-0.0127435,-0.00124373,-0.00184041,0.0,0.0,-0.559942
82609824,-0.0297781,-0.00721667,-0.00163569,0.0,0.0,-0.560633
82629748,-0.0446128,0.00229387,-0.00237214,0.0,0.0,-0.560989
82649660,-0.0541795,-0.00343026,-0.00301375,0.0,0.0,-0.560682
82669687,-0.0789477,-0.0127967,-0.00330519,0.0,0.0,-0.560333
82689398,-0.0133316,-0.0175388,-0.00277792,0.0,0.0,-0.56103
82709263,-0.0217049,0.0030465,-0.00241736,0.0,0.0,-0.561374
82729136,-0.0326789,0.0071176,-0.000917757,0.0,0.0,-0.562165
82749042,-0.0235904,-0.0136816,0.00152038,0.0,0.0,-0.561275
82768725,0.0313229,-0.0351434,0.0030271,0.0,0.0,-0.560586
82788552,-0.0036562,-0.0349519,0.00189462,0.0,0.0,-0.56026
82808417,-0.000259949,-0.0629613,0.00114855,0.0,0.0,-0.559954
82828387,0.0125716,-0.0387301,0.000273016,0.0,0.0,-0.560367
82848252,0.0399313,-0.023431,-0.000417466,0.0,0.0,-0.560895
82868136,0.00464065,-0.00976745,-0.00156637,0.0,0.0,-0.562423
82887975,-0.00516827,-0.0179186,-0.000604392,0.0,0.0,-0.563362
82907870,-0.0032646,-0.00471055,-0.000533122,0.0,0.0,-0.563753
82927929,0.0044564,-0.0137395,0.000327142,0.0,0.0,-0.564491
82947633,0.02353,-0.0222051,0.00249814,0.0,0.0,-0.563517
82967480,0.0513516,-0.0407542,0.00362963,0.0,0.0,-0.562651
82987425,0.0295461,-0.0315791,0.00259697,0.0,0.0,-0.562583
83007213,0.0275204,-0.0480909,0.00182763,0.0,0.0,-0.56296
83027009,0.0795906,-0.0574038,0.00157234,0.0,0.0,-0.562486
83051802,0.123527,-0.0375752,0.000662539,0.0,0.0,-0.56258
83066645,0.145645,-0.0466148,-0.000482026,0.0,0.0,-0.563726
83086628,0.144161,-0.0373771,-0.0016482,0.0,0.0,-0.564283
83111425,0.135168,-0.0527597,0.000137872,0.0,0.0,-0.564581
83126337,0.0989464,-0.0283546,-0.00173128,0.0,0.0,-0.564942
83146146,0.0544413,-0.051438,-0.000208107,0.0,0.0,-0.564909
83171012,0.0304219,-0.04466,-0.00221271,0.0,0.0,-0.564033
83191018,0.0228815,-0.0390445,-0.00296617,0.0,0.0,-0.564225
83206023,0.0264153,-0.0287618,-0.00150107,0.0,0.0,-0.564365
83230722,0.0167036,-0.0314269,-0.0013452,0.0,0.0,-0.565769
83250578,0.0498435,-0.0318651,-0.000873364,0.0,0.0,-0.565546
83265411,0.0612867,-0.0307232,-0.00333746,0.0,0.0,-0.565546
83290202,0.0359581,-0.0461222,-0.00268995,0.0,0.0,-0.564996
83310062,0.0153063,-0.0328635,-0.00437635,0.0,0.0,-0.5646
83325015,0.0113596,-0.031982,-0.00333961,0.0,0.0,-0.5646
83349756,0.0177714,-0.00128353,-0.00694796,0.0,0.0,-0.566229
83369614,0.0156457,-0.0103162,-0.00632191,0.0,0.0,-0.567183
83389498,0.0160423,0.00814345,-0.00748935,0.0,0.0,-0.56788
83409314,0.0173435,-0.00173053,-0.00792048,0.0,0.0,-0.568684
83429239,0.0128254,-0.0114964,-0.00705213,0.0,0.0,-0.568954
83449189,0.0110148,-0.0114746,-0.00569296,0.0,0.0,-0.568907
83469146,0.0233125,-0.0124,-0.00539872,0.0,0.0,-0.568338
83488984,-0.00150645,-0.0112002,-0.00595487,0.0,0.0,-0.568962
83508781,-0.0277683,-0.0166323,-0.00626564,0.0,0.0,-0.569201
83528606,-0.0279186,-0.0290367,-0.00589556,0.0,0.0,-0.568672
83548473,0.00361401,-0.0261406,-0.00649046,0.0,0.0,-0.568242
83568256,0.0118023,-0.0183464,-0.00647665,0.0,0.0,-0.569104
83588228,0.0183805,-0.0173151,-0.00698885,0.0,0.0,-0.570635
83608034,0.0279654,-0.00340813,-0.00827496,0.0,0.0,-0.571379
83627847,0.00231431,0.000200268,-0.00844553,0.0,0.0,-0.572601
83647666,-0.00744927,-0.00288234,-0.00698502,0.0,0.0,-0.572995
83667626,-0.000484069,-0.0150041,-0.00520875,0.0,0.0,-0.572431
83687490,0.0122477,-0.0299957,-0.00490161,0.0,0.0,-0.570707
83707358,0.0216513,-0.0231557,-0.00582659,0.0,0.0,-0.570272
83727264,0.0338728,-0.0337471,-0.00642383,0.0,0.0,-0.569553
83752127,0.0546031,-0.0213719,-0.00581112,0.0,0.0,-0.56941
83767050,0.0753828,0.000821937,-0.00875992,0.0,0.0,-0.569707
83786899,0.0604188,0.00652849,-0.00938035,0.0,0.0,-0.570557
83811799,0.0175457,3.98041e-05,-0.00621879,0.0,0.0,-0.571062
83826493,-0.0130152,-0.0182481,-0.00762483,0.0,0.0,-0.571355
83846344,-0.00110862,-0.00615725,-0.00661254,0.0,0.0,-0.571319
83871137,0.0267844,0.00722741,-0.00666303,0.0,0.0,-0.571391
83886050,0.0196212,-0.00810337,-0.00606597,0.0,0.0,-0.571179
83905982,0.0227807,-0.00778138,-0.00570341,0.0,0.0,-0.570091
83930821,0.0210445,-0.00196192,-0.00721184,0.0,0.0,-0.568707
83950661,0.00151934,-0.00143058,-0.00688693,0.0,0.0,-0.568325
83965611,-0.00528497,0.000767936,-0.00715325,0.0,0.0,-0.568507
83985454,0.0155183,0.00217399,-0.00721106,0.0,0.0,-0.567901
84010491,0.0455896,0.0174336,-0.00582117,0.0,0.0,-0.567824
84025141,0.03545,0.0202389,-0.00895455,0.0,0.0,-0.568439
84045019,0.0107997,0.00946115,-0.00821418,0.0,0.0,-0.569102
84069872,-0.0192433,0.0154961,-0.00595385,0.0,0.0,-0.569165
84089783,-0.0329,0.00880455,-0.00595716,0.0,0.0,-0.567885
84104617,-0.0302851,0.022524,-0.0052196,0.0,0.0,-0.567538
84129474,-0.0363823,0.016516,-0.00721609,0.0,0.0,-0.566896
84149340,-0.0320228,0.00484785,-0.00707642,0.0,0.0,-0.565992
84169206,-0.00839449,-0.00625506,-0.0059114,0.0,0.0,-0.565017
84189115,-0.00855084,0.000889833,-0.00566991,0.0,0.0,-0.563811
84209001,5.89092e-05,-0.00708795,-0.00450412,0.0,0.0,-0.563541
84228848,0.00916011,-0.000908167,-0.00367405,0.0,0.0,-0.562356
84248682,-0.0014347,0.0182117,-0.00439218,0.0,0.0,-0.562319
84268633,-0.0283411,0.0222163,-0.00508036,0.0,0.0,-0.562934
84288396,-0.0428289,0.0210865,-0.0054453,0.0,0.0,-0.563492
84308261,-0.0297825,0.00292758,-0.00547236,0.0,0.0,-0.562139
84328114,0.0157113,0.00333322,-0.00603792,0.0,0.0,-0.561054
84347994,0.0216838,-0.00745528,-0.00570638,0.0,0.0,-0.559698
84367910,0.0233574,-0.015327,-0.00554392,0.0,0.0,-0.558912
84387681,-0.000594747,-0.0266804,-0.00466599,0.0,0.0,-0.557278
84407603,0.0157169,0.0079358,-0.00461591,0.0,0.0,-0.556859
84427419,0.0113935,0.0194086,-0.00417545,0.0,0.0,-0.557177
84447285,0.00848186,0.0371683,-0.0037631,0.0,0.0,-0.557679
84467108,0.0291222,0.0323291,-0.00308377,0.0,0.0,-0.557552
84486922,0.0281365,0.0309664,-0.00306734,0.0,0.0,-0.557662
84511748,0.029245,0.0334002,-0.00513936,0.0,0.0,-0.558412
84526808,0.00503044,0.0134207,-0.00245844,0.0,0.0,-0.558087
84546755,0.0175862,0.016441,-0.00161075,0.0,0.0,-0.557791
84566469,-0.0215481,-0.0120637,-0.0011035,0.0,0.0,-0.554758
84586326,-0.0230631,0.00447289,-0.00215049,0.0,0.0,-0.556046
84606221,-0.0159623,0.00479695,-0.00236397,0.0,0.0,-0.556247
84626066,-0.00708932,0.0222847,-0.00203093,0.0,0.0,-0.556273
84650929,-0.000547398,0.0270438,-0.00119592,0.0,0.0,-0.556813
84665852,-0.00246849,0.0276206,0.000456853,0.0,0.0,-0.55651
84685665,0.0105126,-0.00294337,0.00206036,0.0,0.0,-0.555548
84710459,0.0183042,-0.00891564,-0.00186026,0.0,0.0,-0.554584
84725343,0.00771873,-0.00538136,0.00102119,0.0,0.0,-0.554266
84745148,0.0100857,-0.0103053,6.00974e-05,0.0,0.0,-0.553993
84770085,0.0462207,0.00910054,0.00273951,0.0,0.0,-0.554392
84789931,0.0535645,0.029129,0.00219581,0.0,0.0,-0.554217
84804897,0.0661611,0.0342815,-0.00109586,0.0,0.0,-0.5558
84829723,0.0131209,0.0295353,0.000312451,0.0,0.0,-0.555546
84849600,-0.00889949,0.0196416,-0.000337971,0.0,0.0,-0.55567
84869445,-0.0122322,0.0446395,-0.00154181,0.0,0.0,-0.555623
84889308,-0.0212851,0.0190723,-0.00131026,0.0,0.0,-0.554727
84909165,-0.0205013,0.0206807,-0.00118149,0.0,0.0,-0.554014
84929040,-0.015114,0.00622311,-0.000522988,0.0,0.0,-0.553137
84948750,-0.0236723,0.0226221,-0.00166627,0.0,0.0,-0.553114
84968669,-0.0376578,0.0255247,-0.00181652,0.0,0.0,-0.553812
84988519,-0.0129637,0.014701,-0.00106956,0.0,0.0,-0.553089
85008391,0.0185263,0.0388206,-0.00133536,0.0,0.0,-0.552628
85028227,0.00261527,0.0326188,-0.00137941,0.0,0.0,-0.553746
85048165,-0.0258534,0.0340477,-0.00126279,0.0,0.0,-0.554085
85068146,-0.0331479,0.0223447,-0.000884557,0.0,0.0,-0.554749
85088104,-0.0259682,0.0246175,-0.000622213,0.0,0.0,-0.554411
85107857,0.0167008,-0.00640762,-0.000475618,0.0,0.0,-0.552205
85127726,0.00586032,-0.00761402,-0.000428549,0.0,0.0,-0.55285
85147537,-0.00743801,0.00975348,-0.000962192,0.0,0.0,-0.553568
85167282,-0.0317995,0.0217878,-0.000709969,0.0,0.0,-0.554193
85187151,-0.0546075,0.0156592,0.000643573,0.0,0.0,-0.554579
85206991,-0.0378774,0.00624629,0.00248664,0.0,0.0,-0.553866
85226898,-0.0138141,-0.0134442,0.00365865,0.0,0.0,-0.552614
85246754,-0.0343191,-0.00843183,0.003021,0.0,0.0,-0.551775
85266614,-0.0224687,-0.0272776,0.00254197,0.0,0.0,-0.551034
85291421,-0.015705,-0.0155173,0.00050339,0.0,0.0,-0.550379
85306455,-0.00661266,0.0204679,-0.000442635,0.0,0.0,-0.550592
85326275,-0.00320004,0.0316674,-0.00135305,0.0,0.0,-0.551493
85351313,0.00798681,0.01209,0.000626158,0.0,0.0,-0.551712
85365991,0.0539925,-0.00565539,0.000495576,0.0,0.0,-0.551326
85385859,0.0456149,0.00621042,-0.000901746,0.0,0.0,-0.551641
85410746,0.0372989,-0.0180613,0.00117859,0.0,0.0,-0.55202
85425653,0.0103267,-0.00284527,0.000531212,0.0,0.0,-0.551727
85445474,0.0312235,-0.0077102,0.00223967,0.0,0.0,-0.551062
85470282,0.0122484,0.0048151,-0.000861563,0.0,0.0,-0.55059
85490042,-0.011733,-0.00247021,-0.000478969,0.0,0.0,-0.550745
85504930,-0.00231023,-0.00444061,0.00232791,0.0,0.0,-0.550489
85529907,0.0278997,0.00328431,0.00243996,0.0,0.0,-0.550263
85549727,0.0244512,0.0138867,0.00300662,0.0,0.0,-0.55123
85569582,0.0135331,0.00195961,0.00445888,0.0,0.0,-0.55166
85589516,0.00788363,-0.00378531,0.00468378,0.0,0.0,-0.552204
85609447,-0.0112023,0.00905424,0.0037334,0.0,0.0,-0.552685
85629323,-0.0535771,-0.00836166,0.00300176,0.0,0.0,-0.553684
85649109,0.00369838,-0.014207,0.00234597,0.0,0.0,-0.550731
85668882,-0.00276188,0.0016797,0.00174563,0.0,0.0,-0.551468
85688748,-0.0305023,0.0257146,0.00144118,0.0,0.0,-0.551963
85708576,-0.0616943,0.00996752,0.00275656,0.0,0.0,-0.552515
85728490,-0.0259647,0.00370091,0.00363618,0.0,0.0,-0.55116
85748323,-0.0162481,0.0342243,0.00346241,0.0,0.0,-0.552057
85768299,-0.00755257,0.00264982,0.00503517,0.0,0.0,-0.551266
85788066,-3.35615e-06,-0.0100075,0.00561049,0.0,0.0,-0.54986
85807895,-0.0118532,0.001601,0.00519871,0.0,0.0,-0.549403
85827776,-0.0378874,-0.00782144,0.00526405,0.0,0.0,-0.548606
85847711,-0.0398182,-0.000460341,0.00540956,0.0,0.0,-0.54876
85867613,-0.00471808,0.000925584,0.0050085,0.0,0.0,-0.54805
85887547,0.0040781,0.016298,0.00377441,0.0,0.0,-0.548819
85907287,-0.0121653,0.00932621,0.00375122,0.0,0.0,-0.549532
85927106,-0.0435439,0.00396984,0.0043116,0.0,0.0,-0.550176
85946998,-0.058832,0.024177,0.00521492,0.0,0.0,-0.550911
85966950,-0.0442573,0.00955674,0.00703591,0.0,0.0,-0.551281
85991665,-0.0282773,-0.00207533,0.00667863,0.0,0.0,-0.550648
86006571,0.00595861,-0.0138468,0.00944567,0.0,0.0,-0.550434
86026411,0.0180892,-0.0243718,0.00833539,0.0,0.0,-0.549239
86051293,0.043508,-0.0408407,0.00734515,0.0,0.0,-0.549121
86066181,0.0637224,-0.0186285,0.00544128,0.0,0.0,-0.549764
86086061,0.0829907,0.00397472,0.00360151,0.0,0.0,-0.550367
86110779,0.0353984,-0.0059523,0.00602565,0.0,0.0,-0.551921
86125847,0.000428582,-0.0211845,0.00320524,0.0,0.0,-0.55242
86145680,0.00805014,-0.0209278,0.00388905,0.0,0.0,-0.553395
86170728,0.0272666,-0.00438317,0.00434454,0.0,0.0,-0.552994
86190386,0.0320359,-0.0018145,0.00359177,0.0,0.0,-0.553464
86205262,0.0276802,-0.003654,0.00397427,0.0,0.0,-0.553464
86230120,0.032303,0.0122864,0.00142805,0.0,0.0,-0.553946
86249947,0.0134864,-0.00886851,0.00133241,0.0,0.0,-0.554606
86264799,0.00916121,-0.00897466,0.00183795,0.0,0.0,-0.554606
86289701,-0.0256803,-0.0232531,0.0023983,0.0,0.0,-0.55262
86309526,-0.0226181,0.0014526,0.00197084,0.0,0.0,-0.551478
86329410,-0.0412575,-0.00221761,0.00120341,0.0,0.0,-0.550715
86349327,0.0144613,-0.0154547,0.000965162,0.0,0.0,-0.5498
86369076,0.000439512,0.0317968,-0.000916672,0.0,0.0,-0.548831
86388880,0.0228736,0.0150003,-0.00261921,0.0,0.0,-0.549065
86408790,0.00417205,0.0335428,-0.00454218,0.0,0.0,-0.549191
86428794,-0.0157926,0.0222587,-0.00521771,0.0,0.0,-0.549117
86448575,-0.0384528,0.0328265,-0.0061754,0.0,0.0,-0.548861
86468544,-0.0497473,0.031807,-0.00609466,0.0,0.0,-0.549068
86488343,-0.0584892,0.0192059,-0.00540051,0.0,0.0,-0.548891
86508223,-0.0300047,0.0129902,-0.00464215,0.0,0.0,-0.547837
86528205,-0.0161105,0.0235873,-0.00575556,0.0,0.0,-0.547655
86548086,-0.0269018,-0.00546994,-0.00634319,0.0,0.0,-0.547104
86567862,-0.0255233,-0.014213,-0.00729736,0.0,0.0,-0.546906
86587556,-0.00310696,-0.00597897,-0.00829167,0.0,0.0,-0.547145
86607431,0.010122,0.014619,-0.00971745,0.0,0.0,-0.547874
86627247,-0.0256794,0.00185608,-0.0100437,0.0,0.0,-0.549223
86647115,-0.0553701,0.0146147,-0.00975735,0.0,0.0,-0.550314
86667028,-0.0395596,0.00475345,-0.00866868,0.0,0.0,-0.550104
86692035,-0.0253659,0.00525501,-0.0102296,0.0,0.0,-0.550328
86707054,-0.0181882,-0.0347509,-0.00829403,0.0,0.0,-0.548666
86726761,-0.0103962,-0.034539,-0.00854977,0.0,0.0,-0.547673
86751561,0.0162571,-0.0296807,-0.00944596,0.0,0.0,-0.547467
86766410,0.0244333,-0.0170427,-0.0102946,0.0,0.0,-0.547686
86786204,0.0395513,-0.0123486,-0.0106821,0.0,0.0,-0.548467
86811088,0.0799692,-0.00471943,-0.0100889,0.0,0.0,-0.548763
86830907,0.0346249,0.00933868,-0.0112297,0.0,0.0,-0.549741
86845780,0.0351478,-0.0117313,-0.0121518,0.0,0.0,-0.550349
86870592,0.0377952,-0.0151747,-0.0109341,0.0,0.0,-0.550078
86890441,0.0594675,-0.0183022,-0.0117924,0.0,0.0,-0.549142
86905348,0.0366145,-0.0173248,-0.0101721,0.0,0.0,-0.548719
86930333,0.0247532,-0.0141668,-0.0128581,0.0,0.0,-0.549574
86950230,0.043707,-0.0272373,-0.0108813,0.0,0.0,-0.549135
86965180,0.0672095,-0.0135262,-0.0103773,0.0,0.0,-0.549672
86989895,0.0529596,-4.45192e-05,-0.00995695,0.0,0.0,-0.551105
87009747,0.0091494,-0.00929069,-0.0102874,0.0,0.0,-0.552431
87029604,-0.00455673,-0.00866032,-0.0104647,0.0,0.0,-0.552733
87044588,0.00645244,-0.014391,-0.00944945,0.0,0.0,-0.55263
87069303,-0.00129727,0.000488507,-0.0124461,0.0,0.0,-0.552833
87089222,0.00173829,-0.0291259,-0.0126025,0.0,0.0,-0.55233
87109055,0.0214877,-0.0422902,-0.0127574,0.0,0.0,-0.551201
87128865,0.0399364,-0.0505483,-0.0125473,0.0,0.0,-0.550312
87148673,0.0446916,-0.0384444,-0.0124775,0.0,0.0,-0.550342
