timestamp,timestamp_sample,accel_device_id,gyro_device_id,delta_angle[0],delta_angle[1],delta_angle[2],delta_velocity[0],delta_velocity[1],delta_velocity[2],delta_angle_dt,delta_velocity_dt,delta_velocity_clipping
66927232,66926841,3670026,3670026,6.08652e-05,-5.82966e-05,-2.96049e-05,0.00238005,-0.00101261,-0.0470519,4912,4912,0
66932175,66931805,3670026,3670026,-2.85004e-05,-0.000126663,-8.23618e-05,2.73886e-06,-0.0027256,-0.0490565,4964,4964,0
67428817,67428400,3670026,3670026,0.000687999,0.000345327,0.000191515,-0.000564789,-0.00578386,-0.0485689,4966,4966,0
67930363,67929963,3670026,3670026,-0.000351583,0.000293239,3.76498e-05,0.00389362,-0.00498484,-0.0540811,4967,4967,0
68426897,68426556,3670026,3670026,-0.000610671,0.000291242,-7.99053e-05,-0.00202904,-0.00249761,-0.0498659,4966,4966,0
68928605,68928241,3670026,3670026,0.000246947,-0.000305409,3.59876e-05,-0.0016653,0.000132699,-0.0513591,4989,4989,0
69430068,69429694,3670026,3670026,-0.000141946,-0.000505914,0.000412151,0.00695804,0.0127722,-0.0476519,4977,4977,0
69926631,69926300,3670026,3670026,0.00141565,-0.000864132,-0.000851328,0.00127042,-0.0125718,-0.0544841,4992,4992,0
70428271,70427835,3670026,3670026,0.00115535,-1.90139e-05,0.000178048,-0.00186285,-0.00631168,-0.0551048,4966,4966,0
70929824,70929397,3670026,3670026,-0.000242013,0.000182206,-0.000216666,-0.00379274,-0.0089572,-0.052456,4967,4967,0
71431314,71430956,3670026,3670026,0.000406148,9.74125e-05,-0.000657395,-0.00458817,-0.00480058,-0.0495935,4920,4920,0
71927997,71927553,3670026,3670026,-0.00020143,-0.000423178,-0.000188096,0.00166304,-0.00441549,-0.0450838,4910,4910,0
72429760,72429247,3670026,3670026,0.0010371,-3.5899e-05,-0.000189007,1.13062e-05,-0.00684495,-0.048526,4994,4994,0
72926134,72925710,3670026,3670026,0.000943172,-0.000135133,-0.000691705,-0.000838262,-0.00773415,-0.0476985,4966,4966,0
73427641,73427271,3670026,3670026,-0.00336971,-0.000164586,-0.00296025,-0.00305237,0.00615153,-0.0527364,4965,4965,0
73929298,73928833,3670026,3670026,-0.000578547,0.0018901,-0.00326187,-0.00860094,0.00996366,-0.0580922,4965,4965,0
74430810,74430394,3670026,3670026,-0.00149069,0.000265334,-0.00357782,-0.0162802,0.0100534,-0.0646527,4965,4965,0
74927350,74926990,3670026,3670026,0.000652421,-0.000669993,-0.00410477,0.00633884,-0.00416001,-0.0385627,4966,4966,0
75428897,75428551,3670026,3670026,-0.000974247,-0.000566392,0.000379943,0.000597276,-0.00125432,-0.0436357,4966,4966,0
75925621,75925299,3670026,3670026,-0.00162929,0.000349489,0.00100555,-0.00790166,0.0107419,-0.0550347,4967,4967,0
76427036,76426711,3670026,3670026,9.69115e-05,0.000176043,-0.000143461,-0.00796593,-0.0107101,-0.0557616,4969,4969,0
76928669,76928300,3670026,3670026,0.00131491,-0.000533801,-0.000915949,0.0179448,-0.014606,-0.0269939,4995,4995,0
77430206,77429832,3670026,3670026,-0.00110216,0.000163509,-0.000361633,-0.00307252,0.00719928,-0.0461141,4966,4966,0
77931819,77931432,3670026,3670026,-0.000404324,0.0002702,0.0003434,-0.00207851,0.00249898,-0.0515674,5003,5003,0
78428394,78428002,3670026,3670026,0.00237972,0.0014673,0.00355561,0.00292858,-0.0203317,-0.0433595,4977,4977,0
78925014,78924586,3670026,3670026,-0.000540158,-0.000755271,0.00399171,0.00600702,-0.00590977,-0.04013,4966,4966,0
79426683,79426275,3670026,3670026,-0.000720085,-0.000346017,0.00400465,-0.00184409,0.00757921,-0.0451191,4991,4991,0
79928041,79927711,3670026,3670026,0.00136064,-0.000277268,0.00259116,-0.000438394,-0.0190529,-0.0509405,4968,4968,0
80429645,80429271,3670026,3670026,0.00182152,0.000123292,-0.00131692,-0.000791509,-0.000568035,-0.0404443,4966,4966,0
80931217,80930832,3670026,3670026,0.000150633,-0.000631021,-0.000411291,0.00192543,0.0022963,-0.0453506,4966,4966,0
81427761,81427429,3670026,3670026,0.00131361,-0.000605996,-0.000388579,0.0134129,-0.0130403,-0.0310937,4967,4967,0
81924415,81924026,3670026,3670026,0.000484601,-0.000619885,-0.00104455,-0.00944358,-0.0105413,-0.0554504,4968,4968,0
82425937,82425591,3670026,3670026,-0.000918466,0.000444259,0.000157316,-0.0103996,0.00732852,-0.0608867,4969,4969,0
82927679,82927278,3670026,3670026,0.000323877,-0.000174747,-0.000372637,-0.00354125,-0.0217553,-0.0540758,4982,4982,0
83429054,83428728,3670026,3670026,-0.0011678,0.000556975,0.000128911,-0.00828095,0.00376322,-0.0591978,4988,4988,0
83930695,83930272,3670026,3670026,-0.00128876,-1.31785e-05,0.000482304,-0.0116361,0.000858509,-0.0625784,4965,4965,0
84427286,84426869,3670026,3670026,0.00026259,0.000272178,-0.000188707,-0.00871283,-0.00886956,-0.0585775,4964,4964,0
84928757,84928430,3670026,3670026,-0.000164099,0.000219736,0.000863726,-0.0013521,0.00370399,-0.0484873,4965,4965,0
85425391,85425029,3670026,3670026,0.000390037,0.000277384,6.24369e-06,-0.00272372,-0.00576399,-0.0511599,4967,4967,0
85926930,85926589,3670026,3670026,-0.001057,0.000394219,0.000816869,-0.00304356,-0.00376402,-0.0533898,4966,4966,0
86428656,86428291,3670026,3670026,-0.00055691,0.000268759,0.00167081,-0.0041819,0.0153766,-0.0495774,4989,4989,0
86930094,86929717,3670026,3670026,-0.000781615,0.000375811,0.000761758,-0.00667275,0.000390889,-0.0567756,4928,4928,0
87426682,87426310,3670026,3670026,0.00114834,-0.00109575,-0.000222634,0.0083355,-0.0108217,-0.0344726,4965,4965,0
87928260,87927872,3670026,3670026,0.000125989,0.00016983,-0.000946097,-0.00362514,-0.000929009,-0.0513213,4964,4964,0
88429801,88429435,3670026,3670026,0.00146876,-9.6137e-05,-0.00034837,-0.00100264,-0.0055602,-0.0438165,4966,4966,0
88926421,88926031,3670026,3670026,-0.00108763,0.000476219,0.00102065,-0.00342507,0.0133834,-0.0506301,4966,4966,0
89427937,89427594,3670026,3670026,-0.00169263,0.000605034,0.00126179,-0.0139198,0.0232673,-0.0603695,4967,4967,0
89929697,89929315,3670026,3670026,-0.000634798,0.000256227,0.000677415,0.00137395,-0.0100178,-0.0483467,4998,4998,0
90426141,90425755,3670026,3670026,0.000247925,-0.000696638,0.000640211,0.00468526,0.011116,-0.0354829,4961,4961,0
90927684,90927315,3670026,3670026,-0.000608167,4.4845e-05,0.000827534,0.000476525,-0.00452368,-0.0505615,4966,4966,0
91429205,91428877,3670026,3670026,-0.000580952,0.00031263,-0.000126885,-0.0179663,0.013012,-0.0665914,4961,4961,0
91930860,91930445,3670026,3670026,-1.17558e-05,0.000354813,0.000441651,-0.00434671,-0.00424944,-0.0526101,4934,4934,0
92427434,92427037,3670026,3670026,-0.000175004,-0.0001628,0.000340041,0.00177602,0.0181456,-0.0396914,4967,4967,0
92928956,92928598,3670026,3670026,-2.44797e-05,-5.54464e-05,0.000224086,0.00760345,-0.0100696,-0.0392612,4965,4965,0
93425755,93425369,3670026,3670026,0.00153253,-0.000773781,-0.000783886,0.00802863,-0.0244888,-0.0354305,4973,4973,0
93927135,93926761,3670026,3670026,0.000172978,0.000290606,-0.000492003,-0.00872944,0.0030541,-0.0541692,4969,4969,0
94428703,94428321,3670026,3670026,0.00109188,-0.00017967,-0.000404062,0.00458994,-0.00869891,-0.0364578,4966,4966,0
94930208,94929883,3670026,3670026,-0.000389139,4.58071e-05,0.000844032,0.00388099,0.0120134,-0.043841,4966,4966,0
95426858,95426480,3670026,3670026,0.000709563,-0.000627741,-0.00108009,-0.000870947,-0.0208046,-0.0476748,4966,4966,0
95928432,95928042,3670026,3670026,0.000483409,-0.000448413,-0.000529643,-0.00299729,0.00829573,-0.0485507,4965,4965,0
96424980,96424639,3670026,3670026,-0.000995738,0.000612215,0.00104423,-0.0139119,0.0294898,-0.0595626,4966,4966,0
96926728,96926407,3670026,3670026,-0.000865922,0.000189975,-0.000220485,-0.0095909,-0.00627352,-0.0623307,4996,4996,0
97428130,97427765,3670026,3670026,0.000937604,9.86158e-05,-4.85996e-05,-0.00329847,-0.00267738,-0.0464042,4955,4955,0
97929699,97929327,3670026,3670026,-0.0002209,-0.000299278,0.000525042,0.0049413,-0.0106929,-0.0420867,4966,4966,0
98431261,98430929,3670026,3670026,-7.26623e-05,0.000434053,0.000649167,-0.00395859,0.0121887,-0.0509464,4981,4981,0
98927904,98927488,3670026,3670026,-0.000372032,0.000631183,0.00118203,0.00106105,0.00841685,-0.0437363,4967,4967,0
99429496,99429050,3670026,3670026,-0.000419762,0.000540264,-0.000183598,-0.00283312,-0.0115697,-0.0543302,4967,4967,0
99925997,99925647,3670026,3670026,-0.000994494,0.000179001,-0.000411541,-0.00663534,-0.0182374,-0.0603507,4966,4966,0
100427678,100427352,3670026,3670026,0.00135118,-0.000474405,-0.000916468,0.00527474,-0.0279522,-0.0393515,4927,4927,0
100929130,100928804,3670026,3670026,0.000244253,-7.12718e-06,0.000491056,0.0066834,0.012466,-0.0350392,4945,4945,0
101430660,101430335,3670026,3670026,-0.00100275,0.000211798,0.000250297,-0.0165984,0.00626452,-0.0662926,4966,4966,0
101927348,101926932,3670026,3670026,-0.00041037,0.000475841,0.00123033,-0.0053214,0.0244117,-0.0515114,4920,4920,0
102428918,102428496,3670026,3670026,-0.00133416,0.000382224,-0.000105335,-0.0122696,0.00937263,-0.0604856,4967,4967,0
102925537,102925099,3670026,3670026,-0.000249031,0.000651587,0.000745747,-0.00684502,0.00312204,-0.0531729,4973,4973,0
103426998,103426655,3670026,3670026,-0.000956396,-0.000206694,0.000392331,-0.00602951,0.0105829,-0.0479088,4965,4965,0
103928753,103928380,3670026,3670026,0.00169056,-0.000149627,-0.00051786,-0.0066104,-0.00525909,-0.0507132,4937,4937,0
104430211,104429815,3670026,3670026,0.00120575,-0.000595265,-0.000753326,0.00222426,0.00731804,-0.0377637,4960,4960,0
104926698,104926378,3670026,3670026,-0.000533208,0.000303668,0.000826632,0.000629523,-0.000809888,-0.047652,4966,4966,0
105428269,105427941,3670026,3670026,-0.00057616,0.00060062,0.000330363,-0.00966383,0.0187233,-0.0590937,4966,4966,0
105929824,105929505,3670026,3670026,-0.000941791,0.000754823,0.000995334,-0.00578415,-0.00798252,-0.0550916,4965,4965,0
106431434,106431068,3670026,3670026,-0.00129683,0.000879025,0.000796612,-0.0150597,0.0261915,-0.0622144,4965,4965,0
106928012,106927671,3670026,3670026,-0.00205533,0.000586234,0.000736736,-0.00147105,0.00589645,-0.047113,4977,4977,0
107429767,107429396,3670026,3670026,0.000791782,0.00033171,-9.00927e-05,-0.00289694,-0.000301233,-0.0470539,4997,4997,0
107926241,107925861,3670026,3670026,-0.000623247,2.70806e-06,0.000612014,-0.00582125,-0.0175105,-0.0573374,5001,5001,0
108427717,108427388,3670026,3670026,0.000449847,-2.81574e-06,0.000129201,-0.00289438,-0.0153148,-0.0511302,4966,4966,0
108929282,108928951,3670026,3670026,0.000332036,-0.000173274,-0.000608748,-0.00871783,-0.00119576,-0.0521373,4966,4966,0
109430883,109430514,3670026,3670026,0.000566605,-0.000561157,-0.000443949,0.00961533,-0.0229404,-0.0350185,4966,4966,0
109927472,109927113,3670026,3670026,-0.000723083,-0.000196166,-0.000606825,-0.0132114,-0.00530697,-0.0612723,4968,4968,0
110429076,110428677,3670026,3670026,0.00185569,-0.000756466,-0.000921402,0.009571,-0.0160419,-0.0361039,4928,4928,0
110925801,110925480,3670026,3670026,-0.000682766,-0.000762647,-0.000476501,-0.00505671,0.00236484,-0.0482147,5004,5004,0
111427247,111426876,3670026,3670026,-0.000683841,0.000249424,0.000600517,-0.00684738,0.0043986,-0.0529257,4994,4994,0
111928727,111928406,3670026,3670026,4.33156e-05,0.000126392,-0.000534455,-0.0075704,0.00594062,-0.0547505,4974,4974,0
112430337,112429962,3670026,3670026,0.000262643,-4.64045e-05,-0.000387064,-0.00611121,0.00919648,-0.0491642,4967,4967,0
112931954,112931526,3670026,3670026,-2.26932e-05,9.22889e-05,-9.29581e-05,0.000504658,0.00968753,-0.0440279,4967,4967,0
113428559,113428123,3670026,3670026,-0.000983073,7.52225e-05,0.000834982,-0.00850442,0.0128182,-0.0553142,4967,4967,0
113925104,113924719,3670026,3670026,0.00141746,-0.000631758,-0.00106048,0.00535029,-0.0178412,-0.0382708,4963,4963,0
114426870,114426463,3670026,3670026,0.0004053,0.000312558,-0.000257624,-0.00596197,0.00799775,-0.0489624,4970,4970,0
114928166,114927845,3670026,3670026,-0.000781728,1.71145e-05,-0.000243458,-0.0119818,0.00565899,-0.0582517,4966,4966,0
115429735,115429409,3670026,3670026,0.000897095,-0.000620136,-0.000860957,0.00497934,-0.0126512,-0.0413814,4966,4966,0
115931313,115930972,3670026,3670026,0.000299629,-3.97235e-06,0.000792534,0.00772014,0.00548128,-0.0368554,4964,4964,0
116427955,116427571,3670026,3670026,0.00101398,-0.000788804,-0.000814857,-0.000287769,-0.0167859,-0.0434205,4967,4967,0
116924521,116924167,3670026,3670026,-0.000513832,1.03305e-05,-0.000180591,-0.0146815,-0.0100742,-0.0633173,4963,4963,0
117426130,117425730,3670026,3670026,0.00137039,-0.000358036,-0.000804935,0.00759602,-0.00542396,-0.034121,4966,4966,0
117927830,117927460,3670026,3670026,-0.00102381,-0.000151993,0.000665887,-0.00519129,0.00558377,-0.0505213,4985,4985,0
118429222,118428853,3670026,3670026,-0.000891046,0.00031447,0.000691168,-0.00241714,-0.00615704,-0.0526162,4962,4962,0
118930754,118930422,3670026,3670026,0.000983365,-0.000430635,-0.000996826,-0.000291005,0.00370905,-0.0414911,4967,4967,0
119427341,119427018,3670026,3670026,0.00106374,0.000117027,-0.000738353,-0.00158895,-0.0168731,-0.0516914,4964,4964,0
119928969,119928586,3670026,3670026,0.000545879,-0.00021633,-0.000476563,0.00201291,0.000900376,-0.0420079,4970,4970,0
120425560,120425199,3670026,3670026,0.000408233,-0.000129766,2.79737e-05,-0.00506423,0.00675227,-0.0492362,4981,4981,0
120927124,120926742,3670026,3670026,-0.00140525,0.000470261,0.000773836,-0.00208371,-0.000651557,-0.052745,4965,4965,0
121428893,121428479,3670026,3670026,0.000360854,-0.00081154,-0.00063347,0.00228603,-0.00509526,-0.0443692,4982,4982,0
121930334,121929954,3670026,3670026,0.000337243,0.000263479,-0.000136692,-0.00830664,-0.00561367,-0.0553313,5019,5019,0
122426830,122426467,3670026,3670026,-0.00109155,-8.94781e-05,0.000349036,-0.0126233,-0.00205058,-0.0603937,4963,4963,0
122928352,122928030,3670026,3670026,-0.000900735,5.16608e-05,0.000243367,-0.00546778,-0.00766118,-0.0534335,4964,4964,0
123429919,123429595,3670026,3670026,0.000180768,0.00083883,0.000751128,-0.00308217,0.0121814,-0.0488813,4965,4965,0
123926591,123926200,3670026,3670026,0.000967455,-0.000631139,-0.000979778,-0.00076597,-0.0285232,-0.0517888,4935,4935,0
124428142,124427755,3670026,3670026,0.000860749,1.76312e-05,-0.000573054,-0.00468958,0.00113251,-0.045124,4966,4966,0
124929925,124929508,3670026,3670026,-0.000911466,0.000320909,0.000859268,0.000687144,0.00149719,-0.046656,4999,4999,0
125426292,125425913,3670026,3670026,-0.00205945,0.000558321,0.00118702,-0.00921121,0.0096397,-0.0553337,4962,4962,0
125927853,125927480,3670026,3670026,0.00104192,-0.00050453,-0.00123842,0.00350851,-0.0314784,-0.0441058,4967,4967,0
126429436,126429048,3670026,3670026,-0.0004512,0.000241403,0.000395483,-0.000141872,0.00760819,-0.0403983,4969,4969,0
126930929,126930607,3670026,3670026,-0.00198848,0.00038019,0.00122313,-0.00194021,0.00631523,-0.052525,4965,4965,0
127427532,127427206,3670026,3670026,-0.000820077,2.81587e-05,0.00132764,-0.00816504,0.0167441,-0.0546155,4968,4968,0
127929162,127928768,3670026,3670026,0.000146862,-3.74209e-05,-0.000250047,-0.00934193,-0.0102257,-0.0572709,4966,4966,0
128425901,128425533,3670026,3670026,-0.000237667,-8.8775e-05,0.00119059,0.000902036,0.00968338,-0.0452657,4995,4995,0
128927255,128926927,3670026,3670026,-0.00173425,0.000479448,0.000731837,-0.0032508,-0.00190683,-0.0533449,4962,4962,0
129428823,129428495,3670026,3670026,-0.000428331,-4.04712e-05,0.000262281,-0.00845369,-0.00174344,-0.0537292,4954,4954,0
129930380,129930058,3670026,3670026,-0.000521641,-0.000191442,-0.000556111,-0.010873,0.00163991,-0.0571358,4968,4968,0
130427028,130426705,3670026,3670026,-0.000444415,3.09474e-05,0.000727021,-0.000398776,0.0235609,-0.0447501,4995,4995,0
130928628,130928218,3670026,3670026,0.000251879,0.000368306,8.79542e-06,0.00244812,-0.0185991,-0.0491065,4966,4966,0
131425168,131424816,3670026,3670026,0.000278905,0.000246637,0.000147695,0.00223105,-0.0141393,-0.0490059,4965,4965,0
131926928,131926556,3670026,3670026,7.70702e-05,-0.000631553,-0.000207852,0.00705225,-0.0117376,-0.0386923,4992,4992,0
132428272,132427945,3670026,3670026,-0.000893918,0.000311637,0.000116539,-0.00869467,-0.00152133,-0.060045,4968,4968,0
132929883,132929510,3670026,3670026,0.00111385,-0.000147586,-0.000772917,9.24451e-05,-0.0276018,-0.0483698,4927,4927,0
133426475,133426105,3670026,3670026,-0.00130131,-6.68569e-05,0.000757355,-0.00576505,0.00235114,-0.0529788,4967,4967,0
133928092,133927668,3670026,3670026,-0.00111595,0.000303968,0.000676785,-0.00438125,0.000402805,-0.0513832,4965,4965,0
134424691,134424265,3670026,3670026,0.000942938,-0.000170066,-0.00104171,0.00182806,-0.0109876,-0.0403123,4965,4965,0
134926181,134925829,3670026,3670026,0.000672477,-0.000793247,-0.000685526,-0.00229847,0.00299374,-0.0467508,4966,4966,0
135427947,135427574,3670026,3670026,0.00082828,-0.000556506,-0.000221135,0.0124113,-0.0126652,-0.0311286,4989,4989,0
135929357,135928976,3670026,3670026,0.000226012,-0.000378819,-0.000487161,0.000976861,0.00618935,-0.0419577,4985,4985,0
136425877,136425555,3670026,3670026,0.000815283,-0.000319334,-0.00127868,-0.00603818,-0.00952962,-0.0526382,4966,4966,0
136927447,136927118,3670026,3670026,0.000579418,-1.06842e-07,-0.00020976,0.00176123,0.0134549,-0.0387316,4966,4966,0
137429081,137428707,3670026,3670026,-0.00110492,0.000468916,0.000672253,0.000322033,-0.01164,-0.052315,4991,4991,0
137925716,137925281,3670026,3670026,-0.000211106,0.000142617,0.000860415,0.00439658,-0.00582623,-0.0434786,4967,4967,0
138427235,138426843,3670026,3670026,-0.00119717,0.000171858,0.000429174,-0.0163482,0.0121063,-0.064396,4966,4966,0
138929066,138928602,3670026,3670026,0.0011711,-5.96094e-05,-0.000832749,-0.00347589,-0.0313199,-0.05166,4996,4996,0
139430380,139430000,3670026,3670026,0.000343261,0.000304006,-0.00035956,-0.00587748,0.014017,-0.049498,4995,4995,0
139926946,139926570,3670026,3670026,-0.00134718,0.000764281,0.0010768,-0.0153323,0.0248502,-0.0616898,4967,4967,0
140428453,140428133,3670026,3670026,-0.00050173,0.000338854,0.000519857,-0.000946268,-0.00831809,-0.048344,4943,4943,0
140930030,140929700,3670026,3670026,0.000380227,-0.000901803,-0.00119784,-0.0023766,-0.0169191,-0.0502045,4970,4970,0
141431661,141431260,3670026,3670026,5.4745e-05,9.55291e-05,0.000209355,0.00821291,0.00963529,-0.0368307,4965,4965,0
141928248,141927858,3670026,3670026,-0.000310196,0.000918776,0.000565824,-0.00553996,0.00339874,-0.0532634,4966,4966,0
142429770,142429425,3670026,3670026,-0.00114141,0.000119486,0.000326271,-0.0112447,-0.00258325,-0.0602794,4793,4793,0
142926393,142926021,3670026,3670026,-0.000104895,-0.000526386,-0.000964713,-0.00435134,-0.0174336,-0.0510948,4934,4934,0
143427973,143427584,3670026,3670026,0.000817006,-0.000221086,-0.00071993,-0.00263668,0.00661998,-0.0447087,4967,4967,0
143929544,143929173,3670026,3670026,0.000989274,-0.000663273,-0.00023903,0.00353415,-0.00948099,-0.0389928,4988,4988,0
144431090,144430711,3670026,3670026,0.000354025,-0.000154985,-0.000718121,-0.00691272,-0.0131609,-0.0564937,4966,4966,0
144927722,144927323,3670026,3670026,0.000417616,-0.000506472,-0.000686964,-0.00319109,-0.00200422,-0.0460202,4929,4929,0
145429223,145428873,3670026,3670026,0.000746486,-0.000590884,-0.00106241,0.00215931,-0.0271534,-0.0435851,4965,4965,0
145925978,145925655,3670026,3670026,-1.33722e-05,-0.000630353,-0.000190511,0.00578597,-0.00980275,-0.0390898,4992,4992,0
146427423,146427048,3670026,3670026,0.000656301,-0.000199328,-0.000313925,0.00800308,-0.00333362,-0.0318379,4979,4979,0
146929004,146928600,3670026,3670026,0.00121884,-0.00038856,-0.000160745,0.0112368,-0.00995637,-0.0322336,4965,4965,0
147430541,147430163,3670026,3670026,0.00102978,0.000432533,-0.000194374,-0.00433922,6.29965e-05,-0.0491184,4917,4917,0
147927135,147926760,3670026,3670026,0.00155817,-0.000849637,-0.000628535,0.00865562,-0.00570461,-0.0358268,4963,4963,0
148428757,148428327,3670026,3670026,0.000244386,1.99091e-05,-0.000367267,-0.00343443,-0.0102961,-0.0507075,4969,4969,0
148925287,148924923,3670026,3670026,0.000476043,-0.000526332,-8.01837e-05,0.0021061,0.00122686,-0.0381469,4967,4967,0
149427009,149426681,3670026,3670026,-0.00108234,8.04666e-05,0.000582415,-0.00275347,0.019466,-0.0482782,4999,4999,0
149928485,149928116,3670026,3670026,0.000113937,-0.000118619,0.000168373,0.00341803,-0.0161923,-0.04243,4975,4975,0
150429964,150429639,3670026,3670026,-0.000575692,0.000277629,0.000769043,-0.00293931,0.0241339,-0.047139,4987,4987,0
150926535,150926212,3670026,3670026,0.000809001,-0.000374086,-0.00089468,0.00162303,-0.000475461,-0.0415692,4967,4967,0
151428149,151427775,3670026,3670026,-0.000154904,0.000195246,-0.000276392,-0.00733822,0.00152982,-0.0563242,4965,4965,0
151924772,151924373,3670026,3670026,-0.001768,0.000611876,0.0012061,-0.0161444,0.0137584,-0.0630291,4966,4966,0
152426332,152425987,3670026,3670026,-0.000815479,0.00100837,0.000637964,-0.00688886,0.00146383,-0.0532412,4945,4945,0
152927854,152927504,3670026,3670026,0.00139482,-0.000601878,-0.000990709,0.00406511,-0.0143846,-0.0400117,4794,4794,0
153429431,153429109,3670026,3670026,0.000808996,-0.000602482,-0.000956104,0.00449407,-0.0126501,-0.0425058,4988,4988,0
153930977,153930641,3670026,3670026,0.000110488,-0.000283871,-0.000109637,0.0090961,0.00285242,-0.0341682,4976,4976,0
154427556,154427227,3670026,3670026,-0.000509453,2.93556e-05,0.000854256,0.00201257,-0.00614885,-0.0455083,4966,4966,0
154929130,154928792,3670026,3670026,-0.000795964,-0.000173125,-0.000334952,-0.00072828,0.00114735,-0.0450256,4967,4967,0
155430676,155430356,3670026,3670026,0.000984803,-0.000195468,-0.000530382,0.00370997,0.00330765,-0.0387808,4968,4968,0
155927384,155926953,3670026,3670026,-0.000532445,0.000795093,0.000842591,-0.0050133,0.0125951,-0.0516359,4966,4966,0
156428870,156428517,3670026,3670026,-0.000514481,-0.000399432,0.000282632,0.00495415,-0.00694991,-0.0400772,4781,4781,0
156930552,156930178,3670026,3670026,-0.000965473,-0.000329754,0.000228056,-0.00177847,-0.00518405,-0.0509906,4999,4999,0
157427063,157426681,3670026,3670026,0.00145843,-0.000358103,-0.000555983,0.00260814,-0.00780544,-0.042474,4968,4968,0
157928611,157928243,3670026,3670026,-3.19503e-05,0.000453707,-0.000203585,-0.00997228,-0.00878133,-0.0570763,4967,4967,0
158430225,158429806,3670026,3670026,-0.000962706,-7.25873e-05,0.000481091,-0.00635408,0.00156754,-0.0541763,4966,4966,0
158926744,158926417,3670026,3670026,-0.000733813,-2.94506e-05,-0.00021254,-0.00739286,-0.0187699,-0.0547576,4923,4923,0
159428367,159427973,3670026,3670026,0.000310781,-0.000214457,-0.000519056,-0.00438459,-0.0183654,-0.053247,4971,4971,0
159929884,159929534,3670026,3670026,-0.00012573,0.00041027,-0.000528342,-0.00995011,0.00463452,-0.0544207,4775,4775,0
160426593,160426262,3670026,3670026,-0.000578039,-8.55364e-05,0.000198354,-0.00736745,-0.0120127,-0.0599749,4992,4992,0
160928043,160927714,3670026,3670026,-0.000512881,1.62103e-05,-0.000330452,-0.00897498,-0.00938193,-0.0604182,4982,4982,0
161429679,161429259,3670026,3670026,-0.000990324,0.000558787,0.000923078,-0.00680093,0.0172559,-0.0544032,4967,4967,0
161931143,161930821,3670026,3670026,-0.000294494,9.18903e-05,0.000650191,0.000526688,-0.00378941,-0.0515574,4965,4965,0
162427741,162427419,3670026,3670026,0.00114916,-0.000267776,-0.000827881,-0.00134614,-0.0250826,-0.0469154,4958,4958,0
162929432,162928984,3670026,3670026,-0.00169593,0.000302529,0.00093798,-0.0039258,0.017815,-0.0502939,4967,4967,0
163425935,163425584,3670026,3670026,-0.00164162,0.00116163,0.00188671,-0.00827162,0.0266423,-0.0496804,4793,4793,0
163927541,163927170,3670026,3670026,0.000479398,8.61736e-05,-0.0006277,-0.000598847,-0.0128748,-0.0478044,4987,4987,0
164429097,164428709,3670026,3670026,-0.000569589,0.000246853,0.000511545,-0.011343,0.00771945,-0.0579421,4966,4966,0
164930595,164930273,3670026,3670026,0.00060029,-0.000253905,-0.00115753,-0.00299353,-0.0094225,-0.0521261,4965,4965,0
165427198,165426871,3670026,3670026,-0.000507196,0.000498599,0.000295665,-0.0121144,0.0105131,-0.058225,4965,4965,0
165928890,165928437,3670026,3670026,-0.000831646,0.000401483,0.000742937,-0.00727074,-0.00138464,-0.0537629,4968,4968,0
166425387,166425035,3670026,3670026,0.000177362,0.000132684,-8.57207e-05,-0.00256886,-0.0214575,-0.0520704,4968,4968,0
166926945,166926598,3670026,3670026,-5.12373e-05,0.00014093,-0.000279331,-0.00512124,-0.0240766,-0.0531663,4785,4785,0
167428587,167428267,3670026,3670026,-0.00118991,0.000171087,0.000706094,-0.0126754,-0.00141992,-0.0631177,4999,4999,0
167930048,167929725,3670026,3670026,0.000113376,0.000118502,-0.000356358,-0.0092095,-0.00526357,-0.0592154,4966,4966,0
168426644,168426324,3670026,3670026,0.000944608,-0.000516923,-0.00026787,0.00423841,-0.00747305,-0.0381575,4966,4966,0
168928219,168927887,3670026,3670026,-0.000134505,0.000173304,-4.68531e-05,-0.000473995,0.0207971,-0.0402799,4966,4966,0
169424892,169424487,3670026,3670026,0.000396422,4.08328e-05,-0.000211316,-0.00680883,0.0121072,-0.0526521,4968,4968,0
169926395,169926049,3670026,3670026,0.00131469,-0.000377562,-0.000935818,0.00202353,-0.0236582,-0.0443945,4966,4966,0
170427953,170427613,3670026,3670026,0.000927834,8.59701e-05,-0.000390217,-0.000516091,0.0105772,-0.0420728,4774,4774,0
170929632,170929221,3670026,3670026,-0.000133581,8.15229e-05,-0.000838303,-0.00341348,-0.0104297,-0.0522173,4939,4939,0
171426189,171425775,3670026,3670026,-0.000924651,0.000194914,0.000367626,-0.0130208,-0.00515068,-0.0620776,4965,4965,0
171927735,171927343,3670026,3670026,0.000601114,-2.74601e-05,-0.000748819,-0.00734824,0.00306147,-0.0541519,4929,4929,0
172429232,172428903,3670026,3670026,0.000102273,0.000166967,-9.26987e-05,0.00372591,0.007048,-0.0388569,4965,4965,0
172925907,172925501,3670026,3670026,-0.00157347,0.000219641,0.000680125,-0.0121885,0.0138458,-0.0599891,4966,4966,0
173427412,173427065,3670026,3670026,-0.00035815,-0.000267427,-0.000262383,0.00453714,0.00810087,-0.0408316,4966,4966,0
173928975,173928629,3670026,3670026,0.000183028,0.000135843,0.000301983,0.000899989,0.0108596,-0.0417536,4963,4963,0
174425684,174425313,3670026,3670026,0.000211838,-0.000142766,-0.00010157,0.00502464,-0.00301465,-0.0407481,4985,4985,0
174927171,174926791,3670026,3670026,0.000437623,-0.000708175,-0.000706262,0.00843439,-0.0155277,-0.0377474,4966,4966,0
175428677,175428351,3670026,3670026,-0.000459731,0.000164837,-0.000165139,-0.000940462,-0.0213815,-0.0504435,4932,4932,0
175930262,175929922,3670026,3670026,-0.000632944,-0.00014824,-0.000170494,0.00114179,0.00829057,-0.0450591,4969,4969,0
176426884,176426518,3670026,3670026,7.30383e-05,0.000162033,-0.000225783,0.00861513,-0.00208037,-0.0387477,4966,4966,0
176928423,176928081,3670026,3670026,-0.00136617,0.000274679,0.000267994,-0.00861548,0.00378136,-0.0589146,4966,4966,0
177425024,177424678,3670026,3670026,0.00178572,5.32364e-05,-0.000364829,-0.000578444,0.00239782,-0.0440613,4782,4782,0
177926648,177926273,3670026,3670026,0.000116714,-0.000765666,-0.000248121,0.00403307,-0.0129692,-0.0377311,4981,4981,0
178428133,178427810,3670026,3670026,-0.000813771,0.000143463,-0.000365899,-0.0135341,-0.0111497,-0.0650635,4970,4970,0
178929695,178929372,3670026,3670026,-0.000250035,-4.50644e-05,0.000180982,-0.00111256,0.000949721,-0.0435929,4964,4964,0
179431308,179430934,3670026,3670026,0.0012742,-0.000517429,-0.00109723,0.00367973,0.000759971,-0.0397605,4965,4965,0
179927980,179927582,3670026,3670026,-2.42962e-05,0.000145414,-0.000539564,-0.00849922,-0.00930578,-0.0586459,5015,5015,0
180424526,180424131,3670026,3670026,-0.00250282,0.001613,-0.0032206,-0.0011368,-0.0239979,-0.0564786,4967,4967,0
180926068,180925708,3670026,3670026,0.00258186,-0.000226487,-0.00521617,0.00439968,-0.0225679,-0.0411615,4787,4787,0
181427715,181427305,3670026,3670026,0.00378865,-0.00115115,-0.00552513,0.00854869,-0.0207728,-0.0405945,4989,4989,0
181929248,181928823,3670026,3670026,0.00112538,1.18763e-05,-0.0040467,0.0119012,-0.00703148,-0.0290834,4967,4967,0
182430711,182430387,3670026,3670026,-0.000407256,0.000213294,0.00054491,-0.0136326,0.0285929,-0.0604478,4967,4967,0
182927349,182926985,3670026,3670026,-0.000245913,-0.000386344,0.000598036,0.00619127,-0.00779931,-0.0443408,4967,4967,0
183428892,183428550,3670026,3670026,6.51421e-05,-6.63802e-05,0.000771073,-0.0040168,-0.00865092,-0.0566352,4968,4968,0
183925543,183925146,3670026,3670026,-0.00109121,0.000647404,0.000205395,-0.017608,0.00881854,-0.0646728,4964,4964,0
184427105,184426713,3670026,3670026,-0.000704696,-9.77008e-05,-0.000355409,-0.000458741,0.00712028,-0.0461965,4924,4924,0
184928688,184928320,3670026,3670026,-0.00110845,0.00056513,0.000892952,-0.00408074,0.0144387,-0.0513179,4948,4948,0
185430174,185429844,3670026,3670026,4.30309e-05,1.81411e-05,-0.000352965,-0.00573273,0.00634523,-0.0479501,4972,4972,0
185926764,185926436,3670026,3670026,-0.00107561,0.000369239,0.000581135,-0.0035546,0.00350535,-0.0496271,4952,4952,0
186428338,186428009,3670026,3670026,0.000228825,-0.000300708,-0.000934275,-0.00290334,-0.0208708,-0.0480267,4974,4974,0
186925018,186924598,3670026,3670026,0.000859453,-0.000322833,-0.00106385,0.000753752,-0.0323662,-0.0497983,4967,4967,0
187426549,187426161,3670026,3670026,-0.00115542,0.000274816,0.000884842,0.00451003,0.00884387,-0.0408427,4961,4961,0
187928069,187927725,3670026,3670026,-0.000672678,-2.0545e-05,0.000754504,-0.00385119,-0.00187674,-0.0537345,4957,4957,0
188429670,188429344,3670026,3670026,1.94598e-05,2.93575e-05,-7.57597e-05,-0.0105135,2.605e-05,-0.0576482,4990,4990,0
188926276,188925949,3670026,3670026,-0.000722066,0.000474544,0.00113232,-0.00659075,0.00812996,-0.0550026,5027,5027,0
189427780,189427453,3670026,3670026,0.00142624,-0.000480547,-0.00122833,-0.000147351,-0.00806876,-0.0442648,4968,4968,0
189929350,189929017,3670026,3670026,-0.000742609,0.00036189,0.00094608,-0.011993,0.0269125,-0.0569935,4969,4969,0
190425941,190425613,3670026,3670026,-0.000879598,-0.000326444,-0.000154088,0.00194421,0.00545223,-0.0428359,4966,4966,0
190927581,190927237,3670026,3670026,0.00014238,0.00018036,0.000266032,0.00514523,-0.00897161,-0.0425185,4982,4982,0
191429090,191428745,3670026,3670026,0.000322767,2.9887e-06,2.24343e-05,-0.00257255,-0.000828539,-0.0535544,4971,4971,0
191925830,191925382,3670026,3670026,0.000329046,0.000300463,-7.40277e-05,-0.00694893,0.0039478,-0.0528939,4986,4986,0
192427347,192426902,3670026,3670026,-0.000109565,-0.000444627,1.30642e-05,-0.00202515,0.0181936,-0.0425902,4966,4966,0
192928846,192928467,3670026,3670026,-0.000460791,0.000214066,0.000440024,0.00554652,-0.00373695,-0.0409976,4967,4967,0
193430358,193430031,3670026,3670026,-0.000669562,-0.000268175,0.000301315,0.00204449,0.0086747,-0.0402674,4966,4966,0
193927041,193926631,3670026,3670026,-7.45479e-05,7.12165e-05,0.000480785,-0.00302075,-0.0128263,-0.0519136,4969,4969,0
194428540,194428195,3670026,3670026,0.00129947,-0.00035003,-0.00144824,0.000650393,-0.0314554,-0.0504779,4970,4970,0
194925142,194924789,3670026,3670026,0.000240554,0.000270774,0.00054519,0.0020093,-0.00927977,-0.0420947,4963,4963,0
195426828,195426406,3670026,3670026,-0.00135813,-0.000888304,0.000316266,-0.0029434,0.0100407,-0.0467977,4989,4989,0
195928307,195927917,3670026,3670026,-0.00026504,0.000152456,0.000435399,0.00710133,0.00292292,-0.0348607,4965,4965,0
196429809,196429481,3670026,3670026,0.000497911,-0.000572205,-0.000636231,0.00037171,-0.00290469,-0.0394423,4966,4966,0
196931415,196931045,3670026,3670026,-0.00022789,-0.000261201,0.000241332,-0.00179318,0.0201153,-0.04216,4966,4966,0
197427989,197427666,3670026,3670026,0.00132701,-0.000205228,-0.000410016,0.00670992,-0.0121114,-0.0359203,4988,4988,0
197924624,197924240,3670026,3670026,0.000260517,-5.05497e-05,-0.000552668,-0.0104724,0.00361382,-0.0599787,4965,4965,0
198426155,198425804,3670026,3670026,6.73319e-05,-0.000309113,-0.000940632,-0.00285257,-0.00388534,-0.0504318,4966,4966,0
198927834,198927422,3670026,3670026,-0.000471155,-4.61119e-05,0.000293036,-0.0013287,0.0186173,-0.0435335,4986,4986,0
199429269,199428938,3670026,3670026,0.000507974,9.62164e-05,0.000568098,0.00245646,-0.00258343,-0.0448013,4928,4928,0
199930820,199930495,3670026,3670026,-0.000913888,0.000382715,0.000455108,-0.0159165,0.00235605,-0.0667203,4964,4964,0
200427464,200427093,3670026,3670026,6.15427e-05,-0.000313661,-0.000697885,-0.00943882,-0.00898541,-0.0598068,4966,4966,0
200929052,200928662,3670026,3670026,-0.000400685,0.000453694,0.00116586,0.00309612,0.00325945,-0.0409974,4971,4971,0
201425611,201425262,3670026,3670026,-0.000297838,-0.000266937,5.29224e-05,0.000825811,0.000698169,-0.0451151,4973,4973,0
201927163,201926818,3670026,3670026,0.00118962,-0.000183321,-0.000752423,0.00797555,-0.00693551,-0.0363938,4966,4966,0
202428877,202428502,3670026,3670026,0.000198388,9.51596e-05,-0.000146581,-0.00764792,-0.0053539,-0.056377,4992,4992,0
202930334,202929947,3670026,3670026,-0.00129894,0.000163745,0.000670047,-0.00117341,0.0117367,-0.0504021,4963,4963,0
203426912,203426544,3670026,3670026,-0.00028229,0.000209391,0.000488861,-0.00470474,-0.0197435,-0.056671,4966,4966,0
203928528,203928108,3670026,3670026,0.000752939,-1.90216e-05,-0.00045738,-0.00418174,-0.0263939,-0.0557927,4966,4966,0
204425040,204424705,3670026,3670026,0.000482556,-9.76443e-05,-0.000826822,-0.00544667,-0.000200747,-0.0508635,4966,4966,0
204926699,204926270,3670026,3670026,0.00123554,-1.70846e-05,-0.000677008,0.00215949,-0.018805,-0.0450436,4967,4967,0
205428187,205427833,3670026,3670026,0.000526046,-0.000163863,-0.000882191,-0.000485606,-0.027109,-0.0490907,4966,4966,0
205929925,205929517,3670026,3670026,0.000189734,-0.000517228,-0.00142687,-0.0031449,-0.0185234,-0.052108,4980,4980,0
206426364,206425994,3670026,3670026,-0.00100417,0.000762139,0.00121608,-0.0101209,0.0188182,-0.0538764,4966,4966,0
206927936,206927560,3670026,3670026,0.000133441,4.165e-05,0.000577426,0.00146338,-0.00940986,-0.0457328,4968,4968,0
207429501,207429122,3670026,3670026,-0.000723053,0.00056711,0.000495417,-0.00664864,-0.00124839,-0.0560618,4960,4960,0
207926175,207925723,3670026,3670026,-0.00030177,0.000285663,0.000102268,-0.0142482,0.00702832,-0.0598707,4937,4937,0
208427681,208427287,3670026,3670026,0.000130258,-0.000656856,-0.000298023,0.00182513,-0.0109632,-0.0455954,4968,4968,0
208929233,208928847,3670026,3670026,-8.42155e-05,-0.00075415,-0.000236165,0.00421315,-0.00537238,-0.0415114,4966,4966,0
209425887,209425564,3670026,3670026,0.000318257,0.000404245,9.65636e-05,-0.00342599,-0.00723849,-0.0524168,5001,5001,0
209927388,209927010,3670026,3670026,4.66125e-05,0.000280013,0.0002063,-0.00684031,-0.0155382,-0.0553573,4967,4967,0
210428958,210428574,3670026,3670026,0.000330771,-0.000252102,-0.000322638,-0.00679606,-0.021642,-0.0573824,4940,4940,0
210930506,210930136,3670026,3670026,-0.000103606,-8.84065e-05,8.28021e-06,-0.0118785,-0.0108938,-0.0596055,4966,4966,0
211432080,211431700,3670026,3670026,0.00204443,-0.000853217,-0.00116122,0.00415522,-0.0232127,-0.043804,4966,4966,0
211928677,211928298,3670026,3670026,-0.000557171,-8.89378e-05,0.000209785,-0.00075765,-0.0156027,-0.0535825,4966,4966,0
212425292,212424895,3670026,3670026,-0.000381048,-0.000129852,0.000384132,0.000239305,-0.0116728,-0.0506881,4965,4965,0
212926906,212926580,3670026,3670026,0.000366459,-0.000173088,-0.00116675,-0.00473759,-0.0130236,-0.0529418,4998,4998,0
213428437,213428023,3670026,3670026,0.0017353,-0.00075277,-0.00102959,0.00674535,-0.00963167,-0.0368847,4966,4966,0
213929990,213929607,3670026,3670026,0.000689601,-0.000390637,-0.00088011,0.00255384,-0.0153679,-0.0448236,4986,4986,0
214431550,214431150,3670026,3670026,0.000701855,-0.000285398,-0.00142722,-0.0056827,-0.0175428,-0.0534812,4966,4966,0
214928128,214927748,3670026,3670026,8.68082e-05,-0.000262363,-0.000169111,0.00700012,-0.0205449,-0.037398,4966,4966,0
215424697,215424352,3670026,3670026,-0.00143988,0.00035903,0.0010976,-0.0102812,0.00791373,-0.0569492,4928,4928,0
215926267,215925911,3670026,3670026,-0.00107595,0.000145788,0.000767849,0.00293443,0.00590857,-0.0459692,4968,4968,0
216427948,216427545,3670026,3670026,-0.00128427,7.95174e-05,0.000336516,-0.0135051,0.0103143,-0.0631572,4985,4985,0
216929372,216929049,3670026,3670026,0.000980778,-0.000270213,-0.000580328,-0.00119693,-0.00792353,-0.044747,4977,4977,0
217430956,217430601,3670026,3670026,-0.000219015,-4.31081e-05,-0.000425006,0.00144095,-0.00147954,-0.0428207,4966,4966,0
217927568,217927246,3670026,3670026,-0.000478953,0.00106737,0.000348522,-0.00812841,-0.00232679,-0.0605493,4985,4985,0
218429124,218428794,3670026,3670026,-0.00190669,0.000789089,0.00100998,-0.0045824,0.0127497,-0.0522159,4995,4995,0
218925710,218925360,3670026,3670026,0.000685571,-0.000244051,-0.000252041,0.00303593,-0.00135779,-0.0386734,4965,4965,0
219427274,219426924,3670026,3670026,-0.000312648,0.000524104,0.00126227,-0.0015211,0.0173123,-0.0465021,4966,4966,0
219928944,219928567,3670026,3670026,-0.000239675,9.17107e-05,-7.45627e-05,-0.00370127,-0.0087134,-0.0522997,4990,4990,0
220430381,220430052,3670026,3670026,-8.3368e-05,-0.000288007,-0.000506489,-0.0031129,0.00491259,-0.0475039,4966,4966,0
220926973,220926650,3670026,3670026,-0.000271015,-0.000185882,0.000288638,-0.00781486,-0.0223474,-0.0579922,4966,4966,0
221428589,221428213,3670026,3670026,0.000479106,-0.000223481,-0.000597795,0.000733136,-0.0262227,-0.0540149,4966,4966,0
221925191,221924810,3670026,3670026,-0.000284359,7.37032e-05,6.69152e-06,0.00071443,0.00570118,-0.0448794,4965,4965,0
222426720,222426375,3670026,3670026,-0.00115988,0.000410674,0.000362527,-0.00397469,-0.0130943,-0.0550857,4967,4967,0
222928332,222927938,3670026,3670026,-0.000110453,6.28593e-05,-0.000823321,-0.00891373,0.00079111,-0.060368,4963,4963,0
223430059,223429654,3670026,3670026,0.0003193,-0.000290589,-0.000843023,0.0022293,0.00807247,-0.043815,5049,5049,0
223926508,223926099,3670026,3670026,0.000999673,5.41553e-05,-0.000837903,-0.00334067,-0.028177,-0.0507002,4966,4966,0
224427988,224427663,3670026,3670026,9.39427e-05,5.77098e-05,-0.000336294,-0.00352786,0.00833928,-0.049514,4965,4965,0
224929550,224929227,3670026,3670026,0.000660334,0.00024143,-0.000107256,-0.00489951,0.000223047,-0.0513794,4966,4966,0
225426153,225425825,3670026,3670026,-0.000446919,-0.000212419,0.000305228,0.00134096,0.00964545,-0.0421611,4966,4966,0
225927742,225927401,3670026,3670026,-0.000114496,0.000854742,0.000305703,-0.00311254,0.0015156,-0.0549413,4976,4976,0
226429339,226428952,3670026,3670026,-0.000974375,0.000966498,0.000850023,-0.00196645,0.00653705,-0.0533832,4966,4966,0
226925961,226925631,3670026,3670026,-0.000881896,0.00209931,-0.00504515,-0.000619503,-0.00446063,-0.0421819,4997,4997,0
227427477,227427142,3670026,3670026,0.00184091,-0.000407643,-0.00449313,-0.00889647,0.0123799,-0.0588349,4994,4994,0
227929027,227928702,3670026,3670026,-0.00158606,0.000488371,-0.0030334,-0.00672883,0.00375195,-0.0553079,4931,4931,0
228430653,228430241,3670026,3670026,0.000962765,-0.00056861,-0.00403096,0.0138994,-0.0101371,-0.0311456,4966,4966,0
228927291,228926839,3670026,3670026,-0.00047825,0.000360555,-0.000647618,-0.00972436,-0.0164,-0.0551944,4966,4966,0
229428758,229428404,3670026,3670026,0.000855429,0.000287965,0.000204765,-0.00340473,-0.00396094,-0.0514172,4967,4967,0
229925351,229925000,3670026,3670026,0.000452642,-0.000501229,-0.000214551,-0.0047368,-0.02581,-0.0543356,4963,4963,0
230427012,230426643,3670026,3670026,-0.00135179,0.000236638,0.00129503,-0.00895494,0.00653259,-0.0555664,4990,4990,0
230928451,230928128,3670026,3670026,-0.000847895,0.00114539,0.000716935,-0.0104247,0.0196518,-0.0620314,4965,4965,0
231430127,231429691,3670026,3670026,-0.000448287,0.000111657,0.000353783,-0.00032654,0.00202729,-0.0453889,4916,4916,0
231931683,231931257,3670026,3670026,0.000820454,0.000306011,-0.000640203,0.00254587,-0.00583932,-0.0435279,4968,4968,0
232428360,232427854,3670026,3670026,-0.000289387,5.14205e-05,0.000605297,-0.00226793,-0.00930156,-0.0528803,4967,4967,0
232924789,232924448,3670026,3670026,0.000166429,0.00010181,0.000374586,0.00561168,-0.00462125,-0.0376504,4964,4964,0
233426403,233426016,3670026,3670026,0.000187916,-0.000954776,-0.000131208,0.00320555,-0.00401466,-0.0428374,4967,4967,0
233928012,233927665,3670026,3670026,0.00101755,0.000473936,-0.000310797,-0.00511218,0.000693484,-0.0488336,4988,4988,0
234429479,234429146,3670026,3670026,0.000488141,3.09916e-05,-0.000117756,-0.000850515,0.0103091,-0.0419176,4965,4965,0
234931078,234930705,3670026,3670026,-0.00114037,0.0001595,0.000502409,-0.00333862,0.0101678,-0.0536341,4966,4966,0
235427672,235427303,3670026,3670026,0.00052128,-0.000452055,-0.0012704,-0.000653128,-0.0270248,-0.0483311,4950,4950,0
235924267,235923901,3670026,3670026,0.000616199,-3.05787e-05,-9.70442e-05,-0.00542803,-0.00559935,-0.0530138,4966,4966,0
236425868,236425520,3670026,3670026,0.000773283,-9.09805e-05,0.000174939,0.0070485,0.0132144,-0.0360985,4992,4992,0
236927379,236927029,3670026,3670026,0.00147019,-0.000650711,-0.000799455,0.0152387,-0.0157118,-0.0315407,4967,4967,0
237429106,237428693,3670026,3670026,0.00129447,-0.000594258,-0.000970497,0.0106416,-0.0250543,-0.0355329,4988,4988,0
237930528,237930156,3670026,3670026,0.000650831,-0.000756027,-0.000810487,-0.00181958,-0.000994641,-0.0474798,4966,4966,0
238427081,238426754,3670026,3670026,0.000912831,-0.00051734,-0.000690221,0.00312693,-0.00620494,-0.0394501,4967,4967,0
238928753,238928317,3670026,3670026,-0.00197577,0.000530455,0.00123076,-0.00961825,0.0216591,-0.0559504,4966,4966,0
239430208,239429881,3670026,3670026,-0.000136519,0.000372758,-0.000203224,-0.00627187,-0.0103383,-0.0546743,4966,4966,0
239926864,239926480,3670026,3670026,-0.000108586,0.000160801,0.000700703,0.000627617,-0.00620313,-0.047789,4967,4967,0
240428391,240428042,3670026,3670026,0.00051943,0.000644212,0.000106126,-0.00645819,0.0110129,-0.0505908,4966,4966,0
240930140,240929751,3670026,3670026,0.00106031,-0.000691521,-0.000755387,0.00415322,0.00869029,-0.0423591,4988,4988,0
241426578,241426254,3670026,3670026,-0.00175194,0.000165855,0.000501772,-0.018509,0.0175097,-0.0658297,4999,4999,0
241928136,241927768,3670026,3670026,-9.13466e-05,0.000511383,0.000576797,-0.00661851,0.00746623,-0.053598,4966,4966,0
242429722,242429333,3670026,3670026,0.000844107,-0.000226928,-0.00067335,0.00242614,-0.00971749,-0.0432803,4968,4968,0
242926257,242925929,3670026,3670026,0.00022052,0.000113166,-0.000396726,-0.00893235,0.00696578,-0.0546769,4966,4966,0
243427841,243427493,3670026,3670026,-0.000535045,9.41913e-05,0.000157746,0.00300712,-0.00302127,-0.0412523,4966,4966,0
243929410,243929069,3670026,3670026,-0.00130465,0.000231709,0.000578906,-0.00642201,0.00216831,-0.054721,4926,4926,0
244426164,244425793,3670026,3670026,0.00215472,-0.000411481,-0.00120982,0.00199599,-0.00671956,-0.0455531,4977,4977,0
244927612,244927223,3670026,3670026,0.000544002,-9.43189e-05,-0.000634154,-0.00588172,0.000363046,-0.0521444,4965,4965,0
245429164,245428792,3670026,3670026,4.90232e-05,0.000558587,-6.47159e-05,-0.00710788,0.00330042,-0.0542958,4976,4976,0
245930778,245930346,3670026,3670026,-1.74307e-05,0.000301301,0.00045487,-0.00634494,0.000223696,-0.0531015,4967,4967,0
246427306,246426978,3670026,3670026,0.00015596,-0.000745267,-0.000886102,0.000976963,-0.00783659,-0.049316,4988,4988,0
246928900,246928507,3670026,3670026,-7.59477e-05,-8.46692e-05,-0.000497162,-0.00817077,0.00330402,-0.0571356,4965,4965,0
247425503,247425109,3670026,3670026,0.00045545,-0.000330369,0.000143399,0.00938159,-0.00555113,-0.036163,4970,4970,0
247927153,247926769,3670026,3670026,0.00157546,-0.00011323,-0.000809854,-0.000906464,-0.00929003,-0.0486527,4994,4994,0
248428641,248428232,3670026,3670026,-0.00113359,0.000177834,0.00102708,0.00139897,0.00945596,-0.0455121,4966,4966,0
248930212,248929796,3670026,3670026,-0.00028163,0.000115022,-0.000351281,-0.00914087,0.00958849,-0.0589216,4966,4966,0
249431783,249431360,3670026,3670026,-0.00094057,0.000627566,0.00151077,-0.000568724,0.0181255,-0.0449161,4966,4966,0
249928285,249927957,3670026,3670026,0.000768771,-2.42894e-05,-0.000662767,-0.00465653,-0.0284869,-0.0542982,4966,4966,0
250424946,250424556,3670026,3670026,-0.000992179,0.00049961,0.000697453,-0.0111826,0.00334047,-0.0626321,4967,4967,0
250926462,250926119,3670026,3670026,-0.000404787,-0.00090646,-0.00029544,-0.000396555,-0.00294433,-0.0462963,4966,4966,0
251428224,251427790,3670026,3670026,-0.0013205,0.000305048,0.000419508,-0.0138637,0.00686506,-0.0629744,4989,4989,0
251929573,251929249,3670026,3670026,-0.000169248,-9.45358e-05,-0.000548986,0.00190005,0.00803703,-0.0438458,4968,4968,0
252431145,252430811,3670026,3670026,-0.000529482,0.000278699,-0.000335231,-0.0111123,0.00279765,-0.056837,4966,4966,0
252927776,252927409,3670026,3670026,0.000408484,-0.000288944,-0.000467686,0.00712943,-0.00498242,-0.0358456,4967,4967,0
253429345,253428972,3670026,3670026,0.000332823,-5.72156e-05,-0.000264889,-0.00758677,0.00615064,-0.0539648,4966,4966,0
253925968,253925572,3670026,3670026,-0.000480111,4.19755e-05,0.000476182,0.00120908,0.0186512,-0.0403308,4968,4968,0
254427517,254427134,3670026,3670026,0.000679157,-0.000613454,-0.000441235,0.00393683,-0.0142746,-0.0398808,4966,4966,0
254929281,254928814,3670026,3670026,-0.000309145,0.000254051,-0.000522434,-0.0109493,0.00110954,-0.0570667,4994,4994,0
255430684,255430263,3670026,3670026,0.000815065,3.97273e-05,-0.000206318,-0.00664701,0.00566679,-0.0536739,4967,4967,0
255927249,255926859,3670026,3670026,-0.000398395,-0.000602596,-0.000229968,-0.00155113,0.0111998,-0.0431069,4966,4966,0
256428750,256428423,3670026,3670026,0.000899011,-0.00032698,0.000142738,0.00629129,-0.00372231,-0.0344635,4961,4961,0
256925358,256925023,3670026,3670026,-0.00110734,0.000593748,0.000618218,-0.0101712,0.00912085,-0.0608868,4968,4968,0
257426933,257426584,3670026,3670026,-0.00100822,0.000523639,0.000175987,-0.0144768,0.00910034,-0.0642677,4964,4964,0
257928493,257928151,3670026,3670026,-0.000935009,0.000151318,0.000239879,-0.00753516,-0.00593413,-0.0594793,4969,4969,0
258430218,258429841,3670026,3670026,-3.9035e-05,8.78245e-05,-0.000322996,-0.0171208,0.00176831,-0.0655707,4993,4993,0
258926681,258926355,3670026,3670026,0.00053382,-0.000520475,-7.0779e-05,0.00404166,0.00952022,-0.0395589,4993,4993,0
259428203,259427874,3670026,3670026,-0.00140227,0.000720632,0.000854689,0.000712453,0.00564785,-0.0439002,4964,4964,0
259929815,259929438,3670026,3670026,-0.000610306,-5.93182e-05,-0.000176851,0.00674429,-0.00554705,-0.038384,4909,4909,0
260431416,260431002,3670026,3670026,-0.000367272,-9.53834e-05,-0.000199708,0.00195162,0.00475759,-0.0452049,4966,4966,0
260927987,260927600,3670026,3670026,0.0015149,-0.000476188,-0.000886353,0.00420188,-0.010407,-0.0417126,4965,4965,0
261429512,261429164,3670026,3670026,-0.00136469,0.000257053,0.000579155,-0.00697363,0.00970715,-0.0570379,4962,4962,0
261926240,261925867,3670026,3670026,0.000371195,-0.000341127,8.2097e-06,0.00871193,-0.0124654,-0.0363209,4994,4994,0
262427702,262427330,3670026,3670026,0.0010096,-9.62608e-05,-0.000655027,0.00205578,-0.0108779,-0.044824,4971,4971,0
262929221,262928890,3670026,3670026,0.000600493,-0.000220274,-0.00100472,-0.00325194,-0.00591871,-0.0495389,4966,4966,0
263430822,263430453,3670026,3670026,0.000168401,-0.000210502,-0.000693869,-0.00183767,0.00373784,-0.0461683,4965,4965,0
263927426,263927052,3670026,3670026,-8.86231e-05,-0.000223544,0.000195143,0.00412307,-0.0094374,-0.0449095,4967,4967,0
264429009,264428615,3670026,3670026,0.000759861,-0.000483036,-0.000933224,-0.00114184,-0.0158749,-0.0462315,4966,4966,0
264925605,264925266,3670026,3670026,0.000613282,-1.18783e-05,0.00044157,0.00710101,-0.00233723,-0.0409524,5007,5007,0
265427267,265426894,3670026,3670026,0.00118616,-0.000305375,-0.000614139,0.00359397,-0.00936045,-0.0436831,4991,4991,0
265928732,265928347,3670026,3670026,-0.00151279,0.000926508,0.000556369,-0.00976425,-0.00366485,-0.0607486,4972,4972,0
266430233,266429906,3670026,3670026,-0.00183036,0.000515061,0.000717764,-0.00307572,0.00952919,-0.0475822,4968,4968,0
266931798,266931469,3670026,3670026,-9.34966e-07,4.12118e-05,-0.000202104,-0.00668996,0.00242209,-0.054693,4967,4967,0
267428443,267428068,3670026,3670026,0.000550514,0.00017506,-0.000262437,-0.00250513,-0.00602277,-0.0504963,4968,4968,0
267925051,267924664,3670026,3670026,-0.000330415,0.000348103,0.000737038,-0.00590159,0.0124768,-0.0515517,4964,4964,0
268426574,268426228,3670026,3670026,0.000351903,-0.000395802,-0.000679804,-0.00763154,-0.00861639,-0.0589474,4964,4964,0
268928240,268927915,3670026,3670026,0.000681336,-6.57488e-06,-0.000571372,0.00173294,0.00534545,-0.0397649,4989,4989,0
269429728,269429395,3670026,3670026,-0.000424703,-0.000149068,0.000403082,-0.000970945,-0.0073223,-0.0509654,4972,4972,0
269931307,269930921,3670026,3670026,2.20928e-06,0.000153035,0.000714108,0.000277335,0.0007927,-0.0455233,4967,4967,0
270427884,270427518,3670026,3670026,0.001488,-0.000360599,-0.00126077,0.00427569,-0.0212322,-0.0453522,4966,4966,0
270924496,270924128,3670026,3670026,-0.00087242,0.000253289,0.000397762,-0.00162794,0.00806057,-0.0453302,4920,4920,0
271426033,271425681,3670026,3670026,0.000131165,-1.95025e-05,0.000353745,0.00243822,0.00500143,-0.0423467,4966,4966,0
271927624,271927244,3670026,3670026,-0.000224906,-0.00011462,-0.000452012,-0.00680392,-0.0117525,-0.0559392,4966,4966,0
272429314,272428940,3670026,3670026,0.000408022,-7.25861e-05,-0.000597775,0.00680611,-0.00405948,-0.0375773,4992,4992,0
272930704,272930373,3670026,3670026,0.000192488,-0.000167317,0.000186849,0.00438812,-0.00448193,-0.0425709,4965,4965,0
273427353,273426972,3670026,3670026,-0.00110481,7.45287e-05,-0.00028005,-0.0082737,-0.0104553,-0.0587884,4968,4968,0
273928916,273928534,3670026,3670026,-0.000161846,-6.97114e-05,0.000278883,-0.0035914,-0.0142642,-0.0531345,4965,4965,0
274430453,274430098,3670026,3670026,0.000545959,-0.000112747,-6.07468e-05,-0.00238634,-0.0170105,-0.0524048,4962,4962,0
274927065,274926721,3670026,3670026,0.000968974,-0.000453593,-0.000760292,-0.00295054,-0.0127119,-0.0486384,4990,4990,0
275428602,275428260,3670026,3670026,0.000866528,-0.000210485,-0.000473791,-0.00314535,-0.0210077,-0.0511747,4966,4966,0
275930426,275929961,3670026,3670026,0.000663416,3.74559e-05,-0.000129003,-0.00583471,-0.0230746,-0.0546654,4991,4991,0
276426805,276426424,3670026,3670026,-0.00105322,0.000130495,0.000139694,-0.00229942,0.00958236,-0.0465291,4968,4968,0
276928319,276927986,3670026,3670026,-0.00150191,0.000538188,0.00120681,-0.00164987,0.0199526,-0.0483357,4964,4964,0
277429969,277429551,3670026,3670026,-0.000386779,-6.0836e-05,-0.000329725,-0.00526281,-0.0205378,-0.054311,4963,4963,0
277926471,277926149,3670026,3670026,0.000452079,0.000303744,-0.000823672,-0.00362801,-0.0144459,-0.0533046,4961,4961,0
278428101,278427713,3670026,3670026,-0.000616848,0.000336081,0.000744648,-0.00139249,-0.00648012,-0.0495912,4900,4900,0
278929644,278929283,3670026,3670026,-0.000513402,-0.000164523,0.0007091,0.00449838,-0.0006985,-0.0468855,4927,4927,0
279426416,279426001,3670026,3670026,0.000922733,-0.000330179,-0.000978198,-0.00142038,-0.00479722,-0.0498874,4988,4988,0
279927807,279927439,3670026,3670026,0.00167077,-0.000901985,-0.0013121,0.00153527,-0.0245662,-0.0483515,4966,4966,0
280429332,280429003,3670026,3670026,-0.000947948,0.00031957,0.000569816,-0.00340956,0.00119052,-0.0500673,4964,4964,0
280930940,280930567,3670026,3670026,0.000792291,-0.000562987,-0.000185292,0.00505855,0.00613995,-0.0367512,4966,4966,0
281427549,281427166,3670026,3670026,0.00050241,0.000151541,-0.000876509,-0.00495672,-0.0123479,-0.0501746,4961,4961,0
281929121,281928729,3670026,3670026,0.00134177,-0.000909475,-0.00151583,0.00516581,-0.0221561,-0.0450494,4966,4966,0
282425670,282425329,3670026,3670026,0.00124719,-0.000129151,-0.000350667,9.63283e-05,-0.0102318,-0.0444923,4967,4967,0
282927491,282927029,3670026,3670026,-0.000526939,0.00099365,0.000792935,-0.00260517,0.00392569,-0.0507572,4999,4999,0
283428836,283428456,3670026,3670026,0.000228073,-9.1415e-05,-0.000948835,-0.0109973,-0.00628852,-0.0615888,4958,4958,0
283930392,283930020,3670026,3670026,0.000864628,-2.10285e-06,5.24336e-05,0.00899167,-0.00361345,-0.0347334,4966,4966,0
284426941,284426618,3670026,3670026,0.00165015,-0.000832195,-0.00092889,0.0042715,-0.0198251,-0.0425205,4965,4965,0
284928593,284928210,3670026,3670026,0.000707403,-3.80269e-05,0.000214893,-0.00170357,-0.00962981,-0.0502704,4998,4998,0
285425171,285424780,3670026,3670026,0.000512012,-0.000306797,-0.000370955,0.000702648,-0.0141705,-0.0509376,4965,4965,0
285926693,285926345,3670026,3670026,0.000112002,-5.14833e-05,2.84911e-05,0.00140655,0.0158646,-0.0427011,4966,4966,0
286428428,286428044,3670026,3670026,-0.000813633,0.000303056,0.000623156,-0.00107241,0.0175344,-0.0458842,4972,4972,0
286929800,286929475,3670026,3670026,-0.000294275,-0.000175181,0.000490883,-0.000304964,0.00634711,-0.0494221,4965,4965,0
287426487,287426072,3670026,3670026,0.000351346,-0.00048667,-0.000650478,0.000834201,0.0106512,-0.0444627,4966,4966,0
287927965,287927636,3670026,3670026,-0.000819743,0.000235414,0.000369421,-0.012263,0.000800061,-0.0623405,4966,4966,0
288424555,288424234,3670026,3670026,-0.000563921,0.000504763,0.00140416,0.00093778,0.0214466,-0.0419293,4965,4965,0
288926186,288925799,3670026,3670026,-0.000528619,0.00038687,0.000929604,0.00327591,0.00863042,-0.0445019,4966,4966,0
289427707,289427364,3670026,3670026,-0.000975783,0.000566359,0.000590785,-0.00718036,0.0165428,-0.0584158,4965,4965,0
289929535,289929106,3670026,3670026,-0.00183229,0.000611961,0.000752697,-0.0138848,0.00836947,-0.0633655,4968,4968,0
290425916,290425525,3670026,3670026,0.000203806,0.000383963,-6.33857e-06,-0.00386376,-0.0124143,-0.0545706,4965,4965,0
290927410,290927090,3670026,3670026,0.00041793,0.000619726,4.64768e-05,-0.00233912,-0.0129098,-0.0514122,4966,4966,0
291428978,291428654,3670026,3670026,0.000542184,-0.000516418,-0.000657456,0.003583,-0.00622616,-0.0381004,4966,4966,0
291925635,291925259,3670026,3670026,-0.000320005,0.000719955,7.94877e-05,-0.00910757,-0.000643892,-0.0572416,4969,4969,0
292427205,292426820,3670026,3670026,0.000618383,-0.000224199,-0.000429572,-0.00346987,-0.0207622,-0.0507016,4927,4927,0
292928726,292928383,3670026,3670026,0.000818134,-0.00034004,-0.000854415,-0.000981985,-0.017475,-0.0495862,4967,4967,0
293425440,293425115,3670026,3670026,-0.0011965,0.000141116,0.000365961,0.00063626,0.012343,-0.0460688,4993,4993,0
293926919,293926544,3670026,3670026,-0.000462511,-0.000613029,0.000264434,0.00342379,0.00226159,-0.0410649,4966,4966,0
294428436,294428109,3670026,3670026,0.00116449,-0.000280991,-0.00101107,-0.000854052,-0.0146325,-0.0466794,4966,4966,0
294929999,294929678,3670026,3670026,-0.00107094,-4.51979e-05,0.000605176,0.000529927,0.00616974,-0.0468051,4971,4971,0
295431611,295431239,3670026,3670026,-0.00140124,0.000379829,0.000645233,-0.0119407,0.0192475,-0.0626049,4966,4966,0
295928234,295927836,3670026,3670026,-0.00121763,0.000722318,0.00137343,0.00239361,0.0170788,-0.0428828,4966,4966,0
296429747,296429401,3670026,3670026,-0.000931472,0.000451418,0.00091559,-0.00123759,-0.0023043,-0.0510454,4966,4966,0
296926567,296926148,3670026,3670026,-0.000442735,-0.000220506,0.000380718,-0.000306413,-0.00800121,-0.0492399,4895,4895,0
297427975,297427604,3670026,3670026,0.000404259,-0.0005086,-0.000372404,0.00220795,-0.00619888,-0.0406326,4957,4957,0
297929531,297929130,3670026,3670026,0.000252798,-7.14915e-05,-0.000661389,-0.00400696,-0.0117118,-0.0529629,4968,4968,0
298431018,298430693,3670026,3670026,-0.000661103,0.000103137,0.000624024,-0.00551847,0.00163427,-0.0580938,4967,4967,0
298927662,298927291,3670026,3670026,-0.000223632,-0.00017164,0.000226838,-0.00244168,-0.0142568,-0.0554549,4966,4966,0
299429257,299428856,3670026,3670026,-1.65075e-05,-0.000195316,-0.000669298,-0.00263824,0.00395171,-0.0477401,4967,4967,0
299925795,299925455,3670026,3670026,0.000929408,-0.000174441,-0.000538849,-0.00301693,-0.000394078,-0.050868,4967,4967,0
300427536,300427162,3670026,3670026,0.000211001,-0.000435629,0.000256577,0.00661681,0.00250234,-0.0385747,4982,4982,0
300928996,300928618,3670026,3670026,0.000116498,0.000249552,-0.000436534,-0.00294481,-0.0106855,-0.0545998,4984,4984,0
301430489,301430157,3670026,3670026,0.00146816,-0.000777996,-0.00105743,0.00985039,-0.0268003,-0.0380685,4925,4925,0
301927111,301926746,3670026,3670026,0.000367154,0.000349585,-9.47004e-05,-0.00742275,-0.0151424,-0.0569493,4966,4966,0
302428690,302428311,3670026,3670026,0.000162268,0.000306569,-3.95783e-05,-0.00911833,-0.000488611,-0.0585083,4966,4966,0
302925282,302924910,3670026,3670026,0.000653749,-0.000265452,-0.000914197,-0.00496044,0.000789469,-0.0495363,4967,4967,0
303426819,303426481,3670026,3670026,-0.000265662,8e-05,-0.000158438,-0.00885575,0.00891713,-0.0568735,4973,4973,0
303928560,303928196,3670026,3670026,0.000669706,-2.47988e-06,-0.000852642,0.000537608,-0.016649,-0.0492682,4936,4936,0
304430005,304429636,3670026,3670026,0.00050166,-0.000267585,-8.76992e-05,0.00352709,-0.000591777,-0.0404165,4957,4957,0
304926541,304926204,3670026,3670026,0.000740426,-0.00116188,-0.000554966,0.00118655,-0.0118665,-0.0427169,4968,4968,0
305428100,305427767,3670026,3670026,-0.000486178,0.000420018,0.000116094,-0.00591813,-0.00573457,-0.0554403,4967,4967,0
305924730,305924365,3670026,3670026,0.000659241,-0.000482851,-0.00022393,0.0094598,-0.013418,-0.0367331,4966,4966,0
306426336,306425931,3670026,3670026,-0.000119213,-2.71401e-05,-0.000641282,-0.01174,-0.0029993,-0.0606575,4967,4967,0
306927895,306927547,3670026,3670026,-0.000875786,0.00111746,0.000708869,-0.0147197,0.0172279,-0.0602168,4984,4984,0
307429597,307429231,3670026,3670026,-0.00186897,0.000849981,0.00112755,-0.0116066,0.0181138,-0.0604432,4998,4998,0
307926004,307925675,3670026,3670026,-0.000289129,-0.000202001,0.000387312,0.00498261,0.0114269,-0.0409789,4983,4983,0
308427604,308427276,3670026,3670026,0.00105528,-0.000385329,-0.00127438,-0.00236125,-0.0182368,-0.0526104,4991,4991,0
308929217,308928793,3670026,3670026,-0.00104964,0.000639956,0.000589771,-0.00518805,0.00116713,-0.055441,4972,4972,0
309425799,309425386,3670026,3670026,0.000953739,-0.000630083,-0.000918416,0.00232896,-0.0166445,-0.0434181,4966,4966,0
309927318,309926951,3670026,3670026,2.24665e-05,-0.000389119,-0.000493957,-0.00845461,-0.0100215,-0.0579042,4966,4966,0
310428916,310428516,3670026,3670026,-2.64695e-05,-0.00026182,0.000361062,0.00341008,0.00125465,-0.0399221,4965,4965,0
310925675,310925267,3670026,3670026,7.34376e-05,0.000315054,-0.000510883,0.0018074,0.00629065,-0.0458687,4996,4996,0
311427091,311426679,3670026,3670026,0.000471806,0.000158813,-0.000379715,-0.0051641,0.0108952,-0.0505332,4965,4965,0
311928616,311928244,3670026,3670026,-4.1825e-06,-0.000199366,-0.000756502,-0.00682291,0.0056017,-0.0551895,4966,4966,0
312430232,312429809,3670026,3670026,-0.00144237,0.000368897,0.000464315,-0.000131851,-0.00033793,-0.0504666,4966,4966,0
312926812,312926407,3670026,3670026,0.000121943,-0.000111333,-0.00033523,-0.00578585,-0.0150693,-0.0563915,4966,4966,0
313428337,313427973,3670026,3670026,-0.00128719,0.000128816,0.000879898,-0.0085436,0.00621238,-0.0560342,4966,4966,0
313929929,313929540,3670026,3670026,-0.000929958,-7.5093e-05,0.000202126,0.000157016,0.00927433,-0.0452234,4968,4968,0
314426712,314426301,3670026,3670026,0.00102323,-0.000262577,-7.96363e-05,0.00967466,0.00832585,-0.0347558,4997,4997,0
314928072,314927702,3670026,3670026,7.39543e-05,-4.48921e-06,0.000750583,0.00627761,0.0207878,-0.0380177,4965,4965,0
315429638,315429270,3670026,3670026,0.00170324,-0.000369161,-0.00101397,0.00456569,-0.027487,-0.0461477,4970,4970,0
315931157,315930831,3670026,3670026,0.000162755,-3.21109e-05,7.10438e-05,-0.00477181,-0.0094273,-0.0530975,4966,4966,0
316427814,316427431,3670026,3670026,0.000503953,-0.00020904,-0.000599988,-0.00484935,-0.0136283,-0.054156,4967,4967,0
316929402,316929045,3670026,3670026,-0.000864574,-0.00023374,-6.60731e-05,-0.00121953,0.0064603,-0.0462815,5006,5006,0
