timestamp,time_utc_usec,lat,lon,alt,alt_ellipsoid,s_variance_m_s,c_variance_rad,eph,epv,hdop,vdop,noise_per_ms,jamming_indicator,vel_m_s,vel_n_m_s,vel_e_m_s,vel_d_m_s,cog_rad,timestamp_time_relative,heading,heading_offset,fix_type,vel_ned_valid,satellites_used
66683080,1603675411200254,340343633,1087550873,426615,398698,0.253,0.285263,0.714,1.013,0.84,1.2,90,17,0.053,0.017,0.05,0.027,5.59493,0,nan,0.0,3,1,15
66929273,1603675411400254,340343635,1087550874,426589,398672,0.215,0.285283,0.714,1.014,0.84,1.2,90,17,0.039,-0.003,-0.039,0.007,5.59493,0,nan,0.0,3,1,15
67886953,1603675412400253,340343643,1087550878,426458,398541,0.183,0.285388,0.715,1.021,0.84,1.2,96,16,0.018,0.009,-0.016,0.004,5.59493,0,nan,0.0,3,1,15
68886043,1603675413400253,340343648,1087550879,426358,398440,0.242,0.285508,0.717,1.029,0.84,1.2,96,14,0.022,-0.022,-0.004,-0.016,5.59493,0,nan,0.0,3,1,15
69887139,1603675414400252,340343655,1087550883,426264,398347,0.222,0.285618,0.719,1.039,0.84,1.2,96,16,0.084,0.033,0.077,-0.045,5.59493,0,nan,0.0,3,1,15
70891529,1603675415400252,340343659,1087550912,426981,399064,0.238,0.631638,0.713,1.037,0.79,1.16,96,15,0.334,-0.119,0.312,-1.146,0.988076,0,nan,0.0,3,1,16
71887997,1603675416400251,340343668,1087550921,427785,399868,0.257,0.6318,0.706,1.036,0.79,1.16,96,9,0.23,-0.225,-0.048,-0.54,0.988076,0,nan,0.0,3,1,16
72879945,1603675417400251,340343673,1087550922,428206,400289,0.273,0.447639,0.697,1.03,0.83,1.16,96,13,0.2,-0.077,-0.185,-0.481,5.91056,0,nan,0.0,3,1,15
73885911,1603675418400250,340343664,1087550936,428444,400527,0.207,0.428339,0.692,1.029,0.79,1.16,96,14,0.492,-0.184,0.456,-0.021,2.26021,0,nan,0.0,3,1,16
74886001,1603675419400250,340343653,1087551024,428315,400398,0.168,0.193996,0.682,1.018,0.81,1.27,96,7,0.787,-0.064,0.784,-0.096,1.67608,0,nan,0.0,3,1,15
75883978,1603675420400249,340343635,1087551101,428161,400244,0.186,0.251706,0.678,1.019,0.81,1.27,96,8,0.758,-0.112,0.749,-0.085,1.71339,0,nan,0.0,3,1,15
76884330,1603675421400249,340343625,1087551191,428207,400289,0.18,0.165995,0.674,1.019,0.79,1.16,96,12,0.947,-0.11,0.941,-0.127,1.64621,0,nan,0.0,3,1,16
77888066,1603675422400248,340343616,1087551296,428122,400205,0.176,0.166337,0.67,1.02,0.79,1.16,96,4,0.94,-0.067,0.938,0.056,1.62782,0,nan,0.0,3,1,16
78889116,1603675423400248,340343594,1087551382,427842,399925,0.16,0.359527,0.664,1.014,0.77,1.13,96,4,0.524,-0.439,0.287,0.089,2.18212,0,nan,0.0,3,1,17
79885943,1603675424400247,340343524,1087551382,427731,399814,0.186,0.226456,0.661,1.008,0.77,1.13,96,5,0.824,-0.822,0.061,-0.081,3.1734,0,nan,0.0,3,1,17
80884952,1603675425400247,340343434,1087551398,427678,399760,0.172,0.155092,0.658,1.005,0.77,1.13,96,8,1.077,-1.072,0.103,0.063,3.03276,0,nan,0.0,3,1,17
81888969,1603675426400246,340343341,1087551407,427495,399578,0.173,0.168297,0.653,0.997,0.77,1.13,96,10,0.965,-0.965,0.002,0.125,3.10951,0,nan,0.0,3,1,17
82888060,1603675427400246,340343244,1087551398,427449,399532,0.162,0.146417,0.649,0.993,0.79,1.25,96,13,0.962,-0.961,0.022,0.05,3.18418,0,nan,0.0,3,1,16
83882947,1603675428400245,340343150,1087551388,427261,399344,0.187,0.177084,0.645,0.989,0.79,1.25,96,6,0.949,-0.929,-0.193,0.059,3.30799,0,nan,0.0,3,1,16
84884553,1603675429400245,340343059,1087551372,427205,399288,0.197,0.182584,0.642,0.985,0.77,1.12,97,7,0.977,-0.942,-0.261,0.018,3.32576,0,nan,0.0,3,1,17
85884993,1603675430400244,340342969,1087551358,427244,399327,0.182,0.186504,0.644,0.99,0.77,1.12,97,7,1.005,-1.0,-0.102,0.071,3.26971,0,nan,0.0,3,1,17
86888131,1603675431400244,340342880,1087551346,427263,399346,0.191,0.200346,0.647,0.995,0.77,1.12,103,5,0.885,-0.883,-0.06,0.159,3.23247,0,nan,0.0,3,1,17
87891941,1603675432400243,340342793,1087551336,427174,399257,0.157,0.152107,0.642,0.987,0.77,1.12,103,5,0.964,-0.955,-0.134,0.038,3.26214,0,nan,0.0,3,1,17
88887954,1603675433400242,340342704,1087551323,427138,399221,0.182,0.189352,0.637,0.979,0.77,1.12,103,7,0.926,-0.917,-0.124,-0.019,3.2751,0,nan,0.0,3,1,17
89890658,1603675434400242,340342611,1087551308,427066,399149,0.172,0.167268,0.638,0.975,0.77,1.12,103,6,0.948,-0.94,-0.124,-0.02,3.26586,0,nan,0.0,3,1,17
90891077,1603675435400241,340342515,1087551295,427046,399129,0.182,0.18418,0.641,0.978,0.77,1.12,103,9,1.021,-1.003,-0.192,-0.01,3.28684,0,nan,0.0,3,1,17
91886968,1603675436400241,340342427,1087551288,426972,399055,0.17,0.202942,0.64,0.98,0.77,1.12,103,5,0.949,-0.947,-0.057,0.009,3.19824,0,nan,0.0,3,1,17
92890966,1603675437400240,340342339,1087551280,427022,399105,0.166,0.205157,0.639,0.984,0.77,1.12,103,4,0.869,-0.869,-0.001,-0.037,3.19335,0,nan,0.0,3,1,17
93888301,1603675438400240,340342257,1087551275,426939,399022,0.211,0.260764,0.646,1.001,0.77,1.12,103,7,0.913,-0.909,-0.087,-0.037,3.21785,0,nan,0.0,3,1,17
94885990,1603675439400239,340342169,1087551269,426879,398962,0.196,0.215258,0.657,1.023,0.77,1.12,103,7,0.918,-0.902,-0.167,0.07,3.27162,0,nan,0.0,3,1,17
95889093,1603675440400239,340342082,1087551260,426809,398892,0.179,0.191299,0.656,1.028,0.77,1.12,103,8,0.987,-0.987,0.023,0.009,3.17542,0,nan,0.0,3,1,17
96888051,1603675441400238,340341994,1087551252,426734,398817,0.179,0.179502,0.656,1.034,0.77,1.12,103,6,1.054,-1.046,-0.127,-0.028,3.24452,0,nan,0.0,3,1,17
97891946,1603675442400238,340341902,1087551241,426677,398761,0.222,0.245682,0.658,1.042,0.77,1.12,103,9,0.848,-0.84,-0.117,0.011,3.24344,0,nan,0.0,3,1,17
98888948,1603675443400237,340341815,1087551233,426654,398737,0.171,0.185969,0.663,1.047,0.77,1.12,96,10,0.968,-0.968,-0.007,-0.016,3.18414,0,nan,0.0,3,1,17
99895945,1603675444400237,340341724,1087551237,426597,398680,0.177,0.184169,0.659,1.042,0.77,1.12,96,7,0.94,-0.938,-0.067,0.028,3.18,0,nan,0.0,3,1,17
100892946,1603675445400236,340341635,1087551235,426547,398630,0.161,0.161385,0.656,1.035,0.77,1.12,96,14,0.975,-0.972,-0.075,-0.055,3.20107,0,nan,0.0,3,1,17
101891956,1603675446400236,340341543,1087551229,426299,398382,0.148,0.152522,0.649,1.022,0.77,1.12,96,3,0.986,-0.982,-0.095,0.056,3.21983,0,nan,0.0,4,1,17
102896083,1603675447400235,340341455,1087551223,426234,398317,0.169,0.154015,0.641,1.006,0.77,1.12,96,7,0.981,-0.977,-0.08,-0.043,3.2367,0,nan,0.0,4,1,17
103892994,1603675448400235,340341365,1087551216,426207,398290,0.169,0.163052,0.638,1.001,0.79,1.25,103,4,0.968,-0.961,-0.115,-0.047,3.25823,0,nan,0.0,4,1,16
104891016,1603675449400234,340341274,1087551204,426135,398218,0.162,0.160472,0.638,1.002,0.79,1.25,103,4,0.992,-0.991,0.036,0.031,3.18565,0,nan,0.0,4,1,16
105893943,1603675450400234,340341180,1087551195,426204,398287,0.158,0.142461,0.635,0.998,0.79,1.25,103,7,1.015,-1.01,-0.106,0.021,3.25289,0,nan,0.0,4,1,16
106887977,1603675451400233,340341088,1087551182,426332,398415,0.179,0.173657,0.632,0.989,0.79,1.25,103,3,1.018,-1.005,-0.162,-0.054,3.29663,0,nan,0.0,4,1,16
107893948,1603675452400233,340341002,1087551178,426284,398367,0.181,0.177599,0.634,0.984,0.79,1.25,103,4,0.935,-0.935,0.002,-0.005,3.17119,0,nan,0.0,4,1,16
108890944,1603675453400232,340340919,1087551177,426256,398339,0.153,0.182401,0.63,0.979,0.79,1.25,103,3,0.994,-0.992,-0.059,0.049,3.1777,0,nan,0.0,4,1,16
109891945,1603675454400232,340340829,1087551167,426226,398309,0.161,0.198631,0.632,0.985,0.79,1.25,103,5,1.0,-1.0,-0.002,-0.049,3.21159,0,nan,0.0,4,1,16
110884969,1603675455400231,340340736,1087551154,426252,398335,0.163,0.184397,0.636,0.995,0.67,0.96,103,3,1.017,-1.014,-0.076,0.047,3.22764,0,nan,0.0,4,1,17
111887976,1603675456400231,340340646,1087551144,426235,398318,0.163,0.160608,0.638,0.994,0.67,0.96,103,3,0.941,-0.934,-0.11,0.015,3.24453,0,nan,0.0,4,1,17
112881032,1603675457400230,340340554,1087551131,426223,398306,0.172,0.157377,0.631,0.982,0.67,0.96,103,5,0.982,-0.981,-0.044,0.008,3.20057,0,nan,0.0,4,1,17
113888030,1603675458400230,340340463,1087551125,426266,398349,0.153,0.147196,0.625,0.971,0.67,0.96,103,5,0.992,-0.991,-0.043,0.047,3.16529,0,nan,0.0,4,1,17
114883945,1603675459400229,340340373,1087551116,426388,398471,0.173,0.180152,0.619,0.963,0.67,0.96,103,3,0.854,-0.854,-0.005,-0.105,3.18808,0,nan,0.0,4,1,17
115887945,1603675460400228,340340282,1087551116,426511,398595,0.166,0.159313,0.615,0.956,0.67,0.96,103,4,0.958,-0.956,-0.053,-0.013,3.14557,0,nan,0.0,4,1,17
116888943,1603675461400228,340340194,1087551112,426573,398656,0.16,0.159424,0.612,0.952,0.67,0.96,103,4,0.95,-0.948,-0.067,0.018,3.17409,0,nan,0.0,4,1,17
117888949,1603675462400227,340340111,1087551106,426628,398711,0.172,0.190396,0.608,0.945,0.67,0.96,103,5,0.844,-0.837,-0.11,-0.011,3.22826,0,nan,0.0,4,1,17
118886554,1603675463400227,340340028,1087551096,426524,398607,0.162,0.163238,0.605,0.938,0.67,0.96,103,6,0.967,-0.966,-0.045,0.117,3.20297,0,nan,0.0,4,1,17
119884949,1603675464400226,340339936,1087551088,426559,398642,0.191,0.187648,0.605,0.938,0.67,0.96,103,3,1.065,-1.056,-0.139,-0.051,3.23145,0,nan,0.0,4,1,17
120885091,1603675465400226,340339842,1087551076,426583,398666,0.171,0.219629,0.609,0.948,0.67,0.96,103,8,0.984,-0.984,0.029,0.021,3.19118,0,nan,0.0,4,1,17
121896274,1603675466400225,340339751,1087551073,426528,398611,0.173,0.172472,0.616,0.956,0.67,0.96,103,8,1.028,-1.026,-0.063,0.044,3.19305,0,nan,0.0,4,1,17
122884051,1603675467400225,340339662,1087551071,426538,398621,0.148,0.163272,0.61,0.945,0.67,0.96,103,3,0.943,-0.94,-0.077,-0.025,3.20129,0,nan,0.0,4,1,17
123888084,1603675468400224,340339572,1087551067,426610,398693,0.151,0.161183,0.604,0.939,0.67,0.96,103,4,0.996,-0.995,-0.029,-0.101,3.16786,0,nan,0.0,4,1,17
124885367,1603675469400224,340339480,1087551053,426798,398882,0.18,0.219763,0.604,0.939,0.67,0.96,103,3,0.945,-0.94,-0.096,-0.117,3.24316,0,nan,0.0,4,1,17
125885975,1603675470400223,340339391,1087551043,426904,398987,0.197,0.181148,0.612,0.944,0.67,0.96,103,4,0.97,-0.969,0.018,-0.016,3.16894,0,nan,0.0,4,1,17
126890032,1603675471400223,340339298,1087551041,427035,399118,0.187,0.20859,0.618,0.946,0.67,0.96,103,6,0.98,-0.979,-0.019,0.01,3.15505,0,nan,0.0,4,1,17
127884990,1603675472400222,340339212,1087551033,426997,399080,0.161,0.201564,0.616,0.94,0.67,0.96,103,4,0.968,-0.964,-0.086,0.061,3.2045,0,nan,0.0,4,1,17
128891946,1603675473400222,340339127,1087551031,427051,399134,0.14,0.164389,0.612,0.935,0.67,0.96,103,9,0.886,-0.884,-0.052,0.018,3.1858,0,nan,0.0,4,1,17
129890060,1603675474400221,340339042,1087551021,427006,399089,0.134,0.152504,0.604,0.92,0.67,0.96,103,9,0.962,-0.951,-0.147,0.127,3.26293,0,nan,0.0,4,1,17
130885949,1603675475400221,340338948,1087551010,427024,399107,0.146,0.151458,0.597,0.909,0.67,0.96,103,9,1.028,-1.013,-0.177,-0.075,3.28052,0,nan,0.0,4,1,17
131894947,1603675476400220,340338856,1087551001,427115,399199,0.153,0.157847,0.591,0.898,0.67,0.96,103,3,0.982,-0.981,0.031,-0.009,3.15573,0,nan,0.0,4,1,17
132887020,1603675477400220,340338766,1087550997,427056,399139,0.137,0.170451,0.586,0.886,0.67,0.96,103,6,0.961,-0.961,-0.007,0.071,3.1532,0,nan,0.0,4,1,17
133887236,1603675478400219,340338675,1087550990,427151,399234,0.155,0.192783,0.584,0.882,0.67,0.96,103,7,0.936,-0.935,0.029,-0.063,3.15619,0,nan,0.0,4,1,17
134890945,1603675479400219,340338589,1087550981,427195,399278,0.173,0.16702,0.581,0.875,0.67,0.96,103,7,0.905,-0.895,-0.138,0.057,3.23473,0,nan,0.0,4,1,17
135890947,1603675480400218,340338499,1087550978,427288,399371,0.164,0.151654,0.576,0.862,0.67,0.96,103,4,0.989,-0.989,0.018,-0.033,3.13561,0,nan,0.0,4,1,17
136886943,1603675481400218,340338405,1087550972,427336,399419,0.163,0.144129,0.575,0.853,0.67,0.96,103,3,0.989,-0.989,0.019,-0.081,3.14165,0,nan,0.0,4,1,17
137888003,1603675482400217,340338315,1087550960,427354,399437,0.149,0.165191,0.574,0.849,0.67,0.96,103,3,0.922,-0.922,-0.028,0.059,3.22718,0,nan,0.0,4,1,17
138888083,1603675483400217,340338227,1087550952,427321,399404,0.164,0.192552,0.575,0.856,0.67,0.96,103,4,0.957,-0.955,-0.061,-0.066,3.21025,0,nan,0.0,4,1,17
139886018,1603675484400216,340338138,1087550945,427395,399479,0.159,0.169812,0.577,0.863,0.67,0.96,103,3,0.984,-0.979,-0.102,-0.055,3.21041,0,nan,0.0,4,1,17
140886970,1603675485400216,340338048,1087550937,427431,399515,0.153,0.212529,0.58,0.87,0.67,0.96,103,4,0.936,-0.935,-0.044,0.017,3.17331,0,nan,0.0,4,1,17
141888952,1603675486400215,340337956,1087550940,427417,399500,0.16,0.162039,0.582,0.862,0.67,0.96,103,3,1.056,-1.054,-0.069,0.076,3.15294,0,nan,0.0,4,1,17
142890989,1603675487400214,340337867,1087550935,427503,399586,0.16,0.181633,0.582,0.853,0.67,0.96,103,4,0.919,-0.918,-0.039,-0.057,3.21405,0,nan,0.0,4,1,17
143885075,1603675488400214,340337784,1087550926,427508,399591,0.154,0.183553,0.582,0.844,0.67,0.96,103,3,0.914,-0.909,-0.097,0.012,3.25318,0,nan,0.0,4,1,17
144888946,1603675489400213,340337698,1087550907,427541,399625,0.134,0.156127,0.577,0.833,0.67,0.96,103,3,1.048,-1.036,-0.153,0.001,3.29901,0,nan,0.0,4,1,17
145889942,1603675490400213,340337608,1087550899,427640,399723,0.153,0.170182,0.579,0.833,0.67,0.96,103,3,1.05,-1.047,0.083,-0.029,3.13537,0,nan,0.0,4,1,17
146887985,1603675491400212,340337515,1087550895,427779,399863,0.165,0.175032,0.58,0.843,0.67,0.96,103,6,1.018,-1.018,-0.007,-0.027,3.13595,0,nan,0.0,4,1,17
147888977,1603675492400212,340337425,1087550884,427771,399854,0.177,0.213884,0.585,0.86,0.67,0.96,103,8,0.966,-0.963,-0.074,0.032,3.20555,0,nan,0.0,4,1,17
148887160,1603675493400211,340337339,1087550879,427788,399872,0.153,0.169199,0.586,0.869,0.67,0.96,103,9,0.948,-0.947,-0.038,0.03,3.1717,0,nan,0.0,4,1,17
149888114,1603675494400211,340337248,1087550878,427729,399812,0.152,0.150627,0.585,0.869,0.67,0.96,103,8,1.049,-1.046,-0.078,0.022,3.18249,0,nan,0.0,4,1,17
150884044,1603675495400210,340337152,1087550874,427824,399907,0.15,0.165586,0.582,0.859,0.67,0.96,103,3,1.062,-1.059,-0.067,-0.068,3.2111,0,nan,0.0,4,1,17
151893966,1603675496400210,340337059,1087550866,427813,399896,0.152,0.154471,0.578,0.845,0.67,0.96,103,4,1.078,-1.078,-0.01,0.053,3.1872,0,nan,0.0,4,1,17
152886949,1603675497400209,340336971,1087550859,427862,399945,0.153,0.175527,0.576,0.836,0.67,0.96,103,4,0.897,-0.897,0.005,-0.044,3.18639,0,nan,0.0,4,1,17
153887253,1603675498400209,340336886,1087550852,427834,399918,0.145,0.206337,0.575,0.836,0.67,0.96,103,6,0.909,-0.908,-0.043,0.096,3.18704,0,nan,0.0,4,1,17
154887071,1603675499400208,340336798,1087550844,427829,399912,0.172,0.17294,0.574,0.834,0.67,0.96,103,9,1.02,-1.01,-0.144,-0.071,3.26652,0,nan,0.0,4,1,17
155888408,1603675500400208,340336707,1087550839,427776,399859,0.166,0.172908,0.574,0.837,0.67,0.96,103,7,0.978,-0.975,-0.074,0.018,3.22827,0,nan,0.0,4,1,17
156885996,1603675501400207,340336619,1087550831,427908,399992,0.206,0.172512,0.578,0.846,0.67,0.96,103,6,1.02,-1.01,-0.147,-0.088,3.2693,0,nan,0.0,4,1,17
157885223,1603675502400207,340336533,1087550821,427793,399877,0.166,0.174326,0.582,0.851,0.67,0.96,103,6,0.949,-0.939,-0.135,0.077,3.26506,0,nan,0.0,4,1,17
158887431,1603675503400206,340336438,1087550817,427788,399872,0.155,0.137157,0.578,0.844,0.67,0.96,103,9,0.991,-0.985,-0.107,-0.038,3.22684,0,nan,0.0,4,1,17
159884149,1603675504400206,340336346,1087550809,427727,399811,0.157,0.149299,0.574,0.836,0.67,0.96,103,10,1.058,-1.05,-0.127,-0.002,3.25172,0,nan,0.0,4,1,17
160887083,1603675505400205,340336253,1087550799,427618,399702,0.135,0.169301,0.571,0.828,0.67,0.96,103,8,0.933,-0.933,-0.023,0.033,3.18506,0,nan,0.0,4,1,17
161884036,1603675506400205,340336167,1087550791,427579,399662,0.134,0.177876,0.566,0.817,0.67,0.96,103,4,0.954,-0.952,-0.062,-0.023,3.21854,0,nan,0.0,4,1,17
162892947,1603675507400204,340336080,1087550785,427591,399674,0.129,0.141756,0.562,0.807,0.67,0.96,103,4,1.015,-1.015,0.036,-0.022,3.1259,0,nan,0.0,4,1,17
163887042,1603675508400204,340335992,1087550776,427622,399705,0.129,0.16863,0.557,0.798,0.67,0.96,103,4,0.91,-0.901,-0.132,0.065,3.2493,0,nan,0.0,4,1,17
164886234,1603675509400203,340335909,1087550766,427613,399697,0.138,0.155827,0.554,0.788,0.67,0.96,103,3,0.99,-0.988,-0.054,0.074,3.20562,0,nan,0.0,4,1,17
165891964,1603675510400203,340335819,1087550762,427678,399761,0.141,0.145559,0.55,0.778,0.67,0.96,103,4,1.009,-1.009,0.031,0.002,3.11701,0,nan,0.0,4,1,17
166888280,1603675511400202,340335729,1087550750,427768,399852,0.131,0.13031,0.545,0.77,0.67,0.95,103,6,1.071,-1.07,-0.032,-0.044,3.20684,0,nan,0.0,4,1,17
167889133,1603675512400202,340335640,1087550745,427764,399847,0.149,0.151756,0.54,0.761,0.67,0.95,103,6,0.978,-0.978,0.004,0.012,3.15091,0,nan,0.0,4,1,17
168889370,1603675513400201,340335547,1087550741,427837,399920,0.156,0.161979,0.541,0.756,0.67,0.95,103,6,1.046,-1.046,-0.031,-0.121,3.17533,0,nan,0.0,4,1,17
169889952,1603675514400201,340335455,1087550739,427859,399943,0.132,0.176116,0.539,0.75,0.67,0.95,103,7,0.9,-0.897,-0.078,-0.007,3.1809,0,nan,0.0,4,1,17
170887942,1603675515400200,340335365,1087550738,427844,399927,0.126,0.145466,0.539,0.744,0.67,0.95,103,7,0.989,-0.987,-0.065,-0.043,3.18727,0,nan,0.0,4,1,17
171884653,1603675516400199,340335273,1087550732,427903,399987,0.121,0.145221,0.535,0.738,0.67,0.95,103,7,1.022,-1.004,-0.189,-0.058,3.24965,0,nan,0.0,4,1,17
172882945,1603675517400199,340335182,1087550720,428018,400102,0.155,0.159654,0.534,0.737,0.67,0.95,103,4,1.0,-0.99,-0.136,-0.095,3.2623,0,nan,0.0,4,1,17
173886989,1603675518400198,340335094,1087550708,427943,400026,0.127,0.15152,0.532,0.735,0.67,0.95,103,5,1.018,-1.014,-0.093,0.061,3.22691,0,nan,0.0,4,1,17
174891943,1603675519400198,340335004,1087550703,428030,400113,0.141,0.136452,0.529,0.732,0.67,0.95,103,5,1.002,-1.0,-0.06,-0.17,3.18442,0,nan,0.0,4,1,17
175890968,1603675520400197,340334917,1087550698,428029,400112,0.133,0.137363,0.524,0.727,0.67,0.95,103,5,0.959,-0.942,-0.184,0.005,3.25985,0,nan,0.0,4,1,17
176889984,1603675521400197,340334828,1087550687,428102,400186,0.133,0.13345,0.52,0.723,0.67,0.95,103,3,0.959,-0.959,-0.033,-0.126,3.22472,0,nan,0.0,4,1,17
177889025,1603675522400196,340334739,1087550684,428142,400226,0.137,0.152836,0.516,0.719,0.67,0.95,103,4,0.927,-0.918,-0.128,0.043,3.20783,0,nan,0.0,4,1,17
178889290,1603675523400196,340334649,1087550672,428200,400284,0.15,0.144572,0.515,0.718,0.67,0.95,103,4,1.012,-1.002,-0.14,-0.066,3.25759,0,nan,0.0,4,1,17
179887945,1603675524400195,340334563,1087550659,428202,400285,0.14,0.161396,0.515,0.716,0.67,0.95,103,4,0.976,-0.974,-0.056,-0.003,3.21773,0,nan,0.0,4,1,17
180888993,1603675525400195,340334478,1087550664,428230,400314,0.161,0.201759,0.52,0.72,0.67,0.95,103,4,0.868,-0.654,0.571,-0.091,2.74966,0,nan,0.0,4,1,17
181891482,1603675526400194,340334457,1087550763,428136,400219,0.137,0.158505,0.524,0.725,0.67,0.95,103,4,1.011,-0.03,1.01,0.01,1.6562,0,nan,0.0,4,1,17
182896034,1603675527400194,340334453,1087550849,428160,400244,0.182,0.207955,0.526,0.728,0.67,0.95,103,5,0.734,-0.065,0.732,-0.078,1.65685,0,nan,0.0,4,1,17
183883221,1603675528400193,340334452,1087550935,428150,400233,0.171,0.179521,0.533,0.739,0.67,0.95,103,9,0.938,-0.094,0.934,-0.075,1.62985,0,nan,0.0,4,1,17
184888100,1603675529400193,340334444,1087551031,428080,400164,0.175,0.161639,0.538,0.752,0.67,0.95,103,8,0.971,-0.136,0.962,0.02,1.68174,0,nan,0.0,4,1,17
185890102,1603675530400192,340334433,1087551131,427984,400068,0.179,0.14942,0.546,0.772,0.67,0.95,103,9,1.025,-0.068,1.023,0.038,1.66527,0,nan,0.0,4,1,17
186892001,1603675531400192,340334422,1087551238,427987,400071,0.165,0.170126,0.553,0.786,0.67,0.95,103,5,0.976,-0.149,0.965,-0.054,1.69847,0,nan,0.0,4,1,17
187892944,1603675532400191,340334409,1087551347,427969,400052,0.175,0.158439,0.557,0.795,0.67,0.95,103,3,1.036,-0.125,1.028,-0.134,1.69737,0,nan,0.0,4,1,17
188889108,1603675533400191,340334403,1087551453,427921,400005,0.161,0.189527,0.56,0.8,0.67,0.95,103,3,0.888,-0.119,0.88,-0.196,1.64699,0,nan,0.0,4,1,17
189888961,1603675534400190,340334396,1087551554,427871,399955,0.155,0.16505,0.562,0.805,0.67,0.95,103,8,0.965,-0.091,0.96,-0.08,1.67281,0,nan,0.0,4,1,17
190889063,1603675535400190,340334385,1087551654,427854,399938,0.175,0.163313,0.565,0.81,0.67,0.95,103,8,0.997,-0.172,0.982,-0.04,1.73018,0,nan,0.0,4,1,17
191888199,1603675536400189,340334370,1087551771,427796,399880,0.17,0.157384,0.571,0.82,0.67,0.95,103,6,1.111,-0.122,1.104,0.012,1.69816,0,nan,0.0,4,1,17
192890038,1603675537400189,340334361,1087551889,427626,399709,0.151,0.160598,0.576,0.833,0.79,1.24,103,4,1.022,-0.1,1.017,0.025,1.66641,0,nan,0.0,4,1,16
193889958,1603675538400188,340334352,1087551997,427584,399667,0.15,0.160412,0.578,0.84,0.79,1.24,103,4,0.953,-0.094,0.949,-0.112,1.65642,0,nan,0.0,4,1,16
194885947,1603675539400188,340334340,1087552102,427608,399691,0.144,0.149931,0.578,0.842,0.79,1.24,103,8,0.995,-0.048,0.994,0.087,1.64324,0,nan,0.0,4,1,16
195891108,1603675540400187,340334324,1087552203,427694,399778,0.155,0.157597,0.58,0.848,0.67,0.95,103,7,0.914,-0.088,0.91,-0.071,1.68785,0,nan,0.0,4,1,17
196887091,1603675541400187,340334304,1087552296,428019,400103,0.189,0.158013,0.585,0.854,0.67,0.95,103,7,0.898,-0.25,0.862,-0.251,1.7985,0,nan,0.0,4,1,17
197889084,1603675542400186,340334291,1087552398,428251,400335,0.157,0.135501,0.589,0.861,0.67,0.95,103,8,1.067,-0.105,1.062,-0.18,1.67935,0,nan,0.0,4,1,17
198889704,1603675543400186,340334281,1087552510,428310,400394,0.16,0.134597,0.59,0.865,0.67,0.95,103,7,1.11,-0.063,1.108,0.0,1.63961,0,nan,0.0,4,1,17
199889943,1603675544400185,340334284,1087552624,428253,400337,0.186,0.138753,0.596,0.878,0.79,1.24,103,6,1.09,0.067,1.088,0.074,1.528,0,nan,0.0,4,1,16
200892011,1603675545400184,340334285,1087552738,428250,400334,0.184,0.137008,0.604,0.893,0.67,0.95,103,3,1.133,0.012,1.133,0.036,1.5715,0,nan,0.0,4,1,17
201889076,1603675546400184,340334278,1087552844,428255,400339,0.165,0.187486,0.605,0.899,0.67,0.95,103,3,0.95,-0.135,0.941,-0.007,1.67734,0,nan,0.0,4,1,17
202893059,1603675547400183,340334269,1087552947,428350,400434,0.169,0.162524,0.609,0.907,0.67,0.95,103,4,0.932,-0.186,0.913,-0.153,1.72146,0,nan,0.0,4,1,17
203889134,1603675548400183,340334255,1087553049,428478,400562,0.159,0.137019,0.613,0.916,0.67,0.95,103,5,1.044,-0.104,1.039,-0.094,1.70997,0,nan,0.0,4,1,17
204893181,1603675549400182,340334242,1087553161,428522,400606,0.143,0.136703,0.611,0.911,0.67,0.95,103,6,1.014,-0.197,0.994,-0.068,1.73739,0,nan,0.0,4,1,17
205884108,1603675550400182,340334230,1087553266,428609,400692,0.145,0.15388,0.609,0.907,0.67,0.95,103,10,1.013,-0.201,0.993,-0.11,1.72782,0,nan,0.0,4,1,17
206891997,1603675551400181,340334218,1087553374,428583,400667,0.138,0.135609,0.606,0.902,0.67,0.95,103,11,1.036,-0.178,1.02,0.066,1.71866,0,nan,0.0,4,1,17
207890982,1603675552400181,340334210,1087553485,428514,400598,0.177,0.141432,0.604,0.901,0.67,0.95,103,12,1.083,-0.128,1.075,0.004,1.6669,0,nan,0.0,4,1,17
208888941,1603675553400180,340334198,1087553590,428552,400636,0.183,0.129243,0.607,0.904,0.67,0.95,103,6,1.09,-0.112,1.084,-0.027,1.68971,0,nan,0.0,4,1,17
209892134,1603675554400180,340334187,1087553702,428533,400617,0.176,0.131133,0.61,0.908,0.67,0.95,103,6,1.092,-0.105,1.087,0.042,1.67964,0,nan,0.0,4,1,17
210888990,1603675555400179,340334178,1087553813,428507,400591,0.147,0.130442,0.607,0.905,0.67,0.95,103,7,0.968,-0.081,0.965,0.026,1.64896,0,nan,0.0,4,1,17
211889947,1603675556400179,340334170,1087553922,428502,400586,0.132,0.119195,0.601,0.895,0.67,0.95,103,11,1.021,-0.122,1.013,-0.148,1.67015,0,nan,0.0,4,1,17
212889950,1603675557400178,340334159,1087554027,428554,400638,0.182,0.150971,0.598,0.893,0.67,0.95,103,10,0.935,-0.12,0.928,-0.107,1.69241,0,nan,0.0,4,1,17
213889324,1603675558400178,340334149,1087554136,428554,400638,0.142,0.135871,0.6,0.894,0.67,0.95,103,3,0.995,-0.075,0.992,-0.083,1.66162,0,nan,0.0,4,1,17
214892104,1603675559400177,340334140,1087554243,428495,400579,0.139,0.127564,0.595,0.889,0.67,0.95,103,3,1.028,-0.02,1.028,0.095,1.63528,0,nan,0.0,4,1,17
215890945,1603675560400177,340334133,1087554347,428541,400625,0.156,0.151001,0.593,0.887,0.67,0.95,103,6,0.955,-0.136,0.946,-0.118,1.67765,0,nan,0.0,4,1,17
216890582,1603675561400176,340334124,1087554458,428539,400623,0.164,0.143482,0.592,0.889,0.67,0.95,103,7,1.01,-0.027,1.01,0.046,1.64191,0,nan,0.0,4,1,17
217891942,1603675562400176,340334113,1087554562,428490,400575,0.179,0.145057,0.595,0.897,0.67,0.95,103,3,0.975,-0.134,0.965,-0.016,1.70499,0,nan,0.0,4,1,17
218891903,1603675563400175,340334103,1087554667,428541,400625,0.164,0.132045,0.597,0.902,0.67,0.95,103,4,1.041,-0.126,1.034,-0.133,1.69795,0,nan,0.0,4,1,17
219887951,1603675564400175,340334092,1087554777,428603,400687,0.184,0.131702,0.597,0.901,0.67,0.95,103,9,1.042,-0.091,1.038,0.024,1.66752,0,nan,0.0,4,1,17
220891081,1603675565400174,340334089,1087554886,428518,400602,0.182,0.129555,0.6,0.904,0.67,0.95,103,8,1.051,-0.041,1.05,0.117,1.61301,0,nan,0.0,4,1,17
221887946,1603675566400174,340334080,1087554994,428437,400521,0.166,0.151224,0.601,0.91,0.67,0.95,103,8,0.975,-0.076,0.972,-0.006,1.67962,0,nan,0.0,4,1,17
222890951,1603675567400173,340334065,1087555103,428477,400561,0.172,0.136095,0.602,0.915,0.67,0.95,102,4,1.041,-0.236,1.014,-0.058,1.75716,0,nan,0.0,4,1,17
223887019,1603675568400173,340334049,1087555212,428544,400628,0.172,0.132729,0.605,0.921,0.67,0.95,103,4,0.964,-0.105,0.958,-0.116,1.71049,0,nan,0.0,4,1,17
224891132,1603675569400172,340334038,1087555322,428563,400647,0.185,0.14056,0.607,0.925,0.67,0.95,103,5,1.015,-0.143,1.005,0.088,1.68731,0,nan,0.0,4,1,17
225890982,1603675570400172,340334030,1087555427,428639,400723,0.203,0.163414,0.614,0.936,0.67,0.95,102,5,0.964,-0.134,0.955,-0.154,1.65906,0,nan,0.0,4,1,17
226889964,1603675571400171,340334027,1087555539,428680,400764,0.181,0.160581,0.621,0.95,0.67,0.95,102,6,1.008,0.121,1.001,-0.138,1.54089,0,nan,0.0,4,1,17
227884960,1603675572400171,340334085,1087555580,428675,400759,0.181,0.199621,0.627,0.963,0.67,0.95,102,7,0.989,0.977,-0.153,0.053,0.0780326,0,nan,0.0,4,1,17
228887943,1603675573400170,340334164,1087555572,428654,400738,0.194,0.18977,0.632,0.971,0.67,0.95,102,6,0.86,0.86,-0.003,-0.003,6.24012,0,nan,0.0,4,1,17
229886999,1603675574400169,340334232,1087555578,428670,400754,0.176,0.21109,0.634,0.97,0.67,0.95,102,6,0.753,0.75,0.064,-0.048,0.0642466,0,nan,0.0,4,1,17
230885972,1603675575400169,340334311,1087555585,428602,400686,0.172,0.191722,0.635,0.968,0.67,0.95,102,4,0.861,0.856,-0.088,0.031,6.27697,0,nan,0.0,4,1,17
231891043,1603675576400168,340334397,1087555585,428573,400657,0.163,0.186682,0.639,0.969,0.67,0.95,102,6,0.936,0.936,0.018,-0.001,6.28302,0,nan,0.0,4,1,17
232892946,1603675577400168,340334487,1087555586,428610,400695,0.156,0.164542,0.642,0.967,0.67,0.95,102,5,1.042,1.042,-0.013,0.013,6.26035,0,nan,0.0,4,1,17
233888948,1603675578400167,340334575,1087555585,428628,400712,0.151,0.171498,0.643,0.964,0.67,0.95,102,7,0.998,0.998,0.022,0.016,0.0263922,0,nan,0.0,4,1,17
234890997,1603675579400167,340334660,1087555584,428563,400647,0.155,0.181622,0.643,0.961,0.67,0.95,102,6,1.006,1.004,0.052,0.044,0.00723142,0,nan,0.0,4,1,17
235890808,1603675580400166,340334745,1087555590,428569,400653,0.167,0.177407,0.645,0.961,0.67,0.95,102,4,1.052,1.047,0.102,-0.086,0.0757078,0,nan,0.0,4,1,17
236892000,1603675581400166,340334838,1087555593,428562,400646,0.141,0.147582,0.644,0.961,0.67,0.95,102,6,1.09,1.089,0.049,-0.028,0.0506723,0,nan,0.0,4,1,17
237891550,1603675582400165,340334930,1087555590,428585,400669,0.147,0.170149,0.642,0.957,0.67,0.95,102,6,0.948,0.945,-0.084,-0.126,6.22963,0,nan,0.0,4,1,17
238889994,1603675583400165,340335017,1087555589,428596,400680,0.143,0.155875,0.641,0.953,0.67,0.95,102,4,0.965,0.965,0.001,-0.112,0.00969094,0,nan,0.0,4,1,17
239887945,1603675584400164,340335107,1087555595,428576,400660,0.17,0.146627,0.638,0.95,0.67,0.95,102,4,1.058,1.056,0.074,-0.009,0.067251,0,nan,0.0,4,1,17
240886952,1603675585400164,340335198,1087555596,428477,400562,0.157,0.147047,0.636,0.947,0.67,0.95,102,4,1.011,1.009,0.074,0.11,0.0444874,0,nan,0.0,4,1,17
241884159,1603675586400163,340335291,1087555604,428504,400588,0.157,0.138632,0.636,0.943,0.67,0.95,102,4,1.13,1.126,0.094,0.015,0.0752207,0,nan,0.0,4,1,17
242890944,1603675587400163,340335384,1087555610,428550,400634,0.168,0.163224,0.634,0.937,0.67,0.95,102,6,1.083,1.082,0.025,-0.07,0.04259,0,nan,0.0,4,1,17
243886996,1603675588400162,340335474,1087555614,428524,400608,0.158,0.174752,0.633,0.936,0.67,0.95,102,7,0.985,0.985,0.03,0.047,0.0352117,0,nan,0.0,4,1,17
244889952,1603675589400162,340335560,1087555611,428535,400619,0.22,0.158428,0.634,0.938,0.67,0.95,102,7,1.029,1.029,-0.008,0.172,6.27616,0,nan,0.0,4,1,17
245891705,1603675590400161,340335649,1087555614,428553,400637,0.176,0.154656,0.638,0.943,0.67,0.95,102,3,1.028,1.018,0.137,-0.042,0.0934928,0,nan,0.0,4,1,17
246889945,1603675591400161,340335741,1087555616,428544,400628,0.179,0.158741,0.639,0.95,0.67,0.95,102,8,1.134,1.131,0.084,-0.051,0.0263531,0,nan,0.0,4,1,17
247891070,1603675592400160,340335832,1087555612,428454,400538,0.18,0.162815,0.642,0.96,0.67,0.95,102,6,1.001,0.994,0.118,0.111,0.0537034,0,nan,0.0,4,1,17
248887042,1603675593400160,340335920,1087555624,428433,400517,0.183,0.168429,0.645,0.966,0.67,0.95,102,8,1.031,1.011,0.206,-0.081,0.161125,0,nan,0.0,4,1,17
249889089,1603675594400159,340336011,1087555634,428455,400539,0.183,0.199826,0.648,0.97,0.67,0.95,102,7,0.913,0.908,0.092,0.0,0.0941935,0,nan,0.0,4,1,17
250890954,1603675595400159,340336102,1087555629,428375,400460,0.174,0.214685,0.65,0.967,0.67,0.95,102,5,0.945,0.944,0.045,0.005,6.27496,0,nan,0.0,4,1,17
251890924,1603675596400158,340336190,1087555627,428308,400392,0.211,0.208997,0.656,0.971,0.67,0.95,102,4,0.959,0.959,-0.022,0.034,6.27541,0,nan,0.0,4,1,17
252889943,1603675597400158,340336284,1087555623,428338,400422,0.142,0.173473,0.658,0.969,0.67,0.95,102,3,1.007,1.007,-0.002,0.014,0.00612139,0,nan,0.0,4,1,17
253889105,1603675598400157,340336375,1087555623,428386,400470,0.162,0.169432,0.655,0.96,0.67,0.95,102,5,1.014,1.011,0.078,-0.021,0.0601704,0,nan,0.0,4,1,17
254890969,1603675599400157,340336463,1087555627,428377,400461,0.219,0.206267,0.661,0.96,0.67,0.95,102,4,0.915,0.911,0.085,-0.006,0.0879599,0,nan,0.0,4,1,17
255890942,1603675600400156,340336549,1087555636,428366,400450,0.229,0.170642,0.667,0.96,0.67,0.95,102,4,1.113,1.1,0.167,-0.023,0.136854,0,nan,0.0,4,1,17
256893134,1603675601400156,340336640,1087555639,428353,400438,0.215,0.188734,0.673,0.965,0.67,0.95,102,8,1.073,1.073,0.023,0.023,0.0185467,0,nan,0.0,4,1,17
257889924,1603675602400155,340336727,1087555643,428376,400460,0.223,0.209931,0.679,0.973,0.67,0.95,102,8,1.009,1.009,-0.003,-0.073,0.0264889,0,nan,0.0,4,1,17
258889947,1603675603400155,340336812,1087555650,428210,400294,0.198,0.176448,0.681,0.976,0.67,0.95,102,8,1.05,1.033,0.188,-0.024,0.127895,0,nan,0.0,4,1,17
259890970,1603675604400154,340336905,1087555660,428219,400303,0.183,0.148674,0.68,0.978,0.67,0.95,102,4,1.101,1.099,-0.05,-0.039,0.0063352,0,nan,0.0,4,1,17
260887948,1603675605400153,340336997,1087555664,428131,400215,0.199,0.18719,0.679,0.975,0.67,0.95,102,4,1.079,1.079,0.035,0.002,0.0274287,0,nan,0.0,4,1,17
261890982,1603675606400153,340337086,1087555666,428157,400241,0.179,0.175227,0.679,0.977,0.67,0.95,102,4,1.023,1.015,0.128,-0.012,0.0809494,0,nan,0.0,4,1,17
262889241,1603675607400152,340337175,1087555667,428209,400293,0.159,0.135686,0.678,0.975,0.67,0.95,102,4,1.125,1.125,0.042,-0.056,0.0230275,0,nan,0.0,4,1,17
263881965,1603675608400152,340337270,1087555670,428173,400257,0.15,0.145026,0.672,0.963,0.67,0.95,102,7,1.091,1.09,0.037,-0.062,0.00987787,0,nan,0.0,4,1,17
264886948,1603675609400151,340337359,1087555675,428165,400249,0.171,0.158402,0.668,0.951,0.67,0.95,102,6,0.966,0.962,0.084,-0.053,0.0484376,0,nan,0.0,4,1,17
265886975,1603675610400151,340337449,1087555680,428154,400238,0.158,0.178438,0.665,0.937,0.67,0.95,102,5,0.932,0.931,0.037,-0.007,0.00378579,0,nan,0.0,4,1,17
266888124,1603675611400150,340337542,1087555684,428248,400332,0.17,0.194689,0.663,0.927,0.67,0.95,102,4,0.959,0.959,0.0,0.008,0.00126484,0,nan,0.0,4,1,17
267891164,1603675612400150,340337632,1087555682,428313,400397,0.167,0.194712,0.66,0.917,0.67,0.95,102,8,0.903,0.903,0.007,-0.094,6.24132,0,nan,0.0,4,1,17
268890949,1603675613400149,340337721,1087555688,428359,400443,0.16,0.164546,0.66,0.909,0.67,0.95,102,5,1.073,1.073,0.036,-0.071,0.028319,0,nan,0.0,4,1,17
269890944,1603675614400149,340337814,1087555687,428342,400426,0.156,0.145056,0.653,0.896,0.67,0.95,102,7,1.03,1.03,0.013,0.077,6.23363,0,nan,0.0,4,1,17
270888942,1603675615400148,340337908,1087555686,428318,400402,0.156,0.167895,0.649,0.897,0.67,0.95,102,4,1.041,1.04,-0.064,-0.044,6.2432,0,nan,0.0,4,1,17
271890943,1603675616400148,340337999,1087555687,428387,400471,0.157,0.182727,0.645,0.89,0.67,0.94,102,6,0.85,0.85,0.021,0.0,6.26762,0,nan,0.0,4,1,17
272891634,1603675617400147,340338085,1087555688,428317,400401,0.18,0.158451,0.643,0.885,0.67,0.94,102,5,0.921,0.92,-0.044,0.041,6.27236,0,nan,0.0,4,1,17
273891985,1603675618400147,340338169,1087555696,428294,400378,0.141,0.151585,0.638,0.878,0.67,0.94,102,5,0.997,0.995,0.05,-0.004,0.0565625,0,nan,0.0,4,1,17
274883411,1603675619400146,340338251,1087555693,428273,400357,0.178,0.219275,0.638,0.876,0.67,0.94,102,10,0.895,0.891,0.085,0.021,0.0123131,0,nan,0.0,4,1,17
275889949,1603675620400146,340338336,1087555700,428325,400409,0.181,0.178933,0.643,0.879,0.67,0.94,102,8,1.086,1.086,-0.003,-0.117,0.00825,0,nan,0.0,4,1,17
276889673,1603675621400145,340338431,1087555707,428416,400500,0.17,0.191757,0.643,0.887,0.67,0.94,102,12,1.093,1.091,-0.066,0.046,0.0129996,0,nan,0.0,4,1,17
277884946,1603675622400145,340338526,1087555705,428452,400536,0.139,0.172929,0.643,0.889,0.67,0.94,102,8,1.052,1.05,-0.061,0.05,6.22977,0,nan,0.0,4,1,17
278886950,1603675623400144,340338620,1087555711,428505,400589,0.176,0.205662,0.644,0.893,0.67,0.94,102,6,1.008,1.008,0.023,0.007,0.0587443,0,nan,0.0,4,1,17
279890141,1603675624400144,340338708,1087555715,428531,400615,0.159,0.191342,0.648,0.9,0.67,0.94,102,7,0.993,0.991,0.064,0.011,0.0432149,0,nan,0.0,4,1,17
280890948,1603675625400143,340338796,1087555711,428479,400563,0.195,0.193289,0.654,0.901,0.67,0.94,102,5,0.989,0.986,-0.082,0.093,6.23454,0,nan,0.0,4,1,17
281883998,1603675626400143,340338882,1087555713,428432,400516,0.192,0.241165,0.662,0.903,0.67,0.94,102,11,0.918,0.917,-0.032,0.038,0.0165229,0,nan,0.0,4,1,17
282890939,1603675627400142,340338969,1087555717,428440,400524,0.198,0.187043,0.672,0.906,0.67,0.94,102,8,1.091,1.09,0.043,-0.122,0.0427098,0,nan,0.0,4,1,17
283891515,1603675628400142,340339062,1087555717,428327,400411,0.155,0.171675,0.675,0.906,0.67,0.94,102,4,1.044,1.044,-0.026,0.022,0.0103824,0,nan,0.0,4,1,17
284889338,1603675629400141,340339150,1087555724,428297,400381,0.178,0.177878,0.677,0.903,0.67,0.94,102,5,0.964,0.963,0.053,0.005,0.0549878,0,nan,0.0,4,1,17
285887409,1603675630400141,340339237,1087555728,428250,400334,0.165,0.195449,0.678,0.901,0.67,0.94,102,5,0.987,0.981,0.11,-0.009,0.0663656,0,nan,0.0,4,1,17
286890945,1603675631400140,340339328,1087555735,428139,400223,0.174,0.1875,0.676,0.903,0.67,0.94,102,6,1.081,1.081,0.009,0.078,0.0375656,0,nan,0.0,4,1,17
287890945,1603675632400139,340339417,1087555728,428127,400210,0.156,0.178306,0.673,0.906,0.67,0.94,102,5,1.043,1.043,-0.013,-0.005,6.22597,0,nan,0.0,4,1,17
288885948,1603675633400139,340339510,1087555731,428182,400266,0.18,0.163648,0.67,0.904,0.67,0.94,102,9,1.063,1.062,0.049,0.026,0.0202076,0,nan,0.0,4,1,17
289890950,1603675634400138,340339603,1087555741,428167,400251,0.181,0.157529,0.67,0.904,0.67,0.94,102,9,1.113,1.113,0.036,0.029,0.0460283,0,nan,0.0,4,1,17
290891008,1603675635400138,340339692,1087555743,428160,400244,0.141,0.163138,0.666,0.897,0.67,0.94,102,10,0.929,0.929,0.018,0.024,0.0103868,0,nan,0.0,4,1,17
291892134,1603675636400137,340339776,1087555743,428183,400267,0.15,0.13591,0.66,0.888,0.67,0.94,102,8,1.059,1.059,0.005,0.051,6.28082,0,nan,0.0,4,1,17
292883048,1603675637400137,340339869,1087555746,428181,400265,0.158,0.157167,0.651,0.878,0.67,0.94,102,10,1.067,1.067,0.017,0.031,0.0290332,0,nan,0.0,4,1,17
293889946,1603675638400136,340339962,1087555745,428215,400299,0.172,0.184197,0.649,0.875,0.67,0.94,102,4,0.989,0.988,0.055,0.023,0.0427073,0,nan,0.0,4,1,17
294887996,1603675639400136,340340055,1087555744,428221,400305,0.156,0.177566,0.65,0.873,0.67,0.94,102,6,1.016,1.016,0.007,0.041,6.28182,0,nan,0.0,4,1,17
295886953,1603675640400135,340340147,1087555742,428172,400256,0.154,0.167968,0.65,0.871,0.67,0.94,102,5,1.013,1.012,0.028,0.062,0.0343999,0,nan,0.0,4,1,17
296886947,1603675641400135,340340237,1087555749,428259,400343,0.132,0.135088,0.641,0.861,0.67,0.94,102,9,0.944,0.944,0.025,-0.112,0.0514458,0,nan,0.0,4,1,17
297890765,1603675642400134,340340326,1087555759,428378,400462,0.159,0.149594,0.636,0.852,0.67,0.94,102,7,0.981,0.981,-0.011,0.118,0.0397071,0,nan,0.0,4,1,17
298888318,1603675643400134,340340417,1087555766,428395,400479,0.186,0.134616,0.636,0.849,0.67,0.94,102,8,1.013,1.013,0.026,0.012,0.0353501,0,nan,0.0,4,1,17
299885971,1603675644400133,340340502,1087555772,428504,400588,0.148,0.144106,0.633,0.842,0.67,0.94,101,6,0.933,0.933,0.023,-0.044,0.0161851,0,nan,0.0,4,1,17
300887096,1603675645400133,340340593,1087555776,428583,400667,0.163,0.11857,0.629,0.833,0.67,0.94,101,6,1.094,1.094,0.006,0.059,6.27556,0,nan,0.0,4,1,17
301885948,1603675646400132,340340685,1087555774,428591,400675,0.158,0.140561,0.628,0.829,0.67,0.94,101,6,1.035,1.034,0.037,0.032,0.0180732,0,nan,0.0,4,1,17
302887187,1603675647400132,340340773,1087555772,428644,400728,0.163,0.153824,0.627,0.825,0.67,0.94,101,10,0.933,0.933,0.012,-0.061,6.27176,0,nan,0.0,4,1,17
303892944,1603675648400131,340340864,1087555771,428589,400673,0.141,0.15069,0.625,0.823,0.67,0.94,101,10,0.997,0.997,0.0,-0.019,6.28202,0,nan,0.0,4,1,17
304883051,1603675649400131,340340956,1087555771,428631,400715,0.143,0.147795,0.622,0.82,0.67,0.94,101,5,0.967,0.964,0.07,-0.065,0.0391008,0,nan,0.0,4,1,17
305887950,1603675650400130,340341047,1087555778,428646,400730,0.141,0.15934,0.62,0.818,0.67,0.94,101,5,0.977,0.977,-0.007,-0.013,0.027497,0,nan,0.0,4,1,17
306889227,1603675651400130,340341136,1087555776,428564,400647,0.163,0.169848,0.619,0.818,0.71,0.98,101,4,0.923,0.921,0.06,0.096,0.0230776,0,nan,0.0,4,1,16
307887041,1603675652400129,340341223,1087555780,428623,400707,0.158,0.164726,0.617,0.813,0.67,0.94,101,5,0.891,0.888,0.074,-0.099,0.0513418,0,nan,0.0,4,1,17
308887028,1603675653400129,340341315,1087555783,428678,400761,0.177,0.148066,0.621,0.815,0.71,0.98,101,5,1.093,1.091,0.056,-0.041,0.0481341,0,nan,0.0,4,1,16
309887948,1603675654400128,340341406,1087555787,428648,400732,0.179,0.171352,0.623,0.816,0.67,0.94,101,4,0.973,0.973,0.025,-0.048,0.0161616,0,nan,0.0,4,1,17
310882958,1603675655400128,340341494,1087555791,428623,400707,0.185,0.167476,0.628,0.818,0.71,0.98,101,3,0.991,0.988,0.082,0.016,0.0514134,0,nan,0.0,4,1,16
311886076,1603675656400127,340341581,1087555798,428582,400666,0.178,0.158945,0.634,0.82,0.67,0.94,101,3,1.042,1.035,0.121,0.001,0.0915228,0,nan,0.0,4,1,17
312892691,1603675657400127,340341674,1087555803,428552,400635,0.175,0.195879,0.64,0.825,0.71,0.98,101,4,1.008,1.008,-0.019,-0.081,0.0229057,0,nan,0.0,4,1,16
313905975,1603675658400126,340341764,1087555798,428526,400610,0.179,0.183042,0.645,0.832,0.67,0.94,102,4,1.004,1.003,0.038,0.081,0.0131404,0,nan,0.0,4,1,17
314897961,1603675659400125,340341853,1087555800,428516,400600,0.171,0.175667,0.649,0.837,0.67,0.94,102,4,0.964,0.963,0.045,0.014,0.0547719,0,nan,0.0,4,1,17
315894946,1603675660400125,340341941,1087555810,428549,400632,0.156,0.154737,0.651,0.841,0.67,0.94,102,4,1.025,1.025,0.02,0.028,0.0320933,0,nan,0.0,4,1,17
316893946,1603675661400124,340342030,1087555812,428434,400517,0.139,0.155201,0.648,0.844,0.67,0.94,102,6,1.01,1.009,-0.04,0.098,6.26603,0,nan,0.0,4,1,17
317893766,1603675662400124,340342119,1087555807,428415,400499,0.14,0.163343,0.644,0.846,0.67,0.94,102,4,0.98,0.971,-0.131,-0.027,6.21066,0,nan,0.0,4,1,17
318894126,1603675663400123,340342208,1087555802,428392,400476,0.151,0.182038,0.643,0.851,0.71,0.98,102,6,0.925,0.924,-0.041,-0.035,6.2483,0,nan,0.0,4,1,16
319894443,1603675664400123,340342297,1087555809,428365,400449,0.182,0.163051,0.646,0.858,0.67,0.94,102,8,1.031,1.027,0.081,-0.055,0.0749118,0,nan,0.0,4,1,17
320893990,1603675665400122,340342394,1087555813,428333,400416,0.168,0.142136,0.647,0.862,0.67,0.94,102,5,1.116,1.113,0.081,0.005,0.0509825,0,nan,0.0,4,1,17
321887947,1603675666400122,340342486,1087555821,428347,400431,0.158,0.161238,0.645,0.866,0.67,0.94,102,5,0.959,0.957,0.051,0.02,0.0534603,0,nan,0.0,4,1,17
322891965,1603675667400121,340342571,1087555823,428274,400358,0.171,0.210774,0.643,0.873,0.67,0.94,102,8,0.914,0.909,-0.1,0.102,6.23398,0,nan,0.0,4,1,17
323887177,1603675668400121,340342659,1087555831,428226,400310,0.196,0.158139,0.646,0.884,0.71,0.98,102,8,1.085,1.075,0.146,0.12,0.121204,0,nan,0.0,4,1,16
324885158,1603675669400120,340342749,1087555840,428275,400358,0.163,0.13765,0.645,0.882,0.67,0.94,102,8,1.008,1.006,0.058,-0.103,0.0674465,0,nan,0.0,4,1,17
325884079,1603675670400120,340342843,1087555835,428303,400386,0.191,0.182898,0.643,0.88,0.71,0.98,102,9,0.947,0.947,-0.017,-0.027,6.24822,0,nan,0.0,4,1,16
326887950,1603675671400119,340342935,1087555833,428340,400424,0.169,0.174905,0.644,0.882,0.71,0.98,102,8,0.989,0.988,-0.041,-0.024,6.24458,0,nan,0.0,4,1,16
327889949,1603675672400119,340343023,1087555825,428407,400491,0.171,0.191692,0.644,0.887,0.67,0.94,102,7,0.89,0.888,-0.047,0.005,6.22885,0,nan,0.0,4,1,17
328888019,1603675673400118,340343115,1087555834,428523,400606,0.163,0.181485,0.642,0.892,0.71,0.98,102,5,1.039,1.029,0.148,0.011,0.11768,0,nan,0.0,4,1,16
329886184,1603675674400118,340343203,1087555844,428411,400495,0.188,0.147139,0.643,0.897,0.71,0.98,102,8,1.031,1.021,0.144,0.116,0.133792,0,nan,0.0,4,1,16
330890017,1603675675400117,340343290,1087555855,428374,400458,0.206,0.145969,0.642,0.895,0.71,0.98,102,7,0.949,0.949,0.006,-0.075,0.0201737,0,nan,0.0,4,1,16
331887957,1603675676400117,340343331,1087555809,428469,400552,0.132,0.183612,0.641,0.892,0.67,0.94,102,6,0.973,-0.005,-0.973,0.083,4.90577,0,nan,0.0,4,1,17
332891689,1603675677400116,340343327,1087555714,428516,400599,0.177,0.209958,0.639,0.894,0.67,0.94,102,8,0.826,-0.058,-0.824,-0.023,4.63292,0,nan,0.0,4,1,17
333890978,1603675678400116,340343328,1087555621,428505,400588,0.177,0.181731,0.639,0.899,0.67,0.94,102,7,0.873,0.012,-0.873,-0.066,4.71615,0,nan,0.0,4,1,17
334892271,1603675679400115,340343331,1087555520,428476,400560,0.201,0.181038,0.642,0.906,0.67,0.94,102,4,0.995,0.036,-0.995,0.045,4.74027,0,nan,0.0,4,1,17
335895094,1603675680400115,340343340,1087555415,428410,400493,0.243,0.20823,0.65,0.925,0.67,0.94,102,11,0.91,0.134,-0.9,-0.008,4.78057,0,nan,0.0,4,1,17
336895954,1603675681400114,340343349,1087555304,428304,400388,0.153,0.175946,0.657,0.937,0.67,0.94,102,13,1.031,0.02,-1.031,0.064,4.74457,0,nan,0.0,4,1,17
337895023,1603675682400114,340343356,1087555205,428168,400251,0.202,0.161697,0.664,0.951,0.67,0.94,102,12,1.023,-0.028,-1.023,0.048,4.68458,0,nan,0.0,4,1,17
338894696,1603675683400113,340343361,1087555097,428070,400153,0.196,0.187505,0.672,0.969,0.67,0.94,102,3,0.926,0.013,-0.926,0.098,4.72044,0,nan,0.0,4,1,17
339893450,1603675684400112,340343366,1087554992,428252,400335,0.245,0.180911,0.679,0.985,0.67,0.94,102,9,1.075,0.032,-1.075,-0.192,4.7376,0,nan,0.0,4,1,17
340894943,1603675685400112,340343366,1087554875,428281,400364,0.187,0.168674,0.686,0.998,0.67,0.94,102,10,1.052,-0.05,-1.051,-0.03,4.67279,0,nan,0.0,4,1,17
341891946,1603675686400111,340343369,1087554759,428363,400446,0.173,0.157066,0.684,0.997,0.79,1.24,102,8,1.006,0.048,-1.005,0.024,4.71579,0,nan,0.0,4,1,16
342890956,1603675687400111,340343386,1087554662,428433,400517,0.201,0.178691,0.685,1.001,0.79,1.24,102,9,0.989,0.048,-0.988,-0.093,4.76234,0,nan,0.0,4,1,16
343895975,1603675688400110,340343394,1087554564,428387,400470,0.172,0.193523,0.687,1.009,0.79,1.24,102,4,0.878,0.054,-0.876,-0.002,4.75103,0,nan,0.0,4,1,16
344894396,1603675689400110,340343398,1087554463,428434,400517,0.204,0.186419,0.69,1.019,0.79,1.24,102,11,0.908,0.053,-0.906,0.026,4.74048,0,nan,0.0,4,1,16
345893951,1603675690400109,340343398,1087554350,428510,400594,0.203,0.148483,0.694,1.03,0.79,1.24,102,4,1.169,-0.031,-1.169,-0.126,4.68646,0,nan,0.0,4,1,16
346888946,1603675691400109,340343394,1087554236,428568,400652,0.231,0.186843,0.702,1.045,0.79,1.24,102,4,0.975,0.038,-0.974,-0.116,4.69637,0,nan,0.0,4,1,16
347893363,1603675692400108,340343399,1087554133,428538,400622,0.201,0.179952,0.71,1.059,0.79,1.24,102,5,1.012,0.059,-1.01,0.126,4.76376,0,nan,0.0,4,1,16
348892053,1603675693400108,340343404,1087554028,428528,400612,0.186,0.175331,0.721,1.071,0.79,1.24,102,4,1.023,0.035,-1.022,-0.108,4.75077,0,nan,0.0,4,1,16
349887998,1603675694400107,340343410,1087553918,428564,400647,0.191,0.171324,0.721,1.077,0.79,1.24,102,13,1.018,0.069,-1.016,-0.085,4.77864,0,nan,0.0,4,1,16
350893180,1603675695400107,340343419,1087553808,428703,400786,0.232,0.149415,0.727,1.09,0.79,1.24,102,16,1.134,-0.025,-1.134,-0.207,4.75741,0,nan,0.0,4,1,16
351885947,1603675696400106,340343423,1087553699,428594,400678,0.234,0.186684,0.734,1.106,0.79,1.24,102,16,1.026,0.026,-1.025,-0.03,4.72038,0,nan,0.0,4,1,16
352884988,1603675697400106,340343423,1087553588,428612,400696,0.236,0.167073,0.74,1.119,0.8,1.24,102,4,1.006,-0.063,-1.004,0.044,4.68682,0,nan,0.0,4,1,16
353890942,1603675698400105,340343426,1087553481,428539,400622,0.187,0.177875,0.742,1.123,0.8,1.24,102,7,0.926,0.026,-0.925,0.079,4.73913,0,nan,0.0,4,1,16
354895862,1603675699400105,340343428,1087553365,428610,400693,0.23,0.175044,0.746,1.132,0.8,1.24,102,10,1.1,-0.014,-1.1,-0.058,4.72007,0,nan,0.0,4,1,16
355890082,1603675700400104,340343431,1087553258,428658,400741,0.193,0.176518,0.754,1.141,0.8,1.24,102,6,1.032,0.085,-1.029,0.152,4.76263,0,nan,0.0,4,1,16
356891031,1603675701400104,340343442,1087553154,428589,400673,0.182,0.200096,0.761,1.151,0.8,1.24,102,7,0.929,0.138,-0.919,0.103,4.83142,0,nan,0.0,4,1,16
357895182,1603675702400103,340343449,1087553047,428390,400473,0.2,0.208249,0.763,1.151,0.8,1.24,102,5,0.913,0.042,-0.912,0.15,4.75581,0,nan,0.0,4,1,16
358892807,1603675703400103,340343457,1087552945,428441,400524,0.179,0.166141,0.761,1.146,0.8,1.24,102,8,1.029,0.062,-1.027,-0.077,4.78437,0,nan,0.0,4,1,16
359894037,1603675704400102,340343452,1087552838,428421,400505,0.2,0.187821,0.764,1.148,0.8,1.24,102,10,1.096,-0.038,-1.096,-0.021,4.68854,0,nan,0.0,4,1,16
360892973,1603675705400102,340343449,1087552721,428529,400612,0.203,0.16688,0.766,1.152,0.8,1.24,102,8,0.971,0.074,-0.968,-0.169,4.75079,0,nan,0.0,4,1,16
361890944,1603675706400101,340343458,1087552617,428630,400713,0.238,0.163597,0.768,1.156,0.8,1.24,102,10,1.067,0.028,-1.067,-0.134,4.76152,0,nan,0.0,4,1,16
362890615,1603675707400100,340343469,1087552508,428659,400742,0.174,0.180004,0.768,1.155,0.8,1.24,102,8,0.948,0.033,-0.948,0.141,4.75038,0,nan,0.0,4,1,16
363888030,1603675708400100,340343477,1087552401,428416,400499,0.189,0.199304,0.772,1.159,0.8,1.24,102,6,0.873,0.157,-0.858,0.04,4.84292,0,nan,0.0,4,1,16
364894009,1603675709400099,340343482,1087552323,428414,400497,0.219,0.343368,0.777,1.168,0.8,1.24,103,6,0.515,-0.02,-0.515,-0.03,4.74506,0,nan,0.0,4,1,16
365891945,1603675710400099,340343481,1087552283,428447,400530,0.263,0.558984,0.782,1.179,0.8,1.24,103,6,0.281,-0.063,-0.273,-0.105,4.49096,0,nan,0.0,4,1,16
366892945,1603675711400098,340343480,1087552261,428567,400650,0.268,0.767793,0.786,1.193,0.8,1.24,102,8,0.085,-0.072,-0.045,-0.061,4.50116,0,nan,0.0,4,1,16
367889942,1603675712400098,340343482,1087552256,428621,400704,0.287,0.767839,0.794,1.209,0.79,1.18,103,6,0.05,-0.049,-0.009,-0.141,4.50116,0,nan,0.0,4,1,17
368891123,1603675713400097,340343484,1087552262,428774,400857,0.162,0.767878,0.795,1.211,0.79,1.18,103,4,0.065,0.014,0.063,-0.03,4.50116,0,nan,0.0,4,1,17
369892902,1603675714400097,340343489,1087552269,428866,400949,0.266,0.767923,0.795,1.21,0.79,1.18,102,5,0.026,-0.026,-0.002,-0.115,4.50116,0,nan,0.0,4,1,17
370889025,1603675715400096,340343488,1087552273,428810,400893,0.26,0.767967,0.791,1.205,0.79,1.18,102,5,0.039,0.037,0.011,0.064,4.50116,0,nan,0.0,4,1,17
371888306,1603675716400096,340343486,1087552272,428881,400964,0.226,0.768009,0.787,1.204,0.79,1.18,102,5,0.016,0.008,-0.014,0.027,4.50116,0,nan,0.0,4,1,17
372889980,1603675717400095,340343482,1087552262,428925,401008,0.267,0.768054,0.787,1.208,0.79,1.18,103,5,0.104,-0.071,-0.076,-0.028,4.50116,0,nan,0.0,4,1,17
373888948,1603675718400095,340343477,1087552254,429001,401084,0.244,0.768099,0.789,1.209,0.79,1.18,103,7,0.038,-0.038,0.001,-0.037,4.50116,0,nan,0.0,4,1,17
374898965,1603675719400094,340343475,1087552251,429042,401126,0.244,0.768142,0.789,1.208,0.79,1.18,103,6,0.041,0.019,0.037,0.0,4.50116,0,nan,0.0,4,1,17
375889945,1603675720400094,340343481,1087552254,428952,401035,0.265,0.768186,0.792,1.212,0.79,1.18,103,5,0.012,-0.01,0.007,-0.061,4.50116,0,nan,0.0,4,1,17
376891948,1603675721400093,340343485,1087552260,428751,400834,0.247,0.76823,0.799,1.221,0.79,1.18,103,4,0.056,-0.034,0.045,0.086,4.50116,0,nan,0.0,4,1,17
377893277,1603675722400093,340343497,1087552275,428744,400827,0.22,0.768273,0.803,1.227,0.79,1.18,103,5,0.035,0.033,-0.01,0.025,4.50116,0,nan,0.0,4,1,17
378893139,1603675723400092,340343508,1087552283,428801,400884,0.277,0.768316,0.808,1.233,0.79,1.18,103,6,0.097,-0.086,-0.044,-0.112,4.50116,0,nan,0.0,4,1,17
379889304,1603675724400092,340343510,1087552282,428836,400919,0.249,0.768359,0.806,1.23,0.79,1.18,103,4,0.145,-0.137,-0.05,-0.085,4.50116,0,nan,0.0,4,1,17
380891021,1603675725400091,340343499,1087552275,428756,400839,0.253,0.768401,0.803,1.231,0.79,1.18,103,13,0.11,-0.092,-0.06,-0.008,4.50116,0,nan,0.0,4,1,17
381899974,1603675726400091,340343495,1087552271,428190,400273,0.264,0.575411,0.803,1.232,0.79,1.18,103,11,0.052,-0.013,-0.051,0.998,4.59972,0,nan,0.0,4,1,17
382891963,1603675727400090,340343496,1087552262,427101,399184,0.256,0.661807,0.798,1.225,0.79,1.18,99,9,0.255,-0.167,0.193,0.776,3.43794,0,nan,0.0,4,1,17
383890032,1603675728400090,340343488,1087552277,426734,398817,0.265,0.724795,0.797,1.228,0.79,1.18,99,10,0.132,-0.1,-0.087,0.44,2.08314,0,nan,0.0,4,1,17
384889435,1603675729400089,340343477,1087552280,425821,397904,0.304,0.739342,0.798,1.233,0.79,1.18,99,8,0.078,-0.047,-0.062,0.941,2.38817,0,nan,0.0,4,1,17
385892943,1603675730400088,340343469,1087552268,425145,397228,0.236,0.572499,0.799,1.237,0.79,1.18,99,5,0.383,-0.267,-0.275,0.413,3.63912,0,nan,0.0,4,1,17
386893035,1603675731400088,340343472,1087552273,425234,397317,0.337,0.572567,0.807,1.252,0.79,1.18,99,6,0.018,0.018,0.003,0.038,3.63912,0,nan,0.0,4,1,17
387892987,1603675732400087,340343473,1087552278,425358,397442,0.305,0.572636,0.814,1.266,0.79,1.18,100,7,0.021,0.02,-0.006,0.086,3.63912,0,nan,0.0,4,1,17
388892954,1603675733400087,340343474,1087552282,425438,397521,0.281,0.5727,0.821,1.282,0.79,1.18,100,6,0.007,-0.004,0.006,0.067,3.63912,0,nan,0.0,4,1,17
389892979,1603675734400086,340343476,1087552285,425406,397489,0.241,0.572761,0.825,1.294,0.79,1.18,100,6,0.034,0.021,-0.027,-0.025,3.63912,0,nan,0.0,4,1,17
390890943,1603675735400086,340343478,1087552285,425303,397386,0.201,0.57281,0.828,1.304,0.79,1.18,100,7,0.083,0.062,-0.056,-0.006,3.63912,0,nan,0.0,4,1,17
