timestamp,ref_timestamp,ref_lat,ref_lon,x,y,z,delta_xy[0],delta_xy[1],delta_z,vx,vy,vz,z_deriv,delta_vxy[0],delta_vxy[1],delta_vz,ax,ay,az,heading,delta_heading,ref_alt,dist_bottom,eph,epv,evh,evv,vxy_max,vz_max,hagl_min,hagl_max,xy_valid,z_valid,v_xy_valid,v_z_valid,xy_reset_counter,z_reset_counter,vxy_reset_counter,vz_reset_counter,heading_reset_counter,xy_global,z_global,dist_bottom_valid
66921929,39902196,34.0343398,108.7550758,2.4282,0.9795,0.21849,-0.032507,-0.12439,0.0,0.024325,0.0303411,0.0138014,-0.0450412,-0.0069764,-0.079137,0.0399598,0.18555,0.0640118,-0.0498528,3.08589,0.00528735,429.288,0.1,0.291606,0.391905,0.138188,0.106023,inf,inf,inf,inf,1,1,1,1,2,0,2,1,3,1,1,1
66931805,39902196,34.0343398,108.7550758,2.42891,0.98014,0.218192,-0.032507,-0.12439,0.0,0.0225511,0.0299775,0.0139713,-0.0446608,-0.0069764,-0.079137,0.0399598,0.0593293,0.10103,-0.130815,3.08577,0.00528735,429.288,0.1,0.292518,0.392584,0.138643,0.106216,inf,inf,inf,inf,1,1,1,1,2,0,2,1,3,1,1,1
67120511,39902196,34.0343398,108.7550758,2.44507,0.988914,0.213747,-0.032507,-0.12439,0.0,0.0191372,0.0307018,-0.000837221,-0.0547391,-0.0069764,-0.079137,0.0399598,0.51081,0.743326,-0.841175,3.086,0.00528735,429.288,0.101625,0.291245,0.391182,0.137769,0.105888,inf,inf,inf,inf,1,1,1,1,2,0,2,1,3,1,1,1
67219837,39902196,34.0343398,108.7550758,2.45431,0.992981,0.21132,-0.032507,-0.12439,0.0,0.0309332,0.0304471,0.00338626,-0.0485767,-0.0069764,-0.079137,0.0399598,0.564411,-0.840181,-2.17856,3.08577,0.00528735,429.288,0.100905,0.282489,0.388693,0.133245,0.104428,inf,inf,inf,inf,1,1,1,1,2,0,2,1,3,1,1,1
67329091,39902196,34.0343398,108.7550758,2.46245,0.996733,0.208353,-0.032507,-0.12439,0.0,0.0247574,0.0267532,0.018046,-0.0321791,-0.0069764,-0.079137,0.0399598,0.40464,-0.0220062,0.628185,3.0849,0.00528735,429.288,0.1,0.292191,0.391165,0.138246,0.106003,inf,inf,inf,inf,1,1,1,1,2,0,2,1,3,1,1,1
67428400,39902196,34.0343398,108.7550758,2.47385,1.00028,0.203281,-0.032507,-0.12439,0.0,0.0237164,0.0252974,0.000237411,-0.0508234,-0.0069764,-0.079137,0.0399598,0.214454,0.707737,-0.0566093,3.08595,0.00528735,429.288,0.1,0.283495,0.391108,0.133787,0.104822,inf,inf,inf,inf,1,1,1,1,2,0,2,1,3,1,1,1
67527719,39902196,34.0343398,108.7550758,2.48257,1.00324,0.19948,-0.032507,-0.12439,0.0,0.0219804,0.0240518,0.0105217,-0.0400268,-0.0069764,-0.079137,0.0399598,0.252139,-0.809158,-2.03369,3.08487,0.00528735,429.288,0.100286,0.292349,0.392949,0.138229,0.106213,inf,inf,inf,inf,1,1,1,1,2,0,2,1,3,1,1,1
67627038,39902196,34.0343398,108.7550758,2.49415,1.00823,0.197548,-0.032507,-0.12439,0.0,0.0261442,0.0255155,0.0104044,-0.0376555,-0.0069764,-0.079137,0.0399598,0.0270655,0.783182,0.733827,3.08574,0.00528735,429.288,0.104136,0.283544,0.390421,0.133743,0.104746,inf,inf,inf,inf,1,1,1,1,2,0,2,1,3,1,1,1
67726357,39902196,34.0343398,108.7550758,2.50358,1.0126,0.195962,-0.032507,-0.12439,0.0,0.0264596,0.0242451,0.000801676,-0.0447606,-0.0069764,-0.079137,0.0399598,0.594953,-0.120896,-1.76549,3.08661,0.00528735,429.288,0.104688,0.292395,0.392252,0.138252,0.106133,inf,inf,inf,inf,1,1,1,1,2,0,2,1,3,1,1,1
67825742,39902196,34.0343398,108.7550758,2.5154,1.01788,0.194814,-0.032507,-0.12439,0.0,0.0211033,0.0275736,0.0184055,-0.0245299,-0.0069764,-0.079137,0.0399598,-0.842031,0.452572,-0.33868,3.08633,0.00528735,429.288,0.102565,0.283585,0.389736,0.13369,0.104669,inf,inf,inf,inf,1,1,1,1,2,0,2,1,3,1,1,1
67929963,39902196,34.0343398,108.7550758,2.52514,1.02257,0.193018,-0.032507,-0.12439,0.0,0.0243566,0.0244793,0.0115777,-0.0296887,-0.0069764,-0.079137,0.0399598,-0.702235,0.550026,-1.16018,3.08663,0.00528735,429.288,0.103561,0.292434,0.391556,0.138253,0.106053,inf,inf,inf,inf,1,1,1,1,2,0,2,1,3,1,1,1
68029282,39902196,34.0343398,108.7550758,2.5366,1.02664,0.19089,-0.032507,-0.12439,0.0,0.0217979,0.017893,0.0122603,-0.0278006,-0.0069764,-0.079137,0.0399598,-1.59423,-2.52935,0.0910513,3.08661,0.00528735,429.288,0.103425,0.283618,0.389052,0.134166,0.104592,inf,inf,inf,inf,1,1,1,1,2,0,2,1,3,1,1,1
68128757,39902196,34.0343398,108.7550758,2.5456,1.03044,0.188071,-0.032507,-0.12439,0.0,0.023036,0.0430161,0.00393103,-0.0353478,-0.0069764,-0.079137,0.0399598,0.86047,2.16582,-2.54585,3.08627,0.00528735,429.288,0.106244,0.292482,0.393329,0.14393,0.106256,inf,inf,inf,inf,1,1,1,1,2,0,2,1,3,1,1,1
68227921,39902196,34.0343398,108.7550758,2.55349,1.03472,0.182769,-0.032507,-0.12439,0.0,0.0193533,0.034164,0.00313381,-0.0376658,-0.0069764,-0.079137,0.0399598,1.12522,-0.162173,-1.31059,3.08696,0.00528735,429.288,0.111546,0.283683,0.390797,0.147971,0.104802,inf,inf,inf,inf,1,1,1,1,2,0,2,1,3,1,1,1
68327238,39902196,34.0343398,108.7550758,2.55955,1.03806,0.176879,-0.032507,-0.12439,0.0,0.0328524,0.0319704,-0.00139398,-0.0441633,-0.0069764,-0.079137,0.0399598,2.19227,1.61685,-1.61853,3.0871,0.00528735,429.288,0.117436,0.292673,0.392638,0.165655,0.106212,inf,inf,inf,inf,1,1,1,1,2,0,2,1,3,1,1,1
68421590,39902196,34.0343398,108.7550758,2.56742,1.04095,0.16946,-0.032507,-0.12439,0.0,0.0287309,0.0167552,0.000932748,-0.0454993,-0.0069764,-0.079137,0.0399598,1.14858,-2.23589,-1.26707,3.08747,0.00528735,429.288,0.124855,0.28291,0.389454,0.169349,0.104572,inf,inf,inf,inf,1,1,1,1,2,0,2,1,3,1,1,1
68520910,39902196,34.0343398,108.7550758,2.57429,1.04342,0.162606,-0.032507,-0.12439,0.0,0.0202867,0.0195224,0.0052555,-0.0431659,-0.0069764,-0.079137,0.0399598,-3.01264,-0.568355,2.9966,3.0881,0.00528735,429.288,0.131709,0.29212,0.39127,0.190506,0.105986,inf,inf,inf,inf,1,1,1,1,2,0,2,1,3,1,1,1
68620229,39902196,34.0343398,108.7550758,2.58291,1.04454,0.155234,-0.032507,-0.12439,0.0,0.0177364,0.0193518,-0.00184623,-0.0523206,-0.0069764,-0.079137,0.0399598,-0.913572,-0.497607,1.35926,3.08816,0.00528735,429.288,0.139081,0.283098,0.388776,0.19212,0.10454,inf,inf,inf,inf,1,1,1,1,2,0,2,1,3,1,1,1
68729480,39902196,34.0343398,108.7550758,2.59091,1.04448,0.14743,-0.032507,-0.12439,0.0,0.0179531,0.017114,-0.00348173,-0.0553646,-0.0069764,-0.079137,0.0399598,-1.21486,2.56025,-0.298045,3.0879,0.00528735,429.288,0.146885,0.293841,0.391258,0.216356,0.106151,inf,inf,inf,inf,1,1,1,1,2,0,2,1,3,1,1,1
68828799,39902196,34.0343398,108.7550758,2.60015,1.04654,0.142818,-0.032507,-0.12439,0.0,0.0185425,0.00767211,-0.00442919,-0.0548594,-0.0069764,-0.079137,0.0399598,1.26787,-0.211886,-0.250785,3.08842,0.00528735,429.288,0.151497,0.284527,0.388775,0.21148,0.104712,inf,inf,inf,inf,1,1,1,1,2,0,2,1,3,1,1,1
68928241,39902196,34.0343398,108.7550758,2.60667,1.04788,0.137917,-0.032507,-0.12439,0.0,0.015288,0.0076189,-0.00576257,-0.0552745,-0.0069764,-0.079137,0.0399598,0.239652,-0.432272,-0.523237,3.08934,0.00528735,429.288,0.156398,0.294976,0.393048,0.2328,0.1064,inf,inf,inf,inf,1,1,1,1,2,0,2,1,3,1,1,1
69022470,39902196,34.0343398,108.7550758,2.61399,1.04952,0.1333,-0.032507,-0.12439,0.0,0.00788791,-0.000665466,0.0019782,-0.046981,-0.0069764,-0.079137,0.0399598,-5.23696,-0.108146,3.48182,3.08955,0.00528735,429.288,0.161015,0.284059,0.389857,0.218949,0.10473,inf,inf,inf,inf,1,1,1,1,2,0,2,1,3,1,1,1
69121789,39902196,34.0343398,108.7550758,2.61962,1.05077,0.128272,-0.032507,-0.12439,0.0,0.00637545,-0.00279473,-0.00483976,-0.0531054,-0.0069764,-0.079137,0.0399598,-0.723751,-2.76038,0.182309,3.08954,0.00528735,429.288,0.166043,0.294838,0.391667,0.238644,0.106145,inf,inf,inf,inf,1,1,1,1,2,0,2,1,3,1,1,1
69221110,39902196,34.0343398,108.7550758,2.62685,1.05401,0.124311,-0.032507,-0.12439,0.0,0.0151523,0.00652059,-0.0140064,-0.0605252,-0.0069764,-0.079137,0.0399598,1.89662,0.728428,-0.71903,3.08996,0.00528735,429.288,0.170004,0.284741,0.389159,0.223108,0.104675,inf,inf,inf,inf,1,1,1,1,2,0,2,1,3,1,1,1
69320481,39902196,34.0343398,108.7550758,2.63214,1.05665,0.119879,-0.032507,-0.12439,0.0,0.00862633,0.00138756,-0.00608604,-0.0515283,-0.0069764,-0.079137,0.0399598,-0.706156,0.98581,1.01302,3.09039,0.00528735,429.288,0.174436,0.295952,0.39343,0.240974,0.106359,inf,inf,inf,inf,1,1,1,1,2,0,2,1,3,1,1,1
69429694,39902196,34.0343398,108.7550758,2.64287,1.06584,0.115359,-0.032507,-0.12439,0.0,0.00319692,0.000391717,-0.0053716,-0.0494741,-0.0069764,-0.079137,0.0399598,-1.62667,-2.81769,0.29483,3.09052,0.00528735,429.288,0.178956,0.286544,0.391552,0.224529,0.105068,inf,inf,inf,inf,1,1,1,1,2,0,2,1,3,1,1,1
69524032,39902196,34.0343398,108.7550758,2.65022,1.07319,0.111621,-0.032507,-0.12439,0.0,0.0219198,0.00991136,-0.0146313,-0.0577222,-0.0069764,-0.079137,0.0399598,2.30574,-0.997888,-0.408598,3.09074,0.00528735,429.288,0.182694,0.296975,0.392693,0.239015,0.106283,inf,inf,inf,inf,1,1,1,1,2,0,2,1,3,1,1,1
69623350,39902196,34.0343398,108.7550758,2.66112,1.08214,0.106084,-0.032507,-0.12439,0.0,0.0212205,0.0658613,-0.0308782,-0.072751,-0.0069764,-0.079137,0.0399598,1.03789,1.79896,-1.93842,3.09127,0.00528735,429.288,0.188232,0.286031,0.390148,0.219608,0.104782,inf,inf,inf,inf,1,1,1,1,2,0,2,1,3,1,1,1
69722730,39902196,34.0343398,108.7550758,2.67148,1.09335,0.0990498,-0.032507,-0.12439,0.0,0.0364291,0.0754712,-0.0642145,-0.104071,-0.0069764,-0.079137,0.0399598,-0.266969,-0.719473,-0.750832,3.09237,0.00528735,429.288,0.195265,0.297668,0.391953,0.234058,0.106187,inf,inf,inf,inf,1,1,1,1,2,0,2,1,3,1,1,1
69821996,39902196,34.0343398,108.7550758,2.68703,1.10289,0.0900789,-0.032507,-0.12439,0.0,0.0475739,0.0814314,-0.123874,-0.159084,-0.0069764,-0.079137,0.0399598,-0.904104,-0.11753,0.966034,3.09293,0.00528735,429.288,0.204236,0.286681,0.389429,0.21531,0.104705,inf,inf,inf,inf,1,1,1,1,2,0,2,1,3,1,1,1
69921308,39902196,34.0343398,108.7550758,2.70109,1.1121,0.0726582,-0.032507,-0.12439,0.0,0.0493671,0.088695,-0.232389,-0.263944,-0.0069764,-0.079137,0.0399598,-0.0708376,-1.66174,-2.3825,3.09077,0.00528735,429.288,0.221657,0.298408,0.393699,0.228326,0.106366,inf,inf,inf,inf,1,1,1,1,2,0,2,1,3,1,1,1
70020630,39902196,34.0343398,108.7550758,2.71589,1.12524,0.0439213,-0.032507,-0.12439,0.0,0.0550146,0.121173,-0.379501,-0.406498,-0.0069764,-0.079137,0.0399598,-1.1377,-2.12581,-0.462159,3.08814,0.00528735,429.288,0.250394,0.287292,0.391149,0.210202,0.104864,inf,inf,inf,inf,1,1,1,1,2,0,2,1,3,1,1,1
70129878,39902196,34.0343398,108.7550758,2.72974,1.14244,-0.0100768,-0.032507,-0.12439,0.0,0.0700234,0.146158,-0.623232,-0.646874,-0.0069764,-0.079137,0.0399598,0.87512,-3.81631,-3.7973,3.08642,0.00528735,429.288,0.304392,0.300303,0.393648,0.223153,0.106443,inf,inf,inf,inf,1,1,1,1,2,0,2,1,3,1,1,1
70229202,39902196,34.0343398,108.7550758,2.73724,1.15448,-0.0793793,-0.032507,-0.12439,0.0,0.0665699,0.166638,-0.826204,-0.84546,-0.0069764,-0.079137,0.0399598,1.60506,-1.41811,-3.36332,3.08387,0.00528735,429.288,0.373694,0.288908,0.391088,0.205801,0.104957,inf,inf,inf,inf,1,1,1,1,2,0,2,1,3,1,1,1
70323550,39902196,34.0343398,108.7550758,2.74259,1.16726,-0.162356,-0.032507,-0.12439,0.0,0.0545089,0.181568,-0.979104,-0.994881,-0.0069764,-0.079137,0.0399598,1.02217,-0.517399,-2.88568,3.08349,0.00528735,429.288,0.456671,0.299535,0.392229,0.215424,0.106156,inf,inf,inf,inf,1,1,1,1,2,0,2,1,3,1,1,1
70422869,39902196,34.0343398,108.7550758,2.74745,1.18453,-0.263025,-0.032507,-0.12439,0.0,0.0470648,0.171546,-1.08489,-1.0975,-0.0069764,-0.079137,0.0399598,-0.557093,-0.878589,-0.287752,3.08431,0.00528735,429.288,0.55734,0.288064,0.389692,0.198926,0.104673,inf,inf,inf,inf,1,1,1,1,2,0,2,1,3,1,1,1
70522237,39902196,34.0343398,108.7550758,2.75121,1.20151,-0.373145,-0.032507,-0.12439,0.0,0.0411139,0.16191,-1.15062,-1.16076,-0.0069764,-0.079137,0.0399598,-1.35229,-0.318721,1.73253,3.08699,0.00528735,429.288,0.66746,0.29972,0.391488,0.208688,0.106074,inf,inf,inf,inf,1,1,1,1,2,0,2,1,3,1,1,1
70621507,39902196,34.0343398,108.7550758,2.75246,1.22913,-0.491565,-0.032507,-0.12439,0.0,0.0282555,0.16595,-1.19921,-1.20988,-0.0069764,-0.079137,0.0399598,-1.57683,3.29291,1.61545,3.09071,0.00528735,429.288,0.78588,0.288365,0.391413,0.193579,0.10488,inf,inf,inf,inf,1,1,1,1,2,0,2,1,3,1,1,1
70720827,39902196,34.0343398,108.7550758,2.75145,1.25404,-0.613886,-0.032507,-0.12439,0.0,0.00964354,0.143014,-1.2126,-1.22445,-0.0069764,-0.079137,0.0399598,-1.10703,-1.27438,1.98703,3.09533,0.00528735,429.288,0.908202,0.299925,0.393242,0.202576,0.10629,inf,inf,inf,inf,1,1,1,1,2,0,2,1,3,1,1,1
70820301,39902196,34.0343398,108.7550758,2.76642,1.28547,-0.736945,-0.032507,-0.12439,0.0,0.0136211,0.140534,-1.19073,-1.2048,-0.0069764,-0.079137,0.0399598,-0.439708,-0.199886,0.833139,3.099,0.00528735,429.288,1.03126,0.288588,0.3907,0.18846,0.104821,inf,inf,inf,inf,1,1,1,1,2,0,2,1,3,1,1,1
70929397,39902196,34.0343398,108.7550758,2.78027,1.31495,-0.863992,-0.032507,-0.12439,0.0,0.00911267,0.126949,-1.12534,-1.13896,-0.0069764,-0.079137,0.0399598,0.485402,0.998488,-0.918454,3.10125,0.00528735,429.288,1.15831,0.301228,0.393199,0.197636,0.106427,inf,inf,inf,inf,1,1,1,1,2,0,2,1,3,1,1,1
71028715,39902196,34.0343398,108.7550758,2.78273,1.34737,-0.968227,-0.032507,-0.12439,0.0,-0.0054567,0.108388,-1.02258,-1.03277,-0.0069764,-0.079137,0.0399598,-0.976483,-2.17853,2.59615,3.10327,0.00528735,429.288,1.26254,0.289685,0.390656,0.184192,0.104951,inf,inf,inf,inf,1,1,1,1,2,0,2,1,3,1,1,1
71128034,39902196,34.0343398,108.7550758,2.78211,1.37467,-1.06351,-0.032507,-0.12439,0.0,-0.0226232,0.100983,-0.912505,-0.920628,-0.0069764,-0.079137,0.0399598,-1.1521,-0.539114,3.45391,3.10394,0.00528735,429.288,1.35782,0.301061,0.392477,0.191974,0.10636,inf,inf,inf,inf,1,1,1,1,2,0,2,1,3,1,1,1
71227354,39902196,34.0343398,108.7550758,2.79089,1.38331,-1.1465,-0.032507,-0.12439,0.0,-0.0258816,0.0656975,-0.791293,-0.796773,-0.0069764,-0.079137,0.0399598,-1.07739,-0.121935,2.61369,3.10376,0.00528735,429.288,1.44082,0.289635,0.389939,0.179471,0.104881,inf,inf,inf,inf,1,1,1,1,2,0,2,1,3,1,1,1
71326741,39902196,34.0343398,108.7550758,2.79697,1.38594,-1.21825,-0.032507,-0.12439,0.0,-0.0295214,0.0419421,-0.691899,-0.695532,-0.0069764,-0.079137,0.0399598,1.20002,2.54491,-1.10174,3.10318,0.00528735,429.288,1.51257,0.300838,0.39175,0.18677,0.106288,inf,inf,inf,inf,1,1,1,1,2,0,2,1,3,1,1,1
71426036,39902196,34.0343398,108.7550758,2.80389,1.37599,-1.28535,-0.032507,-0.12439,0.0,-0.0385896,-0.0192457,-0.605906,-0.612416,-0.0069764,-0.079137,0.0399598,-0.834288,0.423873,1.58527,3.10173,0.00528735,429.288,1.57967,0.289531,0.391664,0.175105,0.105075,inf,inf,inf,inf,1,1,1,1,2,0,2,1,3,1,1,1
71525312,39902196,34.0343398,108.7550758,2.80771,1.36305,-1.34605,-0.032507,-0.12439,0.0,-0.0371564,-0.0451463,-0.569086,-0.578048,-0.0069764,-0.079137,0.0399598,2.21449,-2.06556,-2.88437,3.10494,0.00616439,429.288,1.64037,0.300562,0.393498,0.18215,0.106492,inf,inf,inf,inf,1,1,1,1,2,0,2,1,4,1,1,1
71624785,39902196,34.0343398,108.7550758,2.82028,1.3496,-1.40063,-0.032507,-0.12439,0.0,-0.0461444,-0.0834399,-0.531107,-0.539439,-0.0069764,-0.079137,0.0399598,-1.04026,0.984661,2.13687,3.10151,0.00616439,429.288,1.69495,0.289354,0.390948,0.171874,0.105017,inf,inf,inf,inf,1,1,1,1,2,0,2,1,4,1,1,1
71728915,39902196,34.0343398,108.7550758,2.82924,1.33426,-1.45642,-0.032507,-0.12439,0.0,-0.0465062,-0.091441,-0.529287,-0.537357,-0.0069764,-0.079137,0.0399598,0.546458,0.849762,-0.48896,3.09987,0.00616439,429.288,1.75074,0.300155,0.392772,0.179489,0.106436,inf,inf,inf,inf,1,1,1,1,2,0,2,1,4,1,1,1
71828234,39902196,34.0343398,108.7550758,2.83122,1.32281,-1.50725,-0.032507,-0.12439,0.0,-0.061907,-0.109638,-0.5159,-0.522138,-0.0069764,-0.079137,0.0399598,-0.207141,-2.2479,0.971648,3.09873,0.00616439,429.288,1.80156,0.289087,0.390235,0.170309,0.104968,inf,inf,inf,inf,1,1,1,1,2,0,2,1,4,1,1,1
71927553,39902196,34.0343398,108.7550758,2.8295,1.31095,-1.55504,-0.032507,-0.12439,0.0,-0.0738111,-0.121887,-0.509515,-0.51216,-0.0069764,-0.079137,0.0399598,-0.612033,0.509813,0.568045,3.0977,0.00616439,429.288,1.84936,0.299695,0.392056,0.178308,0.106394,inf,inf,inf,inf,1,1,1,1,2,0,2,1,4,1,1,1
72026872,39902196,34.0343398,108.7550758,2.82015,1.30654,-1.604,-0.032507,-0.12439,0.0,-0.0900035,-0.111053,-0.501912,-0.503171,-0.0069764,-0.079137,0.0399598,-1.28087,-0.53531,0.890814,3.09618,0.00616439,429.288,1.89831,0.288773,0.389541,0.169651,0.104935,inf,inf,inf,inf,1,1,1,1,2,0,2,1,4,1,1,1
72126270,39902196,34.0343398,108.7550758,2.80833,1.30122,-1.65293,-0.032507,-0.12439,0.0,-0.0965404,-0.10757,-0.50069,-0.501456,-0.0069764,-0.079137,0.0399598,1.30117,-0.0344999,-1.90163,3.0953,0.00616439,429.288,1.94725,0.299229,0.391351,0.177841,0.106363,inf,inf,inf,inf,1,1,1,1,2,0,2,1,4,1,1,1
72220544,39902196,34.0343398,108.7550758,2.81453,1.29016,-1.69291,-0.032507,-0.12439,0.0,-0.100491,-0.13492,-0.478455,-0.473571,-0.0069764,-0.079137,0.0399598,-0.246523,-4.0044,0.650816,3.09449,0.00616439,429.288,1.98722,0.287406,0.390604,0.168645,0.104976,inf,inf,inf,inf,1,1,1,1,2,0,2,1,4,1,1,1
72329795,39902196,34.0343398,108.7550758,2.82051,1.27562,-1.73951,-0.032507,-0.12439,0.0,-0.0895051,-0.114796,-0.469491,-0.460553,-0.0069764,-0.079137,0.0399598,0.871027,2.70946,-1.4308,3.0936,0.00616439,429.288,2.03383,0.298732,0.393087,0.177686,0.106613,inf,inf,inf,inf,1,1,1,1,2,0,2,1,4,1,1,1
72429247,39902196,34.0343398,108.7550758,2.82514,1.27223,-1.77905,-0.032507,-0.12439,0.0,-0.0920623,-0.124682,-0.446636,-0.433251,-0.0069764,-0.079137,0.0399598,-0.223604,0.92408,0.00178202,3.09277,0.00616439,429.288,2.07337,0.287932,0.390534,0.169424,0.105154,inf,inf,inf,inf,1,1,1,1,2,0,2,1,4,1,1,1
72523468,39902196,34.0343398,108.7550758,2.82588,1.26736,-1.8156,-0.032507,-0.12439,0.0,-0.0918687,-0.125154,-0.427601,-0.411251,-0.0069764,-0.079137,0.0399598,-0.615895,-2.66984,0.840322,3.09208,0.00616439,429.288,2.10991,0.297117,0.391662,0.176768,0.106399,inf,inf,inf,inf,1,1,1,1,2,0,2,1,4,1,1,1
72622790,39902196,34.0343398,108.7550758,2.8281,1.2654,-1.85144,-0.032507,-0.12439,0.0,-0.0909157,-0.116003,-0.42001,-0.399961,-0.0069764,-0.079137,0.0399598,1.91421,0.175592,-2.93655,3.09182,0.00616439,429.288,2.14575,0.28647,0.389147,0.168506,0.104949,inf,inf,inf,inf,1,1,1,1,2,0,2,1,4,1,1,1
72722106,39902196,34.0343398,108.7550758,2.82719,1.26138,-1.8878,-0.032507,-0.12439,0.0,-0.100375,-0.102733,-0.394467,-0.373242,-0.0069764,-0.079137,0.0399598,-1.13368,4.56288,0.908055,3.0911,0.00616439,429.288,2.18211,0.296567,0.393409,0.176531,0.106672,inf,inf,inf,inf,1,1,1,1,2,0,2,1,4,1,1,1
72831371,39902196,34.0343398,108.7550758,2.82826,1.25944,-1.92887,-0.032507,-0.12439,0.0,-0.103872,-0.114785,-0.368345,-0.349031,-0.0069764,-0.079137,0.0399598,-1.22648,-1.19232,2.11676,3.09196,0.00616439,429.288,2.22318,0.287072,0.391533,0.169061,0.105429,inf,inf,inf,inf,1,1,1,1,2,0,2,1,4,1,1,1
72920744,39902196,34.0343398,108.7550758,2.82613,1.25602,-1.96236,-0.032507,-0.12439,0.0,-0.107798,-0.117796,-0.358908,-0.34242,-0.0069764,-0.079137,0.0399598,-0.384929,-1.05308,0.300967,3.09231,0.00616439,429.288,2.25667,0.29617,0.392692,0.176093,0.106695,inf,inf,inf,inf,1,1,1,1,2,0,2,1,4,1,1,1
73025029,39902196,34.0343398,108.7550758,2.82716,1.25187,-2.00383,-0.032507,-0.12439,0.0,-0.108418,-0.105422,-0.336266,-0.326738,-0.0069764,-0.079137,0.0399598,-1.92906,4.0557,2.1665,3.0917,0.00616439,429.288,2.29814,0.285746,0.390161,0.167727,0.105253,inf,inf,inf,inf,1,1,1,1,2,0,2,1,4,1,1,0
73124348,39902196,34.0343398,108.7550758,2.82567,1.24487,-2.04024,-0.032507,-0.12439,0.0,-0.109492,-0.13246,-0.328304,-0.323318,-0.0069764,-0.079137,0.0399598,-0.236053,-2.98908,0.267937,3.0908,0.00616439,429.288,2.33456,0.295789,0.391979,0.175344,0.10672,inf,inf,inf,inf,1,1,1,1,2,0,2,1,4,1,1,0
73223735,39902196,34.0343398,108.7550758,2.83292,1.24507,-2.08323,-0.032507,-0.12439,0.0,-0.112271,-0.097343,-0.338728,-0.343667,-0.0069764,-0.079137,0.0399598,-1.67331,-2.48313,1.70728,3.05122,0.00616439,429.288,2.37754,0.285294,0.389461,0.166841,0.10527,inf,inf,inf,inf,1,1,1,1,2,0,2,1,4,1,1,0
73322989,39902196,34.0343398,108.7550758,2.83917,1.24711,-2.12512,-0.032507,-0.12439,0.0,-0.102013,-0.0651789,-0.312733,-0.326057,-0.0069764,-0.079137,0.0399598,0.274526,-3.67435,0.0767485,2.99013,0.00616439,429.288,2.41943,0.295305,0.39127,0.174254,0.106743,inf,inf,inf,inf,1,1,1,1,2,0,2,1,4,1,1,0
73422306,39902196,34.0343398,108.7550758,2.8381,1.25264,-2.15516,-0.032507,-0.12439,0.0,-0.110129,0.0115751,-0.252232,-0.265898,-0.0069764,-0.079137,0.0399598,0.671246,3.48887,1.11007,2.91655,0.00616439,429.288,2.44948,0.284901,0.3912,0.165836,0.105572,inf,inf,inf,inf,1,1,1,1,2,0,2,1,4,1,1,0
73521626,39902196,34.0343398,108.7550758,2.83374,1.26388,-2.17947,-0.032507,-0.12439,0.0,-0.106403,0.0993646,-0.201505,-0.215117,-0.0069764,-0.079137,0.0399598,-2.03999,-3.74592,2.25508,2.83702,0.00616439,429.288,2.47379,0.294896,0.393036,0.172841,0.107043,inf,inf,inf,inf,1,1,1,1,2,0,2,1,4,1,1,0
73620943,39902196,34.0343398,108.7550758,2.82608,1.29444,-2.19757,-0.032507,-0.12439,0.0,-0.105144,0.250024,-0.16559,-0.177433,-0.0069764,-0.079137,0.0399598,-1.36537,0.755888,1.34599,2.75121,0.00616439,429.288,2.49188,0.284423,0.390478,0.164184,0.10556,inf,inf,inf,inf,1,1,1,1,2,0,2,1,4,1,1,0
73730235,39902196,34.0343398,108.7550758,2.81605,1.34207,-2.21398,-0.032507,-0.12439,0.0,-0.0872829,0.406204,-0.135444,-0.146069,-0.0069764,-0.079137,0.0399598,0.214042,1.05777,-0.0783632,2.65249,0.00616439,429.288,2.5083,0.295416,0.392969,0.171654,0.107218,inf,inf,inf,inf,1,1,1,1,2,0,2,1,4,1,1,0
73824547,39902196,34.0343398,108.7550758,2.81201,1.40104,-2.22797,-0.032507,-0.12439,0.0,-0.0737411,0.552648,-0.100198,-0.112815,-0.0069764,-0.079137,0.0399598,0.493702,2.43077,0.769378,2.56437,0.00616439,429.288,2.52229,0.284,0.389744,0.162584,0.105533,inf,inf,inf,inf,1,1,1,1,2,0,2,1,4,1,1,0
73923868,39902196,34.0343398,108.7550758,2.80833,1.47426,-2.23857,-0.032507,-0.12439,0.0,-0.0499625,0.685998,-0.070204,-0.0834424,-0.0069764,-0.079137,0.0399598,1.1019,4.2133,2.29524,2.47064,0.00616439,429.288,2.53289,0.293903,0.394026,0.169204,0.107261,inf,inf,inf,inf,1,1,1,1,2,0,2,1,4,1,1,0
74023223,39902196,34.0343398,108.7550758,2.80419,1.5591,-2.24142,-0.032507,-0.12439,0.0,-0.0483423,0.764844,-0.0604834,-0.0687981,-0.0069764,-0.079137,0.0399598,1.38876,0.488238,-2.26984,2.38061,0.00616439,429.288,2.53574,0.283622,0.391456,0.161165,0.105789,inf,inf,inf,inf,1,1,1,1,2,0,2,1,4,1,1,0
74122506,39902196,34.0343398,108.7550758,2.79945,1.64834,-2.24304,-0.032507,-0.12439,0.0,-0.0350739,0.820649,-0.0544899,-0.0586266,-0.0069764,-0.079137,0.0399598,0.537462,-0.647286,-0.841902,2.29191,0.00616439,429.288,2.53736,0.293462,0.393298,0.167507,0.10728,inf,inf,inf,inf,1,1,1,1,2,0,2,1,4,1,1,0
74221832,39902196,34.0343398,108.7550758,2.79656,1.74377,-2.24536,-0.032507,-0.12439,0.0,-0.0343566,0.858427,-0.0698378,-0.0699092,-0.0069764,-0.079137,0.0399598,0.211818,1.02942,0.740225,2.20562,0.00616439,429.288,2.53968,0.28324,0.390741,0.159318,0.105816,inf,inf,inf,inf,1,1,1,1,2,0,2,1,4,1,1,0
74321322,39902196,34.0343398,108.7550758,2.7933,1.83862,-2.25147,-0.032507,-0.12439,0.0,-0.0385791,0.86188,-0.0941494,-0.0919256,-0.0069764,-0.079137,0.0399598,-2.42464,0.623126,2.25777,2.12188,0.00616439,429.288,2.54578,0.292997,0.392567,0.165212,0.107307,inf,inf,inf,inf,1,1,1,1,2,0,2,1,4,1,1,0
74430394,39902196,34.0343398,108.7550758,2.789,1.94056,-2.26669,-0.032507,-0.12439,0.0,-0.0396623,0.843867,-0.136127,-0.136938,-0.0069764,-0.079137,0.0399598,-1.03402,-3.89464,-3.20245,2.03127,0.00616439,429.288,2.561,0.283746,0.39069,0.157676,0.106037,inf,inf,inf,inf,1,1,1,1,2,0,2,1,4,1,1,0
74519781,39902196,34.0343398,108.7550758,2.78482,2.02101,-2.28247,-0.032507,-0.12439,0.0,-0.0400666,0.840527,-0.142709,-0.147364,-0.0069764,-0.079137,0.0399598,0.540395,-0.351882,-1.19288,1.95812,0.00616439,429.288,2.57679,0.292465,0.391843,0.162724,0.107314,inf,inf,inf,inf,1,1,1,1,2,0,2,1,4,1,1,0
74624070,39902196,34.0343398,108.7550758,2.77596,2.11569,-2.3001,-0.032507,-0.12439,0.0,-0.0456432,0.830851,-0.148814,-0.155819,-0.0069764,-0.079137,0.0399598,0.690632,-0.637994,-1.72377,1.87393,0.00616439,429.288,2.59441,0.282299,0.389311,0.154909,0.105833,inf,inf,inf,inf,1,1,1,1,2,0,2,1,4,1,1,0
74723385,39902196,34.0343398,108.7550758,2.7663,2.20335,-2.31752,-0.032507,-0.12439,0.0,-0.0533487,0.820998,-0.147138,-0.156359,-0.0069764,-0.079137,0.0399598,-1.0019,-1.31628,-1.16645,1.79447,0.00616439,429.288,2.61184,0.29183,0.393598,0.160416,0.107584,inf,inf,inf,inf,1,1,1,1,2,0,2,1,4,1,1,0
74822757,39902196,34.0343398,108.7550758,2.76086,2.29228,-2.33546,-0.032507,-0.12439,0.0,-0.0554338,0.809739,-0.133278,-0.145386,-0.0069764,-0.079137,0.0399598,-2.16272,0.940565,1.92288,1.71569,0.00616439,429.288,2.62977,0.281737,0.391031,0.153149,0.106089,inf,inf,inf,inf,1,1,1,1,2,0,2,1,4,1,1,0
74922024,39902196,34.0343398,108.7550758,2.75581,2.37837,-2.3533,-0.032507,-0.12439,0.0,-0.0537763,0.801914,-0.135537,-0.150541,-0.0069764,-0.079137,0.0399598,-0.885531,-1.57433,-2.20942,1.63774,0.00616439,429.288,2.64761,0.291138,0.392863,0.158714,0.10757,inf,inf,inf,inf,1,1,1,1,2,0,2,1,4,1,1,0
75021343,39902196,34.0343398,108.7550758,2.7523,2.46525,-2.36846,-0.032507,-0.12439,0.0,-0.0492833,0.790997,-0.128913,-0.144594,-0.0069764,-0.079137,0.0399598,3.75797,0.716967,0.800024,1.56994,0.00616439,429.288,2.66277,0.28121,0.3903,0.15185,0.106079,inf,inf,inf,inf,1,1,1,1,2,0,2,1,4,1,1,0
75130769,39902196,34.0343398,108.7550758,2.74687,2.5567,-2.38709,-0.032507,-0.12439,0.0,-0.0752583,0.792153,-0.129906,-0.147419,-0.0069764,-0.079137,0.0399598,-4.68005,1.17201,1.75817,1.54031,0.00616439,429.288,2.68141,0.291451,0.392808,0.158167,0.107762,inf,inf,inf,inf,1,1,1,1,2,0,2,1,4,1,1,0
75220020,39902196,34.0343398,108.7550758,2.74218,2.63189,-2.40029,-0.032507,-0.12439,0.0,-0.0530276,0.775129,-0.125305,-0.1427,-0.0069764,-0.079137,0.0399598,2.40542,-0.361961,-0.219803,1.52946,0.00616439,429.288,2.69461,0.280573,0.389576,0.151086,0.106054,inf,inf,inf,inf,1,1,1,1,2,0,2,1,4,1,1,0
75329233,39902196,34.0343398,108.7550758,2.73598,2.72086,-2.41464,-0.032507,-0.12439,0.0,-0.0658742,0.776271,-0.102193,-0.119419,-0.0069764,-0.079137,0.0399598,0.423791,-0.0583522,0.471447,1.52864,0.00616439,429.288,2.70895,0.290678,0.392076,0.157685,0.107735,inf,inf,inf,inf,1,1,1,1,2,0,2,1,4,1,1,0
75428551,39902196,34.0343398,108.7550758,2.73102,2.79996,-2.42473,-0.032507,-0.12439,0.0,-0.0632773,0.773261,-0.0907619,-0.106654,-0.0069764,-0.079137,0.0399598,-0.105219,0.428048,0.986485,1.53375,0.00616439,429.288,2.71904,0.280856,0.391966,0.151652,0.106508,inf,inf,inf,inf,1,1,1,1,2,0,2,1,4,1,1,0
75527920,39902196,34.0343398,108.7550758,2.72537,2.87765,-2.43502,-0.032507,-0.12439,0.0,-0.069221,0.779168,-0.0877114,-0.103152,-0.0069764,-0.079137,0.0399598,-0.890498,1.31951,1.68586,1.54403,0.00616439,429.288,2.72934,0.289996,0.393827,0.157875,0.107996,inf,inf,inf,inf,1,1,1,1,2,0,2,1,4,1,1,0
75627196,39902196,34.0343398,108.7550758,2.71638,2.95592,-2.44179,-0.032507,-0.12439,0.0,-0.0704833,0.780797,-0.0976934,-0.10906,-0.0069764,-0.079137,0.0399598,-0.86803,-0.380773,-0.574673,1.55568,0.00616439,429.288,2.7361,0.280261,0.391247,0.152043,0.106496,inf,inf,inf,inf,1,1,1,1,2,0,2,1,4,1,1,0
75721544,39902196,34.0343398,108.7550758,2.70794,3.03015,-2.45023,-0.032507,-0.12439,0.0,-0.0795848,0.790373,-0.101503,-0.111224,-0.0069764,-0.079137,0.0399598,-3.18797,-0.241173,-0.518752,1.56801,0.00616439,429.288,2.74455,0.288426,0.392416,0.157843,0.107779,inf,inf,inf,inf,1,1,1,1,2,0,2,1,4,1,1,0
75830794,39902196,34.0343398,108.7550758,2.69612,3.11865,-2.4596,-0.032507,-0.12439,0.0,-0.0680471,0.803349,-0.110961,-0.118144,-0.0069764,-0.079137,0.0399598,0.147465,-1.04062,-1.63406,1.58001,0.00616439,429.288,2.75391,0.279698,0.390525,0.152738,0.106481,inf,inf,inf,inf,1,1,1,1,2,0,2,1,4,1,1,0
75920332,39902196,34.0343398,108.7550758,2.68733,3.19146,-2.46734,-0.032507,-0.12439,0.0,-0.0551689,0.824009,-0.106811,-0.1118,-0.0069764,-0.079137,0.0399598,2.69207,0.632089,0.637695,1.58851,0.00616439,429.288,2.76166,0.287869,0.391697,0.158774,0.107767,inf,inf,inf,inf,1,1,1,1,2,0,2,1,4,1,1,0
76024466,39902196,34.0343398,108.7550758,2.67594,3.278,-2.4765,-0.032507,-0.12439,0.0,-0.048761,0.829862,-0.115245,-0.118005,-0.0069764,-0.079137,0.0399598,3.08347,-1.91865,-2.97123,1.59692,0.00616439,429.288,2.77082,0.278377,0.391593,0.152873,0.106531,inf,inf,inf,inf,1,1,1,1,2,0,2,1,4,1,1,0
76123785,39902196,34.0343398,108.7550758,2.66619,3.36166,-2.4868,-0.032507,-0.12439,0.0,-0.0618365,0.857732,-0.106996,-0.109066,-0.0069764,-0.079137,0.0399598,-0.696572,1.5231,1.96142,1.603,0.00616439,429.288,2.78111,0.287454,0.393462,0.159513,0.108027,inf,inf,inf,inf,1,1,1,1,2,0,2,1,4,1,1,0
76223152,39902196,34.0343398,108.7550758,2.65479,3.4442,-2.50528,-0.032507,-0.12439,0.0,-0.0574674,0.861668,-0.126387,-0.135023,-0.0069764,-0.079137,0.0399598,-4.13646,-0.864964,-0.686642,1.60785,0.00616439,429.288,2.7996,0.277944,0.390901,0.153382,0.106515,inf,inf,inf,inf,1,1,1,1,2,0,2,1,4,1,1,0
76322424,39902196,34.0343398,108.7550758,2.64496,3.52788,-2.52555,-0.032507,-0.12439,0.0,-0.0422114,0.879312,-0.128637,-0.143792,-0.0069764,-0.079137,0.0399598,1.3757,-0.302652,-0.95426,1.60968,0.00616439,429.288,2.81987,0.287069,0.392773,0.159727,0.108003,inf,inf,inf,inf,1,1,1,1,2,0,2,1,4,1,1,0
76421742,39902196,34.0343398,108.7550758,2.63399,3.61086,-2.54572,-0.032507,-0.12439,0.0,-0.0506077,0.892083,-0.111815,-0.133185,-0.0069764,-0.079137,0.0399598,-1.7572,1.13652,1.83657,1.6107,0.00616439,429.288,2.84004,0.27757,0.390222,0.15351,0.106488,inf,inf,inf,inf,1,1,1,1,2,0,2,1,4,1,1,0
76530994,39902196,34.0343398,108.7550758,2.6231,3.70395,-2.56581,-0.032507,-0.12439,0.0,-0.0444447,0.907087,-0.100664,-0.127274,-0.0069764,-0.079137,0.0399598,0.034622,0.541954,-0.127749,1.60957,0.00616439,429.288,2.86013,0.287703,0.392772,0.160312,0.108171,inf,inf,inf,inf,1,1,1,1,2,0,2,1,4,1,1,0
76620381,39902196,34.0343398,108.7550758,2.61728,3.78195,-2.57798,-0.032507,-0.12439,0.0,-0.0273413,0.914768,-0.0874234,-0.114978,-0.0069764,-0.079137,0.0399598,2.18075,0.0877463,0.423179,1.60765,0.00616439,429.288,2.87229,0.277243,0.389536,0.153193,0.106441,inf,inf,inf,inf,1,1,1,1,2,0,2,1,4,1,1,0
76729733,39902196,34.0343398,108.7550758,2.61148,3.87887,-2.59121,-0.032507,-0.12439,0.0,-0.0353213,0.931432,-0.0753615,-0.103668,-0.0069764,-0.079137,0.0399598,-2.36027,1.07636,1.38763,1.60645,0.00616439,429.288,2.88552,0.287425,0.392077,0.159826,0.108116,inf,inf,inf,inf,1,1,1,1,2,0,2,1,4,1,1,0
76819019,39902196,34.0343398,108.7550758,2.60871,3.959,-2.59965,-0.032507,-0.12439,0.0,-0.0118813,0.937393,-0.0793467,-0.106493,-0.0069764,-0.079137,0.0399598,2.10281,-0.299135,-2.03315,1.60524,0.00616439,429.288,2.89396,0.276991,0.391293,0.152653,0.106655,inf,inf,inf,inf,1,1,1,1,2,0,2,1,4,1,1,0
76928300,39902196,34.0343398,108.7550758,2.60698,4.05874,-2.60858,-0.032507,-0.12439,0.0,0.00167032,0.957591,-0.0581869,-0.0834069,-0.0069764,-0.079137,0.0399598,2.6237,3.93283,4.44859,1.60402,0.00616439,429.288,2.90289,0.28722,0.393872,0.159189,0.108337,inf,inf,inf,inf,1,1,1,1,2,0,2,1,4,1,1,0
77017854,39902196,34.0343398,108.7550758,2.60009,4.1449,-2.61685,-0.032507,-0.12439,0.0,-0.0153803,0.960043,-0.0673786,-0.0925122,-0.0069764,-0.079137,0.0399598,-2.74416,0.438337,0.431033,1.60371,0.00616439,429.288,2.91116,0.276802,0.390616,0.152048,0.106602,inf,inf,inf,inf,1,1,1,1,2,0,2,1,4,1,1,0
77121939,39902196,34.0343398,108.7550758,2.59485,4.24593,-2.62894,-0.032507,-0.12439,0.0,-0.00871672,0.970887,-0.0657918,-0.093089,-0.0069764,-0.079137,0.0399598,-1.47655,0.166105,1.30215,1.60734,0.00616439,429.288,2.92325,0.286105,0.392491,0.157807,0.108075,inf,inf,inf,inf,1,1,1,1,2,0,2,1,4,1,1,0
77231198,39902196,34.0343398,108.7550758,2.58776,4.35191,-2.64534,-0.032507,-0.12439,0.0,-0.0443997,0.971612,-0.0748271,-0.107725,-0.0069764,-0.079137,0.0399598,-3.61175,-2.51999,-3.06205,1.60867,0.00616439,429.288,2.93966,0.277475,0.390598,0.151904,0.106732,inf,inf,inf,inf,1,1,1,1,2,0,2,1,4,1,1,0
77320581,39902196,34.0343398,108.7550758,2.58264,4.43945,-2.65781,-0.032507,-0.12439,0.0,-0.0240652,0.985729,-0.0625705,-0.0991059,-0.0069764,-0.079137,0.0399598,0.311914,-0.882036,-1.34044,1.60907,0.00616439,429.288,2.95213,0.285903,0.3918,0.157011,0.107999,inf,inf,inf,inf,1,1,1,1,2,0,2,1,4,1,1,0
77429832,39902196,34.0343398,108.7550758,2.57313,4.54501,-2.6745,-0.032507,-0.12439,0.0,-0.0430165,0.987847,-0.0426668,-0.0857762,-0.0069764,-0.079137,0.0399598,-1.84474,-0.33916,0.533968,1.60995,0.00616439,429.288,2.96882,0.27736,0.389933,0.151022,0.106667,inf,inf,inf,inf,1,1,1,1,2,0,2,1,4,1,1,0
77519249,39902196,34.0343398,108.7550758,2.56503,4.63173,-2.68557,-0.032507,-0.12439,0.0,-0.0589528,0.989111,-0.0394834,-0.0855685,-0.0069764,-0.079137,0.0399598,-1.37375,-0.944164,-1.654,1.61081,0.00616439,429.288,2.97988,0.28581,0.393601,0.155953,0.108206,inf,inf,inf,inf,1,1,1,1,2,0,2,1,4,1,1,0
77628470,39902196,34.0343398,108.7550758,2.55809,4.73719,-2.69387,-0.032507,-0.12439,0.0,-0.0522102,0.99194,-0.0231217,-0.0684515,-0.0069764,-0.079137,0.0399598,-1.35144,-0.132687,0.107534,1.61012,0.00616439,429.288,2.98818,0.277245,0.3917,0.149908,0.106858,inf,inf,inf,inf,1,1,1,1,2,0,2,1,4,1,1,0
77727790,39902196,34.0343398,108.7550758,2.55288,4.83351,-2.7002,-0.032507,-0.12439,0.0,-0.0478288,0.990373,-0.0174652,-0.0620312,-0.0069764,-0.079137,0.0399598,-1.17731,-0.363708,0.157202,1.61056,0.00616439,429.288,2.99451,0.286678,0.393605,0.155307,0.108326,inf,inf,inf,inf,1,1,1,1,2,0,2,1,4,1,1,0
77827111,39902196,34.0343398,108.7550758,2.54299,4.93032,-2.7077,-0.032507,-0.12439,0.0,-0.0509822,0.994705,-0.013328,-0.0588948,-0.0069764,-0.079137,0.0399598,-2.24265,-0.201207,-0.742208,1.60996,0.00616439,429.288,3.00202,0.277025,0.391017,0.148656,0.106763,inf,inf,inf,inf,1,1,1,1,2,0,2,1,4,1,1,0
77926429,39902196,34.0343398,108.7550758,2.53422,5.02768,-2.71445,-0.032507,-0.12439,0.0,-0.0447702,0.99337,-0.00361328,-0.0500795,-0.0069764,-0.079137,0.0399598,0.749303,-0.0662993,0.511188,1.60937,0.00616439,429.288,3.00876,0.286448,0.392903,0.153953,0.108223,inf,inf,inf,inf,1,1,1,1,2,0,2,1,4,1,1,0
78025748,39902196,34.0343398,108.7550758,2.52302,5.12534,-2.71873,-0.032507,-0.12439,0.0,-0.0562226,0.996311,-0.00421092,-0.0492303,-0.0069764,-0.079137,0.0399598,-1.28904,0.66409,0.867391,1.60931,0.00616439,429.288,3.01304,0.276803,0.390302,0.147444,0.106657,inf,inf,inf,inf,1,1,1,1,2,0,2,1,4,1,1,0
78130032,39902196,34.0343398,108.7550758,2.51245,5.22778,-2.72417,-0.032507,-0.12439,0.0,-0.0624292,0.9875,-0.0299802,-0.0740974,-0.0069764,-0.079137,0.0399598,0.101625,-0.760922,-1.97276,1.62915,0.00616439,429.288,3.01849,0.286211,0.394654,0.152611,0.108387,inf,inf,inf,inf,1,1,1,1,2,0,2,1,4,1,1,0
78219419,39902196,34.0343398,108.7550758,2.49879,5.31273,-2.72767,-0.032507,-0.12439,0.0,-0.0931914,0.963327,-0.0257857,-0.066185,-0.0069764,-0.079137,0.0399598,0.866638,2.7432,3.94245,1.67661,0.00616439,429.288,3.02198,0.275661,0.391351,0.145681,0.106613,inf,inf,inf,inf,1,1,1,1,2,0,2,1,4,1,1,0
78328735,39902196,34.0343398,108.7550758,2.47916,5.41227,-2.73112,-0.032507,-0.12439,0.0,-0.149858,0.895195,-0.0261369,-0.0622596,-0.0069764,-0.079137,0.0399598,-4.51436,-2.03993,-0.366849,1.75177,0.00616439,429.288,3.02544,0.285932,0.393916,0.151387,0.10827,inf,inf,inf,inf,1,1,1,1,2,0,2,1,4,1,1,0
78423025,39902196,34.0343398,108.7550758,2.45556,5.49153,-2.73259,-0.032507,-0.12439,0.0,-0.22572,0.816939,-0.0145911,-0.047314,-0.0069764,-0.079137,0.0399598,-3.04067,-3.32057,-1.56741,1.82633,0.00616439,429.288,3.02691,0.275495,0.390644,0.144566,0.106518,inf,inf,inf,inf,1,1,1,1,2,0,2,1,4,1,1,0
78522343,39902196,34.0343398,108.7550758,2.42451,5.56536,-2.7346,-0.032507,-0.12439,0.0,-0.300583,0.704674,-0.00231185,-0.0329341,-0.0069764,-0.079137,0.0399598,-1.2917,0.127883,2.00002,1.912,0.00616439,429.288,3.02891,0.284787,0.392518,0.149237,0.107961,inf,inf,inf,inf,1,1,1,1,2,0,2,1,4,1,1,0
78621797,39902196,34.0343398,108.7550758,2.38254,5.62361,-2.73276,-0.032507,-0.12439,0.0,-0.39468,0.555677,-0.00732329,-0.0324889,-0.0069764,-0.079137,0.0399598,2.15225,-0.100591,-1.6387,2.00298,0.00616439,429.288,3.02708,0.275229,0.389942,0.142914,0.106395,inf,inf,inf,inf,1,1,1,1,2,0,2,1,4,1,1,0
78720981,39902196,34.0343398,108.7550758,2.33149,5.6672,-2.73161,-0.032507,-0.12439,0.0,-0.509247,0.401833,0.00209622,-0.0196986,-0.0069764,-0.079137,0.0399598,0.911791,-2.32622,-1.79233,2.09301,0.00616439,429.288,3.02593,0.284477,0.39429,0.147403,0.108107,inf,inf,inf,inf,1,1,1,1,2,0,2,1,4,1,1,0
78830232,39902196,34.0343398,108.7550758,2.26507,5.693,-2.72789,-0.032507,-0.12439,0.0,-0.631419,0.219967,0.0161832,-0.00135719,-0.0069764,-0.079137,0.0399598,-1.3975,-5.56779,-2.1856,2.18649,0.00616439,429.288,3.0222,0.275814,0.392345,0.141528,0.106718,inf,inf,inf,inf,1,1,1,1,2,0,2,1,4,1,1,0
78924586,39902196,34.0343398,108.7550758,2.20002,5.70226,-2.72599,-0.032507,-0.12439,0.0,-0.711789,0.116202,0.0280983,0.0116591,-0.0069764,-0.079137,0.0399598,-1.16569,0.686495,1.62302,2.26776,0.00616439,429.288,3.02031,0.284104,0.393545,0.145422,0.107956,inf,inf,inf,inf,1,1,1,1,2,0,2,1,4,1,1,0
79023906,39902196,34.0343398,108.7550758,2.12706,5.70489,-2.72298,-0.032507,-0.12439,0.0,-0.792111,0.015287,0.0300573,0.0153843,-0.0069764,-0.079137,0.0399598,-1.32072,-2.54904,-0.623771,2.3558,0.00616439,429.288,3.01729,0.274598,0.390932,0.139308,0.106389,inf,inf,inf,inf,1,1,1,1,2,0,2,1,4,1,1,0
79123311,39902196,34.0343398,108.7550758,2.04816,5.70125,-2.71992,-0.032507,-0.12439,0.0,-0.84378,-0.0360422,0.0367642,0.0230302,-0.0069764,-0.079137,0.0399598,-0.25038,-0.0953988,-0.445468,2.44414,0.00616439,429.288,3.01424,0.283702,0.392794,0.143562,0.107841,inf,inf,inf,inf,1,1,1,1,2,0,2,1,4,1,1,0
79222545,39902196,34.0343398,108.7550758,1.96762,5.68568,-2.7175,-0.032507,-0.12439,0.0,-0.890171,-0.0436526,0.0426163,0.0285431,-0.0069764,-0.079137,0.0399598,-0.451798,2.13053,1.1409,2.5312,0.00616439,429.288,3.01181,0.274336,0.392651,0.137545,0.106572,inf,inf,inf,inf,1,1,1,1,2,0,2,1,4,1,1,0
79321862,39902196,34.0343398,108.7550758,1.88302,5.67109,-2.71694,-0.032507,-0.12439,0.0,-0.911711,-0.0534647,0.0304208,0.0146163,-0.0069764,-0.079137,0.0399598,0.0752092,1.39415,-0.090164,2.61735,0.00616439,429.288,3.01126,0.283361,0.394529,0.14135,0.10803,inf,inf,inf,inf,1,1,1,1,2,0,2,1,4,1,1,0
79421284,39902196,34.0343398,108.7550758,1.80108,5.65959,-2.71841,-0.032507,-0.12439,0.0,-0.930302,-0.0231019,0.0234581,0.00486527,-0.0069764,-0.079137,0.0399598,0.873138,2.36988,-0.968404,2.70086,0.00616439,429.288,3.01272,0.273984,0.391889,0.135337,0.106465,inf,inf,inf,inf,1,1,1,1,2,0,2,1,4,1,1,0
79530432,39902196,34.0343398,108.7550758,1.7083,5.65257,-2.72222,-0.032507,-0.12439,0.0,-0.947835,0.00276292,0.023751,0.000689212,-0.0069764,-0.079137,0.0399598,-0.573293,-0.080841,0.872581,2.79081,0.00616439,429.288,3.01654,0.283827,0.394438,0.139477,0.108114,inf,inf,inf,inf,1,1,1,1,2,0,2,1,4,1,1,0
79619819,39902196,34.0343398,108.7550758,1.62651,5.64938,-2.72442,-0.032507,-0.12439,0.0,-0.973319,0.0189464,0.0286366,0.00351634,-0.0069764,-0.079137,0.0399598,-2.37592,-2.85927,2.28483,2.86357,0.00616439,429.288,3.01873,0.273595,0.391117,0.133404,0.106346,inf,inf,inf,inf,1,1,1,1,2,0,2,1,4,1,1,0
79724105,39902196,34.0343398,108.7550758,1.52756,5.64936,-2.72668,-0.032507,-0.12439,0.0,-0.996747,0.0524007,0.0273062,0.00027521,-0.0069764,-0.079137,0.0399598,-1.88215,4.92872,2.24465,2.94674,0.00616439,429.288,3.02099,0.282409,0.392964,0.137221,0.107784,inf,inf,inf,inf,1,1,1,1,2,0,2,1,4,1,1,0
79823427,39902196,34.0343398,108.7550758,1.43192,5.64996,-2.73131,-0.032507,-0.12439,0.0,-1.01343,0.0687857,0.0286132,-0.00235234,-0.0069764,-0.079137,0.0399598,-2.90823,1.94983,3.8636,3.0259,0.00616439,429.288,3.02562,0.273201,0.39281,0.132074,0.106495,inf,inf,inf,inf,1,1,1,1,2,0,2,1,4,1,1,0
79922743,39902196,34.0343398,108.7550758,1.33377,5.65256,-2.73799,-0.032507,-0.12439,0.0,-1.03161,0.0681095,0.0202368,-0.0161187,-0.0069764,-0.079137,0.0399598,-0.596967,-3.99921,1.10797,3.10376,0.00616439,429.288,3.0323,0.281911,0.394681,0.136301,0.107942,inf,inf,inf,inf,1,1,1,1,2,0,2,1,4,1,1,0
80022062,39902196,34.0343398,108.7550758,1.23781,5.66061,-2.75049,-0.032507,-0.12439,0.0,-1.04128,0.0910909,0.0141118,-0.0327635,-0.0069764,-0.079137,0.0399598,1.20204,-2.28361,-1.78823,-3.1025,0.00616439,429.288,3.04481,0.27285,0.392059,0.13172,0.106397,inf,inf,inf,inf,1,1,1,1,2,0,2,1,4,1,1,0
80121381,39902196,34.0343398,108.7550758,1.13931,5.67055,-2.76065,-0.032507,-0.12439,0.0,-1.05991,0.115158,0.0253025,-0.0293484,-0.0069764,-0.079137,0.0399598,-0.194435,2.3821,-1.4103,-3.03129,0.00616439,429.288,3.05496,0.281475,0.393928,0.136241,0.107843,inf,inf,inf,inf,1,1,1,1,2,0,2,1,4,1,1,0
80230743,39902196,34.0343398,108.7550758,1.02899,5.68275,-2.77595,-0.032507,-0.12439,0.0,-1.08167,0.136573,0.00209356,-0.0628617,-0.0069764,-0.079137,0.0399598,-1.4728,3.99467,0.239564,-2.99775,0.00616439,429.288,3.07027,0.27325,0.39198,0.132455,0.106481,inf,inf,inf,inf,1,1,1,1,2,0,2,1,4,1,1,0
80320031,39902196,34.0343398,108.7550758,0.937015,5.69346,-2.78872,-0.032507,-0.12439,0.0,-1.08864,0.135036,-0.00763725,-0.078356,-0.0069764,-0.079137,0.0399598,-0.217016,3.08212,-0.368081,-2.98629,0.00616439,429.288,3.08304,0.280964,0.393164,0.136819,0.10772,inf,inf,inf,inf,1,1,1,1,2,0,2,1,4,1,1,0
80429271,39902196,34.0343398,108.7550758,0.824955,5.70844,-2.80334,-0.032507,-0.12439,0.0,-1.09307,0.134509,0.0125362,-0.0642015,-0.0069764,-0.079137,0.0399598,-0.22088,-0.159668,1.62347,-2.98442,0.00616439,429.288,3.09766,0.27287,0.391246,0.13365,0.106381,inf,inf,inf,inf,1,1,1,1,2,0,2,1,4,1,1,0
80518666,39902196,34.0343398,108.7550758,0.731186,5.72046,-2.81155,-0.032507,-0.12439,0.0,-1.10661,0.13771,0.038749,-0.0403497,-0.0069764,-0.079137,0.0399598,-2.77495,3.82437,2.82507,-2.98922,0.00616439,429.288,3.10587,0.280551,0.392421,0.1384,0.107616,inf,inf,inf,inf,1,1,1,1,2,0,2,1,4,1,1,0
80627910,39902196,34.0343398,108.7550758,0.615892,5.7402,-2.8234,-0.032507,-0.12439,0.0,-1.10223,0.14552,0.0473858,-0.0381419,-0.0069764,-0.079137,0.0399598,0.503879,3.60856,-1.02704,-2.99963,0.00616439,429.288,3.11772,0.272438,0.3905,0.135165,0.106261,inf,inf,inf,inf,1,1,1,1,2,0,2,1,4,1,1,0
80727268,39902196,34.0343398,108.7550758,0.50957,5.7569,-2.83177,-0.032507,-0.12439,0.0,-1.10719,0.119312,0.058336,-0.031174,-0.0069764,-0.079137,0.0399598,1.07427,-3.52264,-0.62804,-3.01018,0.00616439,429.288,3.12609,0.280977,0.394848,0.140596,0.107966,inf,inf,inf,inf,1,1,1,1,2,0,2,1,4,1,1,0
80826544,39902196,34.0343398,108.7550758,0.403758,5.77565,-2.83874,-0.032507,-0.12439,0.0,-1.10572,0.128929,0.0754556,-0.0172029,-0.0069764,-0.079137,0.0399598,-2.0093,2.88673,2.33904,-3.02289,0.00616439,429.288,3.13306,0.27202,0.392215,0.136805,0.106407,inf,inf,inf,inf,1,1,1,1,2,0,2,1,4,1,1,0
80925866,39902196,34.0343398,108.7550758,0.297636,5.79204,-2.84251,-0.032507,-0.12439,0.0,-1.09941,0.116157,0.0811149,-0.0124218,-0.0069764,-0.079137,0.0399598,-0.466039,0.670987,-0.200442,-3.03476,0.00616439,429.288,3.13682,0.28057,0.394088,0.142507,0.107841,inf,inf,inf,inf,1,1,1,1,2,0,2,1,4,1,1,0
81025236,39902196,34.0343398,108.7550758,0.190415,5.80726,-2.84257,-0.032507,-0.12439,0.0,-1.0906,0.0990287,0.101958,0.00970223,-0.0069764,-0.079137,0.0399598,-0.272369,0.312041,0.866086,-3.04555,0.00616439,429.288,3.13688,0.271635,0.391471,0.138545,0.106287,inf,inf,inf,inf,1,1,1,1,2,0,2,1,4,1,1,0
81129471,39902196,34.0343398,108.7550758,0.0783044,5.81972,-2.83944,-0.032507,-0.12439,0.0,-1.08618,0.0672842,0.114716,0.024636,-0.0069764,-0.079137,0.0399598,-0.0381964,-3.08064,1.40084,-3.05544,0.00616439,429.288,3.13376,0.280224,0.393333,0.144309,0.107717,inf,inf,inf,inf,1,1,1,1,2,0,2,1,4,1,1,0
81218859,39902196,34.0343398,108.7550758,-0.0157177,5.83043,-2.83507,-0.032507,-0.12439,0.0,-1.07087,0.0498755,0.115869,0.0288226,-0.0069764,-0.079137,0.0399598,0.0190257,-0.886356,-0.546196,-3.06217,0.00616439,429.288,3.12938,0.270378,0.390053,0.139483,0.105959,inf,inf,inf,inf,1,1,1,1,2,0,2,1,4,1,1,0
81318397,39902196,34.0343398,108.7550758,-0.119286,5.83937,-2.82834,-0.032507,-0.12439,0.0,-1.06615,0.0500426,0.115397,0.0330136,-0.0069764,-0.079137,0.0399598,-0.812931,3.42427,-0.00372879,-3.06905,0.00616439,429.288,3.12265,0.27896,0.394386,0.145474,0.107671,inf,inf,inf,inf,1,1,1,1,2,0,2,1,4,1,1,0
81422462,39902196,34.0343398,108.7550758,-0.22288,5.84642,-2.82294,-0.032507,-0.12439,0.0,-1.04037,0.00894148,0.106622,0.026663,-0.0069764,-0.079137,0.0399598,2.62961,-2.75944,-2.88084,-3.07323,0.00616439,429.288,3.11726,0.270088,0.391774,0.141124,0.106121,inf,inf,inf,inf,1,1,1,1,2,0,2,1,4,1,1,0
81521782,39902196,34.0343398,108.7550758,-0.320685,5.85121,-2.81775,-0.032507,-0.12439,0.0,-1.03115,-0.00488347,0.120889,0.0432363,-0.0069764,-0.079137,0.0399598,-0.309099,0.310228,0.424125,-3.07634,0.00616439,429.288,3.11206,0.278747,0.393642,0.147182,0.107561,inf,inf,inf,inf,1,1,1,1,2,0,2,1,4,1,1,0
81621103,39902196,34.0343398,108.7550758,-0.418538,5.85723,-2.81478,-0.032507,-0.12439,0.0,-1.02074,-0.0190155,0.116576,0.0387826,-0.0069764,-0.079137,0.0399598,0.872783,-1.77077,-0.0996779,-3.07781,0.00616439,429.288,3.1091,0.269935,0.391061,0.14259,0.10603,inf,inf,inf,inf,1,1,1,1,2,0,2,1,4,1,1,0
81720420,39902196,34.0343398,108.7550758,-0.516509,5.8604,-2.81107,-0.032507,-0.12439,0.0,-1.01506,-0.027979,0.110535,0.0335027,-0.0069764,-0.079137,0.0399598,0.644945,2.02124,-1.65664,-3.07953,0.00616439,429.288,3.10539,0.27869,0.392927,0.14833,0.107462,inf,inf,inf,inf,1,1,1,1,2,0,2,1,4,1,1,0
81829773,39902196,34.0343398,108.7550758,-0.622068,5.86641,-2.80719,-0.032507,-0.12439,0.0,-1.01444,-0.0460547,0.104505,0.0292172,-0.0069764,-0.079137,0.0399598,-2.67958,0.907259,3.26308,-3.07924,0.00616439,429.288,3.1015,0.270686,0.391022,0.144085,0.106131,inf,inf,inf,inf,1,1,1,1,2,0,2,1,4,1,1,0
81919058,39902196,34.0343398,108.7550758,-0.708794,5.86795,-2.8055,-0.032507,-0.12439,0.0,-1.01181,-0.0691375,0.0850656,0.0110199,-0.0069764,-0.079137,0.0399598,-1.17702,-1.55889,1.42166,-3.07782,0.00616439,429.288,3.09982,0.278676,0.392205,0.149227,0.10736,inf,inf,inf,inf,1,1,1,1,2,0,2,1,4,1,1,0
82028309,39902196,34.0343398,108.7550758,-0.816035,5.87009,-2.80359,-0.032507,-0.12439,0.0,-1.01001,-0.0683234,0.0652156,-0.00622499,-0.0069764,-0.079137,0.0399598,-0.195403,1.11859,-0.142345,-3.07782,0.00616439,429.288,3.09791,0.270533,0.390314,0.144661,0.106023,inf,inf,inf,inf,1,1,1,1,2,0,2,1,4,1,1,0
82127798,39902196,34.0343398,108.7550758,-0.914548,5.86886,-2.80251,-0.032507,-0.12439,0.0,-1.0073,-0.0927945,0.0617801,-0.00757485,-0.0069764,-0.079137,0.0399598,-0.0937082,-0.482839,0.720019,-3.07654,0.00616439,429.288,3.09683,0.279522,0.392171,0.150391,0.107448,inf,inf,inf,inf,1,1,1,1,2,0,2,1,4,1,1,0
82221982,39902196,34.0343398,108.7550758,-1.00992,5.86431,-2.80639,-0.032507,-0.12439,0.0,-1.01272,-0.112781,0.062341,-0.00995619,-0.0069764,-0.079137,0.0399598,-1.09665,-2.31045,2.335,-3.07544,0.00616439,429.288,3.10071,0.269576,0.39137,0.144438,0.105983,inf,inf,inf,inf,1,1,1,1,2,0,2,1,4,1,1,0
82321317,39902196,34.0343398,108.7550758,-1.11121,5.85664,-2.81099,-0.032507,-0.12439,0.0,-1.01363,-0.14024,0.0520712,-0.0229084,-0.0069764,-0.079137,0.0399598,2.33852,-2.58039,-2.17453,-3.07431,0.00616439,429.288,3.1053,0.278571,0.393244,0.150215,0.107416,inf,inf,inf,inf,1,1,1,1,2,0,2,1,4,1,1,0
82420622,39902196,34.0343398,108.7550758,-1.21194,5.84403,-2.81551,-0.032507,-0.12439,0.0,-1.01606,-0.141975,0.0670171,-0.0103434,-0.0069764,-0.079137,0.0399598,-2.34327,2.19352,2.25409,-3.0738,0.00616439,429.288,3.10983,0.2695,0.390668,0.14463,0.105875,inf,inf,inf,inf,1,1,1,1,2,0,2,1,4,1,1,0
82529872,39902196,34.0343398,108.7550758,-1.32236,5.82654,-2.81698,-0.032507,-0.12439,0.0,-1.01946,-0.161053,0.070867,-0.00609084,-0.0069764,-0.079137,0.0399598,-0.48252,1.64549,-0.249887,-3.07267,0.00616439,429.288,3.1113,0.279502,0.393225,0.150662,0.107493,inf,inf,inf,inf,1,1,1,1,2,0,2,1,4,1,1,0
82629201,39902196,34.0343398,108.7550758,-1.42694,5.81076,-2.81945,-0.032507,-0.12439,0.0,-1.01957,-0.185041,0.0823815,0.00394198,-0.0069764,-0.079137,0.0399598,-1.51292,-1.68876,2.83781,-3.07282,0.00616439,429.288,3.11377,0.270448,0.390653,0.14502,0.105965,inf,inf,inf,inf,1,1,1,1,2,0,2,1,4,1,1,0
82723544,39902196,34.0343398,108.7550758,-1.5254,5.79409,-2.81914,-0.032507,-0.12439,0.0,-1.0219,-0.186609,0.0893617,0.0111728,-0.0069764,-0.079137,0.0399598,-1.57771,-1.88409,3.04007,-3.07337,0.00616439,429.288,3.11346,0.278683,0.391833,0.149846,0.107181,inf,inf,inf,inf,1,1,1,1,2,0,2,1,4,1,1,0
82822863,39902196,34.0343398,108.7550758,-1.62575,5.77987,-2.81813,-0.032507,-0.12439,0.0,-1.00585,-0.193659,0.0810569,0.00381012,-0.0069764,-0.079137,0.0399598,1.3193,-1.62123,-1.78456,-3.07329,0.00616439,429.288,3.11244,0.269529,0.391713,0.144063,0.105913,inf,inf,inf,inf,1,1,1,1,2,0,2,1,4,1,1,0
82922296,39902196,34.0343398,108.7550758,-1.72551,5.76446,-2.81607,-0.032507,-0.12439,0.0,-1.00758,-0.19263,0.097093,0.0210366,-0.0069764,-0.079137,0.0399598,0.540127,-3.56654,1.50919,-3.07352,0.00616439,429.288,3.11039,0.278685,0.393594,0.149494,0.107334,inf,inf,inf,inf,1,1,1,1,2,0,2,1,4,1,1,0
83021503,39902196,34.0343398,108.7550758,-1.8257,5.76036,-2.81458,-0.032507,-0.12439,0.0,-0.993884,-0.173511,0.0855247,0.00972902,-0.0069764,-0.079137,0.0399598,1.36786,-0.156959,-2.51139,-3.07323,0.00616439,429.288,3.1089,0.269544,0.391024,0.143759,0.105807,inf,inf,inf,inf,1,1,1,1,2,0,2,1,4,1,1,0
83120821,39902196,34.0343398,108.7550758,-1.92527,5.75505,-2.81376,-0.032507,-0.12439,0.0,-1.00416,-0.162328,0.0965513,0.0204426,-0.0069764,-0.079137,0.0399598,-2.57499,1.70463,2.63623,-3.07283,0.00616439,429.288,3.10808,0.278738,0.392903,0.148944,0.107223,inf,inf,inf,inf,1,1,1,1,2,0,2,1,4,1,1,0
83225106,39902196,34.0343398,108.7550758,-2.03296,5.74912,-2.80997,-0.032507,-0.12439,0.0,-0.994493,-0.164546,0.0953511,0.0214138,-0.0069764,-0.079137,0.0399598,-0.675192,-2.20271,1.54902,-3.07247,0.00616439,429.288,3.10429,0.269415,0.390337,0.143085,0.105684,inf,inf,inf,inf,1,1,1,1,2,0,2,1,4,1,1,0
83324425,39902196,34.0343398,108.7550758,-2.13514,5.74356,-2.80468,-0.032507,-0.12439,0.0,-0.988129,-0.156976,0.0866133,0.0162497,-0.0069764,-0.079137,0.0399598,1.41027,1.64101,-3.09301,-3.072,0.00616439,429.288,3.09899,0.278621,0.392194,0.148172,0.107094,inf,inf,inf,inf,1,1,1,1,2,0,2,1,4,1,1,0
83423740,39902196,34.0343398,108.7550758,-2.2389,5.73887,-2.79341,-0.032507,-0.12439,0.0,-0.992679,-0.154245,0.0914522,0.0303989,-0.0069764,-0.079137,0.0399598,-1.10678,1.11404,1.8024,-3.07091,0.00616439,429.288,3.08773,0.269314,0.38965,0.142529,0.105567,inf,inf,inf,inf,1,1,1,1,2,0,2,1,4,1,1,0
83523064,39902196,34.0343398,108.7550758,-2.34161,5.73194,-2.78297,-0.032507,-0.12439,0.0,-0.990315,-0.167097,0.0793056,0.0266633,-0.0069764,-0.079137,0.0399598,-0.469782,1.21582,-0.309839,-3.0703,0.00616439,429.288,3.07728,0.278535,0.391503,0.147564,0.106973,inf,inf,inf,inf,1,1,1,1,2,0,2,1,4,1,1,0
83622383,39902196,34.0343398,108.7550758,-2.44536,5.73032,-2.77445,-0.032507,-0.12439,0.0,-0.995064,-0.163887,0.0866493,0.0399774,-0.0069764,-0.079137,0.0399598,-2.40981,0.676326,3.54124,-3.07084,0.00616439,429.288,3.06876,0.2692,0.391395,0.141781,0.105713,inf,inf,inf,inf,1,1,1,1,2,0,2,1,4,1,1,0
83721772,39902196,34.0343398,108.7550758,-2.54812,5.72669,-2.76885,-0.032507,-0.12439,0.0,-0.982954,-0.166257,0.0653224,0.0211694,-0.0069764,-0.079137,0.0399598,1.71898,-1.47395,-2.09602,-3.07011,0.00616439,429.288,3.06316,0.278423,0.393279,0.146791,0.107127,inf,inf,inf,inf,1,1,1,1,2,0,2,1,4,1,1,0
83821024,39902196,34.0343398,108.7550758,-2.65153,5.71896,-2.76129,-0.032507,-0.12439,0.0,-0.982903,-0.178272,0.0656889,0.0263911,-0.0069764,-0.079137,0.0399598,0.597448,-1.40168,0.223149,-3.07122,0.00616439,429.288,3.05561,0.269069,0.390711,0.14101,0.105596,inf,inf,inf,inf,1,1,1,1,2,0,2,1,4,1,1,0
83930272,39902196,34.0343398,108.7550758,-2.76394,5.7067,-2.7557,-0.032507,-0.12439,0.0,-0.982134,-0.175355,0.0460929,0.00956302,-0.0069764,-0.079137,0.0399598,1.89173,-0.723189,-2.89887,-3.07096,0.00616439,429.288,3.05001,0.279242,0.393259,0.146481,0.107198,inf,inf,inf,inf,1,1,1,1,2,0,2,1,4,1,1,0
84019660,39902196,34.0343398,108.7550758,-2.85571,5.69455,-2.75296,-0.032507,-0.12439,0.0,-0.987204,-0.170712,0.0423447,0.00696559,-0.0069764,-0.079137,0.0399598,-0.188998,3.59307,-0.847889,-3.07169,0.00616439,429.288,3.04728,0.269051,0.390026,0.140388,0.105489,inf,inf,inf,inf,1,1,1,1,2,0,2,1,4,1,1,0
84128932,39902196,34.0343398,108.7550758,-2.96629,5.67721,-2.75306,-0.032507,-0.12439,0.0,-0.983792,-0.192307,0.035402,-0.000894893,-0.0069764,-0.079137,0.0399598,-0.231007,-1.67729,0.689112,-3.0715,0.00616439,429.288,3.04738,0.279226,0.392569,0.145789,0.107089,inf,inf,inf,inf,1,1,1,1,2,0,2,1,4,1,1,0
84228231,39902196,34.0343398,108.7550758,-3.06288,5.66637,-2.75744,-0.032507,-0.12439,0.0,-0.982689,-0.188494,0.0201078,-0.0198018,-0.0069764,-0.079137,0.0399598,0.00852968,0.316514,-0.231963,-3.07243,0.00616439,429.288,3.05176,0.2698,0.390011,0.140098,0.105564,inf,inf,inf,inf,1,1,1,1,2,0,2,1,4,1,1,0
84327589,39902196,34.0343398,108.7550758,-3.15893,5.65334,-2.76189,-0.032507,-0.12439,0.0,-0.978518,-0.195554,0.0164827,-0.0259455,-0.0069764,-0.079137,0.0399598,-0.543153,-3.4703,1.70064,-3.07183,0.00616439,429.288,3.05621,0.279062,0.391862,0.144956,0.106962,inf,inf,inf,inf,1,1,1,1,2,0,2,1,4,1,1,0
84426869,39902196,34.0343398,108.7550758,-3.25902,5.63574,-2.76362,-0.032507,-0.12439,0.0,-0.975302,-0.197351,0.00761259,-0.0337199,-0.0069764,-0.079137,0.0399598,1.17545,1.28642,-2.17536,-3.0729,0.00616439,429.288,3.05793,0.269632,0.391756,0.139347,0.10571,inf,inf,inf,inf,1,1,1,1,2,0,2,1,4,1,1,0
84526247,39902196,34.0343398,108.7550758,-3.35876,5.61664,-2.76566,-0.032507,-0.12439,0.0,-0.977538,-0.190092,0.0133619,-0.0272189,-0.0069764,-0.079137,0.0399598,-2.22481,4.58959,2.13112,-3.07362,0.00616439,429.288,3.05998,0.278873,0.393638,0.144146,0.107115,inf,inf,inf,inf,1,1,1,1,2,0,2,1,4,1,1,0
84620541,39902196,34.0343398,108.7550758,-3.45441,5.60164,-2.76583,-0.032507,-0.12439,0.0,-0.979709,-0.204523,0.00920396,-0.028933,-0.0069764,-0.079137,0.0399598,0.256481,-1.99401,0.107042,-3.07425,0.00616439,429.288,3.06014,0.268552,0.390387,0.138141,0.105393,inf,inf,inf,inf,1,1,1,1,2,0,2,1,4,1,1,0
84719860,39902196,34.0343398,108.7550758,-3.55461,5.58573,-2.7671,-0.032507,-0.12439,0.0,-0.970854,-0.197747,0.00275819,-0.0340327,-0.0069764,-0.079137,0.0399598,2.29314,-1.30449,-2.60599,-3.07377,0.00616439,429.288,3.06142,0.27771,0.392233,0.142841,0.106789,inf,inf,inf,inf,1,1,1,1,2,0,2,1,4,1,1,0
84829144,39902196,34.0343398,108.7550758,-3.66818,5.57685,-2.77043,-0.032507,-0.12439,0.0,-0.981012,-0.186583,0.0158008,-0.0215705,-0.0069764,-0.079137,0.0399598,-1.20996,0.890559,2.17409,-3.07442,0.00616439,429.288,3.06474,0.269265,0.390359,0.138006,0.105468,inf,inf,inf,inf,1,1,1,1,2,0,2,1,4,1,1,0
84928430,39902196,34.0343398,108.7550758,-3.7704,5.56748,-2.77293,-0.032507,-0.12439,0.0,-0.978246,-0.184679,0.00818607,-0.0289685,-0.0069764,-0.079137,0.0399598,-0.0208578,-1.25842,0.0462385,-3.07413,0.00616439,429.288,3.06724,0.278461,0.392223,0.142709,0.106864,inf,inf,inf,inf,1,1,1,1,2,0,2,1,4,1,1,0
85027762,39902196,34.0343398,108.7550758,-3.87316,5.55371,-2.77375,-0.032507,-0.12439,0.0,-0.982544,-0.186309,0.0146091,-0.0208416,-0.0069764,-0.079137,0.0399598,0.0789803,-1.4624,0.448585,-3.07424,0.00616439,429.288,3.06806,0.269105,0.389677,0.137285,0.10535,inf,inf,inf,inf,1,1,1,1,2,0,2,1,4,1,1,0
85122103,39902196,34.0343398,108.7550758,-3.96901,5.53839,-2.77533,-0.032507,-0.12439,0.0,-0.972092,-0.180943,0.0124513,-0.022928,-0.0069764,-0.079137,0.0399598,1.04505,1.4555,-1.13595,-3.07529,0.00616439,429.288,3.06964,0.277331,0.393314,0.141494,0.106824,inf,inf,inf,inf,1,1,1,1,2,0,2,1,4,1,1,0
85221422,39902196,34.0343398,108.7550758,-4.06822,5.52528,-2.7765,-0.032507,-0.12439,0.0,-0.969882,-0.189553,0.0145549,-0.0201791,-0.0069764,-0.079137,0.0399598,1.23859,-5.26136,0.370318,-3.07472,0.00616439,429.288,3.07081,0.26807,0.390749,0.136192,0.105304,inf,inf,inf,inf,1,1,1,1,2,0,2,1,4,1,1,0
85320742,39902196,34.0343398,108.7550758,-4.16617,5.51158,-2.77789,-0.032507,-0.12439,0.0,-0.970748,-0.186329,0.0134139,-0.0210137,-0.0069764,-0.079137,0.0399598,1.56298,-2.09107,-2.24577,-3.07493,0.00616439,429.288,3.0722,0.277158,0.392615,0.140971,0.106704,inf,inf,inf,inf,1,1,1,1,2,0,2,1,4,1,1,0
85420062,39902196,34.0343398,108.7550758,-4.2653,5.50361,-2.7829,-0.032507,-0.12439,0.0,-0.963569,-0.175778,0.0212143,-0.0168589,-0.0069764,-0.079137,0.0399598,-0.0579905,-0.597319,0.542954,-3.07475,0.00616439,429.288,3.07721,0.268058,0.390078,0.135885,0.105206,inf,inf,inf,inf,1,1,1,1,2,0,2,1,4,1,1,0
85529351,39902196,34.0343398,108.7550758,-4.37301,5.49256,-2.78615,-0.032507,-0.12439,0.0,-0.963544,-0.159302,0.0215814,-0.0179729,-0.0069764,-0.079137,0.0399598,0.653085,2.06491,-1.18899,-3.07556,0.00616439,429.288,3.08047,0.278073,0.392616,0.140948,0.106792,inf,inf,inf,inf,1,1,1,1,2,0,2,1,4,1,1,0
85628822,39902196,34.0343398,108.7550758,-4.4711,5.48149,-2.78649,-0.032507,-0.12439,0.0,-0.959438,-0.175457,0.0347412,-0.00376084,-0.0069764,-0.079137,0.0399598,-1.49706,-3.05135,2.35603,-3.07577,0.00616439,429.288,3.08081,0.26883,0.390067,0.135762,0.105282,inf,inf,inf,inf,1,1,1,1,2,0,2,1,4,1,1,0
85722985,39902196,34.0343398,108.7550758,-4.56307,5.46886,-2.7878,-0.032507,-0.12439,0.0,-0.959006,-0.157968,0.0283367,-0.0105214,-0.0069764,-0.079137,0.0399598,-1.08979,2.76875,1.21664,-3.07655,0.00616439,429.288,3.08212,0.276998,0.393708,0.139871,0.106752,inf,inf,inf,inf,1,1,1,1,2,0,2,1,4,1,1,0
85822304,39902196,34.0343398,108.7550758,-4.66071,5.45781,-2.79134,-0.032507,-0.12439,0.0,-0.952827,-0.166905,0.0233146,-0.0176473,-0.0069764,-0.079137,0.0399598,0.152524,0.664231,-0.947621,-3.07638,0.00616439,429.288,3.08565,0.267935,0.391138,0.135054,0.10525,inf,inf,inf,inf,1,1,1,1,2,0,2,1,4,1,1,0
85921623,39902196,34.0343398,108.7550758,-4.75764,5.44506,-2.79313,-0.032507,-0.12439,0.0,-0.950989,-0.171813,0.0341172,-0.00723406,-0.0069764,-0.079137,0.0399598,-0.00556827,-0.336655,0.811054,-3.07737,0.00616439,429.288,3.08745,0.276974,0.392985,0.139629,0.106639,inf,inf,inf,inf,1,1,1,1,2,0,2,1,4,1,1,0
86020944,39902196,34.0343398,108.7550758,-4.85957,5.43527,-2.79192,-0.032507,-0.12439,0.0,-0.94668,-0.161223,0.0294526,-0.00994322,-0.0069764,-0.079137,0.0399598,2.5278,-2.33148,-2.13199,-3.07696,0.00616439,429.288,3.08624,0.267951,0.390429,0.134701,0.10514,inf,inf,inf,inf,1,1,1,1,2,0,2,1,4,1,1,0
86120280,39902196,34.0343398,108.7550758,-4.96014,5.42469,-2.78857,-0.032507,-0.12439,0.0,-0.949792,-0.165152,0.0424531,0.00637737,-0.0069764,-0.079137,0.0399598,0.432437,0.0604124,-0.239175,-3.07697,0.00616439,429.288,3.08288,0.276975,0.392254,0.139222,0.106523,inf,inf,inf,inf,1,1,1,1,2,0,2,1,4,1,1,0
86224548,39902196,34.0343398,108.7550758,-5.06743,5.41229,-2.78584,-0.032507,-0.12439,0.0,-0.957596,-0.146589,0.0468235,0.0125353,-0.0069764,-0.079137,0.0399598,-1.24669,-0.30158,1.9672,-3.07618,0.00616439,429.288,3.08015,0.267898,0.392128,0.134287,0.105276,inf,inf,inf,inf,1,1,1,1,2,0,2,1,4,1,1,0
86323866,39902196,34.0343398,108.7550758,-5.16841,5.39984,-2.78634,-0.032507,-0.12439,0.0,-0.950723,-0.154225,0.0344128,-0.000680517,-0.0069764,-0.079137,0.0399598,0.671532,-2.88175,-0.575716,-3.07466,0.00616439,429.288,3.08066,0.276899,0.393966,0.13882,0.106662,inf,inf,inf,inf,1,1,1,1,2,0,2,1,4,1,1,0
86423302,39902196,34.0343398,108.7550758,-5.27369,5.3837,-2.78762,-0.032507,-0.12439,0.0,-0.9511,-0.138467,0.0300917,-0.00587619,-0.0069764,-0.079137,0.0399598,-0.237434,3.19041,-0.238709,-3.07537,0.00616439,429.288,3.08194,0.26787,0.391369,0.134046,0.105146,inf,inf,inf,inf,1,1,1,1,2,0,2,1,4,1,1,0
86522504,39902196,34.0343398,108.7550758,-5.37688,5.36646,-2.79004,-0.032507,-0.12439,0.0,-0.955666,-0.137443,0.0280769,-0.00938881,-0.0069764,-0.079137,0.0399598,-1.45966,1.42522,0.859276,-3.07334,0.00616439,429.288,3.08436,0.276856,0.393203,0.138701,0.106532,inf,inf,inf,inf,1,1,1,1,2,0,2,1,4,1,1,0
86621824,39902196,34.0343398,108.7550758,-5.48064,5.35069,-2.78767,-0.032507,-0.12439,0.0,-0.951094,-0.148856,0.0350888,0.000886731,-0.0069764,-0.079137,0.0399598,-0.210717,0.117502,0.747305,-3.07294,0.00616439,429.288,3.08198,0.267933,0.390639,0.1339,0.105035,inf,inf,inf,inf,1,1,1,1,2,0,2,1,4,1,1,0
86721143,39902196,34.0343398,108.7550758,-5.58189,5.33502,-2.7844,-0.032507,-0.12439,0.0,-0.938488,-0.15197,0.0257328,-0.00524211,-0.0069764,-0.079137,0.0399598,2.69737,-3.67973,-2.733,-3.07183,0.00616439,429.288,3.07872,0.27691,0.39246,0.138502,0.106417,inf,inf,inf,inf,1,1,1,1,2,0,2,1,4,1,1,0
