timestamp,lat,lon,alt,alt_ellipsoid,delta_alt,eph,epv,terrain_alt,lat_lon_reset_counter,alt_reset_counter,terrain_alt_valid,dead_reckoning
66921929,34.0343616373,108.75508643,429.069,399.743,-0.0,0.779592,1.0843,428.97,2,0,1,0
66931805,34.0343616437,108.755086437,429.07,399.719,-0.0,0.779933,1.08455,428.97,2,0,1,0
67120511,34.0343617891,108.755086532,429.074,399.708,-0.0,0.779457,1.08404,428.972,2,0,1,0
67329091,34.0343619453,108.755086617,429.079,399.694,-0.0,0.779811,1.08403,428.982,2,0,1,0
67527719,34.0343621263,108.755086687,429.088,399.682,-0.0,0.77987,1.08468,428.988,2,0,1,0
67726357,34.0343623153,108.755086789,429.092,399.665,-0.0,0.779887,1.08443,428.987,2,0,1,0
67929963,34.0343625091,108.755086897,429.095,399.648,-0.0,0.779902,1.08418,428.991,2,0,1,0
68128757,34.0343626931,108.755086983,429.1,399.633,-0.0,0.77992,1.08482,428.993,2,0,1,0
68327238,34.0343628186,108.755087065,429.111,399.624,-0.0,0.779991,1.08457,428.993,2,0,1,0
68520910,34.0343629512,108.755087123,429.125,399.619,-0.0,0.779784,1.08407,428.993,2,0,1,0
68729480,34.0343631006,108.755087135,429.14,399.614,-0.0,0.78043,1.08407,428.993,2,0,1,0
68928241,34.0343632424,108.755087172,429.15,399.604,-0.0,0.780858,1.08472,428.993,2,0,1,0
69121789,34.0343633588,108.755087203,429.16,399.593,-0.0,0.780806,1.08422,428.993,2,0,1,0
69320481,34.0343634714,108.755087267,429.168,399.582,-0.0,0.781228,1.08485,428.993,2,0,1,0
69524032,34.034363634,108.755087446,429.176,399.57,-0.0,0.781616,1.08459,428.993,2,0,1,0
69722730,34.0343638252,108.755087665,429.189,399.563,-0.0,0.781879,1.08432,428.993,2,0,1,0
69921308,34.0343640915,108.755087869,429.215,399.569,-0.0,0.782161,1.08495,428.993,2,0,1,0
70129878,34.0343643492,108.755088198,429.298,399.632,-0.0,0.782886,1.08493,428.993,2,0,1,0
70323550,34.0343644647,108.755088467,429.45,399.764,-0.0,0.782592,1.08442,428.993,2,0,1,0
70522237,34.0343645423,108.755088839,429.661,399.955,-0.0,0.782663,1.08415,428.993,2,0,1,0
70720827,34.0343645444,108.755089409,429.902,400.176,-0.0,0.782741,1.08479,428.993,2,0,1,0
70929397,34.0343648036,108.75509007,430.152,400.405,-0.0,0.783241,1.08477,428.993,2,0,1,0
71128034,34.0343648201,108.755090718,430.351,400.585,-0.0,0.783177,1.08451,428.993,2,0,1,0
71326741,34.0343649537,108.755090841,430.506,400.72,-0.0,0.783092,1.08425,428.993,2,0,1,0
71525312,34.0343650503,108.755090592,430.634,400.828,-0.0,0.782986,1.08488,428.993,2,0,1,0
71728915,34.0343652439,108.75509028,430.744,400.918,-0.0,0.78283,1.08462,428.993,2,0,1,0
71927553,34.0343652463,108.755090027,430.843,400.996,-0.0,0.782653,1.08436,428.993,2,0,1,0
72126270,34.0343650559,108.755089921,430.941,401.074,-0.0,0.782475,1.0841,428.993,2,0,1,0
72329795,34.0343651655,108.755089643,431.027,401.141,-0.0,0.782285,1.08473,428.993,2,0,1,0
72523468,34.0343652137,108.755089554,431.103,401.197,-0.0,0.78167,1.08421,428.993,2,0,1,0
72722106,34.0343652256,108.755089489,431.176,401.249,-0.0,0.781461,1.08485,428.993,2,0,1,0
72920744,34.034365216,108.755089431,431.25,401.305,-0.0,0.78131,1.08459,428.993,2,0,1,0
73124348,34.0343652118,108.75508931,431.328,401.362,-0.0,0.781166,1.08433,0.0,2,0,0,0
73322989,34.0343653332,108.755089334,431.413,401.427,-0.0,0.780983,1.08407,0.0,2,0,0,0
73521626,34.0343652844,108.755089516,431.467,401.461,-0.0,0.780828,1.08471,0.0,2,0,0,0
73730235,34.0343651254,108.755090364,431.502,401.477,-0.0,0.781025,1.08469,0.0,2,0,0,0
73923868,34.0343650559,108.755091799,431.526,401.482,-0.0,0.780454,1.08507,0.0,2,0,0,0
74122506,34.034364976,108.755093688,431.531,401.466,-0.0,0.780288,1.08481,0.0,2,0,0,0
74321322,34.0343649207,108.755095753,431.539,401.455,-0.0,0.780113,1.08454,0.0,2,0,0,0
74519781,34.0343648445,108.755097732,431.57,401.465,-0.0,0.779913,1.08428,0.0,2,0,0,0
74723385,34.0343646779,108.755099711,431.605,401.481,-0.0,0.779675,1.08491,0.0,2,0,0,0
74922024,34.0343645836,108.755101611,431.641,401.497,-0.0,0.779417,1.08465,0.0,2,0,0,0
75130769,34.0343645032,108.755103546,431.675,401.51,-0.0,0.779534,1.08463,0.0,2,0,0,0
75329233,34.0343644052,108.755105327,431.702,401.518,-0.0,0.779245,1.08436,0.0,2,0,0,0
75527920,34.0343643098,108.755107029,431.723,401.519,-0.0,0.778991,1.085,0.0,2,0,0,0
75721544,34.0343641531,108.755108684,431.738,401.514,-0.0,0.778408,1.08449,0.0,2,0,0,0
75920332,34.0343639678,108.755110434,431.755,401.511,-0.0,0.778202,1.08423,0.0,2,0,0,0
76123785,34.0343637776,108.755112281,431.775,401.51,-0.0,0.778048,1.08487,0.0,2,0,0,0
76322424,34.0343635866,108.755114085,431.813,401.529,-0.0,0.777906,1.08462,0.0,2,0,0,0
76530994,34.0343633901,108.755115996,431.854,401.55,-0.0,0.77814,1.08462,0.0,2,0,0,0
76729733,34.0343632856,108.755117894,431.879,401.555,-0.0,0.778037,1.08436,0.0,2,0,0,0
76928300,34.0343632451,108.755119846,431.896,401.552,-0.0,0.777962,1.08501,0.0,2,0,0,0
77121939,34.034363136,108.755121878,431.917,401.552,-0.0,0.777551,1.08451,0.0,2,0,0,0
77320581,34.0343630263,108.755123978,431.946,401.561,-0.0,0.777476,1.08426,0.0,2,0,0,0
77519249,34.0343628678,108.755126064,431.973,401.569,-0.0,0.777442,1.08492,0.0,2,0,0,0
77727790,34.0343627586,108.755128254,431.988,401.564,-0.0,0.777762,1.08492,0.0,2,0,0,0
77926429,34.0343625907,108.755130361,432.002,401.558,-0.0,0.777677,1.08466,0.0,2,0,0,0
78130032,34.034362395,108.755132533,432.012,401.547,-0.0,0.77759,1.0853,0.0,2,0,0,0
78328735,34.0343620956,108.755134535,432.019,401.535,-0.0,0.777487,1.08503,0.0,2,0,0,0
78522343,34.0343616042,108.755136196,432.022,401.518,-0.0,0.777067,1.08452,0.0,2,0,0,0
78720981,34.0343607676,108.755137301,432.019,401.495,-0.0,0.776953,1.08517,0.0,2,0,0,0
78924586,34.0343595852,108.755137682,432.014,401.469,-0.0,0.776817,1.0849,0.0,2,0,0,0
79123311,34.0343582195,108.755137671,432.008,401.443,-0.0,0.77667,1.08462,0.0,2,0,0,0
79321862,34.0343567344,108.755137344,432.005,401.42,-0.0,0.776545,1.08525,0.0,2,0,0,0
79530432,34.0343551631,108.755137143,432.01,401.406,-0.0,0.776716,1.08522,0.0,2,0,0,0
79724105,34.0343535376,108.755137108,432.014,401.39,-0.0,0.776198,1.08469,0.0,2,0,0,0
79922743,34.0343517949,108.755137143,432.026,401.381,-0.0,0.776017,1.08531,0.0,2,0,0,0
80121381,34.034350046,108.755137338,432.048,401.384,-0.0,0.775859,1.08503,0.0,2,0,0,0
80320031,34.0343482268,108.755137586,432.077,401.392,-0.0,0.775674,1.08476,0.0,2,0,0,0
80518666,34.0343463757,108.755137879,432.099,401.395,-0.0,0.775524,1.08449,0.0,2,0,0,0
80727268,34.0343443827,108.755138275,432.12,401.395,-0.0,0.775678,1.08537,0.0,2,0,0,0
80925866,34.0343424767,108.755138656,432.13,401.386,-0.0,0.775531,1.08509,0.0,2,0,0,0
81129471,34.0343405042,108.755138957,432.127,401.362,-0.0,0.775406,1.08482,0.0,2,0,0,0
81318397,34.0343387272,108.75513917,432.116,401.332,-0.0,0.77495,1.0852,0.0,2,0,0,0
81521782,34.034336916,108.755139298,432.106,401.301,-0.0,0.774873,1.08493,0.0,2,0,0,0
81720420,34.0343351549,108.755139398,432.099,401.275,-0.0,0.774853,1.08467,0.0,2,0,0,0
81919058,34.0343334256,108.75513948,432.093,401.249,-0.0,0.774848,1.08441,0.0,2,0,0,0
82127798,34.0343315753,108.75513949,432.09,401.226,-0.0,0.775153,1.0844,0.0,2,0,0,0
82321317,34.0343298066,108.755139357,432.099,401.214,-0.0,0.77481,1.08479,0.0,2,0,0,0
82529872,34.0343279077,108.755139031,432.105,401.2,-0.0,0.775146,1.08478,0.0,2,0,0,0
82723544,34.0343260817,108.755138678,432.107,401.182,-0.0,0.774851,1.08428,0.0,2,0,0,0
82922296,34.0343242821,108.755138357,432.104,401.159,-0.0,0.774851,1.08491,0.0,2,0,0,0
83120821,34.0343224856,108.755138255,432.102,401.137,-0.0,0.77487,1.08466,0.0,2,0,0,0
83324425,34.0343205982,108.75513813,432.092,401.108,-0.0,0.774828,1.08441,0.0,2,0,0,0
83523064,34.0343187414,108.755138004,432.071,401.066,-0.0,0.774797,1.08416,0.0,2,0,0,0
83721772,34.0343168842,108.755137947,432.057,401.032,-0.0,0.774757,1.0848,0.0,2,0,0,0
83930272,34.0343149433,108.75513773,432.043,401.0,-0.0,0.775052,1.08479,0.0,2,0,0,0
84128932,34.0343131235,108.75513741,432.041,400.976,-0.0,0.775046,1.08454,0.0,2,0,0,0
84327589,34.0343113911,108.755137151,432.05,400.965,-0.0,0.774987,1.08429,0.0,2,0,0,0
84526247,34.034309594,108.755136753,432.053,400.949,-0.0,0.774919,1.08493,0.0,2,0,0,0
84719860,34.0343078326,108.755136417,432.055,400.93,-0.0,0.774501,1.08442,0.0,2,0,0,0
84928430,34.034305892,108.755136219,432.061,400.917,-0.0,0.774771,1.08442,0.0,2,0,0,0
85122103,34.0343041058,108.755135904,432.063,400.899,-0.0,0.774365,1.08481,0.0,2,0,0,0
85320742,34.0343023327,108.755135613,432.066,400.882,-0.0,0.774303,1.08456,0.0,2,0,0,0
85529351,34.0343004726,108.755135406,432.074,400.87,-0.0,0.774631,1.08456,0.0,2,0,0,0
85722985,34.0342987633,108.755135149,432.076,400.852,-0.0,0.774246,1.08495,0.0,2,0,0,0
85921623,34.0342970135,108.755134891,432.081,400.837,-0.0,0.774237,1.08469,0.0,2,0,0,0
86120280,34.0342951924,108.75513467,432.076,400.812,-0.0,0.774238,1.08443,0.0,2,0,0,0
86323866,34.0342933194,108.7551344,432.074,400.79,-0.0,0.774211,1.08505,0.0,2,0,0,0
86522504,34.0342914445,108.755134038,432.078,400.773,-0.0,0.774195,1.08477,0.0,2,0,0,0
86721143,34.0342896009,108.755133697,432.072,400.748,-0.0,0.774215,1.0845,0.0,2,0,0,0
86929717,34.0342877116,108.755133527,432.07,400.726,-0.0,0.774574,1.08448,0.0,2,0,0,0
87128352,34.0342859914,108.755133453,432.061,400.697,-0.0,0.774558,1.08511,0.0,2,0,0,0
87322026,34.034284371,108.755133348,432.055,400.67,-0.0,0.774198,1.08458,0.0,2,0,0,0
87520663,34.0342827517,108.755133225,432.045,400.64,-0.0,0.77416,1.08431,0.0,2,0,0,0
87729235,34.0342809672,108.755133116,432.035,400.611,-0.0,0.774454,1.08519,0.0,2,0,0,0
87927872,34.0342792188,108.755132969,432.028,400.583,-0.0,0.774408,1.0849,0.0,2,0,0,0
88126551,34.0342774211,108.755132766,432.026,400.562,-0.0,0.774343,1.08462,0.0,2,0,0,0
88315491,34.0342756908,108.755132575,432.019,400.534,-0.0,0.773944,1.08499,0.0,2,0,0,0
88528760,34.0342737959,108.75513235,432.021,400.517,-0.0,0.774187,1.08495,0.0,2,0,0,0
88722427,34.0342720889,108.755132105,432.027,400.503,-0.0,0.773772,1.08442,0.0,2,0,0,0
88921065,34.0342703674,108.755131877,432.029,400.484,-0.0,0.773688,1.08415,0.0,2,0,0,0
89129824,34.034268552,108.75513166,432.033,400.468,-0.0,0.773942,1.08503,0.0,2,0,0,0
89323308,34.0342668416,108.755131456,432.03,400.445,-0.0,0.773552,1.08451,0.0,2,0,0,0
89521947,34.0342650722,108.755131206,432.025,400.421,-0.0,0.773548,1.08425,0.0,2,0,0,0
89720585,34.0342632447,108.755130974,432.024,400.399,-0.0,0.773548,1.08488,0.0,2,0,0,0
89929315,34.0342613201,108.755130751,432.026,400.381,-0.0,0.773843,1.08486,0.0,2,0,0,0
90127796,34.034259488,108.755130542,432.037,400.372,-0.0,0.773815,1.0846,0.0,2,0,0,0
90321467,34.0342576957,108.755130336,432.05,400.365,-0.0,0.773451,1.08409,0.0,2,0,0,0
90530072,34.0342557205,108.755130085,432.058,400.353,-0.0,0.773728,1.08407,0.0,2,0,0,0
90728790,34.0342538447,108.755129907,432.059,400.334,-0.0,0.773731,1.0847,0.0,2,0,0,0
90927315,34.0342519519,108.755129706,432.051,400.307,-0.0,0.773745,1.08444,0.0,2,0,0,0
91125954,34.0342500512,108.755129411,432.049,400.284,-0.0,0.773771,1.08418,0.0,2,0,0,0
91319626,34.0342482726,108.755129135,432.051,400.266,-0.0,0.77343,1.08456,0.0,2,0,0,0
91528322,34.0342463976,108.755128952,432.053,400.247,-0.0,0.773737,1.08455,0.0,2,0,0,0
91726835,34.0342446547,108.755128904,432.047,400.223,-0.0,0.773717,1.08429,0.0,2,0,0,0
91930445,34.0342428275,108.755128837,432.044,400.199,-0.0,0.773734,1.08403,0.0,2,0,0,0
92124114,34.0342410794,108.755128757,432.043,400.179,-0.0,0.773427,1.08443,0.0,2,0,0,0
92322764,34.0342392924,108.755128664,432.048,400.163,-0.0,0.773481,1.08418,0.0,2,0,0,0
92521389,34.0342375168,108.755128558,432.054,400.149,-0.0,0.773531,1.08394,0.0,2,0,0,0
92720031,34.0342357739,108.755128468,432.057,400.132,-0.0,0.773539,1.08458,0.0,2,0,0,0
92923633,34.0342340223,108.755128272,432.061,400.117,-0.0,0.773545,1.08433,0.0,2,0,0,0
93122272,34.0342323349,108.755128154,432.062,400.097,-0.0,0.773538,1.08407,0.0,2,0,0,0
93330843,34.0342305869,108.75512809,432.06,400.075,-0.0,0.773862,1.08407,0.0,2,0,0,0
93529480,34.0342289907,108.755127938,432.049,400.045,-0.0,0.773869,1.08471,0.0,2,0,0,0
93728119,34.0342273713,108.755127766,432.033,400.008,-0.0,0.773886,1.08443,0.0,2,0,0,0
93926761,34.0342256624,108.755127634,432.023,399.979,-0.0,0.773926,1.08506,0.0,2,0,0,0
94125420,34.0342239068,108.755127476,432.029,399.966,-0.0,0.774,1.08477,0.0,2,0,0,0
94319069,34.0342220909,108.755127393,432.041,399.958,-0.0,0.773769,1.08515,0.0,2,0,0,0
94522677,34.0342202425,108.755127337,432.042,399.941,-0.0,0.77388,1.08485,0.0,2,0,0,0
94731246,34.0342182532,108.755127187,432.041,399.92,-0.0,0.774343,1.08481,0.0,2,0,0,0
94929883,34.0342164886,108.755127084,432.033,399.894,-0.0,0.774481,1.08453,0.0,2,0,0,0
95128575,34.0342147686,108.755126861,432.027,399.868,-0.0,0.774648,1.08516,0.0,2,0,0,0
95317404,34.0342131427,108.755126702,432.02,399.843,-0.0,0.774423,1.08462,0.0,2,0,0,0
95520871,34.0342113614,108.755126533,432.015,399.819,-0.0,0.774516,1.08433,0.0,2,0,0,0
95719472,34.0342096198,108.7551264,432.015,399.801,-0.0,0.774597,1.08494,0.0,2,0,0,0
95923077,34.0342078137,108.755126205,432.016,399.783,-0.0,0.774701,1.08466,0.0,2,0,0,0
96121870,34.034206005,108.755126103,432.016,399.766,-0.0,0.774744,1.08438,0.0,2,0,0,0
96330305,34.0342041824,108.755125991,432.015,399.747,-0.0,0.775111,1.08435,0.0,2,0,0,0
96528925,34.0342023833,108.755125856,432.011,399.723,-0.0,0.775172,1.08497,0.0,2,0,0,0
96727565,34.0342006379,108.755125686,432.002,399.696,-0.0,0.775187,1.08469,0.0,2,0,0,0
96926407,34.0341989209,108.755125484,432.001,399.677,-0.0,0.775198,1.08442,0.0,2,0,0,0
97119874,34.0341971434,108.755125239,432.006,399.665,-0.0,0.774871,1.0848,0.0,2,0,0,0
97318513,34.0341952966,108.755125024,432.016,399.658,-0.0,0.774877,1.08453,0.0,2,0,0,0
97527084,34.0341933954,108.755124801,432.035,399.659,-0.0,0.7752,1.08451,0.0,2,0,0,0
97725871,34.0341916081,108.755124585,432.045,399.653,-0.0,0.7752,1.08424,0.0,2,0,0,0
97924361,34.0341897655,108.755124402,432.05,399.639,-0.0,0.775196,1.08487,0.0,2,0,0,0
98127968,34.0341879944,108.755124191,432.05,399.622,-0.0,0.77518,1.0846,0.0,2,0,0,0
98321639,34.0341863176,108.755123974,432.053,399.607,-0.0,0.774873,1.08409,0.0,2,0,0,0
98520337,34.0341845766,108.755123774,432.057,399.592,-0.0,0.774949,1.08472,0.0,2,0,0,0
98723882,34.0341827644,108.755123593,432.057,399.576,-0.0,0.775027,1.08444,0.0,2,0,0,0
98922521,34.0341809942,108.755123463,432.058,399.56,-0.0,0.775084,1.08418,0.0,2,0,0,0
99121159,34.0341792094,108.755123395,432.059,399.545,-0.0,0.775132,1.08481,0.0,2,0,0,0
99329784,34.0341773087,108.755123313,432.072,399.541,-0.0,0.775492,1.08479,0.0,2,0,0,0
99528369,34.0341755153,108.755123296,432.086,399.537,-0.0,0.775503,1.08453,0.0,2,0,0,0
99722085,34.0341736635,108.755123306,432.084,399.518,-0.0,0.775166,1.08402,0.0,2,0,0,0
99920681,34.0341718389,108.755123315,432.075,399.492,-0.0,0.775127,1.08465,0.0,2,0,0,0
100119319,34.0341700608,108.755123255,432.073,399.474,-0.0,0.775112,1.08439,0.0,2,0,0,0
100327890,34.0341681831,108.755123171,432.068,399.453,-0.0,0.775381,1.08437,0.0,2,0,0,0
100526537,34.034166362,108.755123099,432.065,399.433,-0.0,0.775325,1.08411,0.0,2,0,0,0
100730135,34.0341644908,108.755123018,432.06,399.412,-0.0,0.775261,1.08474,0.0,2,0,0,0
100928804,34.0341627259,108.755122957,432.055,399.392,-0.0,0.775206,1.08448,0.0,2,0,0,0
101127411,34.0341609544,108.75512287,432.06,399.379,-0.0,0.775182,1.08423,0.0,2,0,0,0
101321085,34.0341592404,108.75512273,432.059,399.363,-0.0,0.774736,1.08461,0.0,2,0,0,0
101519722,34.0341574629,108.755122622,432.054,399.339,-0.0,0.774657,1.08436,0.0,2,0,0,0
101728294,34.0341555532,108.755122512,432.047,399.332,-0.0,0.774865,1.08435,0.0,2,0,0,0
101922012,34.0341537705,108.75512243,432.037,399.288,-0.0,0.774374,1.08385,0.0,2,0,0,0
102120605,34.0341519454,108.75512233,432.033,399.266,-0.0,0.774327,1.08449,0.0,2,0,0,0
102319432,34.0341501742,108.755122164,432.031,399.245,-0.0,0.77426,1.08425,0.0,2,0,0,0
102522848,34.0341483122,108.755121965,432.022,399.217,-0.0,0.77418,1.084,0.0,2,0,0,0
102721487,34.0341465259,108.755121796,432.021,399.198,-0.0,0.774089,1.08376,0.0,2,0,0,0
102920126,34.0341447795,108.755121619,432.019,399.179,-0.0,0.774,1.0844,0.0,2,0,0,0
103128700,34.0341429303,108.755121457,432.026,399.169,-0.0,0.7742,1.0844,0.0,2,0,0,0
103327378,34.0341412476,108.755121393,432.034,399.159,-0.0,0.774078,1.08416,0.0,2,0,0,0
103521008,34.0341395861,108.755121247,432.037,399.146,-0.0,0.773649,1.08455,0.0,2,0,0,0
103724613,34.0341377533,108.755121039,432.033,399.142,-0.0,0.773548,1.08431,0.0,2,0,0,0
103923443,34.0341359692,108.755120859,432.024,399.099,-0.0,0.773343,1.08406,0.0,2,0,0,0
104121892,34.0341341753,108.755120674,432.02,399.078,-0.0,0.773302,1.08382,0.0,2,0,0,0
104320529,34.0341323692,108.755120479,432.012,399.055,-0.0,0.773269,1.08447,0.0,2,0,0,0
104529103,34.0341304865,108.755120298,432.001,399.027,-0.0,0.773566,1.08447,0.0,2,0,0,0
104727864,34.0341286505,108.755120094,431.992,399.002,-0.0,0.773548,1.08423,0.0,2,0,0,0
104921412,34.0341268901,108.755119842,431.988,398.983,-0.0,0.773176,1.08374,0.0,2,0,0,0
105120051,34.034125065,108.755119729,431.987,398.967,-0.0,0.773171,1.08439,0.0,2,0,0,0
105323656,34.034123212,108.755119631,431.99,398.955,-0.0,0.773157,1.08415,0.0,2,0,0,0
105522460,34.0341214003,108.75511959,431.991,398.942,-0.0,0.773148,1.08391,0.0,2,0,0,0
105720933,34.0341195764,108.755119435,431.991,398.93,-0.0,0.77314,1.08368,0.0,2,0,0,0
105929505,34.0341176751,108.755119199,431.996,398.922,-0.0,0.773447,1.08457,0.0,2,0,0,0
106123177,34.0341158829,108.755118967,431.998,398.911,-0.0,0.773095,1.08408,0.0,2,0,0,0
106321841,34.0341140737,108.755118679,432.01,398.911,-0.0,0.773024,1.08384,0.0,2,0,0,0
106520475,34.0341122302,108.755118447,432.025,398.916,-0.0,0.772985,1.08449,0.0,2,0,0,0
106729027,34.0341103495,108.755118291,432.044,398.924,-0.0,0.773261,1.08449,0.0,2,0,0,0
106927671,34.0341085645,108.75511804,432.066,398.935,-0.0,0.773219,1.08425,0.0,2,0,0,0
107126376,34.0341067414,108.755117767,432.079,398.937,-0.0,0.773182,1.08401,0.0,2,0,0,0
107329909,34.0341049468,108.755117618,432.078,398.925,-0.0,0.773126,1.08466,0.0,2,0,0,0
107528547,34.0341032002,108.755117478,432.077,398.914,-0.0,0.773113,1.08442,0.0,2,0,0,0
107722219,34.03410152,108.755117352,432.071,398.898,-0.0,0.772746,1.08393,0.0,2,0,0,0
107920860,34.0340997992,108.755117294,432.067,398.883,-0.0,0.772719,1.08368,0.0,2,0,0,0
108119518,34.0340980701,108.755117292,432.066,398.872,-0.0,0.772732,1.08433,0.0,2,0,0,0
108328068,34.0340963195,108.755117203,432.069,398.865,-0.0,0.773053,1.08433,0.0,2,0,0,0
108521741,34.0340946616,108.755117175,432.064,398.851,-0.0,0.772718,1.08473,0.0,2,0,0,0
108730312,34.0340928652,108.755117168,432.064,398.84,-0.0,0.773019,1.08471,0.0,2,0,0,0
108928951,34.0340911611,108.755117201,432.062,398.828,-0.0,0.772989,1.08446,0.0,2,0,0,0
109122627,34.034089426,108.755117173,432.055,398.811,-0.0,0.772642,1.08397,0.0,2,0,0,0
109321265,34.0340876394,108.755117056,432.054,398.8,-0.0,0.772623,1.08372,0.0,2,0,0,0
109519901,34.0340858501,108.755116897,432.048,398.783,-0.0,0.772606,1.08436,0.0,2,0,0,0
109728517,34.034083977,108.755116749,432.037,398.762,-0.0,0.772914,1.08435,0.0,2,0,0,0
109922145,34.0340822125,108.755116478,432.032,398.748,-0.0,0.772557,1.08386,0.0,2,0,0,0
110130716,34.0340802963,108.755116279,432.037,398.745,-0.0,0.7729,1.08385,0.0,2,0,0,0
110329355,34.0340785067,108.755116036,432.05,398.75,-0.0,0.77293,1.08449,0.0,2,0,0,0
110527994,34.03407675,108.755115762,432.053,398.744,-0.0,0.772967,1.08423,0.0,2,0,0,0
110726632,34.034074956,108.755115506,432.052,398.735,-0.0,0.773011,1.08486,0.0,2,0,0,0
110925480,34.0340730876,108.7551153,432.053,398.727,-0.0,0.77305,1.0846,0.0,2,0,0,0
111128877,34.0340711768,108.755115129,432.051,398.718,-0.0,0.773098,1.08434,0.0,2,0,0,0
111327515,34.0340693274,108.755114937,432.06,398.72,-0.0,0.773151,1.08408,0.0,2,0,0,0
111531120,34.0340675309,108.755114796,432.072,398.724,-0.0,0.773209,1.08471,0.0,2,0,0,0
111729896,34.0340657211,108.755114766,432.074,398.717,-0.0,0.773273,1.08445,0.0,2,0,0,0
111928406,34.0340639219,108.755114605,432.065,398.7,-0.0,0.773327,1.08417,0.0,2,0,0,0
112122070,34.0340622025,108.755114395,432.056,398.684,-0.0,0.773037,1.08456,0.0,2,0,0,0
112320709,34.0340604201,108.755114197,432.04,398.659,-0.0,0.773044,1.08429,0.0,2,0,0,0
112519458,34.0340585945,108.755114005,432.027,398.639,-0.0,0.77307,1.08403,0.0,2,0,0,0
112722953,34.0340567591,108.755113811,432.022,398.628,-0.0,0.773033,1.08466,0.0,2,0,0,0
112921593,34.0340549621,108.755113629,432.014,398.613,-0.0,0.773026,1.0844,0.0,2,0,0,0
113130165,34.0340530606,108.755113463,432.01,398.603,-0.0,0.773333,1.08439,0.0,2,0,0,0
113328921,34.0340512403,108.755113322,432.001,398.588,-0.0,0.773269,1.08414,0.0,2,0,0,0
113527443,34.0340494964,108.755113214,431.994,398.575,-0.0,0.773198,1.08477,0.0,2,0,0,0
113726082,34.034047748,108.755113128,431.989,398.565,-0.0,0.773124,1.08451,0.0,2,0,0,0
113919756,34.0340460223,108.755113069,432.0,398.572,-0.0,0.772724,1.08401,0.0,2,0,0,0
114128401,34.0340441215,108.75511297,432.009,398.576,-0.0,0.772955,1.08399,0.0,2,0,0,0
114326964,34.0340423566,108.755112794,432.014,398.577,-0.0,0.77286,1.08463,0.0,2,0,0,0
114530567,34.0340405414,108.755112658,432.014,398.575,-0.0,0.772751,1.08437,0.0,2,0,0,0
114729207,34.0340387451,108.755112485,432.01,398.569,-0.0,0.772647,1.08412,0.0,2,0,0,0
114927845,34.0340368768,108.755112272,432.005,398.563,-0.0,0.772543,1.08387,0.0,2,0,0,0
115121519,34.034035158,108.755112126,432.009,398.565,-0.0,0.772121,1.08427,0.0,2,0,0,0
115320157,34.0340332877,108.755112043,432.017,398.572,-0.0,0.772021,1.08402,0.0,2,0,0,0
115523762,34.0340313775,108.755111925,432.024,398.579,-0.0,0.771923,1.08377,0.0,2,0,0,0
115722402,34.0340295396,108.755111888,432.037,398.592,-0.0,0.771839,1.08441,0.0,2,0,0,0
115926008,34.0340276851,108.755111917,432.05,398.605,-0.0,0.771755,1.08417,0.0,2,0,0,0
116124645,34.0340259041,108.75511188,432.056,398.611,-0.0,0.771671,1.08393,0.0,2,0,0,0
116323284,34.0340241338,108.755111778,432.06,398.615,-0.0,0.771621,1.08369,0.0,2,0,0,0
116521923,34.0340223637,108.755111679,432.059,398.615,-0.0,0.771567,1.08434,0.0,2,0,0,0
116720562,34.0340206468,108.755111477,432.062,398.619,-0.0,0.771487,1.0841,0.0,2,0,0,0
116919204,34.0340189057,108.755111375,432.062,398.62,-0.0,0.771405,1.08385,0.0,2,0,0,0
117127772,34.0340170628,108.755111241,432.059,398.619,-0.0,0.771653,1.08385,0.0,2,0,0,0
117326411,34.0340153607,108.755111092,432.065,398.626,-0.0,0.77158,1.08449,0.0,2,0,0,0
117525053,34.034013693,108.755111096,432.064,398.626,-0.0,0.771503,1.08425,0.0,2,0,0,0
117728655,34.0340119283,108.755111011,432.057,398.621,-0.0,0.771425,1.084,0.0,2,0,0,0
117927460,34.0340102215,108.755110884,432.048,398.614,-0.0,0.771347,1.08464,0.0,2,0,0,0
118125934,34.0340085791,108.755110685,432.04,398.608,-0.0,0.771281,1.0844,0.0,2,0,0,0
118319630,34.0340069545,108.755110465,432.036,398.605,-0.0,0.770895,1.08391,0.0,2,0,0,0
118523211,34.0340052235,108.755110292,432.036,398.606,-0.0,0.77084,1.08367,0.0,2,0,0,0
118721954,34.0340035564,108.755110067,432.04,398.611,-0.0,0.770795,1.0843,0.0,2,0,0,0
118930422,34.0340017149,108.755109853,432.039,398.609,-0.0,0.771061,1.08429,0.0,2,0,0,0
119129060,34.0339999334,108.755109684,432.031,398.601,-0.0,0.771004,1.08404,0.0,2,0,0,0
119322732,34.0339981617,108.755109503,432.027,398.598,-0.0,0.770639,1.08443,0.0,2,0,0,0
119521486,34.0339963294,108.755109318,432.034,398.605,-0.0,0.770599,1.08418,0.0,2,0,0,0
119720038,34.0339945203,108.755109181,432.034,398.606,-0.0,0.770554,1.08393,0.0,2,0,0,0
119928586,34.0339926397,108.755109079,432.037,398.609,-0.0,0.770808,1.0848,0.0,2,0,0,0
120127222,34.033990794,108.755108894,432.046,398.619,-0.0,0.770789,1.08453,0.0,2,0,0,0
120325911,34.033988984,108.755108698,432.06,398.635,-0.0,0.770785,1.08427,0.0,2,0,0,0
120529464,34.0339870726,108.755108361,432.071,398.647,-0.0,0.770796,1.08489,0.0,2,0,0,0
120728143,34.0339851752,108.75510798,432.073,398.65,-0.0,0.770842,1.08463,0.0,2,0,0,0
120921777,34.0339833172,108.75510775,432.071,398.649,-0.0,0.770543,1.08412,0.0,2,0,0,0
121120465,34.0339814727,108.755107673,432.07,398.649,-0.0,0.770573,1.08474,0.0,2,0,0,0
121328986,34.0339795985,108.755107752,432.072,398.651,-0.0,0.770943,1.08471,0.0,2,0,0,0
121522667,34.0339778768,108.755107798,432.08,398.658,-0.0,0.770695,1.0842,0.0,2,0,0,0
121726265,34.0339760423,108.755107774,432.078,398.656,-0.0,0.770771,1.08482,0.0,2,0,0,0
121924935,34.0339742721,108.755107655,432.065,398.643,-0.0,0.770848,1.08456,0.0,2,0,0,0
122123542,34.0339724554,108.755107486,432.049,398.625,-0.0,0.770928,1.0843,0.0,2,0,0,0
122322182,34.0339706217,108.755107396,432.03,398.607,-0.0,0.77102,1.08493,0.0,2,0,0,0
122520856,34.0339688661,108.755107341,432.02,398.596,-0.0,0.771088,1.08465,0.0,2,0,0,0
122729410,34.0339670236,108.755107297,432.017,398.594,-0.0,0.771406,1.08462,0.0,2,0,0,0
122928030,34.033965269,108.755107169,432.01,398.589,-0.0,0.771426,1.08435,0.0,2,0,0,0
123121703,34.0339635574,108.755107009,432.01,398.589,-0.0,0.77111,1.08473,0.0,2,0,0,0
123320342,34.0339618262,108.755106862,432.009,398.588,-0.0,0.771066,1.08446,0.0,2,0,0,0
123528914,34.033959986,108.755106742,431.997,398.577,-0.0,0.771369,1.08444,0.0,2,0,0,0
123727556,34.0339582298,108.755106713,431.98,398.562,-0.0,0.771305,1.08417,0.0,2,0,0,0
123926200,34.0339564268,108.755106644,431.974,398.558,-0.0,0.771222,1.0848,0.0,2,0,0,0
124129796,34.033954559,108.755106558,431.984,398.572,-0.0,0.771136,1.08453,0.0,2,0,0,0
124328440,34.033952748,108.755106447,431.995,398.587,-0.0,0.771062,1.08427,0.0,2,0,0,0
124522108,34.0339509236,108.755106308,432.001,398.597,-0.0,0.770667,1.08465,0.0,2,0,0,0
124720747,34.0339491217,108.755106154,432.009,398.61,-0.0,0.770603,1.0844,0.0,2,0,0,0
124919521,34.0339473059,108.755105905,432.024,398.63,-0.0,0.770581,1.08414,0.0,2,0,0,0
125123003,34.033945489,108.755105633,432.036,398.647,-0.0,0.770576,1.08389,0.0,2,0,0,0
125321633,34.0339437108,108.755105366,432.031,398.647,-0.0,0.770564,1.08452,0.0,2,0,0,0
125530204,34.0339418763,108.75510506,432.027,398.649,-0.0,0.770896,1.08449,0.0,2,0,0,0
125728982,34.0339401715,108.755104815,432.029,398.656,-0.0,0.770921,1.08423,0.0,2,0,0,0
125922513,34.0339384592,108.755104624,432.034,398.668,-0.0,0.770651,1.08461,0.0,2,0,0,0
126121152,34.0339366796,108.755104527,432.037,398.678,-0.0,0.770742,1.08436,0.0,2,0,0,0
126319792,34.0339348823,108.755104381,432.042,398.692,-0.0,0.770798,1.0841,0.0,2,0,0,0
126528473,34.0339329402,108.755104248,432.042,398.699,-0.0,0.771178,1.08408,0.0,2,0,0,0
126727003,34.0339310971,108.755104118,432.049,398.714,-0.0,0.771255,1.08471,0.0,2,0,0,0
126925642,34.0339292498,108.75510407,432.06,398.733,-0.0,0.771332,1.08443,0.0,2,0,0,0
127129246,34.033927372,108.755104018,432.067,398.748,-0.0,0.771411,1.08506,0.0,2,0,0,0
127327952,34.0339256162,108.755103874,432.067,398.755,-0.0,0.771456,1.08478,0.0,2,0,0,0
127526527,34.0339238518,108.755103735,432.06,398.756,-0.0,0.771515,1.08451,0.0,2,0,0,0
127720203,34.0339221319,108.755103578,432.048,398.751,-0.0,0.771233,1.084,0.0,2,0,0,0
127923802,34.033920303,108.75510346,432.037,398.746,-0.0,0.771256,1.08462,0.0,2,0,0,0
128122480,34.0339185291,108.755103295,432.026,398.742,-0.0,0.771273,1.08436,0.0,2,0,0,0
128331015,34.033916728,108.755103215,432.021,398.745,-0.0,0.771644,1.08435,0.0,2,0,0,0
128529651,34.0339150268,108.75510322,432.023,398.754,-0.0,0.771653,1.0841,0.0,2,0,0,0
128723368,34.0339133684,108.755103245,432.024,398.762,-0.0,0.771326,1.08448,0.0,2,0,0,0
128921965,34.0339116583,108.755103181,432.031,398.777,-0.0,0.771307,1.08422,0.0,2,0,0,0
129120602,34.0339099868,108.755103057,432.032,398.784,-0.0,0.771265,1.08484,0.0,2,0,0,0
129319242,34.0339083161,108.755102896,432.029,398.788,-0.0,0.7712,1.08457,0.0,2,0,0,0
129522846,34.033906536,108.755102717,432.024,398.79,-0.0,0.771129,1.08431,0.0,2,0,0,0
129721482,34.0339048097,108.7551025,432.019,398.791,-0.0,0.771041,1.08405,0.0,2,0,0,0
129930058,34.0339029774,108.75510227,432.013,398.791,-0.0,0.771258,1.08403,0.0,2,0,0,0
130128696,34.0339012342,108.755102001,431.999,398.783,-0.0,0.771158,1.08466,0.0,2,0,0,0
130327335,34.0338994235,108.755101777,431.998,398.788,-0.0,0.771082,1.0844,0.0,2,0,0,0
130525974,34.0338975517,108.755101567,432.007,398.804,-0.0,0.770969,1.08414,0.0,2,0,0,0
130724613,34.0338956455,108.755101316,432.022,398.824,-0.0,0.770858,1.08477,0.0,2,0,0,0
130928218,34.0338937031,108.755101077,432.034,398.842,-0.0,0.770735,1.08451,0.0,2,0,0,0
131126870,34.0338918486,108.755100806,432.045,398.858,-0.0,0.770618,1.08425,0.0,2,0,0,0
131325541,34.0338900454,108.755100521,432.048,398.867,-0.0,0.770503,1.08399,0.0,2,0,0,0
131529102,34.0338882172,108.755100287,432.052,398.877,-0.0,0.770377,1.08463,0.0,2,0,0,0
131722774,34.0338864751,108.755100084,432.057,398.888,-0.0,0.769948,1.08413,0.0,2,0,0,0
131921564,34.0338846714,108.755099973,432.065,398.902,-0.0,0.769836,1.08388,0.0,2,0,0,0
132120054,34.03388288,108.755099957,432.069,398.912,-0.0,0.769726,1.08452,0.0,2,0,0,0
132323657,34.0338810397,108.755099983,432.061,398.91,-0.0,0.76962,1.08427,0.0,2,0,0,0
132522297,34.0338792207,108.75509989,432.048,398.903,-0.0,0.769506,1.08403,0.0,2,0,0,0
132721055,34.0338774296,108.755099794,432.033,398.892,-0.0,0.769408,1.08379,0.0,2,0,0,0
132929510,34.0338755514,108.755099732,432.022,398.887,-0.0,0.769626,1.08467,0.0,2,0,0,0
133128146,34.033873785,108.755099691,432.015,398.884,-0.0,0.769532,1.08441,0.0,2,0,0,0
133326792,34.033871995,108.755099594,432.012,398.888,-0.0,0.769441,1.08416,0.0,2,0,0,0
133525529,34.0338701856,108.755099511,432.009,398.891,-0.0,0.769364,1.08479,0.0,2,0,0,0
133719098,34.033868414,108.7550994,432.009,398.897,-0.0,0.768975,1.08428,0.0,2,0,0,0
133922703,34.0338665457,108.755099232,432.009,398.903,-0.0,0.768947,1.08402,0.0,2,0,0,0
134121341,34.0338647752,108.755099122,432.012,398.913,-0.0,0.768893,1.08466,0.0,2,0,0,0
134329995,34.0338629119,108.75509888,432.018,398.926,-0.0,0.769195,1.08465,0.0,2,0,0,0
134528551,34.0338611943,108.755098661,432.023,398.937,-0.0,0.769176,1.0844,0.0,2,0,0,0
134727195,34.0338595106,108.755098539,432.03,398.951,-0.0,0.76911,1.08415,0.0,2,0,0,0
134920863,34.0338578366,108.755098434,432.037,398.965,-0.0,0.768728,1.08454,0.0,2,0,0,0
135119510,34.0338561471,108.755098244,432.034,398.968,-0.0,0.768669,1.08429,0.0,2,0,0,0
135323153,34.0338543578,108.755098099,432.034,398.976,-0.0,0.768604,1.08404,0.0,2,0,0,0
135521751,34.033852604,108.755097989,432.037,398.986,-0.0,0.768537,1.08379,0.0,2,0,0,0
135730318,34.0338507501,108.755097874,432.04,398.995,-0.0,0.768776,1.08379,0.0,2,0,0,0
135928976,34.0338489518,108.75509781,432.049,399.012,-0.0,0.768701,1.08443,0.0,2,0,0,0
136122630,34.033847185,108.755097782,432.058,399.028,-0.0,0.768313,1.08394,0.0,2,0,0,0
136321269,34.0338453542,108.755097701,432.066,399.043,-0.0,0.768247,1.0837,0.0,2,0,0,0
136519911,34.033843529,108.75509759,432.072,399.056,-0.0,0.768192,1.08434,0.0,2,0,0,0
136728479,34.0338416147,108.755097379,432.08,399.071,-0.0,0.768453,1.08434,0.0,2,0,0,0
136927118,34.0338397769,108.755097262,432.083,399.081,-0.0,0.768398,1.0841,0.0,2,0,0,0
137125759,34.0338379531,108.755097196,432.09,399.095,-0.0,0.768351,1.08385,0.0,2,0,0,0
137329362,34.0338361058,108.755097152,432.09,399.101,-0.0,0.76831,1.08449,0.0,2,0,0,0
137528003,34.0338342926,108.755096921,432.088,399.107,-0.0,0.768276,1.08424,0.0,2,0,0,0
137726641,34.0338325025,108.755096636,432.088,399.112,-0.0,0.768213,1.08399,0.0,2,0,0,0
137920314,34.0338307415,108.755096324,432.087,399.118,-0.0,0.767873,1.08438,0.0,2,0,0,0
138119136,34.033828975,108.755096107,432.082,399.119,-0.0,0.767848,1.08412,0.0,2,0,0,0
138322593,34.0338271415,108.755095952,432.071,399.114,-0.0,0.767814,1.08387,0.0,2,0,0,0
138521202,34.0338253685,108.755095848,432.064,399.112,-0.0,0.767787,1.08451,0.0,2,0,0,0
138729768,34.0338235116,108.755095671,432.064,399.118,-0.0,0.768087,1.08449,0.0,2,0,0,0
138928602,34.0338216889,108.755095485,432.055,399.115,-0.0,0.768095,1.08422,0.0,2,0,0,0
139122082,34.0338199489,108.755095316,432.055,399.122,-0.0,0.767793,1.0846,0.0,2,0,0,0
139320720,34.0338181541,108.75509524,432.063,399.135,-0.0,0.76785,1.08434,0.0,2,0,0,0
139529334,34.0338162862,108.755095137,432.062,399.139,-0.0,0.768189,1.08432,0.0,2,0,0,0
139728134,34.0338145244,108.755095022,432.059,399.143,-0.0,0.768213,1.08405,0.0,2,0,0,0
139921603,34.0338128203,108.75509491,432.061,399.151,-0.0,0.767959,1.08444,0.0,2,0,0,0
140120242,34.033811058,108.755094727,432.066,399.163,-0.0,0.768011,1.08417,0.0,2,0,0,0
140328815,34.0338091539,108.755094419,432.072,399.175,-0.0,0.768381,1.08414,0.0,2,0,0,0
140527567,34.0338073555,108.755094178,432.07,399.18,-0.0,0.768395,1.08476,0.0,2,0,0,0
140726093,34.0338055528,108.755094017,432.069,399.185,-0.0,0.768419,1.08449,0.0,2,0,0,0
140929700,34.0338037485,108.755093944,432.068,399.19,-0.0,0.768475,1.08422,0.0,2,0,0,0
141123370,34.0338020565,108.755093852,432.065,399.194,-0.0,0.768193,1.0846,0.0,2,0,0,0
141322114,34.0338002505,108.755093795,432.06,399.195,-0.0,0.76823,1.08433,0.0,2,0,0,0
141520648,34.0337984543,108.755093772,432.055,399.197,-0.0,0.768296,1.08408,0.0,2,0,0,0
141724301,34.0337965997,108.75509389,432.051,399.199,-0.0,0.768318,1.08471,0.0,2,0,0,0
141922892,34.0337948093,108.755093945,432.045,399.199,-0.0,0.768352,1.08445,0.0,2,0,0,0
142121555,34.033792973,108.755093879,432.036,399.197,-0.0,0.768377,1.0842,0.0,2,0,0,0
142330102,34.0337910912,108.755093779,432.028,399.194,-0.0,0.76871,1.08418,0.0,2,0,0,0
142523776,34.0337893457,108.755093689,432.023,399.195,-0.0,0.768414,1.08458,0.0,2,0,0,0
142722414,34.0337875914,108.75509355,432.023,399.203,-0.0,0.768431,1.08432,0.0,2,0,0,0
142921087,34.0337858328,108.755093314,432.039,399.226,-0.0,0.768441,1.08405,0.0,2,0,0,0
143124659,34.0337840607,108.755093116,432.05,399.245,-0.0,0.768449,1.08468,0.0,2,0,0,0
143323298,34.0337823414,108.755092929,432.059,399.261,-0.0,0.768468,1.08442,0.0,2,0,0,0
143521937,34.0337806255,108.755092735,432.058,399.266,-0.0,0.768484,1.08415,0.0,2,0,0,0
143730566,34.0337788415,108.755092553,432.044,399.259,-0.0,0.768806,1.08414,0.0,2,0,0,0
143929173,34.0337771794,108.755092316,432.026,399.248,-0.0,0.7688,1.08477,0.0,2,0,0,0
144122820,34.033775551,108.755092099,432.018,399.247,-0.0,0.76852,1.08426,0.0,2,0,0,0
144321460,34.0337738813,108.755091842,432.008,399.245,-0.0,0.768501,1.08401,0.0,2,0,0,0
144520099,34.0337721566,108.755091576,432.008,399.251,-0.0,0.768456,1.08464,0.0,2,0,0,0
144728670,34.0337703028,108.755091298,432.007,399.257,-0.0,0.768714,1.08463,0.0,2,0,0,0
144922394,34.0337685942,108.755090995,432.002,399.26,-0.0,0.768343,1.08413,0.0,2,0,0,0
145130914,34.0337667,108.755090679,431.993,399.259,-0.0,0.768604,1.08412,0.0,2,0,0,0
145329599,34.0337649251,108.755090425,431.988,399.261,-0.0,0.768547,1.08475,0.0,2,0,0,0
145523226,34.0337631679,108.755090289,431.983,399.265,-0.0,0.768237,1.08426,0.0,2,0,0,0
145721866,34.0337613977,108.755090141,431.985,399.275,-0.0,0.768222,1.08399,0.0,2,0,0,0
145920663,34.0337596263,108.755090015,431.999,399.299,-0.0,0.76822,1.08462,0.0,2,0,0,0
146119144,34.033757808,108.755090023,432.012,399.321,-0.0,0.768218,1.08436,0.0,2,0,0,0
146327715,34.0337558679,108.755089929,432.029,399.346,-0.0,0.768562,1.08434,0.0,2,0,0,0
146526354,34.0337539536,108.755089796,432.047,399.374,-0.0,0.768553,1.08408,0.0,2,0,0,0
146725137,34.0337520429,108.755089721,432.063,399.399,-0.0,0.768559,1.08471,0.0,2,0,0,0
146928600,34.0337501479,108.755089709,432.068,399.413,-0.0,0.768562,1.08444,0.0,2,0,0,0
147127238,34.0337483249,108.755089679,432.07,399.423,-0.0,0.768564,1.08418,0.0,2,0,0,0
147325877,34.0337464653,108.755089579,432.068,399.429,-0.0,0.768579,1.08481,0.0,2,0,0,0
147524621,34.033744621,108.755089431,432.069,399.438,-0.0,0.768593,1.08454,0.0,2,0,0,0
147728141,34.0337427874,108.755089262,432.075,399.453,-0.0,0.768581,1.08426,0.0,2,0,0,0
147921797,34.0337410837,108.755089084,432.079,399.465,-0.0,0.768308,1.08464,0.0,2,0,0,0
148130365,34.0337392851,108.755088857,432.078,399.472,-0.0,0.768681,1.08463,0.0,2,0,0,0
148329124,34.03373759,108.755088647,432.081,399.482,-0.0,0.768746,1.08437,0.0,2,0,0,0
148522678,34.033735926,108.755088437,432.084,399.494,-0.0,0.768503,1.08474,0.0,2,0,0,0
148721317,34.033734263,108.75508833,432.088,399.506,-0.0,0.768564,1.08447,0.0,2,0,0,0
148924923,34.0337324924,108.755088251,432.094,399.518,-0.0,0.768615,1.0842,0.0,2,0,0,0
149123604,34.0337307598,108.755088172,432.095,399.527,-0.0,0.768647,1.08394,0.0,2,0,0,0
149322205,34.033729013,108.755088096,432.091,399.53,-0.0,0.768709,1.08456,0.0,2,0,0,0
149530804,34.0337271437,108.755088038,432.081,399.525,-0.0,0.769075,1.08454,0.0,2,0,0,0
149729410,34.0337253046,108.755088029,432.072,399.523,-0.0,0.769086,1.08427,0.0,2,0,0,0
149928116,34.0337235182,108.755088007,432.058,399.515,-0.0,0.769094,1.08489,0.0,2,0,0,0
150126689,34.0337216973,108.755087901,432.05,399.513,-0.0,0.769085,1.08461,0.0,2,0,0,0
150320362,34.0337199185,108.755087808,432.049,399.519,-0.0,0.768752,1.08498,0.0,2,0,0,0
150519001,34.0337180763,108.755087687,432.058,399.535,-0.0,0.768723,1.08471,0.0,2,0,0,0
150727572,34.0337161634,108.755087535,432.074,399.558,-0.0,0.769009,1.08468,0.0,2,0,0,0
150926212,34.0337143116,108.755087354,432.089,399.579,-0.0,0.768971,1.0844,0.0,2,0,0,0
151129817,34.0337123867,108.755087191,432.095,399.592,-0.0,0.768936,1.08501,0.0,2,0,0,0
151323530,34.0337106541,108.755087052,432.081,399.584,-0.0,0.768547,1.08448,0.0,2,0,0,0
151522129,34.033708869,108.755086956,432.057,399.566,-0.0,0.7685,1.08421,0.0,2,0,0,0
151720778,34.0337070729,108.755086814,432.04,399.555,-0.0,0.768448,1.08483,0.0,2,0,0,0
151924373,34.0337052277,108.755086601,432.031,399.554,-0.0,0.768391,1.08454,0.0,2,0,0,0
152123012,34.0337033617,108.755086446,432.028,399.558,-0.0,0.768346,1.08426,0.0,2,0,0,0
152321652,34.0337014763,108.755086279,432.031,399.569,-0.0,0.768292,1.08488,0.0,2,0,0,0
152530223,34.0336996051,108.755086058,432.037,399.582,-0.0,0.768557,1.08485,0.0,2,0,0,0
152728862,34.0336978637,108.755085808,432.045,399.597,-0.0,0.768504,1.08457,0.0,2,0,0,0
152927504,34.0336961411,108.755085594,432.056,399.614,-0.0,0.768495,1.0843,0.0,2,0,0,0
153126140,34.0336944597,108.755085484,432.062,399.626,-0.0,0.768452,1.08492,0.0,2,0,0,0
153319859,34.0336927989,108.755085333,432.066,399.637,-0.0,0.768092,1.0844,0.0,2,0,0,0
153528385,34.0336910037,108.755085161,432.06,399.637,-0.0,0.76836,1.08438,0.0,2,0,0,0
153727181,34.0336892212,108.7550851,432.063,399.646,-0.0,0.768374,1.08411,0.0,2,0,0,0
153925665,34.0336874305,108.755085017,432.061,399.649,-0.0,0.768351,1.08474,0.0,2,0,0,0
154129268,34.0336856578,108.755084917,432.051,399.644,-0.0,0.768318,1.08447,0.0,2,0,0,0
154327910,34.0336839497,108.755084859,432.044,399.643,-0.0,0.768307,1.08421,0.0,2,0,0,0
154526674,34.033682235,108.75508487,432.039,399.643,-0.0,0.768296,1.08395,0.0,2,0,0,0
154720220,34.033680545,108.755084782,432.045,399.654,-0.0,0.767965,1.08434,0.0,2,0,0,0
154923825,34.0336786982,108.755084541,432.056,399.67,-0.0,0.767934,1.08408,0.0,2,0,0,0
155122466,34.0336768576,108.755084244,432.062,399.681,-0.0,0.767911,1.08471,0.0,2,0,0,0
155321162,34.033675039,108.755084108,432.07,399.694,-0.0,0.767889,1.08444,0.0,2,0,0,0
155529674,34.0336731257,108.755084055,432.07,399.697,-0.0,0.768177,1.08441,0.0,2,0,0,0
155728313,34.0336713331,108.755084,432.062,399.692,-0.0,0.768159,1.08503,0.0,2,0,0,0
155921987,34.0336695499,108.755083825,432.06,399.694,-0.0,0.767834,1.08451,0.0,2,0,0,0
156120707,34.0336677494,108.755083634,432.057,399.694,-0.0,0.767822,1.08423,0.0,2,0,0,0
156324232,34.0336658849,108.755083478,432.057,399.699,-0.0,0.767812,1.08485,0.0,2,0,0,0
156522870,34.0336641324,108.755083318,432.07,399.717,-0.0,0.767841,1.08459,0.0,2,0,0,0
156721543,34.0336624234,108.755083158,432.084,399.736,-0.0,0.767845,1.08433,0.0,2,0,0,0
156920197,34.0336607084,108.755082964,432.098,399.754,-0.0,0.76786,1.08406,0.0,2,0,0,0
157128719,34.0336588523,108.755082717,432.107,399.768,-0.0,0.768244,1.08493,0.0,2,0,0,0
157322392,34.0336571091,108.755082559,432.108,399.774,-0.0,0.767989,1.08441,0.0,2,0,0,0
157521032,34.0336552948,108.755082386,432.102,399.771,-0.0,0.768052,1.08414,0.0,2,0,0,0
157729655,34.0336534819,108.755082195,432.094,399.766,-0.0,0.768429,1.08411,0.0,2,0,0,0
157923276,34.0336517917,108.755082012,432.082,399.757,-0.0,0.768209,1.08449,0.0,2,0,0,0
158121928,34.0336500835,108.755081804,432.074,399.752,-0.0,0.768254,1.08422,0.0,2,0,0,0
158320555,34.0336483514,108.755081627,432.065,399.744,-0.0,0.768293,1.08396,0.0,2,0,0,0
158529126,34.0336464959,108.755081477,432.063,399.745,-0.0,0.768624,1.08483,0.0,2,0,0,0
158727765,34.0336446874,108.755081361,432.071,399.755,-0.0,0.768638,1.08456,0.0,2,0,0,0
158921494,34.0336428411,108.755081264,432.08,399.766,-0.0,0.768311,1.08405,0.0,2,0,0,0
159130009,34.0336408921,108.755081148,432.09,399.778,-0.0,0.768596,1.08404,0.0,2,0,0,0
159328648,34.0336390636,108.755081062,432.092,399.781,-0.0,0.768593,1.08467,0.0,2,0,0,0
159527288,34.0336372598,108.755080968,432.09,399.78,-0.0,0.76854,1.08441,0.0,2,0,0,0
159725927,34.0336354016,108.755080844,432.09,399.78,-0.0,0.768493,1.08415,0.0,2,0,0,0
159924759,34.0336335814,108.755080663,432.099,399.789,-0.0,0.768439,1.08479,0.0,2,0,0,0
160128171,34.0336316928,108.755080443,432.104,399.795,-0.0,0.768378,1.08453,0.0,2,0,0,0
160326810,34.0336298427,108.755080267,432.106,399.795,-0.0,0.768363,1.08427,0.0,2,0,0,0
160530418,34.0336279388,108.755080042,432.107,399.795,-0.0,0.768302,1.08402,0.0,2,0,0,0
160729235,34.0336261077,108.755079933,432.112,399.798,-0.0,0.768251,1.08466,0.0,2,0,0,0
160922732,34.0336243199,108.755079834,432.11,399.795,-0.0,0.76792,1.08414,0.0,2,0,0,0
161121367,34.0336225522,108.755079759,432.106,399.788,-0.0,0.76789,1.08476,0.0,2,0,0,0
161320002,34.0336208131,108.755079715,432.093,399.773,-0.0,0.767815,1.08447,0.0,2,0,0,0
161528711,34.0336189776,108.755079567,432.096,399.775,-0.0,0.768046,1.08442,0.0,2,0,0,0
161722251,34.0336172835,108.755079345,432.096,399.772,-0.0,0.767657,1.08479,0.0,2,0,0,0
161930821,34.0336155139,108.755079149,432.091,399.765,-0.0,0.767884,1.08476,0.0,2,0,0,0
162129461,34.0336138095,108.75507898,432.09,399.762,-0.0,0.767837,1.08448,0.0,2,0,0,0
162328210,34.0336120845,108.755078834,432.09,399.76,-0.0,0.767725,1.08509,0.0,2,0,0,0
162526740,34.0336103384,108.755078709,432.098,399.766,-0.0,0.76765,1.08479,0.0,2,0,0,0
162720412,34.0336086437,108.755078611,432.104,399.77,-0.0,0.767266,1.08516,0.0,2,0,0,0
162919052,34.0336068803,108.755078566,432.103,399.767,-0.0,0.767203,1.08487,0.0,2,0,0,0
163127794,34.0336049818,108.755078559,432.101,399.763,-0.0,0.767426,1.08483,0.0,2,0,0,0
163326262,34.0336031524,108.755078572,432.097,399.757,-0.0,0.767341,1.08454,0.0,2,0,0,0
163529867,34.0336012911,108.755078469,432.09,399.75,-0.0,0.767255,1.08426,0.0,2,0,0,0
163723542,34.0335995233,108.755078308,432.089,399.748,-0.0,0.766868,1.08464,0.0,2,0,0,0
163922183,34.0335977429,108.755078082,432.09,399.748,-0.0,0.766785,1.08437,0.0,2,0,0,0
164120819,34.033596043,108.755077771,432.087,399.744,-0.0,0.766737,1.0841,0.0,2,0,0,0
164324424,34.0335943127,108.755077547,432.085,399.741,-0.0,0.766648,1.08473,0.0,2,0,0,0
164523087,34.0335926219,108.755077374,432.078,399.733,-0.0,0.766613,1.08447,0.0,2,0,0,0
164721729,34.033590923,108.755077165,432.064,399.719,-0.0,0.766569,1.08421,0.0,2,0,0,0
164930273,34.0335891439,108.755076986,432.059,399.713,-0.0,0.766841,1.08418,0.0,2,0,0,0
165128919,34.033587406,108.755076846,432.056,399.71,-0.0,0.766801,1.0848,0.0,2,0,0,0
165322586,34.033585719,108.75507673,432.061,399.716,-0.0,0.766412,1.08428,0.0,2,0,0,0
165521220,34.0335839857,108.755076583,432.066,399.722,-0.0,0.76634,1.08401,0.0,2,0,0,0
165719864,34.0335821559,108.755076406,432.07,399.727,-0.0,0.766266,1.08463,0.0,2,0,0,0
165918504,34.0335803373,108.755076357,432.075,399.732,-0.0,0.766188,1.08436,0.0,2,0,0,0
166127076,34.0335784497,108.755076355,432.08,399.738,-0.0,0.76641,1.08433,0.0,2,0,0,0
166325714,34.0335766831,108.755076333,432.082,399.741,-0.0,0.766325,1.08494,0.0,2,0,0,0
166529360,34.0335748126,108.755076143,432.093,399.753,-0.0,0.766239,1.08466,0.0,2,0,0,0
166727965,34.0335730046,108.755075854,432.106,399.767,-0.0,0.766119,1.08438,0.0,2,0,0,0
166916862,34.0335712931,108.755075544,432.117,399.78,-0.0,0.765733,1.08476,0.0,2,0,0,0
167120271,34.0335694231,108.755075291,432.124,399.788,-0.0,0.765649,1.08449,0.0,2,0,0,0
167318912,34.0335675672,108.75507517,432.118,399.783,-0.0,0.765563,1.08422,0.0,2,0,0,0
167522514,34.0335657266,108.755075028,432.108,399.775,-0.0,0.765513,1.08396,0.0,2,0,0,0
167721303,34.0335639723,108.755074916,432.089,399.758,-0.0,0.765373,1.08458,0.0,2,0,0,0
167929725,34.0335621303,108.755074839,432.072,399.743,-0.0,0.765589,1.08456,0.0,2,0,0,0
168128365,34.0335604051,108.75507477,432.062,399.735,-0.0,0.765506,1.08429,0.0,2,0,0,0
168322039,34.0335586687,108.755074671,432.055,399.73,-0.0,0.765137,1.08467,0.0,2,0,0,0
168520848,34.0335567931,108.755074587,432.045,399.724,-0.0,0.765083,1.08439,0.0,2,0,0,0
168719319,34.0335549844,108.755074431,432.036,399.718,-0.0,0.765052,1.08413,0.0,2,0,0,0
168927887,34.0335531172,108.755074273,432.035,399.721,-0.0,0.765327,1.0841,0.0,2,0,0,0
169121560,34.0335513672,108.755074139,432.042,399.732,-0.0,0.765007,1.08449,0.0,2,0,0,0
169330245,34.0335494323,108.755073992,432.057,399.751,-0.0,0.765294,1.08445,0.0,2,0,0,0
169528771,34.0335475678,108.755073856,432.063,399.76,-0.0,0.765319,1.08418,0.0,2,0,0,0
169727410,34.0335456989,108.755073803,432.059,399.761,-0.0,0.765291,1.0848,0.0,2,0,0,0
169921083,34.0335439337,108.755073759,432.054,399.759,-0.0,0.764952,1.08428,0.0,2,0,0,0
170119754,34.0335422351,108.755073676,432.044,399.753,-0.0,0.764921,1.08401,0.0,2,0,0,0
170323328,34.033540509,108.755073587,432.034,399.746,-0.0,0.764894,1.08464,0.0,2,0,0,0
170521967,34.0335387168,108.755073576,432.028,399.743,-0.0,0.76491,1.08438,0.0,2,0,0,0
170725572,34.0335369123,108.755073564,432.019,399.737,-0.0,0.764891,1.08412,0.0,2,0,0,0
170924282,34.033535126,108.755073496,432.018,399.741,-0.0,0.764875,1.08386,0.0,2,0,0,0
171122851,34.0335333466,108.755073383,432.019,399.745,-0.0,0.764899,1.0845,0.0,2,0,0,0
171321489,34.0335315521,108.755073281,432.022,399.752,-0.0,0.764869,1.08424,0.0,2,0,0,0
171520129,34.0335297331,108.755073135,432.031,399.764,-0.0,0.764829,1.08399,0.0,2,0,0,0
171728710,34.0335278113,108.755073079,432.04,399.778,-0.0,0.765115,1.08486,0.0,2,0,0,0
171922414,34.033526015,108.755072989,432.059,399.801,-0.0,0.764752,1.08433,0.0,2,0,0,0
172121008,34.0335241982,108.755072755,432.069,399.815,-0.0,0.764699,1.08494,0.0,2,0,0,0
172329583,34.0335223296,108.75507254,432.076,399.825,-0.0,0.764936,1.08491,0.0,2,0,0,0
172528293,34.0335205775,108.75507233,432.085,399.838,-0.0,0.764846,1.08463,0.0,2,0,0,0
172726862,34.0335187684,108.755072101,432.096,399.854,-0.0,0.764803,1.08435,0.0,2,0,0,0
172925501,34.0335169742,108.755071869,432.109,399.871,-0.0,0.764729,1.08496,0.0,2,0,0,0
173129106,34.0335151548,108.755071622,432.116,399.882,-0.0,0.764701,1.08469,0.0,2,0,0,0
173327749,34.0335133743,108.755071344,432.116,399.886,-0.0,0.764678,1.08441,0.0,2,0,0,0
173526386,34.0335116415,108.755071124,432.109,399.882,-0.0,0.764659,1.08414,0.0,2,0,0,0
173720111,34.0335099412,108.75507102,432.094,399.871,-0.0,0.764297,1.08452,0.0,2,0,0,0
173918876,34.0335081845,108.755070915,432.079,399.859,-0.0,0.764265,1.08425,0.0,2,0,0,0
174122304,34.0335063625,108.755070779,432.067,399.85,-0.0,0.764239,1.08399,0.0,2,0,0,0
174320941,34.0335045713,108.755070606,432.059,399.846,-0.0,0.764206,1.08462,0.0,2,0,0,0
174524549,34.03350274,108.75507043,432.059,399.85,-0.0,0.764216,1.08437,0.0,2,0,0,0
174723342,34.0335010083,108.755070299,432.07,399.866,-0.0,0.764179,1.08412,0.0,2,0,0,0
174921825,34.0334992507,108.755070221,432.083,399.883,-0.0,0.764147,1.08387,0.0,2,0,0,0
175120464,34.0334974778,108.755070115,432.099,399.905,-0.0,0.764105,1.0845,0.0,2,0,0,0
175329036,34.0334956445,108.755070007,432.11,399.921,-0.0,0.76435,1.08449,0.0,2,0,0,0
175527815,34.033493912,108.755069912,432.118,399.932,-0.0,0.76429,1.08422,0.0,2,0,0,0
175721347,34.0334921882,108.755069823,432.114,399.932,-0.0,0.763928,1.0846,0.0,2,0,0,0
175924953,34.0334903726,108.755069719,432.092,399.914,-0.0,0.763896,1.08434,0.0,2,0,0,0
176123606,34.0334886315,108.755069507,432.081,399.907,-0.0,0.763824,1.08409,0.0,2,0,0,0
176322313,34.0334868678,108.755069271,432.075,399.906,-0.0,0.763748,1.08472,0.0,2,0,0,0
176520871,34.0334850882,108.755069039,432.074,399.909,-0.0,0.763669,1.08446,0.0,2,0,0,0
176719509,34.0334833167,108.755068817,432.078,399.918,-0.0,0.763588,1.0842,0.0,2,0,0,0
176928081,34.0334814027,108.755068543,432.087,399.933,-0.0,0.763815,1.08419,0.0,2,0,0,0
177126793,34.0334796177,108.755068362,432.099,399.95,-0.0,0.763743,1.08482,0.0,2,0,0,0
177330325,34.0334777874,108.755068233,432.106,399.962,-0.0,0.763666,1.08456,0.0,2,0,0,0
177528982,34.0334759558,108.755068193,432.105,399.966,-0.0,0.763588,1.08431,0.0,2,0,0,0
177722637,34.0334741819,108.755068228,432.099,399.965,-0.0,0.763214,1.0847,0.0,2,0,0,0
177921292,34.0334723728,108.755068229,432.1,399.971,-0.0,0.763147,1.08445,0.0,2,0,0,0
178119916,34.0334706465,108.755068107,432.095,399.971,-0.0,0.763078,1.0842,0.0,2,0,0,0
178323523,34.0334688679,108.75506796,432.089,399.971,-0.0,0.763019,1.08394,0.0,2,0,0,0
178522161,34.0334671097,108.755067811,432.092,399.979,-0.0,0.762974,1.0837,0.0,2,0,0,0
178730750,34.0334651891,108.755067596,432.099,399.992,-0.0,0.763215,1.08458,0.0,2,0,0,0
178929372,34.0334633959,108.75506737,432.107,400.006,-0.0,0.763171,1.08434,0.0,2,0,0,0
179128010,34.0334616076,108.755067097,432.111,400.015,-0.0,0.763133,1.08409,0.0,2,0,0,0
179326649,34.0334599154,108.75506684,432.111,400.021,-0.0,0.763101,1.08473,0.0,2,0,0,0
179525289,34.0334582123,108.755066562,432.104,400.019,-0.0,0.763075,1.08448,0.0,2,0,0,0
179728894,34.0334564641,108.755066394,432.093,400.014,-0.0,0.763016,1.08422,0.0,2,0,0,0
179927582,34.0334547005,108.755066228,432.084,400.01,-0.0,0.762966,1.08397,0.0,2,0,0,0
180126172,34.033452945,108.755066074,432.083,400.014,-0.0,0.762962,1.08462,0.0,2,0,0,0
180324841,34.0334511897,108.755065931,432.08,400.016,-0.0,0.762938,1.08437,0.0,2,0,0,0
180528416,34.03344943,108.7550659,432.087,400.028,-0.0,0.762923,1.08412,0.0,2,0,0,0
180722089,34.0334480085,108.755066241,432.089,400.036,-0.0,0.762603,1.0845,0.0,2,0,0,0
180920921,34.0334470095,108.75506716,432.096,400.049,-0.0,0.762634,1.08424,0.0,2,0,0,0
181119368,34.033446501,108.755068825,432.103,400.06,-0.0,0.762693,1.08488,0.0,2,0,0,0
181322973,34.0334463042,108.755070972,432.101,400.062,-0.0,0.76276,1.0846,0.0,2,0,0,0
181521612,34.0334461723,108.755073198,432.094,400.061,-0.0,0.762839,1.08434,0.0,2,0,0,0
181730187,34.0334460272,108.755075517,432.083,400.054,-0.0,0.763216,1.08432,0.0,2,0,0,0
181928823,34.0334459243,108.755077624,432.075,400.049,-0.0,0.763304,1.08405,0.0,2,0,0,0
182127461,34.0334458342,108.755079649,432.07,400.047,-0.0,0.763386,1.08467,0.0,2,0,0,0
182321158,34.033445766,108.755081501,432.069,400.049,-0.0,0.763166,1.08417,0.0,2,0,0,0
182519890,34.033445735,108.755083297,432.071,400.055,-0.0,0.763205,1.0839,0.0,2,0,0,0
182728345,34.0334456201,108.755085026,432.081,400.069,-0.0,0.763583,1.08478,0.0,2,0,0,0
182926985,34.0334454626,108.755086669,432.086,400.077,-0.0,0.76364,1.08451,0.0,2,0,0,0
183125623,34.033445301,108.755088308,432.09,400.084,-0.0,0.763712,1.08425,0.0,2,0,0,0
183324363,34.0334451751,108.755090016,432.095,400.093,-0.0,0.763813,1.08399,0.0,2,0,0,0
183527878,34.0334450468,108.755091842,432.101,400.101,-0.0,0.76396,1.08462,0.0,2,0,0,0
183721581,34.0334450442,108.755093663,432.106,400.109,-0.0,0.763802,1.0841,0.0,2,0,0,0
183920182,34.0334450096,108.755095532,432.104,400.109,-0.0,0.763953,1.08473,0.0,2,0,0,0
184118856,34.0334448883,108.755097495,432.105,400.113,-0.0,0.764152,1.08447,0.0,2,0,0,0
184322424,34.0334447036,108.755099526,432.102,400.112,-0.0,0.764301,1.0842,0.0,2,0,0,0
184521064,34.033444466,108.755101457,432.097,400.11,-0.0,0.764443,1.08394,0.0,2,0,0,0
184729635,34.0334443029,108.755103558,432.089,400.103,-0.0,0.764879,1.08393,0.0,2,0,0,0
184928320,34.0334441183,108.755105597,432.081,400.097,-0.0,0.764993,1.08456,0.0,2,0,0,0
185121948,34.0334439064,108.755107589,432.081,400.098,-0.0,0.764797,1.08406,0.0,2,0,0,0
185320586,34.0334437189,108.755109673,432.069,400.086,-0.0,0.764908,1.08381,0.0,2,0,0,0
185519225,34.0334434966,108.755111735,432.054,400.072,-0.0,0.765023,1.08444,0.0,2,0,0,0
185727814,34.0334432154,108.755113882,432.045,400.063,-0.0,0.765457,1.08443,0.0,2,0,0,0
185926436,34.0334429693,108.755115879,432.04,400.058,-0.0,0.765562,1.08418,0.0,2,0,0,0
186125076,34.0334427708,108.755117929,432.033,400.051,-0.0,0.76567,1.08393,0.0,2,0,0,0
186328680,34.0334425464,108.75512008,432.036,400.055,-0.0,0.765767,1.08456,0.0,2,0,0,0
186527320,34.0334422721,108.755122146,432.038,400.057,-0.0,0.765831,1.0843,0.0,2,0,0,0
186720992,34.0334420215,108.755124171,432.044,400.062,-0.0,0.765629,1.08381,0.0,2,0,0,0
186919631,34.0334418497,108.755126216,432.053,400.071,-0.0,0.76573,1.08445,0.0,2,0,0,0
187123237,34.0334416597,108.755128286,432.058,400.076,-0.0,0.765821,1.08421,0.0,2,0,0,0
187321878,34.0334415078,108.75513039,432.056,400.074,-0.0,0.765904,1.08397,0.0,2,0,0,0
187520517,34.0334412929,108.755132523,432.053,400.07,-0.0,0.765982,1.08372,0.0,2,0,0,0
187724120,34.0334410266,108.755134788,432.056,400.072,-0.0,0.766041,1.08437,0.0,2,0,0,0
187922768,34.0334407846,108.755136941,432.063,400.079,-0.0,0.766101,1.08413,0.0,2,0,0,0
188121398,34.0334405491,108.755139086,432.071,400.085,-0.0,0.76616,1.08389,0.0,2,0,0,0
188320038,34.0334403757,108.755141298,432.067,400.08,-0.0,0.766218,1.08453,0.0,2,0,0,0
188528609,34.033440241,108.755143561,432.055,400.066,-0.0,0.766569,1.08452,0.0,2,0,0,0
188727483,34.0334401356,108.755145735,432.051,400.06,-0.0,0.766616,1.08426,0.0,2,0,0,0
188920922,34.0334400653,108.755147819,432.045,400.053,-0.0,0.766349,1.08465,0.0,2,0,0,0
189129492,34.0334399284,108.755149911,432.056,400.062,-0.0,0.7667,1.08464,0.0,2,0,0,0
189328132,34.0334398036,108.755151872,432.069,400.074,-0.0,0.76675,1.08439,0.0,2,0,0,0
189526948,34.0334396684,108.755153868,432.076,400.08,-0.0,0.766791,1.08413,0.0,2,0,0,0
189725410,34.0334394733,108.755155846,432.078,400.08,-0.0,0.766823,1.08477,0.0,2,0,0,0
189929017,34.0334392391,108.755157975,432.077,400.076,-0.0,0.766812,1.08451,0.0,2,0,0,0
190122688,34.0334390318,108.755159985,432.077,400.074,-0.0,0.766548,1.08401,0.0,2,0,0,0
190321426,34.0334388028,108.755162014,432.079,400.074,-0.0,0.766584,1.08377,0.0,2,0,0,0
190529898,34.0334385504,108.755164155,432.087,400.08,-0.0,0.766921,1.08464,0.0,2,0,0,0
190723571,34.0334383175,108.755166101,432.093,400.083,-0.0,0.766654,1.08413,0.0,2,0,0,0
190922255,34.0334380987,108.755168054,432.099,400.086,-0.0,0.766691,1.08388,0.0,2,0,0,0
191120943,34.0334378769,108.75517005,432.1,400.083,-0.0,0.766749,1.08451,0.0,2,0,0,0
191329421,34.0334376166,108.755172274,432.094,400.074,-0.0,0.76712,1.08449,0.0,2,0,0,0
191523099,34.033437376,108.75517443,432.088,400.064,-0.0,0.766879,1.08399,0.0,2,0,0,0
191721733,34.0334371403,108.755176693,432.093,400.067,-0.0,0.766955,1.08462,0.0,2,0,0,0
191920396,34.0334368928,108.755178977,432.097,400.067,-0.0,0.767045,1.08437,0.0,2,0,0,0
192128943,34.0334366512,108.755181392,432.091,400.056,-0.0,0.767444,1.08436,0.0,2,0,0,0
192327654,34.0334364048,108.75518366,432.08,400.041,-0.0,0.767535,1.08411,0.0,2,0,0,0
192526222,34.0334361926,108.755185885,432.068,400.025,-0.0,0.767663,1.08474,0.0,2,0,0,0
192724925,34.0334360024,108.755188182,432.061,400.013,-0.0,0.767716,1.08449,0.0,2,0,0,0
192928467,34.0334358353,108.755190488,432.056,400.001,-0.0,0.767771,1.08423,0.0,2,0,0,0
193122139,34.0334356802,108.755192636,432.05,399.989,-0.0,0.767556,1.08462,0.0,2,0,0,0
193320778,34.0334354806,108.755194827,432.042,399.976,-0.0,0.767606,1.08436,0.0,2,0,0,0
193529349,34.0334352757,108.755197158,432.037,399.965,-0.0,0.767993,1.08436,0.0,2,0,0,0
193728032,34.0334351357,108.755199259,432.034,399.956,-0.0,0.768072,1.08411,0.0,2,0,0,0
193921662,34.033435001,108.755201307,432.044,399.961,-0.0,0.767825,1.08451,0.0,2,0,0,0
194130234,34.0334348404,108.755203474,432.059,399.97,-0.0,0.768209,1.08451,0.0,2,0,0,0
194328873,34.033434631,108.75520554,432.064,399.969,-0.0,0.768269,1.08426,0.0,2,0,0,0
194522545,34.0334344326,108.755207639,432.06,399.961,-0.0,0.768003,1.08378,0.0,2,0,0,0
194721184,34.0334341915,108.755209779,432.051,399.948,-0.0,0.768047,1.08442,0.0,2,0,0,0
194919826,34.0334339758,108.755211931,432.046,399.937,-0.0,0.76808,1.08418,0.0,2,0,0,0
195128394,34.0334337906,108.755214182,432.035,399.922,-0.0,0.768422,1.08418,0.0,2,0,0,0
195327033,34.0334335825,108.755216304,432.033,399.916,-0.0,0.768444,1.08394,0.0,2,0,0,0
195530639,34.0334333077,108.755218498,432.041,399.921,-0.0,0.768462,1.08458,0.0,2,0,0,0
195719529,34.033433087,108.755220505,432.036,399.913,-0.0,0.768143,1.08409,0.0,2,0,0,0
195922952,34.0334328112,108.755222642,432.031,399.905,-0.0,0.768171,1.08385,0.0,2,0,0,0
196121590,34.0334325661,108.755224634,432.036,399.909,-0.0,0.768209,1.08449,0.0,2,0,0,0
196320229,34.0334323293,108.755226589,432.051,399.924,-0.0,0.76824,1.08424,0.0,2,0,0,0
196519051,34.033432037,108.755228569,432.071,399.943,-0.0,0.768279,1.08399,0.0,2,0,0,0
196727439,34.0334317131,108.755230636,432.086,399.959,-0.0,0.76865,1.08398,0.0,2,0,0,0
196931045,34.0334313798,108.755232664,432.098,399.974,-0.0,0.768711,1.08461,0.0,2,0,0,0
197129684,34.0334309767,108.755234564,432.119,399.998,-0.0,0.768778,1.08434,0.0,2,0,0,0
197328456,34.0334306984,108.755236524,432.139,400.021,-0.0,0.768845,1.08497,0.0,2,0,0,0
197521996,34.0334305105,108.755238531,432.148,400.033,-0.0,0.768601,1.08445,0.0,2,0,0,0
197720635,34.0334303178,108.755240619,432.148,400.037,-0.0,0.768673,1.08419,0.0,2,0,0,0
197919275,34.0334300909,108.755242711,432.15,400.046,-0.0,0.768746,1.08393,0.0,2,0,0,0
198127943,34.0334298339,108.755244946,432.16,400.062,-0.0,0.769121,1.0848,0.0,2,0,0,0
198321519,34.0334295267,108.755247007,432.165,400.072,-0.0,0.768858,1.0843,0.0,2,0,0,0
198530090,34.0334292863,108.75524923,432.157,400.07,-0.0,0.769229,1.08429,0.0,2,0,0,0
198728729,34.0334291589,108.755251372,432.143,400.063,-0.0,0.769276,1.08403,0.0,2,0,0,0
198927422,34.0334289849,108.755253545,432.141,400.068,-0.0,0.769316,1.08466,0.0,2,0,0,0
199126013,34.0334288211,108.755255754,432.131,400.064,-0.0,0.769349,1.0844,0.0,2,0,0,0
199319680,34.0334287525,108.755257909,432.118,400.057,-0.0,0.769074,1.08391,0.0,2,0,0,0
199528251,34.0334286773,108.755260206,432.098,400.043,-0.0,0.76944,1.08478,0.0,2,0,0,0
199726917,34.0334286511,108.755262396,432.08,400.03,-0.0,0.769508,1.08451,0.0,2,0,0,0
199930495,34.0334286298,108.755264616,432.071,400.028,-0.0,0.76958,1.08424,0.0,2,0,0,0
200124169,34.0334286363,108.755266758,432.058,400.022,-0.0,0.76934,1.08463,0.0,2,0,0,0
200322811,34.0334286099,108.755268955,432.052,400.022,-0.0,0.769434,1.08437,0.0,2,0,0,0
200521446,34.033428601,108.755271234,432.047,400.024,-0.0,0.769525,1.08411,0.0,2,0,0,0
200720086,34.033428561,108.755273467,432.028,400.012,-0.0,0.769615,1.08475,0.0,2,0,0,0
200923691,34.0334284403,108.755275744,432.01,400.001,-0.0,0.769717,1.08449,0.0,2,0,0,0
201122333,34.033428339,108.755278011,431.996,399.993,-0.0,0.769834,1.08423,0.0,2,0,0,0
201330901,34.0334282083,108.755280282,431.987,399.991,-0.0,0.770251,1.08422,0.0,2,0,0,0
201529540,34.033427977,108.755282416,431.987,399.998,-0.0,0.770335,1.08397,0.0,2,0,0,0
201728181,34.0334278275,108.755284564,431.983,400.001,-0.0,0.770405,1.0846,0.0,2,0,0,0
201917081,34.0334276351,108.755286566,431.977,400.002,-0.0,0.770144,1.08411,0.0,2,0,0,0
202120492,34.0334273874,108.755288658,431.972,400.004,-0.0,0.770205,1.08385,0.0,2,0,0,0
