timestamp,timestamp_sample,accel_device_id,gyro_device_id,delta_angle[0],delta_angle[1],delta_angle[2],delta_velocity[0],delta_velocity[1],delta_velocity[2],delta_angle_dt,delta_velocity_dt,delta_velocity_clipping
79929202,79929068,4259850,4325386,0.000178954,8.12665e-05,-1.52966e-05,-0.00325887,-0.00158007,-0.0482467,4990,4977,0
79934246,79934072,4259850,4325386,4.75315e-05,0.000170628,3.15086e-05,-0.00146698,-0.00124998,-0.0486633,5004,5013,0
80432785,80432676,4259850,4325386,0.00079445,-0.000426378,-7.6887e-05,-0.00311975,-0.000939609,-0.0470466,4988,4932,0
80932238,80932114,4259850,4325386,-0.00079486,-9.27014e-05,0.000231619,-0.00690609,-0.005207,-0.0486956,4959,4938,0
81431421,81431287,4259850,4325386,-0.00122018,-0.000172783,-0.000316877,-0.00481308,0.000138537,-0.050419,4993,4970,0
81930301,81930181,4259850,4325386,-0.000456408,-0.000840802,0.00092535,-0.0043636,-0.000148549,-0.0504322,4967,4958,0
82429550,82429429,4259850,4325386,-0.000958988,0.000798443,-0.000743176,-0.00184414,-0.00576609,-0.0508214,5026,4913,0
82933566,82933385,4259850,4325386,-0.000340639,-0.000741598,-0.000790059,-0.00316662,0.00677297,-0.0565033,5003,5928,0
83432132,83431986,4259850,4325386,-0.000530438,0.000926156,-0.000647316,-0.0128446,-0.00891015,-0.0530695,4988,5008,0
83930963,83930798,4259850,4325386,-0.00242989,0.00251464,0.000137462,-0.0262919,-0.0104686,-0.0491958,4995,4942,0
84434690,84434583,4259850,4325386,-0.000857463,0.000818902,-0.00133049,-0.0141298,-0.0120209,-0.0486328,4975,4958,0
84928028,84927902,4259850,4325386,0.000465668,-0.000351452,0.000213919,-0.00654606,0.0150397,-0.0469,4987,4958,0
85431868,85431756,4259850,4325386,0.000150223,0.000533182,-0.000547283,-0.00369344,0.000971329,-0.0548706,4957,4665,0
85930607,85930498,4259850,4325386,0.000177708,0.000284205,-0.000470799,-0.00547107,-0.0427355,-0.0486085,4988,4937,0
86429333,86429136,4259850,4325386,-0.00149619,7.19655e-05,0.000184158,0.00154311,0.0336704,-0.0497395,4967,4773,0
86932761,86932645,4259850,4325386,0.00205649,8.425e-05,-0.000387145,0.00824833,0.00693717,-0.0427708,4989,4936,0
87431607,87431450,4259850,4325386,-0.000424018,-0.00279019,0.0011279,-0.00389893,0.0230973,-0.0528717,4988,4944,0
87930452,87930324,4259850,4325386,0.000505322,0.00109439,0.000167637,-0.00523747,0.00703602,-0.0471408,4976,4979,0
88429212,88429058,4259850,4325386,-8.42472e-05,-0.00110411,0.000446801,-0.00137787,0.0167875,-0.0572722,4981,4947,0
88933221,88932876,4259850,4325386,-0.00661037,0.000297195,-4.62423e-05,-0.00610241,-0.04812,-0.0503173,4998,4941,0
89431784,89431656,4259850,4325386,0.000931041,-0.00385189,5.15294e-05,-0.00384653,0.0147989,-0.0499327,4986,4927,0
89930612,89930461,4259850,4325386,-0.00115644,0.00135128,-0.000725932,0.00501292,-0.0429462,-0.0520274,4988,5007,0
90429376,90429267,4259850,4325386,0.000222486,-0.0039941,-0.00199829,0.00203037,0.00354542,-0.0481801,4982,4934,0
90933275,90933071,4259850,4325386,-0.000829575,0.00456621,9.09913e-05,-0.00208156,0.0210961,-0.0493014,4999,4997,0
91427440,91427327,4259850,4325386,-0.000173542,-0.00179006,0.000121851,-0.00749252,0.00145967,-0.0618257,4988,4939,0
91931249,91931120,4259850,4325386,0.000642111,0.00237843,-0.000586556,-0.00847226,-0.0524062,-0.0498996,4988,4939,0
92430033,92429924,4259850,4325386,0.000492606,0.00040953,0.00380683,-0.00182561,-0.00283823,-0.0448576,4986,4940,0
92929013,92928879,4259850,4325386,-0.0059808,0.00158367,0.00140803,0.00263403,-0.00392269,-0.0568571,4996,4936,0
93432937,93432774,4259850,4325386,-0.00222013,0.000358125,-0.00141043,-0.00205886,-0.00244305,-0.0623229,4969,4936,0
93931437,93931327,4259850,4325386,-0.00174826,-0.000982162,-0.00126024,0.00215771,-0.0115541,-0.0598159,4988,4938,0
94430248,94430133,4259850,4325386,-0.0016239,0.00172534,-3.43646e-05,-0.00253523,-0.0340587,-0.04507,4987,4710,0
94929313,94929192,4259850,4325386,0.000163562,-0.00142907,0.000393548,-0.00155969,0.00436866,-0.0454996,4966,4936,0
95427936,95427788,4259850,4325386,0.00047243,0.000299463,0.000100649,0.00751391,0.00500192,-0.0518238,4989,4970,0
95931738,95931542,4259850,4325386,0.00231949,0.000438826,-8.58204e-05,0.00503985,-0.0179073,-0.0420406,4993,4763,0
96430720,96430573,4259850,4325386,-0.0005243,0.00126147,-0.000569968,-0.00460118,-0.0402857,-0.0383116,4952,4676,0
96929272,96929147,4259850,4325386,0.00111083,-0.00145894,-0.00151792,-0.00275987,-0.0399091,-0.0338284,4988,4796,0
97433045,97432892,4259850,4325386,-0.00172576,0.00309442,-0.000277069,0.00200497,0.0062955,-0.0486285,4966,3949,0
97931457,97931298,4259850,4325386,0.000346489,-0.00378651,0.000135503,0.00177712,-0.00848376,-0.0335999,4991,4992,0
98435261,98435090,4259850,4325386,-0.000334954,0.00206148,-9.34661e-05,0.00495973,0.00637588,-0.0425566,4988,4938,0
98929218,98929099,4259850,4325386,-0.0122562,-0.000625372,0.000124799,-0.00973043,-0.0120376,-0.0546346,4973,4931,0
99427822,99427711,4259850,4325386,0.00114944,-0.00168428,-0.00136442,-0.00834184,-0.0295235,-0.0541914,4981,4955,0
99931768,99931571,4259850,4325386,0.00218184,0.00147369,-0.00144526,-0.00751907,-0.0454576,-0.0473997,4976,4972,0
100430623,100430473,4259850,4325386,0.000446616,-0.0001833,0.00166032,9.25109e-06,-0.00802608,-0.053137,4972,4938,0
100930026,100929919,4259850,4325386,-0.000926467,-0.000525145,0.000174694,0.00124383,-0.0180784,-0.0429157,4949,4761,0
101434124,101433989,4259850,4325386,-0.000899999,0.000576781,0.000135563,0.00850602,0.0218829,-0.0381071,4981,4712,0
101932833,101932697,4259850,4325386,-0.0016572,-0.000748164,2.44858e-05,-0.00461668,0.000804722,-0.0570387,4965,4937,0
102431688,102431477,4259850,4325386,0.00070123,-0.00063888,-0.00140372,0.00336395,-0.00318793,-0.0597687,4994,5944,0
102929461,102929330,4259850,4325386,0.000884269,-0.00313496,-6.51469e-05,-0.000267109,0.0400166,-0.0423699,4947,4938,0
103428443,103428304,4259850,4325386,0.00135014,0.000573592,-0.00113322,-0.0101923,-0.0552282,-0.0485983,4978,4975,0
103931526,103931381,4259850,4325386,0.000787692,-0.000817247,0.000259254,-0.00104515,0.00172515,-0.0435859,4949,4934,0
104430870,104430589,4259850,4325386,-0.00190169,0.000108068,-0.00022943,-0.00233167,-0.0111697,-0.0551355,4973,4988,0
104934099,104933979,4259850,4325386,-0.00154894,0.00151516,0.00101057,-0.00698735,0.00656611,-0.0515758,4988,5002,0
105431482,105431367,4259850,4325386,-0.00105542,0.000100271,0.000354524,-0.00495256,-0.000165114,-0.0394751,4949,4961,0
105929755,105929644,4259850,4325386,-0.000474919,0.00300375,-0.00024341,-0.00604294,-0.00565773,-0.0523911,4987,4937,0
106434184,106433474,4259850,4325386,0.000650212,0.000999666,-0.00192834,-0.00619301,-0.0525182,-0.070317,4980,6089,0
106931891,106931781,4259850,4325386,-0.000371287,-4.30058e-05,-0.00149927,-0.00473202,-0.0491366,-0.0499302,4936,4934,0
107430820,107430654,4259850,4325386,0.00133534,5.92794e-05,-0.000297436,-0.00367569,0.0209067,-0.0424698,4976,4933,0
107930163,107930052,4259850,4325386,9.71222e-05,2.96528e-05,-0.000218342,0.000648624,-0.00356218,-0.0521106,4966,4936,0
108433229,108433104,4259850,4325386,-0.000462346,-0.000246573,0.00104801,-0.00593247,-0.0235446,-0.0527377,4988,4936,0
108932502,108932017,4259850,4325386,0.00119587,0.000399235,0.000486946,-0.00037188,0.0275054,-0.0451325,4965,4960,0
109430927,109430766,4259850,4325386,0.000254157,-0.000223088,-0.000109316,0.00627536,0.0202799,-0.0372294,5037,4935,0
109929653,109929523,4259850,4325386,-0.00172084,0.00184705,-2.36856e-05,-0.00641815,-0.0229153,-0.0442799,4988,3950,0
110428609,110428417,4259850,4325386,-0.000256136,-0.000293053,0.000511658,-0.00833888,-0.00492449,-0.0588688,4964,4969,0
110932239,110932122,4259850,4325386,-0.000644199,-0.000893957,-0.000279575,0.00204382,-0.022777,-0.0446176,4988,4935,0
111431038,111430928,4259850,4325386,0.000318317,-0.000165365,-0.0014065,0.000146367,-0.00564561,-0.0578425,4988,4936,0
111930074,111929894,4259850,4325386,-0.0014995,0.00135481,0.000133447,0.00864516,0.0374511,-0.0547532,4979,4936,0
112433836,112433655,4259850,4325386,-0.000519986,-0.000742083,0.000282043,0.0047454,0.0421896,-0.0455111,4993,5002,0
112927454,112927347,4259850,4325386,-0.000890444,0.00060433,0.000450972,5.37318e-05,0.0042489,-0.0440387,4954,4112,0
113431319,113431169,4259850,4325386,0.000685083,0.000141915,-0.000601422,0.000239553,0.00552563,-0.0368835,4964,4986,0
113929270,113929144,4259850,4325386,0.00123965,-0.000914412,-0.000364916,0.00276449,-0.00258604,-0.0322794,4967,4934,0
114432873,114432764,4259850,4325386,-0.000933934,-0.000211689,0.000663821,-0.00682093,0.0269665,-0.0596559,5008,4897,0
114932238,114931552,4259850,4325386,-0.000336956,0.00287528,-0.00159931,-0.00291187,-0.0527418,-0.0604341,4987,5926,0
115430803,115430637,4259850,4325386,0.000791346,-0.000526031,-0.00118269,-0.00743895,-0.0341714,-0.05672,4989,4982,0
115934335,115934152,4259850,4325386,-0.00454083,0.00114002,0.000751099,-0.0116372,-0.0458932,-0.0620143,4984,5669,0
116428081,116427970,4259850,4325386,0.0045221,-0.00064878,0.000899806,-0.00420289,-0.0405611,-0.0358405,4984,4695,0
116932059,116931927,4259850,4325386,0.0022153,-0.00314724,0.000269537,-0.00300511,-0.0131454,-0.0397815,4953,4667,0
117431705,117430573,4259850,4325386,0.000527827,0.00137478,0.000179416,0.00482585,0.0388979,-0.0420811,4981,4939,0
117929572,117929385,4259850,4325386,-0.00619862,-0.00088691,-0.000582032,-0.00367382,-0.0148587,-0.0442581,4995,5925,0
118433778,118433457,4259850,4325386,-0.00194011,-0.00162555,0.000661663,-0.00391607,0.0276508,-0.0585236,4975,4941,0
118932090,118931979,4259850,4325386,0.000240691,0.00119335,-0.000507831,-0.0119873,-0.0596244,-0.0515094,4988,4937,0
119430894,119430786,4259850,4325386,0.00128156,-0.00186642,-0.00122513,-0.00404834,-0.0330326,-0.048887,4988,4966,0
119929823,119929668,4259850,4325386,-0.00246853,0.000641605,0.000413886,-0.00848027,0.00523477,-0.0580364,4964,4956,0
120428507,120428399,4259850,4325386,-0.00301263,0.00042102,0.000798428,-0.00566086,0.00832165,-0.0542354,4988,4938,0
120932583,120932248,4259850,4325386,-0.00212442,0.000865896,0.001463,-0.00467378,0.00589871,-0.0509624,5005,4944,0
121431159,121431031,4259850,4325386,0.00256847,-0.000191987,-6.5615e-05,-0.00508968,-0.0296812,-0.0559996,4962,4937,0
121934424,121934307,4259850,4325386,-0.00045981,-0.000765824,0.000270471,-0.011278,0.00683377,-0.0503854,4953,4940,0
122433533,122433424,4259850,4325386,-0.000784163,0.000756879,0.000170577,-0.00174818,0.0158026,-0.0385923,5059,4634,0
122932049,122931916,4259850,4325386,-0.000135671,-0.00134723,0.000141398,0.00345471,0.0405517,-0.0445024,4994,4939,0
123431316,123430720,4259850,4325386,-0.000911232,-0.00157427,0.00031954,-0.00185605,0.00962087,-0.0563241,4991,5808,0
123929780,123929652,4259850,4325386,-0.00105474,0.00218364,-0.000425901,-0.00143466,-0.009803,-0.054867,4978,4977,0
124428093,124427981,4259850,4325386,0.00833882,-4.40126e-06,-0.000537103,0.00237216,-0.0101343,-0.0449393,4980,4932,0
124932311,124932126,4259850,4325386,-0.000361982,-0.000287192,-0.00168504,-0.00248879,0.0482076,-0.0642118,4987,5926,0
125431338,125431174,4259850,4325386,-0.000564801,-0.000493386,-0.00574126,-0.00132195,-0.0073934,-0.0366171,4968,4947,0
125934847,125934731,4259850,4325386,-0.00138158,-0.000131556,-0.000146581,-0.00477937,0.014808,-0.0481243,4988,4942,0
126433649,126433536,4259850,4325386,0.00238033,0.00152906,-0.00183405,0.00125969,-0.0483894,-0.0499865,4988,4983,0
126927528,126927380,4259850,4325386,0.00163355,0.000449755,-0.00581585,-0.00690644,0.00707394,-0.035032,4962,4938,0
127430835,127430702,4259850,4325386,0.00529912,0.00297771,-0.00110673,0.0025265,-0.0218406,-0.0452792,4992,4973,0
127929676,127929543,4259850,4325386,-0.00108485,-0.000924174,0.000582047,0.00998199,0.0349499,-0.0589948,4967,4930,0
128433416,128433303,4259850,4325386,0.00201134,-0.00113764,-0.00194488,0.000895029,-0.0259642,-0.0354078,4988,4933,0
128932311,128932107,4259850,4325386,-0.0010547,0.00303094,-0.00148718,-0.0102014,-0.0521503,-0.0610655,4988,5930,0
129431258,129431103,4259850,4325386,0.0031958,3.83422e-05,-0.00300313,-0.00297125,-0.0310292,-0.0456563,5001,4937,0
129934990,129934863,4259850,4325386,-5.61483e-05,-0.000384195,-0.00226338,-0.00150107,-0.0345708,-0.0415448,5002,4939,0
130429126,130428980,4259850,4325386,0.000932901,-0.00088285,-0.00344051,0.000956137,0.00954467,-0.0471333,4988,4993,0
130928087,130927933,4259850,4325386,0.000428803,-0.000316655,-0.00583074,-0.00597214,-0.0286682,-0.0567617,4990,4971,0
131431704,131431584,4259850,4325386,-1.64977e-05,-0.00104396,-0.000138911,-0.00308111,0.00445362,-0.059248,4990,4938,0
131930513,131930389,4259850,4325386,-0.000534713,0.000283826,0.000916433,-0.00152288,-0.00167717,-0.0528038,4986,4933,0
132429345,132429200,4259850,4325386,0.000312881,-0.000376762,0.00104753,0.000130022,-0.00386708,-0.0455436,4992,4942,0
132932155,132931995,4259850,4325386,-0.000146678,-0.000496685,0.000481309,0.00717008,0.0260402,-0.0460134,4988,5920,0
133430554,133430309,4259850,4325386,0.000624772,-0.000898749,-0.000473847,0.00512852,-0.0309905,-0.042499,4995,4938,0
133929254,133929110,4259850,4325386,-0.000141949,0.000525336,-0.000635118,-0.00659601,-0.0596635,-0.0527615,4989,4945,0
134428195,134428046,4259850,4325386,-0.00302364,0.004286,0.000621776,-0.000423316,0.0154101,-0.045924,4970,4938,0
134931391,134931265,4259850,4325386,0.000397862,-6.45909e-05,-0.000530677,0.0040708,-0.0147643,-0.0488532,5039,4913,0
135429632,135429521,4259850,4325386,0.00188942,-0.000750205,-0.000917615,0.00510722,-0.0334232,-0.0450461,4988,4941,0
135932990,135932869,4259850,4325386,-0.00166871,-0.000110994,0.00185813,-0.00574925,-0.0394928,-0.0483038,4991,4956,0
136431783,136431673,4259850,4325386,-0.00219417,5.458e-05,0.00327792,0.00278798,0.0373679,-0.0503117,4987,4940,0
136930604,136930490,4259850,4325386,0.000478901,-0.000629538,0.000758242,0.00332563,0.0421175,-0.0459355,4996,4759,0
137429690,137429559,4259850,4325386,-0.00145299,0.00284966,8.60126e-05,0.0113886,0.0380671,-0.0442582,5258,4992,0
137928336,137928179,4259850,4325386,0.00294806,-0.000575341,0.00103049,-0.00212106,-0.0187365,-0.0395847,4986,4974,0
138431488,138431344,4259850,4325386,0.00471903,0.0010263,-0.000200364,-0.00654847,-0.0584568,-0.0461692,4988,4991,0
138930264,138930151,4259850,4325386,-0.00441009,-0.00127991,0.000238965,0.000336006,-0.0124241,-0.0435499,4982,4936,0
139433067,139432952,4259850,4325386,0.00495398,0.000142202,-0.000710165,0.00595463,0.00227112,-0.0382243,4990,4937,0
139932335,139932045,4259850,4325386,0.000218686,-0.000734112,0.00140967,0.00398098,0.0314404,-0.0419197,4972,4971,0
140431287,140431121,4259850,4325386,0.00168372,-0.00037249,0.00013816,-0.00463811,-0.064828,-0.0519211,4975,4970,0
140930118,140929889,4259850,4325386,0.000653573,0.000772722,0.00219686,-0.0105719,-0.0375161,-0.0469788,4983,4937,0
141429301,141429176,4259850,4325386,0.000657623,0.00108327,0.00199138,-0.00371068,-0.0618384,-0.0490546,4983,4937,0
141928912,141928714,4259850,4325386,0.00210901,-0.000259962,-0.000599831,0.00218501,-0.0496568,-0.0380307,4954,4955,0
142432464,142432357,4259850,4325386,-0.000211354,0.000708051,-4.97676e-06,-0.00869376,-0.0222469,-0.0526443,5020,4913,0
142931316,142931139,4259850,4325386,-0.000169138,-0.00012102,0.000260854,-0.00961948,-0.00489306,-0.053728,4982,4977,0
143430477,143430287,4259850,4325386,0.00289246,-0.000501187,-0.000237519,-0.000591793,-0.0102898,-0.0432239,4969,4969,0
143928863,143928749,4259850,4325386,-0.000288845,0.000120366,0.00106046,-0.000535436,0.00875872,-0.0539282,4988,5004,0
144427736,144427559,4259850,4325386,-0.000464876,0.000109203,0.000671492,-0.00536883,0.00879999,-0.0590148,4988,4964,0
144931644,144931528,4259850,4325386,-0.000202098,0.000195319,0.00120072,-0.00410816,0.00542544,-0.0563883,4975,4968,0
145430272,145430158,4259850,4325386,-0.000107596,0.000110129,0.000556115,-0.00436728,-0.0120823,-0.0583002,4988,4935,0
145928852,145928656,4259850,4325386,-0.000230116,0.00066809,0.000722601,-0.00383141,0.00329353,-0.0577978,4955,4962,0
146432385,146432214,4259850,4325386,0.00191599,0.000469758,0.000822986,-0.0029015,-0.0220515,-0.0451646,4988,5667,0
146931261,146931069,4259850,4325386,-0.000938093,0.00114368,-0.00083457,-0.00140232,-0.0287368,-0.0465248,4978,4977,0
147430278,147430152,4259850,4325386,-0.00106556,-0.00216766,6.27619e-05,-0.00250045,0.0115927,-0.0547608,4957,4779,0
147928775,147928641,4259850,4325386,-0.00122842,0.00185622,6.56716e-06,-0.00211649,-0.00314067,-0.057045,4992,4967,0
148432606,148432470,4259850,4325386,0.00234514,0.0011047,0.000354616,0.000124742,-0.0313145,-0.0505199,5026,4915,0
148930856,148930741,4259850,4325386,-0.00384926,0.000202115,0.00246247,0.00111888,0.0643478,-0.0536889,4984,4962,0
149429858,149429747,4259850,4325386,0.000559845,-0.00179933,0.000470473,0.00631511,0.0092219,-0.0401874,5000,4967,0
149933699,149933570,4259850,4325386,-0.00021425,-0.000616503,-0.000210579,-0.0011023,0.0203463,-0.0525123,4964,4940,0
150432324,150432193,4259850,4325386,-0.00178915,2.56721e-05,-0.000927759,0.00226634,-0.00254339,-0.0553286,5029,4913,0
150931335,150930961,4259850,4325386,-0.000925097,0.0011386,-0.000785968,-0.00526574,-0.0456086,-0.0547835,4980,4942,0
151430121,151429985,4259850,4325386,-0.00169938,-0.000899168,0.000945629,-0.00559615,0.0336591,-0.0573476,4976,4990,0
151928813,151928663,4259850,4325386,0.00258829,-0.000680968,-0.000328137,0.000284063,0.00555501,-0.0411675,4989,4935,0
152432480,152432372,4259850,4325386,-0.00220866,0.000666698,-0.000150826,-0.00323022,-0.0238891,-0.0530046,4988,4968,0
152931577,152931404,4259850,4325386,-0.000139424,0.00238007,-0.000301076,0.00443025,0.00216935,-0.0293141,5003,4898,0
153430118,153429986,4259850,4325386,0.00238871,-0.000472171,-0.000698765,-0.00782347,-0.024969,-0.0563681,4981,4937,0
153933905,153933783,4259850,4325386,-0.000299866,0.000857522,0.00025387,0.00501502,-0.0339597,-0.0502063,4990,4937,0
154432493,154432094,4259850,4325386,0.000530798,0.000793936,0.000788724,-0.00714462,-0.0376494,-0.0490425,4991,5001,0
154931009,154930899,4259850,4325386,0.00282507,-0.000428435,0.000856956,-0.00431084,-0.0338297,-0.0478552,4989,4698,0
155430083,155429927,4259850,4325386,-0.000945695,0.000560098,0.00178379,-0.00255025,0.0622677,-0.0524441,4977,4938,0
155928677,155928567,4259850,4325386,-0.00176935,0.00118569,0.00125659,0.00307567,0.0191778,-0.0484048,4981,4953,0
156432458,156432310,4259850,4325386,-0.00283146,0.00136895,0.00179038,-0.00479801,-0.0121887,-0.0535094,4988,4939,0
156931808,156931637,4259850,4325386,0.00132137,-0.000550879,0.00118509,0.00399645,0.0427058,-0.0396955,4984,4936,0
157430664,157430517,4259850,4325386,-0.000182733,0.000506042,-0.000439855,0.000521513,-0.025158,-0.0411209,4967,4939,0
157935352,157934222,4259850,4325386,0.000198771,0.000386225,-0.00434056,0.00231317,-0.0138933,-0.0434238,4991,4962,0
158428202,158428082,4259850,4325386,-0.00253307,-7.68152e-05,-0.000520208,9.58108e-05,0.00580203,-0.0443205,5030,4914,0
158931469,158931339,4259850,4325386,0.00145488,0.000133543,4.26545e-05,0.00546672,-0.00758303,-0.0504402,4800,4962,0
159430271,159430144,4259850,4325386,0.00223976,-0.00221357,-0.000911671,0.0016039,-0.0498016,-0.0416179,4988,4945,0
159929719,159929602,4259850,4325386,-0.00366984,0.0011913,0.000887148,-0.0021517,0.0263373,-0.0528636,4990,4946,0
160433388,160433277,4259850,4325386,0.000182342,-7.42674e-05,0.000229711,0.0023597,0.037884,-0.0494475,4966,4938,0
160932180,160932067,4259850,4325386,-0.000678482,-5.84612e-05,0.000430502,0.00279217,0.0117472,-0.04546,4997,4881,0
161430980,161430863,4259850,4325386,0.00130619,-0.000576035,-0.000840842,-0.00669273,-0.0375448,-0.0420554,4990,4938,0
161929881,161929772,4259850,4325386,0.00187122,0.000537131,-0.0023701,-0.00316462,-0.00242922,-0.043703,4983,4937,0
162429124,162428977,4259850,4325386,-0.000924896,2.28135e-05,-0.00601633,-0.00119357,0.00531323,-0.0389363,4992,4976,0
162932898,162932774,4259850,4325386,0.000362504,-0.000206684,-0.00170437,-0.00365247,0.0190726,-0.0377078,4990,4793,0
163431789,163431653,4259850,4325386,0.00464685,-0.00169332,-0.000416225,-0.00484956,-0.0182447,-0.0392023,5030,4927,0
163930521,163930390,4259850,4325386,-0.00260059,0.00163504,0.00146594,0.000312894,-0.000130797,-0.0622172,4990,4968,0
164434674,164434473,4259850,4325386,0.0024348,-0.00042287,-0.00133187,-0.00119111,-0.0161708,-0.0492804,5273,6037,0
164928117,164928005,4259850,4325386,-0.000355547,8.45151e-05,-0.000259847,-0.00626014,-0.0195205,-0.0443042,4987,3953,0
165431935,165431818,4259850,4325386,0.0001478,0.00264869,0.000276726,-0.00456943,0.0173194,-0.0455048,4972,4986,0
165931163,165930870,4259850,4325386,0.000349884,0.000875253,-0.000822317,0.00544455,0.00689217,-0.0393883,5248,5927,0
166430195,166430079,4259850,4325386,0.00068732,-0.000839538,-0.00579657,-0.000391603,0.0157008,-0.0459875,4953,4939,0
166928923,166928769,4259850,4325386,-0.00132794,-0.000476509,-0.00633732,-0.00241887,-0.0129613,-0.0511786,4987,4990,0
167432747,167432633,4259850,4325386,0.00118599,3.30068e-05,-0.0057801,0.00310311,-0.0145511,-0.045438,4988,4975,0
167931663,167931521,4259850,4325386,0.00185664,-0.00119025,-0.000116524,0.000814583,0.0227176,-0.0588375,4980,4975,0
168435295,168435172,4259850,4325386,0.00181726,-0.000409504,0.000189301,-0.00128129,-0.00529227,-0.0475835,4991,4941,0
168929131,168928989,4259850,4325386,-0.000926114,5.94908e-05,2.65552e-06,0.000143279,-0.0545774,-0.0456868,4988,4940,0
169428070,169427873,4259850,4325386,0.000581472,0.00088869,0.000296119,0.00526567,0.029472,-0.0496234,4962,4935,0
169932222,169932059,4259850,4325386,-0.00226122,0.0018718,-0.000660988,-0.00581853,-0.00390946,-0.0437366,4969,4974,0
170430537,170430408,4259850,4325386,-0.000938479,0.000359648,-0.000617897,-0.00635281,-0.0146993,-0.0644872,4982,4940,0
170934753,170934280,4259850,4325386,0.000645154,6.10311e-05,-0.00337319,0.00655007,-0.00576262,-0.0485246,4960,4967,0
171432611,171432480,4259850,4325386,0.00255243,-0.000570543,-0.00112183,0.00291549,-0.0288861,-0.0309573,4995,4985,0
171933194,171931605,4259850,4325386,-0.0018442,0.00216224,0.000876945,0.00334982,-0.00846979,-0.0724896,4973,5930,0
172430184,172430074,4259850,4325386,0.00153448,-0.0007312,0.000312302,0.00312534,0.00121819,-0.0377644,4986,4990,0
172929655,172929531,4259850,4325386,-0.000569404,0.000635805,0.00126522,-0.00776164,-0.0486721,-0.0485003,4988,4930,0
173432963,173432848,4259850,4325386,0.00038718,-2.51707e-05,0.000909878,-0.00126225,0.00119201,-0.0509406,4977,4979,0
173931594,173931486,4259850,4325386,-0.00103953,-0.000622425,0.000805506,-0.00205903,0.017057,-0.0506649,4985,4938,0
174430126,174429976,4259850,4325386,0.00139452,-0.000667702,0.000468363,0.00583435,0.0517755,-0.0462285,4966,4939,0
174933332,174933180,4259850,4325386,-0.00135819,0.000711647,0.000762634,0.00666542,0.0120379,-0.058577,4968,4963,0
175432302,175432141,4259850,4325386,-0.00277465,0.000308233,0.000755012,-0.000963249,-0.00253544,-0.0600226,4964,4936,0
175930832,175930712,4259850,4325386,-0.000929843,-0.00117987,0.000526024,-0.0044146,0.0402884,-0.0521485,4942,4935,0
176429629,176429517,4259850,4325386,-0.00112711,0.000705008,5.582e-05,-0.00330353,-0.0101648,-0.0389959,4988,4797,0
176928689,176928545,4259850,4325386,0.000413887,-0.00200991,0.00032965,-0.00452699,0.00442482,-0.0529567,4963,4976,0
177432297,177432120,4259850,4325386,0.00236767,-6.00221e-05,-0.00101323,-0.00127255,-0.0535377,-0.0450897,4982,5665,0
177931117,177930933,4259850,4325386,7.10361e-05,-0.000957937,0.000312331,0.0013565,0.00523549,-0.0568121,4992,5952,0
178430111,178429984,4259850,4325386,0.00166878,-0.000699087,-0.000580216,0.00202387,0.0114865,-0.0406436,4966,4963,0
178933164,178933054,4259850,4325386,0.00279401,0.00155735,0.000252402,0.00532524,0.0627915,-0.0531622,4951,4940,0
179427470,179427280,4259850,4325386,-0.0010249,-0.00113248,-0.00205177,-0.00107783,0.0192674,-0.0518673,5272,4936,0
179930765,179930650,4259850,4325386,0.000478831,-0.00115459,-0.00159517,0.00917854,0.0437183,-0.0512132,4988,4933,0
180429574,180429461,4259850,4325386,-0.00122319,0.000914291,0.00202406,-0.00628443,-0.0247549,-0.0535287,4990,4939,0
180933589,180933471,4259850,4325386,0.00211654,-0.000162037,0.002284,-0.00594722,-0.0275602,-0.0386619,4979,4940,0
181432174,181432065,4259850,4325386,-0.00144952,-0.0001318,0.000197737,0.000387938,-0.0211225,-0.0441807,4985,4963,0
181931157,181930932,4259850,4325386,-4.02906e-05,6.26996e-06,-0.00114397,-0.00624828,-0.0496482,-0.0455737,4999,4980,0
182434985,182434846,4259850,4325386,-0.00459877,0.000599791,0.00108942,-0.00636428,-0.00132837,-0.0647886,4982,4940,0
182928620,182928492,4259850,4325386,0.00266527,-0.000129973,-0.00103736,-0.00176857,-0.0240031,-0.0458532,4946,4940,0
183432401,183432286,4259850,4325386,-0.00180274,-0.000479574,0.000319386,-0.0030616,0.0163403,-0.0537093,4991,4941,0
183931392,183931258,4259850,4325386,0.00317246,0.000581015,-0.000544976,-0.00204928,-0.0355751,-0.0512188,4960,4945,0
184430344,184429903,4259850,4325386,-0.00531852,0.000935742,8.77025e-05,-0.00411451,0.0222573,-0.0621075,4992,5774,0
184934052,184933940,4259850,4325386,-0.00216965,-4.39543e-05,0.000680684,-0.00510054,0.0053478,-0.0460381,5043,4742,0
185432825,185432636,4259850,4325386,-0.000134819,-0.000129869,8.4576e-05,6.12909e-05,-0.0312483,-0.0543255,4973,4944,0
185931429,185931315,4259850,4325386,0.000884311,0.00160111,-9.49224e-05,-0.00330836,-0.00791149,-0.0426141,4989,4977,0
186430239,186430120,4259850,4325386,-0.000930717,-0.00281119,0.00123191,0.0108633,0.0595255,-0.0538789,4980,4977,0
186929268,186929127,4259850,4325386,0.00327983,-0.000636984,-0.000625568,0.00334154,-0.0137073,-0.0351985,4991,4782,0
187433017,187432821,4259850,4325386,0.00153258,-0.000190045,-6.19142e-05,-0.00161475,0.00491998,-0.0430238,4990,4991,0
187931647,187931535,4259850,4325386,-0.00021483,-0.000190992,-0.000271092,0.000110957,-0.00645137,-0.0476909,4986,4971,0
188430554,188430427,4259850,4325386,-0.00507742,-0.000999911,0.000924697,-0.00314746,-0.0161999,-0.0509632,4973,4938,0
188933812,188933694,4259850,4325386,0.000759107,0.000377541,-0.000212742,0.00127015,-0.0312288,-0.0386877,4991,4938,0
189428074,189427958,4259850,4325386,0.000115993,-0.000349305,0.00044911,-0.00584191,-0.00283846,-0.0572848,4987,4937,0
189932175,189932008,4259850,4325386,0.00209053,-0.00238603,-0.000799764,-0.00203049,-0.0264776,-0.0501946,4967,4965,0
190430743,190430567,4259850,4325386,0.0006613,-0.000258562,0.000251066,0.00813295,0.046776,-0.0461383,4989,4785,0
190929501,190929387,4259850,4325386,0.000458884,0.000563034,-0.000548415,0.0010548,-0.0423839,-0.0533342,5000,4891,0
191433338,191433182,4259850,4325386,-0.000712107,0.000121353,0.000158362,0.0001556,0.0057243,-0.0592492,4964,4987,0
191932088,191931976,4259850,4325386,-0.0020198,0.000559481,0.000485114,-0.00291276,-0.0413734,-0.0536049,4987,4939,0
192430544,192430376,4259850,4325386,-0.0015862,-0.00113053,0.000220485,-0.00183146,0.0204431,-0.0504117,4967,4937,0
192934311,192934133,4259850,4325386,-0.00197098,4.61431e-05,0.000908465,-0.00189662,0.0506343,-0.0511514,4990,4943,0
193428084,193427950,4259850,4325386,0.00031453,9.71736e-05,-0.000137483,0.00516346,0.0356449,-0.0379171,4955,4940,0
193932007,193931859,4259850,4325386,-0.00162824,8.88874e-05,-0.00354044,-0.00394453,-0.0365428,-0.0602652,4987,4987,0
194430719,194430577,4259850,4325386,0.00131718,-2.80732e-05,-0.00292472,0.00592006,0.0588819,-0.0462548,4940,4931,0
194929495,194929363,4259850,4325386,0.00187682,-0.000115627,-0.00334839,0.00341986,0.0541166,-0.0390736,4988,4938,0
195433275,195433161,4259850,4325386,0.000620592,-0.000852694,-0.00140522,0.00162364,0.00642853,-0.0435678,4991,4987,0
195932116,195931967,4259850,4325386,0.00519891,-0.000264942,0.000405622,0.00485329,-0.0139798,-0.0434798,4988,4938,0
196431151,196430782,4259850,4325386,0.00483847,-0.0005399,-0.00237779,0.000219819,-0.0161219,-0.0420224,4994,4964,0
196929810,196929695,4259850,4325386,-0.000161244,1.70291e-05,-0.0059939,-0.00530676,-0.0529914,-0.0445522,4929,4936,0
197428667,197428543,4259850,4325386,-0.00128844,0.00021953,-0.00323808,-0.00615075,-0.00485118,-0.0548569,4990,4939,0
197932777,197932645,4259850,4325386,6.42409e-05,-0.0004818,-0.00243021,0.00316628,-0.0229414,-0.0396554,4993,4992,0
198431718,198431608,4259850,4325386,0.000517191,0.000297933,-0.00249162,-0.000791003,-0.00347327,-0.0420531,4978,4934,0
198930384,198930263,4259850,4325386,-0.00118189,-0.000499453,0.00110223,0.00125682,0.0157095,-0.043677,4993,4969,0
199434555,199434338,4259850,4325386,-0.000202466,0.00067639,-0.00164121,0.000687547,0.000577476,-0.0619115,5273,6157,0
199934145,199932866,4259850,4325386,-0.0025778,0.000812584,-0.00128456,-0.00640235,0.0103651,-0.057827,4992,4968,0
200431841,200431720,4259850,4325386,0.000253772,-0.000267441,0.000600681,-0.00708768,0.0181803,-0.0599156,4918,4935,0
200931035,200930816,4259850,4325386,0.00208103,-0.00195594,-0.000873028,-0.0030468,-0.0397538,-0.0483208,4983,5928,0
201429437,201429289,4259850,4325386,-0.00193465,0.00151921,0.000367665,-0.00521951,-0.0342862,-0.0452329,4988,4938,0
201933202,201933086,4259850,4325386,-0.00114592,-0.000505741,-3.02823e-05,-0.00110291,0.00724866,-0.0560101,4988,4939,0
202432803,202432116,4259850,4325386,0.00179381,0.000546343,-0.00341579,-0.00592939,-0.0664218,-0.0549349,4959,4944,0
202929845,202929703,4259850,4325386,0.000148431,0.000434917,-0.000342464,0.00800775,-0.00461888,-0.0460239,4985,4933,0
203433632,203433499,4259850,4325386,-0.00121352,-0.000201749,0.00149418,0.00566612,0.0390674,-0.0545503,4988,4959,0
203927979,203927867,4259850,4325386,0.000390152,0.000834847,9.07914e-05,-0.00955947,-0.0103419,-0.0540691,4988,4962,0
204431783,204431669,4259850,4325386,0.000866403,0.000157512,0.00201828,-0.000349176,0.00838918,-0.0373562,4992,4763,0
204930850,204930697,4259850,4325386,-0.00036995,-0.00154516,0.00129973,-0.000218534,0.00795072,-0.0549216,4976,4955,0
205429480,205429371,4259850,4325386,-0.00103757,0.000450168,-0.000103436,-0.00236034,-0.0451205,-0.0479375,4976,4937,0
205932713,205932589,4259850,4325386,-0.00257593,0.000607841,0.00126366,0.00225709,0.0348258,-0.0593634,5047,4927,0
206431464,206431339,4259850,4325386,0.00282462,0.000208293,0.000254586,-0.000476653,-0.00593104,-0.046955,4988,4972,0
206930415,206930234,4259850,4325386,2.64021e-05,0.000413321,0.000717877,0.00268423,0.00835174,-0.0471906,4960,4940,0
207429142,207428958,4259850,4325386,4.69277e-05,0.000124341,0.00175618,0.00924964,0.0229745,-0.0429692,4988,4708,0
207927876,207927764,4259850,4325386,-0.00108425,0.000282164,0.00133155,-0.000992994,0.0212753,-0.0601191,4991,4936,0
208431214,208431086,4259850,4325386,-0.00212497,0.000457173,0.000534863,-0.000270651,-0.0186247,-0.0513505,4988,4939,0
208930001,208929871,4259850,4325386,-0.000557408,0.000884068,0.000129125,-0.000674857,-0.0054207,-0.0447641,4989,4939,0
209433839,209433668,4259850,4325386,-0.00199136,-0.000256657,0.000294254,0.00218,0.0222533,-0.0473736,4987,4981,0
209932602,209932477,4259850,4325386,-0.00150131,0.000887245,0.000292741,-0.00175813,0.02515,-0.0542419,4989,4961,0
210431398,210431288,4259850,4325386,0.00130357,0.000163962,-0.000466275,0.00285481,-0.0206331,-0.0410719,4990,4937,0
210930508,210930186,4259850,4325386,0.000290899,-0.000551133,0.000835283,0.00813204,0.0507238,-0.0473987,4954,4931,0
211429238,211429066,4259850,4325386,-0.00169745,-0.00079144,-0.000474882,0.0034965,-0.00148361,-0.058539,4996,4996,0
211932818,211932698,4259850,4325386,0.000873798,0.000753307,-0.000663628,-0.000676159,-0.0234856,-0.04052,4988,4940,0
212431658,212431539,4259850,4325386,-0.000752927,5.8679e-06,0.000849033,0.00215095,0.0419599,-0.0514196,5018,4902,0
212930800,212930596,4259850,4325386,-0.000670699,-0.000270545,-0.000140577,-0.00519576,-0.0552577,-0.0578516,5269,5793,0
213433797,213433615,4259850,4325386,-0.00143148,0.000902713,0.0015422,-0.00627348,-0.0685272,-0.0473842,4986,4939,0
213932555,213932421,4259850,4325386,-0.00090553,3.06983e-05,0.00157741,0.0002674,0.0286397,-0.0458136,4987,4977,0
214431340,214431230,4259850,4325386,0.000588044,-0.00154387,-0.000692487,0.00740346,0.025363,-0.0397021,4988,4927,0
214930261,214930144,4259850,4325386,0.00097965,0.000859698,-0.00082553,0.0162925,0.000259774,-0.0413907,4990,4984,0
215428969,215428845,4259850,4325386,-0.00298407,0.000554913,0.00058182,-0.000167589,0.0031683,-0.0607426,4987,4935,0
215932840,215932645,4259850,4325386,-0.00186872,0.00133131,-0.000225368,-0.00810174,-0.0400781,-0.0588994,4954,4941,0
216432069,216431958,4259850,4325386,-0.000307411,0.000565546,0.000945595,0.00201791,0.00655271,-0.0534027,4990,4967,0
216931082,216930969,4259850,4325386,0.00123235,-0.000294429,0.00146582,0.00987005,0.0563416,-0.043931,5000,4967,0
217434865,217434726,4259850,4325386,-0.000471065,-0.0011436,0.000472522,0.00271216,0.026519,-0.0425335,4977,4938,0
217928496,217928381,4259850,4325386,-0.00190913,3.59206e-05,0.000843075,0.00873951,0.0520302,-0.0449113,4941,4936,0
218432300,218432175,4259850,4325386,0.000495219,-0.000410903,0.000262909,0.00356347,0.0434281,-0.0453957,4989,4982,0
218931375,218931143,4259850,4325386,-0.00201158,0.000153612,0.000463459,-0.00888576,0.0250524,-0.0577229,4969,4978,0
219429996,219429883,4259850,4325386,-0.00310028,0.000514973,0.00141125,-0.000397898,0.0194465,-0.0510651,4978,4937,0
219934226,219934083,4259850,4325386,0.00111547,1.39305e-06,0.000660398,-0.00238432,0.0256571,-0.0381669,4944,4940,0
220433441,220432979,4259850,4325386,-9.70155e-05,0.000249501,-0.000457045,0.00460508,-0.00390577,-0.0458927,4956,4760,0
220931927,220931798,4259850,4325386,-0.00167401,0.00115736,0.00138522,0.00622655,0.0541254,-0.0503773,4983,4975,0
221430630,221430513,4259850,4325386,0.00183944,-0.000219257,-0.00092917,0.00394896,0.0192821,-0.0487738,4988,4943,0
221929444,221929331,4259850,4325386,-0.000725742,0.000117347,0.00184192,0.000941326,-0.0234632,-0.0492489,4997,5661,0
222428291,222428150,4259850,4325386,0.00158392,-4.33912e-05,0.00121595,-0.000467386,0.0038265,-0.0542012,4955,4937,0
222932131,222931948,4259850,4325386,-0.00216119,0.000236834,0.00185894,-0.00387708,0.00575668,-0.0504934,4988,4786,0
223431074,223430931,4259850,4325386,-0.000832428,-0.000290769,0.0005088,-0.00153889,-0.00914867,-0.0431544,4983,4936,0
223934659,223934534,4259850,4325386,0.00119464,8.26313e-05,0.00277677,-0.00386051,-0.00234284,-0.0451069,4989,4937,0
224428494,224428353,4259850,4325386,-0.000324729,0.000365953,7.20261e-06,0.00242915,0.0146962,-0.041565,4988,4945,0
224927274,224927161,4259850,4325386,0.00178683,0.000453963,-0.000551464,0.000169558,0.0131204,-0.047359,4988,4968,0
225431251,225431091,4259850,4325386,-0.000808616,0.00120941,1.80225e-05,-0.00704673,-0.0302221,-0.0587164,4977,4940,0
225929982,225929859,4259850,4325386,0.00114561,-0.00133361,0.00108398,0.00730773,0.0350031,-0.0495174,4996,5405,0
226433730,226433568,4259850,4325386,0.000851978,-1.3358e-05,0.000747258,-0.010291,0.00284382,-0.0544732,4987,4966,0
226927496,226927385,4259850,4325386,0.00102907,-0.000565641,8.56655e-05,-0.00430895,-0.0176387,-0.0451008,4988,4940,0
227431311,227431182,4259850,4325386,0.00128751,-0.000151464,0.0014116,-0.0084657,-0.0560096,-0.0505265,4985,4938,0
227935102,227934980,4259850,4325386,-0.000614564,0.000161056,0.00160461,-0.0020174,0.026886,-0.0515849,4990,5006,0
228429042,228428885,4259850,4325386,-0.000123664,1.35011e-05,-0.000594459,0.00185559,-0.0329108,-0.0421193,4939,4941,0
228933396,228932601,4259850,4325386,0.00130947,-0.000572296,-0.000482663,0.0031208,0.0106791,-0.0391743,4990,4939,0
229431516,229431405,4259850,4325386,0.00227764,-4.88056e-05,-0.00111289,-0.00450334,-0.0382582,-0.0460052,4988,4999,0
229930494,229930215,4259850,4325386,-0.000129914,0.00106012,-0.000215635,-0.0083408,-0.0559805,-0.0617356,4988,5922,0
230433814,230433689,4259850,4325386,-0.00321946,0.00104128,0.00242303,-0.00587417,-0.0262531,-0.0534754,5001,4970,0
230932439,230932322,4259850,4325386,-0.00137134,0.000830943,0.000962482,-0.00690104,-0.0516639,-0.0535704,4981,4954,0
231431265,231431129,4259850,4325386,-0.00115574,0.000323536,0.000336322,-0.0068894,-0.0340304,-0.0538954,4987,4934,0
231930059,231929953,4259850,4325386,0.00118116,0.000428954,-0.00295499,0.00589267,0.00214917,-0.0404684,5002,4887,0
232429138,232428912,4259850,4325386,0.00109645,-0.000443998,-0.000856435,-0.00724029,-0.00537021,-0.0467934,4987,4986,0
232932773,232932614,4259850,4325386,0.000748686,-0.00083363,0.000611613,0.00480937,0.0408158,-0.047244,4990,4938,0
233431501,233431353,4259850,4325386,0.00198933,-0.000376706,-0.000574102,0.00235272,-0.0363067,-0.04277,4988,4940,0
233930291,233930162,4259850,4325386,0.00219047,-0.000674664,-0.000339416,0.00179513,-0.00135751,-0.039941,4984,4940,0
234429111,234428974,4259850,4325386,-0.00192079,0.000256701,0.000661862,-0.00132503,-0.0336806,-0.0562563,4992,4940,0
234933062,234932824,4259850,4325386,-0.00126491,2.74187e-05,0.000594438,-0.00282861,0.0258105,-0.0557635,5042,4916,0
235427204,235427088,4259850,4325386,0.00204295,0.000482426,-0.000561454,0.00924495,0.0277009,-0.0354404,4972,4939,0
235930789,235930627,4259850,4325386,-0.000608082,0.000488194,-0.000220302,-0.00165875,-0.00205119,-0.0487365,4954,4977,0
236429319,236429195,4259850,4325386,-0.00225811,0.00086105,0.000793849,-0.0066871,-0.0301427,-0.0518662,4989,4936,0
236933139,236932992,4259850,4325386,0.00163953,-0.000174033,-0.000497757,5.42731e-05,-0.00674342,-0.0390889,4986,4987,0
237432186,237432025,4259850,4325386,0.00190136,-0.00147194,0.00103677,0.000741267,0.037219,-0.0364141,4980,4986,0
237930778,237930610,4259850,4325386,-0.000544972,9.69005e-05,7.38088e-05,-0.00509364,-0.00457808,-0.0426057,4989,4979,0
238435910,238434517,4259850,4325386,-0.0049039,0.00950998,0.00179279,-0.0192637,-0.0134564,-0.0576708,4987,4936,0
238932835,238932719,4259850,4325386,0.00164289,-0.000389663,0.000554988,-0.0205795,0.00190763,-0.0499133,4991,4685,0
239430685,239430576,4259850,4325386,-8.67928e-06,0.000100807,-5.14671e-05,0.00159174,0.000989983,-0.0478502,4988,4970,0
239929653,239929484,4259850,4325386,-2.06216e-05,2.71971e-05,6.1108e-05,-0.000422844,-0.000632677,-0.0485513,5016,5017,0
240433364,240433178,4259850,4325386,3.5753e-05,-9.36744e-07,2.05484e-06,0.000162078,-0.00116682,-0.0480654,4983,4938,0
240932153,240932023,4259850,4325386,-1.40619e-05,1.38966e-05,1.44284e-05,7.82636e-05,-0.000315282,-0.0576585,5020,5924,0
241430918,241430801,4259850,4325386,5.10342e-07,7.29447e-06,-2.7966e-05,-5.33344e-05,-0.000153861,-0.0484597,4982,4965,0
241929733,241929609,4259850,4325386,3.77568e-06,1.40934e-05,9.82978e-06,-6.65427e-05,-0.000221949,-0.0480295,4988,4927,0
