timestamp,time_utc_usec,lat,lon,alt,alt_ellipsoid,s_variance_m_s,c_variance_rad,eph,epv,hdop,vdop,noise_per_ms,jamming_indicator,vel_m_s,vel_n_m_s,vel_e_m_s,vel_d_m_s,cog_rad,timestamp_time_relative,heading,heading_offset,fix_type,vel_ned_valid,satellites_used
79705987,1600844402599633,340348724,1087565106,422258,394342,0.205,0.655103,0.872,1.037,0.59,0.99,115,11,0.042,0.012,-0.04,0.041,3.67205,0,nan,0.0,3,1,19
79933683,1600844402799633,340348724,1087565105,422255,394340,0.253,0.655114,0.87,1.034,0.59,0.99,115,11,0.017,0.017,-0.001,0.094,3.67205,0,nan,0.0,3,1,19
80912941,1600844403799633,340348725,1087565101,422312,394396,0.22,0.655164,0.86,1.022,0.59,0.99,115,8,0.017,0.009,-0.014,0.025,3.67205,0,nan,0.0,3,1,19
81910068,1600844404799632,340348721,1087565098,422344,394429,0.204,0.65521,0.852,1.012,0.59,0.99,115,10,0.02,-0.009,-0.018,0.036,3.67205,0,nan,0.0,3,1,19
82906941,1600844405799632,340348716,1087565093,422348,394433,0.192,0.655254,0.844,1.001,0.59,0.99,115,8,0.025,-0.025,0.003,0.041,3.67205,0,nan,0.0,3,1,19
83911938,1600844406799631,340348712,1087565086,422332,394417,0.236,0.655299,0.834,0.991,0.59,0.99,115,14,0.059,0.056,-0.02,0.089,3.67205,0,nan,0.0,3,1,19
84904950,1600844407799631,340348708,1087565080,422306,394391,0.197,0.655341,0.826,0.981,0.59,0.99,114,9,0.044,-0.009,-0.043,0.071,3.67205,0,nan,0.0,3,1,19
85907941,1600844408799631,340348705,1087565073,422310,394394,0.223,0.655385,0.818,0.972,0.59,0.99,114,13,0.035,-0.025,-0.024,-0.018,3.67205,0,nan,0.0,3,1,19
86911941,1600844409799630,340348698,1087565063,422291,394375,0.174,0.655421,0.808,0.963,0.59,0.99,114,11,0.114,-0.082,-0.08,0.081,3.67205,0,nan,0.0,3,1,19
87901942,1600844410799630,340348676,1087565041,422558,394643,0.284,0.375642,0.801,0.96,0.59,0.99,114,15,0.17,-0.06,-0.159,-0.357,3.76742,0,nan,0.0,3,1,19
88899069,1600844411799629,340348672,1087565006,422869,394953,0.256,0.567677,0.799,0.957,0.59,0.99,83,4,0.094,-0.038,-0.085,-0.403,4.61265,0,nan,0.0,3,1,19
89901941,1600844412799629,340348656,1087564995,422913,394998,0.239,0.778046,0.796,0.954,0.59,0.99,83,6,0.114,-0.063,-0.095,0.514,3.87417,0,nan,0.0,3,1,19
90903940,1600844413799628,340348667,1087565001,423031,395116,0.16,0.73336,0.793,0.956,0.59,0.99,83,4,0.264,0.24,-0.109,-0.158,0.0710932,0,nan,0.0,3,1,19
91902003,1600844414799628,340348710,1087564986,422984,395069,0.144,0.264152,0.791,0.954,0.59,0.99,83,4,0.759,0.532,-0.541,-0.555,5.80146,0,nan,0.0,3,1,19
92900198,1600844415799627,340348771,1087564964,423448,395533,0.247,0.253557,0.788,0.953,0.57,0.97,83,5,0.593,0.593,-0.001,0.192,6.2186,0,nan,0.0,3,1,20
93906094,1600844416799627,340348789,1087564996,423654,395739,0.244,0.624875,0.778,0.947,0.57,0.97,83,4,0.261,0.114,0.235,-0.744,1.11263,0,nan,0.0,3,1,20
94908939,1600844417799627,340348787,1087565009,424239,396324,0.24,0.598749,0.775,0.949,0.57,0.97,89,4,0.226,0.172,0.146,0.193,1.14577,0,nan,0.0,3,1,20
95907382,1600844418799626,340348798,1087565011,423915,395999,0.223,0.752811,0.768,0.946,0.57,0.97,89,6,0.089,-0.077,-0.045,-0.544,0.459425,0,nan,0.0,3,1,20
96907939,1600844419799626,340348790,1087565030,424100,396185,0.226,0.686421,0.762,0.944,0.57,0.97,89,4,0.12,-0.074,0.094,0.513,1.75711,0,nan,0.0,3,1,20
97905976,1600844420799625,340348795,1087565025,423896,395980,0.205,0.476671,0.758,0.943,0.57,0.97,89,5,0.385,0.341,-0.177,-0.745,5.89079,0,nan,0.0,3,1,20
98907173,1600844421799625,340348853,1087564998,424010,396094,0.191,0.15597,0.752,0.938,0.57,0.97,89,3,0.731,0.728,0.065,0.441,0.0344744,0,nan,0.0,3,1,20
99900979,1600844422799624,340348908,1087565026,423835,395919,0.191,0.137611,0.746,0.936,0.57,0.97,89,4,0.831,0.757,0.344,-0.294,0.411802,0,nan,0.0,3,1,20
100912940,1600844423799624,340348972,1087565038,424353,396438,0.167,0.138615,0.744,0.935,0.57,0.97,89,3,0.885,0.882,0.074,-0.359,0.0705715,0,nan,0.0,3,1,20
101912974,1600844424799623,340349044,1087565034,424064,396149,0.262,0.169038,0.743,0.937,0.57,0.97,89,6,0.916,0.912,-0.086,0.64,6.1897,0,nan,0.0,3,1,20
102914941,1600844425799623,340349113,1087565031,423708,395793,0.223,0.142461,0.739,0.933,0.57,0.97,83,3,0.796,0.771,0.197,0.137,0.18088,0,nan,0.0,3,1,20
103917942,1600844426799623,340349202,1087565061,423777,395862,0.16,0.101207,0.734,0.927,0.57,0.97,84,5,1.373,1.352,0.237,-0.154,0.227373,0,nan,0.0,4,1,20
104907940,1600844427799622,340349314,1087565084,424201,396286,0.153,0.11349,0.727,0.923,0.57,0.97,89,4,1.148,1.145,0.083,-0.252,0.113481,0,nan,0.0,4,1,20
105917395,1600844428799622,340349413,1087565086,423953,396037,0.205,0.11115,0.719,0.918,0.57,0.97,89,6,1.133,1.13,0.086,0.837,0.0475735,0,nan,0.0,4,1,20
106915061,1600844429799621,340349513,1087565076,423540,395625,0.188,0.160939,0.715,0.916,0.57,0.97,89,6,0.972,0.972,0.005,-0.1,6.21364,0,nan,0.0,4,1,20
107913164,1600844430799621,340349614,1087565103,424327,396412,0.168,0.0800729,0.712,0.912,0.57,0.97,95,5,1.343,1.298,0.345,-0.409,0.248132,0,nan,0.0,4,1,20
108912890,1600844431799620,340349718,1087565130,424431,396516,0.186,0.151341,0.711,0.914,0.57,0.97,95,5,0.921,0.908,0.154,-0.015,0.172058,0,nan,0.0,4,1,20
109909998,1600844432799620,340349802,1087565133,424145,396230,0.189,0.111262,0.709,0.914,0.57,0.97,95,3,1.02,1.02,0.04,0.528,0.0188972,0,nan,0.0,4,1,20
110911969,1600844433799619,340349897,1087565126,423640,395724,0.232,0.123974,0.706,0.911,0.57,0.97,95,3,0.953,0.953,0.036,0.782,6.26364,0,nan,0.0,4,1,20
111910236,1600844434799619,340349965,1087565144,423319,395404,0.215,0.148143,0.705,0.909,0.57,0.97,95,3,0.838,0.792,0.275,0.028,0.275269,0,nan,0.0,4,1,20
112907968,1600844435799619,340350050,1087565154,423659,395743,0.174,0.124723,0.704,0.907,0.57,0.97,95,5,1.065,1.065,-0.003,-0.288,0.015231,0,nan,0.0,4,1,20
113912263,1600844436799618,340350128,1087565151,423618,395702,0.261,0.179287,0.702,0.908,0.57,0.97,95,3,0.833,0.833,-0.023,0.708,6.24617,0,nan,0.0,4,1,20
114910943,1600844437799618,340350205,1087565157,422989,395074,0.219,0.112437,0.702,0.907,0.57,0.97,95,4,1.137,1.133,0.093,0.398,0.0656795,0,nan,0.0,4,1,20
115907949,1600844438799617,340350301,1087565153,423036,395121,0.173,0.133594,0.702,0.909,0.57,0.97,95,5,1.093,1.092,-0.037,-0.402,6.22201,0,nan,0.0,4,1,20
116912278,1600844439799617,340350378,1087565155,423481,395566,0.185,0.185782,0.703,0.909,0.57,0.97,95,4,0.693,0.692,-0.041,-0.419,6.24267,0,nan,0.0,4,1,20
117903938,1600844440799616,340350453,1087565158,423686,395770,0.191,0.190245,0.7,0.909,0.57,0.97,95,4,0.827,0.699,0.441,0.176,0.301035,0,nan,0.0,4,1,20
118909952,1600844441799616,340350509,1087565196,423340,395424,0.198,0.14702,0.697,0.907,0.57,0.97,95,5,0.798,0.724,0.335,0.611,0.467484,0,nan,0.0,4,1,20
119911947,1600844442799615,340350574,1087565211,423260,395345,0.161,0.170073,0.696,0.909,0.6,0.99,95,4,0.886,0.885,-0.039,-0.244,0.0412756,0,nan,0.0,4,1,19
120907530,1600844443799615,340350660,1087565203,423880,395965,0.166,0.144377,0.695,0.908,0.6,0.99,95,3,1.067,1.066,-0.053,-0.314,6.21847,0,nan,0.0,4,1,19
121914939,1600844444799614,340350737,1087565205,423884,395969,0.206,0.229908,0.698,0.912,0.57,0.97,95,4,0.604,0.532,0.285,0.179,0.270414,0,nan,0.0,4,1,20
122915066,1600844445799614,340350782,1087565250,423704,395789,0.216,0.229382,0.697,0.911,0.57,0.97,95,4,0.615,0.538,0.299,0.069,0.639564,0,nan,0.0,4,1,20
123915020,1600844446799614,340350838,1087565235,423729,395813,0.142,0.161807,0.703,0.919,0.57,0.97,102,5,0.961,0.903,-0.327,-0.179,5.95325,0,nan,0.0,4,1,20
124921025,1600844447799613,340350908,1087565206,424174,396258,0.198,0.452712,0.701,0.916,0.57,0.97,102,4,0.328,0.327,-0.024,-0.571,6.00108,0,nan,0.0,4,1,20
125911973,1600844448799613,340350940,1087565190,424479,396564,0.146,0.54575,0.7,0.916,0.57,0.97,102,4,0.334,0.236,-0.236,-0.228,5.64444,0,nan,0.0,4,1,20
126914720,1600844449799612,340350948,1087565131,424571,396656,0.154,0.230589,0.697,0.916,0.57,0.97,102,4,0.722,0.003,-0.722,0.201,4.73728,0,nan,0.0,4,1,20
127916948,1600844450799612,340350948,1087565044,423830,395914,0.21,0.203543,0.699,0.924,0.57,0.97,101,4,0.827,-0.023,-0.827,0.539,4.69734,0,nan,0.0,4,1,20
128915938,1600844451799611,340350953,1087564977,424247,396331,0.202,0.251242,0.699,0.933,0.57,0.97,102,3,0.659,-0.083,-0.654,0.295,4.64104,0,nan,0.0,4,1,20
129919255,1600844452799611,340350971,1087564965,424541,396625,0.256,0.379621,0.701,0.942,0.57,0.97,102,4,0.115,0.089,0.072,-0.615,0.344629,0,nan,0.0,4,1,20
130918949,1600844453799610,340350991,1087564993,424238,396323,0.276,0.677507,0.698,0.945,0.57,0.97,102,4,0.084,0.079,-0.03,0.773,0.942969,0,nan,0.0,4,1,20
131915390,1600844454799610,340350981,1087564987,424399,396483,0.25,0.358172,0.696,0.943,0.57,0.97,102,3,0.386,-0.28,-0.265,-0.585,3.63204,0,nan,0.0,4,1,20
132912942,1600844455799609,340350952,1087564971,425081,397166,0.227,0.384273,0.696,0.943,0.6,0.99,102,7,0.372,-0.367,-0.06,-0.239,3.36122,0,nan,0.0,4,1,19
133914946,1600844456799609,340350909,1087564943,424747,396832,0.204,0.187029,0.694,0.942,0.58,1.0,102,6,0.733,-0.636,-0.366,0.302,3.63619,0,nan,0.0,4,1,19
134907945,1600844457799609,340350824,1087564907,424348,396432,0.184,0.210522,0.691,0.942,0.57,0.97,102,8,0.827,-0.823,0.083,0.507,3.37082,0,nan,0.0,4,1,20
135912180,1600844458799608,340350747,1087564892,424421,396506,0.2,0.144557,0.686,0.937,0.57,0.97,102,5,0.933,-0.933,-0.006,-0.502,3.26923,0,nan,0.0,4,1,20
136908069,1600844459799608,340350662,1087564862,424448,396533,0.171,0.167733,0.689,0.945,0.57,0.97,102,5,1.075,-1.039,-0.276,0.149,3.39571,0,nan,0.0,4,1,20
137912937,1600844460799607,340350556,1087564804,424305,396390,0.143,0.0796957,0.683,0.939,0.57,0.97,102,3,1.427,-1.295,-0.598,-0.147,3.60443,0,nan,0.0,4,1,20
138909952,1600844461799607,340350463,1087564739,424563,396648,0.141,0.155226,0.676,0.935,0.57,0.97,102,3,0.968,-0.667,-0.703,-0.249,3.8217,0,nan,0.0,4,1,20
139909045,1600844462799606,340350434,1087564660,424694,396778,0.184,0.185334,0.672,0.932,0.57,0.97,102,3,0.748,-0.234,-0.711,-0.276,4.3534,0,nan,0.0,4,1,20
140912347,1600844463799606,340350425,1087564579,424798,396882,0.151,0.195137,0.67,0.932,0.57,0.97,102,4,0.76,-0.159,-0.744,-0.12,4.47919,0,nan,0.0,4,1,20
141913165,1600844464799605,340350411,1087564511,424861,396945,0.154,0.180857,0.666,0.931,0.57,0.97,102,8,0.76,-0.202,-0.732,0.107,4.44069,0,nan,0.0,4,1,20
142909541,1600844465799605,340350400,1087564433,424745,396830,0.154,0.22392,0.665,0.933,0.57,0.97,102,4,0.708,-0.04,-0.706,0.152,4.5941,0,nan,0.0,4,1,20
143912558,1600844466799605,340350404,1087564356,424497,396581,0.164,0.206783,0.662,0.933,0.57,0.97,102,6,0.744,-0.025,-0.744,0.19,4.69658,0,nan,0.0,4,1,20
144911937,1600844467799604,340350413,1087564282,424491,396575,0.134,0.266608,0.661,0.932,0.57,0.97,102,4,0.652,0.08,-0.647,-0.36,4.84466,0,nan,0.0,4,1,20
145910143,1600844468799604,340350413,1087564217,424891,396975,0.206,0.232638,0.66,0.93,0.57,0.97,102,9,0.776,-0.261,-0.731,-0.693,4.48031,0,nan,0.0,4,1,20
146906984,1600844469799603,340350405,1087564142,425090,397174,0.165,0.33843,0.663,0.928,0.57,0.97,102,4,0.51,-0.099,-0.501,0.13,4.55415,0,nan,0.0,4,1,20
147911951,1600844470799603,340350401,1087564089,424932,397016,0.12,0.330562,0.663,0.927,0.57,0.97,102,7,0.575,0.229,-0.528,-0.059,4.85075,0,nan,0.0,4,1,20
148912081,1600844471799602,340350413,1087564038,425116,397201,0.173,0.400339,0.664,0.926,0.57,0.97,102,4,0.21,0.143,-0.154,-0.277,4.86257,0,nan,0.0,4,1,20
149915123,1600844472799602,340350432,1087564034,425004,397088,0.242,0.431531,0.669,0.927,0.57,0.97,102,8,0.381,0.358,-0.13,0.747,6.00263,0,nan,0.0,4,1,20
150905065,1600844473799601,340350478,1087564034,424184,396268,0.239,0.42561,0.673,0.93,0.57,0.97,102,4,0.377,0.376,-0.028,0.569,6.24783,0,nan,0.0,4,1,20
151912935,1600844474799601,340350520,1087564015,424106,396191,0.134,0.260114,0.676,0.929,0.57,0.97,102,8,0.757,0.635,-0.413,-0.281,5.81415,0,nan,0.0,4,1,20
152904053,1600844475799600,340350600,1087563958,424296,396381,0.158,0.155771,0.68,0.932,0.6,0.99,102,5,1.152,1.015,-0.544,0.041,5.77501,0,nan,0.0,4,1,19
153912936,1600844476799600,340350660,1087563908,423873,395957,0.129,0.410219,0.682,0.931,0.57,0.97,102,7,0.483,0.353,-0.329,0.07,5.61291,0,nan,0.0,4,1,20
154913092,1600844477799600,340350680,1087563860,424074,396158,0.185,0.401258,0.684,0.928,0.57,0.97,102,5,0.542,0.098,-0.533,-0.601,5.01163,0,nan,0.0,4,1,20
155908083,1600844478799599,340350723,1087563822,424355,396439,0.14,0.312445,0.685,0.926,0.57,0.97,102,9,0.559,0.517,-0.214,-0.174,5.8828,0,nan,0.0,4,1,20
156904968,1600844479799599,340350781,1087563820,424382,396466,0.173,0.167008,0.683,0.921,0.6,0.99,102,5,0.773,0.758,0.151,0.053,0.127902,0,nan,0.0,4,1,19
157907974,1600844480799598,340350846,1087563847,423998,396083,0.219,0.170825,0.681,0.918,0.57,0.97,102,8,0.725,0.6,0.407,0.722,0.504211,0,nan,0.0,4,1,20
158912347,1600844481799598,340350891,1087563875,423367,395451,0.296,0.691037,0.682,0.917,0.57,0.97,102,4,0.238,0.237,0.015,0.544,0.352787,0,nan,0.0,4,1,20
159923039,1600844482799597,340350905,1087563854,423700,395784,0.191,0.44545,0.687,0.924,0.57,0.97,102,3,0.403,0.379,-0.136,-0.5,5.47801,0,nan,0.0,4,1,20
160911945,1600844483799597,340350962,1087563849,423667,395751,0.197,0.146496,0.684,0.919,0.57,0.97,101,4,0.88,0.88,0.03,0.236,0.0171306,0,nan,0.0,4,1,20
161724379,1600844484599596,340351023,1087563854,423728,395812,0.172,0.140332,0.683,0.915,0.57,0.97,101,4,0.857,0.832,0.207,-0.278,0.166653,0,nan,0.0,4,1,20
162917990,1600844485799596,340351083,1087563891,424102,396187,0.174,0.294559,0.681,0.913,0.57,0.97,101,6,0.496,0.376,0.324,-0.069,0.61497,0,nan,0.0,4,1,20
163918946,1600844486799595,340351107,1087563914,423689,395773,0.132,0.697959,0.679,0.914,0.57,0.97,101,4,0.26,0.121,-0.23,0.061,6.08231,0,nan,0.0,4,1,20
164920100,1600844487799595,340351129,1087563858,423819,395903,0.141,0.27539,0.678,0.911,0.57,0.97,101,4,0.641,0.24,-0.594,-0.389,5.10984,0,nan,0.0,4,1,20
165917081,1600844488799595,340351145,1087563774,424163,396247,0.146,0.231348,0.683,0.922,0.57,0.97,101,3,0.651,0.134,-0.637,0.147,4.91154,0,nan,0.0,4,1,20
166917938,1600844489799594,340351157,1087563721,423635,395719,0.225,0.514938,0.678,0.923,0.57,0.97,101,3,0.282,-0.122,-0.255,0.558,4.70504,0,nan,0.0,4,1,20
167915139,1600844490799594,340351142,1087563693,423250,395334,0.209,0.308648,0.675,0.922,0.57,0.97,101,8,0.435,-0.293,-0.321,0.328,3.94868,0,nan,0.0,4,1,20
168917309,1600844491799593,340351089,1087563663,423434,395518,0.263,0.190047,0.678,0.923,0.57,0.97,101,4,0.962,-0.919,-0.285,-0.937,3.50944,0,nan,0.0,4,1,20
169913976,1600844492799593,340350982,1087563633,424094,396179,0.214,0.117236,0.68,0.924,0.57,0.97,101,6,1.311,-1.283,-0.265,-0.044,3.3497,0,nan,0.0,4,1,20
170908989,1600844493799592,340350877,1087563638,423871,395955,0.191,0.160367,0.681,0.925,0.57,0.97,114,5,0.95,-0.944,0.114,-0.268,3.00769,0,nan,0.0,4,1,20
171922949,1600844494799592,340350780,1087563645,423847,395931,0.184,0.1392,0.683,0.925,0.57,0.97,114,3,1.039,-1.037,0.063,0.305,3.05253,0,nan,0.0,4,1,20
172912937,1600844495799591,340350707,1087563632,424203,396288,0.208,0.177601,0.684,0.923,0.57,0.97,114,3,0.799,-0.795,-0.083,-0.214,3.27173,0,nan,0.0,4,1,20
173908993,1600844496799591,340350632,1087563631,424098,396182,0.181,0.218857,0.686,0.921,0.57,0.97,114,4,0.889,-0.854,0.25,0.646,2.99269,0,nan,0.0,4,1,20
174912314,1600844497799591,340350552,1087563639,423644,395728,0.197,0.155848,0.69,0.926,0.57,0.97,114,3,0.908,-0.874,-0.245,0.164,3.26876,0,nan,0.0,4,1,20
175920943,1600844498799590,340350478,1087563585,423955,396039,0.242,0.136125,0.69,0.926,0.57,0.97,114,4,1.018,-0.918,-0.439,-0.384,3.63869,0,nan,0.0,4,1,20
176913014,1600844499799590,340350371,1087563562,424154,396238,0.184,0.137574,0.692,0.932,0.57,0.97,114,3,1.233,-1.231,0.079,-0.087,3.17239,0,nan,0.0,4,1,20
177908553,1600844500799589,340350267,1087563577,423990,396074,0.172,0.22239,0.692,0.934,0.57,0.97,114,4,0.844,-0.828,0.162,0.271,2.97994,0,nan,0.0,4,1,20
178912230,1600844501799589,340350187,1087563591,423717,395802,0.203,0.15755,0.694,0.936,0.57,0.97,114,3,1.156,-1.156,-0.011,0.224,3.09001,0,nan,0.0,4,1,20
179909457,1600844502799588,340350088,1087563564,423414,395499,0.197,0.118087,0.694,0.933,0.57,0.97,114,4,1.273,-1.241,-0.284,-0.08,3.3824,0,nan,0.0,4,1,20
180919944,1600844503799588,340349971,1087563524,424232,396317,0.232,0.121783,0.691,0.928,0.57,0.97,114,3,1.299,-1.248,-0.363,-1.077,3.37495,0,nan,0.0,4,1,20
181918978,1600844504799587,340349876,1087563513,424749,396833,0.191,0.156461,0.692,0.928,0.57,0.97,113,3,1.025,-1.025,-0.007,0.061,3.15657,0,nan,0.0,4,1,20
182920937,1600844505799587,340349789,1087563523,424242,396327,0.171,0.195773,0.691,0.926,0.57,0.97,113,4,0.86,-0.836,0.201,-0.032,2.93967,0,nan,0.0,4,1,20
183921010,1600844506799586,340349698,1087563539,424127,396212,0.187,0.180405,0.69,0.927,0.57,0.97,113,4,1.011,-1.002,0.132,0.024,2.98909,0,nan,0.0,4,1,20
184921465,1600844507799586,340349601,1087563505,423863,395947,0.196,0.114711,0.691,0.927,0.57,0.97,113,9,1.034,-0.952,-0.404,0.346,3.56846,0,nan,0.0,4,1,20
185918940,1600844508799586,340349506,1087563471,423529,395614,0.202,0.136264,0.693,0.928,0.57,0.97,113,5,1.18,-1.162,-0.204,0.251,3.34732,0,nan,0.0,4,1,20
186921988,1600844509799585,340349407,1087563454,423465,395549,0.191,0.22742,0.691,0.925,0.57,0.97,113,4,0.777,-0.767,0.128,-0.071,3.1454,0,nan,0.0,4,1,20
187920940,1600844510799585,340349319,1087563459,423679,395763,0.193,0.133653,0.692,0.925,0.57,0.97,113,3,1.14,-1.132,0.137,-0.381,3.04596,0,nan,0.0,4,1,20
188918950,1600844511799584,340349220,1087563464,423643,395727,0.192,0.14864,0.694,0.925,0.57,0.97,113,4,1.002,-1.0,-0.069,0.476,3.14877,0,nan,0.0,4,1,20
189919937,1600844512799584,340349141,1087563443,422892,394976,0.196,0.118998,0.694,0.924,0.57,0.97,112,3,1.071,-1.053,-0.195,0.756,3.32812,0,nan,0.0,4,1,20
190916949,1600844513799583,340349046,1087563432,422737,394821,0.213,0.181914,0.7,0.934,0.57,0.97,112,3,1.161,-1.16,-0.047,-0.19,3.18993,0,nan,0.0,4,1,20
191922952,1600844514799583,340348938,1087563422,423038,395122,0.217,0.183717,0.703,0.936,0.57,0.97,97,2,0.972,-0.942,0.239,-0.656,3.09974,0,nan,0.0,4,1,20
192911999,1600844515799582,340348862,1087563418,423504,395588,0.203,0.167188,0.705,0.936,0.57,0.97,97,3,0.932,-0.926,-0.099,-0.092,3.24263,0,nan,0.0,4,1,20
193913999,1600844516799582,340348788,1087563403,423392,395476,0.196,0.203606,0.706,0.937,0.57,0.97,97,3,0.724,-0.716,-0.112,0.259,3.27081,0,nan,0.0,4,1,20
194907525,1600844517799581,340348722,1087563399,422967,395051,0.2,0.347053,0.702,0.935,0.59,0.99,97,3,0.417,-0.413,0.06,0.449,3.08466,0,nan,0.0,4,1,19
195912934,1600844518799581,340348671,1087563398,422438,394522,0.157,0.580107,0.7,0.932,0.59,0.99,97,3,0.327,-0.27,0.185,0.128,3.0945,0,nan,0.0,4,1,19
196912140,1600844519799581,340348643,1087563415,422825,394909,0.239,0.470222,0.7,0.931,0.59,0.99,97,3,0.416,-0.282,0.306,-0.69,2.39254,0,nan,0.0,4,1,19
197914977,1600844520799580,340348613,1087563433,423503,395588,0.218,0.38145,0.698,0.933,0.59,0.99,97,5,0.436,-0.418,0.124,-0.397,2.73727,0,nan,0.0,4,1,19
198909962,1600844521799580,340348575,1087563450,423650,395734,0.181,0.395594,0.693,0.932,0.59,0.99,97,6,0.353,-0.329,0.126,0.257,2.78882,0,nan,0.0,4,1,19
199915941,1600844522799579,340348582,1087563496,423014,395098,0.194,0.250601,0.691,0.932,0.59,0.99,97,6,0.594,0.347,0.482,0.474,1.01317,0,nan,0.0,4,1,19
200914950,1600844523799579,340348614,1087563496,423172,395256,0.195,0.358098,0.689,0.93,0.59,0.99,98,11,0.451,0.448,-0.056,-0.28,6.05044,0,nan,0.0,4,1,19
201913982,1600844524799578,340348667,1087563504,423061,395146,0.23,0.142385,0.688,0.93,0.59,0.99,98,10,0.877,0.864,0.152,0.745,0.215614,0,nan,0.0,4,1,19
202909205,1600844525799578,340348721,1087563497,422646,394730,0.177,0.361491,0.688,0.93,0.59,0.99,104,4,0.524,0.5,-0.158,-0.048,6.02994,0,nan,0.0,4,1,19
203914108,1600844526799577,340348770,1087563481,422840,394924,0.161,0.196398,0.688,0.927,0.57,0.97,104,3,0.811,0.804,-0.102,-0.161,6.03379,0,nan,0.0,4,1,20
204917089,1600844527799577,340348843,1087563479,422729,394814,0.223,0.222218,0.687,0.924,0.57,0.97,104,2,0.659,0.659,-0.011,0.28,6.24137,0,nan,0.0,4,1,20
205918965,1600844528799577,340348907,1087563490,422627,394712,0.184,0.173494,0.684,0.923,0.57,0.97,104,4,0.859,0.84,0.18,0.239,0.177909,0,nan,0.0,4,1,20
206922274,1600844529799576,340348992,1087563522,422565,394649,0.209,0.191955,0.691,0.935,0.57,0.97,104,4,0.916,0.891,0.214,-0.205,0.274037,0,nan,0.0,4,1,20
207920724,1600844530799576,340349051,1087563543,423430,395514,0.236,0.309844,0.691,0.94,0.57,0.97,104,3,0.467,0.453,0.112,-0.858,0.279817,0,nan,0.0,4,1,20
208917999,1600844531799575,340349094,1087563570,424254,396339,0.246,0.423453,0.685,0.939,0.57,0.97,104,3,0.357,0.126,0.334,-0.837,0.770467,0,nan,0.0,4,1,20
209923680,1600844532799575,340349126,1087563609,424057,396142,0.25,0.286032,0.682,0.939,0.57,0.97,104,3,0.523,0.289,0.436,0.933,0.9107,0,nan,0.0,4,1,20
210919949,1600844533799574,340349152,1087563642,423056,395140,0.259,0.492243,0.679,0.94,0.57,0.97,104,3,0.288,0.255,0.134,0.928,0.715165,0,nan,0.0,4,1,20
211919013,1600844534799574,340349181,1087563663,422903,394987,0.157,0.254978,0.674,0.937,0.57,0.97,104,3,0.514,0.406,0.314,-0.175,0.648396,0,nan,0.0,4,1,20
212917476,1600844535799573,340349205,1087563700,423651,395735,0.231,0.265668,0.67,0.936,0.57,0.97,104,3,0.488,-0.057,0.484,-0.893,1.32722,0,nan,0.0,4,1,20
213920973,1600844536799573,340349209,1087563738,424160,396244,0.146,0.362158,0.665,0.934,0.57,0.97,104,4,0.392,-0.012,0.392,-0.009,1.5108,0,nan,0.0,4,1,20
214915830,1600844537799572,340349210,1087563801,423880,395964,0.15,0.179272,0.66,0.932,0.57,0.97,104,3,0.709,0.066,0.706,0.183,1.50377,0,nan,0.0,4,1,20
215921947,1600844538799572,340349253,1087563884,423494,395578,0.127,0.182136,0.655,0.929,0.57,0.97,104,5,0.762,0.496,0.578,0.058,0.910402,0,nan,0.0,4,1,20
216916490,1600844539799572,340349288,1087563940,423826,395910,0.168,0.233922,0.65,0.926,0.57,0.97,104,4,0.571,0.328,0.467,-0.364,0.953227,0,nan,0.0,4,1,20
217915086,1600844540799571,340349310,1087564002,424342,396427,0.172,0.209292,0.647,0.924,0.57,0.97,105,4,0.815,-0.065,0.813,-0.28,1.42529,0,nan,0.0,4,1,20
218910943,1600844541799571,340349318,1087564077,424243,396327,0.126,0.163589,0.645,0.926,0.57,0.97,105,4,0.741,0.26,0.694,-0.03,1.34754,0,nan,0.0,4,1,20
219916561,1600844542799570,340349346,1087564144,424239,396324,0.168,0.228958,0.642,0.925,0.57,0.97,105,4,0.601,0.235,0.554,0.201,1.11706,0,nan,0.0,4,1,20
220912942,1600844543799570,340349370,1087564200,423421,395505,0.204,0.219172,0.641,0.924,0.57,0.97,105,3,0.633,0.137,0.618,0.853,1.26595,0,nan,0.0,4,1,20
221915940,1600844544799569,340349370,1087564283,423220,395305,0.17,0.294021,0.641,0.926,0.57,0.97,105,2,0.615,-0.079,0.61,-0.203,1.61408,0,nan,0.0,4,1,20
222910970,1600844545799569,340349364,1087564344,423507,395591,0.169,0.313593,0.641,0.929,0.57,0.97,105,3,0.657,-0.225,0.617,-0.291,1.78976,0,nan,0.0,4,1,20
223910968,1600844546799568,340349335,1087564427,423787,395872,0.136,0.233606,0.641,0.928,0.57,0.97,105,3,0.77,-0.304,0.707,0.029,1.98602,0,nan,0.0,4,1,20
224915937,1600844547799568,340349299,1087564515,423267,395352,0.153,0.131383,0.637,0.921,0.57,0.97,105,3,1.044,-0.523,0.904,0.759,2.08945,0,nan,0.0,4,1,20
225915066,1600844548799567,340349253,1087564606,422805,394890,0.121,0.21499,0.635,0.915,0.57,0.97,105,3,0.843,-0.468,0.701,0.189,2.14006,0,nan,0.0,4,1,20
226915339,1600844549799567,340349217,1087564684,422978,395062,0.146,0.196283,0.634,0.909,0.57,0.97,105,3,0.83,-0.421,0.716,-0.432,2.1347,0,nan,0.0,4,1,20
227916934,1600844550799567,340349163,1087564762,423484,395568,0.144,0.193545,0.631,0.903,0.57,0.97,105,4,0.893,-0.631,0.631,-0.303,2.32685,0,nan,0.0,4,1,20
228910939,1600844551799566,340349104,1087564809,423373,395458,0.158,0.252169,0.632,0.901,0.57,0.97,105,5,0.677,-0.647,0.197,0.369,2.73724,0,nan,0.0,4,1,20
229917939,1600844552799566,340349034,1087564829,423328,395413,0.171,0.159833,0.635,0.9,0.57,0.97,112,7,0.997,-0.981,0.179,-0.052,2.94243,0,nan,0.0,4,1,20
230919941,1600844553799565,340348951,1087564852,423284,395369,0.169,0.209776,0.638,0.898,0.57,0.97,112,4,0.767,-0.752,0.149,0.256,2.92994,0,nan,0.0,4,1,20
231922972,1600844554799565,340348876,1087564870,422988,395073,0.169,0.212728,0.642,0.9,0.57,0.97,112,8,0.913,-0.881,0.243,0.292,2.91109,0,nan,0.0,4,1,20
232920955,1600844555799564,340348815,1087564884,422742,394826,0.223,0.278103,0.66,0.92,0.57,0.97,112,3,0.723,-0.72,0.057,0.119,3.01345,0,nan,0.0,4,1,20
233921182,1600844556799564,340348755,1087564885,422709,394794,0.187,0.3863,0.666,0.926,0.57,0.97,104,6,0.508,-0.494,0.115,-0.035,3.0144,0,nan,0.0,4,1,20
234922047,1600844557799563,340348727,1087564900,423033,395117,0.247,0.39737,0.674,0.931,0.59,0.99,104,5,0.06,0.016,0.058,-0.436,2.68661,0,nan,0.0,4,1,19
235918941,1600844558799563,340348715,1087564912,423110,395195,0.209,0.397466,0.682,0.938,0.59,0.99,97,9,0.171,-0.163,0.052,0.227,2.68661,0,nan,0.0,4,1,19
236911936,1600844559799563,340348688,1087564903,422428,394513,0.213,0.35996,0.691,0.941,0.59,0.99,97,3,0.384,-0.381,-0.045,0.937,3.37589,0,nan,0.0,4,1,19
237919941,1600844560799562,340348666,1087564920,422258,394343,0.223,0.78405,0.693,0.941,0.59,0.99,91,3,0.24,-0.112,0.212,0.758,2.28765,0,nan,0.0,4,1,19
238922031,1600844561799562,340348665,1087564931,422209,394293,0.203,0.705815,0.696,0.944,0.57,0.97,91,2,0.326,0.294,-0.14,-0.25,0.879157,0,nan,0.0,4,1,20
239922938,1600844562799561,340348662,1087564927,422238,394322,0.216,0.705863,0.702,0.954,0.57,0.97,91,4,0.078,-0.076,0.017,-0.043,0.879157,0,nan,0.0,4,1,20
240918259,1600844563799561,340348657,1087564925,422209,394294,0.233,0.705907,0.708,0.964,0.57,0.97,90,4,0.027,0.023,0.015,-0.025,0.879157,0,nan,0.0,4,1,20
241918941,1600844564799560,340348653,1087564923,422230,394315,0.208,0.705951,0.713,0.973,0.57,0.97,90,8,0.053,-0.029,0.045,-0.065,0.879157,0,nan,0.0,4,1,20
