timestamp,x,y,z,yaw,yawspeed,vx,vy,vz,acceleration[0],acceleration[1],acceleration[2],jerk[0],jerk[1],jerk[2],thrust[0],thrust[1],thrust[2]
48268130,-0.11604915,-1.8177149,-2.2223904,-1.3564891,0.7853982,-0.5525665,-0.13394088,-0.5196521,-7.842779e-05,-1.8963217e-05,-1.316234,0.0,0.0,0.0,-0.0,-0.0,-0.57845145
48288071,-0.12656735,-1.820261,-2.232282,-1.3564891,0.0,-0.5525767,-0.13402484,-0.5253466,0.14835837,0.07737763,-1.274076,0.0,0.0,0.0,0.008718573,0.0045472495,-0.57625896
48357419,-0.16444507,-1.8291384,-2.267876,-1.3564891,0.0,-0.54427433,-0.12934281,-0.5393721,0.4847182,0.17925477,-1.0242391,0.0,0.0,0.0,0.027840598,0.010295796,-0.5632661
48456756,-0.2150903,-1.8401604,-2.3152714,-1.3564891,0.0,-0.4960838,-0.121051975,-0.5227609,0.9340055,0.20303488,-0.55872166,0.0,0.0,0.0,0.05134056,0.011160452,-0.5390566
48570991,-0.2638043,-1.8503387,-2.3602717,-1.3564891,0.0,-0.3735498,-0.11500603,-0.44849196,1.6395817,0.14852591,0.14972663,0.0,0.0,0.0,0.083965525,0.007606243,-0.50221336
48670327,-0.2942279,-1.8571101,-2.3880568,-1.3564891,0.0,-0.20520145,-0.1177026,-0.36246043,2.1229374,0.1264765,0.3241288,0.0,0.0,0.0,0.10675529,0.0063600717,-0.4931435
48769679,-0.30979234,-1.8617908,-2.4038153,-1.3564891,0.0,-0.028490815,-0.11415456,-0.2694493,1.9884815,0.1520865,0.48131675,0.0,0.0,0.0,0.09833635,0.0075211306,-0.48496887
48869002,-0.3124379,-1.8642809,-2.4076378,-1.3564891,0.0,0.10348637,-0.10539462,-0.18849652,1.6691482,0.1325969,0.19471353,0.0,0.0,0.0,0.08508137,0.006758852,-0.49987385
48968336,-0.30669665,-1.8647357,-2.4027686,-1.3564891,0.0,0.20027533,-0.09273118,-0.14285089,1.2731107,0.14510888,-0.69383514,0.0,0.0,0.0,0.07089334,0.008080407,-0.5460833
49067701,-0.29620478,-1.8633336,-2.3927386,-1.3564891,0.0,0.26245582,-0.07614148,-0.13438265,0.9164834,0.20848334,-1.3852389,0.0,0.0,0.0,0.054394487,0.0123737585,-0.5820401
49171974,-0.28357193,-1.8604763,-2.380168,-1.3564891,0.0,0.28678125,-0.076066636,-0.15156506,0.5995535,-0.015757859,-1.7929298,0.0,0.0,0.0,0.036880247,-0.0009693108,-0.6032422
49271309,-0.2722719,-1.8577472,-2.3691642,-1.3564891,0.0,0.2890861,-0.08823571,-0.18890955,0.5376152,-0.097457245,-1.738621,0.0,0.0,0.0,0.032915752,-0.0059668673,-0.6004179
49370681,-0.26243728,-1.855255,-2.360229,-1.3564891,0.0,0.28564698,-0.1021064,-0.20116612,0.66937506,-0.13403927,-1.2434778,0.0,0.0,0.0,0.03922525,-0.007854675,-0.5746677
49469997,-0.2534691,-1.8530153,-2.3521054,-1.3564891,0.0,0.28647628,-0.11608468,-0.19249552,0.7201078,-0.06948868,-1.0116986,0.0,0.0,0.0,0.041312385,-0.0039865463,-0.5626139
49569316,-0.24510503,-1.8509045,-2.3445294,-1.3564891,0.0,0.28491622,-0.12923439,-0.18733674,0.7416693,-0.10400283,-0.90728414,0.0,0.0,0.0,0.04213915,-0.005909091,-0.5571838
49673617,-0.23683062,-1.8488188,-2.337035,-1.3564891,0.0,0.2819674,-0.13986869,-0.18249175,0.7009503,-0.11275202,-0.8971988,0.0,0.0,0.0,0.039787922,-0.0064001237,-0.5566593
49753085,-0.23088738,-1.8473283,-2.3316522,-1.3564891,0.0,0.2784037,-0.14638665,-0.1771885,0.7121972,-0.08807202,-0.89542663,0.0,0.0,0.0,0.04042079,-0.004998532,-0.55656713
49872317,-0.22250438,-1.845235,-2.3240612,-1.3564891,0.0,0.26881996,-0.15858305,-0.16251639,0.67448765,-0.07904029,-0.86298835,0.0,0.0,0.0,0.038163353,-0.004472198,-0.55488014
49951757,-0.2172439,-1.8439076,-2.3192978,-1.3564891,0.0,0.2589329,-0.16469921,-0.15378654,0.66908276,-0.049875192,-0.8663152,0.0,0.0,0.0,0.037869133,-0.0028228646,-0.5550532
50070999,-0.20974977,-1.8420192,-2.312513,-1.3564891,0.0,0.2366495,-0.17356583,-0.14137052,0.6386875,-0.042296723,-0.87445986,0.0,0.0,0.0,0.036177155,-0.002395812,-0.5554767
50170454,-0.20389749,-1.8405539,-2.3072157,-1.3564891,0.0,0.22317716,-0.17970425,-0.13496204,0.6025016,-0.06297082,-0.90504897,0.0,0.0,0.0,0.034225956,-0.0035771464,-0.5570675
50269631,-0.1983612,-1.839164,-2.3022044,-1.3564891,0.0,0.21425486,-0.18732327,-0.13179941,0.6009245,-0.03747633,-0.94078046,0.0,0.0,0.0,0.034249548,-0.0021359546,-0.55892575
50368966,-0.19316502,-1.8378539,-2.2975016,-1.3564891,0.0,0.21222456,-0.18645473,-0.13052571,0.57905173,-0.022895422,-0.975639,0.0,0.0,0.0,0.033109073,-0.0013091166,-0.5607386
50468302,-0.18823354,-1.8366159,-2.2930384,-1.3564891,0.0,0.21732895,-0.17751138,-0.12936759,0.6093491,0.01692839,-0.98909813,0.0,0.0,0.0,0.034885652,0.000969162,-0.56143856
50547771,-0.18449245,-1.835682,-2.289653,-1.3564891,0.0,0.21806285,-0.1710874,-0.12536915,0.6850668,0.08486195,-0.989316,0.0,0.0,0.0,0.039221328,0.0048585017,-0.5614499
50657040,-0.17960057,-1.83445,-2.2852266,-1.3564891,0.0,0.20810394,-0.17379268,-0.1143539,0.6144894,0.07710999,-0.9562278,0.0,0.0,0.0,0.035073213,0.004401207,-0.5597291
50756376,-0.17541394,-1.8333981,-2.2814379,-1.3564891,0.0,0.20200536,-0.17145461,-0.10492773,0.63066596,0.07822232,-0.894454,0.0,0.0,0.0,0.03579032,0.0044391197,-0.5565165
50855711,-0.17146884,-1.8324078,-2.2778685,-1.3564891,0.0,0.205268,-0.17310245,-0.096780315,0.64797693,0.06553365,-0.8596108,0.0,0.0,0.0,0.03665233,0.0037068618,-0.5547045
50955112,-0.16777046,-1.8314762,-2.274522,-1.3564891,0.0,0.20069568,-0.17395954,-0.0856173,0.6440292,0.05734166,-0.84255344,0.0,0.0,0.0,0.036370385,0.003238267,-0.55381745
51069283,-0.16375232,-1.8304656,-2.270886,-1.3564891,0.0,0.18095477,-0.17956226,-0.06948897,0.55377936,0.025207372,-0.76781446,0.0,0.0,0.0,0.031053733,0.0014135287,-0.5499306
51168618,-0.16045307,-1.8296344,-2.2679012,-1.3564891,0.0,0.17106876,-0.18030776,-0.05976823,0.50226104,0.035510365,-0.7799048,0.0,0.0,0.0,0.028197225,0.0019935723,-0.55055934
51267964,-0.15735336,-1.8288566,-2.2650964,-1.3564891,0.0,0.16878267,-0.17753252,-0.05323477,0.5162547,0.036054805,-0.7973095,0.0,0.0,0.0,0.029030785,0.0020274862,-0.5514645
51357356,-0.154692,-1.8281875,-2.2626884,-1.3564891,0.0,0.1632462,-0.17932558,-0.045297444,0.4946817,0.029275596,-0.81738436,0.0,0.0,0.0,0.027870445,0.0016493918,-0.5525085
51456692,-0.15191491,-1.8274865,-2.2601755,-1.3564891,0.0,0.15087862,-0.19374737,-0.033499442,0.4869779,0.0008028187,-0.77411646,0.0,0.0,0.0,0.02732507,4.504737e-05,-0.55025834
51570928,-0.14892599,-1.8267324,-2.2574716,-1.3564891,0.0,0.13883394,-0.19848143,-0.022498537,0.4884238,-0.013529701,-0.74337345,0.0,0.0,0.0,0.027326949,-0.00075697683,-0.5486595
51670264,-0.14648785,-1.8261173,-2.255266,-1.3564891,0.0,0.12991156,-0.19625671,-0.017609414,0.45729712,-0.007355965,-0.77644855,0.0,0.0,0.0,0.02566502,-0.00041284104,-0.55037963
51769695,-0.14416254,-1.8255306,-2.2531626,-1.3564891,0.0,0.11084477,-0.19540657,-0.009513371,0.36324757,0.0126696285,-0.78320074,0.0,0.0,0.0,0.02039996,0.00071152544,-0.55073076
51854035,-0.1422965,-1.8250602,-2.2514744,-1.3564891,0.0,0.085800335,-0.19689503,-0.0008290354,0.34127307,0.005981504,-0.7718959,0.0,0.0,0.0,0.01914607,0.00033557377,-0.5501428
51973238,-0.1395507,-1.824368,-2.2489908,-1.3564891,0.0,0.0630197,-0.19829777,0.0072528087,0.2755878,0.014467856,-0.79757804,0.0,0.0,0.0,0.015497663,0.000813599,-0.55147845
52052866,-0.13780391,-1.8239273,-2.24741,-1.3564891,0.0,0.060144074,-0.20124461,0.0085436925,0.39839873,0.0040500294,-0.7940029,0.0,0.0,0.0,0.022396427,0.0002276769,-0.55129254
52171911,-0.1353597,-1.8233109,-2.2451994,-1.3564891,0.0,0.048199657,-0.20574541,0.0100708045,0.35296762,-0.02152218,-0.8176894,0.0,0.0,0.0,0.019886838,-0.0012125988,-0.5525244
52251378,-0.13384256,-1.8229282,-2.2438276,-1.3564891,0.0,0.035334684,-0.20999496,0.01003002,0.4009102,-0.0009909961,-0.83474773,0.0,0.0,0.0,0.022623973,-5.5923425e-05,-0.5534115
52370581,-0.1317002,-1.8223878,-2.2418897,-1.3564891,0.0,0.022754813,-0.20996962,0.0073090857,0.34388936,-0.007884276,-0.85363084,0.0,0.0,0.0,0.019441547,-0.00044573206,-0.55439353
52469967,-0.13005337,-1.8219725,-2.2404003,-1.3564891,0.0,0.019428639,-0.2065033,0.000492733,0.41304886,0.041176952,-0.9270849,0.0,0.0,0.0,0.023512015,0.0023439191,-0.55821353
52569310,-0.12851202,-1.821584,-2.239006,-1.3564891,0.0,0.016514486,-0.21095403,-0.0075598154,0.3761141,-0.027443914,-0.9904295,0.0,0.0,0.0,0.021535337,-0.0015713687,-0.5615078
52668588,-0.12706697,-1.8212192,-2.237699,-1.3564891,0.0,0.014874343,-0.21960661,-0.015461242,0.44068563,-0.0517656,-1.0027287,0.0,0.0,0.0,0.025262093,-0.0029674384,-0.56214744
52767924,-0.12572487,-1.8208807,-2.2364852,-1.3564891,0.0,0.019724924,-0.2231259,-0.022377465,0.4996711,-0.022322696,-1.0400338,0.0,0.0,0.0,0.028741585,-0.0012840239,-0.5640875
52857475,-0.12458192,-1.8205924,-2.235452,-1.3564891,0.0,0.030373536,-0.22364634,-0.028126482,0.4880513,-0.018713154,-1.0334524,0.0,0.0,0.0,0.028055612,-0.001075725,-0.5637452
52956662,-0.12339738,-1.820294,-2.2343814,-1.3564891,0.0,0.040411234,-0.22085585,-0.030386612,0.607574,-0.020269504,-0.9903666,0.0,0.0,0.0,0.034788966,-0.0011606078,-0.56150454
53056000,-0.12229534,-1.8200163,-2.233385,-1.3564891,0.0,0.047938425,-0.2180227,-0.031583555,0.55809635,0.010134708,-0.9950856,0.0,0.0,0.0,0.031969376,0.00058054546,-0.56174994
53170233,-0.12111268,-1.8197176,-2.2323148,-1.3564891,0.0,0.05553478,-0.21309815,-0.032678403,0.62164646,0.0014466876,-0.97666764,0.0,0.0,0.0,0.035549242,8.272974e-05,-0.5607921
53269569,-0.12015472,-1.8194762,-2.231448,-1.3564891,0.0,0.061534546,-0.21728846,-0.03687813,0.5753708,0.003865622,-1.0073745,0.0,0.0,0.0,0.0329971,0.00022169064,-0.562389
53368982,-0.11932495,-1.8192669,-2.2306964,-1.3564891,0.0,0.066421844,-0.21592449,-0.039622504,0.59178525,0.0059905834,-0.99037087,0.0,0.0,0.0,0.03388388,0.00034300316,-0.5615047
53468243,-0.118581995,-1.8190796,-2.2300236,-1.3564891,0.0,0.07041232,-0.21068536,-0.04171236,0.5807866,0.029866073,-1.0260267,0.0,0.0,0.0,0.03336431,0.0017157093,-0.563359
53547710,-0.11801573,-1.818937,-2.229511,-1.3564891,0.0,0.0734498,-0.20466699,-0.04138098,0.60343885,0.02085106,-1.0075105,0.0,0.0,0.0,0.0346061,0.0011957696,-0.5623961
53657146,-0.117287174,-1.8187534,-2.2288513,-1.3564891,0.0,0.081761934,-0.21341288,-0.044317827,0.6205624,-0.0138670495,-0.9884935,0.0,0.0,0.0,0.035525776,-0.0007938569,-0.5614071
53756314,-0.116666116,-1.818597,-2.2282896,-1.3564891,0.0,0.084441945,-0.21952507,-0.046112224,0.58414334,-0.003164902,-1.010937,0.0,0.0,0.0,0.033510536,-0.00018156087,-0.5625743
53855650,-0.116087005,-1.8184512,-2.2277656,-1.3564891,0.0,0.08083667,-0.23270719,-0.050351053,0.5447694,-0.075339645,-1.0067915,0.0,0.0,0.0,0.031239852,-0.0043203593,-0.56235874
53969887,-0.11546291,-1.8182938,-2.227201,-1.3564891,0.0,0.08240106,-0.2423449,-0.054462474,0.5487266,-0.044633694,-1.0189124,0.0,0.0,0.0,0.031501543,-0.0025623508,-0.56298906
54069222,-0.11495781,-1.8181663,-2.2267442,-1.3564891,0.0,0.08966749,-0.25234482,-0.059126608,0.6455662,-0.115156144,-1.0097045,0.0,0.0,0.0,0.037029464,-0.006605318,-0.5625102
54168608,-0.11448429,-1.8180465,-2.226316,-1.3564891,0.0,0.094874576,-0.26371145,-0.062151566,0.5899178,-0.10226191,-1.0506296,0.0,0.0,0.0,0.03396515,-0.005887839,-0.56463856
54272860,-0.11401814,-1.8179287,-2.2258945,-1.3564891,0.0,0.09777732,-0.2777531,-0.06657803,0.62340933,-0.1251147,-1.0575869,0.0,0.0,0.0,0.035917483,-0.007208434,-0.56500036
54352329,-0.113684915,-1.8178446,-2.225593,-1.3564891,0.0,0.0999552,-0.28499028,-0.0677896,0.613336,-0.14535321,-1.0295262,0.0,0.0,0.0,0.03524556,-0.0083527705,-0.56354105
54471724,-0.11321442,-1.8177255,-2.2251678,-1.3564891,0.0,0.10494085,-0.29574612,-0.068957895,0.6784361,-0.13154499,-1.0134908,0.0,0.0,0.0,0.03892872,-0.007548063,-0.5627071
54570868,-0.112849355,-1.8176333,-2.2248375,-1.3564891,0.0,0.10761003,-0.30186036,-0.06914997,0.6107955,-0.11678448,-1.0122205,0.0,0.0,0.0,0.035043966,-0.0067004287,-0.562641
54670207,-0.11250484,-1.8175464,-2.224526,-1.3564891,0.0,0.11006208,-0.30898017,-0.06851867,0.65959275,-0.12164544,-0.9664596,0.0,0.0,0.0,0.037683215,-0.00694973,-0.56026125
54769539,-0.112179734,-1.8174641,-2.224232,-1.3564891,0.0,0.10650464,-0.310734,-0.06827568,0.58066106,-0.09250956,-0.98379874,0.0,0.0,0.0,0.03322735,-0.005293704,-0.56116295
54868875,-0.111872606,-1.8173866,-2.2239547,-1.3564891,0.0,0.096770585,-0.30963588,-0.067226544,0.59895164,-0.10124384,-0.9390193,0.0,0.0,0.0,0.034132097,-0.0057695215,-0.5588342
54968212,-0.11158029,-1.8173131,-2.2236903,-1.3564891,0.0,0.08640757,-0.30901015,-0.062576294,0.5503321,-0.05747074,-0.9361883,0.0,0.0,0.0,0.031351715,-0.0032740345,-0.558687
55052646,-0.11130841,-1.8172445,-2.2234445,-1.3564891,0.0,0.077310696,-0.3108992,-0.057326898,0.5136064,-0.07282354,-0.92055273,0.0,0.0,0.0,0.029218893,-0.004142906,-0.55787385
55171849,-0.11093443,-1.8171502,-2.2231057,-1.3564891,0.0,0.07226779,-0.3054658,-0.051393032,0.56474775,-0.059544913,-0.9070364,0.0,0.0,0.0,0.032086637,-0.003383096,-0.55717087
55271299,-0.110673815,-1.817084,-2.2228703,-1.3564891,0.0,0.08427451,-0.2957955,-0.0518651,0.6153426,-0.00084199384,-0.9634104,0.0,0.0,0.0,0.035145637,-4.8090948e-05,-0.56010264
55370523,-0.110444166,-1.8170263,-2.2226622,-1.3564891,0.0,0.08738659,-0.2814161,-0.0486923,0.55787784,0.022903647,-0.95698005,0.0,0.0,0.0,0.031844445,0.001307372,-0.55976826
55469856,-0.11022546,-1.8169712,-2.2224643,-1.3564891,0.0,0.078297175,-0.26603177,-0.040746886,0.5431069,0.10036704,-0.9560274,0.0,0.0,0.0,0.030997861,0.0057284553,-0.55971867
55569254,-0.110016,-1.8169181,-2.222275,-1.3564891,0.0,0.070996046,-0.24882771,-0.032202765,0.5409384,0.08734359,-0.92497075,0.0,0.0,0.0,0.030784601,0.0049706907,-0.55810356
55608926,-0.10993576,-1.8168979,-2.2222023,-1.3564891,0.0,0.068905115,-0.24278095,-0.029544592,0.5183428,0.09820605,-0.9191746,0.0,0.0,0.0,0.029483553,0.0055860006,-0.55780214
60029372,-0.3296176,-0.18034923,-1.0391544,-1.3485281,0.7853982,-0.23573361,0.27524543,-0.4666636,0.5446982,-0.032035336,-1.1710067,0.0,0.0,0.0,0.031709775,-0.0018649473,-0.57089883
60049239,-0.33409157,-0.17512459,-1.0480157,-1.3485281,0.0,-0.23486298,0.2701381,-0.46698093,0.67501706,-0.10499562,-1.0959499,0.0,0.0,0.0,0.039027456,-0.006070531,-0.56699544
60128711,-0.35223758,-0.15383053,-1.084561,-1.3485281,0.0,-0.2155776,0.23762167,-0.4517293,0.9283563,-0.402779,-0.67688787,0.0,0.0,0.0,0.051612232,-0.022392612,-0.5452019
60228042,-0.37162673,-0.130837,-1.1263173,-1.3485281,0.0,-0.16100614,0.14991683,-0.4003002,1.1538491,-0.64487326,-0.24859232,0.0,0.0,0.0,0.06152766,-0.03438711,-0.5229282
60317446,-0.38549438,-0.11450186,-1.1573591,-1.3485281,0.0,-0.10854215,0.07385226,-0.3143811,1.1290182,-0.748865,0.21569383,0.0,0.0,0.0,0.057424005,-0.03808869,-0.49878272
60431676,-0.39819744,-0.09975176,-1.1834214,-1.3485281,0.0,-0.04073488,-0.025452219,-0.14685284,1.1591388,-0.76260996,0.61245507,0.0,0.0,0.0,0.056516927,-0.037183095,-0.47814894
60531017,-0.40445948,-0.09275344,-1.1917673,-1.3485281,0.0,0.01734849,-0.10626282,-0.015609708,1.1817255,-0.84950995,0.1640206,0.0,0.0,0.0,0.060428172,-0.043440152,-0.50147
60630378,-0.40621242,-0.09123334,-1.1902133,-1.3485281,0.0,0.060363952,-0.19831401,0.07107852,1.1133945,-0.86005914,-0.42698073,0.0,0.0,0.0,0.060423825,-0.046675336,-0.53220534
60729688,-0.4040096,-0.09427999,-1.1834948,-1.3485281,0.0,0.09478775,-0.26498467,0.112639196,0.89670146,-0.5968544,-0.9133321,0.0,0.0,0.0,0.050976597,-0.033930585,-0.55749834
60829026,-0.3994279,-0.099485725,-1.1747162,-1.3485281,0.0,0.10401176,-0.3044355,0.11917521,0.51089144,-0.23599836,-1.3304332,0.0,0.0,0.0,0.030173691,-0.01393827,-0.5791899
60928573,-0.3949733,-0.10456732,-1.1664401,-1.3485281,0.0,0.086075924,-0.31242993,0.102757476,0.42286402,-0.17135528,-1.3488473,0.0,0.0,0.0,0.025016662,-0.0101373885,-0.5801475
61012796,-0.39173096,-0.10845732,-1.1601368,-1.3485281,0.0,0.07569346,-0.32456124,0.09960705,0.41758394,-0.18799841,-1.2490051,0.0,0.0,0.0,0.024483072,-0.011022403,-0.57495517
61131999,-0.38746932,-0.113589376,-1.1518282,-1.3485281,0.0,0.059007164,-0.32934904,0.097992785,0.40776297,-0.20198503,-1.1677305,0.0,0.0,0.0,0.02373053,-0.0117548965,-0.5707284
61231336,-0.38412845,-0.11756917,-1.1453621,-1.3485281,0.0,0.05305784,-0.33936846,0.09437886,0.4032347,-0.22841385,-1.1570448,0.0,0.0,0.0,0.02344501,-0.013280517,-0.5701727
61330670,-0.38099772,-0.1212903,-1.1392872,-1.3485281,0.0,0.04494057,-0.33807826,0.08977266,0.4067949,-0.19263029,-1.1590934,0.0,0.0,0.0,0.023656584,-0.011202142,-0.57027924
61430007,-0.37805578,-0.12482269,-1.1335466,-1.3485281,0.0,0.03519102,-0.3431099,0.08372775,0.41087067,-0.13405049,-1.1944513,0.0,0.0,0.0,0.023969492,-0.007820277,-0.57211804
61529396,-0.37525132,-0.12817657,-1.1281177,-1.3485281,0.0,0.024762506,-0.33730114,0.078515075,0.39077535,-0.17626357,-1.1679628,0.0,0.0,0.0,0.022742834,-0.010258408,-0.5707405
61628678,-0.37261856,-0.13132985,-1.1230125,-1.3485281,0.0,0.020065323,-0.3446734,0.07011083,0.3546966,-0.18880667,-1.186953,0.0,0.0,0.0,0.020678325,-0.011007169,-0.5717281
61728133,-0.37015447,-0.13429558,-1.1182103,-1.3485281,0.0,0.014275646,-0.34301654,0.061278127,0.35927966,-0.16059574,-1.22361,0.0,0.0,0.0,0.021015294,-0.009393706,-0.57363445
61832317,-0.36769345,-0.13724965,-1.1134255,-1.3485281,0.0,0.018807836,-0.3385257,0.04331779,0.4162313,-0.14474109,-1.2742862,0.0,0.0,0.0,0.024458606,-0.008505284,-0.5762699
61931667,-0.36547002,-0.13990697,-1.1091207,-1.3485281,0.0,0.021861153,-0.3270649,0.02870107,0.43485263,-0.10066235,-1.3253238,0.0,0.0,0.0,0.02567164,-0.0059426287,-0.5789242
62030989,-0.36335325,-0.14243646,-1.1050225,-1.3485281,0.0,0.029188922,-0.3217156,0.01460116,0.4733259,-0.08457339,-1.316162,0.0,0.0,0.0,0.027920207,-0.0049887532,-0.5784477
62130325,-0.36134923,-0.14483127,-1.1011416,-1.3485281,0.0,0.033249192,-0.30755964,0.005666051,0.47277045,-0.050696246,-1.3201952,0.0,0.0,0.0,0.027896846,-0.002991442,-0.57865745
62229685,-0.3594474,-0.14710416,-1.0974581,-1.3485281,0.0,0.03899362,-0.30687135,-0.0077706724,0.48822278,-0.09088499,-1.3210162,0.0,0.0,0.0,0.028809397,-0.0053630066,-0.5787001
62314096,-0.35791764,-0.14893258,-1.0944948,-1.3485281,0.0,0.040624574,-0.2978574,-0.015229888,0.484844,-0.06112974,-1.3422533,0.0,0.0,0.0,0.02866511,-0.0036141332,-0.5798046
62413432,-0.35619962,-0.1509857,-1.0911672,-1.3485281,0.0,0.031070799,-0.30229282,-0.028288338,0.381117,-0.094527945,-1.4112272,0.0,0.0,0.0,0.022672476,-0.0056234244,-0.5833916
62532805,-0.35427725,-0.15328327,-1.0874426,-1.3485281,0.0,0.014770004,-0.30390444,-0.04163192,0.397788,-0.119311824,-1.4098226,0.0,0.0,0.0,0.023661353,-0.0070969444,-0.58331853
62631971,-0.35277528,-0.15507858,-1.0845321,-1.3485281,0.0,0.019459944,-0.3063084,-0.056527983,0.42088044,-0.12201723,-1.4845579,0.0,0.0,0.0,0.025200881,-0.007305974,-0.58720523
62731307,-0.35136005,-0.15677005,-1.0817895,-1.3485281,0.0,0.022166407,-0.30019438,-0.06622134,0.45335475,-0.10712123,-1.4527267,0.0,0.0,0.0,0.027069096,-0.0063960394,-0.58554983
62830638,-0.3500171,-0.15837526,-1.0791863,-1.3485281,0.0,0.027745811,-0.29857805,-0.08212109,0.50798476,-0.10560072,-1.4877663,0.0,0.0,0.0,0.03042576,-0.006324958,-0.58737206
62929981,-0.34874457,-0.15989622,-1.0767199,-1.3485281,0.0,0.030191721,-0.28785703,-0.09197256,0.4676556,-0.08259333,-1.4977583,0.0,0.0,0.0,0.02803508,-0.004951316,-0.5878917
63029314,-0.34754354,-0.16133186,-1.0743918,-1.3485281,0.0,0.029744841,-0.28218395,-0.106466085,0.52715963,-0.07869883,-1.4965012,0.0,0.0,0.0,0.03159848,-0.004717287,-0.5878263
63128650,-0.34639704,-0.16270225,-1.0721695,-1.3485281,0.0,0.02741664,-0.26863432,-0.11454654,0.46635407,-0.027623503,-1.4960756,0.0,0.0,0.0,0.027952384,-0.0016557007,-0.5878042
63227986,-0.34531492,-0.16399571,-1.0700719,-1.3485281,0.0,0.041172367,-0.2621333,-0.12418735,0.53984964,-0.028216166,-1.522054,0.0,0.0,0.0,0.032433506,-0.0016951927,-0.5891552
63317426,-0.34438846,-0.16510306,-1.0682766,-1.3485281,0.0,0.050838705,-0.25112158,-0.12744057,0.54768467,0.0005667894,-1.4743931,0.0,0.0,0.0,0.032764688,3.3907607e-05,-0.5866766
63416725,-0.34340715,-0.16627601,-1.0663747,-1.3485281,0.0,0.049094617,-0.24548976,-0.13179405,0.58814865,-0.018905388,-1.4290013,0.0,0.0,0.0,0.035043374,-0.0011264305,-0.58431596
63516062,-0.3424864,-0.16737667,-1.0645897,-1.3485281,0.0,0.04328979,-0.23485255,-0.13116539,0.53903514,0.031064987,-1.3989384,0.0,0.0,0.0,0.032031775,0.0018460143,-0.5827525
63630297,-0.34147587,-0.16858466,-1.0626305,-1.3485281,0.0,0.061008926,-0.21094352,-0.13551211,0.5377576,0.08776792,-1.3614806,0.0,0.0,0.0,0.031849273,0.0051981495,-0.5808045
63729674,-0.3406479,-0.16957453,-1.0610253,-1.3485281,0.0,0.07544267,-0.18513952,-0.13613355,0.61726743,0.15835313,-1.3380286,0.0,0.0,0.0,0.036481023,0.009358802,-0.5795849
63828969,-0.33986175,-0.17051426,-1.059501,-1.3485281,0.0,0.08134606,-0.17571166,-0.13529462,0.625517,0.13553041,-1.2805574,0.0,0.0,0.0,0.03677831,0.007968736,-0.576596
63913454,-0.33922568,-0.17127457,-1.0582678,-1.3485281,0.0,0.08261676,-0.16351378,-0.131432,0.57009524,0.16584484,-1.2639134,0.0,0.0,0.0,0.03346913,0.009736412,-0.57573044
64032621,nan,nan,nan,-1.3839161,0.0,0.03258463,0.0060881344,-0.009069208,1.174844,0.6435437,-1.3679907,0.0,0.0,0.0,0.06962137,0.038136464,-0.5811431
64132041,nan,nan,nan,-1.3839161,0.0,0.12647846,0.037171777,-0.11085498,1.3673959,1.033145,-2.5816238,0.0,0.0,0.0,0.08983253,0.06787356,-0.6442587
64231279,nan,nan,nan,-1.3839161,0.0,0.18092428,0.13283785,-0.28426966,0.8553681,1.6642346,-3.1077414,0.0,0.0,0.0,0.05858099,0.11397727,-0.6716197
64330615,nan,nan,nan,-1.3839161,0.0,0.15651187,0.30763447,-0.41783306,-0.1277613,2.5553954,-2.1658814,0.0,0.0,0.0,-0.008111745,0.16224566,-0.6226378
64430139,nan,nan,nan,-1.3839161,0.0,0.06738266,0.52974355,-0.47237816,-0.4922215,2.3194504,-1.10922,0.0,0.0,0.0,-0.028493594,0.13426776,-0.56768554
64529287,nan,nan,nan,-1.3839161,0.0,-0.027580008,0.6827902,-0.46903676,-0.5785215,1.6720119,-0.9289659,0.0,0.0,0.0,-0.03293632,0.09519079,-0.55831134
64628624,nan,nan,nan,-1.3839161,0.0,-0.09798566,0.7575107,-0.4674419,0.10473856,0.7110176,-0.92953575,0.0,0.0,0.0,0.005963268,0.04048164,-0.55834097
64732926,nan,nan,nan,-1.3839161,0.0,-0.095477864,0.75084215,-0.462734,0.5967818,-0.1871598,-1.0904927,0.0,0.0,0.0,0.034486983,-0.01081564,-0.56671166
64832262,nan,nan,nan,-1.3839161,0.0,-0.078106724,0.6632475,-0.45402035,0.70851994,-1.0861995,-1.4354156,0.0,0.0,0.0,0.04224035,-0.06475676,-0.58464956
64931614,nan,nan,nan,-1.3839161,0.0,-0.060860787,0.4977331,-0.45490953,0.7516531,-1.960922,-1.2631186,0.0,0.0,0.0,0.044124972,-0.11511379,-0.57568914
65030934,nan,nan,nan,-1.3839161,0.0,-0.043502387,0.27122852,-0.45959392,0.7477908,-2.0231671,-1.2237356,0.0,0.0,0.0,0.043742105,-0.11834538,-0.573641
65130275,nan,nan,nan,-1.3839161,0.0,-0.01203006,0.103866994,-0.45959395,1.1586105,-1.2658541,-1.0459845,0.0,0.0,0.0,0.06668087,-0.072853,-0.564397
65229757,nan,nan,nan,-1.3839161,0.0,0.08829275,0.0151565205,-0.45959395,1.7073914,-0.3394919,-1.0559013,0.0,0.0,0.0,0.09835433,-0.019556444,-0.5649127
65328942,nan,nan,nan,-1.3839161,0.0,0.21258456,0.0056281895,-0.45959395,2.195472,0.5649474,-1.1108612,0.0,0.0,0.0,0.12711011,0.03270847,-0.5677709
65428280,nan,nan,nan,-1.3839161,0.0,0.32407716,0.043990523,-0.45490953,1.3385351,0.88027424,-1.1602484,0.0,0.0,0.0,0.07784702,0.05119532,-0.5703393
65507749,nan,nan,nan,-1.3839161,0.0,0.3563117,0.07194079,-0.45490953,0.75797164,0.39686367,-1.1686333,0.0,0.0,0.0,0.044116676,0.023098892,-0.5707754
65617016,nan,nan,nan,-1.3839161,0.0,0.3181158,0.056245573,-0.45490953,-0.27432597,0.11521724,-1.2471584,0.0,0.0,0.0,-0.016080992,0.0067540365,-0.57485914
65716352,nan,nan,nan,-1.3839161,0.0,0.20082258,0.038418822,-0.44561398,-1.1357386,-0.032915592,-1.2350332,0.0,0.0,0.0,-0.06650319,-0.001927373,-0.5742285
65830590,nan,nan,nan,-1.3839161,0.0,0.048852812,0.017850379,-0.44561398,-0.5425618,-0.03048855,-1.2379638,0.0,0.0,0.0,-0.031778723,-0.0017857635,-0.57438093
65929936,-0.31505856,0.42088717,nan,-1.3839161,0.0,-0.0011524169,-0.0003438528,-0.44561398,0.29268223,0.043405816,-1.232669,0.0,0.0,0.0,0.01713411,0.0025410496,-0.57410556
66029391,-0.3150568,0.42088893,nan,-1.3839161,0.0,-0.009467494,-0.00994388,-0.44561398,0.4847418,0.0945789,-1.2028431,0.0,0.0,0.0,0.028300723,0.0055218083,-0.57255447
66128596,-0.3150568,0.42088893,nan,-1.3839161,0.0,-0.014308287,-0.0157256,-0.44561398,0.5231593,0.11204467,-1.1838659,0.0,0.0,0.0,0.030491669,0.0065303794,-0.57156754
66208069,-0.3150568,0.42088893,nan,-1.3839161,0.0,-0.01251117,-0.018832695,-0.44880104,0.51096153,0.08697894,-1.1753867,0.0,0.0,0.0,0.029756991,0.0050654137,-0.5711266
66317335,-0.3150568,0.42088893,nan,-1.3839161,0.0,-0.011169708,-0.020194653,-0.4471706,0.5067295,0.09803012,-1.3548472,0.0,0.0,0.0,0.029993746,0.0058024856,-0.58045954
66416675,-0.3150568,0.42088893,nan,-1.3839161,0.0,-0.005256705,-0.027349856,-0.4477473,0.532548,0.06306385,-1.385845,0.0,0.0,0.0,0.031608723,0.0037430767,-0.5820716
66516006,-0.3150568,0.42088893,nan,-1.3839161,0.0,-0.0009668961,-0.032973453,-0.4459002,0.5189179,0.048240714,-1.1046321,0.0,0.0,0.0,0.03002709,0.00279144,-0.56744695
66630244,-0.3150568,0.42088893,nan,-1.3839161,0.0,-0.0054170936,-0.04058873,-0.44561398,0.4873773,0.05653712,-1.1855606,0.0,0.0,0.0,0.028409861,0.003295623,-0.5716557
66729579,-0.3150568,0.42088893,nan,-1.3839161,0.0,-0.012339881,-0.04562997,-0.445614,0.51043534,0.06999772,-1.2113937,0.0,0.0,0.0,0.029823959,0.0040898602,-0.5729992
66829053,-0.3150568,0.42088893,nan,-1.3839161,0.0,-0.008562381,-0.05431743,-0.445614,0.5065634,0.013360944,-1.2595942,0.0,0.0,0.0,0.029727334,0.000784078,-0.57550585
66913351,-0.3150568,0.42088893,nan,-1.3839161,0.0,-0.006774834,-0.058572076,-0.445614,0.5571371,0.015380926,-1.2890325,0.0,0.0,0.0,0.03278245,0.00090502755,-0.5770368
67032554,-0.3150568,0.42088893,nan,-1.3839161,0.0,-0.01562067,-0.0789788,-0.445614,0.4769993,-0.033827562,-1.2683418,0.0,0.0,0.0,0.02801438,-0.0019867076,-0.57596076
67131893,-0.3150568,0.42088893,nan,-1.3839161,0.0,-0.025073068,-0.09379877,-0.4399593,0.5014651,-0.0338801,-1.4008772,0.0,0.0,0.0,0.029804721,-0.0020136735,-0.5828534
67231226,-0.3150568,0.42088893,nan,-1.3839161,0.0,-0.032289654,-0.10483322,-0.44561398,0.43892574,-0.04205922,-1.2832122,0.0,0.0,0.0,0.0258132,-0.0024735006,-0.5767341
67330561,-0.3150568,0.42088893,nan,-1.3839161,0.0,-0.03940757,-0.11049295,-0.44561398,0.49848482,-0.04533749,-1.2484438,0.0,0.0,0.0,0.029224,-0.0026579401,-0.57492596
67429900,-0.3150568,0.42088893,nan,-1.3839161,0.0,-0.04255045,-0.13207857,-0.44561398,0.46103653,-0.064413294,-1.2816025,0.0,0.0,0.0,0.027110267,-0.0037876861,-0.5766504
67529233,-0.3150568,0.42088893,nan,-1.3839161,0.0,-0.046434008,-0.14545797,-0.44561398,0.43246782,-0.07952025,-1.2678345,0.0,0.0,0.0,0.025399126,-0.0046702772,-0.5759344
67628620,-0.3150568,0.42088893,nan,-1.3839161,0.0,-0.048991166,-0.15072596,-0.44561398,0.48252076,-0.050670702,-1.2497146,0.0,0.0,0.0,0.0282916,-0.0029709712,-0.57499206
67732872,-0.3150568,0.42088893,nan,-1.3839161,0.0,-0.05240038,-0.15007167,-0.44561398,0.48473427,-0.05186648,-1.236289,0.0,0.0,0.0,0.028387066,-0.0030374106,-0.57429385
67812342,-0.3150568,0.42088893,nan,-1.3839161,0.0,-0.039825004,-0.15777428,-0.44561398,0.4767305,-0.017540257,-1.276039,0.0,0.0,0.0,0.028018761,-0.0010308891,-0.57636106
67931544,-0.3150568,0.42088893,nan,-1.3839161,0.0,-0.027018938,-0.1614885,-0.44561398,0.5285984,-0.044836916,-1.2272271,0.0,0.0,0.0,0.03093076,-0.0026236172,-0.57382256
68030881,-0.3150568,0.42088893,nan,-1.3839161,0.0,-0.016120268,-0.16361663,-0.44561398,0.52838254,-0.010262409,-1.2272955,0.0,0.0,0.0,0.030918494,-0.00060050853,-0.57382613
68130217,-0.3150568,0.42088893,nan,-1.3839161,0.0,-0.009341392,-0.16104078,-0.44561398,0.51630896,-0.01600259,-1.2251127,0.0,0.0,0.0,0.030205693,-0.00093620166,-0.57371265
68229555,-0.3150568,0.42088893,nan,-1.3839161,0.0,-0.003890896,-0.163375,-0.44561398,0.5496617,-0.012947355,-1.2233939,0.0,0.0,0.0,0.032151405,-0.00075733074,-0.57362324
68328888,-0.3150568,0.42088893,nan,-1.3839161,0.0,-0.0016222671,-0.16148108,-0.44561398,0.4799593,0.012624422,-1.2667491,0.0,0.0,0.0,0.028185166,0.00074135757,-0.57587796
68428241,-0.3150568,0.42088893,nan,-1.3839161,0.0,0.011441183,-0.16858348,-0.44561398,0.5353697,-0.029861901,-1.2929138,0.0,0.0,0.0,0.03151315,-0.0017577434,-0.5772387
68517627,-0.3150568,0.42088893,nan,-1.3839161,0.0,0.018468613,-0.1698145,-0.44561398,0.5499548,-0.0012088846,-1.340876,0.0,0.0,0.0,0.032511458,-7.146515e-05,-0.57973295
68616963,-0.3150568,0.42088893,nan,-1.3839161,0.0,0.031032834,-0.16814867,-0.4502498,0.55913234,0.007675073,-1.3995724,0.0,0.0,0.0,0.033228286,0.0004561165,-0.5827855
68716401,-0.3150568,0.42088893,nan,-1.3839161,0.0,0.038300037,-0.16239694,-0.4502498,0.52052695,0.015244402,-1.3705939,0.0,0.0,0.0,0.03085416,0.0009036097,-0.58127844
68815642,-0.3150568,0.42088893,nan,-1.3839161,0.0,0.0493243,-0.16265118,-0.4502498,0.5946381,-0.005166525,-1.3493947,0.0,0.0,0.0,0.035179485,-0.0003056576,-0.580176
68914972,-0.3150568,0.42088893,nan,-1.3839161,0.0,0.05488915,-0.1592172,-0.4502498,0.59016836,0.029660743,-1.3463688,0.0,0.0,0.0,0.034905802,0.0017542993,-0.5800186
69029233,-0.3150568,0.42088893,nan,-1.3839161,0.0,0.07082844,-0.15432806,-0.4502498,0.6189287,-0.009390876,-1.3260328,0.0,0.0,0.0,0.036540475,-0.000554421,-0.578961
69128544,-0.3150568,0.42088893,nan,-1.3839161,0.0,0.08070781,-0.14731808,-0.4502498,0.589668,0.035681427,-1.3414954,0.0,0.0,0.0,0.0348616,0.0021095118,-0.57976514
69227933,-0.3150568,0.42088893,nan,-1.3839161,0.0,0.088341095,-0.14024252,-0.4502498,0.61712015,0.06105768,-1.3359232,0.0,0.0,0.0,0.036465093,0.0036078456,-0.5794754
69332182,-0.3150568,0.42088893,nan,-1.3839161,0.0,0.089869194,-0.13017718,-0.4502498,0.5656327,0.046823427,-1.3052458,0.0,0.0,0.0,0.03333176,0.0027592238,-0.57787997
69431518,-0.3150568,0.42088893,nan,-1.3839161,0.0,0.09151843,-0.12811747,-0.4502498,0.5851678,0.03699185,-1.3079231,0.0,0.0,0.0,0.03449046,0.0021803416,-0.5780192
69531001,-0.3150568,0.42088893,nan,-1.3839161,0.0,0.08825347,-0.12302455,-0.44561398,0.5711655,0.05250271,-1.2885481,0.0,0.0,0.0,0.033606146,0.0030891462,-0.5770116
69630190,-0.3150568,0.42088893,nan,-1.3839161,0.0,0.090789765,-0.11298669,-0.4502498,0.5274116,0.06291058,-1.3208127,0.0,0.0,0.0,0.031122897,0.0037123938,-0.5786896
69729526,-0.3150568,0.42088893,nan,-1.3839161,0.0,0.08827898,-0.10180665,-0.45024982,0.5906155,0.08032076,-1.2945268,0.0,0.0,0.0,0.03477036,0.0047285953,-0.57732254
69833834,-0.3150568,0.42088893,nan,-1.3839161,0.0,0.08717175,-0.10180716,-0.44925356,0.5074175,0.04750976,-1.3971512,0.0,0.0,0.0,0.030147726,0.002822747,-0.5826596
69913298,-0.3150568,0.42088893,nan,-1.3839161,0.0,0.08362632,-0.099965565,-0.4502498,0.5881129,0.05550868,-1.2722434,0.0,0.0,0.0,0.03455255,0.0032612218,-0.57616365
70032532,-0.3150568,0.42088893,nan,-1.3839161,0.0,0.07772037,-0.09541823,-0.4564354,0.50643,0.053487267,-1.4632249,0.0,0.0,0.0,0.030266855,0.003196674,-0.58609575
70111970,-0.3150568,0.42088893,nan,-1.3839161,0.0,0.071600765,-0.091038555,-0.4435536,0.5177828,0.04328946,-0.7643456,0.0,0.0,0.0,0.029026132,0.0024267428,-0.5497502
70231176,-0.3150568,0.42088893,nan,-1.3839161,0.0,0.06504737,-0.08892731,-0.32912475,0.53147393,0.04738712,0.53265595,0.0,0.0,0.0,0.026138175,0.0023305244,-0.48229894
70330629,-0.3150568,0.42088893,nan,-1.3839161,0.0,0.056691788,-0.08532079,-0.15958299,0.45462272,0.04560155,0.9408507,0.0,0.0,0.0,0.021374632,0.0021440117,-0.46107057
70429846,-0.3150568,0.42088893,nan,-1.3839161,0.0,0.057444297,-0.08121473,-0.031575434,0.45791578,0.08748688,0.17915934,0.0,0.0,0.0,0.023379205,0.004466703,-0.5006827
70529182,-0.3150568,0.42088893,nan,-1.3839161,0.0,0.053594943,-0.074985646,0.027564993,0.43552005,0.06949998,-0.96121925,0.0,0.0,0.0,0.024869803,0.0039687054,-0.5599887
70628517,-0.3150568,0.42088893,nan,-1.3839161,0.0,0.038383443,-0.08198437,0.046294596,0.430272,0.07364627,-1.0908469,0.0,0.0,0.0,0.024866315,0.004256171,-0.5667301
70727853,-0.3150568,0.42088893,nan,-1.3839161,0.0,0.022495883,-0.08452052,0.047554143,0.43464372,0.031548623,-1.3471577,0.0,0.0,0.0,0.02570844,0.0018660476,-0.58005965
70817256,-0.3150568,0.42088893,nan,-1.3839161,0.0,0.0064038187,-0.09152666,0.049674287,0.38668072,0.01720662,-1.2113433,0.0,0.0,0.0,0.022594506,0.0010054163,-0.57299656
70916592,-0.3150568,0.42088893,nan,-1.3839161,0.0,-0.011073305,-0.09597241,0.049731847,0.3976195,-0.00930726,-1.1772168,0.0,0.0,0.0,0.023161393,-0.0005421492,-0.57122177
71015928,-0.3150568,0.42088893,nan,-1.3839161,0.0,-0.020119084,-0.10497292,0.04861136,0.35534084,-0.0088855475,-1.1376865,0.0,0.0,0.0,0.02062272,-0.00051568565,-0.56916595
71115284,-0.3150568,0.42088893,nan,-1.3839161,0.0,-0.026865572,-0.112184376,0.04967843,0.4169222,-0.04703717,-1.0990341,0.0,0.0,0.0,0.024112185,-0.0027203371,-0.56715584
71229500,-0.3150568,0.42088893,nan,-1.3839161,0.0,-0.038632408,-0.1302278,0.049731843,0.37131387,-0.08987172,-1.1756676,0.0,0.0,0.0,0.021625971,-0.005234286,-0.5711412
71328836,-0.3150568,0.42088893,nan,-1.3839161,0.0,-0.04851314,-0.1413327,0.05191835,0.38118038,-0.121708296,-1.1390718,0.0,0.0,0.0,0.02212561,-0.0070645567,-0.569238
71428172,-0.3150568,0.42088893,nan,-1.3839161,0.0,-0.047231507,-0.15578406,0.06576614,0.4261505,-0.120918214,-1.1667649,0.0,0.0,0.0,0.024798302,-0.007036402,-0.57067823
71517575,-0.3150568,0.42088893,nan,-1.3839161,0.0,-0.047997408,-0.16306652,0.063432366,0.48705038,-0.11809307,-1.2430074,0.0,0.0,0.0,0.028539613,-0.0069198804,-0.57464325
71616912,-0.3150568,0.42088893,nan,-1.3839161,0.0,-0.043972656,-0.17239058,0.06343238,0.4511861,-0.1211693,-1.2494937,0.0,0.0,0.0,0.026453864,-0.007104377,-0.57498056
71716247,-0.3150568,0.42088893,nan,-1.3839161,0.0,-0.04151952,-0.17648491,0.07651584,0.48291317,-0.115815826,-1.0086793,0.0,0.0,0.0,0.02769642,-0.006642361,-0.5624569
71815583,-0.3150568,0.42088893,nan,-1.3839161,0.0,-0.03702334,-0.17987558,0.081343666,0.44553137,-0.13606255,-1.2158067,0.0,0.0,0.0,0.02604187,-0.007953027,-0.57322866
71914938,-0.3150568,0.42088893,nan,-1.3839161,0.0,-0.034658138,-0.17931676,0.0825737,0.5388893,-0.121736236,-1.2101843,0.0,0.0,0.0,0.031483542,-0.0071121985,-0.57293624
72029158,-0.3150568,0.42088893,nan,-1.3839161,0.0,-0.031725843,-0.18256819,0.08879799,0.48518962,-0.13266385,-1.2092403,0.0,0.0,0.0,0.028343523,-0.007749879,-0.5728872
72128503,-0.3150568,0.42088893,nan,-1.3839161,0.0,-0.0307927,-0.18263076,0.089952245,0.48234996,-0.10141067,-1.1337867,0.0,0.0,0.0,0.02798487,-0.0058836215,-0.56896317
72228010,-0.3150568,0.42088893,nan,-1.3839161,0.0,-0.030043814,-0.18313138,0.09624662,0.520273,-0.079757765,-0.90013826,0.0,0.0,0.0,0.029540226,-0.004528512,-0.55681217
72332131,-0.3150568,0.42088893,nan,-1.3839161,0.0,-0.031667437,-0.17881683,0.13350487,0.49550247,-0.09355357,-0.7348998,0.0,0.0,0.0,0.02769956,-0.0052298284,-0.54821885
72431467,-0.3150568,0.42088893,nan,-1.3839161,0.0,-0.032089487,-0.177307,0.13943239,0.47703716,-0.04540782,-1.2082216,0.0,0.0,0.0,0.027864598,-0.0026523522,-0.5728342
72530813,-0.3150568,0.42088893,nan,-1.3839161,0.0,-0.035123535,-0.1719074,0.13943239,0.42621142,-0.051787168,-1.232634,0.0,0.0,0.0,0.024952102,-0.0030318259,-0.5741038
72630139,-0.3150568,0.42088893,nan,-1.3839161,0.0,-0.03473045,-0.16967912,0.13498321,0.45705342,-0.06231528,-1.240633,0.0,0.0,0.0,0.026776772,-0.0036507815,-0.57451975
72729536,-0.3150568,0.42088893,nan,-1.3839161,0.0,-0.036706444,-0.16341238,0.13205427,0.42032585,-0.031907715,-1.2293681,0.0,0.0,0.0,0.024598762,-0.0018673375,-0.5739339
72813912,-0.3150568,0.42088893,nan,-1.3839161,0.0,-0.03930638,-0.16661783,0.12915449,0.4415429,-0.0909123,-1.1970739,0.0,0.0,0.0,0.025765976,-0.0053051338,-0.5722545
72913247,-0.3150568,0.42088893,nan,-1.3839161,0.0,-0.043216694,-0.16670254,0.12915449,0.47476006,-0.061695345,-1.2114346,0.0,0.0,0.0,0.027740201,-0.0036048554,-0.57300127
73032618,-0.3150568,0.42088893,nan,-1.3839161,0.0,-0.03499177,-0.16259274,0.12628329,0.49523565,-0.07527498,-1.2474449,0.0,0.0,0.0,0.029030766,-0.0044126273,-0.57487404
73131786,-0.3150568,0.42088893,nan,-1.3839161,0.0,-0.028920358,-0.15571101,0.1248583,0.5158323,-0.04287467,-1.2580559,0.0,0.0,0.0,0.030268123,-0.0025158096,-0.57542586
73231122,-0.3150568,0.42088893,nan,-1.3839161,0.0,-0.024719732,-0.15765837,0.1248583,0.49322924,-0.04455141,-1.262015,0.0,0.0,0.0,0.028952071,-0.0026151238,-0.57563174
73315558,-0.3150568,0.42088893,nan,-1.3839161,0.0,-0.022969019,-0.15521803,0.1248583,0.49749693,-0.049728185,-1.2839435,0.0,0.0,0.0,0.029259892,-0.0029247242,-0.57677215
73414895,-0.3150568,0.42088893,nan,-1.3839161,0.0,-0.028268073,-0.15687883,0.12344025,0.42697045,-0.03732597,-1.2904545,0.0,0.0,0.0,0.02512649,-0.0021965704,-0.57711077
73514230,-0.3150568,0.42088893,nan,-1.3839161,0.0,-0.035695754,-0.15564136,0.12344025,0.460863,-0.057601906,-1.2729106,0.0,0.0,0.0,0.027078215,-0.0033844262,-0.5761984
73613566,nan,nan,nan,-1.3839161,0.0,-0.033061534,-0.15158282,0.12062472,0.64424247,0.11084908,-1.2721528,0.0,0.0,0.0,0.03785031,0.0065125674,-0.57615894
73732769,nan,nan,nan,-1.3839161,0.0,-0.0025734163,-0.08520185,0.1213828,0.7932155,0.48986894,-1.1132772,0.0,0.0,0.0,0.04593459,0.02836799,-0.56789654
73832257,nan,nan,nan,-1.3839161,0.0,0.012480669,-0.06600506,0.118459955,0.5093581,0.017886674,-1.3206613,0.0,0.0,0.0,0.03005633,0.0010554614,-0.57868165
73931442,nan,nan,nan,-1.3839161,0.0,0.013602311,-0.07247492,0.11507428,0.5134316,-0.32061902,-1.2023944,0.0,0.0,0.0,0.029975833,-0.0187188,-0.57253116
74030777,nan,nan,nan,-1.3839161,0.0,0.017089935,-0.08916731,0.11387601,0.49232364,-0.2850145,-1.2756007,0.0,0.0,0.0,0.028934017,-0.016750395,-0.5763383
74130113,nan,nan,nan,-1.3839161,0.0,0.02359509,-0.13268916,0.11507426,0.63121533,-0.4335349,-1.2294006,0.0,0.0,0.0,0.036942102,-0.025372785,-0.5739356
74229450,nan,nan,nan,-1.3839161,0.0,0.031247605,-0.17383775,0.11507426,0.60412645,-0.7153497,-1.2401961,0.0,0.0,0.0,0.03539139,-0.04190715,-0.57449704
74328787,nan,nan,nan,-1.3839161,0.0,0.040415682,-0.22750935,0.113703094,0.58076286,-0.6689357,-1.231614,0.0,0.0,0.0,0.033996087,-0.039157458,-0.5740507
74428122,nan,nan,nan,-1.3839161,0.0,0.050204176,-0.26964065,0.113703094,0.6493579,-0.86116976,-1.1916212,0.0,0.0,0.0,0.037873775,-0.05022769,-0.5719709
74507591,nan,nan,nan,-1.3839161,0.0,0.05814112,-0.31107196,0.113703094,0.65420866,-0.56895673,-1.1926885,0.0,0.0,0.0,0.038160477,-0.03318767,-0.5720264
74616893,nan,nan,nan,-1.3839161,0.0,0.07413379,-0.41124713,0.113703094,0.76977766,-1.4517187,-1.2144612,0.0,0.0,0.0,0.04499041,-0.084847115,-0.5731587
74731097,nan,nan,nan,-1.3839161,0.0,0.09569626,-0.5575743,0.113703094,0.82418317,-1.0648594,-1.2194254,0.0,0.0,0.0,0.048191912,-0.06226482,-0.5734168
74830433,nan,nan,nan,-1.3839161,0.0,0.114796445,-0.62385535,0.113703094,0.73684657,-0.5902887,-1.101244,0.0,0.0,0.0,0.04262301,-0.034145348,-0.56727076
74929769,nan,nan,nan,-1.3839161,0.0,0.12346698,-0.64964974,0.113703094,0.4792369,-0.030008867,-1.1398635,0.0,0.0,0.0,0.027820136,-0.001742042,-0.5692792
75029107,nan,nan,nan,-1.3839161,0.0,0.11631036,-0.615084,0.113703094,0.3888362,0.22353473,-1.150028,0.0,0.0,0.0,0.022593591,0.012988637,-0.5698078
75128442,nan,nan,nan,-1.3839161,0.0,0.10730032,-0.57283926,0.113703094,0.5200944,0.3735061,-1.2005192,0.0,0.0,0.0,0.030358786,0.021802181,-0.57243365
75232788,nan,nan,nan,-1.3839161,0.0,0.10369452,-0.55070245,0.11393465,0.44773984,0.103801295,-1.3133295,0.0,0.0,0.0,0.026402656,0.0061210315,-0.57830036
75332083,nan,nan,nan,-1.3839161,0.0,0.095241085,-0.5094324,0.113703094,0.43850505,0.28568554,-1.2334926,0.0,0.0,0.0,0.025672719,0.016725747,-0.5741484
75431494,nan,nan,nan,-1.3839161,0.0,0.093777366,-0.4959494,0.113703094,0.47072825,-0.096055225,-1.2056874,0.0,0.0,0.0,0.027489742,-0.005609464,-0.5727024
75530753,nan,nan,nan,-1.3839161,0.0,0.094891764,-0.5020912,0.11507426,0.53685486,-0.49452144,-1.2042582,0.0,0.0,0.0,0.031348266,-0.028876314,-0.5726281
75630089,nan,nan,nan,-1.3839161,0.0,0.10350248,-0.5627093,0.11370309,0.5448517,-0.7883756,-1.2421365,0.0,0.0,0.0,0.031924214,-0.04619288,-0.57459795
75729428,nan,nan,nan,-1.3839161,0.0,0.113832295,-0.5976167,0.11370309,0.5671388,-0.38474667,-1.1666378,0.0,0.0,0.0,0.03300279,-0.022389079,-0.5706716
75828761,nan,nan,nan,-1.3839161,0.0,0.11521332,-0.600677,0.11370309,0.5783403,-0.4386915,-1.1007702,0.0,0.0,0.0,0.033452924,-0.025375225,-0.56724614
75928102,nan,nan,nan,-1.3839161,0.0,0.11524984,-0.60950834,0.11491883,0.47497177,-0.065007105,-1.0973401,0.0,0.0,0.0,0.027465915,-0.0037591276,-0.56706774
76007566,nan,nan,nan,-1.3839161,0.0,0.116281316,-0.62001944,0.11507427,0.4838777,-0.2605347,-1.1534826,0.0,0.0,0.0,0.028124249,-0.015142965,-0.5699875
76116836,nan,nan,nan,-1.3839161,0.0,0.116104424,-0.5991319,0.1137031,0.67631996,-0.0039789826,-1.1538856,0.0,0.0,0.0,0.039310988,-0.00023127772,-0.5700084
76216184,nan,nan,nan,-1.3839161,0.0,0.124532975,-0.6277788,0.1137031,0.61196697,-0.7030472,-1.1811372,0.0,0.0,0.0,0.03565884,-0.040966015,-0.5714257
76330409,nan,nan,nan,-1.3839161,0.0,0.1390152,-0.75276387,0.1137031,0.758549,-1.3406106,-1.191865,0.0,0.0,0.0,0.04424317,-0.07819253,-0.5719836
76429749,nan,nan,nan,-1.3839161,0.0,0.15826297,-0.8968305,0.1137031,0.78387916,-1.7138014,-1.0910105,0.0,0.0,0.0,0.045301404,-0.099042825,-0.56673855
76529246,nan,nan,nan,-1.3839161,0.0,0.18021366,-1.0158844,0.1137031,0.8374989,-1.1928524,-1.0212073,0.0,0.0,0.0,0.048090074,-0.06849485,-0.56310844
76628417,nan,nan,nan,-1.3839161,0.0,0.20220967,-1.0883368,0.1137031,0.7415581,-0.8391166,-0.9367495,0.0,0.0,0.0,0.042248935,-0.04780715,-0.5587161
76727753,nan,nan,nan,-1.3839161,0.0,0.20952865,-1.1081098,0.1137031,0.61741066,-0.20320685,-0.9326457,0.0,0.0,0.0,0.035162296,-0.01157288,-0.55850273
76817156,nan,nan,nan,-1.3839161,0.0,0.20952865,-1.1081098,0.1137031,0.5810134,-0.16449565,-1.0137024,0.0,0.0,0.0,0.03333944,-0.009439013,-0.5627181
76916492,nan,nan,nan,-1.3839161,0.0,0.20782427,-1.1017944,0.1137031,0.48755172,0.20995173,-1.0763116,0.0,0.0,0.0,0.028138008,0.0121169165,-0.5659741
77015828,nan,nan,nan,-1.3839161,0.0,0.20322327,-1.0717039,0.1137031,0.5826229,0.076556146,-1.1074942,0.0,0.0,0.0,0.03372181,0.0044310163,-0.56759584
77130111,nan,nan,nan,-1.3839161,0.0,0.19820222,-1.0453794,0.1137031,0.46295008,0.49368557,-1.1550437,0.0,0.0,0.0,0.0269114,0.02869806,-0.57006866
77229401,nan,nan,nan,-1.3839161,0.0,0.18869334,-0.9866945,0.1137031,0.50869524,0.64185417,-1.1108999,0.0,0.0,0.0,0.029451355,0.037160713,-0.5677729
77328894,nan,nan,nan,-1.3839161,0.0,0.16525213,-0.9004196,0.1137031,0.41857806,0.63974893,-1.0943356,0.0,0.0,0.0,0.024197651,0.036983352,-0.56691146
77413173,nan,nan,nan,-1.3839161,0.0,0.15469748,-0.83547616,0.11507426,0.7847594,0.47860873,-1.1028873,0.0,0.0,0.0,0.045402035,0.027689775,-0.5673562
77532376,nan,nan,nan,-1.3839161,0.0,0.14497125,-0.7432121,0.11507426,0.54219,0.7634926,-1.1275183,0.0,0.0,0.0,0.031438805,0.044271003,-0.5686372
77612061,nan,nan,nan,-1.3839161,0.0,0.14172928,-0.6959747,0.11370309,0.69310826,0.0714767,-1.0914155,0.0,0.0,0.0,0.040057324,0.0041309064,-0.56675965
77716148,nan,nan,nan,-1.3839161,0.0,0.14467561,-0.7107292,0.11370309,0.6792506,-0.6736141,-1.18557,0.0,0.0,0.0,0.039595604,-0.039267033,-0.57165617
77815484,nan,nan,nan,-1.3839161,0.0,0.15228958,-0.80559814,0.11370309,0.82184327,-1.6073489,-1.1988218,0.0,0.0,0.0,0.047965214,-0.09380966,-0.5723454
77914820,nan,nan,nan,-1.3839161,0.0,0.16764715,-0.9266034,0.11370309,0.80658066,-1.6189653,-1.1570579,0.0,0.0,0.0,0.046895776,-0.094129,-0.5701734
78034024,nan,nan,nan,-1.3839161,0.0,0.19007365,-1.0439849,0.11370309,0.86800146,-0.9232928,-1.0457687,0.0,0.0,0.0,0.049954735,-0.053136833,-0.5643858
78113517,nan,nan,nan,-1.3839161,0.0,0.20499611,-1.0798569,0.11370309,0.7400846,-0.3552887,-1.0381746,0.0,0.0,0.0,0.042563565,-0.020433277,-0.56399083
78232696,nan,nan,nan,-1.3839161,0.0,0.19865143,-1.0572535,0.11370309,0.58114797,0.49138206,-1.1014295,0.0,0.0,0.0,0.033616837,0.028424276,-0.5672804
78332032,nan,nan,nan,-1.3839161,0.0,0.184956,-0.95552623,0.10549822,0.45092642,1.06775,-1.5264747,0.0,0.0,0.0,0.027100965,0.064172454,-0.5893851
78431368,nan,nan,nan,-1.3839161,0.0,0.15819404,-0.87478125,0.057808362,0.5123881,0.49565816,-1.593031,0.0,0.0,0.0,0.030975938,0.029964544,-0.5928464
78530704,nan,nan,nan,-1.3839161,0.0,0.16225114,-0.8594723,0.008452048,0.48355338,0.10003472,-1.6803697,0.0,0.0,0.0,0.029456355,0.0060937596,-0.5973885
78630042,nan,nan,-1.8352607,-1.3839161,0.0,0.15598954,-0.8175036,0.0006988043,0.49733624,0.0899193,-1.1342952,0.0,0.0,0.0,0.028856568,0.00521732,-0.56898963
78729376,nan,nan,-1.8352607,-1.3839161,0.0,0.15575773,-0.8226429,0.0029869075,0.4434378,-0.24838476,-1.126661,0.0,0.0,0.0,0.025710598,-0.014401388,-0.5685926
78828713,nan,nan,-1.8352607,-1.3839161,0.0,0.15345562,-0.81156284,0.00023508017,0.571496,-0.2502799,-1.1377898,0.0,0.0,0.0,0.033169236,-0.014526076,-0.56917137
78928109,nan,nan,-1.8352607,-1.3839161,0.0,0.15368095,-0.8238552,-0.0034985547,0.42261922,-0.09413457,-1.2043731,0.0,0.0,0.0,0.024678258,-0.0054968568,-0.57263404
79017470,nan,nan,nan,-1.3839161,0.0,0.1558268,-0.8121266,-0.018449927,0.70065385,-0.32603407,-1.5031004,0.0,0.0,0.0,0.04202302,-0.019554503,-0.5881695
79116788,nan,nan,nan,-1.3839161,0.0,0.1637597,-0.85928124,-0.02605388,0.70845133,-0.7694213,-1.2125071,0.0,0.0,0.0,0.041398797,-0.044961613,-0.57305706
79216274,nan,nan,nan,-1.3839161,0.0,0.16698006,-0.88852483,-0.05514422,0.643103,-0.23721556,-1.5615146,0.0,0.0,0.0,0.03877032,-0.014300857,-0.5912074
79315460,nan,nan,nan,-1.3839161,0.0,0.1701019,-0.9003324,-0.060983095,0.7478332,-0.6328383,-1.0961796,0.0,0.0,0.0,0.043238904,-0.036590025,-0.56700736
79414796,nan,nan,nan,-1.3839161,0.0,0.16858786,-0.9026809,-0.060983095,0.70130056,0.21108581,-1.0355682,0.0,0.0,0.0,0.040322967,0.012136888,-0.5638553
79529033,nan,nan,nan,-1.3839161,0.0,0.1631551,-0.8686417,-0.057792693,0.6099624,0.08940107,-0.9665204,0.0,0.0,0.0,0.034847688,0.0051075616,-0.5602644
79628370,nan,nan,nan,-1.3839161,0.0,0.14863141,-0.8005568,-0.057792693,0.5493003,0.92432207,-0.9840401,0.0,0.0,0.0,0.031433214,0.0528935,-0.5611755
79707896,nan,nan,nan,-1.3839161,0.0,0.12770961,-0.68917197,-0.05616698,0.44137645,1.5507305,-1.1517743,0.0,0.0,0.0,0.025649909,0.0901183,-0.5698986
79817109,nan,nan,nan,-1.3839161,0.0,0.09508704,-0.45377642,-0.11718708,0.3714581,2.5905147,-1.9224229,0.0,0.0,0.0,0.023104813,0.16113083,-0.6099766
79916444,nan,nan,nan,-1.3839161,0.0,0.06535073,-0.22544931,-0.15456766,0.35220993,1.9177309,-1.4523973,0.0,0.0,0.0,0.021029677,0.11450349,-0.58553267
80015908,nan,nan,nan,-1.3839161,0.0,0.035668205,-0.07623949,-0.19868253,0.3208217,1.125332,-1.8084887,0.0,0.0,0.0,0.019761309,0.069315866,-0.6040514
80130016,nan,nan,nan,-1.3839161,0.0,0.002230818,-0.0022490837,-0.26050964,0.34860933,0.03551629,-1.9730955,0.0,0.0,0.0,0.021775974,0.0022185347,-0.6126119
80229358,0.65751153,-3.4755638,nan,-1.3839161,0.0,-0.0057577402,-0.0064723967,-0.3651448,0.54518086,-0.2308119,-2.9872293,0.0,0.0,0.0,0.036988765,-0.015659845,-0.6653524
80333656,0.65751153,-3.4755638,nan,-1.3839161,0.0,-0.0112094255,-0.016069556,-0.5014846,0.6293384,-0.20707414,-2.4400115,0.0,0.0,0.0,0.04087288,-0.013448593,-0.63689405
80413125,0.65751153,-3.4755638,nan,-1.3839161,0.0,-0.019521663,-0.020814907,-0.5487292,0.58398837,-0.17287062,-1.5916018,0.0,0.0,0.0,0.03530008,-0.010449432,-0.59277207
80532403,0.65751153,-3.4755638,nan,-1.3839161,0.0,-0.032846007,-0.024444759,-0.5431522,0.5313142,-0.088359386,-1.1426184,0.0,0.0,0.0,0.030850418,-0.0051305313,-0.5694225
80611797,0.65751153,-3.4755638,nan,-1.3839161,0.0,-0.04288161,-0.02890563,-0.5431522,0.4617857,-0.052568268,-1.2415589,0.0,0.0,0.0,0.027056517,-0.003080031,-0.5745679
80731002,0.65751153,-3.4755638,nan,-1.3839161,0.0,-0.057032842,-0.030925537,-0.53848636,0.4892864,-0.0388095,-1.221125,0.0,0.0,0.0,0.028613323,-0.002269568,-0.5735052
80830492,0.65751153,-3.4755638,nan,-1.3839161,0.0,-0.0627617,-0.032054175,-0.53961074,0.45157617,0.01991978,-1.5346206,0.0,0.0,0.0,0.02715904,0.0011980308,-0.58980876
80929673,0.65751153,-3.4755638,nan,-1.3839161,0.0,-0.068542376,-0.029979909,-0.5478373,0.4522827,0.014915539,-1.4861084,0.0,0.0,0.0,0.027085654,0.00089324045,-0.5872858
81029009,0.65751153,-3.4755638,nan,-1.3839161,0.0,-0.078600235,-0.020434165,-0.51719296,0.4723928,0.02972225,-0.50679016,0.0,0.0,0.0,0.025836607,0.0016256007,-0.53635585
81128345,0.65751153,-3.4755638,nan,-1.3839161,0.0,-0.088105775,-0.0092474455,-0.40729505,0.3918297,0.10506317,0.5477867,0.0,0.0,0.0,0.019238142,0.0051584146,-0.48151204
81227681,0.65751153,-3.4755638,nan,-1.3839161,0.0,-0.10372182,0.00084279774,-0.24723154,0.40791705,0.13653314,0.6348778,0.0,0.0,0.0,0.019840602,0.00664081,-0.47698283
81317084,0.65751153,-3.4755638,nan,-1.3839161,0.0,-0.1163451,0.010553658,-0.13484508,0.32046697,0.18515877,0.27594298,0.0,0.0,0.0,0.01619724,0.009358411,-0.49564943
81416424,0.65751153,-3.4755638,nan,-1.3839161,0.0,-0.12675312,0.027696133,-0.018366428,0.30698827,0.18614812,-0.17466295,0.0,0.0,0.0,0.016249733,0.009853331,-0.51908344
81515756,0.65751153,-3.4755638,-2.308127,-1.3839161,0.0,-0.1350281,0.04518039,0.022751417,0.29647574,0.22762215,-1.2552346,0.0,0.0,0.0,0.01739181,0.013352734,-0.5752791
81615148,nan,nan,-2.284152,-1.3839161,0.0,-0.10978524,0.019937536,-0.004426361,1.0228751,-0.39900002,-1.6043397,0.0,0.0,0.0,0.061897717,-0.024144875,-0.5934345
81729329,nan,nan,-2.2841477,-1.3839161,0.0,-0.037300363,-0.10458242,-0.029941559,1.0001025,-1.3742087,-1.4571617,0.0,0.0,0.0,0.059739042,-0.082085505,-0.58578044
81828673,nan,nan,-2.2841477,-1.3839161,0.0,0.026025396,-0.29814395,-0.051606417,1.0899198,-2.2320228,-1.3789291,0.0,0.0,0.0,0.06465195,-0.1323993,-0.58171195
81928002,nan,nan,-2.2841477,-1.3839161,0.0,0.08917448,-0.53048,-0.065167904,1.0521884,-2.569216,-1.3305396,0.0,0.0,0.0,0.06214377,-0.15174161,-0.5791954
82017404,nan,nan,-2.2841477,-1.3839161,0.0,0.1458152,-0.7423256,-0.077727556,1.0933182,-2.2514412,-1.2965723,0.0,0.0,0.0,0.06437603,-0.13256784,-0.57742894
82116741,nan,nan,-2.2841477,-1.3839161,0.0,0.196337,-0.9165881,-0.08681297,0.7089907,-1.5433009,-1.2542565,0.0,0.0,0.0,0.041587137,-0.09052511,-0.5752283
82230977,nan,nan,-2.2841477,-1.3839161,0.0,0.19947676,-1.0255357,-0.095547676,0.3814286,-0.5492554,-1.2506635,0.0,0.0,0.0,0.022366315,-0.032207385,-0.5750414
82330314,nan,nan,-2.2841477,-1.3839161,0.0,0.19684365,-1.0410243,-0.100785255,0.39747262,-0.05401008,-1.2771564,0.0,0.0,0.0,0.02336339,-0.0031747054,-0.5764192
82429739,nan,nan,-2.2841477,-1.3839161,0.0,0.19993587,-1.0554916,-0.11091566,0.5553814,-0.49084526,-1.3411205,0.0,0.0,0.0,0.032832835,-0.029017607,-0.57974565
82514086,nan,nan,-2.2841477,-1.3839161,0.0,0.20193683,-1.0810539,-0.11565876,0.41291997,0.025531553,-1.370519,0.0,0.0,0.0,0.024474937,0.0015133276,-0.58127457
82633289,nan,nan,-2.2841477,-1.3839161,0.0,0.19330683,-1.0213928,-0.12879825,0.44650093,0.81393445,-1.2813604,0.0,0.0,0.0,0.02625459,0.04785996,-0.5766378
82712909,nan,nan,-2.2841477,-1.3839161,0.0,0.18475637,-0.96169686,-0.13251042,0.41074243,0.3224887,-1.2370055,0.0,0.0,0.0,0.024054859,0.018886335,-0.5743311
82831961,nan,nan,-2.2841477,-1.3839161,0.0,0.18483342,-0.9660886,-0.14066029,0.5700786,-0.58136684,-1.3144641,0.0,0.0,0.0,0.03362113,-0.034286864,-0.57835937
82931300,nan,nan,-2.2841477,-1.3839161,0.0,0.19368106,-1.0407985,-0.14128518,0.7210076,-1.032578,-1.2754526,0.0,0.0,0.0,0.04237296,-0.060683675,-0.5763306
83030634,nan,nan,-2.2841477,-1.3839161,0.0,0.20759577,-1.1294512,-0.13878036,0.7022805,-1.4281499,-1.215973,0.0,0.0,0.0,0.041051067,-0.08348099,-0.5732373
83129970,nan,nan,-2.2841477,-1.3839161,0.0,0.22337528,-1.1990355,-0.13188457,0.74506986,-0.59262437,-1.099807,0.0,0.0,0.0,0.043093048,-0.034275968,-0.567196
83229356,nan,nan,-2.2841477,-1.3839161,0.0,0.22249596,-1.1926996,-0.12455416,0.4603939,0.16885272,-1.0063539,0.0,0.0,0.0,0.026399774,0.009682304,-0.56233597
83313743,nan,nan,-2.2841477,-1.3839161,0.0,0.21378423,-1.1335931,-0.1152544,0.46190542,0.46915329,-0.9797271,0.0,0.0,0.0,0.0264215,0.026836086,-0.56095123
83413093,nan,nan,-2.2841477,-1.3839161,0.0,0.2125427,-1.1096542,-0.105395794,0.56207883,-0.24872047,-1.0558355,0.0,0.0,0.0,0.03237843,-0.014327491,-0.5649093
83532282,nan,nan,-2.2841477,-1.3839161,0.0,0.21468708,-1.1353905,-0.09741688,0.5825557,-0.19366482,-1.141075,0.0,0.0,0.0,0.033821605,-0.0112436535,-0.5693422
83631618,nan,nan,-2.2841477,-1.3839161,0.0,0.21468708,-1.1353905,-0.08978081,0.6007426,-0.31567788,-1.0341263,0.0,0.0,0.0,0.034536026,-0.018147971,-0.56378025
83730954,nan,nan,-2.2841477,-1.3839161,0.0,0.21468708,-1.1353905,-0.08282924,0.5260853,-0.23564857,-1.0807669,0.0,0.0,0.0,0.030374484,-0.013605595,-0.56620586
83830291,nan,nan,-2.2841477,-1.3839161,0.0,0.21468708,-1.1353905,-0.078606606,0.62685275,-0.23791437,-1.0817268,0.0,0.0,0.0,0.036195964,-0.013737738,-0.56625575
83929677,nan,nan,-2.2841477,-1.3839161,0.0,0.206173,-1.0961238,-0.07335305,0.43502605,0.57793623,-1.0926948,0.0,0.0,0.0,0.025144432,0.033404615,-0.56682616
84029044,nan,nan,-2.2841477,-1.3839161,0.0,0.20608176,-1.0568576,-0.07017326,0.6769632,-0.20295508,-1.0342296,0.0,0.0,0.0,0.03891914,-0.011668043,-0.5637857
84113399,nan,nan,-2.2841477,-1.3839161,0.0,0.21217714,-1.0855578,-0.06687045,0.6799009,-0.78327805,-1.1241884,0.0,0.0,0.0,0.039411865,-0.045404337,-0.568464
84232602,nan,nan,-2.2841477,-1.3839161,0.0,0.22241354,-1.1862075,-0.06823015,0.7449409,-0.8397287,-1.1074233,0.0,0.0,0.0,0.04311589,-0.04860205,-0.56759214
84332124,nan,nan,-2.2841477,-1.3839161,0.0,0.22646797,-1.2008317,-0.06611037,0.5226055,-0.10659686,-1.0197941,0.0,0.0,0.0,0.030004514,-0.0061200797,-0.5630349
84431276,nan,nan,-2.2841477,-1.3839161,0.0,0.2270055,-1.1993477,-0.066438675,0.5781599,-0.50260055,-1.0118072,0.0,0.0,0.0,0.033169724,-0.028834792,-0.56261957
84530642,nan,nan,-2.2841477,-1.3839161,0.0,0.22583641,-1.1983882,-0.064171076,0.4825924,0.1441592,-1.0506085,0.0,0.0,0.0,0.027785772,0.008300119,-0.5646374
84629949,nan,nan,-2.2841477,-1.3839161,0.0,0.22569947,-1.1777447,-0.06536174,0.5682883,-0.42416078,-1.0638962,0.0,0.0,0.0,0.032760072,-0.024451561,-0.5653285
84729284,nan,nan,-2.2841477,-1.3839161,0.0,0.2307968,-1.2232289,-0.06453228,0.54478776,-0.49440658,-1.1537313,0.0,0.0,0.0,0.03166537,-0.028737003,-0.5700004
84828661,nan,nan,-2.2841477,-1.3839161,0.0,0.23054942,-1.2234913,-0.07248855,0.53959465,-0.092663676,-1.1733232,0.0,0.0,0.0,0.031419937,-0.0053956923,-0.5710193
84927957,nan,nan,-2.2841477,-1.3839161,0.0,0.23046486,-1.2188325,-0.07689738,0.5325625,-0.20635048,-1.2151833,0.0,0.0,0.0,0.031128474,-0.012061262,-0.57319623
85017365,nan,nan,-2.2841477,-1.3839161,0.0,0.23094156,-1.2219771,-0.09012127,0.55617684,-0.23745947,-1.3334471,0.0,0.0,0.0,0.032857336,-0.014028424,-0.5793466
85116823,nan,nan,-2.2841477,-1.3839161,0.0,0.23313992,-1.2329799,-0.0978291,0.5091366,-0.23905554,-1.3594899,0.0,0.0,0.0,0.030148124,-0.014155485,-0.580701
85230937,nan,nan,-2.2841477,-1.3839161,0.0,0.23313992,-1.2329799,-0.10986924,0.59562784,-0.32652694,-1.3345213,0.0,0.0,0.0,0.035191502,-0.019292204,-0.57940245
85330269,nan,nan,-2.2841477,-1.3839161,0.0,0.23015991,-1.2266728,-0.115620375,0.5016036,0.0935559,-1.3494004,0.0,0.0,0.0,0.02967616,0.005535008,-0.5801763
85429604,nan,nan,-2.2841477,-1.3839161,0.0,0.21665505,-1.1559536,-0.13369226,0.41655928,0.8357183,-1.3442541,0.0,0.0,0.0,0.024632815,0.049419362,-0.5799086
85528940,nan,nan,-2.2841477,-1.3839161,0.0,0.19373311,-1.0054795,-0.14160109,0.36565262,1.7082264,-1.2876616,0.0,0.0,0.0,0.021512872,0.1005021,-0.5769655
85628276,nan,nan,-2.2841477,-1.3839161,0.0,0.1765926,-0.82527184,-0.16005278,0.6802505,1.3552823,-1.3468627,0.0,0.0,0.0,0.040235475,0.080162264,-0.58004427
85732580,nan,nan,-2.2841477,-1.3839161,0.0,0.1841114,-0.7159894,-0.16976166,0.6930006,0.5733608,-1.4226053,0.0,0.0,0.0,0.041268144,0.0341436,-0.5839833
85831921,nan,nan,-2.2841477,-1.3839161,0.0,0.19751848,-0.69293934,-0.18117738,0.7999764,-0.39928806,-1.4759854,0.0,0.0,0.0,0.04786464,-0.023890426,-0.5867594
85931363,nan,nan,-2.2841477,-1.3839161,0.0,0.21163303,-0.748951,-0.18586302,0.85586435,-1.2422464,-1.482512,0.0,0.0,0.0,0.051238406,-0.0743701,-0.5870988
86030590,nan,nan,-2.2841477,-1.3839161,0.0,0.21938112,-0.88394314,-0.19545937,0.46098265,-2.1394913,-1.4284056,0.0,0.0,0.0,0.027465595,-0.12747206,-0.58428496
86129925,nan,nan,-2.2841477,-1.3839161,0.0,0.19662814,-1.0188227,-0.19326186,0.45291528,-1.350647,-1.2710078,0.0,0.0,0.0,0.02660682,-0.07934469,-0.5760994
86209604,nan,nan,-2.2841477,-1.3839161,0.0,0.17817603,-1.0701466,-0.19342256,0.36729273,-0.66149944,-1.1618075,0.0,0.0,0.0,0.021364188,-0.03847721,-0.5704204
86313700,nan,nan,-2.2841477,-1.3839161,0.0,0.1541728,-1.0605897,-0.18474126,0.42635134,0.33107257,-1.1108787,0.0,0.0,0.0,0.024683883,0.019167658,-0.5677718
86432902,nan,nan,-2.2841477,-1.3839161,0.0,0.09682192,-0.9432784,-0.1785016,-0.34454829,1.4227599,-1.1775858,0.0,0.0,0.0,-0.020070069,0.08287631,-0.57124096
86532237,nan,nan,-2.2841477,-1.3839161,0.0,-0.033321116,-0.79823685,-0.16819024,-1.0679102,1.4836985,-1.1466074,0.0,0.0,0.0,-0.06203075,0.08618227,-0.5696299
86631573,nan,nan,-2.2841477,-1.3839161,0.0,-0.24295327,-0.67972696,-0.15716338,-2.0629263,1.0440351,-1.1663711,0.0,0.0,0.0,-0.12004349,0.060753316,-0.57065773
86730989,nan,nan,-2.2841477,-1.3839161,0.0,-0.5006935,-0.6213718,-0.1444273,-1.9003173,0.16442855,-1.1589403,0.0,0.0,0.0,-0.11050634,0.00956177,-0.5702713
86830248,nan,nan,-2.2841477,-1.3839161,0.0,-0.6919816,-0.6411173,-0.13063073,-1.2347567,-0.5928867,-1.1733259,0.0,0.0,0.0,-0.07189715,-0.03452248,-0.5710194
86929582,nan,nan,-2.2841477,-1.3839161,0.0,-0.8036099,-0.7050311,-0.116315365,-0.28840014,-0.8795154,-1.2113336,0.0,0.0,0.0,-0.016850997,-0.051389404,-0.572996
87028967,nan,nan,-2.2841477,-1.3839161,0.0,-0.83647597,-0.7751212,-0.104329586,0.49595618,-0.9524124,-1.157349,0.0,0.0,0.0,0.02883639,-0.05537613,-0.5701885
87128255,nan,nan,-2.2841477,-1.3839161,0.0,-0.79459625,-0.8387775,-0.0913403,1.0839815,-0.5821854,-1.1682086,0.0,0.0,0.0,0.0630884,-0.03388355,-0.5707533
87207725,nan,nan,-2.2841477,-1.3839161,0.0,-0.74789476,-0.84429735,-0.08491087,0.95910454,0.06702258,-1.0960919,0.0,0.0,0.0,0.055453606,0.0038751184,-0.56700283
87331894,nan,nan,-2.2841477,-1.3839161,0.0,-0.710002,-0.762857,-0.07070947,1.0755794,0.59660023,-1.0587792,0.0,0.0,0.0,0.06197526,0.034376316,-0.56506234
87431230,nan,nan,-2.2841477,-1.3839161,0.0,-0.6736854,-0.73821026,-0.06486726,0.34694108,-0.07786846,-1.1196365,0.0,0.0,0.0,0.020102527,-0.00451187,-0.5682273
87530608,nan,nan,-2.2841477,-1.3839161,0.0,-0.69307524,-0.79229456,-0.059505224,0.22096248,-0.9953013,-1.1824558,0.0,0.0,0.0,0.012876845,-0.05800234,-0.5714942
87629903,nan,nan,-2.2841477,-1.3839161,0.0,-0.7136689,-0.89463544,-0.056929827,0.22180547,-1.0182769,-1.2088137,0.0,0.0,0.0,0.012956944,-0.059483465,-0.572865
87729239,nan,nan,-2.2841477,-1.3839161,0.0,-0.70559955,-0.97296125,-0.052961826,0.42673963,-1.0715208,-1.1806344,0.0,0.0,0.0,0.02486473,-0.06243403,-0.5713995
87828756,nan,nan,-2.2841477,-1.3839161,0.0,-0.70531064,-1.0410824,-0.045827866,0.4568956,-1.1631514,-1.0990534,0.0,0.0,0.0,0.026424099,-0.0672697,-0.56715685
87913032,nan,nan,-2.2841477,-1.3839161,0.0,-0.69897527,-1.1393316,-0.038854122,0.50009596,-1.1769598,-1.1358058,0.0,0.0,0.0,0.029019829,-0.06829724,-0.5690682
88032215,nan,nan,-2.2841477,-1.3839161,0.0,-0.6659675,-1.2069831,-0.031528473,0.6389164,-0.3896435,-1.0499606,0.0,0.0,0.0,0.03678443,-0.022433005,-0.56460375
88131551,nan,nan,-2.2841477,-1.3839161,0.0,-0.646382,-1.1780121,-0.025321722,0.7225101,0.3724618,-1.0368093,0.0,0.0,0.0,0.041547265,0.021418067,-0.5639198
88230931,nan,nan,-2.2841477,-1.3839161,0.0,-0.6032099,-1.1492817,-0.026828766,0.8157401,-0.15937588,-1.1450337,0.0,0.0,0.0,0.047376655,-0.009256252,-0.5695481
88330242,nan,nan,-2.2841477,-1.3839161,0.0,-0.5806223,-1.1947067,-0.027050972,0.54091364,-0.6734415,-1.185557,0.0,0.0,0.0,0.03153118,-0.039256558,-0.5716555
88414660,nan,nan,-2.2841477,-1.3839161,0.0,-0.56896466,-1.2143636,-0.026777744,0.39083567,-0.13037889,-1.1870254,0.0,0.0,0.0,0.022784933,-0.0076008276,-0.57173187
88533862,nan,nan,-2.2841477,-1.3839161,0.0,-0.602253,-1.1845117,-0.022165775,0.005192876,0.054937452,-1.1045276,0.0,0.0,0.0,0.00030069763,0.0031811972,-0.5674415
88613415,nan,nan,-2.2841477,-1.3839161,0.0,-0.62715,-1.1590205,-0.018866062,0.047533244,-0.038907677,-1.1170423,0.0,0.0,0.0,0.002757268,-0.0022569234,-0.56809235
