timestamp,gyro_rad[0],gyro_rad[1],gyro_rad[2],gyro_integral_dt,accelerometer_timestamp_relative,accelerometer_m_s2[0],accelerometer_m_s2[1],accelerometer_m_s2[2],accelerometer_integral_dt,accelerometer_clipping
244026574,-0.0679296,-0.345049,-0.09693,5006,0,-4.15662,-4.20391,-11.2343,5006,0
244031577,-0.347382,0.223903,-0.094945,5003,0,-6.58768,-1.66021,-16.205,5003,0
244036583,-0.146856,0.485561,-0.029914,5006,0,-3.58856,2.0504,-11.61,5006,0
244041592,-0.0435313,0.116782,0.0339842,5009,0,2.99218,4.59936,-8.60963,5009,0
244046598,0.0279882,0.0792485,0.140752,5006,0,8.03586,3.34829,-9.47995,5006,0
244051603,0.394815,-0.138614,0.0766559,5005,0,6.21116,-1.64553,-6.37013,5005,0
244056606,0.260172,-0.547523,-0.115208,5003,0,-0.740626,-4.55543,-6.01748,5003,0
244061613,-0.300701,-0.324328,-0.156786,5007,0,-7.48847,-3.14054,-15.0765,5007,0
244066617,-0.324993,0.561846,-0.0587584,5004,0,-7.84823,0.64954,-17.6364,5004,0
244071623,0.0543606,0.390728,-0.00118755,5006,0,-0.815083,4.09948,-8.14705,5006,0
244076648,-0.140573,0.087199,0.130928,5025,0,7.25662,4.74031,-8.91191,5025,0
244081635,0.300844,-0.0718231,0.166823,4987,0,8.67115,-0.596843,-7.48843,4987,0
244086641,0.45686,-0.393884,-0.0613583,5006,0,2.37251,-5.09663,-5.2289,5006,0
244091647,-0.238533,-0.532612,-0.21177,5006,0,-5.92434,-4.04366,-11.5017,5006,0
244096652,-0.479071,0.316056,-0.131579,5005,0,-8.57505,0.315164,-19.3394,5005,0
244101658,0.163615,0.502223,-0.0166624,5006,0,-2.66017,4.37494,-10.3383,5006,0
244106664,-0.155793,0.145131,0.0855279,5006,0,5.85455,5.28071,-8.34466,5006,0
244111670,0.190604,-0.0784834,0.177499,5006,0,8.26803,0.391697,-7.41454,5006,0
244116678,0.571914,-0.298822,-0.00255115,5008,0,2.82202,-4.81966,-5.22383,5008,0
244121681,-0.172268,-0.51392,-0.171577,5003,0,-5.40064,-4.84337,-10.378,5003,0
244126687,-0.603277,0.240358,-0.156296,5006,0,-8.0228,-0.82192,-18.5445,5006,0
244131693,0.192345,0.461281,-0.0358319,5006,0,-2.15289,4.28194,-11.4252,5006,0
244136700,-0.137182,0.183528,0.0841212,5007,0,6.2659,5.5013,-9.00122,5007,0
244141706,0.101657,-0.0919117,0.173741,5006,0,8.15392,0.591051,-7.17378,5006,0
244146710,0.614843,-0.328439,-0.0219321,5004,0,2.02325,-4.10436,-4.90331,5004,0
244151716,-0.128434,-0.479925,-0.1536,5006,0,-6.2706,-4.2113,-10.9089,5006,0
244156723,-0.609185,0.256105,-0.114723,5007,0,-8.15917,-0.843069,-18.0143,5007,0
244161728,0.218849,0.460164,-0.0137466,5005,0,-1.44674,3.47562,-11.4113,5005,0
244166735,-0.129853,0.178448,0.0921627,5007,0,7.00515,4.76977,-8.87315,5007,0
244171739,0.0521828,-0.0889854,0.146137,5004,0,8.46686,-0.33908,-7.12196,5004,0
244176748,0.568899,-0.362586,-0.0696295,5009,0,1.59578,-3.59887,-4.47022,5009,0
244181751,-0.177234,-0.463613,-0.154602,5003,0,-6.82354,-3.18818,-11.7368,5003,0
244186757,-0.520243,0.25938,-0.0731562,5006,0,-8.22408,0.39442,-17.9518,5006,0
244191762,0.270014,0.466657,0.0214007,5005,0,-0.879761,3.34095,-11.5044,5005,0
244196772,-0.116,0.150806,0.110383,5010,0,7.24364,3.57425,-8.51364,5010,0
244201774,0.0696115,-0.107338,0.102067,5002,0,7.76604,-1.60988,-6.86073,5002,0
244206780,0.497242,-0.373467,-0.100889,5006,0,0.631451,-3.19821,-4.90309,5006,0
244211786,-0.342866,-0.34127,-0.152738,5006,0,-6.86162,-2.34455,-12.7613,5006,0
244216793,-0.323542,0.263073,-0.0458071,5007,0,-7.13534,1.72846,-16.941,5007,0
244221797,0.268787,0.424146,0.0436281,5004,0,0.410454,3.22133,-11.4452,5004,0
244226803,-0.12275,0.0991208,0.110051,5006,0,7.37145,2.07053,-8.45454,5006,0
244231809,0.147247,-0.108814,0.0367727,5006,0,6.27377,-2.4043,-6.54049,5006,0
244236816,0.357974,-0.380006,-0.116384,5007,0,-1.23221,-2.68634,-6.10275,5007,0
244241820,-0.483615,-0.19519,-0.133384,5004,0,-7.05071,-1.12597,-14.2776,5004,0
244246826,-0.0672946,0.312131,-0.00440666,5006,0,-5.27053,2.5489,-15.5793,5006,0
244251832,0.226734,0.340466,0.0605052,5006,0,2.72062,2.8432,-10.4193,5006,0
244256839,-0.113331,0.0370214,0.105129,5007,0,7.61166,0.117964,-8.10163,5007,0
244261844,0.237369,-0.190679,-0.0396244,5005,0,4.34121,-2.83001,-5.68086,5005,0
244266849,0.122787,-0.39488,-0.141085,5005,0,-3.1676,-2.08238,-8.43991,5005,0
244271855,-0.488357,-0.0534883,-0.0892714,5006,0,-7.01241,0.801382,-15.5488,5006,0
244276863,0.19096,0.36645,0.0453139,5008,0,-3.0968,2.87348,-14.0253,5008,0
244281867,0.107486,0.20521,0.0856592,5004,0,4.71302,2.03009,-8.94954,5004,0
244286873,-0.0528024,-0.0309321,0.0619685,5006,0,7.00752,-1.75584,-7.5021,5006,0
244291878,0.29707,-0.300382,-0.100649,5005,0,1.95636,-2.8352,-5.33596,5005,0
244296886,-0.208448,-0.312701,-0.144596,5008,0,-4.73941,-1.26466,-11.4713,5008,0
244301890,-0.277258,0.101333,-0.0204476,5004,0,-6.10161,2.48861,-15.4354,5004,0
244306896,0.275326,0.305893,0.0673039,5006,0,-0.520703,2.60166,-11.6019,5006,0
244311902,0.0226082,0.0994086,0.0926938,5006,0,5.67943,0.730192,-9.10524,5006,0
244316909,0.042287,-0.0668429,-0.000720327,5007,0,5.3568,-2.73155,-6.82325,5007,0
244321914,0.187141,-0.336778,-0.13366,5005,0,-0.901771,-2.68198,-7.42312,5005,0
244326919,-0.390634,-0.140848,-0.113894,5005,0,-5.59101,0.358404,-13.721,5005,0
244331925,-0.00973765,0.205574,0.0535895,5006,0,-4.23733,3.08395,-13.8827,5006,0
244336932,0.234464,0.22439,0.0742868,5007,0,2.24138,2.03866,-10.1488,5007,0
244341937,-0.0176424,0.105066,0.05759,5005,0,5.82891,-0.874143,-8.83928,5005,0
244346942,0.105987,-0.199124,-0.0698372,5005,0,3.03917,-2.9384,-5.9893,5005,0
244351948,-0.0392201,-0.28256,-0.158522,5006,0,-2.93019,-1.98063,-10.9563,5006,0
244356959,-0.292269,0.0410609,-0.0289669,5011,0,-5.24934,2.28967,-14.276,5011,0
244361960,0.117424,0.241595,0.0926655,5001,0,-1.41039,2.62612,-11.279,5001,0
244366966,0.172487,0.173972,0.0667511,5006,0,3.85304,0.701769,-9.60859,5006,0
244371972,-0.00988478,-0.00463552,-0.0174948,5006,0,4.74333,-1.89083,-7.23456,5006,0
244376977,0.0718338,-0.294485,-0.119981,5005,0,0.477294,-2.59776,-8.31325,5005,0
244381983,-0.193557,-0.114278,-0.11222,5006,0,-3.71572,0.0783705,-13.4953,5006,0
244386989,-0.0683416,0.141875,0.0558167,5006,0,-3.66779,2.76582,-12.455,5006,0
244391995,0.143236,0.142795,0.0827735,5006,0,1.14844,1.58558,-9.61671,5006,0
244397000,0.104253,0.143633,0.0262319,5005,0,4.33781,-0.51632,-8.97944,5005,0
244402017,0.0144563,-0.194355,-0.0718542,5017,0,2.7661,-2.15939,-6.82074,5017,0
244407012,-0.0560396,-0.262527,-0.132011,4995,0,-1.55366,-1.75432,-11.8635,4995,0
244412018,-0.119229,0.0408259,-0.00872028,5006,0,-3.97796,1.81222,-13.9915,5006,0
244417024,0.0296304,0.139803,0.0929104,5006,0,-1.42258,2.02237,-9.72525,5006,0
244422029,0.119557,0.154695,0.0431605,5005,0,2.72815,0.563441,-9.25566,5005,0
244427035,0.0569183,-0.0153913,-0.0363786,5006,0,3.74434,-1.03647,-7.39587,5006,0
244432041,0.0164609,-0.29798,-0.102147,5006,0,0.613555,-2.1247,-9.73597,5006,0
244437050,-0.105852,-0.0992942,-0.0733278,5009,0,-2.67333,-0.0492464,-14.7266,5009,0
244442053,-0.0112312,0.128267,0.0607075,5003,0,-3.05788,1.8944,-11.4252,5003,0
244447058,0.0699065,0.111441,0.0645806,5005,0,0.486799,0.95409,-8.4989,5005,0
244452064,0.0794708,0.128658,-0.0123053,5006,0,3.17092,-0.0375525,-8.31894,5006,0
244457070,0.0217603,-0.165099,-0.0777403,5006,0,2.19778,-1.40991,-7.78191,5006,0
244462076,-0.0274528,-0.210989,-0.0858865,5006,0,-0.785143,-1.14054,-13.2382,5006,0
244467082,-0.0242966,0.0519843,0.0124252,5006,0,-2.98535,1.16712,-13.5424,5006,0
244472091,0.0218769,0.111644,0.0787879,5009,0,-1.23881,1.12565,-8.97236,5009,0
244477096,0.0847932,0.175274,-0.0042032,5005,0,1.67673,0.62432,-8.55089,5005,0
244482099,0.0471922,-0.00375784,-0.0660211,5003,0,2.62058,-0.47974,-7.35431,5003,0
244487105,0.0236639,-0.244188,-0.0694558,5006,0,0.883079,-1.22671,-11.142,5006,0
244492111,-0.0236418,-0.0418514,-0.014352,5006,0,-1.72404,-0.219768,-14.9744,5006,0
244497117,0.0402946,0.124764,0.0724419,5006,0,-2.23454,0.779339,-10.3208,5006,0
244502123,0.0195898,0.138224,-6.38049e-05,5006,0,0.0263022,0.822013,-7.8528,5006,0
244507130,0.042392,0.0892534,-0.0590762,5007,0,2.40361,0.439402,-7.85637,5007,0
244512138,0.109039,-0.153264,-0.0587593,5008,0,2.15429,-0.564916,-9.28724,5008,0
244517140,-0.0269339,-0.176175,-0.00998315,5002,0,0.00624053,-1.0897,-14.2659,5002,0
244522165,0.0536008,0.0503125,0.0376104,5025,0,-2.42059,0.0417275,-12.7409,5025,0
244527162,-0.00217565,0.147638,0.0088594,4997,0,-1.58826,0.652285,-7.88631,4997,0
244532157,0.0191952,0.106999,-0.0503007,4995,0,1.08407,1.16961,-7.85899,4995,0
244537163,0.120669,-0.0389201,-0.0615155,5006,0,2.64476,0.185058,-8.47448,5006,0
244542169,0.0349769,-0.197497,0.00590766,5006,0,1.67293,-1.14951,-13.0134,5006,0
244547175,0.0446593,-0.042445,0.0132387,5006,0,-1.67464,-0.876698,-13.9873,5006,0
244552180,-0.0070119,0.133173,0.00832315,5005,0,-2.6427,0.0444042,-9.03442,5005,0
244557186,-0.0066528,0.0941607,-0.044912,5006,0,-0.280988,1.52084,-7.49835,5006,0
244562192,0.0942779,0.0605129,-0.0638157,5006,0,2.76212,0.626714,-8.23473,5006,0
244567198,0.119676,-0.166201,0.00710602,5006,0,3.07305,-0.563744,-11.6404,5006,0
244572204,0.0124136,-0.167601,0.0151672,5006,0,-0.401847,-1.38125,-13.8621,5006,0
244577210,-0.00778127,0.10299,0.00316413,5006,0,-3.42809,-0.864942,-10.9969,5006,0
244582217,-0.00894514,0.0757077,-0.0454374,5007,0,-1.98226,1.45827,-6.78297,5007,0
244587223,0.0294057,0.107646,-0.0516261,5006,0,2.19086,1.10357,-8.58615,5006,0
244592237,0.123427,-0.0870212,0.00496309,5014,0,4.07172,0.0694185,-10.7709,5014,0
244597233,0.0489653,-0.222686,0.0134533,4996,0,1.34856,-1.58419,-13.1943,4996,0
244602247,0.00465228,0.00179819,-0.00615695,5014,0,-3.36839,-1.24732,-12.4046,5014,0
244607250,-0.062229,0.0409844,-0.0608965,5003,0,-3.62391,1.11007,-6.54909,5003,0
244612250,0.00476614,0.119613,-0.044565,5000,0,0.837571,1.39433,-9.04717,5000,0
244617256,0.14656,0.0255914,0.00645054,5006,0,4.54227,0.534054,-10.4865,5006,0
244622279,0.0257435,-0.183827,0.0282855,5023,0,3.02699,-1.84711,-12.3837,5023,0
244627276,-0.0280362,-0.129648,-0.00919186,4997,0,-2.55453,-1.83684,-12.8299,4997,0
244632280,-0.0942444,0.039618,-0.0739106,5004,0,-4.6622,0.425362,-6.9705,5004,0
244637282,-0.0173966,0.0955553,-0.0464646,5002,0,-0.925194,1.86189,-8.6945,5002,0
244642289,0.072177,0.106025,0.00860749,5007,0,4.16881,0.906606,-10.5026,5007,0
244647293,0.0297525,-0.0988085,0.0373562,5004,0,4.4186,-1.77119,-12.5912,5004,0
244652297,0.00555197,-0.201459,-0.00948799,5004,0,-1.16047,-1.85264,-12.6032,5004,0
244657304,-0.184253,0.037431,-0.0774908,5007,0,-5.11093,-0.100829,-7.63426,5007,0
244662308,-0.0649669,0.0591239,-0.0520134,5004,0,-2.43126,2.21532,-7.70975,5004,0
244667316,0.0913527,0.191218,0.00285193,5008,0,3.5317,1.20277,-10.2204,5008,0
244672320,0.0285834,-0.0385294,0.0571674,5004,0,5.19341,-1.64364,-12.2862,5004,0
244677326,-0.0608397,-0.247338,-0.0130646,5006,0,0.217359,-2.26844,-12.688,5006,0
244682332,-0.124914,0.0571625,-0.0785645,5006,0,-5.06563,-0.428477,-9.48812,5006,0
244687338,-0.14995,0.0473932,-0.0563721,5006,0,-3.49398,2.5184,-6.6687,5006,0
244692343,0.0349971,0.213255,0.00279826,5005,0,2.82374,1.67688,-9.74558,5005,0
244697352,0.144724,0.0111797,0.0558222,5009,0,5.79826,-1.19468,-11.5883,5009,0
244702355,-0.0956622,-0.306413,0.00503625,5003,0,1.49313,-2.3815,-12.2155,5003,0
244707361,-0.155708,0.0582205,-0.0685593,5006,0,-5.07362,-0.906234,-12.0714,5006,0
244712367,-0.122995,0.0597196,-0.0801125,5006,0,-4.74199,2.38677,-5.9154,5006,0
244717372,-0.0211387,0.204302,0.000753523,5005,0,1.90682,2.13409,-9.54672,5005,0
244722378,0.171191,0.0762099,0.0819047,5006,0,6.48167,-0.545331,-11.2195,5006,0
244727384,-0.0534967,-0.322306,0.0145887,5006,0,3.27869,-2.71675,-11.42,5006,0
244732390,-0.152092,-0.0564845,-0.0722454,5006,0,-4.49181,-0.92858,-13.6313,5006,0
244737399,-0.0867494,0.0894973,-0.0830582,5009,0,-6.07102,2.40054,-6.59655,5009,0
244742401,-0.0274223,0.178255,0.000942382,5002,0,0.449131,2.18605,-8.88097,5002,0
244747407,0.176631,0.0999164,0.085062,5006,0,6.68691,-0.103649,-10.7408,5006,0
244752413,0.0157553,-0.265475,0.0317344,5006,0,4.60435,-2.98661,-10.7337,5006,0
244757419,-0.188653,-0.182773,-0.0688738,5006,0,-3.5697,-1.28488,-13.7808,5006,0
244762424,-0.0896364,0.115836,-0.0915742,5005,0,-7.01843,2.3142,-8.57521,5005,0
244767430,0.0220632,0.177867,-0.00500389,5006,0,-1.20705,2.21348,-8.17659,5006,0
244772436,0.134696,0.129063,0.071274,5006,0,6.47004,0.138476,-10.4019,5006,0
244777444,0.0201906,-0.19825,0.0549533,5008,0,6.32088,-3.06855,-10.3193,5008,0
244782448,-0.147368,-0.286785,-0.0739505,5004,0,-2.01735,-1.51693,-13.1345,5004,0
244787453,-0.146419,0.0874315,-0.0966864,5005,0,-7.74338,2.46679,-10.6135,5005,0
244792459,0.0237108,0.191531,-0.00701556,5006,0,-3.20741,2.53553,-7.86067,5006,0
244797465,0.204442,0.126797,0.0535504,5006,0,5.60249,0.28993,-9.73057,5006,0
244802471,0.0653393,-0.117423,0.079582,5006,0,7.43481,-2.90601,-10.1518,5006,0
244807477,-0.185016,-0.325939,-0.0548303,5006,0,-0.127495,-2.08309,-11.9595,5006,0
244812482,-0.158682,0.0284459,-0.119035,5005,0,-7.56283,2.21627,-11.966,5005,0
244817488,0.0536988,0.208788,-0.0275811,5006,0,-4.97582,3.12522,-8.15475,5006,0
244822494,0.212658,0.12245,0.0419393,5006,0,4.17763,0.412063,-9.12567,5006,0
244827500,0.13043,-0.0418615,0.0835552,5006,0,8.11361,-2.79396,-9.97218,5006,0
244832523,-0.210058,-0.319021,-0.0323312,5023,0,1.86292,-2.82983,-11.1249,5023,0
244837511,-0.169654,-0.0232244,-0.130254,4988,0,-7.01601,1.76151,-12.4603,4988,0
244842517,0.031957,0.217193,-0.0456163,5006,0,-6.61832,3.58929,-8.95248,5006,0
244847526,0.228898,0.112594,0.0390685,5009,0,2.48089,0.960225,-8.51944,5009,0
244852529,0.223375,0.0366945,0.0874853,5003,0,8.38504,-2.49679,-10.246,5003,0
244857537,-0.215079,-0.25701,-0.00208926,5008,0,3.6406,-3.55319,-10.3083,5008,0
244862541,-0.200482,-0.0866327,-0.132628,5004,0,-5.78096,1.04834,-12.0629,5004,0
244867550,0.00835734,0.201469,-0.0635386,5009,0,-7.48253,4.12666,-10.3366,5009,0
244872562,0.243427,0.109562,0.0266915,5012,0,0.769633,1.6775,-8.17185,5012,0
244877559,0.303805,0.0884978,0.0818513,4997,0,8.06992,-1.99498,-10.4357,4997,0
244882580,-0.164362,-0.199437,0.0295917,5021,0,5.16751,-4.12477,-9.9,5021,0
244887570,-0.234913,-0.139707,-0.132548,4990,0,-4.42162,-0.166766,-11.6447,4990,0
244892580,-0.0593799,0.174806,-0.0823584,5010,0,-8.11077,4.17309,-11.6044,5010,0
244897581,0.248516,0.14161,0.0122369,5001,0,-1.00474,2.57799,-8.03816,5001,0
244902596,0.340911,0.11374,0.0706509,5015,0,7.55158,-1.36813,-10.293,5015,0
244907593,-0.0853187,-0.161746,0.0536709,4997,0,6.74561,-4.56218,-9.64886,4997,0
244912601,-0.228326,-0.192623,-0.126474,5008,0,-2.66322,-1.43084,-11.1363,5008,0
244917604,-0.167467,0.0826676,-0.0871279,5003,0,-8.44236,3.98916,-12.5927,5003,0
244922629,0.227859,0.179047,0.00805573,5025,0,-2.8039,3.13533,-8.59795,5025,0
244927616,0.369381,0.115032,0.0605361,4987,0,6.41842,-0.659236,-9.96551,4987,0
244932622,-0.00803936,-0.0966392,0.0607374,5006,0,7.72633,-4.25997,-9.24825,5006,0
244937629,-0.255266,-0.245231,-0.100872,5007,0,-0.72637,-2.1766,-10.2609,5007,0
244942642,-0.19291,-0.00767394,-0.101124,5013,0,-8.18708,3.44959,-13.0126,5013,0
244947639,0.187966,0.197065,0.00115541,4997,0,-4.57745,3.76936,-9.33624,4997,0
244952645,0.369604,0.0942686,0.0493681,5006,0,5.01626,-0.122587,-9.59492,5006,0
244957651,0.0849149,-0.0508717,0.0641901,5006,0,8.36186,-4.0627,-9.23755,5006,0
244962657,-0.239335,-0.218957,-0.0827707,5006,0,1.04086,-2.96106,-9.69464,5006,0
244967664,-0.275104,-0.0952064,-0.10995,5007,0,-7.57089,2.8318,-12.3078,5007,0
244972672,0.147675,0.195844,-0.00165835,5008,0,-6.06066,4.28765,-10.7759,5008,0
244977674,0.398886,0.108692,0.0486854,5002,0,3.20926,0.351648,-9.45267,5002,0
244982680,0.123246,0.00681551,0.0643595,5006,0,8.45675,-3.83309,-9.45391,5006,0
244987687,-0.214875,-0.169062,-0.0747041,5007,0,2.85358,-3.65196,-9.21352,5007,0
244992692,-0.291207,-0.164571,-0.129438,5005,0,-6.24884,2.29348,-11.2475,5005,0
244997697,0.0236414,0.156881,0.00126132,5005,0,-6.81261,4.73825,-11.9651,5005,0
245002703,0.435147,0.137342,0.0424613,5006,0,1.53881,0.992202,-9.72914,5006,0
245007714,0.211234,0.0335786,0.0676831,5011,0,7.91142,-3.57151,-9.4657,5011,0
245012715,-0.222118,-0.142998,-0.0515615,5001,0,4.01068,-4.45076,-9.2484,5001,0
245017721,-0.318542,-0.173047,-0.132932,5006,0,-4.90977,1.35846,-10.8811,5006,0
245022727,-0.0825218,0.132465,-0.0041755,5006,0,-7.14346,4.99579,-12.4338,5006,0
245032741,0.281249,0.0543562,0.0691331,5009,0,7.31539,-3.01164,-9.31054,5009,0
245037744,-0.161337,-0.134038,-0.0396318,5003,0,4.97911,-4.84735,-9.03799,5003,0
245042750,-0.34282,-0.181458,-0.135155,5006,0,-3.47317,0.334559,-10.2697,5006,0
245047755,-0.167138,0.0835558,-0.0127005,5005,0,-7.43622,4.99337,-13.1164,5005,0
245052761,0.403259,0.169526,0.0542079,5006,0,-1.27485,2.40614,-10.1891,5006,0
245057770,0.321081,0.0705412,0.0688554,5009,0,6.44486,-2.3229,-9.1751,5009,0
245062773,-0.104918,-0.0950786,-0.0202713,5003,0,5.71042,-5.03036,-8.67842,5003,0
245067779,-0.361469,-0.169829,-0.133494,5006,0,-2.03684,-0.805474,-9.83598,5006,0
245072784,-0.254728,0.017389,-0.0375598,5005,0,-7.11374,4.90876,-13.106,5005,0
245077790,0.354176,0.16768,0.0602316,5006,0,-2.36827,3.23246,-10.8592,5006,0
245082796,0.397869,0.105226,0.0637046,5006,0,5.3293,-1.66633,-9.1974,5006,0
245087802,-0.04636,-0.0715863,-0.0124339,5006,0,5.99673,-4.87546,-7.95228,5006,0
245092808,-0.334158,-0.174784,-0.123908,5006,0,-0.628723,-1.68036,-9.34479,5006,0
245097814,-0.333451,-0.0326209,-0.0584472,5006,0,-6.43131,4.35963,-13.3627,5006,0
245102819,0.304678,0.186827,0.0623196,5005,0,-3.20138,3.83343,-11.7142,5005,0
245107825,0.460551,0.102789,0.0631704,5006,0,4.29109,-1.00665,-9.08239,5006,0
245112831,-0.000880098,-0.0818103,-0.001463,5006,0,6.16361,-4.84278,-7.5019,5006,0
245117837,-0.269893,-0.147423,-0.121722,5006,0,0.52065,-2.44067,-9.13837,5006,0
245122843,-0.401967,-0.0831085,-0.0793894,5006,0,-5.60137,3.73915,-12.559,5006,0
245127848,0.239927,0.140713,0.0639895,5005,0,-4.01903,4.54062,-12.7846,5005,0
245132854,0.51491,0.117214,0.0628382,5006,0,2.86691,-0.157639,-9.42776,5006,0
245137860,0.0824847,-0.0569444,0.0054912,5006,0,5.73506,-4.70016,-7.25075,5006,0
245142866,-0.21545,-0.126498,-0.110486,5006,0,1.48393,-3.12597,-9.07507,5006,0
245147872,-0.457431,-0.10376,-0.102893,5006,0,-4.23038,2.59999,-11.6221,5006,0
245152877,0.168231,0.0914832,0.0527488,5005,0,-4.21025,4.81007,-13.6572,5005,0
245157886,0.528832,0.127448,0.071607,5009,0,1.31075,0.905962,-9.80755,5009,0
245162889,0.13697,-0.0151301,0.0213337,5003,0,4.68275,-4.41739,-7.45073,5003,0
245167895,-0.157396,-0.0932384,-0.101017,5006,0,2.08563,-3.65342,-9.19412,5006,0
245172901,-0.496124,-0.0442051,-0.112598,5006,0,-2.92012,1.2436,-11.3918,5006,0
245177907,0.0598729,0.0371166,0.0336681,5006,0,-3.80133,5.04264,-13.3294,5006,0
245182917,0.499874,0.103151,0.0680305,5010,0,0.546196,2.14727,-10.2637,5010,0
245187918,0.249852,0.0676288,0.0382757,5001,0,3.69374,-3.42406,-7.83595,5001,0
245192924,-0.129616,-0.102279,-0.0878185,5006,0,2.39271,-4.29639,-8.3166,5006,0
245197931,-0.462929,-0.0386833,-0.123496,5007,0,-1.74906,-0.409832,-11.8496,5007,0
245202936,-0.037579,0.0251585,0.0193886,5005,0,-3.34217,4.60663,-13.5384,5005,0
245207941,0.344217,0.10183,0.0834237,5005,0,-0.104733,2.92668,-10.4575,5005,0
245212947,0.351449,0.100391,0.0396836,5006,0,2.86827,-2.34415,-8.17003,5006,0
245217953,-0.0687292,-0.1167,-0.0843837,5006,0,2.5383,-4.03244,-7.25934,5006,0
245222959,-0.438006,-0.0778879,-0.10871,5006,0,-0.643137,-1.58849,-12.1471,5006,0
245227965,-0.0884785,-0.019979,-0.0103625,5006,0,-2.50697,3.5845,-13.0611,5006,0
245232970,0.233236,0.0846155,0.0767201,5005,0,-0.758669,3.7046,-11.0078,5005,0
245237990,0.305375,0.0924357,0.0509515,5020,0,1.72565,-0.851443,-8.45204,5020,0
245242982,0.0662619,-0.0840249,-0.0741361,4992,0,2.20818,-3.78589,-6.89799,4992,0
245247988,-0.360871,-0.10458,-0.0950284,5006,0,0.12753,-2.42865,-11.9104,5006,0
245252994,-0.192268,-0.0756306,-0.0112749,5006,0,-1.47303,2.1284,-12.7612,5006,0
245258000,0.161985,0.0783701,0.0575278,5006,0,-1.07464,3.5391,-11.5732,5006,0
245263016,0.24107,0.0752699,0.0419024,5016,0,0.605137,0.49834,-8.41455,5016,0
245268011,0.131156,-0.026937,-0.0644829,4995,0,1.41229,-3.15717,-6.85424,4995,0
245273017,-0.234426,-0.0986742,-0.0829233,5006,0,0.487466,-2.85756,-11.3344,5006,0
245278023,-0.303662,-0.10287,-0.0050693,5006,0,-0.152225,0.745155,-12.1907,5006,0
245283028,0.104244,0.0609838,0.0389681,5005,0,-0.63824,3.24773,-12.2387,5005,0
245288034,0.165708,0.0754491,0.0190695,5006,0,-0.174629,1.79157,-8.652,5006,0
245293040,0.149038,0.0126536,-0.0662839,5006,0,0.237607,-2.08968,-7.27521,5006,0
245298064,-0.0591093,-0.0906609,-0.0709802,5024,0,0.225845,-3.01349,-10.9583,5024,0
245303052,-0.363541,-0.0608171,0.0263163,4988,0,0.874056,-0.650192,-12.3677,4988,0
245308057,-0.0104631,0.0362748,0.0411218,5005,0,0.232767,2.31538,-12.0874,5005,0
245313063,0.10131,0.086296,-0.0128143,5006,0,-0.365381,2.64037,-8.76485,5006,0
245318072,0.131542,0.0266747,-0.0829611,5009,0,-0.732236,-0.464384,-7.30562,5009,0
245323075,0.115803,-0.101157,-0.0791064,5003,0,-0.278913,-2.5315,-10.2839,5003,0
245328081,-0.306527,-0.033894,0.0444918,5006,0,1.47707,-1.54806,-12.8914,5006,0
245333090,-0.0907843,0.0509646,0.0682039,5009,0,1.30953,1.119,-12.0439,5009,0
245338093,0.00505774,0.0551959,-0.0264262,5003,0,-0.244028,2.41785,-8.71231,5003,0
245343098,0.103876,-0.0249373,-0.119106,5005,0,-1.74449,0.95378,-7.28303,5005,0
245348104,0.239128,-0.103358,-0.0915062,5006,0,-0.794443,-1.46887,-9.98849,5006,0
245353110,-0.181367,0.0353029,0.0738905,5006,0,1.93529,-2.10656,-13.4534,5006,0
245358117,-0.13823,0.0499732,0.0747076,5007,0,2.22929,-0.13097,-11.4334,5007,0
245363121,-0.0382183,0.00851453,-0.0104185,5004,0,-0.138944,2.12199,-8.64776,5004,0
245368131,0.00238773,-0.0814744,-0.107495,5010,0,-2.36922,1.94422,-7.40437,5010,0
245373133,0.300755,-0.0815877,-0.110505,5002,0,-1.45573,-0.839102,-9.96182,5002,0
245378141,0.00103314,0.0804007,0.0742529,5008,0,1.80972,-2.24335,-13.7352,5008,0
245383145,-0.250397,0.0506688,0.100352,5004,0,3.27242,-1.56547,-11.4123,5004,0
245388143,-0.0568351,-0.0197688,-0.00645178,4998,0,0.284623,1.37404,-8.8688,4998,0
245393156,-0.0627919,-0.0986604,-0.116427,5013,0,-2.91287,3.165,-7.20113,5013,0
245398188,0.292362,-0.0521746,-0.113374,5032,0,-2.37431,0.2952,-10.0987,5032,0
245403168,0.18765,0.083874,0.0513611,4980,0,1.50735,-2.36408,-13.4141,4980,0
245408174,-0.291276,0.0715685,0.117229,5006,0,4.08692,-2.89047,-11.7009,5006,0
245413179,-0.123349,-0.0330772,0.014947,5005,0,0.976326,0.586691,-9.09568,5005,0
245418186,-0.14101,-0.0801674,-0.117963,5007,0,-3.24158,3.92104,-7.28467,5007,0
245423191,0.270399,-0.0186893,-0.106231,5005,0,-3.06455,1.69032,-10.1555,5005,0
245428197,0.364959,0.036935,0.0131512,5006,0,1.31093,-2.32092,-12.5792,5006,0
245433203,-0.276033,0.0844934,0.109847,5006,0,4.31541,-4.18928,-12.4871,5006,0
245438212,-0.178912,-0.00906736,0.0284447,5009,0,1.41215,-0.232802,-9.13642,5009,0
245443219,-0.256305,-0.0566526,-0.116668,5007,0,-3.2355,4.24546,-7.14903,5007,0
245448222,0.193278,-0.0073666,-0.0944212,5003,0,-3.46826,3.2167,-10.301,5003,0
245453236,0.555072,0.0139456,-0.0032573,5014,0,1.34186,-1.72946,-11.9551,5014,0
245458232,-0.216262,0.0461109,0.105874,4996,0,4.58426,-5.20021,-13.1668,4996,0
245463238,-0.256328,0.0147745,0.0305636,5006,0,1.88318,-1.37509,-9.37202,5006,0
245468244,-0.305444,-0.038809,-0.107638,5006,0,-3.13732,4.2434,-6.77898,5006,0
245473258,0.0885046,-0.0447798,-0.0784166,5014,0,-3.77274,4.59856,-9.79446,5014,0
245478257,0.648967,0.0330408,-0.00675121,4999,0,1.23197,-0.896695,-11.5797,4999,0
245483261,-0.0286963,0.00791629,0.107269,5004,0,4.50047,-5.72543,-13.3848,5004,0
245488273,-0.371366,0.00727826,0.00976731,5012,0,1.86129,-2.86145,-10.0319,5012,0
245493279,-0.330759,-0.00750123,-0.104514,5006,0,-3.06671,4.16514,-7.08955,5006,0
245498283,0.0170186,-0.0599897,-0.0678295,5004,0,-3.74008,5.77553,-9.01669,5004,0
245503284,0.682576,0.0307918,0.00698284,5001,0,1.27498,0.106757,-11.4634,5001,0
245508290,0.172317,-0.000432238,0.111611,5006,0,4.72099,-5.71819,-12.7614,5006,0
245513296,-0.464121,-0.0490046,-0.00320072,5006,0,1.91757,-4.6172,-10.8589,5006,0
245518302,-0.324708,-0.0194611,-0.13892,5006,0,-3.5044,3.10836,-8.03478,5006,0
245523308,-0.011589,-0.0187895,-0.0479296,5006,0,-4.05334,6.73638,-8.93859,5006,0
245528313,0.550696,0.0800389,0.0592493,5005,0,1.24073,1.42485,-10.8158,5005,0
245533319,0.379063,-0.0253073,0.0947557,5006,0,5.01643,-5.25335,-11.5599,5006,0
245538325,-0.437825,-0.0828505,-0.0371267,5006,0,2.21688,-6.06803,-11.6033,5006,0
245543340,-0.356647,-0.0439498,-0.157997,5015,0,-3.42765,1.99081,-9.01742,5015,0
245548337,-0.0416639,0.00858204,-0.0480963,4997,0,-4.37149,7.14735,-9.47094,4997,0
245553343,0.405292,0.105187,0.0942084,5006,0,0.844438,2.93066,-10.5088,5006,0
245558348,0.500459,-0.00294459,0.079042,5005,0,5.29627,-4.52045,-10.09,5005,0
245563361,-0.259421,-0.114155,-0.0570494,5013,0,2.51537,-7.12673,-11.4418,5013,0
245568360,-0.474435,-0.0524885,-0.155592,4999,0,-3.47415,0.406943,-9.79197,4999,0
245573366,-0.149992,0.0235631,-0.0375411,5006,0,-4.53756,6.74816,-10.2532,5006,0
245578372,0.364972,0.0905633,0.090714,5006,0,0.624595,4.27598,-10.533,5006,0
245583377,0.519602,0.041808,0.0777745,5005,0,5.24349,-3.31677,-9.68035,5005,0
245588383,-0.0286233,-0.102156,-0.0672796,5006,0,2.68457,-7.11712,-10.2714,5006,0
245593389,-0.546491,-0.0962193,-0.155234,5006,0,-3.33752,-0.952311,-9.98594,5006,0
245598395,-0.290582,0.0382184,-0.0199954,5006,0,-4.60762,5.97565,-11.4144,5006,0
245603401,0.396076,0.111894,0.0828491,5006,0,0.46957,4.70989,-10.7633,5006,0
245608409,0.442545,0.0413202,0.0674772,5008,0,5.13669,-2.3128,-9.52888,5008,0
245613412,0.0806445,-0.0823183,-0.0942478,5003,0,2.83776,-6.06265,-8.74794,5003,0
245618418,-0.456765,-0.130065,-0.150184,5006,0,-3.19936,-1.90356,-9.81335,5006,0
245623424,-0.404372,0.0052361,0.0141693,5006,0,-4.29745,4.14708,-12.2476,5006,0
245628431,0.331138,0.106449,0.0960003,5007,0,1.03255,3.67268,-11.1637,5007,0
245633435,0.368726,0.0963175,0.0361021,5004,0,4.63889,-1.34694,-9.67527,5004,0
245638441,0.0377168,-0.0767109,-0.133502,5006,0,1.79778,-3.57441,-7.21405,5006,0
245643447,-0.392677,-0.205189,-0.133137,5006,0,-3.09611,-1.44782,-10.3517,5006,0
245648455,-0.23824,-0.0502639,0.0687267,5008,0,-2.9373,2.77795,-13.7698,5008,0
245653458,0.287164,0.1321,0.132661,5003,0,1.72361,1.7276,-11.4595,5003,0
245658464,0.136012,0.189819,-0.0229108,5006,0,3.34516,-0.213291,-8.49235,5006,0
245663470,-0.0944984,-0.135525,-0.180891,5006,0,0.409556,-1.70384,-6.0008,5006,0
245668478,-0.103065,-0.31882,-0.12576,5008,0,-2.25467,-1.37128,-12.1737,5008,0
245673482,-0.000787216,-0.0615562,0.140633,5004,0,-0.740643,1.38354,-15.1923,5004,0
245678487,-0.111254,0.236164,0.129904,5005,0,1.57389,0.699797,-10.5017,5005,0
245683493,-0.0473926,0.196818,-0.139683,5006,0,0.300547,1.059,-6.23221,5006,0
245688499,0.250917,-0.244685,-0.240962,5006,0,-0.824631,-0.0910912,-6.09253,5006,0
245693515,0.0910566,-0.409988,0.057218,5016,0,0.726976,-0.956983,-14.5095,5016,0
245698511,-0.235499,0.105833,0.201258,4996,0,1.45257,-1.6427,-16.8327,4996,0
245703516,-0.186903,0.421133,-0.082803,5005,0,-0.556524,0.670345,-7.37467,5005,0
245708522,0.0245848,-0.0314662,-0.203888,5006,0,-2.28039,3.29704,-3.76863,5006,0
245713528,0.464116,-0.463113,-0.0600017,5006,0,0.268095,0.439785,-9.37663,5006,0
245718534,0.0869286,-0.180205,0.174619,5006,0,2.9994,-3.78007,-17.8901,5006,0
245723540,-0.37053,0.404557,0.0412593,5006,0,1.05027,-1.97082,-13.57,5006,0
245728549,-0.260308,0.225026,-0.130966,5009,0,-2.76243,3.79506,-3.42581,5009,0
245733551,0.20565,-0.318617,-0.0984976,5002,0,-2.37001,3.48491,-5.19573,5002,0
245738559,0.693406,-0.38576,0.0578038,5008,0,2.1014,-1.83366,-14.0071,5008,0
245743563,-0.251944,0.268603,0.106513,5004,0,3.06003,-5.37954,-17.9998,5004,0
245748569,-0.433863,0.425412,-0.0564798,5006,0,-1.19907,1.20594,-7.73818,5006,0
245753575,-0.142211,-0.161558,-0.0952441,5006,0,-3.47853,4.92211,-3.8202,5006,0
245758581,0.54628,-0.479265,0.0102689,5006,0,0.389336,1.38125,-9.50996,5006,0
245763590,0.581085,0.0640317,0.102377,5009,0,3.1728,-4.5666,-17.7075,5009,0
245768592,-0.574009,0.626168,-0.0188894,5002,0,0.341847,-2.96499,-11.2126,5002,0
245773598,-0.559249,0.0279675,-0.0790541,5006,0,-3.25421,3.00394,-3.81927,5006,0
245778604,0.318118,-0.51981,-0.0357817,5006,0,-1.04728,3.53775,-8.09165,5006,0
245783609,0.856098,-0.127422,0.104258,5005,0,3.36656,-1.64325,-16.0894,5005,0
245788615,-0.283762,0.650596,0.0171157,5006,0,1.4459,-4.24745,-14.4563,5006,0
245793621,-0.637448,0.294287,-0.140988,5006,0,-3.23217,1.35408,-3.84541,5006,0
245798633,0.0320881,-0.481752,-0.0459852,5012,0,-2.50765,4.13548,-5.88941,5012,0
245803641,0.734307,-0.345607,0.166369,5008,0,3.33603,-0.145095,-15.1564,5008,0
245808638,0.116644,0.595796,-0.00540154,4997,0,3.73708,-5.72801,-16.5001,4997,0
245813644,-0.549027,0.541331,-0.19507,5006,0,-2.03453,-0.0492103,-5.0542,5006,0
245818650,-0.357916,-0.4092,-0.044098,5006,0,-3.9216,5.90098,-4.49341,5006,0
245823656,0.552633,-0.594738,0.200146,5006,0,1.88509,2.67383,-13.5096,5006,0
245828662,0.581572,0.398221,0.0602743,5006,0,4.35446,-6.33322,-17.6819,5006,0
245833668,-0.305703,0.706159,-0.203123,5006,0,-0.472411,-3.55485,-6.80737,5006,0
245838674,-0.662274,-0.306886,-0.0908443,5006,0,-3.35941,3.9259,-3.68744,5006,0
245843682,0.243184,-0.691355,0.124909,5008,0,0.0310705,4.69631,-12.6941,5008,0
245848685,0.670643,0.177894,0.0952774,5003,0,3.46857,-2.44044,-17.3815,5003,0
245853691,0.0485372,0.669421,-0.153329,5006,0,1.89825,-4.01192,-7.60652,5006,0
245858697,-0.578125,-0.181558,-0.0950665,5006,0,-1.48549,0.180333,-3.55357,5006,0
245863702,-0.0050281,-0.790247,0.0912031,5005,0,-1.91335,3.09124,-11.4014,5005,0
245868708,0.467363,-0.0532726,0.089234,5006,0,1.10576,0.507425,-18.3438,5006,0
245873714,0.0308432,0.655884,-0.139133,5006,0,2.72509,-1.36895,-9.52709,5006,0
245878720,-0.143596,0.0965127,-0.137332,5006,0,0.16814,-0.604231,-3.25957,5006,0
245883726,-0.117355,-0.942728,0.153731,5006,0,-0.781411,0.586365,-7.64018,5006,0
245888731,0.190802,-0.443953,0.144029,5005,0,0.668049,-1.29321,-18.6819,5005,0
245893737,0.0292376,0.638436,-0.193822,5006,0,1.26605,-0.0557207,-10.6144,5006,0
245898743,-0.0747247,0.258092,-0.211409,5006,0,-0.598936,0.262179,-4.44328,5006,0
245903749,-0.167843,-0.996372,0.190385,5006,0,0.408805,1.11906,-10.2159,5006,0
245908755,0.283156,-0.472592,0.175917,5006,0,1.04999,-0.367227,-18.3006,5006,0
245913761,0.0501019,0.522029,-0.165192,5006,0,0.606168,0.48167,-5.82606,5006,0
245918766,0.0135374,0.115698,-0.194707,5005,0,0.021709,-2.95446,-3.39168,5005,0
245923772,-0.357967,-0.892606,0.0986955,5006,0,-0.198304,-1.40688,-15.946,5006,0
245928778,0.10109,-0.140595,0.083414,5006,0,-0.592281,3.64045,-16.9821,5006,0
245933784,0.148186,0.213131,-0.0902695,5006,0,0.593603,2.28038,-1.81593,5006,0
245938790,0.227322,-0.273698,-0.125442,5006,0,1.74256,-4.10117,-4.8763,5006,0
245943795,-0.513876,-0.430939,-0.00929953,5005,0,-0.476639,-1.01793,-19.8612,5005,0
245948801,-0.00588549,0.0170823,0.0447772,5006,0,-0.669448,4.42956,-10.6547,5006,0
245953807,0.49293,-0.340816,-0.0454196,5006,0,1.04339,-1.28945,-1.18498,5006,0
245958816,0.105786,-0.469185,-0.166466,5009,0,0.119803,-3.9979,-12.6279,5009,0
245963819,-0.772283,0.134406,-0.137139,5003,0,-1.96738,4.30579,-19.1929,5003,0
245968824,0.0605146,-0.194972,0.0592268,5005,0,1.87053,2.28465,-3.91157,5005,0
245973830,0.933645,-0.740751,-0.0188661,5006,0,2.4161,-5.70117,-5.45658,5006,0
245978842,-0.437877,-0.064426,-0.209767,5012,0,-3.1307,-1.30066,-18.9342,5012,0
245983842,-0.868274,0.246806,-0.0244162,5000,0,-1.85396,6.2848,-9.17074,5000,0
245988848,0.504254,-0.650666,0.0777325,5006,0,3.27542,-1.69061,-2.13917,5006,0
245993856,0.697681,-0.604789,-0.0781671,5008,0,0.283207,-6.18466,-16.0516,5008,0
245998859,-0.975955,0.44662,-0.170205,5003,0,-3.78166,3.2796,-18.1673,5003,0
246003865,-0.360838,-0.158689,0.027532,5006,0,0.571585,4.63414,-0.982395,5006,0
246008871,1.09714,-0.867995,0.0596841,5006,0,2.70702,-3.58709,-4.19736,5006,0
246013877,-0.190431,-0.0662956,-0.135448,5006,0,-2.33656,-2.74264,-20.9273,5006,0
246018883,-1.00146,0.301778,-0.0637292,5006,0,-1.85867,4.48616,-10.3471,5006,0
246023888,0.545648,-0.709403,0.0480197,5005,0,3.12091,-0.505429,-1.23025,5005,0
246028894,0.666496,-0.620834,-0.0403873,5006,0,0.00297121,-4.25999,-14.5289,5006,0
246033900,-1.05065,0.522986,-0.141348,5006,0,-4.51333,2.49675,-17.5905,5006,0
246038906,-0.211667,-0.159782,0.00452743,5006,0,0.613726,2.39424,-1.49751,5006,0
246043912,1.0162,-0.979612,0.0572761,5006,0,3.64274,-3.1338,-6.74851,5006,0
246048918,-0.329937,0.125672,-0.129652,5006,0,-3.12842,-1.12802,-23.2898,5006,0
246053923,-0.84978,0.491127,-0.0895613,5005,0,-3.32095,4.22136,-7.51222,5005,0
246058929,0.654194,-0.821636,0.0605081,5006,0,3.66189,-0.673338,0.0432579,5006,0
246063935,0.520711,-0.577433,0.000635022,5006,0,0.648856,-3.79843,-16.8192,5006,0
246068941,-0.919404,0.752927,-0.138824,5006,0,-4.77846,2.97268,-17.0204,5006,0
246073947,-0.0543776,-0.302651,-0.0135315,5006,0,0.756622,1.77953,0.923016,5006,0
246078952,0.900693,-1.02101,0.0670114,5005,0,3.28367,-3.19744,-8.88938,5005,0
246083958,-0.354322,0.496043,-0.0840892,5006,0,-4.24165,0.926497,-23.2419,5006,0
246088977,-0.549049,0.408175,-0.0656918,5019,0,-2.27205,3.51931,-3.71342,5019,0
246093970,0.700511,-0.995886,0.0611642,4993,0,3.79092,-2.72471,-2.72113,4993,0
246098976,0.244699,-0.12501,-0.0213981,5006,0,-1.77201,-1.85932,-21.9306,5006,0
246103981,-0.679736,0.770324,-0.123927,5005,0,-4.03987,4.69294,-11.555,5005,0
246108987,0.180224,-0.54628,0.00225764,5006,0,2.90054,-0.668288,0.557231,5006,0
246113993,0.750691,-0.644771,0.0376426,5006,0,1.76769,-3.34851,-14.1876,5006,0
246118999,-0.420661,0.715854,-0.0898,5006,0,-5.18318,3.17298,-18.4846,5006,0
246124015,-0.371604,-0.0902411,-0.0138168,5016,0,-0.265602,1.44759,0.266036,5016,0
246129011,0.770998,-0.894031,0.030987,4996,0,3.76389,-4.43147,-7.8548,4996,0
246134017,0.0573794,0.445486,-0.0945754,5006,0,-3.31919,1.04782,-22.417,5006,0
246139022,-0.642756,0.43684,-0.0330611,5005,0,-2.34855,3.9512,-4.50797,5005,0
246144028,0.386909,-0.824437,0.0460011,5006,0,3.80694,-3.51072,-2.82864,5006,0
246149034,0.594919,-0.152844,-0.065144,5006,0,-1.65443,-1.56174,-21.338,5006,0
246154040,-0.602985,0.770409,-0.0880773,5006,0,-4.77548,4.54503,-12.2006,5006,0
246159049,-0.133086,-0.496064,0.0559927,5009,0,3.53847,-1.94131,0.661629,5009,0
246164051,0.85316,-0.497855,-0.00882469,5002,0,2.02954,-3.62562,-15.3124,5002,0
246169057,-0.277416,0.736894,-0.0904559,5006,0,-5.83223,4.07121,-17.5685,5006,0
246174063,-0.556194,-0.240853,0.0389991,5006,0,0.872915,0.230045,1.15204,5006,0
246179069,0.766001,-0.804411,0.00261395,5006,0,4.67071,-5.05628,-9.84231,5006,0
246184074,0.149974,0.643222,-0.108007,5005,0,-4.41798,1.89041,-21.2173,5005,0
246189080,-0.763494,0.279769,0.00358829,5006,0,-2.52039,2.52352,-2.00472,5006,0
246194089,0.335967,-0.89131,0.00537296,5009,0,4.36993,-4.33564,-4.33867,5009,0
246199092,0.640571,0.223267,-0.126164,5003,0,-2.44228,0.470758,-23.4171,5003,0
246204098,-0.653847,0.617401,-0.0392909,5006,0,-4.0394,4.68572,-8.18892,5006,0
246209104,-0.0549898,-0.667122,0.0141663,5006,0,4.34059,-3.12853,-1.48297,5006,0
246214109,0.923384,-0.220967,-0.10501,5005,0,1.46537,-1.72285,-16.8235,5005,0
246219115,-0.46926,0.63629,-0.0653273,5006,0,-6.03392,4.41612,-13.0347,5006,0
246224121,-0.432894,-0.470395,0.0356932,5006,0,1.15018,-1.13321,0.328346,5006,0
246229131,0.933965,-0.512934,-0.0412952,5010,0,3.51704,-4.08343,-15.5601,5010,0
246234133,-0.160289,0.823081,-0.106857,5002,0,-4.75919,3.10983,-18.59,5002,0
246239138,-0.747371,-0.144054,0.0125627,5005,0,-0.464507,1.39188,0.753669,5005,0
246244144,0.706275,-0.828024,-0.0344117,5006,0,5.0671,-4.45343,-7.77998,5006,0
246249152,0.309149,0.43868,-0.116927,5008,0,-3.27551,1.28157,-19.8979,5008,0
246254156,-0.892182,0.204558,-0.018767,5004,0,-3.01794,2.87064,-4.11807,5004,0
246259162,0.336095,-0.855142,0.0254059,5006,0,4.55852,-3.8322,-6.49031,5006,0
246264170,0.695973,0.1512,-0.105402,5008,0,-0.728996,-0.423425,-21.311,5008,0
246269176,-0.863596,0.465094,-0.0953838,5006,0,-4.69959,4.28221,-7.5838,5006,0
246274184,-0.0811848,-0.787056,0.0313754,5008,0,2.9323,-1.83359,-2.00533,5008,0
246279185,0.935761,-0.245816,-0.0694474,5001,0,1.53501,-2.50606,-18.2341,5001,0
246284209,-0.535377,0.56398,-0.11752,5024,0,-4.82337,3.16861,-12.9415,5024,0
246289197,-0.510735,-0.451507,-0.0209205,4988,0,1.49725,-0.243375,-0.856542,4988,0
246294202,0.83778,-0.401294,-0.0374697,5005,0,3.17525,-2.98686,-14.2162,5005,0
246299208,-0.01138,0.444409,-0.114807,5006,0,-5.31057,2.45428,-15.757,5006,0
246304216,-0.652821,-0.31176,-0.0486882,5008,0,-1.16993,1.69082,-1.71955,5008,0
246309222,0.587265,-0.550286,-0.00335607,5006,0,4.17525,-3.66679,-12.1537,5006,0
246314238,0.350966,0.370205,-0.124614,5016,0,-3.53802,-0.604653,-19.1902,5016,0
246319231,-0.592296,0.0247895,-0.114666,4993,0,-2.84402,2.4986,-3.56068,4993,0
246324237,0.0949629,-0.502313,-0.0220486,5006,0,3.31788,-1.48549,-8.53474,5006,0
246329245,0.585714,0.0515005,-0.101721,5008,0,-2.58283,-0.948587,-17.9788,5008,0
246334249,-0.267414,0.12531,-0.157467,5004,0,-3.18749,2.47842,-6.38222,5004,0
246339255,-0.193378,-0.312554,-0.0493887,5006,0,3.08436,-0.549096,-7.58333,5006,0
246344272,0.503463,-0.0788759,-0.0580301,5017,0,-0.587421,-2.06195,-15.76,5017,0
246349273,-0.0639827,0.109053,-0.161369,5001,0,-3.01196,0.428377,-8.47501,5001,0
246354278,-0.26684,-0.210085,-0.127752,5005,0,1.4665,0.0732905,-6.24152,5005,0
246359287,0.360618,-0.142501,-0.0687511,5009,0,-0.615778,-0.246131,-14.5288,5009,0
246364286,0.100941,0.0434677,-0.108739,4999,0,-1.7659,-0.212334,-11.3679,4999,0
246369290,-0.187464,-0.0518791,-0.218243,5004,0,0.784401,-0.74253,-7.34459,5004,0
246374296,0.161438,-0.0459211,-0.0914677,5006,0,-1.60189,0.251762,-11.345,5006,0
246379301,0.199278,-0.111305,-0.0558229,5005,0,-1.52297,-0.182597,-10.7338,5005,0
246384307,-0.171888,0.0306427,-0.210606,5006,0,0.596342,-0.953194,-10.543,5006,0
246389313,-0.0683342,0.193714,-0.127407,5006,0,-1.78645,2.50268,-10.6482,5006,0
246394319,0.318488,-0.279262,-0.0241009,5006,0,-0.893487,-0.227394,-9.53599,5006,0
246399335,0.066082,-0.163159,-0.173075,5016,0,1.17613,-3.59469,-13.3973,5016,0
246404330,-0.286736,0.636244,-0.158086,4995,0,-3.16697,2.6239,-12.1609,4995,0
246409336,0.094747,0.125087,-0.0777526,5006,0,-2.52713,1.74791,-4.2125,5006,0
246414342,0.171217,-0.63155,-0.0800371,5006,0,2.85414,-4.87707,-10.7042,5006,0
246419348,-0.087141,0.538191,-0.0703116,5006,0,-2.01767,1.33777,-20.5902,5006,0
246424354,-0.249385,0.830372,-0.0810745,5006,0,-4.00738,3.96819,-3.76401,5006,0
246429360,0.152777,-0.704085,-0.105677,5006,0,3.32193,-5.30253,-1.94421,5006,0
246434365,0.221142,-0.200757,-0.0751473,5005,0,0.722521,-1.54257,-21.9886,5005,0
246439379,-0.395249,1.34552,-0.0522141,5014,0,-5.67554,6.36212,-12.1685,5014,0
246444377,-0.115705,-0.249162,-0.0897583,4998,0,0.874146,-2.48827,3.73105,4998,0
246449383,0.312357,-0.887768,-0.0523732,5006,0,4.19542,-4.85684,-15.9209,5006,0
246454389,-0.188188,1.13827,-0.129316,5006,0,-3.78617,3.60604,-19.881,5006,0
246459400,-0.282477,0.476293,-0.0468674,5011,0,-1.80301,-0.0519423,3.3967,5011,0
246464400,0.0104747,-0.908626,0.0464943,5000,0,3.97745,-4.2359,-5.97275,5000,0
246469406,0.0950677,0.43202,-0.123597,5006,0,-2.80947,3.74504,-22.9224,5006,0
246474412,-0.186748,0.814584,-0.153495,5006,0,-4.06947,0.783199,-5.0771,5006,0
246479420,-0.359098,-0.566953,0.0985617,5008,0,4.25768,-5.03162,-4.16672,5008,0
246484423,0.127646,-0.123159,-0.0440562,5003,0,1.09842,-0.932527,-18.3413,5003,0
246489429,-0.0191722,0.627337,-0.225277,5006,0,-4.50493,0.744571,-8.83722,5006,0
246494435,-0.523418,0.0247259,-0.00753,5006,0,0.243064,1.38568,-4.55657,5006,0
246499441,-0.267009,-0.0652973,-0.0415096,5006,0,1.96007,0.698827,-13.1842,5006,0
246504446,0.298207,0.245413,-0.250684,5005,0,-2.42829,-3.37632,-12.8547,5005,0
246509452,-0.408429,0.107637,-0.0234008,5006,0,-0.658973,0.919634,-8.6962,5006,0
246514458,-0.523841,-0.0543749,0.0241952,5006,0,2.07798,1.28533,-10.2814,5006,0
246519464,0.181043,0.0839714,-0.215567,5006,0,-0.682449,-4.22854,-11.0085,5006,0
246524470,-0.33894,0.404731,-0.259064,5006,0,-2.63779,1.96167,-11.2117,5006,0
246529477,-0.673238,0.138827,-0.110295,5007,0,-0.259286,3.45969,-8.67893,5007,0
246534481,0.151929,-0.527653,-0.0505714,5004,0,2.00615,-4.38541,-10.7338,5004,0
246539487,0.0667985,0.471664,-0.231577,5006,0,-0.857948,-1.03403,-17.5981,5006,0
246544493,-0.926524,0.758538,-0.204754,5006,0,-3.23366,3.65436,-3.6072,5006,0
246549499,-0.295138,-0.557779,-0.0822939,5006,0,1.7598,-3.6428,-2.36894,5006,0
246554515,0.292539,-0.192692,-0.13152,5016,0,2.43277,-1.86047,-18.6775,5016,0
246559510,-0.783376,1.15884,-0.168081,4995,0,-5.27499,5.61282,-13.5032,4995,0
246564516,-0.51719,-0.242237,-0.0756738,5006,0,0.351048,0.643726,2.09206,5006,0
246569522,0.354164,-0.753744,-0.111366,5006,0,5.38432,-6.41125,-15.2077,5006,0
246574528,-0.537058,1.16186,-0.228206,5006,0,-4.89275,1.39987,-18.6386,5006,0
246579534,-0.721314,0.182473,-0.135067,5006,0,-2.00865,2.54047,4.00322,5006,0
246584539,0.0699231,-1.07754,-0.0415298,5005,0,6.02671,-4.48836,-9.14134,5005,0
246589565,-0.138592,0.715243,-0.121645,5026,0,-3.12285,4.60957,-24.8801,5026,0
246594551,-0.413678,0.819414,-0.180879,4986,0,-4.50195,4.52146,-1.84471,4986,0
246599557,-0.203289,-0.836002,0.0389782,5006,0,5.11452,-6.33213,-4.26257,5006,0
246604563,0.0624903,0.052613,-0.0634957,5006,0,0.63138,-0.121537,-21.1699,5006,0
246609570,-0.182826,0.79409,-0.216636,5007,0,-4.82653,3.18755,-5.37572,5007,0
246614575,-0.55195,-0.436471,-0.00903404,5005,0,1.54891,-3.05775,-4.68213,5005,0
246619580,-0.0333535,0.0541507,-0.161406,5005,0,1.23318,1.54996,-19.1424,5005,0
246624589,0.300373,0.715042,-0.255131,5009,0,-2.84448,4.26484,-7.14598,5009,0
246629595,-0.498788,-0.224449,0.022361,5006,0,2.00355,-0.431581,-4.45213,5006,0
246634598,-0.179607,-0.13905,-0.156458,5003,0,1.75412,-0.893226,-13.3695,5003,0
246639603,0.31649,0.164609,-0.358305,5005,0,-3.56393,-0.334202,-7.81389,5005,0
246644609,-0.165099,-0.0665947,-0.0989685,5006,0,-0.400647,0.943089,-11.1909,5006,0
246649616,-0.619432,0.272032,-0.161396,5007,0,1.6327,1.12692,-15.1941,5007,0
246654622,-0.0279346,0.204052,-0.357464,5006,0,-1.58847,1.37684,-6.74455,5006,0
246659627,0.5805,-0.0621619,-0.214438,5005,0,0.102719,1.43453,-8.88087,5005,0
246664633,-0.582291,-0.131767,-0.0491357,5006,0,1.18428,1.76436,-10.6095,5006,0
246669641,-0.190987,0.121945,-0.306099,5008,0,-0.578802,-1.48879,-9.80188,5008,0
246674644,0.661921,0.347668,-0.350492,5003,0,-0.672298,-0.352717,-9.30217,5003,0
246679651,-0.597751,-0.102236,-0.0523756,5007,0,-0.37156,1.60341,-8.25473,5007,0
246684656,-0.320687,-0.000271901,-0.292641,5005,0,-0.134121,-1.80047,-11.7741,5005,0
246689663,0.449035,0.422318,-0.333686,5007,0,-1.52181,1.87461,-10.6787,5007,0
246694668,0.0519783,0.0822783,-0.111349,5005,0,-0.40562,1.35385,-8.5369,5005,0
246699673,-0.434394,-0.0529702,-0.277112,5005,0,1.18896,-2.84279,-13.1038,5005,0
246704679,0.0257843,0.548999,-0.366033,5006,0,-2.4673,1.87311,-13.8279,5006,0
246709686,0.485218,0.349846,-0.253734,5007,0,-2.01661,0.926718,-6.91858,5007,0
246714691,-0.23142,-0.290401,-0.19821,5005,0,2.41757,-1.69689,-7.57171,5005,0
246719696,-0.278762,0.59194,-0.362346,5005,0,-1.04553,2.84905,-16.2005,5005,0
246724702,0.494368,0.645361,-0.40093,5006,0,-3.60586,1.65191,-4.5694,5006,0
246729708,-0.11947,-0.77162,-0.181879,5006,0,3.57427,-2.59014,-7.08352,5006,0
246734714,-0.154779,0.694461,-0.282291,5006,0,0.487251,0.940793,-25.8313,5006,0
246739720,0.111677,1.29047,-0.390865,5006,0,-6.3014,4.34351,-3.51697,5006,0
246744726,0.398141,-0.709627,-0.296234,5006,0,2.41271,-2.35683,0.606204,5006,0
246749732,-0.241912,-0.168145,-0.228753,5006,0,3.6498,-0.682646,-21.7502,5006,0
246754737,0.103587,1.55198,-0.431855,5005,0,-5.80702,6.93641,-13.8215,5005,0
246759743,0.727181,-0.0527743,-0.273087,5006,0,1.34992,-2.69113,3.19752,5006,0
246764750,-0.334538,-0.720092,-0.147785,5007,0,4.7807,-2.52135,-18.6126,5007,0
246769755,0.186302,1.39319,-0.517874,5005,0,-5.64565,4.51209,-19.422,5005,0
246774760,0.593882,0.447254,-0.406175,5005,0,-2.60872,-0.272087,2.81552,5005,0
246779766,-0.130525,-0.538101,-0.0837581,5006,0,5.20215,-0.700609,-11.8723,5006,0
246784772,0.0723726,0.749018,-0.360903,5006,0,-1.43891,2.91688,-16.5975,5006,0
246789778,0.632446,0.663867,-0.405873,5006,0,-3.02911,0.606675,-4.1241,5006,0
246794784,0.279466,0.0636612,-0.24901,5006,0,3.01398,-1.23228,-12.3751,5006,0
246799789,-0.30051,0.396881,-0.294675,5005,0,-0.666756,1.31652,-14.0782,5005,0
246804795,0.690277,0.726916,-0.422417,5006,0,-3.36643,1.43842,-9.91807,5006,0
246809801,0.552129,0.363371,-0.282886,5006,0,1.90041,-0.38941,-6.65214,5006,0
246814807,-0.398634,0.062501,-0.31974,5006,0,1.82956,-0.525101,-8.18438,5006,0
246819813,0.311868,0.753628,-0.48274,5006,0,-1.23341,1.16151,-11.7972,5006,0
246824819,0.69136,0.304429,-0.255831,5006,0,-0.117025,0.253094,-6.12715,5006,0
246829824,-0.217857,-0.0231668,-0.323431,5005,0,1.82838,-1.98384,-14.567,5005,0
246834830,-0.231244,0.961314,-0.430176,5006,0,-0.959554,3.93338,-17.2784,5006,0
246839837,0.909306,0.486536,-0.290741,5007,0,-0.179045,-0.201892,-4.38158,5007,0
246844842,0.317751,-0.194504,-0.27764,5005,0,4.00254,-3.65484,-7.64848,5005,0
246849848,-0.776082,0.597249,-0.314914,5006,0,-0.301039,4.09148,-15.1278,5006,0
246854853,0.770209,0.532615,-0.347551,5005,0,-1.54792,-1.4154,-6.13312,5005,0
246859863,0.462689,-0.242419,-0.257213,5010,0,3.15631,-5.02101,-12.2735,5010,0
246864865,-0.674034,0.75818,-0.297657,5002,0,-1.11962,5.085,-20.4245,5002,0
246869871,0.693385,0.372894,-0.33815,5006,0,-1.00905,-0.931287,-1.78573,5006,0
246874877,0.5647,-0.350969,-0.16139,5006,0,4.86586,-4.93476,-8.45682,5006,0
246879886,-0.491629,0.691569,-0.294637,5009,0,0.152755,4.85611,-13.7869,5009,0
246884888,0.267458,0.240323,-0.274149,5002,0,-1.51105,-1.06994,0.434596,5002,0
246889894,0.54849,-0.299115,-0.140906,5006,0,3.2946,-4.03233,-11.6162,5006,0
246894900,0.00901842,0.480078,-0.29653,5006,0,-0.238064,4.2603,-14.8902,5006,0
246899907,-0.151658,-0.0234074,-0.163279,5007,0,-0.544585,-1.3148,-6.77114,5007,0
246904912,0.326034,-0.0611659,-0.176484,5005,0,3.89148,-2.89845,-14.9337,5005,0
246909918,0.352965,0.277147,-0.322372,5006,0,0.267687,2.55836,-8.3926,5006,0
246914923,-0.449282,-0.158544,-0.104675,5005,0,-0.837758,0.711328,-7.56415,5005,0
246919938,0.118877,-0.0152917,-0.17159,5015,0,2.35415,-1.8224,-13.4849,5015,0
246924935,0.504307,0.103859,-0.348911,4997,0,-0.0441141,-1.07694,-8.40034,4997,0
246929941,-0.670577,-0.122042,-0.0725907,5006,0,0.729376,0.866718,-10.7845,5006,0
246934946,-0.0752484,0.0151978,-0.234511,5005,0,2.89376,-2.11192,-11.401,5005,0
246939979,0.338951,0.0379588,-0.343193,5033,0,0.968354,0.561387,-8.47606,5033,0
246944958,-0.427349,-0.180816,-0.120782,4979,0,0.845005,2.76974,-10.9137,4979,0
246949964,-0.00618173,-0.170802,-0.226168,5006,0,2.09627,-3.14338,-10.3944,5006,0
246954972,0.0227761,0.0992028,-0.261509,5008,0,0.0121289,-0.244909,-10.5578,5008,0
246959978,-0.15774,-0.175468,-0.177676,5006,0,-0.226331,0.755241,-7.59529,5006,0
246964981,-0.165468,-0.399546,-0.247645,5003,0,2.38364,-3.96063,-9.3297,5003,0
246969987,-0.312867,0.129529,-0.247436,5006,0,0.427029,3.32256,-13.8276,5006,0
246974993,0.0505409,-0.116388,-0.177692,5006,0,0.171257,0.903213,-7.23585,5006,0
246980001,-0.103653,-0.584075,-0.155322,5008,0,2.77008,-4.32809,-9.75306,5008,0
246985015,-0.443422,0.0932299,-0.245781,5014,0,-0.879113,3.71603,-15.5638,5014,0
246990011,0.121026,-0.277469,-0.196165,4996,0,-0.36307,-1.07175,-4.37293,4996,0
246995016,-0.208444,-0.584809,-0.117421,5005,0,3.06606,-3.30174,-12.3718,5005,0
247000022,-0.587814,0.349352,-0.248622,5006,0,-1.30262,5.83553,-14.4166,5006,0
247005028,0.0613374,-0.495399,-0.170219,5006,0,-0.540245,-1.95848,-0.879596,5006,0
247010034,-0.0421459,-0.69508,-0.139772,5006,0,3.00977,-2.36617,-15.628,5006,0
247015039,-0.461044,0.334852,-0.297915,5005,0,-1.11708,5.40394,-13.7148,5005,0
247020049,-0.157922,-0.49868,-0.0989212,5010,0,-0.791538,-2.61657,-3.7316,5010,0
247025051,-0.106523,-0.458636,-0.126768,5002,0,1.63061,-1.80002,-16.3886,5002,0
247030057,-0.251299,0.128411,-0.262151,5006,0,-2.71635,3.88658,-9.89565,5006,0
247035063,-0.486338,-0.324988,-0.0392129,5006,0,-1.18392,-0.67609,-8.5629,5006,0
247040069,-0.0150184,-0.124074,-0.139253,5006,0,2.66551,-1.00068,-14.2457,5006,0
247045074,-0.122822,-0.0493741,-0.264202,5005,0,-1.01324,0.978884,-8.10379,5005,0
247050083,-0.524462,-0.235618,-0.0743359,5009,0,-0.685,0.393072,-9.59968,5009,0
247055089,0.0556934,-0.0853493,-0.222398,5006,0,0.650107,-1.39798,-9.7009,5006,0
247060092,-0.310323,-0.114957,-0.21964,5003,0,-1.14145,2.08514,-9.14523,5003,0
247065098,-0.244712,0.000600024,-0.106788,5006,0,-0.80785,0.521371,-12.942,5006,0
247070103,-0.0143786,-0.0684976,-0.246869,5005,0,0.447304,-1.35237,-8.62314,5005,0
247075109,-0.479334,-0.10425,-0.120742,5006,0,0.866539,2.75066,-11.2489,5006,0
247080115,0.114064,0.0873757,-0.12872,5006,0,-0.175278,-0.849394,-10.7608,5006,0
247085121,-0.276581,-0.117235,-0.227217,5006,0,0.0281823,-0.157732,-7.90778,5006,0
247090136,-0.459675,0.090476,-0.173733,5015,0,-0.591384,4.04334,-13.4848,5015,0
247095140,0.333933,-0.0555954,-0.154687,5004,0,-0.513825,-1.59473,-8.57728,5004,0
247100138,-0.345153,0.00393652,-0.142916,4998,0,1.0455,0.778886,-12.6211,4998,0
247105144,-0.387249,0.287124,-0.14887,5006,0,-0.770479,2.66243,-10.8042,5006,0
247110150,0.308631,-0.319346,-0.14669,5006,0,0.507223,-3.52041,-6.74216,5006,0
247115156,-0.321851,0.225055,-0.170308,5006,0,1.26204,2.44607,-15.7704,5006,0
247120162,-0.376758,0.202479,-0.10397,5006,0,-2.20975,3.7133,-6.19112,5006,0
247125168,0.379981,-0.332793,-0.107807,5006,0,1.27627,-2.92138,-9.49178,5006,0
247130175,-0.151216,0.385463,-0.135852,5007,0,1.35198,3.22509,-14.3663,5007,0
247135183,-0.125536,-0.112621,-0.0276133,5008,0,-1.8483,0.157614,-3.67937,5008,0
247140185,0.0731882,-0.110307,-0.102903,5002,0,2.24217,-3.56171,-12.6846,5002,0
247145191,-0.0902732,0.306053,-0.101736,5006,0,0.0459225,4.65829,-9.05332,5006,0
247150204,-0.0975065,-0.30234,-0.0154514,5013,0,-0.983353,-0.716122,-7.78076,5013,0
247155202,-0.0127959,0.228637,-0.129586,4998,0,1.82537,1.38565,-16.3696,4998,0
247160218,0.276811,-0.0218223,-0.0408143,5016,0,-1.21151,4.07615,-6.04915,5016,0
247165216,0.0654972,-0.279343,0.0536633,4998,0,0.502236,-3.55726,-12.3435,4998,0
247170240,-0.112873,0.369389,-0.0995622,5024,0,0.514412,2.25399,-11.1721,5024,0
247175249,0.232846,-0.12675,-0.0190086,5009,0,-0.949166,0.91949,-4.70114,5009,0
247180231,-0.00749609,0.0404141,-0.0242942,4982,0,1.16988,-1.37747,-15.2421,4982,0
247185253,0.019114,0.170044,-0.0560125,5022,0,-1.00679,5.1447,-8.87358,5022,0
247190243,0.203597,-0.220112,0.129501,4990,0,0.648703,-0.314062,-10.8422,4990,0
247195251,0.321413,0.325453,-0.0152814,5008,0,1.02471,-0.850258,-13.712,5008,0
247200255,0.0912288,0.00441963,-0.0369274,5004,0,-1.57887,3.12488,-4.3659,5004,0
247205264,-0.118583,-0.0242656,0.132108,5009,0,0.869458,-0.787972,-13.3439,5009,0
247210273,0.573665,0.267396,-0.0463897,5009,0,-0.378482,0.000974396,-9.82355,5009,0
247215275,-0.0148083,-0.114319,0.0670231,5002,0,0.0192957,2.70367,-9.0621,5002,0
247220282,-0.0383565,0.212163,0.0694106,5007,0,1.98173,-0.936879,-13.9542,5007,0
247225285,0.651089,0.173869,-0.085578,5003,0,-0.813055,-0.0518273,-6.35919,5003,0
247230296,-0.306292,-0.128023,0.136525,5011,0,0.573135,2.14942,-9.70694,5011,0
247235304,0.144503,0.00488243,0.00848541,5008,0,0.879449,-1.6694,-10.8662,5008,0
247240301,0.40477,0.126502,0.0132825,4997,0,-0.60391,1.28567,-10.8705,4997,0
247245308,-0.107567,0.0961252,0.139769,5007,0,1.23522,1.08503,-11.6381,5007,0
247250313,0.29689,0.0512534,-0.0348823,5005,0,0.642465,-1.84863,-9.60976,5005,0
247255324,0.0653516,0.0458145,0.0782777,5011,0,-0.212275,3.18521,-10.9113,5011,0
247260325,0.354591,-0.0879701,0.0792815,5001,0,1.22738,-1.59828,-9.82208,5001,0
247265331,0.0632574,0.124705,0.0530131,5006,0,0.935844,-0.385815,-11.4053,5006,0
247270338,-0.00196825,0.0534486,0.0981255,5007,0,-0.276436,1.83704,-8.93648,5007,0
247275353,0.475291,-0.141057,-0.0115784,5015,0,0.725524,-3.7677,-8.74915,5015,0
247280348,-0.245028,0.0823936,0.0956133,4995,0,0.00644698,3.8573,-11.7887,4995,0
247285354,0.224482,-0.108175,0.140772,5006,0,0.192403,0.374587,-9.00372,5006,0
247290361,0.292283,0.0253734,0.081154,5007,0,1.87485,-2.71553,-12.0126,5007,0
247295365,-0.138196,0.0616572,0.0891044,5004,0,-0.63574,3.63169,-8.66981,5004,0
247300371,0.390511,-0.268483,0.0980288,5006,0,0.297094,-3.26454,-9.36364,5006,0
247305379,-0.254162,0.170237,0.116327,5008,0,0.747209,0.22735,-13.0728,5008,0
247310383,0.289596,-0.196898,0.0959775,5004,0,-0.74525,1.5787,-7.02129,5004,0
247315389,0.0972727,-0.044487,0.0907205,5006,0,1.74874,-3.2413,-14.5634,5006,0
247320395,-0.24502,0.191389,0.0946252,5006,0,-0.477281,3.28131,-8.2058,5006,0
247325400,0.516373,-0.343577,0.164673,5005,0,-0.161173,-1.43427,-8.46816,5005,0
247330414,-0.180785,0.075583,0.114224,5014,0,2.01906,-0.765099,-14.3143,5014,0
247335412,0.0741186,-0.14606,0.10387,4998,0,-0.936929,2.32186,-6.93246,4998,0
247340417,0.144613,-0.14714,0.176239,5005,0,1.00928,-1.84394,-14.0242,5005,0
247345424,0.155286,0.0234056,0.0887888,5007,0,0.762476,1.20595,-9.48483,5007,0
247350429,-0.0710961,-0.333215,0.227987,5005,0,-0.894379,0.494315,-9.21873,5005,0
247355435,0.120216,0.067903,0.130441,5006,0,0.938264,-1.54842,-12.3594,5006,0
247360441,0.406796,0.00603313,0.10074,5006,0,-0.196299,0.941514,-5.99472,5006,0
247365447,-0.60093,-0.252157,0.32403,5006,0,0.505196,0.710235,-10.6524,5006,0
247370462,0.380454,-0.0949055,0.0555356,5015,0,0.649605,-2.02143,-11.5791,5015,0
247375458,-0.0102459,0.0395704,0.183012,4996,0,-0.173622,1.93957,-11.7772,4996,0
247380464,-0.309644,-0.121611,0.27046,5006,0,0.427072,-0.22066,-9.27695,5006,0
247385470,0.224801,-0.0437734,0.0684397,5006,0,0.387834,-1.4321,-10.0464,5006,0
247390477,-0.38227,0.0272161,0.22883,5007,0,-0.668375,3.0086,-9.53426,5007,0
247395481,0.301632,-0.264843,0.218052,5004,0,0.415836,-3.49982,-10.3851,5004,0
247400487,-0.525058,0.181128,0.202021,5006,0,0.939095,2.34772,-13.8877,5006,0
247405493,0.0645274,-0.15749,0.268502,5006,0,-0.267004,1.5978,-6.6752,5006,0
247410508,0.493262,-0.193451,0.163254,5015,0,0.782441,-4.10331,-11.7589,5015,0
247415515,-0.728488,0.0629119,0.211797,5007,0,-0.285867,5.29157,-8.17137,5007,0
247420511,0.319736,-0.374675,0.293025,4996,0,0.389094,-2.99818,-8.40099,4996,0
247425516,0.0886876,0.171248,0.217234,5005,0,0.782288,-1.70827,-15.6155,5005,0
247430522,-0.30419,-0.289615,0.273297,5006,0,-1.20696,4.25721,-5.78321,5006,0
247435528,-0.188771,-0.148284,0.261178,5006,0,1.26305,-3.93794,-15.9183,5006,0
247440534,0.236533,0.263208,0.169546,5006,0,0.0284088,2.95939,-8.18602,5006,0
247445540,-0.0498424,-0.494771,0.412061,5006,0,0.0645365,1.12343,-7.05531,5006,0
247450549,-0.45298,0.0318229,0.25762,5009,0,1.69252,-1.58943,-15.7653,5009,0
247455552,0.545166,-0.113846,0.165908,5003,0,-1.51291,1.55332,-6.12702,5003,0
247460557,-0.427688,-0.10562,0.355375,5005,0,0.174752,-0.524464,-13.941,5005,0
247465563,-0.156454,0.0955527,0.19236,5006,0,0.0903786,0.0533485,-8.67899,5006,0
247470569,0.0693676,-0.192057,0.301367,5006,0,-1.31583,1.30575,-8.96979,5006,0
247475574,-0.0762833,0.0378753,0.31895,5005,0,0.938346,-0.812318,-11.5334,5005,0
247480581,-0.0654173,0.0463891,0.26194,5007,0,-0.507539,0.579064,-8.34446,5007,0
247485590,-0.492566,0.0300327,0.329546,5009,0,-0.575987,1.1799,-11.6044,5009,0
247490592,0.446475,-0.0202274,0.210975,5002,0,0.262434,-2.33261,-10.5893,5002,0
247495598,-0.472606,0.0983107,0.374629,5006,0,-0.815908,2.2088,-12.1391,5006,0
247500604,-0.229024,-0.0304796,0.308435,5006,0,-0.177748,-1.17191,-8.3942,5006,0
247505609,0.229939,0.0135542,0.206212,5005,0,0.682558,-1.52618,-10.3131,5005,0
247510615,-0.388445,0.0195177,0.356342,5006,0,-0.552061,3.94119,-8.98484,5006,0
247515621,-0.0646012,-0.174462,0.302259,5006,0,0.539689,-3.58101,-9.60582,5006,0
247520630,-0.405817,0.236357,0.2625,5009,0,0.0508955,1.29491,-13.7245,5009,0
247525633,0.395562,-0.0974067,0.296202,5003,0,-0.958288,0.644892,-7.93978,5003,0
247530638,-0.539282,0.0251859,0.363895,5005,0,0.879264,-1.58976,-13.985,5005,0
247535644,-0.436669,0.302956,0.292895,5006,0,-0.834309,3.85673,-8.39759,5006,0
247540652,0.780788,-0.15634,0.272927,5008,0,0.4601,-3.34519,-7.27304,5008,0
247545658,-0.785701,0.150766,0.357265,5006,0,1.36032,1.93412,-12.2268,5006,0
247550662,-0.089851,-0.0157293,0.312099,5004,0,-1.21117,1.62448,-6.97338,5004,0
247555668,0.17516,0.141915,0.284808,5006,0,0.620404,-3.9284,-14.2264,5006,0
247560676,-0.280079,0.183549,0.31185,5008,0,0.00280249,4.14625,-8.95301,5008,0
247565679,-0.233914,-0.116958,0.363673,5003,0,-0.595891,-1.43314,-12.0964,5003,0
247570685,-0.226729,0.268617,0.272321,5006,0,0.813698,0.430317,-13.1538,5006,0
247575691,0.539433,-0.0332132,0.294975,5006,0,0.125203,1.98444,-6.6263,5006,0
247580710,-0.644142,0.088201,0.409301,5019,0,0.803213,-0.616316,-12.2348,5019,0
247585702,-0.0771251,0.160007,0.255351,4992,0,-0.216556,1.95569,-6.67404,4992,0
247590709,0.719865,-0.0865629,0.281519,5007,0,-0.323558,-1.6427,-10.4047,5007,0
247595714,-0.507255,-0.0275137,0.371478,5005,0,0.731699,1.90043,-11.8731,5005,0
247600720,-0.0168162,0.015956,0.282839,5006,0,0.182719,1.60141,-9.86689,5006,0
247605726,0.418992,0.263801,0.323714,5006,0,-0.203052,-1.74246,-12.4427,5006,0
247610731,0.196062,0.0846713,0.275117,5005,0,-0.65821,1.26263,-6.97089,5005,0
247615740,-0.571592,0.00819258,0.351854,5009,0,-0.0544038,0.0733499,-10.2591,5009,0
247620743,0.259551,0.080249,0.306812,5003,0,0.119943,-1.74675,-10.6031,5003,0
247625749,0.597918,0.15176,0.196728,5006,0,0.876608,0.431881,-10.3033,5006,0
247630755,-1.04633,0.0931439,0.393338,5006,0,1.05332,3.46521,-10.9283,5006,0
247635761,0.515134,-0.0185453,0.188134,5006,0,-0.0802357,-1.88949,-8.51047,5006,0
247640768,0.630314,0.148457,0.214194,5007,0,-0.813981,-0.0434242,-10.4407,5007,0
247645772,-0.598875,-0.237491,0.443421,5004,0,-0.0924684,1.10437,-7.80446,5004,0
247650778,0.102596,0.0600464,0.179942,5006,0,1.70684,-3.20984,-13.4326,5006,0
247655784,0.310885,0.425611,0.241549,5006,0,-0.82202,3.21928,-11.5019,5006,0
247660790,0.253579,-0.236973,0.279399,5006,0,0.0208492,0.604483,-6.58407,5006,0
247665795,-0.622447,-0.0854852,0.246657,5005,0,2.12666,0.968235,-12.2329,5005,0
247670801,0.784797,0.0728011,0.223314,5006,0,-0.89727,-0.123201,-10.225,5006,0
247675807,0.472091,-0.0384461,0.23645,5006,0,0.498259,-4.75555,-10.0874,5006,0
247680813,-1.26875,0.0317298,0.268174,5006,0,0.771416,5.18017,-10.396,5006,0
247685819,0.949056,-0.178292,0.0851668,5006,0,-0.550353,-2.37586,-7.49038,5006,0
247690825,0.558616,-0.0821087,0.133366,5006,0,0.521398,0.274524,-12.0117,5006,0
247695830,-0.559869,-0.121089,0.301494,5005,0,0.569765,5.72533,-9.54445,5005,0
247700836,0.465483,-0.217583,0.222757,5006,0,0.915532,-5.81665,-10.7772,5006,0
247705842,0.711548,0.277672,0.0634116,5006,0,-1.12064,1.0157,-13.3413,5006,0
247710848,-0.0628522,-0.471066,0.268455,5006,0,-0.688526,1.29702,-3.53843,5006,0
247715854,-0.482323,-0.16995,0.221909,5006,0,1.29812,-0.631787,-17.8746,5006,0
247720860,1.437,0.620927,0.0470176,5006,0,-1.17975,2.35162,-9.25662,5006,0
247725865,-0.0131766,-0.671253,0.336385,5005,0,0.49436,-1.55869,-4.56671,5005,0
247730871,-0.403734,0.0041231,0.125766,5006,0,1.95751,0.810608,-18.3951,5006,0
