timestamp,q[0],q[1],q[2],q[3],delta_q_reset[0],delta_q_reset[1],delta_q_reset[2],delta_q_reset[3],quat_reset_counter
244026574,-0.999537,-0.0103571,-0.0117724,-0.0260917,0.999986,-3.84717e-10,-1.27105e-10,0.00539952,4
244031577,-0.999544,-0.00945602,-0.0123149,-0.0259073,0.999986,-3.84717e-10,-1.27105e-10,0.00539952,4
244081635,-0.9995,-0.00947267,-0.0139471,-0.0267524,0.999986,-3.84717e-10,-1.27105e-10,0.00539952,4
244131693,-0.999533,-0.00913678,-0.0136032,-0.0258014,0.999986,-3.84717e-10,-1.27105e-10,0.00539952,4
244176748,-0.999513,-0.0104086,-0.0129791,-0.0264135,0.999986,-3.84717e-10,-1.27105e-10,0.00539952,4
244226803,-0.999513,-0.00899052,-0.0139229,-0.0264561,0.999986,-3.84717e-10,-1.27105e-10,0.00539952,4
244281867,-0.999512,-0.00942489,-0.013818,-0.0263751,0.999986,-3.84717e-10,-1.27105e-10,0.00539952,4
244326919,-0.999548,-0.00906819,-0.012135,-0.0259646,0.999986,-3.84717e-10,-1.27105e-10,0.00539952,4
244376977,-0.999528,-0.0097331,-0.0127135,-0.0262035,0.999986,-3.84717e-10,-1.27105e-10,0.00539952,4
244432041,-0.999532,-0.00968437,-0.0124493,-0.0261991,0.999986,-3.84717e-10,-1.27105e-10,0.00539952,4
244477096,-0.999517,-0.00980106,-0.0130617,-0.0264414,0.999986,-3.84717e-10,-1.27105e-10,0.00539952,4
244527162,-0.999514,-0.0103545,-0.0129381,-0.0264047,0.999986,-3.84717e-10,-1.27105e-10,0.00539952,4
244577210,-0.999509,-0.0112582,-0.0127154,-0.0263388,0.999986,-3.84717e-10,-1.27105e-10,0.00539952,4
244632280,-0.999517,-0.0115649,-0.0122401,-0.0261362,0.999986,-3.84717e-10,-1.27105e-10,0.00539952,4
244677326,-0.999521,-0.0111757,-0.0120239,-0.0262375,0.999986,-3.84717e-10,-1.27105e-10,0.00539952,4
244727384,-0.999528,-0.010076,-0.0122827,-0.0263151,0.999986,-3.84717e-10,-1.27105e-10,0.00539952,4
244782448,-0.999542,-0.0091029,-0.0118058,-0.0263501,0.999986,-3.84717e-10,-1.27105e-10,0.00539952,4
244827500,-0.999524,-0.00944216,-0.0125526,-0.0265654,0.999986,-3.84717e-10,-1.27105e-10,0.00539952,4
244877559,-0.999518,-0.00988705,-0.0128036,-0.0264997,0.999986,-3.84717e-10,-1.27105e-10,0.00539952,4
244927616,-0.999512,-0.010338,-0.0131402,-0.0263781,0.999986,-3.84717e-10,-1.27105e-10,0.00539952,4
244977674,-0.999513,-0.0107276,-0.0128907,-0.0263044,0.999986,-3.84717e-10,-1.27105e-10,0.00539952,4
245032741,-0.999499,-0.0115069,-0.0129861,-0.0264568,0.999986,-3.84717e-10,-1.27105e-10,0.00539952,4
245077790,-0.999516,-0.010582,-0.012816,-0.0263069,0.999986,-3.84717e-10,-1.27105e-10,0.00539952,4
245127848,-0.999518,-0.0104683,-0.012707,-0.0263128,0.999986,-3.84717e-10,-1.27105e-10,0.00539952,4
245177907,-0.999519,-0.0107247,-0.0125914,-0.0262259,0.999986,-3.84717e-10,-1.27105e-10,0.00539952,4
245227965,-0.999514,-0.0111125,-0.0127534,-0.0261746,0.999986,-3.84717e-10,-1.27105e-10,0.00539952,4
245278023,-0.999516,-0.0110882,-0.0123914,-0.0262755,0.999986,-3.84717e-10,-1.27105e-10,0.00539952,4
245328081,-0.999516,-0.0110035,-0.0124613,-0.0262896,0.999986,-3.84717e-10,-1.27105e-10,0.00539952,4
245378141,-0.999514,-0.0113526,-0.0124894,-0.0262182,0.999986,-3.84717e-10,-1.27105e-10,0.00539952,4
245428197,-0.999513,-0.0116734,-0.0123912,-0.0261708,0.999986,-3.84717e-10,-1.27105e-10,0.00539952,4
245478257,-0.999512,-0.0115059,-0.0125165,-0.0262114,0.999986,-3.84717e-10,-1.27105e-10,0.00539952,4
245528313,-0.999512,-0.0110788,-0.0124695,-0.0264172,0.999986,-3.84717e-10,-1.27105e-10,0.00539952,4
245578372,-0.999517,-0.0107503,-0.0122676,-0.0264497,0.999986,-3.84717e-10,-1.27105e-10,0.00539952,4
245628431,-0.999519,-0.0107044,-0.012145,-0.026444,0.999986,-3.84717e-10,-1.27105e-10,0.00539952,4
245678487,-0.999525,-0.0102816,-0.0116876,-0.026591,0.999986,-3.84717e-10,-1.27105e-10,0.00539952,4
245728549,-0.999546,-0.00965727,-0.0117709,-0.0260055,0.999986,-3.84717e-10,-1.27105e-10,0.00539952,4
245778604,-0.999547,-0.0104918,-0.010697,-0.026094,0.999986,-3.84717e-10,-1.27105e-10,0.00539952,4
245828662,-0.999485,-0.0129224,-0.0120972,-0.0267548,0.999986,-3.84717e-10,-1.27105e-10,0.00539952,4
245878720,-0.999503,-0.0121525,-0.0128351,-0.026109,0.999986,-3.84717e-10,-1.27105e-10,0.00539952,4
245928778,-0.999549,-0.012034,-0.00697128,-0.0266162,0.999986,-3.84717e-10,-1.27105e-10,0.00539952,4
245978842,-0.999602,-0.0126084,-0.00166262,-0.0251669,0.999986,-3.84717e-10,-1.27105e-10,0.00539952,4
246028894,-0.999598,-0.0129124,0.00500422,-0.0247211,0.999986,-3.84717e-10,-1.27105e-10,0.00539952,4
246078952,-0.999584,-0.0120687,0.00991198,-0.0242357,0.999986,-3.84717e-10,-1.27105e-10,0.00539952,4
246129011,-0.99956,-0.0126374,0.0121134,-0.0239259,0.999986,-3.84717e-10,-1.27105e-10,0.00539952,4
246179069,-0.999533,-0.0136296,0.0136142,-0.0237075,0.999986,-3.84717e-10,-1.27105e-10,0.00539952,4
246229131,-0.999518,-0.0150223,0.0144421,-0.0230303,0.999986,-3.84717e-10,-1.27105e-10,0.00539952,4
246279185,-0.9995,-0.0155132,0.0163268,-0.0222011,0.999986,-3.84717e-10,-1.27105e-10,0.00539952,4
246329245,-0.999494,-0.0158069,0.0181596,-0.0207933,0.999986,-3.84717e-10,-1.27105e-10,0.00539952,4
246379301,-0.999497,-0.0165939,0.0197638,-0.0184085,0.999986,-3.84717e-10,-1.27105e-10,0.00539952,4
246429360,-0.999572,-0.0163068,0.0182582,-0.0160235,0.999986,-3.84717e-10,-1.27105e-10,0.00539952,4
246479420,-0.999683,-0.0138872,0.0147479,-0.014971,0.999986,-3.84717e-10,-1.27105e-10,0.00539952,4
246529477,-0.999824,-0.00834239,0.011283,-0.0124288,0.999986,-3.84717e-10,-1.27105e-10,0.00539952,4
246579534,-0.999928,-0.000890502,0.00766688,-0.00919814,0.999986,-3.84717e-10,-1.27105e-10,0.00539952,4
246629595,-0.99995,0.00323539,0.00623016,-0.00706109,0.999986,-3.84717e-10,-1.27105e-10,0.00539952,4
246679651,-0.999972,0.00538407,0.00470988,-0.00214163,0.999986,-3.84717e-10,-1.27105e-10,0.00539952,4
246729708,-0.999976,0.00521633,0.000902187,0.00446699,0.999986,-3.84717e-10,-1.27105e-10,0.00539952,4
246779766,-0.999903,0.00218567,-0.00705849,0.0118154,0.999986,-3.84717e-10,-1.27105e-10,0.00539952,4
246829824,-0.999646,-0.00350928,-0.0171844,0.0200167,0.999986,-3.84717e-10,-1.27105e-10,0.00539952,4
246879886,-0.999259,-0.00728619,-0.0262171,0.0272156,0.999986,-3.84717e-10,-1.27105e-10,0.00539952,4
246929941,-0.999071,-0.00918251,-0.0273064,0.0320643,0.999986,-3.84717e-10,-1.27105e-10,0.00539952,4
246980001,-0.998997,-0.00669366,-0.0241104,0.0371414,0.999986,-3.84717e-10,-1.27105e-10,0.00539952,4
247025051,-0.998989,-0.00168285,-0.0187662,0.0408249,0.999986,-3.84717e-10,-1.27105e-10,0.00539952,4
247080115,-0.998842,0.00435754,-0.0168259,0.0448656,0.999986,-3.84717e-10,-1.27105e-10,0.00539952,4
247130175,-0.998646,0.00777214,-0.0179232,0.0482164,0.999986,-3.84717e-10,-1.27105e-10,0.00539952,4
247180231,-0.998605,0.00743457,-0.017928,0.0491117,0.999986,-3.84717e-10,-1.27105e-10,0.00539952,4
247230296,-0.998646,0.00402648,-0.0194937,0.0480679,0.999986,-3.84717e-10,-1.27105e-10,0.00539952,4
247280348,-0.998714,0.000469799,-0.0202689,0.0464606,0.999986,-3.84717e-10,-1.27105e-10,0.00539952,4
247330414,-0.998873,-0.00187761,-0.0191142,0.0434111,0.999986,-3.84717e-10,-1.27105e-10,0.00539952,4
247375458,-0.999065,-0.00321004,-0.0169975,0.0396217,0.999986,-3.84717e-10,-1.27105e-10,0.00539952,4
247430522,-0.999344,-0.00114187,-0.014604,0.0331344,0.999986,-3.84717e-10,-1.27105e-10,0.00539952,4
247480581,-0.999574,0.000395054,-0.0132396,0.0259886,0.999986,-3.84717e-10,-1.27105e-10,0.00539952,4
247525633,-0.999724,0.00290927,-0.013541,0.0189876,0.999986,-3.84717e-10,-1.27105e-10,0.00539952,4
247580710,-0.999802,0.00727675,-0.0158023,0.00966373,0.999986,-3.84717e-10,-1.27105e-10,0.00539952,4
247630755,-0.999814,0.00735297,-0.0177444,0.00168697,0.999986,-3.84717e-10,-1.27105e-10,0.00539952,4
247675807,-0.999825,0.00275208,-0.0180388,-0.00421056,0.999986,-3.84717e-10,-1.27105e-10,0.00539952,4
247725865,-0.999832,-0.00155183,-0.015663,-0.00939785,0.999986,-3.84717e-10,-1.27105e-10,0.00539952,4
247780929,-0.999776,-0.00627532,-0.0152561,-0.0132689,0.999986,-3.84717e-10,-1.27105e-10,0.00539952,4
247830988,-0.999722,-0.0090871,-0.0157955,-0.014944,0.999986,-3.84717e-10,-1.27105e-10,0.00539952,4
247876040,-0.999756,-0.00525227,-0.0143586,-0.0159473,0.999986,-3.84717e-10,-1.27105e-10,0.00539952,4
247931104,-0.999731,-0.0056258,-0.0162303,-0.0155854,0.999986,-3.84717e-10,-1.27105e-10,0.00539952,4
247981162,-0.999685,-0.0110784,-0.0175674,-0.0140933,0.999986,-3.84717e-10,-1.27105e-10,0.00539952,4
248026226,-0.999774,-0.00924257,-0.0156131,-0.0110576,0.999986,-3.84717e-10,-1.27105e-10,0.00539952,4
248076294,-0.999869,-0.00602914,-0.013713,-0.00612205,0.999986,-3.84717e-10,-1.27105e-10,0.00539952,4
248131337,-0.999831,-0.00268604,-0.0181687,0.000653286,0.999986,-3.84717e-10,-1.27105e-10,0.00539952,4
248176391,-0.999696,-0.0024255,-0.0236213,0.0066899,0.999986,-3.84717e-10,-1.27105e-10,0.00539952,4
248226447,-0.999551,-0.00266374,-0.0270558,0.012635,0.999986,-3.84717e-10,-1.27105e-10,0.00539952,4
248281519,-0.999435,-0.00689738,-0.0272446,0.0184356,0.999986,-3.84717e-10,-1.27105e-10,0.00539952,4
248331569,-0.99941,-0.0112428,-0.0236196,0.0222487,0.999986,-3.84717e-10,-1.27105e-10,0.00539952,4
248376622,-0.999325,-0.015157,-0.0214886,0.025663,0.999986,-3.84717e-10,-1.27105e-10,0.00539952,4
248426680,-0.999215,-0.0221375,-0.0155967,0.0289111,0.999986,-3.84717e-10,-1.27105e-10,0.00539952,4
248481744,-0.999085,-0.0275382,-0.00877013,0.0315236,0.999986,-3.84717e-10,-1.27105e-10,0.00539952,4
248526796,-0.999214,-0.0221287,-0.00508931,0.032495,0.999986,-3.84717e-10,-1.27105e-10,0.00539952,4
248576854,-0.999324,-0.0136818,-0.00220571,0.0340516,0.999986,-3.84717e-10,-1.27105e-10,0.00539952,4
248631919,-0.999274,-0.0118272,0.00217261,0.0361552,0.999986,-3.84717e-10,-1.27105e-10,0.00539952,4
248676980,-0.999173,-0.0135232,0.00627135,0.0378326,0.999986,-3.84717e-10,-1.27105e-10,0.00539952,4
248727029,-0.998972,-0.0212125,0.00830357,0.0391991,0.999986,-3.84717e-10,-1.27105e-10,0.00539952,4
248777090,-0.9988,-0.0241878,0.013284,0.0404565,0.999986,-3.84717e-10,-1.27105e-10,0.00539952,4
248832151,-0.998531,-0.0275547,0.021586,0.0413613,0.999986,-3.84717e-10,-1.27105e-10,0.00539952,4
248877210,-0.998436,-0.0272575,0.025956,0.0413301,0.999986,-3.84717e-10,-1.27105e-10,0.00539952,4
248927262,-0.998536,-0.0222666,0.0269679,0.0412563,0.999986,-3.84717e-10,-1.27105e-10,0.00539952,4
248982326,-0.998692,-0.0195663,0.0227289,0.0414129,0.999986,-3.84717e-10,-1.27105e-10,0.00539952,4
249027379,-0.998828,-0.0199322,0.0161964,0.0410242,0.999986,-3.84717e-10,-1.27105e-10,0.00539952,4
249077437,-0.998655,-0.0314622,0.00956093,0.0400964,0.999986,-3.84717e-10,-1.27105e-10,0.00539952,4
249127495,-0.998456,-0.0388805,0.00781931,0.0388991,0.999986,-3.84717e-10,-1.27105e-10,0.00539952,4
249177553,-0.99871,-0.0323317,0.00656321,0.0385965,0.999986,-3.84717e-10,-1.27105e-10,0.00539952,4
249227611,-0.999071,-0.0180611,0.00401143,0.038926,0.999986,-3.84717e-10,-1.27105e-10,0.00539952,4
249277670,-0.999219,-0.00624716,0.00210805,0.0389634,0.999986,-3.84717e-10,-1.27105e-10,0.00539952,4
249332734,-0.999227,-0.00692339,0.00236088,0.0386287,0.999986,-3.84717e-10,-1.27105e-10,0.00539952,4
249377786,-0.999131,-0.0157645,0.0014108,0.0385681,0.999986,-3.84717e-10,-1.27105e-10,0.00539952,4
249427844,-0.998772,-0.0317883,-3.44162e-05,0.0380041,0.999986,-3.84717e-10,-1.27105e-10,0.00539952,4
249477902,-0.998376,-0.0436899,0.0012899,0.036526,0.999986,-3.84717e-10,-1.27105e-10,0.00539952,4
249527962,-0.998421,-0.0437079,0.00467985,0.0349818,0.999986,-3.84717e-10,-1.27105e-10,0.00539952,4
249578019,-0.998922,-0.0309972,0.00782803,0.033657,0.999986,-3.84717e-10,-1.27105e-10,0.00539952,4
249628077,-0.999327,-0.0154085,0.00692451,0.0325453,0.999986,-3.84717e-10,-1.27105e-10,0.00539952,4
249678135,-0.999513,-0.00671063,0.00128124,0.0304556,0.999986,-3.84717e-10,-1.27105e-10,0.00539952,4
249728194,-0.999567,-0.00615324,-0.00600555,0.0281316,0.999986,-3.84717e-10,-1.27105e-10,0.00539952,4
249778252,-0.999549,-0.0111434,-0.00928338,0.0262806,0.999986,-3.84717e-10,-1.27105e-10,0.00539952,4
249828313,-0.9996,-0.0115889,-0.00670106,0.0249322,0.999986,-3.84717e-10,-1.27105e-10,0.00539952,4
249878369,-0.999663,-0.0107151,-0.00126594,0.0236107,0.999986,-3.84717e-10,-1.27105e-10,0.00539952,4
249928427,-0.999702,-0.00817912,0.00352791,0.0227257,0.999986,-3.84717e-10,-1.27105e-10,0.00539952,4
249978485,-0.999726,-0.00199259,0.00482444,0.0228289,0.999986,-3.84717e-10,-1.27105e-10,0.00539952,4
250028543,-0.999739,-0.000268115,0.00509886,0.0222716,0.999986,-3.84717e-10,-1.27105e-10,0.00539952,4
250078601,-0.999747,-0.00252389,0.00581918,0.0216018,0.999986,-3.84717e-10,-1.27105e-10,0.00539952,4
250128660,-0.999737,-0.00350214,0.00695133,0.0215693,0.999986,-3.84717e-10,-1.27105e-10,0.00539952,4
250178718,-0.999751,-0.000329466,0.00814266,0.0207703,0.999986,-3.84717e-10,-1.27105e-10,0.00539952,4
250228776,-0.999758,0.00730514,0.00524099,0.0200765,0.999986,-3.84717e-10,-1.27105e-10,0.00539952,4
250278834,-0.999702,0.0138708,0.00326362,0.0198082,0.999986,-3.84717e-10,-1.27105e-10,0.00539952,4
250328893,-0.999699,0.0147174,0.0050271,0.0189918,0.999986,-3.84717e-10,-1.27105e-10,0.00539952,4
250378951,-0.999758,0.0114221,0.00472868,0.0182197,0.999986,-3.84717e-10,-1.27105e-10,0.00539952,4
250429020,-0.999828,0.00726241,0.00288021,0.0168033,0.999986,-3.84717e-10,-1.27105e-10,0.00539952,4
250479068,-0.99986,0.00487588,-0.00152648,0.015934,0.999986,-3.84717e-10,-1.27105e-10,0.00539952,4
250529126,-0.999861,0.00472495,-0.00452074,0.0153373,0.999986,-3.84717e-10,-1.27105e-10,0.00539952,4
250579184,-0.999873,0.00592058,-0.00260105,0.0145363,0.999986,-3.84717e-10,-1.27105e-10,0.00539952,4
250629242,-0.999871,0.00630145,-0.000728979,0.0147589,0.999986,-3.84717e-10,-1.27105e-10,0.00539952,4
250679301,-0.999891,0.00361324,-0.00057384,0.0142958,0.999986,-3.84717e-10,-1.27105e-10,0.00539952,4
250729363,-0.999884,-0.00122961,-0.00343801,0.0148206,0.999986,-3.84717e-10,-1.27105e-10,0.00539952,4
250779417,-0.999861,-0.00654796,-0.00338859,0.0149275,0.999986,-3.84717e-10,-1.27105e-10,0.00539952,4
250829476,-0.999857,-0.00725006,-0.00216603,0.0151422,0.999986,-3.84717e-10,-1.27105e-10,0.00539952,4
250879534,-0.999878,-0.00407462,0.000586452,0.0150545,0.999986,-3.84717e-10,-1.27105e-10,0.00539952,4
250929595,-0.999844,-0.00849332,0.00102443,0.0154527,0.999986,-3.84717e-10,-1.27105e-10,0.00539952,4
250979650,-0.999643,-0.0214398,0.000726874,0.0159022,0.999986,-3.84717e-10,-1.27105e-10,0.00539952,4
251029709,-0.999361,-0.0319641,-0.000750372,0.0159732,0.999986,-3.84717e-10,-1.27105e-10,0.00539952,4
251079767,-0.999435,-0.0294515,-0.000343119,0.0161657,0.999986,-3.84717e-10,-1.27105e-10,0.00539952,4
251129825,-0.999672,-0.019495,-0.00137003,0.0165786,0.999986,-3.84717e-10,-1.27105e-10,0.00539952,4
251179884,-0.999776,-0.0124996,-0.000887922,0.0170613,0.999986,-3.84717e-10,-1.27105e-10,0.00539952,4
251224936,-0.99976,-0.0134216,8.76255e-06,0.0173035,0.999986,-3.84717e-10,-1.27105e-10,0.00539952,4
251280000,-0.999745,-0.0153255,0.00306138,0.0163002,0.999986,-3.84717e-10,-1.27105e-10,0.00539952,4
251330059,-0.999658,-0.0203504,0.0046122,0.0157891,0.999986,-3.84717e-10,-1.27105e-10,0.00539952,4
251380117,-0.999539,-0.0252815,0.00532809,0.0159587,0.999986,-3.84717e-10,-1.27105e-10,0.00539952,4
251430183,-0.9996,-0.0229054,0.00450733,0.0159352,0.999986,-3.84717e-10,-1.27105e-10,0.00539952,4
251480238,-0.999769,-0.0136855,0.00339866,0.0162016,0.999986,-3.84717e-10,-1.27105e-10,0.00539952,4
251530300,-0.999861,-0.00461725,0.00235078,0.0158667,0.999986,-3.84717e-10,-1.27105e-10,0.00539952,4
251575345,-0.999859,-0.00603001,0.00260013,0.0154665,0.999986,-3.84717e-10,-1.27105e-10,0.00539952,4
251630410,-0.99987,-0.00538921,0.00227449,0.0149943,0.999986,-3.84717e-10,-1.27105e-10,0.00539952,4
251680467,-0.99988,-0.00396223,0.00193366,0.01486,0.999986,-3.84717e-10,-1.27105e-10,0.00539952,4
251725521,-0.999888,-0.000455317,0.00270194,0.0147324,0.999986,-3.84717e-10,-1.27105e-10,0.00539952,4
251780584,-0.999885,0.00102308,0.0022546,0.0149893,0.999986,-3.84717e-10,-1.27105e-10,0.00539952,4
251830642,0.999987,0.000566769,-0.00383029,-0.00338455,-0.999934,-3.63254e-10,2.39838e-10,-0.011454,5
251880700,0.999972,0.00298316,-0.00567333,-0.00391287,-0.999934,-3.63254e-10,2.39838e-10,-0.011454,5
251925753,0.999964,0.00334426,-0.00699594,-0.00351621,-0.999934,-3.63254e-10,2.39838e-10,-0.011454,5
251980817,0.99998,0.00195191,-0.00461682,-0.0037685,-0.999934,-3.63254e-10,2.39838e-10,-0.011454,5
252030879,0.999984,0.000131266,-0.00409607,-0.00394661,-0.999934,-3.63254e-10,2.39838e-10,-0.011454,5
252075928,0.999984,-0.00154074,-0.00436915,-0.00338315,-0.999934,-3.63254e-10,2.39838e-10,-0.011454,5
252130992,0.999994,-0.00198867,-0.000645063,-0.00296341,-0.999934,-3.63254e-10,2.39838e-10,-0.011454,5
252181063,0.999986,-0.00436099,0.00175761,-0.00252602,-0.999934,-3.63254e-10,2.39838e-10,-0.011454,5
252226103,0.999977,-0.00660656,0.000598011,-0.00160285,-0.999934,-3.63254e-10,2.39838e-10,-0.011454,5
252276161,0.999992,-0.00304091,-0.00243355,-0.00084374,-0.999934,-3.63254e-10,2.39838e-10,-0.011454,5
252331226,0.999942,0.00651705,-0.00859693,0.000812198,-0.999934,-3.63254e-10,2.39838e-10,-0.011454,5
252381284,0.999836,0.0105329,-0.0145946,0.00188939,-0.999934,-3.63254e-10,2.39838e-10,-0.011454,5
252426337,0.999791,0.0109398,-0.0170722,0.00276976,-0.999934,-3.63254e-10,2.39838e-10,-0.011454,5
252481401,0.999782,0.0108656,-0.017489,0.00345925,-0.999934,-3.63254e-10,2.39838e-10,-0.011454,5
252531463,0.999778,0.0107692,-0.017544,0.00446714,-0.999934,-3.63254e-10,2.39838e-10,-0.011454,5
252576512,0.99979,0.00948515,-0.0174634,0.00491658,-0.999934,-3.63254e-10,2.39838e-10,-0.011454,5
252626570,0.999765,0.00861074,-0.0193139,0.00477494,-0.999934,-3.63254e-10,2.39838e-10,-0.011454,5
252681634,0.999621,0.00919219,-0.0256064,0.00410779,-0.999934,-3.63254e-10,2.39838e-10,-0.011454,5
252726687,0.999418,0.0113874,-0.0319005,0.00412884,-0.999934,-3.63254e-10,2.39838e-10,-0.011454,5
252776745,0.999323,0.0183334,-0.0316825,0.00357818,-0.999934,-3.63254e-10,2.39838e-10,-0.011454,5
252831809,0.999486,0.0227409,-0.0224246,0.00280188,-0.999934,-3.63254e-10,2.39838e-10,-0.011454,5
252876862,0.999714,0.019876,-0.0131917,0.00160745,-0.999934,-3.63254e-10,2.39838e-10,-0.011454,5
252926920,0.999948,0.00883024,-0.0051091,-6.87195e-05,-0.999934,-3.63254e-10,2.39838e-10,-0.011454,5
252976978,0.999995,4.23363e-05,-0.00043487,-0.00307726,-0.999934,-3.63254e-10,2.39838e-10,-0.011454,5
253032043,0.999963,-0.0044575,-0.000742258,-0.00734648,-0.999934,-3.63254e-10,2.39838e-10,-0.011454,5
253077095,0.999934,0.000229091,-0.00259482,-0.0111507,-0.999934,-3.63254e-10,2.39838e-10,-0.011454,5
253127154,0.999862,0.00532702,-0.00278686,-0.0155204,-0.999934,-3.63254e-10,2.39838e-10,-0.011454,5
253182220,0.999768,0.00541652,0.00261083,-0.0206813,-0.999934,-3.63254e-10,2.39838e-10,-0.011454,5
253227277,0.99968,0.000939051,0.00521763,-0.0247278,-0.999934,-3.63254e-10,2.39838e-10,-0.011454,5
253277329,0.999536,-0.00497946,0.00591867,-0.0294588,-0.999934,-3.63254e-10,2.39838e-10,-0.011454,5
253327388,0.999395,-0.00558343,0.00374477,-0.0341244,-0.999934,-3.63254e-10,2.39838e-10,-0.011454,5
253377446,0.999238,-0.00070883,0.000870802,-0.0390135,-0.999934,-3.63254e-10,2.39838e-10,-0.011454,5
253427504,0.99903,0.00611587,-0.000228193,-0.0436107,-0.999934,-3.63254e-10,2.39838e-10,-0.011454,5
253477566,0.998808,0.0099563,0.00184035,-0.0477427,-0.999934,-3.63254e-10,2.39838e-10,-0.011454,5
253532627,0.998651,0.0088522,0.00111853,-0.0511454,-0.999934,-3.63254e-10,2.39838e-10,-0.011454,5
253577682,0.998583,0.00129364,-0.00495358,-0.0529646,-0.999934,-3.63254e-10,2.39838e-10,-0.011454,5
253627738,0.998393,-0.00141675,-0.0152231,-0.0545698,-0.999934,-3.63254e-10,2.39838e-10,-0.011454,5
253677796,0.998004,0.00116083,-0.0282527,-0.0564656,-0.999934,-3.63254e-10,2.39838e-10,-0.011454,5
253727855,0.997504,0.00470269,-0.0407586,-0.0574743,-0.999934,-3.63254e-10,2.39838e-10,-0.011454,5
253777913,0.99722,0.00691011,-0.045177,-0.0588582,-0.999934,-3.63254e-10,2.39838e-10,-0.011454,5
253827971,0.997095,0.00543793,-0.0465971,-0.0600135,-0.999934,-3.63254e-10,2.39838e-10,-0.011454,5
253878030,0.997024,0.00534074,-0.0460931,-0.0615647,-0.999934,-3.63254e-10,2.39838e-10,-0.011454,5
253928090,0.996973,0.00295615,-0.0448178,-0.063468,-0.999934,-3.63254e-10,2.39838e-10,-0.011454,5
253978147,0.997129,-0.00255037,-0.0380577,-0.0654072,-0.999934,-3.63254e-10,2.39838e-10,-0.011454,5
254028205,0.997341,-0.000164598,-0.0299715,-0.0664247,-0.999934,-3.63254e-10,2.39838e-10,-0.011454,5
254078279,0.997474,0.0085737,-0.0204723,-0.0674791,-0.999934,-3.63254e-10,2.39838e-10,-0.011454,5
254128324,0.997417,0.0158416,-0.0131743,-0.06881,-0.999934,-3.63254e-10,2.39838e-10,-0.011454,5
254178381,0.997399,0.0135499,-0.00864076,-0.0702665,-0.999934,-3.63254e-10,2.39838e-10,-0.011454,5
254228439,0.997405,0.0100957,-0.00663389,-0.0709783,-0.999934,-3.63254e-10,2.39838e-10,-0.011454,5
254278497,0.997331,0.0138075,-0.0105025,-0.070925,-0.999934,-3.63254e-10,2.39838e-10,-0.011454,5
254328552,0.997188,0.0209433,-0.012473,-0.0708659,-0.999934,-3.63254e-10,2.39838e-10,-0.011454,5
254378614,0.997185,0.0239732,-0.00851164,-0.0705364,-0.999934,-3.63254e-10,2.39838e-10,-0.011454,5
254428673,0.997356,0.022133,-0.00702551,-0.0688636,-0.999934,-3.63254e-10,2.39838e-10,-0.011454,5
254478731,0.997523,0.0211635,-0.00432688,-0.0669454,-0.999934,-3.63254e-10,2.39838e-10,-0.011454,5
254528790,0.997751,0.0188825,-0.00359214,-0.0642085,-0.999934,-3.63254e-10,2.39838e-10,-0.011454,5
254578848,0.997929,0.0152107,-0.00420536,-0.0623514,-0.999934,-3.63254e-10,2.39838e-10,-0.011454,5
254628906,0.998097,0.00906391,-0.00772449,-0.0604952,-0.999934,-3.63254e-10,2.39838e-10,-0.011454,5
254678965,0.998192,0.00185757,-0.0111032,-0.0590463,-0.999934,-3.63254e-10,2.39838e-10,-0.011454,5
254729024,0.998195,0.000789138,-0.0161193,-0.0578428,-0.999934,-3.63254e-10,2.39838e-10,-0.011454,5
254779082,0.998143,0.00668027,-0.021036,-0.0567702,-0.999934,-3.63254e-10,2.39838e-10,-0.011454,5
254829140,0.997992,0.016431,-0.025652,-0.0555293,-0.999934,-3.63254e-10,2.39838e-10,-0.011454,5
254879204,0.997791,0.023746,-0.0296386,-0.0545141,-0.999934,-3.63254e-10,2.39838e-10,-0.011454,5
254929260,0.997829,0.02579,-0.0281625,-0.0536523,-0.999934,-3.63254e-10,2.39838e-10,-0.011454,5
254979316,0.997872,0.0296462,-0.0248239,-0.0525094,-0.999934,-3.63254e-10,2.39838e-10,-0.011454,5
255029374,0.998009,0.0302727,-0.0170313,-0.0526411,-0.999934,-3.63254e-10,2.39838e-10,-0.011454,5
255079433,0.998191,0.0254966,-0.0122995,-0.053044,-0.999934,-3.63254e-10,2.39838e-10,-0.011454,5
255129491,0.998292,0.0201596,-0.00867648,-0.0541358,-0.999934,-3.63254e-10,2.39838e-10,-0.011454,5
255179550,0.998244,0.0201008,-0.00720517,-0.0552633,-0.999934,-3.63254e-10,2.39838e-10,-0.011454,5
255229608,0.998089,0.0235288,-0.00623046,-0.0568033,-0.999934,-3.63254e-10,2.39838e-10,-0.011454,5
255279673,0.997847,0.0282719,-0.00561614,-0.0589055,-0.999934,-3.63254e-10,2.39838e-10,-0.011454,5
255329725,0.997778,0.0266313,-0.00549581,-0.0608203,-0.999934,-3.63254e-10,2.39838e-10,-0.011454,5
255379783,0.997816,0.0199059,-0.00576724,-0.0627168,-0.999934,-3.63254e-10,2.39838e-10,-0.011454,5
255429841,0.997794,0.0162364,-0.00636167,-0.0640604,-0.999934,-3.63254e-10,2.39838e-10,-0.011454,5
255479900,0.997748,0.0163678,-0.00605276,-0.0647677,-0.999934,-3.63254e-10,2.39838e-10,-0.011454,5
255529959,0.99761,0.0214311,-0.0102613,-0.0648825,-0.999934,-3.63254e-10,2.39838e-10,-0.011454,5
255580017,0.997547,0.0228923,-0.0147416,-0.0644848,-0.999934,-3.63254e-10,2.39838e-10,-0.011454,5
255630077,0.997415,0.0241123,-0.0210034,-0.0643525,-0.999934,-3.63254e-10,2.39838e-10,-0.011454,5
255680134,0.997421,0.0198018,-0.0256618,-0.0640354,-0.999934,-3.63254e-10,2.39838e-10,-0.011454,5
255730192,0.997351,0.0135946,-0.0319485,-0.0639181,-0.999934,-3.63254e-10,2.39838e-10,-0.011454,5
255775255,0.997365,0.00894344,-0.0334014,-0.0637714,-0.999934,-3.63254e-10,2.39838e-10,-0.011454,5
255830311,0.99742,0.00763326,-0.0305441,-0.0645073,-0.999934,-3.63254e-10,2.39838e-10,-0.011454,5
255880368,0.997538,0.00793593,-0.0236998,-0.0655185,-0.999934,-3.63254e-10,2.39838e-10,-0.011454,5
255925420,0.99758,0.00659346,-0.0171226,-0.0670583,-0.999934,-3.63254e-10,2.39838e-10,-0.011454,5
255980484,0.997468,0.00947695,-0.0119023,-0.069476,-0.999934,-3.63254e-10,2.39838e-10,-0.011454,5
256030543,0.997284,0.0132643,-0.00861965,-0.0719319,-0.999934,-3.63254e-10,2.39838e-10,-0.011454,5
256080601,0.997027,0.0175474,-0.00712455,-0.0746873,-0.999934,-3.63254e-10,2.39838e-10,-0.011454,5
256125654,0.996838,0.0166997,-0.00644729,-0.0774174,-0.999934,-3.63254e-10,2.39838e-10,-0.011454,5
256180718,0.996552,0.0164615,-0.00727477,-0.0809928,-0.999934,-3.63254e-10,2.39838e-10,-0.011454,5
256230776,0.996315,0.0146675,-0.00697186,-0.0842216,-0.999934,-3.63254e-10,2.39838e-10,-0.011454,5
256275829,0.996077,0.0138217,-0.00402471,-0.0873121,-0.999934,-3.63254e-10,2.39838e-10,-0.011454,5
256330893,0.995878,0.0091806,0.000188214,-0.0902352,-0.999934,-3.63254e-10,2.39838e-10,-0.011454,5
256380951,0.99563,0.00350543,0.000161976,-0.0933163,-0.999934,-3.63254e-10,2.39838e-10,-0.011454,5
256426004,0.995251,0.00436684,-0.00166148,-0.0972336,-0.999934,-3.63254e-10,2.39838e-10,-0.011454,5
256476063,0.994844,0.00520487,-0.00570735,-0.101127,-0.999934,-3.63254e-10,2.39838e-10,-0.011454,5
256531127,0.994453,0.00393548,-0.0093417,-0.104696,-0.999934,-3.63254e-10,2.39838e-10,-0.011454,5
256581185,0.994131,0.00420585,-0.0111269,-0.10753,-0.999934,-3.63254e-10,2.39838e-10,-0.011454,5
256626240,0.993909,0.00517002,-0.0126648,-0.109351,-0.999934,-3.63254e-10,2.39838e-10,-0.011454,5
256681305,0.993653,0.00661574,-0.013188,-0.111516,-0.999934,-3.63254e-10,2.39838e-10,-0.011454,5
256731361,0.993422,0.00699704,-0.0123316,-0.11363,-0.999934,-3.63254e-10,2.39838e-10,-0.011454,5
256776420,0.993181,0.00465076,-0.0106917,-0.116,-0.999934,-3.63254e-10,2.39838e-10,-0.011454,5
256826472,0.99291,-2.10433e-05,-0.0108119,-0.118379,-0.999934,-3.63254e-10,2.39838e-10,-0.011454,5
256881536,0.992519,-0.0072804,-0.0130485,-0.12117,-0.999934,-3.63254e-10,2.39838e-10,-0.011454,5
256926588,0.992157,-0.0129096,-0.0138244,-0.123558,-0.999934,-3.63254e-10,2.39838e-10,-0.011454,5
256976647,0.991777,-0.0177317,-0.0111877,-0.126252,-0.999934,-3.63254e-10,2.39838e-10,-0.011454,5
257031711,0.991545,-0.0176384,-0.00708847,-0.128364,-0.999934,-3.63254e-10,2.39838e-10,-0.011454,5
257081769,0.991384,-0.0162466,-0.0037753,-0.129924,-0.999934,-3.63254e-10,2.39838e-10,-0.011454,5
257126822,0.991254,-0.015021,-0.000985065,-0.131111,-0.999934,-3.63254e-10,2.39838e-10,-0.011454,5
257176881,0.991152,-0.00997661,0.000164607,-0.132356,-0.999934,-3.63254e-10,2.39838e-10,-0.011454,5
257231945,0.991153,-0.0026068,-0.00287943,-0.132667,-0.999934,-3.63254e-10,2.39838e-10,-0.011454,5
257276997,0.991254,-0.00336343,-0.0052533,-0.131818,-0.999934,-3.63254e-10,2.39838e-10,-0.011454,5
257327056,0.991353,-0.000781367,-0.00561299,-0.1311,-0.999934,-3.63254e-10,2.39838e-10,-0.011454,5
257382120,0.991389,0.0101403,-0.00261598,-0.130531,-0.999934,-3.63254e-10,2.39838e-10,-0.011454,5
257427173,0.991303,0.0201138,-0.000821174,-0.130048,-0.999934,-3.63254e-10,2.39838e-10,-0.011454,5
257477237,0.991209,0.0283219,-0.00027137,-0.129236,-0.999934,-3.63254e-10,2.39838e-10,-0.011454,5
257527306,0.991402,0.026116,-0.00213692,-0.128201,-0.999934,-3.63254e-10,2.39838e-10,-0.011454,5
257577348,0.991631,0.018861,-0.00575488,-0.127594,-0.999934,-3.63254e-10,2.39838e-10,-0.011454,5
257627406,0.991772,0.014732,-0.00745386,-0.126948,-0.999934,-3.63254e-10,2.39838e-10,-0.011454,5
257677465,0.991899,0.0140321,-0.00775438,-0.126017,-0.999934,-3.63254e-10,2.39838e-10,-0.011454,5
257732529,0.991896,0.0190424,-0.00754627,-0.125391,-0.999934,-3.63254e-10,2.39838e-10,-0.011454,5
257777582,0.9918,0.0230273,-0.00769369,-0.125475,-0.999934,-3.63254e-10,2.39838e-10,-0.011454,5
257827640,0.991673,0.028111,-0.010105,-0.125271,-0.999934,-3.63254e-10,2.39838e-10,-0.011454,5
257877698,0.991478,0.0322933,-0.0122895,-0.12561,-0.999934,-3.63254e-10,2.39838e-10,-0.011454,5
257927757,0.991427,0.0330947,-0.0138414,-0.125644,-0.999934,-3.63254e-10,2.39838e-10,-0.011454,5
257977815,0.991429,0.0283726,-0.0146097,-0.126687,-0.999934,-3.63254e-10,2.39838e-10,-0.011454,5
258027874,0.991362,0.024979,-0.0171397,-0.127606,-0.999934,-3.63254e-10,2.39838e-10,-0.011454,5
258077932,0.991226,0.0231033,-0.0199506,-0.128606,-0.999934,-3.63254e-10,2.39838e-10,-0.011454,5
258127991,0.990932,0.0253893,-0.0222272,-0.130057,-0.999934,-3.63254e-10,2.39838e-10,-0.011454,5
258178052,0.990678,0.0302592,-0.0237917,-0.130669,-0.999934,-3.63254e-10,2.39838e-10,-0.011454,5
258228108,0.990263,0.0375609,-0.0268035,-0.131339,-0.999934,-3.63254e-10,2.39838e-10,-0.011454,5
258278166,0.989941,0.0427469,-0.0292643,-0.131654,-0.999934,-3.63254e-10,2.39838e-10,-0.011454,5
258328226,0.990004,0.0387967,-0.0301012,-0.132214,-0.999934,-3.63254e-10,2.39838e-10,-0.011454,5
258378283,0.990198,0.0292064,-0.0321485,-0.132745,-0.999934,-3.63254e-10,2.39838e-10,-0.011454,5
258428342,0.990216,0.0202741,-0.0354801,-0.133428,-0.999934,-3.63254e-10,2.39838e-10,-0.011454,5
258478400,0.99005,0.01863,-0.0385533,-0.134042,-0.999934,-3.63254e-10,2.39838e-10,-0.011454,5
258528458,0.989932,0.0221285,-0.0366279,-0.134918,-0.999934,-3.63254e-10,2.39838e-10,-0.011454,5
258578519,0.989762,0.0263459,-0.0346073,-0.135942,-0.999934,-3.63254e-10,2.39838e-10,-0.011454,5
258628575,0.989837,0.0235,-0.028965,-0.137229,-0.999934,-3.63254e-10,2.39838e-10,-0.011454,5
258678640,0.990012,0.016225,-0.0210056,-0.138462,-0.999934,-3.63254e-10,2.39838e-10,-0.011454,5
258728692,0.990058,0.00605842,-0.0129889,-0.13993,-0.999934,-3.63254e-10,2.39838e-10,-0.011454,5
258778750,0.989812,-0.00287699,-0.00641832,-0.142207,-0.999934,-3.63254e-10,2.39838e-10,-0.011454,5
258828809,0.989507,-0.00640946,-0.00410405,-0.144281,-0.999934,-3.63254e-10,2.39838e-10,-0.011454,5
258878867,0.989238,-0.00553023,-0.00281147,-0.146183,-0.999934,-3.63254e-10,2.39838e-10,-0.011454,5
258928925,0.988924,-0.00590416,-0.000679516,-0.148304,-0.999934,-3.63254e-10,2.39838e-10,-0.011454,5
258978984,0.988656,-0.00778585,0.000631451,-0.149997,-0.999934,-3.63254e-10,2.39838e-10,-0.011454,5
259029042,0.988479,-0.0109359,0.00115986,-0.150956,-0.999934,-3.63254e-10,2.39838e-10,-0.011454,5
259079101,0.98839,-0.00963777,0.000551265,-0.151629,-0.999934,-3.63254e-10,2.39838e-10,-0.011454,5
259129159,0.988412,-0.00131822,-0.000768427,-0.15179,-0.999934,-3.63254e-10,2.39838e-10,-0.011454,5
259179223,0.988489,0.00804873,-0.00405841,-0.151026,-0.999934,-3.63254e-10,2.39838e-10,-0.011454,5
259229281,0.988479,0.00885219,-0.00622233,-0.150971,-0.999934,-3.63254e-10,2.39838e-10,-0.011454,5
259279335,0.988522,0.00347995,-0.00942203,-0.150741,-0.999934,-3.63254e-10,2.39838e-10,-0.011454,5
259329393,0.988361,-0.00280544,-0.0102558,-0.151754,-0.999934,-3.63254e-10,2.39838e-10,-0.011454,5
259379451,0.988321,-0.00339806,-0.0111239,-0.151943,-0.999934,-3.63254e-10,2.39838e-10,-0.011454,5
259429510,0.988225,0.00344252,-0.00934912,-0.152685,-0.999934,-3.63254e-10,2.39838e-10,-0.011454,5
259479568,0.988127,0.0132334,-0.00896637,-0.152805,-0.999934,-3.63254e-10,2.39838e-10,-0.011454,5
259529628,0.987838,0.0170312,-0.00736662,-0.154377,-0.999934,-3.63254e-10,2.39838e-10,-0.011454,5
259579685,0.987644,0.0161029,-0.00734674,-0.15571,-0.999934,-3.63254e-10,2.39838e-10,-0.011454,5
259629744,0.987448,0.0141363,-0.00662957,-0.15717,-0.999934,-3.63254e-10,2.39838e-10,-0.011454,5
259679802,0.987354,0.0106914,-0.00664054,-0.158033,-0.999934,-3.63254e-10,2.39838e-10,-0.011454,5
259729860,0.987285,0.00729572,-0.00757849,-0.158612,-0.999934,-3.63254e-10,2.39838e-10,-0.011454,5
259779918,0.987151,0.00828895,-0.0098057,-0.159271,-0.999934,-3.63254e-10,2.39838e-10,-0.011454,5
259829977,0.987089,0.0125251,-0.0116883,-0.159257,-0.999934,-3.63254e-10,2.39838e-10,-0.011454,5
259880035,0.986913,0.0195674,-0.01291,-0.15954,-0.999934,-3.63254e-10,2.39838e-10,-0.011454,5
259930094,0.986683,0.0292679,-0.0121863,-0.159535,-0.999934,-3.63254e-10,2.39838e-10,-0.011454,5
259975146,0.986504,0.0360333,-0.0100698,-0.159406,-0.999934,-3.63254e-10,2.39838e-10,-0.011454,5
260030211,0.986407,0.0385091,-0.00802859,-0.159543,-0.999934,-3.63254e-10,2.39838e-10,-0.011454,5
260080277,0.986636,0.0281647,-0.00790766,-0.160296,-0.999934,-3.63254e-10,2.39838e-10,-0.011454,5
260125324,0.98681,0.0141947,-0.00933219,-0.16099,-0.999934,-3.63254e-10,2.39838e-10,-0.011454,5
260180386,0.986746,0.000352057,-0.0106281,-0.161923,-0.999934,-3.63254e-10,2.39838e-10,-0.011454,5
260230444,0.986629,-0.00606081,-0.0111582,-0.162484,-0.999934,-3.63254e-10,2.39838e-10,-0.011454,5
260280503,0.986546,-0.00655179,-0.00927947,-0.163088,-0.999934,-3.63254e-10,2.39838e-10,-0.011454,5
260325555,0.986448,-0.00403416,-0.00868403,-0.163794,-0.999934,-3.63254e-10,2.39838e-10,-0.011454,5
260380619,0.986404,-0.00360143,-0.0138121,-0.163718,-0.999934,-3.63254e-10,2.39838e-10,-0.011454,5
260430678,0.986178,-0.00452353,-0.0220437,-0.164157,-0.999934,-3.63254e-10,2.39838e-10,-0.011454,5
260475732,0.985857,-0.00713367,-0.028443,-0.165005,-0.999934,-3.63254e-10,2.39838e-10,-0.011454,5
260530795,0.985734,-0.0110976,-0.0291076,-0.1654,-0.999934,-3.63254e-10,2.39838e-10,-0.011454,5
260580853,0.985845,-0.00904842,-0.0226215,-0.165879,-0.999934,-3.63254e-10,2.39838e-10,-0.011454,5
260630911,0.985925,-0.00559752,-0.0151215,-0.166409,-0.999934,-3.63254e-10,2.39838e-10,-0.011454,5
260675964,0.985821,-0.004257,-0.00919239,-0.167495,-0.999934,-3.63254e-10,2.39838e-10,-0.011454,5
260731030,0.985653,-0.00719481,-0.00737078,-0.168472,-0.999934,-3.63254e-10,2.39838e-10,-0.011454,5
260781087,0.985453,-0.0136071,-0.00929449,-0.169148,-0.999934,-3.63254e-10,2.39838e-10,-0.011454,5
260826139,0.985194,-0.0190219,-0.00988643,-0.170098,-0.999934,-3.63254e-10,2.39838e-10,-0.011454,5
260881203,0.984991,-0.0236796,-0.00898176,-0.170736,-0.999934,-3.63254e-10,2.39838e-10,-0.011454,5
260931262,0.985153,-0.0178293,-0.00888509,-0.170518,-0.999934,-3.63254e-10,2.39838e-10,-0.011454,5
260976318,0.985235,-0.00568688,-0.00953728,-0.170847,-0.999934,-3.63254e-10,2.39838e-10,-0.011454,5
261026373,0.985267,0.00910565,-0.0105005,-0.170459,-0.999934,-3.63254e-10,2.39838e-10,-0.011454,5
261081437,0.985166,0.0235245,-0.0116309,-0.169585,-0.999934,-3.63254e-10,2.39838e-10,-0.011454,5
261126489,0.98512,0.0266787,-0.0107857,-0.169442,-0.999934,-3.63254e-10,2.39838e-10,-0.011454,5
261176548,0.985362,0.0228533,-0.0116488,-0.168532,-0.999934,-3.63254e-10,2.39838e-10,-0.011454,5
261231612,0.985599,0.0156023,-0.00988971,-0.16809,-0.999934,-3.63254e-10,2.39838e-10,-0.011454,5
261281670,0.985635,0.00834208,-0.00603841,-0.168576,-0.999934,-3.63254e-10,2.39838e-10,-0.011454,5
261326723,0.985545,0.00523896,-0.00312804,-0.169307,-0.999934,-3.63254e-10,2.39838e-10,-0.011454,5
261376781,0.985431,0.00278143,-0.00206852,-0.170038,-0.999934,-3.63254e-10,2.39838e-10,-0.011454,5
261431845,0.985337,0.0032933,-0.005928,-0.170485,-0.999934,-3.63254e-10,2.39838e-10,-0.011454,5
261476898,0.985137,0.00862403,-0.00779599,-0.171377,-0.999934,-3.63254e-10,2.39838e-10,-0.011454,5
261526956,0.985053,0.00912303,-0.00602039,-0.171902,-0.999934,-3.63254e-10,2.39838e-10,-0.011454,5
261582021,0.984999,0.0094963,-0.00522419,-0.172221,-0.999934,-3.63254e-10,2.39838e-10,-0.011454,5
261627077,0.984873,0.0126133,-0.00318737,-0.172788,-0.999934,-3.63254e-10,2.39838e-10,-0.011454,5
261677131,0.984829,0.0115106,-0.000230687,-0.173146,-0.999934,-3.63254e-10,2.39838e-10,-0.011454,5
261727190,0.984808,0.0131103,-0.0040147,-0.173105,-0.999934,-3.63254e-10,2.39838e-10,-0.011454,5
261782254,0.984986,0.0155447,-0.00590009,-0.17183,-0.999934,-3.63254e-10,2.39838e-10,-0.011454,5
261827307,0.985146,0.0200763,-0.0091771,-0.170296,-0.999934,-3.63254e-10,2.39838e-10,-0.011454,5
261877365,0.985608,0.0203755,-0.0104482,-0.167488,-0.999934,-3.63254e-10,2.39838e-10,-0.011454,5
261932429,0.986378,0.0136074,-0.0104618,-0.163597,-0.999934,-3.63254e-10,2.39838e-10,-0.011454,5
261977482,0.986792,0.01345,-0.0100508,-0.16112,-0.999934,-3.63254e-10,2.39838e-10,-0.011454,5
262027540,0.986987,0.0175754,-0.00884306,-0.159594,-0.999934,-3.63254e-10,2.39838e-10,-0.011454,5
262077598,0.987135,0.0209684,-0.00829243,-0.158289,-0.999934,-3.63254e-10,2.39838e-10,-0.011454,5
262127660,0.987405,0.0212965,-0.00742558,-0.156594,-0.999934,-3.63254e-10,2.39838e-10,-0.011454,5
262177719,0.987703,0.0151969,-0.00510057,-0.155516,-0.999934,-3.63254e-10,2.39838e-10,-0.011454,5
262227773,0.988082,0.00685746,-0.00172549,-0.153764,-0.999934,-3.63254e-10,2.39838e-10,-0.011454,5
262277832,0.988301,-0.00173557,0.00201046,-0.152493,-0.999934,-3.63254e-10,2.39838e-10,-0.011454,5
262327890,0.988518,-0.00107747,-0.00268955,-0.151073,-0.999934,-3.63254e-10,2.39838e-10,-0.011454,5
262377949,0.988649,0.00553606,-0.00656168,-0.149996,-0.999934,-3.63254e-10,2.39838e-10,-0.011454,5
262428007,0.98874,0.0131528,-0.00739701,-0.148884,-0.999934,-3.63254e-10,2.39838e-10,-0.011454,5
262478065,0.988774,0.0178686,-0.00758942,-0.148154,-0.999934,-3.63254e-10,2.39838e-10,-0.011454,5
262528123,0.988814,0.0180699,-0.00733097,-0.147874,-0.999934,-3.63254e-10,2.39838e-10,-0.011454,5
262578182,0.989032,0.00575226,-0.00341089,-0.147554,-0.999934,-3.63254e-10,2.39838e-10,-0.011454,5
262628245,0.989068,-0.00841372,-0.000573088,-0.147218,-0.999934,-3.63254e-10,2.39838e-10,-0.011454,5
262678299,0.989068,-0.00862759,-0.000748488,-0.147209,-0.999934,-3.63254e-10,2.39838e-10,-0.011454,5
262728357,0.989044,-0.00129953,-0.00202126,-0.147603,-0.999934,-3.63254e-10,2.39838e-10,-0.011454,5
262778415,0.989009,0.00526423,-0.0086879,-0.147506,-0.999934,-3.63254e-10,2.39838e-10,-0.011454,5
262828473,0.988952,0.00741285,-0.0097049,-0.147736,-0.999934,-3.63254e-10,2.39838e-10,-0.011454,5
262878535,0.988993,0.00492135,-0.0100965,-0.147535,-0.999934,-3.63254e-10,2.39838e-10,-0.011454,5
262928590,0.988959,0.00339168,-0.0136256,-0.14752,-0.999934,-3.63254e-10,2.39838e-10,-0.011454,5
262978650,0.988967,-0.00156786,-0.0177155,-0.147068,-0.999934,-3.63254e-10,2.39838e-10,-0.011454,5
263028708,0.98898,-0.00128326,-0.019277,-0.146787,-0.999934,-3.63254e-10,2.39838e-10,-0.011454,5
263078765,0.989031,0.00795918,-0.0190752,-0.146252,-0.999934,-3.63254e-10,2.39838e-10,-0.011454,5
263128823,0.98894,0.0230455,-0.0167558,-0.145556,-0.999934,-3.63254e-10,2.39838e-10,-0.011454,5
263178883,0.988508,0.040596,-0.0131899,-0.145017,-0.999934,-3.63254e-10,2.39838e-10,-0.011454,5
263228940,0.988154,0.0512704,-0.0117105,-0.144174,-0.999934,-3.63254e-10,2.39838e-10,-0.011454,5
263278998,0.988361,0.0474621,-0.0104471,-0.144154,-0.999934,-3.63254e-10,2.39838e-10,-0.011454,5
263329057,0.9891,0.0289947,-0.0144717,-0.143639,-0.999934,-3.63254e-10,2.39838e-10,-0.011454,5
263379121,0.989382,0.0167049,-0.0171531,-0.143354,-0.999934,-3.63254e-10,2.39838e-10,-0.011454,5
263429173,0.989484,0.0156411,-0.0174787,-0.142726,-0.999934,-3.63254e-10,2.39838e-10,-0.011454,5
263479231,0.989464,0.0225863,-0.015089,-0.142205,-0.999934,-3.63254e-10,2.39838e-10,-0.011454,5
263529290,0.989333,0.0284801,-0.0139115,-0.142181,-0.999934,-3.63254e-10,2.39838e-10,-0.011454,5
263579348,0.989386,0.0248303,-0.0138814,-0.142498,-0.999934,-3.63254e-10,2.39838e-10,-0.011454,5
263629406,0.989505,0.00818813,-0.0118818,-0.143776,-0.999934,-3.63254e-10,2.39838e-10,-0.011454,5
263679464,0.989192,-0.0088468,-0.00759181,-0.146163,-0.999934,-3.63254e-10,2.39838e-10,-0.011454,5
263729523,0.988653,-0.0142496,-0.00234623,-0.149524,-0.999934,-3.63254e-10,2.39838e-10,-0.011454,5
263779581,0.988265,-0.00980602,0.000250724,-0.152437,-0.999934,-3.63254e-10,2.39838e-10,-0.011454,5
263829640,0.98787,-0.00767914,0.000647286,-0.155091,-0.999934,-3.63254e-10,2.39838e-10,-0.011454,5
263879697,0.987611,-0.00688661,-0.00508464,-0.156689,-0.999934,-3.63254e-10,2.39838e-10,-0.011454,5
263929755,0.987228,-0.00929359,-0.00837165,-0.158823,-0.999934,-3.63254e-10,2.39838e-10,-0.011454,5
263979814,0.987051,-0.0129904,-0.0114793,-0.159469,-0.999934,-3.63254e-10,2.39838e-10,-0.011454,5
264029879,0.986949,-0.0138916,-0.00866672,-0.1602,-0.999934,-3.63254e-10,2.39838e-10,-0.011454,5
264079930,0.987073,-0.0132762,-0.00455147,-0.159656,-0.999934,-3.63254e-10,2.39838e-10,-0.011454,5
264129988,0.987077,-0.013665,-0.00142929,-0.159658,-0.999934,-3.63254e-10,2.39838e-10,-0.011454,5
264175041,0.987099,-0.0174833,-0.000835659,-0.15915,-0.999934,-3.63254e-10,2.39838e-10,-0.011454,5
264230105,0.987116,-0.0198804,-0.00223774,-0.158754,-0.999934,-3.63254e-10,2.39838e-10,-0.011454,5
264280163,0.987265,-0.0174987,-0.00548221,-0.158023,-0.999934,-3.63254e-10,2.39838e-10,-0.011454,5
264330223,0.987322,-0.0113341,-0.00890323,-0.158076,-0.999934,-3.63254e-10,2.39838e-10,-0.011454,5
264380282,0.987366,-0.00666017,-0.010115,-0.157992,-0.999934,-3.63254e-10,2.39838e-10,-0.011454,5
264430338,0.987292,-0.00103075,-0.00861233,-0.158678,-0.999934,-3.63254e-10,2.39838e-10,-0.011454,5
264480396,0.987437,0.0028266,-0.00915238,-0.157726,-0.999934,-3.63254e-10,2.39838e-10,-0.011454,5
264525449,0.98768,0.00148266,-0.0106141,-0.156119,-0.999934,-3.63254e-10,2.39838e-10,-0.011454,5
264580513,0.987834,0.00415797,-0.0137916,-0.154841,-0.999934,-3.63254e-10,2.39838e-10,-0.011454,5
264630571,0.987885,0.00804779,-0.01719,-0.154023,-0.999934,-3.63254e-10,2.39838e-10,-0.011454,5
264675623,0.987967,0.00916086,-0.0157004,-0.153594,-0.999934,-3.63254e-10,2.39838e-10,-0.011454,5
264730688,0.987868,0.0201792,-0.0150621,-0.153238,-0.999934,-3.63254e-10,2.39838e-10,-0.011454,5
264780746,0.987792,0.0199981,-0.0117774,-0.154041,-0.999934,-3.63254e-10,2.39838e-10,-0.011454,5
264830804,0.987626,0.0152308,-0.00546812,-0.155992,-0.999934,-3.63254e-10,2.39838e-10,-0.011454,5
264875856,0.987493,0.00895929,-0.000232713,-0.157407,-0.999934,-3.63254e-10,2.39838e-10,-0.011454,5
264930920,0.987287,0.00974991,0.00157121,-0.15864,-0.999934,-3.63254e-10,2.39838e-10,-0.011454,5
264980978,0.987166,0.0131147,-0.00104668,-0.159156,-0.999934,-3.63254e-10,2.39838e-10,-0.011454,5
265026031,0.987093,0.0147517,-0.00531448,-0.159377,-0.999934,-3.63254e-10,2.39838e-10,-0.011454,5
265081095,0.986901,0.0220302,-0.0100342,-0.159499,-0.999934,-3.63254e-10,2.39838e-10,-0.011454,5
265131153,0.986736,0.0280295,-0.0101112,-0.159575,-0.999934,-3.63254e-10,2.39838e-10,-0.011454,5
265176205,0.986811,0.0269631,-0.00517907,-0.159534,-0.999934,-3.63254e-10,2.39838e-10,-0.011454,5
265226279,0.986847,0.0234447,0.00165906,-0.159937,-0.999934,-3.63254e-10,2.39838e-10,-0.011454,5
265281339,0.98686,0.0228505,0.00436498,-0.159894,-0.999934,-3.63254e-10,2.39838e-10,-0.011454,5
265326380,0.986905,0.0217741,0.00292825,-0.1598,-0.999934,-3.63254e-10,2.39838e-10,-0.011454,5
265376439,0.986765,0.024478,-0.00117529,-0.160292,-0.999934,-3.63254e-10,2.39838e-10,-0.011454,5
265431502,0.986607,0.0259309,-0.00628094,-0.160921,-0.999934,-3.63254e-10,2.39838e-10,-0.011454,5
265481560,0.986661,0.019991,-0.00738227,-0.16139,-0.999934,-3.63254e-10,2.39838e-10,-0.011454,5
265526613,0.98659,0.0119321,-0.00690354,-0.162634,-0.999934,-3.63254e-10,2.39838e-10,-0.011454,5
265576671,0.986355,0.0108501,-0.00879866,-0.164039,-0.999934,-3.63254e-10,2.39838e-10,-0.011454,5
265631735,0.985826,0.018957,-0.0115297,-0.166295,-0.999934,-3.63254e-10,2.39838e-10,-0.011454,5
265676788,0.985362,0.0234679,-0.012978,-0.168352,-0.999934,-3.63254e-10,2.39838e-10,-0.011454,5
265726846,0.984867,0.0249472,-0.0109518,-0.171159,-0.999934,-3.63254e-10,2.39838e-10,-0.011454,5
265781910,0.984482,0.0198461,-0.00499751,-0.17429,-0.999934,-3.63254e-10,2.39838e-10,-0.011454,5
265831968,0.98421,0.0115183,-0.00134074,-0.176626,-0.999934,-3.63254e-10,2.39838e-10,-0.011454,5
265877023,0.983828,0.00844106,-6.69266e-05,-0.178919,-0.999934,-3.63254e-10,2.39838e-10,-0.011454,5
265927082,0.983434,0.0112949,-0.00251815,-0.1809,-0.999934,-3.63254e-10,2.39838e-10,-0.011454,5
265982142,0.982861,0.0160598,-0.00922594,-0.183418,-0.999934,-3.63254e-10,2.39838e-10,-0.011454,5
266027195,0.982496,0.0149824,-0.0138708,-0.185162,-0.999934,-3.63254e-10,2.39838e-10,-0.011454,5
266077261,0.982318,0.00874166,-0.0130995,-0.186557,-0.999934,-3.63254e-10,2.39838e-10,-0.011454,5
266132317,0.982238,-0.00121394,-0.00838601,-0.187449,-0.999934,-3.63254e-10,2.39838e-10,-0.011454,5
266177370,0.982164,-0.00990418,-0.00580732,-0.187673,-0.999934,-3.63254e-10,2.39838e-10,-0.011454,5
266227430,0.982076,-0.0101084,-0.00464302,-0.18816,-0.999934,-3.63254e-10,2.39838e-10,-0.011454,5
266277486,0.982187,-0.00572398,-0.00383381,-0.187778,-0.999934,-3.63254e-10,2.39838e-10,-0.011454,5
266327544,0.982361,-0.0015012,-0.00239449,-0.18697,-0.999934,-3.63254e-10,2.39838e-10,-0.011454,5
266377602,0.9826,-0.00196001,-0.00188431,-0.185717,-0.999934,-3.63254e-10,2.39838e-10,-0.011454,5
266427660,0.983119,-0.00626057,-0.00358669,-0.182825,-0.999934,-3.63254e-10,2.39838e-10,-0.011454,5
266482729,0.983906,-0.00826286,-0.00714618,-0.178353,-0.999934,-3.63254e-10,2.39838e-10,-0.011454,5
266527776,0.984632,-0.00630838,-0.00987863,-0.174249,-0.999934,-3.63254e-10,2.39838e-10,-0.011454,5
266577836,0.98539,0.00491058,-0.0127443,-0.169765,-0.999934,-3.63254e-10,2.39838e-10,-0.011454,5
266627893,0.985793,0.0178583,-0.0127277,-0.166528,-0.999934,-3.63254e-10,2.39838e-10,-0.011454,5
266677951,0.986254,0.0234949,-0.0101614,-0.163244,-0.999934,-3.63254e-10,2.39838e-10,-0.011454,5
266728013,0.986841,0.0177244,-0.00492216,-0.160646,-0.999934,-3.63254e-10,2.39838e-10,-0.011454,5
266778067,0.987257,0.0113841,-0.00142413,-0.158718,-0.999934,-3.63254e-10,2.39838e-10,-0.011454,5
266828128,0.987465,0.0126835,-0.00100129,-0.157322,-0.999934,-3.63254e-10,2.39838e-10,-0.011454,5
266878187,0.987369,0.0220576,-0.00441869,-0.156833,-0.999934,-3.63254e-10,2.39838e-10,-0.011454,5
266928242,0.987095,0.0313473,-0.00955898,-0.156744,-0.999934,-3.63254e-10,2.39838e-10,-0.011454,5
266978300,0.986796,0.0376734,-0.0141193,-0.15689,-0.999934,-3.63254e-10,2.39838e-10,-0.011454,5
267028358,0.986639,0.0386927,-0.013424,-0.157692,-0.999934,-3.63254e-10,2.39838e-10,-0.011454,5
267078416,0.986768,0.0339248,-0.00713637,-0.158391,-0.999934,-3.63254e-10,2.39838e-10,-0.011454,5
267128474,0.986683,0.0302249,-0.00109255,-0.159822,-0.999934,-3.63254e-10,2.39838e-10,-0.011454,5
267178533,0.986323,0.0300616,-0.00010409,-0.162058,-0.999934,-3.63254e-10,2.39838e-10,-0.011454,5
267228591,0.985916,0.0312354,-0.00271497,-0.164278,-0.999934,-3.63254e-10,2.39838e-10,-0.011454,5
267278649,0.985499,0.0289122,-0.00738654,-0.167039,-0.999934,-3.63254e-10,2.39838e-10,-0.011454,5
267328707,0.985103,0.0243957,-0.00790514,-0.170042,-0.999934,-3.63254e-10,2.39838e-10,-0.011454,5
267378779,0.984866,0.0201361,-0.00435754,-0.172089,-0.999934,-3.63254e-10,2.39838e-10,-0.011454,5
267428823,0.98468,0.0154897,0.000736004,-0.173682,-0.999934,-3.63254e-10,2.39838e-10,-0.011454,5
267478881,0.984578,0.0132347,0.002412,-0.174429,-0.999934,-3.63254e-10,2.39838e-10,-0.011454,5
267528941,0.984583,0.0138178,-2.24338e-06,-0.17437,-0.999934,-3.63254e-10,2.39838e-10,-0.011454,5
267578998,0.984609,0.0171675,-0.00572018,-0.173834,-0.999934,-3.63254e-10,2.39838e-10,-0.011454,5
267629056,0.984563,0.0229275,-0.0104691,-0.173207,-0.999934,-3.63254e-10,2.39838e-10,-0.011454,5
267679114,0.984638,0.0238973,-0.00899871,-0.172733,-0.999934,-3.63254e-10,2.39838e-10,-0.011454,5
267729172,0.984721,0.015166,-0.00340531,-0.173444,-0.999934,-3.63254e-10,2.39838e-10,-0.011454,5
267779240,0.984702,0.00592824,-0.000216215,-0.174148,-0.999934,-3.63254e-10,2.39838e-10,-0.011454,5
267829288,0.984686,0.00567958,-0.00109415,-0.174244,-0.999934,-3.63254e-10,2.39838e-10,-0.011454,5
267879348,0.984521,0.0140305,-0.00388817,-0.174658,-0.999934,-3.63254e-10,2.39838e-10,-0.011454,5
267929404,0.984475,0.0217487,-0.00619941,-0.174064,-0.999934,-3.63254e-10,2.39838e-10,-0.011454,5
267979463,0.984481,0.027355,-0.00674187,-0.173217,-0.999934,-3.63254e-10,2.39838e-10,-0.011454,5
268029520,0.984617,0.0275992,-0.00541373,-0.172448,-0.999934,-3.63254e-10,2.39838e-10,-0.011454,5
268079582,0.984948,0.021791,-0.00457549,-0.171409,-0.999934,-3.63254e-10,2.39838e-10,-0.011454,5
268129637,0.985303,0.0113209,-0.00512746,-0.170365,-0.999934,-3.63254e-10,2.39838e-10,-0.011454,5
268179695,0.985467,0.00481238,-0.00469361,-0.169735,-0.999934,-3.63254e-10,2.39838e-10,-0.011454,5
268229758,0.985429,0.00321689,0.000669921,-0.170055,-0.999934,-3.63254e-10,2.39838e-10,-0.011454,5
268279811,0.985178,0.00210831,0.00622409,-0.171407,-0.999934,-3.63254e-10,2.39838e-10,-0.011454,5
268329869,0.984657,-0.00034821,0.00657852,-0.174378,-0.999934,-3.63254e-10,2.39838e-10,-0.011454,5
268374921,0.984176,-0.0019902,0.0053048,-0.177103,-0.999934,-3.63254e-10,2.39838e-10,-0.011454,5
268429985,0.983639,-0.00185942,0.000948895,-0.180141,-0.999934,-3.63254e-10,2.39838e-10,-0.011454,5
268480043,0.983147,-0.00341394,-0.000675291,-0.182784,-0.999934,-3.63254e-10,2.39838e-10,-0.011454,5
268530101,0.982742,-0.0094503,0.0010656,-0.184737,-0.999934,-3.63254e-10,2.39838e-10,-0.011454,5
268580168,0.982454,-0.0161309,0.00293409,-0.185783,-0.999934,-3.63254e-10,2.39838e-10,-0.011454,5
268630222,0.982426,-0.014338,0.00276405,-0.186081,-0.999934,-3.63254e-10,2.39838e-10,-0.011454,5
268680292,0.982543,-0.00469529,-0.00167103,-0.185968,-0.999934,-3.63254e-10,2.39838e-10,-0.011454,5
268725344,0.982461,0.00434623,-0.00673124,-0.186296,-0.999934,-3.63254e-10,2.39838e-10,-0.011454,5
268780391,0.9824,0.00394196,-0.0110392,-0.18642,-0.999934,-3.63254e-10,2.39838e-10,-0.011454,5
268830449,0.982345,0.00150425,-0.0104601,-0.18678,-0.999934,-3.63254e-10,2.39838e-10,-0.011454,5
268875501,0.982332,0.00356973,-0.0065359,-0.186999,-0.999934,-3.63254e-10,2.39838e-10,-0.011454,5
268930565,0.982325,0.0141562,-0.00490223,-0.186582,-0.999934,-3.63254e-10,2.39838e-10,-0.011454,5
268980623,0.982242,0.0219243,-0.00666383,-0.186213,-0.999934,-3.63254e-10,2.39838e-10,-0.011454,5
269030681,0.982226,0.0242975,-0.011378,-0.185776,-0.999934,-3.63254e-10,2.39838e-10,-0.011454,5
269075733,0.982175,0.0232936,-0.0151215,-0.185907,-0.999934,-3.63254e-10,2.39838e-10,-0.011454,5
269130797,0.982336,0.0194025,-0.0173274,-0.185308,-0.999934,-3.63254e-10,2.39838e-10,-0.011454,5
269180855,0.982387,0.0176997,-0.0152181,-0.185397,-0.999934,-3.63254e-10,2.39838e-10,-0.011454,5
269225915,0.982382,0.0162108,-0.011039,-0.185851,-0.999934,-3.63254e-10,2.39838e-10,-0.011454,5
269280975,0.982362,0.00703522,-0.0046083,-0.1868,-0.999934,-3.63254e-10,2.39838e-10,-0.011454,5
269331029,0.982081,-0.0028955,9.08816e-06,-0.188435,-0.999934,-3.63254e-10,2.39838e-10,-0.011454,5
269376083,0.981788,-0.00918131,0.00275963,-0.189736,-0.999934,-3.63254e-10,2.39838e-10,-0.011454,5
269426139,0.981493,-0.0135828,0.000677472,-0.191013,-0.999934,-3.63254e-10,2.39838e-10,-0.011454,5
269481203,0.980971,-0.0117548,-0.0038654,-0.193758,-0.999934,-3.63254e-10,2.39838e-10,-0.011454,5
269531261,0.98054,-0.00530351,-0.00789067,-0.196092,-0.999934,-3.63254e-10,2.39838e-10,-0.011454,5
269576313,0.980211,-0.00126717,-0.00894286,-0.197749,-0.999934,-3.63254e-10,2.39838e-10,-0.011454,5
269631376,0.979949,-0.00440107,-0.00866755,-0.199012,-0.999934,-3.63254e-10,2.39838e-10,-0.011454,5
269681435,0.979695,-0.00812584,-0.0072755,-0.200199,-0.999934,-3.63254e-10,2.39838e-10,-0.011454,5
269726487,0.979361,-0.00753905,-0.00437854,-0.201933,-0.999934,-3.63254e-10,2.39838e-10,-0.011454,5
269776545,0.978961,-0.003449,-0.000899458,-0.204018,-0.999934,-3.63254e-10,2.39838e-10,-0.011454,5
269831609,0.978413,0.0022152,0.00114484,-0.206644,-0.999934,-3.63254e-10,2.39838e-10,-0.011454,5
269876661,0.977865,0.00654642,0.000110423,-0.209135,-0.999934,-3.63254e-10,2.39838e-10,-0.011454,5
269926719,0.977446,0.00864786,-0.003901,-0.210972,-0.999934,-3.63254e-10,2.39838e-10,-0.011454,5
269981782,0.97727,0.00228663,-0.00742439,-0.211854,-0.999934,-3.63254e-10,2.39838e-10,-0.011454,5
270031840,0.977132,-0.00580568,-0.00864533,-0.21238,-0.999934,-3.63254e-10,2.39838e-10,-0.011454,5
270076893,0.976918,-0.00605283,-0.0105791,-0.213268,-0.999934,-3.63254e-10,2.39838e-10,-0.011454,5
270126962,0.976723,0.00217466,-0.0146921,-0.213991,-0.999934,-3.63254e-10,2.39838e-10,-0.011454,5
270182014,0.976558,0.0105298,-0.0172879,-0.2143,-0.999934,-3.63254e-10,2.39838e-10,-0.011454,5
270227066,0.976445,0.0131517,-0.017199,-0.214679,-0.999934,-3.63254e-10,2.39838e-10,-0.011454,5
270277128,0.976544,0.00953263,-0.0138198,-0.21466,-0.999934,-3.63254e-10,2.39838e-10,-0.011454,5
270332188,0.976683,-0.00151669,-0.00719322,-0.214563,-0.999934,-3.63254e-10,2.39838e-10,-0.011454,5
270377240,0.976596,-0.000178336,-0.00603598,-0.214999,-0.999934,-3.63254e-10,2.39838e-10,-0.011454,5
270427303,0.976509,0.00665767,-0.00993789,-0.215145,-0.999934,-3.63254e-10,2.39838e-10,-0.011454,5
270477356,0.976379,0.0123341,-0.0131142,-0.215315,-0.999934,-3.63254e-10,2.39838e-10,-0.011454,5
270527420,0.97619,0.0183561,-0.0170286,-0.215468,-0.999934,-3.63254e-10,2.39838e-10,-0.011454,5
270577478,0.976125,0.025098,-0.0185731,-0.214952,-0.999934,-3.63254e-10,2.39838e-10,-0.011454,5
270627536,0.976341,0.0200559,-0.0152864,-0.214761,-0.999934,-3.63254e-10,2.39838e-10,-0.011454,5
270682595,0.976484,0.0102645,-0.0108332,-0.215074,-0.999934,-3.63254e-10,2.39838e-10,-0.011454,5
270727645,0.976415,0.00441676,-0.00933542,-0.215653,-0.999934,-3.63254e-10,2.39838e-10,-0.011454,5
270777703,0.97625,-1.80026e-06,-0.0068275,-0.21654,-0.999934,-3.63254e-10,2.39838e-10,-0.011454,5
270827761,0.975947,0.00755876,-0.0067592,-0.21777,-0.999934,-3.63254e-10,2.39838e-10,-0.011454,5
270877819,0.975437,0.0202545,-0.00836498,-0.219187,-0.999934,-3.63254e-10,2.39838e-10,-0.011454,5
270927877,0.97511,0.0249892,-0.00957356,-0.220099,-0.999934,-3.63254e-10,2.39838e-10,-0.011454,5
270977935,0.97505,0.018497,-0.00764279,-0.22108,-0.999934,-3.63254e-10,2.39838e-10,-0.011454,5
271027993,0.975068,0.0123619,-0.00806651,-0.221414,-0.999934,-3.63254e-10,2.39838e-10,-0.011454,5
271078050,0.974926,0.0107833,-0.00865486,-0.222102,-0.999934,-3.63254e-10,2.39838e-10,-0.011454,5
271128110,0.974818,0.0145009,-0.00948865,-0.222326,-0.999934,-3.63254e-10,2.39838e-10,-0.011454,5
271178166,0.974657,0.0193627,-0.0121,-0.222536,-0.999934,-3.63254e-10,2.39838e-10,-0.011454,5
271228226,0.974587,0.0158495,-0.0142458,-0.222992,-0.999934,-3.63254e-10,2.39838e-10,-0.011454,5
271278289,0.974502,0.00660157,-0.013489,-0.223874,-0.999934,-3.63254e-10,2.39838e-10,-0.011454,5
271328340,0.974186,0.006779,-0.0140616,-0.225205,-0.999934,-3.63254e-10,2.39838e-10,-0.011454,5
271378408,0.97393,0.00997798,-0.0131334,-0.226248,-0.999934,-3.63254e-10,2.39838e-10,-0.011454,5
271428455,0.973599,0.0142707,-0.011705,-0.227518,-0.999934,-3.63254e-10,2.39838e-10,-0.011454,5
271478513,0.973408,0.0125599,-0.0103362,-0.2285,-0.999934,-3.63254e-10,2.39838e-10,-0.011454,5
271528571,0.973269,0.00618821,-0.00788237,-0.229447,-0.999934,-3.63254e-10,2.39838e-10,-0.011454,5
271578629,0.973128,0.00192979,-0.00767718,-0.230128,-0.999934,-3.63254e-10,2.39838e-10,-0.011454,5
271628687,0.972956,-0.00152444,-0.0087144,-0.230821,-0.999934,-3.63254e-10,2.39838e-10,-0.011454,5
271678753,0.972781,0.000609084,-0.0101675,-0.231501,-0.999934,-3.63254e-10,2.39838e-10,-0.011454,5
271728802,0.972604,0.00603844,-0.0116814,-0.232096,-0.999934,-3.63254e-10,2.39838e-10,-0.011454,5
271778861,0.972377,0.0122868,-0.0117709,-0.232793,-0.999934,-3.63254e-10,2.39838e-10,-0.011454,5
271828920,0.971937,0.0164171,-0.0105181,-0.234434,-0.999934,-3.63254e-10,2.39838e-10,-0.011454,5
271878976,0.97138,0.016582,-0.00698087,-0.236847,-0.999934,-3.63254e-10,2.39838e-10,-0.011454,5
271929034,0.970781,0.0109293,-0.00319393,-0.239696,-0.999934,-3.63254e-10,2.39838e-10,-0.011454,5
271979098,0.969968,0.0055414,0.000944934,-0.24317,-0.999934,-3.63254e-10,2.39838e-10,-0.011454,5
272029149,0.969034,0.00185296,0.00213905,-0.246911,-0.999934,-3.63254e-10,2.39838e-10,-0.011454,5
272079207,0.968024,0.00149074,0.00087641,-0.250852,-0.999934,-3.63254e-10,2.39838e-10,-0.011454,5
272129274,0.966822,0.00401821,-0.00262044,-0.255407,-0.999934,-3.63254e-10,2.39838e-10,-0.011454,5
272179323,0.965418,0.00252648,-0.00438324,-0.260659,-0.999934,-3.63254e-10,2.39838e-10,-0.011454,5
272229382,0.964136,-0.000789419,-0.00341369,-0.265386,-0.999934,-3.63254e-10,2.39838e-10,-0.011454,5
272279439,0.962589,-0.00619502,0.00308807,-0.270877,-0.999934,-3.63254e-10,2.39838e-10,-0.011454,5
272329498,0.96094,-0.0126705,0.00984131,-0.276292,-0.999934,-3.63254e-10,2.39838e-10,-0.011454,5
272379554,0.959427,-0.014717,0.0111368,-0.281352,-0.999934,-3.63254e-10,2.39838e-10,-0.011454,5
272429612,0.957997,-0.0113595,0.00809729,-0.286438,-0.999934,-3.63254e-10,2.39838e-10,-0.011454,5
272479670,0.956776,-0.0057122,-7.88307e-05,-0.290769,-0.999934,-3.63254e-10,2.39838e-10,-0.011454,5
272529728,0.95525,0.00310463,-0.0077657,-0.295682,-0.999934,-3.63254e-10,2.39838e-10,-0.011454,5
272579786,0.95363,0.00921733,-0.0052717,-0.300795,-0.999934,-3.63254e-10,2.39838e-10,-0.011454,5
272629844,0.952025,0.00665259,-0.0024169,-0.305939,-0.999934,-3.63254e-10,2.39838e-10,-0.011454,5
272679901,0.950134,-0.00258778,0.00115071,-0.31183,-0.999934,-3.63254e-10,2.39838e-10,-0.011454,5
272729959,0.94814,-0.0102139,0.00172809,-0.317685,-0.999934,-3.63254e-10,2.39838e-10,-0.011454,5
272780032,0.945936,-0.00651914,0.000407269,-0.324288,-0.999934,-3.63254e-10,2.39838e-10,-0.011454,5
272830075,0.943214,0.000726166,0.00493796,-0.332149,-0.999934,-3.63254e-10,2.39838e-10,-0.011454,5
272880133,0.939731,0.00802707,0.0106177,-0.341657,-0.999934,-3.63254e-10,2.39838e-10,-0.011454,5
272925185,0.936003,0.011,0.0161015,-0.351451,-0.999934,-3.63254e-10,2.39838e-10,-0.011454,5
272980248,0.930936,0.0102136,0.0220415,-0.364373,-0.999934,-3.63254e-10,2.39838e-10,-0.011454,5
273030317,0.925969,0.00840512,0.0283831,-0.376439,-0.999934,-3.63254e-10,2.39838e-10,-0.011454,5
273075358,0.921142,0.0130698,0.0309389,-0.387776,-0.999934,-3.63254e-10,2.39838e-10,-0.011454,5
273130424,0.915048,0.01385,0.0305712,-0.401946,-0.999934,-3.63254e-10,2.39838e-10,-0.011454,5
273180487,0.909101,0.0129289,0.027846,-0.415443,-0.999934,-3.63254e-10,2.39838e-10,-0.011454,5
273230537,0.902235,0.0101865,0.0295092,-0.430113,-0.999934,-3.63254e-10,2.39838e-10,-0.011454,5
273275592,0.895444,0.00888781,0.0327485,-0.443879,-0.999934,-3.63254e-10,2.39838e-10,-0.011454,5
273330653,0.886597,0.00813553,0.0410291,-0.460648,-0.999934,-3.63254e-10,2.39838e-10,-0.011454,5
273380711,0.878548,0.0157748,0.0432331,-0.475432,-0.999934,-3.63254e-10,2.39838e-10,-0.011454,5
273425763,0.870693,0.0266742,0.0419385,-0.48931,-0.999934,-3.63254e-10,2.39838e-10,-0.011454,5
273480828,0.862095,0.0278525,0.0359903,-0.5047,-0.999934,-3.63254e-10,2.39838e-10,-0.011454,5
273530884,0.854777,0.0207355,0.026615,-0.517898,-0.999934,-3.63254e-10,2.39838e-10,-0.011454,5
273575936,0.848264,0.00906257,0.0227328,-0.529007,-0.999934,-3.63254e-10,2.39838e-10,-0.011454,5
273625994,0.840763,-0.00618814,0.0240029,-0.540836,-0.999934,-3.63254e-10,2.39838e-10,-0.011454,5
273681058,0.832415,-0.0142533,0.0256789,-0.553374,-0.999934,-3.63254e-10,2.39838e-10,-0.011454,5
273731116,0.824185,-0.00908368,0.0271603,-0.565596,-0.999934,-3.63254e-10,2.39838e-10,-0.011454,5
273776168,0.816927,-0.0052327,0.0283825,-0.576019,-0.999934,-3.63254e-10,2.39838e-10,-0.011454,5
273831231,0.80898,-0.00685583,0.0300935,-0.587026,-0.999934,-3.63254e-10,2.39838e-10,-0.011454,5
273881302,0.802839,-0.00510261,0.0294767,-0.595446,-0.999934,-3.63254e-10,2.39838e-10,-0.011454,5
273926341,0.798006,-0.007584,0.029558,-0.601876,-0.999934,-3.63254e-10,2.39838e-10,-0.011454,5
