timestamp,x,y,z,r,flaps,aux1,aux2,aux3,aux4,aux5,aux6,mode_switch,return_switch,rattitude_switch,posctl_switch,loiter_switch,acro_switch,offboard_switch,kill_switch,arm_switch,transition_switch,gear_switch,mode_slot,data_source,stab_switch,man_switch
37305047,-0.0,0.0,-0.0,1.0,0.0,0.0,0.0,0.0,0.0,0.0,0.0,0,0,0,0,3,0,0,3,0,0,0,1,1,0,0
37327326,-0.0,0.0,-0.0,1.0,0.0,0.0,0.0,0.0,0.0,0.0,0.0,0,0,0,0,3,0,0,3,0,0,0,1,1,0,0
37528305,-0.0,0.0,-0.0,1.0,0.0,0.0,0.0,0.0,0.0,0.0,0.0,0,0,0,0,3,0,0,3,0,0,0,1,1,0,0
37707033,-0.0,0.0,-0.0,1.0,0.0,0.0,0.0,0.0,0.0,0.0,0.0,0,0,0,0,3,0,0,3,0,0,0,1,1,0,0
37905880,-0.0,0.0,-0.0,0.45343137,0.0,0.0,0.0,0.0,0.0,0.0,0.0,0,0,0,0,3,0,0,3,0,0,0,1,1,0,0
38127668,-0.0,0.0,-0.0,0.0,0.0,0.0,0.0,0.0,0.0,0.0,0.0,0,0,0,0,3,0,0,3,0,0,0,1,1,0,0
38313108,-0.0,0.0,-0.0,-0.0022779044,0.0,0.0,0.0,0.0,0.0,0.0,0.0,0,0,0,0,3,0,0,3,0,0,0,1,1,0,0
38526672,-0.0,0.0,-0.0,-0.0022779044,0.0,0.0,0.0,0.0,0.0,0.0,0.0,0,0,0,0,3,0,0,3,0,0,0,1,1,0,0
38728450,-0.0,0.0,-0.0,-0.0022779044,0.0,0.0,0.0,0.0,0.0,0.0,0.0,0,0,0,0,3,0,0,3,0,0,0,1,1,0,0
38929229,-0.0,0.0,-0.0,0.0,0.0,0.0,0.0,0.0,0.0,0.0,0.0,0,0,0,0,3,0,0,3,0,0,0,1,1,0,0
39107844,-0.0,0.0,-0.0,0.0,0.0,0.0,0.0,0.0,0.0,0.0,0.0,0,0,0,0,3,0,0,3,0,0,0,1,1,0,0
39309242,-0.0,0.0,-0.0,0.0,0.0,0.0,0.0,0.0,0.0,0.0,0.0,0,0,0,0,3,0,0,3,0,0,0,1,1,0,0
39510235,-0.0,0.0,-0.0,0.0,0.0,0.0,0.0,0.0,0.0,0.0,0.0,0,0,0,0,3,0,0,3,0,0,0,1,1,0,0
39708839,-0.0,0.0,-0.0,0.0,0.0,0.0,0.0,0.0,0.0,0.0,0.0,0,0,0,0,3,0,0,3,0,0,0,1,1,0,0
39910148,-0.0,0.0,-0.0,0.0,0.0,0.0,0.0,0.0,0.0,0.0,0.0,0,0,0,0,3,0,0,3,0,0,0,1,1,0,0
40109451,-0.0,0.0,-0.0,0.0,0.0,0.0,0.0,0.0,0.0,0.0,0.0,0,0,0,0,3,0,0,3,0,0,0,1,1,0,0
40309977,-0.0,0.0,0.016568048,-0.0022779044,0.0,0.0,0.0,0.0,0.0,0.0,0.0,0,0,0,0,3,0,0,3,0,0,0,1,1,0,0
40511194,-0.0,0.0,0.053254437,0.0,0.0,0.0,0.0,0.0,0.0,0.0,0.0,0,0,0,0,3,0,0,3,0,0,0,1,1,0,0
40709894,-0.0,0.0,0.1147929,0.0,0.0,0.0,0.0,0.0,0.0,0.0,0.0,0,0,0,0,3,0,0,3,0,0,0,1,1,0,0
40910867,-0.0,0.0,0.12071006,0.0,0.0,0.0,0.0,0.0,0.0,0.0,0.0,0,0,0,0,3,0,0,3,0,0,0,1,1,0,0
41112187,-0.0,0.0,0.15502958,0.0,0.0,0.0,0.0,0.0,0.0,0.0,0.0,0,0,0,0,3,0,0,3,0,0,0,1,1,0,0
41313202,-0.0,0.077108435,0.15384616,0.0,0.0,0.0,0.0,0.0,0.0,0.0,0.0,0,0,0,0,3,0,0,3,0,0,0,1,1,0,0
41514957,-0.0,0.08915663,0.15384616,0.0,0.0,0.0,0.0,0.0,0.0,0.0,0.0,0,0,0,0,3,0,0,3,0,0,0,1,1,0,0
41715517,-0.0,0.08915663,0.15857989,0.0,0.0,0.0,0.0,0.0,0.0,0.0,0.0,0,0,0,0,3,0,0,3,0,0,0,1,1,0,0
41917595,-0.0,0.072289154,0.24615385,0.0,0.0,0.0,0.0,0.0,0.0,0.0,0.0,0,0,0,0,3,0,0,3,0,0,0,1,1,0,0
42117801,-0.0,0.060240965,0.3005917,0.0,0.0,0.0,0.0,0.0,0.0,0.0,0.0,0,0,0,0,3,0,0,3,0,0,0,1,1,0,0
42316519,-0.0,0.03373494,0.33964497,0.0,0.0,0.0,0.0,0.0,0.0,0.0,0.0,0,0,0,0,3,0,0,3,0,0,0,1,1,0,0
42517943,0.021582734,0.031325303,0.3656805,0.0,0.0,0.0,0.0,0.0,0.0,0.0,0.0,0,0,0,0,3,0,0,3,0,0,0,1,1,0,0
42717086,0.019184653,0.05060241,0.3810651,0.0,0.0,0.0,0.0,0.0,0.0,0.0,0.0,0,0,0,0,3,0,0,3,0,0,0,1,1,0,0
42915891,-0.0,0.16385542,0.3810651,0.0,0.0,0.0,0.0,0.0,0.0,0.0,0.0,0,0,0,0,3,0,0,3,0,0,0,1,1,0,0
43114592,-0.0,0.13253012,0.42011833,0.0,0.0,0.0,0.0,0.0,0.0,0.0,0.0,0,0,0,0,3,0,0,3,0,0,0,1,1,0,0
43315079,-0.0,0.031325303,0.45325443,0.0,0.0,0.0,0.0,0.0,0.0,0.0,0.0,0,0,0,0,3,0,0,3,0,0,0,1,1,0,0
43516207,0.007194245,0.057831325,0.5029586,0.0,0.0,0.0,0.0,0.0,0.0,0.0,0.0,0,0,0,0,3,0,0,3,0,0,0,1,1,0,0
43717307,0.023980815,0.17831326,0.5100592,0.0,0.0,0.0,0.0,0.0,0.0,0.0,0.0,0,0,0,0,3,0,0,3,0,0,0,1,1,0,0
43918562,0.04796163,0.16385542,0.5088757,0.0,0.0,0.0,0.0,0.0,0.0,0.0,0.0,0,0,0,0,3,0,0,3,0,0,0,1,1,0,0
44119548,0.112709835,0.13012049,0.5372781,0.0,0.0,0.0,0.0,0.0,0.0,0.0,0.0,0,0,0,0,3,0,0,3,0,0,0,1,1,0,0
44320984,0.09592326,0.1493976,0.5408284,0.0,0.0,0.0,0.0,0.0,0.0,0.0,0.0,0,0,0,0,3,0,0,3,0,0,0,1,1,0,0
44521826,0.086330935,0.15421687,0.5727811,0.0,0.0,0.0,0.0,0.0,0.0,0.0,0.0,0,0,0,0,3,0,0,3,0,0,0,1,1,0,0
44720598,0.107913665,0.1493976,0.5727811,0.0,0.0,0.0,0.0,0.0,0.0,0.0,0.0,0,0,0,0,3,0,0,3,0,0,0,1,1,0,0
44922482,0.22302158,0.12048193,0.56449705,0.0,0.0,0.0,0.0,0.0,0.0,0.0,0.0,0,0,0,0,3,0,0,3,0,0,0,1,1,0,0
45121109,0.30215827,0.08915663,0.55857986,0.0,0.0,0.0,0.0,0.0,0.0,0.0,0.0,0,0,0,0,3,0,0,3,0,0,0,1,1,0,0
45321619,0.28057554,0.13012049,0.5313609,0.0,0.0,0.0,0.0,0.0,0.0,0.0,0.0,0,0,0,0,3,0,0,3,0,0,0,1,1,0,0
45523396,0.1822542,0.20481928,0.5325444,0.0,0.0,0.0,0.0,0.0,0.0,0.0,0.0,0,0,0,0,3,0,0,3,0,0,0,1,1,0,0
45722045,0.105515584,0.32048193,0.5349112,0.0,0.0,0.0,0.0,0.0,0.0,0.0,0.0,0,0,0,0,3,0,0,3,0,0,0,1,1,0,0
45922893,0.112709835,0.22891566,0.5349112,0.0,0.0,0.0,0.0,0.0,0.0,0.0,0.0,0,0,0,0,3,0,0,3,0,0,0,1,1,0,0
46123929,0.038369305,0.031325303,0.5349112,0.0,0.0,0.0,0.0,0.0,0.0,0.0,0.0,0,0,0,0,3,0,0,3,0,0,0,1,1,0,0
46325079,0.007194245,0.0,0.5372781,0.0,0.0,0.0,0.0,0.0,0.0,0.0,0.0,0,0,0,0,3,0,0,3,0,0,0,1,1,0,0
46526310,-0.0,0.0,0.53846157,0.0,0.0,0.0,0.0,0.0,0.0,0.0,0.0,0,0,0,0,3,0,0,3,0,0,0,1,1,0,0
46705247,-0.0,0.0,0.53846157,0.0,0.0,0.0,0.0,0.0,0.0,0.0,0.0,0,0,0,0,3,0,0,3,0,0,0,1,1,0,0
46906001,-0.0,0.0,0.5372781,0.0,0.0,0.0,0.0,0.0,0.0,0.0,0.0,0,0,0,0,3,0,0,3,0,0,0,1,1,0,0
47129583,-0.0,0.0,0.53846157,0.0,0.0,0.0,0.0,0.0,0.0,0.0,0.0,0,0,0,0,3,0,0,3,0,0,0,1,1,0,0
47308398,-0.0,0.0,0.53846157,0.0,0.0,0.0,0.0,0.0,0.0,0.0,0.0,0,0,0,0,1,0,0,3,0,0,0,1,1,0,0
47507082,-0.0,0.0,0.53846157,0.0,0.0,0.0,0.0,0.0,0.0,0.0,0.0,0,0,0,0,1,0,0,3,0,0,0,1,1,0,0
47708381,-0.0,0.0,0.53846157,0.0,0.0,0.0,0.0,0.0,0.0,0.0,0.0,0,0,0,0,1,0,0,3,0,0,0,1,1,0,0
47909328,-0.0,0.15421687,0.53846157,0.0,0.0,0.0,0.0,0.0,0.0,0.0,0.0,0,0,0,0,1,0,0,3,0,0,0,1,1,0,0
48110905,0.19424461,0.31084338,0.5372781,0.0,0.0,0.0,0.0,0.0,0.0,0.0,0.0,0,0,0,0,1,0,0,3,0,0,0,1,1,0,0
48311737,0.25419664,0.25783134,0.5372781,0.0,0.0,0.0,0.0,0.0,0.0,0.0,0.0,0,0,0,0,1,0,0,3,0,0,0,1,1,0,0
48514017,0.29496402,0.25301206,0.5372781,0.0,0.0,0.0,0.0,0.0,0.0,0.0,0.0,0,0,0,0,1,0,0,3,0,0,0,1,1,0,0
48714153,0.33093524,0.31325302,0.5372781,0.0,0.0,0.0,0.0,0.0,0.0,0.0,0.0,0,0,0,0,1,0,0,3,0,0,0,1,1,0,0
48916038,0.31894484,0.32771084,0.5372781,0.0,0.0,0.0,0.0,0.0,0.0,0.0,0.0,0,0,0,0,1,0,0,3,0,0,0,1,1,0,0
49116348,0.13908873,0.028915662,0.5349112,0.0,0.0,0.0,0.0,0.0,0.0,0.0,0.0,0,0,0,0,1,0,0,3,0,0,0,1,1,0,0
49318431,0.086330935,0.0,0.5337278,0.0,0.0,0.0,0.0,0.0,0.0,0.0,0.0,0,0,0,0,1,0,0,3,0,0,0,1,1,0,0
49518758,-0.0,0.0,0.5337278,0.0,0.0,0.0,0.0,0.0,0.0,0.0,0.0,0,0,0,0,1,0,0,3,0,0,0,1,1,0,0
49715650,-0.0,0.0,0.5573965,0.0,0.0,0.0,0.0,0.0,0.0,0.0,0.0,0,0,0,0,1,0,0,3,0,0,0,1,1,0,0
49914462,-0.0,0.0,0.5739645,0.0,0.0,0.0,0.0,0.0,0.0,0.0,0.0,0,0,0,0,1,0,0,3,0,0,0,1,1,0,0
50114887,-0.0,0.12771085,0.5727811,0.0,0.0,0.0,0.0,0.0,0.0,0.0,0.0,0,0,0,0,1,0,0,3,0,0,0,1,1,0,0
50313398,-0.0,0.15180723,0.5727811,0.0,0.0,0.0,0.0,0.0,0.0,0.0,0.0,0,0,0,0,1,0,0,3,0,0,0,1,1,0,0
50515340,-0.0,0.10120482,0.5727811,0.0,0.0,0.0,0.0,0.0,0.0,0.0,0.0,0,0,0,0,1,0,0,3,0,0,0,1,1,0,0
50713882,-0.0,0.0,0.57159764,0.0,0.0,0.0,0.0,0.0,0.0,0.0,0.0,0,0,0,0,1,0,0,3,0,0,0,1,1,0,0
50912695,-0.0,0.0,0.57159764,0.0,0.0,0.0,0.0,0.0,0.0,0.0,0.0,0,0,0,0,1,0,0,3,0,0,0,1,1,0,0
51113062,0.0119904075,0.0,0.57159764,0.0,0.0,0.0,0.0,0.0,0.0,0.0,0.0,0,0,0,0,3,0,0,3,0,0,0,1,1,0,0
51311774,0.0023980816,0.0,0.5704142,0.0,0.0,0.0,0.0,0.0,0.0,0.0,0.0,0,0,0,0,3,0,0,3,0,0,0,1,1,0,0
51513544,0.09832134,0.060240965,0.5704142,0.0,0.0,0.0,0.0,0.0,0.0,0.0,0.0,0,0,0,0,3,0,0,3,0,0,0,1,1,0,0
51711977,0.21103117,0.3759036,0.56094676,0.0,0.0,0.0,0.0,0.0,0.0,0.0,0.0,0,0,0,0,3,0,0,3,0,0,0,1,1,0,0
51910565,0.29736212,0.28674698,0.556213,0.0,0.0,0.0,0.0,0.0,0.0,0.0,0.0,0,0,0,0,3,0,0,3,0,0,0,1,1,0,0
52109431,0.32134292,0.20722891,0.556213,0.0,0.0,0.0,0.0,0.0,0.0,0.0,0.0,0,0,0,0,3,0,0,3,0,0,0,1,1,0,0
52310334,0.33333334,0.15903614,0.556213,0.0,0.0,0.0,0.0,0.0,0.0,0.0,0.0,0,0,0,0,3,0,0,3,0,0,0,1,1,0,0
52508804,0.26618704,0.06506024,0.556213,0.0,0.0,0.0,0.0,0.0,0.0,0.0,0.0,0,0,0,0,3,0,0,3,0,0,0,1,1,0,0
52727375,0.05035971,0.0,0.5550296,0.0,0.0,0.0,0.0,0.0,0.0,0.0,0.0,0,0,0,0,3,0,0,3,0,0,0,1,1,0,0
52928821,-0.0,0.0,0.55857986,0.0,0.0,0.0,0.0,0.0,0.0,0.0,0.0,0,0,0,0,3,0,0,3,0,0,0,1,1,0,0
53107542,-0.0,0.0,0.55857986,0.0,0.0,0.0,0.0,0.0,0.0,0.0,0.0,0,0,0,0,3,0,0,3,0,0,0,1,1,0,0
53308579,-0.0,0.0,0.55857986,0.0,0.0,0.0,0.0,0.0,0.0,0.0,0.0,0,0,0,0,3,0,0,3,0,0,0,1,1,0,0
53510309,-0.0,0.0,0.55857986,0.0,0.0,0.0,0.0,0.0,0.0,0.0,0.0,0,0,0,0,3,0,0,3,0,0,0,1,1,0,0
53710954,-0.0,0.0,0.55857986,0.0,0.0,0.0,0.0,0.0,0.0,0.0,0.0,0,0,0,0,1,0,0,3,0,0,0,1,1,0,0
53912936,-0.0,0.0,0.55857986,0.0,0.0,0.0,0.0,0.0,0.0,0.0,0.0,0,0,0,0,1,0,0,3,0,0,0,1,1,0,0
54113122,-0.0,0.0,0.55857986,0.0,0.0,0.0,0.0,0.0,0.0,0.0,0.0,0,0,0,0,1,0,0,3,0,0,0,1,1,0,0
54315204,-0.0,0.0,0.55857986,0.0,0.0,0.0,0.0,0.0,0.0,0.0,0.0,0,0,0,0,1,0,0,3,0,0,0,1,1,0,0
54513851,-0.0,0.0,0.55857986,0.0,0.0,0.0,0.0,0.0,0.0,0.0,0.0,0,0,0,0,1,0,0,3,0,0,0,1,1,0,0
54711896,-0.0,0.0,0.55857986,0.0,0.0,0.0,0.0,0.0,0.0,0.0,0.0,0,0,0,0,1,0,0,3,0,0,0,1,1,0,0
54912890,-0.0,0.0,0.55857986,0.0,0.0,0.0,0.0,0.0,0.0,0.0,0.0,0,0,0,0,1,0,0,3,0,0,0,1,1,0,0
55114984,-0.0,0.0,0.55857986,0.0,0.0,0.0,0.0,0.0,0.0,0.0,0.0,0,0,0,0,1,0,0,3,0,0,0,1,1,0,0
55313694,-0.0,0.0,0.55857986,0.0,0.0,0.0,0.0,0.0,0.0,0.0,0.0,0,0,0,0,1,0,0,3,0,0,0,1,1,0,0
55512366,-0.0,0.0,0.55857986,0.0,0.0,0.0,0.0,0.0,0.0,0.0,0.0,0,0,0,0,1,0,0,3,0,0,0,1,1,0,0
55719551,-0.0,0.0,0.55857986,0.0,0.0,0.0,0.0,0.0,0.0,0.0,0.0,0,0,0,0,1,0,0,3,0,0,0,1,1,0,0
55914958,-0.0,0.0,0.55857986,0.0,0.0,0.0,0.0,0.0,0.0,0.0,0.0,0,0,0,0,1,0,0,3,0,0,0,1,1,0,0
56113384,-0.0,0.0,0.55857986,0.0,0.0,0.0,0.0,0.0,0.0,0.0,0.0,0,0,0,0,1,0,0,3,0,0,0,1,1,0,0
56312068,-0.0,0.0,0.5573965,0.0,0.0,0.0,0.0,0.0,0.0,0.0,0.0,0,0,0,0,1,0,0,3,0,0,0,1,1,0,0
56512209,-0.0,0.0,0.55266273,0.039215688,0.0,0.0,0.0,0.0,0.0,0.0,0.0,0,0,0,0,1,0,0,3,0,0,0,1,1,0,0
56714565,-0.0,0.0,0.55266273,0.13970588,0.0,0.0,0.0,0.0,0.0,0.0,0.0,0,0,0,0,1,0,0,3,0,0,0,1,1,0,0
56914777,-0.0,0.0,0.5538462,0.15441176,0.0,0.0,0.0,0.0,0.0,0.0,0.0,0,0,0,0,1,0,0,3,0,0,0,1,1,0,0
57116538,-0.0,0.0,0.5538462,0.0,0.0,0.0,0.0,0.0,0.0,0.0,0.0,0,0,0,0,1,0,0,3,0,0,0,1,1,0,0
57315613,-0.0,0.0,0.5550296,0.0,0.0,0.0,0.0,0.0,0.0,0.0,0.0,0,0,0,0,1,0,0,3,0,0,0,1,1,0,0
57514035,-0.0,0.0,0.55266273,0.16176471,0.0,0.0,0.0,0.0,0.0,0.0,0.0,0,0,0,0,1,0,0,3,0,0,0,1,1,0,0
57714997,-0.0,0.0,0.5514793,0.24754901,0.0,0.0,0.0,0.0,0.0,0.0,0.0,0,0,0,0,1,0,0,3,0,0,0,1,1,0,0
57915654,-0.0,0.0,0.5514793,0.25735295,0.0,0.0,0.0,0.0,0.0,0.0,0.0,0,0,0,0,1,0,0,3,0,0,0,1,1,0,0
58116556,-0.0,0.0,0.54911244,0.30637255,0.0,0.0,0.0,0.0,0.0,0.0,0.0,0,0,0,0,1,0,0,3,0,0,0,1,1,0,0
58318092,-0.0,0.0,0.5502958,0.2622549,0.0,0.0,0.0,0.0,0.0,0.0,0.0,0,0,0,0,1,0,0,3,0,0,0,1,1,0,0
58518916,-0.0,0.0,0.54674554,0.12009804,0.0,0.0,0.0,0.0,0.0,0.0,0.0,0,0,0,0,1,0,0,3,0,0,0,1,1,0,0
58720758,-0.0,0.0,0.52662724,-0.0022779044,0.0,0.0,0.0,0.0,0.0,0.0,0.0,0,0,0,0,1,0,0,3,0,0,0,1,1,0,0
58921294,-0.0,0.0,0.51360947,-0.28018224,0.0,0.0,0.0,0.0,0.0,0.0,0.0,0,0,0,0,1,0,0,3,0,0,0,1,1,0,0
59122782,-0.0,0.0,0.5005917,-0.43735763,0.0,0.0,0.0,0.0,0.0,0.0,0.0,0,0,0,0,1,0,0,3,0,0,0,1,1,0,0
59323530,-0.0,0.0,0.49704143,-0.46469247,0.0,0.0,0.0,0.0,0.0,0.0,0.0,0,0,0,0,1,0,0,3,0,0,0,1,1,0,0
59523558,-0.0,0.0,0.49940827,-0.49430525,0.0,0.0,0.0,0.0,0.0,0.0,0.0,0,0,0,0,1,0,0,3,0,0,0,1,1,0,0
59722353,-0.0,0.0,0.49940827,-0.4851936,0.0,0.0,0.0,0.0,0.0,0.0,0.0,0,0,0,0,1,0,0,3,0,0,0,1,1,0,0
59920849,-0.0,0.0,0.49940827,-0.4692483,0.0,0.0,0.0,0.0,0.0,0.0,0.0,0,0,0,0,1,0,0,3,0,0,0,1,1,0,0
60122805,-0.0,0.0,0.5005917,-0.09339408,0.0,0.0,0.0,0.0,0.0,0.0,0.0,0,0,0,0,1,0,0,3,0,0,0,1,1,0,0
60321250,-0.0,0.0,0.49585798,0.0,0.0,0.0,0.0,0.0,0.0,0.0,0.0,0,0,0,0,1,0,0,3,0,0,0,1,1,0,0
60521887,-0.0,0.0,0.49585798,0.0,0.0,0.0,0.0,0.0,0.0,0.0,0.0,0,0,0,0,1,0,0,3,0,0,0,1,1,0,0
60719628,-0.0,0.014457831,0.49585798,0.0,0.0,0.0,0.0,0.0,0.0,0.0,0.0,0,0,0,0,1,0,0,3,0,0,0,1,1,0,0
60921940,-0.0,0.1493976,0.49585798,0.0,0.0,0.0,0.0,0.0,0.0,0.0,0.0,0,0,0,0,1,0,0,3,0,0,0,1,1,0,0
61121614,-0.0,0.21927711,0.49585798,0.0,0.0,0.0,0.0,0.0,0.0,0.0,0.0,0,0,0,0,1,0,0,3,0,0,0,1,1,0,0
61324581,-0.0,0.21445782,0.49585798,0.0,0.0,0.0,0.0,0.0,0.0,0.0,0.0,0,0,0,0,1,0,0,3,0,0,0,1,1,0,0
61519393,-0.0,0.19036144,0.49585798,0.0,0.0,0.0,0.0,0.0,0.0,0.0,0.0,0,0,0,0,1,0,0,3,0,0,0,1,1,0,0
61720399,-0.0,0.07951807,0.49585798,0.0,0.0,0.0,0.0,0.0,0.0,0.0,0.0,0,0,0,0,1,0,0,3,0,0,0,1,1,0,0
61921382,-0.057142857,0.0,0.49585798,0.0,0.0,0.0,0.0,0.0,0.0,0.0,0.0,0,0,0,0,1,0,0,3,0,0,0,1,1,0,0
62122765,-0.15476191,0.0,0.49585798,0.0,0.0,0.0,0.0,0.0,0.0,0.0,0.0,0,0,0,0,1,0,0,3,0,0,0,1,1,0,0
62321627,-0.20714286,0.0,0.49585798,0.0,0.0,0.0,0.0,0.0,0.0,0.0,0.0,0,0,0,0,1,0,0,3,0,0,0,1,1,0,0
62517370,-0.20952381,0.0,0.49704143,0.0,0.0,0.0,0.0,0.0,0.0,0.0,0.0,0,0,0,0,1,0,0,3,0,0,0,1,1,0,0
62714512,-0.1,0.0,0.49704143,0.0,0.0,0.0,0.0,0.0,0.0,0.0,0.0,0,0,0,0,1,0,0,3,0,0,0,1,1,0,0
62913475,-0.0,0.045783132,0.49704143,0.0,0.0,0.0,0.0,0.0,0.0,0.0,0.0,0,0,0,0,1,0,0,3,0,0,0,1,1,0,0
63108571,-0.0,0.20240964,0.49704143,0.0,0.0,0.0,0.0,0.0,0.0,0.0,0.0,0,0,0,0,1,0,0,3,0,0,0,1,1,0,0
63310365,-0.0,0.23373494,0.49704143,0.0,0.0,0.0,0.0,0.0,0.0,0.0,0.0,0,0,0,0,1,0,0,3,0,0,0,1,1,0,0
63510724,-0.0,0.23373494,0.49704143,0.0,0.0,0.0,0.0,0.0,0.0,0.0,0.0,0,0,0,0,1,0,0,3,0,0,0,1,1,0,0
63712957,-0.00952381,0.22650602,0.49704143,0.0,0.0,0.0,0.0,0.0,0.0,0.0,0.0,0,0,0,0,1,0,0,3,0,0,0,1,1,0,0
63913199,-0.021428572,0.19518073,0.49704143,0.0,0.0,0.0,0.0,0.0,0.0,0.0,0.0,0,0,0,0,1,0,0,3,0,0,0,1,1,0,0
64115170,-0.014285714,0.072289154,0.49704143,0.0,0.0,0.0,0.0,0.0,0.0,0.0,0.0,0,0,0,0,1,0,0,3,0,0,0,1,1,0,0
64314246,-0.0,0.0,0.49704143,0.0,0.0,0.0,0.0,0.0,0.0,0.0,0.0,0,0,0,0,1,0,0,3,0,0,0,1,1,0,0
64514130,-0.0,0.0,0.49704143,0.0,0.0,0.0,0.0,0.0,0.0,0.0,0.0,0,0,0,0,1,0,0,3,0,0,0,1,1,0,0
64716651,-0.0,0.0,0.49704143,0.0,0.0,0.0,0.0,0.0,0.0,0.0,0.0,0,0,0,0,1,0,0,3,0,0,0,1,1,0,0
64924792,-0.0,0.0,0.49704143,0.0,0.0,0.0,0.0,0.0,0.0,0.0,0.0,0,0,0,0,1,0,0,3,0,0,0,1,1,0,0
65117875,-0.0,0.0,0.49704143,0.0,0.0,0.0,0.0,0.0,0.0,0.0,0.0,0,0,0,0,1,0,0,3,0,0,0,1,1,0,0
65318734,-0.0,0.0,0.49704143,0.0,0.0,0.0,0.0,0.0,0.0,0.0,0.0,0,0,0,0,1,0,0,3,0,0,0,1,1,0,0
65520716,-0.0,0.0,0.49704143,0.0,0.0,0.0,0.0,0.0,0.0,0.0,0.0,0,0,0,0,1,0,0,3,0,0,0,1,1,0,0
65721065,-0.0,0.0,0.49704143,0.0,0.0,0.0,0.0,0.0,0.0,0.0,0.0,0,0,0,0,1,0,0,3,0,0,0,1,1,0,0
65922947,-0.0,0.0,0.49585798,0.0,0.0,0.0,0.0,0.0,0.0,0.0,0.0,0,0,0,0,1,0,0,3,0,0,0,1,1,0,0
66123477,-0.0,0.0,0.49585798,0.0,0.0,0.0,0.0,0.0,0.0,0.0,0.0,0,0,0,0,1,0,0,3,0,0,0,1,1,0,0
66324844,-0.0,0.0,0.49585798,0.0,0.0,0.0,0.0,0.0,0.0,0.0,0.0,0,0,0,0,1,0,0,3,0,0,0,1,1,0,0
66525829,-0.0,0.0,0.49585798,0.0,0.0,0.0,0.0,0.0,0.0,0.0,0.0,0,0,0,0,1,0,0,3,0,0,0,1,1,0,0
66727678,-0.0,0.0,0.49585798,0.0,0.0,0.0,0.0,0.0,0.0,0.0,0.0,0,0,0,0,1,0,0,3,0,0,0,1,1,0,0
66928252,-0.0,0.0,0.49585798,0.0,0.0,0.0,0.0,0.0,0.0,0.0,0.0,0,0,0,0,1,0,0,3,0,0,0,1,1,0,0
67106964,-0.0,0.0,0.49585798,0.0,0.0,0.0,0.0,0.0,0.0,0.0,0.0,0,0,0,0,1,0,0,3,0,0,0,1,1,0,0
67308362,-0.0,0.0,0.49585798,0.0,0.0,0.0,0.0,0.0,0.0,0.0,0.0,0,0,0,0,1,0,0,3,0,0,0,1,1,0,0
67509274,-0.0,0.0,0.49585798,0.0,0.0,0.0,0.0,0.0,0.0,0.0,0.0,0,0,0,0,1,0,0,3,0,0,0,1,1,0,0
67711603,-0.0,0.0,0.49585798,0.0,0.0,0.0,0.0,0.0,0.0,0.0,0.0,0,0,0,0,1,0,0,3,0,0,0,1,1,0,0
67911630,-0.0,0.0,0.49585798,0.0,0.0,0.0,0.0,0.0,0.0,0.0,0.0,0,0,0,0,1,0,0,3,0,0,0,1,1,0,0
68113889,-0.0,0.0,0.49585798,0.0,0.0,0.0,0.0,0.0,0.0,0.0,0.0,0,0,0,0,1,0,0,3,0,0,0,1,1,0,0
68312194,0.05035971,0.0,0.49585798,0.0,0.0,0.0,0.0,0.0,0.0,0.0,0.0,0,0,0,0,1,0,0,3,0,0,0,1,1,0,0
68512808,0.11990408,0.0,0.49585798,0.0,0.0,0.0,0.0,0.0,0.0,0.0,0.0,0,0,0,0,1,0,0,3,0,0,0,1,1,0,0
68714700,0.16786571,0.0,0.49585798,0.0,0.0,0.0,0.0,0.0,0.0,0.0,0.0,0,0,0,0,1,0,0,3,0,0,0,1,1,0,0
68913321,0.16306955,0.0,0.49585798,0.0,0.0,0.0,0.0,0.0,0.0,0.0,0.0,0,0,0,0,1,0,0,3,0,0,0,1,1,0,0
69111437,0.14628297,0.0,0.49704143,0.0,0.0,0.0,0.0,0.0,0.0,0.0,0.0,0,0,0,0,1,0,0,3,0,0,0,1,1,0,0
69312493,0.15107913,0.0,0.49704143,0.0,0.0,0.0,0.0,0.0,0.0,0.0,0.0,0,0,0,0,1,0,0,3,0,0,0,1,1,0,0
69513647,0.16546762,0.0,0.49704143,0.0,0.0,0.0,0.0,0.0,0.0,0.0,0.0,0,0,0,0,1,0,0,3,0,0,0,1,1,0,0
69712321,0.1822542,0.0,0.49585798,0.0,0.0,0.0,0.0,0.0,0.0,0.0,0.0,0,0,0,0,1,0,0,3,0,0,0,1,1,0,0
69911067,0.22541967,0.0,0.49585798,0.0,0.0,0.0,0.0,0.0,0.0,0.0,0.0,0,0,0,0,1,0,0,3,0,0,0,1,1,0,0
70112099,0.2326139,0.0,0.49704143,0.0,0.0,0.0,0.0,0.0,0.0,0.0,0.0,0,0,0,0,1,0,0,3,0,0,0,1,1,0,0
70314348,0.2326139,0.0,0.49704143,0.0,0.0,0.0,0.0,0.0,0.0,0.0,0.0,0,0,0,0,1,0,0,3,0,0,0,1,1,0,0
70514397,0.22781774,0.0,0.49704143,0.0,0.0,0.0,0.0,0.0,0.0,0.0,0.0,0,0,0,0,1,0,0,3,0,0,0,1,1,0,0
70715673,0.235012,0.0,0.49704143,0.0,0.0,0.0,0.0,0.0,0.0,0.0,0.0,0,0,0,0,1,0,0,3,0,0,0,1,1,0,0
70916779,0.23980816,0.0,0.49704143,0.0,0.0,0.0,0.0,0.0,0.0,0.0,0.0,0,0,0,0,1,0,0,3,0,0,0,1,1,0,0
71115462,0.23980816,0.0,0.49704143,0.0,0.0,0.0,0.0,0.0,0.0,0.0,0.0,0,0,0,0,1,0,0,3,0,0,0,1,1,0,0
71314021,0.23741007,0.0,0.49704143,0.0,0.0,0.0,0.0,0.0,0.0,0.0,0.0,0,0,0,0,1,0,0,3,0,0,0,1,1,0,0
71515481,0.22781774,0.0,0.49704143,0.0,0.0,0.0,0.0,0.0,0.0,0.0,0.0,0,0,0,0,1,0,0,3,0,0,0,1,1,0,0
71716441,0.22781774,0.0,0.49704143,0.0,0.0,0.0,0.0,0.0,0.0,0.0,0.0,0,0,0,0,1,0,0,3,0,0,0,1,1,0,0
71915137,0.21582733,0.0,0.49704143,0.0,0.0,0.0,0.0,0.0,0.0,0.0,0.0,0,0,0,0,1,0,0,3,0,0,0,1,1,0,0
72116333,0.206235,0.0,0.49704143,0.0,0.0,0.0,0.0,0.0,0.0,0.0,0.0,0,0,0,0,1,0,0,3,0,0,0,1,1,0,0
72317543,0.20383693,0.0,0.49704143,0.0,0.0,0.0,0.0,0.0,0.0,0.0,0.0,0,0,0,0,1,0,0,3,0,0,0,1,1,0,0
72518783,0.16306955,0.0,0.49585798,0.0,0.0,0.0,0.0,0.0,0.0,0.0,0.0,0,0,0,0,1,0,0,3,0,0,0,1,1,0,0
72719754,0.11510792,0.0,0.49704143,0.0,0.0,0.0,0.0,0.0,0.0,0.0,0.0,0,0,0,0,1,0,0,3,0,0,0,1,1,0,0
72921656,0.0647482,0.0,0.49585798,0.0,0.0,0.0,0.0,0.0,0.0,0.0,0.0,0,0,0,0,1,0,0,3,0,0,0,1,1,0,0
73099930,0.07194245,0.0,0.4934911,0.0,0.0,0.0,0.0,0.0,0.0,0.0,0.0,0,0,0,0,1,0,0,3,0,0,0,1,1,0,0
73320755,-0.0,0.0,0.49585798,0.0,0.0,0.0,0.0,0.0,0.0,0.0,0.0,0,0,0,0,1,0,0,3,0,0,0,1,1,0,0
73522477,-0.0,-0.028436018,0.49585798,0.0,0.0,0.0,0.0,0.0,0.0,0.0,0.0,0,0,0,0,1,0,0,3,0,0,0,1,1,0,0
73722964,-0.0,-0.13033175,0.49585798,0.0,0.0,0.0,0.0,0.0,0.0,0.0,0.0,0,0,0,0,1,0,0,3,0,0,0,1,1,0,0
73924824,-0.0,-0.14454976,0.49585798,0.0,0.0,0.0,0.0,0.0,0.0,0.0,0.0,0,0,0,0,1,0,0,3,0,0,0,1,1,0,0
74123621,-0.0,-0.14454976,0.49585798,0.0,0.0,0.0,0.0,0.0,0.0,0.0,0.0,0,0,0,0,1,0,0,3,0,0,0,1,1,0,0
74321724,-0.0,-0.13981043,0.49585798,0.0,0.0,0.0,0.0,0.0,0.0,0.0,0.0,0,0,0,0,1,0,0,3,0,0,0,1,1,0,0
74522774,-0.0,-0.17535545,0.49585798,0.0,0.0,0.0,0.0,0.0,0.0,0.0,0.0,0,0,0,0,1,0,0,3,0,0,0,1,1,0,0
74724578,-0.0,-0.19905214,0.49585798,0.0,0.0,0.0,0.0,0.0,0.0,0.0,0.0,0,0,0,0,1,0,0,3,0,0,0,1,1,0,0
74923301,-0.0,-0.20379147,0.49704143,0.0,0.0,0.0,0.0,0.0,0.0,0.0,0.0,0,0,0,0,1,0,0,3,0,0,0,1,1,0,0
75122147,-0.0,-0.20379147,0.49585798,0.0,0.0,0.0,0.0,0.0,0.0,0.0,0.0,0,0,0,0,1,0,0,3,0,0,0,1,1,0,0
75322352,-0.0,-0.2014218,0.49585798,0.0,0.0,0.0,0.0,0.0,0.0,0.0,0.0,0,0,0,0,1,0,0,3,0,0,0,1,1,0,0
75524489,-0.0,-0.22511849,0.49585798,0.0,0.0,0.0,0.0,0.0,0.0,0.0,0.0,0,0,0,0,1,0,0,3,0,0,0,1,1,0,0
75724768,-0.0,-0.24170616,0.49585798,0.0,0.0,0.0,0.0,0.0,0.0,0.0,0.0,0,0,0,0,1,0,0,3,0,0,0,1,1,0,0
75923433,-0.0,-0.24881516,0.49585798,0.0,0.0,0.0,0.0,0.0,0.0,0.0,0.0,0,0,0,0,1,0,0,3,0,0,0,1,1,0,0
76121006,-0.0,-0.22748815,0.49585798,0.0,0.0,0.0,0.0,0.0,0.0,0.0,0.0,0,0,0,0,1,0,0,3,0,0,0,1,1,0,0
76320757,-0.0,-0.22037914,0.49585798,0.0,0.0,0.0,0.0,0.0,0.0,0.0,0.0,0,0,0,0,1,0,0,3,0,0,0,1,1,0,0
76522555,-0.0,-0.21563981,0.49704143,0.0,0.0,0.0,0.0,0.0,0.0,0.0,0.0,0,0,0,0,1,0,0,3,0,0,0,1,1,0,0
76721412,-0.0,-0.1800948,0.49704143,0.0,0.0,0.0,0.0,0.0,0.0,0.0,0.0,0,0,0,0,1,0,0,3,0,0,0,1,1,0,0
76919536,-0.0,-0.1635071,0.49704143,0.0,0.0,0.0,0.0,0.0,0.0,0.0,0.0,0,0,0,0,1,0,0,3,0,0,0,1,1,0,0
77118359,-0.0,-0.15876777,0.49822485,0.0,0.0,0.0,0.0,0.0,0.0,0.0,0.0,0,0,0,0,1,0,0,3,0,0,0,1,1,0,0
77317617,-0.0,-0.1563981,0.49704143,0.0,0.0,0.0,0.0,0.0,0.0,0.0,0.0,0,0,0,0,1,0,0,3,0,0,0,1,1,0,0
77516348,-0.0,-0.15402843,0.49940827,0.0,0.0,0.0,0.0,0.0,0.0,0.0,0.0,0,0,0,0,1,0,0,3,0,0,0,1,1,0,0
77716642,-0.0,-0.13033175,0.49940827,-0.0022779044,0.0,0.0,0.0,0.0,0.0,0.0,0.0,0,0,0,0,1,0,0,3,0,0,0,1,1,0,0
77915558,-0.0,-0.12085308,0.49940827,-0.082004555,0.0,0.0,0.0,0.0,0.0,0.0,0.0,0,0,0,0,1,0,0,3,0,0,0,1,1,0,0
78116511,-0.0,-0.12085308,0.49940827,-0.14578588,0.0,0.0,0.0,0.0,0.0,0.0,0.0,0,0,0,0,1,0,0,3,0,0,0,1,1,0,0
78317495,-0.0,-0.11848341,0.49940827,-0.17312072,0.0,0.0,0.0,0.0,0.0,0.0,0.0,0,0,0,0,1,0,0,3,0,0,0,1,1,0,0
78516320,-0.0,-0.11848341,0.49822485,-0.21412301,0.0,0.0,0.0,0.0,0.0,0.0,0.0,0,0,0,0,1,0,0,3,0,0,0,1,1,0,0
78717644,-0.0,-0.116113745,0.49822485,-0.24145786,0.0,0.0,0.0,0.0,0.0,0.0,0.0,0,0,0,0,1,0,0,3,0,0,0,1,1,0,0
78916333,-0.0,-0.116113745,0.49940827,-0.30068338,0.0,0.0,0.0,0.0,0.0,0.0,0.0,0,0,0,0,1,0,0,3,0,0,0,1,1,0,0
79115033,-0.0,-0.116113745,0.49940827,-0.39407745,0.0,0.0,0.0,0.0,0.0,0.0,0.0,0,0,0,0,1,0,0,3,0,0,0,1,1,0,0
79315549,-0.0,-0.11374407,0.5005917,-0.44646925,0.0,0.0,0.0,0.0,0.0,0.0,0.0,0,0,0,0,1,0,0,3,0,0,0,1,1,0,0
79514639,-0.0,-0.11374407,0.49940827,-0.44646925,0.0,0.0,0.0,0.0,0.0,0.0,0.0,0,0,0,0,1,0,0,3,0,0,0,1,1,0,0
79712282,-0.0,-0.11374407,0.49940827,-0.49202734,0.0,0.0,0.0,0.0,0.0,0.0,0.0,0,0,0,0,1,0,0,3,0,0,0,1,1,0,0
79911088,-0.0,-0.11374407,0.49940827,-0.46697038,0.0,0.0,0.0,0.0,0.0,0.0,0.0,0,0,0,0,1,0,0,3,0,0,0,1,1,0,0
80112000,-0.0,-0.11374407,0.49940827,-0.3690205,0.0,0.0,0.0,0.0,0.0,0.0,0.0,0,0,0,0,1,0,0,3,0,0,0,1,1,0,0
80314187,-0.0,-0.116113745,0.49940827,-0.020501139,0.0,0.0,0.0,0.0,0.0,0.0,0.0,0,0,0,0,1,0,0,3,0,0,0,1,1,0,0
80513018,-0.0,-0.123222746,0.49822485,0.0,0.0,0.0,0.0,0.0,0.0,0.0,0.0,0,0,0,0,1,0,0,3,0,0,0,1,1,0,0
80715039,-0.0,-0.12559241,0.49822485,0.0,0.0,0.0,0.0,0.0,0.0,0.0,0.0,0,0,0,0,1,0,0,3,0,0,0,1,1,0,0
80910458,-0.0,-0.12559241,0.49940827,0.0,0.0,0.0,0.0,0.0,0.0,0.0,0.0,0,0,0,0,1,0,0,3,0,0,0,1,1,0,0
81112927,-0.0,-0.12559241,0.5005917,-0.061503418,0.0,0.0,0.0,0.0,0.0,0.0,0.0,0,0,0,0,1,0,0,3,0,0,0,1,1,0,0
81310447,-0.0,-0.12559241,0.49940827,0.0,0.0,0.0,0.0,0.0,0.0,0.0,0.0,0,0,0,0,1,0,0,3,0,0,0,1,1,0,0
81511551,-0.0,-0.12559241,0.49940827,0.0,0.0,0.0,0.0,0.0,0.0,0.0,0.0,0,0,0,0,1,0,0,3,0,0,0,1,1,0,0
81710092,-0.0,-0.12559241,0.49940827,0.0,0.0,0.0,0.0,0.0,0.0,0.0,0.0,0,0,0,0,1,0,0,3,0,0,0,1,1,0,0
81911417,-0.0,-0.12085308,0.49940827,-0.06378132,0.0,0.0,0.0,0.0,0.0,0.0,0.0,0,0,0,0,1,0,0,3,0,0,0,1,1,0,0
82110150,-0.0,-0.13033175,0.49585798,0.0,0.0,0.0,0.0,0.0,0.0,0.0,0.0,0,0,0,0,1,0,0,3,0,0,0,1,1,0,0
82328717,-0.0,-0.13270143,0.4934911,0.12254902,0.0,0.0,0.0,0.0,0.0,0.0,0.0,0,0,0,0,1,0,0,3,0,0,0,1,1,0,0
82507466,-0.0,-0.13270143,0.4934911,0.1495098,0.0,0.0,0.0,0.0,0.0,0.0,0.0,0,0,0,0,1,0,0,3,0,0,0,1,1,0,0
82711020,-0.0,-0.13744076,0.49585798,0.17892157,0.0,0.0,0.0,0.0,0.0,0.0,0.0,0,0,0,0,1,0,0,3,0,0,0,1,1,0,0
82909739,-0.0,-0.13744076,0.49585798,0.23529412,0.0,0.0,0.0,0.0,0.0,0.0,0.0,0,0,0,0,1,0,0,3,0,0,0,1,1,0,0
83105807,-0.0,-0.13744076,0.49585798,0.31862745,0.0,0.0,0.0,0.0,0.0,0.0,0.0,0,0,0,0,1,0,0,3,0,0,0,1,1,0,0
83307306,-0.0,-0.13981043,0.49585798,0.3602941,0.0,0.0,0.0,0.0,0.0,0.0,0.0,0,0,0,0,1,0,0,3,0,0,0,1,1,0,0
83526987,-0.0,-0.13981043,0.49585798,0.35539216,0.0,0.0,0.0,0.0,0.0,0.0,0.0,0,0,0,0,1,0,0,3,0,0,0,1,1,0,0
83724447,-0.0,-0.13033175,0.49585798,0.12990196,0.0,0.0,0.0,0.0,0.0,0.0,0.0,0,0,0,0,1,0,0,3,0,0,0,1,1,0,0
83921626,-0.0,-0.13744076,0.49585798,0.19117647,0.0,0.0,0.0,0.0,0.0,0.0,0.0,0,0,0,0,1,0,0,3,0,0,0,1,1,0,0
84120219,-0.0,-0.14691943,0.48757395,0.4019608,0.0,0.0,0.0,0.0,0.0,0.0,0.0,0,0,0,0,1,0,0,3,0,0,0,1,1,0,0
84320334,-0.0,-0.1492891,0.48757395,0.4117647,0.0,0.0,0.0,0.0,0.0,0.0,0.0,0,0,0,0,1,0,0,3,0,0,0,1,1,0,0
84515873,-0.0,-0.1492891,0.48757395,0.40931374,0.0,0.0,0.0,0.0,0.0,0.0,0.0,0,0,0,0,1,0,0,3,0,0,0,1,1,0,0
84712836,-0.0,-0.1421801,0.4887574,0.32843137,0.0,0.0,0.0,0.0,0.0,0.0,0.0,0,0,0,0,1,0,0,3,0,0,0,1,1,0,0
84913820,-0.0,-0.12559241,0.49585798,0.0,0.0,0.0,0.0,0.0,0.0,0.0,0.0,0,0,0,0,1,0,0,3,0,0,0,1,1,0,0
85112431,-0.0,-0.12796208,0.49585798,0.0,0.0,0.0,0.0,0.0,0.0,0.0,0.0,0,0,0,0,1,0,0,3,0,0,0,1,1,0,0
85315552,-0.0,-0.1492891,0.49822485,0.1740196,0.0,0.0,0.0,0.0,0.0,0.0,0.0,0,0,0,0,1,0,0,3,0,0,0,1,1,0,0
85515625,-0.0,-0.1492891,0.49822485,0.22794117,0.0,0.0,0.0,0.0,0.0,0.0,0.0,0,0,0,0,1,0,0,3,0,0,0,1,1,0,0
85716264,-0.0,-0.123222746,0.49940827,0.0,0.0,0.0,0.0,0.0,0.0,0.0,0.0,0,0,0,0,1,0,0,3,0,0,0,1,1,0,0
85917149,-0.0,-0.13744076,0.49940827,0.0,0.0,0.0,0.0,0.0,0.0,0.0,0.0,0,0,0,0,1,0,0,3,0,0,0,1,1,0,0
86120275,-0.0,-0.13033175,0.49940827,0.12745099,0.0,0.0,0.0,0.0,0.0,0.0,0.0,0,0,0,0,1,0,0,3,0,0,0,1,1,0,0
86319400,-0.0,-0.12559241,0.49822485,0.09558824,0.0,0.0,0.0,0.0,0.0,0.0,0.0,0,0,0,0,1,0,0,3,0,0,0,1,1,0,0
86522280,-0.0,-0.13033175,0.49822485,0.0,0.0,0.0,0.0,0.0,0.0,0.0,0.0,0,0,0,0,1,0,0,3,0,0,0,1,1,0,0
86722609,-0.0,-0.11848341,0.49940827,0.0,0.0,0.0,0.0,0.0,0.0,0.0,0.0,0,0,0,0,1,0,0,3,0,0,0,1,1,0,0
86923577,-0.0,-0.10663507,0.49940827,0.0,0.0,0.0,0.0,0.0,0.0,0.0,0.0,0,0,0,0,1,0,0,3,0,0,0,1,1,0,0
87121974,-0.0,-0.10663507,0.49940827,0.0,0.0,0.0,0.0,0.0,0.0,0.0,0.0,0,0,0,0,1,0,0,3,0,0,0,1,1,0,0
87320649,-0.0,-0.061611373,0.49940827,0.0,0.0,0.0,0.0,0.0,0.0,0.0,0.0,0,0,0,0,1,0,0,3,0,0,0,1,1,0,0
87521447,-0.0,0.0,0.49940827,0.0,0.0,0.0,0.0,0.0,0.0,0.0,0.0,0,0,0,0,1,0,0,3,0,0,0,1,1,0,0
87720082,-0.0,0.0,0.49940827,0.0,0.0,0.0,0.0,0.0,0.0,0.0,0.0,0,0,0,0,1,0,0,3,0,0,0,1,1,0,0
87921899,-0.0,0.009638554,0.49940827,0.0,0.0,0.0,0.0,0.0,0.0,0.0,0.0,0,0,0,0,1,0,0,3,0,0,0,1,1,0,0
88122530,-0.0,0.06746988,0.49940827,0.0,0.0,0.0,0.0,0.0,0.0,0.0,0.0,0,0,0,0,1,0,0,3,0,0,0,1,1,0,0
88324329,-0.0,0.09638554,0.49940827,0.0,0.0,0.0,0.0,0.0,0.0,0.0,0.0,0,0,0,0,1,0,0,3,0,0,0,1,1,0,0
88524737,-0.0,0.08192771,0.49940827,0.0,0.0,0.0,0.0,0.0,0.0,0.0,0.0,0,0,0,0,1,0,0,3,0,0,0,1,1,0,0
88726214,-0.0,0.06987952,0.49940827,0.0,0.0,0.0,0.0,0.0,0.0,0.0,0.0,0,0,0,0,1,0,0,3,0,0,0,1,1,0,0
88904864,-0.0,0.0,0.49940827,0.0,0.0,0.0,0.0,0.0,0.0,0.0,0.0,0,0,0,0,1,0,0,3,0,0,0,1,1,0,0
89125781,-0.0,0.0,0.49822485,0.0,0.0,0.0,0.0,0.0,0.0,0.0,0.0,0,0,0,0,1,0,0,3,0,0,0,1,1,0,0
89327158,-0.0,0.028915662,0.49822485,0.0,0.0,0.0,0.0,0.0,0.0,0.0,0.0,0,0,0,0,1,0,0,3,0,0,0,1,1,0,0
89526512,-0.0,0.0,0.49822485,0.0,0.0,0.0,0.0,0.0,0.0,0.0,0.0,0,0,0,0,1,0,0,3,0,0,0,1,1,0,0
89726874,-0.0,0.08915663,0.49822485,0.0,0.0,0.0,0.0,0.0,0.0,0.0,0.0,0,0,0,0,1,0,0,3,0,0,0,1,1,0,0
89905796,-0.0,0.13253012,0.49822485,0.0,0.0,0.0,0.0,0.0,0.0,0.0,0.0,0,0,0,0,1,0,0,3,0,0,0,1,1,0,0
90104349,-0.0,0.12530121,0.49822485,0.0,0.0,0.0,0.0,0.0,0.0,0.0,0.0,0,0,0,0,1,0,0,3,0,0,0,1,1,0,0
90326271,-0.0,0.084337346,0.49822485,0.0,0.0,0.0,0.0,0.0,0.0,0.0,0.0,0,0,0,0,1,0,0,3,0,0,0,1,1,0,0
90526538,-0.0,0.019277109,0.49940827,0.0,0.0,0.0,0.0,0.0,0.0,0.0,0.0,0,0,0,0,1,0,0,3,0,0,0,1,1,0,0
90725281,-0.0,0.028915662,0.49940827,0.0,0.0,0.0,0.0,0.0,0.0,0.0,0.0,0,0,0,0,1,0,0,3,0,0,0,1,1,0,0
90926563,-0.0,0.06506024,0.49940827,0.0,0.0,0.0,0.0,0.0,0.0,0.0,0.0,0,0,0,0,1,0,0,3,0,0,0,1,1,0,0
91127477,-0.0,0.08192771,0.49940827,0.0,0.0,0.0,0.0,0.0,0.0,0.0,0.0,0,0,0,0,1,0,0,3,0,0,0,1,1,0,0
91306408,-0.0,0.106024094,0.49940827,0.0,0.0,0.0,0.0,0.0,0.0,0.0,0.0,0,0,0,0,1,0,0,3,0,0,0,1,1,0,0
91515503,-0.0,0.1373494,0.49940827,0.0,0.0,0.0,0.0,0.0,0.0,0.0,0.0,0,0,0,0,1,0,0,3,0,0,0,1,1,0,0
91708642,-0.0,0.15421687,0.49940827,0.0,0.0,0.0,0.0,0.0,0.0,0.0,0.0,0,0,0,0,1,0,0,3,0,0,0,1,1,0,0
91910103,-0.0,0.13975903,0.49940827,0.0,0.0,0.0,0.0,0.0,0.0,0.0,0.0,0,0,0,0,1,0,0,3,0,0,0,1,1,0,0
92111002,-0.0,0.072289154,0.49822485,0.0,0.0,0.0,0.0,0.0,0.0,0.0,0.0,0,0,0,0,1,0,0,3,0,0,0,1,1,0,0
92313171,-0.0,0.0,0.49822485,0.0,0.0,0.0,0.0,0.0,0.0,0.0,0.0,0,0,0,0,1,0,0,3,0,0,0,1,1,0,0
92511140,-0.0,0.0,0.49822485,0.0,0.0,0.0,0.0,0.0,0.0,0.0,0.0,0,0,0,0,1,0,0,3,0,0,0,1,1,0,0
92712204,-0.0,0.0,0.49822485,0.0,0.0,0.0,0.0,0.0,0.0,0.0,0.0,0,0,0,0,1,0,0,3,0,0,0,1,1,0,0
92914493,-0.0,0.0,0.49822485,0.0,0.0,0.0,0.0,0.0,0.0,0.0,0.0,0,0,0,0,1,0,0,3,0,0,0,1,1,0,0
93112121,-0.0,0.0,0.49585798,0.0,0.0,0.0,0.0,0.0,0.0,0.0,0.0,0,0,0,0,1,0,0,3,0,0,0,1,1,0,0
93313020,-0.0,0.0,0.49585798,0.0,0.0,0.0,0.0,0.0,0.0,0.0,0.0,0,0,0,0,1,0,0,3,0,0,0,1,1,0,0
93515274,-0.0,0.0,0.4934911,0.0,0.0,0.0,0.0,0.0,0.0,0.0,0.0,0,0,0,0,1,0,0,3,0,0,0,1,1,0,0
93715426,-0.0,0.0,0.4934911,0.0,0.0,0.0,0.0,0.0,0.0,0.0,0.0,0,0,0,0,1,0,0,3,0,0,0,1,1,0,0
93916707,-0.0,0.0,0.49585798,0.0,0.0,0.0,0.0,0.0,0.0,0.0,0.0,0,0,0,0,1,0,0,3,0,0,0,1,1,0,0
94115520,-0.0,0.0,0.49585798,0.0,0.0,0.0,0.0,0.0,0.0,0.0,0.0,0,0,0,0,1,0,0,3,0,0,0,1,1,0,0
94314171,-0.0,0.0,0.49585798,0.0,0.0,0.0,0.0,0.0,0.0,0.0,0.0,0,0,0,0,1,0,0,3,0,0,0,1,1,0,0
94513804,0.040767387,0.0,0.49585798,0.0,0.0,0.0,0.0,0.0,0.0,0.0,0.0,0,0,0,0,1,0,0,3,0,0,0,1,1,0,0
94713760,0.0647482,0.0,0.49585798,0.0,0.0,0.0,0.0,0.0,0.0,0.0,0.0,0,0,0,0,1,0,0,3,0,0,0,1,1,0,0
94912361,0.08153477,0.0,0.49585798,0.0,0.0,0.0,0.0,0.0,0.0,0.0,0.0,0,0,0,0,1,0,0,3,0,0,0,1,1,0,0
95111115,0.107913665,0.0,0.49585798,0.0,0.0,0.0,0.0,0.0,0.0,0.0,0.0,0,0,0,0,1,0,0,3,0,0,0,1,1,0,0
95309945,0.12709832,0.0,0.49585798,0.0,0.0,0.0,0.0,0.0,0.0,0.0,0.0,0,0,0,0,1,0,0,3,0,0,0,1,1,0,0
95508547,0.13429257,0.0,0.49585798,0.0,0.0,0.0,0.0,0.0,0.0,0.0,0.0,0,0,0,0,1,0,0,3,0,0,0,1,1,0,0
95709877,0.13429257,0.0,0.49585798,0.0,0.0,0.0,0.0,0.0,0.0,0.0,0.0,0,0,0,0,1,0,0,3,0,0,0,1,1,0,0
95910786,0.1294964,0.0,0.49585798,0.0,0.0,0.0,0.0,0.0,0.0,0.0,0.0,0,0,0,0,1,0,0,3,0,0,0,1,1,0,0
96113116,0.1294964,0.0,0.49585798,0.0,0.0,0.0,0.0,0.0,0.0,0.0,0.0,0,0,0,0,1,0,0,3,0,0,0,1,1,0,0
96311520,0.1438849,0.0,0.49585798,0.0,0.0,0.0,0.0,0.0,0.0,0.0,0.0,0,0,0,0,1,0,0,3,0,0,0,1,1,0,0
96511763,0.16067146,0.0,0.49585798,0.0,0.0,0.0,0.0,0.0,0.0,0.0,0.0,0,0,0,0,1,0,0,3,0,0,0,1,1,0,0
96713842,0.16306955,0.0,0.49585798,0.0,0.0,0.0,0.0,0.0,0.0,0.0,0.0,0,0,0,0,1,0,0,3,0,0,0,1,1,0,0
96911775,0.16306955,0.0,0.49585798,0.0,0.0,0.0,0.0,0.0,0.0,0.0,0.0,0,0,0,0,1,0,0,3,0,0,0,1,1,0,0
97110581,0.16306955,0.0,0.49585798,0.0,0.0,0.0,0.0,0.0,0.0,0.0,0.0,0,0,0,0,1,0,0,3,0,0,0,1,1,0,0
97309283,0.16546762,0.0,0.49585798,0.0,0.0,0.0,0.0,0.0,0.0,0.0,0.0,0,0,0,0,1,0,0,3,0,0,0,1,1,0,0
97507996,0.16067146,0.0,0.49585798,0.0,0.0,0.0,0.0,0.0,0.0,0.0,0.0,0,0,0,0,1,0,0,3,0,0,0,1,1,0,0
97707307,0.16306955,0.0,0.49585798,0.0,0.0,0.0,0.0,0.0,0.0,0.0,0.0,0,0,0,0,1,0,0,3,0,0,0,1,1,0,0
97927567,0.17745803,0.0,0.49585798,0.0,0.0,0.0,0.0,0.0,0.0,0.0,0.0,0,0,0,0,1,0,0,3,0,0,0,1,1,0,0
98126269,0.2086331,0.0,0.49585798,0.0,0.0,0.0,0.0,0.0,0.0,0.0,0.0,0,0,0,0,1,0,0,3,0,0,0,1,1,0,0
98324830,0.21822542,0.0,0.49585798,0.0,0.0,0.0,0.0,0.0,0.0,0.0,0.0,0,0,0,0,1,0,0,3,0,0,0,1,1,0,0
98521597,0.22302158,0.0,0.49585798,0.0,0.0,0.0,0.0,0.0,0.0,0.0,0.0,0,0,0,0,1,0,0,3,0,0,0,1,1,0,0
98719890,0.21822542,0.0,0.49585798,0.0,0.0,0.0,0.0,0.0,0.0,0.0,0.0,0,0,0,0,1,0,0,3,0,0,0,1,1,0,0
98918764,0.21342926,0.0,0.49585798,0.0,0.0,0.0,0.0,0.0,0.0,0.0,0.0,0,0,0,0,1,0,0,3,0,0,0,1,1,0,0
99114729,0.17745803,0.0,0.49585798,0.0,0.0,0.0,0.0,0.0,0.0,0.0,0.0,0,0,0,0,1,0,0,3,0,0,0,1,1,0,0
99315982,0.17026378,0.0,0.49585798,0.0,0.0,0.0,0.0,0.0,0.0,0.0,0.0,0,0,0,0,1,0,0,3,0,0,0,1,1,0,0
99516822,0.17026378,0.0,0.49585798,0.0,0.0,0.0,0.0,0.0,0.0,0.0,0.0,0,0,0,0,1,0,0,3,0,0,0,1,1,0,0
99715736,0.17505996,0.0,0.49585798,0.0,0.0,0.0,0.0,0.0,0.0,0.0,0.0,0,0,0,0,1,0,0,3,0,0,0,1,1,0,0
99916934,0.17985612,0.0,0.49585798,0.0,0.0,0.0,0.0,0.0,0.0,0.0,0.0,0,0,0,0,1,0,0,3,0,0,0,1,1,0,0
100116580,0.206235,0.0,0.49585798,0.0,0.0,0.0,0.0,0.0,0.0,0.0,0.0,0,0,0,0,1,0,0,3,0,0,0,1,1,0,0
100316722,0.21582733,0.0,0.49585798,0.0,0.0,0.0,0.0,0.0,0.0,0.0,0.0,0,0,0,0,1,0,0,3,0,0,0,1,1,0,0
100515405,0.21822542,0.0,0.49585798,0.0,0.0,0.0,0.0,0.0,0.0,0.0,0.0,0,0,0,0,1,0,0,3,0,0,0,1,1,0,0
100716616,0.22302158,0.0,0.49585798,0.0,0.0,0.0,0.0,0.0,0.0,0.0,0.0,0,0,0,0,1,0,0,3,0,0,0,1,1,0,0
100917566,0.22302158,0.0,0.49585798,0.0,0.0,0.0,0.0,0.0,0.0,0.0,0.0,0,0,0,0,1,0,0,3,0,0,0,1,1,0,0
101118987,0.21822542,0.0,0.49585798,0.0,0.0,0.0,0.0,0.0,0.0,0.0,0.0,0,0,0,0,1,0,0,3,0,0,0,1,1,0,0
101320212,0.16546762,0.0,0.49585798,0.0,0.0,0.0,0.0,0.0,0.0,0.0,0.0,0,0,0,0,1,0,0,3,0,0,0,1,1,0,0
101521672,0.17985612,0.0,0.49585798,0.0,0.0,0.0,0.0,0.0,0.0,0.0,0.0,0,0,0,0,1,0,0,3,0,0,0,1,1,0,0
101700052,0.13908873,0.0,0.49585798,0.0,0.0,0.0,0.0,0.0,0.0,0.0,0.0,0,0,0,0,1,0,0,3,0,0,0,1,1,0,0
101920945,0.22302158,0.0,0.49585798,0.0,0.0,0.0,0.0,0.0,0.0,0.0,0.0,0,0,0,0,1,0,0,3,0,0,0,1,1,0,0
102122709,0.25419664,0.0,0.49585798,0.0,0.0,0.0,0.0,0.0,0.0,0.0,0.0,0,0,0,0,1,0,0,3,0,0,0,1,1,0,0
102318525,0.2470024,0.0,0.49585798,0.0,0.0,0.0,0.0,0.0,0.0,0.0,0.0,0,0,0,0,1,0,0,3,0,0,0,1,1,0,0
102516964,0.206235,0.0,0.49585798,0.0,0.0,0.0,0.0,0.0,0.0,0.0,0.0,0,0,0,0,1,0,0,3,0,0,0,1,1,0,0
102718338,0.19424461,0.0,0.49585798,0.0,0.0,0.0,0.0,0.0,0.0,0.0,0.0,0,0,0,0,1,0,0,3,0,0,0,1,1,0,0
102917089,0.22781774,0.0,0.49585798,0.0,0.0,0.0,0.0,0.0,0.0,0.0,0.0,0,0,0,0,1,0,0,3,0,0,0,1,1,0,0
103117993,0.26378897,0.0,0.49585798,0.0,0.0,0.0,0.0,0.0,0.0,0.0,0.0,0,0,0,0,1,0,0,3,0,0,0,1,1,0,0
103319526,0.26618704,0.0,0.49585798,0.0,0.0,0.0,0.0,0.0,0.0,0.0,0.0,0,0,0,0,1,0,0,3,0,0,0,1,1,0,0
103518024,0.26618704,0.0,0.49585798,0.0,0.0,0.0,0.0,0.0,0.0,0.0,0.0,0,0,0,0,1,0,0,3,0,0,0,1,1,0,0
103719274,0.26618704,0.0,0.49704143,0.0,0.0,0.0,0.0,0.0,0.0,0.0,0.0,0,0,0,0,1,0,0,3,0,0,0,1,1,0,0
103915356,0.23741007,0.0,0.49704143,0.0,0.0,0.0,0.0,0.0,0.0,0.0,0.0,0,0,0,0,1,0,0,3,0,0,0,1,1,0,0
104116319,0.21822542,0.0,0.49704143,0.0,0.0,0.0,0.0,0.0,0.0,0.0,0.0,0,0,0,0,1,0,0,3,0,0,0,1,1,0,0
104317871,0.206235,0.0,0.49704143,0.0,0.0,0.0,0.0,0.0,0.0,0.0,0.0,0,0,0,0,1,0,0,3,0,0,0,1,1,0,0
104518691,0.27577937,0.0,0.49704143,0.0,0.0,0.0,0.0,0.0,0.0,0.0,0.0,0,0,0,0,1,0,0,3,0,0,0,1,1,0,0
104720040,0.28297362,0.0,0.49704143,0.0,0.0,0.0,0.0,0.0,0.0,0.0,0.0,0,0,0,0,1,0,0,3,0,0,0,1,1,0,0
104920898,0.25419664,0.0,0.49585798,0.0,0.0,0.0,0.0,0.0,0.0,0.0,0.0,0,0,0,0,1,0,0,3,0,0,0,1,1,0,0
105122383,0.2086331,0.0,0.5195266,0.0,0.0,0.0,0.0,0.0,0.0,0.0,0.0,0,0,0,0,1,0,0,3,0,0,0,1,1,0,0
105321063,0.15347722,0.0,0.60591716,0.0,0.0,0.0,0.0,0.0,0.0,0.0,0.0,0,0,0,0,1,0,0,3,0,0,0,1,1,0,0
105522005,0.13429257,0.0,0.6260355,0.0,0.0,0.0,0.0,0.0,0.0,0.0,0.0,0,0,0,0,1,0,0,3,0,0,0,1,1,0,0
105723933,0.13429257,0.0,0.62721896,0.0,0.0,0.0,0.0,0.0,0.0,0.0,0.0,0,0,0,0,1,0,0,3,0,0,0,1,1,0,0
105922447,0.15347722,0.0,0.61538464,0.0,0.0,0.0,0.0,0.0,0.0,0.0,0.0,0,0,0,0,1,0,0,3,0,0,0,1,1,0,0
106123071,0.21582733,0.0,0.61538464,0.0,0.0,0.0,0.0,0.0,0.0,0.0,0.0,0,0,0,0,1,0,0,3,0,0,0,1,1,0,0
106324443,0.20143884,0.0,0.61183435,0.0,0.0,0.0,0.0,0.0,0.0,0.0,0.0,0,0,0,0,1,0,0,3,0,0,0,1,1,0,0
106525455,0.17505996,0.0,0.616568,0.0,0.0,0.0,0.0,0.0,0.0,0.0,0.0,0,0,0,0,1,0,0,3,0,0,0,1,1,0,0
106724014,0.17985612,0.0,0.6071006,0.0,0.0,0.0,0.0,0.0,0.0,0.0,0.0,0,0,0,0,1,0,0,3,0,0,0,1,1,0,0
106925401,0.1822542,0.0,0.5786982,0.0,0.0,0.0,0.0,0.0,0.0,0.0,0.0,0,0,0,0,1,0,0,3,0,0,0,1,1,0,0
107126369,0.22781774,0.0,0.556213,0.0,0.0,0.0,0.0,0.0,0.0,0.0,0.0,0,0,0,0,1,0,0,3,0,0,0,1,1,0,0
107327782,0.27098322,0.0,0.556213,0.0,0.0,0.0,0.0,0.0,0.0,0.0,0.0,0,0,0,0,1,0,0,3,0,0,0,1,1,0,0
107506698,0.2877698,0.0,0.556213,0.0,0.0,0.0,0.0,0.0,0.0,0.0,0.0,0,0,0,0,1,0,0,3,0,0,0,1,1,0,0
107707504,0.2997602,0.0,0.55857986,0.0,0.0,0.0,0.0,0.0,0.0,0.0,0.0,0,0,0,0,1,0,0,3,0,0,0,1,1,0,0
107908875,0.30215827,0.0,0.56213015,0.0,0.0,0.0,0.0,0.0,0.0,0.0,0.0,0,0,0,0,1,0,0,3,0,0,0,1,1,0,0
108107609,0.27817747,0.0,0.56213015,0.0,0.0,0.0,0.0,0.0,0.0,0.0,0.0,0,0,0,0,1,0,0,3,0,0,0,1,1,0,0
108306347,0.28057554,0.0,0.56213015,0.0,0.0,0.0,0.0,0.0,0.0,0.0,0.0,0,0,0,0,1,0,0,3,0,0,0,1,1,0,0
108504885,0.28297362,0.0,0.56449705,0.0,0.0,0.0,0.0,0.0,0.0,0.0,0.0,0,0,0,0,1,0,0,3,0,0,0,1,1,0,0
108725758,0.27098322,0.0,0.56449705,0.0,0.0,0.0,0.0,0.0,0.0,0.0,0.0,0,0,0,0,1,0,0,3,0,0,0,1,1,0,0
108924432,0.27098322,0.0,0.56449705,0.0,0.0,0.0,0.0,0.0,0.0,0.0,0.0,0,0,0,0,1,0,0,3,0,0,0,1,1,0,0
109123298,0.2613909,0.0,0.56449705,0.0,0.0,0.0,0.0,0.0,0.0,0.0,0.0,0,0,0,0,1,0,0,3,0,0,0,1,1,0,0
109324914,0.25179857,0.0,0.5633136,0.0,0.0,0.0,0.0,0.0,0.0,0.0,0.0,0,0,0,0,1,0,0,3,0,0,0,1,1,0,0
109525475,0.235012,0.0,0.56449705,0.0,0.0,0.0,0.0,0.0,0.0,0.0,0.0,0,0,0,0,1,0,0,3,0,0,0,1,1,0,0
109724121,0.2470024,0.0,0.56568044,0.0,0.0,0.0,0.0,0.0,0.0,0.0,0.0,0,0,0,0,1,0,0,3,0,0,0,1,1,0,0
109922913,0.24220623,0.0,0.56568044,0.0,0.0,0.0,0.0,0.0,0.0,0.0,0.0,0,0,0,0,1,0,0,3,0,0,0,1,1,0,0
110124506,0.25179857,0.0,0.56449705,0.0,0.0,0.0,0.0,0.0,0.0,0.0,0.0,0,0,0,0,1,0,0,3,0,0,0,1,1,0,0
110325187,0.2613909,0.0,0.56449705,0.0,0.0,0.0,0.0,0.0,0.0,0.0,0.0,0,0,0,0,1,0,0,3,0,0,0,1,1,0,0
110523943,0.25419664,0.0,0.56449705,0.0,0.0,0.0,0.0,0.0,0.0,0.0,0.0,0,0,0,0,1,0,0,3,0,0,0,1,1,0,0
110725782,0.25179857,0.0,0.56568044,0.0,0.0,0.0,0.0,0.0,0.0,0.0,0.0,0,0,0,0,1,0,0,3,0,0,0,1,1,0,0
110904792,0.2589928,0.0,0.56568044,0.0,0.0,0.0,0.0,0.0,0.0,0.0,0.0,0,0,0,0,1,0,0,3,0,0,0,1,1,0,0
111105235,0.27577937,0.0,0.56449705,0.0,0.0,0.0,0.0,0.0,0.0,0.0,0.0,0,0,0,0,1,0,0,3,0,0,0,1,1,0,0
111326253,0.2589928,0.0,0.56449705,0.0,0.0,0.0,0.0,0.0,0.0,0.0,0.0,0,0,0,0,1,0,0,3,0,0,0,1,1,0,0
111527324,0.25419664,0.0,0.56449705,0.0,0.0,0.0,0.0,0.0,0.0,0.0,0.0,0,0,0,0,1,0,0,3,0,0,0,1,1,0,0
111723546,0.24220623,0.0,0.56449705,0.0,0.0,0.0,0.0,0.0,0.0,0.0,0.0,0,0,0,0,1,0,0,3,0,0,0,1,1,0,0
111922716,0.26378897,0.0,0.56449705,0.0,0.0,0.0,0.0,0.0,0.0,0.0,0.0,0,0,0,0,1,0,0,3,0,0,0,1,1,0,0
112121041,0.27817747,0.0,0.56449705,0.0,0.0,0.0,0.0,0.0,0.0,0.0,0.0,0,0,0,0,1,0,0,3,0,0,0,1,1,0,0
112321974,0.2877698,0.0,0.56449705,0.0,0.0,0.0,0.0,0.0,0.0,0.0,0.0,0,0,0,0,1,0,0,3,0,0,0,1,1,0,0
112520506,0.2997602,0.0,0.56449705,0.0,0.0,0.0,0.0,0.0,0.0,0.0,0.0,0,0,0,0,1,0,0,3,0,0,0,1,1,0,0
112717765,0.30695444,0.0,0.56449705,0.0,0.0,0.0,0.0,0.0,0.0,0.0,0.0,0,0,0,0,1,0,0,3,0,0,0,1,1,0,0
112918034,0.27817747,0.0,0.56449705,0.0,0.0,0.0,0.0,0.0,0.0,0.0,0.0,0,0,0,0,1,0,0,3,0,0,0,1,1,0,0
113119398,0.26378897,0.0,0.56449705,0.0,0.0,0.0,0.0,0.0,0.0,0.0,0.0,0,0,0,0,1,0,0,3,0,0,0,1,1,0,0
113318056,0.2613909,0.0,0.56449705,0.0,0.0,0.0,0.0,0.0,0.0,0.0,0.0,0,0,0,0,1,0,0,3,0,0,0,1,1,0,0
113518881,0.26618704,0.0,0.5668639,0.0,0.0,0.0,0.0,0.0,0.0,0.0,0.0,0,0,0,0,1,0,0,3,0,0,0,1,1,0,0
113720310,0.26378897,0.0,0.56449705,0.0,0.0,0.0,0.0,0.0,0.0,0.0,0.0,0,0,0,0,1,0,0,3,0,0,0,1,1,0,0
113921281,0.30455637,0.0,0.56449705,0.0,0.0,0.0,0.0,0.0,0.0,0.0,0.0,0,0,0,0,1,0,0,3,0,0,0,1,1,0,0
114123124,0.30935252,0.0,0.56449705,0.0,0.0,0.0,0.0,0.0,0.0,0.0,0.0,0,0,0,0,1,0,0,3,0,0,0,1,1,0,0
114323686,0.2877698,0.0,0.56449705,0.0,0.0,0.0,0.0,0.0,0.0,0.0,0.0,0,0,0,0,1,0,0,3,0,0,0,1,1,0,0
114525382,0.3141487,0.0,0.56449705,0.0,0.0,0.0,0.0,0.0,0.0,0.0,0.0,0,0,0,0,1,0,0,3,0,0,0,1,1,0,0
114725929,0.3117506,0.0,0.56568044,0.0,0.0,0.0,0.0,0.0,0.0,0.0,0.0,0,0,0,0,1,0,0,3,0,0,0,1,1,0,0
114927318,0.30455637,0.0,0.56449705,0.0,0.0,0.0,0.0,0.0,0.0,0.0,0.0,0,0,0,0,1,0,0,3,0,0,0,1,1,0,0
115106780,0.3117506,0.0,0.56449705,0.0,0.0,0.0,0.0,0.0,0.0,0.0,0.0,0,0,0,0,1,0,0,3,0,0,0,1,1,0,0
115307413,0.29016787,0.0,0.56449705,0.0,0.0,0.0,0.0,0.0,0.0,0.0,0.0,0,0,0,0,1,0,0,3,0,0,0,1,1,0,0
115508457,0.29496402,0.0,0.56449705,0.0,0.0,0.0,0.0,0.0,0.0,0.0,0.0,0,0,0,0,1,0,0,3,0,0,0,1,1,0,0
115709394,0.2877698,0.0,0.56449705,0.0,0.0,0.0,0.0,0.0,0.0,0.0,0.0,0,0,0,0,1,0,0,3,0,0,0,1,1,0,0
115908078,0.27098322,0.0,0.56449705,0.0,0.0,0.0,0.0,0.0,0.0,0.0,0.0,0,0,0,0,1,0,0,3,0,0,0,1,1,0,0
116106880,0.30215827,0.0,0.56449705,0.0,0.0,0.0,0.0,0.0,0.0,0.0,0.0,0,0,0,0,1,0,0,3,0,0,0,1,1,0,0
116308738,0.30215827,0.0,0.56449705,0.0,0.0,0.0,0.0,0.0,0.0,0.0,0.0,0,0,0,0,1,0,0,3,0,0,0,1,1,0,0
116509179,0.29016787,0.0,0.56449705,0.0,0.0,0.0,0.0,0.0,0.0,0.0,0.0,0,0,0,0,1,0,0,3,0,0,0,1,1,0,0
116707848,0.2470024,0.0,0.56449705,0.0,0.0,0.0,0.0,0.0,0.0,0.0,0.0,0,0,0,0,1,0,0,3,0,0,0,1,1,0,0
116906645,0.25179857,0.040963855,0.56449705,0.0,0.0,0.0,0.0,0.0,0.0,0.0,0.0,0,0,0,0,1,0,0,3,0,0,0,1,1,0,0
117127742,0.2853717,0.16626506,0.56449705,0.0,0.0,0.0,0.0,0.0,0.0,0.0,0.0,0,0,0,0,1,0,0,3,0,0,0,1,1,0,0
117307050,0.29016787,0.14216867,0.56568044,0.0,0.0,0.0,0.0,0.0,0.0,0.0,0.0,0,0,0,0,1,0,0,3,0,0,0,1,1,0,0
117507630,0.2853717,0.15180723,0.56449705,0.0,0.0,0.0,0.0,0.0,0.0,0.0,0.0,0,0,0,0,1,0,0,3,0,0,0,1,1,0,0
117708915,0.27098322,0.13253012,0.56449705,0.0,0.0,0.0,0.0,0.0,0.0,0.0,0.0,0,0,0,0,1,0,0,3,0,0,0,1,1,0,0
117907999,0.27098322,0.1373494,0.56449705,0.0,0.0,0.0,0.0,0.0,0.0,0.0,0.0,0,0,0,0,1,0,0,3,0,0,0,1,1,0,0
118126602,0.28297362,0.16867469,0.56449705,0.0,0.0,0.0,0.0,0.0,0.0,0.0,0.0,0,0,0,0,1,0,0,3,0,0,0,1,1,0,0
118305494,0.2853717,0.17108434,0.56449705,0.0,0.0,0.0,0.0,0.0,0.0,0.0,0.0,0,0,0,0,1,0,0,3,0,0,0,1,1,0,0
118528569,0.29016787,0.14216867,0.56449705,0.0,0.0,0.0,0.0,0.0,0.0,0.0,0.0,0,0,0,0,1,0,0,3,0,0,0,1,1,0,0
118707225,0.2733813,0.11325301,0.56449705,0.0,0.0,0.0,0.0,0.0,0.0,0.0,0.0,0,0,0,0,1,0,0,3,0,0,0,1,1,0,0
118908287,0.26378897,0.1373494,0.56449705,0.0,0.0,0.0,0.0,0.0,0.0,0.0,0.0,0,0,0,0,1,0,0,3,0,0,0,1,1,0,0
119116728,0.21822542,0.08915663,0.56449705,0.0,0.0,0.0,0.0,0.0,0.0,0.0,0.0,0,0,0,0,1,0,0,3,0,0,0,1,1,0,0
119310699,0.2326139,0.17590362,0.56449705,0.0,0.0,0.0,0.0,0.0,0.0,0.0,0.0,0,0,0,0,1,0,0,3,0,0,0,1,1,0,0
119513037,0.22302158,0.14216867,0.56449705,0.0,0.0,0.0,0.0,0.0,0.0,0.0,0.0,0,0,0,0,1,0,0,3,0,0,0,1,1,0,0
119712738,0.22541967,0.16385542,0.56449705,0.0,0.0,0.0,0.0,0.0,0.0,0.0,0.0,0,0,0,0,1,0,0,3,0,0,0,1,1,0,0
119914906,0.21822542,0.20481928,0.56449705,0.0,0.0,0.0,0.0,0.0,0.0,0.0,0.0,0,0,0,0,1,0,0,3,0,0,0,1,1,0,0
120115402,0.206235,0.1879518,0.56449705,0.0,0.0,0.0,0.0,0.0,0.0,0.0,0.0,0,0,0,0,1,0,0,3,0,0,0,1,1,0,0
120317545,0.18944845,0.1493976,0.56449705,0.0,0.0,0.0,0.0,0.0,0.0,0.0,0.0,0,0,0,0,1,0,0,3,0,0,0,1,1,0,0
120516201,0.14628297,0.045783132,0.56449705,0.0,0.0,0.0,0.0,0.0,0.0,0.0,0.0,0,0,0,0,1,0,0,3,0,0,0,1,1,0,0
120714881,0.1031175,0.0,0.56449705,0.0,0.0,0.0,0.0,0.0,0.0,0.0,0.0,0,0,0,0,1,0,0,3,0,0,0,1,1,0,0
120913602,0.083932854,0.0,0.504142,0.0,0.0,0.0,0.0,0.0,0.0,0.0,0.0,0,0,0,0,1,0,0,3,0,0,0,1,1,0,0
121113602,0.0911271,0.0,0.47218934,-0.0022779044,0.0,0.0,0.0,0.0,0.0,0.0,0.0,0,0,0,0,1,0,0,3,0,0,0,1,1,0,0
121315691,0.110311754,0.0,0.44260356,0.0,0.0,0.0,0.0,0.0,0.0,0.0,0.0,0,0,0,0,1,0,0,3,0,0,0,1,1,0,0
121513775,0.11510792,0.0,0.44260356,0.0,0.0,0.0,0.0,0.0,0.0,0.0,0.0,0,0,0,0,1,0,0,3,0,0,0,1,1,0,0
121712451,0.1031175,0.0,0.4071006,0.0,0.0,0.0,0.0,0.0,0.0,0.0,0.0,0,0,0,0,1,0,0,3,0,0,0,1,1,0,0
121913302,0.09832134,0.0,0.40236688,0.0,0.0,0.0,0.0,0.0,0.0,0.0,0.0,0,0,0,0,1,0,0,3,0,0,0,1,1,0,0
122111913,0.09832134,0.0,0.40236688,0.0,0.0,0.0,0.0,0.0,0.0,0.0,0.0,0,0,0,0,1,0,0,3,0,0,0,1,1,0,0
122313828,0.112709835,0.0,0.39881656,0.0,0.0,0.0,0.0,0.0,0.0,0.0,0.0,0,0,0,0,1,0,0,3,0,0,0,1,1,0,0
122514434,0.11510792,0.0,0.37159765,-0.0022779044,0.0,0.0,0.0,0.0,0.0,0.0,0.0,0,0,0,0,1,0,0,3,0,0,0,1,1,0,0
122712879,0.112709835,0.0,0.37159765,0.0,0.0,0.0,0.0,0.0,0.0,0.0,0.0,0,0,0,0,1,0,0,3,0,0,0,1,1,0,0
122914952,0.11510792,0.0,0.35976332,0.0,0.0,0.0,0.0,0.0,0.0,0.0,0.0,0,0,0,0,1,0,0,3,0,0,0,1,1,0,0
123113939,0.11990408,0.0,0.35029587,0.0,0.0,0.0,0.0,0.0,0.0,0.0,0.0,0,0,0,0,1,0,0,3,0,0,0,1,1,0,0
123312389,0.11990408,0.0,0.35384616,0.0,0.0,0.0,0.0,0.0,0.0,0.0,0.0,0,0,0,0,1,0,0,3,0,0,0,1,1,0,0
123512652,0.13189448,0.0,0.35384616,0.0,0.0,0.0,0.0,0.0,0.0,0.0,0.0,0,0,0,0,1,0,0,3,0,0,0,1,1,0,0
123715203,0.13429257,0.0,0.35502958,0.0,0.0,0.0,0.0,0.0,0.0,0.0,0.0,0,0,0,0,1,0,0,3,0,0,0,1,1,0,0
123913859,0.13429257,0.0,0.32544377,0.0,0.0,0.0,0.0,0.0,0.0,0.0,0.0,0,0,0,0,1,0,0,3,0,0,0,1,1,0,0
124112169,0.13429257,0.0,0.29822487,0.0,0.0,0.0,0.0,0.0,0.0,0.0,0.0,0,0,0,0,1,0,0,3,0,0,0,1,1,0,0
124310996,0.13189448,0.0,0.29822487,0.0,0.0,0.0,0.0,0.0,0.0,0.0,0.0,0,0,0,0,1,0,0,3,0,0,0,1,1,0,0
124508813,0.13669065,0.0,0.3005917,0.0,0.0,0.0,0.0,0.0,0.0,0.0,0.0,0,0,0,0,1,0,0,3,0,0,0,1,1,0,0
124710051,0.13189448,0.0,0.37869823,0.0,0.0,0.0,0.0,0.0,0.0,0.0,0.0,0,0,0,0,1,0,0,3,0,0,0,1,1,0,0
124911089,0.14628297,0.0,0.49704143,0.0,0.0,0.0,0.0,0.0,0.0,0.0,0.0,0,0,0,0,1,0,0,3,0,0,0,1,1,0,0
125109844,0.24220623,0.0,0.4934911,0.0,0.0,0.0,0.0,0.0,0.0,0.0,0.0,0,0,0,0,1,0,0,3,0,0,0,1,1,0,0
125308403,0.2997602,0.0,0.4934911,0.0,0.0,0.0,0.0,0.0,0.0,0.0,0.0,0,0,0,0,1,0,0,3,0,0,0,1,1,0,0
125529590,0.29496402,0.0,0.4923077,0.0,0.0,0.0,0.0,0.0,0.0,0.0,0.0,0,0,0,0,1,0,0,3,0,0,0,1,1,0,0
125708128,0.30215827,0.0,0.4934911,0.0,0.0,0.0,0.0,0.0,0.0,0.0,0.0,0,0,0,0,1,0,0,3,0,0,0,1,1,0,0
125906838,0.29496402,0.0,0.4934911,0.0,0.0,0.0,0.0,0.0,0.0,0.0,0.0,0,0,0,0,1,0,0,3,0,0,0,1,1,0,0
126105425,0.29016787,0.0,0.4923077,0.0,0.0,0.0,0.0,0.0,0.0,0.0,0.0,0,0,0,0,1,0,0,3,0,0,0,1,1,0,0
126307555,0.2733813,0.0,0.49112427,0.0,0.0,0.0,0.0,0.0,0.0,0.0,0.0,0,0,0,0,1,0,0,3,0,0,0,1,1,0,0
126506060,0.26378897,0.0,0.49112427,0.0,0.0,0.0,0.0,0.0,0.0,0.0,0.0,0,0,0,0,1,0,0,3,0,0,0,1,1,0,0
126706585,0.2613909,0.0,0.49112427,0.0,0.0,0.0,0.0,0.0,0.0,0.0,0.0,0,0,0,0,1,0,0,3,0,0,0,1,1,0,0
126927716,0.2613909,0.0,0.49112427,0.0,0.0,0.0,0.0,0.0,0.0,0.0,0.0,0,0,0,0,1,0,0,3,0,0,0,1,1,0,0
127128731,0.27577937,0.0,0.4923077,0.0,0.0,0.0,0.0,0.0,0.0,0.0,0.0,0,0,0,0,1,0,0,3,0,0,0,1,1,0,0
127307605,0.27577937,0.0,0.4923077,0.0,0.0,0.0,0.0,0.0,0.0,0.0,0.0,0,0,0,0,1,0,0,3,0,0,0,1,1,0,0
127508892,0.26618704,0.0,0.4923077,0.0,0.0,0.0,0.0,0.0,0.0,0.0,0.0,0,0,0,0,1,0,0,3,0,0,0,1,1,0,0
127709925,0.25659472,0.0,0.4923077,0.0,0.0,0.0,0.0,0.0,0.0,0.0,0.0,0,0,0,0,1,0,0,3,0,0,0,1,1,0,0
127912052,0.2613909,0.0,0.49112427,0.0,0.0,0.0,0.0,0.0,0.0,0.0,0.0,0,0,0,0,1,0,0,3,0,0,0,1,1,0,0
128109852,0.2613909,0.0,0.49112427,0.0,0.0,0.0,0.0,0.0,0.0,0.0,0.0,0,0,0,0,1,0,0,3,0,0,0,1,1,0,0
128316598,0.26618704,0.0,0.49112427,0.0,0.0,0.0,0.0,0.0,0.0,0.0,0.0,0,0,0,0,1,0,0,3,0,0,0,1,1,0,0
128527467,0.27577937,0.0,0.49112427,0.0,0.0,0.0,0.0,0.0,0.0,0.0,0.0,0,0,0,0,1,0,0,3,0,0,0,1,1,0,0
128728093,0.28297362,0.0,0.49112427,0.0,0.0,0.0,0.0,0.0,0.0,0.0,0.0,0,0,0,0,1,0,0,3,0,0,0,1,1,0,0
128926850,0.26858515,0.0,0.49112427,0.0,0.0,0.0,0.0,0.0,0.0,0.0,0.0,0,0,0,0,1,0,0,3,0,0,0,1,1,0,0
129125544,0.2877698,0.0,0.49112427,0.0,0.0,0.0,0.0,0.0,0.0,0.0,0.0,0,0,0,0,1,0,0,3,0,0,0,1,1,0,0
129304371,0.27817747,0.0,0.49112427,0.0,0.0,0.0,0.0,0.0,0.0,0.0,0.0,0,0,0,0,1,0,0,3,0,0,0,1,1,0,0
129505713,0.26618704,0.0,0.49112427,0.0,0.0,0.0,0.0,0.0,0.0,0.0,0.0,0,0,0,0,1,0,0,3,0,0,0,1,1,0,0
129726585,0.26618704,0.0,0.49112427,0.0,0.0,0.0,0.0,0.0,0.0,0.0,0.0,0,0,0,0,1,0,0,3,0,0,0,1,1,0,0
129927756,0.27098322,0.0,0.49112427,0.0,0.0,0.0,0.0,0.0,0.0,0.0,0.0,0,0,0,0,1,0,0,3,0,0,0,1,1,0,0
130126897,0.26378897,0.0,0.49112427,0.0,0.0,0.0,0.0,0.0,0.0,0.0,0.0,0,0,0,0,1,0,0,3,0,0,0,1,1,0,0
130325672,0.2589928,0.0,0.49112427,0.0,0.0,0.0,0.0,0.0,0.0,0.0,0.0,0,0,0,0,1,0,0,3,0,0,0,1,1,0,0
130526109,0.28297362,0.0,0.49112427,0.0,0.0,0.0,0.0,0.0,0.0,0.0,0.0,0,0,0,0,1,0,0,3,0,0,0,1,1,0,0
130724791,0.3117506,0.0,0.4923077,0.0,0.0,0.0,0.0,0.0,0.0,0.0,0.0,0,0,0,0,1,0,0,3,0,0,0,1,1,0,0
130926569,0.30935252,0.0,0.4923077,0.0,0.0,0.0,0.0,0.0,0.0,0.0,0.0,0,0,0,0,1,0,0,3,0,0,0,1,1,0,0
131127257,0.2997602,0.0,0.49112427,0.0,0.0,0.0,0.0,0.0,0.0,0.0,0.0,0,0,0,0,1,0,0,3,0,0,0,1,1,0,0
131325847,0.29496402,0.0,0.49112427,0.0,0.0,0.0,0.0,0.0,0.0,0.0,0.0,0,0,0,0,1,0,0,3,0,0,0,1,1,0,0
131524527,0.2613909,0.0,0.49112427,0.0,0.0,0.0,0.0,0.0,0.0,0.0,0.0,0,0,0,0,1,0,0,3,0,0,0,1,1,0,0
131721318,0.2326139,0.0,0.4923077,0.0,0.0,0.0,0.0,0.0,0.0,0.0,0.0,0,0,0,0,1,0,0,3,0,0,0,1,1,0,0
131922167,0.20383693,-0.009478673,0.49112427,0.0,0.0,0.0,0.0,0.0,0.0,0.0,0.0,0,0,0,0,1,0,0,3,0,0,0,1,1,0,0
132123980,0.16067146,-0.030805686,0.49112427,0.0,0.0,0.0,0.0,0.0,0.0,0.0,0.0,0,0,0,0,1,0,0,3,0,0,0,1,1,0,0
132324265,0.110311754,-0.02606635,0.49112427,0.0,0.0,0.0,0.0,0.0,0.0,0.0,0.0,0,0,0,0,1,0,0,3,0,0,0,1,1,0,0
132525706,0.11510792,-0.049763035,0.49112427,0.0,0.0,0.0,0.0,0.0,0.0,0.0,0.0,0,0,0,0,1,0,0,3,0,0,0,1,1,0,0
132724134,0.107913665,-0.04265403,0.49112427,0.0,0.0,0.0,0.0,0.0,0.0,0.0,0.0,0,0,0,0,1,0,0,3,0,0,0,1,1,0,0
132925224,0.11990408,-0.033175357,0.49112427,0.0,0.0,0.0,0.0,0.0,0.0,0.0,0.0,0,0,0,0,1,0,0,3,0,0,0,1,1,0,0
133123804,0.117506,-0.037914693,0.49112427,0.0,0.0,0.0,0.0,0.0,0.0,0.0,0.0,0,0,0,0,1,0,0,3,0,0,0,1,1,0,0
133322835,0.11990408,-0.0450237,0.5005917,0.0,0.0,0.0,0.0,0.0,0.0,0.0,0.0,0,0,0,0,1,0,0,3,0,0,0,1,1,0,0
133524622,0.12709832,-0.035545025,0.50532544,-0.013667426,0.0,0.0,0.0,0.0,0.0,0.0,0.0,0,0,0,0,1,0,0,3,0,0,0,1,1,0,0
133722608,0.12709832,-0.035545025,0.504142,-0.025056947,0.0,0.0,0.0,0.0,0.0,0.0,0.0,0,0,0,0,1,0,0,3,0,0,0,1,1,0,0
133923790,0.11510792,-0.02606635,0.50177515,-0.054669704,0.0,0.0,0.0,0.0,0.0,0.0,0.0,0,0,0,0,1,0,0,3,0,0,0,1,1,0,0
134125685,0.11990408,-0.023696683,0.504142,-0.123006836,0.0,0.0,0.0,0.0,0.0,0.0,0.0,0,0,0,0,1,0,0,3,0,0,0,1,1,0,0
134325841,0.11510792,-0.018957347,0.504142,-0.19589977,0.0,0.0,0.0,0.0,0.0,0.0,0.0,0,0,0,0,1,0,0,3,0,0,0,1,1,0,0
134527278,0.112709835,-0.02606635,0.50177515,-0.23234624,0.0,0.0,0.0,0.0,0.0,0.0,0.0,0,0,0,0,1,0,0,3,0,0,0,1,1,0,0
134706466,0.117506,-0.023696683,0.50177515,-0.3120729,0.0,0.0,0.0,0.0,0.0,0.0,0.0,0,0,0,0,1,0,0,3,0,0,0,1,1,0,0
134907043,0.12230216,-0.02606635,0.50177515,-0.35763097,0.0,0.0,0.0,0.0,0.0,0.0,0.0,0,0,0,0,1,0,0,3,0,0,0,1,1,0,0
135108814,0.11990408,-0.02606635,0.5005917,-0.27562642,0.0,0.0,0.0,0.0,0.0,0.0,0.0,0,0,0,0,1,0,0,3,0,0,0,1,1,0,0
135307502,0.117506,-0.023696683,0.5005917,-0.35763097,0.0,0.0,0.0,0.0,0.0,0.0,0.0,0,0,0,0,1,0,0,3,0,0,0,1,1,0,0
135527873,0.117506,-0.023696683,0.5005917,-0.38952163,0.0,0.0,0.0,0.0,0.0,0.0,0.0,0,0,0,0,1,0,0,3,0,0,0,1,1,0,0
135726127,0.11510792,-0.021327015,0.50177515,-0.38952163,0.0,0.0,0.0,0.0,0.0,0.0,0.0,0,0,0,0,1,0,0,3,0,0,0,1,1,0,0
135926218,0.1031175,-0.018957347,0.49940827,-0.39407745,0.0,0.0,0.0,0.0,0.0,0.0,0.0,0,0,0,0,1,0,0,3,0,0,0,1,1,0,0
136106670,0.11510792,-0.014218009,0.50177515,-0.3712984,0.0,0.0,0.0,0.0,0.0,0.0,0.0,0,0,0,0,1,0,0,3,0,0,0,1,1,0,0
136326756,0.112709835,-0.014218009,0.50177515,-0.32346243,0.0,0.0,0.0,0.0,0.0,0.0,0.0,0,0,0,0,1,0,0,3,0,0,0,1,1,0,0
136525348,0.1031175,-0.014218009,0.5005917,-0.25512528,0.0,0.0,0.0,0.0,0.0,0.0,0.0,0,0,0,0,1,0,0,3,0,0,0,1,1,0,0
136724112,0.1031175,-0.018957347,0.5005917,-0.2164009,0.0,0.0,0.0,0.0,0.0,0.0,0.0,0,0,0,0,1,0,0,3,0,0,0,1,1,0,0
136924252,0.09592326,-0.018957347,0.5005917,-0.20273349,0.0,0.0,0.0,0.0,0.0,0.0,0.0,0,0,0,0,1,0,0,3,0,0,0,1,1,0,0
137125004,0.0911271,-0.023696683,0.5005917,-0.15261959,0.0,0.0,0.0,0.0,0.0,0.0,0.0,0,0,0,0,1,0,0,3,0,0,0,1,1,0,0
137325956,0.07194245,-0.014218009,0.50177515,-0.26879272,0.0,0.0,0.0,0.0,0.0,0.0,0.0,0,0,0,0,1,0,0,3,0,0,0,1,1,0,0
137524239,0.07434053,-0.014218009,0.5005917,-0.27107063,0.0,0.0,0.0,0.0,0.0,0.0,0.0,0,0,0,0,1,0,0,3,0,0,0,1,1,0,0
137726664,0.0911271,-0.030805686,0.5005917,-0.28701594,0.0,0.0,0.0,0.0,0.0,0.0,0.0,0,0,0,0,1,0,0,3,0,0,0,1,1,0,0
137925301,0.07913669,-0.037914693,0.504142,-0.2164009,0.0,0.0,0.0,0.0,0.0,0.0,0.0,0,0,0,0,1,0,0,3,0,0,0,1,1,0,0
138125097,0.06954437,-0.033175357,0.50177515,-0.123006836,0.0,0.0,0.0,0.0,0.0,0.0,0.0,0,0,0,0,1,0,0,3,0,0,0,1,1,0,0
138323229,0.05035971,-0.023696683,0.50177515,-0.08428246,0.0,0.0,0.0,0.0,0.0,0.0,0.0,0,0,0,0,1,0,0,3,0,0,0,1,1,0,0
138527049,-0.0,-0.021327015,0.50177515,-0.18678816,0.0,0.0,0.0,0.0,0.0,0.0,0.0,0,0,0,0,1,0,0,3,0,0,0,1,1,0,0
138717943,-0.0,0.0,0.50177515,-0.22323462,0.0,0.0,0.0,0.0,0.0,0.0,0.0,0,0,0,0,1,0,0,3,0,0,0,1,1,0,0
138919914,-0.0,0.0,0.5005917,-0.18678816,0.0,0.0,0.0,0.0,0.0,0.0,0.0,0,0,0,0,1,0,0,3,0,0,0,1,1,0,0
139118459,-0.0,0.0,0.50177515,0.0,0.0,0.0,0.0,0.0,0.0,0.0,0.0,0,0,0,0,1,0,0,3,0,0,0,1,1,0,0
139317007,-0.0,0.0,0.49940827,0.0,0.0,0.0,0.0,0.0,0.0,0.0,0.0,0,0,0,0,1,0,0,3,0,0,0,1,1,0,0
139516684,-0.0,0.0,0.49940827,0.0,0.0,0.0,0.0,0.0,0.0,0.0,0.0,0,0,0,0,1,0,0,3,0,0,0,1,1,0,0
139715013,0.06235012,0.0,0.49940827,0.0,0.0,0.0,0.0,0.0,0.0,0.0,0.0,0,0,0,0,1,0,0,3,0,0,0,1,1,0,0
139909444,0.07434053,0.0,0.49940827,0.0,0.0,0.0,0.0,0.0,0.0,0.0,0.0,0,0,0,0,1,0,0,3,0,0,0,1,1,0,0
140111864,0.09832134,0.0,0.5005917,0.0,0.0,0.0,0.0,0.0,0.0,0.0,0.0,0,0,0,0,1,0,0,3,0,0,0,1,1,0,0
140309694,0.13908873,0.0,0.5005917,0.0,0.0,0.0,0.0,0.0,0.0,0.0,0.0,0,0,0,0,1,0,0,3,0,0,0,1,1,0,0
140508029,0.14868106,0.0,0.5005917,0.0,0.0,0.0,0.0,0.0,0.0,0.0,0.0,0,0,0,0,1,0,0,3,0,0,0,1,1,0,0
140708504,0.15107913,0.0,0.5005917,0.0,0.0,0.0,0.0,0.0,0.0,0.0,0.0,0,0,0,0,1,0,0,3,0,0,0,1,1,0,0
140909981,0.13429257,0.0,0.50177515,0.0,0.0,0.0,0.0,0.0,0.0,0.0,0.0,0,0,0,0,1,0,0,3,0,0,0,1,1,0,0
141111026,0.1558753,0.0,0.50177515,0.0,0.0,0.0,0.0,0.0,0.0,0.0,0.0,0,0,0,0,1,0,0,3,0,0,0,1,1,0,0
141313106,0.16546762,0.0,0.50177515,0.0,0.0,0.0,0.0,0.0,0.0,0.0,0.0,0,0,0,0,1,0,0,3,0,0,0,1,1,0,0
141511640,0.206235,0.0,0.50177515,0.0,0.0,0.0,0.0,0.0,0.0,0.0,0.0,0,0,0,0,1,0,0,3,0,0,0,1,1,0,0
141711950,0.2589928,0.0,0.5005917,0.0,0.0,0.0,0.0,0.0,0.0,0.0,0.0,0,0,0,0,1,0,0,3,0,0,0,1,1,0,0
141914242,0.26858515,0.0,0.5005917,0.0,0.0,0.0,0.0,0.0,0.0,0.0,0.0,0,0,0,0,1,0,0,3,0,0,0,1,1,0,0
142114350,0.26618704,0.0,0.5005917,0.0,0.0,0.0,0.0,0.0,0.0,0.0,0.0,0,0,0,0,1,0,0,3,0,0,0,1,1,0,0
142313063,0.22781774,0.0,0.5005917,0.0,0.0,0.0,0.0,0.0,0.0,0.0,0.0,0,0,0,0,1,0,0,3,0,0,0,1,1,0,0
142514981,0.235012,0.0,0.5005917,0.0,0.0,0.0,0.0,0.0,0.0,0.0,0.0,0,0,0,0,1,0,0,3,0,0,0,1,1,0,0
142715247,0.2326139,0.0,0.49940827,0.0,0.0,0.0,0.0,0.0,0.0,0.0,0.0,0,0,0,0,1,0,0,3,0,0,0,1,1,0,0
142913885,0.235012,0.0,0.49940827,0.0,0.0,0.0,0.0,0.0,0.0,0.0,0.0,0,0,0,0,1,0,0,3,0,0,0,1,1,0,0
143112516,0.27817747,0.0,0.5005917,0.0,0.0,0.0,0.0,0.0,0.0,0.0,0.0,0,0,0,0,1,0,0,3,0,0,0,1,1,0,0
143314578,0.28297362,0.0,0.5005917,0.0,0.0,0.0,0.0,0.0,0.0,0.0,0.0,0,0,0,0,1,0,0,3,0,0,0,1,1,0,0
143513145,0.26618704,0.0,0.5005917,0.0,0.0,0.0,0.0,0.0,0.0,0.0,0.0,0,0,0,0,1,0,0,3,0,0,0,1,1,0,0
143713543,0.26378897,0.0,0.5005917,0.0,0.0,0.0,0.0,0.0,0.0,0.0,0.0,0,0,0,0,1,0,0,3,0,0,0,1,1,0,0
143912224,0.23980816,0.0,0.5005917,0.0,0.0,0.0,0.0,0.0,0.0,0.0,0.0,0,0,0,0,1,0,0,3,0,0,0,1,1,0,0
144114293,0.24220623,0.0,0.5005917,0.0,0.0,0.0,0.0,0.0,0.0,0.0,0.0,0,0,0,0,1,0,0,3,0,0,0,1,1,0,0
144312846,0.23980816,0.0,0.5005917,0.0,0.0,0.0,0.0,0.0,0.0,0.0,0.0,0,0,0,0,1,0,0,3,0,0,0,1,1,0,0
144511622,0.23021583,0.0,0.5005917,0.0,0.0,0.0,0.0,0.0,0.0,0.0,0.0,0,0,0,0,1,0,0,3,0,0,0,1,1,0,0
144711940,0.2853717,0.0,0.5005917,0.0,0.0,0.0,0.0,0.0,0.0,0.0,0.0,0,0,0,0,1,0,0,3,0,0,0,1,1,0,0
144910699,0.3117506,0.0,0.5005917,0.0,0.0,0.0,0.0,0.0,0.0,0.0,0.0,0,0,0,0,1,0,0,3,0,0,0,1,1,0,0
145109372,0.29496402,0.0,0.5005917,0.0,0.0,0.0,0.0,0.0,0.0,0.0,0.0,0,0,0,0,1,0,0,3,0,0,0,1,1,0,0
145308116,0.26858515,0.0,0.5005917,0.0,0.0,0.0,0.0,0.0,0.0,0.0,0.0,0,0,0,0,1,0,0,3,0,0,0,1,1,0,0
145526741,0.26858515,0.0,0.5005917,0.0,0.0,0.0,0.0,0.0,0.0,0.0,0.0,0,0,0,0,1,0,0,3,0,0,0,1,1,0,0
145725325,0.27577937,0.0,0.5005917,0.0,0.0,0.0,0.0,0.0,0.0,0.0,0.0,0,0,0,0,1,0,0,3,0,0,0,1,1,0,0
145927023,0.27098322,0.0,0.50177515,0.0,0.0,0.0,0.0,0.0,0.0,0.0,0.0,0,0,0,0,1,0,0,3,0,0,0,1,1,0,0
146105776,0.29016787,0.0,0.5029586,0.0,0.0,0.0,0.0,0.0,0.0,0.0,0.0,0,0,0,0,1,0,0,3,0,0,0,1,1,0,0
146306343,0.29016787,0.0,0.5029586,0.0,0.0,0.0,0.0,0.0,0.0,0.0,0.0,0,0,0,0,1,0,0,3,0,0,0,1,1,0,0
146507871,0.25419664,-0.014218009,0.5029586,0.0,0.0,0.0,0.0,0.0,0.0,0.0,0.0,0,0,0,0,1,0,0,3,0,0,0,1,1,0,0
146708829,0.26858515,-0.04265403,0.5029586,0.0,0.0,0.0,0.0,0.0,0.0,0.0,0.0,0,0,0,0,1,0,0,3,0,0,0,1,1,0,0
146910414,0.24220623,-0.037914693,0.5029586,0.0,0.0,0.0,0.0,0.0,0.0,0.0,0.0,0,0,0,0,1,0,0,3,0,0,0,1,1,0,0
147108695,0.19184652,-0.04265403,0.5029586,0.0,0.0,0.0,0.0,0.0,0.0,0.0,0.0,0,0,0,0,1,0,0,3,0,0,0,1,1,0,0
147309869,0.07673861,-0.1492891,0.5029586,0.0,0.0,0.0,0.0,0.0,0.0,0.0,0.0,0,0,0,0,1,0,0,3,0,0,0,1,1,0,0
147511731,0.083932854,-0.21090047,0.5029586,0.0,0.0,0.0,0.0,0.0,0.0,0.0,0.0,0,0,0,0,1,0,0,3,0,0,0,1,1,0,0
147719738,0.09352518,-0.25592417,0.49940827,0.0,0.0,0.0,0.0,0.0,0.0,0.0,0.0,0,0,0,0,1,0,0,3,0,0,0,1,1,0,0
147914374,0.09592326,-0.1800948,0.5005917,0.0,0.0,0.0,0.0,0.0,0.0,0.0,0.0,0,0,0,0,1,0,0,3,0,0,0,1,1,0,0
148112954,0.05995204,-0.13270143,0.5005917,0.0,0.0,0.0,0.0,0.0,0.0,0.0,0.0,0,0,0,0,1,0,0,3,0,0,0,1,1,0,0
148312045,0.06714629,-0.1943128,0.49940827,0.0,0.0,0.0,0.0,0.0,0.0,0.0,0.0,0,0,0,0,1,0,0,3,0,0,0,1,1,0,0
148511737,0.07194245,-0.23459716,0.49940827,0.0,0.0,0.0,0.0,0.0,0.0,0.0,0.0,0,0,0,0,1,0,0,3,0,0,0,1,1,0,0
148714064,0.0911271,-0.2014218,0.49822485,0.0,0.0,0.0,0.0,0.0,0.0,0.0,0.0,0,0,0,0,1,0,0,3,0,0,0,1,1,0,0
148912561,0.13908873,-0.19668247,0.49940827,0.0,0.0,0.0,0.0,0.0,0.0,0.0,0.0,0,0,0,0,1,0,0,3,0,0,0,1,1,0,0
149111206,0.20143884,-0.1800948,0.49940827,0.0,0.0,0.0,0.0,0.0,0.0,0.0,0.0,0,0,0,0,1,0,0,3,0,0,0,1,1,0,0
149311378,0.206235,-0.17298578,0.49940827,0.0,0.0,0.0,0.0,0.0,0.0,0.0,0.0,0,0,0,0,1,0,0,3,0,0,0,1,1,0,0
149513537,0.20383693,-0.1421801,0.49940827,0.0,0.0,0.0,0.0,0.0,0.0,0.0,0.0,0,0,0,0,1,0,0,3,0,0,0,1,1,0,0
149712506,0.21582733,-0.1421801,0.49940827,0.0,0.0,0.0,0.0,0.0,0.0,0.0,0.0,0,0,0,0,1,0,0,3,0,0,0,1,1,0,0
149912414,0.206235,-0.14454976,0.49940827,0.0,0.0,0.0,0.0,0.0,0.0,0.0,0.0,0,0,0,0,1,0,0,3,0,0,0,1,1,0,0
150114474,0.20383693,-0.14454976,0.49940827,0.0,0.0,0.0,0.0,0.0,0.0,0.0,0.0,0,0,0,0,1,0,0,3,0,0,0,1,1,0,0
150314884,0.19904077,-0.15165877,0.49940827,0.0,0.0,0.0,0.0,0.0,0.0,0.0,0.0,0,0,0,0,1,0,0,3,0,0,0,1,1,0,0
150516301,0.19904077,-0.14454976,0.49940827,0.0,0.0,0.0,0.0,0.0,0.0,0.0,0.0,0,0,0,0,1,0,0,3,0,0,0,1,1,0,0
150717014,0.20383693,-0.15402843,0.49940827,0.0,0.0,0.0,0.0,0.0,0.0,0.0,0.0,0,0,0,0,1,0,0,3,0,0,0,1,1,0,0
150918432,0.2086331,-0.15165877,0.49940827,0.0,0.0,0.0,0.0,0.0,0.0,0.0,0.0,0,0,0,0,1,0,0,3,0,0,0,1,1,0,0
151119404,0.22062351,-0.13270143,0.49940827,0.0,0.0,0.0,0.0,0.0,0.0,0.0,0.0,0,0,0,0,1,0,0,3,0,0,0,1,1,0,0
151320826,0.2733813,-0.0900474,0.49940827,0.0,0.0,0.0,0.0,0.0,0.0,0.0,0.0,0,0,0,0,1,0,0,3,0,0,0,1,1,0,0
151519510,0.29016787,-0.08293839,0.49940827,0.0,0.0,0.0,0.0,0.0,0.0,0.0,0.0,0,0,0,0,1,0,0,3,0,0,0,1,1,0,0
151718236,0.29016787,-0.08056872,0.49940827,0.0,0.0,0.0,0.0,0.0,0.0,0.0,0.0,0,0,0,0,1,0,0,3,0,0,0,1,1,0,0
151919043,0.2877698,-0.06872038,0.5005917,0.0,0.0,0.0,0.0,0.0,0.0,0.0,0.0,0,0,0,0,1,0,0,3,0,0,0,1,1,0,0
152117837,0.2877698,-0.06635071,0.5005917,0.0,0.0,0.0,0.0,0.0,0.0,0.0,0.0,0,0,0,0,1,0,0,3,0,0,0,1,1,0,0
152319040,0.2997602,-0.06872038,0.5005917,0.0,0.0,0.0,0.0,0.0,0.0,0.0,0.0,0,0,0,0,1,0,0,3,0,0,0,1,1,0,0
152520210,0.26378897,-0.073459715,0.5005917,0.0,0.0,0.0,0.0,0.0,0.0,0.0,0.0,0,0,0,0,1,0,0,3,0,0,0,1,1,0,0
152721563,0.24220623,-0.07109005,0.5005917,0.0,0.0,0.0,0.0,0.0,0.0,0.0,0.0,0,0,0,0,1,0,0,3,0,0,0,1,1,0,0
152922602,0.24220623,-0.073459715,0.5005917,0.0,0.0,0.0,0.0,0.0,0.0,0.0,0.0,0,0,0,0,1,0,0,3,0,0,0,1,1,0,0
153121302,0.24220623,-0.07819905,0.49940827,0.0,0.0,0.0,0.0,0.0,0.0,0.0,0.0,0,0,0,0,1,0,0,3,0,0,0,1,1,0,0
153320085,0.24220623,-0.08293839,0.49940827,0.0,0.0,0.0,0.0,0.0,0.0,0.0,0.0,0,0,0,0,1,0,0,3,0,0,0,1,1,0,0
153521143,0.27817747,-0.07109005,0.49940827,0.0,0.0,0.0,0.0,0.0,0.0,0.0,0.0,0,0,0,0,1,0,0,3,0,0,0,1,1,0,0
153722102,0.2877698,-0.073459715,0.49940827,0.0,0.0,0.0,0.0,0.0,0.0,0.0,0.0,0,0,0,0,1,0,0,3,0,0,0,1,1,0,0
153920740,0.26378897,-0.07819905,0.49940827,0.0,0.0,0.0,0.0,0.0,0.0,0.0,0.0,0,0,0,0,1,0,0,3,0,0,0,1,1,0,0
154119522,0.1438849,-0.059241705,0.49822485,0.0,0.0,0.0,0.0,0.0,0.0,0.0,0.0,0,0,0,0,1,0,0,3,0,0,0,1,1,0,0
154318154,0.16786571,-0.056872036,0.49822485,0.0,0.0,0.0,0.0,0.0,0.0,0.0,0.0,0,0,0,0,1,0,0,3,0,0,0,1,1,0,0
154520699,0.16786571,-0.047393367,0.50177515,-0.05922551,0.0,0.0,0.0,0.0,0.0,0.0,0.0,0,0,0,0,1,0,0,3,0,0,0,1,1,0,0
154718798,0.16306955,-0.0450237,0.5005917,-0.10022779,0.0,0.0,0.0,0.0,0.0,0.0,0.0,0,0,0,0,1,0,0,3,0,0,0,1,1,0,0
154919201,0.1558753,-0.04028436,0.50177515,-0.19589977,0.0,0.0,0.0,0.0,0.0,0.0,0.0,0,0,0,0,1,0,0,3,0,0,0,1,1,0,0
155120534,0.16306955,-0.049763035,0.50177515,-0.28246012,0.0,0.0,0.0,0.0,0.0,0.0,0.0,0,0,0,0,1,0,0,3,0,0,0,1,1,0,0
155321645,0.16546762,-0.04265403,0.5029586,-0.3735763,0.0,0.0,0.0,0.0,0.0,0.0,0.0,0,0,0,0,1,0,0,3,0,0,0,1,1,0,0
155520308,0.17026378,-0.04265403,0.50177515,-0.43052393,0.0,0.0,0.0,0.0,0.0,0.0,0.0,0,0,0,0,1,0,0,3,0,0,0,1,1,0,0
155721588,0.17266187,-0.047393367,0.5029586,-0.4236902,0.0,0.0,0.0,0.0,0.0,0.0,0.0,0,0,0,0,1,0,0,3,0,0,0,1,1,0,0
155920438,0.17505996,-0.04265403,0.5029586,-0.30068338,0.0,0.0,0.0,0.0,0.0,0.0,0.0,0,0,0,0,1,0,0,3,0,0,0,1,1,0,0
156117118,0.17985612,-0.04265403,0.5029586,-0.39635536,0.0,0.0,0.0,0.0,0.0,0.0,0.0,0,0,0,0,1,0,0,3,0,0,0,1,1,0,0
156318887,0.1822542,-0.037914693,0.50177515,-0.3781321,0.0,0.0,0.0,0.0,0.0,0.0,0.0,0,0,0,0,1,0,0,3,0,0,0,1,1,0,0
156517819,0.19424461,-0.04028436,0.5005917,-0.14578588,0.0,0.0,0.0,0.0,0.0,0.0,0.0,0,0,0,0,1,0,0,3,0,0,0,1,1,0,0
156716652,0.19664268,-0.035545025,0.50177515,0.0,0.0,0.0,0.0,0.0,0.0,0.0,0.0,0,0,0,0,1,0,0,3,0,0,0,1,1,0,0
156922212,0.19184652,-0.030805686,0.5005917,0.0,0.0,0.0,0.0,0.0,0.0,0.0,0.0,0,0,0,0,1,0,0,3,0,0,0,1,1,0,0
157113063,0.26618704,0.0,0.5005917,0.0,0.0,0.0,0.0,0.0,0.0,0.0,0.0,0,0,0,0,1,0,0,3,0,0,0,1,1,0,0
157313017,0.33093524,0.0,0.50177515,0.0,0.0,0.0,0.0,0.0,0.0,0.0,0.0,0,0,0,0,1,0,0,3,0,0,0,1,1,0,0
