timestamp,timestamp_sample,accel_device_id,gyro_device_id,delta_angle[0],delta_angle[1],delta_angle[2],delta_velocity[0],delta_velocity[1],delta_velocity[2],delta_angle_dt,delta_velocity_dt,delta_velocity_clipping
37327037,37326693,3670026,3670026,-2.9190005e-05,2.3446986e-05,0.00023168913,0.0004927405,-0.004544225,-0.046408903,4772,4772,0
37332025,37331658,3670026,3670026,-5.9700833e-05,-1.34989095e-05,4.2837775e-05,0.0010483098,-0.0034078239,-0.048385277,4965,4965,0
37828828,37828464,3670026,3670026,0.00087468023,-0.00010243269,-0.00049931376,-0.00096729846,-0.0030235844,-0.049129777,4995,4995,0
38325494,38325065,3670026,3670026,-0.0013666755,2.8179666e-05,-0.000674677,-0.0044499296,0.002491247,-0.04262895,4932,4932,0
38827071,38826744,3670026,3670026,0.00020332333,-0.00026265363,0.00032243028,-0.0025416752,-0.0024566487,-0.054518566,4926,4926,0
39328771,39328400,3670026,3670026,-0.0006369337,0.00066990353,-0.0006310446,-0.00628304,-0.004592333,-0.054694403,4966,4966,0
39825479,39825102,3670026,3670026,-0.0007608875,-0.00039103848,-0.0005015802,-0.0055947364,0.0015763524,-0.05217051,4964,4964,0
40327123,40326772,3670026,3670026,0.00011339415,0.00013658432,-3.1091622e-05,-0.0015539048,-0.012372212,-0.058126643,4967,4967,0
40828779,40828441,3670026,3670026,0.0008300335,-9.945867e-05,0.00062435307,0.017483305,-0.0060940166,-0.039433446,4967,4967,0
41330573,41330186,3670026,3670026,0.0006288472,0.0025275506,0.0011053466,-0.014205209,-0.0013112469,-0.05582812,4992,4992,0
41827215,41826821,3670026,3670026,0.0017020785,-0.00040091868,0.00019622647,-0.0018702396,0.00061730895,-0.04576422,4975,4975,0
42323842,42323515,3670026,3670026,-3.5519675e-05,0.00040047045,-3.35479e-05,-0.012771335,-0.0015211059,-0.052141145,4967,4967,0
42825562,42825187,3670026,3670026,0.0002532841,2.018927e-07,-0.0003827264,0.008480299,-0.0007781043,-0.040623993,4969,4969,0
43327223,43326854,3670026,3670026,-0.0016968857,0.00030452188,0.001185901,-0.00263851,-0.00766603,-0.05705857,4967,4967,0
43828868,43828527,3670026,3670026,9.800902e-05,0.0011564356,0.00044002157,-0.0060356287,0.009451989,-0.053252276,4971,4971,0
44330548,44330200,3670026,3670026,0.0004338776,-0.0005205891,-0.0011596488,0.0029648354,-0.004905743,-0.0457075,4974,4974,0
44827343,44826969,3670026,3670026,-0.0011844541,0.00019056893,0.0004513617,-0.009973537,0.0070557795,-0.056625526,4989,4989,0
45323971,45323598,3670026,3670026,0.0005929233,-0.000546245,-0.00054963044,-0.005485346,-0.010504333,-0.053368445,4968,4968,0
45825648,45825267,3670026,3670026,0.00051432225,2.6530765e-06,-0.00045938982,-0.0031161124,-0.019033244,-0.045574997,4965,4965,0
46327271,46326937,3670026,3670026,0.0010647834,-0.0005327424,0.00067996426,-0.0065715956,0.0019447776,-0.053142928,4965,4965,0
46828932,46828606,3670026,3670026,-0.0003737255,-4.3777512e-05,0.00012762687,0.0012984261,0.0030476914,-0.046860382,4967,4967,0
47325736,47325309,3670026,3670026,0.0005465214,-0.00039933808,-0.00035871594,0.006364305,-0.0054455646,-0.04847814,4967,4967,0
47827374,47827031,3670026,3670026,-0.00094113074,0.0008290311,0.0008936737,-0.0015190934,0.016626652,-0.050804082,5019,5019,0
48329168,48328754,3670026,3670026,0.00038574493,-0.0018036482,-0.0006241141,0.0021162978,-0.015373263,-0.04620309,4988,4988,0
48825769,48825351,3670026,3670026,0.0013734903,-0.00070526777,-0.0009294072,0.004200327,-0.012071613,-0.042315874,4967,4967,0
49327356,49327023,3670026,3670026,-0.00154286,0.0009375626,0.0006132638,0.00011853269,0.004939502,-0.051870666,4969,4969,0
49824055,49823724,3670026,3670026,0.0005953498,0.00030323406,-0.0004734143,0.00013291283,-0.019022465,-0.04535292,4967,4967,0
50325751,50325424,3670026,3670026,0.001728557,-0.00027848838,-0.00033488704,0.0055133533,-0.0015447547,-0.050869655,4994,4994,0
50827492,50827064,3670026,3670026,0.00066578377,7.9728496e-05,-0.00039616384,0.005348188,-0.00532134,-0.049835365,4966,4966,0
51329082,51328734,3670026,3670026,-0.00012832206,0.0004999924,0.0002124636,0.0041047055,0.0017518242,-0.050401945,4967,4967,0
51825926,51825600,3670026,3670026,-0.0012112544,-0.0010610364,0.0009828748,-0.009224343,0.004130782,-0.054298934,4992,4992,0
52327431,52327106,3670026,3670026,9.95778e-05,-4.5900335e-05,0.0004215167,0.0021613722,0.010952526,-0.048316915,4966,4966,0
52824174,52823810,3670026,3670026,0.0009043538,0.002129691,-0.00072636286,0.011522858,-0.0054934365,-0.039754376,4968,4968,0
53325803,53325479,3670026,3670026,0.00049932144,0.0001139101,-0.00033092592,0.010309402,0.0013207917,-0.043577787,4967,4967,0
53827521,53827149,3670026,3670026,0.0010698391,0.00062904623,0.0006165978,0.003601079,0.0090629,-0.046399463,4961,4961,0
54329188,54328819,3670026,3670026,-0.0007698658,-0.001551504,-0.00010881038,-0.009763561,-0.020516915,-0.05030325,4967,4967,0
54825863,54825522,3670026,3670026,0.00047629344,-0.00019402923,-0.00063212134,-0.007101962,-0.01943113,-0.04602339,4967,4967,0
55327708,55327383,3670026,3670026,0.0003883186,-9.838009e-05,-0.00015354043,-0.0057300623,-0.01650227,-0.051897857,4992,4992,0
55824328,55823898,3670026,3670026,-0.00072408555,0.00029063146,0.0009001215,-0.009259369,0.0005459782,-0.05277122,4968,4968,0
56325988,56325566,3670026,3670026,0.0005185559,-0.00031292925,-0.0006474714,0.0048779882,-0.007448819,-0.046310406,4967,4967,0
56827653,56827236,3670026,3670026,-0.0013874813,0.0004612529,0.0009744107,-0.011877938,-0.0018320109,-0.057083387,4965,4965,0
57329244,57328908,3670026,3670026,-0.00049205904,-0.00012144415,-4.1973683e-05,-0.005258871,-0.008390604,-0.053018406,4969,4969,0
57826014,57825609,3670026,3670026,0.00029413405,-0.00031866165,-0.00049813755,-0.003221775,-0.020924827,-0.051164355,4967,4967,0
58327621,58327280,3670026,3670026,0.00018382774,-0.0001808264,0.0010282325,-0.005528107,-0.00848531,-0.05010066,4967,4967,0
58829471,58829107,3670026,3670026,0.0004615565,-0.00020209336,0.00042855038,0.004974479,0.011437094,-0.049982764,4931,4931,0
59326027,59325653,3670026,3670026,0.00088706636,-0.0003124599,-0.0021688312,0.007945516,-0.017474826,-0.041936923,4963,4963,0
59827710,59827339,3670026,3670026,-0.00027150195,-0.00020342931,-0.0022844556,-0.008580983,-0.0018070707,-0.051052317,4935,4935,0
60324352,60324026,3670026,3670026,0.000511087,-0.00035592951,-0.0018794448,0.0042986195,-0.009224232,-0.047014315,4964,4964,0
60826077,60825749,3670026,3670026,0.0007525784,-0.0003517646,-0.0009520228,-0.0022157566,-0.023576375,-0.04279996,5019,5019,0
61327735,61327368,3670026,3670026,-0.001662804,-0.001792684,0.0003498626,-0.0020997953,-0.0038655924,-0.050579533,4968,4968,0
61829395,61829043,3670026,3670026,-0.00038450185,-0.00030854996,-0.0007386695,0.0022929574,-0.01239907,-0.044336297,4973,4973,0
62326277,62325909,3670026,3670026,0.000514064,0.0033713318,-0.00017196214,0.002580802,0.000108729226,-0.040896483,4988,4988,0
62827836,62827463,3670026,3670026,1.3680845e-05,-0.0040212343,1.3426249e-05,0.008664844,0.0003864587,-0.046166446,5019,5019,0
63324490,63324116,3670026,3670026,0.0038045512,0.00069386314,-0.00078789116,0.0031519071,-0.011135609,-0.049482726,4967,4967,0
63826113,63825785,3670026,3670026,-0.0017016747,0.0003591059,-6.873473e-05,0.006378764,0.0011035765,-0.04914562,4966,4966,0
64327775,64327455,3670026,3670026,0.0017939684,-7.653667e-05,0.00040149293,0.0009378365,0.015896909,-0.04968265,4965,4965,0
64829532,64829126,3670026,3670026,0.00014942215,-0.00023750993,0.0005433167,-0.0012057875,0.0036945697,-0.0511197,4967,4967,0
65326176,65325829,3670026,3670026,-0.00016488605,0.0002944475,-0.00021278762,0.008459589,0.0062796054,-0.04574078,4967,4967,0
65828105,65827693,3670026,3670026,-0.0014501665,0.0001983558,0.0004899192,-0.007132794,-0.001311199,-0.055424593,4991,4991,0
66324585,66324213,3670026,3670026,0.0004135492,7.556277e-05,-0.0007471437,0.0046306113,-0.00617278,-0.048989784,4977,4977,0
66826297,66825927,3670026,3670026,0.00051485753,0.00031577697,-0.00033643132,0.006552961,0.0037746546,-0.04503715,5019,5019,0
67327920,67327544,3670026,3670026,-0.0010497441,0.00044421258,0.0011028887,-0.0023894985,0.010829203,-0.052705333,4967,4967,0
67824624,67824297,3670026,3670026,0.00042396065,-0.00042498193,2.0208669e-05,-0.0074268556,-0.008627797,-0.048190027,5015,5015,0
68326259,68325920,3670026,3670026,-0.00032981008,0.00036721397,2.100287e-05,0.007302727,-0.0019357814,-0.044905785,4969,4969,0
68827984,68827592,3670026,3670026,0.0008226566,-0.0022753533,-0.0003201234,0.00042097192,-0.007118275,-0.05227785,4970,4970,0
69329638,69329299,3670026,3670026,-0.00065856805,-0.0015129952,0.0007047025,-0.0035938595,0.001129426,-0.053952303,4789,4789,0
69826408,69825993,3670026,3670026,-0.000115482355,-0.0012271994,-0.00012670473,-0.0017368044,-0.01147283,-0.0434652,4988,4988,0
70328004,70327634,3670026,3670026,0.00036608544,0.0002962409,-0.00023560146,-0.0052757035,-0.01219665,-0.047817614,4967,4967,0
70824707,70824338,3670026,3670026,-0.00014276389,-5.6307454e-05,4.752634e-05,-0.014213323,-0.011738989,-0.051572613,4968,4968,0
71326336,71326008,3670026,3670026,-0.00089129247,-0.00035508693,0.00046957174,-0.008241803,-0.0091964705,-0.05242428,4966,4966,0
71828011,71827678,3670026,3670026,0.00051727344,-0.0005149072,-5.082665e-05,-0.0013835999,-3.6321537e-05,-0.049407594,4963,4963,0
72329698,72329350,3670026,3670026,-0.00029178825,0.00025224625,0.000122035955,0.0015793851,2.376877e-05,-0.043526433,4968,4968,0
72826392,72826053,3670026,3670026,0.0008129712,0.00015632661,-0.0008745993,-0.0003526922,-0.019529503,-0.045666065,4964,4964,0
73323150,73322782,3670026,3670026,0.0002527976,-3.3131117e-05,-9.036517e-05,-0.0061256513,-0.0075455094,-0.044188373,4987,4987,0
73824811,73824428,3670026,3670026,-0.0016977636,-6.6513014e-05,-2.0322754e-05,-0.0032025282,-0.010648562,-0.055280283,4968,4968,0
74326470,74326099,3670026,3670026,0.0016322552,-3.9181516e-05,-0.0004540234,0.008416549,0.006558781,-0.04471023,4963,4963,0
74828198,74827772,3670026,3670026,0.0003900033,0.0002166439,-0.0006057083,0.010817975,-0.005396416,-0.042068843,4928,4928,0
75329889,75329439,3670026,3670026,0.001036675,5.787864e-05,-0.000115525065,-0.011948092,-0.023319777,-0.05273621,4967,4967,0
75826542,75826143,3670026,3670026,-0.0005001248,0.00031377474,0.00072809873,-0.013668482,-8.933806e-06,-0.056092393,4948,4948,0
76328163,76327814,3670026,3670026,-0.0021448317,0.00017251246,0.00080947194,0.0020548992,0.0143760955,-0.0531621,4967,4967,0
76824986,76824573,3670026,3670026,0.0016683629,0.00033910378,0.0002731069,-0.0018009245,-0.0033384361,-0.051169056,4996,4996,0
77326520,77326194,3670026,3670026,0.0007493209,-0.0001280507,-0.00041600683,0.010003029,0.0054704077,-0.043250255,4970,4970,0
77828239,77827860,3670026,3670026,0.0012894246,-0.00027389472,-0.00082175905,0.0039966223,-0.010240068,-0.04419444,4967,4967,0
78324930,78324563,3670026,3670026,-8.154863e-05,-8.4707506e-05,-0.00014630395,-0.0047145505,-0.006431493,-0.04631779,4936,4936,0
78826562,78826234,3670026,3670026,-0.00031005405,-4.6931607e-05,1.979327e-05,-0.009357991,-0.0024610725,-0.053830676,4967,4967,0
79328261,79327906,3670026,3670026,-0.00066681276,0.0001321309,-0.0015508682,-0.00630594,-0.009857562,-0.0502485,4968,4968,0
79829923,79829576,3670026,3670026,3.8723934e-05,-0.00019226258,-0.0025695544,-0.001621892,-0.0063585243,-0.05000244,4968,4968,0
80326779,80326416,3670026,3670026,7.1933886e-05,-0.0003635312,-0.0028135497,0.0033842567,-0.021940082,-0.043865073,4992,4992,0
80828371,80827950,3670026,3670026,0.0007792745,-0.0003895439,-0.00044799232,-0.0055956775,-0.00906244,-0.054754317,4967,4967,0
81325028,81324654,3670026,3670026,-0.00015392108,0.00014456632,0.00067015784,-0.0014878088,0.0020675778,-0.051211733,4966,4966,0
81826652,81826325,3670026,3670026,0.0010113945,-0.00012823592,-0.00021101278,0.009884302,0.009155906,-0.04823537,4967,4967,0
82328420,82327996,3670026,3670026,0.0010799944,-2.4701128e-05,4.9004488e-05,-0.00029936607,-0.0022694182,-0.054044817,4967,4967,0
82830008,82829663,3670026,3670026,-0.00030406204,0.00042488115,0.0012363703,-0.0040949425,0.013723959,-0.052264728,4941,4941,0
83326715,83326371,3670026,3670026,0.0006272794,-3.2227076e-06,0.0011648405,0.0010329619,-0.0035574974,-0.0530175,4967,4967,0
83823530,83823165,3670026,3670026,-0.00095790316,-2.8977223e-05,0.0011984631,-0.004463386,-0.0061852494,-0.055788193,4997,4997,0
84325115,84324747,3670026,3670026,0.00021505592,8.404571e-05,0.0008844575,0.0074338345,0.010302745,-0.0436776,4969,4969,0
84826738,84826417,3670026,3670026,0.00039408708,6.200304e-05,0.0013852607,0.00087383547,0.00066260254,-0.05578433,4968,4968,0
85328411,85328087,3670026,3670026,-0.0020507248,0.00025508928,0.00071031565,-0.011569831,-0.007298765,-0.051089283,4966,4966,0
85825115,85824791,3670026,3670026,0.0005594277,0.00043160832,0.000896503,-0.009812175,-0.011733146,-0.056451358,4967,4967,0
86326903,86326511,3670026,3670026,0.001557215,-9.306785e-05,-0.0001929666,0.0043798485,0.002325996,-0.04205006,4984,4984,0
86823508,86823166,3670026,3670026,-0.00058192963,-0.0003828674,-0.0006257703,-0.00577821,-0.022109361,-0.05345595,4964,4964,0
87325382,87324949,3670026,3670026,0.0016947195,0.0002734458,0.000256119,0.002577441,0.00369631,-0.055809967,4993,4993,0
87826961,87826511,3670026,3670026,0.000108495944,-2.2772614e-05,0.00020285722,-0.0005587957,0.002943963,-0.04572181,4970,4970,0
88328617,88328179,3670026,3670026,0.00018369296,-1.2057832e-05,0.00018096906,-0.0066761947,-0.021747153,-0.04656553,4967,4967,0
88825255,88824883,3670026,3670026,0.00034717083,-0.0012218597,-0.00031900237,-0.0029665246,-0.011098515,-0.04387038,4966,4966,0
89326925,89326599,3670026,3670026,-0.0010005805,0.0003268087,0.000706568,-0.010418219,-0.00262007,-0.05413355,5012,5012,0
89828607,89828225,3670026,3670026,0.0007135033,-0.00052126206,-0.0004331324,-0.0020405906,-0.013788419,-0.044598382,4965,4965,0
90330248,90329897,3670026,3670026,-0.0036746731,0.00023471452,0.00030466355,-0.0058166557,-0.009821839,-0.052339103,4968,4968,0
90827094,90826730,3670026,3670026,0.0015820394,-0.00036569318,-0.00089682714,0.004129672,-0.010462938,-0.04830358,4984,4984,0
91323632,91323306,3670026,3670026,0.0008050579,-0.00011206016,0.00026416656,-0.0023995207,0.0019707053,-0.050789777,4969,4969,0
91825365,91824975,3670026,3670026,-0.0014554687,-0.0005586729,-0.0009802679,0.0043343687,-0.019798456,-0.041988898,4966,4966,0
92327058,92326645,3670026,3670026,0.0012325813,-0.00041674677,0.00011246565,-0.00022045242,0.0012811489,-0.046196453,4966,4966,0
92828696,92828320,3670026,3670026,-0.00022470407,-0.0005735613,-0.00024473475,-0.0043398477,-0.0038880948,-0.04749098,4933,4933,0
93330432,93329988,3670026,3670026,0.0011943319,-0.00018613611,-0.0008289715,0.0042434228,-0.017338978,-0.044751085,4968,4968,0
93827049,93826693,3670026,3670026,0.0007881139,-6.1166575e-05,-0.0005041317,0.005341612,-0.006959402,-0.04912037,4968,4968,0
94323945,94323529,3670026,3670026,0.0006741431,5.0275405e-05,-0.0001962785,-0.004047021,-0.011141026,-0.053769883,4987,4987,0
94825434,94825067,3670026,3670026,3.970241e-05,0.00021499644,-0.00020575554,0.0025906472,0.0059579774,-0.049605466,4966,4966,0
95327107,95326738,3670026,3670026,-0.0013740461,-0.0016696617,0.0011528435,-0.017447637,-0.006609218,-0.057294484,4967,4967,0
95828820,95828411,3670026,3670026,-0.0003048934,0.00030880581,0.00068174535,-0.009564758,-0.0022590596,-0.053530943,4970,4970,0
96325437,96325113,3670026,3670026,0.00035739865,-0.0013449193,0.000106915955,-0.0014377569,-0.0052502174,-0.054805316,4967,4967,0
96827184,96826788,3670026,3670026,2.4116529e-05,0.00051678676,0.00014434016,-0.005484774,-0.0116479425,-0.049542412,4972,4972,0
97328846,97328506,3670026,3670026,-0.00079340104,0.0004124403,0.0004801471,0.0009268123,0.011706511,-0.04753266,4978,4978,0
97825687,97825322,3670026,3670026,0.00029929212,-0.0007359773,-0.0006543849,0.0030624373,-0.013880062,-0.047298476,4989,4989,0
98327242,98326826,3670026,3670026,0.0005034351,0.00082550844,-0.00060112186,-0.00033029995,-0.00790673,-0.047128517,4963,4963,0
98828880,98828502,3670026,3670026,5.663015e-05,0.0011506258,-0.00021819599,0.000765101,-0.0146819,-0.0530188,4969,4969,0
99325627,99325205,3670026,3670026,0.00029084197,-0.0020048572,-0.00058227876,0.010895238,-0.011870488,-0.04259382,4966,4966,0
99827290,99826879,3670026,3670026,0.00061692996,-0.001351696,-0.00015259828,-0.007058401,-0.007555525,-0.04639194,4968,4968,0
100328975,100328578,3670026,3670026,0.00041462047,0.001438133,-0.0003743948,-0.0033968436,-0.00032485108,-0.050071362,4978,4978,0
100830612,100830218,3670026,3670026,-0.00057069794,0.0010146116,0.00084198784,-0.0043430463,0.007560713,-0.05183879,4968,4968,0
101327452,101327129,3670026,3670026,-0.0008838595,0.0034812966,0.00019339337,0.0030706555,0.008482167,-0.05384744,5011,5011,0
101824073,101823625,3670026,3670026,0.0013018695,0.0021770052,-0.0012675198,0.0100333765,-0.0019147146,-0.038758874,4967,4967,0
102325766,102325296,3670026,3670026,-0.0007304978,0.0020479567,-2.6049285e-05,-0.0116708,-0.006025387,-0.053213987,4967,4967,0
102827296,102826967,3670026,3670026,-4.044893e-05,-0.0016892309,-0.00045114383,0.012061214,-0.0045635663,-0.041820444,4967,4967,0
103329004,103328639,3670026,3670026,-0.0005160253,0.0021534762,0.0002543864,-0.0041866857,0.009583674,-0.057829782,4968,4968,0
103825666,103825342,3670026,3670026,-0.00030458602,0.0013183522,0.0004897659,-0.0068502487,0.00061078765,-0.05321694,4967,4967,0
104327366,104327013,3670026,3670026,0.0007779265,0.0010711707,-0.00066624954,0.008722855,-0.0055940826,-0.0427581,4967,4967,0
104824334,104823915,3670026,3670026,0.00031210456,0.0023152966,-0.00051663583,-0.005981741,-0.010095946,-0.045861732,4989,4989,0
105325847,105325465,3670026,3670026,0.0019225876,0.000113171605,-0.0008548075,0.0013175467,-0.017724866,-0.04789226,4977,4977,0
105827473,105827059,3670026,3670026,-0.00021139381,3.440741e-05,-0.00016865844,-0.0020708647,-0.01042614,-0.055295072,4967,4967,0
106329117,106328731,3670026,3670026,-0.00067508745,0.0020475383,-0.00019228151,-0.0024984046,-0.0049119215,-0.05052087,4959,4959,0
106825858,106825435,3670026,3670026,-6.232771e-05,-0.0029019902,0.0013890185,-0.0056396388,0.007902782,-0.05151849,4968,4968,0
107327544,107327111,3670026,3670026,-0.00037576404,0.0005686551,6.366691e-05,-0.005200347,-0.0037930417,-0.052839827,4973,4973,0
107829155,107828798,3670026,3670026,0.0004651582,-0.0014339045,-3.1999185e-05,-0.0024691771,-0.014116755,-0.051192272,4986,4986,0
108325818,108325480,3670026,3670026,0.00091644825,-0.0014305488,1.8546036e-05,-0.004030245,-0.015036592,-0.04188009,4964,4964,0
108827577,108827204,3670026,3670026,0.00041035048,-0.0018181605,-0.00041468584,-0.0007378987,-0.015732633,-0.048670433,4991,4991,0
109324227,109323857,3670026,3670026,-0.00059753243,0.002275824,2.228692e-05,-0.00089360843,0.0023955842,-0.04461897,4969,4969,0
109825895,109825526,3670026,3670026,-0.001102744,-0.00022532346,0.00068053225,-0.012352999,0.0009371044,-0.056509186,4967,4967,0
110327526,110327202,3670026,3670026,0.0019337647,-0.0025747614,-0.00056088384,0.0010779203,-0.014329731,-0.04503302,4972,4972,0
110829245,110828868,3670026,3670026,0.0002707083,0.00021330139,0.0002225308,0.0097002955,-0.00443296,-0.048065726,4965,4965,0
111325979,111325590,3670026,3670026,-0.00050424633,0.0034857336,0.00025823453,0.0012654513,0.00509478,-0.05198697,4980,4980,0
111827645,111827243,3670026,3670026,0.0013144211,0.0011874464,-0.0010953269,0.007997728,-0.0056755454,-0.043410137,4925,4925,0
112324423,112324000,3670026,3670026,-4.5451743e-05,0.0022370312,-0.00016269994,-0.0040347595,-0.008525434,-0.053217515,4989,4989,0
112825996,112825625,3670026,3670026,-0.00038512354,0.0023540554,0.00043114793,-0.009024034,-0.0041843224,-0.05500415,4956,4956,0
113327732,113327292,3670026,3670026,0.0004122434,0.002102078,-0.0007691734,-0.004980686,-0.01773956,-0.047156084,4970,4970,0
113829337,113828961,3670026,3670026,3.8656676e-06,-0.0014774238,5.633668e-05,-0.0017021009,-0.012982737,-0.05202421,4968,4968,0
114325989,114325664,3670026,3670026,-0.0008072762,0.0034503662,8.092091e-05,-0.010606994,-0.002249835,-0.05449459,4967,4967,0
114827762,114827335,3670026,3670026,-0.0006950392,0.0024171825,0.00076891284,-0.0024966898,0.004909412,-0.052628808,4967,4967,0
115324399,115324054,3670026,3670026,-4.2994074e-05,0.001013118,-0.00017714796,-0.0037275294,-0.0067569744,-0.044628434,4926,4926,0
115826151,115825784,3670026,3670026,-0.0020333733,-0.0003494904,0.00086185604,-0.014733956,-0.002142276,-0.05864058,4983,4983,0
116327747,116327380,3670026,3670026,0.0004462366,0.00069269363,-0.000819189,0.009006507,-0.00044455082,-0.045306765,4967,4967,0
116829399,116829069,3670026,3670026,0.00010330375,0.0003760506,-9.2675196e-05,0.010091955,-0.0034586322,-0.046072807,4984,4984,0
117326137,117325755,3670026,3670026,0.0019879614,0.000469137,-0.000838062,0.0068401652,-0.009132427,-0.04624446,4963,4963,0
117827833,117827470,3670026,3670026,0.0022086608,0.0014201873,-0.0004406152,0.0036232476,-0.010858789,-0.04597472,5011,5011,0
118329485,118329097,3670026,3670026,-0.001961424,-0.00025612846,-0.0004512515,-0.0038545546,-0.017438978,-0.044047095,4967,4967,0
118826145,118825801,3670026,3670026,0.0019024368,0.00029708588,-0.00090507336,0.006720757,-0.000737139,-0.04574895,4967,4967,0
119327947,119327577,3670026,3670026,-0.00010137511,0.0008317521,-0.00062456937,0.011101816,-0.0013666481,-0.045293372,4931,4931,0
119824546,119824176,3670026,3670026,0.0015723521,0.0004258227,0.0009228605,-0.0051009,0.0042096954,-0.053831242,4968,4968,0
120326203,120325871,3670026,3670026,-0.00029197123,0.00016468157,-0.0004702573,0.0028105974,-0.0058680777,-0.044351727,4988,4988,0
120827841,120827518,3670026,3670026,0.0024430503,0.00055606937,0.0004913854,-0.013000803,-0.014689367,-0.055223096,4968,4968,0
121329561,121329188,3670026,3670026,4.3177803e-05,0.00021076533,0.00092635455,-0.009380036,0.0054809605,-0.056167696,4967,4967,0
121826242,121825892,3670026,3670026,6.4156964e-05,0.0023961458,0.000616561,-0.004026907,0.002235054,-0.049698822,4966,4966,0
122327921,122327562,3670026,3670026,0.0016619358,-0.0016214413,-0.00086228503,0.0074392282,-0.021348584,-0.044671774,4963,4963,0
122824754,122824430,3670026,3670026,0.00054132286,5.938499e-05,-0.00036369465,0.010073406,2.398525e-07,-0.046010785,4994,4994,0
123326266,123325937,3670026,3670026,-0.00018129895,-4.574143e-05,-0.00044102443,-0.0030783715,-0.008923828,-0.050596036,4967,4967,0
123827986,123827611,3670026,3670026,-0.0014942725,0.0010670879,0.0009914587,-0.010568898,-0.0036622088,-0.056306943,4970,4970,0
124329610,124329279,3670026,3670026,-9.17702e-05,0.00028860386,8.970687e-05,-0.0011482843,0.0029203072,-0.05575642,4966,4966,0
124826308,124825982,3670026,3670026,0.00017381979,-0.00040552462,-0.00017527153,0.0027089564,-0.0022741605,-0.045390427,4962,4962,0
125328057,125327691,3670026,3670026,-8.099793e-05,-0.0016373734,-9.0054107e-07,-0.0013700415,0.001128671,-0.046414483,5005,5005,0
125824741,125824396,3670026,3670026,0.00035065968,-0.0025216527,0.00022984412,-0.0077437214,-0.013554857,-0.04420584,4986,4986,0
126326527,126326156,3670026,3670026,1.127233e-05,0.0010742547,0.00017452553,-0.0057993466,1.5844014e-05,-0.045085263,4985,4985,0
126828067,126827699,3670026,3670026,-0.00061619637,0.001646162,0.0005143996,-0.011842464,-0.0108383065,-0.054591745,4966,4966,0
127324821,127324402,3670026,3670026,-0.0015056274,0.0014639681,0.00047240529,-0.0076088556,-0.0013948703,-0.05489452,4968,4968,0
127826507,127826073,3670026,3670026,9.490181e-05,-0.00086385466,-0.0002439523,-0.009381463,-0.017710375,-0.050861128,4968,4968,0
128328105,128327758,3670026,3670026,-0.00051960174,-0.00028791733,0.0002722702,0.006945562,0.011237531,-0.054069165,4960,4960,0
128829798,128829414,3670026,3670026,-0.0006791776,0.00079874136,7.587355e-05,-0.0015894308,0.0043986943,-0.049151033,4967,4967,0
129326468,129326119,3670026,3670026,0.0005375483,0.00068817113,0.000109782304,-0.011723656,-0.012197344,-0.05087884,4969,4969,0
129828273,129827940,3670026,3670026,-0.00028359564,-0.00066294195,0.00043566825,-0.006818651,-0.0007530386,-0.05341553,4991,4991,0
130324878,130324509,3670026,3670026,0.0004989775,0.000804916,-0.0005156399,0.008829368,0.008095714,-0.042923283,4988,4988,0
130826494,130826163,3670026,3670026,-3.5567227e-05,0.0007216422,6.077813e-05,-0.0035727588,-0.0075845825,-0.055745076,4964,4964,0
131328240,131327861,3670026,3670026,0.00010581066,-0.0009980751,0.00030588955,-0.0025136091,-0.00091311825,-0.0549276,4981,4981,0
131829875,131829503,3670026,3670026,0.0006714598,0.0005633226,-0.0001814551,-0.004558443,-0.011252864,-0.043852996,4967,4967,0
132326600,132326208,3670026,3670026,-0.000569079,0.0035278718,5.54302e-05,-0.0055463,-0.006040015,-0.051464416,4968,4968,0
132823274,132822919,3670026,3670026,-0.00042917536,0.0009989358,0.00035762292,-0.009182208,0.00058419624,-0.055045426,4975,4975,0
133325113,133324743,3670026,3670026,0.00044956943,-0.00079882675,-0.0006469873,-0.0116106495,-0.020698864,-0.04716478,4994,4994,0
133826573,133826251,3670026,3670026,0.00050580304,0.00091329595,-0.00022518335,0.0054643,-0.0034651803,-0.048287254,4966,4966,0
134328250,134327924,3670026,3670026,-3.0278703e-05,0.0020776144,-0.0007021272,-0.0023015067,-0.013822716,-0.041839253,4969,4969,0
134824948,134824625,3670026,3670026,-0.0007427167,0.00078912027,-0.00028503366,-0.007177236,-0.0026657076,-0.05130766,4966,4966,0
135326625,135326296,3670026,3670026,-0.0009727653,0.001984562,-0.0006988449,-0.0032250222,0.0061315917,-0.0528938,4967,4967,0
135828295,135827966,3670026,3670026,0.00036607834,-3.37564e-05,-0.0020643107,-0.0065197446,-0.024423586,-0.05106831,4967,4967,0
136325014,136324670,3670026,3670026,0.0004258983,4.9970058e-05,-0.0019831038,0.0008291744,-0.008768054,-0.04655785,4968,4968,0
136826855,136826533,3670026,3670026,0.00025827752,-0.0012784087,-0.0011201245,0.005273614,0.0066275997,-0.052241307,4986,4986,0
137328393,137328026,3670026,3670026,4.1115118e-06,0.00015716864,-0.000613335,0.0055054477,0.005742299,-0.044578914,4980,4980,0
137825041,137824715,3670026,3670026,-0.00047834264,0.00014971943,-0.00048769242,0.000272153,0.0044573573,-0.050268147,4968,4968,0
138326713,138326385,3670026,3670026,-7.014945e-06,3.522687e-05,-0.00046641257,0.008958715,0.0024071708,-0.045239177,4968,4968,0
138828383,138828055,3670026,3670026,0.00035916804,-0.00010282771,-0.0011185167,0.013562957,0.005285461,-0.041613027,4967,4967,0
139330048,139329727,3670026,3670026,-0.00067686307,0.00016071106,0.00036107708,-0.0017541379,0.008904133,-0.050596718,4968,4968,0
139826810,139826463,3670026,3670026,0.0014512718,-0.00054459187,-0.00070149486,-4.8579095e-05,-0.012440057,-0.044717524,4990,4990,0
140328459,140328106,3670026,3670026,-0.0035318304,-0.0003932441,-4.360555e-05,-0.0036580625,-0.015310542,-0.043623045,4787,4787,0
140825260,140824825,3670026,3670026,-6.549627e-05,0.0010385398,0.0004978544,0.0016733281,0.001711111,-0.043312155,4981,4981,0
141326857,141326472,3670026,3670026,-0.00031520892,0.00015277162,-0.00019688149,0.008344347,0.0033431354,-0.045274634,4967,4967,0
141828469,141828143,3670026,3670026,-0.0004243139,0.00034416214,0.0005709279,-0.0090071615,0.0007820523,-0.057764485,4967,4967,0
142330146,142329813,3670026,3670026,0.00022160696,0.0033890922,-0.00029241806,0.0031385422,-0.001630422,-0.045758333,4967,4967,0
142826840,142826517,3670026,3670026,7.882701e-05,-0.0011736705,-0.00010362272,0.009767996,0.0015452254,-0.04271326,4968,4968,0
143323562,143323219,3670026,3670026,0.0016838316,0.00065562694,-0.0008241927,0.0070058824,0.0003631017,-0.04317586,4967,4967,0
143825240,143824889,3670026,3670026,-0.0003866257,-0.0018327446,0.0001402978,0.0053828484,0.0028948912,-0.043408737,4778,4778,0
144326972,144326648,3670026,3670026,0.0008580129,-5.967062e-05,-0.00063396327,0.0091085555,-0.00358383,-0.043194257,4971,4971,0
144828613,144828231,3670026,3670026,-0.0012245835,-0.003273852,0.00040293895,-0.0060515623,-0.008860322,-0.05166932,4968,4968,0
145325310,145324933,3670026,3670026,0.00023229269,0.0032819726,-0.00076673337,0.003934725,-0.015948696,-0.04463042,4967,4967,0
145826942,145826613,3670026,3670026,-0.00024846714,-0.0014394389,-0.00019857705,0.0019897865,-0.007978988,-0.052073326,4977,4977,0
146328596,146328273,3670026,3670026,0.00015480256,0.0011858396,-0.0002104556,0.001994922,-0.0021012195,-0.054998793,4965,4965,0
146825332,146824976,3670026,3670026,-0.0014936228,-0.002587158,0.0011554804,-0.011519584,-0.001996852,-0.05634871,4967,4967,0
147326989,147326646,3670026,3670026,-0.0010146064,0.0023218675,-0.00018823985,0.007793035,-0.0036171193,-0.04187772,4967,4967,0
147828819,147828444,3670026,3670026,0.0023211667,-0.0017619536,-0.0007674976,0.0039698496,-0.0007807471,-0.05006594,4983,4983,0
148325433,148325074,3670026,3670026,-0.0009409418,0.00043301258,-0.0003688968,0.002859836,-0.012351834,-0.053467922,5004,5004,0
148827114,148826692,3670026,3670026,0.0029167992,-0.00031904687,8.0580256e-05,0.0015333281,-0.0009724983,-0.053455435,4969,4969,0
149328734,149328360,3670026,3670026,-0.0008540383,0.0025537026,-0.00021835517,-0.0040624766,-0.0005020189,-0.050772086,4967,4967,0
149830442,149830030,3670026,3670026,-0.00044210345,-0.0006372081,-0.0010511318,-0.0024585593,-0.022850823,-0.04530531,4967,4967,0
150327076,150326734,3670026,3670026,-0.0006035481,0.0004380614,-0.00023458154,0.0034035884,-0.0033685935,-0.054489046,4968,4968,0
150823826,150823436,3670026,3670026,-0.00032225557,0.0004629205,-0.00015371513,-0.0036257394,-0.0052534556,-0.055712324,4967,4967,0
151325550,151325222,3670026,3670026,0.0006732699,-0.0015111819,0.00076711195,-0.010880801,-0.0026926387,-0.05350741,4975,4975,0
151827150,151826776,3670026,3670026,-0.0006690331,0.00041231382,0.0010138835,0.00650714,0.010227206,-0.054197766,4966,4966,0
152328771,152328446,3670026,3670026,0.0005339421,-0.0022028077,-0.0003463973,0.012442636,-0.011170382,-0.04297517,4967,4967,0
152830447,152830117,3670026,3670026,-0.001294322,-0.0020469627,0.0013611193,-0.010636322,-0.011632573,-0.052882254,4968,4968,0
153327152,153326819,3670026,3670026,0.00020332381,-0.00031648733,-0.00059081445,0.0032905359,-0.012509912,-0.0466468,4967,4967,0
153823922,153823524,3670026,3670026,-0.00021445281,0.0028745506,0.00022854567,-0.011359225,-0.006281658,-0.056759566,4962,4962,0
154325543,154325196,3670026,3670026,-0.00082830206,0.0019569725,0.001071138,0.004681697,0.0073105926,-0.04749604,4971,4971,0
154827286,154826958,3670026,3670026,-0.00075793214,-0.0007041137,0.00010964228,-0.0012329177,-0.0030584803,-0.045677833,4989,4989,0
155328851,155328531,3670026,3670026,-0.00024927896,0.0009395237,-0.00068398943,-0.004454201,-0.004802321,-0.054856315,4967,4967,0
155825590,155825234,3670026,3670026,0.0005270446,-0.00050199084,-0.0020251328,0.012732413,-0.004444697,-0.04413952,4966,4966,0
156327239,156326909,3670026,3670026,-0.00080644793,0.0006179889,-0.00058171083,-0.00048024097,0.0027121329,-0.04708368,4972,4972,0
156828913,156828574,3670026,3670026,0.0008601513,0.0012544631,-0.0005921038,-0.0064708916,-0.023560265,-0.049255088,4960,4960,0
157325670,157325277,3670026,3670026,-0.0005736993,-0.0021068305,0.0010049933,-0.00931429,-9.028757e-05,-0.057265285,4967,4967,0
157827326,157826979,3670026,3670026,-0.0003618659,-0.0005825914,0.0002681384,0.009338083,0.0093531255,-0.042256646,4998,4998,0
158324071,158323745,3670026,3670026,0.00064898795,-0.0009151986,-0.0010970624,0.005303206,-0.018165782,-0.04749599,4995,4995,0
158825648,158825319,3670026,3670026,-0.0008751091,0.0013852208,0.000120353034,-0.0016131734,0.005600057,-0.05462394,4967,4967,0
159327383,159326989,3670026,3670026,0.000116060546,0.0003419508,-3.119652e-05,-0.0021218208,-0.0044640442,-0.057352412,4967,4967,0
159828981,159828659,3670026,3670026,0.0003142933,-0.0017807692,-0.00010793114,0.012445096,0.0025663518,-0.0387606,4966,4966,0
160330733,160330328,3670026,3670026,0.0010285701,0.0026520875,-0.0001645065,-0.00070547726,-0.012129905,-0.044969875,4967,4967,0
160827414,160827031,3670026,3670026,0.0011058432,-0.0032339403,-0.0003851106,0.0015171687,-0.016457725,-0.042233154,4967,4967,0
161324074,161323734,3670026,3670026,-0.00026762675,-0.0011243728,0.0010064198,-0.0029827235,-0.003448328,-0.05404395,4967,4967,0
161825914,161825545,3670026,3670026,0.001551589,0.0016224978,-0.000725985,0.0010669673,-0.0042296667,-0.04865455,4991,4991,0
162327454,162327132,3670026,3670026,-0.0003971895,0.0024369536,-0.00015606212,0.0075492845,0.019463243,-0.04813621,4985,4985,0
162829163,162828743,3670026,3670026,-0.00055929093,0.0019613032,-0.00013768932,-0.010135787,-0.0096640615,-0.05481139,4966,4966,0
163325812,163325445,3670026,3670026,0.00017685418,-0.0036377374,-0.0002042872,0.0007778355,-0.00029787916,-0.04425614,4965,4965,0
163827492,163827116,3670026,3670026,-0.0011646405,-0.0012111969,0.0007552525,-0.008984851,0.0100067565,-0.056048427,4968,4968,0
164324256,164323818,3670026,3670026,-0.0001360309,0.0010320348,0.00054686336,0.0075164274,0.0028931908,-0.048810463,4968,4968,0
164825914,164825486,3670026,3670026,-0.00086892606,-0.0016003622,0.0008912424,-0.0086757345,0.0048703332,-0.054151624,4966,4966,0
165327671,165327303,3670026,3670026,-0.0007982048,0.0023475927,0.0011878446,0.0019027716,0.016176805,-0.054336388,4987,4987,0
165829297,165828826,3670026,3670026,-0.00013330778,0.0022949132,0.00010064178,-0.0045431,0.0058597173,-0.05108087,4967,4967,0
166326004,166325529,3670026,3670026,0.00013954044,-0.0012520914,-0.00056090986,-0.0044578346,-0.01747495,-0.052815404,4967,4967,0
166827587,166827203,3670026,3670026,0.00080150994,-0.00322681,-0.0010477032,0.014911616,-0.0025764753,-0.03888753,4971,4971,0
167324234,167323901,3670026,3670026,-0.00069944706,-0.0011960184,0.00072494027,-0.0003620342,0.006046106,-0.0526934,4968,4968,0
167825927,167825570,3670026,3670026,0.0004998706,0.0019266638,-0.00043610687,0.010760165,0.004259761,-0.04448479,4957,4957,0
168327627,168327240,3670026,3670026,-0.00072083424,-0.00011937805,0.00057357433,-0.004170787,0.0038154114,-0.051164508,4966,4966,0
168824488,168824163,3670026,3670026,0.00073436287,0.0006495156,-0.00065557315,0.0022887175,-0.008529461,-0.045835193,5046,5046,0
169326028,169325658,3670026,3670026,0.00077921426,-0.0010598277,-0.00047652252,-0.003134593,-0.008140109,-0.045048628,5001,5001,0
169827705,169827281,3670026,3670026,0.00014351035,-0.00031976515,-0.00041160913,-0.0004615706,-0.0077196765,-0.050181534,4963,4963,0
170329305,170328976,3670026,3670026,-0.00041083363,-0.002483931,0.00017761342,0.0005170227,0.0015284601,-0.044740338,4989,4989,0
170825978,170825652,3670026,3670026,0.0006567613,-0.003064584,-0.00018943415,-0.0015498897,-0.0038736002,-0.04577463,4966,4966,0
171327732,171327322,3670026,3670026,-0.0009796101,-0.00080709043,0.0009822691,-0.018446114,-0.0062589333,-0.057791915,4967,4967,0
171824416,171824024,3670026,3670026,0.00087992137,0.0015951655,-0.0005954516,0.010360773,0.0075972737,-0.04027128,4958,4958,0
172326243,172325872,3670026,3670026,-0.0005303234,1.7954722e-05,0.00034738606,-0.0070334864,-0.00042140484,-0.055933457,4995,4995,0
172827804,172827378,3670026,3670026,0.00034161122,0.00017896095,8.097515e-05,0.00058880274,0.013581158,-0.04362953,4983,4983,0
173329357,173329032,3670026,3670026,0.00040751902,0.0009365005,-0.00025466597,0.0021684438,0.0003624678,-0.05359046,4955,4955,0
173826114,173825734,3670026,3670026,-0.0005662421,0.002107225,0.0002527883,0.005203852,0.019547723,-0.047494233,4967,4967,0
174327789,174327405,3670026,3670026,0.0012486888,0.002935755,-0.0007561002,0.018743664,-0.004079516,-0.049237728,4968,4968,0
174824519,174824113,3670026,3670026,0.0012286284,-0.0008217251,-0.0007225939,-0.0041085524,-0.013691949,-0.041691326,4974,4974,0
175326122,175325775,3670026,3670026,-0.0005065272,0.00021484337,0.00077975943,-0.008999775,0.0016542359,-0.05575848,4967,4967,0
175827788,175827444,3670026,3670026,-0.0007091371,-3.9567262e-06,0.0007682671,-0.010745353,-0.005415134,-0.052629903,4787,4787,0
176329523,176329151,3670026,3670026,-0.00053604343,0.00021980055,0.0008025975,-0.0060308394,-0.0009539235,-0.050723247,4937,4937,0
176826201,176825816,3670026,3670026,-0.0004769465,0.0001467747,0.00015485815,-0.00034657808,0.0051493417,-0.056155816,4967,4967,0
177327893,177327484,3670026,3670026,-0.00086798414,4.1364496e-05,0.00010544436,0.0040364778,0.0034558156,-0.04409777,4966,4966,0
177829540,177829153,3670026,3670026,0.00091026304,-0.0013065953,-0.0009825147,0.0029300458,-0.015588705,-0.04527119,4967,4967,0
178326185,178325862,3670026,3670026,0.00038102124,0.00028846512,-0.00011802853,-0.010205212,-0.015726948,-0.052070286,4934,4934,0
178827877,178827537,3670026,3670026,0.00017461926,0.0005469319,-0.00047162757,0.01226607,0.00091048464,-0.043589223,4979,4979,0
179324568,179324227,3670026,3670026,-0.000554405,-0.0022643905,9.241835e-05,-0.0047286097,0.00080002844,-0.052447744,4780,4780,0
179826353,179825981,3670026,3670026,0.00014094186,0.0024953547,-0.00038338997,-0.006541488,-0.010515138,-0.05624363,4980,4980,0
180327992,180327565,3670026,3670026,0.00034792058,-2.118153e-05,-7.3230796e-05,-0.0006977228,0.0060381405,-0.04610757,4960,4960,0
180829558,180829235,3670026,3670026,-0.0011034664,0.0005278677,0.0008000065,-0.017119138,-0.010232935,-0.058124777,4968,4968,0
181326262,181325935,3670026,3670026,0.0011919969,-0.0003385853,-0.0007792864,0.011159986,0.0048068487,-0.040398426,4966,4966,0
181823042,181822639,3670026,3670026,0.00068498816,0.0020499013,-0.0003432827,-0.0026009567,-0.011570064,-0.048688147,4968,4968,0
182324699,182324306,3670026,3670026,0.0003846333,-0.0037053307,-0.00034587362,-0.008118667,-0.023207474,-0.048628695,4967,4967,0
182826324,182825976,3670026,3670026,0.0001870167,0.0012862397,-0.0001386345,0.00054349605,-0.005815208,-0.051565178,4968,4968,0
183328115,183327704,3670026,3670026,0.0007365782,0.001124974,-0.0011279184,0.00078754226,-0.014053055,-0.043506365,4989,4989,0
183829645,183829315,3670026,3670026,3.483537e-05,-0.0010440417,-0.00017536776,-0.004387894,-0.006651688,-0.046093483,4968,4968,0
184326431,184326018,3670026,3670026,0.0001865383,-0.0015844867,2.1845884e-05,-0.005939023,-0.009989904,-0.053829756,4970,4970,0
184828033,184827685,3670026,3670026,-0.000425347,0.0029753689,0.0004605648,-0.008637306,-0.0005761984,-0.0570687,4968,4968,0
185324834,185324386,3670026,3670026,-0.0024522517,-0.0010311444,0.00012948962,0.0031449974,0.00059888535,-0.047172036,4966,4966,0
185826482,185826055,3670026,3670026,0.0036914365,-0.0006127067,-0.00019241631,-0.0064123343,-0.01712918,-0.05008977,4967,4967,0
186328079,186327723,3670026,3670026,-0.0005735907,-0.002329405,-0.00051978306,0.008179598,-0.0011928785,-0.042515263,4964,4964,0
186824923,186824490,3670026,3670026,0.001832285,-0.0006389783,0.00115697,0.001154425,0.021167262,-0.050274145,4992,4992,0
187326427,187326102,3670026,3670026,-0.003691207,0.0011088415,-0.0005571753,0.005449517,0.001376442,-0.04300096,4975,4975,0
187828133,187827763,3670026,3670026,0.0016520127,-0.0018173631,0.00020244188,-0.008174284,-0.006343621,-0.05390142,4967,4967,0
188329803,188329432,3670026,3670026,0.00027883722,0.00025296517,-0.0006872384,0.015605397,-0.0026762525,-0.042345867,4967,4967,0
188826542,188826133,3670026,3670026,0.0005321826,-0.00095995463,-0.00076298066,0.004888563,-0.012846166,-0.048722852,4967,4967,0
189328210,189327806,3670026,3670026,0.00071613025,-0.002582341,-1.5650137e-05,0.007125146,-0.003957471,-0.04236609,4971,4971,0
189824890,189824504,3670026,3670026,5.9059505e-05,-0.0012297032,-0.00013463966,0.0035837987,0.0010675032,-0.04842591,4967,4967,0
190326590,190326266,3670026,3670026,-4.2808744e-05,-0.0015765436,-6.604356e-05,-0.005513039,-0.0026802437,-0.04484878,4991,4991,0
190828164,190827841,3670026,3670026,-0.00079780543,-0.0018717088,0.00062000856,0.0049553826,0.008020454,-0.05353895,4962,4962,0
191329888,191329510,3670026,3670026,0.0003318176,0.0026386231,-0.00072958675,0.006560128,9.0569054e-05,-0.04320732,4967,4967,0
191826538,191826215,3670026,3670026,-0.0005332949,-0.00021775866,0.0008702146,-0.013186974,0.00056961295,-0.05727324,4947,4947,0
192323290,192322913,3670026,3670026,0.0010539368,-0.0028868432,-0.0005124321,0.011174912,0.0040043616,-0.044125807,4967,4967,0
192824997,192824652,3670026,3670026,0.00029819625,2.0635289e-05,-0.0005213359,0.010560129,-0.0021853507,-0.04155481,5003,5003,0
193326595,193326250,3670026,3670026,-0.00020865923,0.0002772641,0.00061372085,-0.0071419515,0.0017052701,-0.054863926,4966,4966,0
193828444,193828028,3670026,3670026,0.00042920472,0.0011330758,7.302885e-05,0.0030469075,0.009849249,-0.042429764,4990,4990,0
194329971,194329588,3670026,3670026,-0.001008876,0.00042984364,0.00071150204,-0.0026311656,0.018455708,-0.054981887,4968,4968,0
194826619,194826289,3670026,3670026,0.00027474645,0.0017262963,-0.00042208258,0.0011452849,-0.014201573,-0.044802234,4968,4968,0
195328342,195327958,3670026,3670026,-8.665334e-06,0.002231265,0.00042928872,-0.0039904467,0.0025794571,-0.047451075,4967,4967,0
195825027,195824702,3670026,3670026,-0.0010475008,-0.0026879937,0.0005500858,-0.009334614,-0.00484891,-0.054756183,4997,4997,0
196326679,196326327,3670026,3670026,-0.00031973497,0.0031106104,6.1314466e-05,0.012499489,0.017340718,-0.046239957,4965,4965,0
196828359,196827997,3670026,3670026,0.00010184095,0.0009915949,0.0004745452,-0.008605903,0.0043893843,-0.055155303,4969,4969,0
197325130,197324807,3670026,3670026,0.0003591078,0.0006564443,-0.0007086026,0.006394336,0.0027151604,-0.04487265,4989,4989,0
197826759,197826372,3670026,3670026,-0.0003409488,0.00038084268,0.00030008037,-0.008063576,-0.005683974,-0.05549732,4978,4978,0
198328364,198328041,3670026,3670026,-0.0003988328,0.0015468512,-3.812047e-05,0.0034499986,0.004032521,-0.042810936,4975,4975,0
198830122,198829702,3670026,3670026,9.920756e-05,-0.0033841531,0.00019694857,-0.0002186762,0.0014038576,-0.05039528,4967,4967,0
199326818,199326403,3670026,3670026,-0.0015456931,0.0005029687,-0.0001917542,0.0053781946,-0.0012321186,-0.04597862,4967,4967,0
199823516,199823126,3670026,3670026,0.0015923922,0.0008251978,0.00024389556,-0.0067719566,-0.008116146,-0.057328913,4985,4985,0
200325125,200324773,3670026,3670026,-0.0012634385,-1.51176955e-05,0.00014159502,-0.0054158038,-0.0043683816,-0.05223626,4968,4968,0
200827041,200826631,3670026,3670026,0.0037537322,0.00025599476,-0.0011358311,0.0046846736,-0.007822897,-0.045490142,5044,5044,0
201328431,201328109,3670026,3670026,0.002544874,-0.00057150004,-0.00025398142,0.008896485,-0.0010667832,-0.045975406,4960,4960,0
201830112,201829777,3670026,3670026,-0.001491652,0.0026785417,0.00038431,0.008447086,0.0056234766,-0.054083325,4967,4967,0
202326847,202326478,3670026,3670026,-0.00042169337,-0.0019334547,-0.00013161822,0.010306821,-0.004813261,-0.04461349,4967,4967,0
202823508,202823179,3670026,3670026,0.0015288201,0.00041108124,0.000641166,-0.010165611,-0.0059222467,-0.05359564,4966,4966,0
203325240,203324848,3670026,3670026,0.00056044734,-0.00078826316,-2.5532574e-05,-0.00195986,-0.0005094674,-0.045185562,4968,4968,0
203826858,203826516,3670026,3670026,-0.0011196207,-0.00084721367,3.4309232e-05,-0.002142951,-0.0031747892,-0.05726725,4967,4967,0
204328818,204328350,3670026,3670026,0.00035209235,0.00048881216,-0.00034091598,0.006864703,0.005046645,-0.043375645,4986,4986,0
204825233,204824904,3670026,3670026,-0.0005240733,0.000260611,0.0008937814,-0.007570714,0.0020316925,-0.05467151,4985,4985,0
205326927,205326553,3670026,3670026,-7.7073186e-05,0.000169983,0.00049691735,-0.004315602,0.004230898,-0.049106736,4967,4967,0
205828545,205828221,3670026,3670026,-0.00049267,-0.00059729867,0.00030219147,0.003399279,0.0025540309,-0.042242948,4966,4966,0
206325300,206324924,3670026,3670026,-0.00026327922,-8.400267e-05,0.00026731324,-0.009350936,-0.008198875,-0.053478926,4969,4969,0
206826976,206826616,3670026,3670026,-0.001440727,-9.002341e-05,0.0008896252,-0.0068800948,0.0026548249,-0.056580648,4988,4988,0
207328605,207328258,3670026,3670026,-0.00061527913,-0.00014757807,-8.7403874e-05,-0.008726194,-0.015965179,-0.049968835,4967,4967,0
207825532,207825122,3670026,3670026,0.0005671834,-0.00037019883,-0.0010003817,0.003405903,-0.013515737,-0.045613162,4991,4991,0
208326994,208326625,3670026,3670026,0.0010028227,-0.0002942136,-0.00031279423,0.0012732983,-0.005110243,-0.042880923,4965,4965,0
208828622,208828295,3670026,3670026,2.0347022e-06,3.4982488e-06,0.00043707932,-0.014231045,-0.012555418,-0.054794874,4963,4963,0
209330337,209329963,3670026,3670026,0.00022689524,-0.00030290964,0.00014920204,0.0017871623,0.00259076,-0.04784666,4967,4967,0
209826993,209826664,3670026,3670026,-0.001431996,0.0005240093,0.0011660754,-0.005251733,0.008169909,-0.052883223,4965,4965,0
210323687,210323365,3670026,3670026,0.00019985622,7.758095e-05,0.00031896966,-0.0009239837,-0.008539401,-0.053971663,4967,4967,0
210825423,210825033,3670026,3670026,0.0010349908,-0.0003145971,-0.00043926787,0.005787798,-0.00094539043,-0.041184697,4966,4966,0
211327308,211326895,3670026,3670026,0.0005391022,-0.00010987991,0.00017073461,0.0018890294,-0.0044977833,-0.053437665,4987,4987,0
211828873,211828504,3670026,3670026,0.00034159396,4.6441666e-05,-5.04364e-05,-0.0018634985,0.0036320798,-0.046363056,5044,5044,0
212330424,212330039,3670026,3670026,0.00037054272,-0.00054576475,-0.0008128592,-0.000100430836,-0.016684283,-0.04415776,4968,4968,0
212827102,212826773,3670026,3670026,-0.0005166179,0.00041387978,0.00012248082,-0.0067968834,-0.0044783815,-0.048163425,5002,5002,0
213323863,213323439,3670026,3670026,0.00069102895,-0.000106717554,-0.00014373298,-0.0047178627,-0.006317319,-0.054185547,4966,4966,0
213825545,213825107,3670026,3670026,0.001484494,-4.6292498e-05,-0.00072741247,0.005833574,-0.00867675,-0.04754841,4966,4966,0
214327116,214326774,3670026,3670026,-0.00026136608,0.00022568376,0.0006136961,-0.011825143,-0.014434751,-0.0520436,4967,4967,0
214828785,214828445,3670026,3670026,-6.937869e-05,-6.446918e-05,-0.001260834,0.0018477676,0.0009978006,-0.052727938,4729,4729,0
215325492,215325167,3670026,3670026,-4.3901196e-05,0.00023876743,-0.002831894,0.0068394174,0.013212192,-0.043504372,4963,4963,0
215827150,215826826,3670026,3670026,-1.390703e-06,-1.1350912e-05,-0.0026525415,0.006072552,0.004060481,-0.04305731,4934,4934,0
216328802,216328481,3670026,3670026,0.0006260473,-0.0006516785,-0.0024718926,-0.0047934535,-0.015022329,-0.04263363,4965,4965,0
216825550,216825180,3670026,3670026,-0.00040241817,4.866123e-06,-0.0002065887,-0.006622925,-0.0078805685,-0.051254578,4967,4967,0
217327219,217326847,3670026,3670026,-0.00028095517,0.00015807465,0.00025018567,-0.008080436,-0.0065030972,-0.0540909,4967,4967,0
217828865,217828515,3670026,3670026,0.0004981189,-0.00015100194,-0.00026296685,-0.0074650496,-0.023039129,-0.051943194,4967,4967,0
218325559,218325216,3670026,3670026,0.0005008518,-1.5626225e-05,-0.0006383957,0.0036372095,-0.013842912,-0.045002922,4964,4964,0
218827326,218826960,3670026,3670026,0.00013487015,0.002852171,-0.00036439576,0.0016977647,-0.0008558014,-0.046349928,4962,4962,0
219328944,219328555,3670026,3670026,-3.2095762e-05,0.0012235389,2.4296643e-05,0.0054774624,0.006535693,-0.053968914,4971,4971,0
219830612,219830219,3670026,3670026,-0.00018015473,0.00030412944,-0.00017170205,0.0078027635,0.00018599516,-0.045303255,4965,4965,0
220327295,220326922,3670026,3670026,-6.0362476e-05,-0.0003634062,0.00038980244,-0.0011190269,-0.003340268,-0.043225195,4967,4967,0
220823946,220823620,3670026,3670026,0.00029481162,0.00049149117,0.00011318645,0.0028444515,0.0074078995,-0.04336245,4967,4967,0
221325705,221325318,3670026,3670026,-0.0016674459,-0.0005174461,0.00063731073,-0.012027882,-0.0050555305,-0.054516077,4994,4994,0
221827305,221826955,3670026,3670026,-0.0014652073,0.00048912276,0.0011868504,-0.0021407316,0.008165068,-0.054217793,4967,4967,0
222329032,222328694,3670026,3670026,0.00020611669,0.0013306548,-4.3586104e-05,-0.00016733119,0.003337838,-0.056435164,4986,4986,0
222825649,222825324,3670026,3670026,-0.00046256685,-0.0005190084,0.0006401654,-0.017208315,-0.009683475,-0.0557827,4967,4967,0
223327325,223326991,3670026,3670026,0.0009429925,0.0016733307,-0.00031047384,0.0072248084,0.004320146,-0.042392563,4967,4967,0
223824015,223823692,3670026,3670026,0.0011487786,0.0005228823,-0.00063109706,0.010783251,0.0037733612,-0.043563977,4967,4967,0
224325680,224325359,3670026,3670026,0.00028807326,-0.00046388313,-0.00018563992,-0.0011867781,-0.0001500854,-0.049706757,4957,4957,0
224827456,224827027,3670026,3670026,-0.0005129863,0.0026470341,-3.5055444e-05,0.0016279091,-0.0039848574,-0.055181902,4967,4967,0
225329039,225328694,3670026,3670026,-0.0003530793,-0.00067514344,0.00030451402,2.1032195e-06,-0.0016957506,-0.04244134,4967,4967,0
226829104,226828730,3670026,3670026,0.00056090235,0.00021098407,-0.0008823361,0.006928146,-0.010570185,-0.045694683,4967,4967,0
230827589,230827169,3670026,3670026,2.8197137e-05,-0.00064916996,-0.0005538254,-0.001915234,-0.0017123538,-0.044708464,4967,4967,0
231324246,231323868,3670026,3670026,0.00038327716,-6.8365545e-05,-0.0025418387,0.009948481,0.0051210434,-0.047043707,4956,4956,0
231825899,231825558,3670026,3670026,0.00066529587,-9.607877e-05,-0.0020964502,0.013385292,0.0136648575,-0.041995913,4983,4983,0
232327583,232327202,3670026,3670026,-0.00048550672,0.00020577533,-0.00036717643,0.001608019,0.0036037243,-0.04769006,4966,4966,0
232829368,232828995,3670026,3670026,-1.7277443e-05,-0.00012567997,-0.0005149539,0.0056763426,0.004024209,-0.04172455,4929,4929,0
233325946,233325571,3670026,3670026,0.000668721,-0.00034819252,-0.0009265647,0.0043775695,-0.008570045,-0.04223708,4967,4967,0
233827563,233827237,3670026,3670026,-0.00033840814,8.967665e-05,2.456858e-05,0.0018614325,0.0022061318,-0.049934175,4967,4967,0
234324322,234323939,3670026,3670026,-0.00016940702,-5.085533e-06,-0.0001882903,0.002001131,-0.0061022094,-0.039663427,4969,4969,0
234825927,234825604,3670026,3670026,0.00038398764,0.0016519213,-0.00026658122,0.00951631,0.0042207865,-0.048718687,4967,4967,0
235327623,235327272,3670026,3670026,0.00014988487,-0.00018079346,-1.0144354e-05,-0.011546588,-0.014165585,-0.055356853,4967,4967,0
235829284,235828939,3670026,3670026,0.00083779637,0.0023345,-0.00074931834,-0.006802829,-0.020268707,-0.044391356,4967,4967,0
236326113,236325760,3670026,3670026,0.0007295903,0.00052634644,-0.0004974996,-0.004450648,-0.016796388,-0.04360543,4991,4991,0
236827694,236827369,3670026,3670026,0.00013883383,-0.0010466235,-0.00021135235,-0.002387913,-0.010381853,-0.048934933,5001,5001,0
237329341,237329012,3670026,3670026,-0.0005357981,0.0011639184,9.695432e-05,-0.012931877,-0.011969391,-0.05158075,4987,4987,0
237826092,237825673,3670026,3670026,0.00011613392,0.0013285738,0.00011421374,-0.0082796635,-0.002449336,-0.05037496,4964,4964,0
238327728,238327362,3670026,3670026,7.542254e-05,0.0016065305,-0.00029661704,-0.0017254989,-0.0035658823,-0.0505652,4985,4985,0
238824427,238824041,3670026,3670026,2.0976528e-05,-0.0005090493,-3.6067868e-06,0.00059295184,-0.006508035,-0.048574727,4966,4966,0
239326095,239325710,3670026,3670026,0.001100617,0.0025737835,-0.0010203343,-0.0011638717,-0.0231143,-0.04315021,4969,4969,0
239827916,239827552,3670026,3670026,0.0010491821,-0.0047056186,-0.0007821365,0.0016651874,-0.017466094,-0.04247859,4993,4993,0
240329464,240329043,3670026,3670026,0.0005509267,0.0040583564,-0.00084281916,-0.008749606,-0.021080978,-0.045524996,4965,4965,0
240826113,240825742,3670026,3670026,-0.0012069285,-0.00021691188,0.00090315746,-0.0101356935,0.003021386,-0.055054143,4967,4967,0
241327785,241327409,3670026,3670026,0.000656543,-0.0014594905,-0.00042878083,-0.0035576208,-0.022450414,-0.049955733,4967,4967,0
241824432,241824110,3670026,3670026,0.00020558665,0.0012591978,-0.00067517156,-0.005209862,-0.005957893,-0.044618253,4968,4968,0
242326138,242325778,3670026,3670026,5.225793e-05,-0.00017882133,-0.0003533307,0.01149002,0.0030846181,-0.04334763,4968,4968,0
242827806,242827463,3670026,3670026,0.0001630596,0.0016136965,-7.196239e-05,-0.005411298,-0.007503087,-0.05465907,4976,4976,0
243329709,243329283,3670026,3670026,0.00066577713,-0.0032234835,-0.00068045885,0.008455799,-0.0055351257,-0.043098375,4994,4994,0
243826173,243825844,3670026,3670026,0.0010795994,0.00022775866,-0.0009862464,0.001931923,-0.011871716,-0.043903925,4984,4984,0
244327892,244327477,3670026,3670026,0.0008910695,0.0006495235,-0.0008469269,0.006818095,-0.009487505,-0.044154253,4967,4967,0
244824661,244824180,3670026,3670026,0.000118695076,-0.00033278627,0.00033622707,-0.0042217155,0.0037006019,-0.049717482,4969,4969,0
245326221,245325845,3670026,3670026,0.00094896375,-0.0022056838,-8.315657e-05,-0.0011781995,-0.0052492954,-0.04412539,4969,4969,0
245827916,245827510,3670026,3670026,-0.00020501555,-0.0015000126,0.00038768223,-9.050453e-05,0.00091383664,-0.054427415,4967,4967,0
246329525,246329179,3670026,3670026,0.0007038414,0.002628291,-0.000194027,-0.0051265196,-0.0107592195,-0.04658712,4969,4969,0
246826416,246826047,3670026,3670026,-0.0036590896,-0.0004746148,-0.00014501986,-0.00023669223,0.0065617943,-0.042969856,4989,4989,0
247327900,247327577,3670026,3670026,0.004793873,-0.0003457673,-0.0006264639,-0.0006637265,-0.0019853916,-0.042159848,4988,4988,0
247829626,247829211,3670026,3670026,-0.00064648583,0.000907515,0.00061443634,-0.005764457,0.013005845,-0.054634888,4967,4967,0
248326295,248325915,3670026,3670026,0.00060661376,-5.969882e-05,-0.00048407842,0.0046914383,-0.0098016495,-0.050435744,4932,4932,0
248828013,248827578,3670026,3670026,0.00127844,-0.000162036,0.0001977889,-0.0020755553,0.0025837214,-0.049578484,4966,4966,0
249324677,249324280,3670026,3670026,-0.000574136,0.00086364296,-0.00034720902,0.0054048197,-0.0015837543,-0.042800397,4970,4970,0
249826304,249825946,3670026,3670026,-0.0017356713,0.002285409,-4.852118e-06,-0.013486045,-0.014145438,-0.048203487,4969,4969,0
250327958,250327614,3670026,3670026,0.0025242274,-0.00010965289,-0.0005073241,0.00087573926,-0.009536496,-0.04066839,4791,4791,0
250829722,250829302,3670026,3670026,0.00085161405,0.0021837447,-0.0002732145,0.0038697512,-0.008911463,-0.052814238,4986,4986,0
251326350,251325977,3670026,3670026,6.585373e-05,-0.00014492264,-7.907597e-05,0.005197924,0.009778288,-0.042254407,4966,4966,0
251823004,251822677,3670026,3670026,5.308447e-05,0.0011968343,0.00020684711,-0.0015145009,-0.005645106,-0.04493902,4967,4967,0
252324761,252324344,3670026,3670026,-0.00057709665,0.0025187372,0.000116320094,0.003905092,0.021469377,-0.047712527,4966,4966,0
252826423,252826011,3670026,3670026,8.412087e-05,-0.0013527968,-9.34522e-05,0.006554515,0.0032604642,-0.04846252,4968,4968,0
253328022,253327677,3670026,3670026,-0.0006890337,-0.0010804551,0.00086049066,-0.0021739819,0.0036452273,-0.052781165,4967,4967,0
253829693,253829344,3670026,3670026,0.0015373825,-0.0016785995,0.00047357075,-0.002491446,-0.0007660051,-0.0514817,4964,4964,0
254326438,254326070,3670026,3670026,-0.0021384018,0.0020039976,-0.00014676417,-0.00080604234,-0.0028939438,-0.04345757,4984,4984,0
254828094,254827710,3670026,3670026,-0.0007517784,0.0035947608,-5.044495e-05,-0.00886492,-0.0046116775,-0.049151186,4967,4967,0
255324737,255324410,3670026,3670026,0.0017249155,-0.00070649595,3.4735618e-05,-0.0088281315,-0.0060230414,-0.055959005,4967,4967,0
255826450,255826076,3670026,3670026,-0.00062563125,-0.000304746,-0.0005646678,-0.0032787945,-0.007861384,-0.049093593,4960,4960,0
256328071,256327744,3670026,3670026,-0.0006819597,0.0010378737,-0.00029143004,0.010721347,0.0011412671,-0.04166961,4968,4968,0
256824830,256824489,3670026,3670026,0.0007092922,-0.0012560161,-0.0004067298,0.008126614,0.00089375634,-0.04195166,4984,4984,0
257326460,257326113,3670026,3670026,0.000403283,0.0013594205,-0.000116946125,-0.0007980179,-0.008556866,-0.05146999,4968,4968,0
257828229,257827824,3670026,3670026,-0.0010886601,-0.00038562223,-0.00065671856,0.011885545,0.006557799,-0.04090976,4985,4985,0
258329824,258329442,3670026,3670026,0.0017025108,8.777533e-05,-0.00018963308,0.01116521,-0.0044823927,-0.051199585,4967,4967,0
258826577,258826143,3670026,3670026,0.0027887663,0.0011151145,-0.00069617305,-0.0014984085,-0.017720798,-0.045360968,4968,4968,0
259328143,259327808,3670026,3670026,0.0007331103,-7.4224576e-05,-0.0002240822,0.006647526,0.00021370224,-0.04545799,4967,4967,0
259824874,259824507,3670026,3670026,0.0036827633,-0.002302474,0.00044528928,0.01342803,0.016876187,-0.04857911,4966,4966,0
260326524,260326175,3670026,3670026,-0.0017728289,0.00083364395,0.000877868,-0.0028697075,0.010798963,-0.049746748,4968,4968,0
260828183,260827840,3670026,3670026,0.0003046049,0.0018698593,-0.00045755887,-0.004511396,-0.008628404,-0.05221558,4967,4967,0
261329904,261329578,3670026,3670026,-0.00030425322,5.038837e-05,0.0007289865,-0.012276231,-0.0038428647,-0.05730228,4970,4970,0
261826529,261826206,3670026,3670026,-9.58115e-06,0.0002873191,-0.0005216622,0.0024350195,-0.013080331,-0.043332532,4967,4967,0
262323317,262322942,3670026,3670026,-0.00015030893,0.00013069384,6.0080838e-05,-0.0008524781,0.008804922,-0.054838352,4984,4984,0
262824945,262824571,3670026,3670026,-0.0010634647,0.00015891236,0.0008579858,-0.00954337,0.0030947574,-0.056047574,4962,4962,0
263326570,263326238,3670026,3670026,-0.0001420186,-0.0019069043,0.0002562757,0.003820183,-0.0032447674,-0.05346822,4967,4967,0
263828259,263827907,3670026,3670026,0.0006932469,0.00095540757,-0.0010261068,0.0068083704,-0.0068680085,-0.04419244,4970,4970,0
264329918,264329570,3670026,3670026,-0.0008256497,0.001365765,0.0009276735,-0.00076495064,0.0077327774,-0.052695774,4967,4967,0
264826807,264826393,3670026,3670026,-0.00052893034,0.0029076661,0.0006308485,-0.0042992285,0.0016645677,-0.0529642,4986,4986,0
265328399,265327943,3670026,3670026,9.4665134e-05,0.0015261171,-0.00034384392,0.0071722013,0.0013859157,-0.042951826,4974,4974,0
265824966,265824635,3670026,3670026,0.0009442006,-0.0032388698,-0.00064512074,-0.0023240699,-0.02525857,-0.04437063,4966,4966,0
266326671,266326302,3670026,3670026,-0.00064310944,0.00046640853,0.00045702443,0.010947607,0.016982658,-0.048872825,4966,4966,0
266828298,266827968,3670026,3670026,-0.00051925424,0.00032608412,0.0011633575,0.00010771681,-0.0017432944,-0.050619885,4968,4968,0
267325009,267324667,3670026,3670026,0.0006751899,-0.00013775613,0.0013746474,0.008648204,0.00440332,-0.046292953,4968,4968,0
267826680,267826333,3670026,3670026,-0.0008081437,0.00032695415,0.0014926762,-0.0025224434,0.00012405457,-0.046197347,4967,4967,0
268328424,268328096,3670026,3670026,0.0006341991,-0.00046250536,-0.0017114767,0.007017919,-0.011497387,-0.04233097,4984,4984,0
268830120,268829669,3670026,3670026,0.0006758779,-0.0002458558,-0.0025094422,0.008543594,0.0018524203,-0.04462499,4970,4970,0
269326760,269326365,3670026,3670026,-0.0010680227,0.00031079943,-0.0013025027,-0.007575086,0.0014666825,-0.053843267,4968,4968,0
269828473,269828031,3670026,3670026,0.0009815044,-0.0006550785,-0.002933039,0.00609486,-0.008065386,-0.042638756,4966,4966,0
270325080,270324729,3670026,3670026,0.0018077879,-0.00071342394,-0.003491346,0.0054775365,-0.015952947,-0.045458112,4967,4967,0
270826785,270826395,3670026,3670026,-0.00044408345,0.00017620197,-0.0025458394,0.008661718,0.013400631,-0.04401818,4967,4967,0
271328401,271328062,3670026,3670026,4.0452935e-05,-0.0005530484,-0.0014858777,0.009205128,-0.008177097,-0.040223103,4948,4948,0
271830225,271829847,3670026,3670026,-0.0007199097,0.00027847054,4.6160698e-05,-0.0049409345,-0.005082165,-0.053018905,4986,4986,0
272326860,272326426,3670026,3670026,0.00062036637,3.5093015e-06,-0.00027429592,-0.0018171393,-0.009281125,-0.055602837,4967,4967,0
272823494,272823121,3670026,3670026,-0.0025282132,-0.0025596349,0.0009169548,-0.0047383658,0.006014541,-0.05217559,4963,4963,0
273325186,273324831,3670026,3670026,9.290619e-05,-0.00061538385,0.0006388517,-0.0020779243,0.0021091527,-0.052144084,4994,4994,0
273826878,273826458,3670026,3670026,-0.0010437068,0.0009764274,0.00045639338,0.004134222,0.01124239,-0.049737055,4967,4967,0
274328517,274328123,3670026,3670026,-5.6417917e-05,-0.0010904139,0.00026287703,-0.0014873758,-0.0036734059,-0.051512204,4965,4965,0
