timestamp,ref_timestamp,ref_lat,ref_lon,x,y,z,delta_xy[0],delta_xy[1],delta_z,vx,vy,vz,z_deriv,delta_vxy[0],delta_vxy[1],delta_vz,ax,ay,az,heading,delta_heading,ref_alt,dist_bottom,eph,epv,evh,evv,vxy_max,vz_max,hagl_min,hagl_max,xy_valid,z_valid,v_xy_valid,v_z_valid,xy_reset_counter,z_reset_counter,vxy_reset_counter,vz_reset_counter,heading_reset_counter,xy_global,z_global,dist_bottom_valid
37321921,0,0.0,0.0,0.0,0.0,0.28407088,5.6229624e-07,4.840535e-07,0.0,0.1783076,-0.50330395,-0.005510365,-0.028172068,0.0001132406,9.748333e-05,0.0,-0.101543255,-0.31758913,-0.007849947,-1.3366234,0.13744865,0.0,0.1,0.3109052,0.60513574,0.19068535,0.20460322,inf,inf,inf,inf,0,1,0,1,1,0,1,0,2,0,0,1
37336625,0,0.0,0.0,0.0,0.0,0.28361958,5.6229624e-07,4.840535e-07,0.0,0.17615707,-0.5071469,-0.005111696,-0.027883561,0.0001132406,9.748333e-05,0.0,0.09792171,-0.48035946,-0.09255794,-1.3363642,0.13744865,0.0,0.1,0.31243786,0.6068382,0.19129905,0.20489943,inf,inf,inf,inf,0,1,0,1,1,0,1,0,2,0,0,1
37426032,0,0.0,0.0,0.0,0.0,0.28021747,5.6229624e-07,4.840535e-07,0.0,0.1796952,-0.5044538,-0.0052086986,-0.02823991,0.0001132406,9.748333e-05,0.0,0.70571667,-0.44214126,0.45245394,-1.3389564,0.13744865,0.0,0.1,0.32656956,0.6129363,0.19684993,0.2053759,inf,inf,inf,inf,0,1,0,1,1,0,1,0,2,0,0,1
37525372,0,0.0,0.0,0.0,0.0,0.2762552,5.6229624e-07,4.840535e-07,0.0,0.1693239,-0.4937586,-0.013586508,-0.037143398,0.0001132406,9.748333e-05,0.0,-0.05648049,0.7889424,-2.363269,-1.3402781,0.13744865,0.0,0.1,0.31059366,0.611336,0.19078611,0.20395608,inf,inf,inf,inf,0,1,0,1,1,0,1,0,2,0,0,1
37624714,0,0.0,0.0,0.0,0.0,0.27329057,5.6229624e-07,4.840535e-07,0.0,0.16254188,-0.50441545,-0.010776997,-0.033521697,0.0001132406,9.748333e-05,0.0,-0.60240275,-0.89857537,0.76367164,-1.3396614,0.13744865,0.0,0.10140839,0.32627556,0.60967803,0.19698367,0.20250216,inf,inf,inf,inf,0,1,0,1,1,0,1,0,2,0,0,1
37724053,0,0.0,0.0,0.0,0.0,0.27043006,5.6229624e-07,4.840535e-07,0.0,0.15853532,-0.49686578,-0.010456664,-0.032539807,0.0001132406,9.748333e-05,0.0,-0.4549737,0.36528915,-1.0749813,-1.3397361,0.13744865,0.0,0.1,0.31010807,0.6079836,0.19040911,0.2010267,inf,inf,inf,inf,0,1,0,1,1,0,1,0,2,0,0,1
37823469,0,0.0,0.0,0.0,0.0,0.26543272,5.6229624e-07,4.840535e-07,0.0,0.15977104,-0.49644655,-0.007816121,-0.03120402,0.0001132406,9.748333e-05,0.0,0.89872056,0.56342274,0.76185113,-1.3391387,0.13744865,0.0,0.1,0.3257695,0.6154905,0.19654384,0.20168588,inf,inf,inf,inf,0,1,0,1,1,0,1,0,2,0,0,1
37927700,0,0.0,0.0,0.0,0.0,0.25962424,5.6229624e-07,4.840535e-07,0.0,0.15231897,-0.49393418,-0.013423956,-0.038658842,0.0001132406,9.748333e-05,0.0,0.8202683,0.36728355,0.23827672,-1.3390986,0.13744865,0.0,0.1,0.30971754,0.6135361,0.19009079,0.20014971,inf,inf,inf,inf,0,1,0,1,1,0,1,0,2,0,0,1
38027041,0,0.0,0.0,0.0,0.0,0.25492516,5.6229624e-07,4.840535e-07,0.0,0.14207336,-0.49926218,-0.015621267,-0.041330133,0.0001132406,9.748333e-05,0.0,0.43251938,-0.6474306,-1.1812599,-1.3387965,0.13744865,0.0,0.1,0.32535708,0.6115411,0.19617988,0.19861785,inf,inf,inf,inf,0,1,0,1,1,0,1,0,2,0,0,1
38126565,0,0.0,0.0,0.0,0.0,0.250971,5.6229624e-07,4.840535e-07,0.0,0.13846755,-0.4928235,-0.0067245774,-0.03204466,0.0001132406,9.748333e-05,0.0,-0.5356285,-1.9905852,-0.12649569,-1.3389181,0.13744865,0.0,0.1,0.30913055,0.60958177,0.18982019,0.19713075,inf,inf,inf,inf,0,1,0,1,1,0,1,0,2,0,0,1
38225725,0,0.0,0.0,0.0,0.0,0.24553567,5.6229624e-07,4.840535e-07,0.0,0.13878195,-0.48067206,-0.0069719288,-0.033251133,0.0001132406,9.748333e-05,0.0,0.86730653,-0.46618944,2.0183456,-1.3394514,0.13744865,0.0,0.1,0.32474893,0.6075854,0.19594009,0.195626,inf,inf,inf,inf,0,1,0,1,1,0,1,0,2,0,0,1
38325065,0,0.0,0.0,0.0,0.0,0.24131957,5.6229624e-07,4.840535e-07,0.0,0.12588929,-0.47746304,-0.017762376,-0.043687895,0.0001132406,9.748333e-05,0.0,0.8066754,0.97921896,1.2577567,-1.3392749,0.13744865,0.0,0.10204208,0.30837023,0.60557425,0.18911414,0.19410804,inf,inf,inf,inf,0,1,0,1,1,0,1,0,2,0,0,1
38424404,0,0.0,0.0,0.0,0.0,0.23816533,5.6229624e-07,4.840535e-07,0.0,0.11519221,-0.48137355,-0.019598665,-0.044121824,0.0001132406,9.748333e-05,0.0,-1.3672282,0.26298028,0.083872415,-1.3384284,0.13744865,0.0,0.11089884,0.32393205,0.6035324,0.1951381,0.19260444,inf,inf,inf,inf,0,1,0,1,1,0,1,0,2,0,0,1
38523744,0,0.0,0.0,0.0,0.0,0.23794001,5.6229624e-07,4.840535e-07,0.0,0.11668767,-0.47995752,-0.016812677,-0.0372508,0.0001132406,9.748333e-05,0.0,-2.3605535,-1.5369745,0.22676717,-1.3381946,0.13744865,0.0,0.10944548,0.3074421,0.61056465,0.18831064,0.19313498,inf,inf,inf,inf,0,1,0,1,1,0,1,0,2,0,0,1
38623083,0,0.0,0.0,0.0,0.0,0.23708002,5.6229624e-07,4.840535e-07,0.0,0.120019406,-0.466903,-0.01956814,-0.037016876,0.0001132406,9.748333e-05,0.0,-0.9705258,-1.0323116,-0.16849193,-1.3381972,0.13744865,0.0,0.10936232,0.32293206,0.60839504,0.1943638,0.19162184,inf,inf,inf,inf,0,1,0,1,1,0,1,0,2,0,0,1
38727391,0,0.0,0.0,0.0,0.0,0.23574972,5.6229624e-07,4.840535e-07,0.0,0.114124976,-0.46622425,-0.019450726,-0.03472415,0.0001132406,9.748333e-05,0.0,-0.8540993,-1.2024575,0.3673838,-1.3381958,0.13744865,0.0,0.103774965,0.30664685,0.60622066,0.18758394,0.19010846,inf,inf,inf,inf,0,1,0,1,1,0,1,0,2,0,0,1
38826744,0,0.0,0.0,0.0,0.0,0.23168612,5.6229624e-07,4.840535e-07,0.0,0.110138245,-0.45694247,-0.02078713,-0.03685963,0.0001132406,9.748333e-05,0.0,0.07283938,0.374876,-1.2134812,-1.3383251,0.13744865,0.0,0.101629645,0.32207388,0.60407406,0.19361751,0.18863349,inf,inf,inf,inf,0,1,0,1,1,0,1,0,2,0,0,1
38926226,0,0.0,0.0,0.0,0.0,0.22880791,5.6229624e-07,4.840535e-07,0.0,0.10406195,-0.45746663,-0.014712722,-0.030281052,0.0001132406,9.748333e-05,0.0,-0.13504247,0.7350126,-0.43445215,-1.3384069,0.13744865,0.0,0.101298705,0.30569854,0.6019251,0.18701819,0.18718445,inf,inf,inf,inf,0,1,0,1,1,0,1,0,2,0,0,1
39025412,0,0.0,0.0,0.0,0.0,0.22500919,5.6229624e-07,4.840535e-07,0.0,0.10061826,-0.45034763,-0.014260887,-0.030177176,0.0001132406,9.748333e-05,0.0,-0.32771945,-0.18896796,0.95366895,-1.3381603,0.13744865,0.0,0.10192473,0.32106668,0.5997593,0.19303572,0.18573087,inf,inf,inf,inf,0,1,0,1,1,0,1,0,2,0,0,1
39124754,0,0.0,0.0,0.0,0.0,0.22240028,5.6229624e-07,4.840535e-07,0.0,0.099081345,-0.44801345,-0.020105807,-0.035112288,0.0001132406,9.748333e-05,0.0,0.5491091,0.85559094,0.65447235,-1.338063,0.13744865,0.0,0.106071204,0.30462316,0.5975937,0.18610547,0.18427502,inf,inf,inf,inf,0,1,0,1,1,0,1,0,2,0,0,1
39224093,0,0.0,0.0,0.0,0.0,0.22128399,5.6229624e-07,4.840535e-07,0.0,0.090915084,-0.44375315,-0.027370252,-0.040168915,0.0001132406,9.748333e-05,0.0,0.20199749,1.1923285,-1.5871592,-1.337266,0.13744865,0.0,0.11354299,0.3199034,0.5954153,0.19202495,0.18284102,inf,inf,inf,inf,0,1,0,1,1,0,1,0,2,0,0,1
39323434,0,0.0,0.0,0.0,0.0,0.2219597,5.6229624e-07,4.840535e-07,0.0,0.08649878,-0.44858116,-0.019441862,-0.028596407,0.0001132406,9.748333e-05,0.0,-1.1986554,-0.5274483,-2.3431702,-1.3367071,0.13744865,0.0,0.10853152,0.30342436,0.60195,0.1851032,0.18328792,inf,inf,inf,inf,0,1,0,1,1,0,1,0,2,0,0,1
39422774,0,0.0,0.0,0.0,0.0,0.22412933,5.6229624e-07,4.840535e-07,0.0,0.0907665,-0.43908656,-0.010848899,-0.015334444,0.0001132406,9.748333e-05,0.0,-0.329169,-1.6909311,-0.89639944,-1.336711,0.13744865,0.0,0.11614098,0.31860825,0.59971553,0.19106631,0.18187322,inf,inf,inf,inf,0,1,0,1,1,0,1,0,2,0,0,1
39527085,0,0.0,0.0,0.0,0.0,0.22757871,5.6229624e-07,4.840535e-07,0.0,0.086799495,-0.43571404,-0.012942188,-0.012112449,0.0001132406,9.748333e-05,0.0,-1.2972028,-1.7034321,-0.60567844,-1.336813,0.13744865,0.0,0.114524856,0.3023928,0.59744054,0.18427427,0.1804457,inf,inf,inf,inf,0,1,0,1,1,0,1,0,2,0,0,1
39626422,0,0.0,0.0,0.0,0.0,0.22985125,5.6229624e-07,4.840535e-07,0.0,0.08545618,-0.41914776,-0.011793614,-0.007645898,0.0001132406,9.748333e-05,0.0,0.55319095,-0.20066822,-0.4694948,-1.3371495,0.13744865,0.0,0.11291531,0.31749246,0.595206,0.1901355,0.17905563,inf,inf,inf,inf,0,1,0,1,1,0,1,0,2,0,0,1
39725879,0,0.0,0.0,0.0,0.0,0.23274554,5.6229624e-07,4.840535e-07,0.0,0.0801151,-0.4162471,-0.012096669,-0.004538347,0.0001132406,9.748333e-05,0.0,1.4899544,1.6219513,-1.0286647,-1.3373488,0.13744865,0.0,0.1117198,0.33334106,0.5929948,0.19635062,0.17771223,inf,inf,inf,inf,0,1,0,1,1,0,1,0,2,0,0,1
39825102,0,0.0,0.0,0.0,0.0,0.23514311,5.6229624e-07,4.840535e-07,0.0,0.06803308,-0.41626772,-0.0063041896,0.0037405104,0.0001132406,9.748333e-05,0.0,0.666502,1.1773857,-0.6150992,-1.3371707,0.13744865,0.0,0.11823855,0.3162687,0.59075004,0.18940304,0.17633803,inf,inf,inf,inf,0,1,0,1,1,0,1,0,2,0,0,1
39924465,0,0.0,0.0,0.0,0.0,0.24130493,5.6229624e-07,4.840535e-07,0.0,0.06422753,-0.41700786,-0.0026835257,0.013111379,0.0001132406,9.748333e-05,0.0,-0.9613258,-0.4152928,0.6857285,-1.3366656,0.13744865,0.0,0.12012008,0.33202544,0.5885446,0.19535026,0.17499994,inf,inf,inf,inf,0,1,0,1,1,0,1,0,2,0,0,1
40018816,0,0.0,0.0,0.0,0.0,0.24604087,5.6229624e-07,4.840535e-07,0.0,0.06754835,-0.40894255,-0.0069482536,0.012486243,0.0001132406,9.748333e-05,0.0,0.3706686,-0.80782974,0.112841554,-1.3358504,0.13744865,0.0,0.11416273,0.313406,0.5932839,0.18771924,0.17519096,inf,inf,inf,inf,0,1,0,1,1,0,1,0,2,0,0,1
40128091,0,0.0,0.0,0.0,0.0,0.25091907,5.6229624e-07,4.840535e-07,0.0,0.060263738,-0.40097007,-0.00611817,0.016210392,0.0001132406,9.748333e-05,0.0,-0.44365016,0.157588,0.41969642,-1.3365796,0.13744865,0.0,0.111290455,0.33058316,0.59246445,0.19423692,0.1740758,inf,inf,inf,inf,0,1,0,1,1,0,1,0,2,0,0,1
40227436,0,0.0,0.0,0.0,0.0,0.25441828,5.6229624e-07,4.840535e-07,0.0,0.051890373,-0.39546487,-0.009455319,0.014013067,0.0001132406,9.748333e-05,0.0,-0.8523974,1.0318668,-1.0220002,-1.3361137,0.13744865,0.0,0.104839176,0.3137874,0.59022903,0.1876723,0.17278665,inf,inf,inf,inf,0,1,0,1,1,0,1,0,2,0,0,1
40326772,0,0.0,0.0,0.0,0.0,0.25735307,5.6229624e-07,4.840535e-07,0.0,0.04962258,-0.39751586,-0.0062435954,0.01764392,0.0001132406,9.748333e-05,0.0,-1.7915725,-0.25821337,-1.9582182,-1.3356917,0.13744865,0.0,0.106325716,0.329367,0.58799475,0.19354804,0.17149803,inf,inf,inf,inf,0,1,0,1,1,0,1,0,2,0,0,1
40426113,0,0.0,0.0,0.0,0.0,0.25989714,5.6229624e-07,4.840535e-07,0.0,0.047609422,-0.3889989,-0.00032396303,0.023514135,0.0001132406,9.748333e-05,0.0,-2.6374109,-1.0894431,-1.770435,-1.3356185,0.13744865,0.0,0.10373932,0.31254274,0.5857734,0.1867358,0.1702188,inf,inf,inf,inf,0,1,0,1,1,0,1,0,2,0,0,1
40525537,0,0.0,0.0,0.0,0.0,0.26185367,5.6229624e-07,4.840535e-07,0.0,0.04322614,-0.3873417,0.0037080594,0.026886666,0.0001132406,9.748333e-05,0.0,-2.4976401,-1.766778,-0.8661069,-1.3357484,0.13744865,0.0,0.103661805,0.32802394,0.5835543,0.19259696,0.16896336,inf,inf,inf,inf,0,1,0,1,1,0,1,0,2,0,0,1
40624793,0,0.0,0.0,0.0,0.0,0.26268175,5.6229624e-07,4.840535e-07,0.0,0.037821688,-0.37984058,-0.0013320681,0.020085843,0.0001132406,9.748333e-05,0.0,-2.0231416,-1.2512219,-1.2121409,-1.3350034,0.13744865,0.0,0.1,0.3111917,0.5813123,0.18571611,0.16770303,inf,inf,inf,inf,0,1,0,1,1,0,1,0,2,0,0,1
40724135,0,0.0,0.0,0.0,0.0,0.26261526,5.6229624e-07,4.840535e-07,0.0,0.046515703,-0.3703155,0.003542959,0.022507746,0.0001132406,9.748333e-05,0.0,0.18587,-0.15642162,-0.47246006,-1.3378288,0.13744865,0.0,0.10088968,0.3265697,0.5791147,0.19313477,0.16648188,inf,inf,inf,inf,0,1,0,1,1,0,1,0,2,0,0,1
40823474,0,0.0,0.0,0.0,0.0,0.26409575,5.6229624e-07,4.840535e-07,0.0,0.038503673,-0.3745776,-0.00056203146,0.017620536,0.0001132406,9.748333e-05,0.0,-0.3869912,3.2464745,-1.6231121,-1.337022,0.13744865,0.0,0.10199162,0.3426019,0.5849501,0.20433252,0.16689338,inf,inf,inf,inf,0,1,0,1,1,0,1,0,2,0,0,1
40922861,0,0.0,0.0,0.0,0.0,0.26660708,5.6229624e-07,4.840535e-07,0.0,0.037574504,-0.38142636,0.004413328,0.022570683,0.0001132406,9.748333e-05,0.0,-0.7898607,0.2715543,-0.39201036,-1.3365159,0.13744865,0.0,0.10327789,0.3595528,0.5826847,0.21873263,0.16569318,inf,inf,inf,inf,0,1,0,1,1,0,1,0,2,0,0,1
41022155,0,0.0,0.0,0.0,0.0,0.26865,5.6229624e-07,4.840535e-07,0.0,0.049224447,-0.39127433,0.008516147,0.0261822,0.0001132406,9.748333e-05,0.0,-0.14951533,-1.9053608,1.263174,-1.3372653,0.13744865,0.0,0.102863014,0.37732962,0.5804539,0.23579381,0.16453232,inf,inf,inf,inf,0,1,0,1,1,0,1,0,2,0,0,1
41126462,0,0.0,0.0,0.0,0.0,0.2705012,5.6229624e-07,4.840535e-07,0.0,0.04157989,-0.41879618,0.00784223,0.024550222,0.0001132406,9.748333e-05,0.0,0.5143067,-1.609108,0.3761874,-1.337233,0.13744865,0.0,0.1010949,0.39634594,0.57818204,0.25491422,0.16337633,inf,inf,inf,inf,0,1,0,1,1,0,1,0,2,0,0,1
41225803,0,0.0,0.0,0.0,0.0,0.27083105,5.6229624e-07,4.840535e-07,0.0,0.047948454,-0.41585007,0.0066738236,0.02089992,0.0001132406,9.748333e-05,0.0,0.32872936,0.76598096,-0.08366434,-1.3365208,0.13744865,0.0,0.10076505,0.41648605,0.5758734,0.27575332,0.16223507,inf,inf,inf,inf,0,1,0,1,1,0,1,0,2,0,0,1
41325194,0,0.0,0.0,0.0,0.0,0.270823,5.6229624e-07,4.840535e-07,0.0,0.04838597,-0.437207,0.008786682,0.020369958,0.0001132406,9.748333e-05,0.0,-0.6014179,0.46866608,-0.9396802,-1.3383409,0.13744865,0.0,0.100773096,0.43829784,0.58150506,0.2982039,0.16268727,inf,inf,inf,inf,0,1,0,1,1,0,1,0,2,0,0,1
41424484,0,0.0,0.0,0.0,0.0,0.27053574,5.6229624e-07,4.840535e-07,0.0,0.05164555,-0.44702882,0.010595485,0.019524457,0.0001132406,9.748333e-05,0.0,-0.10300523,0.71149963,0.15974256,-1.3380642,0.13744865,0.0,0.10106036,0.46157527,0.57918495,0.32128304,0.16157936,inf,inf,inf,inf,0,1,0,1,1,0,1,0,2,0,0,1
41523824,0,0.0,0.0,0.0,0.0,0.26947147,5.6229624e-07,4.840535e-07,0.0,0.058424167,-0.47482312,0.015075881,0.020700285,0.0001132406,9.748333e-05,0.0,1.3892567,-1.8469002,0.9304664,-1.3389616,0.13744865,0.0,0.10212463,0.48696852,0.5769054,0.3454495,0.16051161,inf,inf,inf,inf,0,1,0,1,1,0,1,0,2,0,0,1
41623351,0,0.0,0.0,0.0,0.0,0.26936203,5.6229624e-07,4.840535e-07,0.0,0.057088092,-0.49462143,0.018639611,0.02214885,0.0001132406,9.748333e-05,0.0,0.8686177,-3.9240775,1.6760136,-1.3388166,0.13744865,0.0,0.102234066,0.51410264,0.57466483,0.37011853,0.15946633,inf,inf,inf,inf,0,1,0,1,1,0,1,0,2,0,0,1
41722505,0,0.0,0.0,0.0,0.0,0.26934868,5.6229624e-07,4.840535e-07,0.0,0.06277728,-0.51779175,0.024024062,0.025595684,0.0001132406,9.748333e-05,0.0,0.9397289,-5.7222595,3.3738885,-1.3397629,0.13744865,0.0,0.10224742,0.5438025,0.5724298,0.39540616,0.15844569,inf,inf,inf,inf,0,1,0,1,1,0,1,0,2,0,0,1
41821846,0,0.0,0.0,0.0,0.0,0.26909265,5.6229624e-07,4.840535e-07,0.0,0.05690371,-0.5241627,0.016306898,0.015793253,0.0001132406,9.748333e-05,0.0,-0.1361628,-1.2754158,0.6252231,-1.3397474,0.13744865,0.0,0.10250345,0.57543105,0.5701992,0.4210064,0.15744641,inf,inf,inf,inf,0,1,0,1,1,0,1,0,2,0,0,1
41926153,0,0.0,0.0,0.0,0.0,0.26938674,5.6229624e-07,4.840535e-07,0.0,0.06450062,-0.5317707,0.017237896,0.015448047,0.0001132406,9.748333e-05,0.0,-1.1031448,3.7506776,-0.3852972,-1.340285,0.13744865,0.0,0.10220936,0.6100483,0.5679775,0.44719866,0.15646994,inf,inf,inf,inf,0,1,0,1,1,0,1,0,2,0,0,1
42025494,0,0.0,0.0,0.0,0.0,0.26790315,5.6229624e-07,4.840535e-07,0.0,0.0643579,-0.5564674,0.013748605,0.008874313,0.0001132406,9.748333e-05,0.0,-0.40984547,1.0767564,-1.477493,-1.3402548,0.13744865,0.0,0.10369295,0.64665455,0.57337207,0.47344267,0.15695235,inf,inf,inf,inf,0,1,0,1,1,0,1,0,2,0,0,1
42124903,0,0.0,0.0,0.0,0.0,0.2679373,5.6229624e-07,4.840535e-07,0.0,0.07182402,-0.572101,0.015308316,0.0091798175,0.0001132406,9.748333e-05,0.0,0.32067928,4.2369647,-1.7397279,-1.3411367,0.13744865,0.0,0.103658795,0.68666226,0.57114774,0.5003763,0.15603346,inf,inf,inf,inf,0,1,0,1,1,0,1,0,2,0,0,1
42224178,0,0.0,0.0,0.0,0.0,0.26637945,5.6229624e-07,4.840535e-07,0.0,0.07437759,-0.60634327,0.028808253,0.019864755,0.0001132406,9.748333e-05,0.0,0.50452733,-1.6277899,2.110112,-1.3415843,0.13744865,0.0,0.10521665,0.7285473,0.5689984,0.52689165,0.15512928,inf,inf,inf,inf,0,1,0,1,1,0,1,0,2,0,0,1
42323515,0,0.0,0.0,0.0,0.0,0.26351273,5.6229624e-07,4.840535e-07,0.0,0.06634224,-0.61701876,0.020691132,0.007960975,0.0001132406,9.748333e-05,0.0,-0.26669487,2.4929879,-0.64294845,-1.3409626,0.13744865,0.0,0.10808337,0.7742504,0.56685793,0.55411625,0.154249,inf,inf,inf,inf,0,1,0,1,1,0,1,0,2,0,0,1
42423006,0,0.0,0.0,0.0,0.0,0.261357,5.6229624e-07,4.840535e-07,0.0,0.07724661,-0.6347884,0.020943802,0.0054387883,0.0001132406,9.748333e-05,0.0,-0.18685171,1.553529,-1.0779479,-1.3402553,0.13744865,0.0,0.11023909,0.82290405,0.5647247,0.5815128,0.15339111,inf,inf,inf,inf,0,1,0,1,1,0,1,0,2,0,0,1
42522200,0,0.0,0.0,0.0,0.0,0.25946733,5.6229624e-07,4.840535e-07,0.0,0.07006007,-0.67538637,0.028295359,0.010607186,0.0001132406,9.748333e-05,0.0,0.57948583,-3.2550983,2.0227733,-1.3389889,0.13744865,0.0,0.112128764,0.8730613,0.56260127,0.6082891,0.15254508,inf,inf,inf,inf,0,1,0,1,1,0,1,0,2,0,0,1
42621536,0,0.0,0.0,0.0,0.0,0.25859782,5.6229624e-07,4.840535e-07,0.0,0.050819788,-0.69849646,0.014451042,-0.0039596097,0.0001132406,9.748333e-05,0.0,-0.52248544,-2.1498482,0.83977646,-1.3374041,0.13744865,0.0,0.11299828,0.92764807,0.5605212,0.635949,0.15171993,inf,inf,inf,inf,0,1,0,1,1,0,1,0,2,0,0,1
42725844,0,0.0,0.0,0.0,0.0,0.25486553,5.6229624e-07,4.840535e-07,0.0,0.040745176,-0.69152373,0.0047144103,-0.016130682,0.0001132406,9.748333e-05,0.0,-0.6871036,-0.31341383,0.64230305,-1.3425624,0.13744865,0.0,0.11673057,0.9831164,0.56572866,0.66258556,0.15223981,inf,inf,inf,inf,0,1,0,1,1,0,1,0,2,0,0,1
42825187,0,0.0,0.0,0.0,0.0,0.25019208,5.6229624e-07,4.840535e-07,0.0,0.058190007,-0.714849,0.016464282,-0.0072464882,0.0001132406,9.748333e-05,0.0,0.44497073,-1.724135,1.7150578,-1.3505833,0.13744865,0.0,0.12140402,1.0436763,0.5635883,0.6904834,0.15140408,inf,inf,inf,inf,0,1,0,1,1,0,1,0,2,0,0,1
42924528,0,0.0,0.0,0.0,0.0,0.24742723,5.6229624e-07,4.840535e-07,0.0,0.08713371,-0.7276822,0.02769918,0.0021866707,0.0001132406,9.748333e-05,0.0,0.9795931,-0.7365458,0.015015647,-1.3594433,0.13744865,0.0,0.12416887,1.1042382,0.5614583,0.71705633,0.15055844,inf,inf,inf,inf,0,1,0,1,1,0,1,0,2,0,0,1
43023866,0,0.0,0.0,0.0,0.0,0.24690911,5.6229624e-07,4.840535e-07,0.0,0.13752475,-0.7126296,0.03672258,0.010238814,0.0001132406,9.748333e-05,0.0,-0.06012636,2.5202584,-1.31221,-1.3761219,0.13744865,0.0,0.124686986,1.17078,0.55937654,0.7450312,0.14969732,inf,inf,inf,inf,0,1,0,1,1,0,1,0,2,0,0,1
43123207,0,0.0,0.0,0.0,0.0,0.24719696,5.6229624e-07,4.840535e-07,0.0,0.10492272,-0.74163663,0.005757026,-0.020724257,0.0001132406,9.748333e-05,0.0,-1.229481,-1.3917465,1.3392605,-1.3887252,0.13744865,0.0,0.12439914,1.236,0.55727035,0.7707915,0.14882201,inf,inf,inf,inf,0,1,0,1,1,0,1,0,2,0,0,1
43222663,0,0.0,0.0,0.0,0.0,0.24598898,5.6229624e-07,4.840535e-07,0.0,0.08740257,-0.7644204,0.013457766,-0.012965643,0.0001132406,9.748333e-05,0.0,1.2053509,-0.44206586,0.3416904,-1.3695917,0.13744865,0.0,0.12560712,1.3084263,0.5623025,0.7988694,0.14930761,inf,inf,inf,inf,0,1,0,1,1,0,1,0,2,0,0,1
43321887,0,0.0,0.0,0.0,0.0,0.24544719,5.6229624e-07,4.840535e-07,0.0,0.071962036,-0.7724317,0.01249774,-0.012867559,0.0001132406,9.748333e-05,0.0,0.11635769,-1.3208377,0.8913987,-1.3426876,0.13744865,0.0,0.12614891,1.3777395,0.56017673,0.8238747,0.14858085,inf,inf,inf,inf,0,1,0,1,1,0,1,0,2,0,0,1
43421228,0,0.0,0.0,0.0,0.0,0.24568246,5.6229624e-07,4.840535e-07,0.0,0.034242064,-0.7939875,-0.0075056884,-0.029780468,0.0001132406,9.748333e-05,0.0,-0.1033367,-1.4390225,0.41304594,-1.3078624,0.13744865,0.0,0.12591363,1.4559171,0.55807555,0.8520321,0.1479001,inf,inf,inf,inf,0,1,0,1,1,0,1,0,2,0,0,1
43520568,0,0.0,0.0,0.0,0.0,0.2440794,5.6229624e-07,4.840535e-07,0.0,-0.015952582,-0.776226,-0.019949742,-0.039517663,0.0001132406,9.748333e-05,0.0,-1.5581617,0.35334444,-0.28145298,-1.279046,0.13744865,0.0,0.1275167,1.5285976,0.55598366,0.8759558,0.14717197,inf,inf,inf,inf,0,1,0,1,1,0,1,0,2,0,0,1
43629842,0,0.0,0.0,0.0,0.0,0.23941976,5.6229624e-07,4.840535e-07,0.0,-0.04562187,-0.7652809,0.014389499,-0.0074524805,0.0001132406,9.748333e-05,0.0,-0.5818793,0.66201305,-0.43907896,-1.2582138,0.13744865,0.0,0.13217634,1.6209371,0.5551119,0.90695643,0.14653417,inf,inf,inf,inf,0,1,0,1,1,0,1,0,2,0,0,1
43719254,0,0.0,0.0,0.0,0.0,0.2375759,5.6229624e-07,4.840535e-07,0.0,-0.087836355,-0.73442936,0.049175054,0.02466288,0.0001132406,9.748333e-05,0.0,-1.6941646,1.2236034,0.34874827,-1.2461772,0.13744865,0.0,0.1340202,1.6875495,0.5518827,0.92653793,0.14542656,inf,inf,inf,inf,0,1,0,1,1,0,1,0,2,0,0,1
43823556,0,0.0,0.0,0.0,0.0,0.23955812,5.6229624e-07,4.840535e-07,0.0,-0.1671743,-0.6940586,0.08197881,0.055722635,0.0001132406,9.748333e-05,0.0,-2.3330114,-0.4221289,0.79770625,-1.2389127,0.13744865,0.0,0.13203798,1.7767785,0.5568117,0.9544345,0.14565843,inf,inf,inf,inf,0,1,0,1,1,0,1,0,2,0,0,1
43922897,0,0.0,0.0,0.0,0.0,0.24055469,5.6229624e-07,4.840535e-07,0.0,-0.14082457,-0.69697964,0.031501245,0.0033441635,0.0001132406,9.748333e-05,0.0,-0.29558378,-1.1091088,0.5877879,-1.2349277,0.13744865,0.0,0.13104141,1.8534548,0.5547401,0.9749944,0.14474319,inf,inf,inf,inf,0,1,0,1,1,0,1,0,2,0,0,1
44022328,0,0.0,0.0,0.0,0.0,0.23841362,5.6229624e-07,4.840535e-07,0.0,-0.16942447,-0.6637633,0.05618712,0.024432419,0.0001132406,9.748333e-05,0.0,0.5370216,1.0008992,-0.36189273,-1.2362261,0.13744865,0.0,0.13318248,1.9478194,0.55275565,1.0029398,0.14402348,inf,inf,inf,inf,0,1,0,1,1,0,1,0,2,0,0,1
44126546,0,0.0,0.0,0.0,0.0,0.2374798,5.6229624e-07,4.840535e-07,0.0,-0.15307412,-0.6814928,0.025906866,-0.0063279453,0.0001132406,9.748333e-05,0.0,-1.8365363,1.2987021,-0.9619176,-1.2374947,0.13744865,0.0,0.13411629,2.0248728,0.5507643,1.0215912,0.1433794,inf,inf,inf,inf,0,1,0,1,1,0,1,0,2,0,0,1
44225885,0,0.0,0.0,0.0,0.0,0.23692682,5.6229624e-07,4.840535e-07,0.0,-0.14575654,-0.67462015,0.012632523,-0.018830853,0.0001132406,9.748333e-05,0.0,-0.1481643,-0.6613082,0.1448039,-1.2435951,0.13744865,0.0,0.13466927,2.1241546,0.5488107,1.0494862,0.14280814,inf,inf,inf,inf,0,1,0,1,1,0,1,0,2,0,0,1
44325226,0,0.0,0.0,0.0,0.0,0.23305567,5.6229624e-07,4.840535e-07,0.0,-0.1460742,-0.6816183,-0.024697876,-0.055897616,0.0001132406,9.748333e-05,0.0,1.2101935,1.4067388,-0.9229017,-1.2534329,0.13744865,0.0,0.13854043,2.2000177,0.5469042,1.0653936,0.14217573,inf,inf,inf,inf,0,1,0,1,1,0,1,0,2,0,0,1
44424567,0,0.0,0.0,0.0,0.0,0.22397035,5.6229624e-07,4.840535e-07,0.0,-0.13920665,-0.69851446,-0.07210552,-0.10437607,0.0001132406,9.748333e-05,0.0,-1.0959239,-0.34114933,-0.78708684,-1.2677165,0.13744865,0.0,0.14762574,2.3039172,0.5450665,1.0930208,0.14157307,inf,inf,inf,inf,0,1,0,1,1,0,1,0,2,0,0,1
44523909,0,0.0,0.0,0.0,0.0,0.20892929,5.6229624e-07,4.840535e-07,0.0,-0.12000433,-0.71115136,-0.124019794,-0.15833566,0.0001132406,9.748333e-05,0.0,0.3290871,-0.04081611,-0.33057943,-1.2832544,0.13744865,0.0,0.16266681,2.3770094,0.54320556,1.1060258,0.14091635,inf,inf,inf,inf,0,1,0,1,1,0,1,0,2,0,0,1
44623295,0,0.0,0.0,0.0,0.0,0.18809384,5.6229624e-07,4.840535e-07,0.0,-0.09798872,-0.72429866,-0.20325446,-0.23814394,0.0001132406,9.748333e-05,0.0,1.7044502,-1.5470862,-0.4942846,-1.2972947,0.13744865,0.0,0.18350226,2.4852374,0.54801756,1.1335046,0.14152704,inf,inf,inf,inf,0,1,0,1,1,0,1,0,2,0,0,1
44722588,0,0.0,0.0,0.0,0.0,0.16022746,5.6229624e-07,4.840535e-07,0.0,-0.06997911,-0.73152333,-0.31135008,-0.3446782,0.0001132406,9.748333e-05,0.0,-0.3692816,1.933485,-1.8813286,-1.310251,0.13744865,0.0,0.21136864,2.553929,0.54613817,1.1431764,0.14098218,inf,inf,inf,inf,0,1,0,1,1,0,1,0,2,0,0,1
44821980,0,0.0,0.0,0.0,0.0,0.12315416,5.6229624e-07,4.840535e-07,0.0,-0.044706516,-0.7518816,-0.39960283,-0.43152887,0.0001132406,9.748333e-05,0.0,-2.0930312,-1.6896256,-1.0077838,-1.3227217,0.13744865,0.0,0.24844193,2.6659644,0.544347,1.1704313,0.14056292,inf,inf,inf,inf,0,1,0,1,1,0,1,0,2,0,0,1
44921269,0,0.0,0.0,0.0,0.0,0.077134766,5.6229624e-07,4.840535e-07,0.0,-0.02669646,-0.77592975,-0.47090378,-0.5014873,0.0001132406,9.748333e-05,0.0,0.024447385,-1.7487438,1.6072246,-1.3314834,0.13744865,0.0,0.29446134,2.7285707,0.5425453,1.1764098,0.14005911,inf,inf,inf,inf,0,1,0,1,1,0,1,0,2,0,0,1
45020609,0,0.0,0.0,0.0,0.0,0.027354535,5.6229624e-07,4.840535e-07,0.0,0.01858084,-0.81416655,-0.52597857,-0.55381346,0.0001132406,9.748333e-05,0.0,0.9945194,1.4629303,-2.3783062,-1.3397232,0.13744865,0.0,0.34424156,2.8440595,0.54081476,1.2032377,0.13971533,inf,inf,inf,inf,0,1,0,1,1,0,1,0,2,0,0,1
45120152,0,0.0,0.0,0.0,0.0,-0.023580555,5.6229624e-07,4.840535e-07,0.0,0.02590155,-0.8866407,-0.5518937,-0.5745283,0.0001132406,9.748333e-05,0.0,-1.3982115,0.7607294,-1.9286745,-1.3494064,0.13744865,0.0,0.39517665,2.9623206,0.53910375,1.2300297,0.13935596,inf,inf,inf,inf,0,1,0,1,1,0,1,0,2,0,0,1
45224257,0,0.0,0.0,0.0,0.0,-0.07834174,5.6229624e-07,4.840535e-07,0.0,0.067798145,-0.97867066,-0.5607634,-0.5776518,0.0001132406,9.748333e-05,0.0,1.2292613,-1.52313,0.46046433,-1.3583598,0.13744865,0.0,0.44993782,3.017326,0.53733367,1.231176,0.13882908,inf,inf,inf,inf,0,1,0,1,1,0,1,0,2,0,0,1
45323598,0,0.0,0.0,0.0,0.0,-0.1299389,5.6229624e-07,4.840535e-07,0.0,0.089700885,-1.0772895,-0.53784573,-0.54996186,0.0001132406,9.748333e-05,0.0,-1.3492675,-0.94373024,-1.0083503,-1.3656487,0.13744865,0.0,0.501535,3.1384661,0.5357039,1.2574341,0.13853267,inf,inf,inf,inf,0,1,0,1,1,0,1,0,2,0,0,1
45422938,0,0.0,0.0,0.0,0.0,-0.17831802,5.6229624e-07,4.840535e-07,0.0,0.12864797,-1.1563853,-0.49143317,-0.49962935,0.0001132406,9.748333e-05,0.0,2.3147945,-2.3613293,2.0735948,-1.3719724,0.13744865,0.0,0.5499141,3.1837614,0.540375,1.2540097,0.1391226,inf,inf,inf,inf,0,1,0,1,1,0,1,0,2,0,0,1
45522279,0,0.0,0.0,0.0,0.0,-0.22185695,5.6229624e-07,4.840535e-07,0.0,0.16495395,-1.2324358,-0.45448783,-0.45853785,0.0001132406,9.748333e-05,0.0,-0.76752365,0.46578562,-1.6576772,-1.3740602,0.13744865,0.0,0.59345305,3.3072314,0.5387619,1.2793795,0.13890803,inf,inf,inf,inf,0,1,0,1,1,0,1,0,2,0,0,1
45621642,0,0.0,0.0,0.0,0.0,-0.26061985,5.6229624e-07,4.840535e-07,0.0,0.2374384,-1.270708,-0.40388522,-0.40398523,0.0001132406,9.748333e-05,0.0,1.1360248,-1.2291178,1.3276314,-1.374795,0.13744865,0.0,0.632216,3.3411016,0.5370488,1.2712204,0.1385472,inf,inf,inf,inf,0,1,0,1,1,0,1,0,2,0,0,1
45720960,0,0.0,0.0,0.0,0.0,-0.29770467,5.6229624e-07,4.840535e-07,0.0,0.31462955,-1.279169,-0.38100338,-0.37961772,0.0001132406,9.748333e-05,0.0,0.3804296,0.9378774,-0.8885903,-1.3727612,0.13744865,0.0,0.6693008,3.4663107,0.5354618,1.2960083,0.13850705,inf,inf,inf,inf,0,1,0,1,1,0,1,0,2,0,0,0
45820302,0,0.0,0.0,0.0,0.0,-0.33405396,5.6229624e-07,4.840535e-07,0.0,0.40974945,-1.2640774,-0.35670662,-0.355464,0.0001132406,9.748333e-05,0.0,5.049323,0.43705425,0.7300382,-1.3682586,0.13744865,0.0,0.7056501,3.4877825,0.53378594,1.2834209,0.13822192,inf,inf,inf,inf,0,1,0,1,1,0,1,0,2,0,0,0
45919793,0,0.0,0.0,0.0,0.0,-0.37177792,5.6229624e-07,4.840535e-07,0.0,0.50307703,-1.2325637,-0.3148443,-0.3177406,0.0001132406,9.748333e-05,0.0,-0.39752528,-0.9600855,1.4693598,-1.3659196,0.13744865,0.0,0.743374,3.6142006,0.53226334,1.3076301,0.13841581,inf,inf,inf,inf,0,1,0,1,1,0,1,0,2,0,0,0
46018988,0,0.0,0.0,0.0,0.0,-0.4089056,5.6229624e-07,4.840535e-07,0.0,0.5581448,-1.1752135,-0.32626086,-0.33399987,0.0001132406,9.748333e-05,0.0,0.09389953,1.0876992,-0.43149772,-1.3628511,0.13744865,0.0,0.7805017,3.6225367,0.5306403,1.2906713,0.13824669,inf,inf,inf,inf,0,1,0,1,1,0,1,0,2,0,0,0
46128257,0,0.0,0.0,0.0,0.0,-0.4515153,5.6229624e-07,4.840535e-07,0.0,0.6023548,-1.1283101,-0.31712604,-0.33161178,0.0001132406,9.748333e-05,0.0,-2.0112097,0.5450041,-1.382332,-1.3592451,0.13744865,0.0,0.8231114,3.76254,0.53028274,1.3165798,0.1387055,inf,inf,inf,inf,0,1,0,1,1,0,1,0,2,0,0,0
46222641,0,0.0,0.0,0.0,0.0,-0.48737898,5.6229624e-07,4.840535e-07,0.0,0.58418643,-1.0655181,-0.31463432,-0.33379793,0.0001132406,9.748333e-05,0.0,-3.3657463,1.3946941,0.06125171,-1.3574461,0.13744865,0.0,0.85897505,3.744674,0.53376794,1.2932721,0.13912238,inf,inf,inf,inf,0,1,0,1,1,0,1,0,2,0,0,0
46321972,0,0.0,0.0,0.0,0.0,-0.5238681,5.6229624e-07,4.840535e-07,0.0,0.608589,-1.0259227,-0.29102516,-0.31446525,0.0001132406,9.748333e-05,0.0,-1.2292426,-0.9093085,1.2573457,-1.3571382,0.13744865,0.0,0.8954642,3.8720312,0.5323624,1.3162341,0.13904797,inf,inf,inf,inf,0,1,0,1,1,0,1,0,2,0,0,0
46421398,0,0.0,0.0,0.0,0.0,-0.5620372,5.6229624e-07,4.840535e-07,0.0,0.508802,-0.94689554,-0.296832,-0.32662293,0.0001132406,9.748333e-05,0.0,-0.003651953,1.1898319,-1.1350317,-1.3576875,0.13744865,0.0,0.9336333,3.8542178,0.5307525,1.291845,0.13810746,inf,inf,inf,inf,0,1,0,1,1,0,1,0,2,0,0,0
46520652,0,0.0,0.0,0.0,0.0,-0.60398924,5.6229624e-07,4.840535e-07,0.0,0.464361,-0.8780877,-0.29599214,-0.33448464,0.0001132406,9.748333e-05,0.0,-0.7566981,1.5938269,0.92583877,-1.3583782,0.13744865,0.0,0.97558534,3.9813843,0.5294019,1.3140855,0.13754392,inf,inf,inf,inf,0,1,0,1,1,0,1,0,2,0,0,0
46619992,0,0.0,0.0,0.0,0.0,-0.64852685,5.6229624e-07,4.840535e-07,0.0,0.37032512,-0.8233235,-0.28917038,-0.33843458,0.0001132406,9.748333e-05,0.0,-3.2443917,-0.94846004,0.70385545,-1.3581301,0.13744865,0.0,1.020123,3.9503078,0.5278061,1.2861588,0.13650848,inf,inf,inf,inf,0,1,0,1,1,0,1,0,2,0,0,0
46719452,0,0.0,0.0,0.0,0.0,-0.6911727,5.6229624e-07,4.840535e-07,0.0,0.2941111,-0.7367018,-0.28680173,-0.344566,0.0001132406,9.748333e-05,0.0,1.2964145,1.7123855,-1.0731673,-1.3565032,0.13744865,0.0,1.0627688,4.076844,0.5264421,1.3076591,0.13581462,inf,inf,inf,inf,0,1,0,1,1,0,1,0,2,0,0,0
46823639,0,0.0,0.0,0.0,0.0,-0.7345647,5.6229624e-07,4.840535e-07,0.0,0.19571905,-0.6743861,-0.2642893,-0.33033854,0.0001132406,9.748333e-05,0.0,-2.0253046,0.11534711,0.0031151501,-1.3568013,0.13744865,0.0,1.1061609,4.0343637,0.53085756,1.2770534,0.13562457,inf,inf,inf,inf,0,1,0,1,1,0,1,0,2,0,0,0
46922981,0,0.0,0.0,0.0,0.0,-0.77347326,5.6229624e-07,4.840535e-07,0.0,0.11047385,-0.6095131,-0.24520718,-0.31735796,0.0001132406,9.748333e-05,0.0,-0.5237141,1.7986406,-0.7106607,-1.3556579,0.13744865,0.0,1.1450694,4.159951,0.52947176,1.297881,0.13494872,inf,inf,inf,inf,0,1,0,1,1,0,1,0,2,0,0,0
47027287,0,0.0,0.0,0.0,0.0,-0.8076583,5.6229624e-07,4.840535e-07,0.0,0.028862521,-0.5553331,-0.2141312,-0.28866896,0.0001132406,9.748333e-05,0.0,0.2539838,1.1405537,-0.7915018,-1.3544337,0.13744865,0.0,1.1792544,4.1052623,0.52783895,1.2645954,0.13384926,inf,inf,inf,inf,0,1,0,1,1,0,1,0,2,0,0,0
47126630,0,0.0,0.0,0.0,0.0,-0.8359045,5.6229624e-07,4.840535e-07,0.0,-0.053218618,-0.5014143,-0.18948789,-0.2638964,0.0001132406,9.748333e-05,0.0,-0.53730994,1.4430324,0.28381982,-1.3526336,0.13744865,0.0,1.2075006,4.229555,0.52647656,1.2845145,0.13320248,inf,inf,inf,inf,0,1,0,1,1,0,1,0,2,0,0,0
47226010,0,0.0,0.0,0.0,0.0,-0.86085737,5.6229624e-07,4.840535e-07,0.0,-0.13979849,-0.45449862,-0.16981187,-0.24294758,0.0001132406,9.748333e-05,0.0,-3.1114118,-0.7215719,0.8382924,-1.3505505,0.13744865,0.0,1.2324535,4.164967,0.5248152,1.2495377,0.13222092,inf,inf,inf,inf,0,1,0,1,1,0,1,0,2,0,0,0
47325309,0,0.0,0.0,0.0,0.0,-0.88445604,5.6229624e-07,4.840535e-07,0.0,-0.21142095,-0.40326717,-0.160484,-0.23234461,0.0001132406,9.748333e-05,0.0,-0.8487533,-1.3491715,0.12236665,-1.3465661,0.13744865,0.0,1.2560521,4.2877107,0.52345586,1.2687192,0.13161734,inf,inf,inf,inf,0,1,0,1,1,0,1,0,2,0,0,0
47424650,0,0.0,0.0,0.0,0.0,-0.90518486,5.6229624e-07,4.840535e-07,0.0,-0.28374466,-0.35171282,-0.15096214,-0.22020744,0.0001132406,9.748333e-05,0.0,0.2559651,0.82519585,-1.2264045,-1.3414685,0.13744865,0.0,1.276781,4.213185,0.52177787,1.232,0.1307095,inf,inf,inf,inf,0,1,0,1,1,0,1,0,2,0,0,0
47524168,0,0.0,0.0,0.0,0.0,-0.9225373,5.6229624e-07,4.840535e-07,0.0,-0.35095906,-0.3046944,-0.13487525,-0.19972454,0.0001132406,9.748333e-05,0.0,1.5267243,0.48049778,-0.14229693,-1.335993,0.13744865,0.0,1.2941334,4.334424,0.52625346,1.2505482,0.1310678,inf,inf,inf,inf,0,1,0,1,1,0,1,0,2,0,0,0
47623332,0,0.0,0.0,0.0,0.0,-0.9379407,5.6229624e-07,4.840535e-07,0.0,-0.42825788,-0.26781166,-0.11455602,-0.17548499,0.0001132406,9.748333e-05,0.0,0.47496235,-0.7418572,0.88935596,-1.3306775,0.13744865,0.0,1.3095368,4.2510967,0.5245386,1.2126303,0.13024257,inf,inf,inf,inf,0,1,0,1,1,0,1,0,2,0,0,0
47722671,0,0.0,0.0,0.0,0.0,-0.9511512,5.6229624e-07,4.840535e-07,0.0,-0.49522167,-0.22927715,-0.089608684,-0.14674245,0.0001132406,9.748333e-05,0.0,-0.68521535,-2.4243786,1.9449719,-1.3263911,0.13744865,0.0,1.3227472,4.3700767,0.5231328,1.2303718,0.12972456,inf,inf,inf,inf,0,1,0,1,1,0,1,0,2,0,0,0
47822012,0,0.0,0.0,0.0,0.0,-0.96332896,5.6229624e-07,4.840535e-07,0.0,-0.576512,-0.19361474,-0.08124483,-0.13560656,0.0001132406,9.748333e-05,0.0,-4.4630337,-0.92554283,0.41878554,-1.3229264,0.13744865,0.0,1.334925,4.4908466,0.5217269,1.2481157,0.12920965,inf,inf,inf,inf,0,1,0,1,1,0,1,0,2,0,0,0
47921352,0,0.0,0.0,0.0,0.0,-0.97223276,5.6229624e-07,4.840535e-07,0.0,-0.62329084,-0.1425083,-0.07058036,-0.12069324,0.0001132406,9.748333e-05,0.0,-1.5161626,1.151773,-0.7737776,-1.3212981,0.13744865,0.0,1.3438289,4.3959904,0.52004,1.2086531,0.12849648,inf,inf,inf,inf,0,1,0,1,1,0,1,0,2,0,0,0
48020719,0,0.0,0.0,0.0,0.0,-0.97729033,5.6229624e-07,4.840535e-07,0.0,-0.582591,-0.08646199,-0.04973664,-0.09367837,0.0001132406,9.748333e-05,0.0,0.45573533,1.1319726,0.27777368,-1.3229449,0.13744865,0.0,1.3488865,4.5145545,0.5186317,1.2257023,0.1280374,inf,inf,inf,inf,0,1,0,1,1,0,1,0,2,0,0,0
48125001,0,0.0,0.0,0.0,0.0,-0.98132825,5.6229624e-07,4.840535e-07,0.0,-0.5816828,-0.08235222,-0.035502277,-0.074576125,0.0001132406,9.748333e-05,0.0,-0.57543296,-2.2918642,2.1475792,-1.3283368,0.13744865,0.0,1.3529243,4.413447,0.5227436,1.1859243,0.12826355,inf,inf,inf,inf,0,1,0,1,1,0,1,0,2,0,0,0
48224362,0,0.0,0.0,0.0,0.0,-0.9834442,5.6229624e-07,4.840535e-07,0.0,-0.49296677,-0.0693121,-0.026173221,-0.060318135,0.0001132406,9.748333e-05,0.0,0.609321,1.0895703,-1.2976794,-1.3346689,0.13744865,0.0,1.3550403,4.529707,0.5213366,1.2022836,0.127866,inf,inf,inf,inf,0,1,0,1,1,0,1,0,2,0,0,0
48323766,0,0.0,0.0,0.0,0.0,-0.98348814,5.6229624e-07,4.840535e-07,0.0,-0.3766847,-0.078274585,-0.0027361526,-0.032188065,0.0001132406,9.748333e-05,0.0,3.252851,0.64251804,0.31140986,-1.3413037,0.13744865,0.0,1.3550842,4.424035,0.51974106,1.162631,0.12763372,inf,inf,inf,inf,0,1,0,1,1,0,1,0,2,0,0,0
48423023,0,0.0,0.0,0.0,0.0,-0.9792143,5.6229624e-07,4.840535e-07,0.0,-0.2814068,-0.12788634,0.022697795,-0.000504851,0.0001132406,9.748333e-05,0.0,-2.6760492,-1.4340442,0.51648575,-1.3460228,0.13744865,0.0,1.3508104,4.537923,0.5184145,1.1782385,0.12761053,inf,inf,inf,inf,0,1,0,1,1,0,1,0,2,0,0,0
48522363,0,0.0,0.0,0.0,0.0,-0.970883,5.6229624e-07,4.840535e-07,0.0,-0.14779656,-0.18774262,0.05631854,0.03967541,0.0001132406,9.748333e-05,0.0,0.5156326,-0.51163346,-0.89871544,-1.3485601,0.13744865,0.0,1.3424791,4.4277453,0.5168779,1.1385545,0.12743172,inf,inf,inf,inf,0,1,0,1,1,0,1,0,2,0,0,0
48621703,0,0.0,0.0,0.0,0.0,-0.9581916,5.6229624e-07,4.840535e-07,0.0,-0.03662397,-0.2767107,0.10482135,0.09431951,0.0001132406,9.748333e-05,0.0,0.057871047,-2.6579561,0.9001529,-1.3535151,0.13744865,0.0,1.3297877,4.539166,0.51561546,1.1534815,0.12750211,inf,inf,inf,inf,0,1,0,1,1,0,1,0,2,0,0,0
48721044,0,0.0,0.0,0.0,0.0,-0.9382017,5.6229624e-07,4.840535e-07,0.0,0.09779473,-0.36176938,0.15838774,0.1558543,0.0001132406,9.748333e-05,0.0,1.5391927,-2.7125278,2.0863779,-1.3592498,0.13744865,0.0,1.3097978,4.425434,0.5141718,1.1141526,0.12728994,inf,inf,inf,inf,0,1,0,1,1,0,1,0,2,0,0,0
48820384,0,0.0,0.0,0.0,0.0,-0.91432595,5.6229624e-07,4.840535e-07,0.0,0.23087762,-0.4522215,0.19846024,0.20217893,0.0001132406,9.748333e-05,0.0,3.3178759,0.30560774,-0.35533231,-1.3645248,0.13744865,0.0,1.285922,4.5343456,0.512964,1.1284589,0.12739305,inf,inf,inf,inf,0,1,0,1,1,0,1,0,2,0,0,0
48924692,0,0.0,0.0,0.0,0.0,-0.8852926,5.6229624e-07,4.840535e-07,0.0,0.36906382,-0.55871564,0.2532631,0.2615312,0.0001132406,9.748333e-05,0.0,1.9626734,-1.763989,-0.18189065,-1.3714056,0.13744865,0.0,1.2568886,4.4181056,0.51713526,1.0897213,0.12810144,inf,inf,inf,inf,0,1,0,1,1,0,1,0,2,0,0,0
49024032,0,0.0,0.0,0.0,0.0,-0.854102,5.6229624e-07,4.840535e-07,0.0,0.5028081,-0.6470265,0.29593712,0.30689302,0.0001132406,9.748333e-05,0.0,3.610879,-0.63156503,1.0104071,-1.3742641,0.13744865,0.0,1.2256981,4.524492,0.51594484,1.103438,0.12831959,inf,inf,inf,inf,0,1,0,1,1,0,1,0,2,0,0,0
49123418,0,0.0,0.0,0.0,0.0,-0.82295656,5.6229624e-07,4.840535e-07,0.0,0.5676366,-0.71899366,0.31355178,0.323406,0.0001132406,9.748333e-05,0.0,-2.8075855,-0.69693416,-1.525481,-1.373464,0.13744865,0.0,1.1945527,4.407098,0.51457953,1.0656883,0.12822896,inf,inf,inf,inf,0,1,0,1,1,0,1,0,2,0,0,0
49227685,0,0.0,0.0,0.0,0.0,-0.7898924,5.6229624e-07,4.840535e-07,0.0,0.6145047,-0.77612203,0.33764246,0.3451708,0.0001132406,9.748333e-05,0.0,-0.63055485,-1.6540123,-0.764547,-1.366067,0.13744865,0.0,1.1614885,4.510984,0.51349026,1.0788977,0.12849893,inf,inf,inf,inf,0,1,0,1,1,0,1,0,2,0,0,0
49327023,0,0.0,0.0,0.0,0.0,-0.75645304,5.6229624e-07,4.840535e-07,0.0,0.63940185,-0.80967647,0.3673431,0.37196618,0.0001132406,9.748333e-05,0.0,1.434277,-0.3440918,-0.5087869,-1.3612614,0.13744865,0.0,1.1280491,4.3931537,0.51220226,1.0422472,0.12837166,inf,inf,inf,inf,0,1,0,1,1,0,1,0,2,0,0,0
49426362,0,0.0,0.0,0.0,0.0,-0.7245481,5.6229624e-07,4.840535e-07,0.0,0.59013236,-0.81007206,0.37928087,0.37820128,0.0001132406,9.748333e-05,0.0,0.20216665,1.5762333,-0.6488017,-1.3557248,0.13744865,0.0,1.0961442,4.4945993,0.51115954,1.0551589,0.12829232,inf,inf,inf,inf,0,1,0,1,1,0,1,0,2,0,0,0
49525702,0,0.0,0.0,0.0,0.0,-0.6934763,5.6229624e-07,4.840535e-07,0.0,0.53167164,-0.7984855,0.39266288,0.38425723,0.0001132406,9.748333e-05,0.0,-2.4683912,-0.62372035,0.58530694,-1.3501699,0.13744865,0.0,1.0650724,4.375861,0.509919,1.0195022,0.12770176,inf,inf,inf,inf,0,1,0,1,1,0,1,0,2,0,0,0
49625043,0,0.0,0.0,0.0,0.0,-0.6616978,5.6229624e-07,4.840535e-07,0.0,0.4773861,-0.76733273,0.40709573,0.39191273,0.0001132406,9.748333e-05,0.0,1.9352763,-1.3325615,1.5711919,-1.3438495,0.13744865,0.0,1.033294,4.4749107,0.5088915,1.0319391,0.12745346,inf,inf,inf,inf,0,1,0,1,1,0,1,0,2,0,0,0
49724383,0,0.0,0.0,0.0,0.0,-0.6317211,5.6229624e-07,4.840535e-07,0.0,0.40321004,-0.7219652,0.41723922,0.39298677,0.0001132406,9.748333e-05,0.0,-0.44146258,0.8608264,0.25439256,-1.3361356,0.13744865,0.0,1.0033171,4.355992,0.5130893,0.9973171,0.12763712,inf,inf,inf,inf,0,1,0,1,1,0,1,0,2,0,0,0
49823724,0,0.0,0.0,0.0,0.0,-0.6050367,5.6229624e-07,4.840535e-07,0.0,0.32271495,-0.65701765,0.39299148,0.35773113,0.0001132406,9.748333e-05,0.0,-3.7040744,-0.5865357,0.7302775,-1.3300424,0.13744865,0.0,0.9766328,4.4527164,0.5120586,1.0093249,0.12729208,inf,inf,inf,inf,0,1,0,1,1,0,1,0,2,0,0,0
49923144,0,0.0,0.0,0.0,0.0,-0.58206534,5.6229624e-07,4.840535e-07,0.0,0.24032259,-0.59622204,0.34505418,0.2999348,0.0001132406,9.748333e-05,0.0,-4.6361294,0.21123429,-0.14684096,-1.3256912,0.13744865,0.0,0.95366144,4.3336544,0.51080066,0.9756686,0.12662886,inf,inf,inf,inf,0,1,0,1,1,0,1,0,2,0,0,0
50022405,0,0.0,0.0,0.0,0.0,-0.56383616,5.6229624e-07,4.840535e-07,0.0,0.17753996,-0.51812655,0.28652304,0.23310232,0.0001132406,9.748333e-05,0.0,-2.7021298,2.8396273,-1.9857608,-1.3226522,0.13744865,0.0,0.93543226,4.428098,0.50975615,0.9873369,0.12630174,inf,inf,inf,inf,0,1,0,1,1,0,1,0,2,0,0,0
50121746,0,0.0,0.0,0.0,0.0,-0.55332994,5.6229624e-07,4.840535e-07,0.0,0.14577785,-0.45792568,0.21982333,0.15724526,0.0001132406,9.748333e-05,0.0,0.37604436,2.4676178,-1.2378867,-1.3213527,0.13744865,0.0,0.92492604,4.309495,0.50849086,0.95482653,0.12572125,inf,inf,inf,inf,0,1,0,1,1,0,1,0,2,0,0,0
50221234,0,0.0,0.0,0.0,0.0,-0.5527482,5.6229624e-07,4.840535e-07,0.0,0.10203017,-0.3915697,0.15184884,0.07833335,0.0001132406,9.748333e-05,0.0,-0.55587304,0.7051461,0.18359621,-1.3205823,0.13744865,0.0,0.9243443,4.4017396,0.50745517,0.9661768,0.12539203,inf,inf,inf,inf,0,1,0,1,1,0,1,0,2,0,0,0
50320430,0,0.0,0.0,0.0,0.0,-0.5592146,5.6229624e-07,4.840535e-07,0.0,0.10437168,-0.32339397,0.08386755,0.00036993157,0.0001132406,9.748333e-05,0.0,-1.6590879,1.997481,-1.584744,-1.3212299,0.13744865,0.0,0.9308107,4.283919,0.5062289,0.93481153,0.12489648,inf,inf,inf,inf,0,1,0,1,1,0,1,0,2,0,0,0
50429702,0,0.0,0.0,0.0,0.0,-0.57059366,5.6229624e-07,4.840535e-07,0.0,0.10816584,-0.2372059,0.01125944,-0.078463815,0.0001132406,9.748333e-05,0.0,0.36462653,2.1371694,0.024102082,-1.3232334,0.13744865,0.0,0.94218975,4.383149,0.5061715,0.94695324,0.1247951,inf,inf,inf,inf,0,1,0,1,1,0,1,0,2,0,0,0
50524075,0,0.0,0.0,0.0,0.0,-0.5823798,5.6229624e-07,4.840535e-07,0.0,0.13063882,-0.18043754,-0.05599616,-0.14635846,0.0001132406,9.748333e-05,0.0,4.194724,0.41149947,-0.30540034,-1.3257327,0.13744865,0.0,0.9539759,4.2582226,0.50933725,0.9157685,0.1250889,inf,inf,inf,inf,0,1,0,1,1,0,1,0,2,0,0,0
50623416,50623416,34.033707299999996,108.7637477,0.0,0.0,-0.59629935,5.6229624e-07,4.840535e-07,0.0,0.1154426,-0.118019916,-0.10622253,-0.19245896,0.0001132406,9.748333e-05,0.0,0.81305677,1.3542314,-0.15098807,-1.3288395,0.13744865,447.2336,0.96789545,4.346307,0.5083016,0.9265081,0.124907434,inf,inf,inf,inf,0,1,0,1,1,0,1,0,2,1,1,0
50722756,50623416,34.033707299999996,108.7637477,0.015660213,0.080916755,-0.60774434,-0.25945434,1.2777658,0.0,-0.0809868,0.23494788,-0.11225109,-0.1895668,-0.1722651,0.29566777,0.04587075,1.7491516,1.0521578,0.53211486,-1.2750157,0.05668905,447.2336,0.97934043,0.91804594,0.50352293,0.22990651,0.17751753,inf,inf,inf,inf,1,1,1,1,2,0,2,1,3,1,1,0
50822098,50623416,34.033707299999996,108.7637477,-0.0066493344,0.14610812,-0.61796373,-0.25945434,1.2777658,0.0,-0.11600005,0.27806956,-0.15576561,-0.22339979,-0.1722651,0.29566777,0.04587075,-1.2153574,1.9714228,-1.4007715,-1.2795548,0.05668905,447.2336,0.9895598,0.91856533,0.49399576,0.2320141,0.17791025,inf,inf,inf,inf,1,1,1,1,2,0,2,1,3,1,1,0
50921437,50623416,34.033707299999996,108.7637477,-0.031860456,0.21111192,-0.6317092,-0.25945434,1.2777658,0.0,-0.16268109,0.3067838,-0.19283147,-0.25185487,-0.1722651,0.29566777,0.04587075,-0.27035347,0.121529244,0.6013841,-1.2846245,0.05668905,447.2336,1.0033053,0.750126,0.48539284,0.20659274,0.16585146,inf,inf,inf,inf,1,1,1,1,2,0,2,1,3,1,1,0
51020891,50623416,34.033707299999996,108.7637477,-0.057198144,0.2677081,-0.6510789,-0.25945434,1.2777658,0.0,-0.21619557,0.33643162,-0.23625916,-0.28842667,-0.1722651,0.29566777,0.04587075,-1.6176748,1.6755024,-1.4720275,-1.2893581,0.05668905,447.2336,1.022675,0.7513958,0.47791994,0.2117906,0.16633956,inf,inf,inf,inf,1,1,1,1,2,0,2,1,3,1,1,0
51130061,50623416,34.033707299999996,108.7637477,-0.07965091,0.3268104,-0.68060935,-0.25945434,1.2777658,0.0,-0.26200685,0.36089322,-0.27966467,-0.32804742,-0.1722651,0.29566777,0.04587075,-2.1530676,-0.6466276,0.16667944,-1.2949787,0.05668905,447.2336,1.0522054,0.65098596,0.47094554,0.19554482,0.1565564,inf,inf,inf,inf,1,1,1,1,2,0,2,1,3,1,1,0
51219459,50623416,34.033707299999996,108.7637477,-0.0951723,0.37211326,-0.7092045,-0.25945434,1.2777658,0.0,-0.28272152,0.3649317,-0.30757868,-0.353864,-0.1722651,0.29566777,0.04587075,-0.2240018,-2.0349245,0.9124185,-1.2975721,0.05668905,447.2336,1.0808005,0.6527087,0.4689593,0.20273341,0.15710945,inf,inf,inf,inf,1,1,1,1,2,0,2,1,3,1,1,0
51323767,50623416,34.033707299999996,108.7637477,-0.11849211,0.42708227,-0.7499693,-0.25945434,1.2777658,0.0,-0.33710924,0.3986475,-0.3498266,-0.3977381,-0.1722651,0.29566777,0.04587075,-1.4944293,0.82688284,-0.49086776,-1.299564,0.05668905,447.2336,1.1215653,0.5838862,0.4625609,0.19021463,0.14889091,inf,inf,inf,inf,1,1,1,1,2,0,2,1,3,1,1,0
51423107,50623416,34.033707299999996,108.7637477,-0.14729989,0.48254487,-0.79279953,-0.25945434,1.2777658,0.0,-0.38378605,0.41057843,-0.3753906,-0.42486775,-0.1722651,0.29566777,0.04587075,-1.168937,-1.4190671,1.3432989,-1.3009702,0.05668905,447.2336,1.1643956,0.58636606,0.45771798,0.20005548,0.14954917,inf,inf,inf,inf,1,1,1,1,2,0,2,1,3,1,1,0
51522460,50623416,34.033707299999996,108.7637477,-0.1824578,0.5373747,-0.8386756,-0.25945434,1.2777658,0.0,-0.4244389,0.4122217,-0.40429622,-0.45533064,-0.1722651,0.29566777,0.04587075,1.3656006,-0.8891453,-0.46525076,-1.3011959,0.05668905,447.2336,1.2102717,0.535318,0.45204827,0.18985042,0.14256755,inf,inf,inf,inf,1,1,1,1,2,0,2,1,3,1,1,0
51626755,50623416,34.033707299999996,108.7637477,-0.22333044,0.5906913,-0.88915914,-0.25945434,1.2777658,0.0,-0.36251333,0.40352017,-0.42173535,-0.47431156,-0.1722651,0.29566777,0.04587075,4.829945,0.05118163,-0.42025226,-1.3009892,0.05668905,447.2336,1.2607553,0.53841335,0.44820094,0.20104593,0.14330424,inf,inf,inf,inf,1,1,1,1,2,0,2,1,3,1,1,0
51726096,50623416,34.033707299999996,108.7637477,-0.25010175,0.6503375,-0.9387157,-0.25945434,1.2777658,0.0,-0.32202375,0.3984256,-0.45770463,-0.5110146,-0.1722651,0.29566777,0.04587075,-0.06125078,-1.3887738,-1.1235499,-1.3087652,0.05668905,447.2336,1.3103118,0.4984853,0.44308153,0.19125867,0.13726762,inf,inf,inf,inf,1,1,1,1,2,0,2,1,3,1,1,0
51825600,50623416,34.033707299999996,108.7637477,-0.2703978,0.70940906,-0.9901939,-0.25945434,1.2777658,0.0,-0.20839192,0.37479788,-0.48052505,-0.53220564,-0.1722651,0.29566777,0.04587075,2.7768242,1.5823184,-0.76115406,-1.311566,0.05668905,447.2336,1.36179,0.5022327,0.44004166,0.20314834,0.13808292,inf,inf,inf,inf,1,1,1,1,2,0,2,1,3,1,1,0
51924778,50623416,34.033707299999996,108.7637477,-0.27428398,0.7679065,-1.0396549,-0.25945434,1.2777658,0.0,-0.04897368,0.32258776,-0.46292526,-0.51180035,-0.1722651,0.29566777,0.04587075,0.6017883,-1.0501109,-1.2662883,-1.3149338,0.05668905,447.2336,1.411251,0.46952525,0.4387799,0.19286302,0.13291632,inf,inf,inf,inf,1,1,1,1,2,0,2,1,3,1,1,0
52024118,50623416,34.033707299999996,108.7637477,-0.2603702,0.8228539,-1.0855501,-0.25945434,1.2777658,0.0,0.13748004,0.26654616,-0.4311891,-0.47594696,-0.1722651,0.29566777,0.04587075,0.84977204,-2.8487294,1.566417,-1.3181946,0.05668905,447.2336,1.4571462,0.47390613,0.4363696,0.2047391,0.13385299,inf,inf,inf,inf,1,1,1,1,2,0,2,1,3,1,1,0
52123461,50623416,34.033707299999996,108.7637477,-0.24080142,0.87408596,-1.1317154,-0.25945434,1.2777658,0.0,0.26726994,0.18891779,-0.41602254,-0.4594112,-0.1722651,0.29566777,0.04587075,3.9639034,-1.7305281,2.091485,-1.3181882,0.05668905,447.2336,1.5033115,0.4464229,0.4319551,0.19398993,0.12923029,inf,inf,inf,inf,1,1,1,1,2,0,2,1,3,1,1,0
52222809,50623416,34.033707299999996,108.7637477,-0.2165842,0.9122262,-1.1749253,-0.25945434,1.2777658,0.0,0.37283787,0.08551706,-0.39732626,-0.43845814,-0.1722651,0.29566777,0.04587075,2.1227796,-0.06042051,-0.7314962,-1.3157556,0.05668905,447.2336,1.5465214,0.45143205,0.43011543,0.2059185,0.13029943,inf,inf,inf,inf,1,1,1,1,2,0,2,1,3,1,1,0
52322140,50623416,34.033707299999996,108.7637477,-0.17891935,0.9441668,-1.2130998,-0.25945434,1.2777658,0.0,0.47987443,-0.018516447,-0.36480516,-0.40214044,-0.1722651,0.29566777,0.04587075,-1.7511011,-1.0807008,-0.09739849,-1.3143274,0.05668905,447.2336,1.5846959,0.42764765,0.4259987,0.19470502,0.12619899,inf,inf,inf,inf,1,1,1,1,2,0,2,1,3,1,1,0
52421480,50623416,34.033707299999996,108.7637477,-0.1302848,0.9630508,-1.2464753,-0.25945434,1.2777658,0.0,0.55669796,-0.13893065,-0.33746475,-0.3695742,-0.1722651,0.29566777,0.04587075,-1.0835494,-2.4451067,1.3362129,-1.3119233,0.05668905,447.2336,1.6180714,0.4332556,0.42464584,0.20643587,0.12738337,inf,inf,inf,inf,1,1,1,1,2,0,2,1,3,1,1,0
52520832,50623416,34.033707299999996,108.7637477,-0.085017614,0.9679323,-1.2769032,-0.25945434,1.2777658,0.0,0.61080474,-0.26299575,-0.31088626,-0.33769336,-0.1722651,0.29566777,0.04587075,2.3915966,-1.7289718,-0.07656165,-1.308074,0.05668905,447.2336,1.6484993,0.41280282,0.42125016,0.19819137,0.12450687,inf,inf,inf,inf,1,1,1,1,2,0,2,1,3,1,1,0
52620227,50623416,34.033707299999996,108.7637477,-0.040773902,0.9562761,-1.3040395,-0.25945434,1.2777658,0.0,0.61930704,-0.36816013,-0.2923128,-0.31392792,-0.1722651,0.29566777,0.04587075,1.0652184,-1.5305183,-0.38356853,-1.3050215,0.05668905,447.2336,1.6756356,0.41918036,0.42340147,0.20956907,0.12593481,inf,inf,inf,inf,1,1,1,1,2,0,2,1,3,1,1,0
52724469,50623416,34.033707299999996,108.7637477,0.016463801,0.93151855,-1.3293575,-0.25945434,1.2777658,0.0,0.596777,-0.43833202,-0.2794662,-0.29502836,-0.1722651,0.29566777,0.04587075,-1.2533234,-0.15366016,-0.8717249,-1.3030072,0.05668905,447.2336,1.7009536,0.39995936,0.41962728,0.19639154,0.122429095,inf,inf,inf,inf,1,1,1,1,2,0,2,1,3,1,1,0
52823810,50623416,34.033707299999996,108.7637477,0.07545348,0.89820826,-1.3500108,-0.25945434,1.2777658,0.0,0.57927,-0.50031763,-0.24902232,-0.25805742,-0.1722651,0.29566777,0.04587075,-0.31238657,-2.6973603,2.0039713,-1.3035852,0.05668905,447.2336,1.7216069,0.40680274,0.4190328,0.20706572,0.12374094,inf,inf,inf,inf,1,1,1,1,2,0,2,1,3,1,1,0
52923155,50623416,34.033707299999996,108.7637477,0.1176162,0.86729074,-1.3683826,-0.25945434,1.2777658,0.0,0.49966386,-0.49515218,-0.24260183,-0.2452988,-0.1722651,0.29566777,0.04587075,-1.1824547,2.3849995,-1.5441916,-1.302537,0.05668905,447.2336,1.7399787,0.39056876,0.41544667,0.1940861,0.12047294,inf,inf,inf,inf,1,1,1,1,2,0,2,1,3,1,1,0
53022491,50623416,34.033707299999996,108.7637477,0.1464674,0.8367675,-1.3866369,-0.25945434,1.2777658,0.0,0.40791428,-0.4792297,-0.22725305,-0.22552972,-0.1722651,0.29566777,0.04587075,-2.3444567,-0.80825233,1.548188,-1.3016341,0.05668905,447.2336,1.758233,0.3978406,0.41514394,0.20399025,0.121746235,inf,inf,inf,inf,1,1,1,1,2,0,2,1,3,1,1,0
53121831,50623416,34.033707299999996,108.7637477,0.16214636,0.8031438,-1.4068016,-0.25945434,1.2777658,0.0,0.30592474,-0.45599073,-0.2256867,-0.2225957,-0.1722651,0.29566777,0.04587075,-2.0423229,0.093840584,-0.6382894,-1.2982662,0.05668905,447.2336,1.7783977,0.38135132,0.41172114,0.19158067,0.11869877,inf,inf,inf,inf,1,1,1,1,2,0,2,1,3,1,1,0
53221172,50623416,34.033707299999996,108.7637477,0.17107958,0.76611644,-1.427177,-0.25945434,1.2777658,0.0,0.21277496,-0.4234646,-0.2175654,-0.214041,-0.1722651,0.29566777,0.04587075,-0.50271946,-0.33508673,1.2375854,-1.2947786,0.05668905,447.2336,1.798773,0.3890139,0.41165206,0.20097291,0.119992435,inf,inf,inf,inf,1,1,1,1,2,0,2,1,3,1,1,0
53320512,50623416,34.033707299999996,108.7637477,0.17564125,0.73625606,-1.441619,-0.25945434,1.2777658,0.0,0.12388627,-0.38762727,-0.21744797,-0.20798205,-0.1722651,0.29566777,0.04587075,-1.6495029,2.4083507,-1.09554,-1.2901735,0.05668905,447.2336,1.8132151,0.3734441,0.4111736,0.18872865,0.11736699,inf,inf,inf,inf,1,1,1,1,2,0,2,1,3,1,1,0
53429850,50623416,34.033707299999996,108.7637477,0.17470965,0.70229024,-1.4604493,-0.25945434,1.2777658,0.0,0.031047108,-0.3540892,-0.20857115,-0.19713639,-0.1722651,0.29566777,0.04587075,-2.094177,1.0524722,0.2633609,-1.286204,0.05668905,447.2336,1.8320454,0.38227442,0.41191685,0.19859391,0.118914664,inf,inf,inf,inf,1,1,1,1,2,0,2,1,3,1,1,0
53519198,50623416,34.033707299999996,108.7637477,0.1762786,0.69448036,-1.4743704,-0.25945434,1.2777658,0.0,-0.032909386,-0.31599402,-0.20619422,-0.1922984,-0.1722651,0.29566777,0.04587075,-2.7313733,-0.018030893,-0.48180002,-1.2830232,0.05668905,447.2336,1.8459665,0.36679134,0.40808734,0.18609105,0.1161489,inf,inf,inf,inf,1,1,1,1,2,0,2,1,3,1,1,0
53628476,50623416,34.033707299999996,108.7637477,0.1708734,0.6803687,-1.4945481,-0.25945434,1.2777658,0.0,-0.09746168,-0.26931167,-0.20862573,-0.19531348,-0.1722651,0.29566777,0.04587075,0.8559973,-0.18671691,-1.0671617,-1.2778974,0.05668905,447.2336,1.8661442,0.37592912,0.40902537,0.19556637,0.11777284,inf,inf,inf,inf,1,1,1,1,2,0,2,1,3,1,1,0
53718035,50623416,34.033707299999996,108.7637477,0.15377586,0.69044715,-1.5082387,-0.25945434,1.2777658,0.0,-0.14312126,-0.21862653,-0.16278891,-0.1481438,-0.1722651,0.29566777,0.04587075,0.8130724,-0.873534,1.5437967,-1.2775527,0.05668905,447.2336,1.8798348,0.36109254,0.40530106,0.18342759,0.115177676,inf,inf,inf,inf,1,1,1,1,2,0,2,1,3,1,1,0
53822188,50623416,34.033707299999996,108.7637477,0.13159554,0.6964238,-1.5164803,-0.25945434,1.2777658,0.0,-0.2064879,-0.15162595,-0.043524973,-0.028513806,-0.1722651,0.29566777,0.04587075,-2.6878574,1.0108135,1.5932583,-1.2680142,0.05668905,447.2336,1.8880764,0.36958158,0.40580174,0.19165017,0.11667301,inf,inf,inf,inf,1,1,1,1,2,0,2,1,3,1,1,0
53921523,50623416,34.033707299999996,108.7637477,0.12427193,0.7160976,-1.5078838,-0.25945434,1.2777658,0.0,-0.21605518,-0.0748263,0.0841937,0.10291586,-0.1722651,0.29566777,0.04587075,-1.8960328,1.5934173,1.5153627,-1.257334,0.05668905,447.2336,1.8794799,0.3561885,0.4027628,0.18063019,0.114392266,inf,inf,inf,inf,1,1,1,1,2,0,2,1,3,1,1,0
54025831,50623416,34.033707299999996,108.7637477,0.11460007,0.73480517,-1.4893264,-0.25945434,1.2777658,0.0,-0.2142376,-0.012362956,0.18513243,0.2048552,-0.1722651,0.29566777,0.04587075,-0.13953282,-1.0477188,0.8291481,-1.2459465,0.05668905,447.2336,1.8609225,0.36485878,0.40612176,0.18794037,0.11607065,inf,inf,inf,inf,1,1,1,1,2,0,2,1,3,1,1,0
54125208,50623416,34.033707299999996,108.7637477,0.10687754,0.76568645,-1.4703654,-0.25945434,1.2777658,0.0,-0.2038389,0.053774733,0.24537012,0.25919935,-0.1722651,0.29566777,0.04587075,0.059818875,0.7543349,0.9059533,-1.2356205,0.05668905,447.2336,1.8419615,0.35195258,0.40310514,0.17709179,0.11384271,inf,inf,inf,inf,1,1,1,1,2,0,2,1,3,1,1,0
54224523,50623416,34.033707299999996,108.7637477,0.09778403,0.7941935,-1.4492936,-0.25945434,1.2777658,0.0,-0.1959383,0.09772168,0.26240256,0.26958248,-0.1722651,0.29566777,0.04587075,-0.010811037,-1.6216133,0.7790912,-1.2283041,0.05668905,447.2336,1.8208897,0.36075404,0.40388334,0.1843282,0.1153981,inf,inf,inf,inf,1,1,1,1,2,0,2,1,3,1,1,0
54323852,50623416,34.033707299999996,108.7637477,0.09354744,0.8291289,-1.4326642,-0.25945434,1.2777658,0.0,-0.18095215,0.12497328,0.21480738,0.21356814,-0.1722651,0.29566777,0.04587075,3.6989617,-0.06616852,-0.34143183,-1.2211932,0.05668905,447.2336,1.8042603,0.3498064,0.4017606,0.17730847,0.114095576,inf,inf,inf,inf,1,1,1,1,2,0,2,1,3,1,1,0
54423198,50623416,34.033707299999996,108.7637477,0.08748606,0.8575318,-1.4226171,-0.25945434,1.2777658,0.0,-0.17984937,0.12570459,0.15809734,0.14832553,-0.1722651,0.29566777,0.04587075,-0.9337214,-0.6412733,-0.9455713,-1.2174696,0.05668905,447.2336,1.7942132,0.35900903,0.40269423,0.18443765,0.115723,inf,inf,inf,inf,1,1,1,1,2,0,2,1,3,1,1,0
54522675,50623416,34.033707299999996,108.7637477,0.08389183,0.89093196,-1.415897,-0.25945434,1.2777658,0.0,-0.17690994,0.10298751,0.12991825,0.113545924,-0.1722651,0.29566777,0.04587075,-1.4513065,-2.580995,0.99482125,-1.2154758,0.05668905,447.2336,1.7874931,0.34843457,0.4007627,0.17795819,0.11465601,inf,inf,inf,inf,1,1,1,1,2,0,2,1,3,1,1,0
54626841,50623416,34.033707299999996,108.7637477,0.07663557,0.91540414,-1.413017,-0.25945434,1.2777658,0.0,-0.17392863,0.07747208,0.09916738,0.07593752,-0.1722651,0.29566777,0.04587075,1.4829926,0.13830134,0.83737564,-1.2146417,0.05668905,447.2336,1.7846131,0.35804394,0.40452844,0.1850104,0.11659412,inf,inf,inf,inf,1,1,1,1,2,0,2,1,3,1,1,0
54726201,50623416,34.033707299999996,108.7637477,0.07387099,0.9414423,-1.4149303,-0.25945434,1.2777658,0.0,-0.16839698,0.05143265,0.07577503,0.044414148,-0.1722651,0.29566777,0.04587075,0.68573904,1.2160397,-1.1849395,-1.2151667,0.05668905,447.2336,1.7865264,0.34522834,0.4015131,0.17433769,0.1145636,inf,inf,inf,inf,1,1,1,1,2,0,2,1,3,1,1,0
54825522,50623416,34.033707299999996,108.7637477,0.06933573,0.95942307,-1.4194685,-0.25945434,1.2777658,0.0,-0.18186916,0.016892714,0.064804256,0.02536652,-0.1722651,0.29566777,0.04587075,-3.6497612,-0.30038399,0.37463713,-1.2173399,0.05668905,447.2336,1.7910646,0.35480767,0.40272105,0.18094862,0.11627069,inf,inf,inf,inf,1,1,1,1,2,0,2,1,3,1,1,0
54924863,50623416,34.033707299999996,108.7637477,0.06600689,0.97858346,-1.4295951,-0.25945434,1.2777658,0.0,-0.1704974,-0.014787236,0.05094566,0.00011641765,-0.1722651,0.29566777,0.04587075,-0.9611711,-1.0945705,-0.5826928,-1.2192515,0.05668905,447.2336,1.8011912,0.34250882,0.39977705,0.1708726,0.11426564,inf,inf,inf,inf,1,1,1,1,2,0,2,1,3,1,1,0
55024233,50623416,34.033707299999996,108.7637477,0.059812758,0.9882876,-1.4395728,-0.25945434,1.2777658,0.0,-0.1643689,-0.04568615,0.054183,-0.005871542,-0.1722651,0.29566777,0.04587075,1.02158,-0.9921678,0.5870051,-1.2220644,0.05668905,447.2336,1.8111689,0.35205925,0.40106222,0.17717518,0.11598494,inf,inf,inf,inf,1,1,1,1,2,0,2,1,3,1,1,0
55123544,50623416,34.033707299999996,108.7637477,0.054015156,1.0017756,-1.4504615,-0.25945434,1.2777658,0.0,-0.15963121,-0.06582448,0.056831535,-0.0125662275,-0.1722651,0.29566777,0.04587075,1.9891489,0.88439536,-0.027168985,-1.2243159,0.05668905,447.2336,1.8220576,0.34010732,0.39816672,0.16765389,0.11401416,inf,inf,inf,inf,1,1,1,1,2,0,2,1,3,1,1,0
55222885,50623416,34.033707299999996,108.7637477,0.045749586,1.0066468,-1.458719,-0.25945434,1.2777658,0.0,-0.16904373,-0.0973988,0.061158348,-0.01437369,-0.1722651,0.29566777,0.04587075,-1.9177067,-1.4679321,0.16941242,-1.2274387,0.05668905,447.2336,1.8303151,0.34962144,0.39952025,0.17367618,0.11573531,inf,inf,inf,inf,1,1,1,1,2,0,2,1,3,1,1,0
55322391,50623416,34.033707299999996,108.7637477,0.04503007,1.0186069,-1.4652388,-0.25945434,1.2777658,0.0,-0.1539768,-0.10890985,0.06710669,-0.012695019,-0.1722651,0.29566777,0.04587075,2.216951,-0.62401485,0.7670623,-1.2291563,0.05668905,447.2336,1.8368349,0.33894715,0.39718738,0.16612588,0.11423258,inf,inf,inf,inf,1,1,1,1,2,0,2,1,3,1,1,0
55421567,50623416,34.033707299999996,108.7637477,0.04165047,1.0224147,-1.4694235,-0.25945434,1.2777658,0.0,-0.1657161,-0.1326475,0.07172481,-0.009916652,-0.1722651,0.29566777,0.04587075,-3.3795588,0.7981654,-0.18337993,-1.2302955,0.05668905,447.2336,1.8410196,0.3485659,0.40123513,0.17199153,0.1162208,inf,inf,inf,inf,1,1,1,1,2,0,2,1,3,1,1,0
55520908,50623416,34.033707299999996,108.7637477,0.039895732,1.0300691,-1.4742514,-0.25945434,1.2777658,0.0,-0.15510231,-0.14990035,0.07080634,-0.013361599,-0.1722651,0.29566777,0.04587075,-1.0952691,-2.066603,0.93117845,-1.2299958,0.05668905,447.2336,1.8458475,0.3369362,0.39832586,0.16310234,0.11424318,inf,inf,inf,inf,1,1,1,1,2,0,2,1,3,1,1,0
55620247,50623416,34.033707299999996,108.7637477,0.035361916,1.0298963,-1.4788522,-0.25945434,1.2777658,0.0,-0.15280525,-0.16149512,0.06515165,-0.020941392,-0.1722651,0.29566777,0.04587075,-0.3042677,-0.19041795,-0.18855011,-1.2284915,0.05668905,447.2336,1.8504483,0.34648642,0.39984396,0.16879284,0.11599916,inf,inf,inf,inf,1,1,1,1,2,0,2,1,3,1,1,0
55719588,50623416,34.033707299999996,108.7637477,0.032877397,1.0284008,-1.4853271,-0.25945434,1.2777658,0.0,-0.14047523,-0.17088239,0.062058628,-0.027575154,-0.1722651,0.29566777,0.04587075,1.4073472,1.2233322,-0.5112577,-1.2261665,0.05668905,447.2336,1.8569232,0.33547652,0.39695534,0.16036792,0.11403289,inf,inf,inf,inf,1,1,1,1,2,0,2,1,3,1,1,0
55818930,50623416,34.033707299999996,108.7637477,0.028694883,1.0208284,-1.4923458,-0.25945434,1.2777658,0.0,-0.14024843,-0.1952471,0.06168105,-0.031252813,-0.1722651,0.29566777,0.04587075,-0.87309587,-1.4831376,0.16854751,-1.2250848,0.05668905,447.2336,1.8639419,0.3449597,0.39849314,0.16589813,0.11578154,inf,inf,inf,inf,1,1,1,1,2,0,2,1,3,1,1,0
55923236,50623416,34.033707299999996,108.7637477,0.024649685,1.0179504,-1.4984596,-0.25945434,1.2777658,0.0,-0.12648265,-0.1955015,0.06385314,-0.031119443,-0.1722651,0.29566777,0.04587075,-1.0994066,-1.1806941,1.29764,-1.2235212,0.05668905,447.2336,1.8700557,0.33373103,0.3981844,0.15785739,0.11408863,inf,inf,inf,inf,1,1,1,1,2,0,2,1,3,1,1,0
56022577,50623416,34.033707299999996,108.7637477,0.019888306,1.0113224,-1.5054567,-0.25945434,1.2777658,0.0,-0.11338211,-0.2019254,0.0647616,-0.03309923,-0.1722651,0.29566777,0.04587075,2.242837,-0.017879643,-0.89562786,-1.2223296,0.05668905,447.2336,1.8770528,0.34313768,0.39980328,0.16324227,0.11584799,inf,inf,inf,inf,1,1,1,1,2,0,2,1,3,1,1,0
56121994,50623416,34.033707299999996,108.7637477,0.014275507,1.0099288,-1.5125194,-0.25945434,1.2777658,0.0,-0.10877445,-0.20834936,0.07886488,-0.022129485,-0.1722651,0.29566777,0.04587075,0.24783206,-0.25913012,1.07779,-1.2227416,0.05668905,447.2336,1.8841155,0.33222675,0.39692834,0.15585425,0.11395815,inf,inf,inf,inf,1,1,1,1,2,0,2,1,3,1,1,0
56221255,50623416,34.033707299999996,108.7637477,0.0074908994,1.0023657,-1.5185796,-0.25945434,1.2777658,0.0,-0.11309207,-0.21489088,0.0753888,-0.027855841,-0.1722651,0.29566777,0.04587075,-2.9713218,-0.88408434,-0.08476509,-1.2242289,0.05668905,447.2336,1.8901757,0.34157598,0.39856806,0.16113098,0.11570989,inf,inf,inf,inf,1,1,1,1,2,0,2,1,3,1,1,0
56320599,50623416,34.033707299999996,108.7637477,0.005636605,1.0006213,-1.5233701,-0.25945434,1.2777658,0.0,-0.09761307,-0.208468,0.07550215,-0.02859767,-0.1722651,0.29566777,0.04587075,1.1664306,0.43367195,0.32915664,-1.2249432,0.05668905,447.2336,1.8949662,0.33086538,0.3957054,0.15385446,0.1137773,inf,inf,inf,inf,1,1,1,1,2,0,2,1,3,1,1,0
