timestamp,lat,lon,alt,alt_ellipsoid,delta_alt,eph,epv,terrain_alt,lat_lon_reset_counter,alt_reset_counter,terrain_alt_valid,dead_reckoning
50961173,34.03370692386015,108.7637502497955,447.87213,419.9359,-0.0,1.1857778,1.653054,0.0,2,0,0,0
50971108,34.033706901057585,108.76375031138032,447.87408,419.93787,-0.0,1.1858562,1.6517488,0.0,2,0,0,0
51159854,34.033706538701395,108.76375141842638,447.92334,419.97733,-0.0,1.1256913,1.6488948,0.0,2,0,0,0
51363503,34.03370613708073,108.76375258421666,448.00055,420.04013,-0.0,1.0884436,1.6455286,0.0,2,0,0,0
51562323,34.03370551640774,108.76375376606558,448.09137,420.11475,-0.0,1.0632577,1.6427486,0.0,2,0,0,0
51765832,34.03370496891255,108.76375502854403,448.19275,420.1959,-0.0,1.0452775,1.6413757,0.0,2,0,0,0
51964513,34.03370486523961,108.76375629157363,448.29172,420.27435,-0.0,1.0318534,1.6393405,0.0,2,0,0,0
52163204,34.03370520872992,108.7637573784831,448.38324,420.34637,-0.0,1.0216182,1.6376034,0.0,2,0,0,0
52361974,34.03370585847117,108.76375805707625,448.46042,420.40396,-0.0,1.0136186,1.6361059,0.0,2,0,0,0
52560557,34.03370669015859,108.76375817941349,448.52155,420.4448,-0.0,1.0075378,1.6357231,0.0,2,0,0,0
52764206,34.033707662341925,108.76375768200673,448.5714,420.47495,-0.0,1.0023879,1.6345505,0.0,2,0,0,0
52962886,34.0337084671365,108.76375698718918,448.60904,420.49255,-0.0,0.9987219,1.633519,0.0,2,0,0,0
53161744,34.03370879757,108.76375625742568,448.6486,420.51483,-0.0,0.99518883,1.6333303,0.0,2,0,0,0
53360256,34.03370888366985,108.76375555879495,448.68143,420.52753,-0.0,0.9922108,1.6324912,0.0,2,0,0,0
53558930,34.03370887542281,108.76375518503505,448.71506,420.5423,-0.0,0.9897486,1.6317402,0.0,2,0,0,0
53762578,34.033708603313855,108.7637552160197,448.74692,420.55356,-0.0,0.9876683,1.6310643,0.0,2,0,0,0
53961292,34.03370838964073,108.76375555577289,448.73505,420.52167,-0.0,0.9858983,1.6311208,0.0,2,0,0,0
54164909,34.03370823018134,108.76375613772302,448.6955,420.46173,-0.0,0.9843815,1.630552,0.0,2,0,0,0
54363606,34.03370812103221,108.76375683041515,448.66144,420.40808,-0.0,0.9836668,1.6302356,0.0,2,0,0,0
54567253,34.03370802768767,108.76375749173707,448.64755,420.3737,-0.0,0.98323315,1.630662,0.0,2,0,0,0
54765946,34.033707952168996,108.76375800795844,448.65027,420.3563,-0.0,0.982087,1.6302034,0.0,2,0,0,0
54964601,34.033707874596374,108.76375837428813,448.66748,420.35403,-0.0,0.9811216,1.6297865,0.0,2,0,0,0
55163280,34.03370775838498,108.76375860411822,448.6875,420.35416,-0.0,0.98027325,1.629399,0.0,2,0,0,0
55361962,34.03370769646258,108.76375878336907,448.70078,420.34732,-0.0,0.9798825,1.6298034,0.0,2,0,0,0
55560663,34.03370764587611,108.76375888818863,448.71002,420.33618,-0.0,0.9791727,1.6294546,0.0,2,0,0,0
55759324,34.03370758377494,108.7637588365143,448.7218,420.32785,-0.0,0.9786577,1.629755,0.0,2,0,0,0
55962972,34.03370750743419,108.76375872748899,448.73495,420.32108,-0.0,0.97804457,1.6294307,0.0,2,0,0,0
56161653,34.03370740524603,108.76375863498642,448.74863,420.31567,-0.0,0.9775196,1.6291274,0.0,2,0,0,0
56360336,34.03370733994632,108.76375853350257,448.7586,420.30505,-0.0,0.977045,1.6294578,0.0,2,0,0,0
56563983,34.03370728747324,108.76375837960957,448.77417,420.3004,-0.0,0.9765676,1.6291736,0.0,2,0,0,0
56762712,34.0337072610155,108.7637583348402,448.78943,420.29556,-0.0,0.9761557,1.6289076,0.0,2,0,0,0
56966313,34.033707338736235,108.76375829808188,448.79947,420.28537,-0.0,0.97575134,1.62865,0.0,2,0,0,0
57165023,34.033707490772265,108.7637583191616,448.809,420.2751,-0.0,0.9753737,1.6290199,0.0,2,0,0,0
57363675,34.03370760579755,108.76375839453338,448.8214,420.2673,-0.0,0.975048,1.628788,0.0,2,0,0,0
57562356,34.03370766707132,108.76375841086534,448.82938,420.25528,-0.0,0.97473156,1.6285626,0.0,2,0,0,0
57761041,34.033707769799605,108.76375837439937,448.83044,420.2367,-0.0,0.97440606,1.628345,0.0,2,0,0,0
57959773,34.03370787072946,108.76375840934529,448.8402,420.22595,-0.0,0.9740458,1.6287419,0.0,2,0,0,0
58168334,34.033707921225115,108.76375853351817,448.85843,420.22473,-0.0,0.97402084,1.6287035,0.0,2,0,0,0
58362049,34.03370789543675,108.76375856877779,448.8747,420.22058,-0.0,0.97339857,1.6283281,0.0,2,0,0,0
58560891,34.033707922196875,108.76375860987636,448.89285,420.219,-0.0,0.9730826,1.6287366,0.0,2,0,0,0
58759411,34.03370800612579,108.76375869841772,448.90964,420.2163,-0.0,0.9728023,1.6285431,0.0,2,0,0,0
58963060,34.03370807803556,108.76375871766106,448.92358,420.2095,-0.0,0.972502,1.6283509,0.0,2,0,0,0
59156774,34.033708168021505,108.76375869743714,448.92596,420.1919,-0.0,0.9719508,1.6285995,0.0,2,0,0,0
59365540,34.033708310994356,108.76375863843677,448.92346,420.16953,-0.0,0.9719924,1.6285845,0.0,2,0,0,0
59564070,34.033708528566535,108.76375856136255,448.9208,420.147,-0.0,0.97177655,1.6284053,0.0,2,0,0,0
59762752,34.033708734073116,108.76375840147794,448.92,420.12634,-0.0,0.9715721,1.6282276,0.0,2,0,0,0
59961433,34.033708881118784,108.76375834343037,448.91882,420.10583,-0.0,0.97140235,1.6280533,0.0,2,0,0,0
60160220,34.03370897648428,108.76375827892866,448.91394,420.07843,-0.0,0.97115856,1.6284766,0.0,2,0,0,0
60363764,34.033709083180106,108.76375831975236,448.91098,420.05673,-0.0,0.9709337,1.6282974,0.0,2,0,0,0
60562444,34.03370922472575,108.76375846793186,448.90637,420.0317,-0.0,0.97070205,1.628123,0.0,2,0,0,0
60766093,34.033709390423084,108.76375856463953,448.90622,420.01187,-0.0,0.9704642,1.6285495,0.0,2,0,0,0
60964866,34.03370952173028,108.76375860988175,448.90906,419.99493,-0.0,0.97125256,1.6283734,0.0,2,0,0,0
61163456,34.033709716011145,108.76375880069028,448.91684,419.98358,-0.0,0.97154766,1.6282012,0.0,2,0,0,0
61362136,34.033710297674446,108.76375927370641,448.92447,419.97076,-0.0,0.9713598,1.6280284,0.0,2,0,0,0
61565785,34.03371137314562,108.7637598750223,448.92624,419.95187,-0.0,0.9710749,1.6284509,0.0,2,0,0,0
61764588,34.03371247965255,108.76376049534353,448.92145,419.92798,-0.0,0.97087085,1.6282743,0.0,2,0,0,0
61963148,34.0337130907845,108.76376107156737,448.91757,419.90363,-0.0,0.9707025,1.6280994,0.0,2,0,0,0
62166797,34.03371324399574,108.76376156438697,448.91052,419.87695,-0.0,0.9705662,1.6285181,0.0,2,0,0,0
62365522,34.03371319503294,108.76376217002745,448.90512,419.852,-0.0,0.97045773,1.6283305,0.0,2,0,0,0
62564181,34.033713106182454,108.7637632355442,448.9084,419.83453,-0.0,0.9703767,1.6281452,0.0,2,0,0,0
62762841,34.03371304202343,108.76376449588503,448.9125,419.81876,-0.0,0.9703173,1.6285521,0.0,2,0,0,0
62961521,34.03371307414429,108.76376533609759,448.9348,419.82104,-0.0,0.9702687,1.628354,0.0,2,0,0,0
63160206,34.03371310440407,108.76376578122346,448.95874,419.82507,-0.0,0.97024596,1.6281567,0.0,2,0,0,0
63358887,34.03371326356695,108.76376603502077,448.9725,419.81894,-0.0,0.9702436,1.6285548,0.0,2,0,0,0
63562532,34.03371390922992,108.76376623288768,448.98825,419.81488,-0.0,0.9702675,1.628346,0.0,2,0,0,0
63761218,34.03371483744467,108.76376645369531,448.99652,419.80237,-0.0,0.9702791,1.6281387,0.0,2,0,0,0
63964862,34.03371569270685,108.76376676868854,448.9989,419.78503,-0.0,0.97033185,1.6285344,0.0,2,0,0,0
64163600,34.03371624348635,108.76376701998012,448.991,419.75772,-0.0,0.9703959,1.6283283,0.0,2,0,0,0
64362225,34.0337163669411,108.76376726013828,448.9808,419.72754,-0.0,0.9704681,1.6281277,0.0,2,0,0,0
64565873,34.03371620250353,108.76376757652586,448.9761,419.70273,-0.0,0.9705394,1.627924,0.0,2,0,0,0
64764555,34.03371597699466,108.76376793657738,448.9737,419.6803,-0.0,0.97088856,1.6284589,0.0,2,0,0,0
64963236,34.033715826382,108.76376832381796,448.96594,419.65295,-0.0,0.9709453,1.6282562,0.0,2,0,0,0
65161917,34.033715802996795,108.76376859225182,448.96222,419.62927,-0.0,0.97097784,1.6280526,0.0,2,0,0,0
65360598,34.03371593081597,108.76376871723716,448.9636,419.61063,-0.0,0.9714707,1.6278481,0.0,2,0,0,0
65559283,34.03371614666592,108.76376870901983,448.96893,419.59515,-0.0,0.97234696,1.628242,0.0,2,0,0,0
65757962,34.03371634481968,108.76376862436989,448.97626,419.5829,-0.0,0.9733622,1.6280367,0.0,2,0,0,0
65961610,34.033716514905464,108.76376847556041,448.98352,419.56995,-0.0,0.97439206,1.6278291,0.0,2,0,0,0
66160291,34.03371670722929,108.763768333478,448.98843,419.55487,-0.0,0.9748245,1.6282228,0.0,2,0,0,0
66359138,34.03371696892816,108.76376815229962,448.994,419.54062,-0.0,0.97560036,1.6280202,0.0,2,0,0,0
66562621,34.03371718332817,108.76376792469271,449.00082,419.52725,-0.0,0.9765833,1.6278187,0.0,2,0,0,0
66766269,34.03371730847687,108.7637677051169,449.00122,419.50745,-0.0,0.9776642,1.6276203,0.0,2,0,0,0
66964956,34.03371737892615,108.7637675506023,448.98926,419.4759,-0.0,0.97866356,1.6280165,0.0,2,0,0,0
67163818,34.033717405880274,108.7637674372445,448.97058,419.43732,-0.0,0.9796039,1.6279136,0.0,2,0,0,0
67362352,34.033717379202784,108.76376732131357,448.95175,419.3985,-0.0,0.980191,1.6278188,0.0,2,0,0,0
67560995,34.03371729334891,108.7637671809051,448.9363,419.36304,-0.0,0.98026747,1.628205,0.0,2,0,0,0
67764644,34.03371718789751,108.76376700337609,448.929,419.33612,-0.0,0.9808223,1.6279913,0.0,2,0,0,0
67963446,34.03371710784248,108.76376686613324,448.92432,419.31094,-0.0,0.98194003,1.6277796,0.0,2,0,0,0
68162007,34.03371706932285,108.7637667283173,448.9267,419.2936,-0.0,0.98323333,1.6275715,0.0,2,0,0,0
68360687,34.03371708593038,108.76376656268747,448.93222,419.27917,-0.0,0.98434585,1.627953,0.0,2,0,0,0
68564336,34.033717114962194,108.76376642676031,448.93823,419.26465,-0.0,0.9848018,1.6277452,0.0,2,0,0,0
68763156,34.03371720302353,108.76376621898663,448.94086,419.24728,-0.0,0.9845333,1.6281254,0.0,2,0,0,0
68961699,34.03371737765067,108.76376569439196,448.9455,419.23203,-0.0,0.9836649,1.6279604,0.0,2,0,0,0
69165347,34.03371760937226,108.76376495253193,448.94775,419.2143,-0.0,0.98332566,1.6277435,0.0,2,0,0,0
69368995,34.03371787274149,108.76376428472932,448.9404,419.18658,-0.0,0.98331577,1.6281132,0.0,2,0,0,0
69567806,34.033718145741155,108.76376367815611,448.9316,419.15814,-0.0,0.9826041,1.627894,0.0,2,0,0,0
69766359,34.03371839196253,108.7637630383524,448.92065,419.12753,-0.0,0.981239,1.627681,0.0,2,0,0,0
69965040,34.033718623153426,108.76376225814668,448.91293,419.09958,-0.0,0.979805,1.6274686,0.0,2,0,0,0
70163721,34.03371890103429,108.76376119895593,448.91034,419.07687,-0.0,0.9785435,1.6278443,0.0,2,0,0,0
70362423,34.03371923473596,108.76375997553252,448.9126,419.05896,-0.0,0.9774474,1.6276338,0.0,2,0,0,0
70561086,34.03371965010399,108.76375872927196,448.9161,419.04352,-0.0,0.9765303,1.6274251,0.0,2,0,0,0
70759788,34.0337199130101,108.76375733818308,448.91394,419.02072,-0.0,0.9757146,1.6277997,0.0,2,0,0,0
70963414,34.033720143718575,108.76375591381067,448.90323,418.98953,-0.0,0.97502136,1.6275839,0.0,2,0,0,0
71162100,34.03372041950456,108.7637547322743,448.88937,418.9559,-0.0,0.9744453,1.6273708,0.0,2,0,0,0
71360777,34.03372060000022,108.7637536679017,448.8715,418.9182,-0.0,0.9739703,1.6277435,0.0,2,0,0,0
71559458,34.03372072395892,108.76375272145226,448.84985,418.87646,-0.0,0.9735835,1.6275326,0.0,2,0,0,0
71758140,34.03372087464659,108.76375184203302,448.83875,418.84497,-0.0,0.9732396,1.6273232,0.0,2,0,0,0
71966760,34.03372100436446,108.76375087959902,448.85977,418.84637,-0.0,0.97325206,1.6272672,0.0,2,0,0,0
72160470,34.03372119288027,108.76374988351712,448.89246,418.8589,-0.0,0.97274536,1.6274881,0.0,2,0,0,0
72364119,34.03372138288627,108.7637488317914,448.92285,418.86908,-0.0,0.9725879,1.6272845,0.0,2,0,0,0
72562800,34.033721603392785,108.76374793558931,448.93817,418.86432,-0.0,0.9724466,1.6270858,0.0,2,0,0,0
72761481,34.03372196445152,108.76374730908262,448.9339,418.8399,-0.0,0.9723407,1.6268921,0.0,2,0,0,0
72960165,34.03372231802933,108.76374704982283,448.91965,418.80588,-0.0,0.9722427,1.6272697,0.0,2,0,0,0
73163815,34.03372262303893,108.76374708222464,448.90384,418.76926,-0.0,0.9721185,1.6270667,0.0,2,0,0,0
73362492,34.033722902820465,108.76374710724546,448.8958,418.74234,-0.0,0.97202337,1.6268677,0.0,2,0,0,0
73561174,34.03372316356944,108.7637470364696,448.90033,418.72607,-0.0,0.9719085,1.6272421,0.0,2,0,0,0
73764823,34.033723389588566,108.76374693382616,448.90988,418.71548,-0.0,0.97180057,1.6270453,0.0,2,0,0,0
73963505,34.03372353609081,108.76374677701413,448.92435,418.71,-0.0,0.9717061,1.6268524,0.0,2,0,0,0
74162382,34.03372351700359,108.76374657724152,448.93365,418.69897,-0.0,0.9716244,1.6272304,0.0,2,0,0,0
74365834,34.03372346301604,108.76374636737117,448.9352,418.68085,-0.0,0.9715524,1.6270388,0.0,2,0,0,0
74564515,34.033723469692916,108.76374620426301,448.93054,418.65616,-0.0,0.97148997,1.6268529,0.0,2,0,0,0
74763202,34.03372330090437,108.76374605003348,448.92722,418.63284,-0.0,0.9714347,1.6266668,0.0,2,0,0,0
74962028,34.03372288149044,108.76374589156315,448.92892,418.61432,-0.0,0.9713864,1.6270485,0.0,2,0,0,0
75160562,34.03372234067904,108.76374579324813,448.93323,418.59894,-0.0,0.9713361,1.626865,0.0,2,0,0,0
75364207,34.03372174138167,108.76374569799282,448.9393,418.58514,-0.0,0.9712839,1.6266812,0.0,2,0,0,0
75562892,34.03372112103304,108.76374564494493,448.94647,418.57242,-0.0,0.97126263,1.6270651,0.0,2,0,0,0
75761685,34.03372033109287,108.76374558255044,448.95358,418.55957,-0.0,0.9712301,1.6268764,0.0,2,0,0,0
75960254,34.03371935490971,108.76374551713494,448.96085,418.54633,-0.0,0.9711693,1.6266884,0.0,2,0,0,0
76168868,34.03371835025653,108.7637454657496,448.9771,418.5428,-0.0,0.9713967,1.6266478,0.0,2,0,0,0
76362583,34.03371752572051,108.76374550026084,448.99594,418.54156,-0.0,0.9710517,1.6268804,0.0,2,0,0,0
76561343,34.03371667275414,108.76374550658933,449.017,418.54263,-0.0,0.97098076,1.6266973,0.0,2,0,0,0
76759949,34.033715920431476,108.76374545517099,449.03568,418.54126,-0.0,0.97089314,1.6270754,0.0,2,0,0,0
76963596,34.033715301908046,108.76374538401885,449.04904,418.53458,-0.0,0.97079784,1.6268845,0.0,2,0,0,0
77157309,34.03371487561944,108.76374535217859,449.05563,418.52057,-0.0,0.9704105,1.6265506,0.0,2,0,0,0
77365997,34.033714431311935,108.76374537556539,449.05658,418.50232,-0.0,0.97056043,1.6265138,0.0,2,0,0,0
77564606,34.033714012184255,108.76374547674686,449.05313,418.47906,-0.0,0.9704391,1.6268939,0.0,2,0,0,0
77763288,34.033713653588606,108.76374566029062,449.04645,418.45218,-0.0,0.97027427,1.6267045,0.0,2,0,0,0
77961969,34.03371338289345,108.76374588277803,449.03513,418.42133,-0.0,0.9701296,1.6265167,0.0,2,0,0,0
78160721,34.03371320866788,108.76374607204384,449.02478,418.3905,-0.0,0.96997786,1.6268922,0.0,2,0,0,0
78359333,34.033713062297494,108.76374622121577,449.01685,418.36227,-0.0,0.96982676,1.626703,0.0,2,0,0,0
78562981,34.033712941723394,108.76374632142569,449.0105,418.33664,-0.0,0.96966887,1.627074,0.0,2,0,0,0
78761662,34.0337129269443,108.76374637747925,449.00836,418.31375,-0.0,0.9695125,1.6268815,0.0,2,0,0,0
78960387,34.03371295540628,108.76374635708456,449.00555,418.2911,-0.0,0.96936834,1.6266932,0.0,2,0,0,0
79168959,34.03371297004063,108.76374623819147,448.99756,418.2631,-0.0,0.9695252,1.62665,0.0,2,0,0,0
79362674,34.03371302540151,108.76374611811806,448.98676,418.23288,-0.0,0.9691259,1.6268804,0.0,2,0,0,0
79566356,34.03371312094857,108.763746043793,448.97818,418.2038,-0.0,0.9689991,1.6266946,0.0,2,0,0,0
79765004,34.033713212711746,108.76374604469956,448.97263,418.17847,-0.0,0.96887714,1.6265146,0.0,2,0,0,0
79963688,34.03371324943889,108.76374605772212,448.9701,418.15582,-0.0,0.9687644,1.626338,0.0,2,0,0,0
80162369,34.03371320725864,108.76374609109038,448.9648,418.13055,-0.0,0.9686561,1.6267213,0.0,2,0,0,0
80366016,34.03371316538126,108.76374622250054,448.95914,418.10538,-0.0,0.9685862,1.6265448,0.0,2,0,0,0
80564698,34.03371311008953,108.76374646392307,448.95312,418.07965,-0.0,0.96852785,1.6263667,0.0,2,0,0,0
80763379,34.03371306717598,108.76374676853756,448.9502,418.05533,-0.0,0.968463,1.6267464,0.0,2,0,0,0
80967027,34.033713040586385,108.76374712462716,448.94852,418.03455,-0.0,0.9684345,1.6265643,0.0,2,0,0,0
81165712,34.03371298522497,108.76374750880126,448.94016,418.0063,-0.0,0.96841764,1.626379,0.0,2,0,0,0
81364395,34.03371291377601,108.76374791619259,448.93463,417.98035,-0.0,0.96840864,1.6267585,0.0,2,0,0,0
81563072,34.03371285781691,108.7637483696443,448.92868,417.9551,-0.0,0.9684084,1.6265767,0.0,2,0,0,0
81756786,34.0337128307631,108.76374885168276,448.9308,417.93732,-0.0,0.96813774,1.6268123,0.0,2,0,0,0
81965405,34.033712778014326,108.76374941631458,448.94272,417.92892,-0.0,0.96843344,1.6267804,0.0,2,0,0,0
82164084,34.03371262130913,108.763749984156,448.95505,417.9214,-0.0,0.9684784,1.6266035,0.0,2,0,0,0
82362765,34.03371238776457,108.76375057948157,448.95944,417.90594,-0.0,0.969326,1.6267245,0.0,2,0,0,0
82566416,34.03371211282076,108.76375118870907,448.96133,417.88675,-0.0,0.9693494,1.6271048,0.0,2,0,0,0
82765262,34.03371186641505,108.76375175957021,448.96393,417.8699,-0.0,0.9693856,1.626911,0.0,2,0,0,0
82963780,34.03371160256883,108.7637522862674,448.9662,417.85193,-0.0,0.9694386,1.6267191,0.0,2,0,0,0
83162458,34.03371129344298,108.76375274611229,448.9657,417.83142,-0.0,0.9700664,1.626732,0.0,2,0,0,0
83361140,34.03371098526592,108.76375310853543,448.9682,417.81393,-0.0,0.9701262,1.6271036,0.0,2,0,0,0
83559930,34.03371066880333,108.76375338648904,448.98175,417.80734,-0.0,0.9701754,1.6269065,0.0,2,0,0,0
83758503,34.03371036268573,108.76375369597943,448.9893,417.79556,-0.0,0.9702236,1.6267109,0.0,2,0,0,0
83962153,34.03371006590349,108.76375401046661,448.99408,417.7797,-0.0,0.97020584,1.627085,0.0,2,0,0,0
84165800,34.03370971898138,108.76375427728529,448.9968,417.76242,-0.0,0.97015804,1.6268928,0.0,2,0,0,0
84364578,34.03370936587769,108.76375450318844,449.00165,417.7473,-0.0,0.9700855,1.6266956,0.0,2,0,0,0
84563164,34.03370903638457,108.76375469535914,449.00314,417.72992,-0.0,0.9700212,1.6270683,0.0,2,0,0,0
84766833,34.03370868053999,108.76375490155645,448.99777,417.70413,-0.0,0.9699384,1.6268702,0.0,2,0,0,0
84965494,34.03370839372321,108.76375512541883,448.9866,417.6732,-0.0,0.96984756,1.6266721,0.0,2,0,0,0
85164287,34.033708203199076,108.76375537802849,448.97372,417.64075,-0.0,0.96975136,1.6270444,0.0,2,0,0,0
85362872,34.033707902715754,108.76375565091642,448.96167,417.6084,-0.0,0.96962506,1.6268492,0.0,2,0,0,0
85561538,34.03370749281249,108.76375594195451,448.95193,417.57867,-0.0,0.96948916,1.6266547,0.0,2,0,0,0
85760220,34.033707122714894,108.76375621286442,448.94382,417.55084,-0.0,0.9693463,1.6270264,0.0,2,0,0,0
85968900,34.033706807896266,108.76375649894517,448.94183,417.5284,-0.0,0.96946394,1.6269753,0.0,2,0,0,0
86167517,34.033706578721144,108.76375674218025,448.94022,417.50665,-0.0,0.9692964,1.6267655,0.0,2,0,0,0
86361232,34.03370635275743,108.76375691923378,448.93414,417.48108,-0.0,0.9688576,1.6269819,0.0,2,0,0,0
86559926,34.033706132102694,108.76375705672883,448.9273,417.4539,-0.0,0.9686769,1.6267769,0.0,2,0,0,0
86758615,34.03370597658401,108.76375722642656,448.91876,417.4256,-0.0,0.9685266,1.6265763,0.0,2,0,0,0
86962243,34.03370590249638,108.76375741079904,448.91272,417.3991,-0.0,0.968354,1.6269428,0.0,2,0,0,0
87165892,34.033705956747234,108.76375764351015,448.91003,417.37665,-0.0,0.9682131,1.6267465,0.0,2,0,0,0
87364570,34.03370612107273,108.76375787750588,448.90512,417.35153,-0.0,0.9680871,1.6265566,0.0,2,0,0,0
87563255,34.03370626933135,108.76375809723113,448.9033,417.3299,-0.0,0.9679799,1.6263691,0.0,2,0,0,0
87761982,34.033706386025415,108.76375824230003,448.90802,417.31494,-0.0,0.9678815,1.6267446,0.0,2,0,0,0
87960618,34.033706565816786,108.76375835174385,448.90833,417.29425,-0.0,0.96776533,1.6265581,0.0,2,0,0,0
88164267,34.03370677059113,108.76375838524409,448.90488,417.2713,-0.0,0.9676829,1.6263766,0.0,2,0,0,0
88362950,34.03370694336639,108.76375838685667,448.9066,417.25262,-0.0,0.96758133,1.6267536,0.0,2,0,0,0
88561631,34.03370720049053,108.7637583808599,448.9124,417.23853,-0.0,0.9675128,1.6265686,0.0,2,0,0,0
88760311,34.033707485044914,108.76375826988895,448.91962,417.22604,-0.0,0.96745646,1.6263825,0.0,2,0,0,0
88963963,34.03370778270148,108.76375817868723,448.9269,417.2136,-0.0,0.9674019,1.6267579,0.0,2,0,0,0
89162642,34.03370806700644,108.76375807367428,448.93106,417.19748,-0.0,0.96736604,1.6265738,0.0,2,0,0,0
89361324,34.033708259940795,108.76375791449085,448.93326,417.17947,-0.0,0.9673375,1.6263955,0.0,2,0,0,0
89564972,34.033708401218504,108.7637577461159,448.93948,417.16562,-0.0,0.96728086,1.6262164,0.0,2,0,0,0
89763664,34.033708508406114,108.76375760293644,448.9486,417.15494,-0.0,0.96725166,1.626592,0.0,2,0,0,0
89962335,34.03370863097202,108.76375745692386,448.95813,417.14444,-0.0,0.9672182,1.6264088,0.0,2,0,0,0
90165986,34.03370891472788,108.76375725485464,448.96243,417.12845,-0.0,0.9671556,1.6267796,0.0,2,0,0,0
90364665,34.033709392231536,108.76375703641729,448.9652,417.11172,-0.0,0.96711016,1.6265932,0.0,2,0,0,0
90563506,34.03370979751927,108.76375691001158,448.96143,417.08768,-0.0,0.9670632,1.6264023,0.0,2,0,0,0
90762077,34.03370997097349,108.76375678343379,448.9559,417.06192,-0.0,0.9670226,1.6267718,0.0,2,0,0,0
90960712,34.033710094211195,108.7637567050853,448.95,417.03595,-0.0,0.9669519,1.626579,0.0,2,0,0,0
91159391,34.03371028757304,108.76375669587179,448.94614,417.01297,-0.0,0.9669064,1.6263884,0.0,2,0,0,0
91358179,34.03371048777417,108.76375670059889,448.94287,416.98828,-0.0,0.9668319,1.6267602,0.0,2,0,0,0
91561723,34.033710760627145,108.76375669448697,448.94455,416.97177,-0.0,0.9667921,1.6265739,0.0,2,0,0,0
91765370,34.03371127234217,108.7637566649228,448.95163,416.9587,-0.0,0.9667845,1.6263894,0.0,2,0,0,0
91964052,34.03371199130508,108.76375659429499,448.95383,416.94064,-0.0,0.96677905,1.6267631,0.0,2,0,0,0
92162873,34.033712503746706,108.76375654563171,448.95203,416.91876,-0.0,0.9667408,1.6265781,0.0,2,0,0,0
92361415,34.033712714951356,108.76375653626039,448.9489,416.89563,-0.0,0.96670604,1.6263956,0.0,2,0,0,0
92565063,34.03371284429773,108.76375658006535,448.94232,416.86884,-0.0,0.96668345,1.6262136,0.0,2,0,0,0
92763750,34.03371295717595,108.7637566817355,448.9397,416.8463,-0.0,0.9666707,1.6265907,0.0,2,0,0,0
92962484,34.03371308537681,108.76375676195856,448.94342,416.8303,-0.0,0.96666884,1.6264142,0.0,2,0,0,0
93166075,34.03371317096483,108.76375683575596,448.9458,416.8124,-0.0,0.96667457,1.6262394,0.0,2,0,0,0
93364757,34.03371321911706,108.76375693590734,448.9402,416.7868,-0.0,0.9666967,1.6260682,0.0,2,0,0,0
93563443,34.03371323484814,108.76375711378691,448.93002,416.7572,-0.0,0.96674067,1.6264517,0.0,2,0,0,0
93762149,34.03371329266728,108.76375726559517,448.9251,416.73224,-0.0,0.96678805,1.6262827,0.0,2,0,0,0
93960802,34.03371335869261,108.76375732033812,448.92566,416.71277,-0.0,0.9668301,1.6261152,0.0,2,0,0,0
94159483,34.03371339501879,108.76375734118623,448.92374,416.69037,-0.0,0.9668494,1.6265011,0.0,2,0,0,0
94363133,34.03371341902094,108.76375733935829,448.92273,416.66986,-0.0,0.96687365,1.6263314,0.0,2,0,0,0
94561814,34.033713445387555,108.76375727056029,448.92352,416.65063,-0.0,0.966895,1.6261649,0.0,2,0,0,0
94765463,34.0337134544064,108.76375713183363,448.9265,416.63354,-0.0,0.96692127,1.6260014,0.0,2,0,0,0
94964144,34.03371345269806,108.76375695391008,448.93073,416.61823,-0.0,0.9669699,1.6263939,0.0,2,0,0,0
95162838,34.03371344331957,108.76375677732611,448.9334,416.60043,-0.0,0.9670214,1.6262349,0.0,2,0,0,0
95361533,34.03371352476618,108.76375653513692,448.92737,416.57434,-0.0,0.96714574,1.626074,0.0,2,0,0,0
95560189,34.03371370640893,108.76375612905598,448.91974,416.54675,-0.0,0.9676597,1.6264609,0.0,2,0,0,0
95763837,34.03371386387533,108.76375557656073,448.91464,416.52185,-0.0,0.9683582,1.6262913,0.0,2,0,0,0
95962519,34.03371401281444,108.76375503952936,448.91342,416.50027,-0.0,0.9689651,1.6261231,0.0,2,0,0,0
96161202,34.03371420200031,108.76375455828814,448.90808,416.47507,-0.0,0.96946126,1.626511,0.0,2,0,0,0
96359892,34.033714355981914,108.7637540330324,448.9046,416.4516,-0.0,0.96967584,1.6263447,0.0,2,0,0,0
96563530,34.033714461782886,108.76375333286539,448.90924,416.43655,-0.0,0.9696487,1.6261804,0.0,2,0,0,0
96752465,34.03371452316188,108.763752664131,448.91754,416.42487,-0.0,0.9690928,1.6264197,0.0,2,0,0,0
96965861,34.0337146437237,108.76375183658088,448.92926,416.41687,-0.0,0.9691457,1.6263934,0.0,2,0,0,0
97164590,34.033714712883274,108.763751041682,448.9427,416.4103,-0.0,0.9689413,1.6262275,0.0,2,0,0,0
97363224,34.033714806489904,108.76375035089798,448.95877,416.40628,-0.0,0.9687671,1.6260611,0.0,2,0,0,0
97562127,34.033714852391874,108.7637497460906,448.97403,416.40195,-0.0,0.96861124,1.6264493,0.0,2,0,0,0
97765556,34.033714885799874,108.76374917298021,448.98215,416.38934,-0.0,0.96845526,1.6262848,0.0,2,0,0,0
97964236,34.033714891129165,108.76374860837659,448.9844,416.37134,-0.0,0.96830904,1.6261231,0.0,2,0,0,0
98162917,34.033714858402476,108.76374796200716,448.98007,416.34726,-0.0,0.9681793,1.6259623,0.0,2,0,0,0
98361751,34.03371483967869,108.76374711181639,448.97623,416.32343,-0.0,0.9680561,1.626352,0.0,2,0,0,0
98560281,34.033714829275795,108.76374613333918,448.96915,416.29623,-0.0,0.96793956,1.6261908,0.0,2,0,0,0
98763987,34.03371462971226,108.76374514085781,448.95026,416.2574,-0.0,0.9678029,1.6265792,0.0,2,0,0,0
98962612,34.0337145356977,108.76374424830466,448.93344,416.2207,-0.0,0.9676993,1.6264108,0.0,2,0,0,0
99161413,34.033714581687,108.76374332848644,448.91946,416.18628,-0.0,0.9675754,1.6262429,0.0,2,0,0,0
99360024,34.03371468116908,108.76374230266654,448.90012,416.14685,-0.0,0.9674668,1.6260742,0.0,2,0,0,0
99563624,34.033714690194834,108.76374144083287,448.8834,416.1102,-0.0,0.9673629,1.6264603,0.0,2,0,0,0
99762304,34.0337146643637,108.76374088436346,448.8787,416.08557,-0.0,0.9672546,1.6262952,0.0,2,0,0,0
99961143,34.03371461582815,108.76374016361221,448.88208,416.0687,-0.0,0.96716106,1.6261309,0.0,2,0,0,0
100164634,34.033714596641175,108.76373939307216,448.88904,416.05603,-0.0,0.96707916,1.6259676,0.0,2,0,0,0
100363316,34.033714484175086,108.76373844417195,448.89288,416.0401,-0.0,0.96701765,1.6263593,0.0,2,0,0,0
100561997,34.033714408248514,108.76373729638036,448.9062,416.0331,-0.0,0.9669649,1.6261985,0.0,2,0,0,0
100760741,34.03371427125438,108.76373603763398,448.91833,416.02527,-0.0,0.96689415,1.6260374,0.0,2,0,0,0
100959361,34.03371407012927,108.76373495648193,448.92682,416.0124,-0.0,0.9667968,1.6264273,0.0,2,0,0,0
101163062,34.033713832105505,108.76373414022817,448.9371,416.00403,-0.0,0.9667098,1.6262655,0.0,2,0,0,0
101361691,34.03371365840679,108.76373353464848,448.95282,415.99854,-0.0,0.96658987,1.6261052,0.0,2,0,0,0
101560442,34.033713553458114,108.76373317193975,448.97803,416.00458,-0.0,0.9665022,1.6259465,0.0,2,0,0,0
101764022,34.033713375589606,108.7637328480696,449.0083,416.01532,-0.0,0.96640795,1.6263376,0.0,2,0,0,0
101962702,34.033713205314584,108.76373251165857,449.032,416.01862,-0.0,0.9663085,1.6261816,0.0,2,0,0,0
102166351,34.03371309066896,108.7637319221036,449.03915,416.00613,-0.0,0.96623695,1.6260271,0.0,2,0,0,0
102365095,34.033712904451015,108.7637308400253,449.0458,415.9926,-0.0,0.9661507,1.6258703,0.0,2,0,0,0
102563720,34.033712660530725,108.76372940177778,449.04587,415.97278,-0.0,0.96610165,1.6262659,0.0,2,0,0,0
102762396,34.033712505323564,108.76372815795585,449.04688,415.95374,-0.0,0.9660254,1.6261113,0.0,2,0,0,0
102961077,34.0337123691206,108.76372729383891,449.04944,415.93604,-0.0,0.96595794,1.625957,0.0,2,0,0,0
103159777,34.0337121979251,108.76372634802932,449.05905,415.92606,-0.0,0.9658907,1.6263527,0.0,2,0,0,0
103363408,34.033711988739974,108.76372493555172,449.06012,415.90683,-0.0,0.9658408,1.6261972,0.0,2,0,0,0
103562092,34.03371174934799,108.76372312452557,449.06183,415.88843,-0.0,0.9658154,1.6260437,0.0,2,0,0,0
103760776,34.03371144326944,108.76372136392668,449.05313,415.85962,-0.0,0.96580225,1.6258905,0.0,2,0,0,0
103959452,34.03371114017798,108.76371980409758,449.03473,415.82153,-0.0,0.9657909,1.6262856,0.0,2,0,0,0
104163101,34.03371088719531,108.76371840097585,449.02277,415.78928,-0.0,0.9657735,1.626131,0.0,2,0,0,0
104361783,34.033710729947614,108.76371712139694,449.0255,415.77203,-0.0,0.96574265,1.6259787,0.0,2,0,0,0
104565431,34.03371062786966,108.763715759137,449.03262,415.7597,-0.0,0.965734,1.6258276,0.0,2,0,0,0
104764114,34.03371044740524,108.76371408707946,449.0352,415.7419,-0.0,0.96569425,1.6262186,0.0,2,0,0,0
104962794,34.03371027571238,108.7637119506437,449.02164,415.70856,-0.0,0.96567845,1.6260612,0.0,2,0,0,0
105166443,34.03371019725572,108.76370988932352,448.9976,415.66455,-0.0,0.9656305,1.62645,0.0,2,0,0,0
105365125,34.03371036708637,108.76370834163664,448.98544,415.63235,-0.0,0.96558124,1.626284,0.0,2,0,0,0
105563807,34.033710702885415,108.76370748685723,449.01904,415.64597,-0.0,0.9655481,1.6261199,0.0,2,0,0,0
105762488,34.03371111108746,108.7637071279491,449.08167,415.68854,-0.0,0.96550715,1.6259582,0.0,2,0,0,0
105961169,34.03371150378814,108.76370683753044,449.1342,415.7212,-0.0,0.96546453,1.6263452,0.0,2,0,0,0
106159999,34.03371181830527,108.7637063455736,449.1687,415.73563,-0.0,0.9657146,1.6263165,0.0,2,0,0,0
106358534,34.0337120334559,108.76370540464359,449.19577,415.7425,-0.0,0.9656338,1.6261466,0.0,2,0,0,0
106562181,34.0337122611497,108.76370413332587,449.2147,415.74142,-0.0,0.9655686,1.626531,0.0,2,0,0,0
106760864,34.03371258942404,108.76370316051718,449.23325,415.74017,-0.0,0.96550846,1.6263622,0.0,2,0,0,0
106959659,34.03371289710869,108.76370231401205,449.25134,415.73816,-0.0,0.9654451,1.6261874,0.0,2,0,0,0
107163198,34.033713069447565,108.76370127445526,449.26303,415.72964,-0.0,0.96538836,1.6265684,0.0,2,0,0,0
107361874,34.03371313720382,108.76369998185157,449.25458,415.7013,-0.0,0.96532565,1.6263971,0.0,2,0,0,0
107565523,34.03371307081756,108.76369822493439,449.23587,415.6626,-0.0,0.9652682,1.6262254,0.0,2,0,0,0
107764314,34.03371294539466,108.76369612399425,449.21695,415.62366,-0.0,0.9652096,1.6260563,0.0,2,0,0,0
107962886,34.033712826869944,108.76369392105605,449.19467,415.5813,-0.0,0.9651569,1.6264416,0.0,2,0,0,0
108161569,34.03371268961391,108.7636917322499,449.17926,415.54608,-0.0,0.9651104,1.6262724,0.0,2,0,0,0
108360250,34.033712586086985,108.76368969434772,449.16995,415.51587,-0.0,0.9650523,1.6261033,0.0,2,0,0,0
108568968,34.033712499347196,108.763687842765,449.16562,415.49304,-0.0,0.9653295,1.62608,0.0,2,0,0,0
108762579,34.033712375591406,108.76368615433476,449.16418,415.4716,-0.0,0.9650756,1.6263229,0.0,2,0,0,0
108966230,34.03371231858405,108.76368448008309,449.16275,415.44977,-0.0,0.9651002,1.626155,0.0,2,0,0,0
109164906,34.03371226642996,108.76368282279401,449.1629,415.4298,-0.0,0.9651397,1.6265391,0.0,2,0,0,0
109363635,34.03371217366672,108.76368116391116,449.161,415.40814,-0.0,0.9651927,1.626363,0.0,2,0,0,0
109562273,34.03371214340551,108.76367963256857,449.15518,415.3823,-0.0,0.9652572,1.626187,0.0,2,0,0,0
109765921,34.033712243005304,108.763678222836,449.14996,415.35718,-0.0,0.9653399,1.6265655,0.0,2,0,0,0
109964603,34.03371240363355,108.7636769319916,449.15637,415.3437,-0.0,0.96543235,1.6263903,0.0,2,0,0,0
110163350,34.0337125253797,108.76367550357841,449.1687,415.33582,-0.0,0.9655213,1.6262186,0.0,2,0,0,0
110361966,34.033712489355885,108.76367378545064,449.1812,415.32834,-0.0,0.9655998,1.6260465,0.0,2,0,0,0
110565617,34.0337122912524,108.76367179618019,449.18805,415.31577,-0.0,0.96566874,1.6264292,0.0,2,0,0,0
110764299,34.033712074522114,108.76366983417515,449.19974,415.3069,-0.0,0.9657057,1.6262585,0.0,2,0,0,0
110962978,34.03371196677319,108.76366807946764,449.21213,415.29935,-0.0,0.9657615,1.6260918,0.0,2,0,0,0
111161660,34.033712034568,108.76366644510746,449.2261,415.2921,-0.0,0.9657923,1.6264778,0.0,2,0,0,0
111360343,34.03371199157242,108.76366481111997,449.23972,415.2868,-0.0,0.9658601,1.6263114,0.0,2,0,0,0
111559025,34.0337119390713,108.76366322010301,449.25095,415.27777,-0.0,0.9658935,1.6261433,0.0,2,0,0,0
111767661,34.03371182040759,108.76366162459452,449.2625,415.26874,-0.0,0.96617776,1.6261163,0.0,2,0,0,0
111961353,34.03371171570854,108.763660175695,449.27637,415.2628,-0.0,0.9659109,1.6263499,0.0,2,0,0,0
112165002,34.03371161011551,108.76365856363786,449.29184,415.25766,-0.0,0.96591455,1.6261759,0.0,2,0,0,0
112363683,34.033711638664975,108.76365688230199,449.3039,415.2501,-0.0,0.9659183,1.626554,0.0,2,0,0,0
112562365,34.033711853604416,108.76365499396843,449.3059,415.23264,-0.0,0.96596056,1.6263765,0.0,2,0,0,0
112766013,34.03371203236039,108.76365264338088,449.30566,415.21246,-0.0,0.96600556,1.626194,0.0,2,0,0,0
112964695,34.03371194395369,108.76365032888182,449.30743,415.19424,-0.0,0.9660867,1.6265694,0.0,2,0,0,0
113163376,34.03371183415976,108.763648239916,449.32074,415.18814,-0.0,0.9661765,1.6263827,0.0,2,0,0,0
113362058,34.0337116795202,108.76364627228607,449.33487,415.1821,-0.0,0.966264,1.6261969,0.0,2,0,0,0
113560740,34.0337115784805,108.76364449970009,449.3456,415.17273,-0.0,0.9663425,1.6265681,0.0,2,0,0,0
113764390,34.03371155663497,108.76364275577137,449.35703,415.16418,-0.0,0.96638626,1.6263816,0.0,2,0,0,0
113963254,34.033711550768054,108.76364089700616,449.365,415.1522,-0.0,0.96642554,1.6267514,0.0,2,0,0,0
114161751,34.033711507959346,108.76363880575306,449.37637,415.1439,-0.0,0.96649194,1.6265614,0.0,2,0,0,0
114365400,34.0337113952462,108.76363638474884,449.3905,415.13757,-0.0,0.96655136,1.6263758,0.0,2,0,0,0
114564082,34.033711196843285,108.76363413031763,449.40704,415.13406,-0.0,0.96661186,1.6261927,0.0,2,0,0,0
114762895,34.03371109784633,108.76363186265982,449.42972,415.13632,-0.0,0.9666395,1.6265602,0.0,2,0,0,0
114961445,34.033710888321465,108.76362944110723,449.44946,415.13544,-0.0,0.9666711,1.6263698,0.0,2,0,0,0
115165155,34.033710686360806,108.76362697044694,449.45773,415.12427,-0.0,0.966714,1.6261822,0.0,2,0,0,0
115363779,34.03371049355397,108.76362473670414,449.46368,415.1102,-0.0,0.9667585,1.626553,0.0,2,0,0,0
115562607,34.033710361250975,108.76362276870168,449.461,415.08752,-0.0,0.96678966,1.6263711,0.0,2,0,0,0
115761138,34.0337102064042,108.76362089793147,449.44412,415.05106,-0.0,0.96681607,1.6261914,0.0,2,0,0,0
115964787,34.03371000288533,108.7636188911087,449.4239,415.01,-0.0,0.96680397,1.6265657,0.0,2,0,0,0
116158501,34.03370979709315,108.76361695062533,449.38754,414.95398,-0.0,0.9665442,1.6262449,0.0,2,0,0,0
116357326,34.03370952352652,108.76361488580488,449.34058,414.8866,-0.0,0.96656525,1.6260712,0.0,2,0,0,0
116565798,34.033709254937435,108.76361252337836,449.2972,414.82333,-0.0,0.9668556,1.6260444,0.0,2,0,0,0
116764480,34.03370901292386,108.76361030060603,449.26544,414.77158,-0.0,0.9668628,1.6264265,0.0,2,0,0,0
116963161,34.03370889770501,108.76360838176304,449.2499,414.73663,-0.0,0.96686107,1.6262566,0.0,2,0,0,0
117161885,34.033708897435574,108.76360653995015,449.2363,414.70303,-0.0,0.96685076,1.6260899,0.0,2,0,0,0
117365491,34.03370899397854,108.76360438759428,449.22845,414.67508,-0.0,0.9668327,1.6259229,0.0,2,0,0,0
117564212,34.033709239287504,108.76360210599539,449.22418,414.6507,-0.0,0.9668269,1.626309,0.0,2,0,0,0
117757887,34.033709447941305,108.76359997213362,449.21982,414.62665,-0.0,0.96655685,1.6260037,0.0,2,0,0,0
117956569,34.03370957766797,108.7635979472507,449.2218,414.60767,-0.0,0.96653384,1.6258411,0.0,2,0,0,0
118165194,34.0337098994308,108.76359589775667,449.2248,414.5903,-0.0,0.9667745,1.6258224,0.0,2,0,0,0
118363866,34.03371039343232,108.76359384777588,449.2324,414.5794,-0.0,0.9667814,1.6262128,0.0,2,0,0,0
118562548,34.03371089621645,108.76359172655009,449.24927,414.5759,-0.0,0.96675426,1.6260465,0.0,2,0,0,0
118761331,34.03371131839362,108.76358959721053,449.26654,414.57297,-0.0,0.96672094,1.6264311,0.0,2,0,0,0
118959918,34.03371168502006,108.76358762670262,449.27466,414.56097,-0.0,0.9666823,1.6262618,0.0,2,0,0,0
119158592,34.03371202926655,108.76358580133412,449.29382,414.5601,-0.0,0.9666477,1.6260939,0.0,2,0,0,0
119362241,34.03371231668981,108.76358415930459,449.31628,414.5624,-0.0,0.96659124,1.6259263,0.0,2,0,0,0
119560922,34.03371248948299,108.76358286976401,449.33832,414.56454,-0.0,0.9665493,1.62631,0.0,2,0,0,0
119764571,34.03371279726271,108.7635815798092,449.35938,414.5658,-0.0,0.96653706,1.626147,0.0,2,0,0,0
119963306,34.033713399020264,108.76358022016122,449.37485,414.56146,-0.0,0.9665182,1.625985,0.0,2,0,0,0
120166944,34.033714195125,108.7635787505923,449.40054,414.56528,-0.0,0.96644294,1.6258237,0.0,2,0,0,0
120365583,34.033714927153696,108.76357749160188,449.42892,414.57535,-0.0,0.96643424,1.6262132,0.0,2,0,0,0
120564265,34.033715444351174,108.76357642350575,449.45197,414.57858,-0.0,0.9664185,1.6260568,0.0,2,0,0,0
120762946,34.033715649504494,108.76357564522331,449.47562,414.58234,-0.0,0.9663965,1.6258996,0.0,2,0,0,0
120966594,34.03371570759907,108.76357520324353,449.4973,414.5842,-0.0,0.9663854,1.6262908,0.0,2,0,0,0
121165276,34.03371583401401,108.763574926636,449.51053,414.57715,-0.0,0.9663933,1.6261328,0.0,2,0,0,0
121363960,34.033715980579245,108.76357473842228,449.52585,414.57147,-0.0,0.9663838,1.6259778,0.0,2,0,0,0
121567606,34.03371608448378,108.76357442835531,449.55023,414.57666,-0.0,0.9663916,1.6258228,0.0,2,0,0,0
121766475,34.03371621936196,108.76357398448145,449.58173,414.58768,-0.0,0.9663846,1.6262152,0.0,2,0,0,0
121964981,34.033716436199256,108.7635735721626,449.60788,414.5943,-0.0,0.9664017,1.6260628,0.0,2,0,0,0
122163650,34.03371665664534,108.7635733006985,449.6325,414.59912,-0.0,0.96641606,1.6259105,0.0,2,0,0,0
122362332,34.03371687328564,108.76357308617656,449.6614,414.60822,-0.0,0.96643656,1.625759,0.0,2,0,0,0
122561147,34.033717086137166,108.76357281961806,449.69174,414.61835,-0.0,0.96645486,1.6261525,0.0,2,0,0,0
122764662,34.033717271294776,108.76357250321712,449.7135,414.62003,-0.0,0.9664632,1.6259997,0.0,2,0,0,0
122963344,34.03371742463843,108.76357210145476,449.7231,414.60953,-0.0,0.966463,1.625849,0.0,2,0,0,0
123162025,34.033717569683176,108.76357170741299,449.72122,414.58762,-0.0,0.9664619,1.6256986,0.0,2,0,0,0
123360804,34.03371774199295,108.76357133464948,449.71527,414.56158,-0.0,0.9664607,1.6260918,0.0,2,0,0,0
123564355,34.0337178807478,108.76357092301383,449.7109,414.53772,-0.0,0.9664597,1.6259402,0.0,2,0,0,0
123763037,34.03371796997266,108.76357042262221,449.70465,414.51147,-0.0,0.9664434,1.6257905,0.0,2,0,0,0
123961718,34.03371803951095,108.76356988010872,449.69656,414.48187,-0.0,0.9664494,1.6261997,0.0,2,0,0,0
124160512,34.03371813394392,108.76356936261995,449.67966,414.4461,-0.0,0.9664602,1.6260414,0.0,2,0,0,0
124359082,34.03371825812598,108.76356890234233,449.6573,414.40347,-0.0,0.966435,1.6258793,0.0,2,0,0,0
124562730,34.03371839192564,108.76356845727827,449.64038,414.3668,-0.0,0.966437,1.626268,0.0,2,0,0,0
124766378,34.03371847936884,108.76356805483296,449.633,414.33942,-0.0,0.96643835,1.626108,0.0,2,0,0,0
124965110,34.03371858080259,108.76356762827362,449.64194,414.32846,-0.0,0.9664439,1.6259521,0.0,2,0,0,0
125163742,34.03371863786175,108.76356697659513,449.6692,414.33612,-0.0,0.9664772,1.6257993,0.0,2,0,0,0
125362422,34.033718618382764,108.76356592994391,449.694,414.34088,-0.0,0.9664821,1.6261917,0.0,2,0,0,0
125566084,34.03371842549039,108.7635642317389,449.71414,414.34106,-0.0,0.9664781,1.626035,0.0,2,0,0,0
125764788,34.03371815182864,108.76356232780955,449.7233,414.3302,-0.0,0.9664828,1.6258801,0.0,2,0,0,0
125963449,34.0337178210522,108.76356051176707,449.7215,414.3087,-0.0,0.9665117,1.6257284,0.0,2,0,0,0
126157148,34.03371755548452,108.76355858852583,449.71072,414.27765,-0.0,0.9662672,1.6259806,0.0,2,0,0,0
126365763,34.03371738667908,108.7635566647669,449.69748,414.24442,-0.0,0.9665375,1.6259706,0.0,2,0,0,0
126564446,34.033717341237605,108.76355495604665,449.68405,414.21118,-0.0,0.9665622,1.6258163,0.0,2,0,0,0
126763142,34.033717309211184,108.76355337588609,449.67746,414.18417,-0.0,0.96655905,1.6262043,0.0,2,0,0,0
126961808,34.03371723512312,108.76355190342106,449.67188,414.15848,-0.0,0.96656466,1.6260431,0.0,2,0,0,0
127160490,34.03371724757509,108.76355043617188,449.6732,414.1397,-0.0,0.96656823,1.6258811,0.0,2,0,0,0
127359174,34.033717242452255,108.76354881283376,449.68753,414.13422,-0.0,0.96657145,1.6262689,0.0,2,0,0,0
127562828,34.03371722000436,108.76354700616714,449.69992,414.12668,-0.0,0.96657354,1.6261078,0.0,2,0,0,0
127761501,34.033717182331934,108.76354520479944,449.69495,414.10187,-0.0,0.9665669,1.6259426,0.0,2,0,0,0
127965150,34.03371715368724,108.7635432987997,449.6829,414.06982,-0.0,0.9665519,1.6263272,0.0,2,0,0,0
128163854,34.033717236943545,108.76354138901183,449.68234,414.04965,-0.0,0.9665472,1.626161,0.0,2,0,0,0
128367479,34.03371739797265,108.76353961482106,449.69443,414.04193,-0.0,0.9665357,1.6259977,0.0,2,0,0,0
128566165,34.0337174843384,108.7635379916069,449.7089,414.03577,-0.0,0.9665269,1.6258386,0.0,2,0,0,0
128764842,34.033717506368696,108.76353623668696,449.7251,414.03217,-0.0,0.9665112,1.6262287,0.0,2,0,0,0
128963530,34.03371739074031,108.76353451045578,449.74786,414.03488,-0.0,0.96649677,1.6260693,0.0,2,0,0,0
129162205,34.0337172157578,108.76353293213778,449.77142,414.03854,-0.0,0.96648353,1.6259089,0.0,2,0,0,0
129360887,34.033716980517205,108.76353138219788,449.79745,414.04437,-0.0,0.9664538,1.6262964,0.0,2,0,0,0
129559723,34.03371678271212,108.76352968399299,449.82278,414.0498,-0.0,0.96643496,1.6261262,0.0,2,0,0,0
129768183,34.03371679420885,108.76352776234495,449.84048,414.04724,-0.0,0.96669763,1.6260991,0.0,2,0,0,0
129961898,34.03371682338763,108.76352602470843,449.842,414.02872,-0.0,0.9664231,1.6263384,0.0,2,0,0,0
130165547,34.033716815040414,108.76352421872484,449.83514,414.00195,-0.0,0.9664285,1.6261696,0.0,2,0,0,0
130364422,34.03371677751479,108.76352256535297,449.8213,413.96835,-0.0,0.96644384,1.6260054,0.0,2,0,0,0
130562912,34.033716788163915,108.7635209163484,449.80307,413.93018,-0.0,0.9664908,1.6258448,0.0,2,0,0,0
130766558,34.03371676207289,108.76351920895284,449.7884,413.8953,-0.0,0.96649945,1.6262293,0.0,2,0,0,0
130965240,34.03371676724065,108.7635170911224,449.78525,413.87222,-0.0,0.9665328,1.6260703,0.0,2,0,0,0
131164039,34.033716805758154,108.76351480693627,449.78064,413.84714,-0.0,0.9665384,1.625911,0.0,2,0,0,0
131362602,34.03371684750159,108.76351257433134,449.777,413.82242,-0.0,0.96652555,1.6262981,0.0,2,0,0,0
131561288,34.03371690970994,108.76351039986903,449.7739,413.7997,-0.0,0.966513,1.6261305,0.0,2,0,0,0
131759965,34.033717056787154,108.76350834649398,449.76736,413.77408,-0.0,0.96658874,1.625979,0.0,2,0,0,0
131958704,34.033717344084,108.76350673263504,449.75348,413.7406,-0.0,0.96679026,1.6264217,0.0,2,0,0,0
132162312,34.03371763972775,108.76350552838292,449.7334,413.70013,-0.0,0.96684533,1.6262503,0.0,2,0,0,0
132360976,34.03371785793826,108.7635046307825,449.7136,413.66,-0.0,0.9669105,1.6260835,0.0,2,0,0,0
132559658,34.03371803966368,108.76350416584744,449.69598,413.62238,-0.0,0.9672693,1.6260344,0.0,2,0,0,0
132758477,34.033718131999976,108.76350393884437,449.67975,413.58624,-0.0,0.96779674,1.6266087,0.0,2,0,0,0
132961987,34.03371821957088,108.7635037069357,449.66962,413.5562,-0.0,0.9684467,1.6266637,0.0,2,0,0,0
133165636,34.033718293113665,108.76350346442933,449.66028,413.52667,-0.0,0.9691596,1.6267446,0.0,2,0,0,0
133364317,34.033718368284624,108.76350306790383,449.64966,413.49695,-0.0,0.9696363,1.6273052,0.0,2,0,0,0
133563016,34.03371848229146,108.76350265239748,449.64114,413.46796,-0.0,0.9696561,1.6271374,0.0,2,0,0,0
133766647,34.03371859109532,108.7635021345981,449.63644,413.44324,-0.0,0.96956724,1.6269317,0.0,2,0,0,0
133965382,34.033718751334064,108.76350159572726,449.63553,413.42252,-0.0,0.9697876,1.6268245,0.0,2,0,0,0
134164010,34.033718961845665,108.76350108041143,449.6285,413.3955,-0.0,0.9697352,1.6271902,0.0,2,0,0,0
134362692,34.03371919500151,108.7635005058144,449.62906,413.37598,-0.0,0.97030765,1.6272084,0.0,2,0,0,0
134561372,34.03371944132056,108.76350006528291,449.63007,413.35696,-0.0,0.9702413,1.626991,0.0,2,0,0,0
134765021,34.03371968259465,108.76349974082983,449.62946,413.33676,-0.0,0.9704536,1.6274388,0.0,2,0,0,0
134968669,34.0337198970968,108.7634993735512,449.63098,413.31778,-0.0,0.97040975,1.6272132,0.0,2,0,0,0
135167350,34.03372012538483,108.76349904226757,449.63513,413.30212,-0.0,0.9706934,1.6270913,0.0,2,0,0,0
135366032,34.0337203487544,108.76349881725118,449.64215,413.28894,-0.0,0.97070456,1.6274472,0.0,2,0,0,0
135564716,34.03372049299736,108.76349860068008,449.64847,413.27518,-0.0,0.9709408,1.6273124,0.0,2,0,0,0
135763395,34.03372056418373,108.76349836941313,449.6494,413.25616,-0.0,0.97164947,1.627361,0.0,2,0,0,0
135962076,34.03372063468822,108.76349811351469,449.65042,413.2363,-0.0,0.9722713,1.6273961,0.0,2,0,0,0
136160757,34.03372066459225,108.76349790292586,449.65204,413.21884,-0.0,0.97233856,1.6278081,0.0,2,0,0,0
136364406,34.033720697558245,108.76349774818216,449.65463,413.20123,-0.0,0.97282696,1.6277798,0.0,2,0,0,0
136563091,34.03372077279966,108.7634977409374,449.66336,413.19006,-0.0,0.9726892,1.6281158,0.0,2,0,0,0
136761769,34.03372092099924,108.763497851613,449.6694,413.1763,-0.0,0.97258306,1.6278576,0.0,2,0,0,0
136960450,34.03372111250957,108.76349796841528,449.67484,413.16183,-0.0,0.9732626,1.6278857,0.0,2,0,0,0
137159131,34.03372129799044,108.76349802591578,449.6782,413.14484,-0.0,0.97312665,1.6282088,0.0,2,0,0,0
137357964,34.033721468026904,108.76349804187397,449.69247,413.1392,-0.0,0.9735286,1.6281185,0.0,2,0,0,0
137561461,34.0337216638489,108.76349804922144,449.71805,413.14532,-0.0,0.9734414,1.6278449,0.0,2,0,0,0
137765110,34.03372183822212,108.76349816838345,449.74103,413.14758,-0.0,0.9738105,1.6277245,0.0,2,0,0,0
137963822,34.03372196690894,108.76349831964929,449.76184,413.14835,-0.0,0.9742394,1.628225,0.0,2,0,0,0
138162612,34.033722082150966,108.7634985187499,449.77893,413.14563,-0.0,0.97416264,1.6279536,0.0,2,0,0,0
138366121,34.03372219317241,108.7634988069999,449.7884,413.13528,-0.0,0.97409505,1.6276875,0.0,2,0,0,0
138559835,34.033722269667756,108.76349913633696,449.7984,413.1249,-0.0,0.9737778,1.6278851,0.0,2,0,0,0
138758516,34.033722284924075,108.7634994801426,449.80856,413.11505,-0.0,0.97399735,1.6277114,0.0,2,0,0,0
138957281,34.03372224490517,108.76349977143575,449.81165,413.09836,-0.0,0.97397655,1.6274501,0.0,2,0,0,0
139165813,34.033722183903556,108.76350002847259,449.8119,413.07828,-0.0,0.9742245,1.6279258,0.0,2,0,0,0
139364494,34.033722110116486,108.76350034005058,449.80902,413.0555,-0.0,0.97416586,1.6276664,0.0,2,0,0,0
139563177,34.033722016209985,108.76350075435637,449.80502,413.0318,-0.0,0.9741174,1.6274053,0.0,2,0,0,0
139761937,34.03372186641391,108.76350109098003,449.79846,413.00525,-0.0,0.9740786,1.6277306,0.0,2,0,0,0
139965505,34.03372168022499,108.7635013243586,449.78397,412.97064,-0.0,0.9740485,1.6274747,0.0,2,0,0,0
140159220,34.03372153733494,108.76350151455952,449.7614,412.9287,-0.0,0.97376066,1.6270833,0.0,2,0,0,0
140357901,34.03372139813166,108.76350165876788,449.74173,412.88892,-0.0,0.97377115,1.6268458,0.0,2,0,0,0
140566585,34.03372121242537,108.76350199135538,449.7207,412.84717,-0.0,0.974081,1.6273298,0.0,2,0,0,0
140765203,34.033720943966934,108.76350245155072,449.70108,412.8076,-0.0,0.97406644,1.6270962,0.0,2,0,0,0
140963879,34.03372068421039,108.7635028379758,449.6868,412.7735,-0.0,0.9740581,1.6268655,0.0,2,0,0,0
141162560,34.03372044486371,108.76350308199366,449.67404,412.74054,-0.0,0.9740477,1.6272043,0.0,2,0,0,0
141361254,34.033720144485905,108.76350329556388,449.66635,412.71274,-0.0,0.9740503,1.6269711,0.0,2,0,0,0
141559923,34.0337197104696,108.76350347187679,449.65607,412.68262,-0.0,0.97406346,1.6267428,0.0,2,0,0,0
141763586,34.03371900458567,108.76350357651083,449.65018,412.65628,-0.0,0.97406036,1.6270838,0.0,2,0,0,0
141962252,34.033717986895965,108.76350352607099,449.6521,412.63858,-0.0,0.9740954,1.6268617,0.0,2,0,0,0
142160972,34.033716739165456,108.76350330791013,449.65573,412.62173,-0.0,0.97409666,1.6266447,0.0,2,0,0,0
142364582,34.033715420135046,108.76350311686478,449.65637,412.60306,-0.0,0.97411126,1.6264331,0.0,2,0,0,0
142563271,34.033714287365164,108.76350311753042,449.65778,412.58456,-0.0,0.9741392,1.62679,0.0,2,0,0,0
142766912,34.03371324529475,108.76350301023129,449.6589,412.5658,-0.0,0.974154,1.6265879,0.0,2,0,0,0
142965617,34.03371214861764,108.76350288914696,449.65634,412.5435,-0.0,0.9741505,1.6263878,0.0,2,0,0,0
143164274,34.03371098982171,108.76350257517151,449.64514,412.51224,-0.0,0.9741444,1.6261951,0.0,2,0,0,0
143362972,34.03370975670709,108.7635022368546,449.6343,412.481,-0.0,0.9741177,1.6265604,0.0,2,0,0,0
143566604,34.03370829930517,108.76350180336567,449.61774,412.44443,-0.0,0.9740907,1.6263684,0.0,2,0,0,0
143765285,34.03370700059032,108.7635013345229,449.60297,412.40976,-0.0,0.97407115,1.6261812,0.0,2,0,0,0
143963966,34.03370568869831,108.7635009183791,449.59656,412.38336,-0.0,0.9740835,1.6265539,0.0,2,0,0,0
144162666,34.03370437475777,108.76350055967423,449.5979,412.3645,-0.0,0.9740756,1.6263713,0.0,2,0,0,0
144361329,34.03370323224473,108.76350021765205,449.58878,412.33563,-0.0,0.9740657,1.6261897,0.0,2,0,0,0
144560013,34.03370235265138,108.76349975917815,449.58374,412.31042,-0.0,0.97405475,1.6265583,0.0,2,0,0,0
144768625,34.03370154220466,108.763499275907,449.57928,412.28595,-0.0,0.97431505,1.6265154,0.0,2,0,0,0
144962340,34.03370077251385,108.76349873855001,449.57736,412.26395,-0.0,0.97400117,1.6261882,0.0,2,0,0,0
145161208,34.03369971459209,108.76349827461222,449.57864,412.24533,-0.0,0.97396296,1.6260064,0.0,2,0,0,0
145364675,34.03369849319164,108.763497749593,449.57092,412.21762,-0.0,0.9739263,1.6263804,0.0,2,0,0,0
145558384,34.03369740639521,108.76349705592033,449.55548,412.18216,-0.0,0.9736014,1.6260642,0.0,2,0,0,0
145757088,34.03369640204058,108.76349625068136,449.52634,412.13342,-0.0,0.97357225,1.6258965,0.0,2,0,0,0
145965838,34.0336951724792,108.76349532075406,449.49014,412.07663,-0.0,0.97377557,1.6258705,0.0,2,0,0,0
146164380,34.0336938896327,108.76349449997126,449.472,412.0381,-0.0,0.9736884,1.6262519,0.0,2,0,0,0
146363043,34.033692545286684,108.76349371493532,449.47217,412.01855,-0.0,0.97359484,1.626084,0.0,2,0,0,0
146561726,34.033691069414104,108.76349286668594,449.47778,412.00397,-0.0,0.973511,1.6259177,0.0,2,0,0,0
146760507,34.03368969698946,108.76349212832574,449.48355,411.99005,-0.0,0.9734211,1.626301,0.0,2,0,0,0
146959086,34.03368856394088,108.763491366389,449.5003,411.9867,-0.0,0.97331744,1.6261355,0.0,2,0,0,0
147162734,34.033687507294,108.76349075041934,449.52826,411.9952,-0.0,0.97319424,1.6259696,0.0,2,0,0,0
147361434,34.033686595671206,108.7634902440696,449.56342,412.00983,-0.0,0.9730688,1.6258085,0.0,2,0,0,0
147560172,34.03368608994523,108.76349006415796,449.60522,412.0323,-0.0,0.9729423,1.6261957,0.0,2,0,0,0
147763746,34.03368566396972,108.76349034079749,449.6437,412.05048,-0.0,0.9728214,1.6260308,0.0,2,0,0,0
147962427,34.033685123643544,108.7634911659117,449.6801,412.0664,-0.0,0.97281355,1.625914,0.0,2,0,0,0
148161113,34.03368450588393,108.7634921854905,449.71158,412.07816,-0.0,0.97265023,1.6262964,0.0,2,0,0,0
148359828,34.03368389013031,108.76349275367187,449.74493,412.0915,-0.0,0.972481,1.6261281,0.0,2,0,0,0
148563474,34.03368342185023,108.76349279703707,449.77362,412.10046,-0.0,0.972889,1.6261774,0.0,2,0,0,0
148762118,34.03368292748456,108.76349291021909,449.78375,412.09024,-0.0,0.97269315,1.6265619,0.0,2,0,0,0
148960799,34.03368243697474,108.7634933416851,449.7842,412.07068,-0.0,0.97248375,1.6263906,0.0,2,0,0,0
149159549,34.033681864243135,108.76349374199981,449.78546,412.05185,-0.0,0.97225446,1.6262184,0.0,2,0,0,0
149363129,34.0336809468711,108.76349389273052,449.78864,412.03513,-0.0,0.9720169,1.626601,0.0,2,0,0,0
149561826,34.033679982003456,108.76349377891124,449.7814,412.00797,-0.0,0.9717811,1.6264234,0.0,2,0,0,0
149760531,34.033679049203485,108.76349355168364,449.77075,411.9772,-0.0,0.97155523,1.6262453,0.0,2,0,0,0
149959205,34.0336781351564,108.76349339864014,449.7668,411.9536,-0.0,0.97134703,1.6260704,0.0,2,0,0,0
150162821,34.033677253563226,108.76349327130434,449.76636,411.93234,-0.0,0.97112894,1.6264476,0.0,2,0,0,0
150361566,34.033676398231506,108.76349310455814,449.76968,411.91605,-0.0,0.97094566,1.6262729,0.0,2,0,0,0
150565150,34.033675510519025,108.76349302549175,449.76868,411.89514,-0.0,0.9707681,1.6261013,0.0,2,0,0,0
150763831,34.03367457854281,108.76349299229382,449.7699,411.8766,-0.0,0.97060436,1.6259309,0.0,2,0,0,0
150962513,34.03367370827284,108.76349284790227,449.77942,411.86624,-0.0,0.9704356,1.6263138,0.0,2,0,0,0
151166162,34.03367282880864,108.7634926387859,449.78323,411.85,-0.0,0.97026235,1.6261451,0.0,2,0,0,0
151364842,34.03367197515527,108.76349222146119,449.77783,411.82477,-0.0,0.9700956,1.6259776,0.0,2,0,0,0
151563518,34.03367101733192,108.76349143358861,449.76993,411.7953,-0.0,0.9699052,1.6263615,0.0,2,0,0,0
151762205,34.03366975306198,108.7634904599254,449.76328,411.76974,-0.0,0.9697462,1.6261952,0.0,2,0,0,0
151960886,34.03366839502849,108.76348954374282,449.74844,411.7343,-0.0,0.9695811,1.6260307,0.0,2,0,0,0
152164534,34.033667043731974,108.76348865815291,449.74075,411.70682,-0.0,0.96942747,1.6258652,0.0,2,0,0,0
152363215,34.03366577641346,108.7634878776708,449.73743,411.6835,-0.0,0.969285,1.6262497,0.0,2,0,0,0
152561897,34.03366448927042,108.76348724578476,449.73288,411.65936,-0.0,0.9691694,1.6260883,0.0,2,0,0,0
152765544,34.03366324827802,108.76348659090232,449.72406,411.63004,-0.0,0.96903527,1.6259252,0.0,2,0,0,0
152964437,34.03366210525626,108.76348600763713,449.72144,411.60782,-0.0,0.9689276,1.6257654,0.0,2,0,0,0
153157942,34.03366094574587,108.76348537026558,449.7232,411.58948,-0.0,0.96855277,1.6260129,0.0,2,0,0,0
153366555,34.033659694242665,108.76348463207097,449.72913,411.5754,-0.0,0.9687305,1.626001,0.0,2,0,0,0
153565238,34.03365850202091,108.76348390060328,449.73203,411.5586,-0.0,0.96865696,1.6258454,0.0,2,0,0,0
153764075,34.03365721126248,108.7634831054046,449.73172,411.5376,-0.0,0.96855235,1.6262363,0.0,2,0,0,0
153962598,34.03365583845156,108.76348223765727,449.73267,411.5175,-0.0,0.96839327,1.626077,0.0,2,0,0,0
154161279,34.033654598638,108.76348139052546,449.7251,411.49146,-0.0,0.9683036,1.625922,0.0,2,0,0,0
154359961,34.03365371103105,108.76348054186086,449.72134,411.46732,-0.0,0.96819204,1.6257629,0.0,2,0,0,0
154568725,34.03365323938482,108.76347966779765,449.71954,411.4454,-0.0,0.9683601,1.6262934,0.0,2,0,0,0
154767259,34.03365286320079,108.76347897203276,449.71207,411.41824,-0.0,0.9682666,1.626133,0.0,2,0,0,0
154960971,34.03365252725411,108.76347837634594,449.70627,411.39246,-0.0,0.96791047,1.6258336,0.0,2,0,0,0
155164621,34.03365219906936,108.76347783085346,449.70325,411.36923,-0.0,0.9678306,1.6262214,0.0,2,0,0,0
155363450,34.03365182893646,108.76347729264704,449.69955,411.34552,-0.0,0.9677474,1.6260599,0.0,2,0,0,0
155566962,34.03365135181459,108.76347666750645,449.69635,411.32266,-0.0,0.96769994,1.6258984,0.0,2,0,0,0
155765630,34.03365091749405,108.76347595750107,449.68738,411.29376,-0.0,0.9676481,1.6257412,0.0,2,0,0,0
155964311,34.03365048041192,108.76347528502244,449.6794,411.26547,-0.0,0.96757096,1.626129,0.0,2,0,0,0
156163056,34.03365002182819,108.76347458251007,449.6711,411.23822,-0.0,0.9675263,1.625969,0.0,2,0,0,0
156361680,34.03364955005386,108.76347397769561,449.66714,411.2135,-0.0,0.9674571,1.6263517,0.0,2,0,0,0
156565321,34.033649021339585,108.7634734195569,449.66428,411.19095,-0.0,0.96738887,1.626184,0.0,2,0,0,0
156764002,34.03364844172325,108.76347288352459,449.65863,411.16464,-0.0,0.9673371,1.6260191,0.0,2,0,0,0
156962712,34.0336479770291,108.76347237249593,449.65588,411.14197,-0.0,0.96728504,1.6258554,0.0,2,0,0,0
157161366,34.03364753245981,108.7634717994332,449.65158,411.11783,-0.0,0.96723926,1.6262397,0.0,2,0,0,0
157360067,34.03364669084554,108.76347128068517,449.64932,411.0953,-0.0,0.96716493,1.6260715,0.0,2,0,0,0
157563695,34.033645219635915,108.76347072348102,449.65048,411.07654,-0.0,0.9671235,1.6258996,0.0,2,0,0,0
157762374,34.033643568656395,108.76347013028244,449.6487,411.05548,-0.0,0.9671106,1.6262792,0.0,2,0,0,0
157961057,34.0336420195409,108.76346943193418,449.64624,411.0324,-0.0,0.9670835,1.6261035,0.0,2,0,0,0
158164704,34.033640339696746,108.76346879735904,449.64496,411.01114,-0.0,0.96705216,1.6264806,0.0,2,0,0,0
158358418,34.03363859189633,108.76346835662746,449.64673,410.9934,-0.0,0.96674186,1.6261641,0.0,2,0,0,0
158557100,34.03363674064089,108.76346800651511,449.65048,410.97644,-0.0,0.96670485,1.6259936,0.0,2,0,0,0
158760778,34.033634759904785,108.76346776385014,449.6557,410.96234,-0.0,0.96670115,1.6258289,0.0,2,0,0,0
158959429,34.0336327887103,108.76346759379618,449.6564,410.94247,-0.0,0.96667516,1.6262124,0.0,2,0,0,0
159168044,34.03363095811187,108.76346736530932,449.66464,410.9309,-0.0,0.9669483,1.6261848,0.0,2,0,0,0
159366726,34.03362943840672,108.76346719032759,449.6681,410.91406,-0.0,0.9669201,1.6260138,0.0,2,0,0,0
159565406,34.03362799722032,108.76346701400018,449.66592,410.8921,-0.0,0.96690404,1.6263915,0.0,2,0,0,0
159764119,34.03362660432024,108.7634668653261,449.66916,410.87543,-0.0,0.96688294,1.6262197,0.0,2,0,0,0
159962768,34.033625336235275,108.76346665635629,449.6702,410.85587,-0.0,0.9668311,1.626042,0.0,2,0,0,0
160161457,34.03362401936627,108.76346630112968,449.67276,410.8391,-0.0,0.9668094,1.6264164,0.0,2,0,0,0
160365098,34.03362248674425,108.76346590583114,449.68182,410.8278,-0.0,0.9667491,1.6262367,0.0,2,0,0,0
160563779,34.03362082878395,108.76346557403662,449.68753,410.8135,-0.0,0.966704,1.6260632,0.0,2,0,0,0
160762646,34.03361915679243,108.76346528179735,449.6913,410.7974,-0.0,0.966649,1.6258916,0.0,2,0,0,0
160966108,34.033617513961424,108.76346502542883,449.69394,410.77982,-0.0,0.96656674,1.626268,0.0,2,0,0,0
161164789,34.03361576652186,108.76346486897326,449.6924,410.758,-0.0,0.96649384,1.6260997,0.0,2,0,0,0
161363490,34.033613948642675,108.76346470156831,449.6899,410.73663,-0.0,0.96643746,1.6259321,0.0,2,0,0,0
161562307,34.033612048547916,108.76346440823282,449.68637,410.71164,-0.0,0.9663454,1.6263137,0.0,2,0,0,0
161760833,34.03360998710146,108.76346405791439,449.6745,410.68048,-0.0,0.9662555,1.6261457,0.0,2,0,0,0
161959513,34.03360797604242,108.76346365930576,449.65982,410.6456,-0.0,0.9661581,1.6259792,0.0,2,0,0,0
162163162,34.033606012883425,108.76346314991763,449.64667,410.61234,-0.0,0.9660727,1.6258138,0.0,2,0,0,0
162361965,34.033603965630746,108.76346258588525,449.63635,410.5819,-0.0,0.96600854,1.6261958,0.0,2,0,0,0
162560554,34.033601927186076,108.76346195307113,449.62753,410.55432,-0.0,0.9659941,1.6260335,0.0,2,0,0,0
162759206,34.03359987631354,108.76346116329896,449.6201,410.52686,-0.0,0.96600854,1.6258708,0.0,2,0,0,0
162962852,34.0335978764029,108.76346026121557,449.62906,410.51575,-0.0,0.9660317,1.6262497,0.0,2,0,0,0
163161615,34.03359605272457,108.76345951629675,449.64297,410.50977,-0.0,0.9660639,1.6260809,0.0,2,0,0,0
163365184,34.03359436466836,108.76345892353353,449.654,410.50104,-0.0,0.9661183,1.6259168,0.0,2,0,0,0
163563863,34.033592657769496,108.76345838967886,449.67273,410.49982,-0.0,0.96620226,1.6263033,0.0,2,0,0,0
163762590,34.033590805574654,108.76345793698425,449.6884,410.49548,-0.0,0.9662623,1.6261357,0.0,2,0,0,0
163961327,34.03358895355142,108.76345751920833,449.6966,410.48376,-0.0,0.9662994,1.625966,0.0,2,0,0,0
164164873,34.03358690858057,108.76345715676068,449.69977,410.46625,-0.0,0.9663072,1.6263463,0.0,2,0,0,0
164363563,34.03358478267275,108.76345696398043,449.6929,410.43958,-0.0,0.9663065,1.62618,0.0,2,0,0,0
164567203,34.033582790079436,108.76345670616448,449.68213,410.40872,-0.0,0.9662798,1.626015,0.0,2,0,0,0
164765921,34.033580975390386,108.76345639860898,449.67844,410.385,-0.0,0.9662238,1.6258527,0.0,2,0,0,0
164964565,34.03357909534745,108.76345599968975,449.6763,410.3628,-0.0,0.9661572,1.6262385,0.0,2,0,0,0
165163245,34.03357704812939,108.7634555805071,449.67105,410.33765,-0.0,0.9660812,1.6260763,0.0,2,0,0,0
165366893,34.03357503246458,108.76345513843161,449.66803,410.3147,-0.0,0.9659964,1.6259086,0.0,2,0,0,0
165565584,34.033573137309524,108.76345467526377,449.66293,410.28973,-0.0,0.96590513,1.6262887,0.0,2,0,0,0
165764256,34.03357121299404,108.76345422523973,449.65283,410.2593,-0.0,0.9658159,1.6261232,0.0,2,0,0,0
165962938,34.033569193572426,108.76345367346133,449.6412,410.2263,-0.0,0.9656948,1.6259563,0.0,2,0,0,0
166166584,34.033567253698585,108.76345305126577,449.6339,410.20123,-0.0,0.9656218,1.6263403,0.0,2,0,0,0
166365267,34.03356535165646,108.76345257491299,449.63324,410.1802,-0.0,0.9655081,1.6261748,0.0,2,0,0,0
166563946,34.03356329842633,108.76345221054062,449.6347,410.162,-0.0,0.96541774,1.6260132,0.0,2,0,0,0
