timestamp,timestamp_sample,control[0],control[1],control[2],control[3],control[4],control[5],control[6],control[7]
85851023,85850160,0.000274612,0.142593,-0.00292487,0.108509,0.0,0.0,0.0,-1.0
85853546,85852678,0.135247,0.0552053,0.00455454,0.108509,0.0,0.0,0.0,-1.0
85953630,85952763,-0.172239,-0.147281,-0.00582995,0.108509,0.0,0.0,0.0,-1.0
86051230,86050371,0.0371967,0.12982,0.010024,0.108509,0.0,0.0,0.0,-1.0
86153838,86152984,0.235519,-0.0403017,0.0119915,0.109527,0.0,0.0,0.0,-1.0
86256469,86255597,-0.0545256,-0.0351225,-0.00327175,0.108509,0.0,0.0,0.0,-1.0
86354058,86353205,0.146293,-0.00448208,-0.00523169,0.109527,0.0,0.0,0.0,-1.0
86454178,86453317,-0.224858,0.215712,0.0110788,0.108509,0.0,0.0,0.0,-1.0
86551788,86550925,-0.1436,0.36333,0.00365173,0.108509,0.0,0.0,0.0,-1.0
86654404,86653536,0.0894719,-0.288509,-0.00698934,0.108509,0.0,0.0,0.0,-1.0
86752000,86751143,-0.236716,0.304605,-0.0125203,0.108509,0.0,0.0,0.0,-1.0
86859628,86858765,-0.0766,0.166733,0.000879765,0.108509,0.0,0.0,0.0,-1.0
86954720,86953867,-0.302084,0.53012,-0.00639241,0.108509,0.0,0.0,0.0,-1.0
87052343,87051477,0.0392409,-0.307271,-0.00493091,0.108509,0.0,0.0,0.0,-1.0
87154946,87154087,-0.353253,0.43616,-0.00729629,0.108509,0.0,0.0,0.0,-1.0
87252558,87251695,0.130942,-0.0400945,0.00434842,0.133964,0.0,0.0,0.0,-1.0
87355166,87354311,-0.0411579,0.175393,-0.00574756,0.171636,0.0,0.0,0.0,-1.0
87452774,87451916,-0.114117,0.0376648,-0.0185225,0.211345,0.0,0.0,0.0,-1.0
87552901,87552029,-0.111642,-0.0704088,0.00716932,0.209309,0.0,0.0,0.0,-1.0
87655493,87654639,-0.050579,0.0588282,-0.00963019,0.208291,0.0,0.0,0.0,-1.0
87753115,87752249,-0.272207,0.0886008,-0.0126899,0.206255,0.0,0.0,0.0,-1.0
87855726,87854860,-0.0385039,-0.0311554,-0.0368844,0.210327,0.0,0.0,0.0,-1.0
87953334,87952468,-0.131452,-0.0358531,-0.0238208,0.241891,0.0,0.0,0.0,-1.0
88053435,88052578,-0.000847055,0.0988901,-0.0347885,0.264291,0.0,0.0,0.0,-1.0
88151054,88150186,0.161954,-0.126896,-0.0273875,0.3264,0.0,0.0,0.0,-1.0
88253666,88252799,-0.0277469,0.019222,-0.0239174,0.3264,0.0,0.0,0.0,-1.0
88356287,88355412,-0.0225495,0.0174042,-0.0211309,0.325382,0.0,0.0,0.0,-1.0
88453889,88453023,0.0361572,0.0019932,-0.0200062,0.324364,0.0,0.0,0.0,-1.0
88553990,88553130,0.0476139,-0.0245564,-0.0179685,0.325382,0.0,0.0,0.0,-1.0
88651607,88650740,-0.0280161,-0.0511831,-0.0143607,0.325382,0.0,0.0,0.0,-1.0
88754226,88753352,0.0703873,0.0399111,-0.0226543,0.346764,0.0,0.0,0.0,-1.0
88851834,88850967,-0.191306,0.0266212,-0.0171619,0.402764,0.0,0.0,0.0,-1.0
88954470,88953581,-0.00378048,0.0234626,-0.0184415,0.429236,0.0,0.0,0.0,-1.0
89054540,89053683,-0.0933721,0.0143318,-0.019051,0.429236,0.0,0.0,0.0,-1.0
89152147,89151293,-0.145322,0.0219264,-0.0141548,0.421091,0.0,0.0,0.0,-1.0
89254783,89253904,-0.250556,0.0734694,-0.00995757,0.423127,0.0,0.0,0.0,-1.0
89352369,89351512,0.0662157,0.103046,-0.0226053,0.422109,0.0,0.0,0.0,-1.0
89454982,89454125,0.364009,-0.00669561,-0.0239364,0.423127,0.0,0.0,0.0,-1.0
89552594,89551736,0.280766,-0.0774444,-0.015549,0.423127,0.0,0.0,0.0,-1.0
89652697,89651843,-0.0232886,-0.0544036,-0.00626433,0.423127,0.0,0.0,0.0,-1.0
89755319,89754456,-0.0944004,0.00851094,-0.00848551,0.423127,0.0,0.0,0.0,-1.0
89852920,89852066,-0.387897,0.0104739,-0.00107083,0.423127,0.0,0.0,0.0,-1.0
89955534,89954677,-0.613801,0.125967,-0.0128476,0.423127,0.0,0.0,0.0,-1.0
90053159,90052287,0.257668,-0.0501977,-0.00816327,0.413964,0.0,0.0,0.0,-1.0
90153252,90152396,0.671118,0.0496814,-0.0248588,0.379345,0.0,0.0,0.0,-1.0
90250860,90250003,0.196721,-0.0636661,-0.011072,0.379345,0.0,0.0,0.0,-1.0
90353474,90352617,0.234912,-0.0683174,-0.00629143,0.379345,0.0,0.0,0.0,-1.0
90451094,90450226,-0.660458,-0.0296517,0.0144763,0.3824,0.0,0.0,0.0,-1.0
90553708,90552847,-0.451644,0.09428,-0.0111579,0.383418,0.0,0.0,0.0,-1.0
90651318,90650446,-0.0220421,-0.0810939,-0.0169884,0.3824,0.0,0.0,0.0,-1.0
90751430,90750565,0.050811,-0.0198419,-0.0342771,0.3824,0.0,0.0,0.0,-1.0
90851526,90850667,0.170043,0.0150912,-0.0453154,0.3824,0.0,0.0,0.0,-1.0
90951634,90950777,0.391506,0.0352953,-0.0404361,0.383418,0.0,0.0,0.0,-1.0
91054260,91053394,0.268786,0.117346,-0.0332661,0.383418,0.0,0.0,0.0,-1.0
91154362,91153501,0.294491,-0.0230601,-0.0272617,0.3824,0.0,0.0,0.0,-1.0
91251966,91251109,-0.319612,-0.0166913,-0.0233782,0.383418,0.0,0.0,0.0,-1.0
91352081,91351222,-0.497439,-0.0449641,-0.014331,0.3824,0.0,0.0,0.0,-1.0
91452187,91451331,-0.382194,-0.0187396,-0.0223953,0.383418,0.0,0.0,0.0,-1.0
91554798,91553944,-0.288183,0.0199758,-0.0288999,0.3824,0.0,0.0,0.0,-1.0
91652409,91651552,0.413647,-0.0472307,-0.0366075,0.3824,0.0,0.0,0.0,-1.0
91752520,91751662,0.294064,0.0466698,-0.0286451,0.383418,0.0,0.0,0.0,-1.0
91852631,91851773,-0.087192,-0.0540203,-0.0206805,0.380364,0.0,0.0,0.0,-1.0
91952741,91951884,-0.428543,-0.0468754,-0.0334139,0.377309,0.0,0.0,0.0,-1.0
92055365,92054499,-0.528395,0.023114,-0.0299013,0.399709,0.0,0.0,0.0,-1.0
92152962,92152105,-0.203318,0.107903,-0.0508259,0.399709,0.0,0.0,0.0,-1.0
92253092,92252218,0.0283444,0.160037,-0.0580797,0.396655,0.0,0.0,0.0,-1.0
92353189,92352327,0.315143,-0.0149968,-0.0428491,0.396655,0.0,0.0,0.0,-1.0
92453308,92452438,0.622112,-0.0447784,-0.0350865,0.396655,0.0,0.0,0.0,-1.0
92555905,92555051,0.677467,0.0725484,-0.0532714,0.395636,0.0,0.0,0.0,-1.0
92653518,92652659,-0.0965902,-0.00680624,-0.0264501,0.395636,0.0,0.0,0.0,-1.0
92753648,92752770,-0.601805,-0.0142134,-0.0121172,0.394618,0.0,0.0,0.0,-1.0
92853750,92852881,-0.737414,-0.0508959,-0.0159687,0.395636,0.0,0.0,0.0,-1.0
92953854,92952991,-0.400701,0.0441702,-0.0286834,0.395636,0.0,0.0,0.0,-1.0
93051452,93050599,0.481502,-0.0731388,-0.0276366,0.395636,0.0,0.0,0.0,-1.0
93154079,93153215,0.42922,-0.0170547,-0.0337432,0.394618,0.0,0.0,0.0,-1.0
93254180,93253324,0.546445,-0.0477672,-0.0331448,0.394618,0.0,0.0,0.0,-1.0
93354312,93353434,0.279341,-0.0710546,-0.0183964,0.394618,0.0,0.0,0.0,-1.0
93454419,93453545,-0.0667148,0.0504537,-0.0179166,0.394618,0.0,0.0,0.0,-1.0
93552021,93551157,-0.367933,-0.0131432,-0.00977737,0.394618,0.0,0.0,0.0,-1.0
93654628,93653768,-0.23881,-0.0285861,-0.0168446,0.395636,0.0,0.0,0.0,-1.0
93752230,93751375,0.258002,-0.0175934,-0.0261441,0.395636,0.0,0.0,0.0,-1.0
93852345,93851486,0.388598,0.0736154,-0.029806,0.394618,0.0,0.0,0.0,-1.0
93954956,93954099,0.454119,0.10102,-0.0257426,0.394618,0.0,0.0,0.0,-1.0
94052569,94051707,-0.544067,0.0305262,0.00410981,0.394618,0.0,0.0,0.0,-1.0
94155199,94154333,-0.156194,-0.156429,-0.0211687,0.396655,0.0,0.0,0.0,-1.0
94252782,94251929,0.0070699,-0.0661715,-0.0296806,0.425164,0.0,0.0,0.0,-1.0
94352893,94352040,-0.0475903,0.144694,-0.0243347,0.432291,0.0,0.0,0.0,-1.0
94453003,94452151,0.286052,0.0327977,-0.0274336,0.429236,0.0,0.0,0.0,-1.0
94553120,94552262,0.333344,0.100146,-0.0271965,0.4272,0.0,0.0,0.0,-1.0
94655732,94654875,0.519002,0.0855867,-0.0221972,0.428218,0.0,0.0,0.0,-1.0
94753351,94752483,0.0420648,0.0915043,-0.0257708,0.4272,0.0,0.0,0.0,-1.0
94853448,94852594,-0.343819,-0.0146763,-0.0197599,0.4272,0.0,0.0,0.0,-1.0
94953571,94952705,-0.442259,-0.130152,-0.0166327,0.4272,0.0,0.0,0.0,-1.0
95053678,95052816,-0.531663,0.0278279,-0.0206076,0.426182,0.0,0.0,0.0,-1.0
95151295,95150424,0.277268,-0.058314,-0.0281619,0.432291,0.0,0.0,0.0,-1.0
95253891,95253038,-0.00312317,0.110052,-0.0418531,0.430255,0.0,0.0,0.0,-1.0
95354008,95353149,0.319896,0.106857,-0.0543502,0.399709,0.0,0.0,0.0,-1.0
95454119,95453260,0.393763,-0.0408871,-0.0565402,0.401745,0.0,0.0,0.0,-1.0
95554226,95553371,0.389122,-0.0464257,-0.0561486,0.398691,0.0,0.0,0.0,-1.0
95651839,95650979,-0.611249,0.0546704,-0.0556306,0.398691,0.0,0.0,0.0,-1.0
95754447,95753594,-0.571941,0.0598481,-0.0397147,0.400727,0.0,0.0,0.0,-1.0
95852061,95851201,0.179848,0.0314695,-0.0502679,0.398691,0.0,0.0,0.0,-1.0
95954681,95953816,0.307564,-0.0218757,-0.0431948,0.397673,0.0,0.0,0.0,-1.0
96054778,96053925,0.391015,-0.00785876,-0.0442543,0.399709,0.0,0.0,0.0,-1.0
96152391,96151534,-0.00665512,-0.0662468,-0.028407,0.399709,0.0,0.0,0.0,-1.0
96255004,96254147,-0.0163666,0.066733,-0.0363264,0.399709,0.0,0.0,0.0,-1.0
96352614,96351755,-0.540813,-0.0442708,-0.0414117,0.400727,0.0,0.0,0.0,-1.0
96455241,96454370,-0.244332,-0.103277,-0.0355809,0.400727,0.0,0.0,0.0,-1.0
96552847,96551978,0.0543173,0.0120256,-0.0399699,0.401745,0.0,0.0,0.0,-1.0
96652945,96652088,0.210706,0.0476518,-0.0473002,0.402764,0.0,0.0,0.0,-1.0
96755555,96754702,0.279345,0.0318524,-0.0443468,0.402764,0.0,0.0,0.0,-1.0
96853171,96852310,0.197314,-0.0191306,-0.0326093,0.402764,0.0,0.0,0.0,-1.0
96955792,96954924,0.289571,-0.0722433,-0.0208453,0.402764,0.0,0.0,0.0,-1.0
97053389,97052532,-0.575946,-0.0763067,-0.0108169,0.402764,0.0,0.0,0.0,-1.0
97153503,97152643,-0.468097,-0.0234919,-0.0191441,0.402764,0.0,0.0,0.0,-1.0
97251119,97250253,0.016718,-0.0193788,-0.0295103,0.402764,0.0,0.0,0.0,-1.0
97353722,97352865,-0.0474679,-0.0270553,-0.0229614,0.402764,0.0,0.0,0.0,-1.0
97456350,97455479,-0.197949,0.115805,-0.023229,0.402764,0.0,0.0,0.0,-1.0
97553946,97553087,0.429296,-0.0882237,-0.0212016,0.402764,0.0,0.0,0.0,-1.0
97654068,97653204,0.362358,-0.00400038,-0.0231408,0.401745,0.0,0.0,0.0,-1.0
97751666,97750806,-0.502386,-0.111008,0.00793359,0.397673,0.0,0.0,0.0,-1.0
97854295,97853420,-0.305774,-0.0669637,-0.0233174,0.375273,0.0,0.0,0.0,-1.0
97951882,97951028,-0.0940247,0.0234364,-0.0249387,0.376291,0.0,0.0,0.0,-1.0
98054500,98053642,-0.255755,0.00125183,-0.026872,0.378327,0.0,0.0,0.0,-1.0
98154624,98153753,0.303634,-0.0563943,-0.0301929,0.378327,0.0,0.0,0.0,-1.0
98252229,98251363,0.240928,-0.00163646,-0.0275835,0.378327,0.0,0.0,0.0,-1.0
98354853,98353980,0.360527,-0.0562464,-0.0170128,0.378327,0.0,0.0,0.0,-1.0
98452441,98451585,-0.492387,-0.0164608,0.00358184,0.378327,0.0,0.0,0.0,-1.0
98555064,98554197,-0.604283,-0.106863,-0.00426517,0.378327,0.0,0.0,0.0,-1.0
98652676,98651807,-0.126216,-0.0433233,-0.00564755,0.378327,0.0,0.0,0.0,-1.0
98752770,98751916,0.222871,0.0204556,-0.0150327,0.377309,0.0,0.0,0.0,-1.0
98852903,98852029,0.453568,0.00457736,-0.0331351,0.378327,0.0,0.0,0.0,-1.0
98952995,98952138,0.618064,-0.0152742,-0.037446,0.379345,0.0,0.0,0.0,-1.0
99055614,99054754,0.71026,0.0943138,-0.029041,0.378327,0.0,0.0,0.0,-1.0
99153231,99152368,-0.0011694,-0.0345411,-0.0139424,0.378327,0.0,0.0,0.0,-1.0
99250826,99249968,-0.62483,0.022548,-0.0185657,0.380364,0.0,0.0,0.0,-1.0
99350939,99350079,-0.472424,0.0251461,-0.0255555,0.379345,0.0,0.0,0.0,-1.0
99451052,99450190,-0.00119733,0.0598871,-0.0460786,0.379345,0.0,0.0,0.0,-1.0
99556164,99555307,-0.399424,0.158226,-0.0455722,0.379345,0.0,0.0,0.0,-1.0
99653777,99652917,0.306777,-0.0302667,-0.0527419,0.379345,0.0,0.0,0.0,-1.0
99753883,99753026,0.276272,0.0269878,-0.0402968,0.380364,0.0,0.0,0.0,-1.0
99851494,99850637,0.189866,-0.0763476,-0.0319316,0.378327,0.0,0.0,0.0,-1.0
99954110,99953250,0.0240613,-0.0444235,-0.0256518,0.379345,0.0,0.0,0.0,-1.0
100051719,100050856,-0.414597,0.0027809,-0.0215312,0.377309,0.0,0.0,0.0,-1.0
100154341,100153478,-0.29254,0.00402694,-0.0323239,0.387491,0.0,0.0,0.0,-1.0
100251935,100251078,0.0175534,-0.0728,-0.0403393,0.398691,0.0,0.0,0.0,-1.0
100352051,100351189,0.401845,-0.052113,-0.0376561,0.403782,0.0,0.0,0.0,-1.0
100452172,100451307,0.408307,0.0523901,-0.0403289,0.429236,0.0,0.0,0.0,-1.0
100552287,100551411,-0.0654186,0.0295914,-0.0181392,0.426182,0.0,0.0,0.0,-1.0
100654885,100654027,-0.318872,-0.200415,-0.0147744,0.424145,0.0,0.0,0.0,-1.0
100752491,100751633,-0.272889,-0.0938877,-0.016038,0.424145,0.0,0.0,0.0,-1.0
100852604,100851747,0.143589,-0.0846559,-0.0338847,0.425164,0.0,0.0,0.0,-1.0
100952725,100951855,0.575743,0.0363227,-0.0402785,0.424145,0.0,0.0,0.0,-1.0
101052825,101051966,0.674336,-0.111219,-0.0392674,0.424145,0.0,0.0,0.0,-1.0
101155442,101154580,0.424623,0.0448682,-0.050705,0.424145,0.0,0.0,0.0,-1.0
101253051,101252188,-0.0888605,-0.101567,-0.0471304,0.424145,0.0,0.0,0.0,-1.0
101353156,101352300,-0.477767,-0.0238334,-0.0539604,0.424145,0.0,0.0,0.0,-1.0
101453291,101452416,-0.358997,0.0218448,-0.0624042,0.425164,0.0,0.0,0.0,-1.0
101553378,101552521,-0.105213,-0.19994,-0.0702259,0.424145,0.0,0.0,0.0,-1.0
101655993,101655137,-0.408222,-0.019021,-0.0709997,0.424145,0.0,0.0,0.0,-1.0
101753618,101752743,0.168218,0.0148681,-0.0642736,0.425164,0.0,0.0,0.0,-1.0
101853712,101852855,0.40952,0.0802507,-0.0761946,0.425164,0.0,0.0,0.0,-1.0
101953832,101952966,0.158092,0.0665953,-0.049353,0.425164,0.0,0.0,0.0,-1.0
102053937,102053077,-0.194684,-0.056649,-0.0396286,0.425164,0.0,0.0,0.0,-1.0
102151553,102150698,-0.231016,-0.0876232,-0.0344171,0.425164,0.0,0.0,0.0,-1.0
102254156,102253299,-0.231234,-0.018627,-0.0188527,0.424145,0.0,0.0,0.0,-1.0
102354278,102353410,-0.0736161,0.111033,-0.0241223,0.425164,0.0,0.0,0.0,-1.0
102451875,102451019,0.313665,0.0535509,-0.0451451,0.423127,0.0,0.0,0.0,-1.0
102554491,102553634,0.61565,0.0189036,-0.0471618,0.424145,0.0,0.0,0.0,-1.0
102652106,102651240,-0.252476,-0.0369667,-0.0306368,0.424145,0.0,0.0,0.0,-1.0
102754723,102753858,-0.429926,0.023211,-0.0231608,0.424145,0.0,0.0,0.0,-1.0
102852325,102851463,-0.282506,0.00426795,-0.0316827,0.425164,0.0,0.0,0.0,-1.0
102952430,102951574,0.338053,-0.0128204,-0.0397996,0.425164,0.0,0.0,0.0,-1.0
103055046,103054188,0.291898,0.0412686,-0.0435329,0.423127,0.0,0.0,0.0,-1.0
103152648,103151796,0.416257,-0.0419813,-0.0257786,0.422109,0.0,0.0,0.0,-1.0
103255280,103254410,0.312327,0.0453393,-0.0159641,0.417018,0.0,0.0,0.0,-1.0
103352871,103352018,-0.203935,-0.0628483,-0.0301804,0.407855,0.0,0.0,0.0,-1.0
103452981,103452129,-0.460656,-0.0816957,-0.030471,0.402764,0.0,0.0,0.0,-1.0
103553102,103552240,-0.317619,0.0930894,-0.0226844,0.402764,0.0,0.0,0.0,-1.0
103653205,103652352,0.0941679,-0.0240497,-0.0440542,0.409891,0.0,0.0,0.0,-1.0
103755821,103754965,0.0821816,-0.0166093,-0.0183316,0.403782,0.0,0.0,0.0,-1.0
103853444,103852588,0.444897,-0.0619051,-0.0251423,0.398691,0.0,0.0,0.0,-1.0
103953562,103952687,0.376758,-0.0915884,-0.0123128,0.399709,0.0,0.0,0.0,-1.0
104053663,104052795,0.119971,-0.0126506,-0.0217947,0.402764,0.0,0.0,0.0,-1.0
104153759,104152906,-0.253444,-0.10406,-0.0102665,0.403782,0.0,0.0,0.0,-1.0
104251374,104250515,-0.391643,0.0431622,-0.0368197,0.402764,0.0,0.0,0.0,-1.0
104353984,104353128,-0.288772,0.0210745,-0.0200496,0.402764,0.0,0.0,0.0,-1.0
104454112,104453239,0.0049609,-0.0416653,-0.0459765,0.403782,0.0,0.0,0.0,-1.0
104554227,104553350,0.522324,-0.103002,-0.0389646,0.402764,0.0,0.0,0.0,-1.0
104654319,104653461,0.538679,-0.0990394,-0.0442297,0.403782,0.0,0.0,0.0,-1.0
104751925,104751069,-0.218357,-0.0595597,-0.0231001,0.402764,0.0,0.0,0.0,-1.0
104854539,104853687,-0.0731294,-0.0719302,-0.0307621,0.403782,0.0,0.0,0.0,-1.0
104952149,104951291,-0.191473,0.0116015,-0.0404491,0.402764,0.0,0.0,0.0,-1.0
105054767,105053904,-0.114412,-0.000732756,-0.0465406,0.402764,0.0,0.0,0.0,-1.0
105154876,105154015,0.460997,-0.137813,-0.0456963,0.403782,0.0,0.0,0.0,-1.0
105252493,105251625,0.236023,-0.0206577,-0.0411026,0.403782,0.0,0.0,0.0,-1.0
105355096,105354237,0.238538,-0.073797,-0.0362783,0.402764,0.0,0.0,0.0,-1.0
105452702,105451845,-0.459847,0.00105151,-0.0477328,0.402764,0.0,0.0,0.0,-1.0
105555338,105554470,-0.468962,0.0529763,-0.0422878,0.403782,0.0,0.0,0.0,-1.0
105652927,105652067,-0.161992,-0.0400058,-0.0494032,0.403782,0.0,0.0,0.0,-1.0
105753052,105752178,0.363726,-0.0195515,-0.0541524,0.403782,0.0,0.0,0.0,-1.0
105855664,105854794,0.33658,-0.035651,-0.0510239,0.403782,0.0,0.0,0.0,-1.0
105953273,105952406,0.547835,-0.00710034,-0.0465055,0.4048,0.0,0.0,0.0,-1.0
106053366,106052510,0.249192,-0.0492744,-0.0341049,0.402764,0.0,0.0,0.0,-1.0
106153477,106152621,-0.201469,-0.0746552,-0.0326218,0.403782,0.0,0.0,0.0,-1.0
106253612,106252731,-0.364972,-0.0768618,-0.0239958,0.403782,0.0,0.0,0.0,-1.0
106351196,106350342,-0.124588,0.041872,-0.0273518,0.402764,0.0,0.0,0.0,-1.0
106453812,106452953,-0.279652,0.100478,-0.0167395,0.403782,0.0,0.0,0.0,-1.0
106556426,106555566,-0.212821,-0.0128498,-0.0158128,0.399709,0.0,0.0,0.0,-1.0
106654051,106653174,0.581149,-0.0450675,-0.0176152,0.374255,0.0,0.0,0.0,-1.0
106754145,106753285,0.411163,-0.00562523,-0.0179135,0.374255,0.0,0.0,0.0,-1.0
106851777,106850895,-0.119914,-0.0021956,-0.0162103,0.374255,0.0,0.0,0.0,-1.0
106954364,106953506,-0.211134,-0.0552457,-0.0283017,0.374255,0.0,0.0,0.0,-1.0
107051976,107051116,-0.358644,0.0550116,-0.0163007,0.376291,0.0,0.0,0.0,-1.0
107154588,107153728,-0.218887,0.120531,-0.0298785,0.376291,0.0,0.0,0.0,-1.0
107254699,107253838,0.253735,-0.0229876,-0.0371539,0.375273,0.0,0.0,0.0,-1.0
107352313,107351446,0.4423,-0.115994,-0.032691,0.375273,0.0,0.0,0.0,-1.0
107454917,107454060,0.312835,-0.104699,-0.0338227,0.375273,0.0,0.0,0.0,-1.0
107552527,107551668,-0.503609,-0.119425,-0.0274869,0.375273,0.0,0.0,0.0,-1.0
107655142,107654281,-0.53567,-0.0232447,-0.0314609,0.376291,0.0,0.0,0.0,-1.0
107752743,107751889,0.0706976,0.0186188,-0.0441639,0.375273,0.0,0.0,0.0,-1.0
107852867,107852001,0.650655,-0.0949984,-0.031318,0.375273,0.0,0.0,0.0,-1.0
107955470,107954613,0.495976,-0.0544481,-0.0423636,0.3712,0.0,0.0,0.0,-1.0
108053099,108052227,0.338869,0.0153666,-0.0218593,0.408873,0.0,0.0,0.0,-1.0
108155691,108154834,0.333746,0.0253144,-0.0423805,0.407855,0.0,0.0,0.0,-1.0
108253313,108252444,-0.495281,0.0727753,-0.0197854,0.406836,0.0,0.0,0.0,-1.0
108353420,108352552,-0.457843,-0.0323214,-0.0243747,0.406836,0.0,0.0,0.0,-1.0
108451022,108450160,0.183799,0.0466158,-0.0410484,0.406836,0.0,0.0,0.0,-1.0
108553641,108552773,0.00882788,0.000802813,-0.0367332,0.405818,0.0,0.0,0.0,-1.0
108651240,108650381,0.505889,-0.151846,-0.0448371,0.433309,0.0,0.0,0.0,-1.0
108753850,108752996,0.400038,0.0951401,-0.0485739,0.435345,0.0,0.0,0.0,-1.0
108851479,108850604,-0.0471158,-0.007202,-0.0391584,0.435345,0.0,0.0,0.0,-1.0
108951569,108950712,-0.428861,-0.0576459,-0.051462,0.435345,0.0,0.0,0.0,-1.0
109054182,109053328,-0.534288,-0.0311747,-0.0335455,0.435345,0.0,0.0,0.0,-1.0
109151795,109150933,0.269728,-0.0916781,-0.0362676,0.434327,0.0,0.0,0.0,-1.0
109254418,109253548,0.445094,-0.0996885,-0.0464404,0.435345,0.0,0.0,0.0,-1.0
109352015,109351157,0.32717,-0.0445566,-0.0474276,0.435345,0.0,0.0,0.0,-1.0
109452130,109451270,-0.199099,-0.011593,-0.0300774,0.435345,0.0,0.0,0.0,-1.0
109552262,109551375,-0.547461,0.0164951,-0.019972,0.435345,0.0,0.0,0.0,-1.0
109652352,109651485,-0.203877,-0.0364449,-0.0131386,0.435345,0.0,0.0,0.0,-1.0
109754953,109754098,-0.0293514,-0.0327214,-0.0337553,0.435345,0.0,0.0,0.0,-1.0
109852586,109851706,0.512894,-0.0740911,-0.0332014,0.435345,0.0,0.0,0.0,-1.0
109952678,109951818,0.343677,0.00314094,-0.0197164,0.434327,0.0,0.0,0.0,-1.0
110055302,110054430,0.251836,0.0107067,-0.0181019,0.435345,0.0,0.0,0.0,-1.0
110152893,110152036,-0.13974,0.0708853,-0.0256456,0.435345,0.0,0.0,0.0,-1.0
110255512,110254651,0.11392,0.0498621,-0.0255448,0.433309,0.0,0.0,0.0,-1.0
110353127,110352259,-0.347502,0.00658374,-0.00551475,0.433309,0.0,0.0,0.0,-1.0
110453233,110452367,-0.464695,-0.0487844,-0.016482,0.431273,0.0,0.0,0.0,-1.0
110553351,110552477,-0.476989,0.0672863,-0.00550454,0.431273,0.0,0.0,0.0,-1.0
110653468,110652602,-0.000103868,-0.0542255,-0.0373718,0.431273,0.0,0.0,0.0,-1.0
110756058,110755200,-0.156481,0.00925345,-0.0354286,0.431273,0.0,0.0,0.0,-1.0
110853665,110852807,0.485041,-0.0643784,-0.0246079,0.433309,0.0,0.0,0.0,-1.0
110953785,110952917,0.290387,-0.0664369,-0.0185098,0.418036,0.0,0.0,0.0,-1.0
111051377,111050524,-0.27678,-0.0388723,-0.0185252,0.417018,0.0,0.0,0.0,-1.0
111153994,111153137,-0.289018,-0.0751308,-0.0109565,0.412945,0.0,0.0,0.0,-1.0
111251597,111250744,-0.110616,0.0328584,-0.02821,0.376291,0.0,0.0,0.0,-1.0
111354228,111353357,-0.115084,-0.0886777,-0.0295029,0.377309,0.0,0.0,0.0,-1.0
111454346,111453475,0.0220651,0.0548725,-0.0324521,0.377309,0.0,0.0,0.0,-1.0
111551927,111551074,0.355883,-0.0802927,-0.0474051,0.377309,0.0,0.0,0.0,-1.0
111654547,111653687,0.256629,-0.0133029,-0.0392183,0.377309,0.0,0.0,0.0,-1.0
111752147,111751295,-0.43126,-0.0343496,-0.0413997,0.374255,0.0,0.0,0.0,-1.0
111854768,111853907,-0.405071,0.0508667,-0.0416009,0.375273,0.0,0.0,0.0,-1.0
111952367,111951514,0.443844,-0.0996743,-0.054176,0.396655,0.0,0.0,0.0,-1.0
112052485,112051624,0.64422,-0.0889487,-0.0524085,0.3936,0.0,0.0,0.0,-1.0
112155107,112154237,0.361759,-0.044766,-0.033026,0.394618,0.0,0.0,0.0,-1.0
112252717,112251844,-0.00059462,-0.0850622,-0.0288337,0.394618,0.0,0.0,0.0,-1.0
112355336,112354457,0.0373569,-0.0560015,-0.0260063,0.394618,0.0,0.0,0.0,-1.0
112452917,112452064,-0.42176,-0.0976625,-0.0223693,0.399709,0.0,0.0,0.0,-1.0
112553029,112552174,-0.32643,-0.0178605,-0.0249751,0.431273,0.0,0.0,0.0,-1.0
112653137,112652284,-0.085954,0.000827036,-0.0375874,0.4272,0.0,0.0,0.0,-1.0
112753251,112752396,0.248617,-0.0900972,-0.0246293,0.4272,0.0,0.0,0.0,-1.0
112855864,112855006,0.10752,-0.0374543,-0.0331864,0.428218,0.0,0.0,0.0,-1.0
112953470,112952613,0.452749,-0.0140596,-0.0315225,0.426182,0.0,0.0,0.0,-1.0
113053586,113052723,0.271068,-0.0776314,-0.0227676,0.426182,0.0,0.0,0.0,-1.0
113153703,113152848,-0.195644,-0.0630203,-0.00657958,0.425164,0.0,0.0,0.0,-1.0
113253801,113252943,-0.344147,-0.0107965,-0.0141175,0.426182,0.0,0.0,0.0,-1.0
113351421,113350550,0.0786875,-0.0169521,-0.0261681,0.426182,0.0,0.0,0.0,-1.0
113454015,113453162,0.294854,-0.0650785,-0.0344998,0.426182,0.0,0.0,0.0,-1.0
113554131,113553278,0.597145,-0.106146,-0.0411341,0.426182,0.0,0.0,0.0,-1.0
113654252,113653382,0.541472,0.0133495,-0.0348539,0.426182,0.0,0.0,0.0,-1.0
113754354,113753492,-0.0964556,-0.0435405,-0.0243755,0.426182,0.0,0.0,0.0,-1.0
113851956,113851099,-0.51842,-0.00390664,-0.0270268,0.425164,0.0,0.0,0.0,-1.0
113954574,113953719,-0.363276,0.0109877,-0.0225811,0.425164,0.0,0.0,0.0,-1.0
114052188,114051319,0.320904,-0.0771927,-0.0453065,0.426182,0.0,0.0,0.0,-1.0
114154798,114153931,0.268662,0.0644384,-0.0558,0.425164,0.0,0.0,0.0,-1.0
114254894,114254041,0.354836,-0.0875838,-0.0499147,0.425164,0.0,0.0,0.0,-1.0
114352515,114351648,-0.0828651,-0.0592218,-0.0359057,0.426182,0.0,0.0,0.0,-1.0
114455142,114454261,0.022976,-0.0860915,-0.0258484,0.426182,0.0,0.0,0.0,-1.0
114552726,114551868,-0.390889,-0.0250463,-0.0369971,0.426182,0.0,0.0,0.0,-1.0
114655343,114654481,-0.399561,-0.0276694,-0.0247441,0.425164,0.0,0.0,0.0,-1.0
114752961,114752088,-0.0717723,-0.0220255,-0.0387415,0.425164,0.0,0.0,0.0,-1.0
114853058,114852198,0.238533,-0.0304494,-0.0305608,0.425164,0.0,0.0,0.0,-1.0
114955663,114954810,0.162791,-0.0601568,-0.0498334,0.424145,0.0,0.0,0.0,-1.0
115053285,115052417,0.422177,-0.00484072,-0.0506678,0.424145,0.0,0.0,0.0,-1.0
115153397,115152533,0.155706,-0.0343648,-0.0425154,0.424145,0.0,0.0,0.0,-1.0
115253495,115252637,-0.0115843,-0.0585333,-0.0439435,0.424145,0.0,0.0,0.0,-1.0
115353617,115352746,-0.223925,-0.1061,-0.0355139,0.424145,0.0,0.0,0.0,-1.0
115451208,115450353,0.0127286,-0.0514689,-0.0253091,0.424145,0.0,0.0,0.0,-1.0
115553826,115552966,-0.199527,0.0528643,-0.0274756,0.424145,0.0,0.0,0.0,-1.0
115653949,115653075,0.138019,0.025643,-0.0312372,0.424145,0.0,0.0,0.0,-1.0
115754045,115753185,0.460848,-0.0164897,-0.0326454,0.424145,0.0,0.0,0.0,-1.0
115854163,115853302,0.261469,0.032404,-0.0355197,0.424145,0.0,0.0,0.0,-1.0
115951764,115950902,-0.508542,-0.170035,-0.024131,0.414982,0.0,0.0,0.0,-1.0
116054371,116053514,-0.535335,0.0975869,-0.0397106,0.424145,0.0,0.0,0.0,-1.0
116151981,116151121,0.224649,0.0356579,-0.0581185,0.423127,0.0,0.0,0.0,-1.0
116254594,116253733,0.275347,-0.134238,-0.0578584,0.424145,0.0,0.0,0.0,-1.0
116354703,116353843,0.555461,-0.1355,-0.0426896,0.424145,0.0,0.0,0.0,-1.0
116452320,116451451,0.0944555,-0.102594,-0.0293426,0.424145,0.0,0.0,0.0,-1.0
116554938,116554062,0.0203084,-0.0734953,-0.0405417,0.423127,0.0,0.0,0.0,-1.0
116652536,116651670,-0.537993,-0.0197108,-0.0499695,0.424145,0.0,0.0,0.0,-1.0
116755139,116754281,-0.441246,-0.0642061,-0.0590769,0.423127,0.0,0.0,0.0,-1.0
116852744,116851889,0.18496,-0.052573,-0.0563185,0.423127,0.0,0.0,0.0,-1.0
116952854,116951997,0.505689,-0.0357812,-0.0620083,0.424145,0.0,0.0,0.0,-1.0
117055469,117054609,0.382056,-0.0261839,-0.0745504,0.424145,0.0,0.0,0.0,-1.0
117153077,117152223,0.289496,-0.0803789,-0.0552056,0.408873,0.0,0.0,0.0,-1.0
117255686,117254829,0.248207,-0.115901,-0.0475037,0.407855,0.0,0.0,0.0,-1.0
117353302,117352435,-0.262505,-0.0510398,-0.0505038,0.409891,0.0,0.0,0.0,-1.0
117450909,117450042,-0.166479,-0.081098,-0.0561064,0.409891,0.0,0.0,0.0,-1.0
117551019,117550151,-0.0431584,-0.0338049,-0.0506626,0.409891,0.0,0.0,0.0,-1.0
117651129,117650269,0.564285,-0.0531696,-0.057608,0.411927,0.0,0.0,0.0,-1.0
117756251,117755376,0.351756,-0.192415,-0.0632188,0.411927,0.0,0.0,0.0,-1.0
117853839,117852985,0.49653,-0.128973,-0.0355644,0.411927,0.0,0.0,0.0,-1.0
117953950,117953092,-0.057684,0.00198056,-0.0477655,0.411927,0.0,0.0,0.0,-1.0
118051569,118050703,-0.219978,-0.126264,-0.0379099,0.411927,0.0,0.0,0.0,-1.0
118154180,118153312,-0.226693,-0.0399362,-0.0406043,0.411927,0.0,0.0,0.0,-1.0
118251787,118250924,0.382733,-0.0225749,-0.0501439,0.411927,0.0,0.0,0.0,-1.0
118354405,118353530,0.503513,-0.0424865,-0.0446148,0.411927,0.0,0.0,0.0,-1.0
118452025,118451165,0.190952,-0.0645146,-0.0352295,0.411927,0.0,0.0,0.0,-1.0
118552116,118551249,-0.278869,0.00956533,-0.029917,0.411927,0.0,0.0,0.0,-1.0
118652231,118651357,-0.598656,-0.00595044,-0.036916,0.411927,0.0,0.0,0.0,-1.0
118752339,118751466,-0.28741,0.0288431,-0.0364391,0.411927,0.0,0.0,0.0,-1.0
118854936,118854080,-0.465817,0.0444018,-0.0412323,0.411927,0.0,0.0,0.0,-1.0
118952553,118951687,0.244896,-0.0146891,-0.0548431,0.407855,0.0,0.0,0.0,-1.0
119052651,119051794,0.520221,-0.176482,-0.0427854,0.412945,0.0,0.0,0.0,-1.0
119152774,119151904,0.365989,-0.0204801,-0.0363794,0.412945,0.0,0.0,0.0,-1.0
119252870,119252013,0.277094,-0.114223,-0.0226369,0.412945,0.0,0.0,0.0,-1.0
119355480,119354626,0.419812,-0.0454459,-0.0324146,0.412945,0.0,0.0,0.0,-1.0
119453102,119452233,-0.369561,-0.0111146,-0.0222639,0.411927,0.0,0.0,0.0,-1.0
119553199,119552342,-0.507662,-0.108885,-0.0288097,0.412945,0.0,0.0,0.0,-1.0
119653338,119652454,-0.220786,-0.118592,-0.0353915,0.411927,0.0,0.0,0.0,-1.0
119753421,119752561,0.184891,-0.121322,-0.0468069,0.412945,0.0,0.0,0.0,-1.0
119856027,119855173,-0.0931424,-0.0578564,-0.0428042,0.411927,0.0,0.0,0.0,-1.0
119953656,119952780,0.334854,0.033809,-0.0510068,0.411927,0.0,0.0,0.0,-1.0
120053747,120052889,0.407807,-0.0287201,-0.0362608,0.411927,0.0,0.0,0.0,-1.0
120151367,120150505,-0.31851,-0.0465924,-0.0347657,0.412945,0.0,0.0,0.0,-1.0
120253985,120253121,-0.416186,0.0159394,-0.0332405,0.411927,0.0,0.0,0.0,-1.0
120351568,120350715,-0.122179,-0.0432181,-0.0362867,0.411927,0.0,0.0,0.0,-1.0
120454184,120453327,-0.106392,-0.0594165,-0.00977327,0.411927,0.0,0.0,0.0,-1.0
120554313,120553437,0.139721,0.0195986,-0.0261407,0.412945,0.0,0.0,0.0,-1.0
120651896,120651043,0.468444,-0.00588464,-0.0433414,0.412945,0.0,0.0,0.0,-1.0
120754512,120753656,0.468181,-0.148915,-0.0414554,0.412945,0.0,0.0,0.0,-1.0
120852121,120851262,-0.220183,-0.115381,-0.0457916,0.411927,0.0,0.0,0.0,-1.0
120954731,120953874,-0.15893,-0.142479,-0.0360421,0.411927,0.0,0.0,0.0,-1.0
121052340,121051481,-0.0624557,-0.0779127,-0.0472396,0.411927,0.0,0.0,0.0,-1.0
121152447,121151590,0.0991549,0.020971,-0.0577532,0.412945,0.0,0.0,0.0,-1.0
121255083,121254218,0.207081,0.0650363,-0.0714481,0.411927,0.0,0.0,0.0,-1.0
121352663,121351809,0.534568,-0.041242,-0.0742512,0.411927,0.0,0.0,0.0,-1.0
121455289,121454421,0.547584,0.0289393,-0.0633003,0.411927,0.0,0.0,0.0,-1.0
121552882,121552028,-0.0348087,8.42606e-05,-0.0454505,0.412945,0.0,0.0,0.0,-1.0
121652990,121652137,-0.446476,0.0160476,-0.0390175,0.411927,0.0,0.0,0.0,-1.0
121753129,121752252,-0.565218,-0.115936,-0.0438608,0.401745,0.0,0.0,0.0,-1.0
121853209,121852357,-0.327638,-0.0180691,-0.0399015,0.411927,0.0,0.0,0.0,-1.0
121955838,121954972,-0.333187,-0.0143404,-0.0471882,0.411927,0.0,0.0,0.0,-1.0
122053432,122052575,0.126361,-0.0351011,-0.0330614,0.412945,0.0,0.0,0.0,-1.0
122153542,122152688,0.555828,-0.113497,-0.0467473,0.412945,0.0,0.0,0.0,-1.0
122253662,122252794,0.369627,-0.120057,-0.0453727,0.411927,0.0,0.0,0.0,-1.0
122353759,122352903,0.25476,-0.0756149,-0.0505129,0.411927,0.0,0.0,0.0,-1.0
122451366,122450510,-0.56386,-0.0755014,-0.0393678,0.412945,0.0,0.0,0.0,-1.0
122553980,122553124,-0.475344,-0.037167,-0.0265742,0.411927,0.0,0.0,0.0,-1.0
122654111,122653231,-0.275108,-0.0885458,-0.029822,0.411927,0.0,0.0,0.0,-1.0
122754194,122753341,0.285012,-0.100387,-0.0479249,0.411927,0.0,0.0,0.0,-1.0
122854311,122853450,0.252952,-0.000758419,-0.050334,0.411927,0.0,0.0,0.0,-1.0
122951913,122951056,-0.018594,0.0423881,-0.0455015,0.412945,0.0,0.0,0.0,-1.0
123054529,123053669,0.0261214,-0.00189761,-0.0564856,0.412945,0.0,0.0,0.0,-1.0
123152143,123151284,-0.402879,-0.082455,-0.0637964,0.412945,0.0,0.0,0.0,-1.0
123254754,123253887,-0.196072,-0.123898,-0.0740244,0.411927,0.0,0.0,0.0,-1.0
123354854,123353997,-0.41127,-0.0557051,-0.058627,0.411927,0.0,0.0,0.0,-1.0
123452473,123451609,0.455359,-0.0394165,-0.0765305,0.411927,0.0,0.0,0.0,-1.0
123555076,123554217,0.512614,0.0177431,-0.0802181,0.411927,0.0,0.0,0.0,-1.0
123652683,123651826,0.389866,-0.0891953,-0.0634215,0.412945,0.0,0.0,0.0,-1.0
123755310,123754434,0.431462,-0.0145006,-0.0711786,0.412945,0.0,0.0,0.0,-1.0
123852901,123852040,-0.226554,-0.0355631,-0.0594457,0.411927,0.0,0.0,0.0,-1.0
123953011,123952150,-0.532374,-0.00696393,-0.0628595,0.411927,0.0,0.0,0.0,-1.0
124055618,124054765,-0.329741,-0.166141,-0.0449287,0.411927,0.0,0.0,0.0,-1.0
124153236,124152369,0.0174019,0.0230372,-0.0694643,0.410909,0.0,0.0,0.0,-1.0
124253353,124252478,0.231082,0.0467121,-0.0587729,0.411927,0.0,0.0,0.0,-1.0
124353460,124352595,0.107367,-0.0785289,-0.0573007,0.411927,0.0,0.0,0.0,-1.0
124453570,124452696,0.262894,-0.099263,-0.0551723,0.411927,0.0,0.0,0.0,-1.0
124551180,124550316,-0.38232,-0.0268566,-0.0387704,0.411927,0.0,0.0,0.0,-1.0
124653776,124652915,-0.657686,0.0172753,-0.0344398,0.410909,0.0,0.0,0.0,-1.0
124756395,124755527,-0.330262,-0.0659091,-0.027458,0.411927,0.0,0.0,0.0,-1.0
124853996,124853134,0.0902558,0.0668071,-0.0434736,0.411927,0.0,0.0,0.0,-1.0
124954117,124953245,0.516861,-0.0527885,-0.0679897,0.411927,0.0,0.0,0.0,-1.0
125051707,125050849,0.104884,-0.0623141,-0.0576472,0.411927,0.0,0.0,0.0,-1.0
125154334,125153461,-0.0706556,0.0230895,-0.0680836,0.411927,0.0,0.0,0.0,-1.0
125251945,125251069,-0.312463,-0.152796,-0.0672242,0.411927,0.0,0.0,0.0,-1.0
125354537,125353680,-0.237342,-0.200153,-0.0691355,0.411927,0.0,0.0,0.0,-1.0
125454650,125453789,0.0131636,-0.0315066,-0.0825961,0.411927,0.0,0.0,0.0,-1.0
125552256,125551396,0.53051,0.00526553,-0.0900709,0.411927,0.0,0.0,0.0,-1.0
125654868,125654008,0.287027,-0.00617815,-0.0767432,0.411927,0.0,0.0,0.0,-1.0
125752477,125751619,0.148674,0.0444315,-0.0853676,0.411927,0.0,0.0,0.0,-1.0
125855084,125854227,0.377942,0.0219897,-0.0790688,0.411927,0.0,0.0,0.0,-1.0
125952690,125951833,-0.234581,-0.0350466,-0.0545001,0.411927,0.0,0.0,0.0,-1.0
126052812,126051945,-0.533569,0.0724067,-0.0453418,0.411927,0.0,0.0,0.0,-1.0
126155430,126154566,-0.459469,0.00533668,-0.0538073,0.410909,0.0,0.0,0.0,-1.0
126253034,126252162,0.0378178,-0.0598086,-0.0698498,0.411927,0.0,0.0,0.0,-1.0
126355631,126354774,-0.0271558,-0.0858857,-0.068859,0.411927,0.0,0.0,0.0,-1.0
126453247,126452381,0.295141,-0.00514751,-0.0656642,0.411927,0.0,0.0,0.0,-1.0
126553354,126552488,0.516065,-0.0332884,-0.0571134,0.411927,0.0,0.0,0.0,-1.0
126650951,126650095,-0.00909249,-0.00758776,-0.048501,0.406836,0.0,0.0,0.0,-1.0
126753582,126752707,-0.0639676,-0.12775,-0.0214882,0.4272,0.0,0.0,0.0,-1.0
126851171,126850313,-0.478293,0.0810689,-0.0360528,0.432291,0.0,0.0,0.0,-1.0
126953786,126952925,-0.407785,-0.0272305,-0.0416241,0.434327,0.0,0.0,0.0,-1.0
127051392,127050532,0.342715,-0.0628773,-0.0612314,0.436364,0.0,0.0,0.0,-1.0
127151498,127150641,0.20608,-0.062807,-0.0528279,0.436364,0.0,0.0,0.0,-1.0
127251635,127250762,0.132467,-0.198527,-0.0457688,0.435345,0.0,0.0,0.0,-1.0
127351716,127350859,-0.088624,-0.0869219,-0.0627672,0.435345,0.0,0.0,0.0,-1.0
127454353,127453473,-0.197537,-0.0019572,-0.0526339,0.436364,0.0,0.0,0.0,-1.0
127554442,127553584,-0.507999,-0.00692438,-0.0538577,0.435345,0.0,0.0,0.0,-1.0
127652046,127651187,-0.557343,-0.627645,-0.03921,0.436364,0.0,0.0,0.0,-1.0
127752164,127751296,-0.27415,-0.181799,-0.00219634,0.4384,0.0,0.0,0.0,-1.0
127852275,127851405,0.0524989,0.034611,0.0140964,0.437382,0.0,0.0,0.0,-1.0
127954871,127954017,-0.236681,-0.0300362,0.00786129,0.434327,0.0,0.0,0.0,-1.0
128052485,128051626,-0.21879,-0.0294169,-0.00591088,0.433309,0.0,0.0,0.0,-1.0
128152594,128151733,0.0977871,-0.0062386,-0.0203224,0.433309,0.0,0.0,0.0,-1.0
128252699,128251842,0.3693,0.0642187,-0.0484587,0.432291,0.0,0.0,0.0,-1.0
128352808,128351951,0.407158,-0.00810656,-0.0627556,0.431273,0.0,0.0,0.0,-1.0
128455445,128454577,0.100908,-0.0585172,-0.0598975,0.432291,0.0,0.0,0.0,-1.0
128553039,128552172,0.61067,-0.0513553,-0.0659909,0.431273,0.0,0.0,0.0,-1.0
128653163,128652292,0.551577,-0.117392,-0.0650793,0.431273,0.0,0.0,0.0,-1.0
128753261,128752388,0.209771,-0.018005,-0.0409167,0.431273,0.0,0.0,0.0,-1.0
128853370,128852497,-0.0320429,0.0350738,-0.0294843,0.433309,0.0,0.0,0.0,-1.0
128955966,128955109,0.218009,0.048329,-0.0383968,0.4048,0.0,0.0,0.0,-1.0
129053586,129052715,-0.307446,-0.0076934,-0.0332662,0.407855,0.0,0.0,0.0,-1.0
129153686,129152825,-0.408931,0.0270601,-0.0282533,0.408873,0.0,0.0,0.0,-1.0
129253810,129252934,-0.379695,-0.00184618,-0.0463213,0.409891,0.0,0.0,0.0,-1.0
129353910,129353048,-0.161819,-0.0213143,-0.0431613,0.409891,0.0,0.0,0.0,-1.0
129451502,129450649,0.373746,-0.0994565,-0.0436063,0.409891,0.0,0.0,0.0,-1.0
129554124,129553261,0.459922,-0.101193,-0.0430339,0.411927,0.0,0.0,0.0,-1.0
129654230,129653371,0.44274,-0.146106,-0.0492209,0.410909,0.0,0.0,0.0,-1.0
129754352,129753480,0.244815,-0.0622092,-0.0556934,0.410909,0.0,0.0,0.0,-1.0
129854459,129853590,-0.1877,-0.0671905,-0.0408232,0.411927,0.0,0.0,0.0,-1.0
129952051,129951195,-0.403762,-0.0140259,-0.0483096,0.410909,0.0,0.0,0.0,-1.0
130054667,130053807,-0.468159,-0.05142,-0.0612186,0.410909,0.0,0.0,0.0,-1.0
130152275,130151414,-0.198057,-0.0123912,-0.0566541,0.411927,0.0,0.0,0.0,-1.0
130252380,130251523,0.12779,-0.0896287,-0.0546109,0.410909,0.0,0.0,0.0,-1.0
130354992,130354135,-0.168015,-0.00740359,-0.0586788,0.411927,0.0,0.0,0.0,-1.0
130452601,130451741,0.800999,-0.0428335,-0.0810399,0.411927,0.0,0.0,0.0,-1.0
130555223,130554353,0.22956,-0.0129238,-0.054177,0.411927,0.0,0.0,0.0,-1.0
130652822,130651966,0.344525,0.0765227,-0.0552417,0.410909,0.0,0.0,0.0,-1.0
130752930,130752075,0.141163,0.0497791,-0.048334,0.411927,0.0,0.0,0.0,-1.0
130853030,130852178,0.211506,-0.045201,-0.0437334,0.410909,0.0,0.0,0.0,-1.0
130953142,130952287,0.12868,-0.155913,-0.0485382,0.410909,0.0,0.0,0.0,-1.0
131055756,131054899,0.254241,-0.0354631,-0.0560293,0.411927,0.0,0.0,0.0,-1.0
131153382,131152505,-0.334405,-0.0100303,-0.042303,0.410909,0.0,0.0,0.0,-1.0
131253476,131252614,-0.347658,-0.154766,-0.0334665,0.411927,0.0,0.0,0.0,-1.0
131353589,131352723,-0.309616,-0.00796092,-0.0404789,0.410909,0.0,0.0,0.0,-1.0
131453687,131452832,-0.0513666,-0.00397622,-0.0419163,0.410909,0.0,0.0,0.0,-1.0
131551314,131550439,0.465224,-0.145549,-0.0355183,0.410909,0.0,0.0,0.0,-1.0
131653904,131653051,0.578111,0.0629335,-0.0605081,0.410909,0.0,0.0,0.0,-1.0
131754016,131753160,0.200737,0.0345311,-0.0457288,0.411927,0.0,0.0,0.0,-1.0
131854131,131853275,0.0682549,-0.126673,-0.055969,0.411927,0.0,0.0,0.0,-1.0
131954236,131953378,-0.278118,0.0295034,-0.0549578,0.411927,0.0,0.0,0.0,-1.0
132051841,132050984,-0.203479,-0.0790521,-0.0645886,0.411927,0.0,0.0,0.0,-1.0
132154450,132153598,-0.46635,-0.0934514,-0.0408953,0.410909,0.0,0.0,0.0,-1.0
132252073,132251203,0.224773,-0.0237391,-0.0569618,0.410909,0.0,0.0,0.0,-1.0
132354685,132353814,0.158552,-0.0102995,-0.049826,0.410909,0.0,0.0,0.0,-1.0
132454776,132453924,0.163105,-0.152881,-0.0452445,0.410909,0.0,0.0,0.0,-1.0
132552387,132551530,0.250877,-0.0606772,-0.0181631,0.410909,0.0,0.0,0.0,-1.0
132655004,132654142,0.433767,-0.0164659,-0.0442323,0.410909,0.0,0.0,0.0,-1.0
132752605,132751748,-0.0512332,-0.0275411,-0.00985599,0.411927,0.0,0.0,0.0,-1.0
132855228,132854360,-0.0515892,-0.0371159,-0.00882752,0.410909,0.0,0.0,0.0,-1.0
132952823,132951966,-0.46084,0.0121005,-0.00506877,0.410909,0.0,0.0,0.0,-1.0
133052933,133052076,-0.547647,0.0716866,-0.0120917,0.410909,0.0,0.0,0.0,-1.0
133155540,133154687,-0.371069,-0.132568,-0.000797309,0.409891,0.0,0.0,0.0,-1.0
133253155,133252294,-0.152074,-0.0983733,-0.00621028,0.410909,0.0,0.0,0.0,-1.0
133355768,133354906,-0.296883,0.0138084,0.000411299,0.411927,0.0,0.0,0.0,-1.0
133453409,133452549,0.311659,-0.165923,-0.0254564,0.411927,0.0,0.0,0.0,-1.0
133553481,133552621,0.244646,0.0798364,-0.024994,0.411927,0.0,0.0,0.0,-1.0
133651085,133650229,0.0182454,-0.11875,-0.0218056,0.411927,0.0,0.0,0.0,-1.0
133753701,133752840,0.188408,-0.0633387,-0.0538106,0.411927,0.0,0.0,0.0,-1.0
133856348,133855454,0.215051,-0.0576142,-0.0623786,0.411927,0.0,0.0,0.0,-1.0
133953915,133953058,-0.317081,-0.0981866,-0.0492783,0.411927,0.0,0.0,0.0,-1.0
134054038,134053169,-0.502181,-0.0180609,-0.059573,0.4048,0.0,0.0,0.0,-1.0
134151628,134150773,0.267664,-0.0443158,-0.0602046,0.407855,0.0,0.0,0.0,-1.0
134254247,134253386,0.0649605,-0.0361127,-0.059889,0.409891,0.0,0.0,0.0,-1.0
134351847,134350992,0.675113,-0.0109293,-0.0880453,0.428218,0.0,0.0,0.0,-1.0
134454462,134453605,0.477334,-0.0113753,-0.0770098,0.425164,0.0,0.0,0.0,-1.0
134554580,134553713,0.441835,0.0207121,-0.0561804,0.424145,0.0,0.0,0.0,-1.0
134652179,134651321,0.126211,-0.00325848,-0.0381368,0.424145,0.0,0.0,0.0,-1.0
134754793,134753933,0.461533,-0.0198814,-0.0319077,0.424145,0.0,0.0,0.0,-1.0
134852396,134851539,-0.314888,0.132988,-0.0126365,0.424145,0.0,0.0,0.0,-1.0
134955007,134954149,-0.04185,-0.0384588,-0.00806578,0.424145,0.0,0.0,0.0,-1.0
135052612,135051758,-0.667278,0.0786563,-0.018258,0.419055,0.0,0.0,0.0,-1.0
135152725,135151865,-0.647003,0.0926644,-0.0274875,0.409891,0.0,0.0,0.0,-1.0
135255348,135254477,-0.312598,0.00587187,-0.0324842,0.408873,0.0,0.0,0.0,-1.0
135352966,135352091,-0.474867,0.0620749,-0.0356845,0.410909,0.0,0.0,0.0,-1.0
135455572,135454712,-0.577387,0.109827,-0.0429477,0.410909,0.0,0.0,0.0,-1.0
135553156,135552302,-0.0134499,-0.0609601,-0.0436539,0.410909,0.0,0.0,0.0,-1.0
135653295,135652412,0.190926,-0.176287,-0.0404724,0.411927,0.0,0.0,0.0,-1.0
135750877,135750017,0.406493,-0.061813,-0.051904,0.412945,0.0,0.0,0.0,-1.0
135853488,135852631,0.620666,-0.0621744,-0.0565074,0.412945,0.0,0.0,0.0,-1.0
135956112,135955241,0.401063,0.00411769,-0.0456044,0.412945,0.0,0.0,0.0,-1.0
136053705,136052849,-0.125084,-0.022055,-0.0384518,0.411927,0.0,0.0,0.0,-1.0
136153811,136152956,-0.670294,0.09209,-0.0341668,0.412945,0.0,0.0,0.0,-1.0
136251434,136250565,-0.140354,-0.121074,-0.0511106,0.411927,0.0,0.0,0.0,-1.0
136354032,136353174,-0.087889,-0.00917075,-0.0536002,0.411927,0.0,0.0,0.0,-1.0
136451637,136450781,0.568361,-0.0355326,-0.0616063,0.411927,0.0,0.0,0.0,-1.0
136554279,136553393,0.48932,-0.0944998,-0.0532848,0.412945,0.0,0.0,0.0,-1.0
136654364,136653502,0.505563,0.0830241,-0.0635335,0.411927,0.0,0.0,0.0,-1.0
136751976,136751108,-0.269,-0.00610088,-0.0320842,0.411927,0.0,0.0,0.0,-1.0
136852076,136851219,-0.321537,-0.0414383,-0.0238743,0.411927,0.0,0.0,0.0,-1.0
136952192,136951326,-0.519224,-0.0366287,-0.033012,0.412945,0.0,0.0,0.0,-1.0
137054795,137053938,-0.319338,-0.113016,-0.0121188,0.411927,0.0,0.0,0.0,-1.0
137152418,137151544,-0.331778,0.0328031,-0.0222993,0.406836,0.0,0.0,0.0,-1.0
137252510,137251653,-0.238328,-0.0430867,-0.0339374,0.411927,0.0,0.0,0.0,-1.0
137352619,137351762,0.208019,-0.0947537,-0.0350921,0.412945,0.0,0.0,0.0,-1.0
137452740,137451871,0.526405,-0.0539649,-0.0418696,0.412945,0.0,0.0,0.0,-1.0
137555349,137554483,0.267448,-0.087201,-0.0450202,0.412945,0.0,0.0,0.0,-1.0
137652955,137652089,0.470781,-0.0214482,-0.0504103,0.412945,0.0,0.0,0.0,-1.0
137753068,137752200,0.274419,-0.0234583,-0.0434046,0.412945,0.0,0.0,0.0,-1.0
137855680,137854812,0.49444,-0.0817421,-0.0605666,0.412945,0.0,0.0,0.0,-1.0
137953284,137952416,-0.151453,-0.0188547,-0.0375604,0.412945,0.0,0.0,0.0,-1.0
138055885,138055030,0.0470637,0.0208179,-0.0466677,0.412945,0.0,0.0,0.0,-1.0
138153495,138152634,-0.537401,0.0531601,-0.0476248,0.412945,0.0,0.0,0.0,-1.0
138253613,138252743,-0.440495,-0.0549645,-0.0536507,0.411927,0.0,0.0,0.0,-1.0
138353730,138352852,-0.209703,0.0576535,-0.0633832,0.412945,0.0,0.0,0.0,-1.0
138453837,138452964,0.241452,0.0392754,-0.0696569,0.411927,0.0,0.0,0.0,-1.0
138551420,138550567,0.417604,-0.0703653,-0.0552462,0.412945,0.0,0.0,0.0,-1.0
138654036,138653179,0.398018,-0.0682174,-0.0408564,0.411927,0.0,0.0,0.0,-1.0
138754148,138753288,0.39125,-0.00733179,-0.0608921,0.412945,0.0,0.0,0.0,-1.0
138854269,138853397,0.0564975,-0.0242283,-0.0531324,0.412945,0.0,0.0,0.0,-1.0
138954364,138953506,-0.0963917,-0.0584569,-0.031009,0.412945,0.0,0.0,0.0,-1.0
139051969,139051112,-0.340427,0.0173713,-0.0294583,0.411927,0.0,0.0,0.0,-1.0
139154583,139153723,-0.589268,0.0235729,-0.0219142,0.411927,0.0,0.0,0.0,-1.0
139252186,139251330,0.0990303,0.00944488,-0.0391606,0.412945,0.0,0.0,0.0,-1.0
139354816,139353941,-0.167531,0.00953802,-0.0447004,0.411927,0.0,0.0,0.0,-1.0
139454907,139454050,0.0520442,0.0457602,-0.0381732,0.411927,0.0,0.0,0.0,-1.0
139552508,139551656,0.526899,-0.0849091,-0.0335682,0.411927,0.0,0.0,0.0,-1.0
139655133,139654274,0.456747,0.0488221,-0.0424694,0.411927,0.0,0.0,0.0,-1.0
139752729,139751873,0.238834,0.000735098,-0.022855,0.411927,0.0,0.0,0.0,-1.0
139855357,139854485,0.401581,-0.0820008,-0.0290564,0.411927,0.0,0.0,0.0,-1.0
139952947,139952091,-0.351315,0.0969029,-0.0415896,0.411927,0.0,0.0,0.0,-1.0
140053056,140052199,-0.34206,0.112789,-0.0355444,0.411927,0.0,0.0,0.0,-1.0
140155668,140154811,-0.00835086,-0.0950188,-0.0441697,0.411927,0.0,0.0,0.0,-1.0
140253286,140252417,-0.252269,-0.0972039,-0.0338985,0.412945,0.0,0.0,0.0,-1.0
140353378,140352526,-0.453421,0.0611024,-0.0366864,0.412945,0.0,0.0,0.0,-1.0
140453487,140452634,0.0196243,-0.0383258,-0.0508152,0.412945,0.0,0.0,0.0,-1.0
140553609,140552743,0.388621,-0.0426566,-0.06611,0.412945,0.0,0.0,0.0,-1.0
140651206,140650349,0.27042,-0.101013,-0.0618261,0.411927,0.0,0.0,0.0,-1.0
140753814,140752960,0.199979,-0.0167223,-0.0542124,0.412945,0.0,0.0,0.0,-1.0
140856432,140855572,0.224,0.0711693,-0.0510367,0.412945,0.0,0.0,0.0,-1.0
140954034,140953178,-0.149604,-0.144779,-0.0345394,0.412945,0.0,0.0,0.0,-1.0
141054143,141053287,-0.213477,-0.00134344,-0.0380773,0.411927,0.0,0.0,0.0,-1.0
141151749,141150893,-0.099682,0.0440723,-0.0508499,0.411927,0.0,0.0,0.0,-1.0
141254363,141253504,-0.263351,-0.0375143,-0.0378161,0.411927,0.0,0.0,0.0,-1.0
141351970,141351110,0.44214,0.0214558,-0.0454209,0.411927,0.0,0.0,0.0,-1.0
141454574,141453722,0.168808,0.00411641,-0.0426846,0.433309,0.0,0.0,0.0,-1.0
141554687,141553830,0.240883,-0.0860074,-0.0225715,0.432291,0.0,0.0,0.0,-1.0
141652321,141651443,0.32799,-0.119431,-0.0452134,0.431273,0.0,0.0,0.0,-1.0
141754900,141754047,0.715527,-0.109321,-0.0495991,0.431273,0.0,0.0,0.0,-1.0
141852514,141851654,0.240265,0.0673178,-0.044006,0.431273,0.0,0.0,0.0,-1.0
141955146,141954281,0.314193,-0.0221564,-0.0513515,0.432291,0.0,0.0,0.0,-1.0
142052728,142051871,-0.160344,-0.0146947,-0.0353239,0.431273,0.0,0.0,0.0,-1.0
142152850,142151979,-0.465393,0.0198395,-0.020116,0.431273,0.0,0.0,0.0,-1.0
142255451,142254591,-0.294754,0.0569905,-0.0281168,0.431273,0.0,0.0,0.0,-1.0
142353077,142352197,-0.137977,0.0171105,-0.0340843,0.431273,0.0,0.0,0.0,-1.0
142455668,142454808,-0.37443,-0.083618,-0.0275357,0.431273,0.0,0.0,0.0,-1.0
142553282,142552414,0.250011,-0.044613,-0.0322776,0.431273,0.0,0.0,0.0,-1.0
142653380,142652523,0.376878,-0.0519931,-0.0287991,0.430255,0.0,0.0,0.0,-1.0
142750990,142750129,0.0193685,-0.0514021,-0.0163177,0.430255,0.0,0.0,0.0,-1.0
142853615,142852740,0.0628637,0.0672956,-0.0262529,0.431273,0.0,0.0,0.0,-1.0
142956205,142955352,0.165921,-0.0392014,-0.0302675,0.431273,0.0,0.0,0.0,-1.0
143053815,143052957,-0.649521,0.00221255,-0.0268519,0.431273,0.0,0.0,0.0,-1.0
143153929,143153066,-0.345844,0.0369865,-0.0198034,0.429236,0.0,0.0,0.0,-1.0
143251547,143250673,0.237201,-0.0424384,-0.042882,0.428218,0.0,0.0,0.0,-1.0
143354141,143353283,-0.0391495,-0.0101865,-0.046455,0.429236,0.0,0.0,0.0,-1.0
143451757,143450889,0.503128,-0.0788343,-0.0416974,0.432291,0.0,0.0,0.0,-1.0
143554361,143553500,0.500255,-0.0240911,-0.0481245,0.431273,0.0,0.0,0.0,-1.0
143654475,143653615,0.605803,-0.124212,-0.0432773,0.431273,0.0,0.0,0.0,-1.0
143752077,143751223,0.147181,-0.0613989,-0.0318333,0.431273,0.0,0.0,0.0,-1.0
143854683,143853826,0.284978,0.0125175,-0.0308768,0.431273,0.0,0.0,0.0,-1.0
143952309,143951432,-0.272832,-0.0342798,-0.0330519,0.431273,0.0,0.0,0.0,-1.0
144054899,144054043,-0.100027,0.0245002,-0.0297779,0.431273,0.0,0.0,0.0,-1.0
144152510,144151656,-0.575827,0.0470221,-0.0213627,0.431273,0.0,0.0,0.0,-1.0
144252611,144251757,-0.694498,0.0153691,-0.0140743,0.432291,0.0,0.0,0.0,-1.0
144355230,144354368,-0.343945,-0.0306318,-0.0223141,0.432291,0.0,0.0,0.0,-1.0
144452828,144451974,-0.165574,-0.0289207,-0.0261593,0.432291,0.0,0.0,0.0,-1.0
144555445,144554589,-0.452879,0.135965,-0.0308801,0.432291,0.0,0.0,0.0,-1.0
144653063,144652193,0.0654767,0.00637931,-0.0301207,0.431273,0.0,0.0,0.0,-1.0
144753159,144752299,0.111462,-0.0143025,-0.0289412,0.413964,0.0,0.0,0.0,-1.0
144853308,144852421,0.260199,0.0513392,-0.0411795,0.413964,0.0,0.0,0.0,-1.0
144953373,144952516,0.512647,0.0758296,-0.0286298,0.413964,0.0,0.0,0.0,-1.0
145055984,145055127,0.384648,-0.0425249,-0.037367,0.417018,0.0,0.0,0.0,-1.0
145153601,145152733,0.205721,-0.0586391,-0.0194346,0.419055,0.0,0.0,0.0,-1.0
145253707,145252841,0.0187403,-0.0418072,-0.0202874,0.419055,0.0,0.0,0.0,-1.0
145353838,145352950,-0.389263,-0.0454665,-0.0234878,0.418036,0.0,0.0,0.0,-1.0
145453919,145453058,-0.349068,-0.0586912,-0.0272354,0.419055,0.0,0.0,0.0,-1.0
145551520,145550663,0.34691,-0.158644,-0.0482266,0.419055,0.0,0.0,0.0,-1.0
145654135,145653280,0.253731,-0.0348748,-0.0519909,0.419055,0.0,0.0,0.0,-1.0
145754250,145753383,0.330165,-0.233836,-0.070117,0.419055,0.0,0.0,0.0,-1.0
145854358,145853492,0.641573,-0.107905,-0.0665445,0.419055,0.0,0.0,0.0,-1.0
145954457,145953601,0.625293,-0.0748894,-0.0669012,0.419055,0.0,0.0,0.0,-1.0
146052062,146051205,0.126438,-0.066851,-0.041859,0.419055,0.0,0.0,0.0,-1.0
146154670,146153816,0.465029,-0.03941,-0.0550417,0.419055,0.0,0.0,0.0,-1.0
146252294,146251423,-0.291952,0.0339191,-0.0477425,0.419055,0.0,0.0,0.0,-1.0
146352387,146351530,-0.548808,-0.00678568,-0.055844,0.419055,0.0,0.0,0.0,-1.0
146452495,146451638,-0.347226,0.0594548,-0.0437289,0.419055,0.0,0.0,0.0,-1.0
146552609,146551746,-0.385513,-0.00859164,-0.0604885,0.419055,0.0,0.0,0.0,-1.0
146655230,146654359,-0.489419,-0.0603162,-0.0354328,0.418036,0.0,0.0,0.0,-1.0
146752819,146751962,-0.156632,0.0565668,-0.0520533,0.421091,0.0,0.0,0.0,-1.0
146852928,146852071,0.0794512,0.0399451,-0.0455976,0.416,0.0,0.0,0.0,-1.0
146953036,146952179,0.312727,-0.0451809,-0.0614728,0.417018,0.0,0.0,0.0,-1.0
147053146,147052289,0.468367,-0.0977539,-0.0578818,0.416,0.0,0.0,0.0,-1.0
147155761,147154907,0.180062,0.0226538,-0.0563129,0.403782,0.0,0.0,0.0,-1.0
147253366,147252504,0.031718,0.0494501,-0.0378747,0.405818,0.0,0.0,0.0,-1.0
147353491,147352614,0.115378,-0.0253016,-0.039412,0.405818,0.0,0.0,0.0,-1.0
147453593,147452720,-0.451292,0.0560216,-0.0435431,0.4048,0.0,0.0,0.0,-1.0
147553689,147552831,-0.49617,0.0321985,-0.0311905,0.408873,0.0,0.0,0.0,-1.0
147651304,147650434,0.0546136,-0.0585942,-0.0460747,0.407855,0.0,0.0,0.0,-1.0
147753916,147753045,-0.14278,-0.0314933,-0.0439628,0.409891,0.0,0.0,0.0,-1.0
147856513,147855658,-0.353314,-0.0133604,-0.0425128,0.409891,0.0,0.0,0.0,-1.0
147954133,147953270,0.513009,-0.0825712,-0.0617364,0.409891,0.0,0.0,0.0,-1.0
148054236,148053370,0.606219,-0.147389,-0.0605523,0.409891,0.0,0.0,0.0,-1.0
148151828,148150975,0.221694,0.03802,-0.0615091,0.409891,0.0,0.0,0.0,-1.0
148254456,148253596,0.550999,-0.128898,-0.0677305,0.409891,0.0,0.0,0.0,-1.0
148352052,148351192,-0.0768503,0.0312896,-0.0558143,0.409891,0.0,0.0,0.0,-1.0
148454659,148453803,0.0931267,-0.0188564,-0.0482959,0.409891,0.0,0.0,0.0,-1.0
148554773,148553911,0.0527666,0.0874589,-0.0309232,0.409891,0.0,0.0,0.0,-1.0
148652376,148651524,-0.411095,0.0287152,-0.0271068,0.409891,0.0,0.0,0.0,-1.0
148754984,148754127,-0.133653,-0.0988475,-0.0233845,0.410909,0.0,0.0,0.0,-1.0
148852586,148851733,-0.411253,-0.0391846,-0.0140745,0.409891,0.0,0.0,0.0,-1.0
148955211,148954349,-0.52135,-0.0144491,-0.0116681,0.409891,0.0,0.0,0.0,-1.0
149052802,149051949,0.0856619,0.0430122,-0.0225645,0.410909,0.0,0.0,0.0,-1.0
149152913,149152057,0.176476,-0.131487,-0.0211188,0.409891,0.0,0.0,0.0,-1.0
149258040,149257173,-0.17983,-0.0653738,-0.00914885,0.409891,0.0,0.0,0.0,-1.0
149353140,149352282,0.213405,0.0471157,-0.0345689,0.409891,0.0,0.0,0.0,-1.0
149455760,149454885,0.266219,0.0455345,-0.040861,0.409891,0.0,0.0,0.0,-1.0
149553352,149552490,0.302951,-0.106186,-0.0528196,0.409891,0.0,0.0,0.0,-1.0
149653453,149652600,-0.159513,-0.0841916,-0.0459173,0.410909,0.0,0.0,0.0,-1.0
149751076,149750209,-0.391641,0.0952644,-0.0399353,0.409891,0.0,0.0,0.0,-1.0
149853671,149852814,-0.497176,0.0146716,-0.0587577,0.440436,0.0,0.0,0.0,-1.0
149956311,149955425,-0.509372,-0.0611089,-0.0624514,0.454691,0.0,0.0,0.0,-1.0
150053891,150053033,0.104964,-0.0132364,-0.0773069,0.467927,0.0,0.0,0.0,-1.0
150153991,150153139,0.417845,-0.0797741,-0.0763799,0.467927,0.0,0.0,0.0,-1.0
150251601,150250744,0.373656,0.0525731,-0.0985932,0.457745,0.0,0.0,0.0,-1.0
150354208,150353355,0.431989,0.0745417,-0.0945318,0.458764,0.0,0.0,0.0,-1.0
150451817,150450960,0.0573836,0.0509234,-0.0712541,0.457745,0.0,0.0,0.0,-1.0
150554445,150553581,0.0771539,0.0419115,-0.0544659,0.462836,0.0,0.0,0.0,-1.0
150654531,150653679,-0.175836,0.0256567,-0.0385631,0.448582,0.0,0.0,0.0,-1.0
150752142,150751284,-0.573951,-0.0105569,-0.0243847,0.446545,0.0,0.0,0.0,-1.0
150854747,150853895,-0.346814,-0.0359499,-0.0254066,0.445527,0.0,0.0,0.0,-1.0
150952367,150951503,-0.376073,-0.00995633,-0.0228873,0.445527,0.0,0.0,0.0,-1.0
151054964,151054111,-0.542434,0.0959086,-0.0357932,0.444509,0.0,0.0,0.0,-1.0
151152575,151151716,-0.0580321,-0.0158054,-0.0420954,0.445527,0.0,0.0,0.0,-1.0
151252683,151251824,-0.10823,-0.0513469,-0.0366742,0.445527,0.0,0.0,0.0,-1.0
151352833,151351932,0.290038,-0.027289,-0.0524888,0.444509,0.0,0.0,0.0,-1.0
151452902,151452040,0.476828,-0.0369889,-0.0482248,0.447564,0.0,0.0,0.0,-1.0
151555506,151554650,0.128298,-0.063693,-0.0439577,0.447564,0.0,0.0,0.0,-1.0
151653124,151652258,0.576244,0.0418799,-0.0439518,0.447564,0.0,0.0,0.0,-1.0
151753234,151752364,0.332853,-0.129436,-0.0206149,0.447564,0.0,0.0,0.0,-1.0
151853346,151852471,-0.0680348,-0.0289019,-0.0281905,0.447564,0.0,0.0,0.0,-1.0
151953438,151952579,-0.597092,0.00227892,-0.00469684,0.446545,0.0,0.0,0.0,-1.0
152056056,152055190,-0.355218,0.00702949,0.00478992,0.447564,0.0,0.0,0.0,-1.0
152153667,152152795,-0.17195,-0.00249733,-0.0036172,0.446545,0.0,0.0,0.0,-1.0
152253759,152252903,0.0483611,-0.0444562,0.000579535,0.447564,0.0,0.0,0.0,-1.0
152351364,152350508,0.465532,-0.12191,-0.00326665,0.446545,0.0,0.0,0.0,-1.0
152453980,152453120,0.60569,-0.0558141,-0.0109596,0.447564,0.0,0.0,0.0,-1.0
152551583,152550723,0.0974691,-0.0207579,0.0163231,0.447564,0.0,0.0,0.0,-1.0
152654191,152653333,0.396257,-0.057666,-0.00225684,0.447564,0.0,0.0,0.0,-1.0
152754311,152753441,-0.0690717,-0.116426,0.0136009,0.447564,0.0,0.0,0.0,-1.0
152851903,152851046,-0.655635,0.043176,-0.000854216,0.446545,0.0,0.0,0.0,-1.0
152954518,152953661,-0.347648,-0.0155497,0.0103378,0.448582,0.0,0.0,0.0,-1.0
153052130,153051263,-0.301826,-0.12136,-0.00447792,0.448582,0.0,0.0,0.0,-1.0
153154728,153153871,-0.485046,0.0212334,-0.0114701,0.4496,0.0,0.0,0.0,-1.0
153252358,153251477,0.164341,-0.0313189,-0.0165197,0.448582,0.0,0.0,0.0,-1.0
153352444,153351590,0.213938,-0.0407385,-0.044104,0.448582,0.0,0.0,0.0,-1.0
153455065,153454196,-0.136843,-0.0140433,-0.0357265,0.4496,0.0,0.0,0.0,-1.0
153552652,153551798,0.350607,-0.0386076,-0.0335923,0.448582,0.0,0.0,0.0,-1.0
153655290,153654423,0.605579,-0.0729433,-0.0413671,0.448582,0.0,0.0,0.0,-1.0
153752867,153752013,0.224094,0.0325789,-0.0371093,0.4496,0.0,0.0,0.0,-1.0
153852991,153852122,-0.0946727,-0.0605731,-0.0300229,0.448582,0.0,0.0,0.0,-1.0
153953082,153952227,-0.336911,-0.0853418,-0.00137691,0.448582,0.0,0.0,0.0,-1.0
154053204,154052336,-0.346939,0.0285728,-0.00451273,0.448582,0.0,0.0,0.0,-1.0
154155804,154154944,-0.388714,0.168966,-0.0227111,0.4496,0.0,0.0,0.0,-1.0
154253407,154252550,-0.267101,-0.0254111,-0.0398972,0.448582,0.0,0.0,0.0,-1.0
154353515,154352656,0.313367,0.0531292,-0.043454,0.4496,0.0,0.0,0.0,-1.0
154453645,154452764,0.601158,0.0273194,-0.0354774,0.448582,0.0,0.0,0.0,-1.0
154553733,154552870,0.421925,-0.0840444,-0.0208951,0.4496,0.0,0.0,0.0,-1.0
154651350,154650476,-0.41515,0.116495,-0.0104945,0.4496,0.0,0.0,0.0,-1.0
154753945,154753084,-0.0251352,0.018953,-0.0162938,0.4496,0.0,0.0,0.0,-1.0
154851545,154850688,-0.480147,-0.0505562,-0.0188134,0.448582,0.0,0.0,0.0,-1.0
154954159,154953305,-0.53473,0.0341683,-0.0150912,0.421091,0.0,0.0,0.0,-1.0
155051764,155050903,-0.201996,0.0263899,-0.0300249,0.422109,0.0,0.0,0.0,-1.0
155151867,155151010,-0.0996199,0.019831,-0.0259419,0.421091,0.0,0.0,0.0,-1.0
155254478,155253621,-0.117355,-0.0503087,-0.0126747,0.421091,0.0,0.0,0.0,-1.0
155352083,155351226,0.380583,-0.0327913,-0.0212974,0.422109,0.0,0.0,0.0,-1.0
155454706,155453835,0.193392,-0.0216553,-0.0130546,0.421091,0.0,0.0,0.0,-1.0
155552305,155551438,0.409713,-0.0219522,-0.00998904,0.421091,0.0,0.0,0.0,-1.0
155652402,155651545,0.421805,-0.0782109,-0.00994471,0.421091,0.0,0.0,0.0,-1.0
155755012,155754158,0.615806,-0.0500502,-0.0192617,0.422109,0.0,0.0,0.0,-1.0
155852617,155851759,0.255935,-0.0691043,-0.0056436,0.422109,0.0,0.0,0.0,-1.0
155955252,155954369,0.354105,0.0320965,-0.0133958,0.422109,0.0,0.0,0.0,-1.0
156052832,156051975,-0.299183,0.10082,-0.0044537,0.421091,0.0,0.0,0.0,-1.0
156152937,156152080,-0.524483,0.13828,-0.0178547,0.421091,0.0,0.0,0.0,-1.0
156255550,156254692,-0.247253,-0.0685763,-0.0199395,0.421091,0.0,0.0,0.0,-1.0
156353154,156352294,-0.236531,-0.06632,-0.0220961,0.422109,0.0,0.0,0.0,-1.0
156455793,156454905,-0.356033,-0.00130153,-0.0370907,0.422109,0.0,0.0,0.0,-1.0
156553376,156552508,0.260048,-0.0174409,-0.0508357,0.422109,0.0,0.0,0.0,-1.0
156653473,156652615,0.293565,0.0354825,-0.0538317,0.423127,0.0,0.0,0.0,-1.0
156751074,156750222,0.0558737,-0.102115,-0.0340843,0.423127,0.0,0.0,0.0,-1.0
156853688,156852829,0.160424,-0.0727842,-0.0503603,0.422109,0.0,0.0,0.0,-1.0
156956323,156955439,0.206303,0.0276829,-0.0453598,0.422109,0.0,0.0,0.0,-1.0
157053914,157053050,-0.522836,-0.00306886,-0.0396879,0.423127,0.0,0.0,0.0,-1.0
157154007,157153150,-0.588536,0.0791149,-0.0283681,0.423127,0.0,0.0,0.0,-1.0
157251607,157250754,-0.123039,0.0713696,-0.0258229,0.422109,0.0,0.0,0.0,-1.0
157354223,157353364,-0.380736,-0.12714,-0.0312948,0.423127,0.0,0.0,0.0,-1.0
157451821,157450968,0.0944385,-0.0438868,-0.0483663,0.422109,0.0,0.0,0.0,-1.0
157554438,157553581,0.0355385,0.0163635,-0.0554518,0.422109,0.0,0.0,0.0,-1.0
157654542,157653685,0.260123,-0.129689,-0.0556033,0.422109,0.0,0.0,0.0,-1.0
157752145,157751293,0.38889,-0.00276587,-0.0522961,0.422109,0.0,0.0,0.0,-1.0
157854755,157853899,0.449659,0.00257151,-0.0576595,0.422109,0.0,0.0,0.0,-1.0
157952360,157951503,0.442762,-0.0694287,-0.0374179,0.422109,0.0,0.0,0.0,-1.0
158054970,158054112,0.611847,-0.0451667,-0.0470938,0.422109,0.0,0.0,0.0,-1.0
158152573,158151717,-0.0987752,-0.0186515,-0.0240557,0.423127,0.0,0.0,0.0,-1.0
158252679,158251823,-0.209037,0.039441,-0.0262392,0.422109,0.0,0.0,0.0,-1.0
158355308,158354436,-0.11926,-0.00139465,-0.0103182,0.422109,0.0,0.0,0.0,-1.0
158452890,158452037,-0.377538,-0.0206392,-0.0274462,0.423127,0.0,0.0,0.0,-1.0
158555504,158554646,-0.521574,-0.091806,-0.0145464,0.422109,0.0,0.0,0.0,-1.0
158653124,158652253,-0.0404272,0.0591928,-0.0146542,0.422109,0.0,0.0,0.0,-1.0
158753225,158752361,0.413566,0.000608248,-0.0272035,0.422109,0.0,0.0,0.0,-1.0
158853341,158852464,0.58987,-0.208173,-0.0126122,0.423127,0.0,0.0,0.0,-1.0
158953424,158952571,0.276805,-0.0471965,0.00795198,0.423127,0.0,0.0,0.0,-1.0
159058560,159057685,0.461464,-0.0730232,0.0122255,0.423127,0.0,0.0,0.0,-1.0
159153647,159152784,-0.156314,0.109701,0.0253894,0.422109,0.0,0.0,0.0,-1.0
159253750,159252891,-0.162568,0.0854733,0.0040013,0.423127,0.0,0.0,0.0,-1.0
159351370,159350501,0.189922,-0.0416499,0.0202642,0.422109,0.0,0.0,0.0,-1.0
159453964,159453104,0.0349325,-0.0302044,0.0207567,0.422109,0.0,0.0,0.0,-1.0
159551565,159550708,0.540267,0.0360897,0.0171692,0.422109,0.0,0.0,0.0,-1.0
159654170,159653317,0.371601,0.0318691,0.0154693,0.422109,0.0,0.0,0.0,-1.0
159754285,159753424,0.499959,-0.111301,0.0172417,0.422109,0.0,0.0,0.0,-1.0
159851889,159851028,0.0930458,-0.0534638,0.0139603,0.422109,0.0,0.0,0.0,-1.0
159954504,159953637,0.389624,-0.0812986,0.0105867,0.423127,0.0,0.0,0.0,-1.0
160052107,160051241,-0.137756,0.0328073,0.0124998,0.423127,0.0,0.0,0.0,-1.0
160154699,160153846,0.0756257,-0.0126754,0.0174952,0.422109,0.0,0.0,0.0,-1.0
160252316,160251453,-0.259211,-0.074283,0.0223102,0.423127,0.0,0.0,0.0,-1.0
160352416,160351559,-0.184301,-0.173147,0.0404919,0.422109,0.0,0.0,0.0,-1.0
160455025,160454168,-0.171421,0.0593159,0.0258942,0.423127,0.0,0.0,0.0,-1.0
160552632,160551772,-0.148823,0.0313817,0.0131593,0.423127,0.0,0.0,0.0,-1.0
160655258,160654400,-0.46543,-0.0398106,0.0187013,0.422109,0.0,0.0,0.0,-1.0
160752851,160751988,0.0685951,-0.263674,0.0284223,0.423127,0.0,0.0,0.0,-1.0
160852947,160852091,0.345938,-0.0158717,0.00523941,0.423127,0.0,0.0,0.0,-1.0
160953055,160952197,0.494663,0.0227576,0.00236497,0.422109,0.0,0.0,0.0,-1.0
161053165,161052303,0.493713,-0.138943,-0.000570407,0.422109,0.0,0.0,0.0,-1.0
161155764,161154912,0.357674,-0.194979,0.000727943,0.423127,0.0,0.0,0.0,-1.0
161253385,161252515,-0.00953795,0.00509584,-0.000563669,0.423127,0.0,0.0,0.0,-1.0
161353479,161352621,-0.0404064,0.0101208,-0.0197696,0.422109,0.0,0.0,0.0,-1.0
161453605,161452735,-0.171999,-0.0691444,-0.0237745,0.423127,0.0,0.0,0.0,-1.0
161553693,161552833,-0.401286,-0.0698616,-0.0182117,0.423127,0.0,0.0,0.0,-1.0
161651311,161650438,0.118905,0.00258276,-0.0351461,0.422109,0.0,0.0,0.0,-1.0
161753902,161753045,0.12955,-0.0601686,-0.0271742,0.423127,0.0,0.0,0.0,-1.0
161854018,161853151,0.473561,-0.120161,-0.0433618,0.409891,0.0,0.0,0.0,-1.0
161954155,161953260,0.40436,-0.0834947,-0.0473438,0.411927,0.0,0.0,0.0,-1.0
162054224,162053363,0.400115,-0.125805,-0.0435139,0.411927,0.0,0.0,0.0,-1.0
162151820,162150966,0.0456984,-0.083732,-0.0406542,0.412945,0.0,0.0,0.0,-1.0
162254445,162253581,0.232553,-0.0104204,-0.0504742,0.411927,0.0,0.0,0.0,-1.0
162352049,162351180,-0.233147,-0.0992414,-0.0476135,0.408873,0.0,0.0,0.0,-1.0
162454645,162453787,0.0119256,0.0903334,-0.0629662,0.411927,0.0,0.0,0.0,-1.0
162554755,162553893,-0.154645,-0.0630733,-0.0432688,0.411927,0.0,0.0,0.0,-1.0
162652364,162651498,-0.335782,0.0426579,-0.0607213,0.411927,0.0,0.0,0.0,-1.0
162754961,162754104,-0.386343,-0.0302676,-0.0563421,0.410909,0.0,0.0,0.0,-1.0
162852574,162851709,-0.154351,-0.0216694,-0.0659215,0.433309,0.0,0.0,0.0,-1.0
