timestamp,timestamp_sample,xyz[0],xyz[1],xyz[2]
85850999,85850160,0.377822,-0.208098,0.0107441
85853522,85852678,0.215662,-0.237006,-0.0252208
85873521,85872683,0.219439,0.144772,0.0642069
85893529,85892697,-0.35851,0.0720501,-0.0309792
85911059,85910221,0.225148,-0.189604,-0.0152191
85933583,85932741,0.223267,0.0363515,0.0500268
85953605,85952763,-0.0537673,0.163805,0.0264717
85976156,85975303,-0.263479,-0.0342527,-0.0480108
85993642,85992808,0.16131,-0.0988516,0.0158953
86013666,86012833,0.244505,0.186749,0.0450011
86033683,86032852,0.0173619,-0.00195911,0.00612119
86051207,86050371,-0.180477,-0.281882,-0.0508316
86073727,86072896,-0.198289,-0.34607,-0.0783882
86093749,86092918,-0.141855,-0.0153238,-0.0469401
86116304,86115443,-0.275292,-0.13887,-0.0370087
86133801,86132963,-0.117919,0.289904,-0.0770192
86153815,86152984,-0.0811342,0.407286,-0.0599501
86173855,86173006,-0.0874431,0.396263,-0.0453528
86191369,86190533,0.023603,0.329523,-0.033092
86213883,86213052,-0.116601,0.179573,-0.0794358
86233915,86233079,-0.125698,0.102738,-0.0412779
86256443,86255597,-0.105823,0.0771542,0.0095261
86271463,86270627,-0.0742197,-0.00160119,-0.0488302
86293983,86293145,-0.0587517,0.0624722,-0.0207783
86314007,86313170,-0.0587544,0.0599738,-0.00640587
86331516,86330680,-0.0160032,0.0801111,-0.0195415
86354036,86353205,-0.204241,0.0849316,0.00746315
86374060,86373227,-0.329717,0.109639,0.0123363
86394083,86393249,-0.389364,0.170305,-0.0293058
86411604,86410768,-0.353905,0.382001,-0.0382029
86434124,86433293,-0.211683,0.181733,-0.0781495
86454155,86453317,-0.0763419,0.103099,-0.0691351
86471674,86470834,-0.163401,0.275928,-0.0982708
86494203,86493359,0.0799421,-0.10111,-0.0378147
86514224,86513382,0.154262,-0.209259,-0.0156734
86534242,86533405,0.155294,-0.311403,0.0199502
86551765,86550925,0.164633,-0.247572,-0.0299345
86574313,86573448,0.149152,-0.220308,0.00689131
86594316,86593469,0.129996,-0.0592038,0.0203631
86611836,86610989,0.217212,-0.179672,-0.00149608
86634352,86633514,-0.141992,0.231859,0.0367614
86654379,86653536,-0.170714,0.306577,0.0220657
86674402,86673568,-0.0685854,0.300606,-0.001808
86691916,86691077,-0.0790894,0.330297,0.0181814
86714434,86713603,-0.00283713,0.0119698,0.0237151
86734463,86733624,0.0639001,-0.212231,-0.0160682
86751980,86751143,-0.0493884,-0.095196,0.0491063
86772001,86771165,0.136591,-0.243164,0.00947334
86794521,86793690,0.221927,-0.230135,-0.0500271
86814543,86813712,0.0877593,-0.0409195,-0.0510516
86832068,86831232,0.186161,-0.144177,-0.0325892
86859603,86858765,-0.255476,0.279726,-0.0123645
86874617,86873778,-0.24743,0.522127,-0.0749945
86892149,86891301,-0.170879,0.564295,-0.0802887
86912156,86911320,-0.288613,0.513908,-0.0679969
86934676,86933845,-0.0628028,-0.0189801,0.0206299
86954697,86953867,0.119465,-0.422684,0.0270069
86972229,86971386,0.0958412,-0.332834,0.0336978
86994754,86993911,0.353215,-0.574077,0.040084
87014763,87013933,0.304799,-0.361665,0.0226952
87032294,87031452,0.286133,-0.35133,0.027695
87052320,87051477,0.22984,-0.113371,0.0194293
87074837,87073999,-0.0451035,0.42413,-0.0275645
87094852,87094021,-0.131395,0.464954,-0.0284939
87112377,87111541,-0.103673,0.519646,-0.0242729
87132399,87131563,-0.155189,0.428076,-0.00597249
87154924,87154087,0.173406,-0.127045,0.0279016
87172444,87171607,0.155,-0.00827955,0.0020878
87192466,87191629,0.289902,-0.26237,0.0118344
87214984,87214154,0.245409,-0.456639,-0.00771919
87235010,87234179,0.0531002,-0.326616,-0.00949145
87252534,87251695,0.12999,-0.378041,-0.029963
87272554,87271717,-0.0491246,-0.0948938,-0.0270344
87295087,87294251,-0.152361,0.248366,0.0187519
87312598,87311761,-0.137029,0.244795,0.019927
87332623,87331783,0.0427967,0.0948548,-0.00749488
87355144,87354311,0.169093,-0.308578,0.0178478
87375164,87374333,-0.0575765,-0.212284,0.0246483
87392687,87391850,-0.217044,-0.179641,0.0325453
87412709,87411872,-0.236461,0.0592609,0.0401457
87435230,87434397,0.219694,-0.170403,0.0169929
87452753,87451916,0.106826,-0.172833,0.0723065
87472791,87471938,-0.0322871,-0.0198917,0.0629509
87495309,87494463,-0.247187,-0.200593,0.0518312
87512823,87511982,-0.328455,-0.280287,0.0563372
87532842,87532004,-0.219865,-0.284595,0.0303886
87552877,87552029,-0.0840628,-0.180392,-0.0660081
87575382,87574551,-0.395802,-0.0212116,-0.00468564
87592909,87592071,-0.404301,-0.0952832,0.033609
87612929,87612092,-0.238728,-0.248053,0.0464773
87632959,87632115,-0.393206,-0.0399435,0.0128017
87655471,87654639,-0.283527,-0.0884337,0.0176119
87672999,87672163,-0.227565,-0.0872813,0.0731943
87693017,87692181,-0.188057,-0.0609916,0.0192262
87715537,87714706,-0.283451,-0.0769083,-0.017971
87733063,87732227,-0.296355,-0.0194828,0.0114262
87753092,87752249,-0.0345241,-0.0481476,0.0248159
87773115,87772275,0.0716367,-0.0204036,0.0245531
87795641,87794794,-0.241027,0.152052,0.0425024
87813150,87812314,-0.00825059,0.0804297,0.0671388
87833172,87832336,0.180308,-0.0985592,0.103119
87855691,87854860,0.0593637,0.00614766,0.119926
87873228,87872380,0.0860885,-0.0762201,0.0786595
87893240,87892402,0.1388,0.00656023,0.0991955
87913270,87912424,0.0363802,-0.032039,0.0774893
87935797,87934949,-0.0344738,0.0798481,0.0131308
87953310,87952468,-0.0225392,0.143635,0.0294688
87973342,87972490,0.175845,-0.0315723,0.0458526
87995856,87995015,-0.0337913,0.18652,0.0330442
88010864,88010032,-0.0136113,0.123912,0.0301947
88033399,88032556,-0.0898659,0.224839,0.0686188
88053415,88052578,-0.155201,0.0877054,0.0618316
88075934,88075103,-0.148107,0.194985,-0.00536184
88093459,88092622,-0.170062,0.16862,0.00273616
88113490,88112647,-0.0272537,0.0873828,0.038591
88133518,88132667,-0.0970093,0.136683,0.00222179
88151030,88150186,-0.1805,0.176255,0.0171235
88173550,88172711,-0.00634248,-0.0271444,0.0596217
88193580,88192733,-0.0592093,0.059829,0.0285274
88216096,88215259,0.0122675,0.0665557,0.0205251
88233624,88232777,-0.0310911,0.115043,0.00171478
88253643,88252799,0.0653788,0.0792084,-0.0119369
88273659,88272821,0.0194938,0.066497,0.0103168
88291180,88290341,0.0992761,0.0278868,-0.053723
88313702,88312865,0.120959,0.00636517,-0.0254266
88333732,88332890,0.137291,0.0226278,-0.0575217
88356262,88355412,0.00308145,-0.0123129,-0.0217946
88373786,88372932,0.0531595,0.00476062,-0.0349759
88393790,88392954,-0.070013,0.0305522,-0.0189712
88413812,88412976,-0.0296935,0.0112543,-0.00578851
88431334,88430495,0.0142948,0.0573653,-0.0311694
88453866,88453023,-0.0711797,-0.0127314,-0.0235025
88473878,88473042,-0.164912,0.0103406,-0.0173636
88496404,88495567,-0.100246,-0.0836064,0.00347869
88511416,88510584,-0.193169,-0.0460836,-0.00727959
88533950,88533114,-0.0744281,-0.0452479,-0.0310461
88553967,88553130,-0.150767,0.00944596,-0.0297578
88571512,88570661,-0.13149,0.00488569,-0.0265345
88594011,88593175,-0.19276,-0.0972753,-0.0113297
88614034,88613197,-0.0372063,-0.0495717,-0.0366492
88634060,88633221,-0.00154383,-0.0719302,-0.0568733
88651579,88650740,0.0588943,0.0394549,-0.040336
88674105,88673269,0.0317725,-0.117388,-0.0413456
88694122,88693285,0.0342343,-0.0531671,-0.00882337
88711638,88710805,0.148008,-0.12685,-0.03849
88734166,88733330,0.171137,-0.0500253,-0.028001
88754196,88753352,0.117743,-0.0695535,0.00386156
88774225,88773374,0.147961,0.0310963,-0.0323998
88791732,88790896,0.0813018,-0.0474314,-0.0174061
88814260,88813418,0.181974,-0.0259368,-0.0135618
88834289,88833440,0.018278,-0.0300631,0.020519
88851803,88850967,0.230393,-0.00154244,-0.0208931
88874337,88873484,-0.058561,-0.0603118,0.0139668
88894345,88893506,0.134079,-0.0872328,0.0119183
88914382,88913528,0.093162,-0.106753,-0.0127446
88931886,88931054,0.10072,-0.127806,0.0147507
88954449,88953581,0.139425,-0.11624,-0.0183238
88974434,88973596,-0.0263774,-0.202969,-0.0127896
88991950,88991114,-0.206412,-0.152056,-0.0098696
89011968,89011136,-0.229824,-0.113512,0.00226331
89034498,89033661,0.137065,-0.0506427,-0.0269889
89054520,89053683,0.0241422,-0.0338498,-0.0148927
89072035,89071202,-0.00767872,-0.00557709,-0.0429005
89094564,89093727,0.106769,0.157923,0.000398737
89114589,89113752,-0.0146856,0.104812,-0.0274271
89132109,89131277,0.175075,0.0644681,-0.0367324
89152125,89151293,0.118621,0.000121979,-0.0329238
89174652,89173815,0.261066,0.0641445,-0.0445155
89194676,89193839,0.176556,0.0600041,-0.0944998
89212190,89211357,0.214345,0.0746688,-0.0376471
89234729,89233882,-0.0809259,0.0529953,-0.062188
89254757,89253904,-0.170077,0.0103216,-0.0367588
89272275,89271430,-0.185919,-0.00410856,-0.0340733
89292300,89291445,-0.0724079,-0.0604528,-0.0634893
89314810,89313970,-0.301562,-0.00106756,-0.00634324
89334847,89333995,-0.56196,-0.0322148,0.0415991
89352347,89351512,-0.489996,-0.0110034,0.0312444
89372368,89371534,-0.752216,0.186552,0.0336016
89394895,89394058,-0.0455961,0.251774,-0.00850506
89412410,89411578,0.199255,0.163485,0.0185838
89432438,89431600,0.1196,0.186159,0.0352645
89454961,89454125,-0.22426,0.164243,0.0308105
89474987,89474147,0.0633831,-0.0236835,-0.017731
89492502,89491666,0.204676,-0.01158,0.0447744
89512530,89511688,0.891587,0.00736864,-0.0776344
89535057,89534217,0.872449,0.00765377,-0.0906608
89552572,89551736,0.801682,0.060146,-0.0086691
89572605,89571765,0.100598,-0.0226198,0.00743755
89595122,89594283,-0.00588417,-0.0566401,-0.0198311
89615143,89614304,0.299219,-0.0198601,-0.126023
89632666,89631833,0.114496,0.0134726,-0.0990443
89652676,89651843,0.0189812,0.064023,-0.0399381
89675221,89674383,-1.11289,0.00878189,0.0131879
89692720,89691887,-1.02302,0.114168,-0.00998921
89712742,89711909,-1.37068,0.142984,-0.0107544
89735289,89734434,-0.606074,0.0259138,-0.0194423
89755298,89754456,-0.477852,-0.0118826,-0.0269795
89772808,89771976,-0.232582,0.0542416,-0.0220864
89792830,89791998,-0.458209,-0.140553,-0.0143772
89815363,89814523,-0.614626,-0.182452,0.00445197
89832877,89832042,-0.331843,-0.0606346,0.0382272
89852898,89852066,0.346385,-0.0249432,-0.0636674
89872918,89872086,0.99208,-0.0359023,-0.0770014
89895454,89894618,0.813285,0.0639141,-0.0208966
89912963,89912130,0.89795,0.138714,-0.0324806
89932995,89932152,0.508775,0.0564881,-0.00374233
89955513,89954677,1.01659,-0.0714961,0.00436118
89973030,89972197,0.94749,0.00658909,-0.064318
89993056,89992224,1.15844,0.0221645,-0.0307635
90013093,90012247,0.846943,-0.0551955,0.00435009
90035605,90034766,-0.156717,-0.185637,0.0868423
90053134,90052287,-0.378522,-0.164823,-0.0169304
90073140,90072307,-0.26715,-0.292275,0.0411382
90095668,90094832,0.274876,-0.362207,-0.0192079
90113191,90112358,0.143804,-0.352957,-0.0100538
90133209,90132374,-0.33271,-0.304758,0.0488258
90153230,90152396,-0.995545,-0.18895,0.0650843
90175756,90174920,-0.664832,-0.197006,-0.0308809
90193283,90192440,-0.515267,-0.176009,-0.000244091
90213304,90212462,-0.162136,-0.0240527,0.0158062
90235826,90234987,-0.58181,0.106845,0.0555616
90253367,90252510,-0.460945,0.0960183,-0.00363131
90273361,90272528,-0.631805,0.012795,0.0887679
90293390,90292550,-0.232627,0.079852,0.0379258
90315923,90315075,0.677535,0.0627674,-0.014028
90333436,90332602,0.73564,0.0602524,-0.030685
90353452,90352617,0.597746,0.0616746,-0.0306086
90373472,90372639,0.0864848,-0.0484952,0.0172196
90390994,90390158,0.20841,-0.00349509,-0.0134369
90413519,90412686,0.376199,-0.267524,-0.0501222
90433541,90432705,0.802462,-0.205399,-0.0341458
90451071,90450226,0.781459,-0.371928,-0.120127
90473599,90472750,0.194941,-0.43727,-0.0243599
90493626,90492783,-0.430851,-0.494734,-0.00329175
90513639,90512794,-0.490909,-0.579875,0.00794646
90531152,90530313,-0.453118,-0.730124,0.0579394
90553682,90552847,0.201982,-0.567682,0.0145327
90573695,90572862,-0.148379,-0.356683,0.0121417
90596257,90595396,-0.635985,-0.133269,0.0447945
90613750,90612904,-0.646159,-0.130016,0.0581324
90633764,90632926,-0.613732,0.0297927,0.0891049
90653795,90652952,-0.221849,0.0691685,0.0128992
90671312,90670468,-0.112851,0.0292887,0.0715173
90693829,90692993,0.0321285,0.0520603,0.089777
90713861,90713015,-0.358192,0.0728551,0.0490443
90736378,90735540,-0.313126,-0.0296829,0.035416
90751404,90750565,-0.49526,0.123317,0.103339
90773913,90773081,0.284419,0.0200831,-0.00770031
90793945,90793103,0.321293,-0.017796,0.0547121
90811459,90810622,0.308403,0.0403658,0.0446552
90833983,90833147,-0.169077,-0.0407821,0.0540934
90851506,90850667,-0.386522,-0.0941878,0.138094
90874031,90873192,0.597065,-0.130621,-0.0238236
90891547,90890711,0.617724,-0.215734,0.0434106
90914074,90913236,0.275968,-0.0768923,0.076102
90934097,90933258,0.143625,-0.0523959,0.0787007
90951614,90950777,-0.191814,0.0157779,0.0928923
90974136,90973304,0.384708,0.029868,0.0208369
90994157,90993325,0.607608,0.047579,-0.0151032
91014179,91013347,0.338078,0.195827,0.0149405
91031707,91030866,0.333777,0.0118565,-0.0135015
91054231,91053394,-0.410632,0.0689192,0.0441802
91074259,91073413,-0.440833,0.233691,0.0599207
91091768,91090932,-0.406115,0.23133,0.0469308
91114312,91113461,0.141902,0.19494,0.053937
91131816,91130976,0.327247,0.358727,-0.0321114
91154340,91153501,-0.0926958,0.489578,0.00259477
91171870,91171034,-0.322249,0.606446,0.0730001
91194393,91193548,-0.0744262,0.741879,0.0327774
91211901,91211065,-0.252588,0.810505,-0.0391118
91231924,91231087,0.41145,0.773853,-0.0310541
91254449,91253614,0.420722,0.72694,0.00110168
91274466,91273634,-0.192019,0.598395,0.0234796
91291993,91291153,-0.188761,0.569116,0.0325614
91312014,91311176,-0.245291,0.278902,0.0136037
91334533,91333701,0.431389,0.158503,-0.0215859
91352060,91351222,0.62136,0.00395124,-0.065546
91372088,91371243,0.667926,0.00322625,-0.0179789
91392116,91391279,0.364806,-0.0322584,-0.0541294
91414621,91413789,-0.252106,-0.152781,0.0312582
91432145,91431309,-0.47562,-0.0687176,0.0502375
91452167,91451331,-0.391348,-0.0864864,-0.0272309
91474693,91473861,-0.340691,0.022377,-0.031998
91492229,91491377,-0.307927,-0.0694209,0.028405
91512241,91511397,-0.668638,-0.0286548,0.0346971
91532260,91531421,-1.10555,0.0532387,0.0848019
91554776,91553944,-0.790725,0.187466,-0.00212202
91572309,91571466,-0.64004,0.126748,0.00917823
91592337,91591485,-0.0200747,0.083024,0.0271839
91614849,91614010,0.00808619,0.159432,0.045423
91632386,91631541,-0.227764,0.174767,-0.0239187
91652389,91651552,-0.181556,0.07485,0.0252871
91672411,91671574,0.0677049,-0.060771,0.0360868
91694931,91694099,0.695862,-0.0945123,-0.0212365
91712455,91711618,0.797176,-0.128081,-0.0513561
91732478,91731640,0.827856,-0.104148,-0.00810778
91752499,91751662,0.527054,-0.225473,-0.0169203
91775027,91774190,0.0846865,-0.207191,0.0695249
91792544,91791707,-0.0645462,-0.166867,-0.026276
91812569,91811729,0.319406,-0.249113,0.00101005
91835109,91834273,0.805435,-0.206094,0.0366212
91852610,91851773,0.493064,-0.0336393,-0.0582471
91872632,91871795,0.070219,-0.00248019,0.0417304
91892669,91891818,-0.254783,0.0835763,0.0537004
91915177,91914343,0.115202,-0.00566737,-0.0136057
91932707,91931862,-0.0117829,0.0639295,0.00970493
91952721,91951884,0.403967,0.150554,-0.00409211
91975262,91974409,-0.126636,0.101887,0.0250725
91992776,91991928,-0.183304,0.25086,0.0497239
92012805,92011960,-0.580628,0.176685,0.0275645
92032809,92031972,-0.631185,-0.0630564,0.0159533
92055341,92054499,0.329036,-0.0798573,-0.0272342
92072856,92072016,0.122984,-0.126732,-0.071385
92092878,92092039,0.07686,-0.0325898,0.0130071
92112897,92112061,-0.257271,-0.0561107,0.0283877
92135419,92134586,-0.25134,-0.0524472,-0.00192678
92152941,92152105,-0.2557,-0.15969,0.0663141
92172968,92172128,0.414062,-0.0157218,-0.00718162
92195488,92194652,0.34215,-0.0265015,0.0121078
92213012,92212172,0.463441,0.0051979,0.0278473
92233033,92232194,0.13756,-0.0888295,0.055032
92253066,92252218,-0.0170618,-0.130003,0.0875773
92275582,92274741,0.695976,-0.0805882,0.0155514
92293114,92292278,0.45172,0.0755475,-0.0594386
92313121,92312283,0.585121,0.0152263,0.0181154
92335640,92334807,-0.0556756,0.0533842,0.122962
92353165,92352327,-0.0134648,0.146143,0.0042897
92373195,92372357,-0.211008,0.0548225,0.0208515
92393210,92392373,0.252359,0.0884576,-0.00709922
92415729,92414896,0.593041,0.108959,-0.0467743
92433254,92432415,0.347243,0.104859,-0.0708602
92453282,92452438,-0.125804,-0.0409334,-0.0338081
92475818,92474975,-0.338636,-0.16134,-0.00506507
92493331,92492482,-0.330064,-0.159961,-0.0133803
92513344,92512504,0.0457992,-0.0535735,-0.055293
92533362,92532526,0.115681,-0.117015,-0.00284272
92555883,92555051,-0.592742,-0.0893914,0.0527498
92573406,92572570,-0.45439,0.0869999,0.0268261
92593438,92592592,-0.549006,0.00987467,-0.0447324
92613451,92612614,-0.0467214,0.0580117,0.0176701
92630964,92630134,-0.070116,0.103586,-0.0663709
92653495,92652659,0.465918,0.148341,-0.0759619
92673517,92672681,0.218783,0.258353,-0.023794
92696054,92695221,-0.363886,0.170679,-0.0317524
92713581,92712725,-0.198527,-0.077912,-0.0176773
92733594,92732747,0.306335,-0.055094,-0.00770637
92753624,92752770,0.749744,-0.0680137,-0.134304
92771142,92770296,0.678291,-0.074286,-0.0959691
92793655,92792814,0.46206,0.0560039,-0.0410543
92813681,92812836,0.174024,-0.110207,-0.0357724
92836193,92835361,0.580623,-0.0769248,-0.0516232
92856236,92855385,1.21772,0.0828404,-0.105024
92873752,92872914,0.917261,0.0163574,-0.123674
92893761,92892925,0.724804,0.0479066,-0.0578577
92911291,92910452,0.670219,-0.0682291,-0.078215
92933805,92932969,-0.138094,-0.0840112,0.024148
92953833,92952991,-0.101087,0.0383596,-0.0231615
92976362,92975516,0.372327,0.174516,-0.0638656
92991364,92990533,-0.0427895,0.113276,-0.100829
93013897,93013058,-0.378683,0.0730191,-0.00280281
93033930,93033080,-0.960548,0.150167,0.0442871
93051430,93050599,-0.87402,-0.0388767,-0.0198429
93073965,93073129,-0.75101,-0.150822,0.048872
93093985,93093149,0.0577441,-0.184994,-0.0461258
93114013,93113169,-0.0653571,-0.248318,-0.0630061
93131523,93130688,-0.0700258,-0.159224,-0.0276623
93154053,93153215,-0.839005,-0.117283,0.0102267
93174079,93173235,-0.657763,-0.238695,-0.0254796
93191586,93190754,-0.575814,-0.156268,-0.0126975
93214122,93213285,0.189077,-0.0328531,-0.0997831
93234140,93233304,-0.162453,0.156627,-0.0323097
93254160,93253324,-0.542775,0.196863,0.0132044
93271683,93270843,-0.586577,0.359834,0.0367646
93294205,93293368,-0.604249,0.221466,-0.0109141
93314228,93313390,0.0139729,0.032438,-0.0344586
93331744,93330910,0.0737124,0.0651646,-0.0457281
93354289,93353434,-0.0356184,-0.0854573,-0.0592753
93374301,93373456,-0.573877,-0.193231,0.0134189
93394322,93393479,-0.337279,-0.38519,0.0153952
93411832,93411002,-0.271597,-0.429694,0.00603087
93434370,93433523,0.616437,-0.469241,-0.0769819
93456886,93456049,0.417948,-0.48486,-0.0665132
93471908,93471067,0.914333,-0.304115,-0.0299058
93491923,93491092,0.457278,-0.374327,-0.0670369
93514455,93513618,0.226707,-0.42888,0.00389672
93534480,93533635,0.54143,-0.457037,-0.035737
93551994,93551157,0.20102,-0.376702,-0.0838567
93574518,93573678,0.417651,-0.386678,-0.0363158
93594544,93593700,-0.0883377,-0.334045,0.0192784
93612068,93611222,0.0976997,-0.334617,-0.0227786
93632082,93631244,-0.544958,-0.298043,0.0195411
93654605,93653768,-0.5436,-0.135059,-0.0405833
93674626,93673789,-0.356799,-0.0966878,-0.0418914
93692143,93691308,-0.685251,0.0701278,-0.105042
93714681,93713837,-0.876496,0.224102,-0.053264
93734702,93733857,-1.24442,0.248303,0.0140439
93752206,93751375,-1.02589,0.163843,0.0161716
93772233,93771397,-1.11915,0.15465,0.000711891
93794765,93793922,-0.448541,0.132823,-0.0646651
93814792,93813948,-0.385135,0.00981548,-0.0185434
93832301,93831463,-0.0716683,-0.0960815,-0.0275064
93854837,93853993,-0.512073,-0.269297,0.031395
93874849,93874011,-0.320763,-0.349026,0.0529427
93892361,93891530,-0.195535,-0.391558,-0.0372358
93912389,93911552,0.364255,-0.37783,-0.0345487
93934914,93934077,0.865746,-0.257444,-0.0682912
93954936,93954099,0.409221,-0.232631,0.0192426
93972458,93971619,0.518741,-0.0605445,0.00985703
93992472,93991641,0.396678,0.00498757,-0.0212297
94015002,94014166,0.726709,0.124903,-0.0503518
94032527,94031685,1.08532,0.311449,-0.0259577
94052544,94051707,1.20311,0.491722,-0.114187
94075072,94074232,0.565856,0.632688,0.0103761
94095117,94094257,-0.0846993,0.729707,0.0527435
94112615,94111774,-0.416363,0.877894,0.0375887
94132627,94131796,-0.765781,0.860372,0.0112054
94155172,94154333,-0.387118,0.8478,-0.00360665
94172678,94171840,-0.352162,0.690183,0.028872
94192694,94191862,-0.735445,0.578017,0.0337731
94215236,94214388,-1.31815,0.344447,0.0457921
94235258,94234410,-1.20584,0.212043,0.00829107
94252760,94251929,-1.02305,0.192834,0.0318647
94272782,94271951,-0.296493,-0.000130958,-0.0458204
94295319,94294476,-0.106977,-0.0540112,-0.0522097
94312830,94311995,0.0803299,-0.214732,0.0014686
94332859,94332027,0.0123355,-0.242802,0.0890681
94352871,94352040,0.124619,-0.227355,0.00321298
94375401,94374565,1.0717,-0.184409,-0.0453333
94392918,94392084,1.11655,-0.0627133,-0.0894145
94412937,94412106,1.17156,-0.0194833,0.00475558
94435470,94434632,0.352071,-0.0292278,0.0889478
94452982,94452151,0.235479,0.106004,0.0159831
94473004,94472173,0.0770352,0.0320206,-0.0606795
94493029,94492195,0.407496,-0.000241612,0.0105042
94515560,94514720,0.419172,0.0559994,0.0374512
94533081,94532243,0.389645,-0.0360841,-0.0420987
94553099,94552262,-0.170315,-0.172459,0.0172678
94575625,94574789,-0.396661,-0.24132,0.0738743
94593138,94592306,-0.389549,-0.0755346,-0.0272173
94613159,94612328,-0.127297,-0.00483938,-0.0397369
94633181,94632351,-0.168132,-0.0336043,-0.0722251
94655711,94654875,-0.947453,-0.0800195,-0.0065644
94673228,94672395,-1.18319,0.0676273,0.0557482
94693250,94692417,-1.21977,0.165033,-0.00970542
94715788,94714942,-0.688058,0.191097,-0.056223
94733309,94732464,-0.276341,0.084985,-0.00534965
94753326,94752483,-0.025396,0.117797,0.0176388
94773356,94772506,-0.201667,0.0935659,0.0325988
94795867,94795031,-0.100015,0.0377883,0.0475694
94813381,94812550,0.116681,0.166793,-0.00662755
94833414,94832575,0.538827,0.0620774,-0.031828
94855937,94855097,0.959807,0.0999732,0.00414102
94870950,94870114,1.0577,0.0772545,-0.0722398
94893470,94892639,0.433028,-0.0312627,0.0452122
94913499,94912664,0.00953493,0.0682932,0.0244441
94936025,94935186,0.707727,0.054001,-0.091549
94953536,94952705,0.542132,0.0599891,-0.0198777
94973569,94972727,0.858865,0.0415721,-0.0446073
94993596,94992755,0.374932,-0.0228608,-0.039351
95011111,95010275,0.182116,-0.0244458,-0.0237334
95033638,95032794,-0.200852,-0.127989,0.012706
95053653,95052816,0.226909,-0.00386335,0.0091079
95076177,95075341,0.364952,0.0765982,-0.0275651
95093702,95092861,0.427844,-0.000104436,-0.0111843
95113722,95112884,-0.0334349,-0.118224,0.0891836
95133747,95132905,-0.511664,-0.0939169,0.130337
95151271,95150424,-0.414187,-0.130671,0.0389576
95173780,95172949,0.176485,-0.222707,-0.0115465
95193814,95192972,0.641713,-0.195295,0.0638937
95216355,95215499,-0.17102,-0.254085,0.117512
95233850,95233016,-0.101615,-0.374133,0.0772843
95253869,95253038,-0.125347,-0.409134,0.090769
95273891,95273060,0.498654,-0.344344,0.0745487
95291416,95290580,0.339887,-0.319553,0.0933376
95313935,95313104,0.825033,-0.227088,0.033675
95333958,95333127,0.283768,-0.219418,0.127296
95353986,95353149,-0.221003,-0.10599,0.124636
95371505,95370668,-0.438101,0.0923664,0.0685472
95394030,95393193,-0.162586,0.0914698,-0.0214645
95414048,95413217,0.18692,0.105513,0.0957064
95431586,95430749,0.229567,0.201139,0.0916889
95454097,95453260,-0.422005,0.182608,0.107953
95474115,95473284,-0.743293,0.053321,0.0967008
95494138,95493304,-0.723184,-0.0431104,0.102943
95511664,95510824,-0.716767,-0.0467302,0.0571586
95534195,95533349,-0.15453,-0.138649,-0.0132802
95554202,95553371,-0.266991,-0.124716,0.0814021
95571726,95570890,-0.475952,-0.206503,0.0017506
95594269,95593415,-1.00236,-0.245956,0.0860797
95614291,95613440,-0.609464,-0.241311,0.0684208
95634304,95633459,-0.110855,-0.420756,0.00917414
95651819,95650979,0.438596,-0.332839,0.057155
95674338,95673504,0.649079,-0.355901,0.00471815
95694384,95693539,0.396606,-0.345593,0.0711393
95711882,95711045,0.54106,-0.280304,0.00256113
95731905,95731068,0.370582,-0.288097,0.0442237
95754425,95753594,1.13129,-0.102974,-0.028579
95774447,95773617,1.02042,0.0195637,-0.0442448
95791970,95791134,0.854755,0.170417,0.0147931
95814497,95813659,-0.266013,0.289517,0.00840842
95834513,95833682,-0.463691,0.314319,-0.0105799
95852041,95851201,-0.702969,0.257455,0.0208172
95872065,95871229,-0.338856,0.268108,-0.00479175
95894579,95893748,-0.167563,0.147595,-0.0250271
95914601,95913770,-0.775791,0.147386,-0.039619
95932129,95931290,-0.816448,0.0892566,0.0522651
95954654,95953816,-1.09411,0.0406286,-0.0125761
95974667,95973837,-0.638294,-0.121546,-0.0431697
95992193,95991356,-0.403289,0.018959,-0.0882563
96012217,96011379,0.184085,-0.0664417,-0.118843
96034736,96033905,-0.0171502,0.0965409,-0.0491155
96054756,96053925,-0.152029,-0.000172397,0.00494402
96072290,96071445,-0.215313,0.0434269,0.0221534
96094813,96093970,0.205446,0.073624,-0.056911
96114823,96113992,0.408445,0.0677241,-0.0626382
96132357,96131511,0.574251,0.0714916,0.0131512
96152370,96151534,0.334725,0.230073,-0.0687486
96174889,96174059,-0.230838,0.0818317,-0.0324365
96194918,96194081,-0.353917,0.038705,-0.014751
96212447,96211607,-0.0727478,0.041861,-0.0216737
96232459,96231622,0.268756,-0.0148247,-0.0802623
96254982,96254147,0.630398,0.0209597,-0.021048
96272504,96271667,0.520428,-0.00916895,-0.0246088
96292526,96291689,0.0466995,0.022215,0.0473012
96315052,96314219,-0.123627,0.115045,0.0132315
96335077,96334240,0.183717,0.111361,-0.0383022
96352592,96351755,0.325247,0.241852,0.00468595
96372620,96371778,0.591351,0.333568,-0.08175
96395140,96394309,-0.12075,0.376323,-0.0414763
96412659,96411822,-0.459453,0.436321,0.0450378
96432687,96431846,-0.727955,0.409738,0.0186878
96455201,96454370,-0.286347,0.319473,-0.0226692
96472733,96471889,-0.0519174,0.3185,0.0333424
96492748,96491911,0.066646,0.339755,-0.0505318
96512778,96511933,-0.208406,0.194691,-0.0289832
96535299,96534458,-0.656817,0.2063,0.0330833
96552817,96551978,-0.379344,0.0226651,-0.00189168
96572836,96572000,-0.122826,0.00433572,-0.0205304
96592861,96592022,0.361601,-0.0297607,-0.0296237
96615378,96614547,0.220655,-0.0917311,0.0361702
96632906,96632066,0.256944,-0.158044,-0.0502126
96652925,96652088,0.0247059,-0.13236,0.0336716
96675445,96674613,0.221521,-0.0874741,0.0157996
96692970,96692133,0.431027,0.0251413,-0.0645251
96713002,96712155,0.634683,-0.0489223,-0.0292634
96733014,96732177,0.750079,0.0132513,-0.00061498
96755534,96754702,-0.0265723,0.0387551,0.017301
96773063,96772223,-0.423068,0.0887412,0.00779647
96793092,96792247,-0.243488,0.0867451,-0.0191106
96815604,96814771,0.213074,0.0511759,-0.0768665
96833127,96832290,0.211691,0.0693838,-0.0592189
96853147,96852310,-0.000709309,0.137228,-0.0349217
96873173,96872337,-0.580072,0.0446285,-0.0309508
96895688,96894857,-0.540513,0.0570307,-0.0430916
96913215,96912377,-0.348082,-0.00735034,-0.064744
96933240,96932399,0.287342,0.0478721,-0.0842188
96955765,96954924,0.315104,0.180497,-0.0771341
96973298,96972443,0.228233,-0.0442538,-0.0966803
96993308,96992466,-0.389423,-0.030635,0.0183688
97013330,97012488,-0.319546,-0.10808,-0.05494
97035844,97035013,0.449225,-0.135841,-0.0861218
97053368,97052532,0.637343,-0.0883924,-0.108391
97073394,97072554,0.601081,-0.0908915,-0.107989
97093413,97092576,-0.0446684,-0.197169,-0.00073006
97110928,97110096,-0.132087,-0.0246925,-0.0526285
97133458,97132621,-0.374123,-0.14584,-0.0651732
97153482,97152643,0.034641,-0.0995985,-0.0487557
97176004,97175170,0.362543,0.119419,-0.0579417
97193524,97192687,0.338531,0.0743837,-0.0961006
97213546,97212710,-0.149694,0.154604,0.0307705
97233583,97232732,-0.331393,0.188404,-0.00554396
97251095,97250253,-0.116735,0.00133075,0.0165987
97273623,97272776,0.793587,-0.0319183,0.00666195
97293644,97292798,0.880132,-0.0955169,-0.0434741
97316155,97315324,-0.0875482,-0.432901,0.0251997
97333684,97332843,-0.390078,-0.460527,0.0764885
97353701,97352865,-0.307287,-0.5026,-0.00982122
97373742,97372887,-0.0434145,-0.599562,-0.0206912
97391258,97390407,0.201281,-0.575113,-0.0273813
97413770,97412931,0.183359,-0.456396,-0.116426
97433791,97432954,-0.438482,-0.461478,-0.0163462
97456326,97455479,-0.534841,-0.463385,0.00216087
97473841,97472998,-0.541729,-0.201804,-0.0103679
97493858,97493020,-0.181597,-0.219338,-0.032276
97513879,97513042,0.127131,-0.0188313,0.047418
97531397,97530562,0.126883,0.145329,-0.028313
97553923,97553087,-0.453063,0.216822,-0.00956514
97573945,97573109,-0.516019,0.173989,0.0500331
97596471,97595634,0.366135,0.266087,-0.00236982
97611483,97610651,0.0645326,0.156706,0.0189191
97634014,97633176,0.75782,0.154235,0.00623374
97654045,97653204,0.38529,0.170724,-0.000612474
97671560,97670717,0.148724,0.00428649,-0.00305734
97694085,97693242,0.0215088,0.0458595,0.0266441
97714116,97713280,0.697826,-0.0681485,-0.0480409
97734127,97733287,0.939807,0.0656366,-0.0567176
97751644,97750806,0.973338,0.0353044,-0.143301
97774168,97773331,0.405431,0.0121693,-0.0306873
97794191,97793354,-0.149749,0.0388756,0.0770797
97811712,97810873,-0.181642,0.129509,-0.014822
97834250,97833398,-0.0844998,0.055803,-0.0186132
97854263,97853420,0.213518,0.0125915,0.015614
97874286,97873442,-0.211818,0.0655787,-0.0181514
97891794,97890961,-0.662779,-0.0417523,0.0639494
97914329,97913486,-1.28936,-0.0544011,0.0740506
97934352,97933512,-1.04011,-0.0405147,0.0895011
97951861,97951028,-1.16298,-0.0741324,0.00532481
97971886,97971053,-0.531189,0.0189457,-0.0093926
97994418,97993581,-0.449116,0.0303184,-0.0212161
98014436,98013599,-0.742384,0.102745,0.0434093
98031949,98031117,-0.567721,0.0987638,0.0010444
98054479,98053642,-0.359603,0.0647251,0.0086369
98074503,98073664,0.182779,0.152108,-0.0115193
98092018,98091183,0.436997,0.0655043,-0.0236077
98112044,98111206,0.477371,0.175662,-0.0321485
98134572,98133731,-0.146674,0.105195,0.0386603
98154600,98153753,-0.155098,0.0860913,0.0253468
98172125,98171284,0.0191037,0.0454614,0.0591796
98194678,98193823,0.61873,0.115804,-0.0169721
98214659,98213819,0.46911,0.0995359,-0.00907406
98232178,98231346,0.638794,0.050413,0.0208753
98252200,98251363,0.205456,0.0807815,0.00934982
98274734,98273898,-0.309203,0.0732817,0.0196164
98294745,98293908,0.0910857,0.175046,-0.012589
98312270,98311428,0.156555,0.113969,-0.0238135
98334807,98333956,0.332253,0.184692,-0.0196414
98354830,98353980,0.0156603,0.103496,-0.0416245
98372335,98371494,-0.110224,0.085945,0.0269822
98392359,98391516,-0.388568,0.115857,-0.0215237
98414877,98414041,0.0573271,0.0506951,-0.0665497
98434904,98434063,0.484996,0.122115,-0.0554191
98452419,98451585,0.439894,0.100704,-0.128323
98472447,98471605,0.444273,0.220156,-0.0415208
98494966,98494130,-0.428216,0.313799,0.0082731
98512487,98511650,-0.264184,0.111988,0.00103935
98532504,98531672,-0.254042,0.281786,0.0265166
98555038,98554197,0.76452,0.271271,-0.0759066
98575060,98574224,0.662455,0.221354,-0.0585808
98592580,98591741,0.6643,0.164272,-0.0856901
98612599,98611760,0.0631943,0.0114278,-0.0120698
98635130,98634286,-0.295823,0.0342274,0.0223879
98652652,98651807,0.00658711,-0.0531503,-0.0521501
98672667,98671834,0.441863,-0.0889227,-0.0506236
98695195,98694352,0.801166,0.0613011,-0.0440928
98715215,98714374,0.351917,-0.0108154,-0.0530391
98732730,98731894,0.0742627,0.00302452,0.0534777
98752748,98751916,0.171592,-0.0135355,0.0066173
98775303,98774441,0.828461,-0.120447,-0.0240909
98792799,98791967,0.897336,0.0168293,-0.0341637
98812815,98811983,0.877601,-0.00846432,-0.0513505
98835358,98834507,0.11365,0.00983004,0.0671468
98855372,98854533,0.0526272,0.0044696,0.0677999
98872889,98872049,0.27945,-0.0535592,0.0447594
98892904,98892071,0.416641,-0.00828114,0.0655263
98915433,98914596,0.469263,0.0178416,0.0356955
98932948,98932116,0.123611,-0.0425855,0.0663921
98952970,98952138,-0.368158,0.0267589,0.101363
98973000,98972168,-0.476926,-0.131418,0.043596
98995521,98994685,-0.145761,-0.122296,-0.0303984
99013042,99012204,0.0816612,-0.0124199,0.00349826
99033064,99032232,0.00343797,-0.092848,-0.0536382
99055590,99054754,-0.936443,-0.0588288,0.0566718
99073113,99072280,-0.858019,-0.00223663,0.0229299
99093137,99092296,-0.92735,-0.121843,0.0342544
99113151,99112318,-0.365979,0.00739187,-0.0138031
99135692,99134841,0.289006,0.0426371,-0.066822
99153201,99152368,0.211822,0.0718558,-0.0158145
99173217,99172382,-0.0826117,0.109865,0.0374727
99195754,99194907,-0.400121,-0.0394085,0.00674031
99213281,99212427,-0.435147,-0.00991895,0.0965368
99233297,99232454,0.285144,0.0173501,-0.063661
99253324,99252473,0.764132,0.0290932,-0.000535479
99275835,99274996,0.206983,0.0892667,0.0299349
99293367,99292518,0.0180826,0.102173,0.0638213
99313373,99312537,-0.182714,0.0678833,0.0345948
99333398,99332560,0.256914,-0.0698987,0.0805976
99350915,99350079,0.213587,-0.0361361,0.0321198
99373451,99372604,0.663935,-0.110426,0.0133395
99393475,99392639,0.182541,-0.0988486,0.0707935
99415987,99415151,-0.431578,-0.159063,0.0782279
99433523,99432671,-0.4108,-0.413056,0.103264
99451029,99450190,-0.729894,-0.382557,0.120723
99473551,99472715,-0.167302,-0.395061,0.0467242
99491077,99490234,-0.305802,-0.544925,0.100232
99513603,99512760,-0.699717,-0.585505,0.117195
99533639,99532803,-0.870057,-0.517755,0.123417
99556144,99555307,-0.680071,-0.415374,0.0925345
99573660,99572826,-0.66697,-0.112117,0.0425248
99593681,99592848,-0.359035,-0.108273,0.0682382
99613702,99612870,-0.408058,0.0914295,0.0593926
99631228,99630390,-0.401164,0.132332,0.0655042
99653755,99652917,-0.813778,0.222834,0.106274
99673769,99672937,-0.114558,0.230846,0.00845909
99696338,99695464,0.37001,0.166453,-0.00953089
99713819,99712982,0.290341,0.282105,-0.0144502
99733845,99733010,0.338495,0.206686,0.00160774
99753861,99753026,0.00133814,0.064549,0.0392841
99771381,99770545,-0.0489041,0.286966,0.0182741
99793915,99793070,0.282554,0.0705778,-0.0297255
99813925,99813092,0.534595,-0.0817506,0.0255731
99836478,99835620,0.237481,-0.131005,-0.0146493
99851473,99850637,0.227198,-0.148453,-0.00256917
99873998,99873159,-0.415524,-0.144874,0.00298656
99894014,99893182,-0.20224,-0.351046,0.0156739
99911537,99910701,-0.321094,-0.264874,-0.00602745
99934077,99933238,0.332174,-0.184539,-0.0784806
99954088,99953250,0.401343,-0.0543532,-0.0289731
99974117,99973284,-0.000354442,-0.0624162,-0.0394033
99991626,99990790,0.221615,-0.0608307,-0.0408474
100014149,100013317,0.20826,-0.095901,-0.0144589
100034187,100033342,0.278366,0.0283341,-0.0562446
100051696,100050856,0.419477,-0.124513,-0.0390822
100074250,100073399,0.296747,-0.0821792,0.0455853
100094256,100093406,-0.245278,-0.0962284,0.00658268
100114272,100113428,-0.540684,0.0135966,0.0588074
100131781,100130945,-0.641264,0.00755895,0.0328461
100154316,100153478,-0.00279018,-0.0130705,0.00999618
100174331,100173492,0.136891,0.0956307,0.0348148
100191848,100191012,-0.069965,0.151248,0.00709286
100211870,100211034,-0.185332,0.198586,0.0710189
100234416,100233584,-0.542115,0.201118,0.0400245
100251914,100251078,-0.528301,0.322227,0.0369705
100271936,100271100,-0.22785,0.22537,0.00630816
100294459,100293627,0.197373,0.221461,0.0292626
100314480,100313648,0.0570588,0.101381,0.00687181
100332003,100331167,-0.0592442,0.0369543,0.0760668
100352030,100351189,-0.187989,0.162789,0.0129612
100374547,100373714,0.138247,0.0323621,-0.0308532
100392083,100391239,-0.0435674,0.186121,-0.0193898
100412100,100411256,0.635378,0.0147295,-0.0447348
100434615,100433783,0.312282,-0.141106,0.0352212
100454640,100453805,-0.293284,-0.16349,0.0533964
100472159,100471323,-0.373569,-0.00713693,0.0187764
100492184,100491345,-0.643114,-0.158706,-0.00243461
100514705,100513870,-0.297054,-0.262089,-0.0328639
100532229,100531389,0.0457813,-0.201388,-0.0274627
100552257,100551411,-0.121154,-0.154946,-0.0826156
100574788,100573936,-0.635274,-0.093134,0.0168588
100592330,100591463,-0.555843,0.120187,0.0626779
100612321,100611478,-0.55738,0.158209,-0.0191131
100632341,100631500,-0.189395,0.286192,-0.0304116
100654860,100654027,0.680047,0.442083,-0.0944515
100672389,100671547,0.636632,0.322631,-0.0537665
100692406,100691567,0.572796,0.224601,-0.0120593
100712434,100711591,0.247848,0.0594779,0.0248159
100734953,100734114,0.257301,-0.00704182,0.0168699
100752470,100751633,0.183053,-0.0826972,-0.0794023
100772492,100771655,0.561338,-0.207122,-0.05765
100795013,100794180,0.429587,-0.262886,0.011388
100812537,100811700,0.214746,-0.335987,-0.0797528
100832561,100831724,-0.362921,-0.382412,0.0462019
100852584,100851747,-0.448324,-0.55561,0.0169312
100875108,100874276,0.168291,-0.707144,-0.0419269
100892625,100891789,0.460588,-0.605746,-0.0141955
100912647,100911811,0.439992,-0.576196,-0.0743816
100935170,100934337,-0.221121,-0.490909,0.00454393
100952692,100951855,-0.207824,-0.241778,0.049347
100972718,100971877,-0.188773,-0.259029,-0.0462574
100992736,100991900,0.0725903,-0.2098,-0.0288186
101015261,101014425,0.606568,-0.099306,-0.0333957
101032781,101031944,0.440109,-0.0156625,0.000148772
101055315,101054471,-0.551071,-0.0933958,0.0366869
101075333,101074491,-0.500282,-0.0556217,0.0589282
101095349,101094514,-0.212629,-0.208326,0.0507516
101112869,101112033,-0.17268,-0.216017,0.0452104
101132898,101132055,-0.137044,-0.272249,0.00171585
101155420,101154580,-0.590517,-0.268791,0.0842442
101172938,101172099,-0.651287,-0.181171,0.105107
101192961,101192122,-0.924393,-0.17114,0.0734457
101212980,101212144,-0.71601,-0.344516,0.126549
101235502,101234669,0.300301,-0.163611,0.0645755
101253027,101252188,0.29815,-0.177074,0.032737
101273081,101272216,0.532942,-0.202267,0.107575
101295579,101294743,0.040066,-0.142461,0.129085
101313097,101312255,0.0438988,0.0562916,0.114384
101333123,101332287,0.331882,0.0935738,0.0234745
101353136,101352300,0.626506,0.0191534,0.0416976
101375662,101374824,0.512676,0.00546333,0.102167
101393181,101392344,0.116513,-0.155251,0.0481519
101413202,101412366,-0.477678,-0.102683,0.185629
101435736,101434891,-0.226314,-0.0280408,0.0675025
101453265,101452416,-0.293911,0.0845658,0.0509374
101473277,101472432,0.168271,0.416549,-0.00126061
101493297,101492455,0.154381,0.54419,0.0273236
101515812,101514980,-0.351715,0.73373,0.0964788
101533348,101532502,-0.0049649,0.879961,0.062086
101553358,101552521,0.05335,0.95445,0.0650326
101573382,101572544,0.685635,0.956727,0.0363358
101590897,101590063,0.820663,0.73714,0.0427572
101613428,101612588,0.702912,0.571722,0.0524577
101633447,101632610,0.589798,0.417466,0.100285
101655971,101655137,0.724211,0.244894,0.0395763
101673493,101672657,0.664834,0.316579,0.0157426
101693531,101692695,1.37146,0.29941,-0.0191852
101713538,101712699,1.5159,0.254137,-0.0574131
101731056,101730220,1.53565,0.281802,-0.00146257
101753595,101752743,0.804068,0.0175187,-0.00261632
101773612,101772766,0.457777,0.0831533,0.0347588
101796126,101795294,1.14256,0.0697727,-0.0727167
101813647,101812810,0.956394,-0.106807,-0.0174191
101833672,101832832,0.639118,-0.074152,-0.00929117
101853691,101852855,-0.0502797,-0.158706,0.0531658
101871220,101870374,-0.157577,0.000360165,0.0238019
101893736,101892899,-0.676108,0.000799162,-0.0317807
101913766,101912921,-0.383462,-0.00912908,-0.0888689
101936329,101935453,-0.161067,0.0185077,-0.00632074
101953806,101952966,-0.31747,0.117703,-0.0770226
101973826,101972988,-0.699878,0.147235,-0.0294829
101993851,101993013,-0.848208,0.117962,-0.0413294
102011361,102010529,-0.696476,-0.0629127,0.0436568
102033908,102033065,-0.081152,-0.0227825,-0.0153188
102056424,102055581,-0.192485,-0.0421724,-0.0973288
102076440,102075602,-0.558696,-0.0278182,-0.0305112
102091450,102090618,-0.31752,0.0785337,-0.10583
102113979,102113143,-1.02575,-0.0306411,-0.0643255
102134005,102133166,-0.92372,0.0874391,-0.0478065
102151529,102150698,-1.02406,0.113302,-0.1182
102174049,102173210,-0.370544,0.132083,-0.145766
102194082,102193238,-0.608858,0.267413,-0.09691
102214100,102213257,-1.0621,0.069879,-0.112501
102231617,102230774,-1.13569,0.0803803,-0.0321497
102254136,102253299,-0.753359,-0.063802,-0.162109
102274158,102273321,-0.285652,-0.131197,-0.206892
102291679,102290841,-0.12249,-0.209034,-0.159756
102314202,102313366,-0.155382,-0.241072,-0.0497096
102334232,102333388,-0.203574,-0.231772,-0.0209784
102354248,102353410,-0.0304434,-0.184889,-0.103925
102371760,102370930,-0.0456937,-0.0844233,-0.0649349
102394304,102393462,0.855874,-0.120644,-0.0903703
102414320,102413477,0.844181,-0.0696391,-0.0156008
102431827,102430996,0.769117,-0.086562,-0.0489148
102454378,102453521,0.114363,-0.158934,0.00415125
102474389,102473543,-0.108689,-0.104755,0.0772268
102494428,102493581,0.279111,0.0158863,-0.0901431
102511915,102511085,-0.0605256,-0.00593691,-0.0813463
102534455,102533615,0.0617145,0.0983799,-0.0104091
102554470,102553634,-0.373569,-0.033662,0.0324853
102571982,102571152,-0.445523,0.0322409,0.0042779
102592006,102591175,-0.79988,0.109015,0.00189061
102614542,102613699,-0.255074,0.206939,-0.0668391
102634558,102633721,-0.118158,0.23705,-0.0791688
102652082,102651240,0.239851,0.0978322,-0.0419948
102674602,102673765,-0.144995,0.0217595,-0.00978925
102694625,102693789,-0.33092,-0.138698,-0.000222379
102712138,102711307,-0.262349,-0.0638487,0.0363903
102732164,102731330,0.0265661,-0.190262,-0.0775483
102754694,102753858,0.749609,-0.165284,-0.0666763
102774715,102773876,0.81402,-0.0794482,-0.0522326
102792229,102791396,0.667034,0.0779279,0.0108169
102814768,102813921,-0.145453,0.236204,0.0237504
102834780,102833943,0.121906,0.243083,-0.0662929
102852303,102851463,0.0750239,0.23442,-0.013771
102872330,102871491,0.663573,0.249702,-0.0278909
102894850,102894013,0.40498,0.179446,-0.0359889
102914871,102914032,-0.177069,0.14846,-0.0195524
102932391,102931551,-0.43066,0.0502397,0.0447274
102952405,102951574,-0.830844,-0.0491181,0.0309657
102974935,102974099,-0.287796,-0.171523,-0.0730303
102992452,102991618,-0.0826087,-0.263848,-0.0431615
103012474,103011640,-0.0390905,-0.303282,-0.0194024
103035002,103034165,-0.566187,-0.23542,0.0972293
103055026,103054188,-0.7095,-0.0532181,0.0497356
103072538,103071707,-0.564371,0.0826043,-0.0162342
103092564,103091729,-0.25639,-0.020251,0.0108394
103115101,103114258,0.767257,0.0878421,0.00825378
103132609,103131774,0.750103,0.123131,-0.0782699
103152627,103151796,0.34339,-0.0752848,-0.0346759
103175157,103174321,-0.425522,-0.0845493,0.0325189
103195180,103194343,-0.0343857,-0.171289,-0.0687316
103212700,103211863,0.0625613,-0.33893,-0.0417345
103232722,103231885,0.646577,-0.331591,-0.117705
103255248,103254410,0.168272,-0.41103,-0.0682585
103272760,103271929,-0.0120333,-0.302618,0.0426242
103292782,103291951,-0.678376,-0.172859,0.0192598
103315324,103314476,-0.386047,0.0221211,-0.0508025
103335345,103334499,-0.162516,0.0956764,-0.0813053
103352849,103352018,0.000725985,0.0407639,0.00507648
103372871,103372041,0.134271,0.000250542,0.00062361
103395416,103394565,-0.447535,0.0253599,0.0360566
103412915,103412085,-0.517898,0.0524828,0.0223506
103432938,103432107,-0.236145,0.0457087,0.0254831
103452960,103452129,0.217389,-0.148376,0.00723774
103475490,103474654,0.395299,-0.101318,0.00507549
103493008,103492173,0.316983,-0.120939,-0.0944952
103513035,103512196,-0.206159,-0.0956085,0.0289043
103535557,103534721,-0.045722,-0.111703,-0.0254127
103553078,103552240,0.058899,-0.190894,-0.0227791
103573106,103572262,0.441384,-0.168656,-0.0239942
103593120,103592288,0.448836,-0.142033,-0.0150655
103615647,103614811,0.0058632,-0.0162547,0.0795308
103633161,103632329,0.0335487,-0.110703,-0.0146029
103653183,103652352,0.0709521,-0.195111,0.081744
103675723,103674876,0.596014,-0.122459,-0.00736209
103693242,103692396,0.57413,-0.284173,-0.0630949
103713251,103712418,0.590886,-0.252948,-0.0270339
103733280,103732440,0.158798,-0.146159,-0.0666394
103755801,103754965,-0.496392,-0.171208,-0.0402295
103773322,103772484,-0.564451,-0.0575678,0.0462951
103793344,103792507,0.139827,-0.0180456,-0.103423
103813360,103812529,0.36858,0.025275,-0.0383006
103830885,103830048,0.485373,0.171672,-0.0755154
103853419,103852588,-0.265631,0.187824,0.00452568
103873443,103872595,-0.839084,0.229496,0.0116156
103895957,103895120,-0.0927947,0.260825,-0.050919
103913474,103912643,-0.135922,0.142026,-0.0646473
103933507,103932676,0.0735168,0.224629,0.0118059
103953521,103952687,-0.291885,0.19512,-0.049897
103971050,103970204,-0.473316,0.129062,0.0328805
103993577,103992729,-0.517006,0.0716623,0.018322
104013591,104012751,0.0216922,-0.0299443,-0.0582541
104036122,104035285,0.434991,-0.0298057,0.00053851
104053638,104052795,0.62585,-0.152502,0.00210649
104073652,104072820,0.134904,-0.158505,0.0929489
104093679,104092840,0.0462843,-0.0762041,0.0652386
104111204,104110359,0.14518,-0.0526064,0.0617716
104133715,104132884,0.907367,0.063993,0.00608019
104153737,104152906,1.05876,0.197385,-0.0612258
104176293,104175431,0.263415,0.257941,0.0113743
104193809,104192951,-0.17237,0.248532,0.107238
104213803,104212973,-0.411864,0.359226,0.0488819
104233826,104232995,-0.500029,0.189519,0.0107539
104251351,104250515,-0.408013,0.221377,0.0540427
104273877,104273039,0.0270249,0.143776,-0.0236437
104293906,104293062,-0.354571,-0.00704087,0.0672358
104316431,104315590,-0.856564,0.142639,0.110643
104331440,104330603,-0.788127,0.135456,-0.0150744
104353959,104353128,-0.492468,0.228395,-0.031211
104373981,104373150,0.214914,0.312673,-0.0467687
104391509,104390670,0.60539,0.310284,-0.000924691
104414031,104413195,0.222693,0.317443,0.000921703
104434050,104433219,-0.00144943,0.236951,0.0682994
104454085,104453239,0.007568,0.222232,0.0933671
104471598,104470758,0.17017,-0.00264704,0.0442067
104494115,104493284,0.801845,0.0145578,0.0211978
104514137,104513306,0.649171,0.0539504,-0.0512887
104531661,104530825,0.486894,0.0349718,0.0734842
104554190,104553350,-0.493102,0.0768747,0.0484119
104574206,104573372,-0.271714,0.00674274,0.023084
104594231,104593395,0.0444067,-0.00728028,0.0687574
104611762,104610914,-0.0650419,-0.00016976,-0.024372
104634282,104633439,-0.0695298,0.013635,-0.000870327
104654297,104653461,-0.53367,-0.00333573,0.063392
104671816,104670980,-0.534305,-0.0169559,0.0510407
104694352,104693505,-0.503873,-0.00571265,0.0439872
104714371,104713527,-0.0968004,-0.00755351,-0.0311099
104734398,104733567,0.140185,0.0219181,0.0308621
104751905,104751069,0.236435,0.0768017,-0.0485272
104774433,104773595,-0.156239,0.0701171,0.059629
104794447,104793616,-0.358899,0.0640388,0.0356148
104811980,104811136,-0.334068,0.0972438,-0.00929586
104831994,104831158,-0.0907205,0.0855729,0.00889464
104854517,104853687,0.424422,0.011189,-0.0133858
104874542,104873712,0.402176,-0.00129247,0.025561
104892073,104891226,-0.0185547,-0.0216272,0.0367799
104914580,104913749,-0.491652,0.01126,0.0486852
104934609,104933771,-0.251976,-0.0865929,-0.0238439
104952128,104951291,-0.36428,0.0393744,0.0299673
104972163,104971324,0.169966,-0.0778657,-0.0502428
104994673,104993838,0.016978,-0.0830919,0.0417511
105014691,105013860,-0.406106,0.00538453,0.0101424
105032222,105031380,-0.455294,-0.0929227,0.0614542
105054745,105053904,-0.53049,0.0609824,0.057527
105074758,105073927,0.186541,-0.024026,-0.0491206
105092293,105091446,0.0493586,0.0586248,-0.0215554
105112311,105111468,0.474977,0.00834137,-0.0485085
105134824,105133993,-0.197229,0.0648506,0.0728372
105154854,105154015,-0.497164,0.0313713,0.049619
105172397,105171547,-0.328263,0.00753833,0.0735599
105192394,105191557,0.0417293,0.118771,0.0528
105214912,105214082,0.635455,-0.0843518,-0.00462286
105232439,105231601,0.755749,0.0140218,0.0468222
105252470,105251625,0.496808,0.0465837,0.017805
105274991,105274148,-0.214733,-0.0489958,0.010456
105295005,105294170,-0.115426,0.0110149,0.027408
105312532,105311690,0.0769065,0.0205007,-0.0283854
105332549,105331712,0.514267,-0.0466469,0.0251405
105355074,105354237,0.556461,0.0738642,-0.0113975
105372592,105371756,0.309211,0.0140053,0.0523047
105392619,105391783,-0.308374,0.0317308,0.0680323
105415144,105414305,0.0130419,-0.0131346,0.00502846
105435157,105434326,0.468452,-0.117591,0.0451059
105452681,105451845,0.524412,0.113527,0.0352161
105472703,105471867,0.332377,0.120162,-0.0307455
105495229,105494392,-0.4853,0.118615,0.0338978
105512748,105511911,-0.316903,0.0956247,0.0928417
105532770,105531934,-0.252742,-0.0572138,0.089176
105555310,105554470,0.561873,-0.0543657,-0.00699422
105572839,105571978,0.387634,-0.0359701,-0.0612904
105592850,105592000,0.45767,-0.0355241,0.0598121
105612859,105612022,0.012602,-0.0876127,0.0322425
105635379,105634547,-0.180213,-0.0724142,0.0455171
105652906,105652067,-0.14209,0.002943,0.0172478
105672925,105672089,0.388185,-0.110636,-0.00138556
105692948,105692111,0.646903,0.0339675,0.019114
105715467,105714636,-0.134564,0.0189901,0.0146527
105732992,105732155,-0.212606,-0.0832328,0.0254175
105753029,105752178,-0.552992,0.0296155,0.0330498
105775540,105774702,0.214938,-0.044601,-0.050704
105793060,105792224,0.249523,0.0506554,-0.0751181
105813087,105812244,0.538752,0.0138602,-0.144191
105833126,105832277,0.269942,-0.0520269,-0.0285415
105855639,105854794,-0.660653,-0.0273464,0.0249036
105873147,105872311,-0.714005,-0.157897,0.00551392
105893169,105892333,-0.498656,-0.112722,-0.0457229
105915688,105914857,0.205577,0.0431739,-0.0873256
105933229,105932377,0.113696,-0.142934,-0.0659688
105953244,105952406,-0.380927,-0.142764,0.0179577
105973259,105972421,-0.659699,-0.198585,-0.0258812
105995777,105994946,-0.330368,-0.372438,-0.0899663
106013311,106012465,-0.196795,-0.368545,-0.0229032
106033332,106032488,0.0489815,-0.454158,-0.0473416
106055846,106055013,-0.411111,-0.35648,0.0205059
106070881,106070029,-0.0618788,-0.396927,-0.104316
106093391,106092554,-0.71516,-0.341902,0.0318674
106113417,106112576,-0.356225,-0.225899,0.0102469
106135935,106135104,0.323971,-0.229792,-0.0749058
106153457,106152621,0.363515,-0.0704688,-0.0364799
106173482,106172643,0.133747,0.0199233,-0.0858547
106193501,106192665,-0.454676,0.00894032,-0.0524842
106211024,106210185,-0.532534,0.164249,-0.016385
106233546,106232709,-0.183549,0.131642,-0.120123
106253586,106252731,0.213669,0.0703854,-0.0627441
106276096,106275256,0.110396,0.135181,-0.0161112
106293622,106292776,-0.194654,-0.00369989,-0.106807
106313643,106312798,-0.594758,0.00444092,0.018604
106333658,106332820,-0.541807,-0.0504535,-0.0525309
106351175,106350342,-0.485924,-0.101004,-0.0253945
106373712,106372864,0.480618,0.106082,-0.110134
106393723,106392886,0.331136,0.0439858,-0.165301
106416261,106415411,-0.366859,0.150151,-0.0588749
106433778,106432931,-0.242965,0.0112259,-0.0501451
106453792,106452953,-0.0938895,-0.0484801,-0.0483084
106473811,106472975,0.382424,-0.0437422,-0.0817365
106491337,106490500,0.415053,-0.139763,-0.0302498
106513858,106513019,0.31595,-0.105325,0.0214053
106533880,106533041,-0.107127,-0.0742449,-0.0145117
106556404,106555566,-0.0580425,-0.118007,-0.044417
106571418,106570582,-0.16928,0.109868,0.0442936
106593945,106593108,0.414165,0.0455637,-0.0907613
106613979,106613130,0.387462,0.0599379,-0.0236653
106631484,106630652,0.480802,0.0898889,-0.00860966
106654028,106653174,-0.495712,0.00240971,-0.0279344
106674034,106673196,-0.641524,-0.0588775,0.0697093
106694065,106693221,-0.329432,0.044107,-0.0172755
106711570,106710738,-0.337021,-0.0508305,-0.019765
106734106,106733269,0.0603427,0.023386,-0.0122577
106754122,106753285,-0.436227,0.0101107,-0.0210981
106771640,106770805,-0.430987,0.0382116,0.00363761
106794169,106793330,-0.485958,0.0178789,0.000558559
106814189,106813352,0.0173168,0.0314605,-0.056742
106834211,106833374,0.343664,0.206904,-0.097841
106851753,106850895,0.411802,0.0980359,-0.0165927
106874270,106873418,0.128537,0.203748,0.00965136
106894285,106893440,-0.168471,0.223309,0.0297384
106911792,106910959,-0.0531703,0.318727,0.0242437
106934331,106933484,0.456474,0.0947767,-0.0139868
106954343,106953506,0.661782,0.115692,0.0474716
106974377,106973529,0.368869,0.00355724,-0.0119799
106991880,106991048,0.349111,0.040721,0.00783928
107014431,107013586,-0.157454,-0.154079,0.0125083
107034433,107033596,-0.053997,-0.161556,0.0117744
107051954,107051116,0.338382,-0.274751,-0.010364
107071969,107071136,0.478092,-0.270187,0.0133594
107094498,107093662,0.344256,-0.305332,-0.0262018
107114529,107113684,-0.00254359,-0.330134,0.0386054
107132047,107131210,-0.0743976,-0.386233,0.0736444
107154564,107153728,-0.0381983,-0.224948,0.054147
107174590,107173750,0.393925,-0.170697,-0.0148352
107192117,107191284,0.311797,-0.0764038,0.0226703
107212130,107211295,0.59662,0.00156547,-0.00829211
107234664,107233817,-0.201013,0.120305,0.0880201
107254678,107253838,-0.590424,0.356672,0.0726253
107272192,107271360,-0.237275,0.347121,0.0482963
107294731,107293883,0.0267518,0.288362,0.0356511
107314753,107313905,0.368135,0.377382,0.0129595
107332261,107331424,-0.0719418,0.39107,0.0138006
107352289,107351446,-0.0418987,0.413681,0.0384594
107374811,107373971,-0.230349,0.330861,0.0113404
107394838,107393996,-0.136606,0.278076,0.0830535
107412351,107411517,0.148438,0.28195,-0.00639672
107432370,107431535,0.372544,0.27265,0.0205592
107454896,107454060,0.521366,0.257359,0.0344856
107472422,107471579,0.734267,0.111805,0.0118319
107492435,107491603,0.364918,0.17709,0.0774663
107514970,107514134,0.51921,0.191498,0.0105666
107534985,107534148,0.91907,0.137668,-0.0121673
107552505,107551668,0.91801,0.15672,-0.00196672
107572525,107571690,0.971482,0.0321053,0.0199151
107595059,107594220,0.24928,0.0147481,0.0693425
107612570,107611734,-0.103186,0.0134267,0.039708
107632602,107631756,-0.180612,-0.0214586,0.0520136
107655121,107654281,0.373532,-0.0872317,0.0101481
107675139,107674303,0.371843,0.0460577,0.00467625
107692655,107691823,0.349579,-0.0686799,-0.0217954
107712682,107711848,-0.0615814,-0.0329998,0.0637194
107735218,107734379,-0.474597,-0.0147277,0.0161155
107752721,107751889,-0.581529,-0.0802477,0.0666464
107772747,107771911,-0.204359,0.0592151,-0.00459672
107795290,107794436,0.214052,0.078601,-0.0699357
107815300,107814458,-0.160657,0.0783753,0.0305264
107832810,107831977,-0.284901,0.165215,0.0152987
107852843,107852001,-0.816948,0.176379,0.0054488
107875361,107874524,-0.367468,0.203957,-0.0253842
107892883,107892044,-0.285715,0.113701,-0.0209548
107912899,107912066,-0.0984651,0.145911,-0.0846596
107932921,107932088,-0.46025,-0.025069,-0.0226464
107955449,107954613,-1.0485,-0.00581766,0.0612089
107972965,107972132,-0.929914,-0.117432,-0.00364726
107993002,107992169,-0.885498,-0.0700443,-0.0040958
108015515,108014679,-0.382774,-0.133225,-0.0380689
108033036,108032199,-0.253577,-0.0980591,-0.0059899
108053074,108052227,-0.532129,-0.128797,-0.0388187
108073087,108072245,-0.719853,0.0721718,0.0619463
108095616,108094768,-0.306993,0.0744713,-0.030071
108113120,108112287,-0.0641249,0.10011,0.0015317
108133145,108132311,0.448233,0.115744,-0.0241437
108155670,108154834,0.549133,0.0152972,0.0680688
108173187,108172353,0.514859,-0.0410599,-0.0256932
108193209,108192376,0.11355,-0.0415681,0.0581158
108213248,108212398,0.138044,-0.0190072,0.0107276
108235759,108234922,0.858771,-0.033108,-0.0336705
108253288,108252444,0.69001,-0.0800204,-0.0395282
108273305,108272464,0.323191,-0.0767355,-0.00540559
108295828,108294989,-0.374625,-0.110573,0.041767
108313351,108312508,-0.301275,-0.200075,0.00596465
108333374,108332535,-0.377529,-0.350757,0.0711965
108353393,108352552,0.0720035,-0.314185,-0.019819
108375914,108375077,0.181754,-0.394184,-0.0311531
108393432,108392597,0.0608963,-0.460339,0.0133507
108413451,108412618,-0.362375,-0.355491,0.0673542
108433480,108432647,-0.636286,-0.344693,0.00866505
108453514,108452665,-0.205872,-0.364742,-0.0135561
108473529,108472685,0.398085,-0.355483,0.0135144
108493542,108492707,0.447687,-0.278673,-0.0577049
108516069,108515232,-0.368986,-0.251548,0.038458
108533596,108532751,-0.264414,-0.160222,0.0871602
108553616,108552773,-0.251356,-0.298512,0.0188482
108573639,108572803,0.159197,-0.151505,0.0322973
108591151,108590315,0.468382,-0.202435,-0.061069
108613677,108612840,0.696376,-0.0102028,0.0343506
108633694,108632862,0.43611,0.0705247,0.0349744
108651219,108650381,0.274081,0.246545,0.059547
108673757,108672915,0.275866,0.181021,0.0140021
108693786,108692943,0.489391,0.0239342,0.0231506
108713782,108712950,0.694659,0.029586,0.0520468
108731317,108730470,0.311345,-0.0655973,-0.024559
108753829,108752996,-0.365812,-0.0824049,0.0633804
108773855,108773023,-0.926934,0.011053,0.0488402
108796393,108795541,-0.432109,0.0303964,-0.0221222
108811397,108810558,-0.910104,-0.0255939,0.0487405
108833932,108833095,-0.12827,0.0845434,-0.0618083
108851453,108850604,-0.152974,0.0710636,0.0115426
108871471,108870635,-0.262626,0.186119,0.0124307
108893981,108893149,-0.573103,0.105136,0.00850292
108914003,108913171,-0.36716,0.0645686,-0.0239386
108934028,108933193,0.112449,-0.101056,-0.0897892
108951548,108950712,0.410064,-0.167365,0.0666845
108974075,108973237,0.320068,-0.352276,0.0306311
108994097,108993259,0.041688,-0.542538,-0.0101447
109011617,109010778,0.0697369,-0.668669,0.058188
109034138,109033304,0.0887116,-0.61741,0.0340032
109054160,109053328,0.400357,-0.497258,-0.0224895
109074180,109073348,0.279085,-0.524262,-0.0351117
109091716,109090878,0.366718,-0.371148,-0.0458562
109114242,109113392,-0.274302,-0.274026,-0.0210951
109134250,109133414,-0.407679,-0.152859,0.0334185
109151772,109150933,-0.521887,0.123652,-0.00541733
109174312,109173458,0.105357,0.154907,-0.0908627
109191823,109190979,0.315024,0.201065,-0.0488719
109214341,109213502,0.574367,0.277177,-0.0488347
109231858,109231021,0.564222,0.161801,0.00628817
109254393,109253548,-0.0597408,0.222555,0.0489177
109271905,109271066,0.10434,0.134467,-0.0120212
109291924,109291088,0.309834,0.117686,-0.0496598
109311947,109311110,0.722314,0.187466,-0.0549554
109334467,109333635,0.572338,0.0603402,-0.0524803
109351994,109351157,0.490076,0.0976345,0.0491092
109372013,109371176,-0.0728711,0.0854512,0.0124247
109394541,109393708,-0.178839,-0.017915,-0.0427691
109412059,109411222,-0.121371,-0.110932,0.0398075
109432086,109431242,0.356544,0.00228415,-0.0665204
109452107,109451270,0.477887,-0.0729348,-0.0478959
109474629,109473797,-0.242215,-0.0906045,-0.00228129
109492145,109491309,-0.2563,0.130443,-0.00619083
109512176,109511331,-0.497598,0.0724975,-0.108817
109534688,109533855,-0.0192882,0.091521,-0.108862
109552242,109551375,0.0980235,0.165002,-0.0815803
109572239,109571397,0.305295,0.357733,-0.110097
109592262,109591419,0.0574824,0.407877,-0.105222
109614776,109613943,-0.714905,0.275199,-0.0567483
109632322,109631463,-0.744323,0.273817,0.0408837
109652328,109651485,-0.477204,0.179424,-0.0862805
109674845,109674010,0.231229,0.168963,-0.0982441
109694865,109694032,0.218239,0.184732,-0.0484956
109712390,109711551,0.337959,0.132059,-0.109691
109732410,109731573,-0.112522,0.0658959,-0.0355163
109754931,109754098,-0.444742,0.152072,0.0346277
109772454,109771617,-0.375483,0.310176,0.0224771
109792479,109791643,-0.0643704,0.312224,-0.127725
109812500,109811663,-0.119917,0.291527,-0.0647589
109835024,109834186,-0.672653,0.289069,0.0353856
109852563,109851706,-1.01427,0.2692,0.0421971
109872565,109871729,-1.07085,0.283128,-0.00841836
