timestamp,lat,lon,alt,alt_ellipsoid,delta_alt,eph,epv,terrain_alt,lat_lon_reset_counter,alt_reset_counter,terrain_alt_valid,dead_reckoning
85845148,34.0348549247,108.756742604,418.957,390.42,-0.0,1.29121,1.35405,418.853,2,0,1,0
85855156,34.0348549215,108.756742597,418.957,390.42,-0.0,1.2914,1.35424,418.853,2,0,1,0
86045366,34.034854877,108.756742539,418.958,390.412,-0.0,1.29118,1.35385,418.853,2,0,1,0
86255597,34.0348548035,108.756742512,418.96,390.407,-0.0,1.29136,1.35383,418.853,2,0,1,0
86445808,34.0348547475,108.756742457,418.962,390.4,-0.0,1.29115,1.35413,418.853,2,0,1,0
86646029,34.0348546621,108.756742421,418.963,390.393,-0.0,1.29113,1.35393,418.853,2,0,1,0
86856266,34.03485459,108.756742355,418.968,390.389,-0.0,1.29132,1.35392,418.853,2,0,1,0
87046469,34.0348545302,108.756742335,418.974,390.386,-0.0,1.29113,1.35423,418.853,2,0,1,0
87246690,34.0348545021,108.756742332,418.974,390.377,-0.0,1.29112,1.35403,418.853,2,0,1,0
87446910,34.0348544964,108.756742285,418.974,390.368,-0.0,1.29112,1.35384,418.853,2,0,1,0
87647131,34.0348545085,108.756742206,418.981,390.367,-0.0,1.29112,1.35433,418.853,2,0,1,0
87847361,34.0348544939,108.756742146,419.004,390.381,-0.0,1.29112,1.35414,418.853,2,0,1,0
88047573,34.0348544878,108.756742118,419.024,390.39,-0.0,1.29112,1.35394,418.853,2,0,1,0
88247796,34.0348544382,108.756742051,419.04,390.396,-0.0,1.29112,1.35375,418.853,2,0,1,0
88448015,34.0348544245,108.75674206,419.051,390.396,-0.0,1.29112,1.35424,418.853,2,0,1,0
88648236,34.0348544151,108.756741974,419.061,390.395,-0.0,1.29112,1.35405,418.853,2,0,1,0
88848464,34.0348544233,108.756741994,419.07,390.393,-0.0,1.29112,1.35454,418.853,2,0,1,0
89048677,34.0348544496,108.756741945,419.079,390.39,-0.0,1.29111,1.35433,418.853,2,0,1,0
89248901,34.0348545453,108.756741918,419.102,390.401,-0.0,1.2911,1.35411,418.853,2,0,1,0
89449119,34.0348546649,108.756741871,419.13,390.416,-0.0,1.29111,1.3539,418.853,2,0,1,0
89649342,34.0348547702,108.756741805,419.192,390.464,-0.0,1.29111,1.35439,418.853,2,0,1,0
89849561,34.034854803,108.756741604,419.297,390.555,-0.0,1.2911,1.35418,418.853,2,0,1,0
90049783,34.0348548639,108.756741377,419.423,390.668,-0.0,1.29108,1.35397,418.853,2,0,1,0
90250003,34.0348549371,108.756741184,419.555,390.785,-0.0,1.29106,1.35445,418.853,2,0,1,0
90450226,34.0348550062,108.756741088,419.658,390.877,-0.0,1.29105,1.35425,418.853,2,0,1,0
90650446,34.0348552369,108.75674101,419.744,390.95,-0.0,1.29105,1.35404,418.853,2,0,1,0
90850667,34.0348557491,108.756740764,419.809,391.005,-0.0,1.29105,1.35452,0.0,2,0,0,0
91050888,34.0348565624,108.756740521,419.854,391.039,-0.0,1.29105,1.35431,0.0,2,0,0,0
91251109,34.0348576068,108.756740357,419.885,391.06,-0.0,1.29104,1.3541,0.0,2,0,0,0
91451331,34.0348586814,108.756740245,419.897,391.062,-0.0,1.29103,1.35389,0.0,2,0,0,0
91651552,34.0348595984,108.756740098,419.896,391.051,-0.0,1.29516,1.35564,0.0,2,0,0,0
91851773,34.0348605253,108.75673983,419.864,391.012,-0.0,1.29097,1.35416,0.0,2,0,0,0
92051994,34.0348613302,108.756739487,419.83,390.969,-0.0,1.29094,1.35395,0.0,2,0,0,0
92252218,34.0348621326,108.756739251,419.793,390.922,-0.0,1.2909,1.35444,0.0,2,0,0,0
92452438,34.0348628416,108.756739055,419.756,390.876,-0.0,1.29088,1.35424,0.0,2,0,0,0
92652659,34.0348635373,108.756739116,419.727,390.836,-0.0,1.29084,1.35404,0.0,2,0,0,0
92852881,34.0348641704,108.756739336,419.699,390.799,-0.0,1.29081,1.35383,0.0,2,0,0,0
93043091,34.0348646657,108.756739885,419.675,390.766,-0.0,1.2946,1.3554,0.0,2,0,0,0
93253324,34.0348651359,108.756740867,419.646,390.727,-0.0,1.29072,1.35413,0.0,2,0,0,0
93453545,34.0348654699,108.756741817,419.619,390.692,-0.0,1.29066,1.35393,0.0,2,0,0,0
93653768,34.0348658256,108.75674289,419.591,390.657,-0.0,1.2906,1.35373,0.0,2,0,0,0
93853993,34.0348663852,108.756743968,419.546,390.603,-0.0,1.29056,1.35422,0.0,2,0,0,0
94044200,34.0348672467,108.75674489,419.489,390.539,-0.0,1.29429,1.35509,0.0,2,0,0,0
94244427,34.0348681575,108.75674559,419.44,390.483,-0.0,1.29423,1.3556,0.0,2,0,0,0
94444642,34.0348690307,108.756746255,419.404,390.439,-0.0,1.29029,1.35411,0.0,2,0,0,0
94654875,34.0348698503,108.756746613,419.403,390.431,-0.0,1.29045,1.35409,0.0,2,0,0,0
94855097,34.0348706971,108.756746794,419.422,390.444,-0.0,1.29046,1.35457,0.0,2,0,0,0
95045308,34.034871403,108.756746652,419.455,390.47,-0.0,1.2942,1.35543,0.0,2,0,0,0
95245530,34.0348720258,108.756746468,419.514,390.523,-0.0,1.29422,1.35521,0.0,2,0,0,0
95445752,34.0348726087,108.7567464,419.597,390.6,-0.0,1.29033,1.35444,0.0,2,0,0,0
95645973,34.0348733391,108.756746383,419.678,390.676,-0.0,1.29035,1.35423,0.0,2,0,0,0
95846195,34.0348741955,108.756746248,419.771,390.767,-0.0,1.29037,1.35402,0.0,2,0,0,0
96046417,34.0348751535,108.756746043,419.866,390.858,-0.0,1.29039,1.35451,0.0,2,0,0,0
96246639,34.0348762095,108.756745849,419.948,390.938,-0.0,1.29436,1.35556,0.0,2,0,0,0
96446861,34.0348772991,108.756745408,420.029,391.017,-0.0,1.29045,1.35408,0.0,2,0,0,0
96647083,34.0348782974,108.756744967,420.109,391.096,-0.0,1.29047,1.35387,0.0,2,0,0,0
96847310,34.0348792004,108.756744445,420.181,391.166,-0.0,1.29048,1.35435,0.0,2,0,0,0
97047533,34.0348800062,108.756743927,420.251,391.235,-0.0,1.29049,1.35415,0.0,2,0,0,0
97247749,34.0348807126,108.756743391,420.327,391.31,-0.0,1.29049,1.35394,0.0,2,0,0,0
97447970,34.0348813703,108.756742839,420.405,391.386,-0.0,1.29051,1.35443,0.0,2,0,0,0
97648192,34.0348820936,108.756742309,420.48,391.46,-0.0,1.29049,1.35423,0.0,2,0,0,0
97848422,34.0348829772,108.756741884,420.544,391.524,-0.0,1.29049,1.35401,0.0,2,0,0,0
98048636,34.0348839181,108.756741479,420.592,391.571,-0.0,1.29045,1.3545,0.0,2,0,0,0
98248858,34.0348848517,108.756741007,420.607,391.586,-0.0,1.29038,1.35429,0.0,2,0,0,0
98449080,34.0348857605,108.756740274,420.604,391.584,-0.0,1.29028,1.35408,0.0,2,0,0,0
98649302,34.0348865687,108.756739513,420.603,391.583,-0.0,1.29017,1.35387,0.0,2,0,0,0
98849524,34.034887298,108.756738926,420.603,391.583,-0.0,1.29004,1.35436,0.0,2,0,0,0
99049754,34.0348878846,108.756738673,420.585,391.564,-0.0,1.28991,1.35415,0.0,2,0,0,0
99249968,34.0348883563,108.756738712,420.56,391.539,-0.0,1.2898,1.35395,0.0,2,0,0,0
99450190,34.0348886594,108.756738935,420.535,391.514,-0.0,1.2897,1.35444,0.0,2,0,0,0
99650412,34.0348889229,108.756739322,420.492,391.47,-0.0,1.28962,1.35422,0.0,2,0,0,0
99850637,34.0348891842,108.75673968,420.425,391.404,-0.0,1.28956,1.35469,0.0,2,0,0,0
100050856,34.0348894401,108.756739891,420.338,391.316,-0.0,1.28953,1.35447,0.0,2,0,0,0
100251078,34.0348897885,108.756740237,420.229,391.207,-0.0,1.28951,1.35426,0.0,2,0,0,0
100451307,34.0348901731,108.756740529,420.113,391.09,-0.0,1.2895,1.35404,0.0,2,0,0,0
100651522,34.0348905042,108.756740567,420.023,390.999,-0.0,1.2895,1.35452,0.0,2,0,0,0
100851747,34.0348908447,108.756740483,419.958,390.933,-0.0,1.28951,1.3543,0.0,2,0,0,0
101051966,34.0348912756,108.756740212,419.893,390.864,-0.0,1.28953,1.35409,0.0,2,0,0,0
101252188,34.0348919637,108.756739879,419.823,390.791,-0.0,1.28956,1.35458,0.0,2,0,0,0
101452416,34.0348930157,108.756739297,419.777,390.741,-0.0,1.28958,1.35436,0.0,2,0,0,0
101652634,34.0348942662,108.756738541,419.754,390.715,-0.0,1.2896,1.35414,0.0,2,0,0,0
101852855,34.0348955565,108.756738136,419.714,390.67,-0.0,1.28963,1.35393,0.0,2,0,0,0
102053077,34.0348966838,108.756738308,419.686,390.639,-0.0,1.28965,1.35441,0.0,2,0,0,0
102253299,34.0348977828,108.756738757,419.684,390.634,-0.0,1.28968,1.35419,0.0,2,0,0,0
102453521,34.0348987985,108.756739054,419.713,390.66,-0.0,1.2897,1.35398,0.0,2,0,0,0
102643732,34.0348997365,108.756739224,419.756,390.7,-0.0,1.28953,1.35428,0.0,2,0,0,0
102843955,34.034900697,108.756739482,419.825,390.765,-0.0,1.28954,1.35407,0.0,2,0,0,0
103054188,34.0349016039,108.756739653,419.92,390.856,-0.0,1.28973,1.35406,0.0,2,0,0,0
103254410,34.0349024406,108.756739911,420.032,390.964,-0.0,1.28972,1.35386,0.0,2,0,0,0
103444621,34.0349031664,108.756740022,420.154,391.08,-0.0,1.29368,1.35542,0.0,2,0,0,0
103644843,34.0349039878,108.756739887,420.269,391.191,-0.0,1.28951,1.35396,0.0,2,0,0,0
103845065,34.0349048254,108.756739772,420.376,391.294,-0.0,1.28951,1.35376,0.0,2,0,0,0
104045287,34.0349057234,108.756739572,420.48,391.395,-0.0,1.28951,1.35425,0.0,2,0,0,0
104245509,34.0349068219,108.756739365,420.576,391.487,-0.0,1.2895,1.35405,0.0,2,0,0,0
104445744,34.0349078458,108.756739121,420.665,391.571,-0.0,1.28949,1.35386,0.0,2,0,0,0
104645953,34.0349087522,108.756738904,420.744,391.646,-0.0,1.29349,1.35563,0.0,2,0,0,0
104846174,34.0349095929,108.756738746,420.8,391.698,-0.0,1.28944,1.35415,0.0,2,0,0,0
105046396,34.0349103138,108.756738473,420.839,391.734,-0.0,1.28941,1.35394,0.0,2,0,0,0
105246622,34.0349108629,108.756738129,420.88,391.771,-0.0,1.28938,1.35443,0.0,2,0,0,0
105446843,34.0349112723,108.756737791,420.931,391.817,-0.0,1.28935,1.35423,0.0,2,0,0,0
105647061,34.0349115779,108.756737649,420.98,391.861,-0.0,1.28932,1.35403,0.0,2,0,0,0
105847283,34.0349117114,108.756737676,421.03,391.904,-0.0,1.29321,1.35508,0.0,2,0,0,0
106047506,34.0349117598,108.756737758,421.081,391.951,-0.0,1.28923,1.35432,0.0,2,0,0,0
106247726,34.0349117839,108.756737805,421.133,391.998,-0.0,1.28918,1.35412,0.0,2,0,0,0
106447948,34.0349118682,108.756737757,421.193,392.055,-0.0,1.28912,1.35392,0.0,2,0,0,0
106648184,34.0349120158,108.756737554,421.252,392.11,-0.0,1.29297,1.35569,0.0,2,0,0,0
106848390,34.034912123,108.75673717,421.297,392.152,-0.0,1.28899,1.35421,0.0,2,0,0,0
107048611,34.0349122863,108.756736683,421.312,392.164,-0.0,1.28895,1.354,0.0,2,0,0,0
107248833,34.034912516,108.756736084,421.293,392.141,-0.0,1.28893,1.35449,0.0,2,0,0,0
107449054,34.034912809,108.756735433,421.243,392.088,-0.0,1.28893,1.35428,0.0,2,0,0,0
107649285,34.0349130994,108.756734848,421.148,391.988,-0.0,1.28894,1.35408,0.0,2,0,0,0
107849497,34.0349132254,108.75673453,421.019,391.855,-0.0,1.28896,1.35388,0.0,2,0,0,0
108049718,34.0349132012,108.756734412,420.877,391.709,-0.0,1.28898,1.35437,0.0,2,0,0,0
108249939,34.0349131372,108.756734284,420.724,391.55,-0.0,1.28898,1.35417,0.0,2,0,0,0
108450160,34.0349130049,108.756734125,420.554,391.374,-0.0,1.28898,1.35396,0.0,2,0,0,0
108650381,34.0349128657,108.75673413,420.379,391.193,-0.0,1.28899,1.35444,0.0,2,0,0,0
108850604,34.0349127999,108.756734121,420.201,391.007,-0.0,1.28899,1.35423,0.0,2,0,0,0
109050824,34.0349127742,108.756734055,420.008,390.807,-0.0,1.28901,1.35403,0.0,2,0,0,0
109251044,34.0349129862,108.756733978,419.815,390.608,-0.0,1.28901,1.35382,0.0,2,0,0,0
109451270,34.0349134554,108.756734057,419.662,390.449,-0.0,1.28901,1.35431,0.0,2,0,0,0
109651485,34.0349141538,108.756734394,419.553,390.334,-0.0,1.28903,1.35411,0.0,2,0,0,0
109851706,34.034915068,108.75673483,419.506,390.279,-0.0,1.28906,1.3539,0.0,2,0,0,0
110051926,34.0349160105,108.756735383,419.477,390.243,-0.0,1.2891,1.35439,0.0,2,0,0,0
110252148,34.0349169205,108.756735932,419.459,390.218,-0.0,1.28917,1.35419,0.0,2,0,0,0
110452367,34.0349178379,108.756736402,419.473,390.225,-0.0,1.28924,1.354,0.0,2,0,0,0
110652602,34.0349188181,108.756736655,419.518,390.263,-0.0,1.28929,1.3538,0.0,2,0,0,0
110852807,34.0349199108,108.75673676,419.579,390.318,-0.0,1.28935,1.35429,0.0,2,0,0,0
111053029,34.0349208618,108.756736782,419.643,390.377,-0.0,1.28941,1.35409,0.0,2,0,0,0
111243239,34.0349216326,108.756736982,419.701,390.43,-0.0,1.29324,1.35495,0.0,2,0,0,0
111453475,34.0349223919,108.756737067,419.765,390.489,-0.0,1.28953,1.3537,0.0,2,0,0,0
111653687,34.0349229753,108.756737186,419.782,390.503,-0.0,1.2896,1.3542,0.0,2,0,0,0
111853907,34.0349234526,108.756737502,419.779,390.496,-0.0,1.28965,1.35401,0.0,2,0,0,0
112054133,34.0349237897,108.756737939,419.757,390.47,-0.0,1.2897,1.35382,0.0,2,0,0,0
112244340,34.0349239712,108.756738279,419.724,390.433,-0.0,1.28955,1.35412,0.0,2,0,0,0
112444555,34.0349239682,108.756738562,419.697,390.4,-0.0,1.29351,1.35517,0.0,2,0,0,0
112644775,34.0349239216,108.756738787,419.669,390.367,-0.0,1.29351,1.35568,0.0,2,0,0,0
112855006,34.0349238103,108.756738924,419.645,390.338,-0.0,1.28973,1.35439,0.0,2,0,0,0
113045230,34.0349238579,108.756739034,419.641,390.327,-0.0,1.28956,1.354,0.0,2,0,0,0
113245434,34.0349241776,108.756738954,419.661,390.34,-0.0,1.28958,1.3538,0.0,2,0,0,0
113445654,34.0349247633,108.75673864,419.687,390.359,-0.0,1.2896,1.35429,0.0,2,0,0,0
113645874,34.0349255176,108.756738162,419.709,390.373,-0.0,1.28963,1.35409,0.0,2,0,0,0
113846094,34.0349263957,108.756737863,419.731,390.388,-0.0,1.28965,1.35389,0.0,2,0,0,0
114046315,34.034927175,108.756737819,419.755,390.406,-0.0,1.28968,1.35437,0.0,2,0,0,0
114246533,34.034927823,108.7567381,419.8,390.444,-0.0,1.28969,1.35417,0.0,2,0,0,0
114446753,34.034928359,108.756738719,419.842,390.48,-0.0,1.2897,1.35396,0.0,2,0,0,0
114646973,34.0349288315,108.756739669,419.878,390.51,-0.0,1.28971,1.35376,0.0,2,0,0,0
114847192,34.034929144,108.756740657,419.937,390.564,-0.0,1.28971,1.35425,0.0,2,0,0,0
115047415,34.0349293572,108.756741525,419.99,390.61,-0.0,1.2897,1.35405,0.0,2,0,0,0
115247631,34.0349295578,108.756742291,420.036,390.651,-0.0,1.28969,1.35454,0.0,2,0,0,0
115447855,34.0349300023,108.756743014,420.085,390.695,-0.0,1.29367,1.35558,0.0,2,0,0,0
115648070,34.0349305631,108.756743578,420.14,390.745,-0.0,1.28964,1.35409,0.0,2,0,0,0
115848289,34.0349313596,108.756744048,420.202,390.803,-0.0,1.2936,1.35585,0.0,2,0,0,0
116048508,34.0349322378,108.756744385,420.287,390.884,-0.0,1.28958,1.35435,0.0,2,0,0,0
116248727,34.0349332396,108.756744536,420.39,390.984,-0.0,1.28955,1.35413,0.0,2,0,0,0
116448947,34.03493428,108.756744564,420.488,391.078,-0.0,1.28953,1.35392,0.0,2,0,0,0
116649166,34.034935292,108.756744311,420.598,391.183,-0.0,1.2895,1.3544,0.0,2,0,0,0
116849389,34.0349361436,108.756743834,420.712,391.293,-0.0,1.28947,1.35419,0.0,2,0,0,0
117049604,34.0349369977,108.756743112,420.831,391.406,-0.0,1.28945,1.35398,0.0,2,0,0,0
117249823,34.034937826,108.756742249,420.953,391.522,-0.0,1.28942,1.35446,0.0,2,0,0,0
117450042,34.0349386778,108.756741399,421.09,391.654,-0.0,1.28938,1.35424,0.0,2,0,0,0
117650269,34.0349394733,108.756740472,421.231,391.789,-0.0,1.28934,1.35402,0.0,2,0,0,0
117850480,34.0349401537,108.756739532,421.362,391.914,-0.0,1.2893,1.3545,0.0,2,0,0,0
118050703,34.0349406059,108.756738732,421.479,392.024,-0.0,1.28927,1.35429,0.0,2,0,0,0
118250924,34.034940926,108.756738378,421.567,392.107,-0.0,1.28923,1.35408,0.0,2,0,0,0
118451165,34.0349410518,108.756738236,421.635,392.169,-0.0,1.2892,1.35387,0.0,2,0,0,0
118651357,34.0349410088,108.756738598,421.691,392.219,-0.0,1.28916,1.35436,0.0,2,0,0,0
118851575,34.0349407879,108.756739071,421.744,392.267,-0.0,1.28912,1.35414,0.0,2,0,0,0
119051794,34.0349405311,108.756739421,421.808,392.325,-0.0,1.28909,1.35462,0.0,2,0,0,0
119252013,34.0349402878,108.756739634,421.861,392.372,-0.0,1.28906,1.35439,0.0,2,0,0,0
119452233,34.03493999,108.756739928,421.923,392.427,-0.0,1.28902,1.35417,0.0,2,0,0,0
119652454,34.0349397257,108.756740132,421.992,392.488,-0.0,1.28895,1.35465,0.0,2,0,0,0
119852670,34.0349395023,108.756740164,422.045,392.533,-0.0,1.29285,1.3557,0.0,2,0,0,0
120052889,34.0349393136,108.756740109,422.066,392.549,-0.0,1.28879,1.35421,0.0,2,0,0,0
120253121,34.0349392072,108.75673968,422.089,392.565,-0.0,1.28871,1.35399,0.0,2,0,0,0
120453327,34.034939256,108.756739138,422.106,392.576,-0.0,1.28863,1.35447,0.0,2,0,0,0
120653546,34.0349393617,108.756738299,422.109,392.574,-0.0,1.28854,1.35426,0.0,2,0,0,0
120843754,34.0349395964,108.756737453,422.113,392.572,-0.0,1.29218,1.35583,0.0,2,0,0,0
121043977,34.0349398078,108.756736413,422.124,392.577,-0.0,1.2921,1.3556,0.0,2,0,0,0
121254218,34.0349398823,108.756735394,422.134,392.581,-0.0,1.28839,1.3543,0.0,2,0,0,0
121454421,34.0349397458,108.756734645,422.149,392.591,-0.0,1.28837,1.35409,0.0,2,0,0,0
121644630,34.0349394476,108.756734354,422.181,392.616,-0.0,1.29201,1.35565,0.0,2,0,0,0
121844865,34.0349389334,108.756734205,422.2,392.629,-0.0,1.28822,1.35417,0.0,2,0,0,0
122045067,34.0349383645,108.756734155,422.212,392.634,-0.0,1.29204,1.3552,0.0,2,0,0,0
122245286,34.0349379677,108.756734014,422.212,392.627,-0.0,1.29207,1.35499,0.0,2,0,0,0
122445504,34.0349379401,108.756733673,422.196,392.605,-0.0,1.29208,1.3555,0.0,2,0,0,0
122645734,34.0349382067,108.756733234,422.154,392.557,-0.0,1.2921,1.35528,0.0,2,0,0,0
122845942,34.0349387594,108.756732823,422.102,392.5,-0.0,1.29213,1.35507,0.0,2,0,0,0
123046160,34.0349395872,108.756732211,422.046,392.437,-0.0,1.29216,1.35558,0.0,2,0,0,0
123246379,34.0349403836,108.756731425,421.994,392.379,-0.0,1.2922,1.35537,0.0,2,0,0,0
123446598,34.034941085,108.756730808,421.944,392.323,-0.0,1.29225,1.35516,0.0,2,0,0,0
123646820,34.0349414966,108.756730425,421.912,392.284,-0.0,1.2923,1.35495,0.0,2,0,0,0
123847035,34.0349418258,108.756730489,421.891,392.255,-0.0,1.29237,1.35546,0.0,2,0,0,0
124047256,34.0349419076,108.756730509,421.882,392.238,-0.0,1.29244,1.35525,0.0,2,0,0,0
124247472,34.0349418117,108.756730833,421.84,392.188,-0.0,1.29252,1.35504,0.0,2,0,0,0
124447700,34.0349414838,108.756731366,421.772,392.113,-0.0,1.28881,1.35429,0.0,2,0,0,0
124647917,34.0349412124,108.75673188,421.692,392.025,-0.0,1.29269,1.35534,0.0,2,0,0,0
124848128,34.0349411521,108.756732483,421.591,391.916,-0.0,1.28896,1.35388,0.0,2,0,0,0
125048347,34.0349413927,108.756732928,421.469,391.786,-0.0,1.29285,1.35563,0.0,2,0,0,0
125248565,34.0349418732,108.756733469,421.339,391.649,-0.0,1.28913,1.35416,0.0,2,0,0,0
125448784,34.0349424077,108.756733892,421.224,391.527,-0.0,1.28921,1.35396,0.0,2,0,0,0
125649002,34.0349427988,108.756734039,421.115,391.41,-0.0,1.2893,1.35376,0.0,2,0,0,0
125849233,34.0349429429,108.756734128,421.017,391.303,-0.0,1.28939,1.35425,0.0,2,0,0,0
126049439,34.0349429237,108.756734072,420.914,391.192,-0.0,1.29332,1.35531,0.0,2,0,0,0
126249658,34.0349428911,108.756734201,420.793,391.062,-0.0,1.28954,1.35386,0.0,2,0,0,0
126449876,34.0349428993,108.75673506,420.658,390.918,-0.0,1.28963,1.35367,0.0,2,0,0,0
126650095,34.0349427963,108.756735853,420.489,390.741,-0.0,1.28973,1.35416,0.0,2,0,0,0
126850313,34.0349429029,108.756736833,420.297,390.54,-0.0,1.28982,1.35397,0.0,2,0,0,0
127050532,34.0349432329,108.756737522,420.109,390.342,-0.0,1.2899,1.35378,0.0,2,0,0,0
127250762,34.0349437679,108.756738298,419.932,390.157,-0.0,1.28999,1.35427,0.0,2,0,0,0
127450968,34.0349443243,108.75673913,419.782,389.997,-0.0,1.29007,1.35408,0.0,2,0,0,0
127651187,34.0349450139,108.75674004,419.672,389.878,-0.0,1.29016,1.35388,0.0,2,0,0,0
127851405,34.0349454506,108.756740269,419.737,389.933,-0.0,1.29022,1.35436,0.0,2,0,0,0
128051626,34.0349462177,108.756740834,419.751,389.939,-0.0,1.2903,1.35416,0.0,2,0,0,0
128251842,34.0349470061,108.756741222,419.756,389.938,-0.0,1.29038,1.35393,0.0,2,0,0,0
128452060,34.0349478486,108.756741492,419.799,389.976,-0.0,1.29045,1.35438,0.0,2,0,0,0
128652292,34.0349486844,108.756741431,419.877,390.049,-0.0,1.29049,1.35412,0.0,2,0,0,0
128852497,34.0349494167,108.756741156,419.97,390.137,-0.0,1.29054,1.35384,0.0,2,0,0,0
129052715,34.0349503875,108.75674063,420.072,390.236,-0.0,1.29056,1.35355,0.0,2,0,0,0
129252934,34.0349515633,108.756739947,420.167,390.328,-0.0,1.29057,1.35393,0.0,2,0,0,0
129443141,34.0349527284,108.756739153,420.237,390.397,-0.0,1.29451,1.35442,0.0,2,0,0,0
129653371,34.034953867,108.756738392,420.305,390.463,-0.0,1.29057,1.35398,0.0,2,0,0,0
129853590,34.0349547579,108.756738138,420.369,390.525,-0.0,1.29056,1.35364,0.0,2,0,0,0
130053807,34.0349554477,108.756738405,420.43,390.584,-0.0,1.29053,1.35331,0.0,2,0,0,0
130254030,34.0349559975,108.75673901,420.493,390.645,-0.0,1.2905,1.35297,0.0,2,0,0,0
130444233,34.0349563879,108.756739822,420.555,390.704,-0.0,1.29451,1.35403,0.0,2,0,0,0
130644451,34.0349567422,108.756740636,420.607,390.753,-0.0,1.29449,1.35369,0.0,2,0,0,0
130844669,34.0349571416,108.756741353,420.639,390.782,-0.0,1.29443,1.35335,0.0,2,0,0,0
131054899,34.0349577691,108.75674225,420.644,390.784,-0.0,1.29032,1.35299,0.0,2,0,0,0
131245106,34.0349585268,108.756742967,420.638,390.777,-0.0,1.2901,1.35252,0.0,2,0,0,0
131445324,34.0349595072,108.756743924,420.611,390.749,-0.0,1.29007,1.35221,0.0,2,0,0,0
131645542,34.0349607439,108.756744962,420.564,390.701,-0.0,1.29425,1.35343,0.0,2,0,0,0
131845766,34.0349621385,108.756745777,420.51,390.648,-0.0,1.29419,1.35314,0.0,2,0,0,0
132045980,34.034963349,108.756745869,420.467,390.605,-0.0,1.29414,1.35287,0.0,2,0,0,0
132246197,34.0349642814,108.75674525,420.425,390.563,-0.0,1.29406,1.35261,0.0,2,0,0,0
132446416,34.0349652309,108.756743983,420.379,390.515,-0.0,1.29401,1.35303,0.0,2,0,0,0
132646634,34.0349662375,108.756742678,420.332,390.468,-0.0,1.29395,1.3528,0.0,2,0,0,0
132846852,34.0349676202,108.756741503,420.285,390.419,-0.0,1.2939,1.35258,0.0,2,0,0,0
133047070,34.0349694314,108.756740204,420.221,390.353,-0.0,1.29385,1.35303,0.0,2,0,0,0
133247298,34.0349714329,108.756738947,420.158,390.286,-0.0,1.29379,1.35282,0.0,2,0,0,0
133447512,34.0349735999,108.756738121,420.097,390.22,-0.0,1.29373,1.35328,0.0,2,0,0,0
133647727,34.0349758076,108.756737485,420.035,390.152,-0.0,1.2896,1.35213,0.0,2,0,0,0
133847946,34.0349779042,108.756737262,419.961,390.073,-0.0,1.28958,1.35195,0.0,2,0,0,0
134048162,34.0349798665,108.756737258,419.874,389.979,-0.0,1.28955,1.35178,0.0,2,0,0,0
134248383,34.0349815477,108.756737355,419.778,389.875,-0.0,1.29355,1.35327,0.0,2,0,0,0
134448598,34.0349829785,108.756737479,419.697,389.787,-0.0,1.28947,1.3521,0.0,2,0,0,0
134648826,34.0349842241,108.756737507,419.675,389.757,-0.0,1.28943,1.35195,0.0,2,0,0,0
134849035,34.0349854234,108.756737592,419.691,389.767,-0.0,1.2894,1.35245,0.0,2,0,0,0
135049255,34.0349866111,108.756737556,419.734,389.803,-0.0,1.28938,1.35231,0.0,2,0,0,0
135249472,34.0349877154,108.756737487,419.783,389.846,-0.0,1.29338,1.35325,0.0,2,0,0,0
135449690,34.0349887269,108.756737491,419.825,389.885,-0.0,1.28931,1.35268,0.0,2,0,0,0
135649908,34.0349896698,108.756737604,419.872,389.929,-0.0,1.28928,1.35255,0.0,2,0,0,0
135850126,34.0349904487,108.75673791,419.913,389.969,-0.0,1.28925,1.35242,0.0,2,0,0,0
136050351,34.0349910872,108.756738353,419.956,390.011,-0.0,1.28921,1.35229,0.0,2,0,0,0
136250565,34.0349915486,108.756738561,420.001,390.056,-0.0,1.28916,1.35282,0.0,2,0,0,0
136450781,34.0349918231,108.756738798,420.048,390.102,-0.0,1.28911,1.35269,0.0,2,0,0,0
136650999,34.0349919766,108.756739016,420.086,390.141,-0.0,1.29301,1.3544,0.0,2,0,0,0
136851219,34.0349922462,108.756739009,420.115,390.17,-0.0,1.28898,1.35307,0.0,2,0,0,0
137051435,34.0349929415,108.756738842,420.142,390.197,-0.0,1.29285,1.35411,0.0,2,0,0,0
137251653,34.0349939123,108.756738587,420.169,390.223,-0.0,1.28883,1.35345,0.0,2,0,0,0
137451871,34.0349949415,108.756738286,420.189,390.243,-0.0,1.28877,1.35331,0.0,2,0,0,0
137652089,34.0349958298,108.756738236,420.214,390.268,-0.0,1.28872,1.35317,0.0,2,0,0,0
137852307,34.0349965502,108.756738294,420.241,390.295,-0.0,1.28867,1.35302,0.0,2,0,0,0
138052525,34.0349970546,108.756738541,420.252,390.306,-0.0,1.28863,1.35355,0.0,2,0,0,0
138252743,34.0349974248,108.756739072,420.257,390.311,-0.0,1.28861,1.3534,0.0,2,0,0,0
138452964,34.0349975586,108.756739772,420.26,390.314,-0.0,1.28861,1.35325,0.0,2,0,0,0
138653179,34.0349975142,108.756740679,420.262,390.316,-0.0,1.2886,1.35377,0.0,2,0,0,0
138853397,34.0349973073,108.756741525,420.255,390.308,-0.0,1.28861,1.35361,0.0,2,0,0,0
139043605,34.0349970197,108.756742328,420.232,390.285,-0.0,1.29224,1.35449,0.0,2,0,0,0
139243821,34.034996673,108.756743017,420.185,390.238,-0.0,1.28851,1.35378,0.0,2,0,0,0
139454050,34.0349965156,108.756743633,420.116,390.169,-0.0,1.28873,1.3538,0.0,2,0,0,0
139654274,34.0349967968,108.756744161,420.053,390.108,-0.0,1.29258,1.35489,0.0,2,0,0,0
139854485,34.0349974347,108.756744577,420.003,390.059,-0.0,1.28875,1.35347,0.0,2,0,0,0
140044691,34.0349983043,108.756744826,419.962,390.019,-0.0,1.2924,1.35506,0.0,2,0,0,0
140244909,34.0349993593,108.756744902,419.926,389.984,-0.0,1.29241,1.35488,0.0,2,0,0,0
140445126,34.0350003317,108.756744851,419.896,389.954,-0.0,1.29239,1.35471,0.0,2,0,0,0
140645344,34.0350011496,108.756744757,419.871,389.928,-0.0,1.29238,1.35524,0.0,2,0,0,0
140855572,34.0350020725,108.756744606,419.819,389.875,-0.0,1.28867,1.354,0.0,2,0,0,0
141045778,34.0350030608,108.756744318,419.772,389.827,-0.0,1.29233,1.35489,0.0,2,0,0,0
141246001,34.0350042793,108.756743914,419.72,389.775,-0.0,1.29227,1.3547,0.0,2,0,0,0
141446217,34.0350054282,108.756743374,419.662,389.716,-0.0,1.29223,1.35524,0.0,2,0,0,0
141646431,34.0350063679,108.756742791,419.612,389.664,-0.0,1.29219,1.35505,0.0,2,0,0,0
141846648,34.0350073263,108.756742179,419.593,389.643,-0.0,1.29216,1.35486,0.0,2,0,0,0
142046865,34.0350081431,108.756741658,419.604,389.652,-0.0,1.29213,1.35539,0.0,2,0,0,0
142247083,34.0350089295,108.756741348,419.615,389.661,-0.0,1.2921,1.35519,0.0,2,0,0,0
142447301,34.0350095129,108.756741201,419.629,389.673,-0.0,1.2921,1.35499,0.0,2,0,0,0
142647517,34.0350099936,108.756741256,419.643,389.686,-0.0,1.29211,1.35551,0.0,2,0,0,0
142847736,34.0350104536,108.756741429,419.652,389.694,-0.0,1.29207,1.35531,0.0,2,0,0,0
143047952,34.0350110552,108.756741498,419.674,389.717,-0.0,1.2921,1.35511,0.0,2,0,0,0
143248169,34.0350117986,108.75674143,419.718,389.761,-0.0,1.28828,1.35367,0.0,2,0,0,0
143448386,34.0350126003,108.756741386,419.772,389.817,-0.0,1.29215,1.35543,0.0,2,0,0,0
143648603,34.0350133513,108.75674137,419.822,389.867,-0.0,1.29214,1.35523,0.0,2,0,0,0
143848834,34.0350140362,108.756741808,419.878,389.925,-0.0,1.29213,1.35502,0.0,2,0,0,0
144049040,34.0350146805,108.756742497,419.948,389.998,-0.0,1.29211,1.35553,0.0,2,0,0,0
144249254,34.0350152429,108.756743242,420.023,390.076,-0.0,1.29209,1.35532,0.0,2,0,0,0
144449471,34.0350157384,108.75674402,420.112,390.166,-0.0,1.29206,1.35511,0.0,2,0,0,0
144649688,34.0350163928,108.75674461,420.193,390.251,-0.0,1.29203,1.35563,0.0,2,0,0,0
144849912,34.0350172639,108.756745162,420.266,390.327,-0.0,1.29198,1.35542,0.0,2,0,0,0
145050122,34.0350183981,108.756745507,420.318,390.383,-0.0,1.29193,1.35521,0.0,2,0,0,0
145250340,34.035019754,108.756745702,420.363,390.432,-0.0,1.29187,1.35572,0.0,2,0,0,0
145450555,34.0350213103,108.756745755,420.392,390.465,-0.0,1.29181,1.35551,0.0,2,0,0,0
145650772,34.0350228579,108.756745684,420.413,390.49,-0.0,1.29174,1.35529,0.0,2,0,0,0
145851003,34.0350242213,108.756745413,420.445,390.525,-0.0,1.28785,1.35383,0.0,2,0,0,0
146051205,34.0350254623,108.756745107,420.491,390.574,-0.0,1.28781,1.35432,0.0,2,0,0,0
146251423,34.0350266009,108.756744675,420.538,390.623,-0.0,1.28778,1.35412,0.0,2,0,0,0
146451638,34.035027614,108.756744133,420.593,390.681,-0.0,1.28774,1.35391,0.0,2,0,0,0
146651857,34.0350285315,108.756743573,420.655,390.744,-0.0,1.28771,1.35372,0.0,2,0,0,0
146852071,34.0350294554,108.756743031,420.7,390.791,-0.0,1.28768,1.35421,0.0,2,0,0,0
147052289,34.0350304537,108.756742397,420.734,390.825,-0.0,1.28765,1.354,0.0,2,0,0,0
147252504,34.0350314889,108.756741799,420.753,390.844,-0.0,1.28762,1.35449,0.0,2,0,0,0
147452720,34.035032532,108.756741311,420.744,390.836,-0.0,1.28758,1.35428,0.0,2,0,0,0
147642929,34.0350335037,108.75674086,420.731,390.825,-0.0,1.29117,1.35513,0.0,2,0,0,0
147853153,34.0350344732,108.756740393,420.715,390.811,-0.0,1.2875,1.35387,0.0,2,0,0,0
148053370,34.0350352727,108.756740472,420.697,390.795,-0.0,1.28745,1.35436,0.0,2,0,0,0
148253596,34.0350359138,108.756740987,420.678,390.779,-0.0,1.28741,1.35416,0.0,2,0,0,0
148453803,34.0350364203,108.756741821,420.657,390.76,-0.0,1.28738,1.35395,0.0,2,0,0,0
148644012,34.0350367509,108.75674282,420.645,390.75,-0.0,1.29096,1.35552,0.0,2,0,0,0
148844227,34.0350370489,108.756743714,420.627,390.734,-0.0,1.2909,1.35531,0.0,2,0,0,0
149044441,34.035037315,108.756744363,420.585,390.694,-0.0,1.29086,1.35509,0.0,2,0,0,0
149254668,34.0350375797,108.756745144,420.514,390.625,-0.0,1.2872,1.35383,0.0,2,0,0,0
149454885,34.0350379595,108.756745548,420.424,390.535,-0.0,1.28715,1.35431,0.0,2,0,0,0
149645093,34.0350387234,108.756745869,420.304,390.416,-0.0,1.2907,1.35517,0.0,2,0,0,0
149845315,34.0350399016,108.756745872,420.169,390.281,-0.0,1.29065,1.35567,0.0,2,0,0,0
150045530,34.0350412401,108.756745962,420.038,390.149,-0.0,1.29061,1.35546,0.0,2,0,0,0
150245738,34.0350423626,108.756745972,419.959,390.069,-0.0,1.29056,1.35524,0.0,2,0,0,0
150445955,34.0350432273,108.756745807,419.931,390.037,-0.0,1.29054,1.35504,0.0,2,0,0,0
150646173,34.0350439747,108.756745586,419.925,390.027,-0.0,1.29053,1.35555,0.0,2,0,0,0
150846387,34.0350448266,108.756745221,419.894,389.992,-0.0,1.29051,1.35534,0.0,2,0,0,0
151046603,34.0350458699,108.756744678,419.894,389.989,-0.0,1.28671,1.35389,0.0,2,0,0,0
151246818,34.0350469129,108.756743824,419.936,390.026,-0.0,1.2905,1.35493,0.0,2,0,0,0
151447035,34.035047927,108.756742845,420.006,390.094,-0.0,1.28669,1.35418,0.0,2,0,0,0
151647250,34.0350488909,108.756742054,420.088,390.172,-0.0,1.29051,1.35524,0.0,2,0,0,0
151847466,34.0350497753,108.756741152,420.167,390.248,-0.0,1.29049,1.35504,0.0,2,0,0,0
152047681,34.0350505285,108.756740341,420.268,390.347,-0.0,1.29048,1.35483,0.0,2,0,0,0
152247897,34.0350510883,108.756739518,420.389,390.466,-0.0,1.28665,1.35409,0.0,2,0,0,0
152448112,34.035051418,108.756738947,420.514,390.589,-0.0,1.28666,1.3539,0.0,2,0,0,0
152648328,34.0350514659,108.756738196,420.659,390.731,-0.0,1.28665,1.35371,0.0,2,0,0,0
152848543,34.0350512685,108.756737385,420.836,390.907,-0.0,1.29046,1.35548,0.0,2,0,0,0
153048758,34.0350508924,108.756736499,421.014,391.082,-0.0,1.28663,1.35402,0.0,2,0,0,0
153248973,34.035050262,108.756735577,421.191,391.256,-0.0,1.28663,1.35383,0.0,2,0,0,0
153449188,34.0350494744,108.756734668,421.38,391.442,-0.0,1.28666,1.35364,0.0,2,0,0,0
153649403,34.0350484989,108.756733839,421.568,391.627,-0.0,1.2867,1.35414,0.0,2,0,0,0
153849617,34.0350473196,108.756733007,421.754,391.809,-0.0,1.28676,1.35395,0.0,2,0,0,0
154049832,34.0350459012,108.75673211,421.967,392.019,-0.0,1.28682,1.35377,0.0,2,0,0,0
154250046,34.0350442963,108.756731256,422.174,392.221,-0.0,1.2869,1.35358,0.0,2,0,0,0
154450264,34.0350425941,108.756730596,422.362,392.404,-0.0,1.28698,1.35408,0.0,2,0,0,0
154650476,34.0350408709,108.756730204,422.52,392.557,-0.0,1.28708,1.35389,0.0,2,0,0,0
154850688,34.0350390353,108.756729815,422.666,392.699,-0.0,1.28717,1.35371,0.0,2,0,0,0
155050903,34.0350370446,108.756729249,422.85,392.879,-0.0,1.28727,1.35421,0.0,2,0,0,0
155251117,34.035034791,108.756728472,423.067,393.093,-0.0,1.28736,1.35402,0.0,2,0,0,0
155451340,34.0350323245,108.756727565,423.275,393.298,-0.0,1.28745,1.35383,0.0,2,0,0,0
155651545,34.0350298133,108.756726511,423.471,393.492,-0.0,1.28755,1.35433,0.0,2,0,0,0
155851759,34.035027167,108.756725205,423.642,393.659,-0.0,1.28765,1.35412,0.0,2,0,0,0
156051975,34.0350246339,108.756723982,423.783,393.798,-0.0,1.28774,1.35391,0.0,2,0,0,0
156252187,34.0350222647,108.756722765,423.909,393.92,-0.0,1.28782,1.3544,0.0,2,0,0,0
156452401,34.035020437,108.756721642,424.006,394.014,-0.0,1.2879,1.35419,0.0,2,0,0,0
156652615,34.0350192279,108.756720409,424.075,394.08,-0.0,1.28797,1.35399,0.0,2,0,0,0
156852829,34.0350186192,108.756719008,424.115,394.117,-0.0,1.28804,1.35448,0.0,2,0,0,0
157053050,34.0350185394,108.756717465,424.129,394.129,-0.0,1.2881,1.35427,0.0,2,0,0,0
157243252,34.0350188467,108.756715985,424.133,394.13,-0.0,1.29171,1.35512,0.0,2,0,0,0
157443460,34.0350192674,108.756714347,424.141,394.135,-0.0,1.29176,1.35563,0.0,2,0,0,0
157653685,34.0350195684,108.7567125,424.15,394.14,-0.0,1.28824,1.35434,0.0,2,0,0,0
157853899,34.0350197256,108.756711109,424.136,394.123,-0.0,1.28829,1.35412,0.0,2,0,0,0
158054112,34.0350197856,108.756710261,424.088,394.071,-0.0,1.28835,1.35391,0.0,2,0,0,0
158244319,34.0350196962,108.756710242,424.03,394.009,-0.0,1.29197,1.35547,0.0,2,0,0,0
158444529,34.0350194033,108.756710787,423.941,393.918,-0.0,1.29202,1.35525,0.0,2,0,0,0
158644744,34.0350189083,108.756712315,423.809,393.782,-0.0,1.29208,1.35504,0.0,2,0,0,0
158844963,34.035018071,108.756714562,423.647,393.617,-0.0,1.29213,1.35554,0.0,2,0,0,0
159055180,34.0350169573,108.756717706,423.48,393.446,-0.0,1.28862,1.35426,0.0,2,0,0,0
159245387,34.035015964,108.756720819,423.345,393.307,-0.0,1.28852,1.35456,0.0,2,0,0,0
159445605,34.0350153162,108.756724021,423.211,393.167,-0.0,1.28859,1.35433,0.0,2,0,0,0
159645809,34.0350153781,108.756727093,423.091,393.04,-0.0,1.29243,1.35534,0.0,2,0,0,0
159846026,34.0350158805,108.756730088,422.962,392.903,-0.0,1.28873,1.35456,0.0,2,0,0,0
160046249,34.0350170129,108.756732854,422.802,392.732,-0.0,1.28881,1.35433,0.0,2,0,0,0
160246449,34.0350184933,108.756735395,422.625,392.546,-0.0,1.29268,1.35535,0.0,2,0,0,0
160446660,34.0350201078,108.756737781,422.455,392.366,-0.0,1.29275,1.35584,0.0,2,0,0,0
160646873,34.0350214905,108.756739902,422.286,392.186,-0.0,1.29283,1.3556,0.0,2,0,0,0
160847085,34.0350227267,108.756741824,422.124,392.014,-0.0,1.28908,1.35412,0.0,2,0,0,0
161047300,34.0350238919,108.756743696,421.965,391.846,-0.0,1.28917,1.3546,0.0,2,0,0,0
161247511,34.0350248828,108.756745367,421.797,391.668,-0.0,1.28928,1.35436,0.0,2,0,0,0
161447722,34.035025672,108.756746738,421.621,391.481,-0.0,1.29321,1.35537,0.0,2,0,0,0
161647934,34.0350260994,108.756748008,421.445,391.294,-0.0,1.28941,1.35459,0.0,2,0,0,0
161848146,34.0350262884,108.756748915,421.303,391.139,-0.0,1.29333,1.35561,0.0,2,0,0,0
162048358,34.0350262881,108.756749682,421.155,390.98,-0.0,1.29337,1.35537,0.0,2,0,0,0
162248585,34.0350260996,108.756749981,421.023,390.835,-0.0,1.29338,1.35586,0.0,2,0,0,0
162448781,34.0350256113,108.756749976,420.889,390.689,-0.0,1.2895,1.35437,0.0,2,0,0,0
162648993,34.0350250745,108.756749554,420.746,390.533,-0.0,1.28951,1.35415,0.0,2,0,0,0
162849205,34.035024776,108.756748951,420.625,390.398,-0.0,1.28953,1.35462,0.0,2,0,0,0
163049417,34.0350248493,108.756748265,420.503,390.262,-0.0,1.28954,1.35439,0.0,2,0,0,0
163249629,34.0350249369,108.756747549,420.409,390.152,-0.0,1.28955,1.35417,0.0,2,0,0,0
163449840,34.0350252964,108.756746827,420.391,390.118,-0.0,1.28954,1.35395,0.0,2,0,0,0
163650052,34.0350261112,108.756745893,420.396,390.107,-0.0,1.28953,1.35443,0.0,2,0,0,0
163850281,34.0350271833,108.756744887,420.411,390.107,-0.0,1.28952,1.35421,0.0,2,0,0,0
164050476,34.0350284432,108.756744027,420.453,390.136,-0.0,1.2895,1.354,0.0,2,0,0,0
164250687,34.035029755,108.756743078,420.492,390.163,-0.0,1.28948,1.35379,0.0,2,0,0,0
164450899,34.0350310737,108.756742272,420.542,390.202,-0.0,1.28946,1.35427,0.0,2,0,0,0
164651111,34.0350323613,108.75674183,420.608,390.257,-0.0,1.28943,1.35407,0.0,2,0,0,0
164851323,34.0350336003,108.756741674,420.667,390.306,-0.0,1.28939,1.35386,0.0,2,0,0,0
165051535,34.0350347739,108.756741858,420.713,390.343,-0.0,1.28936,1.35435,0.0,2,0,0,0
165251747,34.0350358018,108.756742247,420.747,390.369,-0.0,1.2893,1.35415,0.0,2,0,0,0
165451958,34.0350365137,108.756742808,420.764,390.379,-0.0,1.28925,1.35395,0.0,2,0,0,0
165652170,34.0350369944,108.756743525,420.77,390.377,-0.0,1.28918,1.35375,0.0,2,0,0,0
165852386,34.0350372443,108.756744474,420.765,390.365,-0.0,1.28912,1.35424,0.0,2,0,0,0
166052594,34.0350372113,108.756745562,420.77,390.364,-0.0,1.28906,1.35404,0.0,2,0,0,0
166252805,34.0350369165,108.756746879,420.777,390.365,-0.0,1.28899,1.35453,0.0,2,0,0,0
166453017,34.0350363453,108.756748291,420.775,390.357,-0.0,1.28892,1.35431,0.0,2,0,0,0
166653228,34.0350356045,108.756749647,420.77,390.347,-0.0,1.29277,1.35535,0.0,2,0,0,0
166853440,34.0350346152,108.756750827,420.747,390.319,-0.0,1.28879,1.35388,0.0,2,0,0,0
167043649,34.0350336364,108.756751945,420.701,390.267,-0.0,1.29241,1.35543,0.0,2,0,0,0
167243852,34.0350328179,108.756752884,420.641,390.201,-0.0,1.29235,1.35521,0.0,2,0,0,0
167454074,34.0350322547,108.756753641,420.58,390.136,-0.0,1.2925,1.35519,0.0,2,0,0,0
167654286,34.0350320056,108.756754289,420.514,390.068,-0.0,1.28854,1.35442,0.0,2,0,0,0
167854497,34.0350319689,108.756754631,420.449,389.999,-0.0,1.28848,1.35421,0.0,2,0,0,0
168044698,34.035031978,108.756754616,420.377,389.925,-0.0,1.29207,1.35577,0.0,2,0,0,0
168244910,34.0350319105,108.756754211,420.295,389.842,-0.0,1.292,1.35555,0.0,2,0,0,0
168445121,34.0350318215,108.756753608,420.236,389.781,-0.0,1.29193,1.35532,0.0,2,0,0,0
168645335,34.0350318888,108.756752673,420.198,389.741,-0.0,1.29188,1.3551,0.0,2,0,0,0
168855555,34.0350321911,108.756751523,420.162,389.703,-0.0,1.2882,1.35384,0.0,2,0,0,0
169045755,34.0350324361,108.756750249,420.121,389.662,-0.0,1.2918,1.35539,0.0,2,0,0,0
169245967,34.0350327856,108.756748694,420.082,389.622,-0.0,1.29178,1.35517,0.0,2,0,0,0
169446178,34.0350333269,108.756747115,420.043,389.584,-0.0,1.29177,1.35496,0.0,2,0,0,0
169646390,34.0350340182,108.756745513,420.003,389.545,-0.0,1.29177,1.35546,0.0,2,0,0,0
169846601,34.0350347411,108.756744192,419.972,389.516,-0.0,1.29177,1.35525,0.0,2,0,0,0
170046816,34.0350355247,108.756743461,419.932,389.478,-0.0,1.29177,1.35505,0.0,2,0,0,0
170247024,34.0350361885,108.756743139,419.898,389.447,-0.0,1.28801,1.35429,0.0,2,0,0,0
170447236,34.0350367018,108.756743221,419.875,389.428,-0.0,1.29182,1.35535,0.0,2,0,0,0
170647447,34.03503707,108.756743528,419.866,389.422,-0.0,1.29185,1.35514,0.0,2,0,0,0
170847659,34.0350372951,108.756744305,419.865,389.425,-0.0,1.29189,1.35494,0.0,2,0,0,0
171047870,34.0350375172,108.756745086,419.881,389.444,-0.0,1.29186,1.35544,0.0,2,0,0,0
171248082,34.0350379626,108.75674576,419.901,389.466,-0.0,1.29193,1.35523,0.0,2,0,0,0
171448293,34.0350386977,108.756746219,419.904,389.472,-0.0,1.29197,1.35503,0.0,2,0,0,0
171648511,34.0350397542,108.756746626,419.905,389.475,-0.0,1.29204,1.35553,0.0,2,0,0,0
171848726,34.035040984,108.756746949,419.905,389.479,-0.0,1.2921,1.35531,0.0,2,0,0,0
172048927,34.0350423459,108.756747204,419.904,389.482,-0.0,1.29215,1.35508,0.0,2,0,0,0
172249141,34.035043812,108.756747308,419.908,389.488,-0.0,1.29221,1.35558,0.0,2,0,0,0
172449351,34.0350452524,108.756747313,419.915,389.499,-0.0,1.29227,1.35536,0.0,2,0,0,0
172649562,34.0350465891,108.756747249,419.913,389.499,-0.0,1.29235,1.35514,0.0,2,0,0,0
172849788,34.0350477658,108.756747368,419.904,389.493,-0.0,1.29241,1.35564,0.0,2,0,0,0
173049985,34.0350487074,108.756747583,419.889,389.48,-0.0,1.29242,1.35541,0.0,2,0,0,0
173250197,34.035049489,108.756748066,419.871,389.464,-0.0,1.29249,1.35519,0.0,2,0,0,0
173450408,34.0350502268,108.756748462,419.847,389.441,-0.0,1.29255,1.35568,0.0,2,0,0,0
173650620,34.0350512016,108.756748713,419.834,389.429,-0.0,1.29261,1.35545,0.0,2,0,0,0
173850843,34.0350526501,108.756748861,419.833,389.429,-0.0,1.29267,1.35521,0.0,2,0,0,0
174051043,34.0350542194,108.756748845,419.846,389.442,-0.0,1.29273,1.35571,0.0,2,0,0,0
174251254,34.0350558885,108.756748693,419.885,389.482,-0.0,1.29278,1.35547,0.0,2,0,0,0
174451474,34.035057568,108.756748564,419.948,389.546,-0.0,1.29284,1.35525,0.0,2,0,0,0
174651677,34.0350592571,108.756748233,420.009,389.609,-0.0,1.29287,1.35575,0.0,2,0,0,0
174851889,34.0350609894,108.756747887,420.038,389.641,-0.0,1.29289,1.35552,0.0,2,0,0,0
175052100,34.0350628031,108.756747589,420.03,389.635,-0.0,1.29289,1.35529,0.0,2,0,0,0
175252312,34.0350647015,108.75674738,419.975,389.585,-0.0,1.29287,1.35577,0.0,2,0,0,0
175452526,34.0350665369,108.756747298,419.92,389.533,-0.0,1.28903,1.35428,0.0,2,0,0,0
175642734,34.03506829,108.756747337,419.865,389.48,-0.0,1.29266,1.35583,0.0,2,0,0,0
175852946,34.0350702671,108.756747393,419.82,389.437,-0.0,1.29286,1.35579,0.0,2,0,0,0
176053157,34.0350721655,108.756747351,419.813,389.43,-0.0,1.28901,1.3543,0.0,2,0,0,0
176253369,34.0350740272,108.756747667,419.83,389.447,-0.0,1.289,1.35408,0.0,2,0,0,0
176453581,34.0350757784,108.756748229,419.846,389.463,-0.0,1.28898,1.35386,0.0,2,0,0,0
176643796,34.0350773129,108.756748717,419.864,389.482,-0.0,1.29266,1.35541,0.0,2,0,0,0
176843992,34.0350788542,108.75674922,419.888,389.507,-0.0,1.29265,1.35518,0.0,2,0,0,0
177044204,34.0350801807,108.756749589,419.917,389.538,-0.0,1.29263,1.35568,0.0,2,0,0,0
177254426,34.0350813524,108.756749768,419.968,389.591,-0.0,1.2889,1.35438,0.0,2,0,0,0
177454637,34.0350821725,108.756749757,420.027,389.652,-0.0,1.28888,1.35417,0.0,2,0,0,0
177644842,34.0350827761,108.756749751,420.075,389.701,-0.0,1.29255,1.35572,0.0,2,0,0,0
177845052,34.0350831749,108.756749749,420.134,389.762,-0.0,1.29251,1.35549,0.0,2,0,0,0
178045269,34.0350834744,108.756749843,420.216,389.845,-0.0,1.2925,1.35527,0.0,2,0,0,0
178245475,34.0350836984,108.75674994,420.289,389.92,-0.0,1.2925,1.35505,0.0,2,0,0,0
178445684,34.0350839654,108.756749778,420.356,389.987,-0.0,1.29248,1.35556,0.0,2,0,0,0
178645905,34.0350842016,108.756749496,420.433,390.065,-0.0,1.29246,1.35532,0.0,2,0,0,0
178846107,34.0350844948,108.756749104,420.484,390.117,-0.0,1.29242,1.35581,0.0,2,0,0,0
179046323,34.035084947,108.756748638,420.512,390.146,-0.0,1.29238,1.35557,0.0,2,0,0,0
179246544,34.0350857676,108.75674812,420.514,390.148,-0.0,1.29234,1.35534,0.0,2,0,0,0
179446742,34.035086795,108.756747599,420.505,390.139,-0.0,1.29229,1.35511,0.0,2,0,0,0
179646973,34.0350878282,108.756747146,420.483,390.117,-0.0,1.29221,1.35561,0.0,2,0,0,0
179847165,34.0350886321,108.756746847,420.437,390.07,-0.0,1.29214,1.35538,0.0,2,0,0,0
180047377,34.0350893147,108.756746843,420.355,389.989,-0.0,1.29203,1.35515,0.0,2,0,0,0
180247589,34.0350898057,108.756747128,420.238,389.872,-0.0,1.29197,1.35566,0.0,2,0,0,0
180447800,34.0350901048,108.756747466,420.116,389.749,-0.0,1.29191,1.35544,0.0,2,0,0,0
180648016,34.035090289,108.756747721,420.052,389.683,-0.0,1.29188,1.35522,0.0,2,0,0,0
180848239,34.0350905163,108.756747746,420.06,389.687,-0.0,1.29187,1.35501,0.0,2,0,0,0
181048449,34.0350908492,108.75674787,420.09,389.713,-0.0,1.29187,1.35551,0.0,2,0,0,0
181248659,34.0350913716,108.75674809,420.119,389.74,-0.0,1.29186,1.3553,0.0,2,0,0,0
181448859,34.0350921015,108.756748321,420.166,389.784,-0.0,1.288,1.35385,0.0,2,0,0,0
181649071,34.0350930144,108.756748728,420.235,389.852,-0.0,1.29185,1.35488,0.0,2,0,0,0
181849283,34.0350940185,108.756749023,420.329,389.947,-0.0,1.28798,1.35414,0.0,2,0,0,0
182049498,34.0350949055,108.756749197,420.458,390.077,-0.0,1.28799,1.35395,0.0,2,0,0,0
182249710,34.0350955366,108.756749094,420.604,390.225,-0.0,1.29186,1.35499,0.0,2,0,0,0
182449918,34.0350960307,108.756748848,420.769,390.391,-0.0,1.28799,1.35424,0.0,2,0,0,0
182650130,34.0350964124,108.756748545,420.939,390.563,-0.0,1.29186,1.3553,0.0,2,0,0,0
182850354,34.0350966231,108.756748132,421.098,390.725,-0.0,1.28806,1.35385,0.0,2,0,0,0
183050553,34.0350966396,108.756747794,421.261,390.89,-0.0,1.28811,1.35366,0.0,2,0,0,0
183250767,34.0350965843,108.756747606,421.433,391.065,-0.0,1.28816,1.35416,0.0,2,0,0,0
183450977,34.0350966583,108.756747418,421.59,391.227,-0.0,1.2882,1.35397,0.0,2,0,0,0
183651200,34.0350972129,108.75674713,421.711,391.353,-0.0,1.29206,1.35573,0.0,2,0,0,0
183851401,34.0350981846,108.756746794,421.805,391.452,-0.0,1.29208,1.35551,0.0,2,0,0,0
184051613,34.035099506,108.75674638,421.872,391.526,-0.0,1.2921,1.35528,0.0,2,0,0,0
184251825,34.0351009572,108.756745928,421.927,391.585,-0.0,1.29213,1.35506,0.0,2,0,0,0
184452036,34.0351022663,108.756745592,421.97,391.633,-0.0,1.29216,1.35556,0.0,2,0,0,0
184652252,34.0351033869,108.756745198,422.01,391.677,-0.0,1.29217,1.35534,0.0,2,0,0,0
184852460,34.0351043585,108.756744777,422.055,391.725,-0.0,1.29213,1.35512,0.0,2,0,0,0
185052678,34.035105188,108.756744331,422.092,391.766,-0.0,1.29212,1.35562,0.0,2,0,0,0
185252898,34.0351058705,108.756743858,422.121,391.796,-0.0,1.28829,1.35415,0.0,2,0,0,0
185443091,34.035106366,108.756743513,422.143,391.822,-0.0,1.29189,1.35572,0.0,2,0,0,0
185653308,34.0351067068,108.756743304,422.175,391.855,-0.0,1.29207,1.35569,0.0,2,0,0,0
185853519,34.0351069395,108.756743277,422.218,391.901,-0.0,1.29203,1.35547,0.0,2,0,0,0
186053731,34.0351069784,108.756743484,422.267,391.954,-0.0,1.292,1.35525,0.0,2,0,0,0
186253943,34.0351068193,108.756743719,422.315,392.006,-0.0,1.29196,1.35503,0.0,2,0,0,0
186444144,34.0351066143,108.756743772,422.366,392.061,-0.0,1.29171,1.35534,0.0,2,0,0,0
186644359,34.0351063945,108.756743604,422.402,392.102,-0.0,1.29168,1.35512,0.0,2,0,0,0
186844574,34.0351060996,108.756743468,422.399,392.105,-0.0,1.29164,1.3549,0.0,2,0,0,0
187054790,34.0351058165,108.756743234,422.369,392.08,-0.0,1.2918,1.35561,0.0,2,0,0,0
187255005,34.0351055115,108.756742871,422.324,392.04,-0.0,1.29176,1.35539,0.0,2,0,0,0
187445203,34.0351052511,108.75674245,422.248,391.969,-0.0,1.2915,1.35569,0.0,2,0,0,0
187645428,34.0351050116,108.75674203,422.143,391.868,-0.0,1.29145,1.35547,0.0,2,0,0,0
187845627,34.0351047739,108.75674198,421.992,391.721,-0.0,1.28768,1.35401,0.0,2,0,0,0
188045843,34.0351045938,108.756742332,421.781,391.516,-0.0,1.29139,1.35504,0.0,2,0,0,0
188246051,34.0351044137,108.75674279,421.5,391.24,-0.0,1.29137,1.35555,0.0,2,0,0,0
188446266,34.0351040903,108.756743376,421.162,390.907,-0.0,1.29136,1.35533,0.0,2,0,0,0
188646475,34.0351035542,108.756743827,420.825,390.574,-0.0,1.29134,1.35512,0.0,2,0,0,0
188846687,34.0351027543,108.756744586,420.51,390.263,-0.0,1.29129,1.35491,0.0,2,0,0,0
189046899,34.0351016845,108.756745157,420.259,390.015,-0.0,1.29125,1.35542,0.0,2,0,0,0
189247115,34.035100562,108.756745541,420.051,389.808,-0.0,1.29124,1.3552,0.0,2,0,0,0
189447323,34.0350995642,108.756746221,419.88,389.639,-0.0,1.29124,1.35498,0.0,2,0,0,0
189647551,34.0350988356,108.756746557,419.752,389.512,-0.0,1.29125,1.35549,0.0,2,0,0,0
189847747,34.0350983805,108.756746831,419.68,389.441,-0.0,1.29127,1.35527,0.0,2,0,0,0
190047959,34.0350980306,108.756747004,419.674,389.437,-0.0,1.2913,1.35506,0.0,2,0,0,0
190248172,34.0350977624,108.756747122,419.705,389.47,-0.0,1.29132,1.35557,0.0,2,0,0,0
190448384,34.0350976003,108.756747074,419.741,389.508,-0.0,1.28753,1.3541,0.0,2,0,0,0
190648596,34.0350975017,108.756747161,419.779,389.55,-0.0,1.29139,1.35514,0.0,2,0,0,0
190848808,34.0350972967,108.756747123,419.84,389.614,-0.0,1.29137,1.35563,0.0,2,0,0,0
191049023,34.0350970987,108.756747317,419.908,389.686,-0.0,1.29138,1.3554,0.0,2,0,0,0
191249246,34.035096762,108.756747447,419.973,389.757,-0.0,1.29139,1.35517,0.0,2,0,0,0
191449444,34.0350963271,108.756747295,420.055,389.842,-0.0,1.29139,1.35567,0.0,2,0,0,0
191649657,34.0350957205,108.75674692,420.145,389.937,-0.0,1.29139,1.35544,0.0,2,0,0,0
191849869,34.0350950153,108.756746434,420.247,390.043,-0.0,1.2914,1.35522,0.0,2,0,0,0
192050081,34.0350941298,108.756746098,420.362,390.162,-0.0,1.29141,1.35572,0.0,2,0,0,0
192250298,34.0350931517,108.756745816,420.493,390.297,-0.0,1.29142,1.3555,0.0,2,0,0,0
192450505,34.0350921294,108.756745856,420.614,390.423,-0.0,1.2914,1.35528,0.0,2,0,0,0
192650717,34.0350910666,108.756745823,420.721,390.536,-0.0,1.2914,1.35507,0.0,2,0,0,0
192850929,34.0350902045,108.756746048,420.816,390.634,-0.0,1.2914,1.35557,0.0,2,0,0,0
193051141,34.0350896203,108.756745996,420.891,390.714,-0.0,1.28761,1.35411,0.0,2,0,0,0
193251356,34.0350892454,108.756745777,420.937,390.766,-0.0,1.2914,1.35515,0.0,2,0,0,0
193451565,34.0350891438,108.756745415,420.968,390.802,-0.0,1.29136,1.35494,0.0,2,0,0,0
193651777,34.0350893924,108.756744988,420.997,390.835,-0.0,1.29133,1.35545,0.0,2,0,0,0
193851991,34.0350897972,108.7567445,421.025,390.868,-0.0,1.28751,1.35399,0.0,2,0,0,0
194052203,34.0350903637,108.756743927,421.063,390.908,-0.0,1.28748,1.3538,0.0,2,0,0,0
194252415,34.0350909174,108.756743342,421.113,390.961,-0.0,1.28745,1.35429,0.0,2,0,0,0
194452625,34.0350912701,108.756742923,421.167,391.015,-0.0,1.29121,1.35534,0.0,2,0,0,0
194652837,34.0350915781,108.75674276,421.19,391.039,-0.0,1.29116,1.35512,0.0,2,0,0,0
194853048,34.035091696,108.7567428,421.202,391.051,-0.0,1.29111,1.35563,0.0,2,0,0,0
195043253,34.0350916981,108.756742947,421.207,391.055,-0.0,1.29086,1.35522,0.0,2,0,0,0
195243462,34.0350915507,108.75674322,421.196,391.043,-0.0,1.29082,1.355,0.0,2,0,0,0
195453684,34.0350911957,108.756743566,421.163,391.008,-0.0,1.29097,1.35499,0.0,2,0,0,0
195653896,34.0350906844,108.756744022,421.108,390.951,-0.0,1.28717,1.35424,0.0,2,0,0,0
195854108,34.0350899744,108.756744382,421.052,390.893,-0.0,1.28714,1.35404,0.0,2,0,0,0
196044312,34.0350891139,108.756744519,421.019,390.858,-0.0,1.29067,1.35489,0.0,2,0,0,0
196244521,34.0350881524,108.75674454,420.964,390.8,-0.0,1.29064,1.35541,0.0,2,0,0,0
196444736,34.0350873398,108.756744668,420.884,390.719,-0.0,1.2906,1.35521,0.0,2,0,0,0
196644945,34.0350868842,108.756744621,420.798,390.631,-0.0,1.29058,1.355,0.0,2,0,0,0
196855168,34.0350867377,108.756744463,420.708,390.54,-0.0,1.28698,1.35375,0.0,2,0,0,0
197045372,34.0350869203,108.756744226,420.619,390.449,-0.0,1.29051,1.35531,0.0,2,0,0,0
197245581,34.0350872241,108.756743954,420.534,390.361,-0.0,1.29052,1.35511,0.0,2,0,0,0
197445793,34.0350875492,108.756743582,420.463,390.287,-0.0,1.29052,1.35491,0.0,2,0,0,0
197646005,34.0350875575,108.756743288,420.412,390.234,-0.0,1.29052,1.35542,0.0,2,0,0,0
197846221,34.0350874552,108.75674307,420.346,390.164,-0.0,1.29053,1.3552,0.0,2,0,0,0
198046442,34.0350871899,108.756743213,420.238,390.053,-0.0,1.29055,1.3557,0.0,2,0,0,0
198246641,34.0350866779,108.756743674,420.105,389.916,-0.0,1.29056,1.35548,0.0,2,0,0,0
198446854,34.0350860432,108.75674456,419.957,389.765,-0.0,1.29057,1.35526,0.0,2,0,0,0
198647079,34.0350853113,108.756745735,419.857,389.66,-0.0,1.29058,1.35504,0.0,2,0,0,0
198847281,34.0350845143,108.7567466,419.915,389.711,-0.0,1.29062,1.35554,0.0,2,0,0,0
199047489,34.0350835785,108.756747816,419.855,389.647,-0.0,1.29069,1.35531,0.0,2,0,0,0
199247701,34.0350828712,108.756748835,419.795,389.585,-0.0,1.29074,1.35507,0.0,2,0,0,0
199447913,34.0350822753,108.756749858,419.743,389.534,-0.0,1.29081,1.35553,0.0,2,0,0,0
199648125,34.035082015,108.7567508,419.704,389.496,-0.0,1.29086,1.35525,0.0,2,0,0,0
199848344,34.0350820004,108.756751537,419.701,389.495,-0.0,1.29089,1.35497,0.0,2,0,0,0
200048550,34.0350821447,108.756752194,419.717,389.513,-0.0,1.29093,1.3554,0.0,2,0,0,0
200248763,34.0350823308,108.756752684,419.749,389.547,-0.0,1.29098,1.3551,0.0,2,0,0,0
200448976,34.0350825188,108.756753072,419.797,389.597,-0.0,1.29102,1.35479,0.0,2,0,0,0
200649186,34.0350827241,108.756753453,419.831,389.633,-0.0,1.29106,1.35448,0.0,2,0,0,0
200849397,34.0350829199,108.756753696,419.862,389.667,-0.0,1.29109,1.35487,0.0,2,0,0,0
201049611,34.0350830029,108.756753815,419.864,389.673,-0.0,1.29112,1.35456,0.0,2,0,0,0
201249821,34.0350830454,108.756753813,419.842,389.656,-0.0,1.29113,1.35423,0.0,2,0,0,0
201450033,34.0350830305,108.756753751,419.803,389.623,-0.0,1.29114,1.3546,0.0,2,0,0,0
201650245,34.035082936,108.756753587,419.718,389.544,-0.0,1.29115,1.35427,0.0,2,0,0,0
201850457,34.0350827862,108.756753304,419.581,389.413,-0.0,1.29114,1.35395,0.0,2,0,0,0
202050669,34.0350827422,108.756752945,419.439,389.278,-0.0,1.29113,1.35432,0.0,2,0,0,0
202250881,34.0350826011,108.756752641,419.523,389.365,-0.0,1.29113,1.35401,0.0,2,0,0,0
202451093,34.0350821681,108.75675193,419.61,389.457,-0.0,1.29115,1.35369,0.0,2,0,0,0
202651305,34.0350816645,108.75675126,419.686,389.54,-0.0,1.29115,1.35338,0.0,2,0,0,0
202851516,34.0350810899,108.756750493,419.758,389.619,-0.0,1.28721,1.35286,0.0,2,0,0,0
203051744,34.0350802193,108.756749476,419.867,389.736,-0.0,1.28723,1.35257,0.0,2,0,0,0
203251940,34.0350790884,108.756748221,420.01,389.888,-0.0,1.28725,1.35227,0.0,2,0,0,0
203452152,34.0350778603,108.756747099,420.208,390.095,-0.0,1.29117,1.35279,0.0,2,0,0,0
203652364,34.0350764766,108.756746104,420.451,390.346,-0.0,1.28724,1.35232,0.0,2,0,0,0
203852576,34.0350747568,108.75674541,420.702,390.603,-0.0,1.28726,1.35201,0.0,2,0,0,0
204052790,34.0350728001,108.75674503,420.965,390.874,-0.0,1.28726,1.35171,0.0,2,0,0,0
204253000,34.0350707454,108.756744619,421.234,391.149,-0.0,1.28725,1.35205,0.0,2,0,0,0
204453212,34.0350686173,108.75674425,421.477,391.4,-0.0,1.28724,1.35176,0.0,2,0,0,0
204653427,34.035066569,108.756743838,421.674,391.605,-0.0,1.28723,1.35209,0.0,2,0,0,0
204843626,34.0350646225,108.756743382,421.831,391.771,-0.0,1.2909,1.3524,0.0,2,0,0,0
205043845,34.0350626363,108.756742795,421.98,391.929,-0.0,1.29089,1.3521,0.0,2,0,0,0
205254060,34.0350605229,108.756742017,422.124,392.081,-0.0,1.28722,1.3512,0.0,2,0,0,0
205454279,34.035058396,108.756741056,422.24,392.206,-0.0,1.28722,1.35156,0.0,2,0,0,0
205654484,34.0350563667,108.756740006,422.338,392.313,-0.0,1.28722,1.35129,0.0,2,0,0,0
205844686,34.0350544381,108.756738975,422.413,392.397,-0.0,1.29088,1.35167,0.0,2,0,0,0
206044898,34.0350525133,108.756737875,422.468,392.46,-0.0,1.29088,1.35207,0.0,2,0,0,0
206245110,34.0350509624,108.756737007,422.487,392.487,-0.0,1.29087,1.35185,0.0,2,0,0,0
206445324,34.0350497407,108.75673641,422.479,392.488,-0.0,1.29085,1.35163,0.0,2,0,0,0
206655560,34.0350485937,108.756735989,422.458,392.476,-0.0,1.29103,1.35223,0.0,2,0,0,0
206845747,34.0350477607,108.756735904,422.417,392.443,-0.0,1.29076,1.35188,0.0,2,0,0,0
207045960,34.0350471699,108.756736135,422.352,392.384,-0.0,1.29072,1.35171,0.0,2,0,0,0
207246172,34.0350469322,108.756736727,422.263,392.302,-0.0,1.29068,1.35219,0.0,2,0,0,0
207446385,34.0350472178,108.756737648,422.142,392.187,-0.0,1.29064,1.35204,0.0,2,0,0,0
207646597,34.0350476352,108.756738626,421.992,392.043,-0.0,1.29059,1.3519,0.0,2,0,0,0
207846809,34.0350482657,108.756739492,421.812,391.869,-0.0,1.28673,1.35086,0.0,2,0,0,0
208047022,34.0350490759,108.756739655,421.601,391.665,-0.0,1.29051,1.3523,0.0,2,0,0,0
208247234,34.0350501262,108.756739048,421.365,391.434,-0.0,1.29046,1.3522,0.0,2,0,0,0
208447447,34.035051281,108.756738311,421.151,391.225,-0.0,1.29042,1.35209,0.0,2,0,0,0
208647659,34.0350524129,108.756737529,420.98,391.057,-0.0,1.29039,1.352,0.0,2,0,0,0
208847871,34.035053031,108.756736343,420.84,390.919,-0.0,1.29033,1.35256,0.0,2,0,0,0
209048086,34.0350532428,108.756734882,420.693,390.775,-0.0,1.29031,1.35247,0.0,2,0,0,0
209248304,34.0350530479,108.756733175,420.559,390.642,-0.0,1.29029,1.35239,0.0,2,0,0,0
209448508,34.0350526996,108.756731553,420.458,390.543,-0.0,1.2903,1.35297,0.0,2,0,0,0
209648731,34.0350521851,108.756729887,420.316,390.403,-0.0,1.29031,1.35289,0.0,2,0,0,0
209848933,34.0350515685,108.756728121,420.138,390.23,-0.0,1.29034,1.3528,0.0,2,0,0,0
210049145,34.0350507754,108.756726253,419.935,390.03,-0.0,1.29039,1.35338,0.0,2,0,0,0
210249358,34.0350500781,108.756724377,419.759,389.859,-0.0,1.28682,1.35218,0.0,2,0,0,0
210449570,34.0350493494,108.756722468,419.672,389.775,-0.0,1.29058,1.35321,0.0,2,0,0,0
210649786,34.0350484129,108.756720455,419.695,389.8,-0.0,1.2907,1.35312,0.0,2,0,0,0
210849998,34.035047447,108.756718368,419.804,389.91,-0.0,1.29083,1.35371,0.0,2,0,0,0
211050210,34.0350464537,108.756716443,419.956,390.065,-0.0,1.29098,1.35361,0.0,2,0,0,0
211250420,34.035045306,108.756714933,420.136,390.248,-0.0,1.29112,1.35352,0.0,2,0,0,0
211450633,34.0350440736,108.756713844,420.346,390.463,-0.0,1.29127,1.35342,0.0,2,0,0,0
211650849,34.0350423567,108.756713022,420.586,390.709,-0.0,1.29141,1.354,0.0,2,0,0,0
211851058,34.0350404531,108.756712435,420.851,390.981,-0.0,1.29154,1.3539,0.0,2,0,0,0
212051277,34.0350383247,108.756712087,421.142,391.281,-0.0,1.29168,1.35379,0.0,2,0,0,0
212251493,34.0350360336,108.756711952,421.447,391.596,-0.0,1.28799,1.35314,0.0,2,0,0,0
212451697,34.0350337161,108.756712014,421.752,391.913,-0.0,1.2919,1.35425,0.0,2,0,0,0
212651910,34.0350318554,108.756712263,422.069,392.242,-0.0,1.29197,1.35413,0.0,2,0,0,0
212852135,34.0350303114,108.756712655,422.382,392.568,-0.0,1.29202,1.354,0.0,2,0,0,0
213052336,34.0350289852,108.75671327,422.696,392.895,-0.0,1.28821,1.35333,0.0,2,0,0,0
213252548,34.0350280649,108.756714096,423.0,393.213,-0.0,1.29209,1.35444,0.0,2,0,0,0
213442754,34.0350274536,108.756715101,423.298,393.524,-0.0,1.29189,1.3548,0.0,2,0,0,0
213652976,34.0350272181,108.756716334,423.646,393.884,-0.0,1.28826,1.3536,0.0,2,0,0,0
213853187,34.0350273005,108.756717716,423.991,394.242,-0.0,1.28827,1.35345,0.0,2,0,0,0
214053403,34.035027487,108.756719103,424.317,394.581,-0.0,1.28828,1.35331,0.0,2,0,0,0
214253620,34.0350275031,108.756720434,424.635,394.911,-0.0,1.29213,1.3551,0.0,2,0,0,0
214443819,34.0350274377,108.756721691,424.921,395.208,-0.0,1.2919,1.35474,0.0,2,0,0,0
214644029,34.0350273299,108.756722976,425.196,395.495,-0.0,1.29187,1.35458,0.0,2,0,0,0
214844242,34.035027041,108.756724227,425.459,395.769,-0.0,1.2918,1.35513,0.0,2,0,0,0
215054466,34.0350266921,108.756725297,425.729,396.051,-0.0,1.29194,1.35516,0.0,2,0,0,0
215254679,34.035026305,108.756726159,426.002,396.336,-0.0,1.28802,1.35372,0.0,2,0,0,0
215444882,34.0350257793,108.756726861,426.259,396.603,-0.0,1.29159,1.35531,0.0,2,0,0,0
215645098,34.0350250255,108.756727569,426.519,396.874,-0.0,1.29152,1.35513,0.0,2,0,0,0
215845308,34.0350241501,108.756728162,426.782,397.148,-0.0,1.29145,1.35494,0.0,2,0,0,0
216045521,34.0350231946,108.75672866,427.034,397.41,-0.0,1.29138,1.35476,0.0,2,0,0,0
216245747,34.0350222768,108.756729096,427.268,397.655,-0.0,1.2913,1.35529,0.0,2,0,0,0
216445948,34.0350212903,108.756729491,427.49,397.888,-0.0,1.29123,1.3551,0.0,2,0,0,0
216646164,34.0350201446,108.756729797,427.675,398.084,-0.0,1.29116,1.35491,0.0,2,0,0,0
216846377,34.0350190653,108.756730037,427.833,398.253,-0.0,1.29105,1.35543,0.0,2,0,0,0
217046588,34.0350184463,108.756730264,427.951,398.38,-0.0,1.29096,1.35523,0.0,2,0,0,0
217246802,34.0350183496,108.756730563,428.036,398.477,-0.0,1.29087,1.35502,0.0,2,0,0,0
217447015,34.035018651,108.756730825,428.113,398.563,-0.0,1.2908,1.35554,0.0,2,0,0,0
217647229,34.0350195135,108.756731042,428.171,398.631,-0.0,1.29076,1.35534,0.0,2,0,0,0
217847442,34.0350205658,108.756731257,428.2,398.67,-0.0,1.29069,1.35513,0.0,2,0,0,0
218047657,34.0350215529,108.756731375,428.214,398.693,-0.0,1.29066,1.35493,0.0,2,0,0,0
218247870,34.0350223356,108.756731329,428.21,398.698,-0.0,1.29059,1.35544,0.0,2,0,0,0
218448096,34.0350231503,108.756731194,428.184,398.681,-0.0,1.29055,1.35524,0.0,2,0,0,0
218648297,34.035023981,108.756730911,428.121,398.626,-0.0,1.29051,1.35503,0.0,2,0,0,0
218848513,34.0350247756,108.756730513,428.034,398.546,-0.0,1.29044,1.35554,0.0,2,0,0,0
219048724,34.0350252494,108.756729959,427.921,398.44,-0.0,1.2904,1.35532,0.0,2,0,0,0
219248938,34.0350250433,108.756729395,427.772,398.299,-0.0,1.29035,1.35511,0.0,2,0,0,0
219449152,34.0350244914,108.756728691,427.599,398.134,-0.0,1.2903,1.35562,0.0,2,0,0,0
219649372,34.0350238666,108.756727967,427.401,397.943,-0.0,1.29026,1.35541,0.0,2,0,0,0
219849579,34.0350234117,108.756727174,427.19,397.74,-0.0,1.29021,1.3552,0.0,2,0,0,0
220049793,34.0350232123,108.756726392,426.965,397.523,-0.0,1.29017,1.35499,0.0,2,0,0,0
220250007,34.0350232307,108.756725603,426.729,397.296,-0.0,1.29014,1.35551,0.0,2,0,0,0
220450222,34.0350234361,108.756724845,426.477,397.051,-0.0,1.29011,1.35529,0.0,2,0,0,0
220650435,34.035023755,108.756724192,426.196,396.779,-0.0,1.29009,1.35507,0.0,2,0,0,0
220850649,34.0350241294,108.756723588,425.887,396.479,-0.0,1.28637,1.35431,0.0,2,0,0,0
221050862,34.0350244823,108.756722897,425.555,396.156,-0.0,1.29005,1.35536,0.0,2,0,0,0
221251080,34.0350247072,108.756722098,425.189,395.798,-0.0,1.29003,1.35515,0.0,2,0,0,0
221451290,34.0350247967,108.756721203,424.81,395.427,-0.0,1.28999,1.35566,0.0,2,0,0,0
221651506,34.0350248528,108.756720136,424.465,395.09,-0.0,1.28996,1.35544,0.0,2,0,0,0
221851720,34.0350248757,108.756718915,424.148,394.779,-0.0,1.28995,1.35523,0.0,2,0,0,0
222051932,34.035024923,108.756717586,423.831,394.468,-0.0,1.28993,1.35503,0.0,2,0,0,0
222252146,34.0350249379,108.756716253,423.53,394.172,-0.0,1.28993,1.35554,0.0,2,0,0,0
222452360,34.0350248919,108.756714934,423.229,393.876,-0.0,1.28619,1.35408,0.0,2,0,0,0
