timestamp,timestamp_sample,device_id,x,y,z,temperature,error_count,is_external
564996865,564995932,396817,-0.0475481,-0.335146,0.370358,nan,0,1
565008169,565007238,396817,-0.0475481,-0.335146,0.373341,nan,0,1
566003575,566002637,396817,-0.0387352,-0.332033,0.379307,nan,0,1
566999553,566998625,396817,-0.0504857,-0.316467,0.409139,nan,0,1
568006486,568005550,396817,-0.0798621,-0.294675,0.38229,nan,0,1
569001703,569000777,396817,-0.0798621,-0.304015,0.403173,nan,0,1
569998336,569997406,396817,-0.100425,-0.310241,0.409139,nan,0,1
571005129,571004201,396817,-0.109238,-0.316467,0.406156,nan,0,1
572000399,571999468,396817,-0.0974879,-0.350712,0.370358,nan,0,1
572996444,572995515,396817,-0.106301,-0.307128,0.409139,nan,0,1
574003198,574002265,396817,-0.112176,-0.297788,0.435988,nan,0,1
574998141,574997215,396817,-0.115114,-0.313354,0.421072,nan,0,1
576006168,576005236,396817,-0.100425,-0.297788,0.403173,nan,0,1
577001595,577000668,396817,-0.176804,-0.297788,0.40019,nan,0,1
577996933,577996006,396817,-0.0769244,-0.307128,0.421072,nan,0,1
579004652,579003725,396817,-0.100425,-0.322693,0.409139,nan,0,1
580000089,579999158,396817,-0.088675,-0.316467,0.427039,nan,0,1
580996614,580995686,396817,-0.0916126,-0.338259,0.39124,nan,0,1
582003042,582002115,396817,-0.0739868,-0.322693,0.409139,nan,0,1
582998875,582997946,396817,-0.0857373,-0.316467,0.406156,nan,0,1
583995258,583994327,396817,-0.115114,-0.310241,0.415106,nan,0,1
585002278,585001333,396817,-0.118051,-0.300902,0.435988,nan,0,1
585997850,585996924,396817,-0.0739868,-0.31958,0.412123,nan,0,1
586994359,586993424,396817,-0.0710492,-0.310241,0.415106,nan,0,1
588000765,587999836,396817,-0.0857373,-0.307128,0.433005,nan,0,1
588996195,588995266,396817,-0.0739868,-0.310241,0.409139,nan,0,1
590003606,590002678,396817,-0.0534234,-0.304015,0.397206,nan,0,1
590999054,590997966,396817,-0.056361,-0.300902,0.412123,nan,0,1
592005490,592004552,396817,-0.103363,-0.307128,0.415106,nan,0,1
593001858,593000910,396817,-0.115114,-0.316467,0.418089,nan,0,1
593997168,593996199,396817,-0.0592986,-0.294675,0.397206,nan,0,1
595004178,595003251,396817,-0.0710492,-0.310241,0.40019,nan,0,1
596001037,596000110,396817,-0.088675,-0.304015,0.409139,nan,0,1
596996494,596995565,396817,-0.0651739,-0.297788,0.406156,nan,0,1
598003300,598002358,396817,-0.0827997,-0.294675,0.415106,nan,0,1
598999467,598998529,396817,-0.0798621,-0.257318,0.456871,nan,0,1
600006260,600005331,396817,-0.0857373,-0.313354,0.409139,nan,0,1
601001746,601000818,396817,-0.0211094,-0.304015,0.406156,nan,0,1
601998348,601997411,396817,0.0875831,-0.263544,0.40019,nan,0,1
603004936,603004002,396817,0.213901,-0.157698,0.415106,nan,0,1
604000352,603999249,396817,0.237402,-0.0954353,0.424055,nan,0,1
604996703,604995762,396817,0.199213,-0.117227,0.40019,nan,0,1
606003622,606002686,396817,0.143398,-0.195055,0.462837,nan,0,1
606999263,606998334,396817,0.249153,-0.142132,0.397206,nan,0,1
607995343,607994414,396817,0.237402,-0.0736434,0.412123,nan,0,1
609001964,609001031,396817,0.24034,0.150502,0.403173,nan,0,1
609998287,609997358,396817,0.0670196,0.290592,0.412123,nan,0,1
611005321,611004394,396817,0.0670196,0.303045,0.418089,nan,0,1
612001110,612000184,396817,0.0728949,0.293705,0.412123,nan,0,1
612997567,612996638,396817,0.116959,0.290592,0.394223,nan,0,1
614003808,614002880,396817,0.114022,0.271914,0.39124,nan,0,1
614999057,614998126,396817,0.143398,0.290592,0.38229,nan,0,1
616007017,616006088,396817,0.216839,0.162954,0.409139,nan,0,1
617002356,617001420,396817,0.29028,0.116257,0.379307,nan,0,1
617998406,617997467,396817,0.278529,0.125597,0.39124,nan,0,1
619006159,619005229,396817,0.249153,0.106918,0.418089,nan,0,1
620001781,620000852,396817,0.354908,-0.104775,0.313677,nan,0,1
620996854,620995925,396817,0.208026,-0.213734,0.38229,nan,0,1
622004463,622003533,396817,0.196275,-0.123453,0.415106,nan,0,1
622999496,622998570,396817,0.172774,-0.198168,0.430022,nan,0,1
623994685,623993756,396817,0.172774,-0.145245,0.438971,nan,0,1
625002556,625001627,396817,0.158086,-0.201282,0.421072,nan,0,1
625998144,625997200,396817,0.163962,-0.213734,0.409139,nan,0,1
627004674,627003745,396817,0.216839,-0.17949,0.418089,nan,0,1
628001273,628000334,396817,0.275592,0.0259766,0.39124,nan,0,1
628997009,628996077,396817,0.216839,0.22833,0.418089,nan,0,1
630003340,630002412,396817,0.0787702,0.299932,0.403173,nan,0,1
630999985,630999012,396817,0.0112046,0.312384,0.40019,nan,0,1
632006438,632005509,396817,0.0141422,0.321723,0.412123,nan,0,1
633001874,633000947,396817,0.105209,0.324837,0.39124,nan,0,1
633997944,633997018,396817,0.105209,0.315497,0.397206,nan,0,1
635004713,635003784,396817,0.0846454,0.315497,0.403173,nan,0,1
636001180,636000236,396817,0.00239167,0.271914,0.409139,nan,0,1
636996932,636995993,396817,0.0875831,0.287479,0.409139,nan,0,1
638003448,638002522,396817,0.0846454,0.309271,0.394223,nan,0,1
638999757,638998831,396817,0.00239167,0.312384,0.421072,nan,0,1
639995253,639994325,396817,0.00239167,0.324837,0.40019,nan,0,1
641001990,641001064,396817,-0.0211094,0.315497,0.418089,nan,0,1
641998235,641997305,396817,0.0112046,0.337289,0.385274,nan,0,1
643004966,643004035,396817,-0.0592986,0.315497,0.418089,nan,0,1
644000465,643999532,396817,0.0200175,0.312384,0.418089,nan,0,1
644996682,644995751,396817,-0.0269847,0.315497,0.409139,nan,0,1
646003257,646002331,396817,0.0200175,0.334176,0.409139,nan,0,1
646998749,646997821,396817,0.0258927,0.32795,0.418089,nan,0,1
647995364,647994416,396817,0.0170798,0.309271,0.427039,nan,0,1
649002031,649001094,396817,-0.0181718,0.31861,0.406156,nan,0,1
649997426,649996499,396817,0.00826695,0.359081,0.397206,nan,0,1
651004992,651004066,396817,-0.0152341,0.334176,0.412123,nan,0,1
652000608,651999640,396817,0.0141422,0.346629,0.394223,nan,0,1
653007395,653006462,396817,0.0258927,0.337289,0.40019,nan,0,1
654003570,654002632,396817,0.0347056,0.343515,0.406156,nan,0,1
654999280,654998334,396817,0.0258927,0.352855,0.38229,nan,0,1
656006146,656005217,396817,-0.00642123,0.334176,0.403173,nan,0,1
657002405,657001479,396817,-0.0299223,0.349742,0.39124,nan,0,1
657997579,657996652,396817,-0.0387352,0.334176,0.409139,nan,0,1
659004084,659003143,396817,0.0200175,0.334176,0.376324,nan,0,1
660000167,659999227,396817,-0.056361,0.32795,0.394223,nan,0,1
660995798,660994869,396817,-0.338374,0.134936,0.412123,nan,0,1
662002633,662001697,396817,-0.347187,-0.0176071,0.40019,nan,0,1
662998753,662997813,396817,-0.329561,0.010411,0.376324,nan,0,1
663993899,663992968,396817,-0.329561,-0.0269465,0.39124,nan,0,1
665001649,665000719,396817,-0.185617,-0.251092,0.394223,nan,0,1
665997332,665996402,396817,-0.167991,-0.288449,0.388257,nan,0,1
667004296,667003368,396817,-0.197367,-0.26977,0.424055,nan,0,1
668000559,667999621,396817,-0.264933,-0.263544,0.394223,nan,0,1
669007263,669006333,396817,-0.19443,-0.313354,0.340525,nan,0,1
670002405,670001478,396817,-0.182679,-0.257318,0.412123,nan,0,1
670998818,670997888,396817,-0.109238,-0.266657,0.427039,nan,0,1
672005275,672004331,396817,-0.197367,-0.260431,0.415106,nan,0,1
673000943,673000017,396817,-0.223806,-0.213734,0.409139,nan,0,1
673997560,673996504,396817,-0.247307,0.212764,0.415106,nan,0,1
675004133,675003197,396817,-0.232619,0.253235,0.418089,nan,0,1
675999928,675998999,396817,-0.238494,0.253235,0.388257,nan,0,1
676996386,676995438,396817,-0.259058,0.184746,0.427039,nan,0,1
678002849,678001915,396817,-0.326623,0.22833,0.361408,nan,0,1
678998598,678997672,396817,-0.250245,0.225217,0.40019,nan,0,1
680006388,680005458,396817,-0.270808,0.237669,0.367374,nan,0,1
681001425,681000494,396817,-0.288434,0.247009,0.376324,nan,0,1
681996573,681995642,396817,-0.250245,0.200312,0.441955,nan,0,1
683004371,683003403,396817,-0.24437,0.21899,0.412123,nan,0,1
683999810,683998860,396817,-0.115114,0.315497,0.397206,nan,0,1
684995378,684994446,396817,-0.126864,0.309271,0.427039,nan,0,1
686003102,686002176,396817,-0.115114,0.324837,0.39124,nan,0,1
686998852,686997926,396817,-0.165053,0.31861,0.385274,nan,0,1
688005911,688004945,396817,-0.106301,0.31861,0.397206,nan,0,1
689001907,689000981,396817,-0.170929,0.321723,0.367374,nan,0,1
689997262,689996331,396817,-0.150365,0.387099,0.334559,nan,0,1
691004098,691003164,396817,-0.138615,0.340402,0.38229,nan,0,1
692000521,691999590,396817,-0.123927,0.32795,0.39124,nan,0,1
692995764,692994836,396817,-0.0974879,0.32795,0.39124,nan,0,1
694003324,694002382,396817,-0.106301,0.324837,0.379307,nan,0,1
694998981,694998031,396817,-0.0710492,0.309271,0.40019,nan,0,1
695994158,695993229,396817,-0.0357976,0.306158,0.38229,nan,0,1
697003322,697002376,396817,-0.0328599,0.309271,0.38229,nan,0,1
