timestamp,gyro_rad[0],gyro_rad[1],gyro_rad[2],gyro_integral_dt,accelerometer_timestamp_relative,accelerometer_m_s2[0],accelerometer_m_s2[1],accelerometer_m_s2[2],accelerometer_integral_dt,accelerometer_clipping
565000354,0.120473,0.0308429,0.0305184,5007,0,0.011942,0.235455,-10.4155,5007,0
565005356,0.029485,-0.0216318,-0.00666278,5002,0,0.178709,-1.52897,-10.5476,5002,0
565010360,0.021176,-0.053031,-0.0805075,5004,0,-0.239698,-2.40806,-10.8535,5004,0
565015363,0.0230833,-0.0216896,-0.0819855,5003,0,-0.993607,-1.87831,-10.701,5003,0
565020367,-0.114208,-0.00272868,-0.0858546,5004,0,-1.49301,-0.0535798,-9.2236,5004,0
565025370,-0.169927,-0.0647139,-0.0287431,5003,0,-1.18779,2.54608,-9.08318,5003,0
565030377,-0.0210013,0.0440744,0.0495819,5007,0,-0.716738,3.34182,-11.2389,5007,0
565035379,0.232395,0.0953128,0.100607,5002,0,-0.310708,2.49943,-10.5189,5002,0
565040391,0.230962,0.0276099,0.0754063,5012,0,0.295457,-1.3722,-10.0781,5012,0
565045392,0.0286867,-0.0820421,-0.0595563,5001,0,0.373353,-4.67693,-10.7271,5001,0
565050392,-0.00273632,-0.0810143,-0.106416,5000,0,-0.258117,-4.55441,-11.2323,5000,0
565055396,-0.155422,0.0390119,-0.118236,5004,0,-1.48254,-1.11531,-9.76183,5004,0
565060401,-0.360322,-0.0788452,-0.0472764,5005,0,-2.1553,3.7726,-8.63034,5005,0
565065405,-0.113607,0.0200778,0.0603147,5004,0,-1.82477,5.70425,-10.9387,5004,0
565070410,0.421943,0.163268,0.172176,5005,0,-0.471997,4.55999,-11.1835,5005,0
565075414,0.441855,0.118254,0.103239,5004,0,1.32753,-2.0743,-10.0226,5004,0
565080425,0.022121,-0.218601,-0.0986527,5011,0,1.94258,-7.02068,-9.55411,5011,0
565085423,-0.071665,-0.126493,-0.181325,4998,0,0.175022,-6.77782,-11.9097,4998,0
565090427,-0.285697,0.0654797,-0.143938,5004,0,-2.67487,0.0874392,-8.8372,5004,0
565095434,-0.57323,-0.0357851,-0.0152283,5007,0,-3.94239,5.51941,-8.81606,5007,0
565100436,0.0282828,0.061267,0.120773,5002,0,-2.53118,7.75766,-11.7707,5002,0
565105440,0.747516,0.247557,0.211015,5004,0,0.825757,2.9734,-12.464,5004,0
565110445,0.362954,0.0157405,-0.00195898,5005,0,3.46547,-5.29875,-9.57713,5005,0
565115451,-0.109327,-0.33071,-0.20303,5006,0,2.68124,-8.83124,-9.43868,5006,0
565120453,-0.161953,-0.0329341,-0.214515,5002,0,-1.49834,-4.00005,-9.80431,5002,0
565125458,-0.571641,0.0340575,-0.0534072,5005,0,-4.98452,3.46005,-8.13962,5005,0
565130462,-0.416858,0.0381192,0.0699596,5004,0,-4.67053,7.81134,-10.7826,5004,0
565135466,0.611636,0.214585,0.172053,5004,0,-0.713127,5.93303,-13.751,5004,0
565140471,0.62923,0.134532,0.126318,5005,0,3.77504,-2.16688,-11.6908,5005,0
565145475,0.0210888,-0.263068,-0.123513,5004,0,4.6389,-9.15129,-8.67728,5004,0
565150483,-0.172593,-0.161015,-0.272144,5008,0,0.227566,-6.59099,-8.7841,5008,0
565155484,-0.516054,-0.0132574,-0.0944959,5001,0,-4.95591,1.72225,-7.29155,5001,0
565160488,-0.586894,0.0163814,0.0749311,5004,0,-5.90832,7.6205,-9.41186,5004,0
565165493,0.362341,0.225471,0.164115,5005,0,-2.16288,7.39537,-14.548,5005,0
565170499,0.711521,0.167203,0.144215,5006,0,3.20244,0.410277,-12.7568,5006,0
565175502,0.215072,-0.234824,-0.0373814,5003,0,5.60149,-8.27251,-9.79371,5003,0
565180506,-0.111926,-0.196071,-0.272208,5004,0,1.52745,-8.68467,-8.95858,5004,0
565185511,-0.50944,-0.0311461,-0.163552,5005,0,-4.77686,-0.454419,-6.69392,5005,0
565190516,-0.722851,0.00573433,0.0388435,5005,0,-6.65145,6.85708,-8.08027,5005,0
565195523,0.211954,0.193334,0.171471,5007,0,-2.93305,8.41675,-14.3312,5007,0
565200523,0.700259,0.205661,0.147191,5000,0,3.00371,2.29646,-13.5744,5000,0
565205528,0.321796,-0.192988,0.0110006,5005,0,6.11803,-6.72087,-10.261,5005,0
565210533,-0.0194275,-0.241263,-0.248513,5005,0,1.94447,-9.40777,-8.78782,5005,0
565215543,-0.445812,-0.0189196,-0.197624,5010,0,-5.03645,-2.0418,-6.79023,5010,0
565220541,-0.808371,0.015716,0.0155667,4998,0,-7.48437,5.68805,-7.30906,4998,0
565225545,0.114861,0.216803,0.164931,5004,0,-3.42043,8.70219,-14.7139,5004,0
565230550,0.684696,0.276727,0.164088,5005,0,3.61289,3.17375,-14.3261,5005,0
565235554,0.31147,-0.141578,0.0350496,5004,0,7.24438,-5.69981,-10.7435,5004,0
565240559,0.0920901,-0.313286,-0.238266,5005,0,2.47658,-9.15185,-7.92009,5005,0
565245563,-0.375589,-0.0770157,-0.215813,5004,0,-5.59862,-2.68749,-6.53894,5004,0
565250569,-0.849776,0.0440353,-0.000739863,5006,0,-8.3997,4.84827,-6.80507,5006,0
565255572,0.080766,0.243093,0.150236,5003,0,-3.7548,8.50977,-14.3529,5003,0
565260576,0.622547,0.305376,0.179898,5004,0,3.66129,3.90162,-15.1458,5004,0
565265581,0.332587,-0.113016,0.0545294,5005,0,7.74106,-5.25077,-11.7925,5005,0
565270585,0.163144,-0.28493,-0.217798,5004,0,3.33862,-9.68114,-8.24511,5004,0
565275589,-0.358341,-0.0283958,-0.223533,5004,0,-6.09548,-2.50767,-6.7336,5004,0
565280594,-0.902478,0.0459355,0.0263205,5005,0,-9.63709,6.45947,-5.55877,5005,0
565285598,0.140765,0.258839,0.104362,5004,0,-4.16201,8.20755,-12.5959,5004,0
565290603,0.875842,0.304327,0.0829001,5005,0,5.03663,2.34579,-15.2134,5005,0
565295607,0.124328,-0.141372,-0.0304179,5004,0,9.83138,-6.6361,-12.797,5004,0
565300611,0.0204082,-0.272927,-0.148339,5004,0,2.93019,-6.61258,-9.19681,5004,0
565305616,-0.131195,0.00115033,0.00885241,5005,0,-8.60697,1.07559,-6.6796,5005,0
565310624,-0.661798,0.0376159,0.0325608,5008,0,-10.1253,3.90045,-5.42785,5008,0
565315624,0.361602,0.122736,-0.140313,5000,0,-0.912864,2.38815,-12.3064,5000,0
565320629,0.686854,0.280222,0.0118116,5005,0,7.37621,1.34909,-16.8665,5005,0
565325633,-0.313154,-0.141945,0.225686,5004,0,6.22345,-1.74096,-12.1201,5004,0
565330640,0.0312764,-0.1153,-0.0759861,5007,0,-2.00253,-2.82158,-9.48142,5007,0
565335642,0.289107,0.00622868,-0.222989,5002,0,-7.56075,-0.0644793,-4.6848,5002,0
565340646,0.0297235,-0.0327784,-0.0736786,5004,0,-3.56818,1.37618,-6.10522,5004,0
565345651,-0.00160774,0.116748,0.0976059,5005,0,3.51528,0.14252,-14.2314,5005,0
565350659,-0.160311,0.105713,0.0726675,5008,0,2.71343,-0.576765,-16.1745,5008,0
565355659,0.11464,0.0679018,-0.0989483,5000,0,-2.3561,1.54613,-11.1149,5000,0
565360664,0.433319,-0.155022,-0.0665758,5005,0,-3.11336,1.35703,-5.3424,5005,0
565365668,0.408426,-0.0932192,-0.0144154,5004,0,0.778026,-1.64788,-6.96298,5004,0
565370673,-0.111561,0.0858496,0.0727773,5005,0,2.84201,-2.04236,-10.9669,5005,0
565375677,-0.432808,0.0807641,0.0178283,5004,0,-1.0843,-1.16338,-13.7359,5004,0
565380685,0.136252,-0.0880823,-0.0947452,5008,0,-4.30651,2.39394,-8.34076,5008,0
565385686,0.513935,-0.20741,-0.0689463,5001,0,-1.5259,1.72461,-9.15296,5001,0
565390705,0.258395,0.158668,0.0666116,5019,0,2.40732,-0.143807,-14.3165,5019,0
565395695,-0.0744118,0.246979,0.10089,4990,0,1.02724,-1.81594,-11.8371,4990,0
565400699,-0.0439492,-0.0170062,-0.0641196,5004,0,-2.9291,-2.05937,-7.31857,5004,0
565405703,0.267527,-0.290755,-0.0865698,5004,0,-2.68745,0.12778,-5.02803,5004,0
565410708,0.0886588,-0.0757385,-0.0307189,5005,0,1.02,0.891051,-11.1262,5005,0
565415715,-0.13107,0.302199,0.0787025,5007,0,1.96339,1.16496,-17.3941,5007,0
565420717,0.0883785,0.110951,0.068576,5002,0,-1.3185,-0.566804,-11.7743,5002,0
565425721,0.479913,-0.210113,-0.0573099,5004,0,-2.99123,-0.662606,-4.79048,5004,0
565430726,0.154381,-0.113968,-0.124078,5005,0,-0.904404,-1.08382,-6.30681,5005,0
565435730,-0.273273,0.186044,0.0111128,5004,0,0.519527,0.146198,-14.4373,5004,0
565440734,-0.0182584,0.216883,0.116424,5004,0,-0.27063,0.094064,-13.5947,5004,0
565445741,0.453871,-0.114349,-0.0158849,5007,0,-0.622801,-0.553344,-7.55611,5007,0
565450743,0.112077,-0.107533,-0.148264,5002,0,-0.581122,-0.714224,-7.90165,5002,0
565455747,-0.253439,0.106009,-0.0507387,5004,0,-1.21147,0.999289,-13.2378,5004,0
565460765,0.165931,0.198666,0.142423,5018,0,-1.23899,0.792103,-13.315,5018,0
565465756,0.540242,-0.019127,0.0805496,4991,0,0.302786,-1.41135,-6.3593,4991,0
565470761,0.0666295,-0.0578897,-0.156642,5005,0,0.683742,-1.83129,-5.7919,5005,0
565475769,-0.477225,-0.0148009,-0.156356,5008,0,-1.23004,0.159558,-13.3675,5008,0
565480769,0.00285989,0.147062,0.13749,5000,0,-1.71904,2.39274,-17.964,5000,0
565485774,0.788501,0.00260996,0.16079,5005,0,0.4137,-0.198719,-8.317,5005,0
565490778,0.239387,-0.00172044,-0.140557,5004,0,0.575104,-2.55541,-3.74667,5004,0
565495782,-0.500591,-0.028238,-0.229847,5004,0,-1.86487,-0.740991,-7.42626,5004,0
565500787,-0.219994,0.0404835,0.0635387,5005,0,-2.12172,2.19938,-16.7382,5005,0
565505791,0.678052,-0.0966158,0.198948,5004,0,1.68864,-0.377033,-12.4009,5004,0
565510799,0.479958,-0.016462,-0.0633435,5008,0,2.00084,-3.42182,-8.63662,5008,0
565515800,-0.519697,0.166449,-0.217765,5001,0,-2.37866,0.29682,-6.59428,5001,0
565520804,-0.404939,-0.0892895,-0.0160511,5004,0,-3.65606,2.7852,-10.1702,5004,0
565525812,0.771377,-0.252033,0.159061,5008,0,0.276287,0.450166,-12.458,5008,0
565530813,0.526725,0.08648,0.0585869,5001,0,2.72499,-4.22017,-13.2539,5001,0
565535818,-0.567351,0.447041,-0.125265,5005,0,-0.791261,-0.59563,-8.26612,5005,0
565540822,-0.445576,-0.177931,-0.0907644,5004,0,-3.597,1.97807,-6.18825,5004,0
565545830,0.660986,-0.616757,0.0459916,5008,0,-0.584152,0.804044,-11.1635,5008,0
565550831,0.662895,0.071996,0.129139,5001,0,2.89345,-2.15809,-16.1879,5001,0
565555835,-0.650152,0.71983,-0.00820827,5004,0,-0.629846,-0.682431,-10.2801,5004,0
565560839,-0.471471,-0.0830042,-0.112957,5004,0,-4.5298,1.37734,-3.64797,5004,0
565565846,0.736246,-0.823838,-0.0468511,5007,0,-0.740514,0.102067,-8.37723,5007,0
565570848,0.665847,-0.0296412,0.135134,5002,0,3.71412,-1.70579,-19.3238,5002,0
565575853,-0.776624,0.838752,0.0655879,5005,0,-0.335525,-0.373016,-13.0249,5005,0
565580860,-0.454944,-0.0021988,-0.149083,5007,0,-5.18088,1.44187,-2.13746,5007,0
565585861,0.863424,-0.824507,-0.106951,5001,0,-1.41282,0.115369,-6.1712,5001,0
565590866,0.640601,-0.0780344,0.142356,5005,0,3.48867,-1.26935,-20.2206,5005,0
565595873,-0.786763,0.848349,0.16808,5007,0,0.344205,-0.477754,-14.6368,5007,0
565600875,-0.33371,0.0931569,-0.143873,5002,0,-4.14337,0.419377,-1.67661,5002,0
565605885,0.848453,-0.785696,-0.201934,5010,0,-1.27084,-1.02947,-4.90181,5010,0
565610883,0.463031,-0.16721,0.0724571,4998,0,2.49954,-0.676335,-19.9095,4998,0
565615896,-0.746775,0.746987,0.283522,5013,0,0.123297,0.759598,-15.3153,5013,0
565620894,-0.0980565,0.148156,-0.108222,4998,0,-3.78639,-0.152246,-1.90115,4998,0
565625897,0.805318,-0.668418,-0.30183,5003,0,-1.13419,-1.77838,-4.74693,5003,0
565630901,0.210661,-0.205069,0.0340146,5004,0,2.43112,-0.674507,-19.8459,5004,0
565635906,-0.612399,0.679593,0.352091,5005,0,0.290846,0.923723,-16.6191,5005,0
565640910,0.122493,0.169788,-0.0883622,5004,0,-3.54094,-0.244144,-1.26795,5004,0
565645914,0.702428,-0.589782,-0.383167,5004,0,-1.30965,-1.51932,-3.37891,5004,0
565650919,0.0497309,-0.233642,0.024179,5005,0,1.94935,0.144889,-18.656,5005,0
565655925,-0.569609,0.635429,0.409616,5006,0,0.0870305,0.381584,-18.0205,5006,0
565660927,0.365937,0.151732,-0.0607352,5002,0,-2.81314,-1.14145,-1.95715,5002,0
565665939,0.578951,-0.567497,-0.42082,5012,0,-1.17404,-1.78742,-3.60804,5012,0
565670936,-0.139888,-0.241269,0.0265535,4997,0,1.57211,0.828366,-17.5341,4997,0
565675947,-0.390035,0.567561,0.404116,5011,0,-0.141535,0.52402,-16.7051,5011,0
565680945,0.423942,0.140307,-0.103757,4998,0,-2.02723,-1.2716,-2.45891,4998,0
565685949,0.445893,-0.530113,-0.401715,5004,0,-1.29888,-1.38928,-5.16773,5004,0
565690954,-0.183581,-0.2064,0.0940374,5005,0,0.507083,1.00835,-18.5954,5005,0
565695958,-0.171828,0.509464,0.375125,5004,0,-0.0710994,-0.281787,-14.6584,5004,0
565700966,0.406888,0.156445,-0.186835,5008,0,-1.25976,-2.2326,-2.05983,5008,0
565705967,0.243931,-0.463626,-0.377102,5001,0,-0.922084,-0.537817,-5.80144,5001,0
565710971,-0.190289,-0.244187,0.20012,5004,0,0.18224,2.17245,-17.983,5004,0
565715979,0.0343065,0.367,0.336491,5008,0,-0.0448646,-0.755427,-13.2109,5008,0
565720980,0.382551,0.155692,-0.268572,5001,0,-1.26446,-3.04069,-3.19548,5001,0
565725984,0.157632,-0.3067,-0.376977,5004,0,-1.37665,-0.308609,-7.83619,5004,0
565730989,-0.221753,-0.207287,0.279936,5005,0,-0.182508,2.98898,-16.6676,5005,0
565735993,0.142843,0.180187,0.312016,5004,0,0.362125,-1.14694,-10.6036,5004,0
565740999,0.319194,0.188861,-0.325685,5006,0,-0.742836,-4.07112,-4.55301,5006,0
565746002,0.0314592,-0.146318,-0.351256,5003,0,-1.42735,0.196616,-10.1703,5003,0
565751007,-0.252266,-0.240058,0.333047,5005,0,-0.514515,3.56887,-15.7633,5005,0
565756011,0.314079,0.0154271,0.26592,5004,0,0.384317,-2.07695,-9.36863,5004,0
565761015,0.307934,0.249028,-0.365299,5004,0,-0.896725,-4.83696,-5.80442,5004,0
565766019,-0.261236,0.033746,-0.304727,5004,0,-1.88047,0.897761,-10.7724,5004,0
565771024,-0.295442,-0.356434,0.355381,5005,0,-0.0739738,3.59964,-13.7335,5005,0
565776028,0.561326,-0.112192,0.256705,5004,0,1.38242,-2.5026,-10.0771,5004,0
565781033,0.271577,0.35899,-0.397189,5005,0,-1.07889,-4.64181,-7.77106,5005,0
565786037,-0.615171,0.139567,-0.270218,5004,0,-2.9264,1.97788,-9.67544,5004,0
565791042,-0.169981,-0.508658,0.352343,5005,0,0.174992,2.757,-10.7717,5005,0
565796046,0.867916,-0.218471,0.211304,5004,0,2.2192,-3.73326,-11.3157,5004,0
565801050,-0.0459847,0.55376,-0.374195,5004,0,-1.69993,-3.9997,-11.2937,5004,0
565806055,-0.816946,0.221143,-0.180099,5005,0,-3.91918,3.85477,-6.71126,5005,0
565811059,0.0682438,-0.654073,0.295251,5004,0,0.488157,2.13301,-8.0016,5004,0
565816063,1.06079,-0.264557,0.158068,5004,0,2.83673,-4.57825,-14.8295,5004,0
565821068,-0.499887,0.818771,-0.283197,5005,0,-2.20531,-3.42883,-15.3071,5005,0
565826072,-0.810956,0.249947,-0.111739,5004,0,-4.03297,4.14438,-4.29726,5004,0
565831077,0.505753,-0.801483,0.171553,5005,0,0.202995,1.80716,-4.5749,5005,0
565836081,0.865398,-0.319435,0.0900193,5004,0,3.08115,-4.55432,-15.8037,5004,0
565841085,-0.823632,1.01136,-0.131606,5004,0,-1.66672,-2.98123,-17.8147,5004,0
565846090,-0.5876,0.27203,-0.0614283,5005,0,-4.1419,2.90847,-3.61902,5005,0
565851094,0.504713,-0.937482,0.0504877,5004,0,0.491202,0.954802,-3.14192,5004,0
565856098,0.684399,-0.275955,0.0487791,5004,0,2.84566,-3.82718,-17.6186,5004,0
565861103,-0.769451,1.12314,-0.0258541,5005,0,-2.06613,-1.80606,-17.9714,5005,0
565866107,-0.602975,0.167303,-0.0377543,5004,0,-4.23257,2.24189,-0.575154,5004,0
565871112,0.481808,-0.919682,-0.0421665,5005,0,0.545285,-0.171096,-3.09974,5005,0
565876119,0.614062,-0.140465,0.0104799,5007,0,3.00988,-2.99453,-20.9372,5007,0
565881120,-0.7899,1.06394,0.0808911,5001,0,-1.94459,-0.411289,-18.2626,5001,0
565886125,-0.632528,0.050754,-0.0317002,5005,0,-3.52495,1.43729,1.79565,5005,0
565891129,0.6091,-0.911399,-0.15723,5004,0,0.747581,-1.54942,-2.89823,5004,0
565896134,0.455297,-0.0511618,-0.00565862,5005,0,2.30761,-1.3913,-24.1511,5005,0
565901141,-0.954155,0.969169,0.220959,5007,0,-2.00044,0.909204,-19.025,5007,0
565906142,-0.310641,-0.0276604,-0.0596128,5001,0,-3.1215,0.136067,3.24067,5001,0
565911147,0.820673,-0.809746,-0.287773,5005,0,-0.041783,-2.14252,-2.06343,5005,0
565916153,0.0446593,0.0704593,0.0376151,5006,0,1.86383,0.275172,-24.6209,5006,0
565921155,-1.08876,0.803785,0.346106,5002,0,-0.443409,-0.160199,-18.2573,5002,0
565926160,0.135218,-0.0964877,-0.152936,5005,0,-2.50288,-2.05398,1.84728,5005,0
565931164,0.778582,-0.639933,-0.354738,5004,0,-1.54436,-0.664126,-2.37826,5004,0
565936169,-0.497902,0.1039,0.145504,5005,0,0.748575,1.78169,-23.0867,5005,0
565941173,-0.778115,0.568479,0.321952,5004,0,0.437925,-1.88748,-15.3631,5004,0
565946177,0.494868,-0.0791889,-0.189616,5004,0,-1.60835,-2.14826,-0.879427,5004,0
565951182,0.259457,-0.369703,-0.293467,5005,0,-1.33282,-0.0351925,-5.16015,5005,0
565956186,-0.735197,0.0531816,0.150804,5004,0,-0.0979311,1.31766,-21.0043,5004,0
565961191,-0.174272,0.280586,0.238997,5005,0,0.250198,-1.66751,-12.2109,5005,0
565966195,0.40529,0.0373066,-0.154349,5004,0,-0.948429,-0.774482,-0.966793,5004,0
565971199,-0.303014,-0.0938714,-0.247385,5004,0,-1.55997,-0.439295,-6.87507,5004,0
565976204,-0.611507,0.0133087,0.107996,5005,0,-1.47784,0.972456,-21.9079,5005,0
565981210,0.282642,-0.0259906,0.222321,5006,0,1.28179,-1.34277,-11.3499,5006,0
565986215,0.22865,0.22662,-0.0723799,5005,0,0.164428,-0.729799,-2.0176,5005,0
565991219,-0.512112,0.177748,-0.243228,5004,0,-2.75437,-0.0712631,-6.34526,5004,0
565996226,-0.553484,-0.229085,0.0345801,5007,0,-2.01084,1.38448,-19.1054,5007,0
566006249,0.320773,0.459513,-0.0364917,5023,0,0.605136,-1.13013,-6.16064,5023,0
566011249,-0.766637,0.414004,-0.232209,5000,0,-3.8613,-0.114583,-6.6034,5000,0
566016239,-0.573153,-0.566106,0.0328963,4990,0,-1.34502,1.27344,-12.2697,4990,0
566021244,0.632179,-0.444668,0.161688,5005,0,3.53046,-1.93992,-14.846,5005,0
566026248,0.191035,0.750531,-0.0598174,5004,0,0.0824154,-1.1929,-11.5819,5004,0
566031252,-0.97336,0.48443,-0.196816,5004,0,-4.59359,0.881564,-5.31003,5004,0
566036256,-0.256723,-0.819564,0.0414506,5004,0,-0.807,1.79664,-7.20605,5004,0
566041280,0.783932,-0.406167,0.181818,5024,0,3.85335,-1.93952,-14.1683,5024,0
566046270,-0.30569,0.946302,-0.0906757,4990,0,-0.50787,-2.4014,-14.4546,4990,0
566051276,-0.976897,0.36844,-0.186876,5006,0,-4.67402,0.891076,-5.44932,5006,0
566056282,0.200344,-1.06328,0.0967211,5006,0,0.441001,2.64085,-5.88409,5006,0
566061292,0.729675,-0.36721,0.164343,5010,0,4.33205,-1.8251,-14.4291,5010,0
566066286,-0.731491,1.04763,-0.160706,4994,0,-1.45986,-2.23532,-13.8602,4994,0
566071288,-0.7471,0.127775,-0.155568,5002,0,-4.82606,1.76574,-3.68749,5002,0
566076292,0.643141,-1.21151,0.160665,5004,0,0.793052,2.38953,-7.08145,5004,0
566081299,0.45728,-0.175433,0.133828,5007,0,4.49553,-2.96617,-17.1449,5007,0
566086301,-1.0132,1.13805,-0.200891,5002,0,-2.52063,-2.13791,-13.5226,5002,0
566091318,-0.478366,-0.0748767,-0.116725,5017,0,-5.03876,2.0808,-2.19052,5017,0
566096309,0.855942,-1.31795,0.196442,4991,0,1.40864,1.95884,-7.39167,4991,0
566101314,0.0902575,0.15031,0.0737244,5005,0,3.49958,-3.07721,-20.7976,5005,0
566106318,-0.980692,1.14849,-0.198127,5004,0,-3.52924,-0.0523383,-11.3039,5004,0
566111324,-0.199743,-0.350462,-0.0803541,5006,0,-4.43514,1.77197,-0.98597,5006,0
566116330,0.911598,-1.23915,0.205934,5006,0,2.77371,0.124568,-9.1855,5006,0
566121335,-0.158051,0.387781,0.0651392,5005,0,2.80943,-3.38284,-22.8804,5005,0
566126336,-1.02209,1.09647,-0.183983,5001,0,-5.26482,0.992297,-9.95268,5001,0
566131340,0.0666318,-0.532009,-0.0769674,5004,0,-3.86056,2.07087,0.735056,5004,0
566136345,0.933922,-1.07444,0.176888,5005,0,3.8387,-0.603449,-10.6251,5005,0
566141349,-0.377357,0.634645,0.0705512,5004,0,1.86085,-2.95952,-24.2248,5004,0
566146353,-0.880967,0.897876,-0.116793,5004,0,-5.54929,2.11744,-7.38043,5004,0
566151366,0.342749,-0.657471,-0.064231,5013,0,-2.67422,1.31441,0.95026,5013,0
566156362,0.930442,-0.828703,0.120247,4996,0,3.98131,-1.25776,-12.2376,4996,0
566161366,-0.618625,0.745512,0.0704016,5004,0,0.897261,-2.0038,-22.8708,5004,0
566166371,-0.73308,0.66361,-0.101442,5005,0,-5.13313,2.14048,-5.50664,5005,0
566171377,0.624198,-0.70157,-0.102069,5006,0,-1.42697,0.859226,0.00270843,5006,0
566176380,0.832689,-0.607922,0.0939629,5003,0,3.8436,-0.94643,-14.4681,5003,0
566181384,-0.813548,0.848349,0.116284,5004,0,-0.371938,-0.720364,-21.2508,5004,0
566186401,-0.493407,0.437343,-0.0834055,5017,0,-4.90788,0.959958,-2.49825,5017,0
566191393,0.860042,-0.749423,-0.133328,4992,0,-0.730336,-0.610575,-1.03677,4992,0
566196397,0.564123,-0.368257,0.0797983,5004,0,3.51432,-0.323843,-17.6896,5004,0
566201401,-0.907844,0.926834,0.150695,5004,0,-1.01672,0.770871,-19.888,5004,0
566206406,-0.155172,0.258241,-0.0931468,5005,0,-4.52258,0.44178,-1.25423,5005,0
566211410,1.01341,-0.819566,-0.150881,5004,0,-0.0726711,-1.51098,-2.00295,5004,0
566216414,0.328827,-0.169916,0.0930727,5004,0,3.42942,-0.0166195,-20.0843,5004,0
566221419,-0.899347,0.924178,0.16996,5005,0,-1.2646,1.29098,-17.6385,5005,0
566226423,0.0483549,0.0926102,-0.143284,5004,0,-4.34885,-0.378897,-0.109177,5004,0
566231428,1.0779,-0.840738,-0.171034,5005,0,0.325355,-1.72748,-3.60712,5005,0
566236432,-0.00828665,-0.000150004,0.13518,5004,0,2.99587,0.662418,-22.9216,5004,0
566241437,-0.840169,0.932391,0.183847,5005,0,-1.78069,0.926078,-15.7543,5005,0
566246441,0.36616,-0.0328852,-0.178666,5004,0,-4.41608,-0.978016,1.37726,5004,0
566251445,1.02373,-0.827794,-0.189286,5004,0,0.745724,-1.48563,-4.57867,5004,0
566256450,-0.364392,0.147843,0.190573,5005,0,2.98644,1.1502,-23.6562,5005,0
566261454,-0.63471,0.866429,0.165675,5004,0,-1.75072,-0.189576,-12.6696,5004,0
566266472,0.661945,-0.185884,-0.211159,5018,0,-3.81936,-1.52852,1.72354,5018,0
566271463,0.767116,-0.753817,-0.176396,4991,0,0.890129,-0.778115,-7.58068,4991,0
566276467,-0.637661,0.31475,0.242934,5004,0,2.41918,1.73476,-23.634,5004,0
566281472,-0.294926,0.716037,0.135764,5005,0,-1.84873,-1.01439,-8.95837,5005,0
566286476,0.840637,-0.25778,-0.253804,5004,0,-3.48675,-1.67623,1.91434,5004,0
566291481,0.359186,-0.633498,-0.123593,5005,0,1.37012,0.272331,-9.31925,5005,0
566296485,-0.691612,0.348107,0.279332,5004,0,1.88753,1.38715,-23.7266,5004,0
566301490,0.101851,0.587251,0.0495142,5005,0,-2.30901,-1.6,-7.99675,5005,0
566306493,0.800392,-0.297225,-0.277906,5003,0,-2.5324,-1.30188,0.992195,5003,0
566311498,-0.0265988,-0.489443,-0.0618913,5005,0,1.49892,0.570782,-11.9279,5005,0
566316502,-0.513352,0.361863,0.285785,5004,0,1.11898,0.972357,-21.499,5004,0
566321507,0.432166,0.3669,-0.0358077,5005,0,-2.46388,-1.80103,-6.26553,5005,0
566326511,0.549224,-0.244074,-0.31441,5004,0,-2.00129,-0.880519,-1.41213,5004,0
566331516,-0.295177,-0.323004,0.0191302,5005,0,0.979021,1.23466,-13.8725,5005,0
566336520,-0.213555,0.303294,0.274103,5004,0,0.667063,0.141364,-18.7663,5004,0
566341524,0.583989,0.230503,-0.0583123,5004,0,-1.35878,-1.89195,-5.3073,5004,0
566346534,0.302422,-0.163649,-0.332431,5010,0,-1.19534,-0.672403,-3.57566,5010,0
566351533,-0.360946,-0.2877,0.0430099,4999,0,0.597698,2.14231,-13.9457,4999,0
566356537,0.0880262,0.0880888,0.252052,5004,0,0.598996,-0.391445,-15.5188,5004,0
566361542,0.593362,0.14863,-0.0960192,5005,0,-1.02491,-3.08029,-5.71209,5005,0
566366546,0.0403986,-0.0247817,-0.317931,5004,0,-1.34377,-0.560346,-5.91068,5004,0
566371551,-0.423159,-0.278661,0.075688,5005,0,-0.245216,2.88547,-13.364,5005,0
566376557,0.260974,-0.0490412,0.228149,5006,0,0.469835,-0.948467,-13.9612,5006,0
566381559,0.603888,0.137817,-0.139938,5002,0,-0.627225,-3.40183,-6.37998,5002,0
566386564,-0.194268,0.0907839,-0.296583,5005,0,-1.53273,0.054896,-7.75907,5005,0
566391568,-0.452728,-0.345492,0.118166,5004,0,-0.178208,3.03912,-12.4653,5004,0
566396573,0.518284,-0.220181,0.206614,5005,0,0.976057,-2.21852,-13.8034,5005,0
566401577,0.536343,0.215427,-0.157299,5004,0,-0.411059,-3.69169,-7.98848,5004,0
566406581,-0.586404,0.241482,-0.249074,5004,0,-2.71328,0.77543,-7.78398,5004,0
566411586,-0.436587,-0.386295,0.109456,5005,0,-0.727818,2.85191,-9.59318,5005,0
566416590,0.84835,-0.380616,0.167587,5004,0,1.52838,-2.62902,-13.7353,5004,0
566421594,0.177887,0.462334,-0.153418,5004,0,-0.806632,-4.17991,-13.4114,5004,0
566426599,-0.904785,0.382178,-0.169421,5005,0,-3.44372,1.49608,-6.03923,5005,0
566431603,-0.156071,-0.576518,0.0930343,5004,0,-0.665466,2.12463,-6.88147,5004,0
566436608,1.06833,-0.511414,0.120742,5005,0,2.30173,-3.55242,-14.2363,5005,0
566441620,-0.456954,0.828739,-0.132434,5012,0,-1.03965,-3.98284,-17.3617,5012,0
566446616,-1.04924,0.436892,-0.095092,4996,0,-3.60535,2.48564,-4.17197,4996,0
566451621,0.255335,-0.905172,0.054931,5005,0,-0.356762,1.82185,-5.04941,5005,0
566456632,0.980529,-0.481677,0.0883128,5011,0,2.59377,-3.41345,-16.8022,5011,0
566461630,-0.924153,1.17673,-0.0568755,4998,0,-1.75741,-2.60262,-17.0083,4998,0
566466634,-0.934753,0.367296,-0.0652237,5004,0,-3.98821,2.12056,-0.244985,5004,0
566471640,0.530612,-1.11263,0.00202519,5006,0,0.470458,0.325816,-4.23779,5006,0
566476643,0.631379,-0.254019,0.0709738,5003,0,2.77352,-2.28385,-22.9845,5003,0
566481657,-1.0855,1.27772,0.0377389,5014,0,-2.28649,0.302663,-16.6942,5014,0
566486652,-0.638414,0.167229,-0.0791216,4995,0,-3.498,0.99158,4.24803,4995,0
566491674,0.754187,-1.08275,-0.116077,5022,0,1.25562,-1.88519,-2.49568,5022,0
566496660,0.0600041,-0.0271105,0.0982371,4986,0,1.69379,-1.52614,-28.402,4986,0
566501665,-1.2076,1.16542,0.193971,5005,0,-2.29325,1.21669,-16.5268,5005,0
566506669,-0.0713232,-0.0374392,-0.136434,5004,0,-2.26703,-0.171045,5.70129,5004,0
566511673,0.812354,-0.876617,-0.289196,5004,0,0.103988,-1.97232,-3.10984,5004,0
566516678,-0.618112,0.0946813,0.157774,5005,0,0.210171,1.15787,-26.6162,5005,0
566521684,-0.959564,0.817934,0.332556,5006,0,-0.017961,0.297891,-13.0095,5006,0
566526687,0.547418,-0.0269973,-0.187773,5003,0,-0.910367,-2.81479,2.29268,5003,0
566531691,0.256915,-0.53719,-0.307303,5004,0,-1.83881,-0.39169,-6.69569,5004,0
566536695,-1.07075,0.0429916,0.257057,5004,0,-0.55813,2.942,-21.2476,5004,0
566541710,-0.183958,0.432461,0.279406,5015,0,0.950763,-0.396288,-9.09818,5015,0
566546704,0.546688,0.173918,-0.214817,4994,0,-0.989839,-2.76032,-2.89671,4994,0
566551709,-0.695055,-0.195305,-0.172399,5005,0,-2.3639,0.074173,-14.1533,5005,0
566556713,-0.636872,-0.145666,0.194443,5004,0,0.242193,0.946238,-15.3679,5004,0
566561718,0.564098,0.231207,0.133281,5005,0,0.750803,-1.10089,-5.96792,5005,0
566566722,-0.080075,0.489215,-0.199562,5004,0,-1.36859,-0.678867,-5.89861,5004,0
566571726,-1.2245,-0.107239,-0.0916693,5004,0,-1.04434,1.67942,-15.2319,5004,0
566576731,0.04836,-0.596213,0.183895,5005,0,1.1128,0.340078,-12.941,5005,0
566581735,0.902944,0.41498,0.0393956,5004,0,-1.09833,-1.24319,-9.98843,5004,0
566586739,-0.742261,0.902423,-0.153716,5004,0,-3.00343,0.763793,-7.233,5004,0
566591744,-1.20056,-0.547814,-0.0587898,5005,0,0.810202,-1.11197,-5.99549,5005,0
566596748,0.713301,-0.636054,0.0851779,5004,0,2.0424,-2.26385,-14.3241,5004,0
566601753,0.345023,1.04516,0.0162458,5005,0,-3.00291,1.3762,-17.0835,5005,0
566606758,-1.25499,0.574478,-0.0102228,5005,0,-2.09232,2.87323,-3.62096,5005,0
566611761,-0.204973,-1.0049,-0.0791127,5003,0,2.40711,-2.48603,-5.18199,5003,0
566616772,1.00258,0.0599798,-0.0464257,5011,0,0.0785666,-0.980961,-18.6936,5011,0
566621770,-0.867489,1.15857,0.122548,4998,0,-3.67079,3.47079,-13.9987,4998,0
566626774,-0.708121,-0.441261,-0.00890938,5004,0,0.894065,-0.642543,-1.2816,5004,0
566631779,1.02023,-0.745422,-0.15543,5005,0,2.45118,-2.65467,-10.7927,5005,0
566636783,-0.310198,0.944071,-0.0233723,5004,0,-2.96576,1.6885,-19.4509,5004,0
566641788,-1.09574,0.554291,0.070673,5005,0,-2.2667,2.12783,-3.57759,5005,0
566646792,0.693385,-0.999356,-0.0798496,5004,0,2.99923,-1.81226,-3.75399,5004,0
566651800,0.591708,0.0800434,-0.0776962,5008,0,0.197569,0.1755,-18.7237,5008,0
566656801,-1.26711,1.10999,0.067064,5001,0,-4.15995,3.04138,-12.9273,5001,0
566661805,0.0185587,-0.456395,-0.0314976,5004,0,1.01885,-1.00269,-1.04173,5004,0
566666810,1.16325,-0.730603,-0.0993611,5005,0,2.69872,-1.86159,-13.9123,5005,0
566671814,-0.706322,0.993349,0.0161105,5004,0,-3.50591,2.25205,-20.8269,5004,0
566676818,-0.733987,0.380537,0.0512099,5004,0,-2.2504,1.82146,0.484072,5004,0
566681823,1.10917,-1.11583,-0.063533,5005,0,3.9794,-2.17601,-2.3001,5005,0
566686831,0.276406,0.2895,-0.112248,5008,0,-0.40443,-1.23132,-24.054,5008,0
566691832,-1.07118,1.09597,0.0888872,5001,0,-4.21686,3.97862,-10.1428,5001,0
566696841,0.424513,-0.723173,0.0400015,5009,0,1.74874,0.0539634,2.5546,5009,0
566701840,1.09877,-0.626598,-0.176023,4999,0,1.91848,-3.15815,-16.1838,4999,0
566706845,-0.845666,1.07924,-0.0233588,5005,0,-4.01307,3.28313,-21.5657,5005,0
566711849,-0.238124,0.0381571,0.179518,5004,0,-0.897151,2.83815,1.11568,5004,0
566716856,1.34394,-1.03456,-0.0371744,5007,0,4.00418,-3.02767,-4.84442,5007,0
566721868,-0.132569,0.568212,-0.215175,5012,0,-2.40827,-1.14324,-25.7738,5012,0
566726862,-0.872176,0.75475,0.0403092,4994,0,-3.6412,3.24898,-5.41867,4994,0
566731867,1.13599,-0.952564,0.14783,5005,0,3.46048,-0.101751,1.45332,5005,0
566736871,0.814595,-0.176935,-0.0801941,5004,0,0.990085,-2.63495,-20.0653,5004,0
566741875,-1.18633,1.03636,-0.0408284,5004,0,-4.14091,2.70947,-14.8995,5004,0
566746880,0.421001,-0.489725,0.0713051,5005,0,1.06925,0.975753,2.35875,5005,0
566751884,1.59911,-0.786515,0.0139798,5004,0,2.17675,-2.45123,-13.3159,5004,0
566756896,-0.794578,0.943842,-0.0273036,5012,0,-4.15707,1.20236,-24.0458,5012,0
566761893,-0.405048,0.0757561,0.027719,4997,0,-0.21953,0.966309,1.47746,4997,0
566766897,1.71997,-0.856314,-0.0351889,5004,0,3.92351,-2.19687,-4.12091,5004,0
566771902,0.0283323,0.319529,-0.053362,5005,0,-2.54682,1.37998,-22.7539,5005,0
566776906,-1.10234,0.16131,0.122812,5004,0,-2.593,1.87817,-4.81944,5004,0
566781911,1.50257,-0.785884,0.0377188,5005,0,3.83512,-3.30497,-4.31735,5005,0
566786915,0.860306,0.336726,-0.11519,5004,0,-1.28907,-1.31213,-24.962,5004,0
566791920,-1.35796,0.457699,0.0718986,5005,0,-4.44872,3.56097,-5.85979,5005,0
566796924,0.88261,-0.922606,0.0445958,5004,0,2.40736,-1.78934,2.28694,5004,0
566801928,1.62722,-0.0560642,-0.0352088,5004,0,1.93777,-1.48631,-17.5536,5004,0
566806933,-0.968331,0.643438,0.147375,5005,0,-3.0098,3.93284,-12.1497,5005,0
566811937,0.030464,-0.872193,0.0812026,5004,0,1.71136,-2.435,0.468243,5004,0
566816941,1.88644,-0.245813,-0.13308,5004,0,1.03088,-2.88027,-18.8684,5004,0
566821946,-0.49409,0.890247,0.0726491,5005,0,-5.4356,4.48262,-15.2059,5005,0
566826950,-0.406938,-0.804929,0.247159,5004,0,0.022806,-0.729795,3.33159,5004,0
566831954,1.8611,-0.382354,-0.0829483,5004,0,2.24347,-3.52978,-18.7873,5004,0
566836959,-0.0330591,1.09569,-0.0597503,5005,0,-4.00346,3.32322,-18.6752,5005,0
566841964,-0.694312,-0.62258,0.192353,5005,0,0.822291,-0.694842,3.16634,5005,0
566846968,1.71275,-0.482324,-0.0650397,5004,0,1.4182,-3.34143,-16.9745,5004,0
566851972,0.476323,0.948176,-0.00889312,5004,0,-5.6163,3.42543,-16.1835,5004,0
566856976,-0.801714,-0.415235,0.231387,5004,0,-0.535456,-0.29098,2.17677,5004,0
566861981,1.29484,-0.0962125,-0.0317764,5005,0,2.04764,-3.63492,-18.6938,5005,0
566866985,0.906518,0.998012,-0.0852878,5004,0,-4.54411,0.909202,-13.8192,5004,0
566871998,-0.519028,-0.426201,0.16195,5013,0,-0.322318,1.70408,1.7367,5013,0
566876994,0.841902,-0.0768269,0.00841889,4996,0,2.3462,-2.55801,-16.8294,4996,0
566881998,1.10743,0.734631,-0.129661,5004,0,-3.07529,-0.721575,-10.2886,5004,0
566887003,-0.257281,-0.257876,0.161717,5005,0,-0.502467,3.07424,-1.52733,5005,0
566892007,0.416019,0.199595,0.0756407,5004,0,0.26274,-2.98719,-16.9492,5004,0
566897015,1.08929,0.496726,-0.215704,5008,0,-3.0041,-2.56271,-7.99816,5008,0
566902016,-0.114079,-0.0851663,0.0451346,5001,0,-0.583578,4.81045,-5.61307,5001,0
566907020,0.254596,0.22329,0.133698,5004,0,1.41886,-2.71037,-12.8483,5004,0
566912025,1.02299,0.209087,-0.141551,5005,0,-0.0378894,-5.57287,-8.41683,5005,0
566917029,-0.307334,0.343523,0.00794362,5004,0,-2.38522,4.0986,-11.7169,5004,0
566922034,0.222152,0.18454,0.126052,5005,0,-0.545801,-1.18311,-8.46788,5005,0
566927038,0.991107,0.0313063,-0.0703081,5004,0,0.878875,-5.42643,-12.3867,5004,0
566932043,-0.281977,0.826311,0.0316123,5005,0,-3.29548,3.81453,-15.6209,5005,0
566937047,0.157898,0.0635104,0.0775551,5004,0,-0.0611061,-2.94153,-2.29407,5004,0
566942051,0.944331,-0.306125,-0.0786152,5004,0,3.36578,-6.15758,-15.3515,5004,0
566947055,-0.411305,1.12055,0.0391179,5004,0,-3.19064,2.92636,-20.5188,5004,0
566952060,-0.0910356,0.0484736,0.088054,5005,0,-1.88965,-2.35898,1.7307,5005,0
566957064,0.908802,-0.453492,-0.0196105,5004,0,1.60176,-3.96345,-14.8842,5004,0
566962069,-0.246919,0.893304,0.0742946,5005,0,-2.88472,2.86065,-18.921,5005,0
566967081,-0.326331,0.229074,0.13723,5012,0,-0.023566,-2.2696,-3.11531,5012,0
566972078,0.599211,-0.105083,0.0651,4997,0,1.97094,-4.54494,-15.7161,4997,0
566977082,0.0797653,0.506953,0.047991,5004,0,-2.23142,-0.686867,-14.9816,5004,0
566982086,-0.387304,0.308956,0.158685,5004,0,-0.678539,-1.36006,-7.29288,5004,0
566987091,0.276892,0.165621,0.155168,5005,0,1.26424,-2.22411,-10.1316,5005,0
566992095,0.0603657,0.184192,0.0210873,5004,0,-0.0739184,-2.67577,-9.11165,5004,0
566997099,-0.512713,0.513096,0.0892364,5004,0,-1.12181,0.0295477,-12.4018,5004,0
567002104,0.0684264,0.0784903,0.256336,5005,0,1.21812,-2.23571,-6.42749,5005,0
567007115,0.182819,-0.0931934,0.0500104,5011,0,1.49503,-3.92682,-9.31032,5011,0
567012113,-0.659979,0.944574,0.0188356,4998,0,-3.42852,1.55273,-15.0148,4998,0
567017117,-0.188392,0.0408789,0.210766,5004,0,0.138621,-1.47873,0.416722,5004,0
567022131,0.228519,-0.397577,0.117756,5014,0,3.00535,-3.80308,-11.3437,5014,0
567027126,-0.501852,1.14652,0.117621,4995,0,-3.63384,2.35603,-21.063,4995,0
567032130,-0.473647,-0.0820199,0.237556,5004,0,0.674477,-2.28948,2.18625,5004,0
567037135,0.151469,-0.423563,0.0961621,5005,0,3.74847,-4.95459,-13.7207,5005,0
567042139,-0.426026,1.18524,0.106066,5004,0,-3.67106,2.64069,-18.7574,5004,0
567047143,-0.693899,-0.222704,0.253322,5004,0,0.280571,-1.22564,3.88556,5004,0
567052148,-0.00766671,-0.397806,0.170211,5005,0,2.78395,-2.91519,-15.9957,5005,0
567057152,-0.364369,0.992035,0.145254,5004,0,-3.04901,1.02979,-15.1412,5004,0
567062156,-0.70385,-0.209246,0.251144,5004,0,1.08381,-2.57575,0.677334,5004,0
567067161,-0.188412,-0.137232,0.118052,5005,0,2.46604,-2.06055,-16.4612,5005,0
567072165,-0.515216,0.695487,0.0584028,5004,0,-2.7838,0.629341,-10.0937,5004,0
567077170,-0.643936,-0.0247081,0.222156,5005,0,0.186276,-1.69645,-2.90158,5005,0
567082174,-0.32166,0.0358206,0.254431,5004,0,1.97986,-0.705027,-14.7356,5004,0
567087178,-0.585017,0.520835,0.0963948,5004,0,-1.43406,-2.68154,-10.6111,5004,0
567092183,-0.620465,0.28762,0.0852866,5005,0,-0.251057,-0.683332,-5.92673,5005,0
567097187,-0.50511,-0.0156611,0.244281,5004,0,1.98033,0.378089,-8.29959,5004,0
567102192,-0.568132,0.0651204,0.0519339,5005,0,0.297144,-4.48427,-10.5266,5005,0
567107196,-0.742488,0.59895,0.0869924,5004,0,-2.5758,0.889858,-15.2495,5004,0
567112203,-0.630269,-0.0967353,0.319348,5007,0,1.62229,0.417192,-6.8379,5007,0
567117205,-0.413619,-0.0718043,-0.00262254,5002,0,1.05309,-5.49163,-13.1705,5002,0
567122209,-0.83878,0.967352,0.0237822,5004,0,-4.17893,3.25749,-14.6268,5004,0
567127216,-0.948899,-0.227708,0.358504,5007,0,1.69599,0.694992,-0.614496,5007,0
567132220,-0.125651,-0.227431,-0.00198588,5004,0,2.63321,-6.15159,-15.4115,5004,0
567137234,-0.893899,1.17683,0.0275491,5014,0,-4.24418,4.54058,-16.9976,5014,0
567142227,-1.298,-0.374058,0.342343,4993,0,1.71721,0.86618,2.94529,4993,0
567147242,0.195556,-0.334984,-0.0484415,5015,0,3.17632,-7.07453,-16.5194,5015,0
567152249,-1.08388,1.26027,0.012142,5007,0,-4.37222,4.86011,-19.8843,5007,0
567157252,-1.49136,-0.610674,0.331116,5003,0,2.0195,1.74484,3.47212,5003,0
567162246,0.678455,-0.419376,-0.0306644,4994,0,4.0844,-5.52715,-17.3665,4994,0
567167252,-1.08937,1.43806,-0.0189136,5006,0,-3.98849,5.7005,-18.8751,5006,0
567172253,-1.79663,-0.584299,0.26855,5001,0,0.862084,0.88283,4.91469,5001,0
567177259,1.01032,-0.524283,-0.0925362,5006,0,2.71129,-5.5931,-18.7611,5006,0
567182262,-0.884146,1.30539,0.0714789,5003,0,-4.05143,6.42938,-19.4033,5003,0
567187270,-1.91968,-0.428109,0.301091,5008,0,0.646282,0.0624814,2.69954,5008,0
567192277,0.778786,-0.246892,-0.119874,5007,0,3.56522,-5.54641,-18.0747,5007,0
567197276,-0.735173,1.00976,0.0503696,4999,0,-3.04729,6.19676,-15.6404,4999,0
567202282,-1.56007,-0.505128,0.261081,5006,0,1.0876,0.435575,0.79972,5006,0
567207293,0.529102,-0.0993858,-0.135728,5011,0,3.07113,-4.11061,-17.3737,5011,0
567212288,-0.609785,0.71084,-0.00055777,4995,0,-3.06223,7.01926,-10.9231,4995,0
567217301,-1.13994,-0.63817,0.258099,5013,0,1.20143,-0.967933,0.469836,5013,0
567222316,0.290108,0.0383327,-0.0714831,5015,0,3.28519,-4.73815,-16.8192,5015,0
567227306,-0.62338,0.715762,0.00164682,4990,0,-2.31985,4.56488,-10.1884,4990,0
567232306,-0.84573,-0.72001,0.039729,5000,0,1.73288,-2.78932,0.202971,5000,0
567237311,0.0625908,-0.139015,-0.142997,5005,0,2.43349,0.516929,-18.5405,5005,0
567242315,-0.569037,0.612808,0.0927869,5004,0,-2.699,6.61816,-11.424,5004,0
567247323,-0.354797,-0.600327,0.105068,5008,0,1.51016,-4.09304,-2.81978,5008,0
567252325,0.0322985,0.0681059,-0.144733,5002,0,1.41253,0.243868,-18.8292,5002,0
567257336,-0.779437,0.422428,0.00344291,5011,0,-2.08571,4.02267,-6.39695,5011,0
567262332,-0.0737955,-0.654254,0.0250469,4996,0,2.66165,-4.65904,-2.01064,4996,0
567267337,0.0198122,0.20788,-0.0678407,5005,0,1.40892,4.47963,-17.3469,5005,0
567272341,-1.03187,0.249586,0.0594406,5004,0,-1.18102,4.7376,-4.85447,5004,0
567277349,0.229191,-0.847711,-0.0464646,5008,0,2.58978,-4.91808,-2.90526,5008,0
567282352,0.169994,0.283007,-0.115384,5003,0,0.0237595,4.77432,-21.8792,5003,0
567287356,-0.992308,0.282741,0.0621141,5004,0,-1.80535,2.4454,-6.21621,5004,0
567292362,0.199733,-1.01616,-0.0395323,5006,0,2.9258,-5.52374,-3.58908,5006,0
567297367,0.103282,0.15696,-0.089546,5005,0,0.407446,5.39089,-22.15,5005,0
567302368,-0.848761,0.0937404,0.096802,5001,0,-0.759661,2.89907,-5.86473,5001,0
567307373,0.227775,-1.0969,0.0258687,5005,0,3.33226,-3.72365,-7.41263,5005,0
567312376,0.25274,0.30209,-0.0994406,5003,0,-0.905849,5.13218,-23.0032,5003,0
567317385,-0.707994,-0.169362,0.114348,5009,0,-1.82859,0.368341,-0.497413,5009,0
567322385,0.317932,-1.13203,0.0129505,5000,0,2.47742,-3.49905,-6.79306,5000,0
567327403,0.174491,0.620995,-0.0854128,5018,0,-1.4584,6.01114,-20.7627,5018,0
567332394,-0.771079,-0.411132,0.1372,4991,0,0.0270333,-0.391399,3.07871,4991,0
567337398,0.359027,-1.17877,-0.0473414,5004,0,4.12381,-1.25463,-11.4146,5004,0
567342402,0.277045,0.766911,-0.0949658,5004,0,-2.50253,6.33798,-24.1151,5004,0
567347407,-0.51756,-0.722509,0.132993,5005,0,-0.812574,-1.95126,3.83417,5005,0
567352411,0.375907,-0.899026,-0.136911,5004,0,2.44885,-1.94633,-16.7955,5004,0
567357416,0.0316738,0.912805,-0.0852988,5005,0,-2.92495,5.12442,-19.6262,5005,0
567362420,-0.322062,-0.988228,0.204931,5004,0,0.409966,-1.79597,2.56899,5004,0
567367429,0.331335,-0.533554,-0.153515,5009,0,1.8984,-0.476971,-22.2308,5009,0
567372429,-0.105002,0.639639,-0.0626259,5000,0,-2.09708,4.61115,-9.88941,5000,0
567377433,-0.000719135,-1.10809,0.135508,5004,0,1.09252,-3.7379,0.636692,5004,0
567382438,0.196696,-0.0335409,-0.158479,5005,0,0.633101,0.395775,-20.9096,5005,0
567387442,-0.390592,0.341403,0.00165979,5004,0,-2.49725,3.45719,-2.56473,5004,0
567392446,0.28706,-1.16852,0.00863555,5004,0,1.7237,-3.43467,-1.25201,5004,0
567397455,0.0448857,0.253286,-0.202703,5009,0,-0.259268,3.18136,-23.7531,5009,0
567402455,-0.412306,-0.00790319,0.0979986,5000,0,-1.66359,3.62612,-1.67002,5000,0
567407459,0.519661,-1.05901,-0.0189641,5004,0,2.08908,-5.52565,-7.53563,5004,0
567412464,-0.0944405,0.494851,-0.162896,5005,0,-2.14217,3.2803,-23.2675,5005,0
567417468,-0.441352,-0.297867,0.1226,5004,0,-1.90832,2.90613,-0.849299,5004,0
567422474,0.543944,-0.803068,-0.0936778,5006,0,2.14701,-4.65762,-15.1209,5006,0
567427477,0.0023574,0.567384,-0.068042,5003,0,-2.22936,6.07844,-20.001,5003,0
567432482,-0.24222,-0.53063,0.162287,5005,0,-0.691943,1.1407,-1.06228,5005,0
567437486,0.597236,-0.535343,-0.145614,5004,0,1.53991,-4.77597,-15.8229,5004,0
567442492,-0.0427565,0.457295,-0.0763087,5006,0,-3.08611,5.2341,-11.1394,5006,0
567447495,-0.0286134,-0.58833,0.0721501,5003,0,-0.0982023,-0.748231,-1.06057,5003,0
567452499,0.440149,-0.179628,-0.151365,5004,0,1.46655,-2.29286,-17.9231,5004,0
567457503,-0.124723,0.316175,0.00668037,5004,0,-2.71121,5.64635,-9.21734,5004,0
567462508,0.311069,-0.605266,0.0467224,5005,0,0.599479,-1.39146,-4.28832,5005,0
567467512,0.398081,0.0300089,-0.118227,5004,0,0.452192,-0.465551,-17.8465,5004,0
567472517,-0.1671,0.0757603,-0.062417,5005,0,-2.79436,4.23418,-5.26103,5005,0
567477521,0.453536,-0.527282,-0.100033,5004,0,0.925331,-1.9121,-7.98659,5004,0
567482525,0.306446,0.140189,-0.0300279,5004,0,-0.203593,2.20717,-19.2737,5004,0
567487530,-0.0868219,-0.106492,-0.019547,5005,0,-2.11383,3.08066,-6.39752,5005,0
567492542,0.540408,-0.36947,-0.123315,5012,0,1.47434,-1.98242,-10.8859,5012,0
567497539,0.297009,0.155172,-0.0243793,4997,0,-0.469953,2.06366,-14.1541,4997,0
567502543,-0.122172,-0.248826,-0.0649695,5004,0,-1.60362,1.48642,-4.66087,5004,0
567507547,0.588902,-0.296687,-0.14062,5004,0,0.877117,-1.53586,-11.5647,5004,0
567512552,0.228482,0.0882237,-0.0419417,5005,0,-0.922767,1.20377,-12.8586,5005,0
567517556,-0.0746131,-0.190008,-0.0703465,5004,0,-0.841517,0.276463,-6.77942,5004,0
567522560,0.590564,-0.136279,-0.133726,5004,0,0.348901,-0.680633,-11.3846,5004,0
567527565,0.202215,-0.115537,-0.0288247,5005,0,-0.404197,0.290652,-9.51179,5005,0
567532569,0.101802,-0.151104,-0.122194,5004,0,-0.130318,0.156728,-9.1277,5004,0
567537574,0.531888,0.0430206,-0.0960125,5005,0,-0.541987,1.52043,-11.5196,5005,0
567542578,0.239749,-0.380062,0.0143028,5004,0,0.176155,-0.860667,-7.74947,5004,0
567547582,0.288302,-0.104158,-0.201611,5004,0,-0.504546,-0.946659,-14.8484,5004,0
567552587,0.299631,0.35798,-0.0522522,5005,0,-1.97499,2.90944,-12.2061,5005,0
567557591,0.349439,-0.5744,0.0299219,5004,0,1.0729,-2.01479,-5.12667,5004,0
567562596,0.429178,-0.0359151,-0.252745,5005,0,-0.790424,-0.200765,-17.9658,5005,0
567567600,-0.00701574,0.56427,-0.0355644,5004,0,-2.64679,4.63926,-9.71649,5004,0
567572612,0.48777,-0.802443,0.0266656,5012,0,1.78873,-3.1248,-2.33929,5012,0
567577609,0.678571,0.0414085,-0.254778,4997,0,-0.96989,-0.239709,-20.3462,4997,0
567582613,-0.332431,0.723816,0.0138545,5004,0,-3.40063,4.9832,-6.48847,5004,0
567587627,0.370098,-0.981452,0.0514447,5014,0,2.35487,-4.12302,0.480729,5014,0
567592622,0.910546,0.153382,-0.259887,4995,0,-0.953009,-1.30202,-23.4847,4995,0
567597626,-0.573705,0.920919,-0.0128019,5004,0,-4.13433,5.60635,-4.95045,5004,0
567602631,0.279545,-1.12864,0.0651716,5005,0,3.45219,-3.35165,3.07148,5005,0
567607635,1.19155,0.179065,-0.224565,5004,0,0.220805,-2.02398,-26.1787,5004,0
567612641,-0.667773,1.01516,0.0304269,5006,0,-4.93763,4.75817,-5.12942,5006,0
567617644,0.0361932,-1.08289,0.100483,5003,0,2.51641,-3.38059,3.87248,5003,0
567622648,1.35435,0.22233,-0.235952,5004,0,0.16505,-2.68195,-24.6522,5004,0
567627653,-0.488808,0.879648,0.0199258,5005,0,-4.35266,4.58396,-5.40495,5005,0
567632658,-0.183206,-0.758637,0.123558,5005,0,2.55595,-1.94171,-0.508819,5005,0
567637661,1.39067,0.37811,-0.225997,5003,0,0.71006,-2.54588,-22.5246,5003,0
567642666,-0.295233,0.424457,-0.013607,5005,0,-3.86861,2.8561,-3.71036,5005,0
567647670,-0.233059,-0.55393,0.134247,5004,0,0.552907,0.37871,-5.5701,5004,0
567652675,1.12861,0.497134,-0.113025,5005,0,-0.00367673,-3.27987,-20.0115,5005,0
567657679,-0.0816462,0.31765,-0.0717654,5004,0,-2.88825,0.796668,-6.31404,5004,0
567662683,-0.345575,-0.166874,0.114257,5004,0,0.0392543,3.43703,-11.0157,5004,0
567667691,0.878394,0.264574,-0.0591802,5008,0,0.0466204,-3.46374,-15.2071,5008,0
567672692,0.226498,0.325657,-0.195075,5001,0,-2.36309,-0.38516,-10.5037,5001,0
567677696,-0.503086,0.276065,0.0578368,5004,0,-0.942051,3.85698,-10.3709,5004,0
567682701,0.611013,-0.103135,-0.0319106,5005,0,0.613231,-5.49364,-9.56164,5005,0
567687705,0.358552,0.343072,-0.205822,5004,0,-1.9572,-0.332878,-16.6492,5004,0
567692710,-0.64824,0.608041,0.0225764,5005,0,-1.10924,4.64499,-6.99964,5005,0
567697714,0.472872,-0.231686,-0.0402844,5004,0,2.47401,-5.99219,-2.98303,5004,0
567702718,0.510003,0.368007,-0.156365,5004,0,-0.612127,1.41153,-15.0162,5004,0
567707723,-0.723746,0.496438,0.0580093,5005,0,-2.27635,3.66517,-3.8935,5005,0
567712727,0.519806,-0.530073,-0.0462693,5004,0,2.20313,-7.88097,-3.04345,5004,0
567717732,0.24852,0.745288,-0.170867,5005,0,-0.262977,1.91675,-23.8654,5005,0
567722736,-0.85014,0.715232,0.109073,5004,0,-2.73096,3.02028,-3.8238,5004,0
567727740,0.59975,-0.825786,-0.0221506,5004,0,1.59838,-7.02767,-2.26212,5004,0
567732745,0.242076,0.618504,-0.128962,5005,0,-0.287921,4.13132,-24.3861,5005,0
567737749,-0.756418,0.729843,0.0711413,5004,0,-2.08194,0.962027,-5.4593,5004,0
567742754,0.439948,-0.686452,-0.0333847,5005,0,2.81921,-6.89619,-6.24907,5005,0
567747758,0.262493,0.608164,-0.0365052,5004,0,-0.547096,4.03597,-23.8083,5004,0
567752762,-0.666799,0.455064,0.111762,5004,0,-3.0647,-0.540752,-4.24965,5004,0
567757770,0.271685,-0.39026,0.0300864,5008,0,1.73933,-3.60101,-8.78422,5008,0
567762774,0.0638877,0.615428,-0.0464975,5004,0,-0.842687,3.28244,-19.1661,5004,0
567767776,-0.498876,0.256003,0.0155042,5002,0,-1.35858,-2.09013,-6.34868,5002,0
567772780,0.175886,-0.08726,0.104313,5004,0,2.07728,-0.973841,-15.2335,5004,0
567777784,-0.0573753,0.603661,0.00500644,5004,0,-1.14642,1.15688,-14.3002,5004,0
567782790,-0.263642,0.184848,-0.0714833,5006,0,-1.34443,-2.25528,-5.63698,5006,0
567787793,-0.125027,-0.0359901,0.0423695,5003,0,1.33234,1.80471,-12.7721,5003,0
567792801,-0.234738,0.330415,0.0362931,5008,0,-0.826847,0.307369,-11.5159,5008,0
567797802,0.173374,0.232917,-0.071225,5001,0,-0.866869,-1.842,-9.38049,5001,0
567802807,-0.372937,0.130587,0.0801918,5005,0,0.897202,2.26041,-11.834,5005,0
567807811,-0.282478,0.237129,-0.0335949,5004,0,0.162842,-2.01934,-8.06901,5004,0
567812815,0.331259,0.24892,-0.105857,5004,0,-0.334796,-0.766199,-7.89648,5004,0
567817819,-0.594284,-0.0668602,0.171482,5004,0,1.87319,2.07825,-9.26203,5004,0
567822824,-0.277334,0.0253042,-0.0759239,5005,0,1.13025,-3.32851,-10.9789,5005,0
567827832,0.325083,0.461894,-0.145235,5008,0,-1.18233,1.38418,-12.4321,5008,0
567832833,-0.620144,-0.0612462,0.185219,5001,0,1.15299,1.69942,-7.43209,5001,0
567837837,-0.21102,-0.118156,-0.119178,5004,0,0.541319,-4.59561,-11.8927,5004,0
567842841,0.159544,0.591382,-0.15049,5004,0,-2.23566,2.21058,-14.508,5004,0
567847846,-0.6316,-0.0411671,0.218962,5005,0,1.41962,0.893075,-6.54435,5005,0
567852850,-0.0837098,-0.0928697,-0.167284,5004,0,0.982869,-4.84006,-12.7394,5004,0
567857855,-0.0227578,0.627088,-0.184903,5005,0,-2.37336,3.45696,-13.8649,5005,0
567862868,-0.582147,-0.182085,0.230502,5013,0,1.1791,1.03802,-5.11888,5013,0
567867863,0.201101,-0.14876,-0.193327,4995,0,0.943716,-4.67631,-14.0786,4995,0
567872868,-0.24499,0.761242,-0.178612,5005,0,-2.82667,3.40487,-15.049,5005,0
567877872,-0.61907,-0.318702,0.167836,5004,0,1.54578,0.555402,-3.36701,5004,0
567882877,0.465896,-0.231029,-0.212927,5005,0,1.7484,-4.18927,-14.6143,5005,0
567887881,-0.312126,0.814449,-0.109214,5004,0,-2.8802,4.61904,-13.7211,5004,0
567892889,-0.624096,-0.268857,0.131468,5008,0,0.848014,1.2327,-2.54472,5008,0
567897890,0.494214,-0.228256,-0.2644,5001,0,1.82281,-5.15826,-14.1709,5001,0
567902894,-0.380064,0.742466,-0.0829044,5004,0,-2.80973,4.17058,-15.1631,5004,0
567907898,-0.660601,-0.236531,0.206297,5004,0,0.851191,1.76901,-3.65363,5004,0
567912903,0.505407,-0.117844,-0.212669,5005,0,3.07567,-6.04826,-12.9061,5005,0
567917907,-0.35631,0.779776,-0.176935,5004,0,-2.71696,4.62379,-13.2874,5004,0
567922920,-0.820341,-0.362204,0.171384,5013,0,0.287822,2.67394,-1.80952,5013,0
567927916,0.708115,-0.386932,-0.196008,4996,0,3.27951,-6.26294,-13.6196,4996,0
567932921,-0.151618,0.893562,-0.15033,5005,0,-1.79994,5.48493,-16.6047,5005,0
567937927,-1.11625,-0.375346,0.182757,5006,0,0.979885,2.09883,-1.13359,5006,0
567942929,0.797938,-0.512052,-0.28744,5002,0,2.6262,-8.30222,-14.5322,5002,0
567947934,0.132559,0.871597,-0.165356,5005,0,-3.05081,6.20612,-16.0792,5005,0
567952938,-1.35166,-0.375742,0.254337,5004,0,0.273849,2.77723,-0.10453,5004,0
567957942,0.666948,-0.479731,-0.25247,5004,0,3.35372,-8.77742,-13.4606,5004,0
567962947,0.327916,0.738123,-0.16947,5005,0,-2.06551,6.63153,-16.7542,5005,0
567967951,-1.34041,-0.457957,0.299241,5004,0,0.724351,2.35598,-1.43171,5004,0
567972968,0.666769,-0.432232,-0.26285,5017,0,3.16635,-8.8884,-13.9728,5017,0
567977960,0.295835,0.632049,-0.165768,4992,0,-2.33994,6.82127,-13.7327,4992,0
567982964,-1.21893,-0.599695,0.223249,5004,0,0.782588,1.20288,-0.35098,5004,0
567987969,0.557808,-0.381381,-0.3447,5005,0,2.49941,-6.28224,-15.0265,5005,0
567992973,0.0929528,0.522974,-0.123356,5004,0,-1.98022,7.79576,-12.8862,5004,0
567997977,-0.91167,-0.745211,0.223288,5004,0,1.3491,-1.90635,-1.47881,5004,0
568002985,0.628426,-0.197795,-0.334679,5008,0,1.83715,-4.24309,-15.784,5008,0
568007986,-0.236943,0.463289,-0.035907,5001,0,-1.9267,8.25504,-10.0693,5001,0
568012991,-0.645591,-0.761306,0.107061,5005,0,1.27035,-3.01531,-2.20796,5005,0
568017996,0.619829,-0.192835,-0.357392,5005,0,1.46251,-1.61068,-15.6707,5005,0
568023000,-0.320999,0.312304,-0.0090446,5004,0,-1.61111,7.07863,-10.5416,5004,0
568028004,-0.36607,-0.771038,0.00471591,5004,0,1.60441,-5.43267,-4.89976,5004,0
568033008,0.476042,-0.0301711,-0.335506,5004,0,0.558317,-0.172301,-17.489,5004,0
568038013,-0.382189,0.285135,0.0398949,5005,0,-1.93438,6.08729,-9.30712,5005,0
568043017,-0.218514,-0.706996,-0.0775682,5004,0,1.3482,-5.0565,-5.52589,5004,0
568048021,0.383555,-0.050172,-0.298052,5004,0,-0.0799143,2.07791,-16.5036,5004,0
568053026,-0.334761,0.130449,0.0682509,5005,0,-1.97141,4.87617,-10.612,5005,0
568058030,-0.0649471,-0.660134,-0.0881411,5004,0,1.89087,-5.90962,-9.0935,5004,0
568063035,0.314583,0.0996282,-0.230543,5005,0,-0.561031,2.26392,-16.8152,5005,0
568068039,-0.41115,0.100879,0.0614081,5004,0,-2.59277,3.35501,-7.92882,5004,0
568073043,0.0134243,-0.654191,-0.130916,5004,0,1.66567,-4.77019,-7.55628,5004,0
568078048,0.250811,0.178955,-0.221723,5005,0,-1.07006,4.04102,-16.6872,5005,0
568083052,-0.393114,0.125362,0.0617949,5004,0,-2.08665,2.84666,-5.70552,5004,0
568088057,0.19807,-0.713008,-0.123299,5005,0,2.46818,-4.90194,-6.39719,5005,0
568093061,0.268066,0.291188,-0.200553,5004,0,-1.57718,4.20833,-17.2628,5004,0
568098077,-0.370394,0.135731,0.0564115,5016,0,-1.94104,2.24042,-3.13912,5016,0
568103070,0.369381,-0.771439,-0.135835,4993,0,2.79971,-5.17468,-4.58439,4993,0
568108074,0.202676,0.365966,-0.163918,5004,0,-1.75529,5.27506,-17.1415,5004,0
568113079,-0.34133,0.105247,0.105803,5005,0,-1.47355,2.2047,-3.11919,5005,0
568118083,0.49214,-0.846711,-0.130109,5004,0,3.19662,-5.60995,-6.09451,5004,0
568123088,0.187389,0.480603,-0.166015,5005,0,-2.19393,5.385,-20.4594,5005,0
568128092,-0.303927,0.104673,0.0806105,5004,0,-1.41806,1.31826,-3.79164,5004,0
568133096,0.523885,-0.907645,-0.144391,5004,0,3.49521,-6.01066,-7.79263,5004,0
568138100,0.23849,0.610278,-0.148649,5004,0,-2.56296,6.13354,-22.2786,5004,0
568143105,-0.367402,0.0373266,0.0902801,5005,0,-1.32727,1.39399,-2.34813,5005,0
568148109,0.557275,-0.968201,-0.127537,5004,0,3.00862,-5.29021,-9.0585,5004,0
568153117,0.291352,0.680026,-0.13443,5008,0,-2.91159,5.75685,-23.6319,5008,0
568158118,-0.438324,-0.0710133,0.0847942,5001,0,-0.755592,-0.0967722,-2.46027,5001,0
568163130,0.500619,-0.909992,-0.115195,5012,0,3.63252,-5.23079,-12.4103,5012,0
568168127,0.370877,0.77029,-0.074862,4997,0,-2.84613,6.57364,-22.6609,4997,0
568173156,-0.410295,-0.25045,0.106711,5029,0,-1.19055,-0.172245,0.509591,5029,0
568178143,0.528981,-0.861478,-0.164318,4987,0,2.42052,-4.67491,-12.4876,4987,0
568183140,0.314039,0.840691,-0.127359,4997,0,-3.30608,6.04374,-20.4554,4997,0
568188144,-0.372029,-0.374395,0.115439,5004,0,0.130161,-1.93263,0.95951,5004,0
568193149,0.458468,-0.758751,-0.135133,5005,0,3.07623,-3.79902,-16.0562,5005,0
568198153,0.254016,0.950389,-0.0708768,5004,0,-3.11417,7.03521,-18.299,5004,0
568203157,-0.180911,-0.536352,0.0912395,5004,0,-0.0568233,-2.7004,3.81097,5004,0
568208162,0.423497,-0.742649,-0.19748,5005,0,1.97854,-2.99597,-14.9445,5005,0
568213167,0.112231,0.910589,-0.0820302,5005,0,-2.94969,6.37552,-15.3085,5005,0
568218171,0.0195065,-0.641876,0.0961171,5004,0,0.920842,-4.8593,4.2363,5004,0
568223175,0.214519,-0.595809,-0.199766,5004,0,2.38131,-1.23196,-17.5393,5004,0
568228179,0.0296069,0.933325,-0.0745782,5004,0,-2.99526,6.92802,-13.6745,5004,0
568233187,0.329039,-0.788036,0.0506079,5008,0,0.334018,-5.12629,5.72834,5008,0
568238188,0.22054,-0.442564,-0.162075,5001,0,1.35961,0.729695,-16.7952,5001,0
568243193,-0.141514,0.903145,-0.0634789,5005,0,-3.24005,4.75828,-11.7303,5005,0
568248197,0.323868,-0.942558,0.0258688,5004,0,1.17561,-6.05955,2.95763,5004,0
568253202,0.162286,-0.178449,-0.0744385,5005,0,1.48711,2.14697,-23.8147,5005,0
568258206,-0.171377,0.841032,-0.0668737,5004,0,-2.81474,2.95059,-11.4653,5004,0
568263210,0.262086,-0.974492,-0.00520384,5004,0,1.00027,-5.542,0.409465,5004,0
568268219,0.168962,-0.0477583,-0.0581549,5009,0,0.51084,2.71541,-21.1805,5009,0
568273229,-0.207548,0.573942,-0.0650545,5010,0,-3.73143,0.723438,-8.11253,5010,0
568278227,0.215366,-0.748506,0.0524676,4998,0,0.996377,-3.72891,-4.63108,4998,0
568283228,0.063802,0.137055,-0.0163348,5001,0,0.424176,2.79975,-21.6416,5001,0
568288237,-0.153544,0.365345,-0.080215,5009,0,-2.3088,-1.58014,-7.69673,5009,0
568293247,0.317721,-0.531431,0.0411546,5010,0,0.795816,-1.41898,-7.78548,5010,0
568298243,-0.0918457,0.132792,0.0233092,4996,0,-0.916017,2.16364,-15.1672,4996,0
568303245,-0.109721,0.0524509,-0.0606981,5002,0,-2.00202,-2.261,-4.74912,5002,0
568308252,0.364442,-0.266652,0.0443585,5007,0,0.80951,0.930537,-11.1901,5007,0
568313256,-0.298452,0.218426,0.0077177,5004,0,-0.395419,1.27488,-13.9462,5004,0
568318262,0.0226483,-0.0751533,-0.0619765,5006,0,-0.998529,-1.70539,-7.35099,5006,0
568323269,0.423104,-0.237865,0.0959119,5007,0,0.357108,2.97171,-12.8205,5007,0
568328272,-0.265855,0.162023,0.0227052,5003,0,-0.776445,-0.90418,-11.8984,5003,0
568333278,0.0816008,0.0584141,-0.142833,5006,0,-1.47326,-0.897479,-7.35406,5006,0
568338284,0.231559,-0.13127,0.0967777,5006,0,0.44403,4.1829,-10.3767,5006,0
568343282,-0.100976,-0.101407,0.0224285,4998,0,0.571998,-2.29458,-10.9966,4998,0
568348287,0.0484564,0.155496,-0.131795,5005,0,-1.42504,0.252934,-12.6386,5005,0
568353291,0.0954911,-0.0608551,0.143342,5004,0,0.0732945,3.68151,-10.5646,5004,0
568358296,0.178458,-0.217585,-0.0525994,5005,0,0.331573,-4.46152,-11.0811,5005,0
568363307,-0.028989,0.374739,-0.154902,5011,0,-2.78736,1.6921,-14.1452,5011,0
568368307,-0.103234,-0.0258655,0.191132,5000,0,0.149448,3.11026,-6.77408,5000,0
568373307,0.459009,-0.303208,-0.116187,5000,0,1.23087,-5.12419,-10.5973,5000,0
568378314,-0.0495728,0.472723,-0.110692,5007,0,-2.30828,3.94798,-14.8782,5007,0
568383316,-0.224398,-0.153414,0.217176,5002,0,0.7579,2.37939,-4.78027,5002,0
568388322,0.712518,-0.409199,-0.158212,5006,0,1.09522,-7.45176,-12.8265,5006,0
568393325,-0.0953435,0.700195,-0.127924,5003,0,-3.91421,4.63707,-16.7712,5003,0
568398332,-0.398267,-0.151141,0.225483,5007,0,0.217749,2.81466,-1.15781,5007,0
568403335,0.915221,-0.44212,-0.150771,5003,0,2.07313,-8.32118,-12.6898,5003,0
568408340,-0.118668,0.789058,-0.0940408,5005,0,-3.27446,5.5179,-18.4636,5005,0
568413345,-0.584243,-0.290535,0.245588,5005,0,0.93141,3.44511,-0.747937,5005,0
568418349,1.15721,-0.473118,-0.146687,5004,0,2.37381,-9.07384,-14.5773,5004,0
568423351,-0.179126,0.9288,-0.148019,5002,0,-4.29154,4.42388,-18.5948,5002,0
568428358,-0.725343,-0.397783,0.219374,5007,0,-0.312993,3.86575,1.66312,5007,0
568433375,1.38755,-0.489553,-0.102954,5017,0,2.49822,-8.17987,-15.2777,5017,0
568438364,-0.333354,1.02186,-0.0847105,4989,0,-3.20646,5.25099,-20.1336,4989,0
568443369,-0.7883,-0.403546,0.246801,5005,0,0.491584,3.5279,0.986422,5005,0
568448382,1.51187,-0.503858,-0.08114,5013,0,2.13187,-8.06311,-16.4861,5013,0
568453377,-0.258596,0.86882,-0.0924792,4995,0,-3.63441,4.48639,-17.7184,4995,0
568458387,-0.864901,-0.468687,0.236199,5010,0,0.928716,1.04701,0.658732,5010,0
568463386,1.40057,-0.206988,-0.106343,4999,0,2.34923,-7.18365,-18.4424,4999,0
568468393,-0.271057,0.740183,-0.0602616,5007,0,-3.43979,5.6778,-11.2916,5007,0
568473395,-0.746758,-0.669354,0.233486,5002,0,0.769804,1.04247,0.962203,5002,0
568478399,1.27137,0.0522603,-0.145014,5004,0,1.33809,-5.43687,-19.3464,5004,0
568483412,-0.105809,0.571452,-0.0436992,5013,0,-3.03338,4.54872,-7.52147,5013,0
568488409,-0.549018,-0.61465,0.199688,4997,0,1.2104,-1.66212,-3.17207,4997,0
568493412,0.866828,0.281484,-0.125169,5003,0,0.437628,-4.22508,-21.0621,5003,0
568498417,-0.0806009,0.330854,-0.0457584,5005,0,-3.07407,3.56675,-5.03804,5005,0
568503423,-0.263119,-0.388494,0.0518221,5006,0,1.21421,-1.15608,-7.20292,5006,0
568508426,0.463682,0.200512,-0.112623,5003,0,0.432293,-0.896669,-17.2022,5003,0
568513430,-0.0102386,0.0199361,-0.0387558,5004,0,-1.85978,1.26692,-6.78972,5004,0
568518434,0.0357128,-0.0410906,0.0148105,5004,0,-0.0474243,-0.992242,-11.9712,5004,0
568523438,0.177545,0.169016,-0.0437893,5004,0,0.0140719,-0.994979,-10.9435,5004,0
568528445,-0.144855,0.0295211,-0.123605,5007,0,-1.08332,-0.845484,-6.9279,5007,0
568533448,0.140547,0.226504,-0.018979,5003,0,-1.09584,1.70984,-9.88924,5003,0
568538454,0.039057,-0.206682,0.0980335,5006,0,1.67407,-1.10006,-6.70883,5006,0
568543456,0.0533337,0.0360718,-0.109622,5002,0,0.396454,-1.8243,-14.1523,5002,0
568548461,0.0278904,0.610119,-0.0698508,5005,0,-2.90432,2.18331,-12.3741,5005,0
568553465,-0.0646335,-0.591289,0.0562306,5004,0,1.52554,-2.58509,-3.50248,5004,0
568558469,0.261203,0.0658549,-0.125862,5004,0,-0.605744,-1.81922,-20.5566,5004,0
568563474,-0.37172,0.782662,0.00207247,5005,0,-3.08329,4.21662,-10.6108,5005,0
568568478,-0.145962,-0.847312,0.0537171,5004,0,3.40372,-3.85038,-3.08242,5004,0
568573483,0.585186,0.300466,-0.207482,5005,0,-0.852728,-1.91201,-25.2273,5005,0
568578487,-0.718098,0.835832,0.105651,5004,0,-3.44373,5.58441,-4.28037,5004,0
568583491,-0.0333071,-0.996208,0.103701,5004,0,3.60221,-5.19615,1.76963,5004,0
568588496,0.761278,0.401316,-0.261157,5005,0,-0.339649,-1.67907,-22.1776,5005,0
568593500,-1.20202,0.595006,0.0853248,5004,0,-3.02152,5.7569,-2.23906,5004,0
568598505,0.11878,-1.23962,0.103764,5005,0,3.57113,-4.46663,-1.78854,5005,0
568603509,1.04688,0.843143,-0.22371,5004,0,-1.10057,-0.964278,-28.4749,5004,0
568608513,-1.47572,0.591161,0.0807226,5004,0,-2.73896,4.00122,1.83394,5004,0
568613518,0.127757,-1.39251,0.0132616,5005,0,3.59777,-5.37157,-1.88515,5005,0
568618522,1.06711,0.757807,-0.17218,5004,0,-0.259061,0.84999,-27.2447,5004,0
568623534,-1.42068,0.349867,0.187858,5012,0,-2.35889,3.95342,2.05425,5012,0
568628531,0.0133686,-0.918516,-0.0191781,4997,0,2.87614,-4.78358,-7.29592,4997,0
568633535,0.884775,0.709661,-0.229791,5004,0,-2.29564,1.75451,-24.6621,5004,0
568638540,-0.997398,-0.133044,0.1789,5005,0,-2.56902,4.12001,-1.46936,5005,0
568643544,0.021059,-0.351869,0.0670667,5004,0,2.94571,-3.68986,-17.4932,5004,0
568648549,0.453868,0.812328,-0.173184,5005,0,-1.31838,-0.371374,-15.0448,5005,0
568653563,-0.476966,-0.31378,0.0448164,5014,0,-2.02606,1.58197,-1.14526,5014,0
568658557,-0.333899,-0.23701,0.0376136,4994,0,1.66507,-1.46535,-13.8972,4994,0
568663572,0.0548853,0.374161,-0.124643,5015,0,-0.821777,-1.32615,-8.01229,5015,0
568668566,-0.0927222,0.0313412,-0.0401657,4994,0,-0.880559,0.543061,-7.49953,4994,0
568673582,-0.639606,0.0235117,0.0522346,5016,0,0.589221,-1.18573,-13.5677,5016,0
568678575,-0.128165,0.0124391,-0.143057,4993,0,-1.68315,-1.35807,-10.6547,4993,0
568683582,0.00572434,0.320968,-0.070398,5007,0,-1.96223,1.20274,-12.7569,5007,0
568688583,-0.399907,0.138887,0.0505859,5001,0,0.0889797,-1.36667,-6.35524,5001,0
568693589,-0.300454,0.0667588,-0.147119,5006,0,0.0766221,0.203141,-9.00565,5006,0
568698592,-0.0176267,0.310922,-0.0144448,5003,0,-0.790999,0.462738,-10.8982,5003,0
568703604,-0.182684,-0.202477,-0.0250456,5012,0,0.820086,-2.29462,-7.3051,5012,0
568708601,-0.297198,0.320499,-0.115451,4997,0,-0.683657,2.22104,-17.7515,4997,0
568713607,-0.199161,0.412284,-0.00198128,5006,0,-1.98352,-0.922924,-8.88992,5006,0
568718614,-0.124937,-0.424473,-0.131646,5007,0,1.44442,-1.56904,-6.47436,5007,0
568723616,-0.260162,0.55575,-0.104928,5002,0,-0.786529,3.76031,-16.4973,5002,0
568728619,-0.517098,0.185854,0.0994269,5003,0,-0.71683,0.243958,-3.02218,5003,0
