timestamp,timestamp_sample,accel_device_id,gyro_device_id,delta_angle[0],delta_angle[1],delta_angle[2],delta_velocity[0],delta_velocity[1],delta_velocity[2],delta_angle_dt,delta_velocity_dt,delta_velocity_clipping
565001327,565000354,2162698,2162698,0.000603207,0.00015443,0.000152806,5.97937e-05,0.00117892,-0.0521503,5007,5007,0
565006340,565005356,2162698,2162698,0.000147484,-0.000108202,-3.33272e-05,0.000893903,-0.00764789,-0.052759,5002,5002,0
565506755,565505791,2162698,2162698,0.00339297,-0.000483466,0.000995537,0.00844995,-0.00188667,-0.0620541,5004,5004,0
566007234,566006249,2162698,2162698,0.00161124,0.00230813,-0.000183298,0.0030396,-0.00567664,-0.0309449,5023,5023,0
566502675,566501665,2162698,2162698,-0.00604403,0.00583294,0.000970823,-0.0114777,0.00608956,-0.0827168,5005,5005,0
567003067,567002104,2162698,2162698,0.000342474,0.000392844,0.00128296,0.00609669,-0.0111897,-0.0321696,5005,5005,0
567503506,567502543,2162698,2162698,-0.00061135,-0.00124512,-0.000325107,-0.00802454,0.00743803,-0.023323,5004,5004,0
568003951,568002985,2162698,2162698,0.00314716,-0.000990558,-0.00167607,0.00920045,-0.0212494,-0.079046,5008,5008,0
568504485,568503423,2162698,2162698,-0.00131717,-0.0019448,0.000259422,0.00607832,-0.00578734,-0.0360578,5006,5006,0
569004869,569003868,2162698,2162698,0.00172599,-0.00116425,-0.000513323,0.00124123,0.00750202,-0.0476262,5012,5012,0
569500277,569499295,2162698,2162698,0.000568553,-0.00174825,-0.000361839,0.000802601,-0.0285718,-0.0353975,5004,5004,0
570000736,569999734,2162698,2162698,-0.00050391,-0.00144747,0.000167916,0.00122109,-0.00972637,-0.0396824,5005,5005,0
570501140,570500173,2162698,2162698,0.000133544,0.00134177,-0.00125036,-0.00900048,-0.00365068,-0.0954876,5000,5000,0
571001576,571000612,2162698,2162698,-0.00157093,0.00298005,-0.000880498,-0.00827532,0.0045252,-0.0762911,5004,5004,0
571502023,571501051,2162698,2162698,0.00225706,0.00133146,-0.000960953,-0.00586901,0.0110798,-0.086631,5004,5004,0
572002467,572001490,2162698,2162698,-0.00212476,0.00253675,-0.00038472,-0.00787539,0.00317019,-0.0804023,5001,5001,0
572502892,572501930,2162698,2162698,-6.76038e-05,0.0029619,-0.000126162,-0.00304921,0.0120802,-0.0561398,5003,5003,0
573003379,573002369,2162698,2162698,0.000319444,0.000118627,0.000106236,0.00171354,0.0175468,-0.0359888,5001,5001,0
573503773,573502808,2162698,2162698,-0.00418917,-0.000288987,0.000142596,-0.0022069,-0.016516,-0.063238,5001,5001,0
574004221,574003251,2162698,2162698,-0.00412178,0.00041294,-0.000293438,-0.00656701,0.00705024,-0.0688489,4998,4998,0
574504650,574503686,2162698,2162698,0.00253758,0.000832958,-5.4241e-05,0.0010152,0.0300314,-0.060642,5004,5004,0
575005089,575004125,2162698,2162698,-0.00204037,-0.00116897,0.000204169,-0.00344581,0.000705388,-0.0487698,5004,5004,0
575505531,575504564,2162698,2162698,0.00173215,-0.000581665,-0.000222123,0.000208212,0.0100968,-0.064728,5004,5004,0
576006015,576005004,2162698,2162698,-0.00264992,0.00096915,-0.00018618,-0.00336565,-0.00627814,-0.0497582,5005,5005,0
576506414,576505443,2162698,2162698,-0.00256753,0.000280564,0.000290488,-0.00440891,0.0118393,-0.0218773,5003,5003,0
577001884,577000877,2162698,2162698,-0.000336297,-0.00223795,-4.93155e-05,0.00178659,-0.0185964,-0.0351106,5004,5004,0
577502291,577501316,2162698,2162698,-0.000898164,-0.00149633,0.000559775,0.00942069,-0.000981953,-0.0303925,5001,5001,0
578002718,578001755,2162698,2162698,0.000158583,0.00167289,-0.00103791,-0.00667771,-0.000887464,-0.0500545,5004,5004,0
578503162,578502193,2162698,2162698,0.00112216,0.00214897,-0.00127397,-0.00559646,0.0283476,-0.0591826,5004,5004,0
579003606,579002632,2162698,2162698,-0.00143377,0.000204126,-0.000605532,-0.00400754,0.0073007,-0.0415729,5004,5004,0
579504058,579503071,2162698,2162698,-0.00372209,-0.000183729,0.000199821,-0.00379837,0.00680288,-0.0555767,5005,5005,0
580004491,580003510,2162698,2162698,7.07106e-05,0.000224896,-0.000370066,-0.000947283,0.00148385,-0.0388314,5005,5005,0
580504922,580503948,2162698,2162698,0.000383579,-0.000366133,-0.000198965,-0.00280811,-0.00419925,-0.035123,5004,5004,0
581005377,581004387,2162698,2162698,-0.00161249,-5.90901e-05,-0.000110061,-0.00426407,-0.0198072,-0.0780761,5005,5005,0
581505828,581504825,2162698,2162698,0.000197584,0.00188759,-0.000651202,-0.00363973,0.0217761,-0.0771476,5005,5005,0
582006234,582005269,2162698,2162698,0.00110352,-0.000808535,-0.000235719,-5.05095e-05,0.0222764,-0.038276,5008,5008,0
582506695,582505704,2162698,2162698,-0.000694406,-0.000404058,-0.000662557,-0.00767903,-0.0133579,-0.0828064,5008,5008,0
583007108,583006139,2162698,2162698,-0.000377683,-5.16694e-05,-0.000258048,-0.00401917,-0.00189979,-0.0484906,5005,5005,0
583507542,583506576,2162698,2162698,0.00124223,0.00181971,-0.000336309,-0.00408555,0.0166046,-0.0650077,5004,5004,0
584002981,584002010,2162698,2162698,0.00155666,-0.000772937,0.000396035,0.00510783,-0.0203795,-0.0292731,5005,5005,0
584503462,584502447,2162698,2162698,4.94985e-05,-0.00343471,0.00011258,0.00331616,-0.0183607,-0.0479138,5003,5003,0
585003851,585002885,2162698,2162698,0.00320116,0.00273113,-0.00071815,-0.00676848,0.0209981,-0.0794243,5005,5005,0
585504298,585503323,2162698,2162698,0.000632858,-0.000368445,-0.000530113,0.0019133,-0.0198623,-0.0393372,5005,5005,0
586004726,586003760,2162698,2162698,-0.00263204,-0.000436773,9.84877e-06,0.0014557,-0.0032445,-0.0611373,5005,5005,0
586505171,586504204,2162698,2162698,-0.00218383,-0.00150284,2.16779e-05,-0.000663989,-0.00530749,-0.0584863,5011,5011,0
587000592,586999630,2162698,2162698,-0.000407548,-0.000321879,0.000182361,-0.000559828,-0.00136389,-0.0481565,5005,5005,0
587501042,587500066,2162698,2162698,0.000284642,-0.0023548,0.00068456,0.00867526,0.00103449,-0.0129793,5004,5004,0
588001474,588000510,2162698,2162698,-0.00125348,0.000423974,-2.88255e-05,-0.00393268,0.00198462,-0.0614885,5011,5011,0
588501941,588500939,2162698,2162698,-0.00109851,0.000948033,-0.000745147,-0.00985788,-0.0149766,-0.0793029,5004,5004,0
589002347,589001376,2162698,2162698,-0.000671768,-0.000117328,0.000295604,-0.000153106,-0.0220974,-0.0681726,5005,5005,0
589502775,589501812,2162698,2162698,-0.00105106,-0.00201176,-0.000205805,-0.000814238,0.00947691,-0.0297933,5005,5005,0
590003224,590002248,2162698,2162698,0.000373622,0.000185021,-0.000437282,-0.00323664,-0.0213646,-0.0454479,4996,4996,0
590503656,590502684,2162698,2162698,-0.000285468,0.000300225,-0.000228842,-4.7336e-05,0.00758577,-0.0546814,5004,5004,0
591004107,591003120,2162698,2162698,0.00208433,0.000959112,-0.000397406,-0.00306708,0.00921719,-0.0501739,5002,5002,0
591504537,591503565,2162698,2162698,-0.00219635,-0.000171962,0.000247088,-0.00494242,0.0111627,-0.0580814,5014,5014,0
592004962,592003990,2162698,2162698,0.000517342,-0.000257606,-0.000543824,-0.000407138,0.0108775,-0.0763227,5004,5004,0
592505402,592504426,2162698,2162698,0.000257429,-0.00653465,0.00163741,-0.00552663,0.0120106,-0.0658126,5003,5003,0
593005825,593004860,2162698,2162698,-0.00575701,-0.000448567,0.000500469,-0.0017294,-0.00873395,-0.0577757,4992,4992,0
593506261,593505296,2162698,2162698,0.00231999,-0.000535223,0.000121556,0.00115413,-0.00721993,-0.0390195,5001,5001,0
594001703,594000726,2162698,2162698,0.0018035,0.000358775,-0.000159366,0.00178101,-0.00754335,-0.0415615,5004,5004,0
594502124,594501161,2162698,2162698,0.00290447,-0.00113992,0.000206083,0.00630694,0.00486755,-0.0230574,5004,5004,0
595002559,595001597,2162698,2162698,0.000938294,-0.00173191,0.000455264,0.00490063,-0.00385998,-0.0141154,5005,5005,0
595503107,595502031,2162698,2162698,-0.000744045,0.000901549,-0.000168352,-0.00217025,-0.00440896,-0.0268216,5004,5004,0
596003435,596002466,2162698,2162698,0.00131789,0.0020731,-0.000630588,-0.00267064,0.0198894,-0.0746093,5004,5004,0
596503863,596502901,2162698,2162698,-0.00155481,-0.000182148,0.00029884,0.00187389,-0.00922351,-0.0399066,5005,5005,0
597004306,597003336,2162698,2162698,0.00151179,0.00136306,-0.000545418,-0.00697018,-0.000323753,-0.0692473,5005,5005,0
597504746,597503770,2162698,2162698,0.000585331,0.000322265,-0.000360894,-0.000299546,0.00730876,-0.0455981,5004,5004,0
598005175,598004207,2162698,2162698,0.000751894,-0.000787917,-0.000250429,-0.000869188,0.00577181,-0.0357692,5007,5007,0
598505648,598504639,2162698,2162698,-0.000766441,-0.000259622,-0.000510089,-0.00413768,-0.00503221,-0.0518797,5004,5004,0
599006040,599005073,2162698,2162698,0.00242624,-0.000434927,-0.000238042,0.00121044,-0.00224594,-0.0524234,4999,4999,0
599506480,599505508,2162698,2162698,0.000506156,8.99539e-05,8.03108e-05,0.000118163,0.0111023,-0.0620603,5004,5004,0
600006923,600005942,2162698,2162698,-0.00208454,0.00133239,0.000164725,-0.00309957,-0.0077186,-0.0746405,5004,5004,0
600507368,600506376,2162698,2162698,-0.000800499,-0.000426239,0.000292312,0.00303152,-0.000421401,-0.0391831,5004,5004,0
601002772,601001806,2162698,2162698,0.00181453,-0.000452579,-0.00169321,-0.000608433,-0.00105746,-0.0475387,5005,5005,0
601503231,601502252,2162698,2162698,0.000547021,-0.000281887,-0.00156169,-0.00137491,0.0156661,-0.0639229,5006,5006,0
602003661,602002680,2162698,2162698,-0.00376032,-0.0015315,-0.00336013,-0.00385603,-0.0183223,-0.0266614,5008,5008,0
602504079,602503107,2162698,2162698,-0.000676857,0.000568148,-0.00333536,-0.00267033,0.0218746,-0.0441599,5004,5004,0
603004524,603003541,2162698,2162698,0.000896215,0.00180864,-0.00022831,-0.00136618,0.0140597,-0.0369041,5005,5005,0
603504942,603503974,2162698,2162698,0.00326161,0.00271545,-4.0382e-05,-0.00688075,0.0171552,-0.0788896,5004,5004,0
604005381,604004408,2162698,2162698,-0.00154767,-0.00274915,0.00047541,-0.000579255,-0.0210692,-0.0555946,5004,5004,0
604505811,604504841,2162698,2162698,0.00336366,-0.000102293,0.000332112,0.00794729,0.00634853,-0.027384,5000,5000,0
605001254,605000276,2162698,2162698,-0.00195518,0.000531764,-0.000421739,-0.00936174,0.00254557,-0.0756214,5004,5004,0
605501667,605500704,2162698,2162698,-0.000514853,-0.00147007,0.000451759,-0.000766248,0.00531489,-0.0371962,5005,5005,0
606002100,606001137,2162698,2162698,0.000557677,0.000276272,-0.000534445,-0.000417028,-0.00866035,-0.0548735,5002,5002,0
606502545,606501580,2162698,2162698,0.000708653,-0.00051551,0.000337867,0.00150537,0.0102281,-0.0381722,5014,5014,0
607003013,607002004,2162698,2162698,-0.00343642,-0.000739572,-0.00212003,-0.00651661,-0.018174,-0.0898018,5005,5005,0
607503409,607502437,2162698,2162698,-0.000418405,0.00096125,-0.0019327,-0.00655171,0.0253805,-0.0783107,5001,5001,0
608003834,608002871,2162698,2162698,0.00283231,0.00132913,-0.00143018,-0.00614419,0.0135241,-0.0707263,5005,5005,0
608504283,608503305,2162698,2162698,-0.000712767,-0.00123083,-0.00385144,0.00038531,-0.0101432,-0.0273321,5005,5005,0
609004741,609003738,2162698,2162698,0.00134686,-0.000115093,-0.00622672,-0.00317439,-0.00972557,-0.0311853,5004,5004,0
609505166,609504172,2162698,2162698,-0.000486231,-0.000626815,-0.00526284,0.00264311,-0.00153733,-0.0355999,5001,5001,0
610005607,610004606,2162698,2162698,0.00121115,-0.00282487,-0.00020422,-0.00242496,-0.00669432,-0.0498589,5004,5004,0
610506003,610505040,2162698,2162698,-0.00152954,0.00222484,0.000998874,-0.000741778,0.00262082,-0.0542743,5005,5005,0
611006448,611005477,2162698,2162698,-0.00160241,-0.000300009,0.000293278,-0.000346025,-0.0126039,-0.056025,5007,5007,0
611501889,611500927,2162698,2162698,-0.00126358,-0.00039253,0.000411557,-0.00166711,0.022914,-0.0498224,5026,5026,0
612002316,612001341,2162698,2162698,8.61752e-05,-0.000586654,0.000453503,-0.000768958,0.0119413,-0.0394063,5008,5008,0
612502740,612501777,2162698,2162698,-0.00362639,0.000357889,0.000431223,-0.00370515,0.00947077,-0.0673267,5010,5010,0
613003181,613002205,2162698,2162698,0.00146863,9.95993e-05,-0.000361611,-0.000676928,0.0125152,-0.0357618,5004,5004,0
613503623,613502642,2162698,2162698,0.00128708,-0.000804997,0.000605038,0.00557692,-0.00717524,-0.0301516,5008,5008,0
614004081,614003072,2162698,2162698,0.00152063,0.00130646,-0.000578873,-0.00424695,-0.0201859,-0.0776105,5004,5004,0
614504470,614503506,2162698,2162698,-0.000302711,0.00129034,-0.000373378,0.000106916,0.00115127,-0.0477512,5003,5003,0
614999902,614998935,2162698,2162698,0.000840747,0.00132526,0.00166705,-0.00400201,0.000601198,-0.0482527,5004,5004,0
615500353,615499369,2162698,2162698,0.00283398,0.00220864,0.00252863,-0.00389479,-0.00926571,-0.0596708,5002,5002,0
616005776,616004808,2162698,2162698,-0.00421129,-0.00237281,0.0018154,0.00753443,-0.0151083,-0.0362212,5006,5006,0
616501207,616500238,2162698,2162698,-0.000779584,0.0012933,4.2397e-05,-0.00479216,0.0285995,-0.0612853,5007,5007,0
617001650,617000675,2162698,2162698,-0.00274522,0.000976135,0.00118842,0.000604838,0.000125508,-0.0305865,5011,5011,0
617507074,617506106,2162698,2162698,-0.00193911,2.90243e-05,0.000251448,0.00196829,-0.00665957,-0.0221485,5004,5004,0
618002554,618001535,2162698,2162698,0.000633418,0.00265139,-0.00065554,-0.0050578,0.0104984,-0.0606397,5005,5005,0
618507955,618506972,2162698,2162698,0.00174553,-0.000127747,8.51432e-05,0.000975619,0.00966261,-0.0521145,5004,5004,0
619003387,619002415,2162698,2162698,-0.00102756,0.000759766,0.000428531,-0.00515496,0.0131998,-0.0408851,5012,5012,0
619503817,619502833,2162698,2162698,0.00328817,0.000881096,0.00353467,-0.00429105,0.0111998,-0.0549073,5004,5004,0
620004243,620003275,2162698,2162698,0.00713302,0.00264999,0.0028042,-0.00255835,0.0111776,-0.069664,5013,5013,0
620504662,620503699,2162698,2162698,0.000442651,0.00103278,0.00149392,-0.00212291,-0.0178922,-0.0879648,5004,5004,0
621005107,621004132,2162698,2162698,-0.00421471,-0.00172264,0.000981744,0.00293073,0.0048633,-0.0336157,5005,5005,0
621505533,621504564,2162698,2162698,0.0023354,0.000688198,-0.000909474,0.00133367,-0.00848509,-0.0490169,4992,4992,0
622000962,621999995,2162698,2162698,-0.00186869,0.00242435,-0.000571312,-0.00339597,-0.00594972,-0.0553544,5007,5007,0
622501447,622500425,2162698,2162698,0.00296954,-0.00695161,0.000738282,0.00457555,-0.00505438,-0.0320376,5005,5005,0
623001830,623000856,2162698,2162698,0.00133187,-0.00119725,7.93621e-05,0.00574576,-0.00726918,-0.0218302,5001,5001,0
623502264,623501288,2162698,2162698,0.00312749,2.3175e-05,1.97301e-05,0.00372713,-0.00293017,-0.0370962,5004,5004,0
624002682,624001719,2162698,2162698,0.00169398,-0.000767502,8.23966e-05,0.00286968,0.00760093,-0.0262256,5002,5002,0
624503124,624502150,2162698,2162698,-0.000208724,-0.00295414,0.000264491,-0.00426625,0.00439104,-0.0447699,5004,5004,0
625003603,625002598,2162698,2162698,-0.0050215,-0.000621178,-3.82723e-07,-0.00410535,-0.00349676,-0.0776516,5021,5021,0
625504014,625503012,2162698,2162698,-0.000200096,-0.000931868,0.000103226,0.00187792,0.0144072,-0.0201606,5005,5005,0
626004413,626003442,2162698,2162698,-0.0060827,0.000647133,0.000519374,-0.00244337,0.00445577,-0.0439954,5002,5002,0
626504892,626503872,2162698,2162698,-0.00385048,0.000151944,-1.78714e-05,-0.000376217,-0.0128359,-0.0432095,5004,5004,0
627005278,627004305,2162698,2162698,0.000661472,0.000475898,-0.00268472,0.000212887,-0.0127145,-0.049142,5007,5007,0
627505694,627504731,2162698,2162698,-0.000774392,-0.000342642,-0.00361812,-0.00353193,0.000148658,-0.0487607,5004,5004,0
628006134,628005161,2162698,2162698,-0.000783699,-0.00054798,-0.00362774,0.00127708,0.00574069,-0.0564096,5005,5005,0
628506587,628505589,2162698,2162698,-0.00261007,-0.000542645,-0.00290356,0.00318801,0.0169329,-0.0604026,5004,5004,0
629001993,629001027,2162698,2162698,2.80919e-05,0.00173772,-0.0043552,-0.0104528,-0.00269806,-0.0777596,5017,5017,0
629502419,629501443,2162698,2162698,0.00194333,-0.000828358,0.000199423,0.00798352,0.0068895,-0.0344616,5004,5004,0
630002847,630001878,2162698,2162698,-0.00042063,-0.00309607,-0.0027962,0.00430914,-0.0267011,-0.0163901,5008,5008,0
630503293,630502310,2162698,2162698,-0.00305954,-0.000843227,-0.000261435,-0.00240157,-0.000777235,-0.0400499,5012,5012,0
631003711,631002730,2162698,2162698,0.000372354,0.000542707,0.000266094,-0.00223306,0.0299073,-0.0544055,5005,5005,0
631504125,631503159,2162698,2162698,-8.9071e-05,0.000682178,0.000145001,-0.000957701,0.0304927,-0.0661036,5005,5005,0
632004564,632003597,2162698,2162698,-0.00313372,-0.00134577,4.5328e-05,-0.000342909,-0.013849,-0.0680993,5014,5014,0
632504987,632504017,2162698,2162698,-0.000260655,-0.00183172,0.000310773,0.00506794,-0.016776,-0.0333555,5004,5004,0
633000428,632999446,2162698,2162698,-0.00181814,0.00178369,-0.000301195,-0.00156069,-0.00326243,-0.0621396,4997,4997,0
633500843,633499870,2162698,2162698,-0.0004462,-0.00039838,0.000215873,-0.00189123,0.00935452,-0.0357738,5000,5000,0
634001272,634000299,2162698,2162698,-0.00253469,-0.00096344,-0.000302015,-0.00476169,0.00270995,-0.0788367,5001,5001,0
634501691,634500727,2162698,2162698,0.000349505,0.00118607,-0.000216005,-0.00234484,0.000359575,-0.0692472,5004,5004,0
635002123,635001155,2162698,2162698,0.00403271,0.00155682,-0.000279199,0.000684747,0.0102522,-0.0477107,5005,5005,0
635507558,635506586,2162698,2162698,-0.00331242,4.76784e-05,-0.000399514,-0.00425983,-0.00834339,-0.0778136,5001,5001,0
636002982,636002015,2162698,2162698,0.00308206,0.0062172,0.000496113,-0.00432145,0.00590836,-0.0626465,5011,5011,0
636503412,636502434,2162698,2162698,0.00137795,6.22206e-05,0.000658016,0.000101602,0.00920602,-0.050052,5002,5002,0
637003823,637002860,2162698,2162698,-0.00115442,-0.000353637,0.000428362,-7.40174e-05,0.00936094,-0.0514075,5005,5005,0
637504257,637503285,2162698,2162698,0.0019575,0.000569277,-0.000589655,-0.00260069,0.00312808,-0.0371769,5004,5004,0
638004673,638003710,2162698,2162698,-0.000233675,-0.00141521,-0.00196822,-0.000460187,-0.0250488,-0.0470841,5005,5005,0
638505102,638504134,2162698,2162698,0.000100712,-0.000305599,-0.000759662,-0.0032529,0.0019467,-0.0489469,5004,5004,0
639005526,639004561,2162698,2162698,0.00287076,-0.000816324,-0.000564169,-0.00397691,0.0171178,-0.0496973,5007,5007,0
639505965,639504992,2162698,2162698,-0.000713622,-0.000226641,0.000241685,-0.0036178,0.0207718,-0.0682328,5014,5014,0
640001395,640000408,2162698,2162698,0.000831661,-2.26101e-05,4.28146e-05,3.56093e-05,-0.00115542,-0.0412801,5009,5009,0
640501835,640500827,2162698,2162698,0.000201489,0.000619093,-0.000750573,-0.00809121,-0.00550377,-0.0915515,5005,5005,0
641002225,641001251,2162698,2162698,-0.000722796,-0.000787546,0.000212906,0.00285924,0.0109938,-0.0259316,4998,4998,0
641502638,641501675,2162698,2162698,-0.000810151,0.0009944,-0.000392479,-0.00445235,-0.0119209,-0.0627185,5004,5004,0
642003062,642002099,2162698,2162698,0.000315117,-0.00158214,0.000361398,0.00460819,0.0261221,-0.0148235,5004,5004,0
642503486,642502523,2162698,2162698,0.00287426,-0.001761,2.70074e-05,0.000750017,-0.00558845,-0.0599862,5004,5004,0
643003914,643002951,2162698,2162698,0.00117405,-0.00125788,0.000754639,-0.000937729,0.0110616,-0.0495217,5008,5008,0
643504384,643503371,2162698,2162698,0.00187137,0.0024957,-0.000631102,-0.0071119,0.0139055,-0.0836185,5004,5004,0
644004796,644003795,2162698,2162698,0.00131436,0.00311565,-0.000869864,-0.0109892,-0.00591957,-0.0836824,5005,5005,0
644505184,644504221,2162698,2162698,-0.000658943,-0.00014961,-0.000215928,-0.00212084,0.000265388,-0.0557898,4998,4998,0
645005609,645004645,2162698,2162698,-0.00280342,0.00217221,-0.000393366,-0.00938584,0.0134079,-0.0478396,5007,5007,0
645506049,645505085,2162698,2162698,0.00184675,-5.72768e-05,-0.000427829,-0.00275569,-0.00304954,-0.040137,5023,5023,0
646006459,646005490,2162698,2162698,0.00299888,-0.000959135,-0.00081824,-0.00215319,0.0265104,-0.0374971,5004,5004,0
646501883,646500910,2162698,2162698,0.00156823,-0.000347212,-3.98917e-05,-0.00192528,0.00500708,-0.0367022,5005,5005,0
647002309,647001336,2162698,2162698,0.000914212,0.000323212,0.000170386,0.00127583,0.014979,-0.0303794,5008,5008,0
647502737,647501777,2162698,2162698,0.00230333,-0.000153571,-0.000177031,-0.00256538,0.0045064,-0.0428021,5023,5023,0
648003182,648002180,2162698,2162698,-0.00170656,-0.00131555,0.00100483,0.000963853,-0.0202708,-0.0582284,5006,5006,0
648503583,648502601,2162698,2162698,0.000132789,0.000311508,-0.000168515,-0.00137575,0.0130035,-0.0506937,5004,5004,0
649003990,649003024,2162698,2162698,0.00221937,-0.000429019,2.27213e-05,-0.00176302,0.0137094,-0.0694606,5004,5004,0
649504421,649503447,2162698,2162698,0.00238569,0.00195818,-0.000650936,-0.00209692,0.00746681,-0.0501236,5004,5004,0
649999828,649998865,2162698,2162698,-0.000709365,0.000176694,-0.000390079,-0.00621952,0.00247721,-0.0710087,4997,4997,0
650500304,650499288,2162698,2162698,0.00055497,0.000801139,-0.000892203,-0.00734065,0.0032032,-0.0786314,5001,5001,0
651005692,651004717,2162698,2162698,-0.00303122,-4.28778e-05,-0.000364593,-0.00182802,0.015719,-0.056471,5007,5007,0
651506106,651505137,2162698,2162698,-0.000563885,0.000550101,-0.00014635,-0.00590409,-0.00442008,-0.0754997,4996,4996,0
652006532,652005559,2162698,2162698,-0.00216475,0.00219394,-0.000299574,-0.00579928,-0.000176824,-0.0841917,4997,4997,0
652506958,652505980,2162698,2162698,-0.0011299,-0.00335184,0.00048202,0.00271651,-0.000934512,-0.0538856,5004,5004,0
653007446,653006402,2162698,2162698,-0.00163551,0.000687054,0.000108412,0.00122762,0.0113433,-0.0274871,5004,5004,0
653502784,653501820,2162698,2162698,-0.00085271,0.00106519,-0.000564619,-0.00402526,-0.00948491,-0.0425436,5004,5004,0
654003221,654002244,2162698,2162698,3.5998e-05,0.000451847,0.000216296,0.00243643,0.0175689,-0.0284664,4992,4992,0
654503641,654502665,2162698,2162698,-0.000183367,0.00324807,-0.000334625,-0.000193885,0.0121971,-0.0394129,5006,5006,0
655004056,655003085,2162698,2162698,-0.00119073,0.0019978,-0.0010716,-0.0121441,-0.00463399,-0.0688016,5004,5004,0
655504475,655503507,2162698,2162698,-0.000168899,0.000935475,-0.00105223,-0.00557348,0.00939795,-0.0812,5004,5004,0
656004900,656003929,2162698,2162698,-0.00130949,0.00121257,-0.000157002,-0.00120012,0.00267999,-0.0806441,5005,5005,0
656505324,656504351,2162698,2162698,-0.00212508,-0.00102664,0.000358416,0.00866095,-0.00374208,-0.0496318,5004,5004,0
657000731,656999768,2162698,2162698,-0.00290843,-0.0042295,0.000421342,0.00262501,0.000529934,-0.0583083,5004,5004,0
657501160,657500191,2162698,2162698,0.000216705,0.00130177,-0.000829273,-0.0136353,0.00521675,-0.0715154,5005,5005,0
658001575,658000613,2162698,2162698,0.0061859,-0.000371936,0.000192681,0.000970952,0.0067476,-0.0540325,5005,5005,0
658501998,658501035,2162698,2162698,0.000202633,-0.000591207,0.000346058,0.00474439,-0.00486903,-0.0199334,5004,5004,0
659002487,659001457,2162698,2162698,0.00108712,-0.000456875,0.000157701,-0.00317483,-0.0102119,-0.0415681,5004,5004,0
659502885,659501880,2162698,2162698,0.00110225,-0.000299132,0.000901217,0.00771346,-0.00118391,-0.0274555,5005,5005,0
660003278,660002304,2162698,2162698,0.00144828,0.000234887,-0.00502119,-0.00226466,-0.0147648,-0.0793515,4997,4997,0
660503703,660502725,2162698,2162698,0.00140873,-0.0005142,-0.00504551,0.00422808,0.00593808,-0.0346059,5003,5003,0
661004111,661003148,2162698,2162698,-0.00307332,-0.00028863,-0.00427123,0.000714351,0.0141115,-0.0580701,5005,5005,0
661504565,661503582,2162698,2162698,0.000410708,0.0011472,-0.00289315,-0.000121159,-0.00950849,-0.0478221,5015,5015,0
662004963,662003994,2162698,2162698,-0.00021155,-0.000189013,0.000653672,0.000484866,0.00566842,-0.0538538,5005,5005,0
662505402,662504417,2162698,2162698,-0.00121247,0.00217008,-0.000673349,-0.010635,0.00177323,-0.0788494,5003,5003,0
663005812,663004839,2162698,2162698,0.000550688,0.00163647,0.00049005,0.00388773,-0.0226669,-0.0432007,5001,5001,0
663506233,663505262,2162698,2162698,-0.000881393,0.000620404,-0.00060143,-0.00623693,0.00775435,-0.0830292,4990,4990,0
664001644,664000681,2162698,2162698,0.00283824,-0.000143998,-0.00362039,0.00198946,0.00854005,-0.0624368,5002,5002,0
664502111,664501104,2162698,2162698,-0.000113402,-0.000159486,-0.00417069,-0.00074883,-0.00857348,-0.0469549,5005,5005,0
665002491,665001526,2162698,2162698,0.0024137,-0.000401498,-0.0046195,0.00306804,-0.00945841,-0.0317226,5004,5004,0
665502915,665501950,2162698,2162698,0.00268402,-0.000163645,-5.13029e-06,0.000165562,0.00393756,-0.0455408,5005,5005,0
666003347,666002373,2162698,2162698,-0.000418522,-0.00153946,0.00118989,0.00642315,0.00103292,-0.0244006,5000,5000,0
666503813,666502795,2162698,2162698,-0.000137916,0.0010369,1.79176e-05,0.00210058,0.0131304,-0.048118,5004,5004,0
667004190,667003220,2162698,2162698,-0.000194279,0.0018091,-0.000557509,-0.00174776,-0.0112172,-0.0637607,5004,5004,0
667504613,667503644,2162698,2162698,-0.00658632,0.00114463,-0.000465287,-0.00813582,-0.00850226,-0.0849201,5007,5007,0
668005030,668004064,2162698,2162698,0.000254793,-0.00114974,0.000305076,0.000348349,-0.00244454,-0.0600936,5004,5004,0
668505487,668504506,2162698,2162698,0.00135772,-0.000571572,-0.000225851,-0.00294739,0.00803435,-0.052867,5023,5023,0
669005886,669004910,2162698,2162698,-0.0030939,-0.000928647,0.000142472,-0.00271788,-0.0196645,-0.0670201,5005,5005,0
669506317,669505333,2162698,2162698,0.00216415,0.00082597,-9.93609e-05,-0.00380752,0.0023468,-0.0620892,5005,5005,0
670006718,670005755,2162698,2162698,-0.00129865,0.000977903,-0.00107779,-0.00682193,0.00980709,-0.0702155,5004,5004,0
670507141,670506177,2162698,2162698,0.0023002,0.000767656,-0.000494692,-0.00392939,0.0119125,-0.0754214,5004,5004,0
671002560,671001596,2162698,2162698,-0.00829933,-0.000166263,0.000300814,-0.0045049,-0.0184917,-0.0589837,5005,5005,0
671502981,671502018,2162698,2162698,0.00250016,-0.00193619,0.000731258,0.00820077,0.000521763,-0.0462586,5005,5005,0
672003415,672002440,2162698,2162698,-0.000104235,-0.00109309,-8.75365e-06,-0.000232604,-0.00873148,-0.053125,5004,5004,0
672503828,672502861,2162698,2162698,0.00105783,0.000281271,0.000203141,-0.00355841,0.00673273,-0.0767895,5004,5004,0
673004250,673003285,2162698,2162698,0.000160512,-0.00108152,0.00372797,0.000944697,-0.00390364,-0.0232286,5004,5004,0
673504686,673503705,2162698,2162698,-0.000664178,-0.00121345,0.0072598,-0.00837186,-0.0125511,-0.0811087,5005,5005,0
674005126,674004126,2162698,2162698,0.00563604,-0.00035143,0.00736501,0.00044185,0.0100517,-0.0470477,5005,5005,0
674505526,674504555,2162698,2162698,-0.00761618,-0.000963363,-0.000302618,-0.00353187,-0.0130633,-0.0633885,5013,5013,0
675000931,674999962,2162698,2162698,0.000657094,-0.000100108,-0.00138739,-0.00167625,0.006406,-0.0400905,5004,5004,0
675501398,675500383,2162698,2162698,-0.000228103,-0.000200055,2.97974e-05,0.00739817,-0.0108912,-0.0308011,5005,5005,0
676001765,676000802,2162698,2162698,0.00263914,-0.000406669,-0.000314015,-0.00269794,0.00856376,-0.0533752,5004,5004,0
676502190,676501227,2162698,2162698,0.000277264,4.76028e-05,0.000405569,0.00277366,0.0168614,-0.0145406,5007,5007,0
677002646,677001682,2162698,2162698,0.00255452,-0.000326065,-0.000439867,-0.00151722,0.0121329,-0.057273,5043,5043,0
677503064,677502063,2162698,2162698,-0.000726675,-0.00136507,0.000556085,0.00409223,-0.00717279,-0.0242937,5004,5004,0
678003495,678002483,2162698,2162698,-0.00193489,-5.85953e-05,-8.68597e-05,-0.00164194,-0.000346807,-0.0706428,5002,5002,0
678503866,678502903,2162698,2162698,0.00434535,-0.000885976,5.73104e-05,0.00487063,0.0144059,-0.0230053,5001,5001,0
679004299,679003325,2162698,2162698,-0.00318446,-0.00139266,0.000144091,-0.00204692,-0.0232519,-0.0225346,4999,4999,0
679504713,679503743,2162698,2162698,0.000529167,0.000677583,0.000177588,-0.00305642,0.0153391,-0.0319855,4992,4992,0
680005126,680004162,2162698,2162698,-0.0022914,-0.00175722,0.000950131,0.00520995,-0.011049,-0.0205298,5004,5004,0
680505550,680504582,2162698,2162698,0.00224677,-0.000739898,4.74468e-05,-0.00274386,0.0171099,-0.0558571,5004,5004,0
681005970,681005001,2162698,2162698,0.000468105,9.75666e-05,4.35899e-05,-0.00470323,0.0300855,-0.0673479,5004,5004,0
681506391,681505420,2162698,2162698,0.00527931,0.000352535,-9.3054e-05,0.0051048,0.0132774,-0.0240273,5004,5004,0
682001813,682000835,2162698,2162698,-0.00217163,0.001873,-0.000806669,-0.0135489,-0.00183692,-0.0955558,4995,4995,0
682502225,682501254,2162698,2162698,0.000303753,0.00178799,-0.000791416,-0.00794535,-0.0181036,-0.0614433,5004,5004,0
683002636,683001673,2162698,2162698,0.00326053,-0.00123944,0.000743582,0.00455623,0.00938515,-0.044426,5000,5000,0
683503061,683502092,2162698,2162698,0.000141851,0.00220138,0.00266083,-0.0129154,0.00654378,-0.0677847,5005,5005,0
684003482,684002510,2162698,2162698,-0.00103687,-0.00157293,0.0026334,0.00357928,0.00811694,-0.0430434,5003,5003,0
684503963,684502936,2162698,2162698,-0.000293542,-0.00138384,0.000271683,-0.00106655,-0.00564922,-0.0213944,5011,5011,0
685004389,685003348,2162698,2162698,-0.000813629,0.000573879,-0.00139611,-0.00630904,-0.00724828,-0.0789615,5004,5004,0
685504767,685503766,2162698,2162698,0.000922835,-0.000722728,-0.000235272,-0.00082898,0.0130786,-0.060235,5004,5004,0
686005156,686004185,2162698,2162698,-0.0023892,0.000822979,-0.000517243,-0.00779399,0.00909748,-0.0493358,5004,5004,0
686505570,686504603,2162698,2162698,0.00264332,0.00138861,-0.000510335,-0.00403267,0.0161155,-0.0434464,5004,5004,0
687005984,687005021,2162698,2162698,-0.00178759,-0.000297915,-0.000139563,-0.00241999,-0.00345777,-0.0393019,5004,5004,0
687506444,687505456,2162698,2162698,-0.00168564,-0.000255872,0.000354559,-0.00082208,-0.00253751,-0.0543011,5021,5021,0
688006830,688005865,2162698,2162698,0.00149717,0.00149911,-0.000856186,-0.00525062,0.022611,-0.0749573,5012,5012,0
688507260,688506281,2162698,2162698,-0.00362717,-6.64954e-05,0.000463359,0.00409102,0.020964,-0.0422032,5001,5001,0
689002652,689001688,2162698,2162698,0.0029988,0.000162725,-4.48461e-05,0.00263832,0.0020349,-0.0431056,5004,5004,0
689503071,689502106,2162698,2162698,0.000626002,0.00380508,-0.000416669,-0.00266698,0.0212717,-0.033861,5004,5004,0
690003487,690002523,2162698,2162698,-0.000811865,0.000927844,-0.000153857,-0.003477,-0.00308263,-0.0411254,5004,5004,0
690503906,690502941,2162698,2162698,0.00254944,-0.000787835,-0.000695975,-0.00188881,0.00986432,-0.0521319,5005,5005,0
691004343,691003365,2162698,2162698,-0.000697789,-0.00151383,4.24468e-05,0.00379326,-0.0146578,-0.0548596,5011,5011,0
691504748,691503779,2162698,2162698,-0.000993982,-0.000145637,0.000147773,0.00364908,0.00304905,-0.0651494,5008,5008,0
692000162,691999189,2162698,2162698,-0.000684497,0.000423276,-0.000747014,-0.00749326,-0.00739121,-0.0765941,5005,5005,0
692500569,692499607,2162698,2162698,-0.001117,-0.0024375,0.00155672,0.00733278,-0.0184519,-0.0172629,5005,5005,0
693000990,693000024,2162698,2162698,-0.00133476,-0.00108907,0.000268786,-6.83633e-05,-0.00792444,-0.0531436,5004,5004,0
693501423,693500442,2162698,2162698,0.00718073,0.00382174,0.00230171,-0.0186158,0.0291525,-0.160811,5001,5001,0
694001823,694000859,2162698,2162698,0.00184363,-0.00112492,-0.000343663,0.00133556,-0.00103241,-0.0194034,4995,4995,0
694502251,694501284,2162698,2162698,0.000852774,-0.000302408,0.0004929,-0.0170915,-0.0217918,-0.030069,5008,5008,0
695007673,695006706,2162698,2162698,0.00195919,-0.00335183,-0.000393589,0.0184982,-0.00861394,-0.0723884,5011,5011,0
695503076,695502112,2162698,2162698,-0.00372444,0.00403181,0.000196074,-0.00400878,-0.00931806,-0.0802031,5004,5004,0
696003499,696002532,2162698,2162698,-0.00277282,0.00120772,0.000786721,-0.00199699,0.0108803,-0.081419,5006,5006,0
696503914,696502948,2162698,2162698,-0.00580961,0.00233025,-0.000952503,-0.0145451,0.0117171,-0.0205956,5004,5004,0
697004348,697003368,2162698,2162698,0.0012749,0.00146816,0.000675945,0.00591765,0.0172593,-0.0545983,5006,5006,0
697504747,697503784,2162698,2162698,7.33122e-06,3.71819e-05,-0.000275677,-0.00156578,-0.00183252,-0.0510341,5003,5003,0
