timestamp,roll,pitch,yaw,thrust_body[0],thrust_body[1],thrust_body[2]
565001488,-0.0584758,0.252914,-0.0028805,0.0,0.0,-0.0327273
565006489,-0.0592152,0.253588,-0.00235373,0.0,0.0,-0.0327273
565021503,-0.0573316,0.255805,-0.00125156,0.0,0.0,-0.0327273
565041538,-0.0643754,0.252374,-0.00356419,0.0,0.0,-0.0315152
565066540,-0.0477178,0.257876,-0.00322994,0.0,0.0,-0.0315152
565086579,-0.0698016,0.259899,-3.26762e-05,0.0,0.0,-0.0315152
565101563,-0.0468426,0.256607,-0.00407166,0.0,0.0,-0.0327273
565121639,-0.0697745,0.259804,0.00299978,0.0,0.0,-0.107491
565146600,-0.0768153,0.254457,-0.000749853,0.0,0.0,-0.107491
565166675,-0.0515663,0.251979,0.000499115,0.0,0.0,-0.107491
565181622,-0.0739502,0.260334,0.00202409,0.0,0.0,-0.106473
565206702,-0.0735057,0.254244,-0.00184249,0.0,0.0,-0.106473
565226674,-0.0416373,0.254829,0.00142002,0.0,0.0,-0.106473
565241685,-0.0714411,0.260454,0.00109435,0.0,0.0,-0.107491
565261687,-0.0567453,0.243495,-0.00117017,0.0,0.0,-0.107491
565286718,-0.0395022,0.24711,0.00160934,0.0,0.0,-0.107491
565301735,-0.0674929,0.250516,0.002095,0.0,0.0,-0.107491
565321763,-0.0743475,0.235959,0.00241054,0.0,0.0,-0.107491
565341763,-0.0752642,0.244964,0.00367228,0.0,0.0,-0.107491
565366843,-0.0968498,0.243373,0.00258952,0.0,0.0,-0.107491
565381889,-0.0854643,0.240692,0.00213824,0.0,0.0,-0.106473
565401822,-0.103228,0.234664,0.000648804,0.0,0.0,-0.106473
565426908,-0.124805,0.239763,-0.000154661,0.0,0.0,-0.106473
565446884,-0.133324,0.233923,-0.000890338,0.0,0.0,-0.107491
565461897,-0.133897,0.227343,-0.000748362,0.0,0.0,-0.107491
565481892,-0.137356,0.225327,-0.000259548,0.0,0.0,-0.106473
565506910,-0.164161,0.227887,-0.00223685,0.0,0.0,-0.107491
565521931,-0.152014,0.225572,0.00140784,0.0,0.0,-0.107491
565542004,-0.15964,0.222076,0.00045919,0.0,0.0,-0.107491
565566982,-0.185158,0.245698,-0.000758616,0.0,0.0,-0.107491
565581994,-0.169332,0.219392,-0.00216078,0.0,0.0,-0.107491
565602016,-0.179553,0.218009,-0.00394895,0.0,0.0,-0.107491
565622050,-0.192074,0.219776,-0.00552379,0.0,0.0,-0.107491
565647034,-0.209055,0.239133,-0.00141263,0.0,0.0,-0.107491
565662055,-0.204315,0.221368,-0.00734624,0.0,0.0,-0.107491
565682056,-0.225541,0.224401,-0.00685006,0.0,0.0,-0.107491
565707160,-0.237613,0.240989,-0.00100715,0.0,0.0,-0.107491
565722117,-0.243417,0.232101,-0.00551346,0.0,0.0,-0.107491
565742127,-0.26258,0.236515,-0.00475165,0.0,0.0,-0.107491
565762126,-0.265038,0.240128,-0.00406379,0.0,0.0,-0.107491
565787143,-0.264068,0.237356,9.73275e-05,0.0,0.0,-0.108509
565802161,-0.281641,0.243075,-0.00329881,0.0,0.0,-0.108509
565822230,-0.267806,0.238915,-0.0040733,0.0,0.0,-0.107491
565842196,-0.268673,0.234228,-0.00506917,0.0,0.0,-0.107491
565867267,-0.238745,0.222647,-0.00574234,0.0,0.0,-0.107491
565882236,-0.255348,0.222521,-0.00706276,0.0,0.0,-0.107491
565902296,-0.240683,0.220533,-0.00814749,0.0,0.0,-0.107491
565927308,-0.221106,0.222164,-0.00747457,0.0,0.0,-0.107491
565942306,-0.215547,0.221121,-0.00945468,0.0,0.0,-0.107491
565962335,-0.211119,0.224575,-0.00886111,0.0,0.0,-0.107491
565982348,-0.204712,0.226562,-0.00858593,0.0,0.0,-0.107491
566007392,-0.202719,0.215734,-0.00784851,0.0,0.0,-0.107491
566022390,-0.183175,0.23493,-0.00765175,0.0,0.0,-0.107491
566042419,-0.16763,0.23446,-0.00807485,0.0,0.0,-0.107491
566067446,-0.146105,0.204029,-0.00651857,0.0,0.0,-0.107491
566082437,-0.155573,0.244946,-0.00895619,0.0,0.0,-0.107491
566102465,-0.140286,0.248062,-0.00897136,0.0,0.0,-0.107491
566122512,-0.119917,0.24963,-0.00966561,0.0,0.0,-0.107491
566147548,-0.0929281,0.216178,-0.00860008,0.0,0.0,-0.107491
566162539,-0.110662,0.240183,-0.0110436,0.0,0.0,-0.107491
566182518,-0.0995675,0.233409,-0.0120298,0.0,0.0,-0.107491
566207576,-0.104021,0.216692,-0.0118915,0.0,0.0,-0.107491
566222557,-0.115956,0.218751,-0.0141748,0.0,0.0,-0.107491
566242580,-0.12338,0.212614,-0.0151464,0.0,0.0,-0.107491
566262647,-0.133922,0.207457,-0.0159038,0.0,0.0,-0.107491
566282650,-0.147368,0.204276,-0.0167059,0.0,0.0,-0.107491
566302629,-0.163977,0.202636,-0.0169635,0.0,0.0,-0.107491
566322690,-0.182885,0.204269,-0.0166403,0.0,0.0,-0.107491
566347658,-0.200003,0.210024,-0.0120922,0.0,0.0,-0.107491
566362666,-0.208502,0.211715,-0.0155477,0.0,0.0,-0.107491
566382688,-0.221626,0.218362,-0.0142628,0.0,0.0,-0.122764
566402726,-0.241088,0.22652,-0.0132313,0.0,0.0,-0.122764
566427718,-0.207781,0.215618,-0.0100883,0.0,0.0,-0.134982
566442746,-0.220043,0.223962,-0.0119018,0.0,0.0,-0.134982
566462756,-0.199606,0.216549,-0.0125149,0.0,0.0,-0.134982
566482788,-0.175628,0.207351,-0.0138531,0.0,0.0,-0.134982
566502843,-0.146988,0.200193,-0.0158182,0.0,0.0,-0.1472
566522910,-0.132041,0.200174,-0.017249,0.0,0.0,-0.150255
566542885,-0.110943,0.202819,-0.0185621,0.0,0.0,-0.150255
566562846,-0.113043,0.200552,-0.0184335,0.0,0.0,-0.152291
566582860,-0.103138,0.193791,-0.018279,0.0,0.0,-0.152291
566602900,-0.0702191,0.168694,-0.0175472,0.0,0.0,-0.152291
566622882,-0.0420017,0.14301,-0.0179798,0.0,0.0,-0.155345
566642912,-0.0117654,0.132702,-0.0170165,0.0,0.0,-0.159418
566662927,-0.0126822,0.141155,-0.0161436,0.0,0.0,-0.161455
566683005,-0.0270664,0.156258,-0.0157977,0.0,0.0,-0.162473
566702952,-0.0554159,0.154907,-0.0144427,0.0,0.0,-0.192
566722994,-0.0587943,0.133475,-0.0139567,0.0,0.0,-0.192
566743011,-0.0472501,0.111795,-0.0157934,0.0,0.0,-0.202182
566763026,-0.0779574,0.119933,-0.017881,0.0,0.0,-0.204218
566783042,-0.128473,0.157401,-0.0199135,0.0,0.0,-0.209309
566803054,-0.183629,0.163082,-0.0205786,0.0,0.0,-0.232727
566823130,-0.19579,0.149494,-0.0239903,0.0,0.0,-0.242909
566843092,-0.223824,0.172869,-0.0289161,0.0,0.0,-0.251055
566863163,-0.28892,0.174121,-0.0320657,0.0,0.0,-0.255127
566883127,-0.361231,0.133903,-0.0331008,0.0,0.0,-0.257164
566903189,-0.383753,0.122215,-0.0352184,0.0,0.0,-0.257164
566923158,-0.416207,0.0910602,-0.0384419,0.0,0.0,-0.257164
566943293,-0.47414,0.0708644,-0.0391711,0.0,0.0,-0.257164
566963193,-0.478133,0.018945,-0.0435181,0.0,0.0,-0.257164
566983218,-0.468427,-0.0108629,-0.0506516,0.0,0.0,-0.257164
567003230,-0.465218,-0.0403236,-0.0593577,0.0,0.0,-0.256145
567023284,-0.461448,-0.0552866,-0.0661006,0.0,0.0,-0.257164
567043283,-0.426811,-0.113207,-0.075891,0.0,0.0,-0.257164
567063298,-0.369825,-0.116896,-0.0884733,0.0,0.0,-0.256145
567083318,-0.3239,-0.13406,-0.0989507,0.0,0.0,-0.257164
567103367,-0.269502,-0.160527,-0.107257,0.0,0.0,-0.257164
567123367,-0.188659,-0.205226,-0.114933,0.0,0.0,-0.257164
567143379,-0.107468,-0.214975,-0.126826,0.0,0.0,-0.257164
567163381,-0.0523622,-0.211534,-0.131762,0.0,0.0,-0.256145
567183408,0.0154405,-0.263609,-0.136671,0.0,0.0,-0.257164
567203442,0.109569,-0.257197,-0.145402,0.0,0.0,-0.257164
567223456,0.14356,-0.257807,-0.147141,0.0,0.0,-0.257164
567243451,0.198037,-0.272529,-0.148303,0.0,0.0,-0.257164
567263467,0.230251,-0.247507,-0.149511,0.0,0.0,-0.257164
567283474,0.238882,-0.243368,-0.148244,0.0,0.0,-0.257164
567303500,0.28106,-0.227378,-0.150031,0.0,0.0,-0.257164
567323507,0.286387,-0.160002,-0.15229,0.0,0.0,-0.256145
567343545,0.276897,-0.153193,-0.151978,0.0,0.0,-0.257164
567363563,0.288319,-0.0983008,-0.155096,0.0,0.0,-0.257164
567383611,0.284945,-0.065128,-0.15288,0.0,0.0,-0.257164
567403592,0.289469,-0.0457634,-0.152625,0.0,0.0,-0.257164
567423618,0.27459,0.00811598,-0.151896,0.0,0.0,-0.257164
567443622,0.27445,0.00882211,-0.150957,0.0,0.0,-0.256145
567463688,0.257839,0.042745,-0.151794,0.0,0.0,-0.255127
567483650,0.230614,0.0516557,-0.148404,0.0,0.0,-0.262255
567503678,0.204882,0.0703942,-0.146148,0.0,0.0,-0.250036
567523733,0.16812,0.087431,-0.141798,0.0,0.0,-0.250036
567543714,0.138491,0.10664,-0.139586,0.0,0.0,-0.250036
567563765,0.109238,0.11744,-0.133983,0.0,0.0,-0.251055
567583749,0.0867614,0.0999509,-0.131368,0.0,0.0,-0.251055
567603775,0.0511503,0.133596,-0.130218,0.0,0.0,-0.253091
567623783,-0.00133991,0.121968,-0.126703,0.0,0.0,-0.254109
567643814,-0.00414768,0.0912233,-0.126292,0.0,0.0,-0.253091
567663817,-0.0251476,0.0881799,-0.128057,0.0,0.0,-0.255127
567683893,-0.0581699,0.0627548,-0.125839,0.0,0.0,-0.255127
567703856,-0.0768002,0.0268808,-0.121468,0.0,0.0,-0.254109
567723970,-0.0540694,-0.0195137,-0.12174,0.0,0.0,-0.255127
567743903,-0.0599807,-0.0148713,-0.120985,0.0,0.0,-0.255127
567763922,-0.0576308,-0.0568641,-0.122754,0.0,0.0,-0.254109
567783929,-0.039525,-0.0879318,-0.124445,0.0,0.0,-0.255127
567803962,-0.0322333,-0.108934,-0.126632,0.0,0.0,-0.255127
567823951,-0.00931982,-0.123286,-0.126977,0.0,0.0,-0.255127
567843967,0.000656328,-0.151754,-0.12465,0.0,0.0,-0.255127
567863982,0.0455585,-0.161987,-0.127021,0.0,0.0,-0.254109
567884012,0.0513564,-0.164045,-0.122071,0.0,0.0,-0.255127
567904023,0.0745617,-0.19833,-0.118444,0.0,0.0,-0.255127
567924044,0.102975,-0.199827,-0.119479,0.0,0.0,-0.255127
567944041,0.0967931,-0.187502,-0.114046,0.0,0.0,-0.255127
567964084,0.103459,-0.211986,-0.110204,0.0,0.0,-0.255127
567984113,0.147213,-0.183837,-0.11285,0.0,0.0,-0.255127
568004114,0.137369,-0.157666,-0.105658,0.0,0.0,-0.255127
568024117,0.162055,-0.151975,-0.102458,0.0,0.0,-0.255127
568044142,0.167214,-0.111724,-0.0985075,0.0,0.0,-0.255127
568064146,0.159248,-0.0959501,-0.0917304,0.0,0.0,-0.255127
568084177,0.182668,-0.0880133,-0.0894328,0.0,0.0,-0.254109
568104182,0.169983,-0.0536518,-0.0848336,0.0,0.0,-0.255127
568124214,0.155337,-0.0571095,-0.0806617,0.0,0.0,-0.256145
568144229,0.152979,-0.0521938,-0.079829,0.0,0.0,-0.256145
568164282,0.127868,-0.0110687,-0.0767731,0.0,0.0,-0.256145
568184299,0.0977331,-0.0272675,-0.0739272,0.0,0.0,-0.257164
568204386,0.0933911,-0.00409507,-0.0748815,0.0,0.0,-0.256145
568224359,0.0805999,0.0303255,-0.0704832,0.0,0.0,-0.256145
568244421,0.0687834,0.0104501,-0.0677793,0.0,0.0,-0.256145
568264344,0.0529022,0.0510096,-0.067047,0.0,0.0,-0.256145
568284364,0.0464487,0.0535373,-0.0666837,0.0,0.0,-0.258182
568304430,0.0476404,0.0527736,-0.0664471,0.0,0.0,-0.258182
568324412,0.0336995,0.0642583,-0.0685446,0.0,0.0,-0.257164
568344454,0.0269869,0.0647243,-0.0693462,0.0,0.0,-0.258182
568364439,0.0275181,0.0561627,-0.0674703,0.0,0.0,-0.2592
568384464,0.0255179,0.0562848,-0.070862,0.0,0.0,-0.2592
568404472,-0.0139659,0.0660095,-0.068808,0.0,0.0,-0.2704
568424497,-0.0212267,0.0347828,-0.0677047,0.0,0.0,-0.262255
568444502,-8.87401e-05,0.0434383,-0.0724833,0.0,0.0,-0.262255
568464576,-0.0491875,0.0531966,-0.0728325,0.0,0.0,-0.265309
568484548,-0.0529435,0.0303887,-0.0735301,0.0,0.0,-0.265309
568504649,-0.060473,0.0431932,-0.0754659,0.0,0.0,-0.266327
568524581,-0.0701786,0.0313697,-0.0738473,0.0,0.0,-0.267345
568544592,-0.0723809,0.028409,-0.0725366,0.0,0.0,-0.273455
568564604,-0.0679967,4.31575e-05,-0.0715346,0.0,0.0,-0.273455
568584653,-0.0677017,0.0231856,-0.0731086,0.0,0.0,-0.293818
568604633,-0.0873835,0.00331484,-0.0699194,0.0,0.0,-0.298909
568624672,-0.0402526,-0.00648007,-0.0723859,0.0,0.0,-0.298909
568644683,-0.0295914,0.0157032,-0.0731736,0.0,0.0,-0.300945
568664708,-0.0293755,-0.00492521,-0.0710226,0.0,0.0,-0.306036
568684714,0.00284084,-0.0177745,-0.0690534,0.0,0.0,-0.308073
568704733,0.0278886,-0.027982,-0.0680061,0.0,0.0,-0.308073
568724735,0.0440965,-0.055849,-0.0639044,0.0,0.0,-0.308073
568744772,0.0822205,-0.0755851,-0.0642838,0.0,0.0,-0.308073
568764801,0.0963203,-0.085626,-0.0598677,0.0,0.0,-0.310109
568784792,0.114652,-0.123286,-0.0599586,0.0,0.0,-0.310109
568799804,0.127057,-0.131749,-0.058712,0.0,0.0,-0.310109
568824826,0.129126,-0.157473,-0.0512173,0.0,0.0,-0.310109
568844831,0.132633,-0.165273,-0.0488972,0.0,0.0,-0.310109
568864872,0.116847,-0.190541,-0.0424513,0.0,0.0,-0.311127
568884880,0.12099,-0.21041,-0.04035,0.0,0.0,-0.311127
568904896,0.106215,-0.217093,-0.0345605,0.0,0.0,-0.321309
568924901,0.0961235,-0.230283,-0.0328594,0.0,0.0,-0.324364
568939909,0.0781466,-0.227722,-0.0316803,0.0,0.0,-0.323345
568964936,0.0542204,-0.211746,-0.0278839,0.0,0.0,-0.323345
568984967,0.0455574,-0.195642,-0.0256474,0.0,0.0,-0.323345
569005026,0.0147571,-0.174437,-0.0223922,0.0,0.0,-0.323345
569025026,0.0118914,-0.152589,-0.0225457,0.0,0.0,-0.323345
569045054,-0.00246951,-0.129918,-0.0193954,0.0,0.0,-0.324364
569065036,-0.00889837,-0.113421,-0.0216769,0.0,0.0,-0.324364
569085054,-0.0350852,-0.0808139,-0.0201302,0.0,0.0,-0.327418
569105072,-0.0512143,-0.0718871,-0.0192775,0.0,0.0,-0.330473
569125124,-0.0657756,-0.0363677,-0.0214732,0.0,0.0,-0.329455
569145107,-0.076907,-0.0337057,-0.0172396,0.0,0.0,-0.333527
569165127,-0.0589234,-0.0121135,-0.0220971,0.0,0.0,-0.333527
569185150,-0.095259,0.00842955,-0.0214467,0.0,0.0,-0.330473
569205171,-0.085658,0.0122338,-0.0228035,0.0,0.0,-0.331491
569225178,-0.0999838,0.0054358,-0.0235591,0.0,0.0,-0.331491
569245252,-0.0959371,0.00414327,-0.0244427,0.0,0.0,-0.330473
569265216,-0.081818,-0.0234993,-0.0247572,0.0,0.0,-0.332509
569285294,-0.0773758,-0.0207295,-0.0242018,0.0,0.0,-0.343709
569300281,-0.0675585,-0.0237149,-0.0250569,0.0,0.0,-0.336582
569325277,-0.0413964,-0.0386349,-0.0267261,0.0,0.0,-0.340655
569345295,-0.0136033,-0.064932,-0.0258261,0.0,0.0,-0.341673
569365343,0.00673343,-0.0712434,-0.026326,0.0,0.0,-0.357964
569385339,0.0261439,-0.0778264,-0.0243681,0.0,0.0,-0.357964
569405361,0.0720943,-0.0693333,-0.0279423,0.0,0.0,-0.357964
569425372,0.0887431,-0.0692135,-0.0258319,0.0,0.0,-0.364073
569440376,0.10079,-0.0725874,-0.0257339,0.0,0.0,-0.368145
569465418,0.108598,-0.0521665,-0.0254122,0.0,0.0,-0.369164
569485428,0.12869,-0.0393989,-0.0282572,0.0,0.0,-0.370182
569500436,0.122592,-0.0301472,-0.0260003,0.0,0.0,-0.370182
569525464,0.119634,-0.012563,-0.0246865,0.0,0.0,-0.370182
569545478,0.112149,-0.00108791,-0.0234112,0.0,0.0,-0.370182
569565492,0.108629,0.00508904,-0.0222355,0.0,0.0,-0.370182
569580502,0.103946,0.0139482,-0.0215479,0.0,0.0,-0.370182
569605520,0.0780545,0.0272418,-0.0198293,0.0,0.0,-0.374255
569625553,0.0511045,0.0312331,-0.0161238,0.0,0.0,-0.390545
569645559,0.0390367,0.0538045,-0.0154747,0.0,0.0,-0.399709
569665575,0.0103671,0.0437988,-0.01108,0.0,0.0,-0.399709
569685588,0.00328648,0.0671195,-0.0118441,0.0,0.0,-0.402764
569705595,-0.0170828,0.0485273,-0.00871421,0.0,0.0,-0.4048
569720604,-0.0183145,0.0443925,-0.00914932,0.0,0.0,-0.4048
569745622,-0.0218791,0.0170622,-0.0069383,0.0,0.0,-0.4048
569765652,-0.0367568,0.00569158,-0.0041629,0.0,0.0,-0.403782
569785704,-0.0214639,0.0124319,-0.00433891,0.0,0.0,-0.405818
569805707,-0.0121034,0.00630448,-0.0022658,0.0,0.0,-0.405818
569825739,0.00295024,0.01749,-0.00170607,0.0,0.0,-0.405818
569845723,0.00379484,0.012741,0.000117741,0.0,0.0,-0.405818
569860735,-0.00116582,0.0150898,9.77893e-05,0.0,0.0,-0.408873
569885866,-0.0022343,0.00806558,0.000818573,0.0,0.0,-0.408873
569905850,-0.00799673,-0.00856322,0.00157507,0.0,0.0,-0.408873
569925850,0.0127122,-0.0118947,0.00274398,0.0,0.0,-0.408873
569940844,0.0167889,-0.0249297,0.00365941,0.0,0.0,-0.407855
569965831,0.0499935,-0.0446543,0.00482714,0.0,0.0,-0.408873
569985909,0.0470746,-0.0532837,0.00615036,0.0,0.0,-0.411927
570000885,0.0546977,-0.0536925,0.00598095,0.0,0.0,-0.419055
570025913,0.0500656,-0.0592263,0.00652247,0.0,0.0,-0.433309
570045898,0.051809,-0.0741984,0.00775591,0.0,0.0,-0.434327
570065960,0.0520105,-0.0598269,0.00818268,0.0,0.0,-0.433309
570080915,0.0444045,-0.0606429,0.0108344,0.0,0.0,-0.433309
570105969,0.0351316,-0.0463847,0.0127861,0.0,0.0,-0.433309
570125970,0.0230288,-0.0261249,0.0141751,0.0,0.0,-0.434327
570140967,0.0153859,-0.0334731,0.0168562,0.0,0.0,-0.434327
570166008,0.00198719,-0.0519769,0.0174614,0.0,0.0,-0.436364
570186030,0.00605171,-0.0892299,0.0156858,0.0,0.0,-0.435345
570201129,-0.0255629,-0.0765846,0.0166653,0.0,0.0,-0.437382
570221038,-0.0501588,-0.091101,0.0155269,0.0,0.0,-0.441455
570246055,-0.04846,-0.102691,0.0146208,0.0,0.0,-0.450618
570266092,-0.0423044,-0.134549,0.015102,0.0,0.0,-0.450618
570281101,-0.029914,-0.132866,0.0137583,0.0,0.0,-0.451636
570306123,-0.0101417,-0.132683,0.0130673,0.0,0.0,-0.457745
570326138,0.00166556,-0.140966,0.0142415,0.0,0.0,-0.457745
570341156,0.0145161,-0.1242,0.0129836,0.0,0.0,-0.458764
570361161,0.0336505,-0.115112,0.0154813,0.0,0.0,-0.461818
570386191,0.054251,-0.0936124,0.0163663,0.0,0.0,-0.461818
570406195,0.0736688,-0.0542258,0.0172116,0.0,0.0,-0.461818
570421203,0.0734473,-0.0452749,0.0199311,0.0,0.0,-0.461818
570441240,0.0833742,-0.0151466,0.0195907,0.0,0.0,-0.461818
570466274,0.0746393,-0.026299,0.0227532,0.0,0.0,-0.461818
570486277,0.0537565,-0.0171883,0.0229779,0.0,0.0,-0.461818
570501291,0.034536,-0.0306271,0.0275919,0.0,0.0,-0.461818
570526330,-0.00781684,-0.0398002,0.0314775,0.0,0.0,-0.461818
570546341,-0.0189003,-0.0229795,0.0322192,0.0,0.0,-0.461818
570561374,-0.0334863,-0.0226743,0.0346714,0.0,0.0,-0.461818
570581361,-0.0348658,0.00495406,0.0339208,0.0,0.0,-0.461818
570606436,-0.0470474,0.0192305,0.0358805,0.0,0.0,-0.458764
570626418,-0.0609937,0.0407772,0.0348601,0.0,0.0,-0.466909
570641424,-0.0682146,0.0354168,0.0365588,0.0,0.0,-0.462836
570666470,-0.0475294,0.0386747,0.0354197,0.0,0.0,-0.462836
570686466,-0.0488526,0.0447565,0.0341403,0.0,0.0,-0.4608
570701533,-0.0356005,0.0524735,0.0337756,0.0,0.0,-0.4608
570721591,-0.0236124,0.0730568,0.0333009,0.0,0.0,-0.4608
570746524,-0.0766471,0.0968741,0.0324102,0.0,0.0,-0.4608
570766602,-0.0517537,0.100737,0.0323253,0.0,0.0,-0.4608
570781591,-0.110778,0.107081,0.0319284,0.0,0.0,-0.461818
570806601,-0.087701,0.104114,0.0319801,0.0,0.0,-0.462836
570826589,-0.133967,0.0927715,0.0307523,0.0,0.0,-0.461818
570841620,-0.144371,0.0867084,0.0309632,0.0,0.0,-0.462836
570861623,-0.160214,0.0769107,0.0309727,0.0,0.0,-0.462836
570886639,-0.183089,0.079486,0.0313217,0.0,0.0,-0.462836
570901691,-0.17955,0.0708453,0.0328672,0.0,0.0,-0.462836
570921662,-0.190411,0.0645296,0.0332065,0.0,0.0,-0.462836
570941749,-0.184792,0.0526234,0.0353635,0.0,0.0,-0.475055
570966710,-0.142157,0.0326994,0.035018,0.0,0.0,-0.475055
570981761,-0.085868,0.0276662,0.0345797,0.0,0.0,-0.462836
571001732,-0.0323224,0.0047143,0.0359501,0.0,0.0,-0.462836
571026771,0.123667,-0.0156978,0.0355385,0.0,0.0,-0.464873
571046776,0.192717,-0.036182,0.0359884,0.0,0.0,-0.459782
571061858,0.267453,-0.208825,0.032807,0.0,0.0,-0.463855
571081802,0.361442,-0.35363,0.0319928,0.0,0.0,-0.463855
571106827,0.367748,-0.379695,0.0326387,0.0,0.0,-0.463855
571121825,0.374041,-0.398443,0.0312419,0.0,0.0,-0.463855
571141869,0.26571,-0.403919,0.0337284,0.0,0.0,-0.463855
571166893,0.244416,-0.382195,0.0344082,0.0,0.0,-0.463855
571181900,0.195292,-0.336653,0.0349975,0.0,0.0,-0.463855
571201920,0.117088,-0.38527,0.0369571,0.0,0.0,-0.463855
571221946,0.0796823,-0.329046,0.0394211,0.0,0.0,-0.463855
571246958,0.038431,-0.244833,0.0387058,0.0,0.0,-0.465891
571261968,0.0363105,-0.356843,0.0386172,0.0,0.0,-0.464873
571281966,0.0116696,-0.353563,0.0413171,0.0,0.0,-0.465891
571307007,0.0222784,-0.339794,0.0417855,0.0,0.0,-0.464873
571322050,0.0283286,-0.310384,0.0432908,0.0,0.0,-0.465891
571342042,0.0342829,-0.314778,0.0431439,0.0,0.0,-0.464873
571362035,0.0685124,-0.276889,0.0429113,0.0,0.0,-0.464873
571387112,0.0885055,-0.246558,0.0446013,0.0,0.0,-0.465891
571402071,0.101483,-0.213882,0.0432008,0.0,0.0,-0.465891
571422112,0.0958178,-0.186926,0.0443355,0.0,0.0,-0.463855
571447134,0.0902471,-0.145589,0.0444397,0.0,0.0,-0.463855
571462152,0.0848844,-0.116854,0.0443189,0.0,0.0,-0.463855
571482151,0.0713717,-0.106073,0.0460829,0.0,0.0,-0.463855
571502183,0.0519995,-0.0974491,0.0482636,0.0,0.0,-0.463855
571527201,0.0139966,-0.108884,0.0509347,0.0,0.0,-0.463855
571542207,0.00277459,-0.0993898,0.0511724,0.0,0.0,-0.461818
571562277,-0.00796449,-0.0984923,0.0543803,0.0,0.0,-0.461818
571582284,-0.00600508,-0.0807259,0.0552839,0.0,0.0,-0.462836
571602292,-0.0287463,-0.0676026,0.0561505,0.0,0.0,-0.462836
571622292,-0.019595,-0.0616866,0.0562363,0.0,0.0,-0.466909
571642345,-0.0113198,-0.0504604,0.0544316,0.0,0.0,-0.4832
571667363,-0.0110227,-0.017837,0.0536462,0.0,0.0,-0.4832
571682410,-0.000928532,-0.00747271,0.0519187,0.0,0.0,-0.4832
571702372,-0.0104783,0.00593065,0.0501563,0.0,0.0,-0.4832
571722397,-0.0138503,-0.00240912,0.0467799,0.0,0.0,-0.4832
571747426,-0.00687289,-0.00738669,0.0460289,0.0,0.0,-0.4832
571762449,-0.0401379,-0.0178455,0.0476636,0.0,0.0,-0.484218
571782429,-0.0402266,-0.0328893,0.0454993,0.0,0.0,-0.485236
571807480,-0.063921,-0.0262723,0.0454403,0.0,0.0,-0.485236
571822464,-0.0779809,-0.0319939,0.0436962,0.0,0.0,-0.485236
571842526,-0.0683414,-0.0477057,0.043782,0.0,0.0,-0.485236
571862490,-0.0205657,-0.118397,0.0419721,0.0,0.0,-0.484218
571887549,-0.103774,0.100932,0.0432548,0.0,0.0,-0.484218
571902524,-0.105453,0.264224,0.0399256,0.0,0.0,-0.484218
571922552,-0.115704,0.562556,0.0390897,0.0,0.0,-0.484218
571947595,-0.0902298,0.70706,0.0340907,0.0,0.0,-0.486255
571962580,-0.075519,0.801397,0.0316177,0.0,0.0,-0.484218
571982607,-0.0592911,0.774988,0.0320515,0.0,0.0,-0.485236
572002623,-0.0243961,0.732138,0.0318148,0.0,0.0,-0.484218
572027643,0.0135859,0.646063,0.0316153,0.0,0.0,-0.485236
572042645,0.0465365,0.575139,0.0304841,0.0,0.0,-0.485236
572062649,0.0864084,0.476151,0.0319618,0.0,0.0,-0.484218
572087727,0.108454,0.326095,0.0311987,0.0,0.0,-0.485236
572102690,0.0996513,0.242095,0.0301609,0.0,0.0,-0.485236
572122718,0.104301,0.121357,0.0315279,0.0,0.0,-0.485236
572142720,0.0902832,0.0202946,0.0326261,0.0,0.0,-0.485236
572167771,0.0639258,-0.0889351,0.034358,0.0,0.0,-0.484218
572182766,0.0657614,-0.135829,0.0348947,0.0,0.0,-0.484218
572202807,0.0516497,-0.165863,0.0349303,0.0,0.0,-0.484218
572222790,0.0411317,-0.17804,0.0361493,0.0,0.0,-0.484218
572242821,0.0340427,-0.184816,0.0388408,0.0,0.0,-0.485236
572262825,0.0134416,-0.165225,0.041247,0.0,0.0,-0.485236
572282864,-0.0219694,-0.128451,0.0425582,0.0,0.0,-0.484218
572302905,-0.0369855,-0.0895567,0.0440713,0.0,0.0,-0.485236
572322904,-0.0539175,-0.0426656,0.0456669,0.0,0.0,-0.484218
572342920,-0.0288299,0.00299891,0.0476966,0.0,0.0,-0.484218
572362948,-0.0167827,0.0555101,0.0482525,0.0,0.0,-0.485236
572382948,-0.0142916,0.109612,0.0466632,0.0,0.0,-0.485236
572403017,0.00907087,0.145318,0.0456362,0.0,0.0,-0.484218
572423134,0.0267472,0.320787,0.0454472,0.0,0.0,-0.485236
572448024,0.0493222,0.522598,0.0430856,0.0,0.0,-0.484218
572463132,0.0549632,0.589429,0.0430131,0.0,0.0,-0.484218
572483043,0.0471339,0.593281,0.0415244,0.0,0.0,-0.484218
572503050,0.0282544,0.540742,0.0409924,0.0,0.0,-0.484218
572523070,0.0026239,0.415575,0.0400411,0.0,0.0,-0.484218
572543099,-0.0313531,0.14332,0.0382309,0.0,0.0,-0.484218
572563102,-0.0461521,-0.101775,0.0378334,0.0,0.0,-0.484218
572588123,-0.0570006,-0.167914,0.0348415,0.0,0.0,-0.484218
572603142,-0.0560634,-0.211666,0.0342326,0.0,0.0,-0.484218
572623169,-0.0646048,-0.234666,0.0318431,0.0,0.0,-0.484218
572643158,-0.0639161,-0.240222,0.0308324,0.0,0.0,-0.484218
572663189,-0.0547259,-0.218562,0.0298715,0.0,0.0,-0.485236
572683194,-0.0373213,-0.18033,0.029015,0.0,0.0,-0.485236
572703264,-0.0276493,-0.134356,0.0271332,0.0,0.0,-0.485236
572723231,-0.0259182,-0.0961876,0.0273646,0.0,0.0,-0.485236
572743261,0.00249222,-0.061681,0.0291331,0.0,0.0,-0.484218
572763277,0.0418735,-0.0435501,0.0294909,0.0,0.0,-0.484218
572783302,0.0552936,-0.0385689,0.029271,0.0,0.0,-0.485236
572803313,0.044878,-0.0457022,0.0298839,0.0,0.0,-0.485236
572823350,0.0687817,-0.0604579,0.0317651,0.0,0.0,-0.484218
572843383,0.0791078,-0.0813451,0.0327155,0.0,0.0,-0.484218
572863379,0.0663183,-0.0907006,0.0326804,0.0,0.0,-0.484218
572883398,0.0687517,-0.0856389,0.0308055,0.0,0.0,-0.485236
572903409,0.0850788,-0.0882428,0.0312253,0.0,0.0,-0.485236
572923428,0.098994,-0.0895799,0.0312597,0.0,0.0,-0.485236
572943450,0.103758,-0.0821631,0.0318803,0.0,0.0,-0.485236
572963454,0.110048,-0.0759066,0.0310835,0.0,0.0,-0.485236
572983489,0.109861,-0.0720271,0.0314693,0.0,0.0,-0.484218
573003528,0.109689,-0.0747553,0.0337901,0.0,0.0,-0.484218
573023514,0.0972363,-0.0773944,0.0364085,0.0,0.0,-0.484218
573043531,0.0756224,-0.0777151,0.0381383,0.0,0.0,-0.484218
573063603,0.0387872,-0.0767926,0.0386529,0.0,0.0,-0.484218
573083583,0.023433,-0.0764733,0.0396681,0.0,0.0,-0.485236
573103593,0.0226322,-0.0869126,0.0415419,0.0,0.0,-0.485236
573123685,0.013855,-0.0924798,0.0444519,0.0,0.0,-0.485236
573143685,-0.00648596,-0.0941854,0.0448168,0.0,0.0,-0.485236
573163690,-0.0111048,-0.094473,0.0444324,0.0,0.0,-0.4832
573183657,-0.0176251,-0.0978706,0.0458122,0.0,0.0,-0.485236
573203711,-0.0239304,-0.0978595,0.0481782,0.0,0.0,-0.485236
573223691,-0.0231238,-0.0862702,0.0516034,0.0,0.0,-0.485236
573243764,-0.0303015,-0.0734217,0.0541838,0.0,0.0,-0.485236
573263730,-0.027674,-0.0485286,0.0546506,0.0,0.0,-0.484218
573283752,-0.0175982,-0.027944,0.052879,0.0,0.0,-0.484218
573303762,-0.00251047,-0.0242802,0.053051,0.0,0.0,-0.484218
573323849,0.000949994,-0.0254646,0.0536201,0.0,0.0,-0.484218
573343809,-0.0126436,-0.030134,0.055845,0.0,0.0,-0.485236
573363827,-0.0126791,-0.0377011,0.0563983,0.0,0.0,-0.485236
573383821,-0.00190344,-0.0471664,0.0567196,0.0,0.0,-0.485236
573403905,0.00559789,-0.0555926,0.0558801,0.0,0.0,-0.485236
573423879,0.0243044,-0.0716533,0.056671,0.0,0.0,-0.484218
573443891,0.0382009,-0.0818289,0.057848,0.0,0.0,-0.484218
573463905,0.0528959,-0.0745124,0.0578173,0.0,0.0,-0.482182
573483937,0.0746747,-0.0644194,0.0570513,0.0,0.0,-0.482182
573503916,0.0799631,-0.0429438,0.0570361,0.0,0.0,-0.482182
573523945,0.0686162,-0.011772,0.0562159,0.0,0.0,-0.4832
573543948,0.0694299,0.0112792,0.0531102,0.0,0.0,-0.4832
573563979,0.0945867,0.0261232,0.05103,0.0,0.0,-0.482182
573584031,0.0980177,0.0321889,0.0474326,0.0,0.0,-0.4832
573604031,0.102074,0.0293779,0.0441351,0.0,0.0,-0.4832
573624030,0.101187,0.0287864,0.0405193,0.0,0.0,-0.4832
573644056,0.106135,0.0177676,0.0364594,0.0,0.0,-0.482182
573664112,0.0901327,-0.00399759,0.0354365,0.0,0.0,-0.485236
573684086,0.0827562,-0.0246113,0.0360905,0.0,0.0,-0.4832
573704090,0.0764845,-0.0362207,0.0366447,0.0,0.0,-0.4832
573724121,0.0534705,-0.040776,0.0361068,0.0,0.0,-0.4832
573744169,0.0161511,-0.0413734,0.0356001,0.0,0.0,-0.485236
573764159,0.0083594,-0.0381096,0.0369436,0.0,0.0,-0.484218
573784205,-0.00831156,-0.0331249,0.0380323,0.0,0.0,-0.485236
573804198,-0.027182,-0.0205779,0.0389286,0.0,0.0,-0.485236
573824207,-0.0393348,-0.00675165,0.0388652,0.0,0.0,-0.484218
573844250,-0.0508467,0.00513181,0.0384937,0.0,0.0,-0.484218
573864260,-0.0510312,-0.000624349,0.0381018,0.0,0.0,-0.484218
573884270,-0.0562364,-0.0100601,0.0384613,0.0,0.0,-0.484218
573904343,-0.056992,-0.0166996,0.0380536,0.0,0.0,-0.485236
573924359,-0.0363774,-0.0271055,0.037068,0.0,0.0,-0.485236
573944381,-0.0233682,-0.0545761,0.0372496,0.0,0.0,-0.485236
573964352,-0.0137774,-0.0851758,0.0386537,0.0,0.0,-0.485236
573984392,0.020876,-0.0897932,0.0407987,0.0,0.0,-0.485236
574004383,0.0625598,-0.0896141,0.0380363,0.0,0.0,-0.484218
574024448,0.0975601,-0.0899123,0.03518,0.0,0.0,-0.484218
574044420,0.134608,-0.0885067,0.0323208,0.0,0.0,-0.484218
574064489,0.177731,-0.0938721,0.0283299,0.0,0.0,-0.484218
574084491,0.223536,-0.0937269,0.0236976,0.0,0.0,-0.4832
574104531,0.266526,-0.0978826,0.0178491,0.0,0.0,-0.4832
574124483,0.292448,-0.110146,0.013069,0.0,0.0,-0.4832
574144497,0.29543,-0.102906,0.00936478,0.0,0.0,-0.484218
574164507,0.290723,-0.0892472,0.0036975,0.0,0.0,-0.4832
574184568,0.27149,-0.0686098,-0.000920372,0.0,0.0,-0.4832
574204540,0.244577,-0.0219209,-0.00580218,0.0,0.0,-0.4832
574224607,0.21539,0.027009,-0.0107288,0.0,0.0,-0.4832
574244569,0.168779,0.0701724,-0.0143351,0.0,0.0,-0.4832
574264621,0.118538,0.114887,-0.019213,0.0,0.0,-0.4832
574284605,0.0583857,0.148128,-0.0261084,0.0,0.0,-0.4832
574304630,0.00763283,0.151972,-0.0279359,0.0,0.0,-0.484218
574324647,-0.0255284,0.146392,-0.0291705,0.0,0.0,-0.484218
574344680,-0.0582744,0.132707,-0.0336494,0.0,0.0,-0.485236
574364690,-0.0668655,0.110716,-0.0358236,0.0,0.0,-0.484218
574384709,-0.0699712,0.0902548,-0.0373764,0.0,0.0,-0.484218
574404709,-0.0640953,0.0765039,-0.0415955,0.0,0.0,-0.485236
574424735,-0.038764,0.0609838,-0.0438912,0.0,0.0,-0.484218
574444742,-0.0315083,0.0489879,-0.0443332,0.0,0.0,-0.485236
574464778,-0.0233055,0.0497329,-0.046608,0.0,0.0,-0.485236
574484788,-0.0285609,0.0443796,-0.0476569,0.0,0.0,-0.485236
574504806,-0.0337402,0.0365511,-0.0462373,0.0,0.0,-0.485236
574524868,-0.0323724,0.0296433,-0.0457106,0.0,0.0,-0.485236
574544841,-0.0477984,0.0214638,-0.0457187,0.0,0.0,-0.485236
574564903,-0.0703573,0.0044356,-0.0453742,0.0,0.0,-0.485236
574584876,-0.0640703,-0.0160473,-0.0432507,0.0,0.0,-0.484218
574604912,-0.0575055,-0.0289304,-0.0440508,0.0,0.0,-0.485236
574624932,-0.0390791,-0.0280481,-0.0448792,0.0,0.0,-0.484218
574644929,-0.0250396,-0.0300386,-0.0446885,0.0,0.0,-0.484218
574664955,-0.00234385,-0.037086,-0.0434753,0.0,0.0,-0.484218
574685012,0.027004,-0.0295982,-0.0426164,0.0,0.0,-0.484218
574704985,0.0503874,-0.0270821,-0.0440631,0.0,0.0,-0.484218
574725055,0.0483117,-0.0288447,-0.0444759,0.0,0.0,-0.485236
574745028,0.0631013,-0.0229592,-0.0437638,0.0,0.0,-0.4832
574765047,0.0747071,-0.00129456,-0.0442937,0.0,0.0,-0.4832
574785052,0.0537694,0.020342,-0.043776,0.0,0.0,-0.4832
574805096,0.0315919,0.0315757,-0.0438383,0.0,0.0,-0.4832
574825086,0.0168001,0.0379135,-0.0435667,0.0,0.0,-0.4832
574845111,0.00612267,0.0343856,-0.0414885,0.0,0.0,-0.4832
574865108,-0.0178823,0.0330515,-0.0399121,0.0,0.0,-0.4832
574885157,-0.0482912,0.0367401,-0.0396547,0.0,0.0,-0.4832
574905156,-0.0610811,0.0406598,-0.039377,0.0,0.0,-0.4832
574925174,-0.0491477,0.0413402,-0.0395817,0.0,0.0,-0.4832
574945178,-0.0281937,0.0517238,-0.0414607,0.0,0.0,-0.4832
574960230,-0.0026248,0.0560746,-0.0421455,0.0,0.0,-0.4832
574985218,0.0295485,0.074414,-0.0449738,0.0,0.0,-0.4832
575005246,0.0598088,0.0933667,-0.0492906,0.0,0.0,-0.482182
575025250,0.0757957,0.100638,-0.0536117,0.0,0.0,-0.4832
575040292,0.0736462,0.106869,-0.0557127,0.0,0.0,-0.4832
575065351,0.0674536,0.0930409,-0.061401,0.0,0.0,-0.484218
575085328,0.0368626,0.0697428,-0.0667732,0.0,0.0,-0.500606
575100400,0.0162852,0.0584598,-0.0717875,0.0,0.0,-0.500606
575125368,-0.0251619,0.0336171,-0.0806341,0.0,0.0,-0.512727
575145419,-0.0573175,0.0168728,-0.0864462,0.0,0.0,-0.511515
575165402,-0.0912867,0.015228,-0.0913005,0.0,0.0,-0.511515
575180480,-0.122422,0.0252432,-0.0977408,0.0,0.0,-0.511515
575205428,-0.160666,0.0323235,-0.106037,0.0,0.0,-0.511515
575225447,-0.16036,0.0253098,-0.112487,0.0,0.0,-0.512727
575245467,-0.16256,0.0115296,-0.120112,0.0,0.0,-0.511515
575265488,-0.178694,-0.00419192,-0.126109,0.0,0.0,-0.512727
575285499,-0.180262,-0.0200551,-0.130831,0.0,0.0,-0.513939
575305548,-0.18644,-0.0263075,-0.136446,0.0,0.0,-0.513939
575320526,-0.146344,-0.0335773,-0.139118,0.0,0.0,-0.510303
575345580,-0.019623,-0.03927,-0.145521,0.0,0.0,-0.510303
575365571,0.0829661,-0.0396295,-0.149145,0.0,0.0,-0.510303
575385583,0.100001,-0.0279076,-0.154066,0.0,0.0,-0.510303
575405663,0.151786,-0.0138321,-0.15768,0.0,0.0,-0.510303
575425620,0.236171,0.0017494,-0.162402,0.0,0.0,-0.510303
575445631,0.22314,0.0132415,-0.167262,0.0,0.0,-0.510303
575460650,0.24166,0.0119627,-0.168817,0.0,0.0,-0.510303
575485732,0.231976,0.0154979,-0.171402,0.0,0.0,-0.510303
575505740,0.187569,0.0166961,-0.175466,0.0,0.0,-0.509091
575525701,0.143324,0.00843234,-0.180728,0.0,0.0,-0.509091
575540719,0.103444,-0.00394918,-0.180001,0.0,0.0,-0.509091
575565740,0.113565,-0.0155466,-0.181658,0.0,0.0,-0.507879
575585778,0.0666151,-0.00389344,-0.184117,0.0,0.0,-0.509091
575600775,0.0446219,-0.0106384,-0.183496,0.0,0.0,-0.509091
575625817,0.0366631,0.00374431,-0.184645,0.0,0.0,-0.507879
575645793,0.0991851,0.00339131,-0.183969,0.0,0.0,-0.507879
575665851,0.0869345,0.0214132,-0.184957,0.0,0.0,-0.509091
575680906,0.102065,0.0117298,-0.180943,0.0,0.0,-0.509091
575705865,0.108924,0.0154693,-0.179419,0.0,0.0,-0.507879
575725961,0.0907005,0.0203207,-0.177358,0.0,0.0,-0.506667
575740901,0.0795628,0.003695,-0.174715,0.0,0.0,-0.506667
575765969,-0.0471928,0.0140216,-0.170477,0.0,0.0,-0.506667
575785932,-0.0488373,0.0149555,-0.166287,0.0,0.0,-0.506667
575800959,-0.316947,0.0336748,-0.165552,0.0,0.0,-0.506667
575820952,-0.528679,0.0546123,-0.159791,0.0,0.0,-0.509091
575845983,-0.471789,0.0595207,-0.155342,0.0,0.0,-0.501818
575866000,-0.447259,0.0637549,-0.151995,0.0,0.0,-0.500606
575881061,-0.427613,0.0537075,-0.148612,0.0,0.0,-0.511515
575906046,-0.376748,0.0380839,-0.145627,0.0,0.0,-0.511515
575926085,-0.305834,0.0240122,-0.143859,0.0,0.0,-0.500606
575946070,-0.23441,0.00856268,-0.141433,0.0,0.0,-0.500606
575961144,-0.204311,-0.00460137,-0.139284,0.0,0.0,-0.500606
575986105,-0.118725,-0.0270281,-0.135571,0.0,0.0,-0.498473
576006227,-0.0983274,-0.0415973,-0.133947,0.0,0.0,-0.505455
576021122,-0.105615,-0.0504785,-0.131567,0.0,0.0,-0.500606
576046187,-0.0279772,-0.0697196,-0.130272,0.0,0.0,-0.500606
576066167,0.0112485,-0.0950277,-0.126979,0.0,0.0,-0.500606
576086183,0.0306936,-0.0985545,-0.124151,0.0,0.0,-0.500606
576101205,0.0394041,-0.118919,-0.122502,0.0,0.0,-0.500606
576126232,0.0207577,-0.108035,-0.120399,0.0,0.0,-0.500606
576146248,-0.0352347,-0.0982352,-0.116841,0.0,0.0,-0.487273
576161277,-0.0309733,-0.0856507,-0.114889,0.0,0.0,-0.485236
576181341,-0.0263992,-0.0661395,-0.11102,0.0,0.0,-0.485236
576206363,-0.0952818,-0.0410292,-0.106928,0.0,0.0,-0.485236
576226338,-0.0750156,-0.0199281,-0.103872,0.0,0.0,-0.485236
576241351,-0.0674125,-0.0153128,-0.101387,0.0,0.0,-0.485236
576266439,-0.038147,-0.00940736,-0.0963197,0.0,0.0,-0.485236
576286447,-0.00440324,0.00255903,-0.0946366,0.0,0.0,-0.485236
576301447,0.029401,-0.0095019,-0.0914145,0.0,0.0,-0.485236
576321416,0.0677451,-0.0133396,-0.0899992,0.0,0.0,-0.485236
576346433,0.0782865,-0.0461566,-0.0858392,0.0,0.0,-0.485236
576366451,0.0530454,-0.0604818,-0.0832188,0.0,0.0,-0.485236
576381466,0.0289244,-0.0874703,-0.0786607,0.0,0.0,-0.486255
576406507,-0.0198961,-0.0985647,-0.074989,0.0,0.0,-0.485236
576426490,-0.0127909,-0.103516,-0.0737182,0.0,0.0,-0.486255
576441530,-0.0529923,-0.107647,-0.0719835,0.0,0.0,-0.486255
576461584,-0.0296175,-0.0997035,-0.0706594,0.0,0.0,-0.486255
576486555,-0.02468,-0.0875408,-0.0709687,0.0,0.0,-0.486255
576501591,-0.0178204,-0.0791916,-0.0700833,0.0,0.0,-0.487273
576521600,-0.00426104,-0.0596573,-0.0719749,0.0,0.0,-0.487273
576546611,0.00155167,-0.0433455,-0.0733164,0.0,0.0,-0.486255
576566620,-0.0222751,-0.0356997,-0.0737776,0.0,0.0,-0.488291
576581750,-0.0633608,-0.0145236,-0.0741763,0.0,0.0,-0.488291
576601697,-0.0961916,0.000597111,-0.074151,0.0,0.0,-0.488291
576626656,-0.139733,0.0327742,-0.0737646,0.0,0.0,-0.488291
576646684,-0.165866,0.0487533,-0.0723465,0.0,0.0,-0.488291
576661731,-0.156681,0.0654169,-0.072564,0.0,0.0,-0.488291
576681721,-0.189046,0.063973,-0.0700317,0.0,0.0,-0.488291
576706762,-0.215009,0.0630153,-0.0696218,0.0,0.0,-0.490327
576721752,-0.203273,0.0605655,-0.0685618,0.0,0.0,-0.490327
576741806,-0.183224,0.0392756,-0.0674379,0.0,0.0,-0.490327
576766810,-0.161196,0.0170579,-0.0663029,0.0,0.0,-0.490327
576781811,-0.151447,0.0112573,-0.0657005,0.0,0.0,-0.489309
576801827,-0.133169,-0.0052248,-0.0640401,0.0,0.0,-0.490327
576821847,-0.0824873,-0.0130738,-0.0618839,0.0,0.0,-0.490327
576846860,-0.0123858,-0.00936302,-0.0605965,0.0,0.0,-0.489309
576861879,0.0669322,-0.0036096,-0.0607857,0.0,0.0,-0.489309
576881897,0.0950255,0.0071601,-0.0584155,0.0,0.0,-0.490327
576906925,0.198822,0.0148321,-0.0585698,0.0,0.0,-0.489309
576921951,0.211053,0.00483606,-0.0571142,0.0,0.0,-0.489309
576941960,0.279601,0.0219057,-0.0579931,0.0,0.0,-0.491345
576962000,0.266617,0.0116703,-0.0577758,0.0,0.0,-0.491345
576987037,0.211715,0.0128442,-0.0569342,0.0,0.0,-0.491345
577002072,0.203123,0.0162667,-0.0559538,0.0,0.0,-0.491345
577022032,0.143051,0.00799704,-0.0546138,0.0,0.0,-0.491345
577047102,0.202307,0.0092477,-0.0529957,0.0,0.0,-0.492364
577062057,0.167477,0.0101376,-0.0516261,0.0,0.0,-0.492364
577082081,0.17878,0.0197028,-0.0515291,0.0,0.0,-0.506667
577102096,0.268718,0.0196124,-0.0507812,0.0,0.0,-0.516364
577127108,0.30525,0.0351464,-0.0524261,0.0,0.0,-0.517576
577142124,0.296665,0.0441214,-0.0517434,0.0,0.0,-0.516364
577162196,0.257218,0.0412482,-0.0513166,0.0,0.0,-0.516364
577187163,0.205307,0.0384031,-0.049104,0.0,0.0,-0.517576
577202177,0.169045,0.0313063,-0.0452681,0.0,0.0,-0.516364
577222210,0.115752,0.0270939,-0.0440913,0.0,0.0,-0.516364
577242243,0.0497923,0.0121905,-0.0414068,0.0,0.0,-0.517576
577267247,-0.0355454,-0.0019863,-0.0362116,0.0,0.0,-0.516364
577282285,-0.0658882,-0.00805207,-0.03273,0.0,0.0,-0.516364
577302287,-0.114097,-0.000723914,-0.0308135,0.0,0.0,-0.518788
577322305,-0.148606,0.0112907,-0.0286369,0.0,0.0,-0.518788
577342308,-0.166669,0.0178637,-0.0255922,0.0,0.0,-0.518788
577362333,-0.132833,0.03215,-0.0241334,0.0,0.0,-0.518788
577382338,-0.12792,0.0492358,-0.0225535,0.0,0.0,-0.518788
577407428,-0.135825,0.0512279,-0.0182714,0.0,0.0,-0.518788
577422386,-0.161104,0.0490877,-0.0176489,0.0,0.0,-0.517576
577442423,-0.0714228,0.0324031,-0.0148437,0.0,0.0,-0.516364
577462406,-0.129537,0.0270816,-0.0129873,0.0,0.0,-0.516364
577487489,-0.127017,0.0184119,-0.0111627,0.0,0.0,-0.517576
577502442,-0.0144571,0.0234884,-0.0117998,0.0,0.0,-0.516364
577522489,0.0121621,0.0126982,-0.0086819,0.0,0.0,-0.516364
577547500,0.0703363,0.0203784,-0.00864865,0.0,0.0,-0.506667
577562508,0.0985309,0.0120263,-0.005044,0.0,0.0,-0.506667
577582521,0.111777,0.0131274,-0.00445849,0.0,0.0,-0.506667
577602537,0.110341,-0.0112755,-0.00278796,0.0,0.0,-0.509091
577627562,0.135989,-0.0373025,-0.00156624,0.0,0.0,-0.511515
577642571,0.135247,-0.0565055,0.000795218,0.0,0.0,-0.511515
577662618,0.200316,-0.0688256,0.00159412,0.0,0.0,-0.513939
577687673,0.120073,-0.0877907,0.00424996,0.0,0.0,-0.511515
577702668,0.0724,-0.0970653,0.00569433,0.0,0.0,-0.511515
577722654,0.133181,-0.0983941,0.00794606,0.0,0.0,-0.512727
577742654,0.14373,-0.105224,0.0095559,0.0,0.0,-0.512727
577767679,0.177881,-0.11746,0.0103108,0.0,0.0,-0.511515
577782695,0.18155,-0.116971,0.00986216,0.0,0.0,-0.511515
577802721,0.187227,-0.131087,0.0104842,0.0,0.0,-0.512727
577827764,0.172175,-0.157821,0.0115436,0.0,0.0,-0.511515
577842741,0.160647,-0.160174,0.0130203,0.0,0.0,-0.511515
577862813,0.133957,-0.13564,0.0125853,0.0,0.0,-0.511515
577882788,0.0428904,-0.0663965,0.0106233,0.0,0.0,-0.512727
577902792,-0.00205533,-0.0504525,0.0118572,0.0,0.0,-0.512727
577922816,-0.0732697,-0.0417867,0.01531,0.0,0.0,-0.512727
577942844,-0.0859164,-0.00731335,0.015984,0.0,0.0,-0.512727
577962856,-0.218371,0.0173719,0.015573,0.0,0.0,-0.510303
577982872,-0.361941,0.0182812,0.018597,0.0,0.0,-0.513939
578002870,-0.351623,0.00955769,0.0214672,0.0,0.0,-0.513939
578022917,-0.331312,-0.0001545,0.0216223,0.0,0.0,-0.513939
578042951,-0.308289,-0.021983,0.0219238,0.0,0.0,-0.511515
578062954,-0.269934,-0.0504122,0.0231418,0.0,0.0,-0.511515
578082959,-0.220184,-0.0782318,0.0239924,0.0,0.0,-0.512727
578102978,-0.174472,-0.0988269,0.0241884,0.0,0.0,-0.511515
578123011,-0.136404,-0.0927288,0.0240834,0.0,0.0,-0.511515
578143003,-0.104688,-0.0851325,0.0240327,0.0,0.0,-0.511515
578163008,-0.0680026,-0.0854588,0.0255652,0.0,0.0,-0.511515
578188078,-0.0294715,-0.0681039,0.024126,0.0,0.0,-0.511515
578203048,0.00293497,-0.0724778,0.0260383,0.0,0.0,-0.511515
578223093,0.0244131,-0.0657458,0.0242819,0.0,0.0,-0.511515
578243155,0.0243593,-0.0752319,0.0256989,0.0,0.0,-0.511515
578263203,0.0450609,-0.086969,0.0284952,0.0,0.0,-0.511515
578283175,0.0466231,-0.081072,0.0311698,0.0,0.0,-0.509091
578303154,0.0542775,-0.0706398,0.0313448,0.0,0.0,-0.511515
578328162,0.0534663,-0.0616529,0.0328914,0.0,0.0,-0.511515
578343177,0.0443255,-0.057116,0.0339654,0.0,0.0,-0.511515
578363191,-0.00440962,-0.0489592,0.0358162,0.0,0.0,-0.516364
578383234,-0.0213544,-0.0474843,0.0370624,0.0,0.0,-0.527273
578403222,0.0337676,-0.0509592,0.0191739,0.0,0.0,-0.524848
578423250,0.0403075,-0.0481905,-0.0597833,0.0,0.0,-0.526061
578443318,0.0734003,-0.0360154,-0.0974192,0.0,0.0,-0.524848
578463292,0.0786095,-0.0308852,-0.180177,0.0,0.0,-0.526061
578483345,0.0711608,-0.0400208,-0.212277,0.0,0.0,-0.527273
578503333,0.0890827,-0.0540445,-0.217039,0.0,0.0,-0.527273
578523360,0.114192,-0.066053,-0.222813,0.0,0.0,-0.527273
578543366,0.124386,-0.067694,-0.22876,0.0,0.0,-0.527273
578563502,0.108323,-0.0812339,-0.232199,0.0,0.0,-0.522424
578583423,0.0926273,-0.0886652,-0.348698,0.0,0.0,-0.490327
578603478,0.0865829,-0.0860041,-0.551918,0.0,0.0,-0.487273
578623438,0.0842076,-0.0911252,-0.629347,0.0,0.0,-0.486255
578643481,0.0794499,-0.0994808,-0.651282,0.0,0.0,-0.486255
578663473,0.0535774,-0.0864023,-0.5915,0.0,0.0,-0.487273
578683522,0.0260195,-0.0899833,-0.533621,0.0,0.0,-0.486255
578703511,0.00859037,-0.0852051,-0.0574088,0.0,0.0,-0.488291
578723541,0.0194457,-0.0585578,-0.0397036,0.0,0.0,-0.488291
578743598,0.0115517,-0.0487759,-0.025218,0.0,0.0,-0.488291
578763573,0.0144052,-0.0430017,-0.0101006,0.0,0.0,-0.485236
578783574,0.0328696,-0.0239987,0.00111742,0.0,0.0,-0.486255
578803607,0.026749,-0.010206,0.00918257,0.0,0.0,-0.487273
578823613,0.0264913,0.00175448,0.0166943,0.0,0.0,-0.486255
578843633,0.0268214,0.0143712,0.0227968,0.0,0.0,-0.486255
578863644,0.022431,0.0288967,0.0294091,0.0,0.0,-0.487273
578883667,0.00484522,0.0374692,0.0350637,0.0,0.0,-0.487273
578903673,-0.00478841,0.049048,0.0399369,0.0,0.0,-0.487273
578923696,0.0092809,0.0569954,0.0433645,0.0,0.0,-0.486255
578943704,-0.000313684,0.0613317,0.0479112,0.0,0.0,-0.487273
578963733,-0.0928567,0.0611066,0.0530024,0.0,0.0,-0.486255
578983742,-0.0390445,0.0584379,0.058103,0.0,0.0,-0.490327
579003808,-0.0170996,0.0573726,0.0606233,0.0,0.0,-0.489309
579023775,0.00318347,0.0555915,0.0619523,0.0,0.0,-0.492364
579043802,0.0118646,0.0606764,0.063666,0.0,0.0,-0.500606
579063810,-0.000380706,0.053064,0.0664176,0.0,0.0,-0.512727
579083907,-0.0465541,0.0412757,0.0686217,0.0,0.0,-0.517576
579103845,-0.0339629,0.0352507,0.0695971,0.0,0.0,-0.517576
579123872,-0.00390442,0.0357581,0.0693546,0.0,0.0,-0.518788
579143923,-0.011793,0.0292534,0.0702408,0.0,0.0,-0.518788
579163909,-0.0337914,0.0171189,0.0726096,0.0,0.0,-0.518788
579183974,-0.0333689,0.0128285,0.0744878,0.0,0.0,-0.521212
579203947,-0.0155065,0.0154485,0.0749568,0.0,0.0,-0.521212
579223963,-0.00751195,0.0270482,0.075299,0.0,0.0,-0.522424
579243970,-0.0297078,0.0379189,0.0753166,0.0,0.0,-0.523636
579264068,-0.0587311,0.0407508,0.0763982,0.0,0.0,-0.523636
579284010,-0.0735821,0.0351323,0.0764132,0.0,0.0,-0.523636
579304025,-0.0544233,0.0155426,0.0773648,0.0,0.0,-0.522424
579324044,-0.0396489,-0.00731809,0.0765579,0.0,0.0,-0.523636
579344179,-0.0390169,-0.0197573,0.0766957,0.0,0.0,-0.523636
579364088,-0.0419854,-0.0235812,0.0755586,0.0,0.0,-0.521212
579384155,-0.0689914,-0.0319101,0.0737246,0.0,0.0,-0.521212
579404113,-0.0840348,-0.0381753,0.0730206,0.0,0.0,-0.521212
579424158,-0.112668,-0.0419482,0.0714888,0.0,0.0,-0.521212
579444148,-0.130249,-0.0447848,0.0710795,0.0,0.0,-0.521212
579464193,-0.135155,-0.0409213,0.0697369,0.0,0.0,-0.521212
579484194,-0.0568013,-0.0311218,0.0679526,0.0,0.0,-0.532121
579504223,0.0914688,-0.0167934,0.0677227,0.0,0.0,-0.526061
579524260,0.115009,-0.00312693,0.0665377,0.0,0.0,-0.526061
579544248,0.124179,0.00728897,0.0662151,0.0,0.0,-0.526061
579564240,0.450239,0.0196896,0.0643082,0.0,0.0,-0.518788
579584281,0.501321,0.0200601,0.0612452,0.0,0.0,-0.518788
579604341,0.559429,0.0158923,0.0598994,0.0,0.0,-0.518788
579624321,0.525793,-0.00105071,0.0606542,0.0,0.0,-0.518788
579644319,0.525983,-0.0218814,0.0621253,0.0,0.0,-0.518788
579664347,0.601412,-0.0346434,0.0617306,0.0,0.0,-0.518788
579684358,0.581366,-0.0440766,0.0589368,0.0,0.0,-0.518788
579704395,0.495322,-0.0542202,0.0594634,0.0,0.0,-0.518788
579724409,0.37003,-0.0584483,0.0612277,0.0,0.0,-0.518788
579744414,0.153177,-0.0580026,0.0614897,0.0,0.0,-0.518788
579764422,-0.0711117,-0.052787,0.0593704,0.0,0.0,-0.518788
579784495,-0.402911,-0.0406476,0.0556477,0.0,0.0,-0.523636
579804459,-0.574263,-0.0301687,0.054546,0.0,0.0,-0.52
579824485,-0.692127,-0.0340817,0.0529853,0.0,0.0,-0.52
579844506,-0.676821,-0.0332326,0.0506983,0.0,0.0,-0.52
579864588,-0.60214,-0.030475,0.0483208,0.0,0.0,-0.52
579884536,-0.527877,-0.0299225,0.0449153,0.0,0.0,-0.52
579904603,-0.437597,-0.0385845,0.0430421,0.0,0.0,-0.52
579924683,-0.3307,-0.052333,0.0419502,0.0,0.0,-0.52
579944646,-0.187724,-0.0602294,0.0381914,0.0,0.0,-0.52
579964608,-0.0134191,-0.0618907,0.0328713,0.0,0.0,-0.52
579984633,0.0145496,-0.0598244,0.0293616,0.0,0.0,-0.52
580004646,0.0662058,-0.0593845,0.0295511,0.0,0.0,-0.52
580024673,0.089587,-0.0585417,0.0288541,0.0,0.0,-0.52
580044745,0.105799,-0.0539028,0.0271766,0.0,0.0,-0.52
580064698,0.0921492,-0.0496529,0.0252,0.0,0.0,-0.518788
580084753,0.048888,-0.0523691,0.0254626,0.0,0.0,-0.518788
580104723,0.00206786,-0.0540339,0.0274859,0.0,0.0,-0.517576
580124825,-0.0292859,-0.0485092,0.0276413,0.0,0.0,-0.518788
580144757,-0.0402846,-0.037344,0.0274089,0.0,0.0,-0.518788
580164788,-0.045636,-0.0265029,0.0269675,0.0,0.0,-0.517576
580184806,-0.0473758,-0.0191115,0.0287115,0.0,0.0,-0.517576
580204822,-0.0102021,-0.0153234,0.0291138,0.0,0.0,-0.512727
580224827,-0.011831,0.0185363,0.0285272,0.0,0.0,-0.4944
580244848,-0.0165921,0.0477003,0.02719,0.0,0.0,-0.4944
580264850,-0.0253617,0.0635754,0.0273176,0.0,0.0,-0.4944
580279870,0.00124016,0.0712564,0.0285834,0.0,0.0,-0.4944
580304903,0.0150757,0.0851332,0.0284956,0.0,0.0,-0.4944
580324919,0.0422316,0.10922,0.0271464,0.0,0.0,-0.4944
580344928,0.0698985,0.125211,0.0261982,0.0,0.0,-0.4944
580364973,0.0896146,0.117075,0.0268241,0.0,0.0,-0.4944
580385018,0.107471,0.0925935,0.027789,0.0,0.0,-0.4944
580404985,0.118997,0.0741666,0.0282353,0.0,0.0,-0.4944
580425004,0.129247,-0.00888812,0.0280154,0.0,0.0,-0.495418
580445021,0.136113,-0.197822,0.0272901,0.0,0.0,-0.492364
580465043,0.141027,-0.31458,0.0279765,0.0,0.0,-0.492364
580485059,0.134535,-0.500663,0.0284867,0.0,0.0,-0.496436
580505075,0.133349,-0.501766,0.0292381,0.0,0.0,-0.496436
580525095,0.154276,-0.490744,0.0291672,0.0,0.0,-0.497455
580545107,0.156131,-0.441312,0.0287958,0.0,0.0,-0.497455
580560104,0.135438,-0.433828,0.0288468,0.0,0.0,-0.497455
580585144,0.123101,-0.34134,0.0290328,0.0,0.0,-0.497455
580605162,0.118336,-0.239672,0.030191,0.0,0.0,-0.497455
580625170,0.104057,-0.157014,0.030611,0.0,0.0,-0.497455
580640174,0.0822419,-0.0866465,0.0316255,0.0,0.0,-0.497455
580665251,0.0759976,0.00170733,0.0323686,0.0,0.0,-0.497455
580685237,0.0489785,0.0636535,0.0334817,0.0,0.0,-0.497455
580700246,0.0439797,0.0896499,0.0335373,0.0,0.0,-0.497455
580725281,-0.00505139,0.136045,0.0345787,0.0,0.0,-0.497455
580745292,-0.00945789,0.133261,0.035229,0.0,0.0,-0.497455
580765313,-0.0137945,0.128526,0.03652,0.0,0.0,-0.498473
580780426,-0.0237256,0.132142,0.0365241,0.0,0.0,-0.497455
580805359,-0.0305382,0.107632,0.0379699,0.0,0.0,-0.497455
580825440,-0.0453373,0.0789407,0.0390046,0.0,0.0,-0.497455
580840414,-0.0503732,0.0617706,0.0403708,0.0,0.0,-0.496436
580865471,-0.0584043,0.0544002,0.0425838,0.0,0.0,-0.495418
580885419,-0.020487,0.0176908,0.0426807,0.0,0.0,-0.4944
580905470,-0.00351533,0.00168349,0.0438032,0.0,0.0,-0.4944
580920446,-0.0569347,-0.0164578,0.0452247,0.0,0.0,-0.4944
580945502,-0.0585324,-0.0293901,0.0452583,0.0,0.0,-0.495418
580965494,-0.0407587,-0.0402861,0.0467611,0.0,0.0,-0.495418
580980495,-0.0272006,0.0743746,0.0443408,0.0,0.0,-0.495418
581005528,-0.00660096,0.0650659,0.0453256,0.0,0.0,-0.496436
581025555,0.00423375,0.0630692,0.0439239,0.0,0.0,-0.496436
581045550,0.010759,0.0335206,0.0449873,0.0,0.0,-0.496436
581060563,0.0319525,0.0141819,0.0441081,0.0,0.0,-0.497455
581085587,0.0590508,-0.0345991,0.0458517,0.0,0.0,-0.497455
581105614,0.0860708,-0.0482335,0.0429729,0.0,0.0,-0.497455
581125614,0.0760237,-0.0777722,0.0432158,0.0,0.0,-0.499491
581145645,0.0607423,-0.102107,0.0441835,0.0,0.0,-0.499491
581165655,0.0144708,-0.0941833,0.0455534,0.0,0.0,-0.497455
581185673,0.0745272,-0.0915847,0.0448159,0.0,0.0,-0.50303
581200709,0.0541135,-0.0596244,0.0434041,0.0,0.0,-0.501818
581225705,0.0302883,0.0407194,0.0428605,0.0,0.0,-0.501818
581245758,0.00555906,0.0586572,0.0396658,0.0,0.0,-0.501818
581265741,-0.0100958,0.201625,0.0383611,0.0,0.0,-0.501818
581280748,-0.0094533,0.263992,0.0351368,0.0,0.0,-0.501818
581305775,-0.00385343,0.267186,0.0331695,0.0,0.0,-0.501818
581325779,-0.00775848,0.257586,0.0295391,0.0,0.0,-0.501818
581340786,-0.0108395,0.227602,0.0287539,0.0,0.0,-0.501818
581365828,-0.0228244,0.172001,0.0269178,0.0,0.0,-0.501818
581385847,-0.0127639,0.120132,0.0260764,0.0,0.0,-0.501818
581400862,-0.0144823,0.0869166,0.0234742,0.0,0.0,-0.501818
581420856,-0.0145579,0.0398189,0.0215223,0.0,0.0,-0.501818
581445931,-0.00160229,-0.0103798,0.0189176,0.0,0.0,-0.501818
581465915,0.00048894,-0.037257,0.0168613,0.0,0.0,-0.501818
581480922,0.0106561,-0.0618729,0.0164529,0.0,0.0,-0.500606
581505987,0.0117386,-0.0830089,0.014903,0.0,0.0,-0.499491
581525968,0.0319343,-0.0766465,0.0117031,0.0,0.0,-0.499491
581545985,0.025127,-0.073961,0.00949896,0.0,0.0,-0.499491
581561034,0.0266825,-0.0679291,0.00886488,0.0,0.0,-0.499491
581586117,0.0135265,-0.0534765,0.00741277,0.0,0.0,-0.499491
581606197,0.018807,-0.0501973,0.00567331,0.0,0.0,-0.499491
581621076,0.0100752,-0.0435165,0.00353658,0.0,0.0,-0.500606
581646200,0.0092135,-0.0404531,0.00164053,0.0,0.0,-0.499491
581666095,-0.0221646,-0.033728,-0.00114986,0.0,0.0,-0.500606
581686131,-0.0202508,-0.0503367,-0.00249794,0.0,0.0,-0.500606
581701113,-0.00437275,-0.0428883,-0.00595769,0.0,0.0,-0.499491
581726172,0.0103936,-0.0511098,-0.00834613,0.0,0.0,-0.500606
581746177,0.0057549,-0.0537883,-0.0103265,0.0,0.0,-0.500606
581761167,0.0461267,-0.0595719,-0.00993395,0.0,0.0,-0.499491
581781245,0.0282278,-0.0673042,-0.0114816,0.0,0.0,-0.499491
581806220,0.0259371,-0.0696883,-0.0119999,0.0,0.0,-0.500606
581826224,0.0208588,-0.0764928,-0.0124953,0.0,0.0,-0.501818
581841239,0.0104329,-0.0680401,-0.0136329,0.0,0.0,-0.501818
581866272,0.0154555,-0.136057,-0.014383,0.0,0.0,-0.501818
581886295,-0.00336382,-0.186446,-0.0124741,0.0,0.0,-0.501818
581901400,-0.00291797,-0.344446,-0.012896,0.0,0.0,-0.500606
581921345,-0.0252675,-0.341398,-0.011582,0.0,0.0,-0.499491
581946350,-0.0580918,-0.336999,-0.0114293,0.0,0.0,-0.497455
581966365,-0.0710534,-0.322355,-0.0107965,0.0,0.0,-0.497455
581981388,-0.0711221,-0.305738,-0.00992477,0.0,0.0,-0.497455
582006413,-0.0736017,-0.272026,-0.0104034,0.0,0.0,-0.497455
582026405,-0.0516365,-0.230125,-0.0105929,0.0,0.0,-0.497455
582041436,-0.0579512,-0.171073,-0.0120046,0.0,0.0,-0.50303
582061448,0.00650888,-0.112008,-0.0129757,0.0,0.0,-0.501818
582086470,-0.0157364,-0.0280294,-0.0140526,0.0,0.0,-0.501818
582101475,-0.00947196,0.0939987,-0.0150598,0.0,0.0,-0.501818
582121496,-0.00458483,0.12396,-0.0142061,0.0,0.0,-0.501818
582146565,-0.00174584,0.144133,-0.0155447,0.0,0.0,-0.500606
582166546,-0.00408493,0.148071,-0.0152214,0.0,0.0,-0.501818
582181557,0.00168929,0.137383,-0.0149701,0.0,0.0,-0.500606
582201559,-0.000833673,0.21879,-0.0158154,0.0,0.0,-0.501818
582226584,0.00384058,0.176506,-0.0163261,0.0,0.0,-0.501818
582246607,-0.00359451,0.16436,-0.0171232,0.0,0.0,-0.501818
582261613,0.000796834,0.127918,-0.016444,0.0,0.0,-0.500606
582286681,-0.00596293,0.120686,-0.0177568,0.0,0.0,-0.501818
582306707,-0.00655945,0.147655,-0.01944,0.0,0.0,-0.498473
582321705,-0.0127371,0.120454,-0.0211076,0.0,0.0,-0.498473
582341718,0.0160333,0.086428,-0.0225938,0.0,0.0,-0.500606
582366709,0.0104575,0.0411472,-0.0253087,0.0,0.0,-0.500606
582381723,0.0150502,0.0318582,-0.0277065,0.0,0.0,-0.500606
582401773,0.0169083,0.0123233,-0.0296023,0.0,0.0,-0.500606
582421785,0.0149,0.00410309,-0.0316254,0.0,0.0,-0.500606
582446767,0.0526948,-0.00510689,-0.0344431,0.0,0.0,-0.500606
582461841,0.156676,-0.0187664,-0.034885,0.0,0.0,-0.500606
582481862,0.371438,-0.016619,-0.0374525,0.0,0.0,-0.500606
582506859,0.446793,-0.0288999,-0.0380711,0.0,0.0,-0.500606
582526837,0.507065,-0.0348892,-0.0402181,0.0,0.0,-0.500606
582541866,0.496859,-0.034082,-0.0396312,0.0,0.0,-0.500606
582561921,0.450803,-0.0415413,-0.0395762,0.0,0.0,-0.500606
582586892,0.357465,-0.0493747,-0.0382796,0.0,0.0,-0.500606
582601982,0.308141,-0.0450016,-0.0379541,0.0,0.0,-0.500606
582621944,0.101524,-0.0618817,-0.0366914,0.0,0.0,-0.50303
582646943,-0.301638,-0.0491918,-0.0370551,0.0,0.0,-0.50303
582661968,-0.320365,-0.0288084,-0.0366013,0.0,0.0,-0.50303
582682033,-0.408903,-0.027416,-0.0361093,0.0,0.0,-0.510303
582702003,-0.421924,-0.0283016,-0.0328983,0.0,0.0,-0.532121
582727015,-0.400972,-0.0054569,-0.0333165,0.0,0.0,-0.533333
582742025,-0.366126,0.0132531,-0.0331062,0.0,0.0,-0.533333
582762060,-0.329065,0.012378,-0.0321728,0.0,0.0,-0.533333
582782071,-0.274739,0.0100104,-0.0314687,0.0,0.0,-0.533333
582802093,-0.201007,0.0194209,-0.0308688,0.0,0.0,-0.533333
582822130,-0.140359,0.0243559,-0.0322198,0.0,0.0,-0.533333
582842124,-0.0952783,0.0237464,-0.0320348,0.0,0.0,-0.533333
582867135,-0.0607366,0.0207575,-0.0317724,0.0,0.0,-0.533333
582882153,-0.0409772,0.028768,-0.0319993,0.0,0.0,-0.534545
582902158,-0.030334,0.0221962,-0.031462,0.0,0.0,-0.533333
582922188,-0.040607,0.0183992,-0.0292571,0.0,0.0,-0.52
582947206,-0.0348293,0.051067,-0.0290506,0.0,0.0,-0.52
582962236,-0.0297773,0.0724184,-0.0294141,0.0,0.0,-0.52
582982233,-0.0354298,0.094666,-0.0284551,0.0,0.0,-0.52
583007273,-0.0287253,0.115302,-0.0290668,0.0,0.0,-0.52
583022277,-0.0335547,0.128673,-0.0303361,0.0,0.0,-0.52
583042312,-0.0375611,0.127963,-0.0294897,0.0,0.0,-0.52
583062315,-0.0494768,0.119165,-0.0287291,0.0,0.0,-0.52
583087406,-0.0473342,0.121956,-0.0307681,0.0,0.0,-0.52
583102396,-0.0467064,0.120942,-0.0309185,0.0,0.0,-0.52
583122404,-0.0528278,0.108378,-0.0321258,0.0,0.0,-0.52
583147411,-0.0551587,0.0975701,-0.0322975,0.0,0.0,-0.52
583162428,-0.0481013,0.077218,-0.0314085,0.0,0.0,-0.521212
583182437,-0.0544329,0.0837351,-0.0348792,0.0,0.0,-0.521212
583202452,-0.0726184,0.0807776,-0.0362854,0.0,0.0,-0.522424
583227485,-0.0476444,0.072756,-0.0383607,0.0,0.0,-0.523636
583242477,-0.043203,0.0686934,-0.0396251,0.0,0.0,-0.535758
583262552,-0.0174942,0.0877156,-0.0423492,0.0,0.0,-0.535758
583287592,-0.0198209,0.111228,-0.0440645,0.0,0.0,-0.535758
583302600,-0.0278316,0.120803,-0.0444526,0.0,0.0,-0.535758
583322557,-0.0343963,0.139459,-0.0459296,0.0,0.0,-0.535758
583342577,-0.0403015,0.144817,-0.0473608,0.0,0.0,-0.533333
583367598,-0.0308088,0.132514,-0.0490045,0.0,0.0,-0.533333
583382648,-0.0173935,0.129555,-0.048763,0.0,0.0,-0.534545
583402614,-0.014001,0.124813,-0.0502675,0.0,0.0,-0.533333
583427631,0.00565764,0.107113,-0.0494821,0.0,0.0,-0.533333
583442644,0.0133358,0.103358,-0.0508072,0.0,0.0,-0.530909
583462683,0.00598154,0.0839655,-0.0503633,0.0,0.0,-0.530909
583482678,0.00984017,0.0760295,-0.0511723,0.0,0.0,-0.530909
583502707,0.00432883,0.0801878,-0.0523534,0.0,0.0,-0.530909
583522706,-0.0127927,0.0729109,-0.0529596,0.0,0.0,-0.532121
583542750,-0.0192551,0.0593991,-0.0520017,0.0,0.0,-0.532121
583562745,-0.00420132,0.0668015,-0.0516837,0.0,0.0,-0.530909
583582781,0.00535413,0.0825388,-0.0523141,0.0,0.0,-0.530909
583602780,-0.00519032,0.0842127,-0.0518109,0.0,0.0,-0.52
583622807,-0.0147591,0.0669185,-0.0486702,0.0,0.0,-0.52
583642851,0.00915166,0.0585706,-0.0470847,0.0,0.0,-0.522424
583662847,0.00749539,0.0598332,-0.0451751,0.0,0.0,-0.522424
583682855,-0.0127827,0.058214,-0.0451263,0.0,0.0,-0.521212
583702879,-0.0448571,0.0451,-0.0424729,0.0,0.0,-0.521212
583722898,-0.0726153,0.033424,-0.0399367,0.0,0.0,-0.52
583742914,-0.0734921,0.0302331,-0.0368564,0.0,0.0,-0.52
583762911,-0.0461264,0.0335085,-0.0366098,0.0,0.0,-0.52
583782942,-0.0180909,0.0441997,-0.0356559,0.0,0.0,-0.521212
583802952,0.0142412,0.0536898,-0.0351664,0.0,0.0,-0.521212
583822992,0.0478423,0.0636949,-0.0343171,0.0,0.0,-0.533333
583842980,0.0757226,0.0667295,-0.0350715,0.0,0.0,-0.533333
583863012,0.113447,0.0701352,-0.035504,0.0,0.0,-0.533333
583883072,0.144599,0.0856096,-0.0360959,0.0,0.0,-0.533333
583903054,0.149423,0.106012,-0.0387692,0.0,0.0,-0.532121
583928076,0.156274,0.117708,-0.0423503,0.0,0.0,-0.530909
583943091,0.138203,0.112898,-0.043777,0.0,0.0,-0.530909
583963120,0.150244,0.112475,-0.0461774,0.0,0.0,-0.530909
583983161,0.126394,0.114349,-0.0501379,0.0,0.0,-0.518788
584003135,0.135357,0.107756,-0.0525899,0.0,0.0,-0.489309
584023152,0.113675,0.092467,-0.0542448,0.0,0.0,-0.487273
584043219,0.11408,0.0783584,-0.0572685,0.0,0.0,-0.488291
584063196,0.121721,0.0643294,-0.0609898,0.0,0.0,-0.487273
584083270,0.126022,0.0352863,-0.0646697,0.0,0.0,-0.487273
584103331,0.118894,-0.00555884,-0.067255,0.0,0.0,-0.488291
584123303,0.0851014,-0.0344796,-0.0680555,0.0,0.0,-0.488291
584143321,0.0661767,-0.0667097,-0.0693512,0.0,0.0,-0.487273
584163292,0.0528242,-0.0681419,-0.0721096,0.0,0.0,-0.487273
584183311,0.0369107,-0.0486154,-0.0754554,0.0,0.0,-0.488291
584203324,0.0155896,-0.048349,-0.0756226,0.0,0.0,-0.488291
584223332,0.00741563,-0.0183797,-0.077598,0.0,0.0,-0.488291
584243417,-0.0116142,0.0148245,-0.0817229,0.0,0.0,-0.487273
584263375,-0.0264646,0.0192798,-0.081308,0.0,0.0,-0.487273
584283401,-0.0136018,0.0469935,-0.0813437,0.0,0.0,-0.488291
584303420,-0.00755038,0.0796178,-0.0830414,0.0,0.0,-0.488291
584323445,-0.0122089,0.0869904,-0.080651,0.0,0.0,-0.488291
584343430,-0.00468154,0.103503,-0.0804097,0.0,0.0,-0.488291
584363462,0.0196708,-0.00458679,-0.0812599,0.0,0.0,-0.487273
584383466,0.0329272,-0.0583495,-0.0779947,0.0,0.0,-0.491345
584403494,0.0466403,-0.14419,-0.0769622,0.0,0.0,-0.487273
584423504,0.0442223,-0.264697,-0.0777741,0.0,0.0,-0.488291
584443529,0.028259,-0.317574,-0.0755447,0.0,0.0,-0.488291
584463549,0.00209819,-0.308662,-0.0745616,0.0,0.0,-0.489309
584483574,0.0106722,-0.416527,-0.0747342,0.0,0.0,-0.489309
584503624,0.0376588,-0.394814,-0.0749527,0.0,0.0,-0.489309
584523606,0.0359837,-0.366273,-0.074433,0.0,0.0,-0.489309
584543625,0.0301922,-0.430353,-0.0715081,0.0,0.0,-0.488291
584563641,0.0493909,-0.374281,-0.0737215,0.0,0.0,-0.488291
584583702,0.0543145,-0.327415,-0.074069,0.0,0.0,-0.488291
584603686,0.056696,-0.270518,-0.0734577,0.0,0.0,-0.489309
584623727,0.0705051,-0.220007,-0.0740469,0.0,0.0,-0.489309
584643713,0.0700341,-0.164046,-0.0756734,0.0,0.0,-0.489309
584663729,0.0640737,-0.113813,-0.0772585,0.0,0.0,-0.489309
584683759,0.0469106,0.0179749,-0.0768506,0.0,0.0,-0.488291
584703770,0.0331024,0.269609,-0.0765438,0.0,0.0,-0.489309
584723779,0.024083,0.627134,-0.0792466,0.0,0.0,-0.488291
584743865,0.00195544,0.627144,-0.0775096,0.0,0.0,-0.488291
584763855,0.0122797,0.624705,-0.0780098,0.0,0.0,-0.489309
584783875,0.00620249,0.58565,-0.0783944,0.0,0.0,-0.489309
584803855,-0.0147926,0.496235,-0.0755602,0.0,0.0,-0.488291
584823910,-0.0386373,0.401232,-0.0751632,0.0,0.0,-0.491345
584843947,-0.0691247,0.29432,-0.0760711,0.0,0.0,-0.500606
584863900,-0.0814204,0.174766,-0.075038,0.0,0.0,-0.52
584883915,-0.130099,0.0746278,-0.0752824,0.0,0.0,-0.52
584903932,-0.0846038,0.00918425,-0.0772793,0.0,0.0,-0.521212
584923933,-0.122489,-0.0483581,-0.0766954,0.0,0.0,-0.521212
584943966,-0.106028,-0.0762005,-0.0749361,0.0,0.0,-0.521212
584963977,-0.0783125,-0.0683049,-0.0779722,0.0,0.0,-0.521212
584984005,-0.0649907,-0.0789396,-0.0776758,0.0,0.0,-0.521212
585004003,-0.077539,-0.0841969,-0.0754037,0.0,0.0,-0.521212
585024093,-0.0375056,-0.0538899,-0.0761993,0.0,0.0,-0.521212
585044031,-0.0243949,-0.0355147,-0.0747642,0.0,0.0,-0.521212
585064061,-0.0368108,-0.0318897,-0.0734961,0.0,0.0,-0.521212
585084066,-0.0447261,-0.023813,-0.0718915,0.0,0.0,-0.521212
