timestamp,yaw_composite,yaw_variance,yaw[0],yaw[1],yaw[2],yaw[3],yaw[4],innov_vn[0],innov_vn[1],innov_vn[2],innov_vn[3],innov_vn[4],innov_ve[0],innov_ve[1],innov_ve[2],innov_ve[3],innov_ve[4],weight[0],weight[1],weight[2],weight[3],weight[4]
565150483,2.941,3.73601,-2.51327,-1.25664,0.0,1.25664,2.51327,0.0,0.0,0.0,0.0,0.0,0.0,0.0,0.0,0.0,0.0,0.2,0.2,0.2,0.2,0.2
565160488,2.4992,3.55325,-2.51348,-1.25684,-0.0002067,1.25643,2.51307,0.0,0.0,0.0,0.0,0.0,0.0,0.0,0.0,0.0,0.0,0.2,0.2,0.2,0.2,0.2
565350659,1.13873,3.56605,-2.51368,-1.25693,-0.00028582,1.25624,2.5128,0.0491189,0.0614893,-5.96318e-05,-0.0504697,-0.0200788,-0.0448832,0.0238551,0.0568599,0.00852503,-0.0543568,0.199964,0.199967,0.200016,0.200042,0.20001
565550831,1.82288,3.87314,-2.51369,-1.25694,-0.000242603,1.25631,2.51284,0.00932127,0.0133153,0.00305046,-0.0072841,-0.00341537,0.019204,0.0312984,0.0388297,0.0314003,0.0192711,0.19999,0.199953,0.199981,0.200035,0.200041
565751007,2.37701,3.57085,-2.51169,-1.25497,0.00177173,1.25839,2.51491,0.00571172,0.0341256,0.0347162,0.00666456,-0.0112614,-0.0182526,-0.00963996,0.0200456,0.0297808,0.00610942,0.200022,0.199928,0.199933,0.200031,0.200086
565951182,0.637542,3.93954,-2.5102,-1.25355,0.00298977,1.25955,2.51623,0.00676482,0.0207229,-0.00715736,-0.0383428,-0.0297423,-0.0423449,-0.00849352,0.0152391,-0.00393961,-0.0395273,0.199986,0.199983,0.200003,0.200019,0.200009
566151366,-0.402919,3.71828,-2.50897,-1.25236,0.00414403,1.26073,2.51747,0.00790736,-0.00171105,0.00265355,0.0149777,0.0182214,0.00391012,-0.00380585,-0.015342,-0.0147531,-0.00285025,0.199997,0.199997,0.200002,0.200004,0.200001
566351533,-3.10682,3.90752,-2.50867,-1.25229,0.00457861,1.26161,2.51827,0.00103387,-0.0023424,-0.0315635,-0.0462582,-0.0261197,0.0420713,0.0717102,0.0776581,0.0517115,0.0297081,0.200159,0.19992,0.199792,0.199951,0.200178
566551709,1.99157,3.82916,-2.50716,-1.25041,0.00635619,1.26296,2.51945,0.00655799,0.0309966,0.0238483,-0.00502443,-0.0156914,-0.0812468,-0.0657971,-0.0377647,-0.0359172,-0.0627945,0.199962,0.19982,0.199927,0.200135,0.200156
566751884,2.26314,3.61681,-2.50657,-1.24992,0.00681551,1.26351,2.52007,0.0251575,0.0297298,0.0305711,0.0265264,0.02318,0.0625696,0.0631675,0.0676982,0.0698985,0.0667343,0.200002,0.199836,0.199898,0.2001,0.200164
566952060,1.632,3.68691,-2.50568,-1.24916,0.00727588,1.26391,2.52075,0.0146513,0.0536966,0.00841716,-0.0586478,-0.0547694,-0.0642012,-0.0039077,0.0518834,0.0260383,-0.0457199,0.199966,0.199905,0.199976,0.20008,0.200074
567152249,1.97086,3.86458,-2.49549,-1.23838,0.0188562,1.2754,2.53137,0.0146513,0.0536966,0.00841716,-0.0586478,-0.0547694,-0.0642012,-0.0039077,0.0518834,0.0260383,-0.0457199,0.199966,0.199905,0.199976,0.20008,0.200074
567352411,-0.226167,3.61416,-2.46334,-1.20682,0.0473616,1.3026,2.56083,0.0504297,0.0135033,0.0241701,0.0677949,0.0840248,0.133185,0.109922,0.0675795,0.0646387,0.105256,0.199411,0.20047,0.200881,0.200073,0.199166
567552587,-0.663124,3.83,-2.45755,-1.20148,0.0536191,1.30986,2.5678,-0.0232314,0.0309861,0.00813098,-0.0603094,-0.0797881,-0.0118655,0.0299013,0.0943534,0.0926142,0.0268745,0.199806,0.200782,0.200677,0.199636,0.199099
567752762,-0.492028,3.81429,-2.46395,-1.20846,0.0435915,1.29854,2.55872,-0.0330524,0.00233325,-0.0419465,-0.104972,-0.0995214,-0.143649,-0.085429,-0.0337195,-0.0598144,-0.127946,0.199287,0.201306,0.201521,0.199631,0.198256
567952938,-0.397591,3.72206,-2.46616,-1.20981,0.0433206,1.29806,2.55705,0.0547039,0.0340554,0.0143029,0.0226166,0.04763,0.026419,0.0405056,0.0252849,0.00175777,0.00239192,0.199168,0.201249,0.201606,0.199739,0.198238
568153117,-0.424896,3.74087,-2.47063,-1.21441,0.0384884,1.2932,2.55241,-0.0269077,-0.0163549,0.0243307,0.0392274,0.00756807,0.0340127,-0.00548596,-0.00775065,0.0302363,0.0562503,0.199154,0.20135,0.201681,0.199685,0.198129
568353291,-0.543822,3.84293,-2.48397,-1.22885,0.0223461,1.27712,2.53806,-0.05712,-0.0203676,-0.0256842,-0.0657789,-0.0853392,-0.0145138,0.00314552,0.0435053,0.0510317,0.0150968,0.199203,0.201619,0.201798,0.199487,0.197892
568553465,-0.517224,3.81286,-2.48503,-1.22976,0.0215326,1.27623,2.53701,0.043659,0.0531932,0.00391683,-0.0365192,-0.0120314,-0.0332141,0.0219633,0.0481878,0.00948959,-0.0411328,0.199159,0.201553,0.201801,0.199555,0.197931
568753641,-0.513852,3.80717,-2.48358,-1.2284,0.0224004,1.27689,2.53803,0.0355122,0.0301187,-0.0214121,-0.048311,-0.0131558,-0.0547496,-0.00208988,0.00918374,-0.0363194,-0.0761282,0.199074,0.201706,0.201981,0.199513,0.197726
568953816,-0.48943,3.77921,-2.48913,-1.23322,0.0188623,1.27338,2.53329,0.0188988,0.0183072,0.0101809,0.00567671,0.0110584,0.0377135,0.0461062,0.048157,0.041067,0.034565,0.199086,0.201669,0.201946,0.199529,0.19777
569143983,-0.55354,3.83615,-2.50189,-1.24664,0.00499418,1.25992,2.52051,0.0407496,0.0905771,0.0513184,-0.0231723,-0.0299438,-0.0381057,0.0197339,0.085001,0.0680344,-0.00838473,0.199258,0.201454,0.201641,0.199557,0.198091
569354168,-0.550163,3.82157,-2.50178,-1.24687,0.00333502,1.25771,2.51939,-0.00610355,0.0403505,-0.0213282,-0.106458,-0.097248,-0.113052,-0.0326914,0.0363981,-0.000743806,-0.0935325,0.199013,0.201924,0.202177,0.199415,0.197472
569554343,-0.547783,3.82124,-2.50161,-1.24661,0.00389055,1.25837,2.51981,0.0332808,0.0373726,0.0117655,-0.00841919,0.00483446,0.0173341,0.0457482,0.0584835,0.0381016,0.0124845,0.199057,0.201821,0.202069,0.199452,0.197601
569754520,-0.739156,3.78064,-2.50409,-1.2498,0.00146532,1.25712,2.51853,0.0331744,0.0844235,0.0148726,-0.0800977,-0.0690734,-0.0368342,0.0535122,0.130261,0.0880734,-0.0157666,0.199571,0.201807,0.201544,0.199145,0.197933
569954694,-0.649451,3.87886,-2.5084,-1.25402,-0.00382482,1.25107,2.51309,0.016126,0.0540493,-0.00733051,-0.0838512,-0.0694741,-0.110522,-0.0332581,0.0268375,-0.0128667,-0.0982269,0.19924,0.202072,0.202039,0.199184,0.197465
570144872,-0.711247,3.81804,-2.51306,-1.25803,-0.00585565,1.24959,2.50999,0.0389962,0.062489,0.0182907,-0.0330314,-0.0203564,0.00737795,0.0618187,0.101088,0.07129,0.0130033,0.199505,0.201903,0.201669,0.199126,0.197797
570345037,-0.776337,3.75848,-2.51804,-1.26368,-0.0119823,1.24387,2.50497,0.0552966,0.0810426,0.0176794,-0.0479058,-0.0247476,-0.0255819,0.0497962,0.0977483,0.0523805,-0.0243102,0.199652,0.201672,0.20138,0.199179,0.198118
570545214,-0.398424,3.68227,-2.51853,-1.26184,-0.00756191,1.24754,2.5056,0.122806,0.132752,0.0453713,-0.0193631,0.0284808,-0.0250503,0.0704387,0.109653,0.0386783,-0.0450851,0.199352,0.200881,0.201193,0.199853,0.19872
570755397,-0.408338,3.68242,-2.52628,-1.27016,-0.0168444,1.23826,2.49727,0.0737325,0.081122,-0.0119247,-0.0773799,-0.0245471,-0.0490977,0.0514839,0.0897189,0.0131309,-0.0730577,0.199326,0.200757,0.201143,0.199946,0.198828
570955573,-0.523193,3.78435,-2.52637,-1.27059,-0.0173715,1.238,2.49728,0.0210426,0.062003,0.00038235,-0.0790193,-0.0663926,-0.0605724,0.0178062,0.0810235,0.0420734,-0.0457125,0.19945,0.200877,0.201093,0.199796,0.198784
571145750,-0.749541,3.79378,-2.52515,-1.26974,-0.0163743,1.23946,2.49888,-0.0656837,0.00231733,0.0484623,0.00918148,-0.0614443,0.034746,0.00828934,0.0646791,0.126057,0.107666,0.199669,0.201481,0.201243,0.199287,0.19832
571345915,-0.98547,3.57878,-2.52236,-1.27022,-0.0205409,1.23625,2.49999,-0.110543,-0.0117099,0.0859505,0.0480073,-0.0736809,0.100393,0.0297604,0.101626,0.216924,0.216432,0.200092,0.203402,0.20199,0.197838,0.196679
571546101,-0.662027,3.79249,-2.5165,-1.26633,-0.028969,1.22212,2.49468,-0.340939,-0.106216,0.100375,-0.00501622,-0.27948,0.00214962,-0.138281,0.0401285,0.29319,0.270244,0.197475,0.206781,0.206669,0.19731,0.191764
571746275,-0.325713,3.28236,-2.49649,-1.24021,-0.0348328,1.18981,2.47832,-0.645268,-0.174216,0.144418,-0.120811,-0.616628,-0.176781,-0.357064,0.0283048,0.45696,0.333541,0.185019,0.214163,0.224086,0.199826,0.176906
571946442,-0.208237,2.75574,-2.45084,-1.18167,-0.0366423,1.13562,2.45279,-0.921768,-0.204632,0.196455,-0.224763,-0.945888,-0.358352,-0.546781,0.0458454,0.635279,0.407734,0.157969,0.227844,0.262985,0.204596,0.146605
572156628,-0.100449,1.94213,-2.38437,-1.0805,-0.0318321,1.04063,2.39169,-1.29721,-0.343087,0.10935,-0.415691,-1.37055,-0.601143,-0.770838,-0.00911079,0.725645,0.434168,0.104514,0.239328,0.344325,0.215634,0.0961987
572346794,-0.0757047,1.33737,-2.32983,-0.999783,-0.0318355,0.956235,2.33615,-1.29257,-0.267093,0.0948495,-0.395111,-1.4176,-0.697724,-0.760004,0.00761708,0.718573,0.449222,0.062814,0.241068,0.424239,0.215207,0.056673
572546969,-0.0626091,0.929287,-2.28614,-0.929993,-0.0361382,0.875321,2.2805,-1.30778,-0.355165,-0.107548,-0.511555,-1.46917,-0.749902,-0.713621,-0.0363637,0.574643,0.34791,0.0345264,0.231168,0.494413,0.208854,0.0310394
572747145,-0.0580585,0.929334,-2.28167,-0.925431,-0.0316101,0.879931,2.28503,-1.30778,-0.355165,-0.107548,-0.511555,-1.46917,-0.749902,-0.713621,-0.0363637,0.574643,0.34791,0.0345264,0.231168,0.494413,0.208854,0.0310394
572947323,-0.088717,0.742709,-2.24183,-0.888938,-0.0426466,0.835775,2.27315,-1.01772,-0.144366,0.000593007,-0.341169,-1.22877,-0.57563,-0.447105,0.152324,0.669801,0.457025,0.0237975,0.234689,0.53425,0.188375,0.0188886
573147497,-0.072159,0.633795,-2.2298,-0.860345,-0.0384802,0.805699,2.24842,-0.827754,-0.0874248,-0.00868309,-0.299276,-1.07579,-0.756706,-0.579377,-0.0749967,0.356705,0.137604,0.0164485,0.221777,0.563589,0.184798,0.0133873
573347672,-0.0759366,0.512576,-2.20978,-0.823443,-0.0463387,0.75601,2.22079,-0.742613,-0.189887,-0.159831,-0.348781,-0.935154,-0.498686,-0.346273,0.0191914,0.331549,0.176581,0.00958781,0.209587,0.601279,0.172006,0.00753984
573547847,-0.0836366,0.478321,-2.20368,-0.813264,-0.0524747,0.735892,2.2118,-0.630361,-0.146986,-0.145598,-0.319606,-0.842518,-0.484235,-0.313061,0.0111497,0.279381,0.110491,0.00792955,0.20702,0.613263,0.165759,0.00602799
573748033,-0.0848652,0.455276,-2.19319,-0.800169,-0.0507174,0.726206,2.21253,-0.563541,-0.156115,-0.160873,-0.298799,-0.743513,-0.382876,-0.237254,0.0338173,0.262498,0.118722,0.0069068,0.206189,0.621636,0.160214,0.00505502
573948199,-0.0856467,0.438621,-2.18554,-0.788928,-0.0513029,0.719718,2.21412,-0.50774,-0.15817,-0.16461,-0.275041,-0.658666,-0.349963,-0.228005,0.00224221,0.201493,0.0794677,0.00616572,0.204812,0.628006,0.156605,0.00441191
574148375,-0.0954255,0.425684,-2.17963,-0.783791,-0.0555831,0.709268,2.21563,-0.468326,-0.18197,-0.216421,-0.329573,-0.654649,-0.250813,-0.102439,0.0998453,0.258654,0.103074,0.00573598,0.207363,0.632202,0.150825,0.0038738
574348550,-0.0855405,0.418481,-2.16492,-0.767204,-0.0444599,0.717433,2.22957,-0.356787,-0.126926,-0.147019,-0.219579,-0.477339,-0.223627,-0.129616,0.0268928,0.161985,0.0559794,0.00545223,0.207529,0.63497,0.148441,0.00360808
574548726,-0.0753491,0.411686,-2.14907,-0.748074,-0.034074,0.726832,2.24512,-0.419452,-0.219758,-0.223887,-0.266632,-0.484054,-0.140835,-0.0919354,0.0356372,0.158804,0.0976712,0.00519363,0.207787,0.637218,0.146425,0.00337686
574748910,-0.0786359,0.407337,-2.1448,-0.743434,-0.0348554,0.725731,2.25025,-0.309812,-0.147622,-0.177096,-0.235412,-0.422072,-0.104821,-0.0192464,0.0981628,0.194508,0.0906443,0.00508139,0.209636,0.638366,0.14371,0.00320669
574949077,-0.0858648,0.40372,-2.14256,-0.741501,-0.0387629,0.722376,2.25416,-0.306328,-0.177686,-0.21823,-0.278263,-0.43261,-0.0606,0.0350371,0.137447,0.213068,0.0945455,0.00502978,0.21246,0.6388,0.140652,0.00305831
575149253,-0.0891279,0.400109,-2.14153,-0.739417,-0.040692,0.718165,2.25554,-0.287195,-0.180147,-0.218421,-0.269605,-0.399176,-0.168905,-0.0849797,0.00251822,0.0669325,-0.0412153,0.00492205,0.213422,0.639599,0.139122,0.00293533
575349432,-0.0763121,0.397743,-2.12089,-0.720879,-0.0238425,0.733393,2.27709,-0.171282,-0.0965953,-0.172652,-0.258572,-0.37041,-0.124902,0.0273492,0.116506,0.154092,-0.0305524,0.00492318,0.216282,0.639534,0.136429,0.00283116
575549604,-0.0702791,0.394493,-2.09727,-0.703031,-0.0112947,0.747811,2.30235,-0.134468,-0.0982094,-0.225745,-0.361879,-0.455871,-0.158776,0.0893346,0.184917,0.18944,-0.103263,0.00500072,0.221896,0.638613,0.131804,0.00268657
575749780,-0.0749116,0.385494,-2.07666,-0.692407,-0.00885646,0.747834,2.31461,-0.00330991,0.000559032,-0.19314,-0.402628,-0.494335,-0.362217,0.0192619,0.134644,0.106247,-0.336103,0.00487874,0.227448,0.639382,0.125893,0.00239857
575949956,-0.099712,0.368564,-2.06384,-0.695457,-0.0255302,0.724439,2.30593,0.125251,0.0936186,-0.180265,-0.481986,-0.581496,-0.523383,0.0237583,0.167556,0.104423,-0.527454,0.00451326,0.233711,0.642093,0.117731,0.00195225
576150131,-0.126916,0.347732,-2.05242,-0.700523,-0.0468274,0.693133,2.28665,0.249967,0.181913,-0.137796,-0.492952,-0.593293,-0.603277,0.0390809,0.194213,0.109426,-0.642937,0.00397318,0.238225,0.646503,0.109794,0.00150441
576350316,-0.137029,0.347743,-2.06252,-0.710641,-0.0569314,0.682959,2.27648,0.249967,0.181913,-0.137796,-0.492952,-0.593293,-0.603277,0.0390809,0.194213,0.109426,-0.642937,0.00397318,0.238225,0.646503,0.109794,0.00150441
576550482,-0.163524,0.331558,-2.0547,-0.718037,-0.0783134,0.652921,2.25808,0.241364,0.117856,-0.16893,-0.467698,-0.500361,-0.540777,0.00771919,0.115189,0.016758,-0.656748,0.00356708,0.242629,0.649604,0.103013,0.00118691
576750658,-0.173275,0.323507,-2.04524,-0.717195,-0.0850659,0.641403,2.25387,0.200216,0.0538024,-0.15252,-0.341679,-0.299808,-0.373867,-0.0173345,0.0290169,-0.0629468,-0.5387,0.00337641,0.245491,0.650777,0.0993178,0.00103854
576950833,-0.182483,0.322217,-2.04617,-0.721629,-0.0914949,0.635374,2.25331,0.0346509,-0.11052,-0.222558,-0.287339,-0.173866,-0.101484,0.0363816,0.0225272,-0.0551058,-0.289311,0.0034221,0.248585,0.649346,0.0976359,0.001011
577151009,-0.188932,0.321839,-2.04967,-0.726704,-0.096959,0.629476,2.25024,0.00930709,-0.115411,-0.132542,-0.0770563,0.0903613,0.0165494,-0.0569262,-0.122165,-0.178551,-0.167548,0.00346103,0.249721,0.648538,0.0972714,0.00100845
577351184,-0.187199,0.318882,-2.04895,-0.724998,-0.0974933,0.625925,2.24448,-0.118122,-0.229395,-0.156199,0.0171818,0.244421,0.309114,0.0299252,-0.0884196,-0.128128,0.1208,0.00336255,0.24775,0.649783,0.0981102,0.000994794
577551360,-0.185947,0.314373,-2.0542,-0.725659,-0.101549,0.616744,2.22833,-0.208611,-0.319072,-0.219547,-0.0117761,0.238549,0.423525,0.0821359,-0.0534083,-0.0909508,0.227907,0.00315309,0.242859,0.652698,0.100312,0.000977752
577751535,-0.185418,0.310661,-2.05777,-0.724937,-0.105984,0.611486,2.2169,-0.162,-0.267277,-0.186052,-0.00825316,0.219985,0.395098,0.10115,-0.018188,-0.0559445,0.209397,0.00298211,0.238941,0.655091,0.102026,0.000959972
577951711,-0.176693,0.307868,-2.05849,-0.720382,-0.101704,0.608642,2.20597,-0.128488,-0.258891,-0.213414,-0.0765805,0.153175,0.44454,0.221239,0.111643,0.055872,0.2321,0.00281034,0.234146,0.657607,0.104479,0.000956738
578151886,-0.170986,0.307537,-2.06469,-0.718967,-0.100286,0.609093,2.19888,-0.0938463,-0.281359,-0.289535,-0.205248,0.0492181,0.398071,0.269369,0.163052,0.0712115,0.120509,0.00275031,0.230484,0.658463,0.107308,0.00099512
578352062,-0.169878,0.308792,-2.07181,-0.720888,-0.100544,0.610901,2.19749,0.0335829,-0.219267,-0.308142,-0.310064,-0.0486189,0.294156,0.323707,0.233876,0.0992512,-0.0467502,0.00281717,0.22982,0.657319,0.10899,0.00105374
578552238,-0.169774,0.308843,-2.07929,-0.722317,-0.103382,0.612379,2.1941,0.20753,-0.0716565,-0.196853,-0.238895,0.0217658,0.249922,0.354182,0.273136,0.119865,-0.113172,0.00282716,0.228206,0.657091,0.110778,0.00109737
578752413,-0.17874,0.305896,-2.09582,-0.734997,-0.115505,0.593668,2.16861,0.368851,0.0670186,-0.060928,-0.0983939,0.187485,0.202284,0.30094,0.208632,0.042621,-0.189971,0.00269001,0.2245,0.659025,0.112695,0.00109007
578952588,-0.23262,0.302819,-2.15136,-0.787666,-0.172654,0.537481,2.10795,0.339507,0.027673,-0.0937366,-0.120032,0.180697,0.169015,0.248042,0.146543,-0.0233466,-0.23811,0.00257413,0.222124,0.660592,0.113643,0.00106657
579152772,-0.252125,0.299996,-2.16845,-0.805503,-0.192627,0.515686,2.08554,0.260569,-0.0616912,-0.163439,-0.160461,0.1694,0.160345,0.186052,0.0664874,-0.106182,-0.268901,0.00251193,0.221696,0.661287,0.113467,0.00103744
579352939,-0.252848,0.297696,-2.17279,-0.807212,-0.195793,0.5104,2.07609,0.297932,0.00572824,-0.10129,-0.119413,0.164675,0.193745,0.254023,0.155873,-0.00181034,-0.189877,0.00242326,0.219386,0.66254,0.114623,0.00102731
579553115,-0.248886,0.296313,-2.17216,-0.804288,-0.193494,0.511771,2.07459,0.251724,-0.0217748,-0.132609,-0.16503,0.0881387,0.167991,0.25241,0.16817,0.0200485,-0.185665,0.00238021,0.217922,0.663092,0.115576,0.00102988
579753290,-0.243485,0.295169,-2.16774,-0.798978,-0.188614,0.516463,2.07833,0.230552,-0.0402529,-0.164235,-0.216864,0.0179487,0.117101,0.238212,0.164523,0.0164187,-0.225651,0.00236842,0.21757,0.663136,0.115894,0.00103132
579953466,-0.237386,0.293957,-2.16467,-0.795171,-0.182497,0.51808,2.07858,0.25305,-0.0182992,-0.154835,-0.225378,-0.00326759,0.117992,0.271766,0.206224,0.0563108,-0.219224,0.00235797,0.216914,0.663187,0.116501,0.00103953
580153643,-0.229171,0.291565,-2.1555,-0.784681,-0.175566,0.529421,2.08894,0.360887,0.0770328,-0.13072,-0.294717,-0.127907,-0.0113872,0.315073,0.289293,0.125313,-0.333737,0.00233069,0.21664,0.663516,0.116485,0.00102867
580343811,-0.236023,0.284944,-2.14563,-0.783051,-0.178969,0.523773,2.08852,0.370394,0.0653664,-0.188407,-0.408254,-0.261271,-0.193676,0.236722,0.229434,0.0498487,-0.525038,0.00225181,0.219473,0.664517,0.112832,0.000926075
580553996,-0.229389,0.278642,-2.13605,-0.773937,-0.174629,0.522928,2.08409,0.485711,0.183169,-0.0374647,-0.216144,-0.0431672,-0.14802,0.202328,0.176578,0.00299479,-0.492574,0.00205919,0.216697,0.667665,0.112727,0.000851772
580754167,-0.230192,0.276774,-2.13437,-0.773362,-0.174718,0.522931,2.08501,0.296271,0.0228891,-0.159796,-0.299934,-0.132749,-0.000141002,0.276993,0.244189,0.0909923,-0.31722,0.00205696,0.217399,0.667594,0.11211,0.000840048
580954343,-0.226905,0.274077,-2.13188,-0.769862,-0.17331,0.521568,2.08071,0.34633,0.168923,0.0313174,-0.084913,0.00382131,-0.117583,0.109177,0.100813,0.000669211,-0.314833,0.00195765,0.215287,0.669348,0.112596,0.000811401
581154518,-0.231793,0.272629,-2.13036,-0.771629,-0.176605,0.517902,2.07947,0.00425798,-0.00823867,-0.0946477,-0.20543,-0.280891,-0.176581,0.0312671,0.0822437,0.0717091,-0.153216,0.00194507,0.216688,0.669475,0.11111,0.000782043
581344685,-0.231521,0.270667,-2.12488,-0.768779,-0.175442,0.518191,2.08099,-0.0522971,0.0963713,0.0460163,-0.0788219,-0.329101,-0.231268,-0.00632324,0.111877,0.187675,0.014371,0.00191175,0.217336,0.670037,0.109964,0.000751873
581544860,-0.226229,0.267063,-2.10946,-0.758435,-0.168912,0.522185,2.08679,-0.252817,-0.0295699,-0.0389529,-0.136321,-0.441549,-0.225565,-0.054718,0.0781247,0.195685,0.111733,0.00182862,0.218103,0.671455,0.107923,0.000691219
581745035,-0.21703,0.264253,-2.09825,-0.747835,-0.160976,0.527223,2.08998,-0.168513,0.0390716,0.0287954,-0.0639589,-0.352049,-0.316263,-0.151739,-0.0270843,0.0828053,0.000877798,0.00173443,0.216489,0.673304,0.107815,0.000657201
581955240,-0.215337,0.26196,-2.08619,-0.741182,-0.157175,0.529806,2.0958,-0.253556,-0.116219,-0.137028,-0.216963,-0.423968,-0.122698,0.0219941,0.113893,0.18642,0.0955258,0.00169962,0.218317,0.673798,0.105571,0.000613888
582155395,-0.218576,0.260912,-2.08312,-0.741409,-0.158936,0.527673,2.0961,-0.223998,-0.179756,-0.209591,-0.266402,-0.360421,-0.0969102,0.00823279,0.0539921,0.0776894,-0.0141189,0.00169014,0.219715,0.673817,0.104186,0.000591811
582345561,-0.220732,0.260623,-2.08119,-0.741711,-0.159793,0.527156,2.09765,-0.189286,-0.175757,-0.2022,-0.242545,-0.291492,0.00163963,0.0770507,0.103195,0.110904,0.0359259,0.00170104,0.221035,0.673453,0.103229,0.000582451
582550740,-0.218006,0.260064,-2.0759,-0.737729,-0.156606,0.529965,2.10127,-0.148004,-0.105235,-0.121373,-0.158845,-0.235442,-0.0848531,-0.0156999,0.0198925,0.043389,-0.0113795,0.00169075,0.221453,0.673584,0.102701,0.000572157
582750915,-0.211566,0.25961,-2.06928,-0.732724,-0.149269,0.531938,2.10345,-0.0514457,-0.00617898,-0.0185557,-0.0518783,-0.127633,-0.1056,-0.0442012,-0.00979745,0.015101,-0.0301503,0.00168105,0.221359,0.673774,0.102618,0.00056803
582951093,-0.214894,0.25889,-2.07104,-0.735219,-0.152554,0.527888,2.09955,0.0780084,0.0355778,-0.0190057,-0.0785612,-0.0864663,-0.145244,-0.0335743,-0.0192987,-0.042297,-0.180711,0.00166201,0.221314,0.674128,0.102338,0.000558305
583151276,-0.21955,0.257711,-2.07142,-0.736134,-0.157681,0.526857,2.09918,0.118813,0.0266343,-0.0539706,-0.131604,-0.104009,-0.167808,-0.021852,-0.0174294,-0.0675557,-0.264941,0.00163399,0.221675,0.674602,0.101549,0.00053929
583351441,-0.220195,0.257201,-2.06885,-0.735359,-0.157106,0.527935,2.10219,0.100784,-0.000444829,-0.10021,-0.202354,-0.187129,-0.0452476,0.145745,0.158762,0.103547,-0.145298,0.00165007,0.222932,0.674148,0.100736,0.000533872
583551616,-0.218952,0.256573,-2.06328,-0.732192,-0.154354,0.531113,2.10778,0.0741142,-0.0133859,-0.109947,-0.213193,-0.212758,-0.0672957,0.124979,0.143592,0.0956735,-0.148341,0.00166583,0.22447,0.673659,0.09968,0.000525241
583751804,-0.222488,0.25583,-2.06079,-0.733026,-0.155972,0.52981,2.10958,-0.00313473,-0.0626494,-0.144361,-0.237573,-0.257182,-0.0979844,0.0748208,0.0989451,0.0662719,-0.144544,0.00168025,0.226417,0.673124,0.0982668,0.000511721
583951966,-0.232054,0.255093,-2.06525,-0.740294,-0.164002,0.521938,2.10421,0.0100458,-0.0386136,-0.116832,-0.20972,-0.240251,-0.102925,0.0685017,0.0965087,0.069796,-0.135004,0.00168844,0.227975,0.672743,0.097094,0.000499538
584152141,-0.23269,0.254801,-2.06015,-0.73843,-0.162461,0.524327,2.11009,-0.0680902,-0.125235,-0.19448,-0.271297,-0.278915,-0.0454388,0.0962104,0.11312,0.0820464,-0.09595,0.00171922,0.230264,0.671829,0.0956973,0.000490891
584352316,-0.225047,0.254911,-2.05085,-0.730101,-0.153996,0.533315,2.12034,-0.0744529,-0.111704,-0.147867,-0.184657,-0.177898,0.0236994,0.0916218,0.0962963,0.0763525,-0.0146506,0.00173717,0.231152,0.671361,0.0952599,0.000490397
584552494,-0.224201,0.255234,-2.05077,-0.729642,-0.153089,0.53469,2.12172,-0.0553854,-0.113095,-0.137477,-0.148935,-0.0983964,0.121129,0.143015,0.127494,0.0965163,0.044407,0.00174997,0.231263,0.671113,0.0953786,0.000495333
584752666,-0.224623,0.255661,-2.05358,-0.731181,-0.153997,0.534145,2.12033,-0.171702,-0.229632,-0.233197,-0.214206,-0.136951,0.142034,0.108544,0.0779356,0.0470356,0.0536568,0.00175813,0.23082,0.67103,0.0958882,0.000503815
584952841,-0.222617,0.255558,-2.05184,-0.729284,-0.152244,0.535656,2.1214,-0.13466,-0.124446,-0.112438,-0.0981941,-0.0968704,0.115827,0.0901877,0.0875052,0.0937199,0.124836,0.00174992,0.230545,0.671209,0.0959933,0.00050292
585153021,-0.220084,0.254333,-2.04803,-0.727569,-0.149372,0.532169,2.11745,-0.291823,-0.184816,-0.155794,-0.155668,-0.268335,-0.018874,-0.0200072,0.020594,0.0794048,0.131042,0.00170614,0.229844,0.672082,0.0958784,0.000489588
585353191,-0.223787,0.253448,-2.04747,-0.729313,-0.152267,0.528689,2.11531,-0.190234,-0.0776075,-0.06317,-0.0864916,-0.225491,0.0178682,0.0596519,0.113818,0.175378,0.184841,0.00169185,0.230613,0.672204,0.0950163,0.000475364
585553366,-0.231129,0.252638,-2.05008,-0.734544,-0.158605,0.521709,2.11,-0.275855,-0.220017,-0.228653,-0.263043,-0.352339,-0.00742922,0.0551442,0.0934137,0.124041,0.0842941,0.00168078,0.231576,0.672228,0.0940542,0.000461081
585753552,-0.243888,0.251369,-2.05246,-0.74277,-0.168125,0.512475,2.10615,-0.0519685,-0.064677,-0.156516,-0.285633,-0.386691,-0.121567,0.113758,0.17293,0.16601,-0.090175,0.00170496,0.234943,0.671187,0.0917249,0.000440256
585943707,-0.261515,0.247692,-2.05597,-0.754043,-0.182826,0.495892,2.09476,0.152558,0.0422547,-0.124827,-0.326321,-0.388187,-0.259068,0.106325,0.164557,0.104739,-0.339748,0.00167012,0.237862,0.671196,0.0888723,0.000400028
586153894,-0.278801,0.243843,-2.06462,-0.765373,-0.200913,0.480262,2.0795,0.284106,0.109828,-0.0585784,-0.237907,-0.213412,-0.259138,0.0638144,0.0873052,-0.00637552,-0.440637,0.00157906,0.237855,0.672795,0.087407,0.000363754
586354066,-0.286397,0.238166,-2.06154,-0.767556,-0.210081,0.464194,2.06182,0.403216,0.196879,0.0473905,-0.0922952,-3.35574e-05,-0.39467,-0.144781,-0.152663,-0.263,-0.63734,0.00140168,0.235718,0.676567,0.0860024,0.000310989
586554241,-0.28765,0.234666,-2.05771,-0.768007,-0.211628,0.452185,2.04858,0.389207,0.168006,0.0417014,-0.0596396,0.0800742,-0.179121,-0.000575691,-0.0325224,-0.149544,-0.458535,0.00130217,0.23398,0.678954,0.0854785,0.000284869
586754416,-0.296438,0.2319,-2.05616,-0.772022,-0.219163,0.442083,2.04125,0.292506,0.0449227,-0.0585915,-0.116387,0.0924209,-0.137159,-0.0400544,-0.103388,-0.235083,-0.47393,0.00125442,0.235242,0.679633,0.0836103,0.00025972
586944581,-0.302391,0.231465,-2.06077,-0.775472,-0.225642,0.442186,2.04182,0.0806358,-0.15684,-0.200621,-0.172762,0.112312,0.153946,0.0927065,-0.00986521,-0.139511,-0.207692,0.00125947,0.235857,0.679357,0.0832686,0.000257934
587144757,-0.295777,0.23079,-2.05566,-0.769513,-0.219684,0.447811,2.04631,0.0204682,-0.209885,-0.221968,-0.148727,0.175068,0.261697,0.117605,-0.00521156,-0.133203,-0.109571,0.00124981,0.235113,0.679718,0.0836607,0.000258818
587344931,-0.286669,0.229643,-2.05175,-0.762575,-0.213331,0.452234,2.04592,0.0415874,-0.177717,-0.181124,-0.099231,0.221104,0.384001,0.224456,0.101435,-0.0208372,0.0251848,0.00119829,0.231902,0.681569,0.0850715,0.000258838
587555126,-0.277777,0.228601,-2.04824,-0.75594,-0.207198,0.456499,2.04537,0.0464275,-0.168241,-0.173965,-0.0980562,0.210342,0.382276,0.23322,0.115082,-0.00387085,0.0324411,0.00114958,0.228697,0.683362,0.0865317,0.000259341
587755289,-0.272058,0.227768,-2.04646,-0.75187,-0.203679,0.458381,2.04338,0.00789666,-0.144729,-0.134494,-0.059311,0.181045,0.3474,0.201795,0.107291,0.022243,0.0886562,0.00110891,0.226129,0.684843,0.0876603,0.000258713
587955464,-0.265819,0.227449,-2.04246,-0.746602,-0.198582,0.462701,2.04565,-0.0497577,-0.129798,-0.112454,-0.0551198,0.0891452,0.245098,0.135284,0.0768444,0.0317285,0.10081,0.00108986,0.2248,0.685562,0.0882885,0.000259033
588145630,-0.262857,0.227289,-2.0427,-0.745034,-0.196984,0.463657,2.04414,-0.0489316,-0.132327,-0.125431,-0.0826622,0.0500045,0.275749,0.192679,0.140332,0.0941476,0.133273,0.00107162,0.223244,0.686306,0.0891176,0.000260963
588345804,-0.258464,0.227168,-2.04298,-0.742678,-0.194388,0.465602,2.0429,-0.0644881,-0.178606,-0.174114,-0.123248,0.0501707,0.303636,0.204004,0.136184,0.0733692,0.112147,0.00105188,0.221226,0.687163,0.0902938,0.000265006
588545979,-0.253985,0.227031,-2.04263,-0.739999,-0.191424,0.468135,2.04281,-0.058081,-0.194662,-0.190446,-0.13157,0.0733919,0.272701,0.157031,0.076895,0.00200514,0.0444765,0.00103738,0.219556,0.687811,0.0913268,0.000269139
588746153,-0.253868,0.226939,-2.0462,-0.74149,-0.192663,0.46649,2.03882,0.000885487,-0.135948,-0.147255,-0.111699,0.068767,0.264759,0.192694,0.124244,0.0504172,0.0477411,0.00102418,0.218059,0.688394,0.0922503,0.000272758
588956337,-0.250547,0.226675,-2.04534,-0.741107,-0.18923,0.463309,2.03432,0.0338509,-0.0881868,-0.109382,-0.094368,0.0487953,0.217108,0.184204,0.131596,0.0666085,0.0320097,0.00101671,0.21705,0.688747,0.0929106,0.000275838
589146502,-0.246133,0.226727,-2.04305,-0.73575,-0.186689,0.471757,2.04102,0.0896724,-0.0409585,-0.0649809,-0.0509615,0.0998635,0.19312,0.161818,0.106547,0.0371409,-0.00381871,0.00100499,0.216093,0.689203,0.0934215,0.000276666
589346677,-0.239018,0.226557,-2.0375,-0.729318,-0.180171,0.47805,2.04631,0.0786815,-0.0780614,-0.111538,-0.101763,0.0716435,0.172234,0.14789,0.0851164,0.0021888,-0.0604932,0.000998695,0.215432,0.689467,0.0938236,0.000278032
589546851,-0.233777,0.226246,-2.03408,-0.724829,-0.17581,0.481852,2.0486,0.124931,-0.030219,-0.0655993,-0.0593098,0.108599,0.183109,0.165429,0.105011,0.0231262,-0.0454296,0.000985567,0.214433,0.689968,0.0943354,0.000278415
589747025,-0.235166,0.22595,-2.03814,-0.72735,-0.178354,0.478658,2.04343,0.170805,0.0066095,-0.0437716,-0.0564655,0.100766,0.181283,0.199057,0.14486,0.0590748,-0.0506859,0.00097062,0.213131,0.690562,0.0950563,0.00027984
589947200,-0.236074,0.225849,-2.04073,-0.730785,-0.178664,0.47242,2.03676,0.0790477,-0.0248859,-0.0708698,-0.0998671,-0.0225767,0.142531,0.193517,0.169787,0.116447,0.00663608,0.000973507,0.212747,0.690534,0.0954613,0.000283707
590147378,-0.242787,0.226095,-2.04819,-0.736094,-0.18654,0.470672,2.0345,0.0942495,0.00236082,-0.0397193,-0.067416,-0.00127351,0.0584979,0.107591,0.0876423,0.0405511,-0.0604526,0.000972372,0.212558,0.690592,0.0955927,0.000284395
590347558,-0.24697,0.225923,-2.05211,-0.740167,-0.190666,0.466556,2.0305,0.0936164,-0.0467086,-0.0965114,-0.1174,0.00592852,0.063437,0.0979041,0.0566666,-0.0161194,-0.129147,0.000972257,0.212617,0.690589,0.095538,0.000283917
590547723,-0.235743,0.225618,-2.04307,-0.731664,-0.179132,0.471891,2.03493,0.123743,-0.0392284,-0.0983244,-0.124469,0.0168585,0.160509,0.20405,0.15709,0.0725959,-0.0622558,0.000969801,0.211893,0.690752,0.0960982,0.000287514
590752905,-0.227678,0.224933,-2.0334,-0.722866,-0.17097,0.479455,2.04263,0.179419,-0.00763744,-0.0785037,-0.112986,0.0443128,0.0323247,0.0909827,0.0393316,-0.0574545,-0.220734,0.000960146,0.211909,0.691028,0.0958203,0.000282666
590953076,-0.22206,0.224955,-2.03361,-0.717904,-0.168485,0.487524,2.04697,0.244114,0.0406504,-0.0363956,-0.0740044,0.0969722,0.225354,0.289078,0.232964,0.127756,-0.0501376,0.000940139,0.20962,0.69188,0.0972722,0.000288085
591153250,-0.217809,0.22418,-2.02687,-0.714427,-0.162489,0.487339,2.04822,0.114485,-0.111334,-0.177844,-0.191539,0.0263467,0.0812407,0.0992973,0.0230505,-0.0944401,-0.238045,0.000944544,0.21038,0.691665,0.0967256,0.000285084
591353432,-0.211988,0.223436,-2.02421,-0.708011,-0.159567,0.494996,2.0525,0.255911,-0.000337481,-0.0703179,-0.077718,0.178537,0.231325,0.236111,0.145454,0.0116809,-0.135669,0.000911165,0.208217,0.692892,0.0976973,0.00028283
591543591,-0.201739,0.221441,-2.01823,-0.701206,-0.151334,0.494154,2.04652,0.376993,0.0727334,-0.0285454,-0.0646991,0.209529,0.227267,0.284876,0.191137,0.0338806,-0.193781,0.000857672,0.204692,0.694897,0.0992746,0.000278677
591753776,-0.187437,0.218691,-2.00693,-0.687867,-0.140096,0.501984,2.04896,0.489824,0.119019,-0.0524164,-0.168201,0.0869219,0.0969866,0.304505,0.226612,0.0389171,-0.376197,0.000795313,0.201022,0.69728,0.100633,0.000269217
591953947,-0.17813,0.213458,-1.9976,-0.675794,-0.136262,0.505404,2.04406,0.666797,0.247463,0.0112656,-0.183276,0.0319676,-0.0892523,0.268403,0.212799,0.00490861,-0.586542,0.000679778,0.195305,0.701924,0.10185,0.000240501
592154121,-0.173561,0.208513,-1.99322,-0.670552,-0.135674,0.499753,2.03084,0.649994,0.223915,-0.00797069,-0.196763,0.0205272,-0.055292,0.29153,0.23184,0.0242685,-0.561211,0.000589114,0.190101,0.705992,0.1031,0.000218019
592354295,-0.169654,0.202887,-1.98408,-0.665168,-0.13389,0.487002,2.01105,0.658765,0.258279,0.0667982,-0.0740164,0.163099,-0.109488,0.145124,0.0715179,-0.122395,-0.604236,0.000498339,0.185445,0.710506,0.103362,0.000188563
592554469,-0.180787,0.199951,-1.98998,-0.671478,-0.14717,0.476071,1.99731,0.521888,0.155502,0.0114129,-0.0743722,0.185925,-0.0258724,0.120366,0.0321467,-0.144922,-0.505932,0.000449091,0.18339,0.713237,0.102755,0.00016878
592744634,-0.13763,0.197608,-1.94423,-0.626287,-0.10545,0.514405,2.0325,0.463478,0.167226,0.0530193,-0.0144983,0.195529,-0.00316279,0.109951,0.0381025,-0.103821,-0.393366,0.000414319,0.181323,0.715308,0.102798,0.000157087
592944811,-0.131909,0.195149,-1.93804,-0.622843,-0.100134,0.508588,2.02301,0.31094,0.237511,0.100469,-0.0780942,-0.228884,-0.342077,0.0121979,0.0775839,0.0559841,-0.321763,0.000384062,0.178865,0.717204,0.103397,0.000149115
593154991,-0.125528,0.193373,-1.93841,-0.615458,-0.0991969,0.514647,2.02183,0.339044,0.389038,0.259501,0.0500225,-0.265054,-0.44278,-0.0135313,0.112232,0.154891,-0.212831,0.000351294,0.174293,0.719243,0.105966,0.000147553
593355165,-0.118906,0.191062,-1.92869,-0.610415,-0.0919946,0.510166,2.01488,0.114553,0.134859,0.0395143,-0.108399,-0.318153,-0.421588,-0.117091,-0.0336988,-0.0108485,-0.278211,0.000326922,0.172679,0.720979,0.105878,0.000138072
593555342,-0.119734,0.190842,-1.92917,-0.610994,-0.0929607,0.508738,2.01322,0.00260758,0.0171379,-0.00581336,-0.0443903,-0.109572,-0.164812,-0.0836894,-0.0586287,-0.0477601,-0.112872,0.000323974,0.172462,0.721194,0.105883,0.000136976
593745508,-0.125829,0.190986,-1.93563,-0.613759,-0.100858,0.509551,2.01349,-0.138564,-0.115174,-0.0538387,0.0299654,0.115134,0.0978422,-0.0714022,-0.106358,-0.102299,0.066957,0.000322188,0.172211,0.721312,0.106018,0.000136794
593945678,-0.125769,0.190153,-1.93307,-0.616035,-0.0985113,0.502742,2.00773,-0.0961643,-0.0923333,-0.011144,0.108654,0.259876,0.117233,-0.12788,-0.188378,-0.19715,0.028702,0.000323738,0.172915,0.721238,0.105389,0.00013502
594145853,-0.139024,0.188882,-1.94218,-0.623839,-0.113643,0.494196,1.99716,-0.071438,-0.0811145,0.00618517,0.139663,0.322168,0.386824,0.11247,0.0400686,0.0233368,0.267478,0.000305655,0.172073,0.722644,0.104851,0.000126445
594346030,-0.14377,0.187666,-1.94656,-0.628213,-0.119589,0.486133,1.98591,-0.141274,-0.170488,-0.0904335,0.0388837,0.237374,0.363588,0.0949294,0.0175043,-0.00893886,0.216159,0.000289629,0.170406,0.723868,0.105314,0.000122101
594556209,-0.142928,0.18653,-1.94352,-0.626247,-0.119218,0.484627,1.98252,-0.0381997,-0.086243,-0.0213385,0.0914974,0.287939,0.343849,0.10624,0.0305578,-0.00366731,0.179639,0.000277123,0.169515,0.724904,0.105187,0.000117021
594746381,-0.139978,0.185406,-1.93782,-0.621935,-0.116588,0.485344,1.98159,0.0424403,-0.0268629,0.0237595,0.122237,0.321433,0.349263,0.13837,0.0624932,0.019164,0.163418,0.000265104,0.168762,0.725954,0.104907,0.000111668
594946550,-0.131845,0.184209,-1.92618,-0.615653,-0.106601,0.484797,1.9808,0.0890099,0.0168825,0.0548485,0.135307,0.314064,0.243582,0.0690197,0.00143074,-0.041631,0.0671355,0.000258872,0.16877,0.726551,0.104313,0.000107544
595146722,-0.132956,0.183713,-1.92536,-0.612299,-0.109606,0.489514,1.98407,0.111467,0.0257756,0.0578114,0.133839,0.320555,0.320359,0.153097,0.0829454,0.0336252,0.126344,0.000249048,0.168091,0.727459,0.104097,0.000103312
595346896,-0.132067,0.183286,-1.9235,-0.610918,-0.108888,0.489405,1.9832,0.073714,0.00632912,0.0274304,0.0810621,0.219968,0.221397,0.102259,0.0502502,0.0120636,0.0732335,0.000244411,0.167734,0.727896,0.104025,0.000101411
595547070,-0.130905,0.183048,-1.92132,-0.609293,-0.107686,0.490156,1.98371,0.00814754,0.0145519,0.0437416,0.085516,0.136611,0.186648,0.100533,0.0808634,0.0794053,0.160347,0.00024206,0.167671,0.728132,0.103855,0.000100072
595747262,-0.128022,0.183065,-1.91804,-0.606277,-0.104537,0.493477,1.98757,0.00733238,0.111273,0.1415,0.153224,0.0680416,-0.0373626,-0.0494536,-0.0188446,0.0298996,0.110418,0.000243744,0.167986,0.727989,0.103681,0.000100189
595952423,-0.125055,0.182925,-1.91318,-0.602563,-0.100915,0.49725,1.99245,-0.0388093,0.10737,0.145806,0.156105,0.0278245,0.00226428,-0.00195693,0.0443867,0.113604,0.215494,0.000245688,0.168687,0.727848,0.10312,9.92726e-05
596152598,-0.12135,0.182436,-1.90708,-0.597817,-0.0969209,0.500624,1.99592,-0.177305,-0.0198457,0.00480306,-0.00927651,-0.182545,-0.0636872,-0.0156976,0.0474456,0.124927,0.187939,0.000242757,0.168852,0.728153,0.102656,9.6892e-05
596352777,-0.11693,0.182068,-1.90353,-0.593702,-0.0930436,0.503998,1.99814,-0.162577,0.0570645,0.109901,0.118008,-0.0852376,-0.183962,-0.174574,-0.100996,0.0038582,0.143713,0.000239448,0.168193,0.728446,0.103024,9.67345e-05
596552944,-0.11824,0.181209,-1.90237,-0.593846,-0.0944339,0.50137,1.99467,-0.248601,-0.0210662,0.0227291,0.0148037,-0.218117,-0.132546,-0.0887318,-0.00399789,0.106373,0.220983,0.000232784,0.167851,0.729109,0.102713,9.34656e-05
596753118,-0.125458,0.180192,-1.90522,-0.599095,-0.101247,0.493305,1.98655,-0.231431,-0.00934088,0.0130945,-0.0249432,-0.294871,-0.154551,-0.0478589,0.0507218,0.161959,0.217883,0.000226649,0.168009,0.729764,0.101911,8.91234e-05
596953302,-0.119937,0.179217,-1.90077,-0.597337,-0.0950653,0.489388,1.98075,-0.0643889,0.173047,0.187862,0.133536,-0.17513,-0.305778,-0.162261,-0.0496444,0.0710516,0.105994,0.000221818,0.16695,0.730192,0.102548,8.905e-05
597153466,-0.121941,0.178526,-1.89928,-0.59427,-0.0985511,0.493616,1.98419,-0.28971,-0.0657734,-0.0364929,-0.0644957,-0.322335,-0.159489,-0.0725867,0.0213322,0.132138,0.20834,0.000213481,0.166665,0.731093,0.101944,8.45281e-05
597353640,-0.108277,0.177352,-1.88254,-0.582599,-0.0833804,0.49818,1.98799,-0.233513,-0.048174,-0.0251064,-0.0498134,-0.265859,-0.147342,-0.071397,0.00712452,0.0990391,0.15968,0.000207836,0.166388,0.731715,0.101608,8.17035e-05
597553814,-0.117844,0.177423,-1.89121,-0.588374,-0.0943119,0.49626,1.98618,-0.129812,0.0316728,0.0529846,0.0334257,-0.152227,-0.104037,-0.0415355,0.0258281,0.10566,0.162382,0.000206061,0.166473,0.731923,0.101318,8.03692e-05
597753988,-0.12274,0.17688,-1.89584,-0.593012,-0.0997931,0.489721,1.97807,-0.206434,-0.0367657,-0.014117,-0.0342457,-0.228852,-0.205284,-0.140303,-0.0697368,0.0140992,0.0746125,0.00020034,0.165641,0.732534,0.101546,7.89103e-05
597954161,-0.124446,0.176324,-1.89428,-0.593306,-0.100987,0.487895,1.97674,-0.17689,-0.0158181,-0.00295734,-0.034959,-0.238283,-0.0861356,0.00303619,0.0768026,0.157975,0.191771,0.000198042,0.166041,0.732834,0.10085,7.64723e-05
598154335,-0.122638,0.175734,-1.89402,-0.595468,-0.0985267,0.480329,1.96738,0.00698698,0.123452,0.12279,0.0846114,-0.0846791,-0.273447,-0.176985,-0.115668,-0.0548853,-0.0581491,0.000194809,0.165017,0.733141,0.10157,7.70059e-05
598344502,-0.131238,0.17607,-1.90255,-0.600601,-0.108566,0.479744,1.96695,-0.0649791,0.00765043,0.0071193,-0.0167898,-0.12241,-0.0632235,-0.0027734,0.0354823,0.0733527,0.0711143,0.000194335,0.165104,0.733205,0.10142,7.64909e-05
598544674,-0.136849,0.175931,-1.90711,-0.60574,-0.114015,0.474101,1.96148,-0.0670168,-0.0609324,-0.0823963,-0.116736,-0.172864,-0.115023,-0.0416087,-0.0213098,-0.0137798,-0.0738229,0.000193624,0.165233,0.733304,0.101194,7.57266e-05
598754856,-0.140892,0.17591,-1.91146,-0.609904,-0.118186,0.469887,1.95702,0.108309,0.0489011,0.0131609,-0.0219083,-0.0154148,0.0104918,0.0764612,0.074042,0.0504522,-0.0489084,0.000193202,0.165087,0.733347,0.101297,7.58138e-05
598955030,-0.140781,0.17567,-1.91084,-0.609532,-0.118207,0.469352,1.95599,0.169641,0.0774003,0.0311434,-0.00936449,0.0211275,-0.0697049,0.00326067,-0.00786135,-0.0463822,-0.17481,0.00019101,0.164846,0.733598,0.101289,7.50256e-05
599155204,-0.13985,0.17518,-1.90842,-0.607919,-0.117216,0.469723,1.95613,0.197067,-0.0141779,-0.0751947,-0.100191,0.0686087,0.0684583,0.0922099,0.0309062,-0.0663651,-0.235232,0.000188573,0.164783,0.733901,0.101054,7.36357e-05
599345372,-0.139575,0.17292,-1.90617,-0.606418,-0.118576,0.464737,1.9463,0.447013,0.00867736,-0.0910254,-0.102486,0.307126,0.307103,0.270345,0.121777,-0.0854841,-0.36144,0.000171679,0.162298,0.73591,0.101552,6.87338e-05
599545542,-0.142967,0.169001,-1.90038,-0.60534,-0.12296,0.454487,1.93086,0.560407,0.00564235,-0.106284,-0.100983,0.444506,0.350568,0.259218,0.0611815,-0.20258,-0.517074,0.000148546,0.159989,0.739053,0.100751,5.89101e-05
599745716,-0.139115,0.165461,-1.89294,-0.599134,-0.122104,0.4486,1.91568,0.634625,0.132432,0.029396,0.0291062,0.51456,0.398056,0.320667,0.144603,-0.0921759,-0.389496,0.000123576,0.155339,0.742753,0.101732,5.15887e-05
599945890,-0.134629,0.162918,-1.8821,-0.59142,-0.11858,0.447417,1.90987,0.529005,0.127456,0.0562408,0.0705725,0.47862,0.288706,0.191321,0.0433738,-0.146481,-0.360249,0.000109416,0.153272,0.745231,0.101342,4.5756e-05
600156072,-0.130714,0.161379,-1.87493,-0.585757,-0.115428,0.447616,1.90689,0.394668,0.0782241,0.0299572,0.05193,0.390406,0.279628,0.176647,0.0545047,-0.0962585,-0.247126,0.000101171,0.151799,0.746775,0.101282,4.26164e-05
600346248,-0.120832,0.159528,-1.85991,-0.576726,-0.104477,0.445998,1.90256,0.462365,0.225482,0.193962,0.216814,0.480495,0.20935,0.11682,0.0220079,-0.0916315,-0.193856,9.38879e-05,0.150707,0.748275,0.100884,3.93996e-05
600546411,-0.12119,0.158925,-1.85712,-0.572037,-0.106484,0.451229,1.90608,0.342927,0.166981,0.165573,0.215684,0.466542,0.284895,0.141782,0.0533199,-0.0368314,-0.0538305,8.8674e-05,0.150013,0.749433,0.100428,3.69272e-05
600746585,-0.126835,0.158421,-1.86105,-0.576838,-0.112155,0.444653,1.89882,0.105003,-0.0132609,0.00481701,0.0673455,0.284706,0.239321,0.0783375,0.0030558,-0.0628149,-0.0229362,8.6651e-05,0.149781,0.749899,0.100198,3.59145e-05
600946758,-0.187527,0.158098,-1.9197,-0.636507,-0.172632,0.383657,1.83774,0.0898025,0.0718139,0.103682,0.157593,0.265122,0.200303,0.0771297,0.041287,0.0231513,0.10872,8.56211e-05,0.149911,0.750182,0.099787,3.50686e-05
601146932,-0.269036,0.157872,-1.99949,-0.717163,-0.253921,0.301947,1.75596,0.0570782,0.0828308,0.112271,0.149563,0.187583,0.226938,0.148968,0.137369,0.142404,0.224941,8.49608e-05,0.150077,0.750376,0.0994274,3.44246e-05
601347105,-0.347498,0.157823,-2.07702,-0.795184,-0.332128,0.223673,1.67802,0.0333298,0.088626,0.106587,0.117587,0.0830741,0.0939325,0.0800989,0.0931583,0.116692,0.170233,8.52534e-05,0.150369,0.750342,0.0991695,3.42352e-05
601547280,-0.415599,0.157769,-2.14342,-0.862582,-0.399628,0.156176,1.6116,0.0954089,0.17523,0.19997,0.21412,0.161424,0.118377,0.102308,0.122145,0.156389,0.23066,8.61812e-05,0.151057,0.7502,0.0986229,3.39402e-05
601747460,-0.486242,0.15766,-2.2127,-0.932714,-0.469884,0.0856264,1.54156,-0.0237598,0.0748701,0.104749,0.121213,0.0542668,0.0502343,0.0327292,0.0578372,0.100345,0.190369,8.65144e-05,0.151452,0.750167,0.0982616,3.36458e-05
601952633,-0.578766,0.157544,-2.30393,-1.02482,-0.562016,-0.00699388,1.44941,-0.028002,0.0759823,0.104501,0.1173,0.0389423,0.0309299,0.0226622,0.0516536,0.0973352,0.18412,8.68656e-05,0.151826,0.750125,0.0979286,3.33896e-05
602152804,-0.703091,0.157455,-2.42824,-1.15265,-0.684606,-0.13645,1.32186,0.0159571,0.119143,0.14103,0.143887,0.0493992,0.023207,0.0368978,0.0710879,0.118297,0.186788,8.75928e-05,0.152303,0.749999,0.0975772,3.32384e-05
602352977,-0.875685,0.157529,-2.60015,-1.32219,-0.857992,-0.304631,1.15331,0.155074,0.271352,0.284736,0.270628,0.134727,-0.0663026,-0.012413,0.0356631,0.0921673,0.138265,8.92588e-05,0.152693,0.74963,0.0975539,3.37651e-05
602553150,-1.08428,0.157449,-2.80756,-1.53113,-1.06566,-0.51392,0.945448,0.0545201,0.187176,0.197131,0.172842,0.0040046,-0.0131268,0.0663444,0.12571,0.191718,0.22947,9.08992e-05,0.153468,0.749312,0.0970949,3.37763e-05
602753324,-1.23669,0.157789,-2.96077,-1.68409,-1.2175,-0.66255,0.799566,0.0367712,0.22393,0.240315,0.209588,-0.0228689,-0.0893452,0.0148492,0.0967278,0.189262,0.248843,9.28059e-05,0.154334,0.748936,0.0966027,3.38195e-05
602953497,-1.27122,0.157193,-2.99239,-1.71813,-1.25082,-0.699546,0.763541,0.0244378,0.283517,0.319218,0.296594,0.00793433,-0.154999,-0.0548958,0.0476078,0.172092,0.290318,9.555e-05,0.155421,0.748391,0.0960582,3.40504e-05
603153677,-1.27424,0.157003,-2.99248,-1.71923,-1.25281,-0.696385,0.77048,-0.101908,0.231408,0.294794,0.292321,-0.0349813,-0.138752,-0.0689685,0.0484203,0.203823,0.403742,9.76965e-05,0.15718,0.748039,0.0946507,3.30708e-05
603353844,-1.25443,0.156119,-2.96697,-1.69717,-1.23188,-0.676383,0.791791,-0.217338,0.070095,0.162317,0.217975,0.0315539,-0.00188728,-0.0683865,0.00124465,0.124697,0.401728,9.692e-05,0.158256,0.748282,0.0933329,3.13531e-05
603554017,-1.22766,0.15504,-2.93186,-1.66711,-1.20359,-0.649694,0.820088,-0.143416,0.0446639,0.14567,0.245091,0.22937,0.232236,0.050769,0.0616312,0.13029,0.425728,9.50722e-05,0.159647,0.748757,0.0914716,2.88465e-05
603754191,-1.20535,0.152907,-2.89643,-1.63983,-1.17958,-0.63238,0.837034,-0.0901121,0.0300125,0.142878,0.281697,0.400734,0.392375,0.111367,0.0765873,0.105315,0.430325,9.00858e-05,0.160722,0.749902,0.089261,2.53532e-05
603944359,-1.18794,0.151077,-2.86873,-1.61782,-1.16187,-0.618395,0.848903,0.0748252,0.106096,0.183335,0.294218,0.45591,0.592226,0.354303,0.303556,0.295337,0.514719,8.20986e-05,0.160385,0.751773,0.0877375,2.20135e-05
604144529,-1.16615,0.15068,-2.85145,-1.59749,-1.14243,-0.60052,0.861309,0.475041,0.332556,0.294184,0.276643,0.387308,0.331878,0.338834,0.298628,0.235685,0.114455,7.68768e-05,0.157336,0.753052,0.0895131,2.21686e-05
604354711,-1.16339,0.1509,-2.85856,-1.59816,-1.14241,-0.59995,0.857002,0.52539,0.484795,0.418006,0.325556,0.201652,-0.0250406,0.171447,0.208766,0.209683,0.0189121,7.50091e-05,0.154319,0.753372,0.09221,2.39196e-05
604554884,-1.15047,0.150379,-2.87358,-1.59711,-1.13821,-0.597048,0.844029,0.857469,0.569168,0.377681,0.1651,0.0712213,0.0633899,0.475002,0.493002,0.404347,-0.156314,6.43039e-05,0.143902,0.755301,0.100705,2.80119e-05
604755058,-1.11457,0.147638,-2.86295,-1.56883,-1.11471,-0.582215,0.829405,1.03099,0.752289,0.55306,0.327566,0.195588,-0.220922,0.231083,0.259986,0.178886,-0.393959,4.63112e-05,0.129457,0.758311,0.112155,3.04578e-05
604945224,-1.08546,0.146742,-2.8642,-1.55271,-1.09638,-0.568684,0.822323,0.932197,0.766998,0.598407,0.389057,0.167399,-0.303987,0.147757,0.207414,0.175863,-0.290884,3.57367e-05,0.117584,0.758377,0.123968,3.47441e-05
605145396,-1.05551,0.144796,-2.85189,-1.5275,-1.07517,-0.552297,0.817887,0.769377,0.624771,0.45019,0.228779,-0.0385641,-0.371918,0.123427,0.196908,0.176757,-0.292429,2.83445e-05,0.108747,0.757788,0.133399,3.73281e-05
605345569,-1.01523,0.14207,-2.84522,-1.49945,-1.04942,-0.534746,0.804208,1.05173,0.80444,0.56599,0.279124,-0.0237748,-0.414104,0.227658,0.303489,0.252591,-0.386458,1.864e-05,0.094487,0.754543,0.150909,4.20577e-05
605545743,-0.972407,0.138152,-2.83144,-1.46672,-1.02088,-0.51621,0.790014,1.10162,0.760864,0.47969,0.15778,-0.147359,-0.430906,0.300745,0.366294,0.284813,-0.458905,1.11854e-05,0.0810024,0.749364,0.169578,4.44979e-05
605750920,-0.930519,0.132946,-2.80953,-1.42977,-0.992033,-0.501622,0.767142,1.11496,0.774802,0.491859,0.170159,-0.158281,-0.642478,0.114451,0.181848,0.104126,-0.624986,5.63116e-06,0.0682209,0.743389,0.188343,4.12812e-05
605951094,-0.895596,0.130052,-2.80215,-1.40396,-0.969918,-0.488954,0.749227,1.03536,0.789516,0.551966,0.27488,-0.0717896,-0.578713,0.109556,0.184728,0.141003,-0.443408,3.2707e-06,0.0581391,0.732799,0.209016,4.35211e-05
606151273,-0.879302,0.128556,-2.80593,-1.39669,-0.960626,-0.487172,0.737348,0.80613,0.637809,0.478035,0.295287,0.0609916,-0.458344,0.0106073,0.0583746,0.0269872,-0.354772,2.35972e-06,0.0526934,0.72505,0.22221,4.53279e-05
606351441,-0.86763,0.12804,-2.8029,-1.38816,-0.952611,-0.482098,0.731363,0.71955,0.570214,0.484159,0.399684,0.337799,-0.256354,-0.0479351,-0.0485391,-0.0913864,-0.309545,1.96642e-06,0.050041,0.72109,0.228822,4.56904e-05
606551614,-0.86875,0.127441,-2.79497,-1.38369,-0.953367,-0.482798,0.720594,0.554168,0.371955,0.353636,0.367887,0.517565,0.125279,0.0521817,-0.0130347,-0.0862197,-0.175946,1.77943e-06,0.0497603,0.722903,0.227293,4.1839e-05
606751787,-0.881265,0.12621,-2.79578,-1.39382,-0.962172,-0.495347,0.709282,0.524817,0.417698,0.444566,0.504682,0.693777,0.274847,0.0866803,0.0187839,-0.0357981,-0.013356,1.6529e-06,0.0504996,0.72755,0.221913,3.62772e-05
606951960,-0.936209,0.125511,-2.83543,-1.44356,-1.01341,-0.546474,0.657949,0.538915,0.542067,0.585413,0.645724,0.762866,0.295851,0.129297,0.0948027,0.0801346,0.168463,1.64165e-06,0.0519871,0.732822,0.215157,3.18264e-05
607152134,-1.00768,0.12574,-2.89898,-1.51352,-1.08208,-0.611764,0.597359,0.436464,0.590701,0.635756,0.667755,0.627824,0.154128,0.100327,0.128284,0.174935,0.314313,1.84553e-06,0.0540151,0.736253,0.209699,3.07491e-05
607352307,-1.09841,0.126064,-2.98344,-1.60336,-1.17008,-0.695288,0.520795,0.262529,0.526093,0.574158,0.587117,0.433987,0.066096,0.0895505,0.162701,0.254781,0.434336,2.1672e-06,0.0564127,0.73914,0.204414,3.05414e-05
607552483,-1.18515,0.126263,-3.06405,-1.68916,-1.25371,-0.774015,0.450511,0.187203,0.534926,0.589809,0.593423,0.361743,-0.0274343,0.0395821,0.145064,0.27203,0.490431,2.62357e-06,0.05927,0.741945,0.198752,3.06518e-05
607752656,-1.25033,0.126147,-3.12013,-1.75224,-1.31447,-0.829623,0.405704,0.13337,0.559007,0.620527,0.615202,0.308399,-0.0657375,0.0412812,0.17728,0.337412,0.591329,3.30196e-06,0.0631386,0.745526,0.191301,3.03455e-05
607952827,-1.27701,0.12556,-3.13984,-1.77717,-1.33734,-0.848579,0.395732,0.027043,0.535164,0.607404,0.596992,0.216558,-0.211251,-0.0743057,0.0919859,0.287305,0.585543,4.01699e-06,0.0665606,0.748072,0.185333,3.02802e-05
608153004,-1.29579,0.124253,3.13966,-1.79055,-1.35012,-0.858406,0.395931,-0.0608981,0.485206,0.565136,0.555194,0.143301,-0.173284,-0.0310124,0.148274,0.36052,0.683594,4.83955e-06,0.0711916,0.752546,0.17623,2.79814e-05
608353176,-1.3472,0.121787,3.10544,-1.8358,-1.39407,-0.906364,0.35574,-0.0727498,0.519041,0.60677,0.595684,0.140646,-0.224958,-0.0690286,0.126943,0.360252,0.712154,5.90854e-06,0.0763727,0.756562,0.167034,2.58764e-05
608553348,-1.46449,0.120547,3.0061,-1.94495,-1.50579,-1.0091,0.263275,-0.205785,0.425884,0.528608,0.527614,0.0539113,-0.23784,-0.0987023,0.105898,0.356046,0.750356,6.66546e-06,0.0815169,0.761358,0.157097,2.21063e-05
608753523,-1.64619,0.117829,2.84478,-2.11736,-1.68143,-1.18456,0.0924654,-0.286989,0.368366,0.481405,0.488572,0.00406989,-0.271447,-0.143837,0.0650785,0.325795,0.751167,7.0339e-06,0.0859581,0.765859,0.148158,1.8271e-05
608953695,-1.88509,0.115519,2.63122,-2.34529,-1.91061,-1.41131,-0.121987,-0.152084,0.513387,0.631387,0.643096,0.152382,-0.191501,-0.067352,0.143207,0.409153,0.852048,8.77583e-06,0.0946419,0.770159,0.135175,1.50506e-05
609153879,-2.13596,0.112112,2.41027,-2.58315,-2.15169,-1.65386,-0.355771,-0.298466,0.412292,0.544694,0.564401,0.0402251,-0.218703,-0.0993268,0.123583,0.410618,0.899611,9.80652e-06,0.103028,0.774591,0.12236,1.11821e-05
609354042,-2.3833,0.108771,2.19245,-2.8179,-2.38845,-1.89229,-0.583505,-0.283607,0.47519,0.62456,0.656774,0.105533,-0.257799,-0.148765,0.084575,0.392333,0.938629,1.14517e-05,0.113153,0.777285,0.109543,8.28778e-06
609544207,-2.59743,0.105571,2.00301,-3.02155,-2.59421,-2.10102,-0.785133,-0.334584,0.417289,0.573547,0.616686,0.0781945,-0.295981,-0.20704,0.0196157,0.326059,0.891589,1.24253e-05,0.121443,0.778863,0.0996745,6.20137e-06
609744380,-2.81678,0.101686,1.81508,3.0554,-2.80422,-2.31577,-0.993182,-0.437283,0.362705,0.544577,0.613952,0.0774917,-0.260208,-0.214431,0.0143653,0.337302,0.981633,1.27421e-05,0.130978,0.780448,0.0885565,4.07396e-06
609954562,-2.95945,0.0978525,1.70351,2.92593,-2.93808,-2.45385,-1.12524,-0.485501,0.343532,0.551222,0.653495,0.148673,-0.256399,-0.269935,-0.0494718,0.279639,1.00323,1.2781e-05,0.140832,0.780936,0.0782167,2.57769e-06
610154736,-2.99663,0.0941583,1.69995,2.90338,-2.96562,-2.48444,-1.14833,-0.501946,0.346494,0.57987,0.718392,0.263369,-0.214613,-0.296935,-0.0904544,0.238674,1.04057,1.31238e-05,0.153113,0.779343,0.0675293,1.53275e-06
610354914,-2.99355,0.0906682,1.72718,2.9172,-2.95866,-2.47571,-1.13887,-0.656366,0.162682,0.411741,0.584355,0.219048,-0.19641,-0.355736,-0.178779,0.129179,0.972781,1.10634e-05,0.158105,0.780657,0.0612268,9.21046e-07
610545074,-2.9837,0.0875728,1.76809,2.93983,-2.9416,-2.46277,-1.1217,-0.533648,0.172608,0.421769,0.628102,0.444306,0.0176442,-0.250329,-0.133635,0.111705,0.931443,1.03981e-05,0.168374,0.778343,0.0532723,5.20939e-07
610745248,-2.96301,0.0843804,1.81828,2.97206,-2.91547,-2.44848,-1.10816,-0.517527,0.0533869,0.301768,0.545739,0.575036,0.210338,-0.18606,-0.139971,0.0311114,0.814324,9.08923e-06,0.176091,0.776834,0.0470656,2.91302e-07
610945422,-2.95587,0.0827667,1.84985,2.98919,-2.90262,-2.43794,-1.09285,-0.292098,0.145205,0.346089,0.552709,0.626476,0.22869,-0.115842,-0.0937368,0.0282673,0.660094,8.96925e-06,0.186068,0.772273,0.0416501,1.82436e-07
611145602,-2.95814,0.0826508,1.86052,2.99239,-2.89995,-2.4344,-1.08287,0.0403724,0.321518,0.436447,0.547022,0.539541,0.108491,-0.0524218,-0.0242615,0.0623531,0.438142,9.9972e-06,0.195242,0.766361,0.0383868,1.49243e-07
611355778,-2.94788,0.0829605,1.86854,3.00144,-2.88958,-2.42246,-1.07084,0.435529,0.473568,0.462941,0.433818,0.321732,0.0841029,0.172362,0.203836,0.233036,0.21845,1.03935e-05,0.195387,0.765898,0.0387043,1.59857e-07
611555951,-2.92783,0.0824022,1.87684,3.01551,-2.87518,-2.40929,-1.06827,0.727366,0.582365,0.479497,0.349231,0.172698,-0.124505,0.138393,0.169299,0.152648,-0.151344,8.6825e-06,0.184651,0.773227,0.0421132,1.84907e-07
611746116,-2.88888,0.0802367,1.89615,3.04384,-2.84947,-2.39025,-1.0764,1.096,0.812104,0.637744,0.429356,0.197213,-0.337372,0.0659827,0.0977905,0.0472716,-0.474015,4.88159e-06,0.160229,0.789784,0.0499819,2.08744e-07
611946290,-2.85155,0.076966,1.92182,3.07386,-2.82566,-2.37735,-1.09612,1.13812,0.765013,0.548197,0.296019,0.0265344,-0.499196,-0.00925857,0.0211742,-0.0500001,-0.690259,2.18713e-06,0.135774,0.805769,0.0584547,1.89912e-07
612146464,-2.80409,0.0732029,1.95435,3.11287,-2.79467,-2.36044,-1.12194,1.3467,0.894611,0.641382,0.35112,0.0295221,-0.557667,0.0160206,0.0472748,-0.037455,-0.77321,7.17365e-07,0.107536,0.820765,0.0716977,1.71619e-07
612346637,-2.76145,0.0693056,1.99195,-3.13077,-2.76615,-2.3493,-1.15759,1.36204,0.901827,0.650641,0.365743,0.0228568,-0.791756,-0.208821,-0.178536,-0.259545,-0.968744,1.8945e-07,0.0839162,0.830717,0.0853668,1.2696e-07
612546810,-2.72209,0.0675081,2.01772,-3.09696,-2.73811,-2.33207,-1.17521,1.23686,0.880672,0.677015,0.442333,0.0981258,-0.666336,-0.148447,-0.110505,-0.158428,-0.699275,7.00366e-08,0.0678685,0.831708,0.100423,1.24843e-07
612746984,-2.68843,0.066814,2.03719,-3.06812,-2.71243,-2.31358,-1.18162,0.989876,0.820202,0.692555,0.536394,0.237546,-0.843517,-0.45022,-0.400828,-0.403322,-0.69736,3.49974e-08,0.0580538,0.82886,0.113086,1.32543e-07
612947157,-2.65989,0.0671282,2.04627,-3.04665,-2.69035,-2.29371,-1.17638,0.844994,0.826494,0.755809,0.656849,0.395026,-0.720959,-0.419638,-0.358983,-0.326372,-0.438178,2.45123e-08,0.051969,0.82325,0.124781,1.65398e-07
613152370,-2.64663,0.0676712,2.04243,-3.03969,-2.68133,-2.28436,-1.17325,0.527318,0.670253,0.653773,0.605231,0.367667,-0.660093,-0.437444,-0.359274,-0.287694,-0.226208,2.20085e-08,0.0488997,0.818153,0.132947,2.08708e-07
613352509,-2.64815,0.0686073,2.02424,-3.05035,-2.68621,-2.28558,-1.17077,0.412915,0.662997,0.682716,0.66724,0.448017,-0.619379,-0.453079,-0.363421,-0.266423,-0.0941325,2.25132e-08,0.0471772,0.813474,0.139348,2.65924e-07
613552682,-2.6487,0.0688204,2.01067,-3.05313,-2.68861,-2.28765,-1.17774,0.275967,0.626461,0.681415,0.69799,0.498288,-0.575084,-0.468015,-0.368252,-0.247553,0.0281208,2.533e-08,0.0466185,0.80997,0.143411,3.30674e-07
613752856,-2.6549,0.0690895,1.99617,-3.06249,-2.69518,-2.29176,-1.17883,0.156264,0.564354,0.647687,0.693716,0.533637,-0.483527,-0.447008,-0.348773,-0.218528,0.126551,3.01693e-08,0.0471923,0.808498,0.144309,3.83856e-07
613953029,-2.66441,0.0694733,1.97994,-3.07699,-2.70417,-2.2956,-1.17222,0.00834799,0.535897,0.66469,0.752659,0.619195,-0.494353,-0.539969,-0.431445,-0.272595,0.201402,3.81824e-08,0.0486168,0.808198,0.143185,4.35492e-07
614153203,-2.67615,0.0690059,1.96976,-3.08762,-2.71308,-2.30216,-1.17319,-0.119213,0.4636,0.627538,0.754286,0.679886,-0.372452,-0.516126,-0.415278,-0.249591,0.304838,4.91597e-08,0.0513254,0.81057,0.138104,4.40023e-07
614353380,-2.68917,0.0676683,1.9663,-3.0937,-2.7212,-2.31154,-1.18245,-0.219506,0.370307,0.564684,0.732909,0.755284,-0.224887,-0.490552,-0.414329,-0.260283,0.345153,6.24155e-08,0.0551951,0.815079,0.129725,3.92887e-07
614553549,-2.71567,0.0661292,1.95654,-3.1125,-2.74045,-2.32977,-1.19343,-0.284224,0.378139,0.614011,0.827585,0.910705,-0.147231,-0.516219,-0.446022,-0.280414,0.429922,8.30277e-08,0.0613442,0.821567,0.117088,3.05621e-07
614753732,-2.73203,0.0626531,1.97625,-3.11338,-2.74635,-2.33901,-1.19941,-0.652636,0.258191,0.593401,0.902269,1.04765,0.0162741,-0.527241,-0.439115,-0.213958,0.787891,8.99906e-08,0.0696628,0.831556,0.0987808,1.55914e-07
614953904,-2.75069,0.0571332,2.00807,-3.11112,-2.75409,-2.35528,-1.22042,-1.11521,0.146513,0.608062,1.036,1.24132,-0.00815606,-0.737016,-0.614642,-0.303135,1.09741,6.88781e-08,0.0782191,0.842732,0.0790483,5.01947e-08
615144061,-2.75218,0.0510374,2.0801,-3.08693,-2.7417,-2.35305,-1.2186,-1.27109,0.18225,0.700015,1.18326,1.42265,0.11016,-0.665433,-0.520909,-0.166108,1.44758,4.30714e-08,0.0925065,0.852263,0.0552306,7.55249e-09
615344234,-2.68794,0.0460277,2.19843,-2.99888,-2.66976,-2.29419,-1.17591,-1.31321,0.120153,0.610783,1.07375,1.31194,-0.00461608,-0.673522,-0.525559,-0.181065,1.41668,2.38651e-08,0.102612,0.856124,0.041264,1.34519e-09
615554416,-2.58757,0.0421825,2.35009,-2.88036,-2.56466,-2.20055,-1.09585,-1.32785,0.0258873,0.472942,0.898779,1.12792,0.11056,-0.447107,-0.303304,0.0168939,1.52759,1.07604e-08,0.109542,0.8588,0.0316572,2.17214e-10
615754590,-2.478,0.0392451,2.50516,-2.75538,-2.45152,-2.09739,-1.00453,-1.26133,0.0362424,0.443744,0.833208,1.03715,0.087342,-0.352818,-0.205803,0.0993383,1.54216,5.14287e-09,0.11644,0.858929,0.0246311,3.70602e-11
615954763,-2.38363,0.0374076,2.63326,-2.65301,-2.35364,-2.01243,-0.917112,-1.09971,0.132575,0.501485,0.854699,1.02733,-0.132832,-0.464438,-0.31551,-0.0251837,1.34555,3.18771e-09,0.123702,0.856312,0.0199863,9.3107e-12
616154938,-2.32182,0.035731,2.72314,-2.57867,-2.28985,-1.94831,-0.86839,-1.03819,0.111055,0.441076,0.755243,0.880498,-0.0747854,-0.310523,-0.16097,0.114899,1.39644,1.99393e-09,0.130808,0.852821,0.0163712,2.36938e-12
616345101,-2.3076,0.0345751,2.76337,-2.55598,-2.27349,-1.93773,-0.862618,-0.927351,0.112817,0.400996,0.674902,0.764534,-0.0554886,-0.211565,-0.068904,0.183895,1.35063,1.36572e-09,0.137863,0.84844,0.0136965,7.00765e-13
616545287,-2.31427,0.0337481,2.77408,-2.55698,-2.27836,-1.94627,-0.87434,-0.794628,0.202811,0.463038,0.704254,0.719114,-0.28959,-0.347389,-0.19302,0.0625025,1.18678,1.06092e-09,0.143946,0.844126,0.0119281,2.82635e-13
616750452,-2.29949,0.0325997,2.81163,-2.53518,-2.26256,-1.93635,-0.871943,-0.958282,0.121142,0.388101,0.62709,0.563655,-0.303232,-0.279245,-0.0928307,0.200108,1.42232,6.73515e-10,0.148623,0.8411,0.0102775,8.76344e-14
616950627,-2.24376,0.0314689,2.89076,-2.47213,-2.20465,-1.88308,-0.824336,-0.892747,0.374283,0.673584,0.934514,0.795653,-0.634573,-0.521543,-0.285313,0.0728356,1.51988,4.70658e-10,0.157347,0.834156,0.00849691,2.40416e-14
617150800,-2.17437,0.0295677,2.99145,-2.39465,-2.13609,-1.82394,-0.782727,-1.24775,0.126358,0.437199,0.700539,0.476082,-0.671926,-0.457153,-0.181939,0.223172,1.81297,1.85821e-10,0.157606,0.835177,0.00721699,4.26011e-15
617350972,-2.15659,0.0279116,3.04145,-2.36845,-2.11887,-1.81626,-0.791967,-1.2113,0.101613,0.38473,0.621189,0.36685,-0.646241,-0.349812,-0.0732766,0.322739,1.86623,7.55229e-11,0.159297,0.834644,0.00605943,6.91035e-16
617551145,-2.1566,0.026673,3.06703,-2.36295,-2.11931,-1.83477,-0.813013,-1.04227,0.127234,0.369674,0.571426,0.322266,-0.68337,-0.347426,-0.0921059,0.266333,1.67054,3.62889e-11,0.160067,0.834619,0.00531467,1.63205e-16
617751319,-2.17043,0.0258148,3.07346,-2.37006,-2.13304,-1.84379,-0.841752,-0.913685,0.0955632,0.297879,0.465669,0.232232,-0.508017,-0.165616,0.061344,0.375028,1.60904,2.15006e-11,0.164155,0.831231,0.00461335,4.26878e-17
617951495,-2.18332,0.0251435,3.0764,-2.37877,-2.14624,-1.86182,-0.867698,-0.841456,0.0101456,0.176488,0.314735,0.104648,-0.46429,-0.137164,0.0586983,0.326542,1.38909,1.35398e-11,0.165385,0.830398,0.00421716,1.57388e-17
618151665,-2.19504,0.0248054,3.07877,-2.38632,-2.15709,-1.87594,-0.885295,-0.61563,0.108394,0.242285,0.350012,0.128243,-0.341967,-0.00740767,0.169317,0.40597,1.32857,1.08966e-11,0.17096,0.825262,0.00377803,6.45687e-18
618351838,-2.20246,0.0244571,3.08189,-2.39081,-2.16437,-1.88614,-0.899746,-0.605568,0.028643,0.140534,0.227323,-0.00590235,-0.384128,-0.0469013,0.11651,0.33218,1.15869,8.4777e-12,0.17328,0.823195,0.00352503,3.25486e-18
618552024,-2.20832,0.0241971,3.08531,-2.39403,-2.16988,-1.89402,-0.910804,-0.503929,0.0693322,0.164602,0.234154,-0.020172,-0.375434,-0.0251857,0.132137,0.336424,1.09957,7.05382e-12,0.176277,0.820428,0.00329515,1.76885e-18
618752184,-2.21346,0.0240791,3.08999,-2.39759,-2.17425,-1.90974,-0.916723,-0.389201,0.111482,0.189876,0.243397,-0.0156327,-0.33302,0.0111867,0.156543,0.342728,1.02341,6.33584e-12,0.17997,0.81694,0.00308991,1.05623e-18
