timestamp,x,y,z,r,flaps,aux1,aux2,aux3,aux4,aux5,aux6,mode_switch,return_switch,rattitude_switch,posctl_switch,loiter_switch,acro_switch,offboard_switch,kill_switch,arm_switch,transition_switch,gear_switch,mode_slot,data_source,stab_switch,man_switch
40751074,0.0192771,0.0438871,0.0,1.0,0.0,0.0,0.0,0.0,0.0,0.0,0.0,0,0,0,0,0,0,0,3,0,0,0,4,1,0,0
40774096,0.0216867,0.0438871,0.0,1.0,0.0,0.0,0.0,0.0,0.0,0.0,0.0,0,0,0,0,0,0,0,3,0,0,0,4,1,0,0
40952496,0.0216867,0.0438871,0.0,1.0,0.0,0.0,0.0,0.0,0.0,0.0,0.0,0,0,0,0,0,0,0,3,0,0,0,4,1,0,0
41131243,0.0216867,0.0438871,0.0,0.0,0.0,0.0,0.0,0.0,0.0,0.0,0.0,0,0,0,0,0,0,0,3,0,0,0,4,1,0,0
41352247,0.0216867,0.0438871,0.0,0.0,0.0,0.0,0.0,0.0,0.0,0.0,0.0,0,0,0,0,0,0,0,3,0,0,0,4,1,0,0
41530816,0.0192771,0.0438871,0.0,0.0,0.0,0.0,0.0,0.0,0.0,0.0,0.0,0,0,0,0,0,0,0,3,0,0,0,4,1,0,0
41739762,0.0192771,0.0438871,0.0330477,0.0,0.0,0.0,0.0,0.0,0.0,0.0,0.0,0,0,0,0,0,0,0,3,0,0,0,4,1,0,0
41933224,0.0192771,0.0438871,0.0342717,0.0,0.0,0.0,0.0,0.0,0.0,0.0,0.0,0,0,0,0,0,0,0,3,0,0,0,4,1,0,0
42134649,0.0216867,0.0438871,0.106487,0.0,0.0,0.0,0.0,0.0,0.0,0.0,0.0,0,0,0,0,0,0,0,3,0,0,0,4,1,0,0
42335569,0.0192771,0.0438871,0.108935,0.0,0.0,0.0,0.0,0.0,0.0,0.0,0.0,0,0,0,0,0,0,0,3,0,0,0,4,1,0,0
42537079,0.0192771,0.0438871,0.154223,0.0,0.0,0.0,0.0,0.0,0.0,0.0,0.0,0,0,0,0,0,0,0,3,0,0,0,4,1,0,0
42737910,0.0192771,0.0438871,0.24235,0.0,0.0,0.0,0.0,0.0,0.0,0.0,0.0,0,0,0,0,0,0,0,3,0,0,0,4,1,0,0
42936662,0.0192771,0.0438871,0.244798,0.0,0.0,0.0,0.0,0.0,0.0,0.0,0.0,0,0,0,0,0,0,0,3,0,0,0,4,1,0,0
43138014,0.0192771,0.0438871,0.24235,0.0,0.0,0.0,0.0,0.0,0.0,0.0,0.0,0,0,0,0,0,0,0,3,0,0,0,4,1,0,0
43339040,0.0216867,0.0438871,0.203182,0.0,0.0,0.0,0.0,0.0,0.0,0.0,0.0,0,0,0,0,0,0,0,3,0,0,0,4,1,0,0
43540257,0.0192771,0.0438871,0.0917993,0.0,0.0,0.0,0.0,0.0,0.0,0.0,0.0,0,0,0,0,0,0,0,3,0,0,0,4,1,0,0
43736239,0.0216867,0.0438871,0.0403917,0.0,0.0,0.0,0.0,0.0,0.0,0.0,0.0,0,0,0,0,0,0,0,3,0,0,0,4,1,0,0
43938175,0.0192771,0.0438871,0.0416157,0.0,0.0,0.0,0.0,0.0,0.0,0.0,0.0,0,0,0,0,0,0,0,3,0,0,0,4,1,0,0
44138751,0.0192771,0.0438871,0.0648715,0.0,0.0,0.0,0.0,0.0,0.0,0.0,0.0,0,0,0,0,0,0,0,3,0,0,0,4,1,0,0
44337266,0.0192771,0.0438871,0.179927,0.0,0.0,0.0,0.0,0.0,0.0,0.0,0.0,0,0,0,0,0,0,0,3,0,0,0,4,1,0,0
44538848,0.0216867,0.0438871,0.259486,0.0,0.0,0.0,0.0,0.0,0.0,0.0,0.0,0,0,0,0,0,0,0,3,0,0,0,4,1,0,0
44739841,0.0216867,0.0438871,0.275398,0.0,0.0,0.0,0.0,0.0,0.0,0.0,0.0,0,0,0,0,0,0,0,3,0,0,0,4,1,0,0
44938374,0.0216867,0.0438871,0.356181,0.0,0.0,0.0,0.0,0.0,0.0,0.0,0.0,0,0,0,0,0,0,0,3,0,0,0,4,1,0,0
45137056,0.0216867,0.0438871,0.369645,0.0,0.0,0.0,0.0,0.0,0.0,0.0,0.0,0,0,0,0,0,0,0,3,0,0,0,4,1,0,0
45335968,0.0216867,0.0438871,0.367197,0.0,0.0,0.0,0.0,0.0,0.0,0.0,0.0,0,0,0,0,0,0,0,3,0,0,0,4,1,0,0
45537109,0.0216867,0.0438871,0.368421,0.0,0.0,0.0,0.0,0.0,0.0,0.0,0.0,0,0,0,0,0,0,0,3,0,0,0,4,1,0,0
45735811,0.0192771,0.0438871,0.365973,0.0,0.0,0.0,0.0,0.0,0.0,0.0,0.0,0,0,0,0,0,0,0,3,0,0,0,4,1,0,0
45936860,0.0216867,0.0438871,0.363525,0.0,0.0,0.0,0.0,0.0,0.0,0.0,0.0,0,0,0,0,0,0,0,3,0,0,0,4,1,0,0
46135364,0.0216867,0.0438871,0.395349,0.0,0.0,0.0,0.0,0.0,0.0,0.0,0.0,0,0,0,0,0,0,0,3,0,0,0,4,1,0,0
46337192,0.0216867,0.0438871,0.395349,0.0,0.0,0.0,0.0,0.0,0.0,0.0,0.0,0,0,0,0,0,0,0,3,0,0,0,4,1,0,0
46537679,0.0216867,0.0438871,0.446756,0.0,0.0,0.0,0.0,0.0,0.0,0.0,0.0,0,0,0,0,0,0,0,3,0,0,0,4,1,0,0
46734527,0.0216867,0.0438871,0.511628,0.0,0.0,0.0,0.0,0.0,0.0,0.0,0.0,0,0,0,0,0,0,0,3,0,0,0,4,1,0,0
46935173,0.0216867,0.0438871,0.511628,0.0,0.0,0.0,0.0,0.0,0.0,0.0,0.0,0,0,0,0,0,0,0,3,0,0,0,4,1,0,0
47133710,0.026506,0.0438871,0.516524,0.0,0.0,0.0,0.0,0.0,0.0,0.0,0.0,0,0,0,0,0,0,0,3,0,0,0,4,1,0,0
47335916,0.173494,0.0501567,0.514076,0.0,0.0,0.0,0.0,0.0,0.0,0.0,0.0,0,0,0,0,0,0,0,3,0,0,0,4,1,0,0
47536146,0.245783,0.0501567,0.511628,0.0,0.0,0.0,0.0,0.0,0.0,0.0,0.0,0,0,0,0,0,0,0,3,0,0,0,4,1,0,0
47737513,0.219277,0.0470219,0.5153,0.0,0.0,0.0,0.0,0.0,0.0,0.0,0.0,0,0,0,0,0,0,0,3,0,0,0,4,1,0,0
47936204,0.0674699,0.0501567,0.512852,0.0,0.0,0.0,0.0,0.0,0.0,0.0,0.0,0,0,0,0,0,0,0,3,0,0,0,4,1,0,0
48137267,0.0216867,0.0470219,0.531212,0.0,0.0,0.0,0.0,0.0,0.0,0.0,0.0,0,0,0,0,0,0,0,3,0,0,0,4,1,0,0
48338445,0.0626506,0.0501567,0.553244,0.0,0.0,0.0,0.0,0.0,0.0,0.0,0.0,0,0,0,0,0,0,0,3,0,0,0,4,1,0,0
48539475,0.183133,0.0501567,0.550796,0.0,0.0,0.0,0.0,0.0,0.0,0.0,0.0,0,0,0,0,0,0,0,3,0,0,0,4,1,0,0
48740913,0.207229,0.0470219,0.53978,0.0,0.0,0.0,0.0,0.0,0.0,0.0,0.0,0,0,0,0,0,0,0,3,0,0,0,4,1,0,0
48936974,0.0626506,0.0501567,0.526316,0.0841346,0.0,0.0,0.0,0.0,0.0,0.0,0.0,0,0,0,0,0,0,0,3,0,0,0,4,1,0,0
49135667,0.0192771,0.0438871,0.525092,0.144231,0.0,0.0,0.0,0.0,0.0,0.0,0.0,0,0,0,0,0,0,0,3,0,0,0,4,1,0,0
49334290,0.0192771,0.0501567,0.532436,0.168269,0.0,0.0,0.0,0.0,0.0,0.0,0.0,0,0,0,0,0,0,0,3,0,0,0,4,1,0,0
49533051,0.171084,0.0971787,0.532436,0.134615,0.0,0.0,0.0,0.0,0.0,0.0,0.0,0,0,0,0,0,0,0,3,0,0,0,4,1,0,0
49734625,0.122892,0.0626959,0.498164,0.0504808,0.0,0.0,0.0,0.0,0.0,0.0,0.0,0,0,0,0,0,0,0,3,0,0,0,4,1,0,0
49935390,0.0819277,0.0815047,0.492044,-0.116009,0.0,0.0,0.0,0.0,0.0,0.0,0.0,0,0,0,0,0,0,0,3,0,0,0,4,1,0,0
50133824,0.0192771,0.188088,0.495716,-0.327146,0.0,0.0,0.0,0.0,0.0,0.0,0.0,0,0,0,0,0,0,0,3,0,0,0,4,1,0,0
50332696,0.0192771,0.0438871,0.492044,-0.150812,0.0,0.0,0.0,0.0,0.0,0.0,0.0,0,0,0,0,0,0,0,3,0,0,0,4,1,0,0
50534018,0.0915663,0.0815047,0.516524,0.0,0.0,0.0,0.0,0.0,0.0,0.0,0.0,0,0,0,0,0,0,0,3,0,0,0,4,1,0,0
50733270,0.0722892,0.0470219,0.504284,0.0,0.0,0.0,0.0,0.0,0.0,0.0,0.0,0,0,0,0,0,0,0,3,0,0,0,4,1,0,0
50941323,0.0216867,0.0501567,0.553244,0.0,0.0,0.0,0.0,0.0,0.0,0.0,0.0,0,0,0,0,0,0,0,3,0,0,0,4,1,0,0
51135633,0.0626506,0.0501567,0.541004,0.0,0.0,0.0,0.0,0.0,0.0,0.0,0.0,0,0,0,0,0,0,0,3,0,0,0,4,1,0,0
51334323,0.125301,0.0376176,0.534884,0.0576923,0.0,0.0,0.0,0.0,0.0,0.0,0.0,0,0,0,0,0,0,0,3,0,0,0,4,1,0,0
51534561,0.13012,0.0376176,0.532436,0.0769231,0.0,0.0,0.0,0.0,0.0,0.0,0.0,0,0,0,0,0,0,0,3,0,0,0,4,1,0,0
51736562,0.0192771,0.0438871,0.528764,0.100962,0.0,0.0,0.0,0.0,0.0,0.0,0.0,0,0,0,0,0,0,0,3,0,0,0,4,1,0,0
51937044,0.0216867,0.0438871,0.522644,0.0817308,0.0,0.0,0.0,0.0,0.0,0.0,0.0,0,0,0,0,0,0,0,3,0,0,0,4,1,0,0
52135641,0.0216867,0.0815047,0.526316,0.0625,0.0,0.0,0.0,0.0,0.0,0.0,0.0,0,0,0,0,0,0,0,3,0,0,0,4,1,0,0
52334320,0.0746988,0.163009,0.528764,0.0552885,0.0,0.0,0.0,0.0,0.0,0.0,0.0,0,0,0,0,0,0,0,3,0,0,0,4,1,0,0
52535927,0.0192771,0.0532915,0.511628,0.0216346,0.0,0.0,0.0,0.0,0.0,0.0,0.0,0,0,0,0,0,0,0,3,0,0,0,4,1,0,0
52736699,0.0192771,0.0438871,0.511628,0.0504808,0.0,0.0,0.0,0.0,0.0,0.0,0.0,0,0,0,0,0,0,0,3,0,0,0,4,1,0,0
52935387,0.0216867,0.0501567,0.47858,0.0432692,0.0,0.0,0.0,0.0,0.0,0.0,0.0,0,0,0,0,0,0,0,3,0,0,0,4,1,0,0
53133965,0.0216867,0.0501567,0.514076,0.0,0.0,0.0,0.0,0.0,0.0,0.0,0.0,0,0,0,0,0,0,0,3,0,0,0,4,1,0,0
53335932,0.0216867,0.0501567,0.526316,0.0,0.0,0.0,0.0,0.0,0.0,0.0,0.0,0,0,0,0,0,0,0,3,0,0,0,4,1,0,0
53536304,0.0192771,0.0815047,0.534884,-0.12065,0.0,0.0,0.0,0.0,0.0,0.0,0.0,0,0,0,0,0,0,0,3,0,0,0,4,1,0,0
53738190,0.0168675,0.144201,0.531212,-0.350348,0.0,0.0,0.0,0.0,0.0,0.0,0.0,0,0,0,0,0,0,0,3,0,0,0,4,1,0,0
53938831,0.0192771,0.0470219,0.526316,0.0,0.0,0.0,0.0,0.0,0.0,0.0,0.0,0,0,0,0,0,0,0,3,0,0,0,4,1,0,0
54135648,0.178313,0.0470219,0.526316,0.0432692,0.0,0.0,0.0,0.0,0.0,0.0,0.0,0,0,0,0,0,0,0,3,0,0,0,4,1,0,0
54336324,0.2,0.0470219,0.526316,0.0528846,0.0,0.0,0.0,0.0,0.0,0.0,0.0,0,0,0,0,0,0,0,3,0,0,0,4,1,0,0
54537477,0.151807,0.0501567,0.528764,0.0192308,0.0,0.0,0.0,0.0,0.0,0.0,0.0,0,0,0,0,0,0,0,3,0,0,0,4,1,0,0
54736109,0.103614,0.0501567,0.52754,0.0480769,0.0,0.0,0.0,0.0,0.0,0.0,0.0,0,0,0,0,0,0,0,3,0,0,0,4,1,0,0
54937027,0.0216867,0.0501567,0.52754,0.0480769,0.0,0.0,0.0,0.0,0.0,0.0,0.0,0,0,0,0,0,0,0,3,0,0,0,4,1,0,0
55138524,0.0192771,0.0501567,0.52754,0.0504808,0.0,0.0,0.0,0.0,0.0,0.0,0.0,0,0,0,0,0,0,0,3,0,0,0,4,1,0,0
55339560,0.0,0.166144,0.52754,0.0192308,0.0,0.0,0.0,0.0,0.0,0.0,0.0,0,0,0,0,0,0,0,3,0,0,0,4,1,0,0
55538343,0.0,0.263323,0.52754,0.00240385,0.0,0.0,0.0,0.0,0.0,0.0,0.0,0,0,0,0,0,0,0,3,0,0,0,4,1,0,0
55739459,0.00963855,0.197492,0.52754,0.0,0.0,0.0,0.0,0.0,0.0,0.0,0.0,0,0,0,0,0,0,0,3,0,0,0,4,1,0,0
55940373,0.0216867,0.0470219,0.526316,0.0,0.0,0.0,0.0,0.0,0.0,0.0,0.0,0,0,0,0,0,0,0,3,0,0,0,4,1,0,0
56139112,0.0987952,0.0501567,0.526316,0.00961538,0.0,0.0,0.0,0.0,0.0,0.0,0.0,0,0,0,0,0,0,0,3,0,0,0,4,1,0,0
56337973,0.139759,0.0470219,0.526316,0.0,0.0,0.0,0.0,0.0,0.0,0.0,0.0,0,0,0,0,0,0,0,3,0,0,0,4,1,0,0
56539356,0.183133,0.0344828,0.526316,0.0,0.0,0.0,0.0,0.0,0.0,0.0,0.0,0,0,0,0,0,0,0,3,0,0,0,4,1,0,0
56740226,0.168675,0.0407524,0.526316,0.0,0.0,0.0,0.0,0.0,0.0,0.0,0.0,0,0,0,0,0,0,0,3,0,0,0,4,1,0,0
56938757,0.13012,0.0282132,0.526316,0.0,0.0,0.0,0.0,0.0,0.0,0.0,0.0,0,0,0,0,0,0,0,3,0,0,0,4,1,0,0
57140285,0.183133,0.0250784,0.518972,0.0,0.0,0.0,0.0,0.0,0.0,0.0,0.0,0,0,0,0,0,0,0,3,0,0,0,4,1,0,0
57341102,0.159036,0.00626959,0.522644,0.0,0.0,0.0,0.0,0.0,0.0,0.0,0.0,0,0,0,0,0,0,0,3,0,0,0,4,1,0,0
57542952,0.026506,0.0501567,0.522644,0.0,0.0,0.0,0.0,0.0,0.0,0.0,0.0,0,0,0,0,0,0,0,3,0,0,0,4,1,0,0
57741648,0.0168675,0.0501567,0.520196,0.0,0.0,0.0,0.0,0.0,0.0,0.0,0.0,0,0,0,0,0,0,0,3,0,0,0,4,1,0,0
57942119,0.0216867,0.0721003,0.523868,0.0,0.0,0.0,0.0,0.0,0.0,0.0,0.0,0,0,0,0,0,0,0,3,0,0,0,4,1,0,0
58141072,-0.00240385,0.163009,0.523868,0.0,0.0,0.0,0.0,0.0,0.0,0.0,0.0,0,0,0,0,0,0,0,3,0,0,0,4,1,0,0
58342627,0.0,0.194357,0.523868,-0.0580046,0.0,0.0,0.0,0.0,0.0,0.0,0.0,0,0,0,0,0,0,0,3,0,0,0,4,1,0,0
58540933,0.0216867,0.0438871,0.525092,-0.171694,0.0,0.0,0.0,0.0,0.0,0.0,0.0,0,0,0,0,0,0,0,3,0,0,0,4,1,0,0
58741914,0.0216867,0.0438871,0.526316,-0.0928074,0.0,0.0,0.0,0.0,0.0,0.0,0.0,0,0,0,0,0,0,0,3,0,0,0,4,1,0,0
58943871,0.154217,0.0188088,0.542228,0.0,0.0,0.0,0.0,0.0,0.0,0.0,0.0,0,0,0,0,0,0,0,3,0,0,0,4,1,0,0
59144207,0.207229,0.0501567,0.541004,0.0,0.0,0.0,0.0,0.0,0.0,0.0,0.0,0,0,0,0,0,0,0,3,0,0,0,4,1,0,0
59346156,0.13494,0.0501567,0.534884,0.0,0.0,0.0,0.0,0.0,0.0,0.0,0.0,0,0,0,0,0,0,0,3,0,0,0,4,1,0,0
59544775,0.103614,0.0501567,0.538556,0.0,0.0,0.0,0.0,0.0,0.0,0.0,0.0,0,0,0,0,0,0,0,3,0,0,0,4,1,0,0
59745413,0.139759,0.031348,0.53978,0.0,0.0,0.0,0.0,0.0,0.0,0.0,0.0,0,0,0,0,0,0,0,3,0,0,0,4,1,0,0
59946533,0.103614,0.0501567,0.53978,0.0,0.0,0.0,0.0,0.0,0.0,0.0,0.0,0,0,0,0,0,0,0,3,0,0,0,4,1,0,0
60125518,0.0216867,0.0532915,0.538556,0.0,0.0,0.0,0.0,0.0,0.0,0.0,0.0,0,0,0,0,0,0,0,3,0,0,0,4,1,0,0
60346195,0.0216867,0.0532915,0.532436,0.0,0.0,0.0,0.0,0.0,0.0,0.0,0.0,0,0,0,0,0,0,0,3,0,0,0,4,1,0,0
60544916,0.0216867,0.0815047,0.529988,0.0,0.0,0.0,0.0,0.0,0.0,0.0,0.0,0,0,0,0,0,0,0,3,0,0,0,4,1,0,0
60743627,-0.00721154,0.222571,0.531212,0.0,0.0,0.0,0.0,0.0,0.0,0.0,0.0,0,0,0,0,0,0,0,3,0,0,0,4,1,0,0
60945997,0.0216867,0.0470219,0.529988,0.0,0.0,0.0,0.0,0.0,0.0,0.0,0.0,0,0,0,0,0,0,0,3,0,0,0,4,1,0,0
61146230,0.0819277,0.0532915,0.529988,0.0,0.0,0.0,0.0,0.0,0.0,0.0,0.0,0,0,0,0,0,0,0,3,0,0,0,4,1,0,0
61347493,0.0746988,0.0564263,0.52142,0.0120192,0.0,0.0,0.0,0.0,0.0,0.0,0.0,0,0,0,0,0,0,0,3,0,0,0,4,1,0,0
61548361,0.103614,0.0564263,0.5153,0.00480769,0.0,0.0,0.0,0.0,0.0,0.0,0.0,0,0,0,0,0,0,0,3,0,0,0,4,1,0,0
61749791,0.0650602,0.0877743,0.5153,0.0216346,0.0,0.0,0.0,0.0,0.0,0.0,0.0,0,0,0,0,0,0,0,3,0,0,0,4,1,0,0
61950871,0.0,0.194357,0.5153,0.0168269,0.0,0.0,0.0,0.0,0.0,0.0,0.0,0,0,0,0,0,0,0,3,0,0,0,4,1,0,0
62152696,0.0,0.181818,0.5153,0.0,0.0,0.0,0.0,0.0,0.0,0.0,0.0,0,0,0,0,0,0,0,3,0,0,0,4,1,0,0
62348117,0.00722892,0.144201,0.5153,0.0,0.0,0.0,0.0,0.0,0.0,0.0,0.0,0,0,0,0,0,0,0,3,0,0,0,4,1,0,0
62549441,0.0313253,0.0532915,0.5153,0.00721154,0.0,0.0,0.0,0.0,0.0,0.0,0.0,0,0,0,0,0,0,0,3,0,0,0,4,1,0,0
62748694,0.139759,0.0470219,0.5153,0.0,0.0,0.0,0.0,0.0,0.0,0.0,0.0,0,0,0,0,0,0,0,3,0,0,0,4,1,0,0
62947404,0.106024,0.0532915,0.5153,0.0120192,0.0,0.0,0.0,0.0,0.0,0.0,0.0,0,0,0,0,0,0,0,3,0,0,0,4,1,0,0
63146076,0.106024,0.0501567,0.5153,0.0,0.0,0.0,0.0,0.0,0.0,0.0,0.0,0,0,0,0,0,0,0,3,0,0,0,4,1,0,0
63346392,0.13253,0.0470219,0.5153,0.0,0.0,0.0,0.0,0.0,0.0,0.0,0.0,0,0,0,0,0,0,0,3,0,0,0,4,1,0,0
63545096,0.166265,0.0501567,0.492044,0.0,0.0,0.0,0.0,0.0,0.0,0.0,0.0,0,0,0,0,0,0,0,3,0,0,0,4,1,0,0
63746378,0.13494,0.0501567,0.495716,0.0,0.0,0.0,0.0,0.0,0.0,0.0,0.0,0,0,0,0,0,0,0,3,0,0,0,4,1,0,0
63947404,0.0795181,0.0501567,0.53366,-0.0208817,0.0,0.0,0.0,0.0,0.0,0.0,0.0,0,0,0,0,0,0,0,3,0,0,0,4,1,0,0
64146136,0.026506,0.0501567,0.564259,-0.0510441,0.0,0.0,0.0,0.0,0.0,0.0,0.0,0,0,0,0,0,0,0,3,0,0,0,4,1,0,0
64344704,0.0192771,0.0470219,0.565483,-0.0510441,0.0,0.0,0.0,0.0,0.0,0.0,0.0,0,0,0,0,0,0,0,3,0,0,0,4,1,0,0
64546788,0.0216867,0.0501567,0.571603,-0.0649652,0.0,0.0,0.0,0.0,0.0,0.0,0.0,0,0,0,0,0,0,0,3,0,0,0,4,1,0,0
64747233,0.0,0.159875,0.571603,-0.0672854,0.0,0.0,0.0,0.0,0.0,0.0,0.0,0,0,0,0,0,0,0,3,0,0,0,4,1,0,0
64948472,-0.0168269,0.169279,0.571603,-0.0556845,0.0,0.0,0.0,0.0,0.0,0.0,0.0,0,0,0,0,0,0,0,3,0,0,0,4,1,0,0
65149584,-0.0192308,0.134796,0.574051,-0.0464037,0.0,0.0,0.0,0.0,0.0,0.0,0.0,0,0,0,0,0,0,0,3,0,0,0,4,1,0,0
65351683,0.0240964,0.0031348,0.571603,0.0,0.0,0.0,0.0,0.0,0.0,0.0,0.0,0,0,0,0,0,0,0,3,0,0,0,4,1,0,0
65551691,0.0337349,-0.0518293,0.569155,0.0649038,0.0,0.0,0.0,0.0,0.0,0.0,0.0,0,0,0,0,0,0,0,3,0,0,0,4,1,0,0
65730700,0.0216867,-0.0792683,0.565483,0.146635,0.0,0.0,0.0,0.0,0.0,0.0,0.0,0,0,0,0,0,0,0,3,0,0,0,4,1,0,0
65949228,0.0216867,0.0752351,0.563035,0.0,0.0,0.0,0.0,0.0,0.0,0.0,0.0,0,0,0,0,0,0,0,3,0,0,0,4,1,0,0
66151014,0.0144578,0.15047,0.560588,0.0,0.0,0.0,0.0,0.0,0.0,0.0,0.0,0,0,0,0,0,0,0,3,0,0,0,4,1,0,0
66349253,-0.0360577,0.322884,0.550796,0.0456731,0.0,0.0,0.0,0.0,0.0,0.0,0.0,0,0,0,0,0,0,0,3,0,0,0,4,1,0,0
66547894,0.0192771,0.0971787,0.501836,0.0528846,0.0,0.0,0.0,0.0,0.0,0.0,0.0,0,0,0,0,0,0,0,3,0,0,0,4,1,0,0
66748163,0.0216867,0.0438871,0.50918,0.0649038,0.0,0.0,0.0,0.0,0.0,0.0,0.0,0,0,0,0,0,0,0,3,0,0,0,4,1,0,0
66948231,0.0216867,0.0438871,0.50918,0.0480769,0.0,0.0,0.0,0.0,0.0,0.0,0.0,0,0,0,0,0,0,0,3,0,0,0,4,1,0,0
67150376,0.0216867,0.0438871,0.50918,0.00240385,0.0,0.0,0.0,0.0,0.0,0.0,0.0,0,0,0,0,0,0,0,3,0,0,0,4,1,0,0
67351178,0.0216867,0.0501567,0.510404,0.0,0.0,0.0,0.0,0.0,0.0,0.0,0.0,0,0,0,0,0,0,0,3,0,0,0,4,1,0,0
67548716,0.026506,0.0501567,0.505508,0.0,0.0,0.0,0.0,0.0,0.0,0.0,0.0,0,0,0,0,0,0,0,3,0,0,0,4,1,0,0
67751280,0.0240964,0.0501567,0.489596,0.0,0.0,0.0,0.0,0.0,0.0,0.0,0.0,0,0,0,0,0,0,0,3,0,0,0,4,1,0,0
67950849,0.0216867,0.0470219,0.49082,0.0,0.0,0.0,0.0,0.0,0.0,0.0,0.0,0,0,0,0,0,0,0,3,0,0,0,4,1,0,0
68129625,0.0337349,0.0501567,0.526316,0.0,0.0,0.0,0.0,0.0,0.0,0.0,0.0,0,0,0,0,0,0,0,3,0,0,0,4,1,0,0
68339049,0.139759,0.0470219,0.518972,0.00961538,0.0,0.0,0.0,0.0,0.0,0.0,0.0,0,0,0,0,0,0,0,3,0,0,0,4,1,0,0
68532048,0.19759,0.0250784,0.49082,0.0120192,0.0,0.0,0.0,0.0,0.0,0.0,0.0,0,0,0,0,0,0,0,3,0,0,0,4,1,0,0
68733886,0.214458,0.00626959,0.495716,0.0,0.0,0.0,0.0,0.0,0.0,0.0,0.0,0,0,0,0,0,0,0,3,0,0,0,4,1,0,0
68932169,0.086747,0.0344828,0.49694,0.0,0.0,0.0,0.0,0.0,0.0,0.0,0.0,0,0,0,0,0,0,0,3,0,0,0,4,1,0,0
69133099,0.0216867,0.031348,0.495716,0.0,0.0,0.0,0.0,0.0,0.0,0.0,0.0,0,0,0,0,0,0,0,3,0,0,0,4,1,0,0
69334930,0.0,0.128527,0.528764,0.0,0.0,0.0,0.0,0.0,0.0,0.0,0.0,0,0,0,0,0,0,0,3,0,0,0,4,1,0,0
69533670,-0.0168269,0.253918,0.529988,0.0,0.0,0.0,0.0,0.0,0.0,0.0,0.0,0,0,0,0,0,0,0,3,0,0,0,4,1,0,0
69734138,-0.00480769,0.231975,0.531212,0.0,0.0,0.0,0.0,0.0,0.0,0.0,0.0,0,0,0,0,0,0,0,3,0,0,0,4,1,0,0
69936057,0.0192771,0.0438871,0.53366,0.0,0.0,0.0,0.0,0.0,0.0,0.0,0.0,0,0,0,0,0,0,0,3,0,0,0,4,1,0,0
70136429,0.0192771,0.0438871,0.560588,0.0,0.0,0.0,0.0,0.0,0.0,0.0,0.0,0,0,0,0,0,0,0,3,0,0,0,4,1,0,0
70335119,0.0240964,0.0501567,0.560588,0.0,0.0,0.0,0.0,0.0,0.0,0.0,0.0,0,0,0,0,0,0,0,3,0,0,0,4,1,0,0
70536504,0.142169,0.0250784,0.559364,0.0,0.0,0.0,0.0,0.0,0.0,0.0,0.0,0,0,0,0,0,0,0,3,0,0,0,4,1,0,0
70737380,0.146988,0.0470219,0.560588,0.0,0.0,0.0,0.0,0.0,0.0,0.0,0.0,0,0,0,0,0,0,0,3,0,0,0,4,1,0,0
70939328,0.122892,0.0501567,0.559364,0.0,0.0,0.0,0.0,0.0,0.0,0.0,0.0,0,0,0,0,0,0,0,3,0,0,0,4,1,0,0
71137571,0.0674699,0.0501567,0.55814,0.0,0.0,0.0,0.0,0.0,0.0,0.0,0.0,0,0,0,0,0,0,0,3,0,0,0,4,1,0,0
71336662,0.0915663,0.0501567,0.55814,0.0,0.0,0.0,0.0,0.0,0.0,0.0,0.0,0,0,0,0,0,0,0,3,0,0,0,4,1,0,0
71537333,0.0216867,0.0501567,0.529988,0.0,0.0,0.0,0.0,0.0,0.0,0.0,0.0,0,0,0,0,0,0,0,3,0,0,0,4,1,0,0
71735964,0.0192771,0.0438871,0.512852,0.0,0.0,0.0,0.0,0.0,0.0,0.0,0.0,0,0,0,0,0,0,0,3,0,0,0,4,1,0,0
71934607,0.0192771,0.0438871,0.512852,0.0,0.0,0.0,0.0,0.0,0.0,0.0,0.0,0,0,0,0,0,0,0,3,0,0,0,4,1,0,0
72133460,0.026506,0.0532915,0.512852,0.0,0.0,0.0,0.0,0.0,0.0,0.0,0.0,0,0,0,0,0,0,0,3,0,0,0,4,1,0,0
72334973,0.149398,0.0783699,0.507956,0.00721154,0.0,0.0,0.0,0.0,0.0,0.0,0.0,0,0,0,0,0,0,0,3,0,0,0,4,1,0,0
72535541,0.0192771,0.22884,0.507956,0.0,0.0,0.0,0.0,0.0,0.0,0.0,0.0,0,0,0,0,0,0,0,3,0,0,0,4,1,0,0
72734166,0.0,0.191223,0.507956,0.0,0.0,0.0,0.0,0.0,0.0,0.0,0.0,0,0,0,0,0,0,0,3,0,0,0,4,1,0,0
72952699,0.0192771,0.0438871,0.488372,0.0,0.0,0.0,0.0,0.0,0.0,0.0,0.0,0,0,0,0,0,0,0,3,0,0,0,4,1,0,0
73131622,0.0240964,0.0501567,0.510404,0.0,0.0,0.0,0.0,0.0,0.0,0.0,0.0,0,0,0,0,0,0,0,3,0,0,0,4,1,0,0
73353280,0.113253,0.0501567,0.507956,0.0,0.0,0.0,0.0,0.0,0.0,0.0,0.0,0,0,0,0,0,0,0,3,0,0,0,4,1,0,0
73532041,0.13253,0.0501567,0.50918,0.0,0.0,0.0,0.0,0.0,0.0,0.0,0.0,0,0,0,0,0,0,0,3,0,0,0,4,1,0,0
73732712,0.0192771,0.0501567,0.504284,0.0,0.0,0.0,0.0,0.0,0.0,0.0,0.0,0,0,0,0,0,0,0,3,0,0,0,4,1,0,0
73931280,0.0192771,0.0438871,0.499388,0.0,0.0,0.0,0.0,0.0,0.0,0.0,0.0,0,0,0,0,0,0,0,3,0,0,0,4,1,0,0
74149781,-0.0649038,0.0877743,0.523868,0.0,0.0,0.0,0.0,0.0,0.0,0.0,0.0,0,0,0,0,0,0,0,3,0,0,0,4,1,0,0
74351429,0.0,0.0438871,0.528764,0.0,0.0,0.0,0.0,0.0,0.0,0.0,0.0,0,0,0,0,0,0,0,3,0,0,0,4,1,0,0
74552513,-0.00240385,0.0595611,0.547124,0.0,0.0,0.0,0.0,0.0,0.0,0.0,0.0,0,0,0,0,0,0,0,3,0,0,0,4,1,0,0
74730939,0.00481928,0.0658307,0.549572,0.0,0.0,0.0,0.0,0.0,0.0,0.0,0.0,0,0,0,0,0,0,0,3,0,0,0,4,1,0,0
74932315,0.149398,0.103448,0.555692,0.0,0.0,0.0,0.0,0.0,0.0,0.0,0.0,0,0,0,0,0,0,0,3,0,0,0,4,1,0,0
75133426,0.168675,0.0501567,0.55814,0.0,0.0,0.0,0.0,0.0,0.0,0.0,0.0,0,0,0,0,0,0,0,3,0,0,0,4,1,0,0
75335262,0.0216867,0.0438871,0.559364,-0.0185615,0.0,0.0,0.0,0.0,0.0,0.0,0.0,0,0,0,0,0,0,0,3,0,0,0,4,1,0,0
75535703,-0.158654,0.238245,0.559364,-0.0510441,0.0,0.0,0.0,0.0,0.0,0.0,0.0,0,0,0,0,0,0,0,3,0,0,0,4,1,0,0
75754350,-0.149038,0.206897,0.559364,-0.0394432,0.0,0.0,0.0,0.0,0.0,0.0,0.0,0,0,0,0,0,0,0,3,0,0,0,4,1,0,0
75932940,0.0192771,0.0438871,0.564259,0.0,0.0,0.0,0.0,0.0,0.0,0.0,0.0,0,0,0,0,0,0,0,3,0,0,0,4,1,0,0
76134393,0.0457831,0.0470219,0.547124,0.0,0.0,0.0,0.0,0.0,0.0,0.0,0.0,0,0,0,0,0,0,0,3,0,0,0,4,1,0,0
76335355,0.110843,0.0438871,0.548348,0.0,0.0,0.0,0.0,0.0,0.0,0.0,0.0,0,0,0,0,0,0,0,3,0,0,0,4,1,0,0
76534011,0.115663,0.0,0.548348,0.0,0.0,0.0,0.0,0.0,0.0,0.0,0.0,0,0,0,0,0,0,0,3,0,0,0,4,1,0,0
76736051,0.0240964,0.0,0.5459,0.0,0.0,0.0,0.0,0.0,0.0,0.0,0.0,0,0,0,0,0,0,0,3,0,0,0,4,1,0,0
76936615,0.00963855,0.0438871,0.510404,0.0,0.0,0.0,0.0,0.0,0.0,0.0,0.0,0,0,0,0,0,0,0,3,0,0,0,4,1,0,0
77135039,0.0192771,0.0721003,0.510404,0.0,0.0,0.0,0.0,0.0,0.0,0.0,0.0,0,0,0,0,0,0,0,3,0,0,0,4,1,0,0
77333649,-0.0769231,0.30721,0.510404,0.0,0.0,0.0,0.0,0.0,0.0,0.0,0.0,0,0,0,0,0,0,0,3,0,0,0,4,1,0,0
77543197,0.00481928,0.0407524,0.510404,0.0,0.0,0.0,0.0,0.0,0.0,0.0,0.0,0,0,0,0,0,0,0,3,0,0,0,4,1,0,0
77734094,0.026506,0.0532915,0.516524,0.0,0.0,0.0,0.0,0.0,0.0,0.0,0.0,0,0,0,0,0,0,0,3,0,0,0,4,1,0,0
77934787,0.0939759,0.134796,0.516524,0.0,0.0,0.0,0.0,0.0,0.0,0.0,0.0,0,0,0,0,0,0,0,3,0,0,0,4,1,0,0
78133634,0.0,0.244514,0.488372,0.0,0.0,0.0,0.0,0.0,0.0,0.0,0.0,0,0,0,0,0,0,0,3,0,0,0,4,1,0,0
78332191,-0.0288462,0.128527,0.504284,0.0,0.0,0.0,0.0,0.0,0.0,0.0,0.0,0,0,0,0,0,0,0,3,0,0,0,4,1,0,0
78533900,0.0192771,0.0438871,0.529988,0.0,0.0,0.0,0.0,0.0,0.0,0.0,0.0,0,0,0,0,0,0,0,3,0,0,0,4,1,0,0
78734436,0.180723,0.0595611,0.531212,0.0,0.0,0.0,0.0,0.0,0.0,0.0,0.0,0,0,0,0,0,0,0,3,0,0,0,4,1,0,0
78935860,0.243373,0.0501567,0.544676,-0.0116009,0.0,0.0,0.0,0.0,0.0,0.0,0.0,0,0,0,0,0,0,0,3,0,0,0,4,1,0,0
79136791,0.351807,0.0501567,0.550796,-0.0162413,0.0,0.0,0.0,0.0,0.0,0.0,0.0,0,0,0,0,0,0,0,3,0,0,0,4,1,0,0
79338157,0.142169,0.0752351,0.554468,-0.0440835,0.0,0.0,0.0,0.0,0.0,0.0,0.0,0,0,0,0,0,0,0,3,0,0,0,4,1,0,0
79539258,-0.170673,0.200627,0.559364,-0.0556845,0.0,0.0,0.0,0.0,0.0,0.0,0.0,0,0,0,0,0,0,0,3,0,0,0,4,1,0,0
79740629,-0.40625,0.45768,0.564259,-0.0696056,0.0,0.0,0.0,0.0,0.0,0.0,0.0,0,0,0,0,0,0,0,3,0,0,0,4,1,0,0
79941620,-0.242788,0.137931,0.565483,-0.0417633,0.0,0.0,0.0,0.0,0.0,0.0,0.0,0,0,0,0,0,0,0,3,0,0,0,4,1,0,0
80143236,0.0192771,0.0438871,0.565483,-0.0324826,0.0,0.0,0.0,0.0,0.0,0.0,0.0,0,0,0,0,0,0,0,3,0,0,0,4,1,0,0
80343805,0.0216867,0.0438871,0.566707,-0.0139211,0.0,0.0,0.0,0.0,0.0,0.0,0.0,0,0,0,0,0,0,0,3,0,0,0,4,1,0,0
80542489,0.127711,0.0,0.572827,-0.00696056,0.0,0.0,0.0,0.0,0.0,0.0,0.0,0,0,0,0,0,0,0,3,0,0,0,4,1,0,0
80743884,0.339759,-0.0213415,0.571603,-0.00464037,0.0,0.0,0.0,0.0,0.0,0.0,0.0,0,0,0,0,0,0,0,3,0,0,0,4,1,0,0
80944881,0.224096,0.0,0.556916,0.0,0.0,0.0,0.0,0.0,0.0,0.0,0.0,0,0,0,0,0,0,0,3,0,0,0,4,1,0,0
81146843,0.0192771,0.0438871,0.538556,0.0,0.0,0.0,0.0,0.0,0.0,0.0,0.0,0,0,0,0,0,0,0,3,0,0,0,4,1,0,0
81347119,0.0168675,0.0501567,0.516524,-0.0208817,0.0,0.0,0.0,0.0,0.0,0.0,0.0,0,0,0,0,0,0,0,3,0,0,0,4,1,0,0
81545952,0.0192771,0.184953,0.516524,-0.426914,0.0,0.0,0.0,0.0,0.0,0.0,0.0,0,0,0,0,0,0,0,3,0,0,0,4,1,0,0
81748600,0.0192771,0.0470219,0.516524,-0.415313,0.0,0.0,0.0,0.0,0.0,0.0,0.0,0,0,0,0,0,0,0,3,0,0,0,4,1,0,0
81948843,0.0192771,0.0470219,0.517748,-0.352668,0.0,0.0,0.0,0.0,0.0,0.0,0.0,0,0,0,0,0,0,0,3,0,0,0,4,1,0,0
82150881,0.0192771,0.0470219,0.516524,-0.12529,0.0,0.0,0.0,0.0,0.0,0.0,0.0,0,0,0,0,0,0,0,3,0,0,0,4,1,0,0
82345823,0.0192771,0.0438871,0.520196,0.0,0.0,0.0,0.0,0.0,0.0,0.0,0.0,0,0,0,0,0,0,0,3,0,0,0,4,1,0,0
82544126,0.13012,0.0501567,0.517748,0.0,0.0,0.0,0.0,0.0,0.0,0.0,0.0,0,0,0,0,0,0,0,3,0,0,0,4,1,0,0
82744122,0.0578313,0.0532915,0.528764,0.0,0.0,0.0,0.0,0.0,0.0,0.0,0.0,0,0,0,0,0,0,0,3,0,0,0,4,1,0,0
82946527,0.0168675,0.112853,0.53366,-0.227378,0.0,0.0,0.0,0.0,0.0,0.0,0.0,0,0,0,0,0,0,0,3,0,0,0,4,1,0,0
83144842,0.0192771,0.0501567,0.53366,-0.559165,0.0,0.0,0.0,0.0,0.0,0.0,0.0,0,0,0,0,0,0,0,3,0,0,0,4,1,0,0
83338013,0.0192771,0.0501567,0.53366,-0.487239,0.0,0.0,0.0,0.0,0.0,0.0,0.0,0,0,0,0,0,0,0,3,0,0,0,4,1,0,0
83537569,0.0192771,0.0470219,0.537332,-0.422274,0.0,0.0,0.0,0.0,0.0,0.0,0.0,0,0,0,0,0,0,0,3,0,0,0,4,1,0,0
83740459,0.0192771,0.0438871,0.537332,-0.359629,0.0,0.0,0.0,0.0,0.0,0.0,0.0,0,0,0,0,0,0,0,3,0,0,0,4,1,0,0
83939085,0.0192771,0.0501567,0.544676,-0.273782,0.0,0.0,0.0,0.0,0.0,0.0,0.0,0,0,0,0,0,0,0,3,0,0,0,4,1,0,0
84136453,0.0192771,0.0501567,0.556916,-0.317865,0.0,0.0,0.0,0.0,0.0,0.0,0.0,0,0,0,0,0,0,0,3,0,0,0,4,1,0,0
84335190,0.0192771,0.0470219,0.550796,-0.310905,0.0,0.0,0.0,0.0,0.0,0.0,0.0,0,0,0,0,0,0,0,3,0,0,0,4,1,0,0
84532235,0.0,-0.17378,0.553244,0.0,0.0,0.0,0.0,0.0,0.0,0.0,0.0,0,0,0,0,0,0,0,3,0,0,0,4,1,0,0
84732751,0.0,-0.429878,0.547124,0.0,0.0,0.0,0.0,0.0,0.0,0.0,0.0,0,0,0,0,0,0,0,3,0,0,0,4,1,0,0
84934671,0.0216867,-0.341463,0.5459,0.0,0.0,0.0,0.0,0.0,0.0,0.0,0.0,0,0,0,0,0,0,0,3,0,0,0,4,1,0,0
85131293,0.0216867,0.0501567,0.550796,0.0,0.0,0.0,0.0,0.0,0.0,0.0,0.0,0,0,0,0,0,0,0,3,0,0,0,4,1,0,0
85349575,0.0216867,0.0501567,0.531212,0.0,0.0,0.0,0.0,0.0,0.0,0.0,0.0,0,0,0,0,0,0,0,3,0,0,0,4,1,0,0
85549408,0.0457831,0.0501567,0.523868,0.0,0.0,0.0,0.0,0.0,0.0,0.0,0.0,0,0,0,0,0,0,0,3,0,0,0,4,1,0,0
85728144,0.183133,0.0407524,0.525092,0.0,0.0,0.0,0.0,0.0,0.0,0.0,0.0,0,0,0,0,0,0,0,3,0,0,0,4,1,0,0
85950778,0.226506,0.0031348,0.525092,0.0,0.0,0.0,0.0,0.0,0.0,0.0,0.0,0,0,0,0,0,0,0,3,0,0,0,4,1,0,0
86148140,0.0674699,0.0376176,0.529988,-0.0928074,0.0,0.0,0.0,0.0,0.0,0.0,0.0,0,0,0,0,0,0,0,3,0,0,0,4,1,0,0
86340372,0.0192771,0.0438871,0.556916,-0.429234,0.0,0.0,0.0,0.0,0.0,0.0,0.0,0,0,0,0,0,0,0,3,0,0,0,4,1,0,0
86539049,0.0192771,0.0438871,0.559364,-0.438515,0.0,0.0,0.0,0.0,0.0,0.0,0.0,0,0,0,0,0,0,0,3,0,0,0,4,1,0,0
86741149,0.0192771,0.0438871,0.560588,-0.0348028,0.0,0.0,0.0,0.0,0.0,0.0,0.0,0,0,0,0,0,0,0,3,0,0,0,4,1,0,0
86937765,0.183133,0.0470219,0.559364,0.0,0.0,0.0,0.0,0.0,0.0,0.0,0.0,0,0,0,0,0,0,0,3,0,0,0,4,1,0,0
87138712,0.195181,-0.140244,0.555692,0.0,0.0,0.0,0.0,0.0,0.0,0.0,0.0,0,0,0,0,0,0,0,3,0,0,0,4,1,0,0
87337644,0.026506,-0.292683,0.555692,0.0552885,0.0,0.0,0.0,0.0,0.0,0.0,0.0,0,0,0,0,0,0,0,3,0,0,0,4,1,0,0
87540449,0.0192771,-0.219512,0.549572,0.105769,0.0,0.0,0.0,0.0,0.0,0.0,0.0,0,0,0,0,0,0,0,3,0,0,0,4,1,0,0
87743760,0.0192771,0.0250784,0.529988,0.0913462,0.0,0.0,0.0,0.0,0.0,0.0,0.0,0,0,0,0,0,0,0,3,0,0,0,4,1,0,0
87937600,0.0192771,0.0438871,0.510404,0.0480769,0.0,0.0,0.0,0.0,0.0,0.0,0.0,0,0,0,0,0,0,0,3,0,0,0,4,1,0,0
88137260,0.0192771,0.0470219,0.488372,0.0,0.0,0.0,0.0,0.0,0.0,0.0,0.0,0,0,0,0,0,0,0,3,0,0,0,4,1,0,0
88334007,0.0216867,0.0438871,0.495716,0.0,0.0,0.0,0.0,0.0,0.0,0.0,0.0,0,0,0,0,0,0,0,3,0,0,0,4,1,0,0
88552695,0.0626506,0.0282132,0.506732,0.0552885,0.0,0.0,0.0,0.0,0.0,0.0,0.0,0,0,0,0,0,0,0,3,0,0,0,4,1,0,0
88732769,0.113253,0.0376176,0.526316,0.0,0.0,0.0,0.0,0.0,0.0,0.0,0.0,0,0,0,0,0,0,0,3,0,0,0,4,1,0,0
88934590,0.0409639,0.0501567,0.531212,0.0,0.0,0.0,0.0,0.0,0.0,0.0,0.0,0,0,0,0,0,0,0,3,0,0,0,4,1,0,0
89130582,0.026506,0.0,0.532436,0.0456731,0.0,0.0,0.0,0.0,0.0,0.0,0.0,0,0,0,0,0,0,0,3,0,0,0,4,1,0,0
89333627,0.0216867,-0.0457317,0.544676,0.0528846,0.0,0.0,0.0,0.0,0.0,0.0,0.0,0,0,0,0,0,0,0,3,0,0,0,4,1,0,0
89554001,0.0192771,-0.0365854,0.556916,0.0264423,0.0,0.0,0.0,0.0,0.0,0.0,0.0,0,0,0,0,0,0,0,3,0,0,0,4,1,0,0
89751497,0.0192771,-0.0335366,0.559364,0.0288462,0.0,0.0,0.0,0.0,0.0,0.0,0.0,0,0,0,0,0,0,0,3,0,0,0,4,1,0,0
89950154,0.0,0.0250784,0.569155,0.0,0.0,0.0,0.0,0.0,0.0,0.0,0.0,0,0,0,0,0,0,0,3,0,0,0,4,1,0,0
90149182,-0.110577,0.144201,0.572827,0.0,0.0,0.0,0.0,0.0,0.0,0.0,0.0,0,0,0,0,0,0,0,3,0,0,0,4,1,0,0
90347569,-0.0600962,0.159875,0.572827,0.0,0.0,0.0,0.0,0.0,0.0,0.0,0.0,0,0,0,0,0,0,0,3,0,0,0,4,1,0,0
90548976,0.0192771,0.0438871,0.571603,0.0,0.0,0.0,0.0,0.0,0.0,0.0,0.0,0,0,0,0,0,0,0,3,0,0,0,4,1,0,0
90749962,0.0216867,0.0501567,0.571603,0.0,0.0,0.0,0.0,0.0,0.0,0.0,0.0,0,0,0,0,0,0,0,3,0,0,0,4,1,0,0
90946460,0.026506,0.0626959,0.572827,0.0,0.0,0.0,0.0,0.0,0.0,0.0,0.0,0,0,0,0,0,0,0,3,0,0,0,4,1,0,0
91145903,0.026506,0.0971787,0.571603,0.0,0.0,0.0,0.0,0.0,0.0,0.0,0.0,0,0,0,0,0,0,0,3,0,0,0,4,1,0,0
91345955,0.0192771,0.134796,0.559364,0.0192308,0.0,0.0,0.0,0.0,0.0,0.0,0.0,0,0,0,0,0,0,0,3,0,0,0,4,1,0,0
91544612,0.0216867,0.0564263,0.52142,0.0480769,0.0,0.0,0.0,0.0,0.0,0.0,0.0,0,0,0,0,0,0,0,3,0,0,0,4,1,0,0
91743349,0.0192771,0.0470219,0.516524,0.0408654,0.0,0.0,0.0,0.0,0.0,0.0,0.0,0,0,0,0,0,0,0,3,0,0,0,4,1,0,0
91945227,0.0192771,0.0438871,0.511628,0.0,0.0,0.0,0.0,0.0,0.0,0.0,0.0,0,0,0,0,0,0,0,3,0,0,0,4,1,0,0
92145600,0.0192771,0.0438871,0.511628,0.0480769,0.0,0.0,0.0,0.0,0.0,0.0,0.0,0,0,0,0,0,0,0,3,0,0,0,4,1,0,0
92344405,0.0216867,-0.0579268,0.517748,0.134615,0.0,0.0,0.0,0.0,0.0,0.0,0.0,0,0,0,0,0,0,0,3,0,0,0,4,1,0,0
92543105,0.0216867,-0.0335366,0.52142,0.0745192,0.0,0.0,0.0,0.0,0.0,0.0,0.0,0,0,0,0,0,0,0,3,0,0,0,4,1,0,0
92744836,0.0168675,0.0250784,0.559364,0.0408654,0.0,0.0,0.0,0.0,0.0,0.0,0.0,0,0,0,0,0,0,0,3,0,0,0,4,1,0,0
92945264,0.00240964,0.0376176,0.566707,0.0,0.0,0.0,0.0,0.0,0.0,0.0,0.0,0,0,0,0,0,0,0,3,0,0,0,4,1,0,0
93147114,-0.0576923,0.0564263,0.580171,0.0,0.0,0.0,0.0,0.0,0.0,0.0,0.0,0,0,0,0,0,0,0,3,0,0,0,4,1,0,0
93347759,-0.0576923,0.119122,0.578947,0.0,0.0,0.0,0.0,0.0,0.0,0.0,0.0,0,0,0,0,0,0,0,3,0,0,0,4,1,0,0
93549057,0.0,0.0470219,0.563035,0.0552885,0.0,0.0,0.0,0.0,0.0,0.0,0.0,0,0,0,0,0,0,0,3,0,0,0,4,1,0,0
93749988,0.0216867,0.0438871,0.548348,0.0745192,0.0,0.0,0.0,0.0,0.0,0.0,0.0,0,0,0,0,0,0,0,3,0,0,0,4,1,0,0
93951466,0.0216867,0.0501567,0.50918,0.0817308,0.0,0.0,0.0,0.0,0.0,0.0,0.0,0,0,0,0,0,0,0,3,0,0,0,4,1,0,0
94152411,0.0216867,0.0438871,0.499388,0.0889423,0.0,0.0,0.0,0.0,0.0,0.0,0.0,0,0,0,0,0,0,0,3,0,0,0,4,1,0,0
94331166,0.026506,0.0501567,0.499388,0.0961538,0.0,0.0,0.0,0.0,0.0,0.0,0.0,0,0,0,0,0,0,0,3,0,0,0,4,1,0,0
94534074,0.0457831,0.0501567,0.499388,0.0793269,0.0,0.0,0.0,0.0,0.0,0.0,0.0,0,0,0,0,0,0,0,3,0,0,0,4,1,0,0
94731321,0.0240964,0.015674,0.532436,0.0408654,0.0,0.0,0.0,0.0,0.0,0.0,0.0,0,0,0,0,0,0,0,3,0,0,0,4,1,0,0
94951132,0.0,0.0470219,0.567931,-0.0464037,0.0,0.0,0.0,0.0,0.0,0.0,0.0,0,0,0,0,0,0,0,3,0,0,0,4,1,0,0
95149656,-0.0576923,0.106583,0.581395,-0.0974478,0.0,0.0,0.0,0.0,0.0,0.0,0.0,0,0,0,0,0,0,0,3,0,0,0,4,1,0,0
95348770,0.0240964,0.0501567,0.582619,-0.0881671,0.0,0.0,0.0,0.0,0.0,0.0,0.0,0,0,0,0,0,0,0,3,0,0,0,4,1,0,0
95548594,0.0746988,0.0501567,0.577723,-0.0116009,0.0,0.0,0.0,0.0,0.0,0.0,0.0,0,0,0,0,0,0,0,3,0,0,0,4,1,0,0
95747451,0.0915663,0.0501567,0.564259,0.0,0.0,0.0,0.0,0.0,0.0,0.0,0.0,0,0,0,0,0,0,0,3,0,0,0,4,1,0,0
95946203,0.0626506,0.0501567,0.560588,0.0264423,0.0,0.0,0.0,0.0,0.0,0.0,0.0,0,0,0,0,0,0,0,3,0,0,0,4,1,0,0
96148136,0.0698795,0.0344828,0.563035,0.0576923,0.0,0.0,0.0,0.0,0.0,0.0,0.0,0,0,0,0,0,0,0,3,0,0,0,4,1,0,0
96347728,0.0674699,0.0125392,0.536108,0.144231,0.0,0.0,0.0,0.0,0.0,0.0,0.0,0,0,0,0,0,0,0,3,0,0,0,4,1,0,0
96550540,0.0674699,0.0344828,0.522644,0.0913462,0.0,0.0,0.0,0.0,0.0,0.0,0.0,0,0,0,0,0,0,0,3,0,0,0,4,1,0,0
96749271,0.0843373,0.0501567,0.522644,0.0721154,0.0,0.0,0.0,0.0,0.0,0.0,0.0,0,0,0,0,0,0,0,3,0,0,0,4,1,0,0
96948928,0.0192771,0.0877743,0.512852,0.0432692,0.0,0.0,0.0,0.0,0.0,0.0,0.0,0,0,0,0,0,0,0,3,0,0,0,4,1,0,0
97145464,0.0,0.103448,0.517748,0.0745192,0.0,0.0,0.0,0.0,0.0,0.0,0.0,0,0,0,0,0,0,0,3,0,0,0,4,1,0,0
97341132,-0.0649038,0.144201,0.494492,0.0504808,0.0,0.0,0.0,0.0,0.0,0.0,0.0,0,0,0,0,0,0,0,3,0,0,0,4,1,0,0
97539981,-0.0865385,0.106583,0.52142,0.0192308,0.0,0.0,0.0,0.0,0.0,0.0,0.0,0,0,0,0,0,0,0,3,0,0,0,4,1,0,0
97739241,0.0216867,0.0438871,0.523868,0.0360577,0.0,0.0,0.0,0.0,0.0,0.0,0.0,0,0,0,0,0,0,0,3,0,0,0,4,1,0,0
97944535,0.0240964,0.0501567,0.5459,0.0,0.0,0.0,0.0,0.0,0.0,0.0,0.0,0,0,0,0,0,0,0,3,0,0,0,4,1,0,0
98136537,0.086747,0.0501567,0.547124,0.00240385,0.0,0.0,0.0,0.0,0.0,0.0,0.0,0,0,0,0,0,0,0,3,0,0,0,4,1,0,0
98334633,0.0216867,0.0595611,0.547124,0.00480769,0.0,0.0,0.0,0.0,0.0,0.0,0.0,0,0,0,0,0,0,0,3,0,0,0,4,1,0,0
98534674,0.0,0.181818,0.55202,0.0,0.0,0.0,0.0,0.0,0.0,0.0,0.0,0,0,0,0,0,0,0,3,0,0,0,4,1,0,0
98737119,0.0,0.0846395,0.554468,0.0,0.0,0.0,0.0,0.0,0.0,0.0,0.0,0,0,0,0,0,0,0,3,0,0,0,4,1,0,0
98938405,0.0216867,0.0438871,0.559364,0.0192308,0.0,0.0,0.0,0.0,0.0,0.0,0.0,0,0,0,0,0,0,0,3,0,0,0,4,1,0,0
99139434,0.0216867,0.0438871,0.559364,0.0552885,0.0,0.0,0.0,0.0,0.0,0.0,0.0,0,0,0,0,0,0,0,3,0,0,0,4,1,0,0
99341346,0.0313253,0.0438871,0.563035,0.0,0.0,0.0,0.0,0.0,0.0,0.0,0.0,0,0,0,0,0,0,0,3,0,0,0,4,1,0,0
99541823,0.0216867,0.00626959,0.563035,0.0432692,0.0,0.0,0.0,0.0,0.0,0.0,0.0,0,0,0,0,0,0,0,3,0,0,0,4,1,0,0
99742992,0.0192771,0.0219436,0.563035,0.0576923,0.0,0.0,0.0,0.0,0.0,0.0,0.0,0,0,0,0,0,0,0,3,0,0,0,4,1,0,0
99943956,0.0216867,0.0438871,0.52142,0.0,0.0,0.0,0.0,0.0,0.0,0.0,0.0,0,0,0,0,0,0,0,3,0,0,0,4,1,0,0
100146114,0.0216867,0.0407524,0.566707,0.120192,0.0,0.0,0.0,0.0,0.0,0.0,0.0,0,0,0,0,0,0,0,3,0,0,0,4,1,0,0
100342695,0.0192771,0.0438871,0.565483,0.151442,0.0,0.0,0.0,0.0,0.0,0.0,0.0,0,0,0,0,0,0,0,3,0,0,0,4,1,0,0
100537747,0.0216867,0.0815047,0.565483,0.137019,0.0,0.0,0.0,0.0,0.0,0.0,0.0,0,0,0,0,0,0,0,3,0,0,0,4,1,0,0
100733832,0.0,0.159875,0.536108,0.115385,0.0,0.0,0.0,0.0,0.0,0.0,0.0,0,0,0,0,0,0,0,3,0,0,0,4,1,0,0
100936573,0.0,0.163009,0.529988,0.0673077,0.0,0.0,0.0,0.0,0.0,0.0,0.0,0,0,0,0,0,0,0,3,0,0,0,4,1,0,0
101135348,-0.110577,0.263323,0.528764,0.0504808,0.0,0.0,0.0,0.0,0.0,0.0,0.0,0,0,0,0,0,0,0,3,0,0,0,4,1,0,0
101334034,-0.0168269,0.112853,0.520196,0.0504808,0.0,0.0,0.0,0.0,0.0,0.0,0.0,0,0,0,0,0,0,0,3,0,0,0,4,1,0,0
101533488,0.0192771,0.0438871,0.526316,0.0,0.0,0.0,0.0,0.0,0.0,0.0,0.0,0,0,0,0,0,0,0,3,0,0,0,4,1,0,0
101732312,0.0240964,0.0501567,0.52754,0.0480769,0.0,0.0,0.0,0.0,0.0,0.0,0.0,0,0,0,0,0,0,0,3,0,0,0,4,1,0,0
101935035,0.0240964,0.0501567,0.518972,0.0793269,0.0,0.0,0.0,0.0,0.0,0.0,0.0,0,0,0,0,0,0,0,3,0,0,0,4,1,0,0
102133925,0.0915663,0.0,0.518972,0.0913462,0.0,0.0,0.0,0.0,0.0,0.0,0.0,0,0,0,0,0,0,0,3,0,0,0,4,1,0,0
102336450,0.086747,-0.00914634,0.520196,0.108173,0.0,0.0,0.0,0.0,0.0,0.0,0.0,0,0,0,0,0,0,0,3,0,0,0,4,1,0,0
102536921,0.0216867,0.0,0.518972,0.120192,0.0,0.0,0.0,0.0,0.0,0.0,0.0,0,0,0,0,0,0,0,3,0,0,0,4,1,0,0
102735159,0.0,0.0282132,0.520196,0.0817308,0.0,0.0,0.0,0.0,0.0,0.0,0.0,0,0,0,0,0,0,0,3,0,0,0,4,1,0,0
102933213,0.00240964,0.0438871,0.554468,0.0,0.0,0.0,0.0,0.0,0.0,0.0,0.0,0,0,0,0,0,0,0,3,0,0,0,4,1,0,0
103148406,0.0,0.0438871,0.556916,0.0,0.0,0.0,0.0,0.0,0.0,0.0,0.0,0,0,0,0,0,0,0,3,0,0,0,4,1,0,0
103347136,-0.0913462,0.159875,0.556916,0.0,0.0,0.0,0.0,0.0,0.0,0.0,0.0,0,0,0,0,0,0,0,3,0,0,0,4,1,0,0
103547782,-0.0697115,0.134796,0.555692,0.0,0.0,0.0,0.0,0.0,0.0,0.0,0.0,0,0,0,0,0,0,0,3,0,0,0,4,1,0,0
103745066,0.0,0.0438871,0.555692,0.0,0.0,0.0,0.0,0.0,0.0,0.0,0.0,0,0,0,0,0,0,0,3,0,0,0,4,1,0,0
103947493,0.0216867,0.0532915,0.554468,0.00480769,0.0,0.0,0.0,0.0,0.0,0.0,0.0,0,0,0,0,0,0,0,3,0,0,0,4,1,0,0
104148976,0.0337349,0.100313,0.556916,0.0,0.0,0.0,0.0,0.0,0.0,0.0,0.0,0,0,0,0,0,0,0,3,0,0,0,4,1,0,0
104350009,0.0192771,0.15047,0.555692,0.0,0.0,0.0,0.0,0.0,0.0,0.0,0.0,0,0,0,0,0,0,0,3,0,0,0,4,1,0,0
104548113,-0.0384615,0.319749,0.555692,0.0,0.0,0.0,0.0,0.0,0.0,0.0,0.0,0,0,0,0,0,0,0,3,0,0,0,4,1,0,0
104746795,0.00481928,0.175549,0.556916,0.0,0.0,0.0,0.0,0.0,0.0,0.0,0.0,0,0,0,0,0,0,0,3,0,0,0,4,1,0,0
104940339,0.0192771,0.0438871,0.556916,0.00721154,0.0,0.0,0.0,0.0,0.0,0.0,0.0,0,0,0,0,0,0,0,3,0,0,0,4,1,0,0
105137329,0.171084,0.0,0.556916,0.0192308,0.0,0.0,0.0,0.0,0.0,0.0,0.0,0,0,0,0,0,0,0,3,0,0,0,4,1,0,0
105338222,0.236145,-0.0243902,0.556916,0.0192308,0.0,0.0,0.0,0.0,0.0,0.0,0.0,0,0,0,0,0,0,0,3,0,0,0,4,1,0,0
105539768,0.0771084,0.0,0.556916,0.0120192,0.0,0.0,0.0,0.0,0.0,0.0,0.0,0,0,0,0,0,0,0,3,0,0,0,4,1,0,0
105740941,0.0192771,0.0282132,0.556916,0.00721154,0.0,0.0,0.0,0.0,0.0,0.0,0.0,0,0,0,0,0,0,0,3,0,0,0,4,1,0,0
105942622,0.0168675,0.0438871,0.556916,0.0625,0.0,0.0,0.0,0.0,0.0,0.0,0.0,0,0,0,0,0,0,0,3,0,0,0,4,1,0,0
106142899,0.0168675,0.0438871,0.554468,0.0769231,0.0,0.0,0.0,0.0,0.0,0.0,0.0,0,0,0,0,0,0,0,3,0,0,0,4,1,0,0
106344908,0.0168675,0.0721003,0.555692,0.0,0.0,0.0,0.0,0.0,0.0,0.0,0.0,0,0,0,0,0,0,0,3,0,0,0,4,1,0,0
106545426,-0.112981,0.329154,0.553244,0.0552885,0.0,0.0,0.0,0.0,0.0,0.0,0.0,0,0,0,0,0,0,0,3,0,0,0,4,1,0,0
106746627,-0.0264423,0.197492,0.52754,0.0625,0.0,0.0,0.0,0.0,0.0,0.0,0.0,0,0,0,0,0,0,0,3,0,0,0,4,1,0,0
106947615,0.0192771,0.0438871,0.52754,0.03125,0.0,0.0,0.0,0.0,0.0,0.0,0.0,0,0,0,0,0,0,0,3,0,0,0,4,1,0,0
107149042,0.0192771,0.0438871,0.528764,0.185096,0.0,0.0,0.0,0.0,0.0,0.0,0.0,0,0,0,0,0,0,0,3,0,0,0,4,1,0,0
107350033,0.0192771,0.0595611,0.526316,0.0192308,0.0,0.0,0.0,0.0,0.0,0.0,0.0,0,0,0,0,0,0,0,3,0,0,0,4,1,0,0
107528843,0.0192771,0.0438871,0.526316,0.0,0.0,0.0,0.0,0.0,0.0,0.0,0.0,0,0,0,0,0,0,0,3,0,0,0,4,1,0,0
107752927,0.159036,0.0125392,0.528764,0.03125,0.0,0.0,0.0,0.0,0.0,0.0,0.0,0,0,0,0,0,0,0,3,0,0,0,4,1,0,0
107950388,0.149398,0.0,0.538556,0.0745192,0.0,0.0,0.0,0.0,0.0,0.0,0.0,0,0,0,0,0,0,0,3,0,0,0,4,1,0,0
108129280,0.127711,-0.0579268,0.53978,0.0769231,0.0,0.0,0.0,0.0,0.0,0.0,0.0,0,0,0,0,0,0,0,3,0,0,0,4,1,0,0
108347537,0.0168675,0.0407524,0.560588,0.00721154,0.0,0.0,0.0,0.0,0.0,0.0,0.0,0,0,0,0,0,0,0,3,0,0,0,4,1,0,0
108547693,-0.0649038,0.169279,0.564259,0.0,0.0,0.0,0.0,0.0,0.0,0.0,0.0,0,0,0,0,0,0,0,3,0,0,0,4,1,0,0
108744930,-0.158654,0.247649,0.564259,0.0,0.0,0.0,0.0,0.0,0.0,0.0,0.0,0,0,0,0,0,0,0,3,0,0,0,4,1,0,0
108945922,-0.0384615,0.0438871,0.564259,0.0,0.0,0.0,0.0,0.0,0.0,0.0,0.0,0,0,0,0,0,0,0,3,0,0,0,4,1,0,0
109147745,0.0216867,0.0564263,0.564259,0.0,0.0,0.0,0.0,0.0,0.0,0.0,0.0,0,0,0,0,0,0,0,3,0,0,0,4,1,0,0
109347618,0.0240964,0.134796,0.564259,0.0192308,0.0,0.0,0.0,0.0,0.0,0.0,0.0,0,0,0,0,0,0,0,3,0,0,0,4,1,0,0
109548837,0.0192771,0.222571,0.565483,0.0384615,0.0,0.0,0.0,0.0,0.0,0.0,0.0,0,0,0,0,0,0,0,3,0,0,0,4,1,0,0
109749163,0.0,0.181818,0.563035,0.0,0.0,0.0,0.0,0.0,0.0,0.0,0.0,0,0,0,0,0,0,0,3,0,0,0,4,1,0,0
109950493,0.0192771,0.0438871,0.564259,0.0817308,0.0,0.0,0.0,0.0,0.0,0.0,0.0,0,0,0,0,0,0,0,3,0,0,0,4,1,0,0
110151523,0.026506,0.0470219,0.563035,0.0841346,0.0,0.0,0.0,0.0,0.0,0.0,0.0,0,0,0,0,0,0,0,3,0,0,0,4,1,0,0
110330438,0.159036,0.0501567,0.563035,0.0576923,0.0,0.0,0.0,0.0,0.0,0.0,0.0,0,0,0,0,0,0,0,3,0,0,0,4,1,0,0
110532077,0.20241,0.0501567,0.563035,0.0576923,0.0,0.0,0.0,0.0,0.0,0.0,0.0,0,0,0,0,0,0,0,3,0,0,0,4,1,0,0
110752456,0.159036,0.0532915,0.553244,0.0625,0.0,0.0,0.0,0.0,0.0,0.0,0.0,0,0,0,0,0,0,0,3,0,0,0,4,1,0,0
110931251,0.0554217,0.0564263,0.501836,0.0793269,0.0,0.0,0.0,0.0,0.0,0.0,0.0,0,0,0,0,0,0,0,3,0,0,0,4,1,0,0
111133396,0.0168675,0.0752351,0.514076,0.0889423,0.0,0.0,0.0,0.0,0.0,0.0,0.0,0,0,0,0,0,0,0,3,0,0,0,4,1,0,0
111333759,0.0144578,0.0470219,0.532436,0.0,0.0,0.0,0.0,0.0,0.0,0.0,0.0,0,0,0,0,0,0,0,3,0,0,0,4,1,0,0
111535704,-0.0528846,0.194357,0.532436,0.0,0.0,0.0,0.0,0.0,0.0,0.0,0.0,0,0,0,0,0,0,0,3,0,0,0,4,1,0,0
111734297,-0.0552885,0.22884,0.53366,0.0,0.0,0.0,0.0,0.0,0.0,0.0,0.0,0,0,0,0,0,0,0,3,0,0,0,4,1,0,0
111952716,-0.0288462,0.109718,0.53366,0.0,0.0,0.0,0.0,0.0,0.0,0.0,0.0,0,0,0,0,0,0,0,3,0,0,0,4,1,0,0
112151275,0.0192771,0.0438871,0.532436,0.0120192,0.0,0.0,0.0,0.0,0.0,0.0,0.0,0,0,0,0,0,0,0,3,0,0,0,4,1,0,0
112349524,0.110843,0.0532915,0.53366,0.0144231,0.0,0.0,0.0,0.0,0.0,0.0,0.0,0,0,0,0,0,0,0,3,0,0,0,4,1,0,0
112548337,0.154217,0.0407524,0.554468,0.0,0.0,0.0,0.0,0.0,0.0,0.0,0.0,0,0,0,0,0,0,0,3,0,0,0,4,1,0,0
112747179,0.0,0.0501567,0.560588,0.0,0.0,0.0,0.0,0.0,0.0,0.0,0.0,0,0,0,0,0,0,0,3,0,0,0,4,1,0,0
112947838,-0.100962,0.144201,0.560588,0.0,0.0,0.0,0.0,0.0,0.0,0.0,0.0,0,0,0,0,0,0,0,3,0,0,0,4,1,0,0
113146692,-0.0889423,0.125392,0.561812,-0.00928074,0.0,0.0,0.0,0.0,0.0,0.0,0.0,0,0,0,0,0,0,0,3,0,0,0,4,1,0,0
113345438,0.0144578,0.0438871,0.567931,-0.00928074,0.0,0.0,0.0,0.0,0.0,0.0,0.0,0,0,0,0,0,0,0,3,0,0,0,4,1,0,0
113544090,0.13253,0.0501567,0.577723,0.0,0.0,0.0,0.0,0.0,0.0,0.0,0.0,0,0,0,0,0,0,0,3,0,0,0,4,1,0,0
113742667,0.257831,0.0501567,0.576499,0.0,0.0,0.0,0.0,0.0,0.0,0.0,0.0,0,0,0,0,0,0,0,3,0,0,0,4,1,0,0
113944611,0.190361,0.0532915,0.577723,0.0,0.0,0.0,0.0,0.0,0.0,0.0,0.0,0,0,0,0,0,0,0,3,0,0,0,4,1,0,0
114145042,0.0650602,0.112853,0.576499,0.0,0.0,0.0,0.0,0.0,0.0,0.0,0.0,0,0,0,0,0,0,0,3,0,0,0,4,1,0,0
114343794,0.0192771,0.119122,0.570379,0.0817308,0.0,0.0,0.0,0.0,0.0,0.0,0.0,0,0,0,0,0,0,0,3,0,0,0,4,1,0,0
114545645,0.0,0.0438871,0.569155,0.175481,0.0,0.0,0.0,0.0,0.0,0.0,0.0,0,0,0,0,0,0,0,3,0,0,0,4,1,0,0
114742288,0.0192771,0.0470219,0.55202,0.0841346,0.0,0.0,0.0,0.0,0.0,0.0,0.0,0,0,0,0,0,0,0,3,0,0,0,4,1,0,0
114938962,0.0,0.0626959,0.531212,0.158654,0.0,0.0,0.0,0.0,0.0,0.0,0.0,0,0,0,0,0,0,0,3,0,0,0,4,1,0,0
115137715,-0.105769,0.269592,0.529988,0.0697115,0.0,0.0,0.0,0.0,0.0,0.0,0.0,0,0,0,0,0,0,0,3,0,0,0,4,1,0,0
115341779,-0.0961538,0.253918,0.529988,0.0120192,0.0,0.0,0.0,0.0,0.0,0.0,0.0,0,0,0,0,0,0,0,3,0,0,0,4,1,0,0
115541989,0.0192771,0.0438871,0.531212,0.0264423,0.0,0.0,0.0,0.0,0.0,0.0,0.0,0,0,0,0,0,0,0,3,0,0,0,4,1,0,0
115743652,0.0120482,0.0470219,0.523868,0.103365,0.0,0.0,0.0,0.0,0.0,0.0,0.0,0,0,0,0,0,0,0,3,0,0,0,4,1,0,0
115943788,0.0192771,0.115987,0.534884,0.0625,0.0,0.0,0.0,0.0,0.0,0.0,0.0,0,0,0,0,0,0,0,3,0,0,0,4,1,0,0
116142522,-0.0168269,0.294671,0.534884,0.0625,0.0,0.0,0.0,0.0,0.0,0.0,0.0,0,0,0,0,0,0,0,3,0,0,0,4,1,0,0
116344732,0.0,0.260188,0.534884,0.0240385,0.0,0.0,0.0,0.0,0.0,0.0,0.0,0,0,0,0,0,0,0,3,0,0,0,4,1,0,0
116544072,0.0987952,0.0501567,0.536108,0.0,0.0,0.0,0.0,0.0,0.0,0.0,0.0,0,0,0,0,0,0,0,3,0,0,0,4,1,0,0
116747206,0.366265,0.031348,0.556916,0.0,0.0,0.0,0.0,0.0,0.0,0.0,0.0,0,0,0,0,0,0,0,3,0,0,0,4,1,0,0
116947115,0.371084,0.0188088,0.559364,0.0,0.0,0.0,0.0,0.0,0.0,0.0,0.0,0,0,0,0,0,0,0,3,0,0,0,4,1,0,0
117145674,0.216867,0.0376176,0.564259,0.0,0.0,0.0,0.0,0.0,0.0,0.0,0.0,0,0,0,0,0,0,0,3,0,0,0,4,1,0,0
117323048,0.0192771,0.0470219,0.569155,-0.00464037,0.0,0.0,0.0,0.0,0.0,0.0,0.0,0,0,0,0,0,0,0,3,0,0,0,4,1,0,0
117542690,0.0,0.0470219,0.575275,0.0,0.0,0.0,0.0,0.0,0.0,0.0,0.0,0,0,0,0,0,0,0,3,0,0,0,4,1,0,0
117744368,0.0,0.0564263,0.575275,0.0,0.0,0.0,0.0,0.0,0.0,0.0,0.0,0,0,0,0,0,0,0,3,0,0,0,4,1,0,0
117944862,-0.0625,0.275862,0.575275,0.0,0.0,0.0,0.0,0.0,0.0,0.0,0.0,0,0,0,0,0,0,0,3,0,0,0,4,1,0,0
118143436,-0.0120192,0.166144,0.575275,0.0,0.0,0.0,0.0,0.0,0.0,0.0,0.0,0,0,0,0,0,0,0,3,0,0,0,4,1,0,0
118344848,0.026506,0.0407524,0.575275,0.0,0.0,0.0,0.0,0.0,0.0,0.0,0.0,0,0,0,0,0,0,0,3,0,0,0,4,1,0,0
118544060,0.175904,0.0564263,0.572827,0.0,0.0,0.0,0.0,0.0,0.0,0.0,0.0,0,0,0,0,0,0,0,3,0,0,0,4,1,0,0
118744602,0.125301,0.188088,0.571603,0.0,0.0,0.0,0.0,0.0,0.0,0.0,0.0,0,0,0,0,0,0,0,3,0,0,0,4,1,0,0
118946315,0.0192771,0.388715,0.570379,0.00240385,0.0,0.0,0.0,0.0,0.0,0.0,0.0,0,0,0,0,0,0,0,3,0,0,0,4,1,0,0
119146966,0.0240964,0.213166,0.570379,0.0,0.0,0.0,0.0,0.0,0.0,0.0,0.0,0,0,0,0,0,0,0,3,0,0,0,4,1,0,0
119345530,0.0192771,0.0438871,0.570379,0.0,0.0,0.0,0.0,0.0,0.0,0.0,0.0,0,0,0,0,0,0,0,3,0,0,0,4,1,0,0
119544436,0.0216867,0.0470219,0.517748,0.0480769,0.0,0.0,0.0,0.0,0.0,0.0,0.0,0,0,0,0,0,0,0,3,0,0,0,4,1,0,0
119746284,0.0216867,0.0501567,0.501836,0.0673077,0.0,0.0,0.0,0.0,0.0,0.0,0.0,0,0,0,0,0,0,0,3,0,0,0,4,1,0,0
119944959,0.0939759,0.0438871,0.510404,0.0552885,0.0,0.0,0.0,0.0,0.0,0.0,0.0,0,0,0,0,0,0,0,3,0,0,0,4,1,0,0
120145232,0.115663,0.0250784,0.510404,0.0552885,0.0,0.0,0.0,0.0,0.0,0.0,0.0,0,0,0,0,0,0,0,3,0,0,0,4,1,0,0
120344009,0.108434,-0.0640244,0.499388,0.00480769,0.0,0.0,0.0,0.0,0.0,0.0,0.0,0,0,0,0,0,0,0,3,0,0,0,4,1,0,0
120542851,0.127711,-0.0792683,0.516524,0.0,0.0,0.0,0.0,0.0,0.0,0.0,0.0,0,0,0,0,0,0,0,3,0,0,0,4,1,0,0
120741363,0.0192771,0.0125392,0.523868,0.0,0.0,0.0,0.0,0.0,0.0,0.0,0.0,0,0,0,0,0,0,0,3,0,0,0,4,1,0,0
120943161,-0.00721154,0.0501567,0.531212,0.0,0.0,0.0,0.0,0.0,0.0,0.0,0.0,0,0,0,0,0,0,0,3,0,0,0,4,1,0,0
121143785,-0.0288462,0.188088,0.532436,0.0,0.0,0.0,0.0,0.0,0.0,0.0,0.0,0,0,0,0,0,0,0,3,0,0,0,4,1,0,0
121345210,-0.09375,0.388715,0.532436,0.0,0.0,0.0,0.0,0.0,0.0,0.0,0.0,0,0,0,0,0,0,0,3,0,0,0,4,1,0,0
121545998,0.0192771,0.122257,0.532436,0.0,0.0,0.0,0.0,0.0,0.0,0.0,0.0,0,0,0,0,0,0,0,3,0,0,0,4,1,0,0
121747394,0.13253,0.0501567,0.534884,0.0,0.0,0.0,0.0,0.0,0.0,0.0,0.0,0,0,0,0,0,0,0,3,0,0,0,4,1,0,0
121948508,0.310843,0.0438871,0.536108,0.0,0.0,0.0,0.0,0.0,0.0,0.0,0.0,0,0,0,0,0,0,0,3,0,0,0,4,1,0,0
122149853,0.378313,0.0188088,0.537332,0.0,0.0,0.0,0.0,0.0,0.0,0.0,0.0,0,0,0,0,0,0,0,3,0,0,0,4,1,0,0
122350714,0.0891566,0.0470219,0.563035,-0.0139211,0.0,0.0,0.0,0.0,0.0,0.0,0.0,0,0,0,0,0,0,0,3,0,0,0,4,1,0,0
122549293,0.0,0.0501567,0.578947,-0.0510441,0.0,0.0,0.0,0.0,0.0,0.0,0.0,0,0,0,0,0,0,0,3,0,0,0,4,1,0,0
122746340,0.00963855,0.0470219,0.587515,-0.0510441,0.0,0.0,0.0,0.0,0.0,0.0,0.0,0,0,0,0,0,0,0,3,0,0,0,4,1,0,0
122944943,0.115663,0.0783699,0.587515,-0.0510441,0.0,0.0,0.0,0.0,0.0,0.0,0.0,0,0,0,0,0,0,0,3,0,0,0,4,1,0,0
123145446,0.151807,0.0971787,0.588739,-0.0440835,0.0,0.0,0.0,0.0,0.0,0.0,0.0,0,0,0,0,0,0,0,3,0,0,0,4,1,0,0
123342429,0.053012,0.137931,0.589963,-0.0208817,0.0,0.0,0.0,0.0,0.0,0.0,0.0,0,0,0,0,0,0,0,3,0,0,0,4,1,0,0
123542877,0.0,0.269592,0.583843,0.0,0.0,0.0,0.0,0.0,0.0,0.0,0.0,0,0,0,0,0,0,0,3,0,0,0,4,1,0,0
123741482,-0.0144231,0.30094,0.570379,0.0,0.0,0.0,0.0,0.0,0.0,0.0,0.0,0,0,0,0,0,0,0,3,0,0,0,4,1,0,0
123943374,0.0192771,0.0501567,0.5459,0.0673077,0.0,0.0,0.0,0.0,0.0,0.0,0.0,0,0,0,0,0,0,0,3,0,0,0,4,1,0,0
124143913,0.0506024,0.0846395,0.529988,0.0408654,0.0,0.0,0.0,0.0,0.0,0.0,0.0,0,0,0,0,0,0,0,3,0,0,0,4,1,0,0
124342500,0.146988,0.119122,0.531212,0.0,0.0,0.0,0.0,0.0,0.0,0.0,0.0,0,0,0,0,0,0,0,3,0,0,0,4,1,0,0
124541228,0.168675,0.109718,0.531212,0.0,0.0,0.0,0.0,0.0,0.0,0.0,0.0,0,0,0,0,0,0,0,3,0,0,0,4,1,0,0
124739959,0.0192771,0.15047,0.531212,0.00480769,0.0,0.0,0.0,0.0,0.0,0.0,0.0,0,0,0,0,0,0,0,3,0,0,0,4,1,0,0
124938645,0.0,0.184953,0.532436,0.0,0.0,0.0,0.0,0.0,0.0,0.0,0.0,0,0,0,0,0,0,0,3,0,0,0,4,1,0,0
125137355,0.0,0.22884,0.532436,0.0,0.0,0.0,0.0,0.0,0.0,0.0,0.0,0,0,0,0,0,0,0,3,0,0,0,4,1,0,0
125338595,0.0891566,0.0501567,0.532436,0.0,0.0,0.0,0.0,0.0,0.0,0.0,0.0,0,0,0,0,0,0,0,3,0,0,0,4,1,0,0
125537378,0.291566,-0.0365854,0.532436,0.0264423,0.0,0.0,0.0,0.0,0.0,0.0,0.0,0,0,0,0,0,0,0,3,0,0,0,4,1,0,0
125736104,0.106024,-0.210366,0.531212,0.0,0.0,0.0,0.0,0.0,0.0,0.0,0.0,0,0,0,0,0,0,0,3,0,0,0,4,1,0,0
125937054,0.0192771,-0.0945122,0.532436,0.0,0.0,0.0,0.0,0.0,0.0,0.0,0.0,0,0,0,0,0,0,0,3,0,0,0,4,1,0,0
126139243,0.0,0.0438871,0.532436,0.0,0.0,0.0,0.0,0.0,0.0,0.0,0.0,0,0,0,0,0,0,0,3,0,0,0,4,1,0,0
126336974,-0.0336538,0.159875,0.53366,0.0,0.0,0.0,0.0,0.0,0.0,0.0,0.0,0,0,0,0,0,0,0,3,0,0,0,4,1,0,0
126545049,0.0216867,0.106583,0.534884,0.0,0.0,0.0,0.0,0.0,0.0,0.0,0.0,0,0,0,0,0,0,0,3,0,0,0,4,1,0,0
126739447,0.0216867,0.0438871,0.534884,0.0,0.0,0.0,0.0,0.0,0.0,0.0,0.0,0,0,0,0,0,0,0,3,0,0,0,4,1,0,0
126940329,0.026506,0.119122,0.563035,0.0,0.0,0.0,0.0,0.0,0.0,0.0,0.0,0,0,0,0,0,0,0,3,0,0,0,4,1,0,0
127141585,0.0192771,0.260188,0.566707,-0.0116009,0.0,0.0,0.0,0.0,0.0,0.0,0.0,0,0,0,0,0,0,0,3,0,0,0,4,1,0,0
127342686,0.0192771,0.319749,0.566707,-0.0208817,0.0,0.0,0.0,0.0,0.0,0.0,0.0,0,0,0,0,0,0,0,3,0,0,0,4,1,0,0
127544682,0.060241,0.0595611,0.569155,-0.0464037,0.0,0.0,0.0,0.0,0.0,0.0,0.0,0,0,0,0,0,0,0,3,0,0,0,4,1,0,0
127745132,0.185542,0.0501567,0.569155,-0.0417633,0.0,0.0,0.0,0.0,0.0,0.0,0.0,0,0,0,0,0,0,0,3,0,0,0,4,1,0,0
127947110,0.26506,0.0470219,0.569155,-0.0348028,0.0,0.0,0.0,0.0,0.0,0.0,0.0,0,0,0,0,0,0,0,3,0,0,0,4,1,0,0
128147348,0.240964,0.0501567,0.569155,-0.0208817,0.0,0.0,0.0,0.0,0.0,0.0,0.0,0,0,0,0,0,0,0,3,0,0,0,4,1,0,0
128344628,0.231325,0.0501567,0.571603,0.0,0.0,0.0,0.0,0.0,0.0,0.0,0.0,0,0,0,0,0,0,0,3,0,0,0,4,1,0,0
128544914,0.183133,0.0501567,0.572827,0.0,0.0,0.0,0.0,0.0,0.0,0.0,0.0,0,0,0,0,0,0,0,3,0,0,0,4,1,0,0
128746551,0.175904,0.0501567,0.571603,0.0,0.0,0.0,0.0,0.0,0.0,0.0,0.0,0,0,0,0,0,0,0,3,0,0,0,4,1,0,0
128947137,0.0192771,0.0971787,0.566707,-0.225058,0.0,0.0,0.0,0.0,0.0,0.0,0.0,0,0,0,0,0,0,0,3,0,0,0,4,1,0,0
129148650,0.00240964,0.285266,0.563035,-0.475638,0.0,0.0,0.0,0.0,0.0,0.0,0.0,0,0,0,0,0,0,0,3,0,0,0,4,1,0,0
129349406,-0.0120192,0.316614,0.563035,-0.457077,0.0,0.0,0.0,0.0,0.0,0.0,0.0,0,0,0,0,0,0,0,3,0,0,0,4,1,0,0
129552370,0.0192771,0.22884,0.561812,-0.487239,0.0,0.0,0.0,0.0,0.0,0.0,0.0,0,0,0,0,0,0,0,3,0,0,0,4,1,0,0
129751866,0.0216867,0.0438871,0.561812,-0.394432,0.0,0.0,0.0,0.0,0.0,0.0,0.0,0,0,0,0,0,0,0,3,0,0,0,4,1,0,0
129950417,0.0216867,0.0438871,0.560588,-0.194896,0.0,0.0,0.0,0.0,0.0,0.0,0.0,0,0,0,0,0,0,0,3,0,0,0,4,1,0,0
130149571,0.0216867,0.0438871,0.559364,-0.0208817,0.0,0.0,0.0,0.0,0.0,0.0,0.0,0,0,0,0,0,0,0,3,0,0,0,4,1,0,0
130350437,0.0,0.00940439,0.528764,0.0360577,0.0,0.0,0.0,0.0,0.0,0.0,0.0,0,0,0,0,0,0,0,3,0,0,0,4,1,0,0
130547681,-0.271635,0.0438871,0.479804,0.0,0.0,0.0,0.0,0.0,0.0,0.0,0.0,0,0,0,0,0,0,0,3,0,0,0,4,1,0,0
130745764,-0.314904,0.0,0.4847,0.0,0.0,0.0,0.0,0.0,0.0,0.0,0.0,0,0,0,0,0,0,0,3,0,0,0,4,1,0,0
130948085,-0.247596,-0.231707,0.489596,0.0,0.0,0.0,0.0,0.0,0.0,0.0,0.0,0,0,0,0,0,0,0,3,0,0,0,4,1,0,0
131148006,0.0192771,0.0438871,0.494492,0.0,0.0,0.0,0.0,0.0,0.0,0.0,0.0,0,0,0,0,0,0,0,3,0,0,0,4,1,0,0
131346799,0.0192771,0.0470219,0.511628,-0.225058,0.0,0.0,0.0,0.0,0.0,0.0,0.0,0,0,0,0,0,0,0,3,0,0,0,4,1,0,0
131545393,0.0216867,0.0501567,0.510404,-0.438515,0.0,0.0,0.0,0.0,0.0,0.0,0.0,0,0,0,0,0,0,0,3,0,0,0,4,1,0,0
131746193,0.0216867,0.0438871,0.526316,-0.399072,0.0,0.0,0.0,0.0,0.0,0.0,0.0,0,0,0,0,0,0,0,3,0,0,0,4,1,0,0
131947128,0.0216867,0.0438871,0.553244,-0.215777,0.0,0.0,0.0,0.0,0.0,0.0,0.0,0,0,0,0,0,0,0,3,0,0,0,4,1,0,0
132148587,0.0168675,-0.265244,0.553244,-0.0510441,0.0,0.0,0.0,0.0,0.0,0.0,0.0,0,0,0,0,0,0,0,3,0,0,0,4,1,0,0
132347330,0.0,-0.402439,0.572827,-0.0510441,0.0,0.0,0.0,0.0,0.0,0.0,0.0,0,0,0,0,0,0,0,3,0,0,0,4,1,0,0
132547907,0.00963855,-0.256098,0.593635,-0.062645,0.0,0.0,0.0,0.0,0.0,0.0,0.0,0,0,0,0,0,0,0,3,0,0,0,4,1,0,0
132749735,0.0216867,0.0438871,0.594859,-0.0881671,0.0,0.0,0.0,0.0,0.0,0.0,0.0,0,0,0,0,0,0,0,3,0,0,0,4,1,0,0
132950665,0.0506024,0.0501567,0.597307,-0.062645,0.0,0.0,0.0,0.0,0.0,0.0,0.0,0,0,0,0,0,0,0,3,0,0,0,4,1,0,0
133153432,0.0313253,0.0501567,0.597307,-0.062645,0.0,0.0,0.0,0.0,0.0,0.0,0.0,0,0,0,0,0,0,0,3,0,0,0,4,1,0,0
133352802,0.0216867,0.141066,0.598531,-0.310905,0.0,0.0,0.0,0.0,0.0,0.0,0.0,0,0,0,0,0,0,0,3,0,0,0,4,1,0,0
133549228,0.0216867,0.103448,0.597307,-0.399072,0.0,0.0,0.0,0.0,0.0,0.0,0.0,0,0,0,0,0,0,0,3,0,0,0,4,1,0,0
133750263,0.0216867,0.0438871,0.598531,-0.336427,0.0,0.0,0.0,0.0,0.0,0.0,0.0,0,0,0,0,0,0,0,3,0,0,0,4,1,0,0
133948168,0.0746988,0.0501567,0.55814,0.0,0.0,0.0,0.0,0.0,0.0,0.0,0.0,0,0,0,0,0,0,0,3,0,0,0,4,1,0,0
134146846,0.236145,0.0470219,0.528764,0.0,0.0,0.0,0.0,0.0,0.0,0.0,0.0,0,0,0,0,0,0,0,3,0,0,0,4,1,0,0
134345586,0.214458,0.0501567,0.507956,0.0,0.0,0.0,0.0,0.0,0.0,0.0,0.0,0,0,0,0,0,0,0,3,0,0,0,4,1,0,0
134545677,0.0650602,0.0501567,0.458996,0.0,0.0,0.0,0.0,0.0,0.0,0.0,0.0,0,0,0,0,0,0,0,3,0,0,0,4,1,0,0
134744341,0.0192771,0.0501567,0.458996,0.0,0.0,0.0,0.0,0.0,0.0,0.0,0.0,0,0,0,0,0,0,0,3,0,0,0,4,1,0,0
134942370,0.0192771,0.0501567,0.505508,0.0,0.0,0.0,0.0,0.0,0.0,0.0,0.0,0,0,0,0,0,0,0,3,0,0,0,4,1,0,0
135140398,0.00963855,0.0219436,0.523868,0.0,0.0,0.0,0.0,0.0,0.0,0.0,0.0,0,0,0,0,0,0,0,3,0,0,0,4,1,0,0
135339896,0.0192771,0.0438871,0.5153,-0.0324826,0.0,0.0,0.0,0.0,0.0,0.0,0.0,0,0,0,0,0,0,0,3,0,0,0,4,1,0,0
135536521,0.0216867,0.0532915,0.544676,-0.37587,0.0,0.0,0.0,0.0,0.0,0.0,0.0,0,0,0,0,0,0,0,3,0,0,0,4,1,0,0
135741038,0.0192771,0.0470219,0.55814,-0.364269,0.0,0.0,0.0,0.0,0.0,0.0,0.0,0,0,0,0,0,0,0,3,0,0,0,4,1,0,0
135935495,0.0192771,0.0438871,0.559364,0.0,0.0,0.0,0.0,0.0,0.0,0.0,0.0,0,0,0,0,0,0,0,3,0,0,0,4,1,0,0
136135172,-0.00240385,-0.176829,0.55814,0.0144231,0.0,0.0,0.0,0.0,0.0,0.0,0.0,0,0,0,0,0,0,0,3,0,0,0,4,1,0,0
136333740,0.0,-0.152439,0.55814,0.0,0.0,0.0,0.0,0.0,0.0,0.0,0.0,0,0,0,0,0,0,0,3,0,0,0,4,1,0,0
136531884,0.0216867,-0.027439,0.559364,0.0,0.0,0.0,0.0,0.0,0.0,0.0,0.0,0,0,0,0,0,0,0,3,0,0,0,4,1,0,0
136734639,0.0192771,-0.0670732,0.559364,0.0,0.0,0.0,0.0,0.0,0.0,0.0,0.0,0,0,0,0,0,0,0,3,0,0,0,4,1,0,0
136933388,0.0,-0.20122,0.560588,0.09375,0.0,0.0,0.0,0.0,0.0,0.0,0.0,0,0,0,0,0,0,0,3,0,0,0,4,1,0,0
137132893,0.0192771,0.0125392,0.565483,0.0,0.0,0.0,0.0,0.0,0.0,0.0,0.0,0,0,0,0,0,0,0,3,0,0,0,4,1,0,0
137334252,0.0216867,0.0188088,0.564259,0.0,0.0,0.0,0.0,0.0,0.0,0.0,0.0,0,0,0,0,0,0,0,3,0,0,0,4,1,0,0
137534985,0.0216867,-0.0304878,0.565483,0.0432692,0.0,0.0,0.0,0.0,0.0,0.0,0.0,0,0,0,0,0,0,0,3,0,0,0,4,1,0,0
137736667,0.0216867,-0.0243902,0.565483,0.00721154,0.0,0.0,0.0,0.0,0.0,0.0,0.0,0,0,0,0,0,0,0,3,0,0,0,4,1,0,0
137933774,0.0216867,-0.0762195,0.565483,0.0,0.0,0.0,0.0,0.0,0.0,0.0,0.0,0,0,0,0,0,0,0,3,0,0,0,4,1,0,0
138134411,0.0216867,-0.0792683,0.565483,0.0,0.0,0.0,0.0,0.0,0.0,0.0,0.0,0,0,0,0,0,0,0,3,0,0,0,4,1,0,0
138332650,0.0216867,0.0532915,0.566707,0.0,0.0,0.0,0.0,0.0,0.0,0.0,0.0,0,0,0,0,0,0,0,3,0,0,0,4,1,0,0
138533598,0.0192771,0.0971787,0.565483,0.0,0.0,0.0,0.0,0.0,0.0,0.0,0.0,0,0,0,0,0,0,0,3,0,0,0,4,1,0,0
138732352,0.0819277,0.0564263,0.565483,0.0,0.0,0.0,0.0,0.0,0.0,0.0,0.0,0,0,0,0,0,0,0,3,0,0,0,4,1,0,0
138934190,0.13253,0.0752351,0.565483,0.0,0.0,0.0,0.0,0.0,0.0,0.0,0.0,0,0,0,0,0,0,0,3,0,0,0,4,1,0,0
139132994,0.103614,0.106583,0.565483,0.0,0.0,0.0,0.0,0.0,0.0,0.0,0.0,0,0,0,0,0,0,0,3,0,0,0,4,1,0,0
139333385,0.106024,0.100313,0.563035,0.0,0.0,0.0,0.0,0.0,0.0,0.0,0.0,0,0,0,0,0,0,0,3,0,0,0,4,1,0,0
139534772,0.0915663,0.100313,0.556916,0.0,0.0,0.0,0.0,0.0,0.0,0.0,0.0,0,0,0,0,0,0,0,3,0,0,0,4,1,0,0
139733493,0.103614,0.0877743,0.514076,0.0,0.0,0.0,0.0,0.0,0.0,0.0,0.0,0,0,0,0,0,0,0,3,0,0,0,4,1,0,0
139934401,0.0626506,0.0532915,0.510404,0.0,0.0,0.0,0.0,0.0,0.0,0.0,0.0,0,0,0,0,0,0,0,3,0,0,0,4,1,0,0
140135731,0.0192771,0.0470219,0.505508,0.0,0.0,0.0,0.0,0.0,0.0,0.0,0.0,0,0,0,0,0,0,0,3,0,0,0,4,1,0,0
140336714,0.0192771,-0.00609756,0.554468,0.0,0.0,0.0,0.0,0.0,0.0,0.0,0.0,0,0,0,0,0,0,0,3,0,0,0,4,1,0,0
140538128,-0.00240385,-0.0457317,0.586291,-0.00928074,0.0,0.0,0.0,0.0,0.0,0.0,0.0,0,0,0,0,0,0,0,3,0,0,0,4,1,0,0
140738965,-0.0769231,-0.158537,0.591187,-0.00928074,0.0,0.0,0.0,0.0,0.0,0.0,0.0,0,0,0,0,0,0,0,3,0,0,0,4,1,0,0
140940447,-0.0456731,-0.237805,0.591187,0.0,0.0,0.0,0.0,0.0,0.0,0.0,0.0,0,0,0,0,0,0,0,3,0,0,0,4,1,0,0
141141360,0.0192771,-0.0823171,0.592411,0.0,0.0,0.0,0.0,0.0,0.0,0.0,0.0,0,0,0,0,0,0,0,3,0,0,0,4,1,0,0
141343313,0.0192771,0.0438871,0.591187,-0.00696056,0.0,0.0,0.0,0.0,0.0,0.0,0.0,0,0,0,0,0,0,0,3,0,0,0,4,1,0,0
141543876,0.0216867,0.0470219,0.574051,0.0,0.0,0.0,0.0,0.0,0.0,0.0,0.0,0,0,0,0,0,0,0,3,0,0,0,4,1,0,0
141745013,0.0578313,0.0501567,0.559364,0.0,0.0,0.0,0.0,0.0,0.0,0.0,0.0,0,0,0,0,0,0,0,3,0,0,0,4,1,0,0
141946072,0.13012,0.0501567,0.550796,0.0,0.0,0.0,0.0,0.0,0.0,0.0,0.0,0,0,0,0,0,0,0,3,0,0,0,4,1,0,0
142144745,0.146988,0.0532915,0.511628,0.0,0.0,0.0,0.0,0.0,0.0,0.0,0.0,0,0,0,0,0,0,0,3,0,0,0,4,1,0,0
142346801,0.139759,0.0501567,0.501836,0.0,0.0,0.0,0.0,0.0,0.0,0.0,0.0,0,0,0,0,0,0,0,3,0,0,0,4,1,0,0
142542050,0.13253,0.0501567,0.498164,0.0,0.0,0.0,0.0,0.0,0.0,0.0,0.0,0,0,0,0,0,0,0,3,0,0,0,4,1,0,0
142744100,0.0457831,0.112853,0.529988,0.0,0.0,0.0,0.0,0.0,0.0,0.0,0.0,0,0,0,0,0,0,0,3,0,0,0,4,1,0,0
142944381,0.00481928,0.244514,0.565483,-0.00464037,0.0,0.0,0.0,0.0,0.0,0.0,0.0,0,0,0,0,0,0,0,3,0,0,0,4,1,0,0
143143279,0.0144578,0.0752351,0.569155,-0.0510441,0.0,0.0,0.0,0.0,0.0,0.0,0.0,0,0,0,0,0,0,0,3,0,0,0,4,1,0,0
143344855,0.0192771,0.0470219,0.581395,-0.0464037,0.0,0.0,0.0,0.0,0.0,0.0,0.0,0,0,0,0,0,0,0,3,0,0,0,4,1,0,0
143543597,0.0144578,0.0470219,0.582619,-0.0533643,0.0,0.0,0.0,0.0,0.0,0.0,0.0,0,0,0,0,0,0,0,3,0,0,0,4,1,0,0
143744331,0.0,0.0752351,0.583843,-0.0417633,0.0,0.0,0.0,0.0,0.0,0.0,0.0,0,0,0,0,0,0,0,3,0,0,0,4,1,0,0
143946061,0.0168675,0.0438871,0.581395,0.0,0.0,0.0,0.0,0.0,0.0,0.0,0.0,0,0,0,0,0,0,0,3,0,0,0,4,1,0,0
144146523,0.0216867,-0.0152439,0.575275,0.0793269,0.0,0.0,0.0,0.0,0.0,0.0,0.0,0,0,0,0,0,0,0,3,0,0,0,4,1,0,0
144345127,0.0216867,-0.00609756,0.566707,0.204327,0.0,0.0,0.0,0.0,0.0,0.0,0.0,0,0,0,0,0,0,0,3,0,0,0,4,1,0,0
144544696,0.0216867,0.0,0.564259,0.0120192,0.0,0.0,0.0,0.0,0.0,0.0,0.0,0,0,0,0,0,0,0,3,0,0,0,4,1,0,0
144743245,0.0361446,0.0407524,0.565483,0.0,0.0,0.0,0.0,0.0,0.0,0.0,0.0,0,0,0,0,0,0,0,3,0,0,0,4,1,0,0
144948411,0.0626506,0.0501567,0.52142,0.03125,0.0,0.0,0.0,0.0,0.0,0.0,0.0,0,0,0,0,0,0,0,3,0,0,0,4,1,0,0
145143974,0.108434,0.0125392,0.522644,0.0,0.0,0.0,0.0,0.0,0.0,0.0,0.0,0,0,0,0,0,0,0,3,0,0,0,4,1,0,0
145343510,0.125301,0.0438871,0.522644,0.0,0.0,0.0,0.0,0.0,0.0,0.0,0.0,0,0,0,0,0,0,0,3,0,0,0,4,1,0,0
145546524,0.0939759,0.0,0.522644,0.0,0.0,0.0,0.0,0.0,0.0,0.0,0.0,0,0,0,0,0,0,0,3,0,0,0,4,1,0,0
145746609,0.0192771,0.0,0.522644,0.0,0.0,0.0,0.0,0.0,0.0,0.0,0.0,0,0,0,0,0,0,0,3,0,0,0,4,1,0,0
145944697,-0.0216346,0.0,0.523868,0.0,0.0,0.0,0.0,0.0,0.0,0.0,0.0,0,0,0,0,0,0,0,3,0,0,0,4,1,0,0
146146025,-0.103365,0.0,0.53978,0.0,0.0,0.0,0.0,0.0,0.0,0.0,0.0,0,0,0,0,0,0,0,3,0,0,0,4,1,0,0
146344802,-0.110577,0.0,0.554468,0.0,0.0,0.0,0.0,0.0,0.0,0.0,0.0,0,0,0,0,0,0,0,3,0,0,0,4,1,0,0
146545360,0.0192771,0.0250784,0.560588,-0.00464037,0.0,0.0,0.0,0.0,0.0,0.0,0.0,0,0,0,0,0,0,0,3,0,0,0,4,1,0,0
146743403,0.0216867,0.0,0.564259,0.0,0.0,0.0,0.0,0.0,0.0,0.0,0.0,0,0,0,0,0,0,0,3,0,0,0,4,1,0,0
146940755,0.0216867,-0.0457317,0.564259,0.0,0.0,0.0,0.0,0.0,0.0,0.0,0.0,0,0,0,0,0,0,0,3,0,0,0,4,1,0,0
147141752,0.0650602,-0.0731707,0.565483,-0.0812065,0.0,0.0,0.0,0.0,0.0,0.0,0.0,0,0,0,0,0,0,0,3,0,0,0,4,1,0,0
147340379,0.0240964,0.00626959,0.566707,-0.201856,0.0,0.0,0.0,0.0,0.0,0.0,0.0,0,0,0,0,0,0,0,3,0,0,0,4,1,0,0
147538265,0.0361446,0.0188088,0.565483,-0.0417633,0.0,0.0,0.0,0.0,0.0,0.0,0.0,0,0,0,0,0,0,0,3,0,0,0,4,1,0,0
147737682,0.125301,0.0501567,0.566707,0.0,0.0,0.0,0.0,0.0,0.0,0.0,0.0,0,0,0,0,0,0,0,3,0,0,0,4,1,0,0
147940515,0.26747,0.0501567,0.563035,0.0,0.0,0.0,0.0,0.0,0.0,0.0,0.0,0,0,0,0,0,0,0,3,0,0,0,4,1,0,0
148131343,0.262651,0.0501567,0.560588,0.00961538,0.0,0.0,0.0,0.0,0.0,0.0,0.0,0,0,0,0,0,0,0,3,0,0,0,4,1,0,0
148353064,0.122892,0.0846395,0.561812,0.00721154,0.0,0.0,0.0,0.0,0.0,0.0,0.0,0,0,0,0,0,0,0,3,0,0,0,4,1,0,0
148551584,0.0192771,0.172414,0.563035,0.0,0.0,0.0,0.0,0.0,0.0,0.0,0.0,0,0,0,0,0,0,0,3,0,0,0,4,1,0,0
148746478,0.0,0.22884,0.563035,0.0,0.0,0.0,0.0,0.0,0.0,0.0,0.0,0,0,0,0,0,0,0,3,0,0,0,4,1,0,0
148945169,-0.115385,0.338558,0.564259,0.0,0.0,0.0,0.0,0.0,0.0,0.0,0.0,0,0,0,0,0,0,0,3,0,0,0,4,1,0,0
149138687,-0.0216346,0.194357,0.564259,0.0,0.0,0.0,0.0,0.0,0.0,0.0,0.0,0,0,0,0,0,0,0,3,0,0,0,4,1,0,0
149335536,0.0192771,0.0438871,0.566707,0.0,0.0,0.0,0.0,0.0,0.0,0.0,0.0,0,0,0,0,0,0,0,3,0,0,0,4,1,0,0
149535391,0.00963855,-0.0731707,0.566707,0.0721154,0.0,0.0,0.0,0.0,0.0,0.0,0.0,0,0,0,0,0,0,0,3,0,0,0,4,1,0,0
149732793,0.0,-0.125,0.565483,0.0841346,0.0,0.0,0.0,0.0,0.0,0.0,0.0,0,0,0,0,0,0,0,3,0,0,0,4,1,0,0
149933433,0.0216867,0.0438871,0.565483,0.00480769,0.0,0.0,0.0,0.0,0.0,0.0,0.0,0,0,0,0,0,0,0,3,0,0,0,4,1,0,0
150134812,0.00722892,0.0,0.55814,0.225962,0.0,0.0,0.0,0.0,0.0,0.0,0.0,0,0,0,0,0,0,0,3,0,0,0,4,1,0,0
150334765,0.0192771,0.0438871,0.563035,0.0,0.0,0.0,0.0,0.0,0.0,0.0,0.0,0,0,0,0,0,0,0,3,0,0,0,4,1,0,0
150532011,-0.00480769,-0.152439,0.565483,0.0,0.0,0.0,0.0,0.0,0.0,0.0,0.0,0,0,0,0,0,0,0,3,0,0,0,4,1,0,0
150730644,-0.108173,-0.286585,0.564259,0.0,0.0,0.0,0.0,0.0,0.0,0.0,0.0,0,0,0,0,0,0,0,3,0,0,0,4,1,0,0
150951633,-0.0769231,-0.259146,0.563035,0.0,0.0,0.0,0.0,0.0,0.0,0.0,0.0,0,0,0,0,0,0,0,3,0,0,0,4,1,0,0
151130489,0.0216867,-0.097561,0.565483,0.0,0.0,0.0,0.0,0.0,0.0,0.0,0.0,0,0,0,0,0,0,0,3,0,0,0,4,1,0,0
151333291,0.115663,0.0,0.529988,0.0192308,0.0,0.0,0.0,0.0,0.0,0.0,0.0,0,0,0,0,0,0,0,3,0,0,0,4,1,0,0
151553796,0.103614,0.00940439,0.520196,0.0,0.0,0.0,0.0,0.0,0.0,0.0,0.0,0,0,0,0,0,0,0,3,0,0,0,4,1,0,0
151735582,0.0915663,0.0188088,0.520196,0.0,0.0,0.0,0.0,0.0,0.0,0.0,0.0,0,0,0,0,0,0,0,3,0,0,0,4,1,0,0
151934916,0.0216867,0.0250784,0.523868,0.0,0.0,0.0,0.0,0.0,0.0,0.0,0.0,0,0,0,0,0,0,0,3,0,0,0,4,1,0,0
152135053,0.0192771,0.0501567,0.52142,0.0,0.0,0.0,0.0,0.0,0.0,0.0,0.0,0,0,0,0,0,0,0,3,0,0,0,4,1,0,0
152333550,0.0192771,0.0532915,0.554468,-0.306264,0.0,0.0,0.0,0.0,0.0,0.0,0.0,0,0,0,0,0,0,0,3,0,0,0,4,1,0,0
152532337,0.0,0.0470219,0.55202,-0.0835267,0.0,0.0,0.0,0.0,0.0,0.0,0.0,0,0,0,0,0,0,0,3,0,0,0,4,1,0,0
152748573,0.0216867,0.0501567,0.542228,0.0,0.0,0.0,0.0,0.0,0.0,0.0,0.0,0,0,0,0,0,0,0,3,0,0,0,4,1,0,0
152931568,0.0963855,0.0438871,0.55814,0.0,0.0,0.0,0.0,0.0,0.0,0.0,0.0,0,0,0,0,0,0,0,3,0,0,0,4,1,0,0
153152711,0.0674699,0.0,0.582619,-0.0185615,0.0,0.0,0.0,0.0,0.0,0.0,0.0,0,0,0,0,0,0,0,3,0,0,0,4,1,0,0
153331463,0.0216867,0.0,0.594859,-0.0464037,0.0,0.0,0.0,0.0,0.0,0.0,0.0,0,0,0,0,0,0,0,3,0,0,0,4,1,0,0
153533633,0.0457831,0.0,0.599755,-0.0510441,0.0,0.0,0.0,0.0,0.0,0.0,0.0,0,0,0,0,0,0,0,3,0,0,0,4,1,0,0
153732258,0.0216867,0.0501567,0.603427,-0.0510441,0.0,0.0,0.0,0.0,0.0,0.0,0.0,0,0,0,0,0,0,0,3,0,0,0,4,1,0,0
153931826,0.0240964,0.0532915,0.603427,-0.0464037,0.0,0.0,0.0,0.0,0.0,0.0,0.0,0,0,0,0,0,0,0,3,0,0,0,4,1,0,0
154130501,0.0192771,0.0721003,0.599755,0.0,0.0,0.0,0.0,0.0,0.0,0.0,0.0,0,0,0,0,0,0,0,3,0,0,0,4,1,0,0
154348641,0.0385542,0.0501567,0.599755,0.0,0.0,0.0,0.0,0.0,0.0,0.0,0.0,0,0,0,0,0,0,0,3,0,0,0,4,1,0,0
154547197,0.187952,0.0,0.599755,0.0,0.0,0.0,0.0,0.0,0.0,0.0,0.0,0,0,0,0,0,0,0,3,0,0,0,4,1,0,0
154745970,0.122892,0.0031348,0.598531,0.0,0.0,0.0,0.0,0.0,0.0,0.0,0.0,0,0,0,0,0,0,0,3,0,0,0,4,1,0,0
154943334,0.0674699,0.0438871,0.565483,0.0192308,0.0,0.0,0.0,0.0,0.0,0.0,0.0,0,0,0,0,0,0,0,3,0,0,0,4,1,0,0
155143754,0.0698795,0.0501567,0.542228,0.0600962,0.0,0.0,0.0,0.0,0.0,0.0,0.0,0,0,0,0,0,0,0,3,0,0,0,4,1,0,0
155342543,0.0674699,0.0376176,0.522644,0.0480769,0.0,0.0,0.0,0.0,0.0,0.0,0.0,0,0,0,0,0,0,0,3,0,0,0,4,1,0,0
155543793,0.0192771,0.0,0.531212,0.0793269,0.0,0.0,0.0,0.0,0.0,0.0,0.0,0,0,0,0,0,0,0,3,0,0,0,4,1,0,0
155739754,0.00240964,0.0,0.532436,0.0793269,0.0,0.0,0.0,0.0,0.0,0.0,0.0,0,0,0,0,0,0,0,3,0,0,0,4,1,0,0
155938502,0.0722892,-0.0304878,0.531212,0.0721154,0.0,0.0,0.0,0.0,0.0,0.0,0.0,0,0,0,0,0,0,0,3,0,0,0,4,1,0,0
156148253,0.0963855,-0.00304878,0.529988,0.0240385,0.0,0.0,0.0,0.0,0.0,0.0,0.0,0,0,0,0,0,0,0,3,0,0,0,4,1,0,0
