timestamp,timestamp_sample,device_id,error_count,pressure,temperature
40748127,40748118,3997730,0,966.77,33.4
40758200,40758192,3997730,0,966.75,33.4
41743407,41743399,3997730,0,966.76,33.4
42748686,42748677,3997730,0,966.79,33.41
43754260,43754252,3997730,0,966.81,33.41
44739738,44739730,3997730,0,966.74,33.42
45744926,45744884,3997730,0,966.73,33.43
46750501,46750493,3997730,0,966.76,33.43
47745583,47745574,3997730,0,966.79,33.44
48750742,48750733,3997730,0,966.73,33.44
49746319,49746195,3997730,0,966.73,33.45
50751699,50751691,3997730,0,966.58,33.45
51736911,51736903,3997730,0,966.64,33.46
52742203,52742195,3997730,0,966.62,33.46
53747571,53747562,3997730,0,966.61,33.46
54753018,54753009,3997730,0,966.66,33.47
55748057,55748050,3997730,0,966.63,33.47
56752984,56752975,3997730,0,966.62,33.48
57748041,57748032,3997730,0,966.62,33.49
58733409,58733370,3997730,0,966.67,33.49
59738699,59738691,3997730,0,966.71,33.49
60743895,60743887,3997730,0,966.62,33.5
61749442,61749433,3997730,0,966.6,33.51
62744769,62744760,3997730,0,966.61,33.5
63750040,63750031,3997730,0,966.66,33.51
64755166,64755116,3997730,0,966.8,33.52
65750436,65750428,3997730,0,966.66,33.52
66735775,66735766,3997730,0,966.61,33.53
67741329,67741321,3997730,0,966.52,33.54
68746435,68746427,3997730,0,966.6,33.54
69751791,69751783,3997730,0,966.54,33.54
70747567,70747559,3997730,0,966.68,33.55
71752791,71752783,3997730,0,966.63,33.55
72747842,72747834,3997730,0,966.63,33.56
73733419,73733410,3997730,0,966.67,33.56
74738692,74738681,3997730,0,966.72,33.57
75744147,75744098,3997730,0,966.81,33.57
76749487,76749479,3997730,0,966.71,33.58
77744783,77744775,3997730,0,966.71,33.58
78749958,78749950,3997730,0,966.77,33.59
79745408,79745399,3997730,0,966.78,33.59
80750495,80750486,3997730,0,966.75,33.6
81735722,81735674,3997730,0,966.65,33.6
82740951,82740942,3997730,0,966.62,33.61
83746423,83746414,3997730,0,966.62,33.61
84751682,84751674,3997730,0,966.65,33.61
85746871,85746862,3997730,0,966.63,33.62
86752257,86752249,3997730,0,966.61,33.62
87747654,87747602,3997730,0,966.66,33.63
88753040,88753030,3997730,0,966.59,33.63
89738289,89738281,3997730,0,966.66,33.63
90743864,90743856,3997730,0,966.72,33.63
91749313,91749305,3997730,0,966.69,33.64
92755287,92755233,3997730,0,966.67,33.64
93750880,93750871,3997730,0,966.67,33.64
94746494,94746485,3997730,0,966.73,33.64
95751935,95751926,3997730,0,966.77,33.65
96737097,96737088,3997730,0,966.63,33.65
97742630,97742622,3997730,0,966.71,33.66
98748164,98748154,3997730,0,966.71,33.66
99753258,99753250,3997730,0,966.77,33.66
100748410,100748401,3997730,0,966.67,33.67
101743857,101743848,3997730,0,966.68,33.67
102749106,102749047,3997730,0,966.71,33.68
103754125,103754117,3997730,0,966.66,33.68
104739122,104739113,3997730,0,966.71,33.69
105744895,105744885,3997730,0,966.68,33.69
106750359,106750350,3997730,0,966.71,33.69
107745642,107745633,3997730,0,966.65,33.69
108751417,108751409,3997730,0,966.69,33.7
109746921,109746912,3997730,0,966.78,33.71
110752384,110752376,3997730,0,966.59,33.71
111737506,111737497,3997730,0,966.68,33.71
112742652,112742644,3997730,0,966.71,33.72
113748015,113748007,3997730,0,966.7,33.72
114753201,114753193,3997730,0,966.65,33.73
115748606,115748597,3997730,0,966.67,33.73
116753521,116753513,3997730,0,966.7,33.74
117748922,117748913,3997730,0,966.71,33.74
118734538,118734530,3997730,0,966.69,33.75
119739590,119739576,3997730,0,966.62,33.75
120744855,120744844,3997730,0,966.52,33.76
121750257,121750249,3997730,0,966.56,33.77
122745529,122745520,3997730,0,966.72,33.77
123751011,123751002,3997730,0,966.74,33.78
124746834,124746826,3997730,0,966.68,33.79
125752360,125752351,3997730,0,966.65,33.79
126737623,126737615,3997730,0,966.66,33.79
127742980,127742970,3997730,0,966.7,33.8
128748400,128748391,3997730,0,966.77,33.8
129743398,129743390,3997730,0,966.72,33.81
130748859,130748824,3997730,0,966.6,33.81
131744127,131744119,3997730,0,966.56,33.82
132749250,132749241,3997730,0,966.63,33.83
133734764,133734755,3997730,0,966.65,33.83
134740329,134740321,3997730,0,966.54,33.83
135745674,135745665,3997730,0,966.66,33.83
136751641,136751632,3997730,0,966.62,33.84
137747186,137747178,3997730,0,966.71,33.84
138752807,138752768,3997730,0,966.67,33.84
139748005,139747961,3997730,0,966.69,33.84
140733330,140733322,3997730,0,966.72,33.85
141738528,141738519,3997730,0,966.64,33.85
142744010,142744000,3997730,0,966.63,33.85
143749425,143749415,3997730,0,966.71,33.85
144744491,144744482,3997730,0,966.66,33.85
145749687,145749678,3997730,0,966.69,33.85
146744839,146744829,3997730,0,966.73,33.86
147750418,147750409,3997730,0,966.73,33.86
148735994,148735985,3997730,0,966.69,33.86
149741248,149741240,3997730,0,966.63,33.86
150746689,150746679,3997730,0,966.66,33.86
151752056,151752048,3997730,0,966.63,33.86
152747291,152747282,3997730,0,966.64,33.87
153742342,153742334,3997730,0,966.72,33.87
154747745,154747673,3997730,0,966.74,33.88
155752895,155752856,3997730,0,966.59,33.88
156738129,156738121,3997730,0,966.6,33.88
157743905,157743894,3997730,0,966.67,33.88
158749313,158749305,3997730,0,966.62,33.88
159754714,159754705,3997730,0,966.63,33.89
160749873,160749865,3997730,0,966.6,33.88
161744799,161744791,3997730,0,966.71,33.89
162750294,162750258,3997730,0,966.71,33.89
163735630,163735621,3997730,0,966.66,33.89
164741025,164741016,3997730,0,966.61,33.89
165746361,165746352,3997730,0,966.65,33.9
166751689,166751681,3997730,0,966.66,33.9
167747149,167747140,3997730,0,966.63,33.9
168752374,168752366,3997730,0,966.54,33.9
169747876,169747868,3997730,0,966.56,33.91
170733353,170733344,3997730,0,966.57,33.9
171738469,171738461,3997730,0,966.62,33.91
172743569,172743559,3997730,0,966.7,33.91
173748859,173748850,3997730,0,966.65,33.91
174744524,174744484,3997730,0,966.7,33.92
175749995,175749987,3997730,0,966.72,33.92
176745469,176745459,3997730,0,966.66,33.92
177750990,177750982,3997730,0,966.69,33.93
178735889,178735880,3997730,0,966.62,33.93
179741608,179741600,3997730,0,966.65,33.93
180746541,180746533,3997730,0,966.57,33.93
181751819,181751811,3997730,0,966.72,33.94
182746665,182746656,3997730,0,966.62,33.94
183751875,183751867,3997730,0,966.57,33.94
184747679,184747670,3997730,0,966.62,33.95
185733044,185733035,3997730,0,966.51,33.96
186738001,186737993,3997730,0,966.54,33.96
187742861,187742853,3997730,0,966.64,33.96
188748065,188748057,3997730,0,966.56,33.97
189753326,189753318,3997730,0,966.51,33.97
190748591,190748583,3997730,0,966.56,33.97
191754292,191754283,3997730,0,966.54,33.97
192749663,192749655,3997730,0,966.48,33.98
193734866,193734831,3997730,0,966.52,33.98
194739907,194739898,3997730,0,966.56,33.99
195745118,195745107,3997730,0,966.56,33.99
196750607,196750598,3997730,0,966.54,33.99
197745853,197745844,3997730,0,966.54,33.99
198751164,198751155,3997730,0,966.54,33.99
199746525,199746516,3997730,0,966.64,33.99
200751680,200751671,3997730,0,966.63,33.99
201737152,201737143,3997730,0,966.55,33.99
202742452,202742444,3997730,0,966.46,34.0
203747755,203747746,3997730,0,966.49,34.0
204753134,204753125,3997730,0,966.51,34.0
205748608,205748571,3997730,0,966.54,34.0
206743769,206743760,3997730,0,966.49,34.01
207749038,207749029,3997730,0,966.5,34.01
208754580,208754572,3997730,0,966.59,34.01
209740161,209740121,3997730,0,966.54,34.01
210745474,210745466,3997730,0,966.62,34.01
211750963,211750954,3997730,0,966.61,34.02
212746555,212746501,3997730,0,966.61,34.02
213751957,213751923,3997730,0,966.67,34.02
214747279,214747270,3997730,0,966.6,34.02
215752429,215752421,3997730,0,966.5,34.02
216737416,216737408,3997730,0,966.62,34.02
217743015,217743006,3997730,0,966.66,34.02
218748093,218748086,3997730,0,966.59,34.02
219743316,219743307,3997730,0,966.57,34.02
220748744,220748736,3997730,0,966.63,34.03
221744004,221743996,3997730,0,966.61,34.03
222748923,222748915,3997730,0,966.57,34.03
223734541,223734507,3997730,0,966.5,34.02
224739483,224739474,3997730,0,966.59,34.02
225744967,225744958,3997730,0,966.63,34.02
226750210,226750092,3997730,0,966.62,34.03
227745526,227745518,3997730,0,966.6,34.03
228750828,228750820,3997730,0,966.61,34.03
229746206,229746198,3997730,0,966.77,34.03
230751613,230751604,3997730,0,966.73,34.03
231736949,231736941,3997730,0,966.65,34.03
232742354,232742344,3997730,0,966.62,34.04
233747552,233747543,3997730,0,966.7,34.04
234752737,234752729,3997730,0,966.72,34.03
235747973,235747924,3997730,0,966.77,34.04
236753389,236753381,3997730,0,966.8,34.04
237748862,237748853,3997730,0,966.81,34.04
238754354,238754346,3997730,0,966.75,34.04
