timestamp,timestamp_sample,device_id,x,y,z,temperature,error_count
40742545,40742366,3932170,0.0396811,-0.0570449,-0.0426638,37.093,0
40743741,40743563,3932170,0.0385626,-0.0614125,-0.0479369,37.093,0
41743302,41743116,3932170,-0.0631702,0.323627,0.0872984,37.142,0
42743523,42743341,3932170,-0.329646,0.440966,0.136407,37.093,0
43745294,43745109,3932170,-0.0789894,-0.316916,-0.385519,37.2889,0
44745922,44745736,3932170,-0.12192,0.103171,0.155209,37.142,0
45743866,45743691,3932170,0.0202933,0.0692955,-0.102159,37.3868,0
46745596,46745421,3932170,-0.318301,-0.0648746,-0.0300937,37.093,0
47746123,47745946,3932170,0.752503,-0.0654605,-0.109616,37.142,0
48743099,48742948,3932170,0.80807,-0.338621,-0.34701,37.3868,0
49743417,49743242,3932170,0.0650344,-0.14184,0.178485,37.4847,0
50745184,50745008,3932170,0.266582,0.17758,-0.0076699,37.3868,0
51743251,51743072,3932170,-0.196222,0.261043,0.346903,37.3868,0
52743729,52743554,3932170,-0.594844,0.146101,0.158085,37.3868,0
53744250,53744074,3932170,0.0647148,-0.206928,-0.748455,37.2399,0
54746022,54745845,3932170,-0.626109,0.0848483,0.535828,37.142,0
55742996,55742817,3932170,0.196967,0.0129962,0.129376,37.5826,0
56744567,56744390,3932170,0.225303,-0.099762,-0.00415453,37.2399,0
57745088,57744912,3932170,0.384081,0.225303,-0.193665,37.2399,0
58743171,58742996,3932170,-0.38994,0.205916,-0.795966,37.3868,0
59744889,59744711,3932170,0.112279,0.296623,0.124529,37.2889,0
60744163,60743981,3932170,0.487092,0.327409,-0.0899616,37.2399,0
61745929,61745751,3932170,0.544244,-0.228712,0.31942,37.3868,0
62742934,62742739,3932170,0.175822,-0.378595,-0.29593,37.3868,0
63744476,63744299,3932170,-0.156754,0.0365386,0.468503,37.4357,0
64746255,64746071,3932170,0.0631702,0.0895887,0.100295,37.2399,0
65743052,65742874,3932170,-0.160429,0.152493,0.237501,37.2399,0
66743560,66743379,3932170,0.666749,0.0291882,0.0275903,37.4357,0
67744071,67743894,3932170,-0.0980576,-0.126926,0.101413,37.4357,0
68745841,68745663,3932170,-0.419341,-0.324213,-0.207194,37.2399,0
69742815,69742635,3932170,0.336837,0.156434,-0.0659399,37.4357,0
70744389,70744214,3932170,0.118617,0.0287089,-0.0052198,37.3868,0
71744923,71744746,3932170,0.444162,-0.0272708,0.114836,37.2399,0
72742943,72742766,3932170,-0.381897,0.13923,-0.274519,37.3868,0
73743468,73743288,3932170,-0.382643,0.00490022,-0.330072,37.3868,0
74745237,74745060,3932170,0.175662,-0.00910801,0.175982,37.4357,0
75745769,75745593,3932170,-0.0578439,0.148498,-0.292362,37.3868,0
76742655,76742469,3932170,-0.460088,0.315957,-0.355532,37.4357,0
77744320,77744138,3932170,0.0377104,0.0196541,0.415506,37.2889,0
78744836,78744658,3932170,0.0464988,-0.495668,0.267009,37.4357,0
79742862,79742687,3932170,1.48642,1.00252,-0.0314253,37.4357,0
80743662,80743472,3932170,0.675431,-0.796072,-0.30147,37.3868,0
81743912,81743735,3932170,-0.0996022,0.035207,-1.24295,37.3868,0
82745702,82745509,3932170,0.808163,-0.0216781,0.147166,37.3868,0
83743781,83743601,3932170,1.0904,-0.0286556,-1.20375,37.4357,0
84744239,84744061,3932170,-0.72912,0.264345,-0.049375,37.3868,0
85743532,85743338,3932170,0.0227434,-0.45556,0.0566188,37.2399,0
86746534,86746358,3932170,-0.375559,0.151481,-0.980043,37.5826,0
87743525,87743364,3932170,0.946754,0.0307595,0.147606,37.3868,0
88745089,88744913,3932170,-0.1673,-0.0596548,0.023276,37.4847,0
89746917,89746736,3932170,-0.0478304,-0.0817058,-0.111853,37.2889,0
90743734,90743556,3932170,-0.561607,0.0169377,0.360539,37.5826,0
91744174,91743994,3932170,0.0302002,-0.201175,0.0548611,37.4357,0
92745947,92745765,3932170,-0.304719,0.0764327,0.368582,37.5826,0
93746484,93746308,3932170,-0.239312,-0.0250337,0.340459,37.4357,0
94743486,94743307,3932170,0.329593,-0.0741424,0.265624,37.7785,0
95745028,95744847,3932170,-0.402777,-0.126713,-0.189724,37.3868,0
96745548,96745371,3932170,-0.59511,-0.074675,0.507758,37.5826,0
97743579,97743401,3932170,-0.519423,-0.446133,0.0698813,37.6805,0
98744103,98743928,3932170,-0.200536,0.116487,0.123837,37.4847,0
99744639,99744462,3932170,0.0199737,-0.143864,0.37002,37.3868,0
100746418,100746239,3932170,1.04923,-0.119416,0.223013,37.4847,0
101743370,101743192,3932170,-0.17987,0.0157127,0.245863,37.5826,0
102744998,102744822,3932170,1.19331,0.168472,0.503337,37.4847,0
103745487,103745309,3932170,-0.62334,-0.104183,-0.195796,37.5826,0
104743545,104743370,3932170,-0.523524,-0.334919,0.117392,37.4357,0
105745299,105745115,3932170,-0.580463,0.747443,0.388928,37.3868,0
106744570,106744393,3932170,0.193665,-0.401072,0.169484,37.5826,0
107742602,107742425,3932170,-0.570715,-5.32632e-05,-0.115741,37.4357,0
108743275,108743093,3932170,1.09174,0.310152,-0.0655138,37.5826,0
109744935,109744758,3932170,-0.724007,0.347116,0.0349407,37.4847,0
110746675,110746500,3932170,0.584351,0.00548611,-0.152173,37.5826,0
111743463,111743284,3932170,-0.445866,-0.133691,0.0676976,37.2889,0
112743990,112743811,3932170,0.0827178,0.706963,0.406452,37.4847,0
113744523,113744347,3932170,-0.369594,-0.34456,0.124476,37.4357,0
114746289,114746113,3932170,0.340405,-0.00692422,0.282135,37.6316,0
115743192,115743007,3932170,0.37231,-0.0551274,0.626056,37.6316,0
116744860,116744680,3932170,0.161281,-1.06249,-0.0676443,37.5826,0
117745380,117745201,3932170,0.416252,0.0670584,-0.0764327,37.4357,0
118743440,118743264,3932170,0.31878,-0.375772,-0.0543818,37.5826,0
119744221,119744041,3932170,0.34946,-0.0140082,-0.0353135,37.4357,0
120744498,120744323,3932170,0.783981,0.0771784,0.0123038,37.7785,0
121746256,121746064,3932170,-0.619132,-0.105248,-0.116966,37.4357,0
122743108,122742930,3932170,0.337902,-0.0370712,-0.295291,37.7785,0
123744850,123744674,3932170,0.262907,-0.20256,0.0236489,37.6316,0
124745336,124745156,3932170,-0.0747816,0.446293,-0.46568,37.4357,0
125743370,125743194,3932170,0.00372843,0.329273,-0.255717,37.7785,0
126744140,126743960,3932170,-0.181361,-0.196009,-0.127992,37.4357,0
127744425,127744247,3932170,-1.12705,-0.0751544,-0.244478,37.5826,0
128746278,128746098,3932170,-0.0920388,-0.45066,-0.199471,37.6316,0
129744335,129744157,3932170,-0.459395,0.1877,-1.6077,37.8274,0
130744777,130744593,3932170,0.368528,0.0968325,-0.0951814,37.7785,0
131744046,131743869,3932170,0.194144,-0.523205,-1.64472,37.5826,0
132743329,132743153,3932170,1.25163,0.114303,0.450234,37.7785,0
133744080,133743899,3932170,-0.645071,0.220723,-0.90947,37.6316,0
134744389,134744212,3932170,-0.389088,0.0376038,-0.181681,37.6805,0
135746173,135745993,3932170,-0.150788,-0.00207727,-0.83586,37.7785,0
136745516,136745340,3932170,0.288633,-0.0414921,0.0128364,37.6316,0
137744731,137744556,3932170,0.468184,-0.115475,0.336996,37.5826,0
138746510,138746333,3932170,-0.527306,-0.238779,0.148445,37.6316,0
139743303,139743123,3932170,0.942386,-0.297901,-0.371245,37.6316,0
140744017,140743831,3932170,-0.746644,0.234571,0.127406,37.8274,0
141745612,141745431,3932170,-0.468077,-0.0438356,-0.0223173,37.7785,0
142742431,142742255,3932170,0.52656,-0.0142213,0.344347,37.7785,0
143744253,143744075,3932170,-0.880015,0.306264,0.00798948,37.6316,0
144744705,144744528,3932170,0.343708,0.168685,0.0924117,37.6805,0
145745240,145745059,3932170,0.149137,0.162027,-0.140136,37.5826,0
146743273,146743093,3932170,0.816738,-0.100454,-0.431219,37.6316,0
147744011,147743835,3932170,-0.174224,-0.0469782,-0.119469,37.8274,0
148745581,148745404,3932170,0.592979,0.0426638,0.318195,37.8274,0
149743620,149743443,3932170,0.591009,-0.162719,-0.191375,37.7785,0
150744210,150744034,3932170,-0.482618,0.271962,0.3852,37.6805,0
151744682,151744503,3932170,0.818549,0.0528904,-0.427065,37.6316,0
152745208,152745033,3932170,0.630157,-0.0537426,-0.027324,37.9253,0
153743246,153743069,3932170,0.524376,-0.0447411,0.0256196,37.7785,0
154743912,154743731,3932170,0.304879,0.0195476,-0.258007,37.8274,0
155745573,155745394,3932170,0.409701,-0.00607201,0.0296676,37.5826,0
156743640,156743464,3932170,-0.0406398,-0.202826,-0.419235,37.7785,0
157744127,157743948,3932170,1.05802,0.184983,-0.441605,37.7785,0
158744658,158744479,3932170,-0.610024,0.174597,-0.0360592,37.4357,0
159745191,159745011,3932170,-0.27633,-0.209165,0.255078,37.4357,0
160743233,160743053,3932170,0.228126,0.249112,0.454868,37.9253,0
161743881,161743700,3932170,-0.921134,0.22818,0.0645018,37.8274,0
162745543,162745363,3932170,-0.340565,0.355639,-0.00830906,37.8274,0
163742327,163742150,3932170,-0.105035,0.169963,0.0800546,37.7785,0
164744121,164743943,3932170,0.163252,0.0118244,-0.0530502,37.6316,0
165744914,165744732,3932170,0.459608,-0.0174703,0.211775,37.7785,0
166745169,166744992,3932170,0.226422,0.0950216,0.0486293,37.6316,0
167743221,167743033,3932170,0.409594,-0.249858,0.147379,37.6316,0
168743858,168743683,3932170,0.280804,0.127193,-0.172626,37.6805,0
169745527,169745344,3932170,-0.558252,-0.0755273,0.355212,37.6805,0
170742310,170742132,3932170,-0.0766458,-0.187167,0.0216781,37.6316,0
171744086,171743911,3932170,0.641342,-0.0519316,-0.140082,37.8274,0
172744827,172744676,3932170,0.690358,0.132625,-1.04529,37.7785,0
173745151,173744976,3932170,-0.690824,0.0662062,-0.736364,37.9253,0
174744448,174744262,3932170,-0.160802,0.292575,-0.381418,37.6805,0
175743835,175743657,3932170,0.21039,0.212627,-0.546587,37.6805,0
176745512,176745328,3932170,-0.816792,-0.0165649,-0.0557133,37.9253,0
177743547,177743368,3932170,-0.136407,0.211029,-0.422963,37.8274,0
178744082,178743900,3932170,-0.0821319,-0.00175769,-0.562353,37.7785,0
179744905,179744698,3932170,0.642488,-0.0916571,-0.197074,37.7785,0
180745205,180745022,3932170,-0.0813329,0.0897485,0.373961,37.9253,0
181743180,181743003,3932170,-0.0657801,-0.147912,-0.0671117,37.7785,0
182743805,182743614,3932170,0.857485,-0.314839,0.288314,37.8274,0
183745494,183745317,3932170,1.14867,0.417211,-0.242667,37.7785,0
184742288,184742108,3932170,0.828829,-0.4913,0.0231695,37.7785,0
185744079,185743893,3932170,0.450341,0.168312,0.139922,37.9253,0
186744779,186744602,3932170,-0.717669,-0.473776,-0.469888,37.8274,0
187745143,187744961,3932170,0.944357,0.464775,0.23276,37.7785,0
188743178,188743000,3932170,-0.230417,0.618333,0.598093,37.6805,0
189744964,189744779,3932170,0.15164,-0.469675,-0.0502805,37.8274,0
190745488,190745313,3932170,0.890987,-0.142266,0.22296,37.9253,0
191746024,191745848,3932170,-1.05605,0.178059,-0.104396,37.9253,0
192745318,192745137,3932170,0.264931,0.236595,0.332256,37.9253,0
193744756,193744578,3932170,-0.23537,-0.509037,-0.301257,37.6805,0
194746379,194746203,3932170,-0.332682,0.0704672,-0.319739,37.6805,0
195743181,195742999,3932170,0.11148,0.472232,0.00942759,37.7785,0
196743773,196743597,3932170,-0.333854,-0.172679,0.0235956,37.7785,0
197745496,197745314,3932170,0.146421,0.130868,0.077498,38.0233,0
198746024,198745847,3932170,0.110628,-0.283307,-0.376518,37.7785,0
199744074,199743887,3932170,0.237288,-0.0290817,-0.12421,37.7785,0
200744734,200744554,3932170,-1.09855,-0.369487,0.236222,37.9743,0
201745148,201744968,3932170,1.38532,-0.100241,0.0299872,37.8274,0
202743179,202743004,3932170,-0.335239,0.0296676,0.290498,37.6805,0
203743718,203743540,3932170,0.0751544,0.0455933,0.414015,37.9253,0
204745516,204745340,3932170,-0.344507,-0.196168,0.501686,37.9743,0
205742287,205742108,3932170,0.262801,0.143544,0.342696,37.8274,0
206744084,206743899,3932170,0.980097,-0.13907,-0.199045,37.8274,0
207744712,207744533,3932170,0.309779,-0.133371,0.105088,38.1212,0
208745141,208744962,3932170,-0.970083,-0.0642887,-0.0082558,37.8274,0
209743178,209743003,3932170,0.568372,-0.0984304,0.185356,37.9253,0
210746221,210746036,3932170,0.0266316,0.149616,0.328155,37.8274,0
211745768,211745591,3932170,-0.397344,0.208472,0.320964,38.0233,0
212746040,212745857,3932170,-0.226795,-0.0224771,0.509409,37.9743,0
213744084,213743901,3932170,0.286237,-0.34978,0.163465,38.0233,0
214744687,214744508,3932170,-0.635324,0.0328634,0.655244,37.9253,0
215745146,215744970,3932170,-0.161973,0.126394,0.394627,38.0233,0
216743192,216743012,3932170,0.645018,-0.408635,-0.311963,37.8274,0
217743722,217743547,3932170,0.194304,-0.167886,0.654765,38.0233,0
218745714,218745561,3932170,-0.1516,-0.390619,0.111254,37.9743,0
219742300,219742125,3932170,-0.638999,0.418969,0.0399474,37.8274,0
220745334,220745156,3932170,-0.617694,0.0339819,-0.207354,37.9743,0
221744703,221744524,3932170,0.538864,-0.564058,0.0948618,37.6805,0
222746404,222746228,3932170,0.622274,0.149244,0.32693,37.7785,0
223743205,223743023,3932170,-0.309246,-0.166288,0.208312,37.9253,0
224743777,224743599,3932170,-0.0795753,0.18706,0.00569916,37.8274,0
225745736,225745558,3932170,-0.537852,0.0254066,0.15979,37.9253,0
226742313,226742136,3932170,-0.211615,-0.178805,-0.0173638,37.7785,0
227744098,227743921,3932170,0.5264,-0.314732,-0.0583765,37.8274,0
228744719,228744532,3932170,-0.0733435,0.252148,-0.203679,37.9743,0
229745171,229744993,3932170,0.620357,-0.161494,-0.186688,37.8274,0
230743230,230743052,3932170,-1.22676,0.050387,0.338062,37.9743,0
231743749,231743571,3932170,-0.680118,0.0597081,0.353828,37.7785,0
232745699,232745522,3932170,0.352656,-0.323681,-0.429941,38.0233,0
233742334,233742152,3932170,-0.576255,-0.0731304,0.100028,37.8274,0
234744111,234743933,3932170,0.679799,0.0354733,0.0892692,37.8274,0
235744648,235744469,3932170,-0.079735,-0.01518,0.53668,37.8274,0
236745184,236745007,3932170,0.216835,0.0512392,0.121174,37.8274,0
237743224,237743047,3932170,0.0150202,-0.0277501,-0.0230097,37.9743,0
238745009,238744832,3932170,0.0158192,-0.0182693,0.00367516,37.9253,0
