timestamp,timestamp_sample,baro_device_id,baro_alt_meter,baro_temp_celcius,baro_pressure_pa,rho
40748204,40728047,3997730,394.279,33.4,96678.0,1.14869
40798525,40780867,3997730,394.171,33.4,96679.3,1.14871
40909064,40888893,3997730,394.387,33.4,96676.7,1.14868
41120133,41102473,3997730,394.258,33.4,96678.3,1.1487
41341549,41318674,3997730,394.234,33.4,96678.5,1.1487
41552497,41532367,3997730,394.451,33.4,96676.0,1.14867
41713219,41693063,3997730,394.387,33.41,96676.7,1.14868
41924404,41906670,3997730,394.321,33.41,96677.5,1.14869
42145528,42122736,3997730,394.258,33.41,96678.3,1.1487
42306300,42283590,3997730,394.538,33.41,96675.0,1.14866
42517517,42497359,3997730,394.213,33.41,96678.8,1.1487
42728693,42710945,3997730,394.496,33.41,96675.5,1.14866
42949874,42927133,3997730,394.517,33.41,96675.3,1.14866
43110721,43088013,3997730,394.213,33.41,96678.8,1.1487
43322343,43301760,3997730,394.366,33.41,96677.0,1.14868
43553039,43530357,3997730,394.366,33.41,96677.0,1.14868
43714043,43691313,3997730,394.475,33.41,96675.7,1.14867
43925389,43905148,3997730,394.171,33.42,96679.3,1.14871
44137092,44118837,3997730,394.234,33.42,96678.5,1.1487
44297214,44279585,3997730,394.258,33.42,96678.3,1.1487
44518638,44495832,3997730,394.083,33.42,96680.3,1.14872
44729846,44709543,3997730,394.3,33.42,96677.8,1.14869
44940982,44923191,3997730,394.321,33.42,96677.5,1.14869
45101579,45083949,3997730,394.3,33.42,96677.8,1.14869
45322551,45299918,3997730,394.408,33.42,96676.5,1.14868
45533794,45513623,3997730,394.279,33.42,96678.0,1.14869
45744967,45727304,3997730,394.475,33.43,96675.7,1.14867
45906079,45888405,3997730,394.496,33.43,96675.5,1.14866
46127202,46104528,3997730,394.342,33.43,96677.3,1.14869
46338372,46318175,3997730,394.451,33.43,96676.0,1.14867
46549406,46531784,3997730,394.408,33.43,96676.5,1.14868
46710421,46692620,3997730,394.171,33.43,96679.3,1.14871
46931538,46908787,3997730,394.451,33.43,96676.0,1.14867
47142617,47122416,3997730,394.496,33.43,96675.5,1.14866
47303371,47283233,3997730,394.192,33.44,96679.0,1.14871
47514885,47496801,3997730,394.387,33.43,96676.8,1.14868
47735554,47712934,3997730,394.387,33.44,96676.7,1.14868
47946506,47926390,3997730,394.646,33.44,96673.8,1.14864
48107360,48087189,3997730,394.408,33.44,96676.5,1.14868
48318498,48300795,3997730,394.755,33.44,96672.5,1.14863
48539656,48516913,3997730,394.321,33.44,96677.5,1.14869
48750797,48730609,3997730,394.517,33.44,96675.2,1.14866
48911644,48891452,3997730,394.667,33.44,96673.5,1.14864
49122705,49105046,3997730,394.667,33.45,96673.5,1.14864
49354135,49333910,3997730,394.948,33.45,96670.3,1.1486
49514912,49494798,3997730,395.058,33.44,96669.0,1.14859
49726105,49708405,3997730,395.014,33.44,96669.5,1.14859
49947589,49924773,3997730,395.08,33.45,96668.7,1.14858
50108395,50085636,3997730,395.188,33.44,96667.5,1.14857
50319463,50299289,3997730,395.273,33.45,96666.5,1.14856
50530731,50513055,3997730,395.619,33.45,96662.5,1.14851
50751741,50729105,3997730,395.642,33.45,96662.2,1.14851
50922664,50902394,3997730,395.706,33.45,96661.5,1.1485
51133721,51116020,3997730,395.426,33.45,96664.8,1.14854
51314727,51284455,3997730,395.23,33.45,96667.0,1.14856
51525887,51505660,3997730,395.619,33.45,96662.5,1.14851
51736958,51719264,3997730,395.447,33.46,96664.5,1.14853
51897787,51880122,3997730,395.51,33.46,96663.7,1.14853
52119099,52096435,3997730,395.251,33.46,96666.7,1.14856
52330221,52310070,3997730,395.36,33.46,96665.5,1.14855
52541335,52523703,3997730,395.619,33.46,96662.5,1.14851
52702081,52684462,3997730,395.814,33.46,96660.2,1.14848
52923675,52900642,3997730,395.447,33.46,96664.5,1.14853
53144505,53126862,3997730,395.642,33.46,96662.2,1.14851
53305358,53287688,3997730,395.619,33.46,96662.5,1.14851
53526541,53503801,3997730,395.664,33.47,96662.0,1.1485
53737585,53717380,3997730,395.555,33.46,96663.2,1.14852
53948806,53931130,3997730,395.296,33.46,96666.3,1.14855
54109571,54091959,3997730,395.402,33.46,96665.0,1.14854
54330815,54308149,3997730,395.296,33.47,96666.3,1.14855
54542102,54521832,3997730,395.402,33.47,96665.0,1.14854
54753162,54735450,3997730,395.402,33.47,96665.0,1.14854
54914102,54896386,3997730,395.923,33.46,96659.0,1.14847
55135143,55112487,3997730,395.555,33.47,96663.2,1.14852
55346212,55326023,3997730,395.814,33.47,96660.3,1.14848
55506983,55486766,3997730,395.51,33.47,96663.7,1.14853
55717993,55700299,3997730,395.664,33.47,96662.0,1.1485
55939177,55916460,3997730,395.36,33.47,96665.5,1.14855
56150299,56130014,3997730,395.555,33.47,96663.3,1.14852
56310909,56290776,3997730,395.36,33.47,96665.5,1.14855
56521967,56504337,3997730,395.447,33.48,96664.5,1.14853
56743397,56720366,3997730,395.381,33.48,96665.3,1.14854
56913915,56893671,3997730,395.273,33.48,96666.5,1.14856
57124940,57107211,3997730,395.209,33.48,96667.3,1.14857
57346034,57323376,3997730,395.315,33.48,96666.0,1.14855
57506888,57484249,3997730,395.426,33.48,96664.8,1.14854
57717991,57697792,3997730,395.468,33.49,96664.2,1.14853
57929033,57911394,3997730,395.793,33.49,96660.5,1.14849
58110119,58087412,3997730,395.468,33.48,96664.2,1.14853
58321246,58301031,3997730,395.899,33.49,96659.3,1.14847
58532459,58514776,3997730,395.51,33.49,96663.7,1.14853
58693308,58675542,3997730,395.296,33.49,96666.3,1.14855
58914554,58891770,3997730,395.143,33.49,96668.0,1.14858
59125732,59105549,3997730,394.818,33.49,96671.8,1.14862
59296597,59272454,3997730,394.831,33.49,96671.6,1.14862
59517699,59495064,3997730,394.992,33.49,96669.7,1.1486
59728755,59708524,3997730,395.101,33.49,96668.5,1.14858
59939778,59922144,3997730,395.468,33.5,96664.2,1.14853
60101143,60082937,3997730,394.971,33.49,96670.0,1.1486
60321891,60299272,3997730,395.188,33.5,96667.5,1.14857
60533086,60512678,3997730,395.682,33.5,96661.8,1.1485
60703807,60686061,3997730,395.317,33.5,96666.0,1.14855
60924945,60902146,3997730,395.534,33.5,96663.5,1.14852
61136166,61115991,3997730,395.339,33.5,96665.8,1.14855
61347469,61329653,3997730,395.51,33.5,96663.7,1.14853
61508075,61490471,3997730,395.339,33.5,96665.8,1.14855
61729220,61706584,3997730,395.576,33.51,96663.0,1.14852
61940596,61920391,3997730,395.36,33.5,96665.5,1.14855
62151903,62134130,3997730,395.706,33.5,96661.5,1.1485
62312495,62294884,3997730,395.402,33.51,96665.0,1.14854
62533652,62511034,3997730,395.835,33.51,96660.0,1.14848
62744810,62724666,3997730,395.426,33.5,96664.8,1.14854
62905744,62885601,3997730,395.489,33.51,96664.0,1.14853
63136887,63114228,3997730,395.188,33.51,96667.5,1.14857
63348004,63327858,3997730,395.315,33.51,96666.0,1.14855
63508794,63488623,3997730,395.468,33.51,96664.2,1.14853
63719866,63702262,3997730,395.251,33.51,96666.8,1.14856
63941071,63918353,3997730,395.468,33.51,96664.2,1.14853
64152365,64132157,3997730,394.884,33.52,96671.0,1.14861
64323283,64298960,3997730,394.226,33.52,96678.6,1.1487
64544093,64521441,3997730,394.625,33.52,96674.0,1.14865
64705647,64682308,3997730,394.408,33.52,96676.5,1.14868
64926100,64908472,3997730,394.321,33.52,96677.5,1.14869
65147324,65124615,3997730,394.387,33.52,96676.7,1.14868
65308087,65285462,3997730,394.279,33.52,96678.0,1.14869
65519324,65499098,3997730,394.538,33.52,96675.0,1.14866
65730423,65712676,3997730,395.035,33.52,96669.2,1.14859
65951584,65928810,3997730,394.971,33.53,96670.0,1.1486
66122474,66102296,3997730,395.273,33.52,96666.5,1.14856
66333565,66315957,3997730,395.598,33.52,96662.7,1.14851
66514659,66484415,3997730,395.436,33.53,96664.6,1.14854
66725784,66705660,3997730,395.748,33.53,96661.0,1.14849
66896738,66872535,3997730,395.801,33.53,96660.4,1.14849
67117891,67095205,3997730,396.139,33.53,96656.5,1.14844
67329044,67308801,3997730,396.16,33.53,96656.3,1.14844
67540296,67522598,3997730,396.01,33.53,96658.0,1.14846
67701558,67683481,3997730,396.245,33.53,96655.3,1.14842
67922374,67899638,3997730,395.944,33.53,96658.8,1.14847
68133523,68113257,3997730,396.29,33.54,96654.8,1.14842
68344312,68326647,3997730,396.483,33.54,96652.5,1.14839
68505206,68487561,3997730,396.031,33.54,96657.8,1.14845
68726410,68703713,3997730,395.772,33.54,96660.8,1.14849
68937726,68917388,3997730,396.094,33.54,96657.0,1.14845
69148660,69131017,3997730,396.377,33.54,96653.8,1.14841
69309589,69291859,3997730,396.052,33.54,96657.5,1.14845
69530727,69508096,3997730,396.332,33.54,96654.3,1.14841
69741799,69721602,3997730,395.748,33.54,96661.0,1.14849
69952934,69935316,3997730,395.706,33.54,96661.5,1.1485
70114022,70096257,3997730,395.339,33.54,96665.8,1.14855
70335394,70312661,3997730,395.489,33.55,96664.0,1.14853
70546459,70526329,3997730,395.534,33.54,96663.5,1.14852
70707463,70687197,3997730,395.122,33.55,96668.2,1.14858
70918421,70900780,3997730,395.035,33.55,96669.2,1.14859
71139816,71117106,3997730,395.489,33.55,96664.0,1.14853
71350987,71330712,3997730,395.101,33.55,96668.5,1.14858
71511793,71491573,3997730,395.468,33.55,96664.2,1.14853
71722775,71705096,3997730,395.447,33.55,96664.5,1.14853
71943681,71921058,3997730,395.339,33.55,96665.8,1.14855
72104684,72081930,3997730,395.468,33.56,96664.2,1.14853
72315714,72295531,3997730,395.275,33.55,96666.5,1.14856
72526804,72509168,3997730,395.51,33.55,96663.7,1.14853
72747884,72725168,3997730,395.814,33.56,96660.3,1.14848
72908808,72886084,3997730,395.468,33.56,96664.2,1.14853
73120338,73099692,3997730,395.468,33.56,96664.2,1.14853
73351043,73328402,3997730,395.576,33.56,96663.0,1.14852
73512373,73489411,3997730,395.598,33.56,96662.8,1.14851
73723430,73703280,3997730,395.143,33.56,96668.0,1.14858
73884819,73864199,3997730,395.402,33.56,96665.0,1.14854
74115627,74092919,3997730,395.273,33.56,96666.5,1.14856
74327047,74306663,3997730,395.143,33.57,96668.0,1.14858
74537840,74520206,3997730,395.014,33.57,96669.5,1.14859
74698649,74680925,3997730,394.818,33.57,96671.8,1.14862
74919937,74897206,3997730,394.733,33.56,96672.8,1.14863
75131137,75110912,3997730,394.3,33.56,96677.8,1.14869
75342233,75324606,3997730,394.905,33.57,96670.7,1.14861
75502975,75485364,3997730,394.342,33.57,96677.3,1.14869
75724032,75701409,3997730,394.321,33.57,96677.5,1.14869
75935110,75914975,3997730,394.192,33.57,96679.0,1.14871
76146350,76128683,3997730,394.689,33.57,96673.3,1.14864
76307417,76289679,3997730,394.3,33.57,96677.8,1.14869
76528405,76505766,3997730,394.712,33.57,96673.0,1.14864
76739497,76719372,3997730,394.496,33.58,96675.5,1.14866
76950556,76932891,3997730,394.755,33.58,96672.5,1.14863
77111528,77093805,3997730,394.755,33.58,96672.5,1.14863
77332806,77310045,3997730,394.625,33.58,96674.0,1.14865
77543724,77523546,3997730,394.905,33.58,96670.8,1.14861
77714567,77690378,3997730,394.953,33.58,96670.2,1.1486
77935694,77913057,3997730,395.058,33.58,96669.0,1.14859
78096828,78073918,3997730,395.143,33.59,96668.0,1.14858
78317740,78300091,3997730,395.164,33.58,96667.7,1.14857
78538769,78516145,3997730,395.014,33.59,96669.5,1.14859
78749997,78729867,3997730,394.105,33.59,96680.0,1.14872
78910981,78890637,3997730,394.234,33.59,96678.5,1.1487
79122087,79104367,3997730,394.342,33.59,96677.3,1.14869
79343425,79320664,3997730,394.083,33.59,96680.3,1.14872
79504194,79481458,3997730,393.996,33.59,96681.3,1.14873
79715346,79695082,3997730,394.279,33.59,96678.0,1.14869
79926388,79908733,3997730,394.408,33.59,96676.5,1.14868
80147590,80124829,3997730,394.234,33.6,96678.5,1.1487
80308406,80285738,3997730,394.279,33.6,96678.0,1.14869
80519548,80499431,3997730,394.321,33.6,96677.5,1.14869
80730508,80712868,3997730,394.538,33.59,96675.0,1.14866
80951528,80928876,3997730,395.339,33.6,96665.8,1.14855
81112553,81089694,3997730,395.275,33.6,96666.5,1.14856
81323686,81303417,3997730,395.188,33.6,96667.5,1.14857
81534674,81517036,3997730,395.122,33.6,96668.3,1.14858
81695501,81677874,3997730,395.426,33.6,96664.8,1.14854
81916590,81893929,3997730,395.531,33.6,96663.5,1.14852
82137781,82120155,3997730,395.899,33.6,96659.3,1.14847
82298634,82280982,3997730,395.555,33.61,96663.2,1.14852
82519914,82497196,3997730,395.51,33.61,96663.7,1.14853
82730953,82710805,3997730,395.426,33.61,96664.8,1.14854
82942099,82924424,3997730,395.251,33.61,96666.7,1.14856
83103052,83085297,3997730,395.555,33.61,96663.2,1.14852
83324185,83301476,3997730,395.814,33.61,96660.3,1.14848
83535371,83515119,3997730,395.923,33.61,96659.0,1.14847
83746463,83728755,3997730,395.553,33.61,96663.3,1.14852
83907105,83889460,3997730,395.531,33.61,96663.5,1.14852
84128219,84105585,3997730,395.209,33.61,96667.3,1.14857
84339362,84319225,3997730,395.748,33.61,96661.0,1.14849
84510483,84486162,3997730,395.212,33.61,96667.2,1.14857
84731657,84708968,3997730,395.814,33.61,96660.3,1.14848
84942819,84922675,3997730,395.339,33.62,96665.8,1.14855
85103625,85083474,3997730,395.36,33.62,96665.5,1.14855
85334714,85312068,3997730,395.143,33.62,96668.0,1.14858
85545931,85525724,3997730,395.772,33.62,96660.8,1.14849
85706666,85686523,3997730,395.664,33.62,96662.0,1.1485
85917837,85900205,3997730,395.468,33.62,96664.2,1.14853
86139218,86116497,3997730,395.339,33.62,96665.8,1.14855
86350359,86330096,3997730,395.296,33.62,96666.3,1.14855
86521261,86497059,3997730,395.455,33.62,96664.4,1.14853
86752299,86732159,3997730,395.642,33.62,96662.2,1.14851
86913093,86892871,3997730,395.64,33.62,96662.3,1.14851
87124143,87106508,3997730,395.08,33.63,96668.7,1.14858
87346547,87322681,3997730,395.489,33.62,96664.0,1.14853
87516410,87496190,3997730,395.339,33.63,96665.8,1.14855
87727563,87709867,3997730,395.188,33.63,96667.5,1.14857
87908627,87885914,3997730,395.706,33.63,96661.5,1.1485
88119782,88099537,3997730,395.664,33.63,96662.0,1.1485
88330803,88313138,3997730,395.576,33.63,96663.0,1.14852
88552093,88529206,3997730,395.772,33.63,96660.7,1.14849
88712903,88690265,3997730,395.899,33.63,96659.3,1.14847
88923994,88903878,3997730,395.188,33.63,96667.5,1.14857
89135178,89117503,3997730,395.209,33.63,96667.2,1.14857
89296005,89278362,3997730,395.296,33.63,96666.3,1.14855
89517173,89494467,3997730,395.447,33.64,96664.5,1.14853
89728299,89708145,3997730,394.95,33.63,96670.2,1.1486
89939425,89921742,3997730,394.818,33.63,96671.8,1.14862
90100398,90082648,3997730,395.101,33.63,96668.5,1.14858
90321545,90298764,3997730,394.971,33.63,96670.0,1.1486
90532603,90512408,3997730,394.842,33.63,96671.5,1.14862
90703600,90679441,3997730,394.831,33.63,96671.6,1.14862
90924710,90902082,3997730,394.776,33.64,96672.3,1.14863
91135969,91115762,3997730,394.58,33.63,96674.5,1.14865
91347150,91329387,3997730,394.818,33.64,96671.8,1.14862
91507915,91490304,3997730,394.971,33.63,96670.0,1.1486
91729288,91706563,3997730,394.929,33.64,96670.5,1.14861
91940631,91920351,3997730,395.23,33.64,96667.0,1.14856
92151781,92134072,3997730,395.251,33.64,96666.8,1.14856
92312652,92294965,3997730,394.971,33.64,96670.0,1.1486
92533919,92511196,3997730,395.056,33.64,96669.0,1.14859
92755327,92731016,3997730,395.18,33.64,96667.6,1.14857
92916166,92898521,3997730,395.014,33.64,96669.5,1.14859
93137424,93114749,3997730,394.884,33.64,96671.0,1.14861
93348695,93328535,3997730,394.905,33.64,96670.7,1.14861
93509675,93489554,3997730,394.992,33.64,96669.7,1.1486
93720828,93703158,3997730,394.95,33.64,96670.2,1.1486
93942007,93919359,3997730,395.164,33.64,96667.7,1.14857
94153119,94133001,3997730,395.339,33.65,96665.8,1.14855
94315338,94293727,3997730,395.188,33.65,96667.5,1.14857
94505185,94482435,3997730,395.101,33.64,96668.5,1.14858
94716499,94696205,3997730,394.863,33.65,96671.3,1.14861
94927600,94909978,3997730,394.95,33.65,96670.2,1.1486
95148856,95126081,3997730,394.818,33.65,96671.8,1.14862
95309677,95286941,3997730,394.818,33.65,96671.8,1.14862
95520862,95500540,3997730,394.842,33.65,96671.5,1.14862
95731917,95714231,3997730,394.884,33.65,96671.0,1.14861
95953548,95930376,3997730,394.884,33.65,96671.0,1.14861
96123930,96103808,3997730,395.273,33.65,96666.5,1.14856
96335061,96317429,3997730,394.863,33.65,96671.3,1.14861
96495978,96478328,3997730,395.317,33.65,96666.0,1.14855
96717085,96694353,3997730,395.164,33.65,96667.8,1.14857
96928141,96907999,3997730,395.23,33.65,96667.0,1.14856
97139341,97121699,3997730,395.296,33.66,96666.3,1.14855
97320223,97290025,3997730,395.265,33.66,96666.6,1.14856
97531536,97511332,3997730,395.122,33.66,96668.2,1.14858
97702508,97678294,3997730,395.333,33.66,96665.8,1.14855
97923740,97901004,3997730,395.23,33.66,96667.0,1.14856
98135162,98114706,3997730,394.992,33.65,96669.7,1.1486
98345929,98328304,3997730,394.905,33.66,96670.7,1.14861
98506747,98489066,3997730,394.863,33.66,96671.3,1.14861
98728068,98705305,3997730,394.604,33.66,96674.3,1.14865
98939135,98919008,3997730,394.604,33.66,96674.3,1.14865
99150126,99132468,3997730,394.95,33.66,96670.2,1.1486
99311303,99293336,3997730,394.818,33.67,96671.8,1.14862
99532106,99509450,3997730,394.712,33.67,96673.0,1.14864
99743277,99723061,3997730,394.712,33.66,96673.0,1.14864
99903999,99883881,3997730,395.08,33.66,96668.7,1.14858
100115337,100097582,3997730,394.971,33.67,96670.0,1.1486
100346506,100326313,3997730,394.926,33.67,96670.5,1.14861
100507294,100487083,3997730,395.058,33.66,96669.0,1.14859
100718337,100700708,3997730,395.143,33.67,96668.0,1.14858
100939523,100916874,3997730,395.402,33.67,96665.0,1.14854
101150569,101130434,3997730,395.315,33.67,96666.0,1.14855
101311475,101291244,3997730,395.682,33.67,96661.8,1.1485
101542784,101520086,3997730,395.769,33.67,96660.8,1.14849
101703740,101680959,3997730,395.51,33.67,96663.7,1.14853
101914998,101894668,3997730,395.598,33.67,96662.7,1.14851
102125943,102108304,3997730,395.447,33.67,96664.5,1.14853
102347379,102324444,3997730,395.576,33.68,96663.0,1.14852
102517862,102497745,3997730,395.598,33.67,96662.7,1.14851
102729032,102711254,3997730,395.296,33.67,96666.3,1.14855
102950358,102927533,3997730,395.727,33.68,96661.3,1.1485
103111038,103088370,3997730,395.209,33.68,96667.2,1.14857
103322046,103301907,3997730,395.056,33.68,96669.0,1.14859
103533390,103515505,3997730,395.251,33.68,96666.8,1.14856
103714030,103691350,3997730,395.188,33.68,96667.5,1.14857
103925260,103904863,3997730,395.381,33.68,96665.3,1.14854
104136108,104118474,3997730,395.36,33.68,96665.5,1.14855
104296801,104279170,3997730,394.689,33.68,96673.3,1.14864
104517985,104495341,3997730,394.818,33.69,96671.8,1.14862
104729130,104708978,3997730,395.143,33.69,96668.0,1.14858
104940253,104922638,3997730,394.95,33.69,96670.2,1.1486
105101223,105083461,3997730,395.339,33.69,96665.8,1.14855
105332646,105312434,3997730,395.058,33.69,96669.0,1.14859
105543732,105526085,3997730,395.275,33.69,96666.5,1.14856
105704765,105687120,3997730,394.776,33.69,96672.3,1.14863
105926024,105903362,3997730,394.689,33.69,96673.3,1.14864
106137260,106117068,3997730,395.058,33.69,96669.0,1.14859
106348306,106330634,3997730,395.014,33.69,96669.5,1.14859
106509329,106491567,3997730,394.992,33.69,96669.7,1.1486
106730329,106707668,3997730,394.776,33.69,96672.3,1.14863
106941566,106921278,3997730,395.164,33.69,96667.8,1.14857
107152713,107134958,3997730,395.381,33.69,96665.3,1.14854
107334375,107303379,3997730,395.333,33.69,96665.8,1.14855
107504450,107484281,3997730,395.576,33.69,96663.0,1.14852
107715586,107697972,3997730,395.402,33.7,96665.0,1.14854
107936770,107914139,3997730,395.51,33.7,96663.7,1.14853
108098088,108074992,3997730,395.468,33.69,96664.3,1.14853
108319061,108301340,3997730,394.992,33.7,96669.7,1.1486
108540275,108517582,3997730,395.035,33.7,96669.3,1.14859
108751540,108731308,3997730,394.776,33.7,96672.3,1.14863
108912373,108892222,3997730,394.929,33.7,96670.5,1.14861
109123512,109105814,3997730,394.95,33.7,96670.2,1.1486
109345966,109322005,3997730,394.992,33.7,96669.7,1.1486
109515724,109495433,3997730,394.95,33.71,96670.2,1.1486
109727389,109709215,3997730,394.496,33.7,96675.5,1.14866
109948106,109925356,3997730,394.776,33.71,96672.3,1.14863
110108849,110086220,3997730,395.402,33.71,96665.0,1.14854
110319954,110299810,3997730,395.23,33.71,96667.0,1.14856
110531084,110513463,3997730,394.733,33.71,96672.8,1.14863
110712142,110689425,3997730,395.188,33.71,96667.5,1.14857
110923228,110903037,3997730,395.08,33.71,96668.8,1.14858
111134221,111116589,3997730,395.402,33.71,96665.0,1.14854
111295086,111277365,3997730,394.863,33.71,96671.3,1.14861
111526471,111506324,3997730,395.339,33.71,96665.8,1.14855
111737602,111719884,3997730,395.315,33.71,96666.0,1.14855
111898390,111880731,3997730,395.339,33.72,96665.8,1.14855
112119593,112096907,3997730,395.339,33.72,96665.8,1.14855
112330655,112310493,3997730,395.188,33.72,96667.5,1.14857
112541725,112523986,3997730,395.23,33.72,96667.0,1.14856
112702581,112684891,3997730,395.035,33.72,96669.2,1.14859
112923713,112901048,3997730,394.818,33.72,96671.8,1.14862
113134982,113114647,3997730,394.712,33.72,96673.0,1.14864
113345854,113328226,3997730,394.797,33.73,96672.0,1.14862
113506975,113489186,3997730,394.842,33.72,96671.5,1.14862
113727944,113705302,3997730,394.95,33.72,96670.2,1.1486
113939087,113918886,3997730,394.863,33.73,96671.3,1.14861
114150309,114132677,3997730,394.776,33.73,96672.3,1.14863
114311071,114293411,3997730,394.863,33.73,96671.3,1.14861
114532111,114509487,3997730,394.863,33.73,96671.3,1.14861
114743212,114723082,3997730,395.143,33.73,96668.0,1.14858
114954373,114936747,3997730,395.489,33.73,96664.0,1.14853
115115342,115097634,3997730,394.776,33.73,96672.3,1.14863
115336529,115313811,3997730,395.381,33.73,96665.3,1.14854
115547554,115527434,3997730,395.555,33.73,96663.2,1.14852
115718586,115694262,3997730,395.489,33.74,96664.0,1.14853
115939640,115916936,3997730,395.748,33.73,96661.0,1.14849
116150611,116130448,3997730,395.944,33.74,96658.7,1.14847
116311358,116291193,3997730,395.381,33.74,96665.3,1.14854
116542502,116512283,3997730,395.23,33.74,96667.0,1.14856
116753617,116733433,3997730,395.273,33.74,96666.5,1.14856
116914792,116894267,3997730,394.842,33.74,96671.5,1.14862
117125670,117108041,3997730,394.863,33.74,96671.3,1.14861
117346837,117324194,3997730,395.188,33.74,96667.5,1.14857
117507641,117484975,3997730,394.689,33.74,96673.3,1.14864
117718880,117698568,3997730,395.101,33.74,96668.5,1.14858
117930242,117912439,3997730,394.342,33.74,96677.3,1.14869
118151842,118128785,3997730,395.251,33.75,96666.8,1.14856
118322408,118302202,3997730,394.884,33.74,96671.0,1.14861
118533460,118515782,3997730,394.818,33.74,96671.8,1.14862
118694328,118676685,3997730,395.058,33.75,96669.0,1.14859
118915448,118892772,3997730,395.035,33.75,96669.2,1.14859
119136600,119118971,3997730,394.884,33.75,96671.0,1.14861
119297481,119279772,3997730,395.058,33.75,96669.0,1.14859
119518521,119495792,3997730,395.296,33.75,96666.3,1.14855
119729593,119709476,3997730,395.685,33.75,96661.7,1.1485
119940741,119923125,3997730,395.878,33.75,96659.5,1.14847
120101676,120083942,3997730,395.576,33.75,96663.0,1.14852
120322787,120300115,3997730,395.835,33.76,96660.0,1.14848
120534008,120513709,3997730,396.01,33.76,96658.0,1.14846
120745000,120727282,3997730,396.245,33.76,96655.3,1.14842
120905850,120888210,3997730,396.332,33.76,96654.3,1.14841
121126982,121104303,3997730,395.814,33.76,96660.3,1.14848
121338046,121317926,3997730,395.856,33.77,96659.8,1.14848
121499568,121478741,3997730,395.36,33.76,96665.5,1.14855
121730203,121707533,3997730,395.555,33.77,96663.2,1.14852
121941339,121921180,3997730,395.923,33.77,96659.0,1.14847
122152522,122134861,3997730,395.275,33.77,96666.5,1.14856
122313416,122295667,3997730,395.619,33.77,96662.5,1.14851
122544404,122524235,3997730,394.689,33.77,96673.3,1.14864
122705309,122685119,3997730,395.315,33.77,96666.0,1.14855
122916541,122898851,3997730,395.058,33.77,96669.0,1.14859
123137744,123115042,3997730,394.776,33.77,96672.3,1.14863
123348726,123328612,3997730,395.122,33.77,96668.2,1.14858
123509625,123489502,3997730,394.929,33.78,96670.5,1.14861
123741003,123710814,3997730,394.607,33.78,96674.2,1.14865
123952131,123931944,3997730,394.842,33.78,96671.5,1.14862
124113015,124092796,3997730,395.143,33.78,96668.0,1.14858
124324246,124306594,3997730,395.08,33.78,96668.7,1.14858
124545578,124522925,3997730,395.23,33.78,96667.0,1.14856
124706610,124683879,3997730,395.056,33.78,96669.0,1.14859
124917756,124897574,3997730,395.23,33.78,96667.0,1.14856
125128977,125111346,3997730,395.23,33.79,96667.0,1.14856
125350193,125327568,3997730,395.188,33.78,96667.5,1.14857
125511026,125488369,3997730,395.619,33.79,96662.5,1.14851
125722304,125702098,3997730,395.251,33.79,96666.8,1.14856
125933225,125915597,3997730,395.619,33.79,96662.5,1.14851
126154523,126131844,3997730,395.273,33.79,96666.5,1.14856
126315339,126292637,3997730,395.793,33.79,96660.5,1.14849
126536752,126512471,3997730,394.937,33.79,96670.4,1.1486
126697521,126679906,3997730,395.468,33.79,96664.2,1.14853
126918691,126895978,3997730,394.929,33.79,96670.5,1.14861
127129751,127109640,3997730,395.056,33.79,96669.0,1.14859
127340882,127323248,3997730,394.797,33.79,96672.0,1.14862
127501703,127484080,3997730,394.667,33.8,96673.5,1.14864
127723407,127700249,3997730,394.776,33.8,96672.3,1.14863
127944169,127926491,3997730,394.818,33.8,96671.8,1.14862
128104994,128087267,3997730,394.776,33.8,96672.3,1.14863
128336245,128316047,3997730,394.929,33.8,96670.5,1.14861
128547333,128529686,3997730,394.517,33.81,96675.3,1.14866
128708234,128690497,3997730,394.733,33.8,96672.8,1.14863
128929326,128906685,3997730,394.776,33.8,96672.3,1.14863
129140333,129120143,3997730,394.776,33.81,96672.3,1.14863
129351387,129333726,3997730,394.992,33.81,96669.7,1.1486
129512448,129494551,3997730,394.992,33.81,96669.8,1.1486
129733406,129710723,3997730,394.884,33.81,96671.0,1.14861
129894817,129871416,3997730,394.971,33.81,96670.0,1.1486
130115172,130097537,3997730,395.598,33.81,96662.7,1.14851
130337134,130313664,3997730,395.531,33.81,96663.5,1.14852
130507421,130487255,3997730,395.878,33.81,96659.5,1.14847
130718680,130700940,3997730,395.923,33.81,96659.0,1.14847
130939871,130917234,3997730,396.094,33.81,96657.0,1.14845
131150946,131130827,3997730,396.118,33.82,96656.7,1.14844
131311970,131291767,3997730,396.031,33.82,96657.8,1.14845
131523970,131505322,3997730,396.269,33.81,96655.0,1.14842
131744177,131721510,3997730,396.332,33.82,96654.3,1.14841
131905053,131882290,3997730,395.814,33.82,96660.3,1.14848
132116193,132095892,3997730,395.878,33.82,96659.5,1.14847
132327176,132309423,3997730,396.031,33.82,96657.7,1.14845
132548223,132525522,3997730,395.986,33.82,96658.3,1.14846
132709096,132686476,3997730,395.706,33.82,96661.5,1.1485
132920197,132900071,3997730,395.447,33.82,96664.5,1.14853
133131336,133113657,3997730,395.23,33.82,96667.0,1.14856
133352496,133329851,3997730,395.164,33.83,96667.7,1.14857
133513539,133490840,3997730,395.275,33.83,96666.5,1.14856
133734806,133710674,3997730,395.508,33.83,96663.8,1.14853
133895754,133878079,3997730,395.381,33.83,96665.3,1.14854
134117045,134094288,3997730,395.814,33.83,96660.3,1.14848
134328082,134307886,3997730,396.052,33.83,96657.5,1.14845
134539234,134521616,3997730,395.793,33.83,96660.5,1.14849
134700178,134682441,3997730,395.944,33.83,96658.8,1.14847
134921713,134898596,3997730,395.965,33.83,96658.5,1.14846
135142459,135124806,3997730,396.245,33.84,96655.3,1.14842
135304072,135285481,3997730,396.332,33.83,96654.3,1.14841
135524411,135501677,3997730,396.115,33.83,96656.8,1.14844
135746396,135721499,3997730,396.01,33.83,96658.0,1.14846
135906599,135888978,3997730,395.748,33.84,96661.0,1.14849
136127952,136105255,3997730,395.685,33.84,96661.7,1.1485
136339371,136319106,3997730,395.576,33.83,96663.0,1.14852
136550627,136532966,3997730,395.598,33.84,96662.7,1.14851
136711523,136693878,3997730,395.339,33.84,96665.8,1.14855
136933330,136910016,3997730,395.555,33.84,96663.2,1.14852
137103755,137083592,3997730,395.619,33.84,96662.5,1.14851
137314928,137297254,3997730,395.447,33.83,96664.5,1.14853
137536074,137513421,3997730,395.402,33.84,96665.0,1.14854
137747283,137727100,3997730,395.014,33.84,96669.5,1.14859
137908204,137888018,3997730,395.251,33.84,96666.8,1.14856
138119393,138101698,3997730,395.035,33.84,96669.2,1.14859
138340560,138317942,3997730,395.339,33.84,96665.7,1.14855
138551771,138531605,3997730,395.23,33.84,96667.0,1.14856
138712632,138692499,3997730,395.468,33.84,96664.2,1.14853
138924374,138906162,3997730,395.576,33.84,96663.0,1.14852
139144858,139122163,3997730,395.468,33.84,96664.2,1.14853
139305645,139283016,3997730,395.531,33.84,96663.5,1.14852
139516827,139496656,3997730,395.468,33.84,96664.2,1.14853
139727865,139710258,3997730,395.402,33.84,96665.0,1.14854
139908901,139886239,3997730,395.51,33.84,96663.7,1.14853
140119959,140099800,3997730,395.251,33.84,96666.8,1.14856
140331126,140313504,3997730,395.209,33.85,96667.3,1.14857
140552398,140529768,3997730,394.884,33.84,96671.0,1.14861
140723338,140703198,3997730,394.884,33.85,96671.0,1.14861
140934434,140916810,3997730,395.101,33.85,96668.5,1.14858
141115457,141085210,3997730,394.953,33.85,96670.2,1.1486
141326499,141306311,3997730,394.905,33.85,96670.7,1.14861
141537445,141519808,3997730,395.058,33.85,96669.0,1.14859
141698416,141680646,3997730,395.058,33.84,96669.0,1.14859
141919640,141896993,3997730,395.122,33.85,96668.2,1.14858
142130661,142110525,3997730,395.209,33.85,96667.2,1.14857
142341821,142324140,3997730,395.426,33.85,96664.8,1.14854
142502726,142485085,3997730,395.426,33.85,96664.8,1.14854
142724235,142701351,3997730,395.122,33.85,96668.2,1.14858
142935040,142914895,3997730,395.122,33.85,96668.3,1.14858
143146205,143128566,3997730,394.538,33.85,96675.0,1.14866
143307136,143289515,3997730,394.818,33.85,96671.8,1.14862
143528420,143505638,3997730,394.776,33.85,96672.3,1.14863
143739475,143719274,3997730,394.884,33.85,96671.0,1.14861
143950613,143932892,3997730,394.472,33.85,96675.8,1.14867
144111446,144093815,3997730,394.797,33.85,96672.0,1.14862
144332535,144309852,3997730,394.929,33.85,96670.5,1.14861
144513482,144489346,3997730,394.659,33.85,96673.6,1.14864
144734498,144711844,3997730,395.122,33.85,96668.2,1.14858
144945606,144925442,3997730,395.122,33.85,96668.3,1.14858
145106572,145086287,3997730,394.842,33.85,96671.5,1.14862
145317682,145299999,3997730,395.447,33.85,96664.5,1.14853
145538655,145516023,3997730,395.296,33.85,96666.3,1.14855
145749728,145729528,3997730,395.296,33.85,96666.3,1.14855
145910517,145890401,3997730,395.122,33.85,96668.2,1.14858
146141755,146111520,3997730,395.162,33.85,96667.8,1.14857
146352871,146332650,3997730,395.209,33.86,96667.3,1.14857
146514938,146493528,3997730,395.143,33.86,96668.0,1.14858
146744882,146722256,3997730,394.884,33.86,96671.0,1.14861
146956192,146935945,3997730,394.884,33.86,96671.0,1.14861
147116958,147096796,3997730,394.818,33.85,96671.8,1.14862
147328001,147310344,3997730,394.58,33.86,96674.5,1.14865
147549363,147526570,3997730,394.604,33.86,96674.3,1.14865
147710201,147687507,3997730,394.992,33.86,96669.8,1.1486
147951572,147928920,3997730,394.905,33.86,96670.7,1.14861
148112380,148089721,3997730,395.035,33.86,96669.2,1.14859
148353777,148331106,3997730,394.884,33.86,96671.0,1.14861
148514689,148492049,3997730,395.23,33.86,96667.0,1.14856
148695820,148671602,3997730,395.196,33.86,96667.4,1.14857
148916902,148894259,3997730,394.755,33.86,96672.5,1.14863
149127899,149107777,3997730,394.689,33.86,96673.3,1.14864
149339107,149321487,3997730,395.101,33.86,96668.5,1.14858
149500002,149482326,3997730,395.058,33.86,96669.0,1.14859
149721225,149698460,3997730,394.905,33.86,96670.7,1.14861
149932302,149912106,3997730,395.08,33.86,96668.7,1.14858
150143453,150125768,3997730,395.251,33.86,96666.8,1.14856
150304487,150286660,3997730,395.468,33.87,96664.2,1.14853
150525709,150502976,3997730,395.339,33.86,96665.8,1.14855
150746789,150722561,3997730,395.386,33.86,96665.2,1.14854
150907478,150889857,3997730,395.576,33.87,96663.0,1.14852
151128654,151105960,3997730,395.706,33.87,96661.5,1.1485
151339659,151319515,3997730,395.426,33.87,96664.8,1.14854
151550977,151533346,3997730,395.727,33.87,96661.2,1.1485
151711913,151694270,3997730,395.51,33.87,96663.7,1.14853
151933229,151910354,3997730,395.51,33.87,96663.8,1.14853
152104019,152083796,3997730,395.576,33.87,96663.0,1.14852
152315687,152297461,3997730,395.598,33.87,96662.7,1.14851
152536304,152513585,3997730,395.64,33.87,96662.3,1.14851
152747333,152727134,3997730,395.534,33.87,96663.5,1.14852
152908171,152888044,3997730,395.122,33.87,96668.2,1.14858
153119265,153101605,3997730,395.014,33.87,96669.5,1.14859
153350473,153330209,3997730,394.818,33.88,96671.8,1.14862
153511158,153491031,3997730,394.3,33.87,96677.8,1.14869
153722322,153704664,3997730,394.755,33.87,96672.5,1.14863
153943478,153920848,3997730,394.559,33.88,96674.8,1.14866
154154598,154134393,3997730,394.408,33.87,96676.5,1.14868
154315502,154295226,3997730,394.625,33.87,96674.0,1.14865
154526624,154508936,3997730,394.712,33.88,96673.0,1.14864
154747862,154725056,3997730,394.905,33.88,96670.7,1.14861
154908531,154885889,3997730,395.122,33.88,96668.3,1.14858
155119689,155099500,3997730,395.209,33.88,96667.2,1.14857
155330856,155313130,3997730,395.447,33.87,96664.5,1.14853
155551949,155529288,3997730,395.555,33.87,96663.3,1.14852
155712704,155690045,3997730,395.555,33.88,96663.2,1.14852
155923904,155903710,3997730,395.793,33.88,96660.5,1.14849
156135379,156117427,3997730,395.685,33.88,96661.7,1.1485
156295860,156278213,3997730,395.642,33.88,96662.2,1.14851
156517139,156494303,3997730,395.664,33.88,96662.0,1.1485
156728136,156707892,3997730,396.01,33.88,96658.0,1.14846
156939625,156921871,3997730,395.986,33.88,96658.3,1.14846
157100449,157082768,3997730,396.031,33.88,96657.8,1.14845
157321574,157298956,3997730,396.115,33.88,96656.8,1.14844
157532853,157512646,3997730,395.447,33.88,96664.5,1.14853
157744029,157726289,3997730,395.164,33.88,96667.8,1.14857
157904780,157887170,3997730,395.251,33.88,96666.8,1.14856
158125997,158103311,3997730,395.64,33.88,96662.3,1.14851
158337057,158316938,3997730,395.273,33.88,96666.5,1.14856
158548172,158530567,3997730,395.51,33.88,96663.7,1.14853
158729241,158706562,3997730,395.468,33.88,96664.2,1.14853
158940395,158920214,3997730,395.534,33.88,96663.5,1.14852
159111338,159087120,3997730,395.249,33.88,96666.8,1.14856
159332472,159309717,3997730,395.468,33.88,96664.2,1.14853
159553747,159529564,3997730,395.402,33.89,96665.0,1.14854
159714545,159696934,3997730,395.814,33.88,96660.3,1.14848
159935755,159913003,3997730,395.555,33.89,96663.2,1.14852
160146951,160126628,3997730,395.814,33.89,96660.3,1.14848
160307738,160287528,3997730,395.814,33.88,96660.2,1.14848
160518687,160501016,3997730,396.031,33.88,96657.8,1.14845
160739882,160717263,3997730,395.598,33.88,96662.7,1.14851
160951101,160930963,3997730,395.814,33.88,96660.2,1.14848
161111881,161091737,3997730,395.856,33.89,96659.8,1.14848
161322785,161305135,3997730,395.682,33.89,96661.8,1.1485
161543860,161521133,3997730,395.251,33.89,96666.8,1.14856
161714743,161694603,3997730,395.296,33.89,96666.3,1.14855
161925806,161908176,3997730,395.23,33.89,96667.0,1.14856
162146912,162124188,3997730,394.992,33.89,96669.8,1.1486
162307791,162285077,3997730,394.604,33.89,96674.3,1.14865
162519099,162498872,3997730,394.755,33.89,96672.5,1.14863
162730191,162712563,3997730,394.496,33.89,96675.5,1.14866
162951566,162928859,3997730,394.733,33.89,96672.8,1.14863
163112402,163089627,3997730,394.408,33.89,96676.5,1.14868
163323457,163303264,3997730,394.733,33.89,96672.8,1.14863
163534698,163517011,3997730,395.014,33.89,96669.5,1.14859
163695476,163677832,3997730,395.101,33.89,96668.5,1.14858
163916613,163893951,3997730,395.339,33.89,96665.8,1.14855
164127598,164107482,3997730,395.315,33.9,96666.0,1.14855
164338847,164321076,3997730,395.598,33.89,96662.7,1.14851
164499948,164482271,3997730,395.402,33.89,96665.0,1.14854
164720995,164698325,3997730,395.122,33.89,96668.2,1.14858
164932179,164911993,3997730,395.36,33.89,96665.5,1.14855
165143297,165125628,3997730,395.381,33.9,96665.3,1.14854
165304123,165286432,3997730,395.685,33.9,96661.7,1.1485
165525240,165502570,3997730,395.23,33.9,96667.0,1.14856
165736421,165716140,3997730,395.555,33.9,96663.2,1.14852
165947459,165929760,3997730,395.188,33.9,96667.5,1.14857
166108240,166090629,3997730,395.164,33.9,96667.7,1.14857
166329421,166306805,3997730,394.929,33.9,96670.5,1.14861
166540621,166520445,3997730,395.014,33.9,96669.5,1.14859
166751927,166734127,3997730,395.706,33.9,96661.5,1.1485
166912673,166895041,3997730,395.315,33.9,96666.0,1.14855
167133881,167111203,3997730,394.971,33.9,96670.0,1.1486
167345051,167324904,3997730,395.035,33.9,96669.2,1.14859
167516095,167491855,3997730,395.249,33.9,96666.8,1.14856
167737151,167714517,3997730,395.209,33.9,96667.3,1.14857
167948397,167928175,3997730,395.251,33.9,96666.8,1.14856
168109242,168089034,3997730,395.381,33.9,96665.3,1.14854
168320255,168302614,3997730,395.296,33.9,96666.3,1.14855
168541331,168518610,3997730,395.598,33.9,96662.7,1.14851
168752417,168732225,3997730,395.944,33.9,96658.8,1.14847
168913366,168893190,3997730,396.052,33.9,96657.5,1.14845
169144674,169114386,3997730,395.991,33.91,96658.2,1.14846
169305427,169282753,3997730,396.203,33.9,96655.8,1.14843
169516781,169496521,3997730,396.462,33.9,96652.8,1.14839
169727818,169710212,3997730,396.16,33.9,96656.2,1.14844
169949110,169926432,3997730,396.203,33.9,96655.8,1.14843
170109957,170087266,3997730,396.031,33.91,96657.7,1.14845
170321199,170300978,3997730,396.57,33.9,96651.5,1.14838
170532329,170514696,3997730,396.245,33.9,96655.3,1.14842
170693316,170675562,3997730,396.031,33.91,96657.8,1.14845
170914516,170891726,3997730,396.398,33.91,96653.5,1.1484
171125521,171105270,3997730,396.269,33.91,96655.0,1.14842
171336608,171318826,3997730,396.377,33.9,96653.8,1.14841
171497406,171479762,3997730,395.899,33.91,96659.3,1.14847
171718443,171695788,3997730,395.814,33.91,96660.3,1.14848
171929533,171909418,3997730,395.769,33.91,96660.8,1.14849
172140599,172122989,3997730,395.598,33.91,96662.7,1.14851
172301403,172283659,3997730,395.642,33.91,96662.2,1.14851
172522532,172499792,3997730,395.531,33.91,96663.5,1.14852
172733575,172713449,3997730,395.188,33.91,96667.5,1.14857
172895365,172874177,3997730,395.381,33.91,96665.3,1.14854
173135597,173115458,3997730,395.143,33.91,96668.0,1.14858
173297855,173276233,3997730,395.035,33.91,96669.2,1.14859
173537688,173517563,3997730,395.209,33.91,96667.3,1.14857
173699942,173678427,3997730,395.143,33.91,96668.0,1.14858
173940061,173919944,3997730,394.842,33.91,96671.5,1.14862
174151209,174133581,3997730,395.035,33.92,96669.2,1.14859
174312134,174294480,3997730,395.315,33.91,96666.0,1.14855
174533635,174510760,3997730,395.381,33.92,96665.3,1.14854
174744610,174724376,3997730,395.014,33.92,96669.5,1.14859
174905527,174885251,3997730,395.534,33.92,96663.5,1.14852
175116696,175099013,3997730,395.122,33.92,96668.2,1.14858
175338350,175315123,3997730,395.426,33.92,96664.8,1.14854
175508766,175488530,3997730,394.992,33.92,96669.7,1.1486
175719808,175702199,3997730,395.402,33.92,96665.0,1.14854
175941024,175918343,3997730,395.035,33.92,96669.2,1.14859
176152347,176132056,3997730,395.381,33.92,96665.3,1.14854
176313096,176292926,3997730,395.143,33.92,96668.0,1.14858
176524356,176506657,3997730,395.08,33.92,96668.8,1.14858
176705449,176682623,3997730,395.36,33.92,96665.5,1.14855
176916512,176896257,3997730,395.426,33.92,96664.8,1.14854
177127497,177109861,3997730,395.188,33.92,96667.5,1.14857
177348767,177326117,3997730,395.489,33.92,96664.0,1.14853
177519850,177499635,3997730,395.315,33.92,96666.0,1.14855
177730974,177713335,3997730,395.426,33.92,96664.8,1.14854
177912076,177881701,3997730,395.143,33.92,96668.0,1.14858
178123081,178102914,3997730,395.727,33.92,96661.3,1.1485
178284721,178263603,3997730,395.944,33.93,96658.8,1.14847
178514816,178492187,3997730,395.856,33.93,96659.8,1.14848
178726181,178705769,3997730,395.642,33.93,96662.2,1.14851
178937036,178919414,3997730,395.748,33.93,96661.0,1.14849
179098059,179080316,3997730,395.748,33.93,96661.0,1.14849
179319382,179296677,3997730,395.381,33.93,96665.3,1.14854
179530523,179510342,3997730,395.576,33.93,96663.0,1.14852
179741650,179724035,3997730,395.339,33.93,96665.8,1.14855
179903025,179884858,3997730,395.576,33.93,96663.0,1.14852
180123574,180100876,3997730,395.101,33.93,96668.5,1.14858
180334666,180314378,3997730,395.447,33.93,96664.5,1.14853
180545676,180528053,3997730,395.51,33.93,96663.7,1.14853
180706424,180688797,3997730,395.706,33.93,96661.5,1.1485
180927561,180904939,3997730,395.489,33.94,96664.0,1.14853
181138705,181118569,3997730,395.36,33.94,96665.5,1.14855
181349777,181332111,3997730,395.381,33.94,96665.3,1.14854
181510637,181492928,3997730,395.143,33.94,96668.0,1.14858
181731739,181708990,3997730,395.273,33.94,96666.5,1.14856
181942833,181922650,3997730,395.08,33.94,96668.7,1.14858
182153802,182136099,3997730,395.426,33.94,96664.8,1.14854
182314598,182296948,3997730,395.468,33.94,96664.2,1.14853
182536942,182513132,3997730,395.489,33.94,96664.0,1.14853
182706576,182686405,3997730,395.51,33.94,96663.7,1.14853
182917863,182900110,3997730,395.315,33.95,96666.0,1.14855
183138858,183116162,3997730,395.08,33.95,96668.8,1.14858
183350314,183329678,3997730,395.23,33.95,96667.0,1.14856
183510620,183490480,3997730,395.426,33.95,96664.8,1.14854
183721885,183704155,3997730,395.899,33.95,96659.3,1.14847
183953076,183932862,3997730,395.642,33.95,96662.2,1.14851
184113979,184093759,3997730,395.381,33.95,96665.3,1.14854
184325240,184307527,3997730,395.642,33.95,96662.2,1.14851
184546561,184523838,3997730,395.426,33.95,96664.8,1.14854
184717604,184697439,3997730,396.052,33.95,96657.5,1.14845
184928724,184911119,3997730,395.685,33.96,96661.7,1.1485
185149894,185127237,3997730,396.01,33.96,96658.0,1.14846
185310753,185288088,3997730,396.181,33.96,96656.0,1.14843
185521964,185501732,3997730,396.269,33.96,96655.0,1.14842
185733121,185715356,3997730,396.483,33.96,96652.5,1.14839
185893836,185876159,3997730,396.269,33.96,96655.0,1.14842
186114821,186092186,3997730,396.419,33.96,96653.3,1.1484
186325928,186305788,3997730,396.139,33.96,96656.5,1.14844
186537014,186519362,3997730,396.29,33.96,96654.8,1.14842
186698194,186680250,3997730,396.419,33.96,96653.3,1.1484
186919039,186896410,3997730,395.944,33.96,96658.8,1.14847
187129992,187109826,3997730,395.923,33.96,96659.0,1.14847
187341035,187323354,3997730,396.031,33.96,96657.7,1.14845
187501777,187484149,3997730,395.51,33.96,96663.7,1.14853
187722874,187700172,3997730,395.986,33.96,96658.3,1.14846
187933955,187913833,3997730,395.685,33.96,96661.7,1.1485
188144993,188127374,3997730,395.793,33.96,96660.5,1.14849
188305895,188288179,3997730,395.944,33.96,96658.8,1.14847
188526948,188504310,3997730,396.052,33.97,96657.5,1.14845
188738072,188717821,3997730,395.944,33.97,96658.8,1.14847
188908900,188884717,3997730,396.39,33.97,96653.6,1.1484
189130013,189107275,3997730,396.44,33.97,96653.0,1.1484
189351282,189326920,3997730,396.631,33.97,96650.8,1.14837
189512023,189494328,3997730,396.72,33.97,96649.8,1.14836
189733245,189710579,3997730,396.462,33.97,96652.8,1.14839
189944435,189924274,3997730,396.549,33.97,96651.8,1.14838
190105776,190085106,3997730,396.311,33.97,96654.5,1.14842
190336567,190313936,3997730,395.793,33.98,96660.5,1.14849
190547686,190527561,3997730,396.224,33.97,96655.5,1.14843
190708541,190688275,3997730,396.052,33.97,96657.5,1.14845
190919720,190902014,3997730,396.332,33.97,96654.3,1.14841
191151114,191130876,3997730,396.139,33.97,96656.5,1.14844
191312037,191291831,3997730,396.031,33.97,96657.8,1.14845
191522931,191505310,3997730,396.094,33.97,96657.0,1.14845
191744392,191721582,3997730,396.203,33.97,96655.8,1.14843
191905033,191882351,3997730,396.269,33.97,96655.0,1.14842
192116233,192096113,3997730,396.594,33.98,96651.3,1.14838
192327512,192309803,3997730,396.916,33.97,96647.5,1.14833
192548612,192525975,3997730,397.178,33.98,96644.5,1.1483
192709524,192686883,3997730,397.156,33.98,96644.7,1.1483
192920671,192900550,3997730,397.5,33.98,96640.8,1.14825
193131659,193113993,3997730,397.262,33.98,96643.5,1.14828
193352818,193330179,3997730,397.133,33.98,96645.0,1.1483
193513737,193490970,3997730,396.657,33.98,96650.5,1.14837
193724817,193704594,3997730,396.528,33.98,96652.0,1.14839
193896133,193871591,3997730,396.216,33.98,96655.6,1.14843
194116991,194094352,3997730,396.16,33.98,96656.3,1.14844
194337943,194313739,3997730,396.631,33.98,96650.8,1.14837
194498935,194481261,3997730,396.528,33.98,96652.0,1.14839
194719882,194697222,3997730,396.245,33.99,96655.3,1.14842
194930871,194910714,3997730,396.181,33.99,96656.0,1.14843
195142072,195124376,3997730,396.377,33.98,96653.8,1.14841
195302848,195285181,3997730,396.787,33.98,96649.0,1.14835
195523950,195501294,3997730,396.483,33.98,96652.5,1.14839
195745166,195727488,3997730,396.269,33.99,96655.0,1.14842
195906022,195888392,3997730,395.923,33.99,96659.0,1.14847
196127210,196104531,3997730,396.181,33.98,96656.0,1.14843
196338480,196318297,3997730,396.353,33.98,96654.0,1.14841
196549620,196532002,3997730,396.398,33.99,96653.5,1.1484
196710546,196692846,3997730,396.052,33.98,96657.5,1.14845
196931743,196909112,3997730,396.181,33.99,96656.0,1.14843
197142704,197122574,3997730,395.706,33.99,96661.5,1.1485
197313555,197289316,3997730,396.026,33.98,96657.8,1.14845
197534788,197512012,3997730,396.052,33.99,96657.5,1.14845
197745893,197725688,3997730,396.398,33.99,96653.5,1.1484
197906753,197886574,3997730,396.332,33.99,96654.3,1.14841
198138103,198107764,3997730,396.562,33.99,96651.6,1.14838
198349303,198329017,3997730,396.377,33.99,96653.8,1.14841
198509993,198489815,3997730,396.419,33.99,96653.3,1.1484
198721021,198703362,3997730,396.398,33.99,96653.5,1.1484
198942322,198919660,3997730,396.245,33.99,96655.3,1.14842
199153203,199133071,3997730,396.332,33.99,96654.3,1.14841
199314122,199293901,3997730,396.245,33.99,96655.3,1.14842
199525227,199507533,3997730,395.814,33.99,96660.2,1.14848
199746620,199723847,3997730,395.468,33.99,96664.2,1.14853
199907299,199884646,3997730,395.381,33.99,96665.3,1.14854
200118236,200098102,3997730,395.447,33.99,96664.5,1.14853
200329561,200311932,3997730,395.642,33.99,96662.2,1.14851
200550648,200528017,3997730,395.664,33.99,96662.0,1.1485
200711592,200688920,3997730,395.772,33.99,96660.7,1.14849
200922719,200902544,3997730,396.052,33.99,96657.5,1.14845
201134035,201116386,3997730,395.835,33.99,96660.0,1.14848
201295022,201277321,3997730,395.899,33.99,96659.3,1.14847
201536220,201512053,3997730,396.322,34.0,96654.4,1.14841
201697092,201679380,3997730,396.636,33.99,96650.8,1.14837
201918155,201895436,3997730,396.702,34.0,96650.0,1.14836
202129508,202109238,3997730,397.024,33.99,96646.3,1.14832
202301022,202276010,3997730,396.787,34.0,96649.0,1.14835
202521349,202498673,3997730,397.024,34.0,96646.3,1.14832
202742495,202718348,3997730,396.874,34.0,96648.0,1.14834
202903399,202885698,3997730,396.916,34.0,96647.5,1.14833
203124976,203101854,3997730,396.808,34.0,96648.8,1.14835
203345697,203328009,3997730,397.046,34.0,96646.0,1.14831
203506579,203488862,3997730,396.657,33.99,96650.5,1.14837
203727730,203705069,3997730,396.419,34.0,96653.3,1.1484
203939047,203918762,3997730,396.895,34.0,96647.8,1.14834
204150201,204132546,3997730,397.199,34.0,96644.2,1.14829
204310864,204293234,3997730,396.765,34.0,96649.3,1.14835
204532089,204509402,3997730,396.506,34.0,96652.3,1.14839
204743141,204723000,3997730,396.311,34.0,96654.5,1.14842
204903997,204883803,3997730,396.139,34.0,96656.5,1.14844
205115020,205097403,3997730,395.772,34.0,96660.7,1.14849
205336325,205313651,3997730,395.682,34.0,96661.8,1.1485
205547446,205527304,3997730,395.899,34.0,96659.3,1.14847
205718475,205694290,3997730,395.801,34.0,96660.4,1.14849
205939736,205917042,3997730,396.311,34.0,96654.5,1.14842
206150809,206130593,3997730,396.094,34.01,96657.0,1.14845
206311678,206291419,3997730,396.203,34.0,96655.8,1.14843
206522726,206504993,3997730,396.44,34.0,96653.0,1.1484
206743841,206721141,3997730,396.72,34.01,96649.8,1.14836
206904792,206882064,3997730,397.024,34.01,96646.3,1.14832
207115737,207095598,3997730,396.853,34.01,96648.3,1.14834
207326765,207309074,3997730,396.808,34.0,96648.8,1.14835
207548077,207525394,3997730,396.636,34.01,96650.8,1.14837
207709047,207686166,3997730,396.829,34.01,96648.5,1.14834
207920051,207899895,3997730,396.594,34.01,96651.3,1.14838
208131661,208113372,3997730,396.44,34.01,96653.0,1.1484
208352478,208329768,3997730,396.311,34.01,96654.5,1.14842
208513456,208490600,3997730,396.594,34.01,96651.3,1.14838
208724444,208704241,3997730,395.878,34.01,96659.5,1.14847
208936442,208918065,3997730,396.615,34.01,96651.0,1.14837
209096591,209078944,3997730,396.678,34.01,96650.3,1.14836
209317813,209295087,3997730,396.483,34.01,96652.5,1.14839
209529075,209508874,3997730,396.549,34.01,96651.8,1.14838
209740298,209722490,3997730,396.224,34.01,96655.5,1.14843
209900990,209883353,3997730,396.332,34.02,96654.3,1.14841
210122022,210099399,3997730,396.245,34.01,96655.3,1.14842
210343212,210319033,3997730,396.322,34.01,96654.4,1.14841
210504128,210486459,3997730,396.203,34.01,96655.8,1.14843
210725451,210702759,3997730,396.57,34.01,96651.5,1.14838
210936558,210916421,3997730,396.224,34.02,96655.5,1.14843
211107475,211083274,3997730,396.493,34.01,96652.4,1.14839
211328559,211305862,3997730,396.245,34.01,96655.3,1.14842
211539850,211519579,3997730,396.203,34.02,96655.8,1.14843
211751004,211733313,3997730,395.859,34.02,96659.7,1.14848
211911867,211894220,3997730,395.923,34.02,96659.0,1.14847
212133283,212110456,3997730,395.685,34.01,96661.7,1.1485
212295012,212271385,3997730,395.642,34.02,96662.2,1.14851
212515305,212497606,3997730,395.664,34.02,96662.0,1.1485
212736424,212713782,3997730,395.664,34.02,96662.0,1.1485
212947534,212927398,3997730,395.273,34.02,96666.5,1.14856
213108362,213088213,3997730,394.992,34.02,96669.7,1.1486
213319664,213302060,3997730,394.971,34.02,96670.0,1.1486
213540976,213518206,3997730,395.381,34.02,96665.3,1.14854
213751997,213731813,3997730,395.122,34.02,96668.2,1.14858
213913415,213892696,3997730,394.992,34.02,96669.7,1.1486
214144162,214121367,3997730,395.08,34.02,96668.7,1.14858
214355618,214335062,3997730,395.36,34.02,96665.5,1.14855
214526264,214508504,3997730,395.51,34.02,96663.8,1.14853
214747392,214724621,3997730,395.793,34.02,96660.5,1.14849
214908017,214885373,3997730,395.965,34.02,96658.5,1.14846
215119108,215098953,3997730,396.052,34.02,96657.5,1.14845
215350308,215327591,3997730,395.923,34.02,96659.0,1.14847
215511160,215488429,3997730,396.115,34.02,96656.8,1.14844
215732405,215708249,3997730,396.163,34.02,96656.2,1.14844
215953615,215930926,3997730,396.094,34.02,96657.0,1.14845
216114547,216091820,3997730,396.226,34.02,96655.5,1.14843
216325623,216305313,3997730,396.377,34.02,96653.8,1.14841
216487320,216466113,3997730,396.332,34.02,96654.3,1.14841
216717362,216694671,3997730,396.01,34.02,96658.0,1.14846
216928463,216908294,3997730,396.031,34.02,96657.8,1.14845
217139601,217121987,3997730,396.073,34.02,96657.3,1.14845
217300563,217282917,3997730,395.856,34.02,96659.8,1.14848
217521934,217499222,3997730,395.965,34.02,96658.5,1.14846
217733062,217712894,3997730,395.619,34.02,96662.5,1.14851
217944068,217926448,3997730,395.878,34.02,96659.5,1.14847
218104904,218087204,3997730,395.814,34.02,96660.3,1.14848
218325960,218303226,3997730,395.598,34.03,96662.7,1.14851
218537082,218516866,3997730,395.923,34.02,96659.0,1.14847
218707861,218683730,3997730,396.01,34.02,96658.0,1.14846
218929037,218906373,3997730,395.793,34.02,96660.5,1.14849
219140074,219119929,3997730,395.923,34.02,96659.0,1.14847
219351055,219333438,3997730,396.094,34.02,96657.0,1.14845
219512053,219494388,3997730,395.923,34.02,96659.0,1.14847
219733324,219710649,3997730,396.115,34.02,96656.8,1.14844
219944539,219924315,3997730,396.203,34.02,96655.8,1.14843
220105376,220085101,3997730,396.203,34.02,96655.8,1.14843
220316626,220298881,3997730,396.269,34.02,96655.0,1.14842
220537714,220514970,3997730,396.203,34.03,96655.8,1.14843
220748796,220728617,3997730,395.859,34.03,96659.7,1.14848
220909705,220889551,3997730,395.727,34.02,96661.3,1.1485
221140918,221110654,3997730,395.436,34.03,96664.6,1.14854
221351925,221331798,3997730,395.901,34.03,96659.2,1.14847
221514270,221492663,3997730,395.727,34.02,96661.2,1.1485
221744044,221721425,3997730,395.986,34.03,96658.3,1.14846
221904940,221882204,3997730,396.203,34.03,96655.8,1.14843
222145946,222123308,3997730,396.483,34.03,96652.5,1.14839
222306686,222283996,3997730,396.44,34.03,96653.0,1.1484
222527745,222503617,3997730,396.425,34.03,96653.2,1.1484
222749016,222726310,3997730,396.353,34.03,96654.0,1.14841
222909904,222887211,3997730,396.657,34.02,96650.5,1.14837
223120965,223100776,3997730,396.528,34.03,96652.0,1.14839
223352203,223329576,3997730,396.44,34.03,96653.0,1.1484
223513319,223490559,3997730,396.377,34.03,96653.8,1.14841
223724525,223704280,3997730,396.702,34.02,96650.0,1.14836
223935589,223917939,3997730,396.419,34.03,96653.3,1.1484
224096221,224078600,3997730,396.245,34.03,96655.3,1.14842
224317328,224294641,3997730,396.356,34.03,96654.0,1.14841
224528468,224508329,3997730,395.814,34.02,96660.3,1.14848
224739523,224721883,3997730,395.923,34.02,96659.0,1.14847
224900481,224882806,3997730,395.468,34.02,96664.2,1.14853
225121671,225098995,3997730,395.748,34.02,96661.0,1.14849
225342918,225318761,3997730,395.558,34.03,96663.2,1.14852
225503905,225486189,3997730,395.598,34.03,96662.8,1.14851
225724964,225702312,3997730,395.835,34.02,96660.0,1.14848
225935929,225915790,3997730,395.381,34.03,96665.3,1.14854
226147115,226129398,3997730,395.426,34.03,96664.8,1.14854
226307840,226290173,3997730,396.01,34.03,96658.0,1.14846
226528934,226506294,3997730,395.576,34.03,96663.0,1.14852
226740107,226719909,3997730,395.923,34.03,96659.0,1.14847
226951432,226933615,3997730,395.489,34.03,96664.0,1.14853
227112245,227094590,3997730,395.899,34.03,96659.3,1.14847
227333297,227310596,3997730,395.748,34.03,96661.0,1.14849
227544532,227524365,3997730,395.555,34.03,96663.3,1.14852
227705337,227685132,3997730,395.901,34.03,96659.2,1.14847
227936579,227913945,3997730,395.748,34.03,96661.0,1.14849
228147722,228127582,3997730,395.706,34.03,96661.5,1.1485
228308497,228288370,3997730,395.986,34.03,96658.2,1.14846
228519599,228501968,3997730,395.901,34.03,96659.2,1.14847
228740836,228718105,3997730,395.748,34.03,96661.0,1.14849
228951864,228931724,3997730,395.381,34.02,96665.3,1.14854
229113035,229092539,3997730,395.056,34.03,96669.0,1.14859
229323891,229306276,3997730,395.339,34.03,96665.8,1.14855
229545181,229522491,3997730,394.496,34.02,96675.5,1.14866
229706097,229683368,3997730,394.408,34.03,96676.5,1.14868
229917122,229896958,3997730,394.517,34.03,96675.2,1.14866
230128397,230110727,3997730,394.755,34.03,96672.5,1.14863
230349394,230326748,3997730,394.625,34.03,96674.0,1.14865
230510400,230487676,3997730,394.818,34.03,96671.8,1.14862
230721622,230701295,3997730,394.689,34.03,96673.3,1.14864
230932804,230915150,3997730,394.992,34.03,96669.7,1.1486
231154001,231131246,3997730,394.818,34.03,96671.8,1.14862
231314771,231292090,3997730,395.531,34.03,96663.5,1.14852
231525886,231505740,3997730,395.273,34.03,96666.5,1.14856
231736991,231719377,3997730,395.273,34.03,96666.5,1.14856
231897903,231880271,3997730,395.531,34.03,96663.5,1.14852
232119002,232096374,3997730,395.576,34.04,96663.0,1.14852
232330229,232309986,3997730,395.489,34.04,96664.0,1.14853
232501113,232476877,3997730,395.265,34.04,96666.6,1.14856
232722327,232699598,3997730,395.317,34.04,96666.0,1.14855
232933414,232913225,3997730,395.251,34.04,96666.7,1.14856
233144536,233126883,3997730,395.727,34.03,96661.2,1.1485
233305387,233287658,3997730,394.818,34.04,96671.8,1.14862
233526588,233503936,3997730,394.863,34.04,96671.3,1.14861
233737560,233717414,3997730,394.842,34.04,96671.5,1.14862
233948607,233930975,3997730,394.689,34.04,96673.3,1.14864
234109562,234091932,3997730,394.3,34.04,96677.8,1.14869
234330579,234307958,3997730,394.472,34.04,96675.8,1.14867
234542227,234521469,3997730,394.02,34.04,96681.0,1.14873
234712647,234694922,3997730,394.625,34.03,96674.0,1.14865
234933881,234911095,3997730,394.625,34.04,96674.0,1.14865
235145114,235124830,3997730,394.604,34.03,96674.3,1.14865
235305794,235285680,3997730,394.366,34.04,96677.0,1.14868
235516919,235499309,3997730,394.321,34.04,96677.5,1.14869
235737926,235715304,3997730,394.538,34.04,96675.0,1.14866
235949380,235929203,3997730,394.604,34.04,96674.3,1.14865
236110142,236090010,3997730,394.408,34.04,96676.5,1.14868
236341355,236318717,3997730,394.3,34.04,96677.8,1.14869
236502218,236479468,3997730,394.321,34.04,96677.5,1.14869
236713460,236693067,3997730,394.192,34.04,96679.0,1.14871
236924403,236906692,3997730,394.43,34.03,96676.2,1.14867
237145495,237122769,3997730,394.408,34.04,96676.5,1.14868
237306320,237283635,3997730,394.387,34.04,96676.7,1.14868
237517568,237497337,3997730,394.559,34.04,96674.8,1.14866
237728720,237711074,3997730,394.43,34.04,96676.3,1.14867
237950027,237927310,3997730,394.604,34.04,96674.3,1.14865
238110868,238088181,3997730,394.43,34.05,96676.3,1.14867
238322046,238301915,3997730,394.496,34.04,96675.5,1.14866
238533210,238515584,3997730,394.604,34.04,96674.3,1.14865
238694469,238676475,3997730,394.472,34.04,96675.8,1.14867
238915154,238892467,3997730,394.3,34.04,96677.8,1.14869
239126415,239106281,3997730,394.472,34.04,96675.8,1.14867
