timestamp,time_utc_usec,lat,lon,alt,alt_ellipsoid,s_variance_m_s,c_variance_rad,eph,epv,hdop,vdop,noise_per_ms,jamming_indicator,vel_m_s,vel_n_m_s,vel_e_m_s,vel_d_m_s,cog_rad,timestamp_time_relative,heading,heading_offset,fix_type,vel_ned_valid,satellites_used
40592075,1600844748999801,340348623,1087565147,422404,394488,0.183,0.715615,0.843,1.106,0.58,0.88,118,6,0.064,-0.058,-0.027,-0.019,0.17135,0,nan,0.0,3,1,19
40792064,1600844749199800,340348622,1087565145,422365,394450,0.19,0.715622,0.841,1.103,0.58,0.88,118,6,0.03,0.012,0.027,-0.025,0.17135,0,nan,0.0,3,1,19
41589937,1600844749999801,340348620,1087565143,422284,394369,0.177,0.71565,0.831,1.092,0.58,0.88,118,7,0.053,0.044,0.028,-0.012,0.17135,0,nan,0.0,3,1,19
42590962,1600844750999800,340348617,1087565137,422156,394241,0.212,0.71569,0.82,1.079,0.55,0.87,118,5,0.02,-0.014,0.014,-0.053,0.17135,0,nan,0.0,3,1,20
43590208,1600844751999800,340348615,1087565130,422025,394110,0.184,0.715726,0.809,1.067,0.58,0.88,118,6,0.055,-0.049,-0.027,-0.001,0.17135,0,nan,0.0,3,1,19
44589978,1600844752999800,340348612,1087565126,421969,394054,0.188,0.715764,0.8,1.055,0.58,0.88,118,6,0.047,-0.021,-0.042,0.032,0.17135,0,nan,0.0,3,1,19
45600946,1600844753999799,340348610,1087565122,421938,394023,0.204,0.715804,0.792,1.045,0.58,0.88,118,6,0.012,-0.008,-0.009,0.02,0.17135,0,nan,0.0,3,1,19
46588933,1600844754999799,340348609,1087565120,421930,394015,0.219,0.715843,0.786,1.036,0.55,0.87,118,7,0.008,0.004,0.007,0.014,0.17135,0,nan,0.0,3,1,20
47591952,1600844755999798,340348607,1087565119,422026,394111,0.193,0.715881,0.779,1.025,0.55,0.87,110,7,0.09,0.09,-0.008,-0.212,0.17135,0,nan,0.0,3,1,20
48592044,1600844756999798,340348638,1087565116,422332,394417,0.151,0.259071,0.769,1.009,0.55,0.87,110,6,0.44,0.44,-0.016,-0.208,6.19743,0,nan,0.0,3,1,20
49590285,1600844757999798,340348699,1087565106,422812,394896,0.154,0.133309,0.761,0.997,0.55,0.87,110,11,0.927,0.919,-0.123,-0.492,6.15007,0,nan,0.0,3,1,20
50600397,1600844758999797,340348769,1087565103,423085,395170,0.155,0.171102,0.754,0.987,0.55,0.87,110,6,0.736,0.734,-0.052,0.029,6.2454,0,nan,0.0,3,1,20
51604034,1600844759999797,340348836,1087565111,423134,395219,0.152,0.177394,0.747,0.976,0.55,0.87,110,7,0.709,0.701,-0.104,-0.095,6.26769,0,nan,0.0,3,1,20
52591083,1600844760999796,340348906,1087565107,423360,395445,0.131,0.197031,0.737,0.963,0.55,0.87,110,6,0.641,0.617,-0.174,-0.262,6.15284,0,nan,0.0,3,1,20
53590933,1600844761999796,340348964,1087565113,423392,395477,0.136,0.260294,0.723,0.95,0.55,0.87,111,6,0.537,0.521,-0.129,0.046,6.19934,0,nan,0.0,3,1,20
54589023,1600844762999796,340349010,1087565111,423371,395456,0.173,0.225008,0.715,0.943,0.55,0.87,111,6,0.612,0.61,-0.04,0.142,6.23083,0,nan,0.0,3,1,20
55590938,1600844763999795,340349088,1087565104,423373,395457,0.145,0.146288,0.709,0.937,0.55,0.87,110,8,0.799,0.794,-0.083,0.047,6.16526,0,nan,0.0,3,1,20
56589104,1600844764999795,340349147,1087565125,423421,395506,0.142,0.156151,0.699,0.927,0.55,0.87,110,8,0.665,0.62,0.24,-0.078,0.363011,0,nan,0.0,3,1,20
57604023,1600844765999794,340349235,1087565143,423291,395376,0.162,0.0819411,0.689,0.916,0.55,0.87,110,9,1.279,1.272,0.135,0.184,0.14468,0,nan,0.0,3,1,20
58579938,1600844766999794,340349341,1087565152,422992,395077,0.171,0.119817,0.684,0.91,0.55,0.87,110,12,1.028,0.99,0.277,0.097,0.179302,0,nan,0.0,3,1,20
59589088,1600844767999794,340349426,1087565175,422812,394896,0.158,0.0972131,0.679,0.903,0.54,0.85,110,10,1.156,1.15,0.118,0.13,0.146343,0,nan,0.0,3,1,21
60586248,1600844768999793,340349537,1087565174,422972,395057,0.143,0.0999615,0.674,0.898,0.57,0.96,110,7,1.212,1.207,-0.111,-0.195,6.2203,0,nan,0.0,3,1,20
61588939,1600844769999793,340349633,1087565172,423217,395302,0.185,0.150704,0.679,0.903,0.54,0.85,86,3,0.929,0.928,-0.042,-0.059,6.24866,0,nan,0.0,3,1,21
62590082,1600844770999792,340349721,1087565173,423258,395342,0.169,0.12778,0.675,0.898,0.54,0.85,86,3,0.864,0.839,0.206,0.224,0.129007,0,nan,0.0,3,1,21
63598938,1600844771999792,340349802,1087565190,423162,395247,0.201,0.157995,0.673,0.895,0.54,0.85,86,3,0.982,0.982,-0.003,0.375,0.06806,0,nan,0.0,3,1,21
64576845,1600844772999792,340349904,1087565190,422944,395029,0.21,0.105528,0.67,0.892,0.57,0.96,86,3,1.372,1.37,-0.056,0.229,6.24239,0,nan,0.0,3,1,20
65589937,1600844773999791,340350015,1087565189,423104,395188,0.18,0.134958,0.67,0.891,0.6,0.99,86,2,1.057,1.056,-0.038,-0.777,0.0158298,0,nan,0.0,3,1,19
66584975,1600844774999791,340350109,1087565183,424050,396134,0.19,0.138664,0.669,0.89,0.6,0.99,86,2,1.047,1.039,0.129,-1.079,6.2555,0,nan,0.0,3,1,19
67586205,1600844775999790,340350184,1087565211,424706,396791,0.168,0.202135,0.665,0.887,0.57,0.96,86,3,0.605,0.541,0.271,-0.286,0.341977,0,nan,0.0,3,1,20
68584317,1600844776999790,340350243,1087565225,424763,396847,0.205,0.145338,0.661,0.882,0.57,0.96,86,3,0.827,0.827,0.021,0.306,0.0920851,0,nan,0.0,3,1,20
69600032,1600844777999790,340350331,1087565227,424232,396317,0.209,0.115566,0.657,0.879,0.54,0.85,86,3,0.998,0.991,0.117,0.952,0.038666,0,nan,0.0,3,1,21
70587105,1600844778999789,340350403,1087565248,423574,395658,0.171,0.180188,0.653,0.875,0.54,0.85,87,3,0.594,0.53,0.268,0.278,0.362936,0,nan,0.0,3,1,21
71579940,1600844779999789,340350480,1087565273,423610,395695,0.144,0.127853,0.649,0.871,0.57,0.96,87,3,0.917,0.911,0.103,-0.23,0.167247,0,nan,0.0,3,1,20
72584019,1600844780999788,340350567,1087565281,423834,395919,0.143,0.154394,0.65,0.873,0.57,0.96,92,3,0.914,0.913,0.044,0.002,0.0402215,0,nan,0.0,3,1,20
73589955,1600844781999788,340350645,1087565302,423672,395757,0.196,0.213307,0.649,0.877,0.57,0.96,92,3,0.648,0.647,0.042,0.398,0.193617,0,nan,0.0,3,1,20
74588191,1600844782999788,340350714,1087565313,423335,395419,0.21,0.25337,0.648,0.878,0.57,0.96,92,2,0.579,0.579,0.001,0.333,0.100302,0,nan,0.0,3,1,20
75599059,1600844783999787,340350767,1087565306,422956,395041,0.176,0.175569,0.649,0.88,0.57,0.96,92,3,0.84,0.84,-0.016,0.129,6.24481,0,nan,0.0,3,1,20
76586939,1600844784999787,340350819,1087565323,423210,395295,0.165,0.260392,0.651,0.884,0.57,0.96,92,2,0.48,0.474,0.076,-0.447,0.236449,0,nan,0.0,3,1,20
77599937,1600844785999786,340350866,1087565310,423535,395620,0.174,0.393243,0.653,0.887,0.57,0.96,92,3,0.36,0.356,-0.053,-0.121,6.07303,0,nan,0.0,3,1,20
78593848,1600844786999786,340350895,1087565315,423388,395473,0.235,0.419597,0.659,0.891,0.57,0.96,99,3,0.31,0.251,0.182,0.525,0.43136,0,nan,0.0,3,1,20
79591994,1600844787999786,340350930,1087565327,423120,395204,0.173,0.155926,0.662,0.894,0.57,0.96,99,3,0.878,0.863,0.159,0.108,0.157741,0,nan,0.0,4,1,20
80597956,1600844788999785,340350964,1087565359,423459,395544,0.233,0.338149,0.665,0.901,0.57,0.96,99,3,0.526,-0.067,0.521,-0.707,1.58758,0,nan,0.0,4,1,20
81609645,1600844789999785,340350995,1087565374,424356,396440,0.2,0.326535,0.668,0.906,0.57,0.96,99,4,0.507,0.498,-0.096,-0.691,6.27083,0,nan,0.0,4,1,20
82590546,1600844790999784,340351037,1087565354,424764,396849,0.171,0.390561,0.672,0.911,0.57,0.96,99,3,0.424,0.401,-0.137,-0.086,5.9957,0,nan,0.0,4,1,20
83601266,1600844791999784,340351091,1087565318,424666,396750,0.16,0.240696,0.674,0.913,0.57,0.96,98,3,0.742,0.632,-0.388,0.078,5.75843,0,nan,0.0,4,1,20
84591937,1600844792999784,340351151,1087565272,424612,396696,0.163,0.289677,0.674,0.921,0.57,0.96,98,2,0.716,0.463,-0.546,0.166,5.54876,0,nan,0.0,4,1,20
85590935,1600844793999783,340351179,1087565256,424696,396780,0.219,0.600202,0.676,0.93,0.57,0.96,98,2,0.088,-0.085,0.021,-0.058,5.51649,0,nan,0.0,4,1,20
86586067,1600844794999783,340351161,1087565235,424711,396795,0.199,0.194111,0.678,0.94,0.57,0.96,98,3,0.739,-0.547,-0.498,-0.102,3.89312,0,nan,0.0,4,1,20
87610353,1600844795999782,340351112,1087565185,424885,396969,0.206,0.138508,0.679,0.942,0.57,0.96,98,3,0.955,-0.866,-0.404,-0.264,3.62459,0,nan,0.0,4,1,20
88587945,1600844796999782,340351039,1087565182,424988,397073,0.179,0.210344,0.679,0.941,0.54,0.85,98,4,0.772,-0.771,0.033,0.174,3.10519,0,nan,0.0,4,1,21
89591936,1600844797999782,340350962,1087565167,424387,396472,0.192,0.113594,0.678,0.939,0.54,0.85,98,8,1.048,-1.025,-0.218,0.807,3.35985,0,nan,0.0,4,1,21
90585938,1600844798999781,340350885,1087565160,424032,396117,0.172,0.209794,0.677,0.939,0.57,0.96,98,7,0.689,-0.684,0.085,0.049,3.13402,0,nan,0.0,4,1,20
91588941,1600844799999781,340350838,1087565157,424334,396419,0.216,0.254726,0.676,0.938,0.54,0.85,98,7,0.524,-0.508,-0.127,-0.616,3.31246,0,nan,0.0,4,1,21
92590475,1600844800999780,340350800,1087565123,424443,396527,0.134,0.283696,0.674,0.938,0.54,0.85,98,3,0.513,-0.45,-0.247,0.133,3.69098,0,nan,0.0,4,1,21
93600022,1600844801999780,340350752,1087565099,424281,396365,0.155,0.275422,0.671,0.94,0.54,0.85,98,4,0.507,-0.495,-0.109,-0.13,3.43146,0,nan,0.0,4,1,21
94583937,1600844802999780,340350713,1087565075,424388,396472,0.204,0.302914,0.67,0.941,0.54,0.85,98,3,0.47,-0.381,-0.276,0.331,3.69498,0,nan,0.0,4,1,21
95599179,1600844803999779,340350679,1087565045,424173,396258,0.218,0.233991,0.668,0.941,0.54,0.85,98,3,0.619,-0.462,-0.412,0.006,3.77699,0,nan,0.0,4,1,21
96587948,1600844804999779,340350632,1087565000,424546,396630,0.226,0.158675,0.668,0.942,0.54,0.85,98,3,0.846,-0.614,-0.582,-0.613,3.85191,0,nan,0.0,4,1,21
97589030,1600844805999778,340350577,1087564930,424629,396713,0.174,0.171501,0.666,0.94,0.54,0.85,98,3,0.818,-0.459,-0.678,0.373,3.9775,0,nan,0.0,4,1,21
98588938,1600844806999778,340350543,1087564853,424340,396425,0.157,0.220584,0.665,0.94,0.57,0.96,98,3,0.681,-0.268,-0.625,0.085,4.23403,0,nan,0.0,4,1,20
99599971,1600844807999778,340350519,1087564766,424332,396416,0.157,0.170143,0.665,0.943,0.57,0.96,98,3,0.905,-0.344,-0.837,-0.137,4.35393,0,nan,0.0,4,1,20
100585956,1600844808999777,340350487,1087564688,424753,396838,0.163,0.180928,0.664,0.945,0.59,0.99,98,2,0.84,-0.456,-0.706,-0.195,4.19559,0,nan,0.0,4,1,19
101598942,1600844809999777,340350469,1087564610,425315,397399,0.156,0.304115,0.664,0.948,0.57,0.96,98,3,0.526,0.07,-0.521,-0.277,4.61943,0,nan,0.0,4,1,20
102586151,1600844810999776,340350479,1087564544,425376,397461,0.165,0.187613,0.662,0.948,0.57,0.96,98,2,0.812,-0.067,-0.809,0.246,4.68072,0,nan,0.0,4,1,20
103589973,1600844811999776,340350467,1087564467,425035,397119,0.217,0.254736,0.662,0.95,0.57,0.96,98,2,0.624,-0.274,-0.561,0.31,4.37545,0,nan,0.0,4,1,20
104587556,1600844812999776,340350454,1087564415,424817,396902,0.168,0.314548,0.663,0.951,0.57,0.96,98,3,0.47,0.073,-0.464,0.168,4.62968,0,nan,0.0,4,1,20
105599571,1600844813999775,340350475,1087564376,424730,396814,0.131,0.253162,0.66,0.948,0.57,0.96,98,3,0.529,0.232,-0.475,-0.028,5.20281,0,nan,0.0,4,1,20
106586934,1600844814999775,340350489,1087564296,424858,396942,0.139,0.179957,0.656,0.946,0.57,0.96,98,2,0.839,0.112,-0.832,-0.238,4.84528,0,nan,0.0,4,1,20
107587336,1600844815999774,340350507,1087564244,424803,396888,0.135,0.372246,0.656,0.942,0.57,0.96,98,3,0.504,0.243,-0.442,0.131,5.20065,0,nan,0.0,4,1,20
108583170,1600844816999774,340350523,1087564178,424495,396579,0.152,0.211825,0.658,0.94,0.57,0.96,98,3,0.791,0.122,-0.782,0.111,4.93091,0,nan,0.0,4,1,20
109586938,1600844817999774,340350530,1087564117,424350,396435,0.135,0.57002,0.662,0.942,0.57,0.96,98,3,0.328,0.092,-0.315,-0.045,4.89682,0,nan,0.0,4,1,20
110600017,1600844818999773,340350548,1087564094,424484,396569,0.185,0.564861,0.666,0.947,0.57,0.96,98,3,0.369,0.313,-0.196,-0.35,5.55857,0,nan,0.0,4,1,20
111608942,1600844819999773,340350581,1087564032,424609,396694,0.158,0.285123,0.668,0.946,0.57,0.96,109,3,0.838,0.456,-0.703,0.112,5.26588,0,nan,0.0,4,1,20
112589059,1600844820999772,340350611,1087563978,424400,396484,0.207,0.300805,0.67,0.943,0.57,0.96,109,2,0.536,0.347,-0.408,0.453,5.39804,0,nan,0.0,4,1,20
113601315,1600844821999772,340350636,1087563940,424117,396201,0.167,0.585438,0.672,0.941,0.57,0.96,109,2,0.174,0.106,-0.138,0.057,5.38526,0,nan,0.0,4,1,20
114593968,1600844822999772,340350669,1087563897,424288,396373,0.164,0.329446,0.674,0.937,0.57,0.96,109,3,0.643,0.449,-0.46,-0.532,5.52756,0,nan,0.0,4,1,20
115601012,1600844823999771,340350715,1087563845,424674,396758,0.116,0.383076,0.677,0.937,0.57,0.96,108,3,0.489,0.304,-0.383,-0.055,5.45319,0,nan,0.0,4,1,20
116588122,1600844824999771,340350725,1087563828,424530,396614,0.21,0.689027,0.678,0.934,0.6,0.99,108,10,0.185,0.091,0.161,0.256,5.20839,0,nan,0.0,4,1,19
117611990,1600844825999770,340350755,1087563825,424201,396286,0.203,0.201096,0.679,0.932,0.6,0.99,108,5,0.847,0.796,-0.289,0.295,5.99798,0,nan,0.0,4,1,19
118598327,1600844826999770,340350798,1087563796,424228,396313,0.179,0.483168,0.681,0.929,0.57,0.96,108,4,0.289,0.289,-0.006,-0.22,5.93995,0,nan,0.0,4,1,20
119601006,1600844827999770,340350824,1087563800,424626,396710,0.238,0.723144,0.683,0.928,0.57,0.96,108,4,0.245,0.171,0.175,-0.477,0.421502,0,nan,0.0,4,1,20
120588054,1600844828999769,340350841,1087563816,424823,396908,0.221,0.741131,0.684,0.926,0.57,0.96,108,8,0.142,0.137,-0.039,0.106,0.618513,0,nan,0.0,4,1,20
121599493,1600844829999769,340350858,1087563795,424478,396562,0.232,0.560215,0.683,0.925,0.57,0.96,108,6,0.126,0.061,0.11,0.557,5.1893,0,nan,0.0,4,1,20
122592378,1600844830999768,340350867,1087563794,423935,396019,0.231,0.544257,0.684,0.925,0.63,1.02,108,5,0.315,0.296,-0.108,0.469,5.8173,0,nan,0.0,4,1,18
123607044,1600844831999768,340350917,1087563772,423715,395799,0.141,0.274817,0.69,0.931,0.6,0.99,108,3,0.632,0.592,-0.221,-0.182,5.9299,0,nan,0.0,4,1,19
124589938,1600844832999768,340350965,1087563778,424304,396388,0.176,0.25766,0.691,0.931,0.57,0.96,108,3,0.456,0.422,0.173,-0.204,0.206904,0,nan,0.0,4,1,20
125599074,1600844833999767,340351007,1087563800,424482,396567,0.193,0.289688,0.689,0.927,0.57,0.96,108,3,0.449,0.372,0.252,0.097,0.528869,0,nan,0.0,4,1,20
126591956,1600844834999767,340351056,1087563785,424225,396309,0.185,0.25765,0.688,0.924,0.57,0.96,108,2,0.688,0.546,-0.418,0.414,5.79958,0,nan,0.0,4,1,20
127598939,1600844835999766,340351084,1087563758,423884,395969,0.26,0.512086,0.689,0.924,0.57,0.96,108,3,0.291,0.269,0.112,0.313,5.90634,0,nan,0.0,4,1,20
128589938,1600844836999766,340351123,1087563770,423886,395971,0.164,0.168575,0.69,0.928,0.57,0.96,108,3,0.901,0.901,0.005,-0.114,0.058227,0,nan,0.0,4,1,20
129602997,1600844837999766,340351219,1087563752,424260,396344,0.17,0.156305,0.691,0.928,0.57,0.96,107,4,1.074,1.047,-0.236,-0.705,6.09581,0,nan,0.0,4,1,20
130592939,1600844838999765,340351334,1087563746,424923,397007,0.221,0.184337,0.691,0.934,0.57,0.96,107,3,1.261,1.243,-0.21,-0.536,6.18594,0,nan,0.0,4,1,20
131605940,1600844839999765,340351414,1087563765,424884,396969,0.229,0.266684,0.695,0.945,0.57,0.96,100,3,0.552,0.552,0.002,0.426,0.231931,0,nan,0.0,4,1,20
132597982,1600844840999764,340351439,1087563776,424490,396575,0.221,0.669774,0.691,0.947,0.57,0.96,100,5,0.246,-0.231,0.083,0.548,0.852196,0,nan,0.0,4,1,20
133605939,1600844841999764,340351391,1087563778,424602,396686,0.217,0.220503,0.687,0.945,0.57,0.96,100,6,0.548,-0.516,-0.183,-0.712,3.32402,0,nan,0.0,4,1,20
134594408,1600844842999763,340351342,1087563750,425618,397702,0.217,0.124149,0.685,0.943,0.57,0.96,100,13,0.919,-0.704,-0.591,-0.787,3.75159,0,nan,0.0,4,1,20
135614147,1600844843999763,340351275,1087563683,425477,397561,0.174,0.117876,0.683,0.942,0.57,0.96,100,3,1.008,-0.759,-0.663,0.608,3.83252,0,nan,0.0,4,1,20
136594825,1600844844999763,340351212,1087563624,425020,397104,0.185,0.181429,0.682,0.938,0.54,0.85,100,3,0.772,-0.674,-0.376,0.373,3.69141,0,nan,0.0,4,1,21
137607948,1600844845999762,340351165,1087563612,424674,396758,0.159,0.29276,0.68,0.935,0.54,0.85,100,2,0.504,-0.499,0.065,0.196,3.13671,0,nan,0.0,4,1,21
138598939,1600844846999762,340351117,1087563633,424565,396649,0.147,0.355925,0.68,0.93,0.54,0.85,100,4,0.579,-0.461,0.35,-0.01,2.65688,0,nan,0.0,4,1,21
139600998,1600844847999761,340351062,1087563643,424605,396689,0.202,0.164504,0.681,0.925,0.54,0.85,100,3,0.782,-0.771,-0.13,0.006,3.20112,0,nan,0.0,4,1,21
140604988,1600844848999761,340350977,1087563616,424312,396397,0.185,0.134047,0.68,0.92,0.54,0.85,100,3,0.892,-0.834,-0.317,0.676,3.4609,0,nan,0.0,4,1,21
141608943,1600844849999761,340350900,1087563616,424193,396277,0.15,0.18969,0.678,0.917,0.54,0.85,108,4,0.907,-0.809,0.41,-0.141,2.85881,0,nan,0.0,4,1,21
142591938,1600844850999760,340350829,1087563644,424372,396456,0.17,0.18022,0.678,0.914,0.54,0.85,108,3,0.99,-0.951,0.275,0.055,2.84829,0,nan,0.0,4,1,21
143597944,1600844851999760,340350736,1087563648,423964,396048,0.211,0.143326,0.68,0.913,0.54,0.85,108,3,1.076,-1.052,-0.226,0.284,3.25329,0,nan,0.0,4,1,21
144591887,1600844852999759,340350652,1087563621,424019,396104,0.214,0.161961,0.685,0.916,0.54,0.85,108,4,0.792,-0.758,-0.229,-0.188,3.39635,0,nan,0.0,4,1,21
145598995,1600844853999759,340350579,1087563601,424326,396410,0.203,0.156045,0.685,0.916,0.54,0.85,108,3,0.994,-0.968,-0.225,-0.095,3.35859,0,nan,0.0,4,1,21
146594531,1600844854999759,340350505,1087563588,424138,396222,0.182,0.235035,0.686,0.916,0.54,0.85,108,4,0.628,-0.628,-0.008,0.416,3.24175,0,nan,0.0,4,1,21
147606987,1600844855999758,340350456,1087563595,423904,395988,0.151,0.384554,0.687,0.917,0.57,0.96,108,3,0.494,-0.365,0.333,-0.068,2.71339,0,nan,0.0,4,1,20
148592073,1600844856999758,340350386,1087563617,423939,396023,0.202,0.129392,0.686,0.913,0.54,0.85,108,3,1.218,-1.212,0.119,-0.137,2.99885,0,nan,0.0,4,1,21
149598978,1600844857999757,340350285,1087563580,424160,396244,0.215,0.110102,0.689,0.915,0.57,0.96,108,4,1.249,-1.009,-0.735,-0.357,3.67544,0,nan,0.0,4,1,20
150590113,1600844858999757,340350202,1087563516,424484,396568,0.212,0.112643,0.689,0.914,0.54,0.85,107,3,1.063,-0.923,-0.527,-0.238,3.6678,0,nan,0.0,4,1,21
151600206,1600844859999756,340350134,1087563522,424806,396890,0.181,0.282611,0.688,0.913,0.54,0.85,107,7,0.828,-0.577,0.593,-0.227,2.75697,0,nan,0.0,4,1,21
152595147,1600844860999756,340350063,1087563551,424392,396476,0.192,0.160151,0.692,0.918,0.54,0.85,107,8,0.998,-0.996,0.052,0.799,3.01751,0,nan,0.0,4,1,21
153607938,1600844861999756,340349987,1087563561,423548,395632,0.18,0.209699,0.693,0.918,0.54,0.85,107,7,0.905,-0.894,0.141,0.604,2.98051,0,nan,0.0,4,1,21
154596055,1600844862999755,340349916,1087563564,423685,395769,0.235,0.218146,0.694,0.919,0.54,0.85,107,3,0.733,-0.729,-0.079,-0.515,3.17523,0,nan,0.0,4,1,21
155599010,1600844863999755,340349831,1087563556,424546,396630,0.221,0.158669,0.694,0.917,0.54,0.85,107,3,0.909,-0.909,-0.02,-0.637,3.17347,0,nan,0.0,4,1,21
156590935,1600844864999754,340349746,1087563540,424806,396890,0.204,0.154567,0.693,0.914,0.54,0.85,107,3,0.923,-0.914,-0.126,-0.095,3.28094,0,nan,0.0,4,1,21
157597940,1600844865999754,340349677,1087563529,424418,396502,0.191,0.186191,0.694,0.912,0.54,0.85,107,4,0.736,-0.735,0.018,0.521,3.16497,0,nan,0.0,4,1,21
158592935,1600844866999754,340349588,1087563509,424087,396172,0.195,0.139304,0.696,0.913,0.54,0.85,107,4,1.133,-1.118,-0.187,-0.051,3.29277,0,nan,0.0,4,1,21
159608934,1600844867999753,340349502,1087563478,424491,396575,0.221,0.141617,0.696,0.912,0.54,0.85,107,3,0.929,-0.926,-0.067,-0.591,3.33004,0,nan,0.0,4,1,21
160599938,1600844868999753,340349438,1087563481,424684,396769,0.185,0.214358,0.696,0.909,0.54,0.85,107,3,0.706,-0.698,0.1,0.005,3.01407,0,nan,0.0,4,1,21
161589175,1600844869999752,340349361,1087563470,424212,396297,0.21,0.143504,0.696,0.904,0.54,0.85,107,4,0.956,-0.941,-0.171,0.794,3.31603,0,nan,0.0,4,1,21
162593944,1600844870999752,340349303,1087563460,423604,395688,0.191,0.211888,0.695,0.899,0.54,0.85,107,3,0.621,-0.616,-0.076,0.2,3.25519,0,nan,0.0,4,1,21
163596942,1600844871999752,340349239,1087563446,423867,395951,0.241,0.260414,0.695,0.896,0.54,0.85,107,3,0.697,-0.697,-0.017,-0.492,3.29698,0,nan,0.0,4,1,21
164593014,1600844872999751,340349164,1087563436,424090,396175,0.21,0.163608,0.697,0.896,0.54,0.85,107,3,0.947,-0.947,-0.033,-0.062,3.21863,0,nan,0.0,4,1,21
165602942,1600844873999751,340349101,1087563443,423879,395963,0.196,0.302637,0.697,0.892,0.54,0.85,107,3,0.58,-0.579,0.032,0.059,3.06149,0,nan,0.0,4,1,21
166595941,1600844874999750,340349028,1087563434,423780,395865,0.224,0.197799,0.701,0.895,0.56,0.87,107,3,0.818,-0.817,-0.043,-0.04,3.20473,0,nan,0.0,4,1,20
167607945,1600844875999750,340348969,1087563431,423966,396050,0.216,0.175009,0.703,0.897,0.54,0.85,97,4,0.785,-0.78,-0.093,-0.405,3.2269,0,nan,0.0,4,1,21
168598936,1600844876999749,340348899,1087563411,424409,396493,0.209,0.158339,0.702,0.895,0.54,0.85,97,4,0.85,-0.832,-0.177,-0.646,3.35632,0,nan,0.0,4,1,21
169603974,1600844877999749,340348875,1087563379,424954,397038,0.181,0.650127,0.702,0.89,0.54,0.85,97,3,0.268,-0.051,-0.263,0.08,4.34913,0,nan,0.0,4,1,21
170603037,1600844878999749,340348870,1087563362,424735,396819,0.197,0.378707,0.701,0.888,0.54,0.85,97,4,0.253,-0.179,0.179,0.261,4.46486,0,nan,0.0,4,1,21
171618035,1600844879999748,340348841,1087563375,424143,396227,0.187,0.259066,0.701,0.883,0.54,0.85,97,3,0.659,-0.611,0.245,0.594,2.79052,0,nan,0.0,4,1,21
172587079,1600844880999748,340348787,1087563394,423760,395845,0.159,0.350546,0.704,0.884,0.56,0.87,97,3,0.559,-0.465,0.31,0.214,2.65571,0,nan,0.0,4,1,20
173604558,1600844881999747,340348744,1087563407,423615,395700,0.197,0.403464,0.704,0.886,0.54,0.85,97,5,0.356,-0.347,-0.079,0.113,3.10846,0,nan,0.0,4,1,21
174599027,1600844882999747,340348722,1087563403,423471,395556,0.169,0.709654,0.7,0.886,0.54,0.85,97,3,0.218,-0.17,0.137,0.171,3.25863,0,nan,0.0,4,1,21
175602943,1600844883999747,340348728,1087563423,423544,395628,0.172,0.409678,0.696,0.886,0.54,0.85,97,3,0.327,0.211,0.25,-0.156,1.06807,0,nan,0.0,4,1,21
176590936,1600844884999746,340348752,1087563437,423725,395810,0.176,0.398616,0.694,0.886,0.54,0.85,97,3,0.391,0.39,-0.012,-0.052,0.153649,0,nan,0.0,4,1,21
177606050,1600844885999746,340348804,1087563425,423945,396030,0.17,0.189978,0.695,0.888,0.54,0.85,97,4,0.859,0.847,-0.144,-0.257,6.0527,0,nan,0.0,4,1,21
178590051,1600844886999745,340348870,1087563422,424229,396313,0.184,0.221017,0.696,0.886,0.54,0.85,97,2,0.695,0.695,-0.001,-0.47,0.0193634,0,nan,0.0,4,1,21
179597941,1600844887999745,340348909,1087563457,424138,396223,0.233,0.246307,0.699,0.885,0.54,0.85,97,3,0.492,0.401,0.284,0.445,0.708041,0,nan,0.0,4,1,21
180588938,1600844888999744,340348945,1087563478,423832,395916,0.169,0.385845,0.699,0.886,0.59,0.9,97,3,0.477,0.451,-0.156,0.049,0.176284,0,nan,0.0,4,1,19
181605992,1600844889999744,340348980,1087563444,423852,395936,0.136,0.512554,0.697,0.887,0.56,0.87,97,2,0.358,0.232,-0.273,-0.024,5.56217,0,nan,0.0,4,1,20
182589975,1600844890999744,340348982,1087563472,424026,396110,0.144,0.552542,0.697,0.888,0.56,0.87,97,3,0.336,-0.134,0.308,0.0,1.77645,0,nan,0.0,4,1,20
183608418,1600844891999743,340348969,1087563475,424178,396262,0.129,0.6142,0.699,0.889,0.56,0.87,97,3,0.177,0.101,-0.146,-0.085,2.45027,0,nan,0.0,4,1,20
184587466,1600844892999743,340348978,1087563453,424427,396511,0.169,0.390201,0.698,0.887,0.56,0.87,97,2,0.406,0.259,-0.313,-0.357,5.03883,0,nan,0.0,4,1,20
185597000,1600844893999742,340348997,1087563423,425174,397258,0.171,0.527709,0.689,0.881,0.56,0.87,97,2,0.285,0.215,-0.187,-0.488,5.32249,0,nan,0.0,4,1,20
186592060,1600844894999742,340348994,1087563416,425218,397303,0.147,0.161922,0.683,0.877,0.54,0.85,97,3,0.877,-0.83,0.283,0.625,2.89268,0,nan,0.0,4,1,21
187591951,1600844895999742,340348928,1087563471,424551,396636,0.158,0.251442,0.681,0.88,0.56,0.87,97,4,0.789,-0.438,0.656,0.136,2.43235,0,nan,0.0,4,1,20
188592943,1600844896999741,340348928,1087563482,424923,397007,0.178,0.196601,0.68,0.879,0.56,0.87,97,2,0.603,0.557,0.23,-0.447,0.611279,0,nan,0.0,4,1,20
189602965,1600844897999741,340348999,1087563516,424881,396965,0.214,0.265188,0.677,0.881,0.56,0.87,97,3,0.51,0.5,0.101,0.304,0.323976,0,nan,0.0,4,1,20
190588046,1600844898999740,340349065,1087563535,425064,397148,0.18,0.248137,0.676,0.882,0.56,0.87,97,3,0.606,0.586,0.156,-0.443,0.199466,0,nan,0.0,4,1,20
191595946,1600844899999740,340349091,1087563548,425616,397700,0.221,0.649672,0.671,0.881,0.56,0.87,97,3,0.243,-0.077,0.231,-0.582,0.915495,0,nan,0.0,4,1,20
192590073,1600844900999740,340349094,1087563595,425933,398018,0.154,0.199134,0.665,0.877,0.54,0.85,97,3,0.667,0.131,0.654,0.111,1.39182,0,nan,0.0,4,1,21
193596026,1600844901999739,340349101,1087563631,425488,397573,0.217,0.42903,0.66,0.875,0.54,0.85,97,3,0.13,-0.07,0.109,0.426,1.19743,0,nan,0.0,4,1,21
194590951,1600844902999739,340349116,1087563667,425728,397812,0.17,0.26595,0.656,0.873,0.54,0.85,97,3,0.55,0.189,0.517,-0.216,1.19595,0,nan,0.0,4,1,21
195602965,1600844903999738,340349131,1087563720,425565,397649,0.154,0.281537,0.652,0.87,0.54,0.85,97,4,0.555,0.277,0.481,0.0,1.2329,0,nan,0.0,4,1,21
196591033,1600844904999738,340349158,1087563771,425778,397862,0.225,0.330542,0.648,0.87,0.54,0.85,97,3,0.394,0.154,0.363,0.392,1.03862,0,nan,0.0,4,1,21
197598938,1600844905999737,340349187,1087563801,425972,398056,0.172,0.38833,0.646,0.871,0.54,0.85,97,3,0.342,0.279,0.197,-0.385,0.693739,0,nan,0.0,4,1,21
198592047,1600844906999737,340349231,1087563840,426019,398104,0.198,0.314617,0.642,0.869,0.54,0.85,97,3,0.414,0.327,0.254,0.477,0.666778,0,nan,0.0,4,1,21
199598060,1600844907999737,340349280,1087563872,425389,397474,0.174,0.20737,0.638,0.867,0.54,0.85,97,4,0.639,0.56,0.308,0.311,0.443252,0,nan,0.0,4,1,21
200587732,1600844908999736,340349331,1087563879,425862,397946,0.202,0.269664,0.635,0.867,0.54,0.85,97,3,0.496,0.491,-0.065,-0.96,6.20154,0,nan,0.0,4,1,21
201606157,1600844909999736,340349374,1087563886,426914,398998,0.203,0.324201,0.631,0.865,0.54,0.85,97,4,0.404,0.4,-0.056,-0.925,0.0762777,0,nan,0.0,4,1,21
202606177,1600844910999735,340349407,1087563874,427301,399386,0.136,0.364741,0.627,0.864,0.55,0.88,114,3,0.369,0.176,-0.324,-0.126,5.63916,0,nan,0.0,4,1,20
203606716,1600844911999735,340349427,1087563830,427089,399173,0.256,0.413871,0.627,0.869,0.54,0.85,114,3,0.383,0.253,-0.287,0.66,5.27724,0,nan,0.0,4,1,21
204597952,1600844912999735,340349435,1087563821,426236,398320,0.243,0.414159,0.627,0.875,0.54,0.85,114,3,0.109,0.109,-0.008,0.628,5.27724,0,nan,0.0,4,1,21
205593063,1600844913999734,340349416,1087563805,426451,398535,0.187,0.261509,0.628,0.879,0.54,0.85,106,3,0.529,-0.528,-0.015,-0.326,3.39167,0,nan,0.0,4,1,21
206592288,1600844914999734,340349381,1087563812,426819,398904,0.189,0.332393,0.624,0.878,0.54,0.85,106,3,0.416,-0.341,0.238,-0.311,2.67502,0,nan,0.0,4,1,21
207613941,1600844915999733,340349354,1087563818,426773,398858,0.192,0.448599,0.622,0.877,0.54,0.85,106,7,0.29,-0.261,-0.125,0.56,3.32284,0,nan,0.0,4,1,21
208594233,1600844916999733,340349352,1087563805,426435,398519,0.235,0.446844,0.618,0.875,0.54,0.85,106,10,0.313,0.311,0.033,0.344,5.41001,0,nan,0.0,4,1,21
209606479,1600844917999732,340349385,1087563862,426151,398236,0.167,0.145472,0.615,0.873,0.54,0.85,107,9,0.962,0.449,0.851,0.31,1.0541,0,nan,0.0,4,1,21
210597946,1600844918999732,340349414,1087563942,425974,398058,0.166,0.23885,0.615,0.875,0.54,0.85,106,3,0.576,0.303,0.49,0.105,1.09163,0,nan,0.0,4,1,21
211598945,1600844919999732,340349433,1087564001,425955,398039,0.152,0.254653,0.616,0.879,0.54,0.85,106,3,0.602,0.072,0.598,0.014,1.36162,0,nan,0.0,4,1,21
212595136,1600844920999731,340349418,1087564097,425755,397840,0.158,0.189473,0.618,0.885,0.54,0.85,106,3,1.003,-0.112,0.996,0.308,1.74358,0,nan,0.0,4,1,21
213605988,1600844921999731,340349411,1087564189,425580,397665,0.14,0.254376,0.621,0.887,0.54,0.85,106,3,0.605,-0.036,0.604,0.039,1.62844,0,nan,0.0,4,1,21
214590125,1600844922999730,340349407,1087564266,426010,398095,0.19,0.189124,0.623,0.89,0.57,0.96,106,3,0.821,-0.198,0.797,-0.681,1.80855,0,nan,0.0,4,1,20
215598950,1600844923999730,340349404,1087564340,426597,398682,0.19,0.391104,0.625,0.891,0.54,0.85,106,3,0.506,-0.091,0.498,-0.631,1.54452,0,nan,0.0,4,1,21
216590936,1600844924999730,340349382,1087564394,426573,398657,0.165,0.341565,0.626,0.891,0.54,0.85,106,3,0.53,-0.342,0.404,0.368,2.18132,0,nan,0.0,4,1,21
217595122,1600844925999729,340349362,1087564442,426262,398347,0.13,0.321782,0.627,0.892,0.54,0.85,106,2,0.512,-0.114,0.499,0.145,1.93762,0,nan,0.0,4,1,21
218589974,1600844926999729,340349356,1087564501,426147,398231,0.134,0.26082,0.628,0.89,0.54,0.85,106,3,0.647,-0.069,0.643,-0.128,1.67401,0,nan,0.0,4,1,21
219606873,1600844927999728,340349317,1087564581,426240,398325,0.174,0.174228,0.63,0.891,0.54,0.85,106,3,1.03,-0.755,0.7,-0.154,2.27224,0,nan,0.0,4,1,21
220588036,1600844928999728,340349256,1087564656,425888,397973,0.143,0.249219,0.634,0.892,0.54,0.85,106,3,0.766,-0.629,0.438,0.19,2.43261,0,nan,0.0,4,1,21
221598055,1600844929999727,340349218,1087564713,426080,398164,0.161,0.215241,0.635,0.888,0.54,0.85,99,3,0.806,-0.029,0.806,-0.56,1.91335,0,nan,0.0,4,1,21
222590936,1600844930999727,340349182,1087564779,426607,398692,0.189,0.290896,0.639,0.887,0.54,0.85,99,3,0.703,-0.565,0.419,-0.548,2.40096,0,nan,0.0,4,1,21
223597940,1600844931999727,340349125,1087564810,426334,398419,0.207,0.343723,0.643,0.888,0.54,0.85,99,3,0.506,-0.49,0.125,0.92,2.81572,0,nan,0.0,4,1,21
224593040,1600844932999726,340349074,1087564812,425580,397664,0.172,0.308238,0.645,0.885,0.54,0.85,99,4,0.528,-0.508,0.143,0.353,3.08955,0,nan,0.0,4,1,21
225604938,1600844933999726,340349037,1087564831,425391,397475,0.157,0.335288,0.647,0.883,0.54,0.85,99,3,0.569,-0.401,0.403,-0.179,2.52558,0,nan,0.0,4,1,21
226589384,1600844934999725,340349006,1087564870,425587,397672,0.173,0.306171,0.65,0.88,0.54,0.85,98,9,0.622,-0.515,0.348,-0.272,2.48112,0,nan,0.0,4,1,21
227598939,1600844935999725,340348956,1087564885,425362,397447,0.189,0.240633,0.652,0.876,0.54,0.85,98,9,0.696,-0.694,0.059,0.324,2.99027,0,nan,0.0,4,1,21
228593061,1600844936999725,340348905,1087564897,424968,397053,0.2,0.228791,0.656,0.877,0.54,0.85,98,8,0.581,-0.58,-0.033,0.54,3.13086,0,nan,0.0,4,1,21
229589937,1600844937999724,340348862,1087564916,424045,396130,0.237,0.710844,0.661,0.881,0.54,0.85,98,3,0.31,-0.248,0.185,0.557,2.54642,0,nan,0.0,4,1,21
230589044,1600844938999724,340348833,1087564948,423907,395992,0.175,0.387987,0.665,0.884,0.54,0.85,98,3,0.266,-0.199,0.176,-0.168,2.31229,0,nan,0.0,4,1,21
231610968,1600844939999723,340348779,1087564928,424221,396305,0.221,0.205881,0.672,0.889,0.56,0.87,107,3,0.643,-0.607,-0.21,-0.208,3.46064,0,nan,0.0,4,1,20
232592948,1600844940999723,340348758,1087564925,423934,396018,0.245,0.520573,0.674,0.886,0.56,0.87,107,4,0.053,-0.008,0.052,0.748,3.27779,0,nan,0.0,4,1,20
233600936,1600844941999723,340348762,1087564928,423426,395511,0.235,0.486802,0.675,0.883,0.56,0.87,107,4,0.109,0.109,0.007,0.371,1.88681,0,nan,0.0,4,1,20
234597934,1600844942999722,340348755,1087564927,423190,395274,0.217,0.764864,0.677,0.88,0.56,0.87,107,4,0.149,-0.121,-0.087,0.067,2.42899,0,nan,0.0,4,1,20
235600961,1600844943999722,340348739,1087564911,423065,395149,0.206,0.355485,0.678,0.876,0.54,0.85,107,4,0.336,-0.23,-0.245,0.119,3.89342,0,nan,0.0,4,1,21
236596961,1600844944999721,340348726,1087564893,423007,395091,0.155,0.693492,0.679,0.876,0.54,0.85,107,3,0.145,0.13,-0.064,0.003,3.42967,0,nan,0.0,4,1,21
237615052,1600844945999721,340348725,1087564885,423040,395124,0.183,0.693532,0.679,0.878,0.56,0.87,107,5,0.024,-0.011,-0.022,0.015,3.42967,0,nan,0.0,4,1,20
238595973,1600844946999720,340348724,1087564878,423102,395187,0.198,0.693568,0.677,0.875,0.54,0.85,107,3,0.065,0.065,0.0,-0.085,3.42967,0,nan,0.0,4,1,21
