timestamp,q[0],q[1],q[2],q[3],delta_q_reset[0],delta_q_reset[1],delta_q_reset[2],delta_q_reset[3],quat_reset_counter
40748151,0.999454,0.0130978,-0.0116586,0.0280099,0.996567,-3.02939e-09,8.11081e-09,-0.0827902,3
40753121,0.999456,0.0130485,-0.0115702,0.0280059,0.996567,-3.02939e-09,8.11081e-09,-0.0827902,3
40802788,0.999441,0.0130244,-0.011631,0.0285205,0.996567,-3.02939e-09,8.11081e-09,-0.0827902,3
40852461,0.999461,0.0131891,-0.0115904,0.0277294,0.996567,-3.02939e-09,8.11081e-09,-0.0827902,3
40902183,0.999446,0.0130957,-0.0115557,0.0283399,0.996567,-3.02939e-09,8.11081e-09,-0.0827902,3
40951814,0.999451,0.0129826,-0.0118173,0.0280968,0.996567,-3.02939e-09,8.11081e-09,-0.0827902,3
41001471,0.999463,0.013241,-0.0112903,0.0277689,0.996567,-3.02939e-09,8.11081e-09,-0.0827902,3
41051142,0.999439,0.0135306,-0.011448,0.028404,0.996567,-3.02939e-09,8.11081e-09,-0.0827902,3
41100813,0.999453,0.0130323,-0.0118929,0.0279646,0.996567,-3.02939e-09,8.11081e-09,-0.0827902,3
41150489,0.999464,0.0129219,-0.0117431,0.0277052,0.996567,-3.02939e-09,8.11081e-09,-0.0827902,3
41200342,0.999471,0.0131362,-0.0114053,0.0274736,0.996567,-3.02939e-09,8.11081e-09,-0.0827902,3
41254793,0.999474,0.0130453,-0.0114557,0.0273924,0.996567,-3.02939e-09,8.11081e-09,-0.0827902,3
41299496,0.999464,0.0130288,-0.0114683,0.0277662,0.996567,-3.02939e-09,8.11081e-09,-0.0827902,3
41349168,0.99946,0.0133071,-0.0114842,0.0277682,0.996567,-3.02939e-09,8.11081e-09,-0.0827902,3
41398839,0.999458,0.013462,-0.0117702,0.0276224,0.996567,-3.02939e-09,8.11081e-09,-0.0827902,3
41453583,0.999462,0.0134856,-0.0116886,0.0275117,0.996567,-3.02939e-09,8.11081e-09,-0.0827902,3
41503146,0.999467,0.0135483,-0.0119305,0.0271828,0.996567,-3.02939e-09,8.11081e-09,-0.0827902,3
41547907,0.999476,0.0128442,-0.0119314,0.0272057,0.996567,-3.02939e-09,8.11081e-09,-0.0827902,3
41602488,0.999477,0.0130041,-0.0120067,0.0270811,0.996567,-3.02939e-09,8.11081e-09,-0.0827902,3
41652159,0.999485,0.0126054,-0.011725,0.027085,0.996567,-3.02939e-09,8.11081e-09,-0.0827902,3
41701892,0.999493,0.0125012,-0.0112452,0.0270517,0.996567,-3.02939e-09,8.11081e-09,-0.0827902,3
41751501,0.999496,0.0127975,-0.010873,0.0269399,0.996567,-3.02939e-09,8.11081e-09,-0.0827902,3
41801173,0.999494,0.0130045,-0.0108496,0.0269374,0.996567,-3.02939e-09,8.11081e-09,-0.0827902,3
41850842,0.999495,0.0132324,-0.010659,0.0268482,0.996567,-3.02939e-09,8.11081e-09,-0.0827902,3
41900513,0.999496,0.0132333,-0.0106941,0.0268137,0.996567,-3.02939e-09,8.11081e-09,-0.0827902,3
41950184,0.999499,0.0131429,-0.0106272,0.0267708,0.996567,-3.02939e-09,8.11081e-09,-0.0827902,3
42000014,0.999505,0.0128488,-0.0106746,0.0266772,0.996567,-3.02939e-09,8.11081e-09,-0.0827902,3
42049525,0.999511,0.0124823,-0.010979,0.0264795,0.996567,-3.02939e-09,8.11081e-09,-0.0827902,3
42099200,0.999517,0.012123,-0.0113372,0.0262617,0.996567,-3.02939e-09,8.11081e-09,-0.0827902,3
42153834,0.999487,0.0133556,-0.0126733,0.0262072,0.996567,-3.02939e-09,8.11081e-09,-0.0827902,3
42198545,0.999484,0.0136618,-0.0129278,0.0260508,0.996567,-3.02939e-09,8.11081e-09,-0.0827902,3
42248323,0.999511,0.0128736,-0.0117875,0.0259377,0.996567,-3.02939e-09,8.11081e-09,-0.0827902,3
42302847,0.99951,0.0139066,-0.0120441,0.025305,0.996567,-3.02939e-09,8.11081e-09,-0.0827902,3
42352518,0.99949,0.0146059,-0.0117309,0.0258608,0.996567,-3.02939e-09,8.11081e-09,-0.0827902,3
42402193,0.999507,0.0135482,-0.0110627,0.0260714,0.996567,-3.02939e-09,8.11081e-09,-0.0827902,3
42451859,0.999516,0.013059,-0.0108265,0.0260617,0.996567,-3.02939e-09,8.11081e-09,-0.0827902,3
42501569,0.999521,0.0130034,-0.0113523,0.0256944,0.996567,-3.02939e-09,8.11081e-09,-0.0827902,3
42551202,0.999524,0.0129341,-0.0108474,0.0258093,0.996567,-3.02939e-09,8.11081e-09,-0.0827902,3
42600873,0.999513,0.0131976,-0.0112107,0.0259696,0.996567,-3.02939e-09,8.11081e-09,-0.0827902,3
42650543,0.999495,0.0135223,-0.0121188,0.0260921,0.996567,-3.02939e-09,8.11081e-09,-0.0827902,3
42700214,0.999523,0.0139087,-0.0107808,0.0253697,0.996567,-3.02939e-09,8.11081e-09,-0.0827902,3
42749884,0.999514,0.0133096,-0.0112672,0.0258517,0.996567,-3.02939e-09,8.11081e-09,-0.0827902,3
42799668,0.999516,0.0136543,-0.0110408,0.0256808,0.996567,-3.02939e-09,8.11081e-09,-0.0827902,3
42854191,0.999518,0.013312,-0.0112583,0.0257009,0.996567,-3.02939e-09,8.11081e-09,-0.0827902,3
42898898,0.999533,0.0132513,-0.0106247,0.0254042,0.996567,-3.02939e-09,8.11081e-09,-0.0827902,3
42948568,0.999518,0.0132378,-0.0112603,0.0257299,0.996567,-3.02939e-09,8.11081e-09,-0.0827902,3
43003206,0.999519,0.0132357,-0.0110244,0.0257996,0.996567,-3.02939e-09,8.11081e-09,-0.0827902,3
43052974,0.999529,0.0135684,-0.010772,0.0253524,0.996567,-3.02939e-09,8.11081e-09,-0.0827902,3
43102598,0.999521,0.0135833,-0.011204,0.0254478,0.996567,-3.02939e-09,8.11081e-09,-0.0827902,3
43147251,0.999521,0.0139146,-0.0105739,0.0255532,0.996567,-3.02939e-09,8.11081e-09,-0.0827902,3
43201889,0.999518,0.0132478,-0.0112317,0.025744,0.996567,-3.02939e-09,8.11081e-09,-0.0827902,3
43251560,0.999529,0.0130755,-0.0106719,0.0256297,0.996567,-3.02939e-09,8.11081e-09,-0.0827902,3
43301288,0.99952,0.0136726,-0.0108595,0.0255944,0.996567,-3.02939e-09,8.11081e-09,-0.0827902,3
43351081,0.999529,0.0130582,-0.0104806,0.0257259,0.996567,-3.02939e-09,8.11081e-09,-0.0827902,3
43400572,0.999505,0.0138517,-0.0109804,0.0260415,0.996567,-3.02939e-09,8.11081e-09,-0.0827902,3
43450289,0.999526,0.0130291,-0.0103522,0.0259148,0.996567,-3.02939e-09,8.11081e-09,-0.0827902,3
43499914,0.999503,0.0134614,-0.0112529,0.0261842,0.996567,-3.02939e-09,8.11081e-09,-0.0827902,3
43549585,0.999521,0.013273,-0.010783,0.0257812,0.996567,-3.02939e-09,8.11081e-09,-0.0827902,3
43599340,0.999527,0.0130714,-0.0102077,0.0258923,0.996567,-3.02939e-09,8.11081e-09,-0.0827902,3
43648927,0.999537,0.0121674,-0.0100268,0.0260098,0.996567,-3.02939e-09,8.11081e-09,-0.0827902,3
43703565,0.999495,0.0143879,-0.0117287,0.0257993,0.996567,-3.02939e-09,8.11081e-09,-0.0827902,3
43753235,0.999502,0.0146414,-0.0114883,0.0254923,0.996567,-3.02939e-09,8.11081e-09,-0.0827902,3
43802904,0.999512,0.0143467,-0.0115014,0.0252542,0.996567,-3.02939e-09,8.11081e-09,-0.0827902,3
43847611,0.999545,0.0115233,-0.0105404,0.0258025,0.996567,-3.02939e-09,8.11081e-09,-0.0827902,3
43902248,0.999531,0.0128948,-0.0110427,0.0254948,0.996567,-3.02939e-09,8.11081e-09,-0.0827902,3
43951918,0.999537,0.0126277,-0.0103536,0.0256565,0.996567,-3.02939e-09,8.11081e-09,-0.0827902,3
44001590,0.999519,0.013713,-0.0109178,0.0256011,0.996567,-3.02939e-09,8.11081e-09,-0.0827902,3
44051260,0.999502,0.0139761,-0.0113439,0.0259094,0.996567,-3.02939e-09,8.11081e-09,-0.0827902,3
44100963,0.999526,0.0130329,-0.0106877,0.0257652,0.996567,-3.02939e-09,8.11081e-09,-0.0827902,3
44150793,0.999548,0.0114912,-0.00947009,0.0261253,0.996567,-3.02939e-09,8.11081e-09,-0.0827902,3
44200273,0.999545,0.0127918,-0.0092296,0.0257225,0.996567,-3.02939e-09,8.11081e-09,-0.0827902,3
44249944,0.99953,0.0132361,-0.00971266,0.0259087,0.996567,-3.02939e-09,8.11081e-09,-0.0827902,3
44299614,0.999535,0.0131102,-0.00987757,0.0256991,0.996567,-3.02939e-09,8.11081e-09,-0.0827902,3
44349289,0.99953,0.0133592,-0.00980764,0.0258025,0.996567,-3.02939e-09,8.11081e-09,-0.0827902,3
44404097,0.999521,0.0141787,-0.0108053,0.0253121,0.996567,-3.02939e-09,8.11081e-09,-0.0827902,3
44453594,0.999525,0.0132083,-0.00949527,0.0261857,0.996567,-3.02939e-09,8.11081e-09,-0.0827902,3
44498298,0.999521,0.0133797,-0.0100193,0.0260653,0.996567,-3.02939e-09,8.11081e-09,-0.0827902,3
44547969,0.999519,0.0136193,-0.0102898,0.0258875,0.996567,-3.02939e-09,8.11081e-09,-0.0827902,3
44602606,0.999514,0.0136604,-0.01001,0.0261885,0.996567,-3.02939e-09,8.11081e-09,-0.0827902,3
44652281,0.999516,0.0136308,-0.00977043,0.0261931,0.996567,-3.02939e-09,8.11081e-09,-0.0827902,3
44701948,0.999512,0.0138926,-0.00977016,0.0262249,0.996567,-3.02939e-09,8.11081e-09,-0.0827902,3
44751619,0.999513,0.0135158,-0.00969122,0.0263944,0.996567,-3.02939e-09,8.11081e-09,-0.0827902,3
44801290,0.999516,0.013566,-0.00981623,0.0262054,0.996567,-3.02939e-09,8.11081e-09,-0.0827902,3
44850960,0.999502,0.0138814,-0.00984004,0.0265828,0.996567,-3.02939e-09,8.11081e-09,-0.0827902,3
44900636,0.999523,0.0134857,-0.00955049,0.0260848,0.996567,-3.02939e-09,8.11081e-09,-0.0827902,3
44950413,0.999522,0.0138454,-0.00968634,0.0258813,0.996567,-3.02939e-09,8.11081e-09,-0.0827902,3
44999976,0.999508,0.0138641,-0.0100656,0.0262778,0.996567,-3.02939e-09,8.11081e-09,-0.0827902,3
45049645,0.999506,0.0135392,-0.0093673,0.0267651,0.996567,-3.02939e-09,8.11081e-09,-0.0827902,3
45104282,0.999495,0.0140338,-0.00953885,0.0268613,0.996567,-3.02939e-09,8.11081e-09,-0.0827902,3
45153955,0.999499,0.0137118,-0.0089101,0.0270959,0.996567,-3.02939e-09,8.11081e-09,-0.0827902,3
45198730,0.999488,0.0143302,-0.00892169,0.0271755,0.996567,-3.02939e-09,8.11081e-09,-0.0827902,3
45248328,0.999485,0.0138169,-0.00896914,0.0275217,0.996567,-3.02939e-09,8.11081e-09,-0.0827902,3
45302965,0.999468,0.0138705,-0.00917541,0.0280682,0.996567,-3.02939e-09,8.11081e-09,-0.0827902,3
45352640,0.999459,0.0137758,-0.00899435,0.0284933,0.996567,-3.02939e-09,8.11081e-09,-0.0827902,3
45402307,0.999455,0.0141248,-0.00873152,0.0285338,0.996567,-3.02939e-09,8.11081e-09,-0.0827902,3
45451977,0.999451,0.0142638,-0.00885597,0.028561,0.996567,-3.02939e-09,8.11081e-09,-0.0827902,3
45501827,0.999439,0.0140921,-0.00954988,0.0288273,0.996567,-3.02939e-09,8.11081e-09,-0.0827902,3
45551320,0.999427,0.014097,-0.00892694,0.0294363,0.996567,-3.02939e-09,8.11081e-09,-0.0827902,3
45601050,0.999433,0.0141331,-0.00852012,0.029365,0.996567,-3.02939e-09,8.11081e-09,-0.0827902,3
45650662,0.999429,0.0146237,-0.0087309,0.0291787,0.996567,-3.02939e-09,8.11081e-09,-0.0827902,3
45700333,0.999425,0.013977,-0.00873341,0.0296243,0.996567,-3.02939e-09,8.11081e-09,-0.0827902,3
45750135,0.999409,0.0144156,-0.00843075,0.0300421,0.996567,-3.02939e-09,8.11081e-09,-0.0827902,3
45804642,0.999415,0.0145448,-0.00826986,0.0298267,0.996567,-3.02939e-09,8.11081e-09,-0.0827902,3
45849345,0.99942,0.0142815,-0.00818624,0.029819,0.996567,-3.02939e-09,8.11081e-09,-0.0827902,3
45899016,0.999392,0.0141295,-0.00864569,0.0306817,0.996567,-3.02939e-09,8.11081e-09,-0.0827902,3
45948689,0.999395,0.0143285,-0.0084334,0.0305394,0.996567,-3.02939e-09,8.11081e-09,-0.0827902,3
46003386,0.999375,0.0140193,-0.00845537,0.0313229,0.996567,-3.02939e-09,8.11081e-09,-0.0827902,3
46052995,0.999369,0.0142278,-0.00892762,0.0312937,0.996567,-3.02939e-09,8.11081e-09,-0.0827902,3
46097701,0.99936,0.0140471,-0.00887876,0.0316864,0.996567,-3.02939e-09,8.11081e-09,-0.0827902,3
46147372,0.999351,0.014622,-0.00807104,0.0319056,0.996567,-3.02939e-09,8.11081e-09,-0.0827902,3
46202009,0.999359,0.0146484,-0.00770436,0.0317368,0.996567,-3.02939e-09,8.11081e-09,-0.0827902,3
46251680,0.999346,0.0150395,-0.00771364,0.0319639,0.996567,-3.02939e-09,8.11081e-09,-0.0827902,3
46301566,0.999348,0.0143296,-0.00775343,0.0322188,0.996567,-3.02939e-09,8.11081e-09,-0.0827902,3
46351020,0.999337,0.0149905,-0.00731386,0.0323768,0.996567,-3.02939e-09,8.11081e-09,-0.0827902,3
46400691,0.99934,0.0147755,-0.00743966,0.032347,0.996567,-3.02939e-09,8.11081e-09,-0.0827902,3
46450382,0.99932,0.0146379,-0.00748935,0.0329997,0.996567,-3.02939e-09,8.11081e-09,-0.0827902,3
46500035,0.99931,0.0152802,-0.00745068,0.0330386,0.996567,-3.02939e-09,8.11081e-09,-0.0827902,3
46549779,0.99931,0.01447,-0.00791943,0.0332705,0.996567,-3.02939e-09,8.11081e-09,-0.0827902,3
46599375,0.999285,0.0150607,-0.00699328,0.0339586,0.996567,-3.02939e-09,8.11081e-09,-0.0827902,3
46649046,0.999289,0.0159664,-0.00601445,0.0336336,0.996567,-3.02939e-09,8.11081e-09,-0.0827902,3
46703683,0.999293,0.0156023,-0.00584188,0.0337101,0.996567,-3.02939e-09,8.11081e-09,-0.0827902,3
46753354,0.99929,0.016013,-0.00440279,0.0338147,0.996567,-3.02939e-09,8.11081e-09,-0.0827902,3
46798058,0.999264,0.0168444,-0.00438587,0.0341807,0.996567,-3.02939e-09,8.11081e-09,-0.0827902,3
46847923,0.99919,0.0203554,-0.00267589,0.0346129,0.996567,-3.02939e-09,8.11081e-09,-0.0827902,3
46902367,0.999135,0.0214172,-0.00210931,0.0355723,0.996567,-3.02939e-09,8.11081e-09,-0.0827902,3
46952038,0.999149,0.0193246,-0.00116754,0.0364204,0.996567,-3.02939e-09,8.11081e-09,-0.0827902,3
47001712,0.999183,0.0169806,-0.000306268,0.0366679,0.996567,-3.02939e-09,8.11081e-09,-0.0827902,3
47051382,0.999158,0.018004,0.00235488,0.0367906,0.996567,-3.02939e-09,8.11081e-09,-0.0827902,3
47101166,0.999124,0.018961,0.00466724,0.0370147,0.996567,-3.02939e-09,8.11081e-09,-0.0827902,3
47150761,0.999175,0.0159143,0.00442312,0.0371025,0.996567,-3.02939e-09,8.11081e-09,-0.0827902,3
47200393,0.999226,0.0132198,0.00342378,0.0368879,0.996567,-3.02939e-09,8.11081e-09,-0.0827902,3
47250069,0.999223,0.0145938,-0.000268234,0.0366024,0.996567,-3.02939e-09,8.11081e-09,-0.0827902,3
47299736,0.999184,0.0146419,-0.00875496,0.0366081,0.996567,-3.02939e-09,8.11081e-09,-0.0827902,3
47349422,0.999002,0.0159582,-0.0202498,0.0364751,0.996567,-3.02939e-09,8.11081e-09,-0.0827902,3
47404043,0.998618,0.0181793,-0.0335389,0.0361397,0.996567,-3.02939e-09,8.11081e-09,-0.0827902,3
47448746,0.998273,0.0200811,-0.0418717,0.0359844,0.996567,-3.02939e-09,8.11081e-09,-0.0827902,3
47498445,0.997908,0.020711,-0.049576,0.0359553,0.996567,-3.02939e-09,8.11081e-09,-0.0827902,3
47553055,0.997549,0.0201652,-0.0567954,0.0355588,0.996567,-3.02939e-09,8.11081e-09,-0.0827902,3
47602726,0.99728,0.0191995,-0.061393,0.0359875,0.996567,-3.02939e-09,8.11081e-09,-0.0827902,3
47652568,0.997004,0.0185689,-0.0657071,0.036331,0.996567,-3.02939e-09,8.11081e-09,-0.0827902,3
47697101,0.99683,0.0201072,-0.0677652,0.0365284,0.996567,-3.02939e-09,8.11081e-09,-0.0827902,3
47751739,0.996856,0.020571,-0.0672844,0.036439,0.996567,-3.02939e-09,8.11081e-09,-0.0827902,3
47801410,0.996929,0.0181302,-0.0670657,0.0361283,0.996567,-3.02939e-09,8.11081e-09,-0.0827902,3
47851080,0.997184,0.0162091,-0.0640972,0.0354028,0.996567,-3.02939e-09,8.11081e-09,-0.0827902,3
47900823,0.997586,0.0165253,-0.0575614,0.0351483,0.996567,-3.02939e-09,8.11081e-09,-0.0827902,3
47950423,0.998038,0.016257,-0.0493023,0.0350009,0.996567,-3.02939e-09,8.11081e-09,-0.0827902,3
48000093,0.998591,0.0176642,-0.036165,0.0345807,0.996567,-3.02939e-09,8.11081e-09,-0.0827902,3
48049764,0.999048,0.017401,-0.0213063,0.0338437,0.996567,-3.02939e-09,8.11081e-09,-0.0827902,3
48104402,0.999248,0.0172123,-0.0104862,0.0331209,0.996567,-3.02939e-09,8.11081e-09,-0.0827902,3
48149105,0.999316,0.0156349,-0.00719661,0.0327466,0.996567,-3.02939e-09,8.11081e-09,-0.0827902,3
48198776,0.99932,0.0147235,-0.00704183,0.0330696,0.996567,-3.02939e-09,8.11081e-09,-0.0827902,3
48253414,0.999306,0.0141657,-0.00494097,0.0340913,0.996567,-3.02939e-09,8.11081e-09,-0.0827902,3
48303086,0.999308,0.0122329,-0.000392367,0.0351323,0.996567,-3.02939e-09,8.11081e-09,-0.0827902,3
48352756,0.999304,0.007894,-0.000261933,0.0364568,0.996567,-3.02939e-09,8.11081e-09,-0.0827902,3
48397460,0.999277,0.00427967,-0.00501875,0.0374416,0.996567,-3.02939e-09,8.11081e-09,-0.0827902,3
48452248,0.999165,0.0096053,-0.0113115,0.0380601,0.996567,-3.02939e-09,8.11081e-09,-0.0827902,3
48501765,0.999016,0.0161996,-0.0158911,0.0381121,0.996567,-3.02939e-09,8.11081e-09,-0.0827902,3
48551440,0.998798,0.019865,-0.0236323,0.0380763,0.996567,-3.02939e-09,8.11081e-09,-0.0827902,3
48601111,0.99857,0.0194646,-0.0327219,0.0375361,0.996567,-3.02939e-09,8.11081e-09,-0.0827902,3
48650789,0.998298,0.018261,-0.0411711,0.037036,0.996567,-3.02939e-09,8.11081e-09,-0.0827902,3
48700493,0.99801,0.0183085,-0.0481136,0.0364124,0.996567,-3.02939e-09,8.11081e-09,-0.0827902,3
48750123,0.99788,0.0157057,-0.0518304,0.0360985,0.996567,-3.02939e-09,8.11081e-09,-0.0827902,3
48799805,0.997787,0.0133683,-0.0542503,0.0360355,0.996567,-3.02939e-09,8.11081e-09,-0.0827902,3
48849465,0.997695,0.0147339,-0.0555092,0.0361324,0.996567,-3.02939e-09,8.11081e-09,-0.0827902,3
48899142,0.997678,0.0170851,-0.0547843,0.0366766,0.996567,-3.02939e-09,8.11081e-09,-0.0827902,3
48953773,0.997928,0.0188979,-0.0479563,0.0385028,0.996567,-3.02939e-09,8.11081e-09,-0.0827902,3
49003444,0.998289,0.0161311,-0.0377978,0.0415885,0.996567,-3.02939e-09,8.11081e-09,-0.0827902,3
49048202,0.998533,0.0145793,-0.0248573,0.0458361,0.996567,-3.02939e-09,8.11081e-09,-0.0827902,3
49097819,0.998449,0.0164716,-0.0115995,0.0519056,0.996567,-3.02939e-09,8.11081e-09,-0.0827902,3
49152460,0.998035,0.0173111,-0.0037776,0.0600946,0.996567,-3.02939e-09,8.11081e-09,-0.0827902,3
49202130,0.997481,0.0179822,1.67221e-05,0.0686231,0.996567,-3.02939e-09,8.11081e-09,-0.0827902,3
49251905,0.996806,0.0182416,0.00162389,0.0777388,0.996567,-3.02939e-09,8.11081e-09,-0.0827902,3
49301470,0.995936,0.0187959,0.00305395,0.0880276,0.996567,-3.02939e-09,8.11081e-09,-0.0827902,3
49351141,0.994938,0.0179502,0.004214,0.0987885,0.996567,-3.02939e-09,8.11081e-09,-0.0827902,3
49400842,0.993784,0.0172372,0.0059899,0.10982,0.996567,-3.02939e-09,8.11081e-09,-0.0827902,3
49450483,0.992431,0.0160897,0.00589494,0.121599,0.996567,-3.02939e-09,8.11081e-09,-0.0827902,3
49500166,0.990873,0.0224368,0.00303273,0.132886,0.996567,-3.02939e-09,8.11081e-09,-0.0827902,3
49549824,0.989115,0.02966,-0.00822614,0.143887,0.996567,-3.02939e-09,8.11081e-09,-0.0827902,3
49599495,0.987253,0.032671,-0.0217239,0.154246,0.996567,-3.02939e-09,8.11081e-09,-0.0827902,3
49654133,0.985368,0.0332365,-0.0307706,0.164312,0.996567,-3.02939e-09,8.11081e-09,-0.0827902,3
49703804,0.984039,0.0334696,-0.0346466,0.17131,0.996567,-3.02939e-09,8.11081e-09,-0.0827902,3
49748507,0.982794,0.0322675,-0.0375604,0.177942,0.996567,-3.02939e-09,8.11081e-09,-0.0827902,3
49798319,0.98178,0.0306841,-0.0384934,0.183534,0.996567,-3.02939e-09,8.11081e-09,-0.0827902,3
49852818,0.981302,0.0251975,-0.0343947,0.187695,0.996567,-3.02939e-09,8.11081e-09,-0.0827902,3
49902487,0.981082,0.0220029,-0.0280768,0.190279,0.996567,-3.02939e-09,8.11081e-09,-0.0827902,3
49952159,0.981104,0.0211985,-0.0236866,0.190851,0.996567,-3.02939e-09,8.11081e-09,-0.0827902,3
50001870,0.981554,0.0230102,-0.0227163,0.188432,0.996567,-3.02939e-09,8.11081e-09,-0.0827902,3
50051571,0.982752,0.0281831,-0.0194652,0.18173,0.996567,-3.02939e-09,8.11081e-09,-0.0827902,3
50101193,0.984699,0.0334031,-0.0135932,0.17049,0.996567,-3.02939e-09,8.11081e-09,-0.0827902,3
50150841,0.987313,0.034377,-0.00889214,0.154767,0.996567,-3.02939e-09,8.11081e-09,-0.0827902,3
50200512,0.989903,0.0369946,-0.00451036,0.136762,0.996567,-3.02939e-09,8.11081e-09,-0.0827902,3
50250192,0.991974,0.0446472,-0.0023362,0.118271,0.996567,-3.02939e-09,8.11081e-09,-0.0827902,3
50299852,0.993787,0.0457228,-0.00430935,0.101379,0.996567,-3.02939e-09,8.11081e-09,-0.0827902,3
50354537,0.996012,0.0310377,-0.00674893,0.0833753,0.996567,-3.02939e-09,8.11081e-09,-0.0827902,3
50399232,0.997371,0.0206844,-0.00449464,0.0692983,0.996567,-3.02939e-09,8.11081e-09,-0.0827902,3
50448867,0.998284,0.0180988,-0.00121957,0.0556769,0.996567,-3.02939e-09,8.11081e-09,-0.0827902,3
50498538,0.998818,0.0200212,-0.001457,0.0442728,0.996567,-3.02939e-09,8.11081e-09,-0.0827902,3
50553180,0.99913,0.0224609,-0.0087073,0.0340375,0.996567,-3.02939e-09,8.11081e-09,-0.0827902,3
50602983,0.999191,0.0243219,-0.0170479,0.0271076,0.996567,-3.02939e-09,8.11081e-09,-0.0827902,3
50647550,0.999271,0.0241884,-0.0204326,0.0213087,0.996567,-3.02939e-09,8.11081e-09,-0.0827902,3
50702193,0.999483,0.019361,-0.019753,0.01637,0.996567,-3.02939e-09,8.11081e-09,-0.0827902,3
50751859,0.999659,0.0152609,-0.0170739,0.0125446,0.996567,-3.02939e-09,8.11081e-09,-0.0827902,3
50801530,0.999708,0.0166241,-0.0147996,0.00940301,0.996567,-3.02939e-09,8.11081e-09,-0.0827902,3
50851239,0.999729,0.0170664,-0.0142415,0.00698545,0.996567,-3.02939e-09,8.11081e-09,-0.0827902,3
50900872,0.999823,0.0138605,-0.0114143,0.00567135,0.996567,-3.02939e-09,8.11081e-09,-0.0827902,3
50950543,0.999898,0.0118035,-0.00641272,0.0048131,0.996567,-3.02939e-09,8.11081e-09,-0.0827902,3
51000214,0.999886,0.0139035,-0.00366959,0.0046433,0.996567,-3.02939e-09,8.11081e-09,-0.0827902,3
51054852,0.99988,0.0142738,-0.00239961,0.00551419,0.996567,-3.02939e-09,8.11081e-09,-0.0827902,3
51099557,0.999887,0.013352,-0.00286761,0.00623732,0.996567,-3.02939e-09,8.11081e-09,-0.0827902,3
51149404,0.999877,0.0125163,-0.00527987,0.00780422,0.996567,-3.02939e-09,8.11081e-09,-0.0827902,3
51198899,0.999802,0.0145744,-0.00955405,0.00957384,0.996567,-3.02939e-09,8.11081e-09,-0.0827902,3
51253535,0.999689,0.0170175,-0.0138988,0.0117662,0.996567,-3.02939e-09,8.11081e-09,-0.0827902,3
51303206,0.999601,0.0165377,-0.0182884,0.0137526,0.996567,-3.02939e-09,8.11081e-09,-0.0827902,3
51347910,0.999515,0.0143523,-0.0220707,0.0166129,0.996567,-3.02939e-09,8.11081e-09,-0.0827902,3
51397656,0.999404,0.0112573,-0.0257452,0.0200383,0.996567,-3.02939e-09,8.11081e-09,-0.0827902,3
51452219,0.999164,0.00957863,-0.0305505,0.0254212,0.996567,-3.02939e-09,8.11081e-09,-0.0827902,3
51501890,0.998853,0.00991554,-0.034883,0.0312578,0.996567,-3.02939e-09,8.11081e-09,-0.0827902,3
51551561,0.99853,0.0103648,-0.0378623,0.0373756,0.996567,-3.02939e-09,8.11081e-09,-0.0827902,3
51601233,0.998289,0.00919666,-0.0380334,0.0434436,0.996567,-3.02939e-09,8.11081e-09,-0.0827902,3
51650913,0.99812,0.0107869,-0.0339314,0.0498892,0.996567,-3.02939e-09,8.11081e-09,-0.0827902,3
51700573,0.997963,0.0120447,-0.0263301,0.0568408,0.996567,-3.02939e-09,8.11081e-09,-0.0827902,3
51750274,0.997745,0.0120837,-0.016489,0.0639375,0.996567,-3.02939e-09,8.11081e-09,-0.0827902,3
51799916,0.997328,0.0110352,-0.00991795,0.0715297,0.996567,-3.02939e-09,8.11081e-09,-0.0827902,3
51849586,0.996821,0.0111175,-0.00776166,0.0785137,0.996567,-3.02939e-09,8.11081e-09,-0.0827902,3
51899257,0.996223,0.0143985,-0.0075192,0.0853006,0.996567,-3.02939e-09,8.11081e-09,-0.0827902,3
51954059,0.995539,0.0161617,-0.00654697,0.0927299,0.996567,-3.02939e-09,8.11081e-09,-0.0827902,3
51998599,0.99489,0.0173574,-0.00612418,0.0992761,0.996567,-3.02939e-09,8.11081e-09,-0.0827902,3
52048270,0.99424,0.0192123,-0.00596982,0.105277,0.996567,-3.02939e-09,8.11081e-09,-0.0827902,3
52102907,0.993421,0.0203517,-0.00594176,0.112542,0.996567,-3.02939e-09,8.11081e-09,-0.0827902,3
52152581,0.992843,0.0182103,-0.00619803,0.117867,0.996567,-3.02939e-09,8.11081e-09,-0.0827902,3
52202314,0.992266,0.0148753,-0.00522794,0.123126,0.996567,-3.02939e-09,8.11081e-09,-0.0827902,3
52251920,0.991569,0.0196628,-0.00221153,0.128057,0.996567,-3.02939e-09,8.11081e-09,-0.0827902,3
52301638,0.990743,0.0311096,-0.00143214,0.132127,0.996567,-3.02939e-09,8.11081e-09,-0.0827902,3
52351264,0.989749,0.0429468,-0.00554998,0.136098,0.996567,-3.02939e-09,8.11081e-09,-0.0827902,3
52400934,0.98887,0.048772,-0.010702,0.140155,0.996567,-3.02939e-09,8.11081e-09,-0.0827902,3
52450604,0.988291,0.0495815,-0.0139988,0.143616,0.996567,-3.02939e-09,8.11081e-09,-0.0827902,3
52500280,0.987806,0.0489941,-0.013807,0.147136,0.996567,-3.02939e-09,8.11081e-09,-0.0827902,3
52549945,0.98763,0.0455195,-0.011548,0.149603,0.996567,-3.02939e-09,8.11081e-09,-0.0827902,3
52599617,0.987661,0.037453,-0.00913527,0.151787,0.996567,-3.02939e-09,8.11081e-09,-0.0827902,3
52654254,0.987737,0.0263338,-0.00673409,0.153741,0.996567,-3.02939e-09,8.11081e-09,-0.0827902,3
52698961,0.987582,0.0208841,-0.005218,0.155621,0.996567,-3.02939e-09,8.11081e-09,-0.0827902,3
52748736,0.987218,0.0190685,-0.0043964,0.158167,0.996567,-3.02939e-09,8.11081e-09,-0.0827902,3
52798300,0.986906,0.0184879,-0.00537318,0.160142,0.996567,-3.02939e-09,8.11081e-09,-0.0827902,3
52852985,0.986408,0.0205165,-0.00601202,0.162919,0.996567,-3.02939e-09,8.11081e-09,-0.0827902,3
52902610,0.986,0.022858,-0.00602384,0.165061,0.996567,-3.02939e-09,8.11081e-09,-0.0827902,3
52947313,0.985674,0.0210102,-0.00654225,0.167218,0.996567,-3.02939e-09,8.11081e-09,-0.0827902,3
53001986,0.98533,0.0177939,-0.00601979,0.169621,0.996567,-3.02939e-09,8.11081e-09,-0.0827902,3
53051621,0.985023,0.0139836,-0.00670698,0.171726,0.996567,-3.02939e-09,8.11081e-09,-0.0827902,3
53101302,0.984685,0.0105592,-0.00689551,0.173886,0.996567,-3.02939e-09,8.11081e-09,-0.0827902,3
53150963,0.984607,0.0126757,-0.00603033,0.174218,0.996567,-3.02939e-09,8.11081e-09,-0.0827902,3
53200643,0.984465,0.0143025,-0.00549364,0.174912,0.996567,-3.02939e-09,8.11081e-09,-0.0827902,3
53250305,0.984426,0.019232,-0.0045612,0.174685,0.996567,-3.02939e-09,8.11081e-09,-0.0827902,3
53300145,0.984275,0.0233237,-0.00592454,0.174999,0.996567,-3.02939e-09,8.11081e-09,-0.0827902,3
53349647,0.984201,0.0238857,-0.00697722,0.175297,0.996567,-3.02939e-09,8.11081e-09,-0.0827902,3
53399318,0.984302,0.0225679,-0.0070244,0.174903,0.996567,-3.02939e-09,8.11081e-09,-0.0827902,3
53448988,0.984498,0.0185293,-0.00661627,0.174288,0.996567,-3.02939e-09,8.11081e-09,-0.0827902,3
53503626,0.984569,0.0160865,-0.0042351,0.174204,0.996567,-3.02939e-09,8.11081e-09,-0.0827902,3
53553439,0.98467,0.0184072,-0.00366835,0.173417,0.996567,-3.02939e-09,8.11081e-09,-0.0827902,3
53602968,0.9851,0.0231386,-0.00431506,0.170366,0.996567,-3.02939e-09,8.11081e-09,-0.0827902,3
53647722,0.986054,0.0264338,-0.00469415,0.164248,0.996567,-3.02939e-09,8.11081e-09,-0.0827902,3
53702311,0.987903,0.028883,-0.00280648,0.152338,0.996567,-3.02939e-09,8.11081e-09,-0.0827902,3
53751981,0.990167,0.0307002,-0.00210606,0.136462,0.996567,-3.02939e-09,8.11081e-09,-0.0827902,3
53801766,0.992468,0.0335792,-0.00327355,0.11777,0.996567,-3.02939e-09,8.11081e-09,-0.0827902,3
53851324,0.994281,0.0369578,-0.00602199,0.100019,0.996567,-3.02939e-09,8.11081e-09,-0.0827902,3
53900994,0.995743,0.0323622,-0.00860493,0.0858707,0.996567,-3.02939e-09,8.11081e-09,-0.0827902,3
53950665,0.996877,0.0224934,-0.00817211,0.075253,0.996567,-3.02939e-09,8.11081e-09,-0.0827902,3
54000335,0.997589,0.0174415,-0.00603808,0.0668985,0.996567,-3.02939e-09,8.11081e-09,-0.0827902,3
54050007,0.99804,0.0166473,-0.00572263,0.0600542,0.996567,-3.02939e-09,8.11081e-09,-0.0827902,3
54099813,0.998217,0.0198415,-0.0113154,0.0551524,0.996567,-3.02939e-09,8.11081e-09,-0.0827902,3
54149349,0.998203,0.0184837,-0.0237866,0.0517937,0.996567,-3.02939e-09,8.11081e-09,-0.0827902,3
54203986,0.997903,0.0151892,-0.0383638,0.0498732,0.996567,-3.02939e-09,8.11081e-09,-0.0827902,3
54253657,0.997497,0.0154561,-0.0479521,0.0496164,0.996567,-3.02939e-09,8.11081e-09,-0.0827902,3
54298361,0.997092,0.0182172,-0.0544868,0.0500652,0.996567,-3.02939e-09,8.11081e-09,-0.0827902,3
54348070,0.9967,0.02107,-0.0590372,0.0515721,0.996567,-3.02939e-09,8.11081e-09,-0.0827902,3
54402669,0.996492,0.021975,-0.0597788,0.0542972,0.996567,-3.02939e-09,8.11081e-09,-0.0827902,3
54452341,0.996471,0.0189144,-0.0588936,0.0567469,0.996567,-3.02939e-09,8.11081e-09,-0.0827902,3
54502012,0.996483,0.0152751,-0.0571706,0.0593243,0.996567,-3.02939e-09,8.11081e-09,-0.0827902,3
54551685,0.996404,0.0169117,-0.0549772,0.0622178,0.996567,-3.02939e-09,8.11081e-09,-0.0827902,3
54601353,0.996285,0.0196174,-0.0529913,0.0649844,0.996567,-3.02939e-09,8.11081e-09,-0.0827902,3
54651027,0.996254,0.019799,-0.0500981,0.067649,0.996567,-3.02939e-09,8.11081e-09,-0.0827902,3
54700695,0.996275,0.018971,-0.0456937,0.0706309,0.996567,-3.02939e-09,8.11081e-09,-0.0827902,3
54750432,0.996236,0.0183756,-0.0404973,0.0744064,0.996567,-3.02939e-09,8.11081e-09,-0.0827902,3
54800037,0.996033,0.0200286,-0.0363011,0.0787355,0.996567,-3.02939e-09,8.11081e-09,-0.0827902,3
54849708,0.995766,0.0244443,-0.0315882,0.082789,0.996567,-3.02939e-09,8.11081e-09,-0.0827902,3
54904526,0.995523,0.0245447,-0.0243875,0.087959,0.996567,-3.02939e-09,8.11081e-09,-0.0827902,3
54954017,0.995419,0.0195801,-0.0161732,0.0921784,0.996567,-3.02939e-09,8.11081e-09,-0.0827902,3
54998721,0.995214,0.0167111,-0.0102699,0.0957264,0.996567,-3.02939e-09,8.11081e-09,-0.0827902,3
55048391,0.994824,0.0154079,-0.00681731,0.100203,0.996567,-3.02939e-09,8.11081e-09,-0.0827902,3
55103030,0.994196,0.0250033,-0.00466724,0.104533,0.996567,-3.02939e-09,8.11081e-09,-0.0827902,3
55152726,0.993599,0.0286987,-0.00521874,0.109132,0.996567,-3.02939e-09,8.11081e-09,-0.0827902,3
55202371,0.993347,0.0205066,-0.00678123,0.113119,0.996567,-3.02939e-09,8.11081e-09,-0.0827902,3
55252044,0.993047,0.0125053,-0.00428802,0.116972,0.996567,-3.02939e-09,8.11081e-09,-0.0827902,3
55301713,0.992691,0.015745,0.000177983,0.119655,0.996567,-3.02939e-09,8.11081e-09,-0.0827902,3
55351384,0.992155,0.0244717,0.000605824,0.122595,0.996567,-3.02939e-09,8.11081e-09,-0.0827902,3
55401090,0.991563,0.0333699,-7.09953e-05,0.125254,0.996567,-3.02939e-09,8.11081e-09,-0.0827902,3
55450932,0.990917,0.0444853,0.00199438,0.126884,0.996567,-3.02939e-09,8.11081e-09,-0.0827902,3
55500397,0.990182,0.0548272,0.00570722,0.128456,0.996567,-3.02939e-09,8.11081e-09,-0.0827902,3
55550068,0.989254,0.0659392,0.00969738,0.130134,0.996567,-3.02939e-09,8.11081e-09,-0.0827902,3
55604705,0.988507,0.0755974,0.0107136,0.130473,0.996567,-3.02939e-09,8.11081e-09,-0.0827902,3
55649409,0.988299,0.0771458,0.00931843,0.131253,0.996567,-3.02939e-09,8.11081e-09,-0.0827902,3
55699258,0.988578,0.0743271,0.00812783,0.130858,0.996567,-3.02939e-09,8.11081e-09,-0.0827902,3
55748751,0.988721,0.0724579,0.0100476,0.130692,0.996567,-3.02939e-09,8.11081e-09,-0.0827902,3
55803391,0.988873,0.0699616,0.010205,0.130891,0.996567,-3.02939e-09,8.11081e-09,-0.0827902,3
55853080,0.989497,0.0614139,0.00531609,0.130749,0.996567,-3.02939e-09,8.11081e-09,-0.0827902,3
55897764,0.990383,0.0442377,-0.000912016,0.131087,0.996567,-3.02939e-09,8.11081e-09,-0.0827902,3
55952405,0.99098,0.026486,-0.00298039,0.131334,0.996567,-3.02939e-09,8.11081e-09,-0.0827902,3
56002074,0.991217,0.019809,-0.00160233,0.130741,0.996567,-3.02939e-09,8.11081e-09,-0.0827902,3
56051743,0.991185,0.0209044,-0.002796,0.130794,0.996567,-3.02939e-09,8.11081e-09,-0.0827902,3
56101415,0.991113,0.0230685,-0.00562959,0.130888,0.996567,-3.02939e-09,8.11081e-09,-0.0827902,3
56151086,0.991147,0.0205737,-0.00964635,0.130814,0.996567,-3.02939e-09,8.11081e-09,-0.0827902,3
56200756,0.991264,0.013943,-0.0141103,0.130396,0.996567,-3.02939e-09,8.11081e-09,-0.0827902,3
56250566,0.991192,0.0128745,-0.0191801,0.130403,0.996567,-3.02939e-09,8.11081e-09,-0.0827902,3
56300141,0.990874,0.0194137,-0.0248572,0.131049,0.996567,-3.02939e-09,8.11081e-09,-0.0827902,3
56349769,0.990532,0.024853,-0.031131,0.131377,0.996567,-3.02939e-09,8.11081e-09,-0.0827902,3
56399441,0.990456,0.0220372,-0.036198,0.131153,0.996567,-3.02939e-09,8.11081e-09,-0.0827902,3
56449113,0.990553,0.0182089,-0.038283,0.130414,0.996567,-3.02939e-09,8.11081e-09,-0.0827902,3
56503890,0.990513,0.0186128,-0.0398284,0.1302,0.996567,-3.02939e-09,8.11081e-09,-0.0827902,3
56553420,0.990293,0.0209674,-0.0444402,0.130017,0.996567,-3.02939e-09,8.11081e-09,-0.0827902,3
56598124,0.990082,0.0188111,-0.0500826,0.129908,0.996567,-3.02939e-09,8.11081e-09,-0.0827902,3
56647798,0.990129,0.0153603,-0.0532155,0.128753,0.996567,-3.02939e-09,8.11081e-09,-0.0827902,3
56702433,0.990309,0.0130246,-0.0519588,0.128138,0.996567,-3.02939e-09,8.11081e-09,-0.0827902,3
56752122,0.990521,0.0157524,-0.0495457,0.127143,0.996567,-3.02939e-09,8.11081e-09,-0.0827902,3
56801791,0.990585,0.0179763,-0.0490301,0.12655,0.996567,-3.02939e-09,8.11081e-09,-0.0827902,3
56851446,0.990623,0.0162819,-0.0500022,0.126096,0.996567,-3.02939e-09,8.11081e-09,-0.0827902,3
56901116,0.990744,0.0150688,-0.0484509,0.125904,0.996567,-3.02939e-09,8.11081e-09,-0.0827902,3
56950787,0.990909,0.0156229,-0.045486,0.125644,0.996567,-3.02939e-09,8.11081e-09,-0.0827902,3
57000460,0.990997,0.0166619,-0.0429051,0.125724,0.996567,-3.02939e-09,8.11081e-09,-0.0827902,3
57050287,0.991093,0.0162887,-0.0404177,0.125837,0.996567,-3.02939e-09,8.11081e-09,-0.0827902,3
57099800,0.991181,0.0142559,-0.0388935,0.125877,0.996567,-3.02939e-09,8.11081e-09,-0.0827902,3
57149471,0.991233,0.0103898,-0.0390965,0.125777,0.996567,-3.02939e-09,8.11081e-09,-0.0827902,3
57204109,0.991129,0.0099094,-0.0427339,0.125459,0.996567,-3.02939e-09,8.11081e-09,-0.0827902,3
57248822,0.990984,0.0109375,-0.0462615,0.125266,0.996567,-3.02939e-09,8.11081e-09,-0.0827902,3
57298489,0.990908,0.0118942,-0.0478386,0.125183,0.996567,-3.02939e-09,8.11081e-09,-0.0827902,3
57353138,0.990957,0.00810757,-0.0476156,0.125186,0.996567,-3.02939e-09,8.11081e-09,-0.0827902,3
57402793,0.990988,0.00536324,-0.0462011,0.125616,0.996567,-3.02939e-09,8.11081e-09,-0.0827902,3
57452463,0.990985,0.00685239,-0.0443405,0.126239,0.996567,-3.02939e-09,8.11081e-09,-0.0827902,3
57497167,0.991036,0.00748558,-0.0406474,0.127042,0.996567,-3.02939e-09,8.11081e-09,-0.0827902,3
57551805,0.99108,0.00912758,-0.0341816,0.128484,0.996567,-3.02939e-09,8.11081e-09,-0.0827902,3
57601638,0.991219,0.0136438,-0.0265901,0.12881,0.996567,-3.02939e-09,8.11081e-09,-0.0827902,3
57651147,0.991261,0.0179228,-0.0160626,0.129702,0.996567,-3.02939e-09,8.11081e-09,-0.0827902,3
57700820,0.991316,0.0162491,-0.00660867,0.130327,0.996567,-3.02939e-09,8.11081e-09,-0.0827902,3
57750506,0.991304,0.0134944,-0.00170832,0.130885,0.996567,-3.02939e-09,8.11081e-09,-0.0827902,3
57800160,0.991333,0.0145717,-0.000712091,0.130563,0.996567,-3.02939e-09,8.11081e-09,-0.0827902,3
57849892,0.991284,0.017998,0.000105348,0.130507,0.996567,-3.02939e-09,8.11081e-09,-0.0827902,3
57904473,0.991304,0.0192338,0.00102992,0.130173,0.996567,-3.02939e-09,8.11081e-09,-0.0827902,3
57949177,0.991323,0.0167515,0.000602487,0.130376,0.996567,-3.02939e-09,8.11081e-09,-0.0827902,3
57998844,0.991254,0.0174508,0.000411416,0.130805,0.996567,-3.02939e-09,8.11081e-09,-0.0827902,3
58053482,0.991096,0.023402,-6.27019e-05,0.131075,0.996567,-3.02939e-09,8.11081e-09,-0.0827902,3
58103190,0.990924,0.0306494,0.00104368,0.130882,0.996567,-3.02939e-09,8.11081e-09,-0.0827902,3
58152824,0.990733,0.038727,0.00568181,0.130059,0.996567,-3.02939e-09,8.11081e-09,-0.0827902,3
58197527,0.990749,0.0416349,0.00834141,0.128891,0.996567,-3.02939e-09,8.11081e-09,-0.0827902,3
58252167,0.99072,0.0434322,0.00974363,0.128424,0.996567,-3.02939e-09,8.11081e-09,-0.0827902,3
58301837,0.990615,0.0464722,0.0132616,0.127856,0.996567,-3.02939e-09,8.11081e-09,-0.0827902,3
58351507,0.990554,0.0492802,0.0146664,0.127115,0.996567,-3.02939e-09,8.11081e-09,-0.0827902,3
58401303,0.990717,0.0525943,0.0123048,0.124748,0.996567,-3.02939e-09,8.11081e-09,-0.0827902,3
58450849,0.991122,0.0536723,0.00840751,0.121349,0.996567,-3.02939e-09,8.11081e-09,-0.0827902,3
58500520,0.99205,0.0508292,0.00550808,0.114988,0.996567,-3.02939e-09,8.11081e-09,-0.0827902,3
58550213,0.993243,0.0437951,0.00353228,0.107411,0.996567,-3.02939e-09,8.11081e-09,-0.0827902,3
58599862,0.994615,0.0311988,0.00128196,0.0988219,0.996567,-3.02939e-09,8.11081e-09,-0.0827902,3
58649616,0.995781,0.0211832,-0.00143096,0.0892706,0.996567,-3.02939e-09,8.11081e-09,-0.0827902,3
58699206,0.996705,0.0180542,-0.0026071,0.0790406,0.996567,-3.02939e-09,8.11081e-09,-0.0827902,3
58748875,0.997413,0.0174957,-0.00335722,0.0696495,0.996567,-3.02939e-09,8.11081e-09,-0.0827902,3
58803513,0.998039,0.0160558,-0.00437963,0.0603365,0.996567,-3.02939e-09,8.11081e-09,-0.0827902,3
58848217,0.998415,0.0146156,-0.00382605,0.0542218,0.996567,-3.02939e-09,8.11081e-09,-0.0827902,3
58897889,0.998617,0.0164032,-0.00448912,0.0497548,0.996567,-3.02939e-09,8.11081e-09,-0.0827902,3
58952744,0.998681,0.0190415,-0.0104273,0.0465357,0.996567,-3.02939e-09,8.11081e-09,-0.0827902,3
59002198,0.998646,0.0137713,-0.0233832,0.0443775,0.996567,-3.02939e-09,8.11081e-09,-0.0827902,3
59051868,0.998367,0.00906661,-0.0370513,0.0425179,0.996567,-3.02939e-09,8.11081e-09,-0.0827902,3
59101538,0.99797,0.0106392,-0.0474363,0.0411459,0.996567,-3.02939e-09,8.11081e-09,-0.0827902,3
59151210,0.997618,0.0130717,-0.0546922,0.0399421,0.996567,-3.02939e-09,8.11081e-09,-0.0827902,3
59200976,0.997303,0.0141387,-0.060569,0.0389562,0.996567,-3.02939e-09,8.11081e-09,-0.0827902,3
59250552,0.997281,0.0148965,-0.0609562,0.0386462,0.996567,-3.02939e-09,8.11081e-09,-0.0827902,3
59300222,0.997581,0.0148291,-0.0558422,0.0386517,0.996567,-3.02939e-09,8.11081e-09,-0.0827902,3
59349893,0.997825,0.0173659,-0.0497608,0.0395939,0.996567,-3.02939e-09,8.11081e-09,-0.0827902,3
59399564,0.997831,0.0155191,-0.0488746,0.0412826,0.996567,-3.02939e-09,8.11081e-09,-0.0827902,3
59454277,0.997725,0.0164226,-0.0492621,0.0430019,0.996567,-3.02939e-09,8.11081e-09,-0.0827902,3
59503873,0.997796,0.018368,-0.0449333,0.0452437,0.996567,-3.02939e-09,8.11081e-09,-0.0827902,3
59548577,0.997939,0.019576,-0.038865,0.0471588,0.996567,-3.02939e-09,8.11081e-09,-0.0827902,3
59598269,0.998007,0.0199736,-0.0342477,0.049098,0.996567,-3.02939e-09,8.11081e-09,-0.0827902,3
59652887,0.998068,0.015185,-0.0320292,0.051019,0.996567,-3.02939e-09,8.11081e-09,-0.0827902,3
59702556,0.998053,0.00826983,-0.0329645,0.0522976,0.996567,-3.02939e-09,8.11081e-09,-0.0827902,3
59752387,0.997975,0.0063367,-0.0330734,0.0539712,0.996567,-3.02939e-09,8.11081e-09,-0.0827902,3
59801903,0.997837,0.00809216,-0.0352995,0.0548665,0.996567,-3.02939e-09,8.11081e-09,-0.0827902,3
59851569,0.997639,0.00908525,-0.0379423,0.0565142,0.996567,-3.02939e-09,8.11081e-09,-0.0827902,3
59901240,0.99754,0.00898441,-0.0393032,0.0573552,0.996567,-3.02939e-09,8.11081e-09,-0.0827902,3
59950912,0.997585,0.0100897,-0.0371603,0.0578024,0.996567,-3.02939e-09,8.11081e-09,-0.0827902,3
60000641,0.99757,0.0118746,-0.0358779,0.0585367,0.996567,-3.02939e-09,8.11081e-09,-0.0827902,3
60050254,0.997625,0.0153231,-0.0330773,0.0584401,0.996567,-3.02939e-09,8.11081e-09,-0.0827902,3
60099946,0.997818,0.0153672,-0.0275514,0.058,0.996567,-3.02939e-09,8.11081e-09,-0.0827902,3
60149595,0.998045,0.0126312,-0.0207898,0.057577,0.996567,-3.02939e-09,8.11081e-09,-0.0827902,3
60199267,0.998187,0.0125905,-0.0156158,0.0567429,0.996567,-3.02939e-09,8.11081e-09,-0.0827902,3
60248938,0.998188,0.0152028,-0.0125825,0.0568521,0.996567,-3.02939e-09,8.11081e-09,-0.0827902,3
60298610,0.998185,0.0161802,-0.0114214,0.056866,0.996567,-3.02939e-09,8.11081e-09,-0.0827902,3
60353249,0.998207,0.0174274,-0.00955098,0.0564574,0.996567,-3.02939e-09,8.11081e-09,-0.0827902,3
60402922,0.998272,0.0165264,-0.00777429,0.0558581,0.996567,-3.02939e-09,8.11081e-09,-0.0827902,3
60447621,0.998333,0.015225,-0.00666316,0.0552773,0.996567,-3.02939e-09,8.11081e-09,-0.0827902,3
60502259,0.998396,0.0146383,-0.00644776,0.0543083,0.996567,-3.02939e-09,8.11081e-09,-0.0827902,3
60552051,0.99841,0.0174368,-0.00658626,0.0531959,0.996567,-3.02939e-09,8.11081e-09,-0.0827902,3
60601601,0.998359,0.0221734,-0.00673403,0.0523657,0.996567,-3.02939e-09,8.11081e-09,-0.0827902,3
60651272,0.998284,0.0265205,-0.00681537,0.0517726,0.996567,-3.02939e-09,8.11081e-09,-0.0827902,3
60700944,0.9982,0.0307388,-0.00643812,0.0510917,0.996567,-3.02939e-09,8.11081e-09,-0.0827902,3
60750614,0.998134,0.035079,-0.00382666,0.0498322,0.996567,-3.02939e-09,8.11081e-09,-0.0827902,3
60800361,0.997746,0.0454362,0.00200505,0.0493314,0.996567,-3.02939e-09,8.11081e-09,-0.0827902,3
60854922,0.997211,0.0564985,0.00274112,0.0486911,0.996567,-3.02939e-09,8.11081e-09,-0.0827902,3
60899626,0.99735,0.0542514,-0.000756553,0.0484595,0.996567,-3.02939e-09,8.11081e-09,-0.0827902,3
60949297,0.99794,0.0423159,-0.00429737,0.0480325,0.996567,-3.02939e-09,8.11081e-09,-0.0827902,3
60998970,0.998397,0.0294311,-0.00566215,0.0480199,0.996567,-3.02939e-09,8.11081e-09,-0.0827902,3
61053658,0.998594,0.0222843,-0.0046968,0.0478663,0.996567,-3.02939e-09,8.11081e-09,-0.0827902,3
61103468,0.998583,0.0207502,-0.0074724,0.0484219,0.996567,-3.02939e-09,8.11081e-09,-0.0827902,3
61147981,0.998499,0.0202917,-0.0140531,0.0488936,0.996567,-3.02939e-09,8.11081e-09,-0.0827902,3
61197668,0.998443,0.0147747,-0.0219062,0.0491186,0.996567,-3.02939e-09,8.11081e-09,-0.0827902,3
61252290,0.998382,0.0160682,-0.0220849,0.0498747,0.996567,-3.02939e-09,8.11081e-09,-0.0827902,3
61301961,0.998331,0.0184175,-0.0203549,0.0508017,0.996567,-3.02939e-09,8.11081e-09,-0.0827902,3
61351726,0.998246,0.0180079,-0.0214915,0.0521452,0.996567,-3.02939e-09,8.11081e-09,-0.0827902,3
61401304,0.998179,0.0172273,-0.0226289,0.0531945,0.996567,-3.02939e-09,8.11081e-09,-0.0827902,3
61450975,0.998062,0.0196341,-0.0229375,0.0544123,0.996567,-3.02939e-09,8.11081e-09,-0.0827902,3
61500644,0.997915,0.0230035,-0.0228218,0.0558121,0.996567,-3.02939e-09,8.11081e-09,-0.0827902,3
61550315,0.997765,0.0259201,-0.0255091,0.05605,0.996567,-3.02939e-09,8.11081e-09,-0.0827902,3
61599991,0.997649,0.0228011,-0.0310174,0.0567029,0.996567,-3.02939e-09,8.11081e-09,-0.0827902,3
61649659,0.997699,0.0175674,-0.032052,0.0570991,0.996567,-3.02939e-09,8.11081e-09,-0.0827902,3
61699329,0.997784,0.0164678,-0.0290848,0.0575318,0.996567,-3.02939e-09,8.11081e-09,-0.0827902,3
61754006,0.997746,0.0191894,-0.0250095,0.0592422,0.996567,-3.02939e-09,8.11081e-09,-0.0827902,3
61798670,0.997603,0.0238063,-0.0240682,0.0603481,0.996567,-3.02939e-09,8.11081e-09,-0.0827902,3
61848341,0.997457,0.0271544,-0.0218569,0.0621638,0.996567,-3.02939e-09,8.11081e-09,-0.0827902,3
61903130,0.997296,0.0324569,-0.0147302,0.064273,0.996567,-3.02939e-09,8.11081e-09,-0.0827902,3
61952650,0.99695,0.0398155,-0.00846732,0.0665855,0.996567,-3.02939e-09,8.11081e-09,-0.0827902,3
62002321,0.99656,0.0476513,-0.00410719,0.067689,0.996567,-3.02939e-09,8.11081e-09,-0.0827902,3
62051992,0.996313,0.0506398,-0.00129815,0.069243,0.996567,-3.02939e-09,8.11081e-09,-0.0827902,3
62101665,0.996173,0.0516316,0.00150215,0.0705094,0.996567,-3.02939e-09,8.11081e-09,-0.0827902,3
62151393,0.995871,0.0566091,0.00429409,0.0708348,0.996567,-3.02939e-09,8.11081e-09,-0.0827902,3
62201007,0.99581,0.0566069,0.00517261,0.0716375,0.996567,-3.02939e-09,8.11081e-09,-0.0827902,3
62250676,0.99605,0.05253,0.00518372,0.0713983,0.996567,-3.02939e-09,8.11081e-09,-0.0827902,3
62300347,0.996282,0.0480728,0.00497357,0.0713136,0.996567,-3.02939e-09,8.11081e-09,-0.0827902,3
62350018,0.99633,0.0468598,0.00535184,0.0714255,0.996567,-3.02939e-09,8.11081e-09,-0.0827902,3
62399702,0.996268,0.0485379,0.00476086,0.0712146,0.996567,-3.02939e-09,8.11081e-09,-0.0827902,3
62454327,0.996307,0.0477596,0.00212256,0.0713202,0.996567,-3.02939e-09,8.11081e-09,-0.0827902,3
62499031,0.996528,0.0425051,-0.000180137,0.0715953,0.996567,-3.02939e-09,8.11081e-09,-0.0827902,3
62548741,0.996733,0.0355261,-0.00164775,0.0725144,0.996567,-3.02939e-09,8.11081e-09,-0.0827902,3
62603340,0.996903,0.0278661,-0.00324443,0.0734665,0.996567,-3.02939e-09,8.11081e-09,-0.0827902,3
62653010,0.997011,0.0200224,-0.00689106,0.0743058,0.996567,-3.02939e-09,8.11081e-09,-0.0827902,3
62702836,0.997029,0.0140764,-0.0135086,0.0745177,0.996567,-3.02939e-09,8.11081e-09,-0.0827902,3
62747385,0.996912,0.0148569,-0.0190989,0.0747107,0.996567,-3.02939e-09,8.11081e-09,-0.0827902,3
62802023,0.996623,0.0186699,-0.0281728,0.0748338,0.996567,-3.02939e-09,8.11081e-09,-0.0827902,3
62851694,0.996299,0.0198463,-0.0359691,0.075504,0.996567,-3.02939e-09,8.11081e-09,-0.0827902,3
62901365,0.996194,0.0192848,-0.0394758,0.075284,0.996567,-3.02939e-09,8.11081e-09,-0.0827902,3
62951157,0.996364,0.0168008,-0.0377518,0.0745021,0.996567,-3.02939e-09,8.11081e-09,-0.0827902,3
63000709,0.996479,0.0156852,-0.0341468,0.0749508,0.996567,-3.02939e-09,8.11081e-09,-0.0827902,3
63050378,0.996489,0.0182424,-0.0330315,0.0747402,0.996567,-3.02939e-09,8.11081e-09,-0.0827902,3
63100049,0.996409,0.0195837,-0.0332814,0.0753594,0.996567,-3.02939e-09,8.11081e-09,-0.0827902,3
63149722,0.996341,0.0205644,-0.0330401,0.07609,0.996567,-3.02939e-09,8.11081e-09,-0.0827902,3
63199391,0.996349,0.0191977,-0.0333956,0.0761849,0.996567,-3.02939e-09,8.11081e-09,-0.0827902,3
63249224,0.99639,0.0180693,-0.0336071,0.0758416,0.996567,-3.02939e-09,8.11081e-09,-0.0827902,3
63298733,0.996323,0.0188498,-0.0349149,0.0759332,0.996567,-3.02939e-09,8.11081e-09,-0.0827902,3
63353371,0.996253,0.0203919,-0.0367601,0.0755847,0.996567,-3.02939e-09,8.11081e-09,-0.0827902,3
63398075,0.996247,0.0201789,-0.0383994,0.0748965,0.996567,-3.02939e-09,8.11081e-09,-0.0827902,3
63447746,0.996243,0.0192045,-0.0394161,0.0746897,0.996567,-3.02939e-09,8.11081e-09,-0.0827902,3
63502472,0.996174,0.0199845,-0.0417477,0.0741281,0.996567,-3.02939e-09,8.11081e-09,-0.0827902,3
63552056,0.996032,0.0203923,-0.0452898,0.0738509,0.996567,-3.02939e-09,8.11081e-09,-0.0827902,3
63601726,0.995979,0.0187039,-0.0477518,0.073457,0.996567,-3.02939e-09,8.11081e-09,-0.0827902,3
63651396,0.995988,0.017897,-0.0489303,0.0727494,0.996567,-3.02939e-09,8.11081e-09,-0.0827902,3
63701068,0.996047,0.0178946,-0.0483218,0.0723533,0.996567,-3.02939e-09,8.11081e-09,-0.0827902,3
63750782,0.996127,0.0194673,-0.0466744,0.0719251,0.996567,-3.02939e-09,8.11081e-09,-0.0827902,3
63800410,0.996311,0.0166103,-0.0445516,0.0714427,0.996567,-3.02939e-09,8.11081e-09,-0.0827902,3
63850081,0.996438,0.0165119,-0.042481,0.0709535,0.996567,-3.02939e-09,8.11081e-09,-0.0827902,3
63899784,0.996475,0.0166287,-0.0411012,0.0712224,0.996567,-3.02939e-09,8.11081e-09,-0.0827902,3
63949423,0.996594,0.0191848,-0.0392287,0.0699551,0.996567,-3.02939e-09,8.11081e-09,-0.0827902,3
64004073,0.99682,0.0182831,-0.034657,0.0693817,0.996567,-3.02939e-09,8.11081e-09,-0.0827902,3
64053877,0.997158,0.0169955,-0.0283635,0.0676939,0.996567,-3.02939e-09,8.11081e-09,-0.0827902,3
64098436,0.997361,0.016399,-0.0233266,0.0667757,0.996567,-3.02939e-09,8.11081e-09,-0.0827902,3
64148106,0.997595,0.01558,-0.01953,0.0646616,0.996567,-3.02939e-09,8.11081e-09,-0.0827902,3
64202745,0.99784,0.0155752,-0.0145196,0.0621394,0.996567,-3.02939e-09,8.11081e-09,-0.0827902,3
64252416,0.998052,0.0163598,-0.0116032,0.0590694,0.996567,-3.02939e-09,8.11081e-09,-0.0827902,3
64302210,0.998273,0.0141395,-0.0111327,0.0559236,0.996567,-3.02939e-09,8.11081e-09,-0.0827902,3
64351757,0.998513,0.0119933,-0.00917049,0.0523904,0.996567,-3.02939e-09,8.11081e-09,-0.0827902,3
64401428,0.99865,0.0179225,-0.00704397,0.0482495,0.996567,-3.02939e-09,8.11081e-09,-0.0827902,3
64451099,0.998785,0.0190866,-0.0109475,0.04409,0.996567,-3.02939e-09,8.11081e-09,-0.0827902,3
64500808,0.999003,0.0155591,-0.0137325,0.0395169,0.996567,-3.02939e-09,8.11081e-09,-0.0827902,3
64550442,0.999224,0.0128986,-0.0127957,0.0349367,0.996567,-3.02939e-09,8.11081e-09,-0.0827902,3
64600312,0.999374,0.0137078,-0.0117684,0.0304197,0.996567,-3.02939e-09,8.11081e-09,-0.0827902,3
64649783,0.999392,0.0203236,-0.0115705,0.0258497,0.996567,-3.02939e-09,8.11081e-09,-0.0827902,3
64704421,0.999347,0.0254184,-0.0146221,0.0211277,0.996567,-3.02939e-09,8.11081e-09,-0.0827902,3
64749125,0.999434,0.0229965,-0.0171971,0.0175072,0.996567,-3.02939e-09,8.11081e-09,-0.0827902,3
64798800,0.999454,0.0273706,-0.0130582,0.0131092,0.996567,-3.02939e-09,8.11081e-09,-0.0827902,3
64848554,0.999189,0.0389532,-0.00540289,0.00869196,0.996567,-3.02939e-09,8.11081e-09,-0.0827902,3
64903105,0.998804,0.0484347,-0.00520993,0.00413886,0.996567,-3.02939e-09,8.11081e-09,-0.0827902,3
64952776,0.998748,0.0492358,-0.00880594,0.000543236,0.996567,-3.02939e-09,8.11081e-09,-0.0827902,3
65002447,0.998856,0.0470956,-0.00778446,-0.00276432,0.996567,-3.02939e-09,8.11081e-09,-0.0827902,3
65052118,0.998698,0.0506446,-0.00117169,-0.00609612,0.996567,-3.02939e-09,8.11081e-09,-0.0827902,3
65101867,0.998343,0.0566289,0.00503612,-0.00889057,0.996567,-3.02939e-09,8.11081e-09,-0.0827902,3
65151460,0.998351,0.0560655,0.00480667,-0.0113789,0.996567,-3.02939e-09,8.11081e-09,-0.0827902,3
65201131,0.998714,0.0485681,0.00404427,-0.0139902,0.996567,-3.02939e-09,8.11081e-09,-0.0827902,3
65250802,0.999148,0.03809,0.0027132,-0.0156348,0.996567,-3.02939e-09,8.11081e-09,-0.0827902,3
65300474,0.99948,0.0273087,0.00147193,-0.0170745,0.996567,-3.02939e-09,8.11081e-09,-0.0827902,3
65350148,0.999596,0.0218603,0.000442494,-0.0181738,0.996567,-3.02939e-09,8.11081e-09,-0.0827902,3
65404962,0.99965,0.018004,-0.00238762,-0.0192175,0.996567,-3.02939e-09,8.11081e-09,-0.0827902,3
65449486,0.999711,0.0129834,-0.00622961,-0.0192699,0.996567,-3.02939e-09,8.11081e-09,-0.0827902,3
65499157,0.999756,0.00751181,-0.00910909,-0.018651,0.996567,-3.02939e-09,8.11081e-09,-0.0827902,3
65548828,0.999798,0.00523795,-0.00974884,-0.0167602,0.996567,-3.02939e-09,8.11081e-09,-0.0827902,3
65603466,0.99984,0.00424635,-0.0108286,-0.013618,0.996567,-3.02939e-09,8.11081e-09,-0.0827902,3
65653232,0.999885,-0.000442195,-0.0121088,-0.00916166,0.996567,-3.02939e-09,8.11081e-09,-0.0827902,3
65697841,0.999874,-0.00973247,-0.0118189,-0.00408404,0.996567,-3.02939e-09,8.11081e-09,-0.0827902,3
65747514,0.999719,-0.0214764,-0.00963865,0.00288775,0.996567,-3.02939e-09,8.11081e-09,-0.0827902,3
65802158,0.999613,-0.0242304,-0.00716636,0.011605,0.996567,-3.02939e-09,8.11081e-09,-0.0827902,3
65851822,0.999598,-0.0198051,-0.00709493,0.0190266,0.996567,-3.02939e-09,8.11081e-09,-0.0827902,3
65901491,0.999594,-0.0116606,-0.00781543,0.0248111,0.996567,-3.02939e-09,8.11081e-09,-0.0827902,3
65951176,0.999557,-0.00084208,-0.00724905,0.0288418,0.996567,-3.02939e-09,8.11081e-09,-0.0827902,3
66000834,0.999434,0.00828768,-0.00750101,0.0317208,0.996567,-3.02939e-09,8.11081e-09,-0.0827902,3
66050551,0.999285,0.0146791,-0.00793084,0.0339349,0.996567,-3.02939e-09,8.11081e-09,-0.0827902,3
66100180,0.999166,0.018305,-0.00785477,0.0356452,0.996567,-3.02939e-09,8.11081e-09,-0.0827902,3
66149847,0.999007,0.0236987,-0.00722449,0.0370226,0.996567,-3.02939e-09,8.11081e-09,-0.0827902,3
66199644,0.998795,0.0300374,-0.00624321,0.0383037,0.996567,-3.02939e-09,8.11081e-09,-0.0827902,3
66249193,0.998522,0.0366751,-0.00391163,0.0399128,0.996567,-3.02939e-09,8.11081e-09,-0.0827902,3
66303827,0.997979,0.0487946,-0.000517412,0.0406988,0.996567,-3.02939e-09,8.11081e-09,-0.0827902,3
66353497,0.997053,0.0641336,0.00513788,0.041772,0.996567,-3.02939e-09,8.11081e-09,-0.0827902,3
66398201,0.995987,0.0775837,0.0110741,0.0432174,0.996567,-3.02939e-09,8.11081e-09,-0.0827902,3
66447895,0.994968,0.0883847,0.0125523,0.0454896,0.996567,-3.02939e-09,8.11081e-09,-0.0827902,3
66502510,0.994692,0.0901861,0.00891858,0.04873,0.996567,-3.02939e-09,8.11081e-09,-0.0827902,3
66552181,0.995309,0.0818069,0.00486319,0.05142,0.996567,-3.02939e-09,8.11081e-09,-0.0827902,3
66601852,0.996407,0.0651446,0.00146527,0.0540983,0.996567,-3.02939e-09,8.11081e-09,-0.0827902,3
66651523,0.997236,0.0474144,-0.000190082,0.0572066,0.996567,-3.02939e-09,8.11081e-09,-0.0827902,3
66701212,0.997671,0.0305125,-0.00077977,0.0610042,0.996567,-3.02939e-09,8.11081e-09,-0.0827902,3
66751092,0.997241,0.0242925,0.000135139,0.0701456,0.999982,-2.58337e-09,1.47726e-10,0.00603212,4
66800536,0.996931,0.0256422,-0.000419952,0.0739676,0.999982,-2.58337e-09,1.47726e-10,0.00603212,4
66850207,0.996661,0.0235772,-0.00233181,0.0781356,0.999982,-2.58337e-09,1.47726e-10,0.00603212,4
66899878,0.996499,0.0176226,-0.00407225,0.0816205,0.999982,-2.58337e-09,1.47726e-10,0.00603212,4
66949549,0.996247,0.0124793,-0.0037786,0.0855673,0.999982,-2.58337e-09,1.47726e-10,0.00603212,4
67004357,0.99591,0.0123973,-0.00252446,0.0894583,0.999982,-2.58337e-09,1.47726e-10,0.00603212,4
67048893,0.995616,0.0147305,-0.00356725,0.0923006,0.999982,-2.58337e-09,1.47726e-10,0.00603212,4
67098562,0.995315,0.0166026,-0.00572598,0.0950794,0.999982,-2.58337e-09,1.47726e-10,0.00603212,4
67153202,0.995127,0.0151137,-0.00706468,0.0971802,0.999982,-2.58337e-09,1.47726e-10,0.00603212,4
67202871,0.995015,0.0166947,-0.00645348,0.0981075,0.999982,-2.58337e-09,1.47726e-10,0.00603212,4
67252557,0.994824,0.0193254,-0.00582437,0.0995884,0.999982,-2.58337e-09,1.47726e-10,0.00603212,4
67297246,0.994745,0.0224787,-0.00576138,0.0997208,0.999982,-2.58337e-09,1.47726e-10,0.00603212,4
67351885,0.994756,0.0195982,-0.00740373,0.100108,0.999982,-2.58337e-09,1.47726e-10,0.00603212,4
67401555,0.994816,0.0156596,-0.00783543,0.100171,0.999982,-2.58337e-09,1.47726e-10,0.00603212,4
67451226,0.994896,0.014651,-0.00700516,0.099587,0.999982,-2.58337e-09,1.47726e-10,0.00603212,4
67500898,0.994882,0.0156358,-0.0069415,0.099585,0.999982,-2.58337e-09,1.47726e-10,0.00603212,4
67550723,0.994936,0.0158026,-0.00794762,0.0989408,0.999982,-2.58337e-09,1.47726e-10,0.00603212,4
67600239,0.994954,0.0151097,-0.00843117,0.0988303,0.999982,-2.58337e-09,1.47726e-10,0.00603212,4
67649910,0.995034,0.0135556,-0.00785854,0.0982952,0.999982,-2.58337e-09,1.47726e-10,0.00603212,4
67699581,0.99502,0.0147446,-0.00710585,0.0983271,0.999982,-2.58337e-09,1.47726e-10,0.00603212,4
67749253,0.995003,0.0121595,-0.0071898,0.0988409,0.999982,-2.58337e-09,1.47726e-10,0.00603212,4
67798985,0.995003,0.0137189,-0.00648062,0.0986864,0.999982,-2.58337e-09,1.47726e-10,0.00603212,4
67853561,0.994969,0.0152083,-0.00601103,0.0988434,0.999982,-2.58337e-09,1.47726e-10,0.00603212,4
67903232,0.994903,0.0146697,-0.00589026,0.0995904,0.999982,-2.58337e-09,1.47726e-10,0.00603212,4
67952904,0.994953,0.014008,-0.00636029,0.0991527,0.999982,-2.58337e-09,1.47726e-10,0.00603212,4
67997608,0.994976,0.0103141,-0.00607477,0.0993973,0.999982,-2.58337e-09,1.47726e-10,0.00603212,4
68052245,0.995012,0.0101506,-0.00454005,0.0991368,0.999982,-2.58337e-09,1.47726e-10,0.00603212,4
68101916,0.994969,0.0122681,-0.00424849,0.0993405,0.999982,-2.58337e-09,1.47726e-10,0.00603212,4
68151590,0.994952,0.0147524,-0.00439868,0.0991645,0.999982,-2.58337e-09,1.47726e-10,0.00603212,4
68201258,0.99497,0.0149943,-0.0055419,0.0988896,0.999982,-2.58337e-09,1.47726e-10,0.00603212,4
68250929,0.994975,0.0141961,-0.00747185,0.0988327,0.999982,-2.58337e-09,1.47726e-10,0.00603212,4
68300600,0.994988,0.0143194,-0.0107147,0.0983792,0.999982,-2.58337e-09,1.47726e-10,0.00603212,4
68350386,0.99482,0.0164909,-0.0163809,0.098963,0.999982,-2.58337e-09,1.47726e-10,0.00603212,4
68399942,0.994634,0.0180212,-0.0231724,0.0992011,0.999982,-2.58337e-09,1.47726e-10,0.00603212,4
68449613,0.994431,0.0177708,-0.0311064,0.0991161,0.999982,-2.58337e-09,1.47726e-10,0.00603212,4
68499284,0.994112,0.0184244,-0.0386063,0.0995573,0.999982,-2.58337e-09,1.47726e-10,0.00603212,4
68548955,0.993884,0.0159464,-0.0461178,0.0990622,0.999982,-2.58337e-09,1.47726e-10,0.00603212,4
68603634,0.99374,0.0130354,-0.0512542,0.0984093,0.999982,-2.58337e-09,1.47726e-10,0.00603212,4
68648297,0.993682,0.0120119,-0.0529601,0.0982217,0.999982,-2.58337e-09,1.47726e-10,0.00603212,4
68697968,0.993588,0.014601,-0.0542866,0.0980916,0.999982,-2.58337e-09,1.47726e-10,0.00603212,4
68752606,0.993334,0.0176488,-0.0583733,0.0978208,0.999982,-2.58337e-09,1.47726e-10,0.00603212,4
68802277,0.993161,0.0134695,-0.0631274,0.0972847,0.999982,-2.58337e-09,1.47726e-10,0.00603212,4
68851960,0.993297,0.00991547,-0.0635716,0.0960237,0.999982,-2.58337e-09,1.47726e-10,0.00603212,4
68901851,0.993741,0.00803998,-0.0583016,0.0949468,0.999982,-2.58337e-09,1.47726e-10,0.00603212,4
68951290,0.994279,0.00937243,-0.0500249,0.0939093,0.999982,-2.58337e-09,1.47726e-10,0.00603212,4
69000991,0.994807,0.0096752,-0.0410855,0.0926159,0.999982,-2.58337e-09,1.47726e-10,0.00603212,4
69050632,0.995159,0.0109792,-0.0334282,0.0917679,0.999982,-2.58337e-09,1.47726e-10,0.00603212,4
69100303,0.995419,0.0139105,-0.0271492,0.0906147,0.999982,-2.58337e-09,1.47726e-10,0.00603212,4
69150058,0.995594,0.0156347,-0.0213962,0.0899486,0.999982,-2.58337e-09,1.47726e-10,0.00603212,4
69199645,0.995786,0.0140466,-0.0148434,0.0894061,0.999982,-2.58337e-09,1.47726e-10,0.00603212,4
69254284,0.99597,0.0119212,-0.00725706,0.0885947,0.999982,-2.58337e-09,1.47726e-10,0.00603212,4
69303954,0.996027,0.014165,-0.00192106,0.0878938,0.999982,-2.58337e-09,1.47726e-10,0.00603212,4
69348658,0.995917,0.0203726,0.00200491,0.0879246,0.999982,-2.58337e-09,1.47726e-10,0.00603212,4
69398330,0.995695,0.0283472,0.00573233,0.088061,0.999982,-2.58337e-09,1.47726e-10,0.00603212,4
69452967,0.995541,0.0311225,0.00975936,0.0885079,0.999982,-2.58337e-09,1.47726e-10,0.00603212,4
69502638,0.995179,0.0391958,0.0122019,0.0890712,0.999982,-2.58337e-09,1.47726e-10,0.00603212,4
69552309,0.994522,0.0508862,0.0132372,0.0903409,0.999982,-2.58337e-09,1.47726e-10,0.00603212,4
69601980,0.993747,0.0629801,0.0135876,0.0911931,0.999982,-2.58337e-09,1.47726e-10,0.00603212,4
69651651,0.993077,0.0714092,0.0148531,0.0920818,0.999982,-2.58337e-09,1.47726e-10,0.00603212,4
69701473,0.992789,0.073558,0.0150876,0.0934458,0.999982,-2.58337e-09,1.47726e-10,0.00603212,4
69750992,0.992604,0.0732795,0.0165972,0.0953479,0.999982,-2.58337e-09,1.47726e-10,0.00603212,4
69800674,0.992635,0.0710599,0.0165329,0.0967142,0.999982,-2.58337e-09,1.47726e-10,0.00603212,4
69850352,0.992798,0.0681157,0.014338,0.0975037,0.999982,-2.58337e-09,1.47726e-10,0.00603212,4
69900007,0.992917,0.0653216,0.0101561,0.0987239,0.999982,-2.58337e-09,1.47726e-10,0.00603212,4
69954723,0.993872,0.0470853,0.00341862,0.0999509,0.999982,-2.58337e-09,1.47726e-10,0.00603212,4
69999348,0.994433,0.0295529,-0.000215943,0.101145,0.999982,-2.58337e-09,1.47726e-10,0.00603212,4
70049025,0.994692,0.0190897,0.000348878,0.101109,0.999982,-2.58337e-09,1.47726e-10,0.00603212,4
70098695,0.994648,0.0179863,0.000585309,0.101739,0.999982,-2.58337e-09,1.47726e-10,0.00603212,4
70153328,0.994569,0.0192828,-0.00261836,0.10224,0.999982,-2.58337e-09,1.47726e-10,0.00603212,4
70203023,0.994563,0.0170039,-0.00578161,0.10258,0.999982,-2.58337e-09,1.47726e-10,0.00603212,4
70247889,0.994621,0.013717,-0.00589781,0.1025,0.999982,-2.58337e-09,1.47726e-10,0.00603212,4
70297374,0.994664,0.0120725,-0.00557566,0.102311,0.999982,-2.58337e-09,1.47726e-10,0.00603212,4
70352012,0.994682,0.0119459,-0.00651021,0.102091,0.999982,-2.58337e-09,1.47726e-10,0.00603212,4
70401683,0.994677,0.0142936,-0.00738506,0.101778,0.999982,-2.58337e-09,1.47726e-10,0.00603212,4
70451354,0.994673,0.0145714,-0.00866049,0.101673,0.999982,-2.58337e-09,1.47726e-10,0.00603212,4
70501142,0.994622,0.0136177,-0.0136152,0.101763,0.999982,-2.58337e-09,1.47726e-10,0.00603212,4
70550697,0.994409,0.0143865,-0.0228378,0.102088,0.999982,-2.58337e-09,1.47726e-10,0.00603212,4
70600368,0.994045,0.0179797,-0.0325312,0.102438,0.999982,-2.58337e-09,1.47726e-10,0.00603212,4
70650038,0.993757,0.0167371,-0.0400959,0.102762,0.999982,-2.58337e-09,1.47726e-10,0.00603212,4
70699708,0.993673,0.0120299,-0.0432696,0.102941,0.999982,-2.58337e-09,1.47726e-10,0.00603212,4
70749396,0.993697,0.010365,-0.0424198,0.103244,0.999982,-2.58337e-09,1.47726e-10,0.00603212,4
70799065,0.993632,0.0138781,-0.0410532,0.104008,0.999982,-2.58337e-09,1.47726e-10,0.00603212,4
70853689,0.993422,0.0206066,-0.0422074,0.104434,0.999982,-2.58337e-09,1.47726e-10,0.00603212,4
70903360,0.993193,0.0230169,-0.0443767,0.105212,0.999982,-2.58337e-09,1.47726e-10,0.00603212,4
70948064,0.993174,0.0209276,-0.0444208,0.105801,0.999982,-2.58337e-09,1.47726e-10,0.00603212,4
70997736,0.993342,0.0147733,-0.0437721,0.105537,0.999982,-2.58337e-09,1.47726e-10,0.00603212,4
71052559,0.993572,0.0131189,-0.0387274,0.10556,0.999982,-2.58337e-09,1.47726e-10,0.00603212,4
71102044,0.993599,0.0180109,-0.036278,0.105454,0.999982,-2.58337e-09,1.47726e-10,0.00603212,4
71151715,0.993497,0.0211718,-0.0361235,0.105878,0.999982,-2.58337e-09,1.47726e-10,0.00603212,4
71201386,0.993652,0.0205764,-0.031983,0.105876,0.999982,-2.58337e-09,1.47726e-10,0.00603212,4
71251057,0.993862,0.0178436,-0.0254788,0.106162,0.999982,-2.58337e-09,1.47726e-10,0.00603212,4
71300808,0.993936,0.0166741,-0.0221254,0.106417,0.999982,-2.58337e-09,1.47726e-10,0.00603212,4
71350399,0.993872,0.0177807,-0.0241909,0.106378,0.999982,-2.58337e-09,1.47726e-10,0.00603212,4
71400111,0.99373,0.0197861,-0.0265929,0.106783,0.999982,-2.58337e-09,1.47726e-10,0.00603212,4
71449741,0.993674,0.0184347,-0.0280002,0.107182,0.999982,-2.58337e-09,1.47726e-10,0.00603212,4
71499422,0.993776,0.0115118,-0.0285506,0.107055,0.999982,-2.58337e-09,1.47726e-10,0.00603212,4
71554061,0.994012,0.00921718,-0.0235604,0.106304,0.999982,-2.58337e-09,1.47726e-10,0.00603212,4
