timestamp,roll,pitch,yaw,thrust_body[0],thrust_body[1],thrust_body[2]
40748774,0.00827594,0.0797029,-0.000889248,0.0,0.0,-0.0
40753785,0.00886962,0.0785091,-0.00131226,0.0,0.0,-0.0
40768594,0.00773289,0.0797423,-0.00171183,0.0,0.0,-0.0
40793396,0.00816918,0.0690686,-0.00121713,0.0,0.0,-0.0
40813253,0.00855383,0.0786757,-0.00137121,0.0,0.0,-0.0
40833180,0.00960489,0.0807658,0.00010749,0.0,0.0,-0.0
40853062,0.00698893,0.0787421,-0.00185615,0.0,0.0,-0.0
40872882,0.0100442,0.0677541,-0.001347,0.0,0.0,-0.0
40892728,0.00868887,0.0778966,-0.00124889,0.0,0.0,-0.0
40907701,0.0120975,0.0785461,-0.000162774,0.0,0.0,-0.0
40932600,0.00402476,0.0786515,-0.00208557,0.0,0.0,-0.0
40952343,0.00976776,0.0720401,-0.00296543,0.0,0.0,-0.0
40972399,0.0122135,0.0683704,9.24985e-05,0.0,0.0,-0.0
40992243,-0.00319552,0.0676063,-0.00216842,0.0,0.0,-0.0
41012092,0.0187769,0.0821256,-0.00238525,0.0,0.0,-0.0
41031962,0.00759331,0.0659682,0.0010357,0.0,0.0,-0.0
41051832,0.00256647,0.0675084,-0.00269027,0.0,0.0,-0.0
41071571,0.0132889,0.0743504,-0.00270092,0.0,0.0,-0.0
41091351,0.0116479,0.0672669,9.48769e-06,0.0,0.0,-0.0
41111220,0.00341816,0.0657539,-0.000510408,0.0,0.0,-0.0
41131137,0.0075368,0.0716176,-0.00293476,0.0,0.0,-0.0
41151017,0.0105001,0.0710455,-0.00206133,0.0,0.0,-0.0
41170950,0.00739277,0.0660528,0.000706904,0.0,0.0,-0.0
41190928,0.00624897,0.0795721,-0.00142863,0.0,0.0,-0.0
41210755,0.00754119,0.0725807,-0.00302524,0.0,0.0,-0.0
41230543,0.00836266,0.0694634,-0.00096163,0.0,0.0,-0.0
41255355,0.00880561,0.0769746,-0.000384105,0.0,0.0,-0.0
41270258,0.00753368,0.0699452,-0.00175686,0.0,0.0,-0.0
41290063,0.00556531,0.0728762,-0.00311722,0.0,0.0,-0.0
41314994,0.00604214,0.0823776,-0.00214683,0.0,0.0,-0.0
41329860,0.00997798,0.0751928,0.000123294,0.0,0.0,-0.0
41349730,0.00542003,0.0678473,-0.00175413,0.0,0.0,-0.0
41369591,0.00502619,0.072278,-0.00244124,0.0,0.0,-0.0
41394404,0.00502329,0.073764,-0.00166062,0.0,0.0,-0.0
41409348,0.0112707,0.0741011,-0.000273248,0.0,0.0,-0.0
41429161,0.00487932,0.0781399,-0.00226038,0.0,0.0,-0.0
41454227,0.0031079,0.0704786,-0.00250391,0.0,0.0,-0.0
41469139,0.0112806,0.0717971,-0.00055608,0.0,0.0,-0.0
41488877,0.0128325,0.0704591,-0.000505785,0.0,0.0,-0.0
41513657,0.0112292,0.0697619,-0.00131733,0.0,0.0,-0.0
41533572,0.0024506,0.0702975,-0.00192671,0.0,0.0,-0.0
41548457,0.0115425,0.0830238,-0.000918534,0.0,0.0,-0.0
41573230,0.013336,0.0700276,-0.000762086,0.0,0.0,-0.0
41593073,0.0114438,0.0692027,-0.00156285,0.0,0.0,-0.0
41607964,0.00198778,0.0843972,-0.000946315,0.0,0.0,-0.0
41633005,0.00373797,0.0851846,-0.00064437,0.0,0.0,-0.0
41652738,0.0145486,0.0802275,-0.00106678,0.0,0.0,-0.0
41672604,0.0111276,0.0606694,-0.00135364,0.0,0.0,-0.0124847
41692427,0.000421995,0.065807,-0.00158442,0.0,0.0,-0.0124847
41712393,0.002818,0.0759323,-0.00077114,0.0,0.0,-0.021224
41732256,0.014506,0.0709646,-0.001164,0.0,0.0,-0.0299633
41752069,0.0117195,0.0691761,-0.00140677,0.0,0.0,-0.0337087
41771950,0.000215563,0.06253,-0.00208103,0.0,0.0,-0.0337087
41791812,0.000290294,0.0853805,-0.000719937,0.0,0.0,-0.0349572
41811735,0.0118644,0.0755016,-0.000416683,0.0,0.0,-0.0362056
41831520,0.0161986,0.0728304,-0.00120584,0.0,0.0,-0.0362056
41851400,0.00594463,0.0569093,-0.00222246,0.0,0.0,-0.0362056
41871253,-0.00303281,0.0663411,-0.00148681,0.0,0.0,-0.0362056
41891161,0.00265813,0.0776529,-0.0010046,0.0,0.0,-0.0362056
41910917,0.013884,0.0762934,-0.000240943,0.0,0.0,-0.0362056
41930788,0.0176428,0.0649055,-0.000844788,0.0,0.0,-0.0362056
41950718,0.00709252,0.0660218,-0.00222605,0.0,0.0,-0.0349572
41970585,-0.00324469,0.0714698,-0.00214971,0.0,0.0,-0.0349572
41990584,-0.00238825,0.083941,-0.00207728,0.0,0.0,-0.0349572
42010361,0.0105576,0.0795318,-0.000232031,0.0,0.0,-0.0349572
42030225,0.0193645,0.0822655,-0.000458143,0.0,0.0,-0.0374541
42050112,0.0158135,0.070424,-0.000525871,0.0,0.0,-0.0374541
42070007,0.00302594,0.0553765,-0.0017124,0.0,0.0,-0.0449449
42094779,0.00500284,0.0646687,-0.0015559,0.0,0.0,-0.0674174
42109807,-0.0014498,0.0858344,-0.00309454,0.0,0.0,-0.0786536
42129613,0.0128812,0.0813699,-0.00052881,0.0,0.0,-0.102375
42154413,0.00500258,0.0831363,-0.00048514,0.0,0.0,-0.171579
42169380,0.019834,0.0594437,-0.000343562,0.0,0.0,-0.171579
42189081,0.0142917,0.0469032,-0.00062063,0.0,0.0,-0.172632
42213940,0.000737563,0.0794351,0.00220952,0.0,0.0,-0.173684
42233805,-0.0116918,0.0853801,0.0022296,0.0,0.0,-0.173684
42248929,0.0109739,0.0810752,0.00102534,0.0,0.0,-0.173684
42273843,-0.0111535,0.0699467,-0.00049221,0.0,0.0,-0.173684
42293585,0.00982151,0.0541244,0.00180439,0.0,0.0,-0.173684
42308395,0.00299836,0.0592816,0.00110267,0.0,0.0,-0.173684
42333234,-0.00760289,0.0822063,0.00141574,0.0,0.0,-0.173684
42353026,-0.0115574,0.0809428,0.00151049,0.0,0.0,-0.173684
42372956,0.00800633,0.0674936,-0.00161802,0.0,0.0,-0.173684
42392860,0.0160768,0.0705079,-0.000140731,0.0,0.0,-0.172632
42412693,-0.00153305,0.0813995,0.00107287,0.0,0.0,-0.172632
42432572,-0.00872443,0.0753769,-0.00133935,0.0,0.0,-0.172632
42452435,0.00823453,0.0686291,0.00041069,0.0,0.0,-0.172632
42472328,0.0109488,0.0765202,0.00168012,0.0,0.0,-0.172632
42492180,0.00537327,0.0657954,-0.000268816,0.0,0.0,-0.174737
42512080,0.00026435,0.0751627,-0.00118211,0.0,0.0,-0.18
42531922,0.00489484,0.0702756,0.000998682,0.0,0.0,-0.195789
42551782,0.00987452,0.0689027,0.00181921,0.0,0.0,-0.212632
42571657,0.00504486,0.0670034,-0.000572957,0.0,0.0,-0.216842
42591529,-0.00088972,0.0808451,0.00102994,0.0,0.0,-0.227368
42611389,0.011399,0.0685644,0.000971988,0.0,0.0,-0.232632
42631321,0.0206025,0.0692583,-0.000863348,0.0,0.0,-0.232632
42651181,0.00265097,0.0855749,0.000153646,0.0,0.0,-0.233684
42670927,-0.00357969,0.0740855,0.00305478,0.0,0.0,-0.236842
42690799,0.0105453,0.0635095,0.000290773,0.0,0.0,-0.238947
42710678,-0.00335573,0.0780483,0.00318705,0.0,0.0,-0.246316
42730660,0.00223669,0.0555066,0.00298704,0.0,0.0,-0.268421
42750481,0.00513407,0.0744776,0.00155994,0.0,0.0,-0.288421
42770286,-0.00159553,0.0771922,0.00336143,0.0,0.0,-0.288421
42795198,0.00302098,0.0780619,0.00131826,0.0,0.0,-0.290526
42810174,0.0042191,0.0835416,0.00126734,0.0,0.0,-0.290526
42829888,0.00442492,0.0729729,0.00201426,0.0,0.0,-0.290526
42854724,0.00511259,0.0648231,0.00245928,0.0,0.0,-0.288421
42869712,0.00462774,0.061625,0.00325974,0.0,0.0,-0.288421
42889683,0.00608392,0.0602157,0.00156854,0.0,0.0,-0.289474
42914415,0.00541222,0.0672213,0.0033591,0.0,0.0,-0.290526
42934266,0.004047,0.0722631,0.00223466,0.0,0.0,-0.290526
42949140,0.00606833,0.0743859,0.00224113,0.0,0.0,-0.290526
42973989,0.0068492,0.0611075,0.00258841,0.0,0.0,-0.289474
42993733,0.000810092,0.0598835,0.00509348,0.0,0.0,-0.289474
43008649,0.00157055,0.0586591,0.00491256,0.0,0.0,-0.289474
43028507,0.00908725,0.0654573,0.00388776,0.0,0.0,-0.289474
43053489,0.00163338,0.058652,0.00445761,0.0,0.0,-0.290526
43073396,0.00378725,0.0745648,0.004102,0.0,0.0,-0.291579
43088263,0.00149808,0.0741533,0.00432055,0.0,0.0,-0.291579
43113118,0.00878436,0.0573914,0.00261859,0.0,0.0,-0.292632
43133005,-0.0018641,0.0715518,0.00269348,0.0,0.0,-0.290526
43147819,-0.00295251,0.0657259,0.00330359,0.0,0.0,-0.288421
43172641,0.00237502,0.0659856,0.00160693,0.0,0.0,-0.285263
43192535,0.00389657,0.0607942,0.00162356,0.0,0.0,-0.285263
43212446,0.00607342,0.0638814,0.00170425,0.0,0.0,-0.285263
43232328,-0.000106466,0.0565694,0.00218791,0.0,0.0,-0.285263
43252074,0.00798325,0.0667019,0.00284277,0.0,0.0,-0.283158
43271955,0.00242533,0.0569038,0.00143754,0.0,0.0,-0.275789
43291869,0.00457019,0.058362,0.00314792,0.0,0.0,-0.275789
43311782,0.00524261,0.0564851,0.000568988,0.0,0.0,-0.275789
43331643,-0.000929783,0.0629291,0.00296506,0.0,0.0,-0.261053
43351704,0.00814736,0.0546268,0.00237101,0.0,0.0,-0.254737
43371391,-0.000452936,0.0623747,0.00144108,0.0,0.0,-0.249474
43391289,0.00427145,0.0510842,0.00245528,0.0,0.0,-0.234737
43411202,0.00631406,0.0564109,0.0010615,0.0,0.0,-0.234737
43431020,-0.00141031,0.0568324,0.0011195,0.0,0.0,-0.234737
43450804,0.00846871,0.0624811,0.00126939,0.0,0.0,-0.214737
43470578,-0.00161351,0.0649173,0.00136599,0.0,0.0,-0.213684
43490459,0.00388301,0.0573037,0.000403508,0.0,0.0,-0.209474
43510313,0.00885029,0.0620896,-0.00016473,0.0,0.0,-0.183158
43530233,0.00337252,0.0596025,-0.00089011,0.0,0.0,-0.169474
43555081,0.00876185,0.0628583,0.00170391,0.0,0.0,-0.158947
43570022,0.0106364,0.0623666,0.00168905,0.0,0.0,-0.153684
43589965,0.00750711,0.0633456,-0.00107655,0.0,0.0,-0.153684
43609874,-0.00537547,0.0752281,0.00150989,0.0,0.0,-0.150526
43634648,0.0141575,0.0503946,-0.000813521,0.0,0.0,-0.122105
43649519,0.0195568,0.0483755,0.000786554,0.0,0.0,-0.122105
43669493,0.00887082,0.0638649,0.00139241,0.0,0.0,-0.117895
43694301,0.00376725,0.0576357,0.000178177,0.0,0.0,-0.115789
43709095,0.000242013,0.0498016,-0.000222912,0.0,0.0,-0.115789
43728967,0.0187572,0.0545525,0.000605602,0.0,0.0,-0.114737
43753742,-0.0120798,0.0682974,0.00365396,0.0,0.0,-0.114737
43773576,-0.00641382,0.065227,0.00146955,0.0,0.0,-0.115789
43788496,-0.0117695,0.0732162,0.00216511,0.0,0.0,-0.115789
43813388,0.0201447,0.0503539,0.000897257,0.0,0.0,-0.115789
43833221,0.0112618,0.0636303,0.00280789,0.0,0.0,-0.115789
43848237,0.0281129,0.0548691,0.00188645,0.0,0.0,-0.115789
43873120,-0.0146346,0.0677592,0.00142371,0.0,0.0,-0.115789
43892939,-0.00811733,0.0598027,0.00178587,0.0,0.0,-0.115789
43912749,0.00107932,0.0499014,3.28908e-05,0.0,0.0,-0.115789
43932642,0.0126916,0.0601481,0.0020014,0.0,0.0,-0.115789
43952490,0.0136962,0.0624098,0.00270456,0.0,0.0,-0.115789
43972384,0.0147141,0.0623473,0.00656223,0.0,0.0,-0.115789
43992265,0.0093894,0.0641737,0.00265907,0.0,0.0,-0.115789
44012137,0.00663956,0.0561456,0.00199262,0.0,0.0,-0.116842
44031987,0.00137678,0.0613687,0.000293344,0.0,0.0,-0.116842
44051855,-0.00349959,0.0661242,0.00130688,0.0,0.0,-0.116842
44071641,-0.0105696,0.0650573,0.00163036,0.0,0.0,-0.116842
44091463,-0.006656,0.0677717,0.00318923,0.0,0.0,-0.117895
44111410,0.00404422,0.0596962,0.00041303,0.0,0.0,-0.117895
44131312,0.022367,0.0417642,0.00103026,0.0,0.0,-0.121053
44151327,0.0281476,0.0504554,0.00011363,0.0,0.0,-0.135789
44171142,0.0203216,0.0634735,0.00243371,0.0,0.0,-0.144211
44190962,0.00189097,0.0753152,0.00412582,0.0,0.0,-0.181053
44210825,-0.0101527,0.0751666,0.00467754,0.0,0.0,-0.181053
44230708,-0.0152056,0.0661222,0.000789339,0.0,0.0,-0.211579
44250591,0.00556199,0.0542418,0.00135911,0.0,0.0,-0.211579
44270367,0.0134633,0.0511537,0.00099042,0.0,0.0,-0.213684
44290156,0.000744603,0.0602975,0.00327431,0.0,0.0,-0.214737
44310018,-0.00204406,0.0514639,0.00187003,0.0,0.0,-0.221053
44334911,0.00379037,0.0603849,0.00215241,0.0,0.0,-0.232632
44349811,0.00399949,0.0555367,0.00194997,0.0,0.0,-0.234737
44369660,-0.00289287,0.0676768,0.00025664,0.0,0.0,-0.237895
44394580,0.011457,0.0544069,0.00119377,0.0,0.0,-0.245263
44409579,0.0116869,0.0532521,0.000598892,0.0,0.0,-0.245263
44429618,-0.00128727,0.0654642,-0.000641366,0.0,0.0,-0.249474
44454190,0.00583839,0.0513582,-0.000176613,0.0,0.0,-0.256842
44474128,0.000971927,0.0516842,-0.0015082,0.0,0.0,-0.264211
44488993,0.00175273,0.0638331,-0.000277603,0.0,0.0,-0.270526
44513854,0.00469526,0.060809,-0.000153122,0.0,0.0,-0.292632
44533626,-0.00018277,0.0631834,0.000488101,0.0,0.0,-0.301053
44548479,0.000782682,0.0523088,0.00149961,0.0,0.0,-0.303158
44573291,-0.00139288,0.0445521,-0.00224082,0.0,0.0,-0.307368
44593146,-0.00400114,0.0537084,0.00152735,0.0,0.0,-0.308421
44613016,0.00460737,0.0409916,-0.00098502,0.0,0.0,-0.310526
44632959,-0.002575,0.0500442,-2.46351e-05,0.0,0.0,-0.310526
44652966,0.000439421,0.0550771,-0.000226714,0.0,0.0,-0.314737
44672833,0.00253322,0.0617522,-0.00181027,0.0,0.0,-0.316842
44687798,0.000538449,0.0580581,-0.000412317,0.0,0.0,-0.316842
44712513,0.00147759,0.0540166,-0.00155298,0.0,0.0,-0.316842
44732340,0.0028602,0.042523,0.00170751,0.0,0.0,-0.316842
44752262,0.00189574,0.0444065,-0.00129709,0.0,0.0,-0.316842
44772049,-0.00206562,0.05149,0.000887826,0.0,0.0,-0.316842
44791867,0.00342162,0.0574904,-0.00153264,0.0,0.0,-0.316842
44811824,-0.00368543,0.0619136,-0.00096835,0.0,0.0,-0.316842
44831653,-0.00113861,0.0429457,-0.00126172,0.0,0.0,-0.316842
44851483,-0.00281011,0.0560001,-0.00240761,0.0,0.0,-0.315789
44871330,-0.00181472,0.0404092,-0.000622212,0.0,0.0,-0.318947
44891235,0.00139667,0.0552775,-0.00258743,0.0,0.0,-0.329474
44911084,-0.00355646,0.0388072,8.82526e-05,0.0,0.0,-0.354737
44931153,0.000898179,0.0428395,-0.00150852,0.0,0.0,-0.363158
44951023,-0.00235965,0.0445451,0.00158816,0.0,0.0,-0.386316
44970787,0.00229463,0.0419251,-0.00154965,0.0,0.0,-0.392632
44990670,0.000587296,0.04388,-0.000756195,0.0,0.0,-0.392632
45010576,-0.00231024,0.0427673,-0.00177802,0.0,0.0,-0.393684
45030331,-0.00385655,0.0357097,-0.00152427,0.0,0.0,-0.393684
45050153,0.00145771,0.0401404,-0.00334735,0.0,0.0,-0.395789
45070030,-0.00520872,0.0380456,-0.00319533,0.0,0.0,-0.397895
45094817,-0.00192561,0.0419738,-0.00243512,0.0,0.0,-0.397895
45109816,-0.00379206,0.0433355,-0.00359475,0.0,0.0,-0.397895
45129696,-0.00533838,0.0397236,-0.0039251,0.0,0.0,-0.397895
45154550,-0.000964259,0.0342015,-0.00515958,0.0,0.0,-0.397895
45174376,-0.00753801,0.0323036,-0.00694863,0.0,0.0,-0.397895
45189351,-0.00595759,0.0352221,-0.00690804,0.0,0.0,-0.397895
45209190,-0.0128937,0.0340309,-0.00559557,0.0,0.0,-0.397895
45234244,-0.00712351,0.0343751,-0.00528444,0.0,0.0,-0.395789
45248982,-0.00233762,0.0349319,-0.00754584,0.0,0.0,-0.395789
45268959,-0.00229492,0.032729,-0.00761006,0.0,0.0,-0.396842
45293615,-0.000202455,0.0368689,-0.00989377,0.0,0.0,-0.395789
45313540,-0.00600255,0.0396539,-0.0124287,0.0,0.0,-0.395789
45328352,-0.00270442,0.0416187,-0.0111146,0.0,0.0,-0.395789
45353154,-0.00185861,0.035077,-0.0129915,0.0,0.0,-0.395789
45373121,-0.00344693,0.0344633,-0.013235,0.0,0.0,-0.395789
45387973,-0.00421029,0.0343122,-0.0156382,0.0,0.0,-0.394737
45412848,-0.00406734,0.0445054,-0.014352,0.0,0.0,-0.394737
45432644,-0.00588686,0.0435492,-0.0113523,0.0,0.0,-0.394737
45452511,-0.00821893,0.0430095,-0.0134018,0.0,0.0,-0.394737
45472424,-0.00237284,0.0372149,-0.013863,0.0,0.0,-0.395789
45492516,-0.00369472,0.0387353,-0.0144289,0.0,0.0,-0.395789
45512157,-0.00502571,0.038862,-0.0149888,0.0,0.0,-0.395789
45532024,-0.00657972,0.0423624,-0.0146873,0.0,0.0,-0.395789
45551892,-0.00611898,0.0341559,-0.018258,0.0,0.0,-0.396842
45571776,-0.00540256,0.0327148,-0.0156974,0.0,0.0,-0.395789
45591595,-0.00792087,0.0284662,-0.0167558,0.0,0.0,-0.395789
45611482,-0.00505631,0.0394979,-0.0183468,0.0,0.0,-0.395789
45631309,-0.00921769,0.0380527,-0.0164967,0.0,0.0,-0.396842
45651261,-0.0129735,0.0414112,-0.0168419,0.0,0.0,-0.396842
45671167,-0.0150762,0.0274992,-0.0159467,0.0,0.0,-0.395789
45690985,-0.00721961,0.0411139,-0.020389,0.0,0.0,-0.395789
45710847,-0.00579886,0.0289625,-0.0185295,0.0,0.0,-0.395789
45730708,-0.0114874,0.0276712,-0.0200117,0.0,0.0,-0.395789
45750609,-0.010425,0.0372902,-0.021661,0.0,0.0,-0.394737
45770526,-0.00570271,0.0245218,-0.0186349,0.0,0.0,-0.394737
45790312,-0.0112365,0.0373423,-0.0200003,0.0,0.0,-0.393684
45810176,-0.0159433,0.0214741,-0.0195331,0.0,0.0,-0.393684
45830059,-0.0095953,0.0237694,-0.0228694,0.0,0.0,-0.393684
45850024,-0.0087599,0.0341009,-0.0203968,0.0,0.0,-0.392632
45874782,-0.0079081,0.0377972,-0.0234287,0.0,0.0,-0.392632
45889678,-0.00513214,0.0299171,-0.0256295,0.0,0.0,-0.392632
45909627,-0.00590618,0.0407309,-0.0235428,0.0,0.0,-0.392632
45934407,-0.00535705,0.032554,-0.0246513,0.0,0.0,-0.392632
45949275,-0.00938607,0.0276424,-0.0243914,0.0,0.0,-0.392632
45969071,-0.00523644,0.0292445,-0.0273211,0.0,0.0,-0.392632
45993875,-0.00267039,0.029453,-0.0293749,0.0,0.0,-0.392632
46013777,-0.00617951,0.0294084,-0.0276693,0.0,0.0,-0.392632
46028849,-0.0045595,0.031933,-0.0296299,0.0,0.0,-0.392632
46053588,-0.00786521,0.0434652,-0.0287163,0.0,0.0,-0.413684
46073528,-0.00426027,0.0479964,-0.0283674,0.0,0.0,-0.413684
46088391,-0.00715121,0.0333656,-0.0287207,0.0,0.0,-0.416842
46113225,-0.0108841,0.0267659,-0.029835,0.0,0.0,-0.42
46133108,-0.00550435,0.0244882,-0.0320994,0.0,0.0,-0.42
46147934,-0.0134365,0.0228179,-0.0320073,0.0,0.0,-0.42
46172751,-0.014418,0.0215013,-0.0311654,0.0,0.0,-0.42
46192535,-0.0144814,0.0189063,-0.0302813,0.0,0.0,-0.42
46212416,-0.0106899,0.0215164,-0.0319393,0.0,0.0,-0.42
46232359,-0.01213,0.0227924,-0.0316028,0.0,0.0,-0.42
46252243,-0.0190039,0.0183258,-0.0322929,0.0,0.0,-0.42
46272120,-0.0161834,0.0210251,-0.0342205,0.0,0.0,-0.42
46292096,-0.0113567,0.0204482,-0.0348864,0.0,0.0,-0.42
46311980,-0.0115145,0.0175863,-0.0336573,0.0,0.0,-0.42
46331734,-0.0162147,0.017883,-0.0347714,0.0,0.0,-0.42
46351690,-0.018554,0.0130453,-0.0345768,0.0,0.0,-0.42
46371518,-0.0112193,0.0140477,-0.0358517,0.0,0.0,-0.424211
46391392,-0.0113772,0.0146861,-0.033316,0.0,0.0,-0.426316
46411283,-0.0194035,0.0151724,-0.035089,0.0,0.0,-0.430526
46431173,-0.0183233,0.0152057,-0.0367257,0.0,0.0,-0.430526
46450847,-0.0139525,0.0150851,-0.0380916,0.0,0.0,-0.434737
46470709,-0.0137056,0.0158071,-0.0372427,0.0,0.0,-0.436842
46490570,-0.0195115,0.0166115,-0.0378431,0.0,0.0,-0.446316
46510452,-0.0215437,0.0144128,-0.0383334,0.0,0.0,-0.451579
46530411,-0.0109297,0.0175279,-0.0405011,0.0,0.0,-0.46
46550297,-0.0116228,0.0205619,-0.0396472,0.0,0.0,-0.464211
46575329,-0.0140032,0.0150181,-0.0423066,0.0,0.0,-0.469474
46590079,-0.0176276,0.00907031,-0.0427343,0.0,0.0,-0.472632
46610110,-0.022476,0.00565952,-0.0431884,0.0,0.0,-0.472632
46634775,-0.0323799,0.00744843,-0.0424651,0.0,0.0,-0.503158
46649671,-0.0317393,0.00591387,-0.0415513,0.0,0.0,-0.503158
46669475,-0.0398286,0.00894068,-0.040534,0.0,0.0,-0.515398
46694240,-0.0253233,-0.00532969,-0.0419911,0.0,0.0,-0.520196
46714094,-0.02876,-0.00937426,-0.0416244,0.0,0.0,-0.520196
46728987,-0.0361705,-0.0170499,-0.0426109,0.0,0.0,-0.521395
46753828,-0.0331177,-0.0246016,-0.042375,0.0,0.0,-0.521395
46773750,-0.0263913,-0.0221416,-0.043059,0.0,0.0,-0.521395
46788798,-0.0420974,-0.0215956,-0.0439525,0.0,0.0,-0.520196
46813551,-0.0567871,-0.0287252,-0.043528,0.0,0.0,-0.520196
46833595,-0.0788341,-0.0354813,-0.0453413,0.0,0.0,-0.520196
46848415,-0.0903301,-0.0453941,-0.0465743,0.0,0.0,-0.520196
46868180,-0.113509,-0.0513117,-0.0482559,0.0,0.0,-0.520196
46893017,-0.103326,-0.0525268,-0.0504708,0.0,0.0,-0.520196
46912941,-0.106464,-0.0585369,-0.0524838,0.0,0.0,-0.520196
46927714,-0.086094,-0.0597425,-0.0570891,0.0,0.0,-0.521395
46952578,-0.0777761,-0.0656401,-0.0566196,0.0,0.0,-0.521395
46972424,-0.0672669,-0.066122,-0.0583658,0.0,0.0,-0.521395
46992304,-0.0508502,-0.072598,-0.0582265,0.0,0.0,-0.521395
47012175,-0.0476879,-0.0856145,-0.0592054,0.0,0.0,-0.520196
47032065,-0.0539176,-0.10191,-0.0588438,0.0,0.0,-0.520196
47051888,-0.0621475,-0.11201,-0.058469,0.0,0.0,-0.521395
47071822,-0.0731441,-0.126909,-0.0589368,0.0,0.0,-0.521395
47091743,-0.0761806,-0.140479,-0.0591715,0.0,0.0,-0.526193
47111701,-0.0837092,-0.145007,-0.0602764,0.0,0.0,-0.527393
47131473,-0.0663596,-0.142066,-0.0599863,0.0,0.0,-0.526193
47151348,-0.0362476,-0.158941,-0.059996,0.0,0.0,-0.526193
47171123,0.00595421,-0.210473,-0.0593849,0.0,0.0,-0.527393
47191025,0.00405491,-0.33964,-0.057713,0.0,0.0,-0.526193
47210819,0.0149715,-0.381779,-0.0564706,0.0,0.0,-0.526193
47230709,0.010368,-0.443183,-0.0553969,0.0,0.0,-0.526193
47250602,0.00279185,-0.414465,-0.0555983,0.0,0.0,-0.526193
47275528,0.00867737,-0.47925,-0.0533586,0.0,0.0,-0.526193
47290414,-0.000152813,-0.442955,-0.0543965,0.0,0.0,-0.526193
47310268,0.00244793,-0.488756,-0.0548762,0.0,0.0,-0.524994
47330103,-0.00156073,-0.477335,-0.0545759,0.0,0.0,-0.523794
47349997,-0.0107517,-0.422068,-0.0546532,0.0,0.0,-0.523794
47370166,-0.0204094,-0.404885,-0.0542711,0.0,0.0,-0.523794
47389786,-0.0277906,-0.398671,-0.0531776,0.0,0.0,-0.522595
47409586,-0.0372599,-0.369791,-0.0522687,0.0,0.0,-0.522595
47429473,-0.0491032,-0.32204,-0.0513165,0.0,0.0,-0.522595
47449330,-0.0577703,-0.330515,-0.0512143,0.0,0.0,-0.521395
47474088,-0.0753518,-0.319076,-0.0495417,0.0,0.0,-0.521395
47488992,-0.0674801,-0.309899,-0.0497168,0.0,0.0,-0.521395
47508956,-0.0572743,-0.286269,-0.0510552,0.0,0.0,-0.521395
47533812,-0.0523541,-0.257725,-0.0486963,0.0,0.0,-0.521395
47553679,-0.0537971,-0.231957,-0.0495431,0.0,0.0,-0.521395
47568573,-0.0369981,-0.224362,-0.0508261,0.0,0.0,-0.522595
47593536,-0.0431914,-0.187672,-0.0526265,0.0,0.0,-0.522595
47613240,-0.0383373,-0.161279,-0.0538026,0.0,0.0,-0.522595
47628206,-0.0396161,-0.145399,-0.0538693,0.0,0.0,-0.522595
47653106,-0.0304189,-0.116776,-0.055461,0.0,0.0,-0.522595
47672798,-0.0518394,-0.0650702,-0.0565729,0.0,0.0,-0.523794
47692710,-0.0700349,-0.0367779,-0.0561188,0.0,0.0,-0.523794
47712552,-0.0604818,-0.0161916,-0.0563774,0.0,0.0,-0.523794
47732468,-0.0654064,-0.0060981,-0.0559729,0.0,0.0,-0.523794
47752294,-0.0666396,0.0100336,-0.0559241,0.0,0.0,-0.524994
47772193,-0.0620603,0.0856386,-0.0568512,0.0,0.0,-0.524994
47792052,-0.046769,0.131211,-0.056677,0.0,0.0,-0.524994
47811922,-0.0263402,0.163636,-0.0555874,0.0,0.0,-0.524994
47831796,-0.0115577,0.189117,-0.0543403,0.0,0.0,-0.526193
47851669,-0.00757728,0.16769,-0.0527301,0.0,0.0,-0.526193
47871428,0.00231926,0.156101,-0.0521819,0.0,0.0,-0.501053
47891349,0.000149796,0.235018,-0.0523826,0.0,0.0,-0.515398
47911276,-0.000959223,0.253549,-0.0520729,0.0,0.0,-0.520196
47931199,0.00583667,0.365679,-0.0530115,0.0,0.0,-0.522595
47951061,0.00418579,0.376765,-0.0519538,0.0,0.0,-0.522595
47970917,-0.00666002,0.423075,-0.0521679,0.0,0.0,-0.523794
47990785,-0.0136364,0.427678,-0.0508984,0.0,0.0,-0.53339
48010631,-0.0319227,0.35827,-0.0484684,0.0,0.0,-0.53339
48030467,-0.0358576,0.280953,-0.0459401,0.0,0.0,-0.53339
48050238,-0.0442905,0.205157,-0.0438788,0.0,0.0,-0.53459
48070110,-0.0391705,0.135828,-0.0413183,0.0,0.0,-0.536989
48089988,-0.0346645,0.0866464,-0.0392212,0.0,0.0,-0.535789
48114914,-0.0304091,0.0505552,-0.0387151,0.0,0.0,-0.535789
48129801,-0.0191391,0.0333466,-0.0372983,0.0,0.0,-0.535789
48149659,-0.0145568,0.0115838,-0.0366587,0.0,0.0,-0.540587
48174605,0.0157861,0.00951323,-0.0388131,0.0,0.0,-0.546585
48189535,0.00787523,0.0115467,-0.037775,0.0,0.0,-0.546585
48209381,0.00789125,0.00945238,-0.0394352,0.0,0.0,-0.546585
48234075,0.0220489,-0.0781039,-0.0423577,0.0,0.0,-0.546585
48254172,0.0150129,-0.0952351,-0.0436176,0.0,0.0,-0.546585
48268923,0.00893953,-0.119359,-0.0461943,0.0,0.0,-0.547785
48293709,0.0319628,-0.190982,-0.047347,0.0,0.0,-0.547785
48313543,0.0477448,-0.225322,-0.049647,0.0,0.0,-0.551383
48328511,0.081372,-0.239271,-0.0557714,0.0,0.0,-0.557381
48353278,0.0926159,-0.245231,-0.0565747,0.0,0.0,-0.562179
48373139,0.114677,-0.242154,-0.0593149,0.0,0.0,-0.563378
48393020,0.126846,-0.239834,-0.0616602,0.0,0.0,-0.563378
48412964,0.120992,-0.22989,-0.0639412,0.0,0.0,-0.563378
48432952,0.103355,-0.194169,-0.0648046,0.0,0.0,-0.563378
48452816,0.0712688,-0.273509,-0.0656545,0.0,0.0,-0.562179
48472554,0.0481915,-0.28462,-0.064977,0.0,0.0,-0.562179
48492428,-9.92245e-05,-0.323471,-0.0642336,0.0,0.0,-0.562179
48512242,-0.0276667,-0.382902,-0.0629783,0.0,0.0,-0.562179
48532115,-0.0507619,-0.384756,-0.0631775,0.0,0.0,-0.562179
48551937,-0.0621642,-0.414947,-0.062473,0.0,0.0,-0.55978
48571855,-0.064929,-0.434763,-0.0609073,0.0,0.0,-0.55858
48591796,-0.059687,-0.407689,-0.0598628,0.0,0.0,-0.55858
48611706,-0.0465323,-0.356666,-0.0597823,0.0,0.0,-0.55858
48631472,-0.0372369,-0.322992,-0.0591792,0.0,0.0,-0.55978
48651353,-0.0468119,-0.263856,-0.0580681,0.0,0.0,-0.55978
48671176,-0.0468951,-0.224682,-0.0571735,0.0,0.0,-0.557381
48690993,-0.048809,-0.199421,-0.0554642,0.0,0.0,-0.553782
48710943,-0.0436365,-0.178117,-0.0541193,0.0,0.0,-0.553782
48731031,-0.0306277,-0.155244,-0.0538423,0.0,0.0,-0.552583
48750693,-0.00877012,-0.145321,-0.0546003,0.0,0.0,-0.548984
48770572,0.00702471,-0.104373,-0.0551361,0.0,0.0,-0.545386
48790558,0.0211217,-0.0915883,-0.0557394,0.0,0.0,-0.545386
48815370,0.0234347,-0.0134016,-0.0547939,0.0,0.0,-0.540587
48830197,0.0318062,-0.0117183,-0.0562615,0.0,0.0,-0.540587
48850061,0.023764,0.0462754,-0.0240793,0.0,0.0,-0.539388
48874915,0.00778971,0.0690878,-0.00223619,0.0,0.0,-0.539388
48889807,0.00425493,0.170734,0.114792,0.0,0.0,-0.538188
48909598,-0.00124509,0.253786,0.165449,0.0,0.0,-0.536989
48934384,-0.00826835,0.276283,0.189908,0.0,0.0,-0.535789
48954244,-0.00344452,0.389834,0.195974,0.0,0.0,-0.535789
48969457,0.024819,0.420944,0.218504,0.0,0.0,-0.535789
48989193,0.039023,0.446509,0.333554,0.0,0.0,-0.53339
49014192,0.0397022,0.389353,0.348442,0.0,0.0,-0.53459
49028921,0.0437065,0.331262,0.355281,0.0,0.0,-0.53459
49048799,0.0422234,0.255488,0.34418,0.0,0.0,-0.53459
49073549,0.00663692,0.177882,0.358499,0.0,0.0,-0.53459
49093379,-0.0122923,0.113189,0.377075,0.0,0.0,-0.53339
49108236,-0.0270465,0.0728098,0.400258,0.0,0.0,-0.53459
49133119,-0.0418462,0.0285953,0.419241,0.0,0.0,-0.53459
49153042,-0.0426609,0.00177114,0.421404,0.0,0.0,-0.53459
49167914,-0.0470769,-0.0133418,0.432565,0.0,0.0,-0.53459
49192856,-0.0482496,-0.0327557,0.444916,0.0,0.0,-0.53459
49212605,-0.0533815,-0.0456474,0.447486,0.0,0.0,-0.535789
49232521,-0.0566606,-0.0522036,0.494541,0.0,0.0,-0.541787
49252432,-0.0503276,-0.058748,0.504226,0.0,0.0,-0.541787
49272323,-0.0582097,-0.065691,0.506367,0.0,0.0,-0.541787
49292162,-0.0572829,-0.0688376,0.521275,0.0,0.0,-0.541787
49311987,-0.0566383,-0.074983,0.509553,0.0,0.0,-0.541787
49331849,-0.0553721,-0.0795895,0.516822,0.0,0.0,-0.541787
49351740,-0.0393845,-0.0871617,0.504713,0.0,0.0,-0.541787
49371688,-0.0370505,-0.104156,0.504419,0.0,0.0,-0.541787
49391351,-0.0102763,-0.176546,0.523933,0.0,0.0,-0.541787
49411261,0.0236434,-0.24884,0.511762,0.0,0.0,-0.541787
49431142,0.0856211,-0.376487,0.491714,0.0,0.0,-0.541787
49451071,0.110604,-0.460689,0.477005,0.0,0.0,-0.541787
49470927,0.0877477,-0.451446,0.474553,0.0,0.0,-0.541787
49490799,0.082319,-0.511174,0.459551,0.0,0.0,-0.541787
49510716,0.0619265,-0.581513,0.437577,0.0,0.0,-0.541787
49530690,0.0297121,-0.547838,0.427231,0.0,0.0,-0.541787
49550560,0.0372142,-0.492178,0.397827,0.0,0.0,-0.541787
49570231,0.00349141,-0.446002,0.334218,0.0,0.0,-0.532191
49590088,-0.00780922,-0.376729,0.294199,0.0,0.0,-0.527393
49610031,-0.0314263,-0.319947,0.216001,0.0,0.0,-0.520196
49629857,-0.0531656,-0.271786,0.205611,0.0,0.0,-0.512999
49654726,-0.0485204,-0.22221,0.193527,0.0,0.0,-0.5106
49669590,-0.0582852,-0.201827,0.190401,0.0,0.0,-0.5106
49689444,-0.0952253,-0.154182,0.177067,0.0,0.0,-0.506316
49714268,-0.104684,-0.0783112,0.163931,0.0,0.0,-0.506316
49729177,-0.0932181,-0.0279276,0.14243,0.0,0.0,-0.507368
49749046,-0.0719873,0.070799,0.0969854,0.0,0.0,-0.508421
49774052,-0.0930259,0.109326,0.0694885,0.0,0.0,-0.508421
49793907,-0.101344,0.142993,-0.0546725,0.0,0.0,-0.508421
49808887,-0.0970474,0.153064,-0.061016,0.0,0.0,-0.507368
49833539,-0.0434507,0.171975,-0.0747357,0.0,0.0,-0.504211
49853375,0.000640573,0.159058,-0.0803457,0.0,0.0,-0.504211
49868251,0.00911077,0.131291,-0.0869386,0.0,0.0,-0.504211
49893099,0.00509163,0.0764051,-0.149171,0.0,0.0,-0.504211
49912979,-0.033458,-0.00753358,-0.245947,0.0,0.0,-0.504211
49927935,-0.00277167,-0.0169195,-0.344066,0.0,0.0,-0.504211
49952876,0.0792195,0.00554319,-0.437974,0.0,0.0,-0.503158
49972607,0.17427,0.0897511,-0.678721,0.0,0.0,-0.504211
49992474,0.172616,0.121961,-0.714855,0.0,0.0,-0.504211
50012253,0.138239,0.159577,-0.79922,0.0,0.0,-0.504211
50032171,0.108156,0.149368,-0.880829,0.0,0.0,-0.505263
50052079,0.103134,0.122045,-1.09017,0.0,0.0,-0.506316
50072051,0.0683757,0.0864736,-1.114,0.0,0.0,-0.506316
50091801,0.0627472,0.0625917,-1.23705,0.0,0.0,-0.506316
50111737,0.0594949,0.0382447,-1.25163,0.0,0.0,-0.506316
50131753,0.200078,0.00889968,-1.20591,0.0,0.0,-0.506316
50151521,0.283889,-0.0304112,-1.19175,0.0,0.0,-0.506316
50171403,0.294106,-0.0538696,-1.18043,0.0,0.0,-0.506316
50191248,0.225748,-0.0720595,-1.07243,0.0,0.0,-0.505263
50211117,0.113055,-0.0680514,-0.958826,0.0,0.0,-0.505263
50230901,-0.253046,-0.0583023,-0.877187,0.0,0.0,-0.505263
50250660,-0.416053,-0.0503853,-0.81682,0.0,0.0,-0.504211
50270523,-0.448531,-0.047095,-0.805901,0.0,0.0,-0.504211
50290403,-0.446346,-0.0378941,-0.808213,0.0,0.0,-0.504211
50310449,-0.40101,-0.0235305,-0.743668,0.0,0.0,-0.504211
50330307,-0.32724,-0.00471688,-0.712479,0.0,0.0,-0.504211
50355182,-0.23623,0.000570196,-0.652885,0.0,0.0,-0.503158
50370087,-0.191863,-0.00297044,-0.547609,0.0,0.0,-0.501053
50389955,-0.123466,-0.0138544,-0.468169,0.0,0.0,-0.5
50414679,-0.0563047,-0.0382894,-0.380677,0.0,0.0,-0.501053
50429604,-0.0218366,-0.0819277,-0.328673,0.0,0.0,-0.501053
50449430,-0.0285458,-0.0940307,-0.308284,0.0,0.0,-0.501053
50474175,0.0397828,-0.339958,-0.251842,0.0,0.0,-0.5
50494100,0.0268943,-0.336634,-0.231726,0.0,0.0,-0.5
50509003,0.0258822,-0.337861,-0.17695,0.0,0.0,-0.501053
50533923,0.033178,-0.303223,-0.075428,0.0,0.0,-0.5
50553687,0.0288496,-0.247214,-0.0585975,0.0,0.0,-0.526193
50568633,-0.000693041,-0.203298,-0.0456611,0.0,0.0,-0.526193
50588551,-0.0739765,-0.146417,-0.0284666,0.0,0.0,-0.526193
50613547,-0.116445,-0.0893117,-0.012586,0.0,0.0,-0.526193
50628312,-0.117303,-0.0744002,-0.000842695,0.0,0.0,-0.526193
50653142,-0.0860406,-0.0393312,0.0131045,0.0,0.0,-0.527393
50673024,-0.0630761,-0.037408,0.0236661,0.0,0.0,-0.5
50692894,-0.0302442,-0.0433,0.0336492,0.0,0.0,-0.5
50707695,-0.0432536,-0.0538494,0.04418,0.0,0.0,-0.501053
50732476,-0.0173401,-0.0528471,0.0526595,0.0,0.0,-0.508421
50752331,-0.00307094,-0.0585212,0.0599752,0.0,0.0,-0.514198
50772229,0.00341661,-0.0434403,0.0610642,0.0,0.0,-0.522595
50792259,-0.0126455,0.0406304,0.0543728,0.0,0.0,-0.541787
50812030,-0.0270404,0.0652516,0.0595013,0.0,0.0,-0.545386
50831909,-0.0190949,0.101747,0.0828583,0.0,0.0,-0.557381
50851795,-0.0181513,0.106992,0.0873453,0.0,0.0,-0.55978
50871776,-0.00829242,0.098437,0.0907841,0.0,0.0,-0.55978
50891514,0.01582,0.0796504,0.0938519,0.0,0.0,-0.55978
50911383,0.0369712,0.0559088,0.0959665,0.0,0.0,-0.562179
50931249,0.047998,0.0307645,0.0981281,0.0,0.0,-0.562179
50951182,0.0490937,0.00481963,0.100022,0.0,0.0,-0.562179
50971178,0.0422107,-0.0157495,0.101454,0.0,0.0,-0.562179
50990822,0.0227886,-0.0297192,0.101066,0.0,0.0,-0.560979
51010660,0.0142092,-0.039044,0.101156,0.0,0.0,-0.560979
51030528,0.00958575,-0.0802516,0.100486,0.0,0.0,-0.55858
51055343,0.0189352,-0.142725,0.0971074,0.0,0.0,-0.553782
51070272,0.016746,-0.143388,0.0970235,0.0,0.0,-0.553782
51090141,0.0266653,-0.159598,0.094266,0.0,0.0,-0.551383
51115054,0.0482126,-0.189207,0.0873677,0.0,0.0,-0.550184
51130001,0.0393284,-0.188921,0.0882495,0.0,0.0,-0.550184
51150041,0.0432994,-0.173043,0.0842516,0.0,0.0,-0.550184
51169710,0.0434305,-0.153576,0.0800572,0.0,0.0,-0.548984
51189605,0.0305915,-0.150159,0.0758438,0.0,0.0,-0.547785
51209486,0.0120324,-0.223474,0.071888,0.0,0.0,-0.546585
51229297,-0.00471584,-0.22962,0.0741336,0.0,0.0,-0.544186
51254086,-0.0106773,-0.212442,0.107906,0.0,0.0,-0.544186
51269007,-0.0174027,-0.189869,0.105382,0.0,0.0,-0.544186
51288810,-0.0361634,-0.184704,0.143004,0.0,0.0,-0.542987
51313705,-0.0306655,-0.200308,0.189775,0.0,0.0,-0.542987
51333573,-0.0168895,-0.190371,0.197172,0.0,0.0,-0.542987
51348531,-0.0153623,-0.199667,0.215295,0.0,0.0,-0.544186
51373435,0.00702366,-0.216919,0.242935,0.0,0.0,-0.542987
51393287,0.0280197,-0.215047,0.263032,0.0,0.0,-0.541787
51408262,0.0282507,-0.219027,0.270639,0.0,0.0,-0.542987
51432980,0.0295067,-0.192635,0.270838,0.0,0.0,-0.545386
51452756,0.0357501,-0.167127,0.27027,0.0,0.0,-0.545386
51472616,0.0365792,-0.142477,0.268869,0.0,0.0,-0.545386
51492500,0.0231703,-0.109423,0.273745,0.0,0.0,-0.544186
51512342,0.023361,-0.0796596,0.264881,0.0,0.0,-0.541787
51532267,0.0219076,-0.0541693,0.261804,0.0,0.0,-0.541787
51552221,0.0590928,-0.0130032,0.258385,0.0,0.0,-0.541787
51571981,0.0770809,0.0591585,0.262265,0.0,0.0,-0.541787
51591845,0.0819337,0.15113,0.266351,0.0,0.0,-0.541787
51611702,0.0967574,0.201808,0.276572,0.0,0.0,-0.541787
51631568,0.100511,0.402684,0.286956,0.0,0.0,-0.541787
51651446,0.0877571,0.378389,0.285402,0.0,0.0,-0.541787
51671457,0.0632868,0.348807,0.283678,0.0,0.0,-0.540587
51691417,0.0552157,0.303621,0.288691,0.0,0.0,-0.540587
51711086,0.047421,0.252917,0.299993,0.0,0.0,-0.540587
51731001,0.0428622,0.20524,0.299236,0.0,0.0,-0.540587
51750796,0.0418241,0.155676,0.303852,0.0,0.0,-0.538188
51770606,0.0426299,0.115208,0.257327,0.0,0.0,-0.536989
51790536,0.0453669,0.0833554,0.239316,0.0,0.0,-0.535789
51810366,0.0736001,0.0496141,0.220553,0.0,0.0,-0.53459
51830295,0.0744418,0.0371319,0.215503,0.0,0.0,-0.53459
51850160,0.0669168,0.0310786,0.212207,0.0,0.0,-0.53339
51870027,0.0529593,0.0330797,0.215255,0.0,0.0,-0.53339
51894871,0.0222813,0.0321233,0.213761,0.0,0.0,-0.53339
51909903,-0.00875853,0.03529,0.206397,0.0,0.0,-0.53339
51929614,-0.00993307,0.0316193,0.208955,0.0,0.0,-0.53339
51954757,-0.0236962,0.0246039,0.211539,0.0,0.0,-0.532191
51969427,-0.0343653,0.0213122,0.206325,0.0,0.0,-0.532191
51989266,-0.0419134,0.0166806,0.18973,0.0,0.0,-0.530991
52014095,-0.0675645,0.0219343,0.181638,0.0,0.0,-0.532191
52033919,-0.0818968,0.0234834,0.171458,0.0,0.0,-0.532191
52048904,-0.0635882,0.0230199,0.168865,0.0,0.0,-0.532191
52073675,-0.0704966,0.0283897,0.163072,0.0,0.0,-0.532191
52093505,-0.0593847,0.0259455,0.159109,0.0,0.0,-0.532191
52108404,-0.0726471,0.0259478,0.159813,0.0,0.0,-0.532191
52133338,-0.01568,0.0332991,0.140377,0.0,0.0,-0.53339
52153096,0.09951,0.0234149,0.125598,0.0,0.0,-0.535789
52172961,0.157344,0.0177434,0.115621,0.0,0.0,-0.535789
52192859,0.263977,-0.00318861,0.10652,0.0,0.0,-0.536989
52212870,0.345588,-0.0065442,0.0970444,0.0,0.0,-0.538188
52232673,0.346274,-0.0300544,0.0945069,0.0,0.0,-0.538188
52252551,0.34638,-0.0959785,0.0980615,0.0,0.0,-0.538188
52272444,0.295894,-0.0976641,0.0962036,0.0,0.0,-0.538188
52292242,0.233117,-0.117836,0.0962352,0.0,0.0,-0.538188
52312051,0.178755,-0.165478,0.0906308,0.0,0.0,-0.538188
52331856,0.152596,-0.177291,0.0897248,0.0,0.0,-0.538188
52351781,0.101573,-0.149686,0.0885745,0.0,0.0,-0.538188
52371704,0.0758921,-0.142879,0.0941075,0.0,0.0,-0.538188
52391568,0.0534098,-0.129571,0.0872247,0.0,0.0,-0.53339
52411429,0.0416657,-0.105437,0.0857886,0.0,0.0,-0.53339
52431302,0.0193618,-0.0121799,0.0832091,0.0,0.0,-0.515398
52451303,0.023026,0.00506827,0.0836538,0.0,0.0,-0.515398
52471212,-0.037844,0.0597389,0.0760985,0.0,0.0,-0.503158
52491305,-0.11882,0.0957391,0.0694975,0.0,0.0,-0.501053
52510839,-0.247648,0.195114,0.0630274,0.0,0.0,-0.523794
52530646,-0.322119,0.175637,0.00693179,0.0,0.0,-0.521395
52550486,-0.351592,0.159063,-0.00751897,0.0,0.0,-0.521395
52570370,-0.344223,0.143593,0.0170227,0.0,0.0,-0.521395
52595161,-0.288205,0.116649,0.00334893,0.0,0.0,-0.521395
52610043,-0.258692,0.103064,-0.00328111,0.0,0.0,-0.521395
52630072,-0.1956,0.0804142,-0.00614392,0.0,0.0,-0.521395
52654858,-0.15057,0.0628086,0.0340295,0.0,0.0,-0.521395
52669871,-0.106236,0.0472359,0.0335748,0.0,0.0,-0.521395
52689633,-0.0916574,0.0344133,0.0553355,0.0,0.0,-0.521395
52714417,-0.066851,0.0228795,0.06217,0.0,0.0,-0.521395
52734296,-0.0551684,0.0186402,0.0657484,0.0,0.0,-0.521395
52749286,-0.0612778,0.019931,0.0723169,0.0,0.0,-0.521395
52774063,-0.0366416,0.0168648,0.0896426,0.0,0.0,-0.517797
52793917,-0.0379649,0.0244,0.0921999,0.0,0.0,-0.511799
52808832,-0.0267271,0.0251691,0.0880167,0.0,0.0,-0.506316
52828676,-0.0419028,0.0324247,0.0906019,0.0,0.0,-0.506316
52853577,-0.0501281,0.0366361,0.0988612,0.0,0.0,-0.491579
52873362,-0.0613803,0.0358607,0.102999,0.0,0.0,-0.491579
52888217,-0.0737028,0.04015,0.103024,0.0,0.0,-0.491579
52913060,-0.0833245,0.0431056,0.0945941,0.0,0.0,-0.491579
52933002,-0.0775948,0.0449259,0.0762884,0.0,0.0,-0.491579
52947882,-0.0548779,0.0452218,0.0776711,0.0,0.0,-0.491579
52972733,-0.028281,0.0420963,0.0819342,0.0,0.0,-0.491579
52992526,-0.0140845,0.038579,0.0852392,0.0,0.0,-0.491579
53012485,-0.0196829,0.0328614,0.102369,0.0,0.0,-0.492632
53032412,0.0121172,0.0318742,0.073503,0.0,0.0,-0.493684
53052205,0.0359744,0.0317423,0.0740377,0.0,0.0,-0.493684
53072170,0.0463975,0.026818,-0.0329991,0.0,0.0,-0.517797
53091976,0.0629598,0.0217879,-0.0377824,0.0,0.0,-0.520196
53111809,0.0780068,0.0187545,-0.0385211,0.0,0.0,-0.509474
53131667,0.0656368,0.0190371,-0.0389447,0.0,0.0,-0.520196
53151528,0.0492275,0.0170667,-0.0407165,0.0,0.0,-0.523794
53171419,0.0417503,0.0168597,-0.042646,0.0,0.0,-0.532191
53191294,0.0367007,0.0151392,-0.0442701,0.0,0.0,-0.53339
53211092,0.0195285,0.0120596,-0.0453237,0.0,0.0,-0.535789
53230972,-0.00866546,0.00205343,-0.0439742,0.0,0.0,-0.535789
53250882,-0.0381813,0.00321725,-0.0431106,0.0,0.0,-0.535789
53270725,-0.0634563,0.0103996,-0.0433436,0.0,0.0,-0.535789
53290625,-0.0697059,0.0210925,-0.0446017,0.0,0.0,-0.53459
53310444,-0.0736607,0.0335698,-0.0451595,0.0,0.0,-0.53459
53330414,-0.0871773,0.040647,-0.045754,0.0,0.0,-0.53459
53350263,-0.0923226,0.0540246,-0.0468926,0.0,0.0,-0.535789
53370145,-0.0873169,0.0536937,-0.0462881,0.0,0.0,-0.535789
53390012,-0.0787557,0.0647518,-0.0457102,0.0,0.0,-0.535789
53409848,-0.0624417,0.0657697,-0.0444957,0.0,0.0,-0.535789
53434620,-0.0358798,0.0563312,-0.0430337,0.0,0.0,-0.539388
53449470,-0.0243409,0.0471701,-0.0411991,0.0,0.0,-0.539388
53469330,0.000668653,0.0343331,-0.0406839,0.0,0.0,-0.540587
53494230,0.0648478,0.0157752,-0.0414394,0.0,0.0,-0.540587
53509134,0.0980454,0.00584222,-0.154797,0.0,0.0,-0.542987
53528979,0.0960127,0.000925149,-0.209972,0.0,0.0,-0.542987
53553979,0.0900095,-0.00624958,-0.381576,0.0,0.0,-0.544186
53573925,0.127471,-0.0110531,-0.551065,0.0,0.0,-0.542987
53588720,0.129198,-0.0106019,-0.593233,0.0,0.0,-0.542987
53613531,0.140589,0.000634138,-0.678596,0.0,0.0,-0.542987
53633390,0.185225,-0.0133239,-0.816415,0.0,0.0,-0.541787
53648315,0.164081,-0.0199884,-0.83203,0.0,0.0,-0.541787
53673065,0.139185,-0.0405382,-0.960285,0.0,0.0,-0.541787
53692843,0.122826,-0.0565038,-1.1694,0.0,0.0,-0.541787
53712712,0.167813,-0.0822071,-1.19707,0.0,0.0,-0.541787
53732700,0.166928,-0.0945973,-1.21038,0.0,0.0,-0.541787
53752514,0.16131,-0.0904595,-1.17687,0.0,0.0,-0.540587
53772360,0.129572,-0.0956709,-1.12908,0.0,0.0,-0.540587
53792258,0.0526092,-0.0739912,-0.914145,0.0,0.0,-0.540587
53812256,-0.0423913,-0.0590075,-0.841165,0.0,0.0,-0.540587
53832231,-0.0615851,-0.0476101,-0.830377,0.0,0.0,-0.540587
53851913,-0.322905,0.00523926,-0.587587,0.0,0.0,-0.541787
53871832,-0.294619,0.0303073,-0.386878,0.0,0.0,-0.540587
53891696,-0.271945,0.0492609,-0.246665,0.0,0.0,-0.538188
53911740,-0.216836,0.0592867,-0.159747,0.0,0.0,-0.538188
53931342,-0.162759,0.0547928,-0.135553,0.0,0.0,-0.536989
53951212,-0.100507,0.0431198,-0.113217,0.0,0.0,-0.535789
53971018,-0.049162,0.0202991,-0.0929536,0.0,0.0,-0.535789
53990872,-0.0298586,-0.0411934,-0.0746621,0.0,0.0,-0.535789
54010770,-0.0107219,-0.0507749,-0.0576173,0.0,0.0,-0.535789
54030610,-0.00176844,-0.214459,-0.0410136,0.0,0.0,-0.535789
54050577,-0.0152329,-0.259112,-0.0259876,0.0,0.0,-0.535789
54070448,-0.0513877,-0.346471,0.0263489,0.0,0.0,-0.53459
54090480,-0.0584847,-0.426075,0.0534223,0.0,0.0,-0.53459
54110358,-0.0559895,-0.424291,0.0718934,0.0,0.0,-0.535789
54135114,-0.0410217,-0.408545,0.130386,0.0,0.0,-0.535789
54149985,-0.0230006,-0.380068,0.153304,0.0,0.0,-0.535789
54169818,0.0155912,-0.385138,0.191539,0.0,0.0,-0.535789
54194563,0.0466831,-0.340944,0.215158,0.0,0.0,-0.535789
54209527,0.0480694,-0.309207,0.224905,0.0,0.0,-0.535789
54229344,0.0563591,-0.254362,0.233292,0.0,0.0,-0.535789
54254189,0.0695765,-0.208346,0.234832,0.0,0.0,-0.535789
54274060,0.0677332,-0.167245,0.241387,0.0,0.0,-0.535789
54288954,0.0523391,-0.134546,0.247063,0.0,0.0,-0.535789
54313826,0.0519336,-0.0418339,0.257946,0.0,0.0,-0.53339
54333642,0.0281577,-0.0173507,0.255825,0.0,0.0,-0.535789
54348665,0.00260194,0.000683775,0.255932,0.0,0.0,-0.535789
54368629,-0.00763266,0.0102522,0.251937,0.0,0.0,-0.535789
54393354,-0.0221427,0.0551598,0.247553,0.0,0.0,-0.535789
54413134,-0.0230756,0.0730141,0.24271,0.0,0.0,-0.535789
54433054,-0.0110024,0.0872908,0.224476,0.0,0.0,-0.535789
54452933,0.0161958,0.0823702,0.223941,0.0,0.0,-0.535789
54472765,0.0659859,0.0752543,0.202299,0.0,0.0,-0.536989
54487650,0.0784744,0.0734031,0.196117,0.0,0.0,-0.536989
54512477,0.0829874,0.0997618,0.192747,0.0,0.0,-0.536989
54532331,0.0728952,0.136464,0.178017,0.0,0.0,-0.538188
54552266,0.0550705,0.134131,0.161834,0.0,0.0,-0.538188
54572098,0.0390257,0.136291,0.158622,0.0,0.0,-0.538188
54592010,0.0229047,0.154635,0.161828,0.0,0.0,-0.538188
54611885,0.0138531,0.1699,0.171709,0.0,0.0,-0.539388
54631824,0.0127367,0.158484,0.169662,0.0,0.0,-0.539388
54651674,0.0117756,0.19876,0.167421,0.0,0.0,-0.539388
54671491,0.0164679,0.190182,0.185128,0.0,0.0,-0.539388
54691347,0.01921,0.167468,0.196531,0.0,0.0,-0.539388
54711206,0.021126,0.136549,0.207379,0.0,0.0,-0.539388
54731100,0.0263404,0.111333,0.212178,0.0,0.0,-0.539388
54750998,0.0248893,0.14207,0.216472,0.0,0.0,-0.536989
54770743,0.0180119,0.193184,0.207164,0.0,0.0,-0.536989
54790614,0.00284413,0.253057,0.204697,0.0,0.0,-0.536989
54810496,-0.0252634,0.348255,0.201122,0.0,0.0,-0.536989
54835412,-0.0671756,0.369069,0.20515,0.0,0.0,-0.536989
54850357,-0.0703498,0.341933,0.202437,0.0,0.0,-0.536989
54870168,-0.0843846,0.329775,0.199885,0.0,0.0,-0.538188
54895184,-0.0959572,0.289691,0.195846,0.0,0.0,-0.538188
54910056,-0.0852845,0.255206,0.188787,0.0,0.0,-0.538188
54929826,-0.0720971,0.212178,0.186073,0.0,0.0,-0.538188
54954555,-0.0278937,0.155852,0.187161,0.0,0.0,-0.536989
54969453,-0.0248423,0.126062,0.187865,0.0,0.0,-0.536989
54989432,-0.00749482,0.0902173,0.185071,0.0,0.0,-0.536989
55009345,0.00508939,0.062058,0.182046,0.0,0.0,-0.536989
55034145,0.0132063,0.0363666,0.17352,0.0,0.0,-0.538188
55049049,0.012291,0.0389381,0.175675,0.0,0.0,-0.538188
55068850,-0.0172509,0.0172181,0.172487,0.0,0.0,-0.538188
55093629,-0.0936904,0.0226095,0.172039,0.0,0.0,-0.538188
55113434,-0.134389,0.0294763,0.169328,0.0,0.0,-0.536989
55128331,-0.14907,0.0310375,0.166387,0.0,0.0,-0.536989
55153337,-0.161066,0.0420705,0.168723,0.0,0.0,-0.536989
55173203,-0.117797,0.0508234,0.166545,0.0,0.0,-0.536989
55188201,-0.089125,0.0516436,0.166889,0.0,0.0,-0.536989
55212877,0.04124,0.0450598,0.150661,0.0,0.0,-0.536989
55232768,0.0889418,0.0297621,0.148783,0.0,0.0,-0.536989
55252665,0.145569,0.00259007,0.120082,0.0,0.0,-0.535789
55272503,0.168962,-0.0224375,0.105427,0.0,0.0,-0.536989
55292344,0.27936,-0.0402859,0.0915683,0.0,0.0,-0.535789
55312288,0.348153,-0.031867,0.0693263,0.0,0.0,-0.535789
55332162,0.339481,-0.00223523,0.0657471,0.0,0.0,-0.535789
55351968,0.343192,0.0359985,0.0610232,0.0,0.0,-0.536989
55371771,0.320722,0.0471793,0.0573285,0.0,0.0,-0.535789
55391595,0.30007,0.0553357,0.0539828,0.0,0.0,-0.535789
55411546,0.248476,0.0574794,0.051884,0.0,0.0,-0.535789
55431542,0.304231,0.0588041,0.0706027,0.0,0.0,-0.535789
55451477,0.356963,0.103509,0.0826588,0.0,0.0,-0.535789
55471218,0.394329,0.113314,0.0695747,0.0,0.0,-0.536989
55491081,0.37294,0.0756999,0.0380893,0.0,0.0,-0.536989
55511004,0.286635,0.0102116,0.0183563,0.0,0.0,-0.536989
55530808,0.222546,-0.00610028,0.0031204,0.0,0.0,-0.536989
55550607,0.178572,-0.014807,-0.000208267,0.0,0.0,-0.536989
55570498,0.157401,-0.0170357,-0.0020147,0.0,0.0,-0.536989
55590278,0.117318,-0.0172616,-0.0105636,0.0,0.0,-0.536989
55610146,0.0858804,-0.0105474,-0.0124336,0.0,0.0,-0.536989
55630072,0.0389386,-0.00300011,-0.0125441,0.0,0.0,-0.536989
55649933,0.0344034,0.00699431,-0.0135487,0.0,0.0,-0.536989
55674766,0.0327781,0.0193051,-0.0123949,0.0,0.0,-0.536989
55689801,0.026382,0.0186078,-0.0121543,0.0,0.0,-0.536989
55709659,0.0183878,0.01348,-0.0109945,0.0,0.0,-0.536989
55734483,-0.0482286,0.00266675,-0.0116525,0.0,0.0,-0.536989
55749334,-0.167721,-0.0470875,-0.00841229,0.0,0.0,-0.536989
55769249,-0.253369,-0.0741056,-0.0083126,0.0,0.0,-0.536989
55794092,-0.645101,-0.0954169,-0.00841671,0.0,0.0,-0.535789
55813883,-0.73584,-0.0885986,-0.00808099,0.0,0.0,-0.535789
55828836,-0.711693,-0.07066,-0.00967274,0.0,0.0,-0.535789
55853549,-0.61434,-0.0415062,-0.00777719,0.0,0.0,-0.535789
55873423,-0.539578,-0.012945,-0.00782153,0.0,0.0,-0.535789
55888297,-0.440231,0.00555491,-0.0107736,0.0,0.0,-0.535789
55913161,-0.333494,0.0184016,-0.00915569,0.0,0.0,-0.535789
55933069,-0.236256,0.0174591,-0.0104609,0.0,0.0,-0.535789
55952978,-0.149929,-0.00335758,-0.0113211,0.0,0.0,-0.535789
55972942,-0.0878432,-0.0186205,-0.0109574,0.0,0.0,-0.535789
55992895,-0.0593708,-0.0380437,-0.00898829,0.0,0.0,-0.535789
56012649,-0.053947,-0.0517618,-0.00783853,0.0,0.0,-0.535789
56032455,-0.0585866,-0.0476123,-0.00792507,0.0,0.0,-0.535789
56052323,-0.0658508,-0.043862,-0.00807811,0.0,0.0,-0.535789
56072122,-0.0762224,-0.0766852,-0.00764686,0.0,0.0,-0.535789
56091997,-0.0911139,-0.0800195,-0.00763726,0.0,0.0,-0.535789
56111869,-0.091842,-0.0700928,-0.00821448,0.0,0.0,-0.535789
56131727,-0.0770898,-0.128172,-0.00728412,0.0,0.0,-0.535789
56151600,-0.0498669,-0.232522,0.0192775,0.0,0.0,-0.535789
56171479,-0.00935518,-0.242592,0.0273749,0.0,0.0,-0.535789
56191439,0.0279632,-0.283005,0.0175033,0.0,0.0,-0.535789
56211259,0.0534973,-0.262407,0.0185999,0.0,0.0,-0.535789
56231218,0.0696591,-0.247749,0.0261458,0.0,0.0,-0.535789
56251179,0.0676188,-0.227535,0.0400239,0.0,0.0,-0.535789
56271088,0.0476379,-0.197787,0.0338922,0.0,0.0,-0.535789
56290738,0.0151391,-0.17378,0.0146264,0.0,0.0,-0.535789
56310642,-0.0267991,-0.154698,0.000885392,0.0,0.0,-0.535789
56330477,-0.0704854,-0.137123,0.000623072,0.0,0.0,-0.535789
56350336,-0.0804968,-0.111184,0.00103454,0.0,0.0,-0.535789
56375193,-0.0770434,-0.108811,0.00204082,0.0,0.0,-0.535789
56390035,-0.0474839,-0.104332,0.00139865,0.0,0.0,-0.535789
56409954,-0.0212372,-0.0891825,0.00207544,0.0,0.0,-0.535789
56434748,0.0144312,-0.147429,0.00271421,0.0,0.0,-0.535789
56449646,0.0179404,-0.144975,0.00473795,0.0,0.0,-0.535789
56469497,0.00542481,-0.181602,0.00575778,0.0,0.0,-0.535789
56494455,0.00960346,-0.182869,0.00541072,0.0,0.0,-0.535789
56514279,-0.0172661,-0.184769,0.00753207,0.0,0.0,-0.535789
56529354,-0.0389674,-0.156331,0.00496612,0.0,0.0,-0.535789
56554061,-0.0564662,-0.118256,0.00815398,0.0,0.0,-0.535789
56573988,-0.0450169,-0.0778212,0.00762645,0.0,0.0,-0.535789
56588842,-0.0278852,-0.0510852,0.00612919,0.0,0.0,-0.535789
56608682,-0.0209869,-0.0165363,0.00814746,0.0,0.0,-0.535789
56633506,-0.00906436,0.0133357,0.0101752,0.0,0.0,-0.535789
56648364,0.0437063,0.0143385,0.0120764,0.0,0.0,-0.535789
56668132,0.0757524,0.0145375,0.0136739,0.0,0.0,-0.535789
56692998,0.0863091,0.00150829,0.0137861,0.0,0.0,-0.535789
56712875,0.080277,-0.00327344,0.015735,0.0,0.0,-0.535789
56727793,0.0651587,-0.000717853,0.0185204,0.0,0.0,-0.535789
56752686,0.0459118,-0.00329997,0.0213954,0.0,0.0,-0.535789
56772588,0.0268426,0.0100632,0.0238895,0.0,0.0,-0.535789
56792553,0.0295017,0.0203089,0.0251491,0.0,0.0,-0.535789
56812300,0.017644,0.0533042,0.0256579,0.0,0.0,-0.535789
56832160,0.0289511,0.0588503,0.0264332,0.0,0.0,-0.535789
56852111,0.0282254,0.0802672,0.0339506,0.0,0.0,-0.535789
56871958,0.0372195,0.0755041,0.0346959,0.0,0.0,-0.535789
56891734,0.0414836,0.064553,0.0290843,0.0,0.0,-0.535789
56911618,0.0533334,0.0509195,0.0290055,0.0,0.0,-0.535789
56931455,0.0356525,0.063867,0.0301154,0.0,0.0,-0.535789
56951300,-0.00906105,0.0970678,0.031572,0.0,0.0,-0.535789
56971136,-0.0157315,0.0921599,0.0316957,0.0,0.0,-0.535789
56990999,0.00182094,0.0788897,0.0310478,0.0,0.0,-0.535789
57010958,-0.003569,0.0678874,0.0307727,0.0,0.0,-0.535789
57030890,0.00847687,0.0555931,0.0305896,0.0,0.0,-0.532191
57050806,0.0110829,0.0426431,0.030446,0.0,0.0,-0.529792
57075582,0.0328181,0.0182454,0.0299404,0.0,0.0,-0.530991
57090450,0.0303554,-0.101184,0.0302268,0.0,0.0,-0.529792
57110427,0.0334141,-0.140471,0.0300059,0.0,0.0,-0.527393
57130229,0.0471277,-0.171474,0.0305527,0.0,0.0,-0.527393
57150109,0.0371861,-0.204713,0.031106,0.0,0.0,-0.528592
57169889,0.0477593,-0.185079,0.0325993,0.0,0.0,-0.529792
57189728,0.048376,-0.167027,0.032901,0.0,0.0,-0.529792
57214513,0.0224531,-0.0993152,0.0327927,0.0,0.0,-0.529792
57229438,0.0175343,-0.0836711,0.034192,0.0,0.0,-0.529792
57249392,-0.00768415,-0.0734892,0.0342615,0.0,0.0,-0.530991
57274281,-0.0344111,-0.0581728,0.0352906,0.0,0.0,-0.530991
57289237,-0.0637569,-0.0428047,0.0350093,0.0,0.0,-0.530991
57309075,-0.0607332,-0.0126126,0.0352793,0.0,0.0,-0.532191
57334062,-0.0430519,-0.000942611,0.0353661,0.0,0.0,-0.532191
57353716,0.00563063,-0.00355869,0.0342613,0.0,0.0,-0.532191
57368626,0.0190601,-0.00855201,0.0334271,0.0,0.0,-0.532191
57393406,0.0592954,0.0258283,0.0308432,0.0,0.0,-0.532191
57413279,0.0622622,0.0192191,0.0309209,0.0,0.0,-0.532191
57428129,0.078035,0.0769634,0.0280754,0.0,0.0,-0.532191
57453040,0.0639421,0.134208,0.0272401,0.0,0.0,-0.532191
57472855,0.0672135,0.139138,0.0245229,0.0,0.0,-0.532191
57492776,0.0723527,0.126253,0.0217722,0.0,0.0,-0.532191
57512610,0.164484,0.147974,0.0176101,0.0,0.0,-0.532191
57532452,0.154826,0.163238,0.0153272,0.0,0.0,-0.532191
57552329,0.139597,0.351631,0.0133104,0.0,0.0,-0.532191
57572234,0.116459,0.347566,0.0129155,0.0,0.0,-0.532191
57592244,0.086855,0.311998,0.012619,0.0,0.0,-0.530991
57612080,0.0519443,0.267271,0.0114975,0.0,0.0,-0.530991
57631815,0.0180527,0.21754,0.00976994,0.0,0.0,-0.529792
57651687,-0.00443587,0.161409,0.0084352,0.0,0.0,-0.529792
57671613,0.000746602,0.115865,0.00785485,0.0,0.0,-0.529792
57691551,0.0270532,0.0674853,0.00666577,0.0,0.0,-0.529792
57711301,0.0413607,0.0263379,0.00515028,0.0,0.0,-0.529792
57731177,0.0174103,-0.00341973,0.00337156,0.0,0.0,-0.529792
57751026,0.0282045,-0.0217868,0.0030338,0.0,0.0,-0.529792
57770875,0.0340668,-0.0290093,0.00449288,0.0,0.0,-0.529792
57790794,0.0208543,-0.0349191,0.00580539,0.0,0.0,-0.529792
57810624,0.039051,-0.020144,0.00539982,0.0,0.0,-0.530991
57830552,0.0103837,-0.0378048,0.00544005,0.0,0.0,-0.532191
57850479,-0.0204378,-0.0469606,0.00542057,0.0,0.0,-0.530991
57870505,-0.0460721,-0.0487969,0.00559617,0.0,0.0,-0.532191
57890148,-0.0392303,-0.0624553,0.00517624,0.0,0.0,-0.53339
57914979,-0.0241733,-0.0655105,0.00724097,0.0,0.0,-0.53339
57929851,0.0299014,-0.065701,0.00584515,0.0,0.0,-0.53339
57949732,0.0694967,-0.0648983,0.00621288,0.0,0.0,-0.53339
57974552,0.0817396,-0.0638373,0.0031337,0.0,0.0,-0.53339
57989566,0.0698168,-0.0632611,0.00446404,0.0,0.0,-0.53339
58009362,0.105485,-0.0612822,0.00353543,0.0,0.0,-0.53339
58034177,0.168316,-0.0237582,0.00264728,0.0,0.0,-0.53339
58054049,0.134159,-0.016453,0.00173076,0.0,0.0,-0.53339
58068963,0.277616,0.0400941,-0.0313422,0.0,0.0,-0.53339
58093810,0.260556,0.0662734,-0.0394858,0.0,0.0,-0.53339
58113591,0.228827,0.058639,-0.0152657,0.0,0.0,-0.53339
58128584,0.179559,0.0370795,-0.000239679,0.0,0.0,-0.53339
58153475,0.138329,0.00215887,0.0014566,0.0,0.0,-0.53339
58173279,0.131651,-0.0173393,0.00360329,0.0,0.0,-0.53459
58193199,0.157589,-0.0174061,0.00654641,0.0,0.0,-0.53459
58213085,0.158814,-0.0168254,0.00933806,0.0,0.0,-0.53459
58232801,0.17686,-0.00164493,0.0103771,0.0,0.0,-0.53459
58252742,0.157971,-0.0140462,-0.008112,0.0,0.0,-0.53459
58267574,0.138638,-0.0579438,-0.0267447,0.0,0.0,-0.53459
58292416,0.111805,-0.0874666,-0.0316734,0.0,0.0,-0.53459
58312294,0.105605,-0.108465,-0.0961176,0.0,0.0,-0.53339
58332206,0.14035,-0.121562,-0.137829,0.0,0.0,-0.53339
58352073,0.114296,-0.124373,-0.154386,0.0,0.0,-0.53339
58372085,0.0373607,-0.12383,-0.188685,0.0,0.0,-0.53339
58391986,-0.0137291,-0.117303,-0.249271,0.0,0.0,-0.53339
58411955,-0.0299174,-0.0996125,-0.257231,0.0,0.0,-0.53339
58431621,-0.0474833,-0.0798329,-0.282073,0.0,0.0,-0.53339
58451540,-0.0824857,-0.0725403,-0.40264,0.0,0.0,-0.532191
58471284,-0.127166,-0.103921,-0.473918,0.0,0.0,-0.532191
58491082,-0.170147,-0.102353,-0.469057,0.0,0.0,-0.532191
58510954,-0.265877,-0.0895561,-0.450399,0.0,0.0,-0.53339
58530797,-0.408107,-0.109577,-0.485421,0.0,0.0,-0.53339
58550858,-0.399884,-0.116888,-0.522604,0.0,0.0,-0.53459
58570644,-0.340545,-0.115679,-0.567469,0.0,0.0,-0.53459
58590490,-0.270393,-0.106779,-0.575929,0.0,0.0,-0.53459
58615339,-0.201907,-0.0933603,-0.558832,0.0,0.0,-0.535789
58630284,-0.15246,-0.0818354,-0.56182,0.0,0.0,-0.535789
58650147,-0.104076,-0.0676648,-0.521343,0.0,0.0,-0.535789
58670041,-0.0756436,-0.0616163,-0.504526,0.0,0.0,-0.535789
58689834,-0.0608115,-0.054922,-0.496246,0.0,0.0,-0.535789
58709735,-0.0620496,-0.0488923,-0.446278,0.0,0.0,-0.535789
58734562,-0.0616545,-0.0442515,-0.347797,0.0,0.0,-0.535789
58749449,-0.0544723,-0.0409885,-0.332641,0.0,0.0,-0.535789
58769292,-0.0501853,-0.0379212,-0.32642,0.0,0.0,-0.535789
58789169,-0.0443008,-0.0310584,-0.203576,0.0,0.0,-0.535789
58813998,-0.00841278,-0.0230274,-0.121931,0.0,0.0,-0.535789
58828864,-0.00783079,-0.0261932,-0.11119,0.0,0.0,-0.535789
58848725,0.0104586,-0.104969,-0.0322634,0.0,0.0,-0.535789
58873639,0.0229726,-0.128091,-0.0187613,0.0,0.0,-0.535789
58893497,-0.0322741,-0.263028,-0.00875168,0.0,0.0,-0.535789
58908467,-0.128996,-0.394735,-0.00152077,0.0,0.0,-0.539388
58933336,-0.161585,-0.409134,0.00797697,0.0,0.0,-0.542987
58953357,-0.163943,-0.464883,0.0146792,0.0,0.0,-0.551383
58967960,-0.144163,-0.422675,0.0172063,0.0,0.0,-0.551383
58992783,-0.0668065,-0.433673,0.0227387,0.0,0.0,-0.553782
59012672,-0.00511139,-0.396577,0.0263352,0.0,0.0,-0.553782
59032716,0.0412264,-0.381165,0.0297247,0.0,0.0,-0.553782
59052476,0.0607739,-0.32521,0.0326315,0.0,0.0,-0.554982
59072330,0.0513953,-0.291738,0.0351991,0.0,0.0,-0.554982
59092173,0.0309961,-0.316153,0.0390542,0.0,0.0,-0.554982
59112052,0.0532035,-0.293134,0.041401,0.0,0.0,-0.551383
59131875,0.0420363,-0.254807,0.0444703,0.0,0.0,-0.551383
59151671,0.0709966,-0.102047,0.045618,0.0,0.0,-0.550184
59171546,0.0674438,-0.0660214,0.0482938,0.0,0.0,-0.550184
59191534,0.0607086,0.010181,0.0495186,0.0,0.0,-0.548984
59211541,0.0525061,0.0393101,0.0509004,0.0,0.0,-0.548984
59231267,0.0461012,0.0642486,0.0524694,0.0,0.0,-0.548984
59251123,0.0499211,0.105141,0.0521458,0.0,0.0,-0.548984
59271074,0.0581527,0.124455,0.0521657,0.0,0.0,-0.548984
59290949,0.0549489,0.140971,0.0527537,0.0,0.0,-0.547785
59310711,0.0413652,0.10445,0.0523139,0.0,0.0,-0.546585
59330571,0.023193,0.0805229,0.0505641,0.0,0.0,-0.545386
59350374,0.00976988,0.0563837,0.0482553,0.0,0.0,-0.545386
59370301,0.00931922,0.107993,0.0436839,0.0,0.0,-0.544186
59390260,0.022116,0.125649,0.0401225,0.0,0.0,-0.545386
59410053,0.0294372,0.137512,0.0354709,0.0,0.0,-0.545386
59429920,0.0335066,0.138954,0.0308814,0.0,0.0,-0.546585
59454803,0.018794,0.163404,0.028314,0.0,0.0,-0.546585
59469744,0.0307135,0.187134,0.0220653,0.0,0.0,-0.546585
59489762,0.0160743,0.194034,0.0176891,0.0,0.0,-0.546585
59514515,-0.0125447,0.167513,0.0136219,0.0,0.0,-0.547785
59529349,-0.0101977,0.138664,0.0104613,0.0,0.0,-0.547785
59549167,-0.0302836,0.105913,0.00620375,0.0,0.0,-0.547785
59573955,-0.03799,0.0477901,-0.00153967,0.0,0.0,-0.546585
59593841,-0.0303014,0.0243773,-0.00614158,0.0,0.0,-0.546585
59608671,-0.0692535,-0.0201779,-0.00504732,0.0,0.0,-0.545386
59633594,-0.0490011,-0.103972,-0.0119755,0.0,0.0,-0.545386
59653450,-0.0169291,-0.139354,-0.0140244,0.0,0.0,-0.545386
59668445,0.0104262,-0.164493,-0.0177787,0.0,0.0,-0.545386
59693316,0.0495002,-0.161824,-0.0209363,0.0,0.0,-0.545386
59713105,0.0463031,-0.153198,-0.0245949,0.0,0.0,-0.546585
59733046,0.0422597,-0.143436,-0.0284333,0.0,0.0,-0.547785
59753006,0.0593769,-0.122317,-0.0322351,0.0,0.0,-0.548984
59772628,0.0556388,-0.112192,-0.0333662,0.0,0.0,-0.548984
59792550,0.0578149,-0.0996266,-0.0344843,0.0,0.0,-0.548984
59812387,0.0730857,-0.0864684,-0.0396968,0.0,0.0,-0.548984
59832297,0.0661474,-0.0626377,-0.043344,0.0,0.0,-0.550184
59852124,0.0632683,-0.0197926,-0.0469444,0.0,0.0,-0.550184
59872106,0.0653488,0.000701133,-0.0499562,0.0,0.0,-0.550184
59891859,0.0903407,0.00461394,-0.0518104,0.0,0.0,-0.550184
59911734,0.0855562,0.0278365,-0.0524434,0.0,0.0,-0.550184
59931570,0.0903854,0.023008,-0.0534305,0.0,0.0,-0.548984
59951456,0.0870357,0.0177554,-0.0546568,0.0,0.0,-0.548984
59971366,0.0861229,0.0653589,-0.0562724,0.0,0.0,-0.548984
59991286,0.0768272,0.10017,-0.0578971,0.0,0.0,-0.547785
60011216,0.0609265,0.178545,-0.0599116,0.0,0.0,-0.547785
60030927,0.0505861,0.273531,-0.0596271,0.0,0.0,-0.547785
60050848,0.0206238,0.255255,-0.0585124,0.0,0.0,-0.547785
60070729,0.0129086,0.236449,-0.0569504,0.0,0.0,-0.547785
60090612,0.011649,0.232769,-0.0562187,0.0,0.0,-0.546585
60110490,0.0226815,0.242612,-0.0554879,0.0,0.0,-0.545386
60130336,0.0374529,0.208314,-0.0541521,0.0,0.0,-0.545386
60150245,0.0608848,0.189474,-0.0532684,0.0,0.0,-0.547785
60169984,0.0593567,0.157806,-0.0518568,0.0,0.0,-0.544186
60189857,0.0562188,0.131567,-0.0494324,0.0,0.0,-0.544186
60214709,0.0405405,0.0952957,-0.0513407,0.0,0.0,-0.542987
60229720,0.0331763,0.0947707,-0.0481672,0.0,0.0,-0.544186
60249469,0.0468045,0.0941332,-0.0485313,0.0,0.0,-0.545386
60274420,0.0502785,0.0828893,-0.0480264,0.0,0.0,-0.547785
60289350,0.012384,0.0718798,-0.0492923,0.0,0.0,-0.546585
60309132,0.00086653,0.0650151,-0.049499,0.0,0.0,-0.545386
60333919,-0.00428908,0.0570869,-0.0468545,0.0,0.0,-0.545386
60353831,-0.00917942,0.0471959,-0.0457629,0.0,0.0,-0.541787
60368730,-0.00551203,0.0397004,-0.0437679,0.0,0.0,-0.541787
60393543,-0.000333989,0.0192563,-0.0437668,0.0,0.0,-0.542987
60413480,0.00474029,0.00120163,-0.0406167,0.0,0.0,-0.541787
60428337,0.022057,0.0163887,-0.0394297,0.0,0.0,-0.540587
60448193,0.0548569,0.00802707,-0.0390495,0.0,0.0,-0.540587
60472975,0.107701,0.00701632,-0.0358728,0.0,0.0,-0.540587
60492844,0.108837,0.00558701,-0.0342894,0.0,0.0,-0.540587
60507787,0.0767463,0.00577663,-0.031625,0.0,0.0,-0.540587
60532617,0.096983,0.00720135,-0.0310529,0.0,0.0,-0.539388
60552612,0.100939,0.00850035,-0.0275453,0.0,0.0,-0.539388
60572340,0.14966,0.0107408,-0.0255232,0.0,0.0,-0.539388
60592255,0.12668,0.0131119,-0.0240809,0.0,0.0,-0.539388
60612108,0.155689,0.0242438,-0.0223866,0.0,0.0,-0.539388
60632092,0.158964,0.0253483,-0.0208982,0.0,0.0,-0.539388
60651917,0.207376,0.0358139,-0.0203628,0.0,0.0,-0.539388
60671740,0.246741,0.0821251,-0.0204209,0.0,0.0,-0.540587
60691627,0.309715,0.099459,-0.0188099,0.0,0.0,-0.540587
60711443,0.49066,0.227395,-0.0182524,0.0,0.0,-0.540587
60731216,0.473684,0.191521,-0.014406,0.0,0.0,-0.540587
60751083,0.43063,0.0983401,-0.0109233,0.0,0.0,-0.540587
60770950,0.381623,0.0710055,-0.00915847,0.0,0.0,-0.540587
60790925,0.261384,0.0164359,-0.00641475,0.0,0.0,-0.540587
60810983,0.138664,-0.00450296,-0.00492408,0.0,0.0,-0.540587
60830858,-0.0178629,-0.011933,-0.00401787,0.0,0.0,-0.541787
60855612,-0.200523,-0.0384601,-0.00134551,0.0,0.0,-0.541787
60870456,-0.274471,-0.0560263,0.000626512,0.0,0.0,-0.540587
60890284,-0.375,-0.0428607,0.000693831,0.0,0.0,-0.539388
60915051,-0.474503,-0.0150381,0.00113937,0.0,0.0,-0.539388
60929923,-0.442156,-0.0115344,0.00251438,0.0,0.0,-0.539388
60949765,-0.37258,-0.0036909,0.00268421,0.0,0.0,-0.539388
60969697,-0.28807,0.00509387,0.00212083,0.0,0.0,-0.539388
60994518,-0.193564,0.00733553,0.00218033,0.0,0.0,-0.539388
61009421,-0.150157,-0.0184006,0.00274083,0.0,0.0,-0.539388
61029278,-0.118429,-0.128412,0.00268768,0.0,0.0,-0.539388
61054133,-0.0869559,-0.221468,0.0050254,0.0,0.0,-0.539388
61069053,-0.0706248,-0.234719,0.0049615,0.0,0.0,-0.539388
61089141,-0.0755874,-0.257833,0.00434747,0.0,0.0,-0.539388
61113832,-0.0624959,-0.303675,0.00188702,0.0,0.0,-0.539388
