timestamp,timestamp_sample,accel_device_id,gyro_device_id,delta_angle[0],delta_angle[1],delta_angle[2],delta_velocity[0],delta_velocity[1],delta_velocity[2],delta_angle_dt,delta_velocity_dt,delta_velocity_clipping
40747402,40747263,4259850,4325386,6.85386e-05,-0.000172144,-0.000219471,-0.00106103,-0.00138822,-0.0477922,5010,4902,0
40752380,40752236,4259850,4325386,-8.18217e-05,0.000194624,9.75994e-06,-0.000698612,-0.000931982,-0.0483144,4973,4965,0
41255857,41255512,4259850,4325386,8.97476e-05,-0.000268627,-0.000306647,0.00411717,0.00153322,-0.0524715,4991,5922,0
41749584,41749476,4259850,4325386,-0.00129191,0.000996924,0.000277063,0.000598135,0.00191856,-0.0372868,4948,3949,0
42248415,42248265,4259850,4325386,0.00208808,-0.00203464,-0.000416703,0.0136813,0.0304005,-0.042611,4994,4937,0
42752793,42752641,4259850,4325386,0.000901283,-0.00196437,-0.000552267,0.0117099,-0.0169652,-0.0506389,5242,4958,0
43251388,43251277,4259850,4325386,-0.00110762,-0.000105348,-0.000144464,0.00419242,0.00453658,-0.0584603,4988,4937,0
43750086,43749970,4259850,4325386,0.00249368,-0.00350021,-0.0012935,0.0152005,0.00356829,-0.0422522,4985,4938,0
44253360,44253250,4259850,4325386,-0.00300441,0.00133032,0.000266091,0.015979,0.00904592,-0.0414847,4987,4757,0
44752782,44752102,4259850,4325386,1.9801e-05,-0.000149142,0.000780469,0.0139439,-0.00250336,-0.0542172,4980,5927,0
45251270,45251085,4259850,4325386,-0.000501072,-0.000196237,0.00079937,0.00131286,0.010434,-0.0619831,4961,6000,0
45749740,45749627,4259850,4325386,-0.000396507,-0.000413619,0.000663751,-0.00172666,0.00607344,-0.0546948,4988,5019,0
46248543,46248429,4259850,4325386,-0.000244062,0.000153251,0.00110191,0.00123789,0.0276466,-0.0447959,4997,4974,0
46752516,46752384,4259850,4325386,-0.000492533,0.000221557,-0.000364359,0.00313884,0.00387855,-0.049817,4962,4937,0
47250135,47249999,4259850,4325386,0.00187374,-0.00112239,-7.92285e-05,-0.00165497,0.0310931,-0.0437876,4991,4986,0
47753028,47752782,4259850,4325386,-0.00135626,0.000206147,-0.000199787,-0.00457025,-0.0353583,-0.0536904,4992,4937,0
48251389,48251263,4259850,4325386,0.00298101,0.000566472,-0.00102656,-0.00291141,-0.0479374,-0.0472343,4973,4972,0
48749975,48749864,4259850,4325386,-0.0035803,8.81047e-05,0.000632793,-0.00443144,-0.0108035,-0.0580937,4988,4935,0
49248674,49248436,4259850,4325386,-0.00152029,0.000425001,0.00192217,-0.00734637,-0.0369473,-0.0566281,4981,4939,0
49752330,49752168,4259850,4325386,0.00010049,-0.00025929,0.00198005,0.00275314,0.0520923,-0.0384683,4990,4986,0
50251344,50250783,4259850,4325386,0.00143824,0.000103771,-0.00423514,0.00146077,-0.00882917,-0.0618966,4991,6024,0
50749807,50749655,4259850,4325386,-0.00286466,0.00069483,-0.000441414,-0.00368195,-0.0220741,-0.0563911,4973,4973,0
51253464,51253353,4259850,4325386,5.73634e-05,-0.000219489,-6.32837e-05,0.00382611,-0.0210086,-0.0528379,4988,4939,0
51747333,51747158,4259850,4325386,-0.000648365,0.00156197,0.00179611,-0.00451041,0.00396379,-0.0631898,4989,5921,0
52251500,52251388,4259850,4325386,-0.000631702,0.000516694,0.00216128,-0.00279176,0.0565006,-0.0555954,4987,4937,0
52749846,52749199,4259850,4325386,0.00156137,0.000263779,0.000749981,0.00103935,0.0398237,-0.0542824,4999,5926,0
53253198,53253070,4259850,4325386,-0.00233536,5.82716e-05,0.000764311,-0.00345451,-0.0249408,-0.0609685,4955,4936,0
53751901,53751758,4259850,4325386,0.000841428,0.000190941,-0.00284728,-0.00697585,0.0208514,-0.0542199,4990,4937,0
54250686,54250550,4259850,4325386,0.00216845,-0.0017013,-0.00100876,0.00285701,-0.0267909,-0.03596,4981,4935,0
54754546,54754417,4259850,4325386,0.00244967,0.000434265,-0.000414895,0.00161146,-0.0524453,-0.0393625,5005,4902,0
55254106,55253125,4259850,4325386,-0.00161412,0.000979191,0.00164695,-0.00771769,0.0158738,-0.0496961,4983,4936,0
55752025,55751916,4259850,4325386,-0.00104342,0.000695648,-2.96788e-05,-0.00289697,0.000915002,-0.0530781,4981,4777,0
56251035,56250839,4259850,4325386,0.00305336,-0.000968081,-0.000841726,-5.20683e-05,-0.0348908,-0.0362844,4995,4956,0
56750163,56750048,4259850,4325386,0.00111021,9.90356e-05,-0.000713271,0.00407693,-0.0146204,-0.0406469,4988,4992,0
57249255,57249098,4259850,4325386,-0.0010631,-0.000234636,0.000398102,-0.00293196,0.0206604,-0.0483281,4976,4988,0
57752746,57752637,4259850,4325386,-0.00201585,0.000394241,0.00155748,0.00602242,0.0658939,-0.051123,4986,4989,0
58251989,58251866,4259850,4325386,0.00123398,0.000547824,-0.000519903,0.00245178,-0.00391424,-0.0421527,4989,4989,0
58750775,58750658,4259850,4325386,-0.000208387,-0.000715668,-0.000891957,0.00180506,0.0598109,-0.0420132,4984,4688,0
59249113,59249000,4259850,4325386,0.000971803,0.000374539,-0.000734224,-0.00279069,-0.0122734,-0.0462784,4984,4969,0
59752920,59752784,4259850,4325386,-0.000123512,-3.83869e-06,0.000894488,-0.00773033,0.0133887,-0.0516577,4989,4992,0
60251879,60251732,4259850,4325386,0.0014553,0.000680558,-0.00100804,-0.00254162,-0.057978,-0.0460346,5002,4990,0
60750568,60750413,4259850,4325386,0.00123003,0.000938121,-0.000561852,-1.33355e-05,-0.00751407,-0.0459061,4994,4992,0
61254305,61254153,4259850,4325386,-8.30475e-05,0.000376472,0.000697591,-0.00521449,0.0162741,-0.0492554,4992,4949,0
61753192,61753007,4259850,4325386,0.000604427,0.000482561,-2.13817e-05,0.00151857,-0.015589,-0.040702,4950,4950,0
62251856,62251737,4259850,4325386,-0.00234354,0.000561812,-0.000321566,-0.00631095,-0.00330491,-0.0576226,4990,4933,0
62750637,62750527,4259850,4325386,-7.22111e-05,-0.00148349,-0.000194558,-0.00400137,-0.017159,-0.0521382,4986,4953,0
63249687,63249548,4259850,4325386,0.00181765,0.000150026,-0.000661672,0.00134703,-0.0283066,-0.0363521,4995,4993,0
63753349,63753227,4259850,4325386,0.000912792,0.000224579,-0.000429611,0.000951232,-0.0223314,-0.0414311,4992,4936,0
64251581,64251448,4259850,4325386,0.00124808,0.000444678,-0.000754733,0.00736441,0.00605296,-0.0447788,4968,4936,0
64755663,64755129,4259850,4325386,-0.00061207,0.000819066,-0.00116694,-0.00301135,-0.0125509,-0.0561913,4989,4976,0
65248700,65248589,4259850,4325386,-0.00226536,-0.00032691,6.36426e-05,-0.000584719,0.0331324,-0.0566872,4966,4936,0
65747345,65747229,4259850,4325386,-0.00204758,0.000497141,0.00121028,-0.00205566,-0.0148617,-0.0556774,4989,4949,0
66251118,66251009,4259850,4325386,0.00425925,0.000526508,-0.000118095,0.000521979,0.0181008,-0.0402931,4988,4946,0
66750268,66750132,4259850,4325386,1.00471e-05,0.000651625,-3.37494e-06,-0.000617035,-0.0570047,-0.0444064,4998,4997,0
67254509,67253586,4259850,4325386,0.000248702,0.000123551,0.000986589,0.00542727,0.0583893,-0.0437551,4991,4935,0
67752493,67752380,4259850,4325386,0.000165667,0.000650792,0.00046913,-0.00238581,0.048432,-0.0456118,4992,4935,0
68251406,68251267,4259850,4325386,-5.71305e-05,-0.000579039,0.000587142,-0.00603407,0.0101108,-0.0476031,5019,4906,0
68755109,68754959,4259850,4325386,9.88358e-05,-0.00137649,-0.000640384,-1.27273e-05,-0.0331358,-0.0392611,4996,4943,0
69253854,69253745,4259850,4325386,-0.00108155,0.000948028,0.000443451,-0.00250231,0.0176102,-0.049985,4933,4933,0
69747926,69747802,4259850,4325386,-0.00339852,0.000645701,0.00104958,-0.00690447,-0.0213135,-0.0582339,4974,4969,0
70251496,70251369,4259850,4325386,-0.00123832,0.000445495,0.000803811,-0.00205642,0.0111575,-0.051294,5027,4915,0
70750583,70750127,4259850,4325386,0.00250148,-0.000327793,-0.000505415,0.00152233,-0.0219351,-0.0460559,4991,4937,0
71254069,71253908,4259850,4325386,0.000420023,0.00131851,-0.000128189,0.0104756,0.0203352,-0.0421843,4989,4967,0
71752328,71752200,4259850,4325386,-0.00185949,0.000249352,0.000112059,-0.00272613,-0.0230054,-0.0416699,4987,4968,0
72256102,72255984,4259850,4325386,-0.00361052,-0.00053689,0.00101808,-0.000850091,0.0495113,-0.0565318,4990,4942,0
72749935,72749786,4259850,4325386,-0.00108041,0.00134389,-5.95911e-05,0.00137465,0.0239153,-0.048323,4987,4937,0
73248701,73248581,4259850,4325386,0.000571765,-0.000382937,-0.000582691,-0.00299089,-0.0242997,-0.0421221,4986,4972,0
73752603,73752460,4259850,4325386,0.00208785,0.000584401,0.000133959,0.0058436,0.0414467,-0.0354018,4918,4937,0
74251391,74251238,4259850,4325386,-0.00189294,0.00115589,0.000771738,0.00131201,0.0375592,-0.0561947,4995,4937,0
74750088,74749948,4259850,4325386,2.02182e-05,-0.000354239,2.79727e-06,0.00013596,-0.00552775,-0.0527218,4988,4937,0
75253840,75253730,4259850,4325386,0.00103073,0.00116851,-0.000122031,0.00222044,0.00385999,-0.0406443,4988,4936,0
75752962,75752777,4259850,4325386,-0.00138379,-7.87746e-05,0.000688844,0.00384202,0.0437593,-0.0609531,4968,5834,0
76251445,76251317,4259850,4325386,-0.000552,-0.00126082,0.000207038,-0.00822691,0.00469568,-0.0564453,4988,4985,0
76750303,76750115,4259850,4325386,0.000821021,0.00112708,-5.2702e-05,0.00472715,-0.00384347,-0.0295213,4967,3943,0
77249424,77249308,4259850,4325386,0.00109034,0.000267141,-0.000446233,-0.00567276,-0.0470597,-0.0503243,4971,4938,0
77752795,77752685,4259850,4325386,-0.000349108,-0.000193106,-0.00035886,0.000106059,-0.0162392,-0.0443249,4988,4940,0
78251588,78251479,4259850,4325386,-0.001091,0.000233287,0.00068644,-0.00158435,0.0370547,-0.0505166,4986,4931,0
78750548,78750416,4259850,4325386,0.00173458,-0.00237598,-0.000469114,0.00369244,0.00552908,-0.0438035,4968,4937,0
79254184,79254058,4259850,4325386,0.00118212,-0.000352935,-0.000792339,0.00123676,-0.00462108,-0.0432602,4992,4940,0
79747980,79747870,4259850,4325386,0.00253441,0.0057671,0.000370933,-0.00676373,-0.0497835,-0.0643383,4991,4970,0
80251940,80251780,4259850,4325386,-0.00148338,-0.000473682,-0.000932703,0.00302523,0.0254236,-0.0464626,4976,4970,0
80750055,80749937,4259850,4325386,-0.00417897,-0.00246802,-7.87555e-05,-0.0013061,-0.0412367,-0.0634268,4969,4956,0
81249114,81248935,4259850,4325386,-9.28387e-05,0.000742569,0.000650217,-0.00309421,0.0164038,-0.047615,5000,4942,0
81752796,81752658,4259850,4325386,-0.00269774,-0.000318457,-0.00565617,-0.00224474,-0.0116333,-0.0440863,4986,4936,0
82251143,82250988,4259850,4325386,4.81001e-05,-1.95445e-05,-0.00334903,0.00569512,-0.0154953,-0.040536,4972,4972,0
82754753,82754642,4259850,4325386,-0.000525651,0.000374625,0.000938678,0.0024942,0.0423092,-0.0506853,4993,4937,0
83253605,83253461,4259850,4325386,-0.000955891,-4.80768e-05,-0.00511233,-0.00281948,0.00330345,-0.0552155,4996,4967,0
83752461,83752308,4259850,4325386,-0.00390603,0.000255694,-0.00490638,-0.00670751,0.00894847,-0.0549832,4982,4936,0
84252407,84251020,4259850,4325386,0.00322426,-0.0011928,-0.00487333,0.00791108,0.020418,-0.0415131,4989,4934,0
84749925,84749812,4259850,4325386,-0.00420803,-0.000348422,0.00123108,0.0104842,0.0328722,-0.0549284,4988,4986,0
85253755,85253602,4259850,4325386,0.00145355,0.000494239,0.000189148,0.00160481,-0.0308334,-0.0435026,4967,4938,0
85752586,85752392,4259850,4325386,-0.00104591,-0.00178828,0.000541386,-0.00180305,-0.00659671,-0.0537767,4991,4966,0
86251445,86251336,4259850,4325386,0.000770474,0.00219069,-0.00107721,0.000231245,0.0157795,-0.0514866,4992,4794,0
86755528,86755417,4259850,4325386,0.0021314,0.000287714,-0.00417793,-0.000758715,-0.0127467,-0.0397082,4990,4992,0
87249516,87249404,4259850,4325386,-0.00414776,7.32511e-06,0.00020549,0.00492654,-0.000989807,-0.0411454,4986,4989,0
87748690,87748535,4259850,4325386,0.00110253,0.000545619,0.00232793,-0.0010672,-0.00908605,-0.0571473,4997,4976,0
88252782,88252649,4259850,4325386,0.000493625,-5.83293e-05,0.000459953,-0.00386147,-0.0203697,-0.0511423,4970,4983,0
88752552,88751092,4259850,4325386,-0.00194807,-0.000570328,0.000741438,-0.00300872,0.0302234,-0.053574,4990,5862,0
89249992,89249883,4259850,4325386,0.000743539,0.000352773,-6.53221e-05,0.00342861,-0.0228117,-0.0393034,4987,4949,0
89753961,89753814,4259850,4325386,-0.0018537,0.000323831,0.00147337,0.000752907,0.0550369,-0.0558085,4928,4935,0
90247615,90247471,4259850,4325386,0.00164242,0.00152585,-0.000305343,0.00446269,0.0326915,-0.0451527,4987,4937,0
90751386,90751255,4259850,4325386,0.00171252,-0.000199005,-0.0010876,0.000534297,-0.0411992,-0.0442656,4989,4973,0
91250457,91250340,4259850,4325386,0.000142004,0.000269379,0.000764375,-0.00188323,-0.00435931,-0.0580608,4965,4934,0
91748958,91748842,4259850,4325386,-0.00190766,-0.000371997,0.000532667,-0.00289691,-0.0257995,-0.0447023,4988,4936,0
92253403,92253183,4259850,4325386,-0.00105831,-0.00013768,0.00103275,-0.00341253,-0.00431171,-0.0517707,4985,4940,0
92752090,92751918,4259850,4325386,-0.00177437,0.000325095,0.00161568,0.00214473,0.0358238,-0.0513282,4989,4942,0
93250864,93250714,4259850,4325386,0.00290102,0.000775442,-0.00108694,0.0036526,0.0116693,-0.0426249,4990,4936,0
93754613,93754493,4259850,4325386,-0.000251275,-0.00041166,0.000138795,0.00280402,-0.0137983,-0.0433022,4988,4938,0
94248408,94248300,4259850,4325386,-0.00103913,-0.000187033,0.00205194,0.000328415,0.0145679,-0.0417876,4987,4960,0
94751721,94751582,4259850,4325386,-0.00240547,0.000520256,0.00128866,-0.000319144,0.0146724,-0.0404674,4987,3768,0
95250548,95250377,4259850,4325386,-0.000206973,0.000567891,-0.00140262,0.00126349,0.0089365,-0.0706668,4989,5924,0
95749350,95749172,4259850,4325386,-7.12757e-05,-0.000734504,-0.000936659,0.00790562,0.028748,-0.0439514,4988,5002,0
96248092,96247967,4259850,4325386,0.00278982,-0.000105401,-0.000513917,-0.000818336,-0.0173107,-0.0413194,4983,4979,0
96751993,96751856,4259850,4325386,-0.000647333,-0.000214112,0.00147453,0.00538094,0.0329727,-0.039378,4984,4985,0
97250830,97250544,4259850,4325386,-0.00118872,0.000296697,0.0015115,-0.00268109,0.0125722,-0.0415553,4990,4973,0
97750046,97749844,4259850,4325386,0.000630226,-0.00162018,6.07503e-05,0.00421552,-0.0105813,-0.0405372,5000,4994,0
98254855,98253788,4259850,4325386,-0.00120104,-0.00106941,0.000922461,-0.00105399,-0.0047094,-0.0640091,4972,6126,0
98752570,98752460,4259850,4325386,-0.000456454,0.000119937,-0.000563075,-0.000491772,-0.0496799,-0.0496656,5037,4931,0
99252641,99251876,4259850,4325386,0.00134298,0.000253016,0.000467429,0.00242388,0.00138878,-0.0475282,4993,4939,0
99751198,99751068,4259850,4325386,0.00169688,-0.000343885,0.000150897,0.000249178,-0.0251135,-0.0428849,5011,4900,0
100255661,100255532,4259850,4325386,-0.00101888,0.000567382,0.0023322,-0.00465849,0.0275087,-0.0583739,4974,4939,0
100753763,100753622,4259850,4325386,-0.00020804,0.000668153,0.00171922,-0.00364135,-0.0393587,-0.0520037,4988,4936,0
101247560,101247432,4259850,4325386,-0.00188166,0.00142104,0.00102565,-0.00525943,0.00595555,-0.0537551,4992,4940,0
101751365,101751254,4259850,4325386,0.000542214,1.91516e-05,-0.000751136,0.00122633,-0.0339681,-0.0403092,5031,4921,0
102250160,102250031,4259850,4325386,0.000669254,-0.00059827,1.29333e-05,-0.0030225,-0.056421,-0.0487097,4993,4992,0
102754173,102754055,4259850,4325386,-0.00132943,0.00083412,0.00256539,0.000253122,0.0337221,-0.0517757,5032,4918,0
103252948,103252728,4259850,4325386,0.00249713,-0.000215539,-0.000591157,0.000423899,-0.0211035,-0.0510587,4996,5862,0
103750602,103750492,4259850,4325386,-0.00281876,-0.00127059,0.000477697,-0.00578787,0.0114148,-0.0572902,4992,4939,0
104254244,104254115,4259850,4325386,-3.73349e-05,-0.000794023,-0.000511558,0.00371316,0.0246221,-0.0393066,4990,4937,0
104748058,104747920,4259850,4325386,-0.00261126,-0.000942387,0.000726426,0.00289334,-0.00696547,-0.0554436,4988,4973,0
105252971,105251707,4259850,4325386,0.000924781,-0.00288169,-0.000715189,-0.00257255,-0.0638759,-0.05266,4991,4969,0
105750141,105749998,4259850,4325386,-0.00172808,0.00151521,0.00116342,0.00740586,0.0392674,-0.0504106,4988,4940,0
106253945,106253783,4259850,4325386,0.00110583,1.78194e-05,0.000814334,0.00546237,0.00289631,-0.0416029,4975,4974,0
106752695,106752583,4259850,4325386,-0.00306219,-0.000482778,0.000975654,-0.00210079,-0.0327917,-0.0544886,4956,4972,0
107251002,107250871,4259850,4325386,0.000243672,0.000450609,0.00127914,-0.00389122,-0.0214723,-0.0509641,4988,4933,0
107749854,107749665,4259850,4325386,0.000693285,-0.000948035,0.000594201,0.00313536,0.0186951,-0.0422513,4957,4955,0
108253708,108253450,4259850,4325386,5.94145e-05,-0.000348194,0.000518782,0.00118427,-0.0280393,-0.0488241,4990,4940,0
108752354,108752242,4259850,4325386,-0.000679167,0.00234898,0.000705321,0.0014195,0.0283896,-0.0587264,4987,4939,0
109250768,109250616,4259850,4325386,0.00128951,-0.000301271,-0.00111259,0.00410669,-0.0301189,-0.0426156,5014,4901,0
109749494,109749381,4259850,4325386,-0.00324098,0.000954823,0.00175074,-0.000172418,0.0091487,-0.0574717,4988,4711,0
110253313,110253165,4259850,4325386,-0.000685801,-0.000275055,0.000973104,0.00612314,0.000587098,-0.0456711,4988,4937,0
110752089,110751959,4259850,4325386,-0.00208709,-0.00010175,0.000942727,-0.00681435,-0.0422991,-0.0525508,4987,4931,0
111250447,111250246,4259850,4325386,0.00136811,0.000181903,-7.09566e-05,0.00129154,-0.0345532,-0.0374281,4945,4988,0
111748682,111748504,4259850,4325386,0.000118986,-7.12254e-05,0.000801568,-0.00367199,0.0385761,-0.0489296,4987,4982,0
112252718,112252553,4259850,4325386,0.000711937,-0.000141378,-0.000693204,0.00637523,-0.0038163,-0.0396337,4968,4938,0
112750735,112750581,4259850,4325386,0.000357284,0.00223511,-0.000728307,0.00803935,-0.0183887,-0.0449524,4968,4947,0
113254895,113254539,4259850,4325386,-0.000111104,-0.00140556,-0.000569703,0.00248582,-0.024964,-0.054426,5000,5926,0
113753441,113753263,4259850,4325386,0.000881578,-0.00200111,-0.000495673,-0.0035827,-0.0203009,-0.0509384,4988,4936,0
114253129,114251958,4259850,4325386,0.000783336,0.00165176,1.60469e-05,-0.0023912,0.0116221,-0.0453153,4989,4939,0
114750930,114750818,4259850,4325386,-0.000182847,3.88685e-05,0.00171296,-0.0103295,-0.024502,-0.0558967,4969,4937,0
115249668,115249543,4259850,4325386,0.00290802,0.00186302,0.00097852,0.00650115,-0.0171933,-0.0371029,4988,5003,0
115748449,115748338,4259850,4325386,0.00211449,-0.000253734,0.000187098,0.00292808,-0.0240951,-0.0377583,4985,4960,0
116252442,116252330,4259850,4325386,0.00435635,-0.000600118,0.000538742,0.00378991,0.0190698,-0.039294,4954,4937,0
116751225,116751102,4259850,4325386,0.000751003,-0.00486363,-0.000789605,-0.00335248,-0.0272926,-0.0513274,4984,4934,0
117249822,117249711,4259850,4325386,0.000590523,0.00347901,-0.000178057,0.00189777,0.0255818,-0.0425827,4988,4968,0
117752721,117752544,4259850,4325386,-0.000348468,0.000426534,0.000555218,-0.0017835,0.0058519,-0.0509014,4985,4936,0
118251609,118251424,4259850,4325386,-0.00762616,-0.00190316,0.000889465,-0.00255923,0.0290307,-0.0607624,4981,4977,0
118750249,118750134,4259850,4325386,0.000442224,-0.000209183,-0.000400431,2.81557e-05,-0.00746248,-0.0551138,4978,4936,0
119249046,119248930,4259850,4325386,-0.00220431,-0.000145002,0.000130416,-0.00365088,-0.0122354,-0.0561951,4987,4774,0
119753066,119752910,4259850,4325386,-0.000804194,0.000205331,0.00137532,0.000958414,0.0375792,-0.0481614,4957,4951,0
120251640,120251510,4259850,4325386,-0.000159103,-0.000622779,9.47322e-05,0.00342239,-0.023253,-0.0375145,4988,4930,0
120750419,120750303,4259850,4325386,0.00132797,0.00103852,-0.00116093,-0.00136443,-0.0505654,-0.0410583,4988,4934,0
121253695,121253552,4259850,4325386,0.0037377,-0.000454641,-0.000786437,0.00287354,-0.0350192,-0.0374688,5000,4884,0
121752928,121752502,4259850,4325386,-0.00028054,-0.00101923,0.0004421,0.0061606,0.0403049,-0.0458901,4991,4931,0
122251298,122251182,4259850,4325386,0.00075155,-0.000403026,-7.7684e-05,-0.00157714,0.0131717,-0.0399066,4959,4936,0
122750138,122749926,4259850,4325386,-0.000173593,-6.56477e-05,-0.00071992,-0.00705019,-0.0242113,-0.067374,4988,5615,0
123253680,123253506,4259850,4325386,-0.000136831,-8.53088e-06,-6.95882e-05,0.0051243,0.0418926,-0.0465906,4978,4977,0
123751660,123751506,4259850,4325386,0.00116492,0.000386424,-0.000493176,-0.0105962,-0.0290155,-0.0554618,4989,4962,0
124249952,124249801,4259850,4325386,-0.000291036,-0.00109777,-0.000528201,-0.00279855,-0.0638559,-0.0473273,4987,4983,0
124753731,124753592,4259850,4325386,-0.000397138,0.00217609,0.000762912,0.00532574,0.0459487,-0.0393693,4944,4936,0
125252044,125251930,4259850,4325386,0.00170658,-0.000568896,0.000143608,0.00106706,0.0244103,-0.037885,4989,4937,0
125751423,125750871,4259850,4325386,-0.00360132,0.0018674,0.000711892,7.07382e-05,0.00771829,-0.0465295,4939,4746,0
126250081,126249971,4259850,4325386,0.00084067,0.000276353,-8.00481e-05,0.00297579,-0.000286792,-0.049581,4987,4945,0
126749360,126749178,4259850,4325386,-0.00428436,0.000247091,0.000398492,-0.00527611,-0.0148683,-0.0507664,5025,4903,0
127252671,127252550,4259850,4325386,0.00013237,0.00015006,0.000460848,-0.00495287,0.00994656,-0.0521578,4987,4932,0
127751482,127751369,4259850,4325386,0.000229319,-0.00104807,-0.00026606,0.00247929,0.0245903,-0.0434333,5011,4882,0
128255790,128255220,4259850,4325386,0.00202133,0.000288882,-0.00123982,-0.0023753,-0.0199088,-0.0499467,4974,5925,0
128753335,128753218,4259850,4325386,-0.00156149,0.000153781,0.000600779,0.00257185,0.0231942,-0.0487084,4995,4889,0
129251831,129251722,4259850,4325386,0.00327202,-0.0019753,-0.00487324,0.000360033,0.00742392,-0.0403636,4988,4936,0
129750152,129750019,4259850,4325386,-0.00515497,-0.000353793,-0.00645375,-0.00404812,-0.0127563,-0.0570149,4987,4994,0
130248928,130248816,4259850,4325386,-0.00098039,5.10576e-05,0.000177561,-0.00284063,0.0381425,-0.0623722,4989,4993,0
130752744,130752601,4259850,4325386,-0.00311817,0.00107082,0.00199016,0.00164122,0.0487977,-0.0427989,4990,4711,0
131256293,131255884,4259850,4325386,0.00415532,-0.000949372,-0.00113025,-0.000148427,-0.0143783,-0.0364915,4989,4936,0
131749807,131749695,4259850,4325386,-0.00108784,-0.00134665,-0.00574683,0.000237646,-0.00462832,-0.0495397,4991,4933,0
132253614,132253478,4259850,4325386,-0.00336449,-0.000464858,-0.00237608,0.0112921,0.00443834,-0.0396933,4992,4726,0
132752445,132752272,4259850,4325386,0.0053881,-0.000394321,-0.000510768,0.00500489,-0.0427258,-0.0515438,4990,4933,0
133251414,133251173,4259850,4325386,-0.00105591,-0.000238617,-0.000959974,-0.00504211,-0.0376685,-0.0573621,4982,4974,0
133750237,133750099,4259850,4325386,0.00168687,0.000767038,-0.00535193,0.00107062,0.058606,-0.0458028,4967,4967,0
134253761,134253650,4259850,4325386,0.000854268,-0.00183728,-0.000744348,-0.000456504,0.0258117,-0.0376619,4993,4987,0
134751769,134751495,4259850,4325386,-0.00133574,0.00116827,0.00162332,-0.000629344,0.049058,-0.0492165,4992,5895,0
135250399,135250287,4259850,4325386,-0.000577279,0.000587348,0.00111328,-0.000741274,0.0478486,-0.0461216,4988,4935,0
135754594,135754357,4259850,4325386,0.000808228,0.000257899,-0.00576863,-0.00101421,-0.000718812,-0.055431,5274,6150,0
136247997,136247878,4259850,4325386,-0.00289711,0.000495953,-0.00112714,0.000534696,-0.0221987,-0.0369345,4984,4944,0
136751259,136751115,4259850,4325386,0.00024624,0.000320069,5.19212e-05,0.00146934,-0.00511614,-0.0502822,4988,4936,0
137251735,137249915,4259850,4325386,0.00123556,-1.6725e-05,0.000923991,-0.00316854,-0.0210602,-0.0594492,4984,5010,0
137753351,137753198,4259850,4325386,-0.000832019,0.00111676,0.000180262,-0.00235784,-0.0339747,-0.0572206,4990,4984,0
138252102,138251993,4259850,4325386,0.00092424,0.000635066,0.000922886,0.000665491,0.0446667,-0.0577901,4982,4871,0
138755896,138755778,4259850,4325386,-0.00178275,1.11835e-05,0.000144349,-0.00606959,-0.031158,-0.0550644,4989,4939,0
139249261,139249129,4259850,4325386,0.00270035,-0.000119661,-0.000527319,1.42602e-05,-0.000625617,-0.0467052,5029,5864,0
139748193,139747936,4259850,4325386,0.00131037,-0.000797866,-0.000757065,-0.00308134,-0.0572171,-0.0434808,4978,4927,0
140251835,140251695,4259850,4325386,-0.000270229,0.000370351,-0.000659811,-0.00389485,-0.0515605,-0.0509893,5018,4904,0
140750571,140750461,4259850,4325386,0.000224134,0.000222466,-0.000917305,0.00167998,0.00813502,-0.0461182,4988,4939,0
141254890,141254366,4259850,4325386,0.00425717,-0.00168157,-0.000760342,0.00629121,0.0113456,-0.0586147,4983,5928,0
141753272,141753108,4259850,4325386,0.0017081,0.000431719,-0.000389124,-0.00393193,-0.0124914,-0.0487714,4990,4935,0
142251986,142251837,4259850,4325386,0.000366592,-8.05403e-05,0.000107013,-0.0051779,-0.00130949,-0.0403041,4985,4936,0
142751346,142751209,4259850,4325386,0.00116827,0.000684097,0.000181655,-0.00395959,-0.00159262,-0.0508487,4999,4997,0
143250534,143250426,4259850,4325386,-0.00232632,0.000664331,-0.000174624,-0.00292372,0.0311185,-0.0538518,4985,4995,0
143749882,143749769,4259850,4325386,0.000496831,-1.99347e-05,-0.000325995,0.00628823,0.0532453,-0.0518391,4988,4936,0
144254714,144253556,4259850,4325386,0.00100606,-0.000285724,0.000788004,-0.00117169,-0.00565805,-0.0473544,4990,4986,0
144752584,144752475,4259850,4325386,6.44592e-06,-0.00101019,0.00156727,0.00227326,0.059643,-0.0423502,4932,4296,0
145251391,145251229,4259850,4325386,-0.00115356,0.000141485,0.000970925,0.00261972,0.0498216,-0.0452894,4994,4937,0
145754612,145754459,4259850,4325386,0.000816106,0.00083985,-9.80514e-05,0.00699045,0.0270278,-0.0364252,4983,4984,0
146253304,146253180,4259850,4325386,0.00267907,0.00142791,-0.0011307,0.0008957,-0.0271448,-0.0417882,4981,4966,0
146752184,146752023,4259850,4325386,-0.00419072,0.00044131,0.00108791,0.00133131,0.0305885,-0.0566745,4982,4977,0
147250925,147250789,4259850,4325386,0.00186617,8.506e-05,-0.000598404,-0.00553033,0.0189095,-0.054771,4964,4936,0
147749685,147749567,4259850,4325386,0.00129702,-0.00122746,-2.18891e-06,-0.0045489,0.023366,-0.0502009,4988,4972,0
148248496,148248385,4259850,4325386,0.00226202,0.000720402,0.00010097,0.00303152,0.0188156,-0.0371811,5002,4883,0
148751267,148751151,4259850,4325386,0.0039335,0.00059702,-0.000924892,0.000315931,-0.0283472,-0.0413882,4984,4931,0
149250223,149250070,4259850,4325386,-0.00616669,-0.000384364,0.00101134,-0.00343618,0.025948,-0.0587484,4974,4995,0
149748365,149748249,4259850,4325386,-0.000671793,0.000574157,8.9763e-05,-0.00311327,-0.050242,-0.0517694,4992,4930,0
150252379,150252204,4259850,4325386,-0.00186494,0.000301494,0.00167403,-0.00719873,-0.0185942,-0.0553748,4971,4971,0
150750933,150750826,4259850,4325386,-0.00063082,0.00168394,-0.00119067,-0.0019857,-0.0503165,-0.0444339,4987,4934,0
151254502,151254320,4259850,4325386,0.0021125,-0.000720933,-0.000473652,-0.00277267,-0.0268312,-0.05618,4982,6046,0
151753065,151752954,4259850,4325386,-0.00198042,0.000256648,0.000987647,0.000828607,0.0267774,-0.0486798,4986,4992,0
152251924,152251751,4259850,4325386,0.00142701,-0.000644553,-0.000352082,0.00350345,0.0105302,-0.0459074,4982,5923,0
152750843,152750664,4259850,4325386,0.00344364,0.000374454,-0.00242721,0.00192953,-0.0187028,-0.0388377,4973,4937,0
153254483,153254331,4259850,4325386,-0.000704103,0.00130707,-0.000429842,0.0053441,-9.62333e-05,-0.047578,4987,4951,0
153748365,153748253,4259850,4325386,0.00347952,0.000645463,-0.00141057,0.005368,-0.00261903,-0.0474744,4994,4932,0
154252489,154252376,4259850,4325386,-0.000705663,0.00062988,0.000104706,0.00406831,0.00758283,-0.0535915,4988,4932,0
154751541,154751388,4259850,4325386,-0.00244245,0.000393722,0.00138744,-0.00228205,0.0368887,-0.0573622,4964,4936,0
155250089,155249969,4259850,4325386,0.00221621,0.000144859,0.000418586,0.00891494,0.0370857,-0.0348595,4990,4936,0
155753862,155753751,4259850,4325386,-0.00151391,0.000497705,0.00175818,-0.00327741,0.00438342,-0.0490866,4988,4977,0
156252684,156252558,4259850,4325386,0.000857762,-0.000407347,-0.000155151,-0.00454641,-0.0501661,-0.041396,4969,4972,0
156750647,156750459,4259850,4325386,-0.00166038,-7.86592e-05,0.000617867,-0.00478552,0.0377088,-0.05067,4967,4965,0
157249274,157249146,4259850,4325386,-0.00290047,0.000343089,0.000680377,-0.00116498,0.0342342,-0.0584966,4985,4938,0
157752756,157752583,4259850,4325386,-0.000919561,-9.08996e-05,0.00125167,0.00759063,0.0704031,-0.0542379,4971,4933,0
158251645,158251226,4259850,4325386,-0.00149207,-0.000152435,0.000272993,-0.00733691,0.0144002,-0.0594496,4984,4990,0
158750145,158750027,4259850,4325386,-0.000749382,-0.000276441,0.000773103,0.000217989,0.0420855,-0.0612229,4993,4936,0
159254158,159254006,4259850,4325386,-0.000753464,-4.84894e-05,-0.000546745,-0.000117029,-0.0135469,-0.0480823,5000,4993,0
159752923,159752696,4259850,4325386,0.00478822,-0.00092609,-0.00118833,0.00195421,-0.0191714,-0.0506415,4992,5868,0
160251614,160251440,4259850,4325386,-0.000195856,0.000287241,0.000550959,-0.00189471,0.02986,-0.0444186,5025,4918,0
160750371,160750258,4259850,4325386,0.00106641,0.00174557,-0.000663702,0.0013897,-0.0405387,-0.0443594,4952,4974,0
161249165,161249049,4259850,4325386,-0.000191381,-9.24445e-05,0.000414183,-0.000199453,0.0110203,-0.0422296,5043,4923,0
161753301,161752780,4259850,4325386,0.00255382,0.0013829,-0.000898649,0.00243008,-0.0136655,-0.0412238,4991,4962,0
162251180,162251076,4259850,4325386,0.000741621,0.000103062,0.00048931,-0.000853171,0.00156696,-0.045541,4273,3768,0
162749990,162749872,4259850,4325386,-0.00273054,0.00199947,0.000390433,-0.00242096,-0.00740022,-0.0612333,4988,4716,0
163254103,163253702,4259850,4325386,-0.00252037,0.000134177,0.00129705,0.00882956,0.0487298,-0.05344,4971,4939,0
163752098,163751960,4259850,4325386,-0.00243347,0.000308001,0.000277285,-0.00490698,0.0180129,-0.0531768,4995,4977,0
164251002,164250850,4259850,4325386,-0.00111185,9.35475e-05,0.000442846,-0.00815018,-0.0040119,-0.0536358,4970,4983,0
164749657,164749547,4259850,4325386,0.00190927,6.81288e-05,0.000227152,-0.00352328,0.0110218,-0.0474392,4988,4992,0
165253445,165253333,4259850,4325386,0.00177878,-0.00138596,-4.6142e-05,0.0038623,0.0243163,-0.0387855,4968,4939,0
165752560,165752439,4259850,4325386,-0.000305495,0.000221099,-0.000629003,0.00310389,-0.0284261,-0.0460918,4975,4651,0
166251058,166250924,4259850,4325386,-0.000238338,0.00123211,2.99002e-05,-0.00660533,-0.0355952,-0.0600422,4982,4937,0
166754828,166754714,4259850,4325386,-8.74928e-05,-0.000201755,-0.000231042,0.00159952,-0.0113991,-0.0426392,4991,4945,0
167248641,167248530,4259850,4325386,0.00269676,-0.000902947,-0.000497366,0.00560204,0.0251516,-0.0384186,4972,4770,0
167752448,167752305,4259850,4325386,-0.0010088,-6.44821e-05,0.000534542,-0.00762827,0.0120686,-0.0578016,4970,4939,0
168250770,168250658,4259850,4325386,0.0010524,9.78369e-05,-0.00103411,-0.00206152,-0.0266859,-0.0500559,4923,4935,0
168749597,168749445,4259850,4325386,-0.00401176,0.00195864,0.00108534,-0.00142882,-0.00842499,-0.0587861,4988,4937,0
169254564,169253234,4259850,4325386,-0.00235062,-0.00017198,0.000905086,-0.00229905,0.0350267,-0.0415559,4991,4931,0
169752213,169752096,4259850,4325386,0.000390278,0.000615914,-0.00121749,-0.00200596,-0.0326064,-0.0416824,4988,4993,0
170250976,170250824,4259850,4325386,0.00397691,0.000236429,0.0001618,0.0020565,0.0480897,-0.0450207,4988,4933,0
170749929,170749816,4259850,4325386,0.00129175,-0.00232581,6.16733e-05,0.00135164,-0.00111817,-0.0454884,4980,4936,0
171248579,171248421,4259850,4325386,-0.001145,0.000255231,3.29441e-05,-0.00374158,0.00757621,-0.0568549,4990,4970,0
171752347,171752210,4259850,4325386,-0.00232958,0.00117844,0.000695573,0.00040978,0.00876329,-0.0591537,4996,4983,0
172251155,172251002,4259850,4325386,-0.000484679,-0.000446683,-0.00251081,0.00373783,0.0351341,-0.0509375,4991,4965,0
172750090,172749894,4259850,4325386,0.00190579,0.000246943,-0.00677747,0.000137154,-0.0413637,-0.0416606,5002,5003,0
173254047,173253922,4259850,4325386,0.000665107,-0.000419564,-0.00397743,-0.00308909,0.0216653,-0.0490545,4996,4940,0
173753156,173753011,4259850,4325386,0.00269483,-0.000651931,-0.00369347,0.000466122,0.0264727,-0.0394516,4955,4932,0
174251820,174251676,4259850,4325386,0.00224963,-0.00128519,-0.0027582,0.00566212,0.0254787,-0.039991,4951,4941,0
174750573,174750422,4259850,4325386,-0.000723951,0.00115141,-0.000926848,-0.00878346,0.0141864,-0.0567991,4986,4935,0
175249570,175249422,4259850,4325386,0.000634197,-0.00014354,-0.00451518,0.00297724,-0.00741999,-0.0567777,4968,4673,0
175752710,175752553,4259850,4325386,-0.000534858,0.000516823,-0.00213783,-0.00297217,0.0140317,-0.054869,4988,5923,0
176251980,176251696,4259850,4325386,4.7791e-05,-0.000455597,-0.00163549,0.00320022,-0.0196999,-0.0483458,4975,4941,0
176750262,176750147,4259850,4325386,-0.00349099,0.000281081,0.00197418,-0.00467152,0.0146999,-0.0576455,4988,4968,0
177249701,177249531,4259850,4325386,-0.00115618,0.00218834,-0.000428436,-0.0072744,0.0124705,-0.0549507,4986,4991,0
177748316,177748204,4259850,4325386,-0.000420234,0.00102288,-0.000387981,-0.0118365,0.0112344,-0.0520951,4946,4938,0
178252161,178252017,4259850,4325386,-0.00156067,0.000909826,0.00107241,-0.00170235,0.0404052,-0.0622007,4971,4997,0
178750487,178750343,4259850,4325386,-0.000787722,0.000227872,-0.000236567,-0.00282299,-0.0080034,-0.044068,4999,4969,0
179248711,179248576,4259850,4325386,0.00189541,-0.001195,-0.000987179,-0.00144455,-0.0509261,-0.0383956,4971,4947,0
179752493,179752358,4259850,4325386,-0.00129499,0.000548909,0.000474769,-0.00107779,-0.00691285,-0.0582783,4988,4936,0
180251717,180251413,4259850,4325386,-0.00287586,2.68289e-06,0.00168535,0.00112707,0.0502353,-0.0601085,5003,4997,0
180750081,180749955,4259850,4325386,0.00220523,-0.000611846,0.00056874,-0.00204463,0.0154948,-0.0425272,4987,4937,0
181248870,181248750,4259850,4325386,0.00724757,-0.00174709,-0.000172863,0.000557536,-0.0215746,-0.0303337,4986,3840,0
181747793,181747642,4259850,4325386,-0.00165068,-7.28212e-05,-0.000732121,-0.00228238,-0.0131577,-0.0553241,4965,4960,0
182251439,182251332,4259850,4325386,0.000497126,0.000344565,-0.000513767,0.00316807,-0.0420976,-0.0434608,4989,4935,0
182755335,182755119,4259850,4325386,0.000435804,-0.000442211,0.00241727,0.00442977,0.042572,-0.0397731,4990,4954,0
183249291,183249168,4259850,4325386,-0.00133663,-1.12611e-05,0.000921411,0.000645573,0.005277,-0.0549811,4962,4935,0
183752865,183752713,4259850,4325386,-0.00250694,0.00217415,0.000866251,0.000743775,-0.016235,-0.0567447,4990,4990,0
184251619,184251508,4259850,4325386,0.00356327,-0.00138457,-0.0014822,-0.0028307,-0.0370119,-0.0413573,4988,4964,0
184755440,184755297,4259850,4325386,0.00415125,-0.00121745,0.000344811,0.00146527,0.0219238,-0.0371971,4984,4989,0
185249259,185249104,4259850,4325386,-0.000517737,-0.000195564,0.000297039,-0.000828675,-0.0208542,-0.0421873,4988,4966,0
185753006,185752890,4259850,4325386,0.000678518,0.000706671,-9.56012e-05,-0.00462519,-0.0407275,-0.0444423,4989,4951,0
186251990,186251878,4259850,4325386,0.000795012,-0.000126241,0.000133165,-0.000757084,0.0069369,-0.0491896,4976,4976,0
186750613,186750482,4259850,4325386,-0.00424422,-0.000807971,0.000351701,-0.00502583,0.0207445,-0.0529076,4988,4936,0
187255746,187254271,4259850,4325386,0.000899395,0.000674455,-0.000602126,-0.00480913,-0.00191849,-0.0613394,4990,5786,0
187753180,187753068,4259850,4325386,0.00366414,-0.000306048,-0.0002207,0.0013258,-0.0129797,-0.0598328,4986,4983,0
188251998,188251869,4259850,4325386,-0.000432947,-0.00141555,0.000585942,-0.00368447,0.00983662,-0.0421139,4995,5001,0
188750868,188750732,4259850,4325386,0.0033268,0.0029894,-0.00113016,-0.00204428,-0.0485726,-0.0381906,5035,4929,0
189249596,189249465,4259850,4325386,0.002453,-0.000832571,-0.000339638,-0.00178346,-0.0273413,-0.0346488,4992,4960,0
189753603,189753475,4259850,4325386,-0.000616662,-0.00269272,0.000743742,-0.00539322,0.0406896,-0.0514262,4972,4933,0
190252157,190252045,4259850,4325386,-0.00191345,0.00119173,0.00242859,-0.0103665,-0.0284082,-0.0607968,4992,4954,0
190750973,190750838,4259850,4325386,0.00226492,-0.000234892,0.000747068,-0.00163774,-0.0430418,-0.0478458,4987,4995,0
191254903,191254789,4259850,4325386,-0.00130648,0.00137974,-0.000742245,-9.87157e-05,0.00434116,-0.0406478,4964,4940,0
191753643,191753527,4259850,4325386,0.00210916,-0.000152654,-0.000369851,0.00568083,0.0537472,-0.0405552,4991,4978,0
192252450,192252238,4259850,4325386,0.000114052,0.00240103,-0.00109575,-0.0106953,-0.0392217,-0.0398504,5006,4964,0
192750631,192750516,4259850,4325386,-0.00161009,0.000345095,0.000617254,-6.16955e-06,-0.0182232,-0.0399849,4988,4960,0
193249597,193249348,4259850,4325386,-0.00110342,-0.00112393,0.00018996,-0.0153336,-0.0182984,-0.0572146,4996,4935,0
193753392,193753266,4259850,4325386,0.000686811,-0.00127921,-0.000734057,0.0116846,-0.0035753,-0.0463675,4964,4937,0
194252010,194251897,4259850,4325386,0.00110321,-0.000288863,-0.000484894,0.000633842,-0.0192295,-0.0360137,4989,4986,0
194750870,194750698,4259850,4325386,-0.000527447,0.000533385,-9.2004e-06,-0.00329852,0.00869642,-0.0478414,4991,4935,0
195254769,195254646,4259850,4325386,0.000345649,-0.00198561,0.00105032,-0.00191494,0.0495908,-0.0531763,4954,4957,0
195748400,195748290,4259850,4325386,5.52576e-05,0.00189863,-0.000333595,0.00489934,-0.0154983,-0.0476165,4987,4967,0
196250739,196250627,4259850,4325386,0.00228548,-0.000478209,-0.000810889,0.000986359,-0.0147916,-0.0362794,4977,4655,0
196750547,196750423,4259850,4325386,0.000646543,-0.00192817,3.69162e-05,-0.00845287,-0.0131044,-0.0523967,5032,4919,0
197254401,197254162,4259850,4325386,0.000991256,-0.00062771,-0.000373688,0.00400873,-0.0332013,-0.0432637,4989,4939,0
197753506,197753287,4259850,4325386,-0.000218494,0.000617643,4.63493e-05,-0.000383401,0.000556115,-0.0465677,5005,5006,0
198251892,198251755,4259850,4325386,0.000757762,0.000320463,-0.000604106,0.00221232,-0.0102886,-0.0418529,4985,4936,0
198750662,198750552,4259850,4325386,0.00207497,-0.000883438,-0.000244058,-0.00186942,0.00453919,-0.036379,4988,4937,0
199249630,199249438,4259850,4325386,-0.000163463,0.00186906,-0.000989618,-0.00583015,-0.0571305,-0.0562448,4966,4931,0
199748309,199748147,4259850,4325386,0.000592915,-0.000458702,-0.00120402,0.00489548,-0.0158665,-0.04531,4988,4983,0
200252046,200251934,4259850,4325386,0.00159875,-4.66848e-05,0.00235514,-0.00721433,-0.000180377,-0.0416433,4989,4988,0
200751158,200750961,4259850,4325386,0.000934075,-0.00151833,-0.000379143,-0.00336975,0.0136611,-0.0372753,4967,4972,0
201249635,201249528,4259850,4325386,-0.00376595,0.00137745,0.00088283,-0.00095842,0.0363261,-0.0494476,4981,4939,0
201754423,201754313,4259850,4325386,-0.00299426,0.00124243,0.00246693,-0.00169816,0.016271,-0.0569386,4988,4939,0
202248515,202248370,4259850,4325386,0.00032351,0.000321777,-0.000453489,0.00201031,-0.0120028,-0.0399437,4975,4753,0
202752202,202751996,4259850,4325386,-0.000607007,0.00012857,-0.000915033,0.00196609,-0.0228118,-0.0435654,5009,5005,0
203250836,203250705,4259850,4325386,-0.000530094,-0.00182623,0.00103613,-0.00127381,0.0286992,-0.0521126,4985,4937,0
203749165,203749004,4259850,4325386,-0.00030982,0.00010215,-0.0003894,0.00174249,-0.0152266,-0.0391568,4988,4961,0
204253397,204253288,4259850,4325386,-0.000701833,0.00209531,0.000321893,-0.000373571,0.0142289,-0.050632,4987,4958,0
204752274,204752086,4259850,4325386,0.00609298,-0.000329619,-0.000680661,-0.00552399,0.0154127,-0.0527872,4987,5929,0
205251338,205251111,4259850,4325386,-0.00292345,-0.000387142,-0.000541274,-0.00288324,-0.0573374,-0.0559164,5007,4998,0
205749901,205749783,4259850,4325386,0.000111399,0.000656137,-0.00057949,-0.00275116,-0.0541703,-0.0442124,4973,4937,0
206248592,206248480,4259850,4325386,-0.00282131,0.000305475,0.00120363,0.00214423,0.0117056,-0.0591075,4985,4963,0
206752447,206752336,4259850,4325386,-0.00257005,0.000204372,0.00125,-0.00503606,-0.000630424,-0.0554396,4968,4959,0
207251177,207251063,4259850,4325386,1.24922e-05,0.000494646,-0.000222442,0.0064819,0.0224084,-0.0342697,4988,4956,0
207749977,207749861,4259850,4325386,-2.94359e-05,-0.000575846,-7.2034e-05,-0.00688452,-0.00417305,-0.0533947,4988,4771,0
208254068,208253929,4259850,4325386,0.00139165,-0.000755123,0.000138515,-0.00077294,0.00222501,-0.0413732,4978,4785,0
208752586,208752449,4259850,4325386,0.00309953,-0.00144808,-0.000354715,0.00200157,0.0238474,-0.0422743,4989,4996,0
209251351,209251242,4259850,4325386,-0.00225794,0.000247045,0.000548856,-0.00895825,0.0159754,-0.0558725,4966,4935,0
209750270,209750042,4259850,4325386,-0.0017801,0.00198264,6.12113e-05,-0.00374707,-0.0411735,-0.0495396,4980,4997,0
210253684,210253458,4259850,4325386,0.00113587,-0.000785781,0.00177875,0.000255735,-0.00671015,-0.0513077,5003,5005,0
210752366,210752211,4259850,4325386,-0.000946158,-0.000214395,0.000771667,0.000104341,0.00281133,-0.046874,5020,5469,0
211251689,211251550,4259850,4325386,-0.000903421,-0.00152174,0.00114051,0.00235418,0.0490961,-0.0326549,4968,3947,0
211750345,211750222,4259850,4325386,-0.000478768,0.000135858,0.000637448,0.00547502,0.0229387,-0.042126,4990,4953,0
212253736,212253545,4259850,4325386,-0.00116109,0.00205603,0.00116639,-0.00644243,0.0247637,-0.0555394,4985,4971,0
212752466,212752338,4259850,4325386,0.00204646,-0.00145871,-0.00052138,-0.00322525,-0.0193134,-0.0369957,5018,4910,0
213251252,213251105,4259850,4325386,0.00256367,-0.000394411,-0.000806732,-0.00188273,-0.00890787,-0.0422746,4990,4973,0
213750018,213749906,4259850,4325386,-0.000308661,-0.000657802,-0.000834674,0.00158985,-0.0354623,-0.043932,4982,4678,0
214248839,214248699,4259850,4325386,2.8103e-05,-0.000260808,-9.64636e-05,0.000198724,0.0373753,-0.0455873,4987,4936,0
214753803,214752490,4259850,4325386,0.00160709,-0.000147998,0.000845947,-0.00973293,-0.0372974,-0.0453181,4992,5744,0
215251565,215251429,4259850,4325386,0.00101014,-0.00201477,-0.000349507,0.00442421,-0.0163234,-0.0371017,5001,4781,0
215750698,215750583,4259850,4325386,0.00197107,0.000844914,-0.000241786,0.00270788,0.0317866,-0.0350587,4987,4714,0
216254713,216254537,4259850,4325386,7.24719e-05,0.000434281,0.000607924,-0.00251408,0.0187101,-0.0459624,4981,4939,0
216748988,216748772,4259850,4325386,-0.00131938,-0.00074438,-0.000432184,-0.00549066,-0.0419966,-0.056221,4977,4940,0
217252618,217252511,4259850,4325386,-0.000520119,0.00130984,0.000208874,-0.00196653,-0.0185466,-0.0473025,4978,4937,0
217751419,217751308,4259850,4325386,-0.000402711,-0.000351735,0.00172204,0.00555428,-0.0150801,-0.04687,4988,4936,0
218250666,218250292,4259850,4325386,0.000255081,-0.000841799,0.00107632,-0.00497171,-0.0147941,-0.0576455,4973,4972,0
218754039,218753891,4259850,4325386,-0.000114763,-0.00205811,0.000604754,0.00487202,0.0462898,-0.0401963,4978,4938,0
219254707,219252694,4259850,4325386,0.00145031,-4.41314e-05,0.000538561,5.02039e-05,0.0188253,-0.0434879,4990,4996,0
219751603,219751489,4259850,4325386,0.00215419,-0.00011136,0.000753293,0.00400301,-0.015767,-0.03311,4989,4934,0
220250412,220250286,4259850,4325386,0.00026949,0.000116802,-0.000357923,-0.00412285,-0.0176418,-0.057444,4988,4936,0
220754471,220754091,4259850,4325386,0.000375596,-0.00043516,0.000376545,0.00402736,0.0292456,-0.0526999,4990,5820,0
221248442,221248333,4259850,4325386,0.00320466,-0.000293119,-0.000439957,-0.000725075,-0.034404,-0.0409586,4988,4937,0
221752309,221752193,4259850,4325386,-0.000245432,-0.000949899,0.00102622,0.00209418,0.0540044,-0.0565645,4957,4960,0
222251300,222251142,4259850,4325386,0.00159107,0.000321587,-0.000536345,-0.0004965,-0.0126758,-0.0385958,4949,4938,0
222755101,222754708,4259850,4325386,-0.000788834,0.000422485,0.000947128,-0.00767847,0.012337,-0.0481162,4991,4936,0
223248682,223248514,4259850,4325386,0.00202933,-0.000911988,1.55993e-05,0.00652323,0.0261892,-0.046316,4988,5929,0
223752627,223752478,4259850,4325386,0.00122641,0.000104402,-0.000661572,0.00351689,-0.0382512,-0.0455298,4981,4937,0
224251221,224251102,4259850,4325386,-0.00451718,0.0011464,0.000418965,-0.00936888,-0.0334207,-0.0608425,4991,4984,0
224749846,224749635,4259850,4325386,0.000716758,-0.00035131,0.000956481,0.00346334,0.0480725,-0.054106,4955,4956,0
225253896,225253233,4259850,4325386,-0.00122893,-0.000635284,0.00107146,-0.00428715,0.0115655,-0.057474,4989,4941,0
225752155,225752034,4259850,4325386,0.00167482,-0.000816829,0.000242783,0.00286606,0.009312,-0.0402172,4990,4971,0
226251264,226251062,4259850,4325386,-0.00099559,-0.00109744,0.00142119,0.00603222,0.0436995,-0.0420192,4987,4988,0
226754972,226754806,4259850,4325386,-0.000207397,0.000545793,-3.48444e-05,-0.00312693,-0.0429114,-0.0411031,4992,4995,0
227248570,227248425,4259850,4325386,0.000429306,-4.39702e-05,0.000513342,0.00623616,0.0200598,-0.0467035,4988,4972,0
227752439,227752300,4259850,4325386,0.000527067,-0.000699821,0.000669817,0.00167292,0.0092071,-0.050009,4978,4985,0
228251120,228251009,4259850,4325386,0.00151687,-0.000411244,-0.000678778,0.00362029,-0.00526589,-0.0361488,4988,4966,0
228750446,228749810,4259850,4325386,-0.00258103,0.000130003,0.000333775,-0.00565731,-0.0113183,-0.0557689,4987,4957,0
229253976,229253817,4259850,4325386,-0.00188522,0.000875388,0.00143714,-0.000866995,0.0559396,-0.0562159,4987,4940,0
229753195,229752947,4259850,4325386,-0.0024582,0.000736045,0.00104108,0.00535103,0.0363472,-0.069197,4984,5926,0
230251869,230251691,4259850,4325386,-0.00028382,-0.00104689,-0.000291123,0.00134866,-0.00938835,-0.0616751,4992,5890,0
230750584,230750439,4259850,4325386,0.00237268,0.0012527,-0.00125578,0.00264857,-0.00786825,-0.0369073,4988,4980,0
231249367,231249248,4259850,4325386,0.000508615,-0.000248662,-0.000104683,0.00346706,0.0242895,-0.041743,4990,4941,0
231753155,231753024,4259850,4325386,-0.00121131,0.000696834,-0.000391299,-0.00490928,-0.0407374,-0.0468536,4988,4937,0
232252081,232251828,4259850,4325386,0.00165167,-0.000436541,-7.21221e-05,-0.000269925,0.029034,-0.0502211,4989,5006,0
232750823,232750682,4259850,4325386,-0.000184002,-0.001262,-0.000202084,0.000622054,-0.0186934,-0.0548512,4971,4937,0
233255069,233254822,4259850,4325386,0.00397847,-0.000975566,-0.00118049,0.00510578,0.00641726,-0.0521085,5266,6209,0
233748419,233748220,4259850,4325386,0.000314627,-0.000362829,-0.000340557,0.00681656,0.0200182,-0.0502432,4986,5914,0
234252129,234252004,4259850,4325386,0.00175736,-0.000169893,-0.000758405,0.00204866,0.0263084,-0.0460241,4986,4936,0
234751248,234751044,4259850,4325386,-0.0013725,0.000307375,-0.00073686,0.000319257,-0.0180603,-0.0524085,4986,4963,0
235249286,235249150,4259850,4325386,0.000548649,0.000207614,-8.59926e-05,0.00147763,-0.00133754,-0.0468992,4988,4934,0
235753327,235753150,4259850,4325386,-0.000465933,0.000405003,-0.000366857,-0.00632739,-0.0498035,-0.0521319,4909,4939,0
236251844,236251735,4259850,4325386,0.00408715,-0.00488482,-0.00147827,0.0232502,0.00195059,-0.0394032,4988,4960,0
236750656,236750534,4259850,4325386,0.00102541,0.000190999,0.00050238,0.00566272,-2.22919e-05,-0.0479911,4991,4975,0
237254590,237254478,4259850,4325386,-4.52504e-06,0.000170776,0.000153072,0.000466792,0.00176214,-0.0477156,4964,4936,0
237748393,237748282,4259850,4325386,2.41063e-05,-7.20258e-05,-0.000113556,4.10134e-05,-0.000718454,-0.0465495,4989,4797,0
238252478,238252367,4259850,4325386,-7.88601e-05,-6.87231e-07,-1.54471e-05,0.000450619,-0.000591849,-0.0488797,4985,4985,0
238751422,238751267,4259850,4325386,2.35872e-05,-4.17327e-06,-1.34233e-05,-0.000192656,-0.000400176,-0.0483778,4995,4975,0
239250582,239250467,4259850,4325386,6.78512e-06,7.20953e-06,-6.76906e-05,-0.000191931,-0.000177758,-0.0481942,4990,4964,0
