timestamp,timestamp_sample,accel_device_id,gyro_device_id,delta_angle[0],delta_angle[1],delta_angle[2],delta_velocity[0],delta_velocity[1],delta_velocity[2],delta_angle_dt,delta_velocity_dt,delta_velocity_clipping
40747562,40747313,3932170,3932170,0.000138697,-0.000100317,-0.000219671,-0.00108922,-0.00237172,-0.0479745,4947,4947,0
40752539,40752289,3932170,3932170,5.3568e-06,0.000205507,1.6077e-06,-0.000990132,-0.00200399,-0.0485517,4976,4976,0
41251636,41251338,3932170,3932170,-0.000114128,0.000326671,-0.000707591,-0.000126842,0.00162144,-0.0440289,4956,4956,0
41750873,41750530,3932170,3932170,-0.00130506,0.000491284,0.000157585,-0.00404889,0.00290931,-0.0445625,4945,4945,0
42250102,42249320,3932170,3932170,0.00478298,-0.00328143,-0.00140882,0.0102589,0.00796236,-0.0545816,4992,4992,0
42748660,42748351,3932170,3932170,-0.000697462,-0.000111557,0.000532892,0.0151868,0.000845386,-0.0453161,5010,5010,0
43253245,43252336,3932170,3932170,-0.000589531,-0.000350599,0.000344142,0.00274834,0.00875706,-0.0576555,4991,4991,0
43751632,43751388,3932170,3932170,0.00390224,-0.00304289,-0.00129928,-0.00237711,-0.0144787,-0.0494784,5032,5032,0
44250714,44250363,3932170,3932170,-0.00270795,0.00240437,0.000556645,-0.0103491,-0.00860052,-0.0421347,4993,4993,0
44754710,44754465,3932170,3932170,0.000728602,-0.00113513,8.95185e-05,0.00844721,-0.00974142,-0.0453724,5041,5041,0
45249073,45248599,3932170,3932170,-0.000737545,-0.000497052,0.000712628,-0.000424896,0.00214202,-0.0541278,4958,4958,0
45752651,45752386,3932170,3932170,0.000138116,0.000100809,0.000137954,-0.00435946,-0.00386581,-0.0447447,4990,4990,0
46251735,46251401,3932170,3932170,0.00123444,0.00033061,-0.000883285,-0.00279367,-0.0107578,-0.0434499,4988,4988,0
46750659,46750411,3932170,3932170,-0.0006826,8.93598e-05,-0.000172882,0.000893405,-0.00203423,-0.0469901,4990,4990,0
47249720,47249427,3932170,3932170,0.00208081,-0.00109705,-0.000150992,-0.00636795,0.0358696,-0.0561201,4993,4993,0
47753703,47753457,3932170,3932170,-0.00242886,0.000302913,0.000321149,-0.000818252,-0.0201875,-0.0477552,5020,5020,0
48252714,48252465,3932170,3932170,9.543e-05,0.00112373,-0.000675583,-0.00180581,-0.0621296,-0.0407181,4983,4983,0
48751998,48751638,3932170,3932170,-0.00188004,-0.000648582,0.000998765,-0.000962212,0.0467291,-0.0589101,4958,4958,0
49250761,49250464,3932170,3932170,-0.00294305,0.000401842,0.00308154,-0.000191072,0.01771,-0.0602342,4987,4987,0
49749726,49749477,3932170,3932170,-0.00313072,-9.77039e-05,0.00268284,-0.00325202,0.0204974,-0.0554823,4986,4986,0
50253802,50253480,3932170,3932170,0.00128233,-0.000505437,-0.00261476,-0.00691213,0.00588651,-0.0542313,4991,4991,0
50753031,50752496,3932170,3932170,-0.00147341,0.000251406,0.000112334,-0.00241182,0.0454713,-0.0625518,4991,4991,0
51251791,51251505,3932170,3932170,0.000818903,-0.000223808,-0.000271815,0.00346626,-0.0262277,-0.0422772,4985,4985,0
51750877,51750546,3932170,3932170,0.000425189,0.00158265,0.00103305,0.000691631,-0.00060776,-0.042929,4933,4933,0
52249970,52249713,3932170,3932170,-0.00130042,0.000780169,0.00175205,0.000702292,-0.00606558,-0.057193,4971,4971,0
52748805,52748543,3932170,3932170,0.00177693,0.000315504,0.000695948,-0.00518554,0.0452762,-0.0594158,4989,4989,0
53252818,53252547,3932170,3932170,-0.00231199,6.19398e-05,0.000801403,0.00278032,-0.0211587,-0.0500925,4989,4989,0
53751853,53751560,3932170,3932170,0.00106317,0.000126929,-0.00297443,-0.00683763,0.0193441,-0.0578084,4990,4990,0
54250899,54250605,3932170,3932170,0.00151313,-0.00141936,-0.00102991,0.000147793,-0.0380886,-0.0341082,4973,4973,0
54754827,54754577,3932170,3932170,0.00130846,0.000788726,-0.000367419,0.00204953,-0.0507004,-0.0310394,4989,4989,0
55254234,55253590,3932170,3932170,-0.0011573,0.00116035,0.00146606,-0.00690494,0.0196435,-0.0497255,4994,4994,0
55748125,55747784,3932170,3932170,0.000902746,0.00050073,-0.000649709,-0.000422665,-0.0174685,-0.0377114,4967,4967,0
56251876,56251615,3932170,3932170,0.00173626,-0.000643462,-0.000782188,0.000788088,-0.0470164,-0.0306147,4986,4986,0
56750906,56750628,3932170,3932170,0.000898391,0.000237702,-0.000774166,0.00167884,-0.0185775,-0.0425604,4990,4990,0
57249930,57249641,3932170,3932170,4.28656e-05,-0.000333987,0.000130233,-0.00289974,0.0236264,-0.050008,4982,4982,0
57753885,57753644,3932170,3932170,0.00110832,-0.000348801,0.000545566,-0.000249272,0.0616103,-0.0590879,4990,4990,0
58253980,58252660,3932170,3932170,0.00149303,0.000303463,-0.000465872,0.00175511,-0.0105416,-0.0449729,4991,4991,0
58751969,58751719,3932170,3932170,0.00263858,-0.000818018,-0.00223402,-0.00533856,0.0411681,-0.051846,4995,4995,0
59251274,59250828,3932170,3932170,-0.000249523,0.000811372,-0.000397368,-0.00706847,-0.030409,-0.0512697,4971,4971,0
59750002,59749697,3932170,3932170,-0.000502283,3.97586e-05,9.56565e-05,-0.00210505,-0.0073402,-0.0557566,4986,4986,0
60248983,60248710,3932170,3932170,0.00341961,0.00022297,-0.000710712,-0.00521188,0.00870638,-0.0485962,4990,4990,0
60752974,60752714,3932170,3932170,0.00142171,0.000934239,-0.000234053,-0.00330068,0.0120966,-0.057063,4990,4990,0
61252032,61251727,3932170,3932170,-0.00052767,0.000369143,0.000507454,-0.00254466,0.00302188,-0.0548804,4989,4989,0
61751088,61750740,3932170,3932170,0.00150164,0.000310976,0.000159766,-0.00603565,-0.00866753,-0.0426123,4989,4989,0
62255031,62254776,3932170,3932170,-0.000576015,-0.000147257,0.000589811,-0.010364,0.036871,-0.0566355,4965,4965,0
62749223,62748921,3932170,3932170,0.000753611,-0.0016007,-0.000407457,-0.00413718,-0.0243105,-0.0427202,4983,4983,0
63248037,63247781,3932170,3932170,0.00200349,-4.57982e-05,-0.000401822,-0.00941841,0.0151778,-0.046346,4991,4991,0
63752054,63751787,3932170,3932170,0.00128573,0.000165336,-0.000478737,-0.000594291,-0.00725313,-0.039002,4992,4992,0
64251042,64250798,3932170,3932170,0.00140489,0.000474491,-0.000793845,0.00431491,0.00594875,-0.0508849,4975,4975,0
64755482,64754806,3932170,3932170,-0.000634565,0.000860812,-0.00110277,0.000394168,-0.0165847,-0.0510588,4994,4994,0
65249130,65248826,3932170,3932170,-0.00139965,-0.00066031,-3.05587e-05,-0.00263086,0.0301706,-0.0615795,4991,4991,0
65748182,65747845,3932170,3932170,-0.00246461,0.000516105,0.00177251,-0.00245143,-0.0109437,-0.0549555,4971,4971,0
66252296,66251996,3932170,3932170,0.00510031,0.000603039,-0.000821244,-0.00453424,-0.00577161,-0.0428997,4960,4960,0
66751151,66750900,3932170,3932170,-0.00220437,0.000674166,0.000751689,0.00555428,-0.0446791,-0.0349482,4987,4987,0
67250136,67249872,3932170,3932170,-0.00201913,0.000327062,0.00121783,0.00134785,-0.0263495,-0.043698,4992,4992,0
67749140,67748883,3932170,3932170,-0.00267669,0.000407899,0.000433226,-0.00127666,-0.00964675,-0.0464862,4989,4989,0
68253173,68252888,3932170,3932170,0.000261424,-0.000618065,0.000407369,-0.00304141,-0.002623,-0.0422582,4989,4989,0
68752197,68751903,3932170,3932170,0.00086151,-0.00153011,9.4153e-05,-0.0052074,0.00700268,-0.0491761,4990,4990,0
69251219,69250932,3932170,3932170,-0.000430254,0.00101549,-0.000125621,-0.00258595,-0.0187865,-0.043866,4960,4960,0
69750346,69750026,3932170,3932170,-0.00142918,0.000723242,0.00150912,-0.00458553,0.0527383,-0.0667125,4969,4969,0
70249215,70248946,3932170,3932170,-0.000971535,0.000455388,0.000350337,-0.00549483,-0.0111284,-0.0546498,4990,4990,0
70753215,70752947,3932170,3932170,-0.000506161,0.000381187,0.000220294,-0.000686638,-0.0266232,-0.0516175,4944,4944,0
71252269,71251973,3932170,3932170,-0.00111633,0.0016349,0.000637053,-0.00239311,0.0348926,-0.0555055,4994,4994,0
71751226,71750975,3932170,3932170,-0.00129631,0.000170384,-4.93642e-05,-0.000555007,-0.0355113,-0.0335484,4991,4991,0
72255623,72254981,3932170,3932170,-0.0038561,-0.000474434,0.000961519,0.00172342,0.0216336,-0.0599066,4987,4987,0
72749257,72749005,3932170,3932170,-0.00105033,0.00135491,-4.54471e-05,-0.00210584,0.0198091,-0.0544562,4991,4991,0
73248490,73248159,3932170,3932170,0.000614891,-0.00039765,-0.000564132,-0.001793,-0.0227064,-0.0392833,4967,4967,0
73752556,73752267,3932170,3932170,0.00279879,0.000465851,-0.00024976,-0.00338833,0.0339802,-0.0467354,4950,4950,0
74251344,74251036,3932170,3932170,-0.00121507,0.00100895,0.000764498,0.00348439,0.0402742,-0.0622365,4991,4991,0
74750298,74750051,3932170,3932170,0.000144295,-0.000424037,9.58557e-05,0.000958141,-0.00651686,-0.0548684,4991,4991,0
75254362,75254055,3932170,3932170,0.00114837,0.00121137,-0.000561465,-0.00207313,-0.00961258,-0.0417829,4991,4991,0
75753317,75753069,3932170,3932170,3.39421e-05,-0.000204152,0.000233979,-0.00117109,0.0437781,-0.0593195,4986,4986,0
76252406,76252093,3932170,3932170,-0.000374703,-0.000994783,0.000317535,-0.00770065,0.00943098,-0.0538385,4995,4995,0
76751454,76751158,3932170,3932170,0.000906706,0.00131436,-0.000755512,0.00139218,-0.0152306,-0.0397277,4950,4950,0
77250597,77250349,3932170,3932170,-0.000263045,0.000296474,0.000732763,0.00310288,-0.013147,-0.0480934,4955,4955,0
77749384,77749125,3932170,3932170,0.00024464,-0.000283997,-0.000167546,0.00163293,-0.0065543,-0.0393995,4987,4987,0
78253418,78253129,3932170,3932170,0.00188006,-0.000558417,0.000286573,-0.00137057,0.040914,-0.0530462,4989,4989,0
78752580,78752148,3932170,3932170,0.00153064,-0.00239768,-0.000396533,0.00294782,-0.020561,-0.0463995,4993,4993,0
79251407,79251160,3932170,3932170,-0.0002025,-0.000177775,-5.0346e-05,-0.00113339,0.0176101,-0.0524309,4986,4986,0
79750582,79750173,3932170,3932170,0.00132544,0.00540237,0.00175669,-0.000490208,0.0249013,-0.0643602,4982,4982,0
80249489,80249241,3932170,3932170,-0.00244724,-0.000241682,-0.000693015,-0.00223842,0.000492178,-0.0570131,4968,4968,0
80748711,80748429,3932170,3932170,-0.00270146,-0.00261537,-0.000773922,0.00224035,-0.0624834,-0.0391494,4957,4957,0
81252464,81252209,3932170,3932170,0.00091787,0.000897611,-0.000581666,0.00412696,-0.0116199,-0.0402905,4941,4941,0
81751549,81751221,3932170,3932170,-0.00224739,-0.000548871,-0.00576969,-0.00126913,-0.0217931,-0.0372161,4990,4990,0
82250485,82250235,3932170,3932170,0.000168673,-8.33573e-05,-0.00335552,-0.00126638,-0.00676869,-0.0391901,4987,4987,0
82754488,82754241,3932170,3932170,-8.75453e-05,0.000330485,0.000844653,0.000439065,0.0418261,-0.0596787,4991,4991,0
83253558,83253256,3932170,3932170,-0.000914113,2.19561e-05,-0.00518983,-0.00495065,0.00229087,-0.0541115,4989,4989,0
83752703,83752361,3932170,3932170,-0.00335121,9.67686e-05,-0.00486157,-0.00353451,0.0236509,-0.0542818,4983,4983,0
84252475,84251489,3932170,3932170,0.00332686,-0.00116801,-0.00548652,0.000648224,0.000756302,-0.0457036,4964,4964,0
84750577,84750321,3932170,3932170,-0.00260053,-0.00116024,0.00109644,0.00943304,0.0439754,-0.0617471,5012,5012,0
85256005,85254313,3932170,3932170,0.000311598,0.00086424,0.000321857,5.57868e-05,-0.0282165,-0.0433641,4998,4998,0
85748667,85748329,3932170,3932170,6.10733e-05,-0.00148668,0.000410463,0.000604185,-0.00828348,-0.046665,4991,4991,0
86252765,86252341,3932170,3932170,0.00158395,0.00198058,-0.00144011,0.000310213,0.00901185,-0.053359,4991,4991,0
86751639,86751348,3932170,3932170,-0.000265025,0.000656956,-0.00374011,-0.00320835,0.0265899,-0.0629531,4990,4990,0
87250753,87250427,3932170,3932170,-0.00421057,0.000217566,-0.000455909,0.00148335,-0.0120431,-0.0411286,4950,4950,0
87749905,87749574,3932170,3932170,0.000636548,0.000412158,0.0027972,0.00330398,0.00938617,-0.0532276,4961,4961,0
88248651,88248395,3932170,3932170,0.00181365,-3.63272e-06,-2.34175e-05,-0.00162393,0.0118094,-0.0413852,4992,4992,0
88752706,88752400,3932170,3932170,0.000399251,-0.000647233,0.000465013,-0.000959485,0.0414312,-0.0492599,4992,4992,0
89251693,89251448,3932170,3932170,-0.00111891,0.000549275,0.000143105,0.00473096,-0.0327092,-0.035997,5025,5025,0
89755769,89755422,3932170,3932170,0.0025734,0.000121836,0.000231012,-0.00628748,0.0506941,-0.0622713,4994,4994,0
90249764,90249443,3932170,3932170,0.00309686,0.00218059,-0.0011026,-0.00563933,-0.0117304,-0.0500335,4989,4989,0
90748835,90748525,3932170,3932170,0.0017128,-0.000514862,-0.000124957,-0.00749068,0.0334494,-0.0564938,4969,4969,0
91252936,91252639,3932170,3932170,0.00043423,-0.000338263,0.000177522,0.000416284,0.0138023,-0.0513304,4977,4977,0
91751736,91751479,3932170,3932170,-0.00175256,0.000281957,0.00106342,-0.00389678,0.0272907,-0.0576066,4991,4991,0
92250771,92250493,3932170,3932170,-1.7055e-05,-3.71566e-05,0.00014827,-0.000484629,-0.0172686,-0.0432102,4991,4991,0
92754970,92754522,3932170,3932170,0.00292886,0.000100077,0.00029838,-0.00103649,0.0277354,-0.0518594,5008,5008,0
93253802,93253513,3932170,3932170,0.000195003,0.00145066,3.08468e-06,-0.00107857,-0.0417423,-0.0445114,4988,4988,0
93752798,93752550,3932170,3932170,5.6987e-05,-0.00050485,0.000289146,0.00156293,-0.00121146,-0.044432,4990,4990,0
94251904,94251571,3932170,3932170,0.000670656,-6.72555e-06,0.000817379,0.0048619,-0.00172768,-0.0388088,4961,4961,0
94751145,94750718,3932170,3932170,-0.00221053,0.000452888,0.00119901,0.0023604,-0.00955526,-0.0452512,4968,4968,0
95249830,95249574,3932170,3932170,-0.000149929,0.000544865,-0.00141003,0.0017055,0.0051835,-0.0614766,4977,4977,0
95753857,95753582,3932170,3932170,-0.00045035,-0.000226202,-0.000278073,-0.00384159,-0.0266409,-0.0482377,4988,4988,0
96247894,96247604,3932170,3932170,0.00284427,-5.58603e-05,-0.000563382,-0.00200749,-0.00388295,-0.0450041,4988,4988,0
96751945,96751609,3932170,3932170,3.5592e-05,-0.000230488,0.00125851,-0.000475614,0.0314018,-0.0495948,4985,4985,0
97250873,97250626,3932170,3932170,-0.000812752,0.00040303,0.00127223,-0.00553698,0.0109478,-0.0447219,4991,4991,0
97749997,97749641,3932170,3932170,0.000685614,-0.00159833,5.89501e-07,0.00075492,-0.00215133,-0.0409029,4993,4993,0
98254899,98253843,3932170,3932170,-0.00117215,-0.00107168,0.000886971,-0.000548413,-0.0024034,-0.0495265,4975,4975,0
98752919,98752661,3932170,3932170,-0.00177687,0.000427525,-0.000257298,0.0022212,-0.0471907,-0.0394731,4990,4990,0
99252593,99251678,3932170,3932170,0.0013453,0.00031293,0.000284889,-0.000816278,-0.000660072,-0.0477507,4990,4990,0
99750941,99750694,3932170,3932170,0.00164272,-0.00023804,5.77076e-05,-0.00379692,-0.0154314,-0.0416785,4993,4993,0
100255182,100254698,3932170,3932170,-0.000986179,0.000632621,0.00226594,-0.00150697,0.0176059,-0.0624058,4990,4990,0
100753958,100753713,3932170,3932170,-0.000926079,0.00083151,0.00207928,0.00148146,-0.0305841,-0.043899,4990,4990,0
101248166,101247824,3932170,3932170,-0.00109143,0.00138872,0.00121767,-0.00292948,0.0256116,-0.0568816,5044,5044,0
101752112,101751863,3932170,3932170,-0.000596404,0.000314036,-0.000636233,0.00129475,-0.0321658,-0.036244,4965,4965,0
102251054,102250796,3932170,3932170,-0.00150567,-0.000286918,0.000845016,0.00232636,-0.0547345,-0.0392202,5028,5028,0
102750118,102749805,3932170,3932170,0.00191924,0.00115272,0.000741658,0.00177456,-0.0519953,-0.0367913,4983,4983,0
103254074,103253779,3932170,3932170,0.00099698,1.74238e-05,-0.000235231,-0.000985483,-0.0429573,-0.0414896,4983,4983,0
103753085,103752795,3932170,3932170,-0.000818178,-0.00155096,0.000111869,-0.00618903,0.0207682,-0.0536935,4990,4990,0
104252058,104251811,3932170,3932170,-0.00189591,-0.000617358,-9.34754e-07,-0.000505406,0.0382929,-0.0562518,4991,4991,0
104751210,104750826,3932170,3932170,-0.00191071,-0.000707207,-0.000604489,-0.0005817,-0.000227929,-0.0489764,4990,4990,0
105250330,105250031,3932170,3932170,0.00278939,-0.00320132,-0.000946775,-0.00209101,-0.0299647,-0.0394652,4984,4984,0
105754117,105753853,3932170,3932170,0.00272731,0.000781728,-0.000893512,5.67049e-05,-0.0162291,-0.0471942,4995,4995,0
106253168,106252914,3932170,3932170,0.00114823,4.85789e-06,0.000900337,-0.000777871,0.00580783,-0.0438219,5019,5019,0
106752212,106751882,3932170,3932170,-0.00297095,-0.00048585,0.000934551,0.00338098,-0.0481514,-0.0410551,4994,4994,0
107251231,107250928,3932170,3932170,8.07811e-06,0.000497317,0.00142395,-0.00338544,-0.021842,-0.0500471,4988,4988,0
107751446,107749912,3932170,3932170,0.00139789,-0.00101629,0.000208045,-0.00147031,0.0172818,-0.0480177,4990,4990,0
108249174,108248926,3932170,3932170,-0.00174619,-4.83982e-05,0.00137989,0.00160726,0.0252331,-0.052215,4982,4982,0
108748863,108748049,3932170,3932170,0.00120253,0.00241391,-0.000291421,0.00231287,-0.0509338,-0.0373413,4956,4956,0
109252491,109252217,3932170,3932170,-0.000571713,4.49349e-05,-0.000708283,0.00345433,-0.0257985,-0.0483934,5260,5260,0
109751226,109750962,3932170,3932170,6.91322e-05,0.000116243,0.00125175,0.00094072,0.062113,-0.0658849,4989,4989,0
110250287,110249987,3932170,3932170,-0.000340826,-0.00034535,0.001157,0.00122518,-0.0120447,-0.0410352,4999,4999,0
110754243,110753989,3932170,3932170,-0.00181104,-2.56693e-05,0.00200616,-0.00293859,0.0316127,-0.0631081,4989,4989,0
111248428,111248012,3932170,3932170,0.00190831,8.98541e-06,0.000385995,-0.002568,0.0178055,-0.0442618,4992,4992,0
111752278,111752017,3932170,3932170,0.00237899,-0.000214081,-0.00078328,8.38062e-05,-0.0271552,-0.0355694,4975,4975,0
112251452,112251165,3932170,3932170,0.000516204,-0.000190293,-0.000481261,0.00312266,0.0127709,-0.0446897,5004,5004,0
112750563,112750317,3932170,3932170,0.000455342,0.00246458,-0.000698472,0.00558115,-0.0179557,-0.0447594,5249,5249,0
113254845,113254058,3932170,3932170,-0.000122967,-0.00139226,-0.000588083,-0.00137248,-0.0196089,-0.0432937,4993,4993,0
113753365,113753070,3932170,3932170,0.00061313,-0.00192583,-0.000414677,-0.00204816,-0.0216607,-0.0491359,4990,4990,0
114253168,114252089,3932170,3932170,0.00112853,0.00170136,-0.000270431,-0.00620783,0.00986644,-0.0471699,4989,4989,0
114751411,114751104,3932170,3932170,-0.000727389,0.000115134,0.00205363,-0.00674824,-0.017769,-0.0497361,4991,4991,0
115251433,115250120,3932170,3932170,0.00251017,0.00203522,0.000658723,0.00321131,-0.0235008,-0.0370724,4983,4983,0
115749580,115749292,3932170,3932170,0.00126901,2.35227e-05,-0.000154294,0.000534845,-0.0365247,-0.0366967,4989,4989,0
116248846,116248466,3932170,3932170,0.00040408,0.000212016,0.00163231,0.00261584,0.0225094,-0.0615649,5261,5261,0
116752412,116752158,3932170,3932170,-0.000231423,-0.00477013,1.70389e-05,-0.00301594,-0.0270729,-0.0502381,4989,4989,0
117251471,117251174,3932170,3932170,0.0026639,0.0032981,-0.00115872,-0.000881137,0.0129369,-0.051063,4989,4989,0
117750482,117750194,3932170,3932170,0.000303758,0.000554162,0.000201812,-0.00567334,-0.0183021,-0.0552849,4993,4993,0
118254554,118254203,3932170,3932170,-0.00363441,-0.00272933,0.000182988,-0.00812938,0.0253418,-0.0547943,4996,4996,0
118748484,118748235,3932170,3932170,0.000985816,-0.000123705,-0.000566832,0.00359108,-0.0169199,-0.0437283,4971,4971,0
119252615,119252288,3932170,3932170,-0.00298371,-7.99244e-05,0.000180491,-0.00269519,0.00238897,-0.0471677,4967,4967,0
119751750,119751472,3932170,3932170,-0.00148331,0.000383317,0.00123975,0.00526058,0.0212791,-0.0531907,4955,4955,0
120250522,120250262,3932170,3932170,6.50336e-05,-0.000598811,0.00020851,-0.00199406,-0.014446,-0.0371351,4984,4984,0
120749703,120749320,3932170,3932170,0.00193863,0.000952471,-0.00119244,-0.00280732,-0.041862,-0.0334631,4997,4997,0
121253646,121253286,3932170,3932170,0.00355036,-0.000350758,-0.000879867,9.90864e-05,-0.0271757,-0.0358579,4990,4990,0
121752877,121752304,3932170,3932170,0.00038887,-0.0011371,0.000263685,0.00205418,0.0389257,-0.0553706,4990,4990,0
122251607,122251319,3932170,3932170,0.00107066,-0.000311836,-0.000520333,-0.00633273,0.000761613,-0.0422906,4989,4989,0
122750725,122750389,3932170,3932170,-0.000933776,-8.60839e-06,-0.000394685,-0.0052469,-0.0216657,-0.0538185,4959,4959,0
123249880,123249585,3932170,3932170,-0.00232216,0.000564009,0.000342095,-0.00164921,-0.0399956,-0.0499747,4969,4969,0
123753616,123753359,3932170,3932170,-0.00087678,0.000510572,0.000555604,-0.0055696,-0.0137117,-0.0483718,4990,4990,0
124247632,124247385,3932170,3932170,0.00268383,-0.00145966,-0.00078122,-0.00242697,-0.034823,-0.0330344,4989,4989,0
124751736,124751398,3932170,3932170,-0.00253794,0.00227552,0.00140546,-0.00298839,0.0197883,-0.053747,4996,4996,0
125250714,125250410,3932170,3932170,0.00076229,-0.000385102,0.000620581,-0.00842756,0.0471895,-0.0581743,4989,4989,0
125749798,125749426,3932170,3932170,-0.00326587,0.00205025,0.000466331,-0.00218921,-0.0129525,-0.0466436,4989,4989,0
126254022,126253477,3932170,3932170,0.00207532,3.49475e-05,0.000366835,-0.00812797,0.00102576,-0.0483838,4947,4947,0
126752988,126752647,3932170,3932170,-0.000911827,0.000698671,0.000685538,-0.00630949,0.0455022,-0.0640927,4962,4962,0
127251764,127251467,3932170,3932170,0.000278548,0.000186434,0.000279493,-0.00719929,-0.00802031,-0.0515656,4989,4989,0
127750731,127750484,3932170,3932170,0.000163533,-0.00107359,-0.000205252,-0.00608346,0.044926,-0.0603944,4990,4990,0
128255663,128254495,3932170,3932170,0.0021357,0.000265425,-0.0012527,-0.006375,-0.00711915,-0.0436877,4993,4993,0
128753755,128753509,3932170,3932170,-0.000845989,0.000183088,0.00027182,-0.00250798,0.0212203,-0.0531627,4988,4988,0
129247884,129247538,3932170,3932170,0.00258831,-0.00217937,-0.00566151,-0.00176863,-0.017947,-0.0463319,4990,4990,0
129751848,129751556,3932170,3932170,-0.0054439,-0.000567808,-0.00607311,-0.00422044,0.010121,-0.0490558,4971,4971,0
130251214,130250755,3932170,3932170,0.00188213,-0.000204171,-0.0012092,-0.00521421,0.0258432,-0.0559621,4968,4968,0
130749880,130749578,3932170,3932170,-0.00289022,0.00104547,0.00109852,0.00140463,-0.0446918,-0.0346524,4985,4985,0
131253903,131253585,3932170,3932170,0.0032283,-0.000845109,-8.92047e-05,-0.00980698,0.0301691,-0.0553897,4990,4990,0
131752909,131752606,3932170,3932170,0.00013757,-0.000790088,-0.00564252,0.00166008,0.0168544,-0.0561573,4977,4977,0
132251924,132251619,3932170,3932170,-0.00355283,-0.000334884,-0.00167756,0.00424498,0.00700854,-0.0426363,4989,4989,0
132750891,132750637,3932170,3932170,0.00663944,-0.000855339,-0.000582849,0.00581098,-0.0327398,-0.0423445,4989,4989,0
133249930,133249676,3932170,3932170,0.000626551,-0.000411361,-0.00149539,0.00154514,-0.0489478,-0.0379751,4980,4980,0
133749219,133748868,3932170,3932170,0.000458605,0.000700207,-0.00508876,-0.00517365,0.0572172,-0.0609026,4969,4969,0
134252982,134252680,3932170,3932170,0.000577194,-0.00189109,-0.000640403,-0.00292748,0.0342936,-0.0504725,4990,4990,0
134751977,134751699,3932170,3932170,-0.000244618,0.00095885,0.00148443,-0.000525106,0.0470322,-0.0499789,4980,4980,0
135250977,135250714,3932170,3932170,0.00104127,0.000507133,0.000625837,-0.00517719,0.0364789,-0.0528351,4939,4939,0
135755442,135754725,3932170,3932170,0.000996691,0.000244511,-0.00594231,-0.00447449,-0.00670708,-0.046386,4991,4991,0
136249051,136248752,3932170,3932170,-0.00414616,0.00110523,-0.00114566,0.000248174,-0.037006,-0.0370512,4992,4992,0
136754552,136752759,3932170,3932170,0.000471561,0.00027999,0.000547693,-5.40505e-05,0.00723602,-0.0580938,4991,4991,0
137252254,137251951,3932170,3932170,0.00174611,-0.00078272,0.00181095,0.00209371,0.0357284,-0.0612711,4984,4984,0
137751051,137750793,3932170,3932170,0.00179991,0.00082381,-0.000441573,-0.00303404,-0.0333046,-0.0414712,4990,4990,0
138250159,138249810,3932170,3932170,0.000773149,0.000869809,0.000323956,0.00228779,-0.0235432,-0.0450598,4982,4982,0
138754135,138753830,3932170,3932170,-0.000259838,0.000241834,-0.000505478,-0.00268928,-0.0314138,-0.0441932,4980,4980,0
139248216,139247845,3932170,3932170,0.00256249,-0.00023162,-0.000251762,-0.00531791,0.0230606,-0.0488701,4987,4987,0
139752203,139751854,3932170,3932170,-0.00215081,-0.000282751,0.00141349,-0.00162493,0.0328903,-0.0537098,4991,4991,0
140251239,140250965,3932170,3932170,-0.00015536,0.000352011,-0.000674647,0.00102737,-0.0541975,-0.0368148,4973,4973,0
140750302,140750052,3932170,3932170,0.000414954,0.00029213,-0.000949487,-0.000684292,0.00713339,-0.0520399,4954,4954,0
141254778,141253900,3932170,3932170,0.00448297,-0.00173179,-0.000915232,0.00301554,0.0163337,-0.0529665,4986,4986,0
141753224,141752915,3932170,3932170,0.00159129,0.000496721,-0.000241806,-0.00190669,-0.0154818,-0.0490021,4991,4991,0
142252177,142251933,3932170,3932170,0.000447401,-5.19532e-05,5.61264e-05,-0.00609774,-0.00457727,-0.0396149,4990,4990,0
142751297,142750950,3932170,3932170,0.00119777,0.000678244,0.000283317,-0.00104286,-0.00536102,-0.0475688,4990,4990,0
143250271,143249974,3932170,3932170,-0.00202526,0.000620302,-0.000181799,-0.00241165,0.0280594,-0.062047,4994,4994,0
143749307,143749016,3932170,3932170,0.00045531,3.92148e-05,-0.000337033,0.0017874,0.0504607,-0.0707455,4941,4941,0
144254576,144253119,3932170,3932170,0.00112885,-0.000273488,0.000684984,-0.00483541,-0.00021365,-0.0508015,4967,4967,0
144752271,144752012,3932170,3932170,0.000396821,-0.00100055,0.00149297,-0.00192938,0.0560532,-0.0617625,4990,4990,0
145251338,145251031,3932170,3932170,-0.000328777,0.000106019,0.000648499,-0.00253157,0.0484707,-0.056873,4992,4992,0
145750294,145750047,3932170,3932170,-0.00263858,0.00117536,0.000877608,-0.000455863,-0.0105617,-0.0483839,4988,4988,0
146254356,146254056,3932170,3932170,0.0012254,0.00186819,-0.00101391,-0.000285626,-0.0436279,-0.0396346,4986,4986,0
146748369,146748124,3932170,3932170,0.000311099,0.000592569,-0.00137189,-0.00196732,-0.0562662,-0.0393512,5031,5031,0
147252397,147252097,3932170,3932170,0.00288219,-6.13338e-05,-0.000826468,-0.000562468,0.0139778,-0.0503864,4981,4981,0
147751534,147751247,3932170,3932170,0.00230302,-0.00106662,-0.00073752,-0.00410419,0.00244881,-0.043734,4979,4979,0
148250397,148250134,3932170,3932170,0.00204474,0.00125448,-0.000918943,-0.00398005,-0.0374901,-0.0377308,4996,4996,0
148754453,148754147,3932170,3932170,-0.00105524,0.00176525,0.000399178,0.00157681,-0.0351719,-0.0486546,5002,5002,0
149253462,149253153,3932170,3932170,-0.00102956,-0.000932218,-0.000544175,-0.0042977,0.0275493,-0.0514673,4990,4990,0
149752692,149752175,3932170,3932170,-0.0017369,-0.000128105,0.00190972,0.00293031,0.0460642,-0.0618498,4994,4994,0
150251439,150251190,3932170,3932170,-0.00157577,0.000284747,0.00152438,0.00016109,-0.0189051,-0.0474986,4990,4990,0
150750538,150750209,3932170,3932170,-0.000546511,0.00167798,-0.00120913,-0.00186126,-0.0315495,-0.0380762,4990,4990,0
151254676,151254430,3932170,3932170,0.00173962,-0.000630505,-0.000194244,0.000821858,-0.0263488,-0.0397921,5038,5038,0
151754404,151753508,3932170,3932170,-0.000604734,1.28298e-05,0.00078711,-7.42308e-05,0.0407914,-0.0561146,5263,5263,0
152252509,152252252,3932170,3932170,0.00177239,-0.000674558,-0.000499064,0.00196301,0.0011265,-0.0411413,4988,4988,0
152751576,152751271,3932170,3932170,0.00204564,0.000534621,-0.00226226,0.00218612,-0.049288,-0.0353752,4991,4991,0
153250632,153250293,3932170,3932170,-0.000225976,0.00117859,-0.000168485,-0.0061809,0.000884672,-0.0567152,4992,4992,0
153749601,153749307,3932170,3932170,0.00232326,0.00108964,-0.00144037,-0.00040027,-0.0346878,-0.0499323,4991,4991,0
154248912,154248325,3932170,3932170,0.000283428,0.000641509,-0.000391439,-0.00192759,-0.00861891,-0.0525783,4977,4977,0
154752805,154752481,3932170,3932170,0.000432928,5.81846e-05,0.000496672,-0.00453087,0.0509281,-0.0630086,4962,4962,0
155252141,155251629,3932170,3932170,0.00376635,0.000519785,-0.000893495,-0.00210013,-0.0127748,-0.044223,5268,5268,0
155750633,155750369,3932170,3932170,1.93251e-05,0.000554353,0.00120489,-0.00252043,-0.0276648,-0.0461699,4975,4975,0
156255461,156254391,3932170,3932170,-0.00223933,0.000448023,0.000924121,-0.00297745,-0.0211456,-0.0395672,4999,4999,0
156748737,156748450,3932170,3932170,-0.00188137,-9.27064e-05,0.000186747,-0.000487383,-0.00852751,-0.0442227,4986,4986,0
157252712,157252416,3932170,3932170,0.00339437,-0.000352632,-0.000608074,-0.004407,0.0266596,-0.0507287,4990,4990,0
157751726,157751481,3932170,3932170,-0.00173376,0.000207641,0.0014688,0.00261216,0.04122,-0.0648448,5035,5035,0
158251597,158250556,3932170,3932170,-0.00140587,-0.00011548,0.000190843,-0.00449193,0.00818903,-0.05971,4990,4990,0
158749982,158749729,3932170,3932170,-0.000337344,-0.000299061,0.000788056,-0.000451617,0.0394973,-0.0696512,5250,5250,0
159253739,159253478,3932170,3932170,-0.000742756,-9.19708e-05,-0.000553018,0.00269423,-0.0207858,-0.0404755,4991,4991,0
159752792,159752496,3932170,3932170,0.00463758,-0.000831771,-0.0012181,0.000341191,-0.0196355,-0.0423066,4990,4990,0
160251765,160251515,3932170,3932170,0.000651435,0.000178697,0.000410202,-0.00402595,0.028711,-0.052232,4995,4995,0
160750784,160750533,3932170,3932170,0.000119178,0.00201965,-0.000383751,0.00187122,-0.0455323,-0.0417408,4976,4976,0
161249803,161249552,3932170,3932170,0.000205182,-3.93336e-05,1.59845e-05,-0.00345679,0.00659046,-0.0435105,4990,4990,0
161748999,161748653,3932170,3932170,-0.00252423,0.00162508,0.00116142,-0.00675678,0.0369916,-0.0642693,4953,4953,0
162253230,162252816,3932170,3932170,0.00154556,-0.000359015,0.000525336,0.00101529,0.00915259,-0.055231,4962,4962,0
162751853,162751597,3932170,3932170,-0.00100183,0.00143304,0.000691667,-0.00135582,0.0435412,-0.0692252,4988,4988,0
163250980,163250615,3932170,3932170,-0.000980423,0.000875204,0.000261904,-0.00057594,-0.047649,-0.0428394,4990,4990,0
163754869,163754624,3932170,3932170,-0.000487344,-7.56395e-06,-0.000110484,-0.00537924,0.00866691,-0.0510642,4986,4986,0
164248948,164248654,3932170,3932170,-0.000471105,6.20463e-05,-0.000175013,0.000456256,-0.0193622,-0.0447239,4992,4992,0
164752988,164752698,3932170,3932170,0.00122313,-6.2639e-05,-0.000207779,-0.000996013,-0.0163053,-0.0336,5026,5026,0
165251975,165251727,3932170,3932170,0.000670658,-0.00124295,0.000509317,0.000888287,0.050162,-0.056374,4968,4968,0
165751357,165750931,3932170,3932170,0.00056191,6.22489e-05,-0.000745625,0.00227822,-0.0319019,-0.0366352,4962,4962,0
166249974,166249716,3932170,3932170,0.000614762,0.00126166,-0.000354339,-0.000499202,-0.0404132,-0.0479308,4990,4990,0
166754042,166753763,3932170,3932170,0.000133171,-0.00014053,-0.000218132,-0.00237002,-0.00859058,-0.0431525,4973,4973,0
167248030,167247777,3932170,3932170,0.0028206,-0.00091328,-0.000523805,-0.000584228,0.0325841,-0.0520259,5014,5014,0
167752009,167751763,3932170,3932170,-0.000882061,-8.09871e-05,0.000554561,-0.00441102,0.00134058,-0.0568704,4990,4990,0
168251031,168250782,3932170,3932170,0.000662828,0.000104489,-0.000744095,0.000382412,-0.0286002,-0.0492481,4991,4991,0
168750201,168749858,3932170,3932170,-0.00363232,0.00186768,0.00137881,0.00353967,0.0123847,-0.0572009,4974,4974,0
169254604,169254030,3932170,3932170,-0.000854599,-0.000194323,0.000876988,-0.00185846,0.0433015,-0.0474015,4983,4983,0
169753078,169752827,3932170,3932170,-0.000878752,0.000771906,-0.000919151,-0.00179939,-0.0451699,-0.0400645,4990,4990,0
170252090,170251846,3932170,3932170,0.0055321,6.23292e-05,-0.000654568,-0.0022775,0.0105748,-0.0447065,4978,4978,0
170751110,170750864,3932170,3932170,0.00126593,-0.00194035,-0.000387202,-0.0030656,-0.0120079,-0.0403316,4990,4990,0
171250137,171249885,3932170,3932170,-0.000625957,3.40474e-05,0.000494132,-0.00326902,0.0195617,-0.0565177,4981,4981,0
171749229,171748905,3932170,3932170,-0.000218082,0.00126136,-0.000513304,0.00108501,-0.0425415,-0.0382145,4994,4994,0
172254689,172252931,3932170,3932170,0.00184855,-0.000833672,-0.00392784,-0.00263881,0.0136403,-0.0526722,4962,4962,0
172752381,172752129,3932170,3932170,-0.00174013,0.000793728,-0.00657999,-0.00288366,-0.0463384,-0.0384488,4963,4963,0
173251209,173250948,3932170,3932170,-0.000543574,-0.000157985,-0.004152,-0.00154457,0.00881328,-0.0599789,4990,4990,0
173750222,173749968,3932170,3932170,-0.00029813,-0.000452104,-0.00251871,-0.00201953,0.045501,-0.0636364,4992,4992,0
174249237,174248985,3932170,3932170,-0.00125824,-0.000934961,-0.00102893,-0.000787321,0.0498195,-0.062537,4988,4988,0
174753258,174752998,3932170,3932170,0.00105842,0.00122205,-0.00170817,-0.00617636,0.0078507,-0.0463157,4993,4993,0
175252361,175252016,3932170,3932170,7.1591e-05,-0.000570346,-0.00351371,-0.00601193,0.00363427,-0.0544213,4992,4992,0
175751299,175751050,3932170,3932170,-0.000626421,0.000517631,-0.00190921,-0.00809002,0.0115542,-0.0517316,4966,4966,0
176250520,176250255,3932170,3932170,0.000328511,-0.000513601,-0.00166061,0.00279598,-0.0127179,-0.0403437,4966,4966,0
176754369,176754061,3932170,3932170,0.00405225,-0.000196646,-0.000783477,-0.00521084,0.0190414,-0.0478984,4991,4991,0
177248346,177248094,3932170,3932170,-0.000908149,0.00224653,-0.000719465,-0.0024018,-0.0133108,-0.0470955,4994,4994,0
177752435,177752143,3932170,3932170,0.00108984,0.0012233,-0.00143837,0.00274243,0.00265479,-0.0458002,5034,5034,0
178251412,178251118,3932170,3932170,-0.0017219,0.00103924,0.000996326,0.0028783,0.0255483,-0.0645676,4991,4991,0
178750440,178750138,3932170,3932170,-0.000854388,0.000279087,-0.000204638,-0.00239229,-0.00956742,-0.04059,4990,4990,0
179249425,179249171,3932170,3932170,0.000109261,-0.000743014,-0.00099034,-0.00267679,-0.0583139,-0.0294983,4962,4962,0
179754249,179753334,3932170,3932170,-0.000903337,0.000309302,0.000449989,0.00162829,0.0173958,-0.0556201,4964,4964,0
180247473,180247219,3932170,3932170,0.000588753,0.000351459,-0.000760146,0.00441001,-0.0675694,-0.0329098,4986,4986,0
180751514,180751204,3932170,3932170,0.00217224,-0.000318127,0.000334032,-0.00563883,-0.0245736,-0.0427843,4989,4989,0
181250477,181250226,3932170,3932170,0.00500729,-0.00118693,-0.000189966,-0.000520959,-0.0538472,-0.0334367,4994,4994,0
181749496,181749247,3932170,3932170,-0.00180999,-0.000123027,0.000136979,-0.00386053,0.00091091,-0.0575359,4996,4996,0
182248551,182248263,3932170,3932170,0.00177398,-0.000177337,-2.2638e-05,-0.00563733,0.0109433,-0.0429107,4968,4968,0
182752610,182752363,3932170,3932170,-0.00274484,-5.02097e-05,0.00340622,0.00120637,0.0209195,-0.054627,4960,4960,0
183252140,183251466,3932170,3932170,0.00142432,-0.000325792,0.000994199,-0.0060265,0.0324683,-0.0561622,4976,4976,0
183750566,183750309,3932170,3932170,-8.90395e-05,0.00210512,-0.000435356,-0.000959772,-0.0603042,-0.0336084,4992,4992,0
184255824,184254320,3932170,3932170,-0.00283251,-0.000301807,0.000732835,-0.000563146,-0.051803,-0.0427902,4993,4993,0
184753625,184753337,3932170,3932170,0.00237979,-0.00116517,0.00145491,-0.000191147,0.0549653,-0.0615454,4991,4991,0
185253586,185252362,3932170,3932170,-0.000378762,1.98306e-05,0.000930978,-0.00363265,0.0183398,-0.0566819,4996,4996,0
185751615,185751372,3932170,3932170,0.00182065,0.000674613,-0.000497903,-0.00291293,-0.0501159,-0.0283366,4937,4937,0
186251755,186250448,3932170,3932170,0.00065295,-3.92029e-05,-0.00010571,0.00359565,0.0100941,-0.0516609,5039,5039,0
186749859,186749572,3932170,3932170,-0.00417974,-0.000886704,0.000201314,-0.00435963,0.00363956,-0.0533277,4970,4970,0
187253736,187253478,3932170,3932170,0.000869504,0.000637269,-0.000646103,-0.00842699,0.00470124,-0.0601884,5045,5045,0
187752745,187752443,3932170,3932170,0.00375177,-0.000241721,-0.00023521,0.00523542,-0.013609,-0.0564303,4990,4990,0
188251763,188251462,3932170,3932170,-0.000165102,-0.00135287,0.000511984,-0.00968049,0.0104212,-0.0480485,4990,4990,0
188750819,188750482,3932170,3932170,0.00289219,0.00309441,-0.00115173,-0.00210255,-0.0377542,-0.0329202,4990,4990,0
189249766,189249522,3932170,3932170,0.0021536,-0.000753225,-0.000485507,-0.00361592,-0.0259333,-0.032529,4992,4992,0
189753832,189753529,3932170,3932170,0.000336055,-0.00270392,0.000240081,-0.0122395,0.0327232,-0.0591493,4967,4967,0
190252928,190252677,3932170,3932170,-0.00261772,0.00105559,0.00320706,0.000742358,-0.00666362,-0.0522144,4942,4942,0
190751815,190751552,3932170,3932170,0.000925297,4.88461e-05,0.0010172,-0.000807731,-0.0364269,-0.0427062,4961,4961,0
191250865,191250570,3932170,3932170,-0.00370733,0.00128414,0.000241862,-0.00327938,0.0185696,-0.0540368,4990,4990,0
191754874,191754585,3932170,3932170,0.003734,-0.000118143,-0.00152582,-0.00342516,0.00477875,-0.0442153,4990,4990,0
192248870,192248609,3932170,3932170,0.00011288,0.00197114,-0.000861817,-0.00506189,0.0250072,-0.0429312,4990,4990,0
192754176,192752629,3932170,3932170,-0.000475167,0.000120413,0.000912925,0.00542191,0.0340425,-0.0521181,4998,4998,0
193251944,193251687,3932170,3932170,-0.00227559,-0.000684262,0.00142716,-0.00875078,0.00923949,-0.052939,4988,4988,0
193751304,193750843,3932170,3932170,0.000829058,-0.00105468,-0.000143246,-0.000936179,-5.61377e-05,-0.048841,4975,4975,0
194249938,194249679,3932170,3932170,0.00148923,-0.000331231,0.000125695,-0.00708853,0.00884397,-0.0449079,4991,4991,0
194754062,194753755,3932170,3932170,0.000302604,0.000495372,-0.00123047,-0.00301684,0.000628476,-0.0416455,5053,5053,0
195252956,195252709,3932170,3932170,-0.000846199,-0.0016561,0.00124677,0.00203682,0.00936961,-0.0625289,4991,4991,0
195752005,195751730,3932170,3932170,-6.99813e-05,0.00201755,0.000692507,-0.00703606,0.0069888,-0.0591562,4992,4992,0
196250995,196250749,3932170,3932170,0.00220545,-0.000554954,-0.000816498,0.001154,-0.0177834,-0.0402018,4987,4987,0
196750030,196749768,3932170,3932170,0.000744354,-0.00183415,4.84047e-05,-0.00736195,-0.00679437,-0.0526934,4965,4965,0
197254333,197253880,3932170,3932170,0.000847821,-0.000556773,-0.000347381,0.0041166,-0.0329981,-0.0386424,4964,4964,0
197753066,197752801,3932170,3932170,-0.000108324,0.000557291,2.76456e-05,-0.000487528,-0.00350997,-0.0434044,4994,4994,0
198252074,198251819,3932170,3932170,0.000807483,0.000161553,-0.000559772,0.00243089,-0.0118114,-0.0441498,4993,4993,0
198751132,198750838,3932170,3932170,0.00193942,-0.000733656,-0.000272385,-0.00396428,-0.0105774,-0.0397316,4991,4991,0
199250129,199249858,3932170,3932170,-0.00179321,0.00190782,-0.000283381,0.00075596,-0.0555372,-0.044113,4988,4988,0
199749130,199748878,3932170,3932170,9.47221e-05,-0.000289492,-0.00116766,0.00546658,-0.0176764,-0.045462,4991,4991,0
200254217,200252890,3932170,3932170,0.00116947,0.000528948,0.00192968,-0.0105731,-0.0258865,-0.0386195,4988,4988,0
200752348,200752102,3932170,3932170,0.00163783,-0.00128603,-0.000845527,-0.00708901,-0.0113174,-0.0397614,4978,4978,0
201251190,201250931,3932170,3932170,-0.000865003,0.00098914,0.000561246,-0.000360659,0.0511238,-0.0546626,4992,4992,0
201750214,201749948,3932170,3932170,0.00183928,0.00133158,-0.000465607,-0.00311575,-0.063935,-0.0307973,4980,4980,0
202249260,202248968,3932170,3932170,0.000166741,0.000386139,-0.000403964,-0.000136746,-0.0113525,-0.0422719,4991,4991,0
202748241,202747989,3932170,3932170,-0.000248449,0.000231539,2.65461e-05,-0.00422736,0.0153222,-0.044808,4985,4985,0
203252249,203251998,3932170,3932170,0.000942892,-0.00215838,0.000891315,-0.000746895,0.0218062,-0.0519823,4987,4987,0
203751353,203751108,3932170,3932170,-0.000811291,0.000165547,-4.22164e-05,-0.000538851,-0.0147505,-0.0435274,5039,5039,0
204250479,204250137,3932170,3932170,-0.000283626,0.00234408,1.56134e-05,-0.0105396,-0.0179251,-0.0564613,4979,4979,0
204754648,204754304,3932170,3932170,0.00353995,0.000368581,-0.000822445,0.00248356,-0.0617211,-0.0391329,4973,4973,0
205253337,205253077,3932170,3932170,-0.00589591,-0.000497167,0.00113881,0.00301287,0.000535173,-0.058842,4999,4999,0
205747642,205747102,3932170,3932170,0.00234191,0.000335006,-0.000700529,-0.00322676,-0.0109632,-0.042267,4994,4994,0
206251384,206251110,3932170,3932170,0.000660171,-0.000863388,0.000157125,-0.00523912,0.0435374,-0.0583762,4991,4991,0
206750433,206750131,3932170,3932170,-0.00120814,0.000381871,0.000133676,-0.00255901,-0.0469517,-0.0394432,4985,4985,0
207249453,207249165,3932170,3932170,-0.000891453,0.000562367,0.000368017,-0.00624823,0.0296667,-0.0431606,4988,4988,0
207754109,207753241,3932170,3932170,3.32108e-05,-0.000512832,0.000375245,-0.00944523,0.00577886,-0.0450665,4981,4981,0
208252817,208252429,3932170,3932170,0.0012904,-0.000870972,0.000316451,-0.00717985,0.0108276,-0.0520598,4969,4969,0
208751463,208751202,3932170,3932170,0.0025836,-0.00139864,2.22279e-05,-0.0042523,0.0404048,-0.0582001,4992,4992,0
209255534,209255213,3932170,3932170,0.00119807,0.00022478,-0.000445253,-0.00623878,0.0110634,-0.0412259,4982,4982,0
209749540,209749246,3932170,3932170,-0.00158801,0.00199845,-3.22647e-05,-0.000822478,-0.0416127,-0.0369766,4995,4995,0
210253637,210253252,3932170,3932170,0.00118832,-0.000744997,0.00174012,0.000379912,-0.00292017,-0.0504199,4991,4991,0
210752523,210752276,3932170,3932170,-0.000874555,-0.000290199,0.000654645,0.00235427,0.00100755,-0.0431219,4993,4993,0
211251644,211251347,3932170,3932170,-9.92906e-05,-0.0014604,0.000900746,-0.0029484,0.0522944,-0.0595056,4960,4960,0
211750854,211750551,3932170,3932170,0.000274404,0.000155667,0.00034707,0.0010601,0.0135354,-0.0475828,4960,4960,0
212256133,212254326,3932170,3932170,-0.000217037,0.00188799,0.00132284,-0.00675843,0.0296233,-0.0593274,4993,4993,0
212753669,212753346,3932170,3932170,0.001109,-0.000924727,-0.000295924,-0.00406203,-0.0365951,-0.0371301,4978,4978,0
213253252,213252367,3932170,3932170,0.00121928,0.000146781,-0.000538416,-0.00420967,-0.0371192,-0.0453654,4994,4994,0
213751673,213751384,3932170,3932170,-0.00229986,-0.000244089,-0.000126505,0.00300916,-0.0261129,-0.0457357,4990,4990,0
214250672,214250406,3932170,3932170,0.0019353,-0.00015046,-0.000756221,-0.00662245,0.0068297,-0.0451178,4990,4990,0
214749872,214749474,3932170,3932170,0.000954811,-0.000242119,0.00161741,-0.00528686,0.0379183,-0.05743,4966,4966,0
215255755,215253640,3932170,3932170,-0.00027409,-0.00168955,-0.000271846,-0.00196085,-0.0208746,-0.0446275,4970,4970,0
215752718,215752461,3932170,3932170,0.00356348,0.000523789,-0.00132975,0.000484265,-0.00547722,-0.0401473,4996,4996,0
216251812,216251476,3932170,3932170,-0.000608747,0.000170154,0.000605722,-0.00439513,-0.00943568,-0.0496725,4990,4990,0
216750788,216750497,3932170,3932170,-0.00351137,-0.000498109,0.000628612,0.0004078,-0.00930369,-0.0554021,4988,4988,0
217249792,217249548,3932170,3932170,0.000979392,0.000749829,0.000271454,-0.00973708,-0.00601703,-0.0421031,4959,4959,0
217753815,217753563,3932170,3932170,-0.000550764,-0.000513146,0.0026089,-0.00151622,0.00426226,-0.0581955,5025,5025,0
218252816,218252571,3932170,3932170,-0.000651909,-0.00107216,0.00192708,-0.00162646,1.46952e-05,-0.0528643,4964,4964,0
218752156,218751781,3932170,3932170,-0.00235864,-0.00195697,0.00100482,-0.00477731,0.0231751,-0.0547353,4974,4974,0
219250899,219250594,3932170,3932170,0.000190248,0.000164184,0.000965214,-0.00698748,0.036387,-0.0597314,4995,4995,0
219754925,219754649,3932170,3932170,-0.001579,0.000868981,0.000994612,-0.00142088,-0.0282627,-0.0386131,5039,5039,0
220248948,220248650,3932170,3932170,0.00066334,5.2981e-05,-0.000563386,0.00151758,-0.00600481,-0.054881,5010,5010,0
220754353,220752647,3932170,3932170,-0.000754396,-0.000243737,0.000937204,-0.00578708,0.0528672,-0.0650853,4995,4995,0
221251913,221251661,3932170,3932170,-0.00374392,0.000420206,0.00192593,0.00238296,-0.0408819,-0.0453466,4989,4989,0
221751100,221750702,3932170,3932170,-0.00131061,-0.000763285,0.00109041,-0.00428242,0.0143415,-0.0618354,4972,4972,0
222250167,222249902,3932170,3932170,0.00186575,0.000231817,-0.000471706,-0.00248608,-0.000440361,-0.0387903,4967,4967,0
222754019,222753756,3932170,3932170,-0.000738232,0.000451179,0.000816045,-0.00339906,0.000674416,-0.051036,4988,4988,0
223253072,223252737,3932170,3932170,-0.00048738,-0.000329366,-0.000448655,5.29598e-05,-0.0427217,-0.0333515,4993,4993,0
223752003,223751755,3932170,3932170,0.00143456,8.23536e-05,-0.000703877,0.00445651,-0.0371987,-0.0379184,4977,4977,0
224251064,224250779,3932170,3932170,-0.00482006,0.00116485,0.000615017,-0.0026638,-0.0294477,-0.0483848,4993,4993,0
224750047,224749798,3932170,3932170,0.00198067,-0.00063805,0.000619601,-0.000620185,0.044234,-0.0647463,4980,4980,0
225254109,225253804,3932170,3932170,-0.00088062,-0.000746037,0.00116259,-0.00516376,0.0153093,-0.0579826,4967,4967,0
225753333,225753047,3932170,3932170,0.00225047,-0.000701119,-0.000285709,-0.000491878,-0.00896788,-0.0385661,4963,4963,0
226252638,226251849,3932170,3932170,0.00103908,-0.000850424,0.000559459,-0.000547608,0.0365064,-0.0533407,4988,4988,0
226751139,226750868,3932170,3932170,0.000977699,0.000429207,0.000392772,-0.00686763,0.0235281,-0.0522551,4989,4989,0
227250148,227249902,3932170,3932170,0.00140186,-0.000116859,-0.00037886,0.00299952,0.00435187,-0.0431466,4992,4992,0
227749198,227748910,3932170,3932170,0.000754583,-0.000472529,0.00010084,0.000430115,-0.0149743,-0.045351,4989,4989,0
228254076,228252923,3932170,3932170,-0.000669289,0.000396828,-0.000973001,-0.00151015,-0.045824,-0.0348352,4991,4991,0
228752215,228751965,3932170,3932170,-0.00239384,1.49236e-05,0.000650511,-0.00339932,0.0272467,-0.048828,4958,4958,0
229252675,229251178,3932170,3932170,-0.00161769,0.00097909,0.00041367,-0.00155458,-0.0444589,-0.0438966,5026,5026,0
229750240,229749982,3932170,3932170,-0.00212472,0.000790047,0.000624306,0.00148052,-0.0401072,-0.0457855,4989,4989,0
230249282,230249003,3932170,3932170,0.00144658,-0.00126871,-0.000737884,0.0013458,-0.0233463,-0.0387333,4990,4990,0
230748285,230748025,3932170,3932170,0.000616435,0.000958449,0.000207696,-0.00662617,0.061509,-0.0632457,4973,4973,0
231252333,231252036,3932170,3932170,0.00125692,6.67046e-05,-0.000195838,-0.000735278,-0.0193205,-0.0511457,4990,4990,0
231751368,231751078,3932170,3932170,0.000312033,0.000674674,-0.000874177,-0.00175898,-0.033089,-0.0356709,4982,4982,0
232250432,232250108,3932170,3932170,0.000933238,-0.000245438,0.000145806,-0.00442319,0.0260684,-0.0572853,4975,4975,0
232754550,232754300,3932170,3932170,0.000208337,-0.00176499,-0.000580206,0.00611985,0.0167539,-0.0514489,4978,4978,0
233253375,233253108,3932170,3932170,0.00297593,-0.00094779,-0.000546127,-0.00080967,0.0457964,-0.0553495,4991,4991,0
233752490,233752132,3932170,3932170,-0.000158355,-0.000300921,-9.66143e-05,-0.00289723,-0.0223511,-0.0500994,4993,4993,0
234251393,234251149,3932170,3932170,0.00172093,-0.000176173,-0.000657678,-0.00556986,0.0349906,-0.0583722,4990,4990,0
234750857,234750171,3932170,3932170,-0.00107111,0.000280322,-0.000904063,0.00628632,-0.0372752,-0.039306,4969,4969,0
235249500,235249212,3932170,3932170,0.000782789,0.00024326,1.75191e-05,-0.00218791,-0.000707576,-0.051432,4990,4990,0
235753467,235753209,3932170,3932170,-0.00147974,0.000451869,6.05997e-06,-0.00151076,-0.0476453,-0.0414239,4916,4916,0
236252587,236252344,3932170,3932170,0.00393116,-0.00460197,-0.00181683,0.0173575,-0.00742122,-0.0401613,4960,4960,0
236751505,236751245,3932170,3932170,0.000999729,0.000106014,0.000476154,0.00607139,-0.00223706,-0.0456647,4961,4961,0
237255614,237255256,3932170,3932170,0.000135646,0.000167595,0.000127062,-3.30995e-06,0.000605694,-0.0479956,4991,4991,0
237749534,237749286,3932170,3932170,0.000117378,-3.99839e-05,-0.000130753,-0.000663481,-0.00167961,-0.0487729,4991,4991,0
238248595,238248305,3932170,3932170,0.000158361,4.362e-05,-6.1331e-06,-0.0004206,-0.00139785,-0.0485766,4990,4990,0
238752566,238752321,3932170,3932170,0.00010719,3.53111e-05,-2.77879e-05,-0.00063713,-0.00140328,-0.0487426,4992,4992,0
239251632,239251338,3932170,3932170,0.000109746,1.28163e-05,-6.6671e-05,-0.000489425,-0.00149847,-0.0488652,4990,4990,0
