timestamp,yaw_composite,yaw_variance,yaw[0],yaw[1],yaw[2],yaw[3],yaw[4],innov_vn[0],innov_vn[1],innov_vn[2],innov_vn[3],innov_vn[4],innov_ve[0],innov_ve[1],innov_ve[2],innov_ve[3],innov_ve[4],weight[0],weight[1],weight[2],weight[3],weight[4]
42322719,1.64762,3.7064,-2.51389,-1.25724,-0.000604117,1.25603,2.51266,0.0,0.0,0.0,0.0,0.0,0.0,0.0,0.0,0.0,0.0,0.2,0.2,0.2,0.2,0.2
42332697,1.16576,3.5613,-2.51332,-1.25667,-3.39378e-05,1.2566,2.51323,0.0,0.0,0.0,0.0,0.0,0.0,0.0,0.0,0.0,0.0,0.2,0.2,0.2,0.2,0.2
42521469,0.826296,3.73719,-2.51352,-1.25678,-0.000169359,1.25636,2.51295,-0.0257843,-0.0460202,-0.0206231,0.0153094,0.0121183,0.0485651,0.0152868,-0.014243,0.000786916,0.0396042,0.199939,0.199968,0.200041,0.200058,0.199995
42720082,2.71115,3.59163,-2.51299,-1.25638,0.000307521,1.257,2.51362,-0.00981,-0.00218761,0.0326905,0.0466274,0.0203642,-0.000192599,-0.0343933,-0.0377118,-0.0055692,0.0176223,0.20001,0.199976,0.199976,0.200008,0.20003
42918765,-2.20308,3.64659,-2.51198,-1.25567,0.000949985,1.2579,2.51475,0.0044648,0.0171747,0.0511951,0.0595106,0.0306299,0.0161076,-0.0155339,-0.0132236,0.0198455,0.037973,0.200119,0.200069,0.199924,0.199884,0.200004
43122416,-1.14784,3.55842,-2.51074,-1.25485,0.000937297,1.2578,2.51542,-0.0426541,-0.0254554,0.0437576,0.0693457,0.0159208,0.0654548,-0.00172214,-0.00613778,0.0583398,0.102587,0.20008,0.200404,0.200169,0.1997,0.199646
43321210,-0.428446,3.7302,-2.50957,-1.25313,0.00221608,1.25824,2.5158,-0.0752626,-0.0756234,-0.0121307,0.027576,-0.0114739,0.0682408,0.00133831,-0.0197298,0.0341723,0.0885991,0.199721,0.200374,0.20051,0.199941,0.199454
43524749,0.177549,3.57238,-2.50951,-1.25213,0.00332801,1.2585,2.51541,-0.101784,-0.0876222,-0.0106334,0.0229443,-0.0333894,0.0288124,-0.0476117,-0.0578102,0.0122586,0.0658972,0.199349,0.200093,0.200709,0.200344,0.199504
43718465,-0.627187,3.92937,-2.50705,-1.25104,0.00371332,1.25981,2.518,-0.0214289,-0.0124726,0.0793458,0.127276,0.0650887,0.0560212,-0.0377502,-0.0582048,0.0227184,0.0934353,0.199749,0.200646,0.200651,0.199755,0.199199
43927153,-0.818047,3.72054,-2.50585,-1.25067,0.00310733,1.25944,2.51874,-0.0512185,-0.0397819,0.0593216,0.109434,0.0410945,0.0695547,-0.0310571,-0.0513804,0.0366117,0.111541,0.199844,0.201121,0.200847,0.199402,0.198785
44125853,-0.819694,3.7159,-2.50555,-1.25057,0.00282182,1.25911,2.51878,-0.072649,-0.0614142,0.0408671,0.0933264,0.0230842,0.0548765,-0.0491792,-0.0708505,0.0198008,0.0977893,0.199827,0.201269,0.200955,0.199322,0.198628
44324450,-0.823888,3.7105,-2.50554,-1.25069,0.00248795,1.25877,2.51865,-0.0739136,-0.0552031,0.042424,0.0845568,0.0125445,0.0407747,-0.0559504,-0.0682686,0.0208689,0.0885545,0.199823,0.201339,0.201003,0.199281,0.198554
44523133,-0.812467,3.71984,-2.50472,-1.24977,0.00356995,1.25986,2.51957,-0.0646821,-0.0806794,0.00734902,0.0782762,0.0337379,0.055727,-0.0422607,-0.0879367,-0.0183136,0.0708103,0.199815,0.201251,0.200956,0.19934,0.198637
44721817,-0.787354,3.73638,-2.50403,-1.2494,0.00312924,1.25922,2.51963,-0.0621097,-0.0628664,0.0359304,0.0982864,0.0376353,0.0758645,-0.0284715,-0.0616391,0.0221232,0.107437,0.199726,0.201554,0.201232,0.199207,0.198281
44920500,-0.598066,3.88237,-2.50268,-1.24749,0.00447211,1.25966,2.52008,-0.0872283,-0.0911387,0.00894628,0.0753959,0.015903,0.0798531,-0.0269335,-0.0639019,0.0199067,0.109179,0.199328,0.201558,0.201634,0.199449,0.198032
45129119,-0.510844,3.78701,-2.50228,-1.24664,0.00568397,1.26065,2.52056,-0.0888139,-0.082211,0.0195984,0.0766586,0.00964239,0.0404492,-0.0647921,-0.0912824,-0.0026298,0.0792628,0.199228,0.201339,0.201599,0.199646,0.198187
45322834,-0.570219,3.84957,-2.50079,-1.2455,0.00644183,1.26151,2.52188,-0.0700139,-0.0628965,0.0435373,0.102905,0.0327504,0.0591955,-0.0507529,-0.0781767,0.0145533,0.0999204,0.199273,0.201539,0.201678,0.199494,0.198016
45521517,-0.758847,3.75056,-2.49777,-1.24325,0.00881608,1.26474,2.52551,-0.0636924,-0.0556201,0.0583743,0.121592,0.0461466,0.0445119,-0.0731166,-0.102064,-0.00258964,0.088543,0.19965,0.201721,0.20141,0.19915,0.198068
45720202,-0.780809,3.73016,-2.49617,-1.24147,0.011172,1.26728,2.52759,-0.0885715,-0.0914131,0.0251147,0.100865,0.0305412,0.0499475,-0.0738721,-0.11516,-0.0170403,0.0855611,0.199735,0.201516,0.201199,0.199225,0.198325
45923851,-0.703712,3.80524,-2.49491,-1.2399,0.0128439,1.26869,2.52874,-0.0821274,-0.0849933,0.0164517,0.0826985,0.0217175,0.0562731,-0.0516036,-0.087917,-0.00261044,0.0869309,0.19962,0.201402,0.201245,0.199366,0.198367
46117567,-0.982898,3.58461,-2.49388,-1.23952,0.0138206,1.27069,2.53077,-0.0639728,-0.0704403,0.0415742,0.117997,0.0527483,0.0418918,-0.0783177,-0.121861,-0.028769,0.0729026,0.200077,0.201418,0.200797,0.199076,0.198632
46326190,-0.942108,3.6094,-2.4915,-1.23657,0.0174441,1.27417,2.53348,-0.0757868,-0.0865422,-0.00948038,0.0493817,0.00833213,0.0331149,-0.0515806,-0.0881748,-0.0261325,0.0491177,0.200014,0.201074,0.200648,0.199327,0.198936
46524868,-0.514059,3.81108,-2.49185,-1.23548,0.0194928,1.27537,2.5332,-0.0980939,-0.116117,-0.0164997,0.0635927,0.0131106,0.0646527,-0.0461436,-0.0977143,-0.0188615,0.081795,0.199701,0.200606,0.200673,0.19981,0.19921
46723552,-0.53605,3.84216,-2.48954,-1.2333,0.0221329,1.27843,2.53605,-0.0672207,-0.0815626,3.38396e-06,0.0650285,0.0235091,0.0302701,-0.0603037,-0.102007,-0.0373417,0.0445949,0.199823,0.200314,0.200371,0.199915,0.199577
46927203,-1.255,3.53468,-2.48952,-1.23295,0.0235675,1.28021,2.53696,-0.0602002,-0.0798318,0.00524017,0.0776312,0.0372046,0.0367575,-0.059172,-0.107537,-0.0415868,0.0477141,0.200045,0.200117,0.200028,0.1999,0.19991
47125886,-2.82013,3.6403,-2.48398,-1.22795,0.029504,1.28727,2.54377,-0.0369343,-0.0808302,-0.0167202,0.0668957,0.0543805,0.0284948,-0.0532082,-0.120246,-0.0799694,0.0120122,0.200549,0.200005,0.199454,0.199657,0.200335
47324570,-1.36809,3.53264,-2.48055,-1.22678,0.0274779,1.28554,2.54543,0.0449564,-0.0458542,0.0297426,0.16747,0.176668,0.129128,0.0201952,-0.100002,-0.0650731,0.0765958,0.200686,0.201538,0.200261,0.198626,0.198888
47523254,-1.26654,3.50919,-2.48006,-1.22684,0.0265241,1.28456,2.54534,-0.0263891,-0.110025,-0.0282694,0.106719,0.107788,0.12154,0.00808225,-0.106836,-0.0645133,0.0771363,0.20061,0.201749,0.200466,0.198542,0.198632
47721960,-0.0690802,3.52141,-2.48122,-1.22411,0.0296997,1.28412,2.54221,-0.197611,-0.168948,-0.0505894,-0.00542735,-0.0966313,0.0342797,-0.0809199,-0.0896553,0.0205022,0.0974245,0.198945,0.200522,0.20138,0.200327,0.198826
47920789,0.0648973,3.39722,-2.47059,-1.20703,0.0327866,1.27205,2.53477,-0.418467,-0.195784,0.00450155,-0.0930658,-0.354749,-0.04301,-0.181668,-0.0133097,0.229433,0.211853,0.191918,0.202614,0.209837,0.203299,0.192332
48119303,-0.0404015,3.18179,-2.45527,-1.18607,0.0250726,1.2407,2.5174,-0.568776,-0.164633,0.146035,-0.0515489,-0.496992,-0.108065,-0.307417,0.00865261,0.404876,0.341071,0.180319,0.209206,0.226227,0.205823,0.178425
48323006,0.17484,2.73271,-2.44089,-1.12893,0.0387167,1.1845,2.46044,-0.893661,-0.447562,-0.101672,-0.293878,-0.795286,-0.242382,-0.470641,-0.136438,0.305854,0.262939,0.146318,0.206969,0.264904,0.226176,0.155632
48526604,0.08151,2.42432,-2.40251,-1.08633,0.0376326,1.15215,2.4518,-0.714982,-0.321772,-0.0108557,-0.128583,-0.572781,0.050368,-0.180278,0.089543,0.476861,0.504303,0.12959,0.216975,0.293569,0.226268,0.133599
48725443,0.135903,2.22786,-2.3919,-1.05583,0.0503665,1.13464,2.43232,-0.644199,-0.271136,0.000422746,-0.0994452,-0.516159,-0.159191,-0.358086,-0.110001,0.241312,0.274055,0.11423,0.213062,0.313586,0.235891,0.12323
48923971,0.147409,1.86155,-2.369,-1.00459,0.0559035,1.08314,2.38891,-0.940536,-0.528074,-0.256469,-0.369463,-0.81339,-0.106863,-0.302154,-0.0267491,0.335513,0.365931,0.0887755,0.210723,0.353952,0.24617,0.10038
49122655,0.209372,1.40852,-2.33423,-0.917017,0.0873435,1.02622,2.32449,-1.15952,-0.623529,-0.345234,-0.5015,-1.04593,-0.351909,-0.52981,-0.171257,0.239373,0.254611,0.0564601,0.194515,0.409043,0.266034,0.0739481
49321338,0.141675,1.25776,-2.25148,-0.862857,0.0984302,1.03072,2.3721,-0.658787,-0.0979683,0.142492,0.00575763,-0.534077,0.0655154,-0.0861612,0.273588,0.653219,0.699193,0.0513639,0.213805,0.43428,0.243016,0.0575351
49520125,0.21523,1.20008,-2.16876,-0.77926,0.175444,1.10252,2.44667,-0.456588,-0.00142807,0.192215,0.0975331,-0.357664,-0.183707,-0.29995,-0.0188919,0.297719,0.345699,0.0478126,0.213403,0.443846,0.241525,0.0534137
49723672,0.321408,1.07966,-2.06485,-0.656137,0.274698,1.17088,2.5198,-0.81741,-0.542461,-0.40354,-0.434061,-0.714165,-0.0475341,-0.157013,0.00375699,0.209213,0.274492,0.0394901,0.207391,0.462879,0.244317,0.0459233
49922357,0.399464,1.03486,-1.99132,-0.573762,0.348133,1.23312,2.58331,-0.483082,-0.260267,-0.146924,-0.158145,-0.38245,-0.0562065,-0.15685,-0.0312335,0.133615,0.203171,0.0363452,0.203976,0.470367,0.246049,0.0432629
50121041,0.42817,1.00015,-1.96434,-0.541272,0.375052,1.25089,2.6022,-0.397454,-0.15904,-0.0786976,-0.126114,-0.360511,-0.145934,-0.189766,-0.0406984,0.112395,0.129834,0.0340129,0.201634,0.47649,0.246778,0.0410851
50319807,0.354848,0.932248,-2.03081,-0.598887,0.303441,1.15569,2.51361,-0.676555,-0.463464,-0.425308,-0.495591,-0.702781,-0.268358,-0.255726,-0.109161,0.0104995,-0.0220919,0.0298178,0.198639,0.488269,0.246691,0.036583
50518407,0.202915,0.913771,-2.1664,-0.736501,0.159213,1.00683,2.37315,-0.284322,-0.145725,-0.167973,-0.249103,-0.38547,-0.14279,-0.0638693,0.0516488,0.10912,0.0194442,0.0290915,0.200854,0.491966,0.243245,0.0348441
50722055,0.0843463,0.910882,-2.26154,-0.83795,0.0530003,0.90089,2.27975,-0.175306,-0.151235,-0.246113,-0.335006,-0.3624,-0.0902234,0.061279,0.125087,0.0986781,-0.0597735,0.0296605,0.206037,0.492559,0.237854,0.033889
50925711,0.0184592,0.907134,-2.30119,-0.886203,0.000250409,0.847068,2.24065,-0.236907,-0.271895,-0.358553,-0.410481,-0.380423,-0.191305,-0.0770717,-0.0594396,-0.108227,-0.231352,0.0302548,0.211468,0.493031,0.232402,0.0328448
51124449,-0.0131549,0.914588,-2.31786,-0.90942,-0.0211685,0.824431,2.2303,-0.234832,-0.323072,-0.378687,-0.374429,-0.29115,-0.194422,-0.153936,-0.188808,-0.2472,-0.298644,0.0313886,0.215753,0.491141,0.228931,0.0327862
51323074,-0.0106553,0.917987,-2.30971,-0.903585,-0.015205,0.830372,2.24029,0.0128262,-0.140539,-0.200196,-0.165904,-0.0162778,0.0122505,0.0311073,-0.0501397,-0.140015,-0.169183,0.0319438,0.217369,0.489966,0.227803,0.0329189
51521758,0.0060484,0.935035,-2.29762,-0.890976,0.00125381,0.849998,2.2625,-0.107894,-0.308349,-0.331281,-0.237841,-0.0402114,0.0898898,0.0276638,-0.105054,-0.200137,-0.147034,0.0332333,0.217937,0.485969,0.228638,0.0342226
51725408,0.0617746,0.938381,-2.26073,-0.845865,0.0481755,0.89531,2.30261,-0.0892916,-0.260394,-0.254878,-0.150697,0.017166,0.24478,0.150545,0.0256915,-0.0435908,0.0440705,0.0330865,0.214503,0.484591,0.232624,0.035195
51924162,0.120223,0.950098,-2.21056,-0.793883,0.104104,0.952262,2.35967,-0.122405,-0.268926,-0.232879,-0.114787,0.0269628,0.0857399,-0.0462235,-0.166141,-0.210354,-0.0850825,0.033836,0.213804,0.481857,0.234216,0.0362864
52122779,0.189646,0.964968,-2.16275,-0.738935,0.165507,1.01339,2.41698,-0.210188,-0.354644,-0.320807,-0.206771,-0.0676836,0.135169,0.00934993,-0.108402,-0.152747,-0.0321503,0.034439,0.210913,0.478421,0.238228,0.0379988
52321459,0.256402,0.966384,-2.11643,-0.684554,0.22207,1.06803,2.46545,-0.0737351,-0.282631,-0.258289,-0.12039,0.0804555,0.27112,0.135015,-0.0253668,-0.102016,0.0312684,0.034137,0.207008,0.477131,0.242687,0.0390377
52520143,0.30997,0.985625,-2.08862,-0.648787,0.264501,1.1123,2.50417,-0.0961846,-0.372742,-0.381083,-0.239297,0.0268151,0.25451,0.144652,-0.0501095,-0.170881,-0.0619915,0.035022,0.203519,0.472321,0.247676,0.0414618
52718853,0.361942,0.97195,-2.06444,-0.612395,0.30072,1.14309,2.52362,0.190049,-0.142378,-0.225307,-0.122076,0.198749,0.348137,0.338848,0.134707,-0.044481,-0.0292061,0.0335682,0.197147,0.472836,0.254345,0.0421042
52922477,0.36808,0.963572,-2.04094,-0.594666,0.314884,1.15637,2.54289,0.209787,-0.139024,-0.244802,-0.156137,0.177182,0.111298,0.135659,-0.0691874,-0.264583,-0.282602,0.0337769,0.200115,0.473746,0.251128,0.0412345
53126128,0.361519,0.960562,-2.01427,-0.58024,0.325371,1.16861,2.56758,0.197603,-0.178216,-0.298185,-0.208985,0.153045,0.0508145,0.0861957,-0.132187,-0.346544,-0.375751,0.0348961,0.206908,0.473946,0.244168,0.0400811
53324847,0.352758,0.948391,-1.99217,-0.56851,0.331755,1.17472,2.58406,0.239098,-0.150835,-0.26381,-0.160499,0.220243,0.0938182,0.108914,-0.123478,-0.342616,-0.352421,0.035343,0.212757,0.475462,0.237949,0.0384903
53523556,0.359247,0.908589,-1.98379,-0.557045,0.335139,1.16917,2.5753,0.372274,-0.0367835,-0.163613,-0.063327,0.341304,0.2455,0.272362,0.0318745,-0.203602,-0.226699,0.0328586,0.210382,0.481521,0.238886,0.0363517
53727147,0.381055,0.876852,-1.98567,-0.547009,0.341587,1.16653,2.56107,0.320155,-0.118838,-0.232673,-0.109579,0.322766,0.380675,0.374228,0.109544,-0.131953,-0.128707,0.0302486,0.202992,0.485658,0.245417,0.035684
53925829,0.302712,0.857406,-2.06054,-0.62147,0.263346,1.08448,2.47886,0.282114,-0.170535,-0.282932,-0.15663,0.28326,0.268192,0.257476,-0.0142128,-0.258283,-0.256214,0.029334,0.20246,0.48815,0.245348,0.0347076
54124513,0.178874,0.793296,-2.16614,-0.727132,0.142171,0.948971,2.34281,0.504556,0.0422238,-0.0790059,0.0418529,0.490932,0.262723,0.262952,-0.0105189,-0.262359,-0.274158,0.025596,0.200746,0.499892,0.243363,0.0304028
54323199,0.112811,0.761052,-2.19679,-0.767953,0.0899667,0.892897,2.29633,0.39433,-0.0649295,-0.225452,-0.150509,0.2917,0.0976533,0.166634,-0.0818923,-0.347279,-0.439251,0.024543,0.205861,0.506121,0.235959,0.0275167
54521880,0.130346,0.754333,-2.19735,-0.760907,0.0979752,0.898121,2.29432,0.213466,-0.103585,-0.202447,-0.141083,0.167934,0.282558,0.306849,0.131687,-0.0467739,-0.0934645,0.0237428,0.201221,0.506614,0.240576,0.0278471
54720563,0.150958,0.756083,-2.17855,-0.741652,0.117959,0.918537,2.31437,0.0220185,-0.0868936,-0.123958,-0.105,-0.000658393,0.0805539,0.093444,0.0355459,-0.0258062,-0.0478117,0.0238376,0.201057,0.506127,0.240952,0.028026
54924214,0.175641,0.749194,-2.15242,-0.715584,0.142396,0.941188,2.33622,-0.303215,-0.240734,-0.221956,-0.232547,-0.293794,-0.0359434,-0.0426168,-0.0067251,0.0294127,0.0376986,0.0233747,0.200559,0.507564,0.240944,0.0275589
55122899,0.216704,0.730424,-2.11504,-0.675209,0.179895,0.972222,2.36291,-0.444453,-0.313436,-0.261232,-0.273051,-0.39904,-0.101315,-0.134979,-0.0667731,0.0126864,0.0522725,0.0219761,0.197616,0.511375,0.242506,0.026527
55321581,0.245249,0.720843,-2.07619,-0.639432,0.212295,1.00269,2.39542,-0.316757,-0.226155,-0.224334,-0.264017,-0.355202,-0.0328956,0.00295814,0.065454,0.106668,0.077048,0.021551,0.198856,0.513668,0.240317,0.025607
55525232,0.274819,0.720819,-2.04884,-0.611232,0.240811,1.03104,2.42272,-0.159125,-0.172169,-0.170011,-0.160655,-0.147711,0.22345,0.212128,0.202898,0.198945,0.207191,0.021491,0.198364,0.513604,0.240867,0.0256741
55724101,0.288621,0.729328,-2.03402,-0.597913,0.256335,1.04954,2.44299,0.0186852,-0.126068,-0.232175,-0.263567,-0.133615,0.0703471,0.189151,0.138362,0.0341035,-0.0946724,0.0221702,0.199789,0.511609,0.240236,0.0261952
55922600,0.268345,0.708515,-2.02121,-0.595845,0.250263,1.04104,2.44416,0.278982,0.00665069,-0.223094,-0.310741,-0.0680275,-0.168662,0.107734,0.0245022,-0.185182,-0.476569,0.0217276,0.205612,0.51613,0.232481,0.0240495
56126250,0.23784,0.651472,-1.99739,-0.587363,0.238831,1.01838,2.43401,0.477247,0.117879,-0.198414,-0.331409,-0.0134585,-0.292238,0.0957699,-0.00508618,-0.286253,-0.701306,0.019314,0.212379,0.528662,0.220191,0.0194538
56324965,0.198517,0.585697,-1.96901,-0.579239,0.221793,0.986974,2.41917,0.547209,0.126433,-0.210901,-0.34725,0.0216599,-0.324108,0.0764211,-0.0483209,-0.359873,-0.812042,0.0165044,0.221253,0.543728,0.204,0.0145142
56523787,0.184623,0.563677,-1.9539,-0.573477,0.218578,0.980877,2.42164,0.39668,0.023121,-0.257636,-0.373661,-0.0513098,-0.11094,0.215074,0.105086,-0.159155,-0.553014,0.0158531,0.226646,0.548107,0.196437,0.0129568
56722303,0.173522,0.545522,-1.94752,-0.572198,0.212779,0.970988,2.41597,0.333073,0.0731188,-0.137775,-0.237876,-0.0199122,-0.155699,0.100159,0.0342952,-0.153383,-0.462828,0.0150361,0.228979,0.552365,0.191836,0.0117845
56920985,0.148111,0.536724,-1.94507,-0.580777,0.199132,0.957807,2.41236,0.0426044,-0.0740942,-0.239826,-0.361295,-0.290878,-0.231413,0.017426,0.0274326,-0.0774011,-0.35589,0.0150854,0.235894,0.55365,0.184482,0.010888
57124637,0.127449,0.523742,-1.93634,-0.584075,0.188899,0.946064,2.40904,-0.233934,-0.183306,-0.277338,-0.402024,-0.496297,-0.265891,-0.0614563,0.0258455,0.0230108,-0.179262,0.0147622,0.241973,0.556219,0.177221,0.00982459
57323436,0.118187,0.510942,-1.92715,-0.582446,0.184464,0.938455,2.4054,-0.27417,-0.110253,-0.135071,-0.239486,-0.441002,-0.183303,-0.0455437,0.0827534,0.15626,0.0467965,0.0141808,0.244597,0.559279,0.172933,0.00901012
57522003,0.120151,0.481969,-1.90943,-0.570219,0.18381,0.926395,2.3909,-0.522357,-0.278225,-0.263363,-0.362157,-0.643929,-0.331121,-0.222003,-0.0604018,0.0644066,0.004985,0.0122029,0.241554,0.568504,0.170114,0.00762523
57720702,0.129111,0.451558,-1.88165,-0.548927,0.190248,0.919278,2.38132,-0.596468,-0.295466,-0.242598,-0.323239,-0.656715,-0.247308,-0.176613,0.000608265,0.163604,0.167113,0.0102405,0.238132,0.578691,0.166678,0.00625792
57919372,0.138061,0.434116,-1.86432,-0.534462,0.196495,0.916198,2.37499,-0.500902,-0.245062,-0.173024,-0.208074,-0.476915,-0.133772,-0.125586,0.00703801,0.151568,0.217961,0.00909649,0.234882,0.585148,0.165329,0.00554384
58128097,0.150708,0.425593,-1.8597,-0.525676,0.201644,0.915489,2.36591,-0.541274,-0.407908,-0.339415,-0.321932,-0.442003,-0.0743301,-0.132249,-0.0820172,-0.000114352,0.101681,0.00832105,0.228759,0.589391,0.168193,0.00533652
58321753,0.165583,0.424794,-1.86075,-0.519765,0.208723,0.920796,2.36233,-0.506651,-0.49617,-0.442658,-0.38781,-0.365882,0.119907,0.0176675,-0.00630021,0.0108787,0.118671,0.00800444,0.223035,0.590687,0.172783,0.00549027
58525355,0.164012,0.425577,-1.8667,-0.523912,0.205821,0.918425,2.35824,0.0374147,-0.154664,-0.199728,-0.16848,0.0323895,0.1817,0.159225,0.0589581,-0.0436544,-0.0832659,0.00804207,0.222214,0.590268,0.173882,0.00559385
58724039,0.103298,0.423623,-1.9052,-0.572188,0.155414,0.870212,2.32072,0.132554,-0.201106,-0.303134,-0.274493,0.0587142,0.0299254,0.0394366,-0.121567,-0.305416,-0.422424,0.00842461,0.229735,0.588842,0.167643,0.00535513
58922777,0.0113916,0.413241,-1.97384,-0.650262,0.0717346,0.784517,2.24294,0.318776,-0.146531,-0.309402,-0.291425,0.166992,0.13726,0.18858,-0.0249647,-0.288208,-0.491993,0.00833904,0.235304,0.589993,0.161486,0.00487754
59116456,-0.0484502,0.398823,-2.00397,-0.692419,0.0214614,0.730444,2.19826,0.358777,-0.146787,-0.295324,-0.24461,0.277506,0.175871,0.170546,-0.0782488,-0.35972,-0.524586,0.0080791,0.241837,0.592086,0.153753,0.00424485
59325057,-0.0563404,0.404513,-2.02473,-0.707934,0.0116072,0.725621,2.1904,0.0374998,-0.388632,-0.486641,-0.41413,0.0509459,0.360951,0.296887,0.0711317,-0.162179,-0.24681,0.00854991,0.241051,0.58901,0.156729,0.00466033
59523741,-0.0651726,0.403605,-2.02272,-0.710536,0.008301,0.723657,2.19358,0.0840119,-0.187963,-0.233058,-0.165656,0.141899,0.101556,0.026182,-0.129227,-0.274602,-0.289011,0.00879282,0.245289,0.587713,0.153638,0.00456742
59722446,-0.044776,0.406664,-2.00978,-0.694626,0.026672,0.743347,2.2108,-0.197221,-0.300923,-0.294574,-0.24169,-0.107336,0.138658,0.0614823,-0.0122216,-0.0631836,-0.0179755,0.00892399,0.243948,0.586855,0.155518,0.00475541
59921122,-0.0255395,0.404963,-1.99802,-0.679624,0.041603,0.756533,2.21958,-0.226372,-0.24012,-0.181126,-0.107477,-0.0501893,0.201785,0.073319,0.0281234,0.0330595,0.162426,0.0086614,0.240583,0.588261,0.157714,0.00478009
60119792,0.00178655,0.402523,-1.99133,-0.664082,0.0580239,0.769705,2.22166,-0.455839,-0.42573,-0.325252,-0.223542,-0.192165,0.157966,-0.0282164,-0.0691709,-0.0340937,0.16924,0.00812816,0.232252,0.590945,0.16375,0.00492438
60323452,0.0167976,0.397226,-1.99058,-0.656946,0.0641271,0.771529,2.21437,-0.365064,-0.333589,-0.211291,-0.0861934,-0.0409915,0.239332,0.0089559,-0.0439064,-0.00382658,0.242709,0.00754049,0.225217,0.594085,0.168245,0.00491323
60522132,0.037871,0.391237,-1.99345,-0.649102,0.072028,0.773396,2.20231,-0.416256,-0.431561,-0.322975,-0.193987,-0.099859,0.363058,0.131494,0.0559977,0.070011,0.299244,0.00679314,0.214815,0.59788,0.175544,0.00496764
60725784,0.051536,0.385965,-1.99998,-0.646464,0.07448,0.771359,2.18861,-0.267656,-0.365773,-0.262495,-0.10611,0.0842431,0.399051,0.128186,0.00202572,-0.0251498,0.210684,0.00623128,0.206176,0.600526,0.182027,0.00504009
60924461,0.0596128,0.382539,-2.00801,-0.647378,0.0742689,0.768743,2.17769,-0.165442,-0.361869,-0.274699,-0.0973885,0.196857,0.390862,0.0951383,-0.0846385,-0.161521,0.0607196,0.0059133,0.20006,0.601633,0.187228,0.00516614
61123145,0.0576382,0.379241,-2.01005,-0.649226,0.0715874,0.765178,2.1733,0.0639741,-0.251315,-0.248351,-0.116875,0.254193,0.310258,0.119818,-0.0866957,-0.23577,-0.159388,0.00582051,0.199376,0.602253,0.187436,0.00511429
61321832,0.0765381,0.369734,-2.00657,-0.63792,0.080474,0.768022,2.16525,0.250365,-0.1576,-0.218735,-0.1204,0.313339,0.46544,0.353196,0.124267,-0.0814589,-0.113759,0.00519244,0.191173,0.605665,0.192958,0.00501135
61525513,0.0882711,0.362867,-1.99511,-0.625709,0.0899099,0.774688,2.16924,0.179451,-0.227414,-0.262839,-0.139645,0.305591,0.378082,0.215331,-0.0255624,-0.223418,-0.210992,0.0049161,0.188865,0.607709,0.193666,0.00484374
61724165,0.0989362,0.353507,-1.98373,-0.613565,0.0981933,0.777758,2.16844,0.201685,-0.171101,-0.182438,-0.0476028,0.375244,0.405783,0.21249,-0.0197156,-0.196476,-0.145673,0.00449695,0.185752,0.611192,0.19402,0.00453857
61922847,0.131043,0.344599,-1.97368,-0.592539,0.116925,0.789818,2.16614,0.197446,-0.147306,-0.174701,-0.0702047,0.307503,0.554061,0.410307,0.206659,0.0405973,0.0501453,0.00388294,0.174996,0.614301,0.202318,0.00450306
62121531,0.149403,0.34068,-1.95968,-0.576305,0.132479,0.803185,2.17611,0.135896,-0.190915,-0.215374,-0.117537,0.235278,0.336735,0.199838,0.00826309,-0.146403,-0.140585,0.0037101,0.172439,0.615437,0.203973,0.004441
62325184,0.161262,0.339174,-1.95073,-0.566313,0.143044,0.814009,2.18608,0.172245,-0.233408,-0.323596,-0.267719,0.121445,0.287044,0.244534,0.0420884,-0.160125,-0.272032,0.00369819,0.171637,0.615205,0.204974,0.00448533
62523866,0.154743,0.328722,-1.94038,-0.56203,0.141047,0.807674,2.18196,0.422943,-0.098235,-0.266913,-0.25195,0.20599,0.187374,0.245065,0.0153856,-0.253991,-0.500618,0.00344029,0.173013,0.619493,0.200061,0.0039921
62712861,0.139327,0.311756,-1.92087,-0.555502,0.135638,0.794502,2.17436,0.557751,-0.0453984,-0.266861,-0.281021,0.226978,0.105478,0.226952,-0.021346,-0.336883,-0.68083,0.00303076,0.176968,0.627329,0.189518,0.00315477
62926207,0.139403,0.296782,-1.90157,-0.542474,0.138567,0.789099,2.16839,0.551113,-0.0335322,-0.219596,-0.207351,0.309184,0.2242,0.277303,0.0235016,-0.276585,-0.565789,0.00258423,0.176104,0.634409,0.184304,0.00259791
63124884,0.12258,0.289432,-1.89199,-0.543795,0.131418,0.779982,2.16721,0.373972,-0.154378,-0.319167,-0.309173,0.15659,0.131195,0.171679,-0.05605,-0.324583,-0.590058,0.0025227,0.182173,0.637537,0.175521,0.00224542
63323568,0.122066,0.283182,-1.88295,-0.538,0.132747,0.777767,2.16539,0.364497,-0.0371047,-0.154758,-0.139872,0.225138,0.163033,0.17408,-0.00310121,-0.207008,-0.396329,0.00234933,0.182297,0.640688,0.172631,0.00203469
63522442,0.121446,0.281443,-1.88184,-0.5374,0.132522,0.776866,2.16454,0.173582,-0.106785,-0.168109,-0.135436,0.139903,0.177657,0.138684,0.00280908,-0.136813,-0.228789,0.00230859,0.182286,0.641442,0.171975,0.00198758
63720938,0.120887,0.281706,-1.88604,-0.54008,0.130748,0.775382,2.16183,0.043405,-0.120206,-0.15845,-0.142599,0.0154255,0.176188,0.159074,0.0816087,7.34418e-06,-0.0592235,0.00230658,0.181414,0.64123,0.173031,0.0020187
63924587,0.118598,0.28254,-1.89094,-0.544183,0.127815,0.773121,2.15873,-0.128313,-0.192475,-0.207205,-0.201093,-0.139133,0.152374,0.145389,0.115088,0.0832936,0.0603338,0.00232663,0.18108,0.640769,0.17377,0.00205552
64123271,0.114404,0.282385,-1.89415,-0.547772,0.124019,0.769206,2.15519,-0.0281568,0.0174019,0.0541372,0.0782805,0.0603858,0.0372521,-0.0158014,-0.0100628,0.015843,0.0850761,0.00232808,0.181358,0.640822,0.173445,0.00204642
64322114,0.106501,0.282053,-1.90563,-0.557813,0.114083,0.7589,2.14268,-0.207603,-0.118822,-0.0669801,-0.0415566,-0.0960989,-0.104291,-0.163979,-0.140803,-0.0927592,0.00222296,0.00229012,0.179721,0.641048,0.174876,0.00206452
64525606,0.0809315,0.280465,-1.93106,-0.583237,0.087857,0.731068,2.11295,-0.235233,-0.171774,-0.120418,-0.0862073,-0.110618,0.178596,0.103979,0.111616,0.147548,0.244587,0.00221701,0.17868,0.642145,0.174942,0.00201564
64724289,0.0575215,0.279376,-1.96678,-0.613717,0.0579991,0.699613,2.07419,-0.47276,-0.440081,-0.371791,-0.307087,-0.276857,0.133195,0.00116688,-0.0211496,0.00189363,0.137419,0.00209385,0.173387,0.642865,0.179586,0.00206768
64923022,0.0288673,0.278713,-2.0014,-0.645752,0.0262391,0.6669,2.03782,-0.251032,-0.266522,-0.225032,-0.17327,-0.112938,0.22103,0.118814,0.0835306,0.0810203,0.166542,0.00203164,0.170806,0.643237,0.181837,0.002089
65121770,-0.000658584,0.279591,-2.03568,-0.678224,-0.00496629,0.636374,2.00577,-0.211101,-0.276837,-0.270114,-0.239297,-0.154947,0.134548,0.07898,0.03433,0.00447709,0.0247125,0.00204312,0.169796,0.642605,0.183409,0.00214663
65320363,-0.0292479,0.27979,-2.05736,-0.703156,-0.0300317,0.612429,1.98534,0.0535274,-0.151142,-0.239155,-0.264065,-0.111512,-0.00264669,0.0676672,-0.00416629,-0.109702,-0.265458,0.00210641,0.172631,0.642353,0.180795,0.00211474
65519025,-0.0573763,0.281847,-2.07229,-0.72452,-0.0501685,0.596014,1.97737,0.023108,-0.276772,-0.416785,-0.465291,-0.251142,0.0389053,0.16545,0.0667282,-0.0897418,-0.339906,0.00232179,0.179576,0.640455,0.175539,0.00210815
65722676,-0.0480108,0.280466,-2.07023,-0.719322,-0.0443018,0.601426,1.97946,0.295627,-0.0646203,-0.217819,-0.25814,0.0197091,0.224479,0.340082,0.210948,0.0229439,-0.245323,0.00226257,0.176805,0.640679,0.178107,0.002147
65921442,-0.0173629,0.27707,-2.02433,-0.679559,-0.00776624,0.636726,2.01917,0.229428,-0.119006,-0.187851,-0.137693,0.208492,0.113541,0.0498258,-0.124443,-0.296702,-0.39479,0.00224912,0.180689,0.642173,0.172912,0.0019774
66120043,0.0392637,0.270709,-1.96819,-0.622494,0.0453017,0.684874,2.06221,0.282246,-0.0596535,-0.0935785,-0.00644267,0.370113,0.38775,0.248333,0.0560284,-0.110044,-0.138133,0.00199839,0.176351,0.645921,0.173896,0.00183265
66323696,0.0841356,0.270375,-1.95978,-0.59818,0.0739272,0.712403,2.0747,-0.141127,-0.490811,-0.480634,-0.342458,0.0876877,0.602627,0.358959,0.135203,-0.0292183,0.0296573,0.00184781,0.164302,0.644735,0.187019,0.0020967
66522403,0.114222,0.264177,-1.94718,-0.577052,0.0930368,0.726145,2.07618,0.206133,-0.20295,-0.235509,-0.125771,0.320107,0.569779,0.390285,0.158585,-0.0350029,-0.0597995,0.00157458,0.15466,0.647106,0.194585,0.00207431
66721179,0.117272,0.259626,-1.92107,-0.560694,0.105323,0.737664,2.09507,0.342628,-0.199674,-0.375095,-0.379294,0.0670133,0.140768,0.204294,-0.0185712,-0.286691,-0.589209,0.00158468,0.160629,0.649769,0.18617,0.00184701
66924714,0.120155,0.243444,-1.87279,-0.53007,0.12062,0.742547,2.10486,0.676199,0.0295662,-0.244083,-0.321898,0.148038,-0.0300303,0.187306,-0.0380599,-0.365652,-0.858765,0.00128704,0.165569,0.66045,0.171432,0.00126158
67123397,0.139525,0.227608,-1.81786,-0.488567,0.146578,0.756082,2.11796,0.742525,0.101761,-0.153392,-0.220914,0.254386,0.0215107,0.198497,-0.0284252,-0.347768,-0.82452,0.000970481,0.165977,0.671522,0.160679,0.000851301
67322081,0.153995,0.217042,-1.77787,-0.458476,0.166046,0.767241,2.12961,0.626282,0.0124978,-0.204919,-0.247376,0.228649,0.121034,0.227894,-0.000150651,-0.299554,-0.721428,0.000797184,0.166874,0.678939,0.152754,0.00063549
67520828,0.162353,0.208643,-1.75995,-0.443495,0.173538,0.76734,2.12509,0.599405,0.00111419,-0.196644,-0.227094,0.24922,0.247444,0.317102,0.0896122,-0.198991,-0.594283,0.000649612,0.163355,0.685163,0.150312,0.00051936
67719455,0.1591,0.197488,-1.74239,-0.433357,0.1708,0.752649,2.1051,0.743276,0.171272,-0.00764704,-0.0291723,0.431627,0.151448,0.195202,-0.0255828,-0.298213,-0.664893,0.000474582,0.159543,0.694672,0.144943,0.000367919
67923100,0.157095,0.193276,-1.73641,-0.430417,0.169985,0.748628,2.10053,0.413167,-0.110309,-0.252088,-0.252412,0.190939,0.267948,0.254805,0.0427222,-0.202902,-0.507881,0.000430783,0.159207,0.697721,0.142317,0.000323999
68121784,0.167814,0.187292,-1.72742,-0.419274,0.175557,0.746984,2.08976,0.557687,0.0574241,-0.073357,-0.0696276,0.359571,0.362284,0.337537,0.132739,-0.101335,-0.386897,0.000341114,0.152078,0.703226,0.144072,0.000281905
68320499,0.178649,0.180951,-1.71716,-0.407091,0.181001,0.743854,2.07616,0.588044,0.122587,0.0214369,0.0459371,0.468482,0.402443,0.330014,0.127792,-0.0877798,-0.317887,0.000259262,0.144314,0.70931,0.145878,0.000238763
68519152,0.179575,0.17786,-1.70978,-0.402642,0.182825,0.742244,2.07434,0.327325,-0.0994536,-0.168893,-0.122514,0.293855,0.30744,0.18326,-0.015722,-0.211526,-0.382525,0.000235616,0.143691,0.712041,0.14382,0.000212957
68722803,0.186369,0.177412,-1.709,-0.399085,0.187513,0.747233,2.07708,0.102145,-0.237005,-0.291708,-0.255536,0.0753501,0.346125,0.245917,0.0882576,-0.0668877,-0.204644,0.000230642,0.141751,0.712054,0.145746,0.000218591
68916520,0.186122,0.176708,-1.70977,-0.399327,0.186647,0.745474,2.07428,0.196054,0.00385273,-0.0384042,-0.0318939,0.135585,0.154722,0.128381,0.0474928,-0.0392798,-0.141143,0.000223158,0.140847,0.712737,0.145979,0.000214447
69125162,0.176153,0.176829,-1.71924,-0.409299,0.176932,0.736027,2.06476,-0.095955,-0.103634,-0.11418,-0.126178,-0.135976,0.0639569,0.0877522,0.0917102,0.0895057,0.0651203,0.000224191,0.141083,0.712713,0.145766,0.000214284
69323832,0.166639,0.176444,-1.72613,-0.417685,0.167897,0.726557,2.05489,-0.177775,-0.0919189,-0.0842053,-0.102862,-0.198631,-0.035591,0.00775684,0.0530797,0.0935169,0.113143,0.000221334,0.141285,0.71321,0.145074,0.000209211
69522506,0.160781,0.175851,-1.72911,-0.421991,0.162246,0.720454,2.0468,-0.290348,-0.220736,-0.194128,-0.185479,-0.229815,0.185218,0.167757,0.189983,0.22162,0.279115,0.000215861,0.141186,0.713989,0.144407,0.000202593
69726159,0.165634,0.176104,-1.72264,-0.416501,0.168016,0.726993,2.05457,-0.0664325,-0.164259,-0.19737,-0.208216,-0.14281,-0.0072676,0.00966304,-0.0229255,-0.0661651,-0.142634,0.000220239,0.142162,0.713749,0.143666,0.000202382
69924843,0.178962,0.176603,-1.71525,-0.40649,0.180053,0.740504,2.06757,0.13217,-0.153765,-0.262335,-0.304803,-0.129249,0.256986,0.333761,0.245438,0.118368,-0.125593,0.000225867,0.141458,0.712748,0.145354,0.000213883
70123525,0.175572,0.172414,-1.69743,-0.398456,0.182365,0.739427,2.06964,0.454503,-0.0365751,-0.260772,-0.376161,-0.134098,-0.0402137,0.188362,0.0625407,-0.154375,-0.647152,0.000209544,0.145056,0.716218,0.138343,0.000173542
70322267,0.184968,0.166509,-1.68284,-0.385602,0.188977,0.739405,2.06195,0.674898,0.0912008,-0.158841,-0.279069,0.0325077,0.134594,0.362022,0.202643,-0.0549305,-0.614235,0.000166256,0.140029,0.721456,0.138203,0.000145702
70520908,0.186667,0.161937,-1.67417,-0.3797,0.189707,0.734919,2.05266,0.572891,0.0248674,-0.172294,-0.243856,0.100897,0.184396,0.302927,0.129162,-0.111985,-0.566665,0.000138929,0.137117,0.725664,0.136956,0.000124007
70719577,0.188515,0.157168,-1.66125,-0.372104,0.191683,0.729901,2.04391,0.59991,0.100371,-0.0647009,-0.114924,0.217858,0.125657,0.196453,0.0295385,-0.189328,-0.57928,0.000112549,0.134617,0.730742,0.134428,0.000100022
70918270,0.18557,0.156005,-1.65533,-0.370392,0.19165,0.729235,2.04596,0.229717,-0.121536,-0.213872,-0.223307,0.0483761,0.0951213,0.0820759,-0.0509976,-0.205582,-0.436902,0.000111812,0.136949,0.731685,0.131162,9.19186e-05
71121912,0.187397,0.155523,-1.64675,-0.365114,0.195847,0.733302,2.05257,0.120498,-0.0850725,-0.163013,-0.197747,-0.083109,-0.07203,-0.0151239,-0.0747258,-0.16233,-0.347666,0.000112693,0.139035,0.732088,0.128678,8.69082e-05
71320770,0.187289,0.155557,-1.6467,-0.365185,0.195898,0.733508,2.05299,0.0531273,-0.0178067,-0.0609025,-0.0931297,-0.0846764,0.0162994,0.0803809,0.0724713,0.0444914,-0.0536358,0.000113068,0.1392,0.732052,0.128548,8.68535e-05
71524248,0.186972,0.155498,-1.64439,-0.364308,0.196529,0.734272,2.05462,-0.0644539,-0.0813888,-0.12204,-0.166975,-0.222814,-0.0530813,0.0452422,0.0667455,0.06408,-0.0224164,0.000113892,0.140083,0.732111,0.127607,8.52954e-05
71722985,0.184652,0.155421,-1.64521,-0.365965,0.194669,0.732353,2.05293,-0.080382,-0.0325871,-0.0401593,-0.0642202,-0.140849,-0.0157544,0.0420041,0.0760003,0.100109,0.0892687,0.000113941,0.140475,0.732209,0.127117,8.4282e-05
71921615,0.185209,0.155131,-1.64226,-0.363693,0.195418,0.733424,2.05298,-0.218331,-0.186546,-0.194044,-0.213253,-0.269172,-0.0732502,-0.0279357,-0.00332204,0.0131315,0.000626951,0.000112944,0.140705,0.732527,0.126573,8.25921e-05
72120447,0.18825,0.155171,-1.64024,-0.361226,0.198114,0.736094,2.05502,-0.0167347,-0.0399874,-0.0427746,-0.0401322,-0.0164313,0.224005,0.214523,0.203524,0.193109,0.183738,0.000112465,0.140345,0.732555,0.126905,8.3049e-05
72323951,0.192761,0.155301,-1.63623,-0.357028,0.202605,0.740908,2.05999,-0.0667587,-0.140404,-0.141264,-0.121476,-0.0293769,0.0637657,0.0105841,-0.0312276,-0.0659551,-0.0773919,0.000113279,0.14041,0.732384,0.127009,8.37236e-05
72522635,0.195886,0.15493,-1.63604,-0.356126,0.204255,0.741082,2.05842,-0.104215,-0.146917,-0.113521,-0.0615034,0.0554466,0.309805,0.1873,0.137395,0.113158,0.175849,0.000108463,0.138492,0.733054,0.128263,8.36816e-05
72721319,0.19436,0.154836,-1.63887,-0.35765,0.201871,0.739329,2.05488,-0.0820722,-0.146748,-0.130431,-0.0925621,0.0202358,0.152298,0.0593252,0.0096699,-0.0228829,0.00187854,0.000107654,0.137853,0.733082,0.128872,8.45102e-05
72920108,0.187467,0.155115,-1.64449,-0.363974,0.196028,0.734339,2.05154,-0.0320461,-0.176538,-0.234227,-0.26187,-0.1864,0.0647161,0.111833,0.0720227,0.0106292,-0.125586,0.00011112,0.139097,0.732578,0.128129,8.49309e-05
73118687,0.178881,0.154122,-1.65124,-0.37147,0.18727,0.724494,2.04061,0.291934,0.0388915,-0.0820363,-0.153727,-0.0574556,0.021307,0.156882,0.101849,-0.0036902,-0.282267,0.000106832,0.138527,0.733486,0.127799,8.17934e-05
73322338,0.172242,0.152447,-1.64847,-0.37321,0.182779,0.718068,2.03492,0.314251,-0.00537425,-0.132347,-0.192099,-0.0230851,-0.0299665,0.0715706,-0.0172507,-0.153437,-0.453108,0.000102025,0.139858,0.735059,0.124907,7.33695e-05
73521022,0.164867,0.151695,-1.64963,-0.377397,0.177485,0.712354,2.03108,0.186626,-0.120174,-0.209319,-0.227862,-0.00405031,0.0839961,0.0919296,-0.0178699,-0.152543,-0.375017,0.000102213,0.141689,0.73543,0.122709,6.93486e-05
73719773,0.170611,0.150557,-1.6479,-0.374498,0.180546,0.712561,2.02764,0.328098,0.0682865,0.00370365,0.00104421,0.212204,0.285132,0.261528,0.160169,0.0445132,-0.122102,9.30739e-05,0.138115,0.737034,0.12469,6.81162e-05
73923358,0.172873,0.150021,-1.64711,-0.372915,0.18158,0.712655,2.02567,0.169873,0.00985557,-0.0142145,0.00267041,0.161592,0.232555,0.175577,0.101469,0.0285201,-0.0426713,8.92859e-05,0.136602,0.737726,0.125515,6.74841e-05
74117075,0.183396,0.150235,-1.63864,-0.362619,0.191412,0.723971,2.03593,-0.155162,-0.263303,-0.257289,-0.219228,-0.0690925,0.119354,0.0199144,-0.0471459,-0.0993798,-0.102414,9.08227e-05,0.13641,0.737228,0.126202,6.95735e-05
74325693,0.18513,0.149628,-1.63342,-0.359043,0.193898,0.725641,2.03775,0.161519,-0.00079602,-0.0108693,0.0235341,0.211914,0.118853,0.0219927,-0.0641134,-0.139935,-0.18288,8.90089e-05,0.136834,0.737873,0.125138,6.66677e-05
74524436,0.17245,0.148886,-1.64434,-0.370807,0.181308,0.712235,2.02379,0.0690873,-0.145959,-0.141559,-0.0745413,0.210116,0.252798,0.0752412,-0.0525535,-0.155616,-0.176645,8.67291e-05,0.136623,0.738497,0.124729,6.46965e-05
74723113,0.169497,0.146367,-1.64315,-0.371512,0.177078,0.704215,2.01121,0.22104,-0.0728448,-0.0657058,0.0272384,0.418921,0.443774,0.197484,0.021941,-0.119166,-0.146076,7.56273e-05,0.134042,0.741355,0.12447,5.80492e-05
74926712,0.169796,0.142414,-1.63075,-0.364829,0.177167,0.697915,1.99924,0.428188,0.0841901,0.0764031,0.164816,0.591376,0.450821,0.205533,0.0130764,-0.149535,-0.217297,6.09962e-05,0.131582,0.74615,0.12216,4.65288e-05
75125396,0.195059,0.13949,-1.61615,-0.344518,0.194433,0.70974,1.99741,0.301483,-0.0452912,-0.0699301,-0.00257239,0.394071,0.68498,0.481638,0.301518,0.140394,0.032401,4.66809e-05,0.12198,0.74966,0.128268,4.51273e-05
75324110,0.209946,0.139196,-1.60624,-0.33287,0.207475,0.721739,2.00792,0.0298898,-0.194098,-0.210197,-0.16833,0.0824043,0.344844,0.215154,0.100357,-0.00220519,-0.0754766,4.49314e-05,0.119899,0.749769,0.130242,4.62462e-05
75522766,0.209317,0.139199,-1.60775,-0.333883,0.206523,0.720834,2.00664,0.085584,0.00381881,-0.0272717,-0.0425037,-0.00362629,0.0958883,0.120312,0.0983108,0.0652685,-0.0116181,4.4768e-05,0.119605,0.749734,0.13057,4.65245e-05
75721449,0.202473,0.139146,-1.61283,-0.339286,0.200114,0.715012,2.00036,-0.0763318,-0.0559539,-0.0749894,-0.10368,-0.169071,0.0178824,0.0880447,0.11468,0.12753,0.0932513,4.51006e-05,0.120163,0.74979,0.129956,4.60303e-05
75920169,0.192936,0.138365,-1.61803,-0.346555,0.191243,0.705186,1.9901,0.244065,0.0516694,-0.0355909,-0.0879112,-0.0245338,-0.0989576,-0.00234079,-0.0434172,-0.119111,-0.32712,4.34581e-05,0.120357,0.750822,0.128735,4.33861e-05
76128831,0.178274,0.136889,-1.63578,-0.362531,0.174093,0.68641,1.96697,0.423611,-0.00396293,-0.161301,-0.233866,-0.0186066,0.24595,0.356841,0.237281,0.0632041,-0.32769,3.97091e-05,0.117411,0.751818,0.130689,4.28146e-05
76322469,0.162483,0.133416,-1.63029,-0.367627,0.163055,0.671254,1.95295,0.494043,-0.0785758,-0.256097,-0.314022,0.0385743,0.105815,0.161909,-0.0232642,-0.26086,-0.719531,3.57915e-05,0.120303,0.755632,0.123996,3.31191e-05
76521154,0.162911,0.129656,-1.62409,-0.364908,0.161203,0.661696,1.93598,0.621689,0.11431,-0.020034,-0.0455165,0.314216,0.298016,0.279601,0.0985279,-0.115605,-0.483285,2.75425e-05,0.115529,0.760066,0.12435,2.76884e-05
76724804,0.157542,0.128169,-1.62827,-0.369507,0.15465,0.6529,1.9237,0.324785,-0.0502286,-0.127219,-0.121071,0.18685,0.31012,0.232879,0.0830622,-0.077696,-0.31054,2.48934e-05,0.113544,0.761628,0.124777,2.60634e-05
76923488,0.148509,0.12751,-1.64093,-0.380194,0.14347,0.640526,1.90766,0.168286,-0.0679914,-0.0977077,-0.0716888,0.162318,0.363636,0.260459,0.151382,0.046714,-0.0648414,2.31367e-05,0.111044,0.762215,0.126691,2.61102e-05
77122173,0.142969,0.126679,-1.64836,-0.386506,0.136057,0.631395,1.89449,0.0460979,-0.0881696,-0.0618149,0.004776,0.232449,0.420814,0.236262,0.139719,0.0716621,0.0910217,2.11743e-05,0.108639,0.763144,0.12817,2.55577e-05
77325823,0.141954,0.125818,-1.6519,-0.387663,0.132654,0.627608,1.88487,-0.102726,-0.208302,-0.149451,-0.0515093,0.211639,0.418528,0.161637,0.0552316,-0.00599901,0.0813742,1.93297e-05,0.106039,0.763943,0.129973,2.5199e-05
77524507,0.146608,0.124892,-1.65041,-0.384306,0.134855,0.628011,1.88041,0.0244567,-0.151353,-0.125658,-0.0496804,0.227247,0.459146,0.242846,0.124083,0.0372482,0.0436129,1.74465e-05,0.10311,0.764702,0.132146,2.48991e-05
77723197,0.156382,0.123303,-1.63753,-0.372677,0.143753,0.634123,1.88243,0.311221,-0.00708884,-0.0408094,0.000138342,0.320859,0.356648,0.20086,0.0508989,-0.0890859,-0.230888,1.54183e-05,0.101248,0.766532,0.132182,2.28771e-05
77921876,0.160843,0.121775,-1.63644,-0.369407,0.145225,0.633302,1.87549,0.348883,-0.0837053,-0.173675,-0.171692,0.162924,0.428988,0.347193,0.179747,-0.000455678,-0.278726,1.34258e-05,0.0976656,0.76744,0.134859,2.23645e-05
78125527,0.168531,0.119882,-1.62404,-0.360766,0.15278,0.635854,1.87594,0.434651,0.0220082,-0.0703354,-0.0770398,0.223076,0.266668,0.209316,0.0558616,-0.113442,-0.392276,1.16587e-05,0.0959426,0.769604,0.134421,2.00604e-05
78324211,0.163787,0.118351,-1.62534,-0.361937,0.147021,0.629361,1.86374,0.385275,-0.0194942,-0.111222,-0.120146,0.168458,0.274764,0.221991,0.0733641,-0.0915497,-0.369713,1.03849e-05,0.0944141,0.771234,0.134323,1.84828e-05
78522916,0.160551,0.116377,-1.62129,-0.361353,0.143982,0.622943,1.85373,0.494336,0.0621982,-0.0735085,-0.128959,0.0890871,0.116549,0.173921,0.0467768,-0.119831,-0.488243,9.03292e-06,0.093297,0.773692,0.132986,1.61876e-05
78721580,0.154812,0.114093,-1.61923,-0.362972,0.138191,0.613205,1.83935,0.551199,0.0780659,-0.0800834,-0.153438,0.0581667,0.111681,0.203954,0.0738969,-0.10495,-0.528556,7.62444e-06,0.0917489,0.776457,0.131773,1.39313e-05
78920266,0.158345,0.111472,-1.6108,-0.358418,0.140135,0.607835,1.82745,0.69567,0.250434,0.0944575,0.0154744,0.19164,0.0739145,0.183638,0.068687,-0.0962345,-0.510659,5.84284e-06,0.0879045,0.779473,0.132605,1.19131e-05
79119112,0.155703,0.110619,-1.61135,-0.359911,0.13738,0.603931,1.82206,0.361413,0.0206245,-0.115781,-0.198116,-0.112455,0.0780897,0.217101,0.145065,0.0253446,-0.324416,5.51722e-06,0.0873381,0.780299,0.132346,1.13742e-05
79322599,0.15368,0.110337,-1.61124,-0.36094,0.13595,0.602367,1.82095,0.148321,0.0761984,-0.0220017,-0.122931,-0.275197,-0.104889,0.140014,0.182677,0.175862,-0.0224433,5.52145e-06,0.0877917,0.780681,0.13151,1.11111e-05
79526252,0.136261,0.109586,-1.61975,-0.374313,0.12144,0.587602,1.80884,0.00410944,0.222992,0.166892,0.0469457,-0.360225,-0.232158,0.125028,0.291065,0.406081,0.373707,5.71531e-06,0.0903022,0.78195,0.127732,1.01831e-05
79724968,0.100862,0.106614,-1.63734,-0.399668,0.0875243,0.549912,1.76353,-0.30316,0.0428825,0.00520205,-0.123452,-0.645903,-0.553008,-0.145027,0.075747,0.245052,0.285738,4.60982e-06,0.089944,0.786458,0.123586,7.7597e-06
79923767,0.105641,0.105602,-1.61111,-0.385239,0.0985175,0.559932,1.77868,-0.413408,-0.3087,-0.369345,-0.468048,-0.753986,-0.0682252,0.212772,0.321925,0.388022,0.314764,4.79576e-06,0.0954257,0.789246,0.115317,6.11743e-06
80122304,0.115169,0.103854,-1.58861,-0.369424,0.11012,0.568721,1.78591,0.414984,0.0420563,-0.131937,-0.255722,-0.237102,-0.17849,0.0504414,-0.00360528,-0.124721,-0.561162,4.3346e-06,0.0964499,0.791873,0.111668,5.03228e-06
80320988,0.0869911,0.0987653,-1.61044,-0.393975,0.0765402,0.525282,1.72237,0.989827,0.189212,-0.0779511,-0.21536,0.0961495,0.338454,0.491707,0.285242,-0.00569525,-0.758814,2.4904e-06,0.0874955,0.797483,0.115015,3.84786e-06
80519672,0.0472653,0.0915185,-1.61265,-0.416038,0.0385336,0.472332,1.65192,1.08725,0.116878,-0.159862,-0.275414,0.187841,0.293938,0.338967,0.0562114,-0.301382,-1.14022,1.27474e-06,0.0839925,0.807876,0.108128,1.89598e-06
80718454,0.0169605,0.0867038,-1.60561,-0.432187,0.0137433,0.433783,1.61132,0.827182,0.0190685,-0.166631,-0.216833,0.261821,0.255337,0.144296,-0.123079,-0.42844,-1.07502,8.72654e-07,0.0858291,0.815639,0.0985305,9.94271e-07
80922008,0.00586856,0.0846958,-1.60696,-0.438582,0.00268698,0.417967,1.58955,0.519543,0.0117343,-0.0693764,-0.0612137,0.339044,0.408619,0.212438,0.0137133,-0.190584,-0.554498,6.90035e-07,0.0842904,0.818721,0.0969867,7.91645e-07
81125659,0.005811,0.0845228,-1.60464,-0.437563,0.00352024,0.419081,1.59265,0.0577946,-0.204993,-0.243125,-0.235911,-0.0217193,0.149951,0.0353931,-0.0699737,-0.175955,-0.362136,7.05164e-07,0.0852979,0.818916,0.0957847,7.62376e-07
81319376,0.00224628,0.0843753,-1.60761,-0.440924,-0.000154244,0.414759,1.58675,-0.111038,-0.0680515,-0.028798,0.00879312,0.0718739,0.256148,0.162086,0.148554,0.152998,0.23249,6.84404e-07,0.0849644,0.819253,0.0957808,7.47295e-07
81518126,0.000580179,0.0839792,-1.60826,-0.439927,-0.00363271,0.413904,1.57646,-0.547818,-0.374151,-0.306088,-0.260722,-0.275446,0.099085,0.0286593,0.0584371,0.111921,0.298282,6.0935e-07,0.0830437,0.820193,0.0967618,7.20593e-07
81726684,-0.0486328,0.0837016,-1.65516,-0.488126,-0.0527713,0.36382,1.52469,-0.233013,-0.10323,-0.0444511,-0.00100353,0.0128571,0.178599,0.0985743,0.113229,0.149754,0.300459,5.86278e-07,0.0828494,0.820738,0.0964115,6.91475e-07
81925363,-0.230367,0.0834419,-1.8343,-0.668435,-0.234046,0.181222,1.34129,-0.120447,-0.0498336,-0.0173452,0.00636983,0.0141827,0.426251,0.381564,0.389283,0.409336,0.491355,5.7255e-07,0.0830782,0.821281,0.0956396,6.58543e-07
82124048,-0.452706,0.0833301,-2.05604,-0.89058,-0.456243,-0.042116,1.118,-0.187634,-0.161099,-0.148932,-0.140835,-0.140066,0.360625,0.344835,0.348136,0.356292,0.386086,5.65837e-07,0.0830314,0.821485,0.0954828,6.4957e-07
82322859,-0.658206,0.0832985,-2.26144,-1.09633,-0.661626,-0.24841,0.912421,-0.089951,-0.0814989,-0.077503,-0.0755412,-0.0770272,0.145065,0.14047,0.141775,0.144937,0.153647,5.64911e-07,0.0830227,0.821522,0.0954545,6.48354e-07
82521454,-0.761251,0.0832701,-2.36447,-1.19963,-0.76469,-0.352018,0.808838,-0.0669327,-0.054158,-0.0342394,-0.0134217,0.0301575,0.122785,0.0664344,0.0546445,0.0526103,0.0875935,5.60245e-07,0.0828874,0.821589,0.0955218,6.46774e-07
82725068,-0.788323,0.0831889,-2.39104,-1.22656,-0.79178,-0.379537,0.78072,-0.0514125,-0.0275569,0.00493672,0.0390199,0.108358,0.18142,0.091522,0.0735611,0.071048,0.130499,5.51275e-07,0.0827431,0.821777,0.095479,6.38642e-07
82923752,-0.775154,0.0834402,-2.37863,-1.21728,-0.779387,-0.3653,0.789721,-0.346985,-0.264753,-0.210109,-0.161004,-0.0963342,0.218645,0.106918,0.0992764,0.114378,0.235792,5.18228e-07,0.0815511,0.822148,0.0963002,6.35057e-07
83122466,-0.759759,0.0826789,-2.36027,-1.19717,-0.763909,-0.353255,0.802696,-0.188164,-0.0678057,0.00156301,0.0608241,0.123701,0.235359,0.108259,0.107028,0.133402,0.295343,4.96689e-07,0.0814007,0.822758,0.0958397,6.04629e-07
83321123,-0.861862,0.0822175,-2.45973,-1.29864,-0.866422,-0.457706,0.695075,-0.395213,-0.256858,-0.188314,-0.133749,-0.0956387,0.325017,0.21782,0.227016,0.262055,0.431622,4.52056e-07,0.0803331,0.823699,0.0959672,5.70521e-07
83519805,-1.0904,0.0820083,-2.68688,-1.52754,-1.09504,-0.687705,0.463959,-0.243045,-0.137566,-0.078894,-0.0294329,0.0206165,0.209394,0.104901,0.105566,0.129223,0.267515,4.31707e-07,0.0798328,0.82416,0.0960064,5.54027e-07
83718489,-1.35336,0.0818571,-2.94995,-1.79178,-1.35861,-0.952229,0.197005,-0.276332,-0.215687,-0.162691,-0.110715,-0.0207901,0.306005,0.178024,0.159702,0.164563,0.271864,4.05089e-07,0.0787433,0.824548,0.0967081,5.47539e-07
83927128,-1.62114,0.0816652,3.06761,-2.05973,-1.62653,-1.22076,-0.0744274,-0.208549,-0.129229,-0.0776187,-0.0312203,0.030913,0.408619,0.30329,0.296386,0.310584,0.425015,3.80682e-07,0.0781823,0.825219,0.0965973,5.22587e-07
84120825,-1.82831,0.081612,2.86025,-2.2675,-1.83418,-1.42816,-0.284231,-0.198712,-0.15411,-0.105613,-0.0557159,0.0414433,0.222123,0.0938971,0.0710253,0.070052,0.162103,3.66192e-07,0.0775193,0.825434,0.0970455,5.19371e-07
84319510,-2.00094,0.0815301,2.68644,-2.4408,-2.00765,-1.60138,-0.460398,-0.284961,-0.235313,-0.181135,-0.12525,-0.0159621,0.217389,0.0736545,0.0479113,0.0465895,0.149245,3.48312e-07,0.0764699,0.825567,0.097962,5.22936e-07
84523161,-2.16728,0.0812557,2.52068,-2.60679,-2.17477,-1.7689,-0.631812,-0.202943,-0.158057,-0.100003,-0.0383443,0.0896384,0.40041,0.238049,0.205898,0.200456,0.305977,3.21722e-07,0.0753293,0.826084,0.0985854,5.09578e-07
84721906,-2.29209,0.08099,2.39708,-2.73083,-2.30003,-1.89466,-0.760504,-0.059044,-0.0503099,-0.00247496,0.0541156,0.195591,0.387971,0.226499,0.184654,0.166784,0.238663,3.01937e-07,0.0745875,0.826592,0.0988197,4.93474e-07
84925497,-2.31143,0.0809497,2.37743,-2.75054,-2.3195,-1.91387,-0.780273,-0.0430397,-0.173672,-0.167717,-0.133886,0.0490108,0.198637,0.0510803,-0.0252056,-0.089121,-0.149013,2.99939e-07,0.0744303,0.826598,0.0989711,4.94554e-07
85124184,-2.28642,0.0798872,2.40201,-2.72585,-2.29584,-1.89187,-0.762594,0.371173,-0.194282,-0.322778,-0.36462,-0.0669058,0.506945,0.417956,0.238496,0.0332753,-0.441839,2.65032e-07,0.0724711,0.827068,0.10046,4.84805e-07
85322865,-2.24955,0.0771974,2.44272,-2.68779,-2.26197,-1.86352,-0.747394,0.726055,-0.109289,-0.316045,-0.399293,-0.020239,0.65201,0.582746,0.335565,0.0418118,-0.683664,1.79586e-07,0.0675278,0.829019,0.103453,4.24901e-07
85521550,-2.22598,0.0724504,2.5048,-2.64837,-2.23588,-1.84969,-0.749896,1.03735,0.0878495,-0.145709,-0.241695,0.171126,0.342504,0.263266,-0.014292,-0.343454,-1.16825,9.86305e-08,0.0662788,0.837208,0.0965125,2.09904e-07
85720234,-2.20263,0.0695262,2.54798,-2.61677,-2.21213,-1.83354,-0.745229,0.814248,0.00962403,-0.175173,-0.246415,0.121422,0.444531,0.32362,0.0809407,-0.199027,-0.898816,6.4576e-08,0.0643526,0.841713,0.0939341,1.40209e-07
85928853,-2.18448,0.0672302,2.57788,-2.58731,-2.19407,-1.82229,-0.738599,0.640102,0.0103428,-0.110004,-0.13893,0.219932,0.44703,0.258524,0.046485,-0.182811,-0.709694,4.75464e-08,0.0628529,0.844732,0.0924146,1.06363e-07
86117795,-2.1736,0.06551,2.59966,-2.57164,-2.18361,-1.81704,-0.742861,0.572145,0.0203339,-0.0511112,-0.0364124,0.392115,0.578724,0.280776,0.0609725,-0.157633,-0.586575,3.39571e-08,0.060744,0.847493,0.091763,8.2712e-08
86321258,-2.17172,0.0635137,2.61459,-2.56405,-2.18247,-1.82263,-0.761319,0.49648,0.0102858,-0.00316146,0.0690518,0.620709,0.79119,0.332614,0.0877044,-0.132665,-0.463659,2.18554e-08,0.0578705,0.850726,0.0914029,6.12341e-08
86519941,-2.25346,0.0619419,2.55531,-2.64274,-2.26206,-1.9063,-0.856309,0.382504,-0.0529008,-0.0346713,0.0651861,0.666233,0.642774,0.10628,-0.144534,-0.359362,-0.635256,1.66863e-08,0.0584036,0.854838,0.086758,4.02389e-08
86718627,-2.45333,0.0601075,2.37155,-2.8351,-2.4624,-2.1129,-1.07761,0.487073,0.124907,0.152222,0.249129,0.799271,0.842401,0.338466,0.115777,-0.0719513,-0.301128,1.05297e-08,0.0559457,0.858306,0.0857483,2.83755e-08
86917461,-2.67277,0.0587614,2.16637,-3.04741,-2.68164,-2.33705,-1.3115,0.51512,0.213438,0.233866,0.30992,0.757044,0.663713,0.246782,0.0642624,-0.0905581,-0.294101,7.59147e-09,0.0548018,0.861141,0.0840572,2.09377e-08
87120960,-2.76513,0.0579166,2.08212,-3.13564,-2.77412,-2.4332,-1.41446,0.376848,0.169828,0.19832,0.267027,0.629871,0.614482,0.26365,0.122328,0.00635195,-0.128905,5.99427e-09,0.053699,0.862822,0.0834787,1.74504e-08
87324611,-2.78037,0.0568935,2.07237,3.13607,-2.78889,-2.45688,-1.43556,0.309224,0.111419,0.139504,0.205643,0.555903,0.556295,0.214445,0.0784291,-0.0331614,-0.165988,4.94573e-09,0.0529044,0.864246,0.08285,1.49041e-08
87528263,-2.78164,0.0564002,2.08441,3.13877,-2.7896,-2.45472,-1.44458,0.385217,0.074448,0.0704514,0.115651,0.474983,0.375868,0.0406468,-0.118551,-0.2612,-0.506004,4.31764e-09,0.0533483,0.866221,0.0804307,1.17869e-08
87727118,-2.73559,0.0551194,2.13692,-3.09566,-2.74597,-2.41722,-1.42245,0.839436,0.308278,0.220966,0.199705,0.489634,0.685505,0.454222,0.274232,0.0863401,-0.389031,2.53018e-09,0.0488447,0.867429,0.0837267,1.03154e-08
87925631,-2.6634,0.053631,2.2194,-3.01985,-2.67535,-2.3525,-1.37179,0.916926,0.218582,0.050392,-0.0452663,0.0958094,0.445085,0.378468,0.208188,0.00453693,-0.65091,1.52534e-09,0.0454452,0.868786,0.0857688,8.49546e-09
88124316,-2.59003,0.0521406,2.305,-2.94213,-2.60335,-2.28684,-1.32093,1.00434,0.301397,0.115424,-0.00354141,0.0489066,0.296319,0.308099,0.160465,-0.02749,-0.693853,8.90238e-10,0.042253,0.870132,0.0876151,6.79629e-09
88323000,-2.5471,0.0510701,2.36022,-2.89473,-2.56087,-2.24947,-1.29414,0.89502,0.330352,0.177297,0.0749303,0.0822752,0.0712823,0.102411,-0.00785437,-0.15156,-0.686561,6.00287e-10,0.0404686,0.871609,0.0879228,5.42775e-09
88521844,-2.52413,0.0504032,2.38844,-2.86958,-2.53888,-2.23103,-1.28426,0.822788,0.355336,0.222976,0.12965,0.0983058,0.106032,0.161128,0.0793713,-0.0321639,-0.476212,4.34182e-10,0.0385351,0.871778,0.0896865,4.95491e-09
88720369,-2.50854,0.0500396,2.40661,-2.85285,-2.52391,-2.21805,-1.27612,0.631256,0.276165,0.171138,0.0936305,0.0411533,0.0560144,0.122428,0.0677189,-0.0112276,-0.348351,3.5938e-10,0.0374132,0.871735,0.090852,4.73622e-09
88919054,-2.49253,0.0497874,2.42299,-2.83632,-2.50887,-2.20495,-1.26834,0.713053,0.421351,0.333253,0.266787,0.211052,0.0514819,0.116704,0.0749818,0.0127294,-0.263823,2.93072e-10,0.0359809,0.871089,0.09293,4.74076e-09
89122705,-2.48818,0.0493687,2.42306,-2.82887,-2.50475,-2.20594,-1.26253,0.448496,0.195151,0.125416,0.0756052,0.053132,0.17758,0.204242,0.160492,0.101909,-0.135662,2.65343e-10,0.035256,0.870632,0.0941124,4.78922e-09
89321473,-2.4894,0.0496271,2.42478,-2.83327,-2.5066,-2.2039,-1.27124,0.343405,0.172097,0.128164,0.0978372,0.0933115,0.159268,0.163483,0.130587,0.0891203,-0.0711473,2.50635e-10,0.0348292,0.870313,0.0948581,4.83685e-09
89525050,-2.46868,0.0496198,2.44317,-2.81314,-2.48654,-2.18441,-1.25396,0.519172,0.372948,0.329451,0.296114,0.26493,0.21086,0.243659,0.223181,0.19291,0.0551643,2.31074e-10,0.034084,0.869498,0.0964177,5.04908e-09
89723727,-2.44152,0.0496285,2.46692,-2.78694,-2.46027,-2.1587,-1.23068,0.623676,0.482227,0.429456,0.384293,0.307303,0.139236,0.222564,0.215977,0.195449,0.0610235,2.10536e-10,0.0331512,0.868291,0.0985574,5.40005e-09
89922407,-2.41794,0.0495508,2.48847,-2.76383,-2.43772,-2.13724,-1.21296,0.674446,0.486245,0.412446,0.348722,0.23353,-0.0565252,0.0712885,0.0665111,0.0416328,-0.136046,1.81614e-10,0.0319787,0.866983,0.101038,5.68172e-09
90121139,-2.40448,0.0494933,2.50031,-2.75093,-2.42464,-2.12425,-1.20074,0.368232,0.157065,0.0713872,-0.0033133,-0.144812,0.124401,0.282571,0.280822,0.255346,0.0572803,1.75294e-10,0.0316187,0.866421,0.10196,5.85664e-09
90324746,-2.4041,0.0494468,2.49874,-2.75111,-2.42489,-2.12479,-1.20296,0.461454,0.3286,0.252319,0.177905,-0.0100272,-0.0757175,0.13212,0.158752,0.161107,0.0326893,1.63739e-10,0.0309928,0.865495,0.103512,6.12199e-09
90523430,-2.40307,0.0493776,2.4971,-2.7509,-2.42469,-2.12489,-1.20496,0.461036,0.421247,0.350276,0.269132,0.000880301,-0.26155,0.0334402,0.100901,0.140967,0.0942586,1.51445e-10,0.0302244,0.864225,0.10555,6.51725e-09
90722113,-2.40092,0.0491508,2.49838,-2.74897,-2.42334,-2.12432,-1.2074,0.295759,0.39198,0.336232,0.254292,-0.0981632,-0.493827,-0.107884,0.00987248,0.0987806,0.171778,1.35109e-10,0.0293807,0.863077,0.107542,6.76316e-09
90920817,-2.39729,0.0487596,2.50329,-2.74487,-2.42039,-2.12268,-1.20995,0.141759,0.352325,0.316317,0.242202,-0.150173,-0.607989,-0.178796,-0.0274029,0.0968387,0.271685,1.16254e-10,0.0285237,0.862206,0.10927,6.77353e-09
91124501,-2.39247,0.0482522,2.51233,-2.7386,-2.41576,-2.11972,-1.21129,0.0102674,0.276512,0.254356,0.189379,-0.202938,-0.58902,-0.158465,0.00397327,0.141875,0.367776,1.00501e-10,0.027986,0.862239,0.109775,6.39683e-09
91323137,-2.38392,0.0477846,2.52532,-2.72858,-2.40686,-2.1119,-1.2055,0.0303655,0.311017,0.298286,0.242913,-0.123575,-0.458114,-0.0540316,0.104161,0.24098,0.482496,9.4982e-11,0.0280124,0.863071,0.108916,5.93222e-09
91521820,-2.36872,0.0473924,2.54253,-2.71274,-2.39158,-2.09728,-1.19219,0.0728437,0.397203,0.401909,0.361552,0.0227448,-0.483018,-0.109293,0.0497358,0.192208,0.475021,9.14011e-11,0.0279354,0.863316,0.108749,5.74695e-09
91720504,-2.34854,0.0469518,2.56607,-2.69149,-2.37102,-2.07745,-1.17333,-0.000540376,0.378431,0.403652,0.38051,0.0715912,-0.453734,-0.113036,0.0483053,0.198521,0.531286,8.95789e-11,0.028093,0.864109,0.107798,5.40133e-09
91924164,-2.32581,0.0464224,2.59534,-2.66664,-2.34732,-2.0548,-1.15149,-0.0928401,0.311891,0.348446,0.335476,0.0477964,-0.364191,-0.0465128,0.11397,0.266597,0.623868,8.94501e-11,0.0286642,0.866001,0.105335,4.74064e-09
92122841,-2.31244,0.0458072,2.62004,-2.64953,-2.33208,-2.04097,-1.13813,-0.204547,0.193082,0.233817,0.226966,-0.0353411,-0.171721,0.118702,0.270759,0.417171,0.770714,9.24473e-11,0.02993,0.869474,0.100596,3.74191e-09
92321525,-2.3079,0.0454185,2.63019,-2.64314,-2.32667,-2.0363,-1.13388,-0.0974272,0.254824,0.290029,0.282879,0.0444044,-0.272118,-0.0072282,0.129351,0.260701,0.577522,9.34383e-11,0.0305409,0.871083,0.0983765,3.32278e-09
92520212,-2.28659,0.0448942,2.65108,-2.6159,-2.30458,-2.01726,-1.10518,-0.0362776,0.288961,0.322332,0.316791,0.0995858,-0.264546,-0.0227601,0.102584,0.223514,0.517725,9.56547e-11,0.0310624,0.872232,0.0967056,3.05829e-09
92723913,-2.23742,0.0449103,2.70677,-2.57079,-2.25511,-1.96583,-1.06334,-0.0334081,0.236228,0.260199,0.251072,0.0535407,-0.259869,-0.0401517,0.068705,0.172424,0.417381,9.59107e-11,0.031327,0.872902,0.0957714,2.89969e-09
92922549,-2.19661,0.0448217,2.74848,-2.52974,-2.21402,-1.92496,-1.02187,0.0724024,0.222938,0.222268,0.199969,0.0254707,-0.140311,0.0528541,0.131708,0.20195,0.339482,9.80431e-11,0.0315719,0.873302,0.0951263,2.82848e-09
93126198,-2.17656,0.0447705,2.76861,-2.50969,-2.19388,-1.9049,-1.00153,0.101447,0.234846,0.232998,0.211686,0.051106,-0.176509,0.00104216,0.0725853,0.135989,0.258058,9.89706e-11,0.0316466,0.873399,0.0949546,2.81483e-09
93324882,-2.17293,0.0447544,2.77138,-2.50633,-2.19035,-1.90126,-0.997707,0.177395,0.290585,0.28374,0.259222,0.099048,-0.205922,-0.0290082,0.0384413,0.0968151,0.200598,9.93619e-11,0.031586,0.873214,0.0951998,2.86082e-09
93523568,-2.17286,0.0446823,2.77181,-2.50613,-2.19021,-1.90116,-0.9976,0.118229,0.235066,0.220139,0.185336,-0.0149633,-0.198883,0.0224673,0.102,0.168908,0.276236,9.96484e-11,0.0316406,0.873341,0.0950179,2.83539e-09
93717284,-2.16989,0.0445485,2.77491,-2.5031,-2.18738,-1.8986,-0.99588,0.137047,0.293179,0.27483,0.230393,-0.0294139,-0.349838,-0.0622751,0.041866,0.129773,0.273365,9.6413e-11,0.0314318,0.873205,0.0953636,2.83741e-09
93925905,-2.14706,0.044421,2.79705,-2.48051,-2.16449,-1.87561,-0.972083,0.251401,0.428734,0.410501,0.363295,0.0805495,-0.278928,0.0347143,0.149587,0.247078,0.41027,9.89195e-11,0.0315265,0.873214,0.0952599,2.861e-09
94124587,-2.11219,0.0441637,2.83498,-2.44461,-2.12915,-1.84095,-0.937673,0.0153725,0.24316,0.239305,0.202474,-0.0723309,-0.29044,0.014824,0.13741,0.245704,0.454339,9.85836e-11,0.0318294,0.874046,0.0941243,2.67097e-09
94323273,-2.06786,0.043901,2.88238,-2.39923,-2.08453,-1.79729,-0.895021,-0.0587257,0.186822,0.191881,0.163398,-0.0917763,-0.336439,-0.0523905,0.0681995,0.177205,0.40271,9.49255e-11,0.0319147,0.87469,0.0933952,2.50162e-09
94521956,-2.01157,0.0437071,2.94026,-2.34235,-2.02802,-1.74145,-0.839302,0.00852382,0.242491,0.250676,0.227671,-0.000415146,-0.305299,-0.0506017,0.0601219,0.161213,0.3768,9.36694e-11,0.0320124,0.875092,0.0928954,2.40756e-09
94720816,-1.95242,0.0435099,3.00171,-2.28232,-1.96847,-1.68261,-0.780281,-0.0390987,0.206604,0.224136,0.210876,0.0117934,-0.241551,-0.0182712,0.0866249,0.185082,0.411373,9.36355e-11,0.0322789,0.87575,0.0919707,2.27514e-09
94924294,-1.90931,0.0433322,3.04436,-2.23322,-1.92536,-1.63816,-0.730869,-0.0254467,0.212721,0.236399,0.231684,0.0687713,-0.209682,-0.0261098,0.0671096,0.156846,0.376291,9.44494e-11,0.0325378,0.876275,0.0911873,2.17841e-09
95122977,-1.8829,0.043238,3.07248,-2.20632,-1.89882,-1.61181,-0.705364,-0.110145,0.0993191,0.124736,0.126166,0.00349373,-0.196472,-0.0576247,0.0185504,0.0935573,0.286533,9.2809e-11,0.0325948,0.876593,0.0908119,2.1064e-09
95316695,-1.88787,0.0431682,3.07101,-2.216,-1.90307,-1.61821,-0.715472,0.00283736,0.203091,0.225741,0.225129,0.100412,-0.111238,0.0299733,0.104935,0.178107,0.363016,9.52579e-11,0.0329482,0.877132,0.0899198,2.02293e-09
95525487,-1.93141,0.043143,3.02722,-2.25974,-1.94681,-1.66178,-0.759927,0.0245753,0.19828,0.212103,0.20446,0.0693672,-0.303443,-0.151524,-0.0789077,-0.010214,0.151027,9.32278e-11,0.0327535,0.876918,0.0903286,2.04705e-09
95723999,-1.98286,0.0430552,2.97797,-2.31056,-1.99772,-1.71234,-0.809867,0.0621948,0.261434,0.275878,0.265443,0.104465,-0.0729025,0.108239,0.193264,0.2732,0.458206,9.84344e-11,0.033349,0.877698,0.088953,1.93888e-09
95922682,-2.02502,0.0428959,2.93422,-2.34686,-2.03986,-1.75376,-0.844865,-0.00246254,0.192754,0.215856,0.216497,0.0990648,-0.132621,0.000374645,0.0722924,0.142905,0.323746,1.00218e-10,0.0336154,0.878094,0.088291,1.87831e-09
96121386,-2.04609,0.04283,2.91403,-2.36762,-2.06078,-1.77496,-0.866034,-0.0809978,0.123019,0.159804,0.175883,0.110865,-0.146448,-0.0706057,-0.0117135,0.0509892,0.238976,1.00123e-10,0.0337198,0.878321,0.0879594,1.83715e-09
96320149,-2.04355,0.042766,2.91851,-2.36443,-2.05788,-1.77219,-0.863077,-0.05512,0.133069,0.177197,0.204463,0.191203,0.0272454,0.0462147,0.0873779,0.136222,0.308681,1.02011e-10,0.0340746,0.878869,0.0870567,1.75275e-09
