timestamp,timestamp_sample,control[0],control[1],control[2],control[3],control[4],control[5],control[6],control[7]
29923682,29923437,-0.00372485,-0.0192056,0.00805962,0.0,0.0,0.0,0.0,-1.0
29924928,29924681,-0.00297333,-0.021154,0.00819198,0.0,0.0,0.0,0.0,-1.0
30025387,30025139,-0.0197237,-0.0297439,0.00338851,0.0,0.0,0.0,0.0,-1.0
30125970,30125721,0.0126481,-0.0160333,0.00655699,0.0,0.0,0.0,0.0,-1.0
30224109,30223859,0.0125976,6.31694e-05,0.00127807,0.0,0.0,0.0,0.0,-1.0
30325878,30325634,-0.00675586,0.00481704,-0.00330997,0.0,0.0,0.0,0.0,-1.0
30427698,30427453,-0.0288172,-0.0348294,-0.00792927,0.0,0.0,0.0,0.0,-1.0
30525800,30525549,-0.0292751,0.00100396,0.00799757,0.0,0.0,0.0,0.0,-1.0
30626373,30626128,0.0718326,0.00926373,-0.00614466,0.0,0.0,0.0,0.0,-1.0
30724491,30724250,-0.0442581,-0.0811181,-0.00153786,0.0,0.0,0.0,0.0,-1.0
30826296,30826047,-0.0775112,0.0156962,0.0033963,0.0,0.0,0.0,0.0,-1.0
30924406,30924157,0.00648678,0.0816116,-7.56276e-05,0.0,0.0,0.0,0.0,-1.0
31026383,31026140,0.0355864,0.017074,0.00228538,0.0,0.0,0.0,0.0,-1.0
31128037,31127779,0.0331223,0.0172422,-0.00235508,0.0,0.0,0.0,0.0,-1.0
31224875,31224634,0.011576,-0.0942524,-0.00798594,0.0,0.0,0.0,0.0,-1.0
31326701,31326453,-0.0339532,-0.139632,0.00400941,0.0,0.0,0.0,0.0,-1.0
31424789,31424548,-0.0641557,-0.0106816,0.00908311,0.0,0.0,0.0,0.0,-1.0
31526660,31526410,0.00255393,0.0193771,0.00398698,0.0,0.0,0.0,0.0,-1.0
31624707,31624463,0.0263302,-0.0601828,0.00078174,0.0,0.0,0.0,0.0,-1.0
31726536,31726284,0.00999998,-0.0485709,-0.00209704,0.0,0.0,0.0,0.0,-1.0
31823519,31823269,0.000590051,-0.0802265,-0.00630481,0.0,0.0,0.0,0.0,-1.0
31925204,31924958,-0.058263,-0.0487335,0.00554119,0.0,0.0,0.0,0.0,-1.0
32027065,32026818,-0.0789438,0.0122001,0.0118046,0.0,0.0,0.0,0.0,-1.0
32125119,32124873,0.0803009,0.0925679,-0.000324977,0.0,0.0,0.0,0.0,-1.0
32226952,32226696,0.0650398,0.0175674,0.00480305,0.0,0.0,0.0,0.0,-1.0
32323792,32323547,-0.026954,-0.0104281,-0.0073907,0.0,0.0,0.0,0.0,-1.0
32425664,32425418,-0.000928809,-0.0298044,-0.00631302,0.0,0.0,0.0,0.0,-1.0
32523708,32523463,-0.0620045,0.00306445,0.00638124,0.0,0.0,0.0,0.0,-1.0
32625633,32625392,-0.00414042,0.108014,0.00263284,0.0,0.0,0.0,0.0,-1.0
32727351,32727104,0.0857524,0.118202,-0.00332798,0.0,0.0,0.0,0.0,-1.0
32825444,32825199,0.0402123,0.00152194,-0.00126871,0.0,0.0,0.0,0.0,-1.0
32926034,32925778,-0.0107174,-0.00462997,-0.00589698,0.0,0.0,0.0,0.0,-1.0
33024120,33023873,-0.021764,-0.0361002,-0.00969916,0.0,0.0,0.0,0.0,-1.0
33125984,33125734,-0.0533078,-0.0265806,-0.00177522,0.0,0.0,0.0,0.0,-1.0
33224045,33223789,-0.0104014,0.073154,6.59886e-05,0.0,0.0,0.0,0.0,-1.0
33325866,33325609,0.0675166,0.0762173,0.00343031,0.0,0.0,0.0,0.0,-1.0
33426509,33426266,0.0143964,0.00325443,0.00336597,0.0,0.0,0.0,0.0,-1.0
33524529,33524284,-0.0287015,-0.0360865,-0.00778998,0.0,0.0,0.0,0.0,-1.0
33626350,33626104,-0.00920825,-0.0596067,-0.0114504,0.0,0.0,0.0,0.0,-1.0
33724448,33724203,-0.0531959,-0.0285354,0.00316154,0.0,0.0,0.0,0.0,-1.0
33826264,33826020,-0.0414763,0.0622828,0.00253997,0.0,0.0,0.0,0.0,-1.0
33924362,33924115,0.0526549,0.0240338,0.0024718,0.0,0.0,0.0,0.0,-1.0
34024946,34024697,-0.0220954,-0.0595895,-0.00163976,0.0137332,0.0,0.0,0.0,-1.0
34126757,34126515,0.00920038,0.0163267,-0.0058449,0.0224725,0.0,0.0,0.0,-1.0
34224937,34224692,0.0340631,-0.0337292,-0.0199565,0.0262179,0.0,0.0,0.0,-1.0
34326678,34326430,0.0516925,0.0509768,-0.0150506,0.0461934,0.0,0.0,0.0,-1.0
34424782,34424526,0.0492105,-0.143383,0.00632405,0.0699143,0.0,0.0,0.0,-1.0
34525540,34525294,-0.0389035,0.259757,-0.0105543,0.0774051,0.0,0.0,0.0,-1.0
34627170,34626925,-0.119906,-0.191863,0.0029697,0.0761567,0.0,0.0,0.0,-1.0
34725274,34725023,0.152204,-0.153769,0.00252788,0.0774051,0.0,0.0,0.0,-1.0
34827114,34826872,0.0744475,-0.0623126,0.0053985,0.0774051,0.0,0.0,0.0,-1.0
34925182,34924937,-0.11621,0.0122861,-0.00422544,0.0761567,0.0,0.0,0.0,-1.0
35027077,35026824,-0.139362,-0.0259678,-0.0196979,0.0749082,0.0,0.0,0.0,-1.0
35123851,35123610,0.0484946,-0.0513782,0.0040756,0.0749082,0.0,0.0,0.0,-1.0
35225678,35225431,0.0826488,0.014302,-0.00789167,0.0749082,0.0,0.0,0.0,-1.0
35327654,35327413,0.0911387,-0.0223476,-0.0146144,0.0736597,0.0,0.0,0.0,-1.0
35425597,35425347,0.0793748,-0.150015,-0.013173,0.0711628,0.0,0.0,0.0,-1.0
35527407,35527167,0.164417,-0.0978023,-0.00647742,0.0749082,0.0,0.0,0.0,-1.0
35625518,35625263,0.0063403,0.12637,-0.0107917,0.0761567,0.0,0.0,0.0,-1.0
35726084,35725841,0.0757595,0.0209461,-0.0146442,0.082399,0.0,0.0,0.0,-1.0
35824180,35823936,0.229034,-0.0449089,-0.00268876,0.196842,0.0,0.0,0.0,-1.0
35926011,35925758,0.177033,-0.127702,-0.00648392,0.212632,0.0,0.0,0.0,-1.0
36027853,36027597,-0.166229,0.0935753,0.00818529,0.211579,0.0,0.0,0.0,-1.0
36126068,36125808,-0.069987,0.0736694,0.00462442,0.211579,0.0,0.0,0.0,-1.0
36224024,36223769,0.151984,-0.0477536,0.00352831,0.211579,0.0,0.0,0.0,-1.0
36324605,36324351,0.023209,-0.0477668,0.00586082,0.210526,0.0,0.0,0.0,-1.0
36426416,36426171,0.180205,-0.0588504,-0.00481072,0.209474,0.0,0.0,0.0,-1.0
36524508,36524263,-0.141215,-0.0560706,0.00330573,0.210526,0.0,0.0,0.0,-1.0
36626336,36626086,-0.0280084,-0.00600394,0.00349926,0.211579,0.0,0.0,0.0,-1.0
36724432,36724179,-0.172682,0.0813312,0.0050631,0.209474,0.0,0.0,0.0,-1.0
36825009,36824759,-0.126743,0.102978,0.00043433,0.209474,0.0,0.0,0.0,-1.0
36926915,36926672,-0.000453514,0.0335106,-0.00247624,0.213684,0.0,0.0,0.0,-1.0
37024928,37024675,-0.0663336,-0.00730437,0.0094197,0.214737,0.0,0.0,0.0,-1.0
37126741,37126495,-0.0916459,0.0643108,-0.000780667,0.231579,0.0,0.0,0.0,-1.0
37224833,37224590,-0.116342,-0.0218725,-0.000219922,0.234737,0.0,0.0,0.0,-1.0
37325421,37325170,-0.140405,0.0312473,0.00343773,0.236842,0.0,0.0,0.0,-1.0
37427288,37427041,0.0663235,-0.0464874,0.00226658,0.236842,0.0,0.0,0.0,-1.0
37525336,37525086,0.0566131,-0.178424,0.00673502,0.253684,0.0,0.0,0.0,-1.0
37627147,37626906,0.0499662,-0.0708305,-0.00745797,0.271579,0.0,0.0,0.0,-1.0
37725306,37725059,-0.0801902,-0.0558641,0.00185441,0.271579,0.0,0.0,0.0,-1.0
37827077,37826822,0.0526484,-0.0607734,0.00994658,0.269474,0.0,0.0,0.0,-1.0
37923923,37923676,-0.0178732,0.046089,0.0027915,0.265263,0.0,0.0,0.0,-1.0
38025741,38025499,0.0203307,-0.0284222,0.0087118,0.265263,0.0,0.0,0.0,-1.0
38127567,38127318,0.00651173,-0.0212834,-0.00414891,0.264211,0.0,0.0,0.0,-1.0
38225663,38225412,0.00239827,-0.0322192,-0.00160959,0.264211,0.0,0.0,0.0,-1.0
38327474,38327233,0.113664,-0.149975,0.00506276,0.264211,0.0,0.0,0.0,-1.0
38425589,38425332,-0.0582524,-0.00769765,0.00557341,0.264211,0.0,0.0,0.0,-1.0
38526171,38525928,-0.0208774,-0.0365642,0.010959,0.264211,0.0,0.0,0.0,-1.0
38624256,38624003,0.145732,-0.0773177,-0.00707446,0.264211,0.0,0.0,0.0,-1.0
38726074,38725828,0.0452151,-0.0719302,0.00619769,0.263158,0.0,0.0,0.0,-1.0
38828088,38827825,0.0643771,-0.0998877,0.00340949,0.258947,0.0,0.0,0.0,-1.0
38925986,38925740,-0.0486381,-0.103279,0.0116049,0.263158,0.0,0.0,0.0,-1.0
39026574,39026319,-0.0246263,0.00675096,0.0115423,0.294737,0.0,0.0,0.0,-1.0
39124693,39124445,-0.0135153,-0.0239546,0.00925506,0.3,0.0,0.0,0.0,-1.0
39226480,39226235,-0.0946049,-0.0238473,0.00923191,0.306316,0.0,0.0,0.0,-1.0
39324577,39324331,-0.0355484,0.00360384,0.00970821,0.311579,0.0,0.0,0.0,-1.0
39426397,39426151,0.00409795,-0.0504118,0.00546942,0.310526,0.0,0.0,0.0,-1.0
39526985,39526730,0.0409991,-0.0845017,0.00796622,0.304211,0.0,0.0,0.0,-1.0
39625216,39624968,-0.00654993,-0.111839,0.00858146,0.304211,0.0,0.0,0.0,-1.0
39726901,39726650,0.06368,-0.0874348,0.00697729,0.304211,0.0,0.0,0.0,-1.0
39825000,39824742,0.0341302,-0.157403,7.36127e-05,0.304211,0.0,0.0,0.0,-1.0
39926815,39926566,0.0576219,-0.117228,0.0123688,0.304211,0.0,0.0,0.0,-1.0
40024911,40024659,-0.0374461,-0.0894157,0.00738366,0.304211,0.0,0.0,0.0,-1.0
40125495,40125244,0.0409931,-0.115533,0.00256944,0.303158,0.0,0.0,0.0,-1.0
40227307,40227057,0.020972,-0.0961857,0.0042247,0.303158,0.0,0.0,0.0,-1.0
40325399,40325154,0.0608553,-0.111486,0.00428969,0.306316,0.0,0.0,0.0,-1.0
40427330,40427082,0.0668928,-0.0886099,0.00844178,0.311579,0.0,0.0,0.0,-1.0
40525318,40525070,0.0489398,-0.121746,0.00730725,0.325263,0.0,0.0,0.0,-1.0
40625903,40625648,-0.00465487,-0.0754312,0.00671089,0.330526,0.0,0.0,0.0,-1.0
40723987,40723740,-0.0183055,-0.0468375,0.00566128,0.330526,0.0,0.0,0.0,-1.0
40825814,40825565,-0.0926159,-0.0283517,0.0128452,0.331579,0.0,0.0,0.0,-1.0
40927638,40927388,0.0241321,-0.0835325,0.0141049,0.331579,0.0,0.0,0.0,-1.0
41025723,41025481,0.0586397,-0.102331,0.007447,0.343158,0.0,0.0,0.0,-1.0
41127562,41127304,-0.0176144,-0.0950311,0.00803982,0.343158,0.0,0.0,0.0,-1.0
41224455,41224213,-0.0415606,-0.0687913,0.00987153,0.343158,0.0,0.0,0.0,-1.0
41326230,41325977,-0.0166718,-0.0471514,0.0131446,0.345263,0.0,0.0,0.0,-1.0
41424319,41424072,-0.0533792,-0.0543841,0.0122128,0.348421,0.0,0.0,0.0,-1.0
41526141,41525893,-0.0203317,-0.133731,0.00716883,0.349474,0.0,0.0,0.0,-1.0
41627961,41627713,-0.0227406,-0.0677549,0.0167195,0.368421,0.0,0.0,0.0,-1.0
41726073,41725809,-0.0314782,-0.115905,0.00995954,0.370526,0.0,0.0,0.0,-1.0
41826635,41826388,-0.0112321,-0.0897908,0.0120051,0.372632,0.0,0.0,0.0,-1.0
41924727,41924483,-0.0292841,-0.0505314,0.0102673,0.391579,0.0,0.0,0.0,-1.0
42026596,42026346,-0.0699788,-0.0629503,0.00852014,0.394737,0.0,0.0,0.0,-1.0
42124647,42124400,-0.00796998,-0.111948,0.0027601,0.396842,0.0,0.0,0.0,-1.0
42226472,42226222,-0.129851,-0.0408876,0.0153239,0.413684,0.0,0.0,0.0,-1.0
42323480,42323231,-0.0564973,-0.0812886,0.0189487,0.413684,0.0,0.0,0.0,-1.0
42425146,42424895,-0.0485346,-0.069407,0.0116353,0.413684,0.0,0.0,0.0,-1.0
42526973,42526716,0.0412958,-0.132265,0.010923,0.413684,0.0,0.0,0.0,-1.0
42625057,42624812,0.0284193,-0.132077,0.012028,0.418947,0.0,0.0,0.0,-1.0
42726931,42726683,-0.0795683,-0.022513,0.0194404,0.418947,0.0,0.0,0.0,-1.0
42824982,42824729,0.0372394,-0.0510366,0.0188162,0.437895,0.0,0.0,0.0,-1.0
42925560,42925308,-0.0234368,-0.0750904,0.0128041,0.434737,0.0,0.0,0.0,-1.0
43023688,43023442,0.0408896,-0.0810461,0.00974158,0.426316,0.0,0.0,0.0,-1.0
43125668,43125424,-0.0433071,-0.0633139,0.0028156,0.425263,0.0,0.0,0.0,-1.0
43227292,43227045,0.00831702,-0.0757724,0.0105473,0.434737,0.0,0.0,0.0,-1.0
43325385,43325140,0.0647315,-0.114891,0.00441523,0.466316,0.0,0.0,0.0,-1.0
43425969,43425719,-0.100425,-0.0107503,0.00334169,0.471579,0.0,0.0,0.0,-1.0
43524056,43523815,-0.0487815,-0.0563844,-0.00737379,0.476842,0.0,0.0,0.0,-1.0
43625912,43625660,-0.152022,0.0221425,-0.00568108,0.475789,0.0,0.0,0.0,-1.0
43727712,43727458,0.0520729,-0.035267,-0.00228394,0.474737,0.0,0.0,0.0,-1.0
43825807,43825553,0.0329503,-0.0893243,-0.00035,0.476842,0.0,0.0,0.0,-1.0
43926483,43926241,-0.179311,0.0458209,-0.0112657,0.476842,0.0,0.0,0.0,-1.0
44024468,44024227,-0.135834,-0.0185466,0.00550222,0.482105,0.0,0.0,0.0,-1.0
44126303,44126050,-0.117667,-0.0307749,0.00171595,0.498947,0.0,0.0,0.0,-1.0
44224387,44224143,0.0242161,0.00103649,0.000990964,0.504211,0.0,0.0,0.0,-1.0
44326218,44325964,-0.040185,-0.0367357,0.00424745,0.508421,0.0,0.0,0.0,-1.0
44424313,44424061,-0.133046,0.0328086,0.00875848,0.509474,0.0,0.0,0.0,-1.0
44524889,44524640,0.0801188,-0.0651838,0.00503616,0.512999,0.0,0.0,0.0,-1.0
44626718,44626478,0.010762,-0.0218182,0.00638691,0.512999,0.0,0.0,0.0,-1.0
44724865,44724623,-0.07282,-0.0382644,0.00850652,0.511799,0.0,0.0,0.0,-1.0
44826622,44826376,0.0235674,-0.0454725,0.0020313,0.511799,0.0,0.0,0.0,-1.0
44924716,44924475,-0.0275977,-0.0434437,-0.00824255,0.511799,0.0,0.0,0.0,-1.0
45026553,45026294,0.0248556,-0.0189754,-0.0123757,0.511799,0.0,0.0,0.0,-1.0
45127121,45126872,0.00850713,-0.0207693,-0.028566,0.511799,0.0,0.0,0.0,-1.0
45225225,45224969,-0.17543,0.0398725,-0.0202443,0.511799,0.0,0.0,0.0,-1.0
45327039,45326796,0.0332626,-0.0336012,-0.0276336,0.511799,0.0,0.0,0.0,-1.0
45425126,45424885,-0.149792,0.00863357,-0.019343,0.511799,0.0,0.0,0.0,-1.0
45527001,45526747,0.0789309,-0.0891562,-0.00688671,0.511799,0.0,0.0,0.0,-1.0
45625052,45624801,-0.00913877,0.00351312,-0.0139845,0.511799,0.0,0.0,0.0,-1.0
45725647,45725393,-0.0797782,-0.0363425,0.00132345,0.511799,0.0,0.0,0.0,-1.0
45827641,45827397,0.0655282,-0.0248951,-0.00684978,0.511799,0.0,0.0,0.0,-1.0
45925557,45925307,-0.0542031,-0.00196503,-0.00780931,0.511799,0.0,0.0,0.0,-1.0
46023641,46023393,0.0144049,-0.0579306,-0.00869977,0.511799,0.0,0.0,0.0,-1.0
46125455,46125213,-0.227979,0.0235356,-0.00967142,0.508421,0.0,0.0,0.0,-1.0
46226049,46225802,-0.0365609,-0.0291256,-0.0066526,0.508421,0.0,0.0,0.0,-1.0
46324191,46323940,0.0116897,-0.0631496,-0.0278526,0.508421,0.0,0.0,0.0,-1.0
46425964,46425714,-0.0863314,-0.0178141,-0.0286114,0.508421,0.0,0.0,0.0,-1.0
46527773,46527531,-0.15062,0.0194031,-0.016758,0.508421,0.0,0.0,0.0,-1.0
46626045,46625782,-0.114121,-0.0163615,-0.0162415,0.490526,0.0,0.0,0.0,-1.0
46726449,46726205,0.0347858,-0.0221034,-0.0155281,0.483158,0.0,0.0,0.0,-1.0
46824557,46824310,0.026794,-0.0398492,-0.01164,0.483158,0.0,0.0,0.0,-1.0
46926369,46926122,-0.0543471,-0.0354448,-0.00893286,0.483158,0.0,0.0,0.0,-1.0
47024460,47024218,-0.101566,-0.00991637,-0.0127879,0.484211,0.0,0.0,0.0,-1.0
47126311,47126064,-0.0220092,-0.0276597,-0.00249951,0.484211,0.0,0.0,0.0,-1.0
47226885,47226638,0.13832,-0.0796604,-0.00849485,0.482105,0.0,0.0,0.0,-1.0
47324976,47324714,-0.0186393,-0.0620771,-0.00851591,0.48,0.0,0.0,0.0,-1.0
47426892,47426650,-0.0137603,0.0055446,-0.013348,0.476842,0.0,0.0,0.0,-1.0
47524883,47524631,0.0185679,-0.083733,-0.0150709,0.491579,0.0,0.0,0.0,-1.0
47626700,47626452,0.0924399,-0.0525158,-0.0152432,0.491579,0.0,0.0,0.0,-1.0
47724789,47724547,0.0722291,-0.0581256,-0.0225488,0.488421,0.0,0.0,0.0,-1.0
47825416,47825171,-0.0631657,-0.0117782,-0.0242689,0.492632,0.0,0.0,0.0,-1.0
47927207,47926952,-0.0273533,-0.0344432,-0.00929972,0.488421,0.0,0.0,0.0,-1.0
48025327,48025080,-0.0358759,-0.0257429,-0.0127527,0.489474,0.0,0.0,0.0,-1.0
48127111,48126864,-0.16482,-0.00724128,-0.00492252,0.488421,0.0,0.0,0.0,-1.0
48225290,48225042,0.0369681,-0.0489069,-0.00886596,0.491579,0.0,0.0,0.0,-1.0
48327033,48326780,0.0916965,-0.114249,-0.0091008,0.491579,0.0,0.0,0.0,-1.0
48423890,48423639,-0.0735937,0.0122,-0.00135099,0.492632,0.0,0.0,0.0,-1.0
48525698,48525456,0.037597,-0.0716488,-0.000709363,0.523794,0.0,0.0,0.0,-1.0
48627533,48627280,0.103159,-0.0206417,-0.00506211,0.521395,0.0,0.0,0.0,-1.0
48725628,48725374,0.0583018,-0.0543622,-0.00832068,0.511799,0.0,0.0,0.0,-1.0
48827441,48827198,-0.00700837,-0.0545084,-0.00216843,0.511799,0.0,0.0,0.0,-1.0
48925548,48925290,0.0605487,-0.0200298,-0.00646484,0.511799,0.0,0.0,0.0,-1.0
49026182,49025926,-0.167755,0.0242735,-0.0044115,0.488421,0.0,0.0,0.0,-1.0
49124228,49123979,-0.0183771,-0.0446451,-0.00196945,0.490526,0.0,0.0,0.0,-1.0
49226052,49225798,0.072924,-0.0538644,-0.0133809,0.490526,0.0,0.0,0.0,-1.0
49327857,49327609,0.00321965,-0.0269682,0.00123179,0.489474,0.0,0.0,0.0,-1.0
49425987,49425738,-0.0766916,-0.0319956,-0.00109601,0.490526,0.0,0.0,0.0,-1.0
49526531,49526282,-0.0137481,-0.0452042,0.00702028,0.489474,0.0,0.0,0.0,-1.0
49624626,49624377,0.0249612,-0.0323043,0.00520147,0.488421,0.0,0.0,0.0,-1.0
49726443,49726199,-0.101114,-0.0153328,-0.00595085,0.491579,0.0,0.0,0.0,-1.0
49824619,49824372,-0.00285649,-0.0338806,-0.0114324,0.491579,0.0,0.0,0.0,-1.0
49926356,49926115,-0.113498,0.0106683,-0.0104293,0.488421,0.0,0.0,0.0,-1.0
50026947,50026696,-0.053988,-0.0392165,-0.00821053,0.487368,0.0,0.0,0.0,-1.0
50125244,50124996,-0.111183,-0.0190312,-0.0168701,0.487368,0.0,0.0,0.0,-1.0
50226865,50226615,-0.0525767,-0.0370952,-0.0118627,0.488421,0.0,0.0,0.0,-1.0
50324971,50324708,0.0788103,-0.0556138,-0.0173323,0.485263,0.0,0.0,0.0,-1.0
50426779,50426530,-0.105817,-0.0534178,-0.0135811,0.490526,0.0,0.0,0.0,-1.0
50524878,50524628,-0.190574,-0.0156452,-0.0206157,0.491579,0.0,0.0,0.0,-1.0
50625494,50625249,0.0370346,-0.0690316,-0.0146165,0.511799,0.0,0.0,0.0,-1.0
50727305,50727057,0.0625038,-0.0875755,-0.0116681,0.509474,0.0,0.0,0.0,-1.0
50825362,50825121,0.0408245,-0.0694085,-0.000141307,0.509474,0.0,0.0,0.0,-1.0
50927384,50927131,0.00589183,-0.0493874,-0.0162688,0.509474,0.0,0.0,0.0,-1.0
51025289,51025037,-0.0254656,-0.0609233,-0.0187547,0.5106,0.0,0.0,0.0,-1.0
51125865,51125617,0.0999397,-0.0693441,-0.0209711,0.5106,0.0,0.0,0.0,-1.0
51223962,51223713,-0.0155936,-0.116492,-0.0261262,0.511799,0.0,0.0,0.0,-1.0
51325780,51325537,-0.127463,-0.0196152,-0.0386839,0.5106,0.0,0.0,0.0,-1.0
51427638,51427389,0.0862226,-0.103328,-0.0262964,0.511799,0.0,0.0,0.0,-1.0
51525695,51525451,0.0229937,-0.048734,-0.0244256,0.511799,0.0,0.0,0.0,-1.0
51627527,51627272,0.0633919,-0.102653,-0.0238193,0.509474,0.0,0.0,0.0,-1.0
51724461,51724212,-0.111899,0.00581598,-0.0267507,0.509474,0.0,0.0,0.0,-1.0
51826201,51825947,-0.132593,-0.0761423,-0.0225005,0.492632,0.0,0.0,0.0,-1.0
51924294,51924043,0.107112,-0.0595828,-0.0272532,0.492632,0.0,0.0,0.0,-1.0
52026108,52025864,-0.0331401,-0.0746966,-0.0331543,0.491579,0.0,0.0,0.0,-1.0
52124220,52123963,0.0584014,-0.0401891,-0.0172396,0.492632,0.0,0.0,0.0,-1.0
52226044,52225781,-0.000612369,-0.0485193,-0.0185839,0.492632,0.0,0.0,0.0,-1.0
52326615,52326361,0.0454158,-0.0695291,-0.0142499,0.491579,0.0,0.0,0.0,-1.0
52424697,52424457,-0.0827497,0.023594,-0.0256207,0.476842,0.0,0.0,0.0,-1.0
52526600,52526352,0.0558876,-0.0757133,-0.0220876,0.477895,0.0,0.0,0.0,-1.0
52624622,52624374,0.0660658,-0.0863594,-0.0158109,0.477895,0.0,0.0,0.0,-1.0
52726441,52726197,-0.183349,0.0386859,-0.026492,0.477895,0.0,0.0,0.0,-1.0
52824553,52824295,0.0669404,-0.0791216,-0.0235033,0.478947,0.0,0.0,0.0,-1.0
52925128,52924876,0.0530607,-0.0864543,-0.0193686,0.481053,0.0,0.0,0.0,-1.0
53026941,53026691,-0.134277,0.0168565,-0.0181985,0.481053,0.0,0.0,0.0,-1.0
53125043,53124792,0.0228503,-0.0683024,-0.0197268,0.483158,0.0,0.0,0.0,-1.0
53226865,53226612,0.0778847,-0.092491,-0.0171974,0.497895,0.0,0.0,0.0,-1.0
53324973,53324724,0.0188979,-0.0815914,0.00235723,0.512999,0.0,0.0,0.0,-1.0
53425538,53425287,-0.0175163,-0.0434744,-0.00149739,0.512999,0.0,0.0,0.0,-1.0
53527353,53527105,0.12514,-0.137283,0.0070429,0.511799,0.0,0.0,0.0,-1.0
53625614,53625372,0.0958893,-0.0571306,0.0114055,0.5106,0.0,0.0,0.0,-1.0
53727286,53727040,-0.0749633,-0.0918559,-0.0020599,0.509474,0.0,0.0,0.0,-1.0
53825366,53825123,0.0429546,-0.0830342,0.00960274,0.511799,0.0,0.0,0.0,-1.0
53925960,53925711,-0.0150493,-0.0446932,0.00692542,0.511799,0.0,0.0,0.0,-1.0
54024041,54023794,0.00798694,-0.107911,0.0211746,0.512999,0.0,0.0,0.0,-1.0
54125914,54125662,-0.137342,-0.0808419,0.00854037,0.511799,0.0,0.0,0.0,-1.0
54223966,54223712,-0.163572,0.0148077,0.000634118,0.511799,0.0,0.0,0.0,-1.0
54325778,54325532,0.0155426,-0.150187,0.0035583,0.511799,0.0,0.0,0.0,-1.0
54426488,54426242,0.0535445,-0.0978229,-0.00312682,0.511799,0.0,0.0,0.0,-1.0
54524515,54524266,0.00293452,-0.0586283,-0.00245334,0.511799,0.0,0.0,0.0,-1.0
54626280,54626030,0.025661,-0.111873,0.00453525,0.511799,0.0,0.0,0.0,-1.0
54724369,54724124,-0.0190139,-0.0605513,0.0275856,0.511799,0.0,0.0,0.0,-1.0
54826203,54825948,-0.125495,-0.100774,0.0127674,0.511799,0.0,0.0,0.0,-1.0
54924295,54924044,0.0227755,-0.057333,0.0114579,0.509474,0.0,0.0,0.0,-1.0
55024876,55024621,-0.0346843,-0.0952678,-0.00204251,0.509474,0.0,0.0,0.0,-1.0
55126698,55126443,-0.0964979,-0.0833587,-0.00718186,0.509474,0.0,0.0,0.0,-1.0
55224925,55224679,-0.069333,-0.0777079,-0.00474093,0.5106,0.0,0.0,0.0,-1.0
55326607,55326360,-0.0253779,-0.0583943,-0.0135301,0.509474,0.0,0.0,0.0,-1.0
55424698,55424455,0.0661678,-0.101064,-0.0131273,0.483158,0.0,0.0,0.0,-1.0
55526592,55526331,0.0598642,-0.0243645,-0.0117106,0.487368,0.0,0.0,0.0,-1.0
55624621,55624374,0.029577,-0.130775,-0.0182922,0.487368,0.0,0.0,0.0,-1.0
55725211,55724954,0.169403,-0.0680454,-0.00441791,0.488421,0.0,0.0,0.0,-1.0
55827019,55826773,0.000816637,-0.0749883,-0.0097826,0.489474,0.0,0.0,0.0,-1.0
55925114,55924869,-0.0543902,-0.0550784,-0.0265488,0.488421,0.0,0.0,0.0,-1.0
56027071,56026811,-0.0789512,-0.043496,-0.0286932,0.488421,0.0,0.0,0.0,-1.0
56125034,56124786,0.00877088,-0.0634707,-0.0156413,0.485263,0.0,0.0,0.0,-1.0
56225611,56225366,0.0553077,-0.103455,-0.00424907,0.487368,0.0,0.0,0.0,-1.0
56327442,56327192,-0.00327755,-0.0829534,0.000789343,0.487368,0.0,0.0,0.0,-1.0
56425541,56425286,0.113589,-0.0338109,-0.000804142,0.484211,0.0,0.0,0.0,-1.0
56527354,56527105,-0.00427115,-0.0684998,0.0129661,0.485263,0.0,0.0,0.0,-1.0
56625446,56625201,-0.0389212,-0.110874,-0.00294659,0.487368,0.0,0.0,0.0,-1.0
56726039,56725782,-0.0555664,-0.037753,0.00339863,0.487368,0.0,0.0,0.0,-1.0
56824197,56823948,-0.0371075,-0.0977831,0.00212378,0.488421,0.0,0.0,0.0,-1.0
56925947,56925698,0.0386563,-0.0708461,0.0108256,0.488421,0.0,0.0,0.0,-1.0
57027800,57027556,-0.0171404,-0.0964707,0.0150249,0.488421,0.0,0.0,0.0,-1.0
57126050,57125799,-0.0886674,-0.0389828,0.00144881,0.488421,0.0,0.0,0.0,-1.0
57223960,57223711,0.0435282,-0.0953855,0.00176265,0.488421,0.0,0.0,0.0,-1.0
57324543,57324292,0.0138479,-0.0480989,-0.00421759,0.488421,0.0,0.0,0.0,-1.0
57426389,57426147,0.119646,-0.0476197,-0.0113253,0.488421,0.0,0.0,0.0,-1.0
57524462,57524209,-0.0200197,-0.0630491,-0.0102838,0.488421,0.0,0.0,0.0,-1.0
57626279,57626031,-0.11205,-0.0425201,-0.0167845,0.486316,0.0,0.0,0.0,-1.0
57726870,57726612,0.0357509,-0.149635,-0.0390933,0.487368,0.0,0.0,0.0,-1.0
57824954,57824705,-0.0129972,-0.138546,-0.0251247,0.488421,0.0,0.0,0.0,-1.0
57926928,57926672,0.0462168,-0.153341,-0.0255921,0.488421,0.0,0.0,0.0,-1.0
58024888,58024629,0.0654886,-0.0955051,-0.0268074,0.487368,0.0,0.0,0.0,-1.0
58126695,58126444,-0.0391525,-0.0225862,-0.0320817,0.487368,0.0,0.0,0.0,-1.0
58224783,58224540,-0.172542,-0.0492123,-0.023053,0.487368,0.0,0.0,0.0,-1.0
58325372,58325125,0.000975848,-0.133134,-0.0235259,0.487368,0.0,0.0,0.0,-1.0
58427199,58426944,-0.0550053,-0.0442384,-0.032679,0.485263,0.0,0.0,0.0,-1.0
58525286,58525036,-0.0583474,-0.0331426,-0.0192848,0.485263,0.0,0.0,0.0,-1.0
58627107,58626858,0.0747405,-0.0891112,-0.0351154,0.486316,0.0,0.0,0.0,-1.0
58725363,58725115,-0.0707019,-0.0793665,-0.0317766,0.487368,0.0,0.0,0.0,-1.0
58827065,58826798,-0.0249966,-0.0683154,-0.040522,0.486316,0.0,0.0,0.0,-1.0
58923875,58923630,-0.0641715,-0.0415728,-0.0471777,0.485263,0.0,0.0,0.0,-1.0
59025696,59025451,-0.0242018,-0.0564926,-0.0401899,0.487368,0.0,0.0,0.0,-1.0
59127523,59127273,0.104349,-0.149486,-0.042486,0.487368,0.0,0.0,0.0,-1.0
59225661,59225412,0.0632163,-0.110269,-0.0591533,0.488421,0.0,0.0,0.0,-1.0
59327440,59327194,0.0598001,-0.165599,-0.0516446,0.487368,0.0,0.0,0.0,-1.0
59425557,59425297,-0.0592638,-0.114933,-0.0513557,0.488421,0.0,0.0,0.0,-1.0
59526247,59525998,-0.0382531,-0.133498,-0.0466051,0.487368,0.0,0.0,0.0,-1.0
59624228,59623964,-0.11199,-0.0642323,-0.0433212,0.488421,0.0,0.0,0.0,-1.0
59726036,59725783,-0.0753828,-0.0489208,-0.0416347,0.487368,0.0,0.0,0.0,-1.0
59827849,59827604,-0.0102337,-0.0565684,-0.0516745,0.487368,0.0,0.0,0.0,-1.0
59925949,59925700,0.0247138,-0.140454,-0.0403583,0.487368,0.0,0.0,0.0,-1.0
60026562,60026319,-0.100798,-0.136563,-0.0163061,0.485263,0.0,0.0,0.0,-1.0
60124622,60124376,0.0539701,-0.0434711,-0.0182519,0.487368,0.0,0.0,0.0,-1.0
60226445,60226198,-0.0410128,-0.0851905,-0.032298,0.487368,0.0,0.0,0.0,-1.0
60324572,60324326,-0.00110828,-0.0683275,-0.0278753,0.487368,0.0,0.0,0.0,-1.0
60426358,60426115,-0.00214283,-0.174788,-0.0465856,0.488421,0.0,0.0,0.0,-1.0
60526946,60526695,0.0680985,-0.151222,-0.0597187,0.488421,0.0,0.0,0.0,-1.0
60625222,60624978,-0.0212234,-0.173278,-0.0564119,0.488421,0.0,0.0,0.0,-1.0
60726863,60726613,-0.058507,-0.118013,-0.0564663,0.489474,0.0,0.0,0.0,-1.0
60824956,60824708,-0.158556,-0.0321124,-0.0501939,0.488421,0.0,0.0,0.0,-1.0
60926777,60926530,0.0320171,-0.0916573,-0.0272576,0.487368,0.0,0.0,0.0,-1.0
61024887,61024629,0.0284996,-0.0032377,-0.0397401,0.485263,0.0,0.0,0.0,-1.0
61125461,61125217,0.0705142,-0.0835198,-0.0253968,0.487368,0.0,0.0,0.0,-1.0
61227280,61227027,-0.12878,-0.0713784,-0.0205989,0.487368,0.0,0.0,0.0,-1.0
61325377,61325124,0.119336,-0.078651,-0.0224619,0.485263,0.0,0.0,0.0,-1.0
61427353,61427102,-0.101933,-0.0865617,-0.0343285,0.485263,0.0,0.0,0.0,-1.0
61526562,61526308,-0.0469822,-0.0639079,-0.0182038,0.485263,0.0,0.0,0.0,-1.0
61625869,61625621,-0.0330506,-0.0806083,-0.0178177,0.485263,0.0,0.0,0.0,-1.0
61723967,61723716,-0.00393534,-0.0931242,-0.0231943,0.485263,0.0,0.0,0.0,-1.0
61825781,61825538,-0.115174,-0.0357945,0.00841993,0.487368,0.0,0.0,0.0,-1.0
61923882,61923635,0.101138,-0.16406,-0.00415044,0.487368,0.0,0.0,0.0,-1.0
62025703,62025455,-0.0193983,-0.0995276,0.000671293,0.488421,0.0,0.0,0.0,-1.0
62127544,62127286,-0.0936315,-0.0411322,-0.0167271,0.488421,0.0,0.0,0.0,-1.0
62224487,62224244,-0.108431,-0.132024,-0.0207314,0.488421,0.0,0.0,0.0,-1.0
62326216,62325959,-0.0538832,-0.102316,-0.0270306,0.488421,0.0,0.0,0.0,-1.0
62424297,62424049,-0.100033,-0.0765777,-0.0204136,0.488421,0.0,0.0,0.0,-1.0
62526117,62525870,-0.0784419,-0.123384,-0.0297717,0.488421,0.0,0.0,0.0,-1.0
62627941,62627692,0.058111,-0.167571,-0.0293219,0.487368,0.0,0.0,0.0,-1.0
62726045,62725795,-0.0170807,-0.0742716,-0.0392676,0.487368,0.0,0.0,0.0,-1.0
62826617,62826368,-0.166641,0.013554,-0.0528811,0.487368,0.0,0.0,0.0,-1.0
62924706,62924464,0.010698,-0.0818577,-0.0317448,0.487368,0.0,0.0,0.0,-1.0
63026631,63026382,0.130454,-0.107263,-0.0314052,0.487368,0.0,0.0,0.0,-1.0
63124629,63124382,-0.179264,-0.0584078,-0.0202074,0.487368,0.0,0.0,0.0,-1.0
63226492,63226249,0.0663486,-0.117724,-0.0283899,0.487368,0.0,0.0,0.0,-1.0
63324558,63324301,-0.0835276,-0.0928505,-0.0272285,0.487368,0.0,0.0,0.0,-1.0
63425124,63424879,0.0867175,-0.118776,-0.0250175,0.488421,0.0,0.0,0.0,-1.0
63526952,63526701,-0.182484,-0.0602284,-0.0326636,0.488421,0.0,0.0,0.0,-1.0
63625090,63624846,-0.0155403,-0.0670329,-0.0315334,0.487368,0.0,0.0,0.0,-1.0
63726869,63726618,-0.193851,-0.0342928,-0.0247799,0.488421,0.0,0.0,0.0,-1.0
63825023,63824770,0.0192297,-0.0567794,-0.00955772,0.488421,0.0,0.0,0.0,-1.0
63925542,63925294,-0.149797,-0.0712464,2.80016e-05,0.488421,0.0,0.0,0.0,-1.0
64027358,64027116,-0.0877376,-0.0381452,-0.00135073,0.488421,0.0,0.0,0.0,-1.0
64125656,64125412,-0.0890687,-0.0668341,-0.00451101,0.489474,0.0,0.0,0.0,-1.0
64228545,64228278,-0.00786416,-0.00474812,-0.00886264,0.489474,0.0,0.0,0.0,-1.0
64325374,64325130,0.122755,-0.146398,0.00950698,0.514198,0.0,0.0,0.0,-1.0
64425959,64425709,0.0980207,-0.141421,0.00234462,0.511799,0.0,0.0,0.0,-1.0
64524049,64523806,0.0336487,-0.162522,0.00971314,0.5106,0.0,0.0,0.0,-1.0
64625949,64625700,-0.00508309,-0.0685473,-0.00520181,0.511799,0.0,0.0,0.0,-1.0
64723978,64723724,-0.015157,-0.121383,-0.00464776,0.511799,0.0,0.0,0.0,-1.0
64825799,64825546,-0.12488,-0.101034,-0.00177602,0.512999,0.0,0.0,0.0,-1.0
64926526,64926284,-0.11836,-0.0739459,-0.00216943,0.515398,0.0,0.0,0.0,-1.0
65024467,65024221,-0.0598623,-0.0976331,0.00620882,0.514198,0.0,0.0,0.0,-1.0
65126294,65126043,-0.139392,-0.0699165,0.00505485,0.512999,0.0,0.0,0.0,-1.0
65224418,65224168,-0.133831,-0.0601203,0.0100583,0.512999,0.0,0.0,0.0,-1.0
65326221,65325964,0.105052,-0.050924,0.00682339,0.512999,0.0,0.0,0.0,-1.0
65424306,65424057,0.0537332,-0.133106,0.0114661,0.512999,0.0,0.0,0.0,-1.0
65524892,65524639,0.0937115,-0.118732,0.0149879,0.512999,0.0,0.0,0.0,-1.0
65626705,65626458,-0.0119315,-0.13416,-0.00120861,0.512999,0.0,0.0,0.0,-1.0
65724915,65724672,-0.0197399,-0.0999545,0.0307468,0.511799,0.0,0.0,0.0,-1.0
65826622,65826376,-0.161344,-0.0797841,-0.00808849,0.512999,0.0,0.0,0.0,-1.0
65924717,65924473,-0.0172501,-0.0992619,-0.00254439,0.512999,0.0,0.0,0.0,-1.0
66026547,66026294,-0.123711,-0.0306652,-0.00345764,0.512999,0.0,0.0,0.0,-1.0
66127138,66126895,-0.00931023,-0.046332,-0.0185836,0.514198,0.0,0.0,0.0,-1.0
66225224,66224971,-0.101498,-0.0768937,0.0016208,0.512999,0.0,0.0,0.0,-1.0
66327039,66326795,0.0851918,-0.118394,-0.00769074,0.481053,0.0,0.0,0.0,-1.0
66425136,66424888,-0.0782875,-0.0683153,-0.00743622,0.478947,0.0,0.0,0.0,-1.0
66527060,66526803,-0.0347555,-0.0479577,-0.0207423,0.48,0.0,0.0,0.0,-1.0
66625056,66624805,-0.000408138,-0.0623157,-0.0121219,0.481053,0.0,0.0,0.0,-1.0
66725638,66725385,0.0273194,-0.090896,-0.0149105,0.481053,0.0,0.0,0.0,-1.0
66827455,66827208,-0.0511721,-0.0394782,-0.0200392,0.482105,0.0,0.0,0.0,-1.0
66925556,66925305,-0.03753,-0.082436,-0.0190981,0.482105,0.0,0.0,0.0,-1.0
67023655,67023403,0.0464553,-0.0709165,-0.0127938,0.482105,0.0,0.0,0.0,-1.0
67125464,67125221,-0.0750971,-0.0287611,-0.0137936,0.482105,0.0,0.0,0.0,-1.0
67226055,67225806,-0.00229077,-0.133083,-0.0180659,0.482105,0.0,0.0,0.0,-1.0
67324199,67323950,-0.0816338,-0.0355116,-0.0179139,0.481053,0.0,0.0,0.0,-1.0
67425971,67425719,0.0116654,-0.155827,-0.034698,0.481053,0.0,0.0,0.0,-1.0
67527783,67527541,-0.0974522,-0.0706558,-0.0219871,0.482105,0.0,0.0,0.0,-1.0
67625936,67625686,0.0846707,-0.113787,-0.0225647,0.482105,0.0,0.0,0.0,-1.0
67723981,67723733,-0.00369824,-0.114992,-0.0220216,0.482105,0.0,0.0,0.0,-1.0
67824566,67824317,-0.0558861,-0.120226,0.00580466,0.482105,0.0,0.0,0.0,-1.0
67926377,67926137,-0.130549,-0.0142764,-0.0028188,0.482105,0.0,0.0,0.0,-1.0
68024477,68024231,0.0376344,-0.145182,0.00362046,0.482105,0.0,0.0,0.0,-1.0
68126324,68126078,0.122525,-0.138497,0.0174365,0.482105,0.0,0.0,0.0,-1.0
68224403,68224154,-0.108908,-0.0630207,0.00163376,0.482105,0.0,0.0,0.0,-1.0
68324979,68324731,-0.0238004,-0.08283,-0.00331517,0.482105,0.0,0.0,0.0,-1.0
68426979,68426731,-0.091534,-0.05471,0.0059794,0.482105,0.0,0.0,0.0,-1.0
68524910,68524648,0.014136,-0.164742,-7.29265e-05,0.482105,0.0,0.0,0.0,-1.0
68626722,68626473,0.0678976,-0.0885522,0.0108965,0.482105,0.0,0.0,0.0,-1.0
68724810,68724565,-0.100321,-0.0448269,0.00565391,0.483158,0.0,0.0,0.0,-1.0
68825397,68825145,-0.00515624,-0.0762572,0.000216354,0.482105,0.0,0.0,0.0,-1.0
68927220,68926968,0.0229136,-0.184708,0.00892739,0.482105,0.0,0.0,0.0,-1.0
69026558,69026307,0.0917247,-0.171802,0.026773,0.484211,0.0,0.0,0.0,-1.0
69127131,69126884,0.0102762,-0.120467,0.0264337,0.483158,0.0,0.0,0.0,-1.0
69225373,69225124,-0.0502732,-0.0887027,0.0290413,0.488421,0.0,0.0,0.0,-1.0
69327058,69326802,-0.0461988,-0.0901616,0.0312102,0.506316,0.0,0.0,0.0,-1.0
69423911,69423658,-0.0898833,-0.135188,0.0263842,0.509474,0.0,0.0,0.0,-1.0
69525723,69525478,0.0248141,-0.101148,0.0386558,0.521395,0.0,0.0,0.0,-1.0
69627550,69627301,0.0429886,-0.100928,0.0280001,0.514198,0.0,0.0,0.0,-1.0
69726924,69726670,-0.0701151,-0.0543125,0.0375952,0.514198,0.0,0.0,0.0,-1.0
69827465,69827218,-0.0333267,-0.169147,0.0202394,0.512999,0.0,0.0,0.0,-1.0
69925576,69925318,0.046664,-0.0689866,0.0120154,0.492632,0.0,0.0,0.0,-1.0
70026248,70026000,0.00934962,-0.0560784,0.00446934,0.492632,0.0,0.0,0.0,-1.0
70124243,70123991,0.0333028,-0.0755816,-0.00292179,0.492632,0.0,0.0,0.0,-1.0
70226056,70225813,-0.164426,-0.0371936,-0.00820756,0.492632,0.0,0.0,0.0,-1.0
70327884,70327635,-0.00349842,-0.0622442,-0.0122951,0.492632,0.0,0.0,0.0,-1.0
70427232,70426974,-0.10603,-0.0855338,-0.0219818,0.492632,0.0,0.0,0.0,-1.0
70526563,70526311,0.0848444,-0.0978809,-0.0190975,0.492632,0.0,0.0,0.0,-1.0
70624662,70624406,-0.0850782,-0.0669227,-0.00445551,0.492632,0.0,0.0,0.0,-1.0
70726470,70726228,-0.0327406,-0.0915305,0.0110968,0.494737,0.0,0.0,0.0,-1.0
70824637,70824391,-0.0374151,-0.107995,0.0171288,0.511799,0.0,0.0,0.0,-1.0
70926394,70926151,-0.0204649,-0.104251,0.00776328,0.511799,0.0,0.0,0.0,-1.0
71024484,71024243,0.034921,-0.0530341,0.0124875,0.511799,0.0,0.0,0.0,-1.0
71125068,71124822,-0.0838051,-0.027025,0.0147264,0.511799,0.0,0.0,0.0,-1.0
71226904,71226647,0.0941137,-0.0706657,0.0129567,0.511799,0.0,0.0,0.0,-1.0
71324986,71324740,-0.0176546,-0.141219,0.00780806,0.511799,0.0,0.0,0.0,-1.0
71426806,71426562,-0.054314,-0.00540462,0.0127495,0.511799,0.0,0.0,0.0,-1.0
71524908,71524659,0.0146969,-0.125231,0.012253,0.511799,0.0,0.0,0.0,-1.0
71625572,71625323,-0.183221,-0.0591106,0.00331557,0.5106,0.0,0.0,0.0,-1.0
71727308,71727062,-0.0281722,-0.076481,0.0102116,0.511799,0.0,0.0,0.0,-1.0
71825403,71825157,0.0576708,-0.117136,0.0328372,0.511799,0.0,0.0,0.0,-1.0
71927421,71927169,-0.0419425,-0.161877,0.0193293,0.511799,0.0,0.0,0.0,-1.0
72025333,72025076,-0.081055,-0.0228369,0.0177468,0.509474,0.0,0.0,0.0,-1.0
72125916,72125659,0.0353888,-0.0865756,0.011635,0.5106,0.0,0.0,0.0,-1.0
72224002,72223752,0.095155,-0.121621,0.00218546,0.511799,0.0,0.0,0.0,-1.0
72325823,72325573,-0.110456,-0.0585755,0.00828937,0.511799,0.0,0.0,0.0,-1.0
72427759,72427506,0.0113218,-0.0554968,0.0110208,0.5106,0.0,0.0,0.0,-1.0
72525733,72525491,-0.32449,-0.0983325,0.0208183,0.509474,0.0,0.0,0.0,-1.0
72627571,72627313,0.0982179,-0.105894,-0.00500716,0.5106,0.0,0.0,0.0,-1.0
72724548,72724305,0.10185,-0.117476,-0.012217,0.5106,0.0,0.0,0.0,-1.0
72826249,72825996,-0.054452,-0.0364897,-0.014002,0.511799,0.0,0.0,0.0,-1.0
72924335,72924087,0.00738731,-0.138244,-0.00904626,0.511799,0.0,0.0,0.0,-1.0
73026198,73025952,0.026619,-0.0771767,-0.0178846,0.511799,0.0,0.0,0.0,-1.0
73129235,73128973,0.0104725,-0.0488495,-0.0199659,0.492632,0.0,0.0,0.0,-1.0
73226080,73225826,0.0257892,-0.131512,-0.0151771,0.489474,0.0,0.0,0.0,-1.0
73326655,73326405,-0.0947211,-0.0321167,-0.0175959,0.491579,0.0,0.0,0.0,-1.0
73424742,73424502,-0.0769893,-0.0628321,-0.0155764,0.492632,0.0,0.0,0.0,-1.0
73526705,73526446,0.07687,-0.114442,-0.0168704,0.492632,0.0,0.0,0.0,-1.0
73624685,73624422,-0.0938266,-0.0742843,-0.0105134,0.492632,0.0,0.0,0.0,-1.0
73726493,73726249,-0.0801015,-0.0227883,-0.0171807,0.492632,0.0,0.0,0.0,-1.0
73824590,73824339,0.0685071,-0.11573,-0.00928988,0.491579,0.0,0.0,0.0,-1.0
73925163,73924918,-0.069978,-0.0808572,-0.00406696,0.492632,0.0,0.0,0.0,-1.0
74026991,74026740,-0.144195,-0.00891461,-0.00782141,0.491579,0.0,0.0,0.0,-1.0
74125078,74124836,0.0647386,-0.0859203,-0.0128283,0.491579,0.0,0.0,0.0,-1.0
74226905,74226659,0.00384158,-0.0947302,-0.0118663,0.491579,0.0,0.0,0.0,-1.0
74323822,74323578,-0.0840026,-0.0584019,0.00091961,0.491579,0.0,0.0,0.0,-1.0
74425589,74425336,-0.091525,-0.0751993,-0.00657652,0.491579,0.0,0.0,0.0,-1.0
74523678,74523431,0.0234309,-0.106208,-0.0043067,0.491579,0.0,0.0,0.0,-1.0
74625494,74625253,-0.0604609,-0.113163,-0.00406936,0.491579,0.0,0.0,0.0,-1.0
74727327,74727077,0.0488219,-0.094465,-0.00727415,0.491579,0.0,0.0,0.0,-1.0
74825414,74825171,-0.0105544,-0.138847,0.00189088,0.491579,0.0,0.0,0.0,-1.0
74925997,74925751,-0.141465,-0.0964211,0.00957146,0.491579,0.0,0.0,0.0,-1.0
75024093,75023849,-0.0339229,-0.063333,0.0107511,0.491579,0.0,0.0,0.0,-1.0
75125979,75125728,0.0697096,-0.0399974,0.0160347,0.491579,0.0,0.0,0.0,-1.0
75227733,75227491,0.0217473,-0.0695161,0.00683803,0.491579,0.0,0.0,0.0,-1.0
75325839,75325588,-0.0117363,-0.04986,0.0239906,0.491579,0.0,0.0,0.0,-1.0
75426604,75426363,-0.0966112,-0.0306508,0.0175183,0.491579,0.0,0.0,0.0,-1.0
75524511,75524265,-0.0770521,-0.0690793,0.0218165,0.490526,0.0,0.0,0.0,-1.0
75627579,75627330,-0.0652685,-0.11509,0.0158973,0.490526,0.0,0.0,0.0,-1.0
75724439,75724189,-0.0517154,-0.0439556,0.018778,0.488421,0.0,0.0,0.0,-1.0
75826262,75826008,-0.0368889,-0.0620044,0.00544863,0.488421,0.0,0.0,0.0,-1.0
75924361,75924113,-0.0318927,-0.0418993,0.0183726,0.488421,0.0,0.0,0.0,-1.0
76024926,76024681,-0.104617,-0.0595551,0.0107299,0.489474,0.0,0.0,0.0,-1.0
76126749,76126506,0.0171533,-0.0757612,0.0275117,0.489474,0.0,0.0,0.0,-1.0
76224997,76224753,-0.142819,-0.00910858,0.0167803,0.489474,0.0,0.0,0.0,-1.0
76326672,76326421,-0.0303014,-0.0453436,0.00721849,0.490526,0.0,0.0,0.0,-1.0
76424761,76424517,-0.0342237,-0.0192571,0.00973094,0.491579,0.0,0.0,0.0,-1.0
76525394,76525143,-0.0590391,-0.127355,0.0187794,0.490526,0.0,0.0,0.0,-1.0
76627164,76626919,-0.07692,-0.135381,-0.00161271,0.490526,0.0,0.0,0.0,-1.0
76725304,76725054,0.00690421,-0.0824764,0.0117508,0.491579,0.0,0.0,0.0,-1.0
76827081,76826838,0.00319483,-0.0944461,0.00909518,0.490526,0.0,0.0,0.0,-1.0
76925178,76924933,-0.0237053,-0.0807984,0.0205981,0.492632,0.0,0.0,0.0,-1.0
77025872,77025630,0.0518825,-0.120007,0.0150711,0.492632,0.0,0.0,0.0,-1.0
77123853,77123610,-0.107506,-0.0824632,0.0101077,0.491579,0.0,0.0,0.0,-1.0
77225684,77225432,0.0672285,-0.0464239,-0.00344894,0.490526,0.0,0.0,0.0,-1.0
77327500,77327253,0.0625932,-0.147714,0.000606,0.490526,0.0,0.0,0.0,-1.0
77425603,77425353,-0.110517,-0.0274655,-0.00552413,0.490526,0.0,0.0,0.0,-1.0
77527438,77527191,0.0396497,-0.0814906,-0.00187072,0.490526,0.0,0.0,0.0,-1.0
77625524,77625270,0.0338809,-0.121593,-0.00816728,0.507368,0.0,0.0,0.0,-1.0
77726096,77725849,0.0703231,-0.118862,-0.0128103,0.507368,0.0,0.0,0.0,-1.0
77824281,77824034,-0.00069497,-0.052252,-0.000664018,0.507368,0.0,0.0,0.0,-1.0
77926016,77925767,0.0563524,-0.0478997,-0.0112106,0.514198,0.0,0.0,0.0,-1.0
78027834,78027589,-0.116466,-0.0901302,-0.0082,0.516597,0.0,0.0,0.0,-1.0
78125937,78125685,-0.0209061,-0.111917,-0.0112646,0.521395,0.0,0.0,0.0,-1.0
78226516,78226268,0.0375708,-0.0778885,-0.00649587,0.506316,0.0,0.0,0.0,-1.0
78324617,78324362,-0.0351227,-0.0999687,-0.00628347,0.504211,0.0,0.0,0.0,-1.0
78426440,78426191,-0.0221418,-0.065841,-0.00760471,0.503158,0.0,0.0,0.0,-1.0
78524528,78524280,0.0685324,-0.114055,-0.0031604,0.522595,0.0,0.0,0.0,-1.0
78626429,78626175,-0.00925367,-0.0945092,-0.0103298,0.521395,0.0,0.0,0.0,-1.0
78724443,78724199,-0.0515843,-0.111873,-0.00917826,0.523794,0.0,0.0,0.0,-1.0
78825030,78824783,0.0274177,-0.0915012,-0.00961948,0.547785,0.0,0.0,0.0,-1.0
78926848,78926606,-0.068939,-0.107864,0.000645976,0.547785,0.0,0.0,0.0,-1.0
79024944,79024697,-0.0455493,-0.0684844,-0.0115904,0.569376,0.0,0.0,0.0,-1.0
79126762,79126519,0.072096,-0.14511,-0.00880279,0.568176,0.0,0.0,0.0,-1.0
79224864,79224618,0.000667484,-0.0495333,-0.00998613,0.568176,0.0,0.0,0.0,-1.0
79325443,79325199,0.0430377,-0.113166,-0.00139948,0.562179,0.0,0.0,0.0,-1.0
79423600,79423355,-0.0730889,-0.0952174,-0.00690761,0.523794,0.0,0.0,0.0,-1.0
79525363,79525114,0.00882416,-0.103725,-0.00332584,0.524994,0.0,0.0,0.0,-1.0
79627180,79626936,-0.0204451,-0.0729497,-0.00487411,0.520196,0.0,0.0,0.0,-1.0
79725501,79725246,0.0628524,-0.0716334,-0.00350007,0.509474,0.0,0.0,0.0,-1.0
79825862,79825612,-0.033452,-0.0874782,-0.00473125,0.504211,0.0,0.0,0.0,-1.0
79923972,79923712,0.0515884,-0.160061,-0.00206921,0.505263,0.0,0.0,0.0,-1.0
80025777,80025531,0.00337319,-0.128571,-0.0103181,0.508421,0.0,0.0,0.0,-1.0
80123889,80123640,0.109294,-0.126409,-0.00174319,0.507368,0.0,0.0,0.0,-1.0
80225753,80225507,0.0362683,-0.070912,-0.004538,0.508421,0.0,0.0,0.0,-1.0
80327537,80327272,-0.000259607,-0.0988525,-0.00410989,0.507368,0.0,0.0,0.0,-1.0
80424373,80424126,0.00487257,-0.0729421,0.00704873,0.507368,0.0,0.0,0.0,-1.0
80526338,80526091,0.0959673,-0.172161,6.13852e-05,0.507368,0.0,0.0,0.0,-1.0
80624299,80624048,0.0580856,-0.0348862,0.0158408,0.507368,0.0,0.0,0.0,-1.0
80726116,80725866,0.11997,-0.081426,0.0100767,0.508421,0.0,0.0,0.0,-1.0
80824211,80823963,0.0177506,-0.0739833,0.00854619,0.507368,0.0,0.0,0.0,-1.0
80926051,80925785,-0.112912,-0.0537528,0.00701373,0.506316,0.0,0.0,0.0,-1.0
81026623,81026366,-0.0172763,-0.0712959,0.0149127,0.506316,0.0,0.0,0.0,-1.0
81124713,81124461,-0.0483696,-0.110408,0.00670122,0.483158,0.0,0.0,0.0,-1.0
81226527,81226283,-0.0775502,-0.1096,0.00472307,0.483158,0.0,0.0,0.0,-1.0
81324716,81324470,-0.0441319,-0.0595519,-0.00516672,0.483158,0.0,0.0,0.0,-1.0
81426444,81426202,0.0793729,-0.0845761,-0.000362488,0.483158,0.0,0.0,0.0,-1.0
81524558,81524298,0.142297,-0.11181,0.0142601,0.483158,0.0,0.0,0.0,-1.0
81625160,81624919,-0.00589945,-0.0908016,-0.000161,0.483158,0.0,0.0,0.0,-1.0
81726954,81726702,-0.17401,-0.0399428,-0.00679794,0.483158,0.0,0.0,0.0,-1.0
81826289,81826038,-0.119904,-0.0587293,-0.00651679,0.483158,0.0,0.0,0.0,-1.0
81926869,81926619,0.0410418,-0.0543545,-0.00989431,0.483158,0.0,0.0,0.0,-1.0
82024968,82024718,-0.00262467,-0.126731,-0.00055623,0.483158,0.0,0.0,0.0,-1.0
82125667,82125424,0.0794518,-0.0418056,0.00279821,0.483158,0.0,0.0,0.0,-1.0
82227365,82227117,-0.192751,-0.0174098,-0.00255755,0.483158,0.0,0.0,0.0,-1.0
82325459,82325214,0.0215937,-0.0674257,-0.00575252,0.483158,0.0,0.0,0.0,-1.0
82427294,82427040,-0.0147478,-0.0523231,-0.0110344,0.482105,0.0,0.0,0.0,-1.0
82525386,82525134,-0.0415163,-0.0291293,-0.0063961,0.482105,0.0,0.0,0.0,-1.0
82625966,82625713,0.00578813,-0.0750586,-0.0176315,0.482105,0.0,0.0,0.0,-1.0
82724061,82723810,-0.0774512,-0.0649273,-6.56326e-05,0.482105,0.0,0.0,0.0,-1.0
82825877,82825632,-0.0830151,-0.0992453,-0.00807303,0.482105,0.0,0.0,0.0,-1.0
82927740,82927493,0.091052,-0.0765563,-0.0214459,0.482105,0.0,0.0,0.0,-1.0
83025816,83025568,-0.0132335,-0.0611606,-0.00529447,0.482105,0.0,0.0,0.0,-1.0
83126380,83126130,-0.0340058,-0.0823197,0.000496574,0.497895,0.0,0.0,0.0,-1.0
83224644,83224398,-0.0123926,-0.124262,0.0210617,0.491579,0.0,0.0,0.0,-1.0
83326303,83326051,-0.0434651,-0.0344639,0.00874609,0.492632,0.0,0.0,0.0,-1.0
83424394,83424148,-0.0159088,-0.0769298,0.000766939,0.492632,0.0,0.0,0.0,-1.0
83526218,83525968,-0.0192879,-0.0756625,0.0077702,0.492632,0.0,0.0,0.0,-1.0
83628044,83627789,-0.0282012,-0.083999,0.00784858,0.516597,0.0,0.0,0.0,-1.0
83724892,83724649,-0.153841,-0.0205575,0.00768488,0.517797,0.0,0.0,0.0,-1.0
83826711,83826465,0.0603184,-0.0884785,0.0241265,0.517797,0.0,0.0,0.0,-1.0
83924809,83924565,0.0427383,-0.133677,0.00817318,0.516597,0.0,0.0,0.0,-1.0
84026782,84026535,0.0227573,-0.0938343,0.00656203,0.517797,0.0,0.0,0.0,-1.0
84125980,84125729,0.0190995,-0.079232,-0.00353995,0.516597,0.0,0.0,0.0,-1.0
84226560,84226304,-0.0166091,-0.0699589,0.010927,0.517797,0.0,0.0,0.0,-1.0
84327125,84326883,-0.0119236,-0.0966927,0.00113343,0.516597,0.0,0.0,0.0,-1.0
84425228,84424980,0.0973179,-0.130287,0.000826928,0.516597,0.0,0.0,0.0,-1.0
84527068,84526822,0.00518456,-0.104357,-0.0117045,0.516597,0.0,0.0,0.0,-1.0
84625145,84624899,-0.00341444,-0.0614423,-0.0121753,0.516597,0.0,0.0,0.0,-1.0
84726984,84726722,-0.139187,-0.0145864,-0.00259399,0.516597,0.0,0.0,0.0,-1.0
84823923,84823675,-0.0748557,-0.0332434,-0.00207715,0.517797,0.0,0.0,0.0,-1.0
84925655,84925400,0.0736994,-0.133788,0.00822566,0.517797,0.0,0.0,0.0,-1.0
85023744,85023494,0.0504741,-0.0997586,0.00147671,0.517797,0.0,0.0,0.0,-1.0
85125603,85125360,0.0744511,-0.0898297,-0.00845961,0.517797,0.0,0.0,0.0,-1.0
85227417,85227168,-0.0576961,-0.103288,0.0143498,0.508421,0.0,0.0,0.0,-1.0
85325481,85325234,0.0526066,-0.0944611,0.00751154,0.508421,0.0,0.0,0.0,-1.0
85426067,85425814,-0.00329563,-0.118203,0.0125595,0.508421,0.0,0.0,0.0,-1.0
85524154,85523912,0.0272376,-0.0556017,0.00504891,0.508421,0.0,0.0,0.0,-1.0
85626134,85625880,-0.158603,-0.0744248,0.00969593,0.508421,0.0,0.0,0.0,-1.0
85724091,85723846,-0.110116,-0.0735681,0.00632639,0.508421,0.0,0.0,0.0,-1.0
85825943,85825697,0.0265084,-0.0826556,0.000670511,0.508421,0.0,0.0,0.0,-1.0
85926473,85926232,-0.158629,0.0314553,-0.00359158,0.508421,0.0,0.0,0.0,-1.0
86024580,86024328,0.00228591,-0.113241,-0.00592673,0.508421,0.0,0.0,0.0,-1.0
86126402,86126151,-0.114519,-0.00887085,-0.0188848,0.508421,0.0,0.0,0.0,-1.0
86224492,86224247,-0.114444,-0.0973484,-0.00479221,0.557381,0.0,0.0,0.0,-1.0
86326327,86326071,0.100317,-0.115836,-0.0307692,0.551383,0.0,0.0,0.0,-1.0
86424450,86424204,-0.136036,-0.0499237,-0.0127543,0.551383,0.0,0.0,0.0,-1.0
86524997,86524748,-0.115212,-0.0438053,-0.00564608,0.552583,0.0,0.0,0.0,-1.0
86626812,86626568,-0.0933726,-0.0895639,-0.0199352,0.553782,0.0,0.0,0.0,-1.0
86725096,86724851,-0.0213368,-0.0605026,-0.0173759,0.554982,0.0,0.0,0.0,-1.0
86826735,86826486,0.0134594,-0.0485802,-0.0188656,0.554982,0.0,0.0,0.0,-1.0
86924832,86924588,0.0660226,-0.064826,-0.0236109,0.553782,0.0,0.0,0.0,-1.0
87025438,87025180,0.0275746,-0.0702927,-0.0188994,0.547785,0.0,0.0,0.0,-1.0
87127234,87126985,-0.11026,-0.0179535,-0.0111598,0.53459,0.0,0.0,0.0,-1.0
87225347,87225100,0.0395803,-0.093919,-0.0251745,0.53459,0.0,0.0,0.0,-1.0
87327152,87326907,-0.0532735,-0.0142885,-0.0127966,0.53339,0.0,0.0,0.0,-1.0
87425249,87425001,-0.0543571,-0.0410708,-0.0186243,0.53339,0.0,0.0,0.0,-1.0
87525976,87525731,0.0593205,-0.0800893,-0.0172472,0.532191,0.0,0.0,0.0,-1.0
87623922,87623677,-0.159804,0.0212875,-0.0224671,0.532191,0.0,0.0,0.0,-1.0
87726997,87726742,-0.0222481,-0.0850613,-0.00679352,0.530991,0.0,0.0,0.0,-1.0
87827583,87827341,-0.000916564,-0.0392353,-0.00367434,0.529792,0.0,0.0,0.0,-1.0
87925672,87925422,-0.0951485,-0.0781361,-0.0217106,0.532191,0.0,0.0,0.0,-1.0
88025040,88024789,-0.0981861,0.0123117,-0.0193844,0.53339,0.0,0.0,0.0,-1.0
88125584,88125336,0.0255695,-0.106928,-0.00264841,0.53339,0.0,0.0,0.0,-1.0
88226204,88225958,-0.0104211,-0.0810546,-0.0295641,0.53339,0.0,0.0,0.0,-1.0
88324371,88324127,-0.0142865,-0.0932352,-0.0237202,0.532191,0.0,0.0,0.0,-1.0
88426088,88425839,0.0216689,-0.0920495,-0.0123305,0.522595,0.0,0.0,0.0,-1.0
88527907,88527657,0.0856714,-0.061528,-0.00835416,0.521395,0.0,0.0,0.0,-1.0
88626079,88625820,-0.0943581,-0.0484179,-0.013604,0.521395,0.0,0.0,0.0,-1.0
88726581,88726334,-0.0744176,-0.0198435,-0.0198031,0.521395,0.0,0.0,0.0,-1.0
88824685,88824436,-0.0589392,-0.0189689,-0.0149936,0.517797,0.0,0.0,0.0,-1.0
88926502,88926253,-0.0104927,-0.043967,-0.0104881,0.515398,0.0,0.0,0.0,-1.0
89024593,89024350,-0.00669425,-0.0429592,-0.0152268,0.503158,0.0,0.0,0.0,-1.0
89126512,89126256,-0.0760249,0.0054842,-0.0168732,0.503158,0.0,0.0,0.0,-1.0
89224515,89224269,-0.0291179,-0.0286463,-0.0184134,0.5,0.0,0.0,0.0,-1.0
89325106,89324849,0.0426603,-0.124876,-0.00515724,0.483158,0.0,0.0,0.0,-1.0
89426916,89426670,0.0834005,-0.0875966,0.00129229,0.483158,0.0,0.0,0.0,-1.0
89525021,89524770,-0.05831,-0.0476065,-0.0158846,0.483158,0.0,0.0,0.0,-1.0
89626833,89626589,-0.0235962,-0.114662,-0.0126523,0.483158,0.0,0.0,0.0,-1.0
89724930,89724686,0.141873,-0.0800002,-0.00357202,0.483158,0.0,0.0,0.0,-1.0
89825510,89825267,-0.0353436,-0.0688286,-0.00700523,0.483158,0.0,0.0,0.0,-1.0
89927396,89927149,-0.102639,-0.0581837,0.00172442,0.483158,0.0,0.0,0.0,-1.0
90025443,90025190,0.0479996,-0.122341,-0.00233911,0.483158,0.0,0.0,0.0,-1.0
90127252,90127007,-0.0026301,-0.0917418,0.00356236,0.483158,0.0,0.0,0.0,-1.0
90225358,90225108,-0.0565442,-0.0588578,0.00083668,0.483158,0.0,0.0,0.0,-1.0
90325932,90325684,-0.0850111,-0.0306981,0.00103928,0.483158,0.0,0.0,0.0,-1.0
90424030,90423781,0.0795489,-0.0532848,0.000543845,0.483158,0.0,0.0,0.0,-1.0
90525852,90525603,0.0152969,-0.100254,0.015095,0.483158,0.0,0.0,0.0,-1.0
90627676,90627426,-0.0239323,-0.0375426,0.0107295,0.483158,0.0,0.0,0.0,-1.0
90725800,90725544,-0.0584688,-0.124565,0.0021959,0.483158,0.0,0.0,0.0,-1.0
90826353,90826102,0.0498524,0.00357794,0.00560494,0.483158,0.0,0.0,0.0,-1.0
90924459,90924205,0.0999354,-0.118606,0.0206801,0.483158,0.0,0.0,0.0,-1.0
91026434,91026190,0.0536479,-0.101889,0.0147103,0.483158,0.0,0.0,0.0,-1.0
91124374,91124118,0.0673142,-0.0756972,0.0186067,0.483158,0.0,0.0,0.0,-1.0
91226192,91225943,0.0409407,-0.0852904,0.00622931,0.504211,0.0,0.0,0.0,-1.0
91324290,91324042,-0.0981559,-0.0700368,0.0152693,0.514198,0.0,0.0,0.0,-1.0
91424860,91424616,-0.00534909,-0.107493,-0.00332348,0.512999,0.0,0.0,0.0,-1.0
91526690,91526439,-0.16772,-0.0385638,0.00169671,0.512999,0.0,0.0,0.0,-1.0
91624789,91624537,0.0195985,-0.0877742,0.00729933,0.512999,0.0,0.0,0.0,-1.0
91726602,91726357,0.117956,-0.095948,0.00883515,0.512999,0.0,0.0,0.0,-1.0
91824838,91824588,-0.0278492,-0.0193898,0.00357213,0.512999,0.0,0.0,0.0,-1.0
91926534,91926279,0.0203505,-0.110489,-0.000230611,0.514198,0.0,0.0,0.0,-1.0
92027105,92026856,0.0235239,-0.0879435,0.00696039,0.512999,0.0,0.0,0.0,-1.0
92125211,92124954,-0.0254691,-0.0897667,0.00523458,0.512999,0.0,0.0,0.0,-1.0
92227029,92226777,-0.00340554,-0.0429107,0.00540566,0.511799,0.0,0.0,0.0,-1.0
92325134,92324885,-0.0671821,-0.0779442,0.01832,0.511799,0.0,0.0,0.0,-1.0
92426942,92426694,0.133521,-0.13133,0.00292594,0.511799,0.0,0.0,0.0,-1.0
92525050,92524791,-0.0993559,-0.0199959,0.0180741,0.511799,0.0,0.0,0.0,-1.0
92625703,92625462,-0.0978439,-0.125067,0.0288332,0.511799,0.0,0.0,0.0,-1.0
92727451,92727198,-0.0775122,-0.0428879,0.00927847,0.511799,0.0,0.0,0.0,-1.0
92825561,92825320,-0.0151189,-0.165066,0.0073796,0.511799,0.0,0.0,0.0,-1.0
92927363,92927113,0.0894426,-0.113384,0.00919688,0.511799,0.0,0.0,0.0,-1.0
93025455,93025209,0.0905778,-0.151894,-0.011378,0.511799,0.0,0.0,0.0,-1.0
93126078,93125828,-0.0887563,-0.0294326,-0.018148,0.511799,0.0,0.0,0.0,-1.0
93224131,93223886,-0.0426198,-0.0813984,-0.0231183,0.511799,0.0,0.0,0.0,-1.0
93325955,93325708,0.0433856,-0.0951987,-0.0359981,0.512999,0.0,0.0,0.0,-1.0
93427846,93427599,0.0953011,-0.151261,-0.0236913,0.512999,0.0,0.0,0.0,-1.0
93525874,93525627,-0.194829,-0.0109979,-0.0184511,0.511799,0.0,0.0,0.0,-1.0
93626455,93626208,0.0427608,-0.0716982,-0.0319172,0.514198,0.0,0.0,0.0,-1.0
93724589,93724345,-0.0855945,-0.0630997,-0.0190176,0.520196,0.0,0.0,0.0,-1.0
93826396,93826148,-0.0765379,-0.0159129,-0.0266079,0.518996,0.0,0.0,0.0,-1.0
93924480,93924223,-0.0214654,-0.0782482,-0.0273772,0.526193,0.0,0.0,0.0,-1.0
94026287,94026044,0.0615019,-0.115455,-0.0144088,0.5,0.0,0.0,0.0,-1.0
94124397,94124145,0.00941455,-0.0598854,-0.0113599,0.526193,0.0,0.0,0.0,-1.0
94225001,94224757,-0.0371681,-0.0946321,-0.0173533,0.527393,0.0,0.0,0.0,-1.0
94326797,94326544,-0.184098,-0.0450641,-0.0210156,0.529792,0.0,0.0,0.0,-1.0
94424926,94424682,0.0267381,-0.0652856,-0.0168447,0.526193,0.0,0.0,0.0,-1.0
94526911,94526658,-0.096423,-0.105361,0.000904369,0.522595,0.0,0.0,0.0,-1.0
94624806,94624559,-0.0157262,-0.0237753,-0.000483422,0.524994,0.0,0.0,0.0,-1.0
94725392,94725142,0.0711527,-0.100168,0.00520205,0.521395,0.0,0.0,0.0,-1.0
94827208,94826963,0.0209438,-0.125116,-0.00414183,0.522595,0.0,0.0,0.0,-1.0
94925314,94925059,0.0365379,-0.130523,0.00397253,0.521395,0.0,0.0,0.0,-1.0
95027194,95026942,-0.112377,-0.0736953,-0.0109162,0.521395,0.0,0.0,0.0,-1.0
95125227,95124978,-0.0264284,-0.100133,-0.014821,0.521395,0.0,0.0,0.0,-1.0
95227059,95226800,-0.118144,-0.0545286,-0.000534821,0.505263,0.0,0.0,0.0,-1.0
95324028,95323786,0.037686,-0.0870136,-0.0118255,0.506316,0.0,0.0,0.0,-1.0
95425732,95425478,0.0381312,-0.0761638,-0.00123251,0.508421,0.0,0.0,0.0,-1.0
95523823,95523574,-0.0202445,-0.068717,-0.0044523,0.508421,0.0,0.0,0.0,-1.0
95625640,95625396,0.0516114,-0.0960075,-0.00437741,0.507368,0.0,0.0,0.0,-1.0
95727467,95727218,-0.0160553,-0.0800586,-0.0051064,0.503158,0.0,0.0,0.0,-1.0
95825565,95825315,-0.095312,-0.0913721,0.00823535,0.5,0.0,0.0,0.0,-1.0
95926150,95925895,0.0976776,-0.148077,0.00178854,0.501053,0.0,0.0,0.0,-1.0
96024240,96023992,-0.0196582,-0.0317376,-0.00856598,0.501053,0.0,0.0,0.0,-1.0
96126198,96125940,-0.139271,-0.0683023,-0.00273799,0.501053,0.0,0.0,0.0,-1.0
96224168,96223913,0.060858,-0.076712,-0.00473001,0.501053,0.0,0.0,0.0,-1.0
96325992,96325747,0.0207324,-0.0727488,-0.00641726,0.501053,0.0,0.0,0.0,-1.0
96426554,96426313,-0.113933,-0.0607922,-0.000354638,0.5,0.0,0.0,0.0,-1.0
96524664,96524410,0.0781262,-0.0866619,-0.0128896,0.501053,0.0,0.0,0.0,-1.0
96626479,96626232,-0.070782,-0.0680813,-0.01725,0.5,0.0,0.0,0.0,-1.0
96724576,96724331,-0.00781694,-0.0765144,-0.0142834,0.501053,0.0,0.0,0.0,-1.0
96826406,96826153,0.0296434,-0.0773782,-0.00892841,0.501053,0.0,0.0,0.0,-1.0
96924578,96924322,-0.102276,-0.0264962,-0.0104921,0.501053,0.0,0.0,0.0,-1.0
97025081,97024827,-0.112626,-0.000694623,-0.0104813,0.5,0.0,0.0,0.0,-1.0
97126902,97126650,-0.103132,-0.053049,5.601e-05,0.501053,0.0,0.0,0.0,-1.0
97224991,97224747,-0.0392091,-0.078462,-0.0114367,0.501053,0.0,0.0,0.0,-1.0
97326819,97326570,-0.0588575,-0.0778239,-0.0155464,0.502105,0.0,0.0,0.0,-1.0
97424916,97424666,0.0543029,-0.106425,-0.00399391,0.501053,0.0,0.0,0.0,-1.0
97525504,97525248,-0.0701477,-0.0899844,-0.00747548,0.503158,0.0,0.0,0.0,-1.0
97627316,97627071,-0.00831521,-0.10693,-0.0123428,0.504211,0.0,0.0,0.0,-1.0
97725524,97725270,0.0572115,-0.112257,-0.000176187,0.504211,0.0,0.0,0.0,-1.0
97827234,97826988,0.082124,-0.0707797,-0.00897254,0.523794,0.0,0.0,0.0,-1.0
97925332,97925085,0.0042008,-0.104273,0.00897493,0.521395,0.0,0.0,0.0,-1.0
98026139,98025894,-0.048103,-0.0523183,-0.00174975,0.520196,0.0,0.0,0.0,-1.0
98124010,98123761,0.0485127,-0.0834322,-0.00242422,0.520196,0.0,0.0,0.0,-1.0
98225838,98225583,-0.0253143,-0.0620357,0.00622932,0.520196,0.0,0.0,0.0,-1.0
98327667,98327407,-0.0584482,-0.0414475,-0.0176256,0.520196,0.0,0.0,0.0,-1.0
98425757,98425507,0.022412,-0.125144,-0.00721272,0.520196,0.0,0.0,0.0,-1.0
98523910,98523656,0.0325676,-0.0753529,-0.0169989,0.522595,0.0,0.0,0.0,-1.0
98624438,98624180,-0.0666513,-0.0389734,-0.0171107,0.524994,0.0,0.0,0.0,-1.0
98726254,98726002,0.00283658,-0.0618339,-0.00863781,0.547785,0.0,0.0,0.0,-1.0
98824482,98824239,-0.158382,-0.00141694,-0.00311576,0.541787,0.0,0.0,0.0,-1.0
98926175,98925922,0.0279745,-0.0785826,-0.00976883,0.541787,0.0,0.0,0.0,-1.0
99027984,99027743,-0.00237639,-0.0605568,-0.020382,0.541787,0.0,0.0,0.0,-1.0
99126097,99125841,0.0371337,-0.0485255,-0.0232785,0.540587,0.0,0.0,0.0,-1.0
99226665,99226421,-0.100203,-0.0525114,-0.0199009,0.540587,0.0,0.0,0.0,-1.0
99324772,99324518,-0.0962629,-0.0244568,-0.0248904,0.529792,0.0,0.0,0.0,-1.0
99426586,99426340,-0.0214844,-0.100823,-0.0151865,0.532191,0.0,0.0,0.0,-1.0
99524689,99524438,-0.064799,-0.00764936,-0.0261099,0.530991,0.0,0.0,0.0,-1.0
99625385,99625133,0.0703652,-0.0792316,-0.0175979,0.530991,0.0,0.0,0.0,-1.0
99727106,99726841,0.0038184,0.0292475,-0.00813444,0.532191,0.0,0.0,0.0,-1.0
99825201,99824946,0.0434251,-0.134887,-0.0129491,0.530991,0.0,0.0,0.0,-1.0
99927007,99926758,0.00044798,-0.119072,-0.0256426,0.502105,0.0,0.0,0.0,-1.0
100025105,100024855,0.0734505,-0.0195274,-0.019878,0.503158,0.0,0.0,0.0,-1.0
100126925,100126678,0.0169278,-0.0888816,-0.0175633,0.503158,0.0,0.0,0.0,-1.0
100225027,100224774,-0.137583,-0.00917507,-0.015428,0.501053,0.0,0.0,0.0,-1.0
100325602,100325354,-0.096936,-0.0194488,-0.0160249,0.526193,0.0,0.0,0.0,-1.0
100427571,100427324,-0.077414,-0.0698595,-0.0133038,0.526193,0.0,0.0,0.0,-1.0
100525523,100525273,-0.0150929,-0.0563262,-0.0207227,0.526193,0.0,0.0,0.0,-1.0
100627341,100627095,-0.0841412,-0.0335418,-0.00565627,0.527393,0.0,0.0,0.0,-1.0
100725462,100725200,0.00175833,-0.0168635,0.000992183,0.501053,0.0,0.0,0.0,-1.0
100826026,100825775,-0.0187531,-0.0990403,-0.00948439,0.526193,0.0,0.0,0.0,-1.0
100924122,100923872,-0.0406853,-0.0533303,-0.00981186,0.527393,0.0,0.0,0.0,-1.0
101025936,101025691,0.110358,-0.0941363,-0.00234095,0.527393,0.0,0.0,0.0,-1.0
101127777,101127517,0.0635434,-0.0443927,-0.0165954,0.5,0.0,0.0,0.0,-1.0
101225962,101225710,-0.05296,-0.150622,-0.0151109,0.5,0.0,0.0,0.0,-1.0
101326458,101326202,0.0896131,-0.0724221,-0.0102163,0.526193,0.0,0.0,0.0,-1.0
101424535,101424288,-0.115302,-0.0199944,-0.0184211,0.526193,0.0,0.0,0.0,-1.0
101526363,101526113,-0.0873609,-0.0590813,-0.0150224,0.516597,0.0,0.0,0.0,-1.0
101624453,101624207,-0.0611136,-0.00586142,-0.0189481,0.516597,0.0,0.0,0.0,-1.0
101726277,101726029,-0.0727387,-0.03847,-0.0139711,0.515398,0.0,0.0,0.0,-1.0
101826857,101826610,-0.00241128,-0.0213911,-0.0140449,0.515398,0.0,0.0,0.0,-1.0
101924960,101924706,-0.0621778,-0.0220639,-0.0232924,0.515398,0.0,0.0,0.0,-1.0
102026913,102026665,0.113693,-0.1144,-0.0116358,0.515398,0.0,0.0,0.0,-1.0
102124876,102124625,-0.153365,-0.0115854,-0.0126211,0.515398,0.0,0.0,0.0,-1.0
102226691,102226449,0.116306,-0.0840594,-0.0129598,0.515398,0.0,0.0,0.0,-1.0
102324966,102324714,-0.00866028,-0.0502799,-0.0139328,0.516597,0.0,0.0,0.0,-1.0
102425371,102425125,0.062006,-0.0477012,-0.00287662,0.516597,0.0,0.0,0.0,-1.0
102527199,102526947,-0.0352589,-0.0260151,-0.0158454,0.515398,0.0,0.0,0.0,-1.0
102625344,102625099,0.0399797,-0.093056,-0.0130144,0.516597,0.0,0.0,0.0,-1.0
102727140,102726895,-0.088789,-0.0273693,-0.00913588,0.516597,0.0,0.0,0.0,-1.0
102825214,102824963,-0.0344266,-0.081621,-0.0113501,0.515398,0.0,0.0,0.0,-1.0
102927042,102926785,-0.112862,-0.0133307,-0.00984018,0.515398,0.0,0.0,0.0,-1.0
103023888,103023640,-0.0272309,-0.048986,-0.00707901,0.482105,0.0,0.0,0.0,-1.0
103125848,103125589,-0.158413,-0.026678,-0.0111058,0.483158,0.0,0.0,0.0,-1.0
103227531,103227285,-0.104749,0.00128437,-0.0132437,0.483158,0.0,0.0,0.0,-1.0
103325678,103325435,0.0070345,-0.0453427,-0.018375,0.483158,0.0,0.0,0.0,-1.0
103427459,103427206,0.0523661,-0.0923231,-0.00601127,0.483158,0.0,0.0,0.0,-1.0
103525553,103525301,0.0292324,-0.0597015,-0.0108904,0.483158,0.0,0.0,0.0,-1.0
103626161,103625910,-0.0385043,-0.129003,-0.00312376,0.483158,0.0,0.0,0.0,-1.0
103724232,103723978,-0.101228,-0.0288988,-0.0055796,0.483158,0.0,0.0,0.0,-1.0
103826048,103825803,-0.11219,-0.0935423,0.00632768,0.483158,0.0,0.0,0.0,-1.0
103927984,103927738,0.0787866,-0.126428,0.00452856,0.483158,0.0,0.0,0.0,-1.0
104025964,104025720,-0.0970418,-0.023103,0.00169719,0.483158,0.0,0.0,0.0,-1.0
104126548,104126300,-0.00399844,-0.125844,0.0149011,0.483158,0.0,0.0,0.0,-1.0
104224647,104224396,-0.117307,-0.0761681,0.0105659,0.483158,0.0,0.0,0.0,-1.0
104326469,104326220,-0.165509,0.0396474,0.0111367,0.482105,0.0,0.0,0.0,-1.0
104424566,104424316,0.0106532,-0.100997,0.0135105,0.482105,0.0,0.0,0.0,-1.0
104526392,104526140,-0.0523493,0.00488018,0.0207738,0.483158,0.0,0.0,0.0,-1.0
104626970,104626718,-0.081476,-0.0814355,0.0299691,0.504211,0.0,0.0,0.0,-1.0
104725170,104724925,-0.0638202,-0.0837034,0.0247632,0.498947,0.0,0.0,0.0,-1.0
104826885,104826637,-0.0674708,-0.0192953,0.0320415,0.495789,0.0,0.0,0.0,-1.0
104924980,104924734,-0.127262,-0.0719319,0.0191023,0.503158,0.0,0.0,0.0,-1.0
105026810,105026558,-0.0484203,-0.0608932,0.0177576,0.503158,0.0,0.0,0.0,-1.0
105126152,105125898,-0.145841,0.0118015,0.0190454,0.503158,0.0,0.0,0.0,-1.0
105225495,105225246,-0.0975479,-0.0364109,0.0178715,0.504211,0.0,0.0,0.0,-1.0
105327301,105327057,-0.0231828,-0.15015,0.0240539,0.545386,0.0,0.0,0.0,-1.0
105425402,105425154,0.0647692,-0.109795,0.0228824,0.547785,0.0,0.0,0.0,-1.0
105527319,105527068,-0.0531136,-0.0492858,0.0134216,0.548984,0.0,0.0,0.0,-1.0
105625317,105625072,-0.120453,-0.0783872,0.0357678,0.55978,0.0,0.0,0.0,-1.0
105725903,105725653,-0.0428082,-0.0894984,0.0315776,0.556181,0.0,0.0,0.0,-1.0
105824237,105823987,-0.0369543,-0.093591,0.0139457,0.55858,0.0,0.0,0.0,-1.0
105925832,105925573,0.0153728,-0.0852366,0.0167875,0.553782,0.0,0.0,0.0,-1.0
106023922,106023669,-0.0603267,-0.0305252,0.0111653,0.55858,0.0,0.0,0.0,-1.0
106125737,106125491,-0.0213652,-0.11109,0.00574444,0.557381,0.0,0.0,0.0,-1.0
106227569,106227313,-0.0918044,0.0028805,-0.0107003,0.554982,0.0,0.0,0.0,-1.0
106324415,106324168,-0.0955495,-0.0924045,-0.00143181,0.553782,0.0,0.0,0.0,-1.0
106426256,106425991,-0.0191728,-0.0707678,-0.00786836,0.53339,0.0,0.0,0.0,-1.0
106524341,106524088,-0.104142,-0.0694591,-0.0102891,0.53339,0.0,0.0,0.0,-1.0
106626302,106626053,-0.0217336,-0.0704843,-0.00926779,0.528592,0.0,0.0,0.0,-1.0
106724255,106724007,0.0603346,-0.0576752,-0.00156314,0.523794,0.0,0.0,0.0,-1.0
106826084,106825831,-0.0956684,-0.0584259,-0.013347,0.524994,0.0,0.0,0.0,-1.0
106926656,106926409,-0.129362,-0.0361171,-0.00708542,0.524994,0.0,0.0,0.0,-1.0
107024749,107024506,-0.0835245,0.0244894,-0.0172437,0.524994,0.0,0.0,0.0,-1.0
107126632,107126386,0.0119956,-0.0994072,-0.0207968,0.523794,0.0,0.0,0.0,-1.0
107224671,107224425,-0.0182273,-0.041316,-0.0174104,0.524994,0.0,0.0,0.0,-1.0
107326501,107326248,-0.110893,-0.00836534,-0.0248498,0.526193,0.0,0.0,0.0,-1.0
107427176,107426934,-0.0527774,-0.044732,-0.0175647,0.526193,0.0,0.0,0.0,-1.0
107525179,107524926,-0.137302,-0.00320539,-0.0234882,0.526193,0.0,0.0,0.0,-1.0
