timestamp,timestamp_sample,baro_device_id,baro_alt_meter,baro_temp_celcius,baro_pressure_pa,rho
29897750,29879986,3997730,333.381,31.78,97384.3,1.15709
29957952,29935325,3997730,333.318,31.78,97385.0,1.15709
30118844,30096150,3997730,333.424,31.78,97383.8,1.15708
30279743,30257047,3997730,333.49,31.78,97383.0,1.15707
30490849,30470698,3997730,333.273,31.79,97385.5,1.1571
30702044,30684399,3997730,333.466,31.79,97383.3,1.15707
30923366,30900564,3997730,333.49,31.8,97383.0,1.15707
31083997,31061353,3997730,333.466,31.8,97383.3,1.15707
31295010,31274876,3997730,333.532,31.8,97382.5,1.15707
31506181,31488394,3997730,333.574,31.8,97382.0,1.15706
31666776,31649165,3997730,333.553,31.81,97382.3,1.15706
31887780,31865159,3997730,333.511,31.81,97382.8,1.15707
32099004,32078808,3997730,333.36,31.81,97384.5,1.15709
32310034,32292378,3997730,333.595,31.81,97381.8,1.15706
32471009,32453346,3997730,333.532,31.82,97382.5,1.15707
32692021,32669373,3997730,333.36,31.82,97384.5,1.15709
32903030,32882907,3997730,333.403,31.82,97384.0,1.15708
33114117,33096485,3997730,333.445,31.83,97383.5,1.15708
33274867,33257245,3997730,333.424,31.83,97383.8,1.15708
33496339,33473509,3997730,333.511,31.83,97382.8,1.15707
33707519,33687302,3997730,333.189,31.83,97386.5,1.15711
33918542,33900901,3997730,333.445,31.84,97383.5,1.15708
34079403,34061751,3997730,333.252,31.84,97385.7,1.1571
34300517,34277834,3997730,333.36,31.84,97384.5,1.15709
34511740,34491609,3997730,333.574,31.84,97382.0,1.15706
34723081,34705428,3997730,333.617,31.85,97381.5,1.15705
34884053,34866404,3997730,333.445,31.85,97383.5,1.15708
35105482,35082731,3997730,333.294,31.85,97385.2,1.1571
35316854,35296671,3997730,333.49,31.86,97383.0,1.15707
35477485,35457371,3997730,333.445,31.85,97383.5,1.15708
35688675,35671027,3997730,333.469,31.86,97383.2,1.15707
35909779,35887148,3997730,333.424,31.86,97383.8,1.15708
36120882,36100737,3997730,333.788,31.87,97379.5,1.15703
36281757,36261522,3997730,333.21,31.87,97386.2,1.15711
36493070,36475128,3997730,333.189,31.87,97386.5,1.15711
36713971,36691270,3997730,333.617,31.87,97381.5,1.15705
36925512,36904996,3997730,333.574,31.88,97382.0,1.15706
37086225,37065882,3997730,333.337,31.88,97384.8,1.15709
37297819,37279546,3997730,333.683,31.88,97380.8,1.15704
37518385,37495681,3997730,333.466,31.89,97383.3,1.15707
37679228,37656562,3997730,333.617,31.89,97381.5,1.15705
37890235,37870101,3997730,333.833,31.89,97379.0,1.15702
38101204,38083568,3997730,333.683,31.89,97380.8,1.15704
38322340,38299673,3997730,333.273,31.9,97385.5,1.1571
38483107,38460461,3997730,333.553,31.9,97382.3,1.15706
38694302,38674096,3997730,333.511,31.9,97382.7,1.15707
38905251,38887556,3997730,333.662,31.91,97381.0,1.15705
39086191,39055983,3997730,333.35,31.91,97384.6,1.15709
39297477,39277232,3997730,333.381,31.91,97384.2,1.15709
39508623,39490898,3997730,333.638,31.91,97381.3,1.15705
39669421,39651815,3997730,333.403,31.92,97384.0,1.15708
39890681,39867985,3997730,333.49,31.92,97383.0,1.15707
40101832,40081611,3997730,333.553,31.92,97382.3,1.15706
40312798,40295155,3997730,333.617,31.92,97381.5,1.15705
40473631,40455950,3997730,333.595,31.92,97381.8,1.15706
40695121,40672013,3997730,333.36,31.93,97384.5,1.15709
40915853,40898241,3997730,333.617,31.93,97381.5,1.15705
41076850,41059054,3997730,333.662,31.94,97381.0,1.15705
41297994,41275181,3997730,333.662,31.94,97381.0,1.15705
41509126,41488815,3997730,333.511,31.94,97382.8,1.15707
41720038,41702406,3997730,333.511,31.95,97382.8,1.15707
41880959,41863316,3997730,333.339,31.95,97384.7,1.15709
42102136,42079513,3997730,333.532,31.95,97382.5,1.15707
42313324,42293124,3997730,333.532,31.95,97382.5,1.15707
42524512,42506745,3997730,333.49,31.95,97383.0,1.15707
42685307,42667633,3997730,333.273,31.96,97385.5,1.1571
42916551,42896403,3997730,333.337,31.96,97384.8,1.15709
43077414,43057127,3997730,333.553,31.96,97382.2,1.15706
43308583,43285916,3997730,333.574,31.96,97382.0,1.15706
43519814,43499683,3997730,333.403,31.97,97384.0,1.15708
43680983,43660701,3997730,333.36,31.97,97384.5,1.15709
43891986,43874298,3997730,333.662,31.97,97381.0,1.15705
44113216,44090542,3997730,333.767,31.97,97379.8,1.15703
44324401,44304215,3997730,333.553,31.97,97382.3,1.15706
44485302,44465129,3997730,333.553,31.98,97382.3,1.15706
44696616,44678935,3997730,333.939,31.98,97377.8,1.15701
44877466,44847250,3997730,333.49,31.98,97383.0,1.15707
45088767,45068440,3997730,333.662,31.99,97381.0,1.15705
45299817,45282067,3997730,333.81,31.99,97379.3,1.15703
45520957,45498291,3997730,333.981,31.99,97377.3,1.157
45681780,45659149,3997730,334.177,31.99,97375.0,1.15698
45892769,45872653,3997730,334.304,32.0,97373.5,1.15696
46103914,46086302,3997730,334.327,32.0,97373.3,1.15696
46325176,46302476,3997730,334.629,32.0,97369.7,1.15691
46486644,46463505,3997730,334.864,32.01,97367.0,1.15688
46707245,46689623,3997730,334.608,32.01,97370.0,1.15692
46868136,46850417,3997730,335.08,32.01,97364.5,1.15685
47089216,47066492,3997730,334.93,32.01,97366.3,1.15687
47300177,47279957,3997730,335.144,32.01,97363.7,1.15684
47511263,47493528,3997730,335.379,32.01,97361.0,1.15681
47672070,47654456,3997730,335.144,32.02,97363.7,1.15684
47893340,47870587,3997730,335.252,32.02,97362.5,1.15683
48104333,48084205,3997730,335.144,32.02,97363.7,1.15684
48315506,48297839,3997730,335.123,32.03,97364.0,1.15685
48476428,48458761,3997730,335.036,32.03,97365.0,1.15686
48707723,48687556,3997730,335.231,32.03,97362.7,1.15683
48918910,48901282,3997730,335.123,32.03,97364.0,1.15685
49079906,49062167,3997730,335.165,32.03,97363.5,1.15684
49301126,49278476,3997730,335.4,32.04,97360.8,1.15681
49512388,49492198,3997730,335.532,32.04,97359.2,1.15679
49723572,49705901,3997730,335.358,32.04,97361.3,1.15681
49904492,49881734,3997730,335.466,32.04,97360.0,1.1568
50115661,50095503,3997730,335.572,32.05,97358.8,1.15678
50286544,50262279,3997730,335.466,32.05,97360.0,1.1568
50507660,50484827,3997730,335.509,32.05,97359.5,1.15679
50718506,50698391,3997730,335.273,32.06,97362.2,1.15682
50879393,50859267,3997730,335.53,32.06,97359.3,1.15679
51090765,51072801,3997730,335.553,32.06,97359.0,1.15679
51321653,51301479,3997730,335.487,32.06,97359.8,1.15679
51482556,51462262,3997730,335.53,32.07,97359.3,1.15679
51693550,51675860,3997730,335.789,32.07,97356.2,1.15675
51915172,51892021,3997730,335.638,32.07,97358.0,1.15677
52085756,52065516,3997730,335.4,32.07,97360.8,1.15681
52296642,52279031,3997730,335.701,32.08,97357.3,1.15677
52477714,52455039,3997730,335.532,32.08,97359.2,1.15679
52688902,52668754,3997730,335.725,32.08,97357.0,1.15676
52899963,52882335,3997730,335.572,32.08,97358.8,1.15678
53121223,53098548,3997730,335.897,32.08,97355.0,1.15674
53282201,53259489,3997730,336.024,32.08,97353.5,1.15672
53493298,53473138,3997730,336.111,32.09,97352.5,1.15671
53704569,53686919,3997730,335.897,32.09,97355.0,1.15674
53925598,53902977,3997730,335.81,32.09,97356.0,1.15675
54086456,54063708,3997730,335.617,32.09,97358.3,1.15678
54297596,54277397,3997730,335.487,32.1,97359.7,1.15679
54508648,54490896,3997730,335.831,32.1,97355.8,1.15675
54669382,54651667,3997730,336.09,32.1,97352.8,1.15671
54890485,54867784,3997730,335.767,32.1,97356.5,1.15676
55101597,55081477,3997730,335.873,32.1,97355.3,1.15674
55312770,55295138,3997730,335.596,32.1,97358.5,1.15678
55473772,55456128,3997730,335.638,32.11,97358.0,1.15677
55695061,55672335,3997730,336.003,32.11,97353.8,1.15672
55906275,55886085,3997730,336.045,32.12,97353.3,1.15672
56067817,56047070,3997730,336.069,32.12,97353.0,1.15671
56298488,56275870,3997730,335.96,32.12,97354.3,1.15673
56509515,56489346,3997730,336.177,32.12,97351.7,1.1567
56720752,56703132,3997730,336.497,32.13,97348.0,1.15666
56882153,56863960,3997730,336.37,32.12,97349.5,1.15667
57112796,57092680,3997730,336.626,32.13,97346.5,1.15664
57324195,57306224,3997730,336.37,32.13,97349.5,1.15667
57484542,57466914,3997730,336.605,32.13,97346.8,1.15664
57705912,57683116,3997730,336.325,32.13,97350.0,1.15668
57916870,57896741,3997730,336.433,32.13,97348.8,1.15666
58077895,58057720,3997730,336.927,32.14,97343.0,1.1566
58289194,58271533,3997730,337.078,32.14,97341.3,1.15658
58510538,58487741,3997730,336.262,32.14,97350.8,1.15669
58721779,58701617,3997730,336.24,32.14,97351.0,1.15669
58882508,58862362,3997730,337.271,32.15,97339.0,1.15655
59093650,59075972,3997730,336.647,32.15,97346.3,1.15663
59314813,59292170,3997730,336.798,32.15,97344.5,1.15661
59485863,59465661,3997730,336.756,32.15,97345.0,1.15662
59696969,59679349,3997730,336.777,32.15,97344.8,1.15662
59918050,59895395,3997730,336.024,32.16,97353.5,1.15672
60078753,60056103,3997730,336.174,32.16,97351.8,1.1567
60290127,60269944,3997730,336.864,32.16,97343.7,1.1566
60501251,60483580,3997730,336.497,32.16,97348.0,1.15666
60722443,60699811,3997730,336.927,32.17,97343.0,1.1566
60883223,60860519,3997730,336.735,32.17,97345.2,1.15662
61104406,61080074,3997730,336.172,32.17,97351.8,1.1567
61325582,61302766,3997730,336.219,32.17,97351.3,1.15669
61486425,61463637,3997730,336.476,32.18,97348.3,1.15666
61697289,61677120,3997730,336.972,32.18,97342.5,1.15659
61908299,61890641,3997730,337.208,32.18,97339.8,1.15656
62069085,62051435,3997730,337.142,32.18,97340.5,1.15657
62290353,62267605,3997730,336.906,32.18,97343.2,1.1566
62501492,62481245,3997730,336.605,32.19,97346.8,1.15664
62712867,62695083,3997730,336.542,32.19,97347.5,1.15665
62873607,62855964,3997730,336.476,32.19,97348.3,1.15666
63094892,63072156,3997730,335.897,32.2,97355.0,1.15674
63315871,63298228,3997730,336.304,32.19,97350.3,1.15668
63476651,63459039,3997730,336.24,32.19,97351.0,1.15669
63697892,63675156,3997730,336.045,32.2,97353.3,1.15672
63909126,63888979,3997730,336.003,32.2,97353.8,1.15672
64120201,64102575,3997730,336.346,32.2,97349.8,1.15668
64281035,64263377,3997730,336.024,32.21,97353.5,1.15672
64502296,64479547,3997730,336.177,32.21,97351.7,1.1567
64713422,64693224,3997730,336.198,32.21,97351.5,1.1567
64924507,64906896,3997730,336.219,32.21,97351.3,1.15669
65085145,65067535,3997730,336.669,32.21,97346.0,1.15663
65306439,65283747,3997730,336.198,32.21,97351.5,1.1567
65517364,65497226,3997730,336.346,32.22,97349.8,1.15668
65678300,65658160,3997730,336.391,32.22,97349.3,1.15667
65889234,65871594,3997730,336.262,32.22,97350.7,1.15669
66110399,66087717,3997730,336.132,32.23,97352.3,1.15671
66321398,66301249,3997730,336.09,32.22,97352.8,1.15671
66482396,66462148,3997730,336.304,32.23,97350.3,1.15668
66693436,66675763,3997730,335.81,32.23,97356.0,1.15675
66915386,66892021,3997730,336.156,32.23,97352.0,1.1567
67085596,67065457,3997730,335.96,32.23,97354.3,1.15673
67297014,67279235,3997730,336.283,32.24,97350.5,1.15668
67518233,67495505,3997730,336.542,32.24,97347.5,1.15665
67679099,67656443,3997730,336.798,32.24,97344.5,1.15661
67890266,67870072,3997730,336.605,32.24,97346.8,1.15664
68101654,68083923,3997730,336.542,32.25,97347.5,1.15665
68282529,68259849,3997730,336.045,32.24,97353.3,1.15672
68493482,68473333,3997730,336.476,32.25,97348.3,1.15666
68704646,68687033,3997730,336.37,32.25,97349.5,1.15667
68926040,68903270,3997730,336.626,32.25,97346.5,1.15664
69096886,69076745,3997730,336.713,32.25,97345.5,1.15663
69307976,69290329,3997730,336.669,32.25,97346.0,1.15663
69468851,69451179,3997730,336.391,32.26,97349.3,1.15667
69689960,69667266,3997730,336.476,32.26,97348.3,1.15666
69900938,69880750,3997730,335.4,32.25,97360.8,1.15681
70112058,70094395,3997730,335.4,32.26,97360.8,1.15681
70272921,70255285,3997730,335.273,32.26,97362.2,1.15682
70493967,70471329,3997730,335.638,32.26,97358.0,1.15677
70705081,70684965,3997730,336.069,32.27,97353.0,1.15671
70916189,70898480,3997730,336.153,32.27,97352.0,1.1567
71077469,71059449,3997730,336.198,32.27,97351.5,1.1567
71298352,71275679,3997730,335.852,32.27,97355.5,1.15674
71509579,71489359,3997730,335.725,32.27,97357.0,1.15676
71720582,71702977,3997730,336.283,32.27,97350.5,1.15668
71881542,71863834,3997730,336.198,32.27,97351.5,1.1567
72102794,72080047,3997730,335.683,32.28,97357.5,1.15677
72314246,72293795,3997730,336.024,32.28,97353.5,1.15672
72484952,72467253,3997730,336.024,32.27,97353.5,1.15672
72706937,72683396,3997730,335.701,32.28,97357.3,1.15677
72877051,72856919,3997730,336.003,32.28,97353.8,1.15672
73088493,73070794,3997730,336.024,32.28,97353.5,1.15672
73309592,73286908,3997730,335.897,32.28,97355.0,1.15674
73520653,73500400,3997730,336.132,32.28,97352.3,1.15671
73681583,73661394,3997730,336.346,32.29,97349.8,1.15668
73892523,73874916,3997730,336.156,32.29,97352.0,1.1567
74123771,74103645,3997730,336.325,32.29,97350.0,1.15668
74284605,74264486,3997730,336.262,32.29,97350.8,1.15669
74495780,74478104,3997730,336.542,32.29,97347.5,1.15665
74716825,74694142,3997730,336.756,32.29,97345.0,1.15662
74877581,74854889,3997730,336.906,32.3,97343.3,1.1566
75088490,75068328,3997730,336.822,32.3,97344.3,1.15661
75319757,75289505,3997730,336.962,32.3,97342.6,1.15659
75480542,75457875,3997730,336.713,32.3,97345.5,1.15663
75691646,75671493,3997730,336.692,32.3,97345.8,1.15663
75902768,75885114,3997730,336.542,32.3,97347.5,1.15665
76124138,76101465,3997730,336.476,32.3,97348.3,1.15666
76285056,76262346,3997730,336.713,32.3,97345.5,1.15663
76496284,76476129,3997730,336.713,32.31,97345.5,1.15663
76707296,76689670,3997730,336.843,32.3,97344.0,1.15661
76867971,76850345,3997730,336.864,32.31,97343.7,1.1566
77099464,77079184,3997730,336.198,32.31,97351.5,1.1567
77310632,77292962,3997730,335.939,32.31,97354.5,1.15673
77471595,77453854,3997730,335.982,32.31,97354.0,1.15673
77692624,77669862,3997730,335.596,32.31,97358.5,1.15678
77903589,77883458,3997730,336.045,32.31,97353.3,1.15672
78114777,78097072,3997730,335.701,32.32,97357.3,1.15677
78275506,78257878,3997730,335.789,32.32,97356.3,1.15675
78496709,78473999,3997730,335.81,32.32,97356.0,1.15675
78707838,78687654,3997730,335.638,32.32,97358.0,1.15677
78918967,78901292,3997730,335.487,32.32,97359.8,1.15679
79079851,79062126,3997730,335.466,32.32,97360.0,1.1568
79301016,79278261,3997730,335.53,32.32,97359.3,1.15679
79512204,79492011,3997730,335.704,32.32,97357.2,1.15677
79723395,79705735,3997730,335.186,32.33,97363.2,1.15684
79904335,79874085,3997730,335.07,32.33,97364.6,1.15685
80115316,80095118,3997730,335.466,32.33,97360.0,1.1568
80326623,80308812,3997730,335.553,32.33,97359.0,1.15679
80487383,80469729,3997730,335.767,32.34,97356.5,1.15676
80708655,80685991,3997730,335.96,32.34,97354.3,1.15673
80919651,80899537,3997730,336.132,32.34,97352.3,1.15671
81080623,81060473,3997730,336.069,32.34,97353.0,1.15671
81291778,81274167,3997730,336.433,32.34,97348.8,1.15666
81512995,81490217,3997730,336.219,32.34,97351.3,1.15669
81724056,81703933,3997730,336.262,32.34,97350.8,1.15669
81885555,81864923,3997730,336.111,32.34,97352.5,1.15671
82116502,82093803,3997730,336.433,32.34,97348.8,1.15666
82277423,82254678,3997730,335.96,32.35,97354.3,1.15673
82488344,82468177,3997730,336.24,32.35,97351.0,1.15669
82699632,82681894,3997730,336.003,32.35,97353.8,1.15672
82920817,82898175,3997730,336.24,32.35,97351.0,1.15669
83081604,83058972,3997730,335.96,32.35,97354.3,1.15673
83302928,83285145,3997730,336.153,32.35,97352.0,1.1567
83523888,83501152,3997730,335.81,32.36,97356.0,1.15675
83694774,83674552,3997730,336.024,32.35,97353.5,1.15672
83905812,83888169,3997730,335.466,32.36,97360.0,1.1568
84086750,84064122,3997730,335.144,32.36,97363.7,1.15684
84297821,84277657,3997730,335.057,32.36,97364.8,1.15685
84468846,84444588,3997730,335.123,32.36,97364.0,1.15685
84689909,84667252,3997730,335.165,32.36,97363.5,1.15684
84901189,84880843,3997730,335.252,32.37,97362.5,1.15683
85112220,85094536,3997730,334.93,32.37,97366.3,1.15687
85293133,85262916,3997730,335.036,32.37,97365.0,1.15686
85504358,85484107,3997730,334.563,32.36,97370.5,1.15692
85715519,85697821,3997730,334.454,32.37,97371.8,1.15694
85876394,85858737,3997730,334.608,32.37,97370.0,1.15692
86097471,86074781,3997730,334.261,32.37,97374.0,1.15696
86308641,86288443,3997730,334.283,32.37,97373.8,1.15696
86519666,86502053,3997730,334.068,32.37,97376.3,1.15699
86680614,86662909,3997730,333.918,32.38,97378.0,1.15701
86902274,86879023,3997730,334.629,32.37,97369.7,1.15691
87122961,87105351,3997730,334.068,32.38,97376.3,1.15699
87283997,87266184,3997730,334.283,32.38,97373.8,1.15696
87505297,87482628,3997730,334.433,32.38,97372.0,1.15694
87716652,87696345,3997730,334.972,32.38,97365.8,1.15687
87877363,87857164,3997730,334.951,32.38,97366.0,1.15687
88088514,88070722,3997730,335.014,32.38,97365.3,1.15686
88309532,88286882,3997730,335.316,32.38,97361.8,1.15682
88520661,88500501,3997730,335.445,32.39,97360.2,1.1568
88681566,88661447,3997730,335.701,32.38,97357.3,1.15677
88892616,88875004,3997730,335.638,32.39,97358.0,1.15677
89123907,89103757,3997730,335.873,32.39,97355.3,1.15674
89284954,89264813,3997730,336.412,32.39,97349.0,1.15667
89496082,89478434,3997730,336.497,32.39,97348.0,1.15666
89717153,89694454,3997730,336.605,32.39,97346.8,1.15664
89878015,89855308,3997730,336.454,32.39,97348.5,1.15666
90088954,90068802,3997730,336.927,32.4,97343.0,1.1566
90300015,90282267,3997730,336.735,32.4,97345.2,1.15662
90521180,90498372,3997730,336.97,32.4,97342.5,1.15659
90682041,90659310,3997730,337.057,32.39,97341.5,1.15658
90893106,90872995,3997730,336.906,32.4,97343.2,1.1566
91104132,91086501,3997730,336.843,32.4,97344.0,1.15661
91325296,91302603,3997730,336.521,32.4,97347.8,1.15665
91486860,91463376,3997730,336.822,32.4,97344.2,1.15661
91707080,91689432,3997730,336.756,32.41,97345.0,1.15662
91867966,91850262,3997730,336.756,32.4,97345.0,1.15662
92089155,92066422,3997730,336.497,32.41,97348.0,1.15666
92300201,92280011,3997730,336.756,32.41,97345.0,1.15662
92511512,92493788,3997730,336.798,32.41,97344.5,1.15661
92672245,92654614,3997730,336.669,32.41,97346.0,1.15663
92893540,92870845,3997730,336.542,32.41,97347.5,1.15665
93104663,93084541,3997730,336.497,32.41,97348.0,1.15666
93315754,93298149,3997730,336.045,32.41,97353.3,1.15672
93476632,93458932,3997730,335.982,32.41,97354.0,1.15673
93707804,93687615,3997730,335.81,32.41,97356.0,1.15675
93918838,93901177,3997730,335.725,32.41,97357.0,1.15676
94079611,94061909,3997730,335.553,32.41,97359.0,1.15679
94300899,94278122,3997730,335.701,32.42,97357.3,1.15677
94512084,94491858,3997730,336.111,32.42,97352.5,1.15671
94723203,94705476,3997730,335.873,32.42,97355.3,1.15674
94883837,94866227,3997730,336.153,32.42,97352.0,1.1567
95105018,95082397,3997730,336.304,32.42,97350.3,1.15668
95316181,95295775,3997730,336.132,32.42,97352.3,1.15671
95527009,95509366,3997730,335.831,32.42,97355.8,1.15675
95688006,95670215,3997730,335.897,32.42,97355.0,1.15674
95909191,95886510,3997730,335.918,32.42,97354.8,1.15674
96120424,96100283,3997730,336.069,32.42,97353.0,1.15671
96281126,96261012,3997730,335.982,32.42,97354.0,1.15673
96492600,96474785,3997730,335.53,32.43,97359.3,1.15679
96713729,96691036,3997730,335.466,32.42,97360.0,1.1568
96924786,96904551,3997730,335.617,32.43,97358.3,1.15678
97085515,97065366,3997730,335.509,32.43,97359.5,1.15679
97296661,97279018,3997730,335.509,32.43,97359.5,1.15679
97517729,97495087,3997730,335.596,32.43,97358.5,1.15678
97678674,97656009,3997730,335.701,32.43,97357.3,1.15677
97889801,97869499,3997730,336.045,32.43,97353.3,1.15672
98100823,98083115,3997730,335.789,32.43,97356.3,1.15675
98322169,98299420,3997730,335.701,32.43,97357.3,1.15677
98483105,98460379,3997730,335.596,32.43,97358.5,1.15678
98694154,98673985,3997730,335.487,32.44,97359.7,1.15679
98905256,98887461,3997730,335.057,32.44,97364.8,1.15685
99066336,99048462,3997730,335.144,32.43,97363.7,1.15684
99287399,99264674,3997730,335.014,32.44,97365.3,1.15686
99508600,99484327,3997730,335.173,32.44,97363.4,1.15684
99669518,99651881,3997730,334.671,32.44,97369.2,1.15691
99890690,99868026,3997730,334.93,32.44,97366.3,1.15687
100101865,100081701,3997730,335.207,32.44,97363.0,1.15683
100263157,100242581,3997730,335.057,32.44,97364.8,1.15685
100494199,100471501,3997730,335.358,32.44,97361.2,1.15681
100705395,100685229,3997730,335.852,32.45,97355.5,1.15674
100916533,100898877,3997730,335.379,32.45,97361.0,1.15681
101077744,101059797,3997730,336.045,32.44,97353.3,1.15672
101298535,101275872,3997730,335.553,32.45,97359.0,1.15679
101509679,101489561,3997730,335.982,32.45,97354.0,1.15673
101720834,101703204,3997730,335.96,32.45,97354.3,1.15673
101881995,101864225,3997730,335.767,32.45,97356.5,1.15676
102102972,102080322,3997730,335.424,32.45,97360.5,1.1568
102314457,102293916,3997730,335.939,32.45,97354.5,1.15673
102485062,102467375,3997730,335.96,32.45,97354.3,1.15673
102706295,102683441,3997730,336.111,32.45,97352.5,1.15671
102917219,102897004,3997730,335.982,32.45,97354.0,1.15673
103078120,103057899,3997730,336.09,32.45,97352.8,1.15671
103289243,103271623,3997730,336.003,32.46,97353.8,1.15672
103510391,103487761,3997730,336.24,32.46,97351.0,1.15669
103721622,103701413,3997730,336.132,32.46,97352.3,1.15671
103882574,103862451,3997730,336.542,32.46,97347.5,1.15665
104093565,104075924,3997730,336.391,32.46,97349.3,1.15667
104314745,104292081,3997730,336.262,32.46,97350.8,1.15669
104525705,104505577,3997730,335.767,32.46,97356.5,1.15676
104686730,104666478,3997730,335.982,32.46,97354.0,1.15673
104897767,104880067,3997730,336.156,32.46,97352.0,1.1567
105119206,105096470,3997730,335.659,32.46,97357.8,1.15677
105279899,105257262,3997730,335.617,32.46,97358.3,1.15678
105491264,105471027,3997730,335.572,32.46,97358.8,1.15678
105722555,105692218,3997730,335.501,32.47,97359.6,1.15679
105883377,105860679,3997730,335.316,32.46,97361.7,1.15682
106104698,106080421,3997730,335.107,32.47,97364.2,1.15685
106325889,106303036,3997730,335.036,32.47,97365.0,1.15686
106486804,106463964,3997730,335.186,32.47,97363.3,1.15684
106697732,106677576,3997730,334.972,32.47,97365.8,1.15687
106859225,106838441,3997730,334.8,32.47,97367.7,1.15689
107089697,107067072,3997730,334.993,32.47,97365.5,1.15686
107300835,107280536,3997730,335.294,32.47,97362.0,1.15682
107511777,107494088,3997730,335.466,32.47,97360.0,1.1568
107672464,107654857,3997730,335.144,32.47,97363.7,1.15684
107893623,107870936,3997730,335.638,32.47,97358.0,1.15677
108104597,108084457,3997730,335.165,32.48,97363.5,1.15684
108315815,108298186,3997730,335.424,32.48,97360.5,1.1568
108476773,108459093,3997730,335.572,32.47,97358.8,1.15678
108697978,108675326,3997730,336.09,32.47,97352.8,1.15671
108909076,108888934,3997730,335.831,32.47,97355.8,1.15675
109120116,109102447,3997730,335.96,32.48,97354.3,1.15673
109281041,109263294,3997730,336.024,32.48,97353.5,1.15672
109502125,109479454,3997730,336.003,32.48,97353.8,1.15672
109713213,109692934,3997730,336.304,32.48,97350.3,1.15668
109924335,109906546,3997730,336.37,32.47,97349.5,1.15667
110085110,110067457,3997730,336.325,32.48,97350.0,1.15668
110306379,110283597,3997730,336.198,32.48,97351.5,1.1567
110517336,110497199,3997730,336.584,32.48,97347.0,1.15664
110678099,110657960,3997730,336.521,32.48,97347.8,1.15665
110889303,110871572,3997730,336.412,32.48,97349.0,1.15667
111110448,111087676,3997730,336.177,32.48,97351.7,1.1567
111321679,111301420,3997730,336.325,32.48,97350.0,1.15668
111482461,111462319,3997730,336.563,32.48,97347.3,1.15665
111693845,111676106,3997730,336.198,32.49,97351.5,1.1567
111915062,111892305,3997730,336.069,32.49,97353.0,1.15671
112075933,112053266,3997730,336.045,32.49,97353.3,1.15672
112287103,112266961,3997730,336.132,32.48,97352.3,1.15671
112518531,112495848,3997730,336.09,32.49,97352.8,1.15671
112679406,112656691,3997730,336.024,32.49,97353.5,1.15672
112890633,112870463,3997730,335.982,32.49,97354.0,1.15673
113101876,113084123,3997730,335.704,32.49,97357.2,1.15677
113322819,113300139,3997730,335.273,32.49,97362.2,1.15682
113483720,113461097,3997730,335.638,32.49,97358.0,1.15677
113694841,113674700,3997730,335.445,32.49,97360.3,1.1568
113905929,113888263,3997730,335.445,32.49,97360.2,1.1568
114127075,114104403,3997730,335.252,32.49,97362.5,1.15683
114287831,114265125,3997730,335.165,32.49,97363.5,1.15684
114499066,114478830,3997730,335.144,32.49,97363.7,1.15684
114710273,114692486,3997730,335.358,32.49,97361.2,1.15681
114891299,114861016,3997730,335.07,32.49,97364.6,1.15685
115102434,115082274,3997730,334.93,32.49,97366.3,1.15687
115273482,115249204,3997730,334.951,32.5,97366.0,1.15687
115494945,115472038,3997730,335.186,32.5,97363.2,1.15684
115706179,115685991,3997730,335.252,32.49,97362.5,1.15683
115917430,115899747,3997730,335.572,32.5,97358.8,1.15678
116078540,116060776,3997730,335.746,32.5,97356.7,1.15676
116299601,116276917,3997730,336.003,32.5,97353.8,1.15672
116510795,116490637,3997730,335.852,32.5,97355.5,1.15674
116721877,116704160,3997730,336.003,32.5,97353.8,1.15672
116882667,116865037,3997730,336.069,32.5,97353.0,1.15671
117103615,117080975,3997730,336.497,32.5,97348.0,1.15666
117325065,117300808,3997730,336.137,32.5,97352.2,1.15671
117485883,117468214,3997730,336.024,32.5,97353.5,1.15672
117707094,117684450,3997730,336.37,32.5,97349.5,1.15667
117918298,117898108,3997730,336.325,32.51,97350.0,1.15668
118079369,118059135,3997730,336.669,32.51,97346.0,1.15663
118290451,118272837,3997730,336.713,32.5,97345.5,1.15663
118511737,118489115,3997730,336.777,32.5,97344.8,1.15662
118722808,118702657,3997730,336.906,32.51,97343.2,1.1566
118883786,118863486,3997730,336.97,32.51,97342.5,1.15659
119094803,119077098,3997730,336.864,32.51,97343.7,1.1566
119316241,119293224,3997730,336.735,32.51,97345.2,1.15662
119486727,119466606,3997730,336.97,32.51,97342.5,1.15659
119697809,119680180,3997730,337.271,32.51,97339.0,1.15655
119919067,119896285,3997730,337.123,32.51,97340.8,1.15657
120079908,120057274,3997730,336.972,32.51,97342.5,1.15659
120291174,120270950,3997730,337.015,32.51,97342.0,1.15658
120502383,120484713,3997730,337.078,32.51,97341.3,1.15658
120723476,120700835,3997730,336.864,32.51,97343.7,1.1566
120884392,120861658,3997730,337.123,32.51,97340.7,1.15657
121095599,121075413,3997730,337.123,32.51,97340.8,1.15657
121306746,121289100,3997730,337.057,32.52,97341.5,1.15658
121467681,121449928,3997730,336.822,32.52,97344.2,1.15661
121688787,121666047,3997730,336.972,32.51,97342.5,1.15659
121899890,121879639,3997730,336.993,32.52,97342.3,1.15659
122110989,122093304,3997730,337.036,32.52,97341.8,1.15658
122271882,122254190,3997730,336.584,32.52,97347.0,1.15664
122493078,122470327,3997730,336.669,32.52,97346.0,1.15663
122714162,122689925,3997730,336.893,32.52,97343.4,1.1566
122874855,122857250,3997730,336.692,32.52,97345.7,1.15663
123096097,123073371,3997730,336.864,32.52,97343.7,1.1566
123306999,123286855,3997730,336.906,32.52,97343.2,1.1566
123518014,123500394,3997730,336.885,32.52,97343.5,1.1566
123678729,123661094,3997730,336.626,32.52,97346.5,1.15664
123899987,123877236,3997730,336.692,32.52,97345.7,1.15663
124110849,124090716,3997730,336.563,32.52,97347.3,1.15665
124321921,124304203,3997730,337.057,32.52,97341.5,1.15658
124482886,124465177,3997730,336.949,32.53,97342.8,1.15659
124703908,124681242,3997730,336.563,32.53,97347.3,1.15665
124915064,124894839,3997730,336.669,32.53,97346.0,1.15663
125126250,125108623,3997730,336.951,32.53,97342.7,1.15659
125287125,125269409,3997730,337.036,32.53,97341.8,1.15658
125508197,125485508,3997730,336.692,32.53,97345.7,1.15663
125719367,125699111,3997730,336.864,32.53,97343.7,1.1566
125880160,125859998,3997730,336.993,32.53,97342.3,1.15659
126111375,126081133,3997730,337.067,32.53,97341.4,1.15658
126322485,126302358,3997730,337.099,32.53,97341.0,1.15657
126483506,126463302,3997730,336.669,32.53,97346.0,1.15663
126694750,126677113,3997730,336.713,32.53,97345.5,1.15663
126916151,126893378,3997730,336.476,32.53,97348.3,1.15666
127077022,127054310,3997730,336.476,32.54,97348.3,1.15666
127288478,127267871,3997730,336.454,32.53,97348.5,1.15666
127519171,127496512,3997730,336.476,32.53,97348.3,1.15666
127680248,127657336,3997730,336.37,32.54,97349.5,1.15667
127891300,127871063,3997730,336.304,32.54,97350.3,1.15668
128102807,128084868,3997730,336.412,32.54,97349.0,1.15667
128323717,128301046,3997730,336.111,32.54,97352.5,1.15671
128484625,128461837,3997730,335.939,32.54,97354.5,1.15673
128695608,128675441,3997730,336.132,32.54,97352.3,1.15671
128907025,128889166,3997730,336.09,32.54,97352.8,1.15671
129128032,129105383,3997730,335.789,32.54,97356.3,1.15675
129288883,129266240,3997730,335.596,32.54,97358.5,1.15678
129499945,129479792,3997730,335.683,32.54,97357.5,1.15677
129711110,129693485,3997730,335.466,32.54,97360.0,1.1568
129872129,129854387,3997730,335.186,32.55,97363.2,1.15684
130093141,130070466,3997730,335.659,32.55,97357.7,1.15677
130304275,130284086,3997730,335.08,32.55,97364.5,1.15685
130515203,130497585,3997730,335.231,32.54,97362.7,1.15683
130676217,130658421,3997730,335.036,32.55,97365.0,1.15686
130897409,130874674,3997730,335.036,32.55,97365.0,1.15686
131108516,131088252,3997730,335.102,32.55,97364.2,1.15685
131319727,131302035,3997730,334.972,32.55,97365.8,1.15687
131480503,131462871,3997730,334.906,32.55,97366.5,1.15688
131701604,131678986,3997730,334.734,32.55,97368.5,1.1569
131912759,131892570,3997730,334.734,32.55,97368.5,1.1569
132123862,132106208,3997730,334.65,32.55,97369.5,1.15691
132285065,132267220,3997730,334.972,32.55,97365.8,1.15687
132506035,132483415,3997730,334.499,32.55,97371.3,1.15693
132667431,132644296,3997730,334.391,32.55,97372.5,1.15695
132888220,132870584,3997730,334.8,32.55,97367.8,1.15689
133109520,133086844,3997730,334.563,32.55,97370.5,1.15692
133320705,133300528,3997730,334.972,32.55,97365.8,1.15687
133481675,133461523,3997730,334.972,32.55,97365.8,1.15687
133692805,133675138,3997730,334.822,32.55,97367.5,1.15689
133913948,133891322,3997730,335.057,32.56,97364.8,1.15685
134124959,134104805,3997730,334.608,32.55,97370.0,1.15692
134285884,134265608,3997730,334.734,32.56,97368.5,1.1569
134496814,134479180,3997730,334.261,32.56,97374.0,1.15696
134717993,134695260,3997730,334.37,32.56,97372.8,1.15695
134878627,134856003,3997730,334.692,32.56,97369.0,1.1569
135089795,135069659,3997730,334.563,32.56,97370.5,1.15692
135300875,135283242,3997730,334.8,32.56,97367.7,1.15689
135522000,135499348,3997730,334.864,32.56,97367.0,1.15688
135682773,135660056,3997730,335.057,32.56,97364.8,1.15685
135893698,135873573,3997730,335.014,32.56,97365.3,1.15686
136124925,136094673,3997730,335.226,32.56,97362.8,1.15683
136285710,136263077,3997730,335.273,32.56,97362.2,1.15682
136496979,136476854,3997730,334.993,32.56,97365.5,1.15686
136708239,136690577,3997730,335.744,32.56,97356.8,1.15676
136869199,136851429,3997730,335.509,32.56,97359.5,1.15679
137090237,137067568,3997730,336.132,32.56,97352.3,1.15671
137301867,137281156,3997730,335.831,32.57,97355.8,1.15675
137472402,137454572,3997730,336.262,32.56,97350.8,1.15669
137693337,137670612,3997730,336.156,32.57,97352.0,1.1567
137904562,137884349,3997730,336.304,32.57,97350.3,1.15668
138115857,138098197,3997730,336.37,32.57,97349.5,1.15667
138276686,138259044,3997730,336.497,32.57,97348.0,1.15666
138497705,138475056,3997730,336.647,32.57,97346.3,1.15663
138718968,138701258,3997730,336.927,32.57,97343.0,1.1566
138879854,138862199,3997730,336.713,32.57,97345.5,1.15663
139110935,139090811,3997730,336.906,32.57,97343.3,1.1566
139322104,139304464,3997730,336.864,32.57,97343.7,1.1566
139482874,139465226,3997730,337.078,32.57,97341.3,1.15658
139704099,139681457,3997730,336.927,32.57,97343.0,1.1566
139915150,139894992,3997730,337.036,32.58,97341.8,1.15658
140076209,140055921,3997730,336.927,32.57,97343.0,1.1566
140287242,140269537,3997730,337.337,32.58,97338.2,1.15654
140508441,140485791,3997730,337.422,32.58,97337.3,1.15653
140719624,140699449,3997730,337.358,32.57,97338.0,1.15654
140880333,140860203,3997730,337.316,32.58,97338.5,1.15654
141091629,141073987,3997730,337.358,32.58,97338.0,1.15654
141312992,141290149,3997730,337.186,32.58,97340.0,1.15656
141524162,141503951,3997730,337.142,32.58,97340.5,1.15657
141684942,141664798,3997730,336.949,32.58,97342.8,1.15659
141896058,141878437,3997730,336.906,32.58,97343.3,1.1566
142117306,142094640,3997730,337.575,32.58,97335.5,1.15651
142278120,142255423,3997730,336.822,32.58,97344.2,1.15661
142489385,142469169,3997730,337.4,32.58,97337.5,1.15653
142700358,142682728,3997730,337.488,32.58,97336.5,1.15652
142921542,142898912,3997730,337.509,32.59,97336.2,1.15652
143082455,143059691,3997730,337.702,32.59,97334.0,1.15649
143293520,143273323,3997730,337.551,32.59,97335.7,1.15651
143504627,143486956,3997730,337.768,32.59,97333.2,1.15648
143725691,143702985,3997730,337.681,32.59,97334.2,1.15649
143886503,143863881,3997730,337.572,32.59,97335.5,1.15651
144097626,144077493,3997730,337.53,32.59,97336.0,1.15651
144308644,144291033,3997730,337.53,32.59,97336.0,1.15651
144489627,144459401,3997730,337.445,32.59,97337.0,1.15652
144700758,144680564,3997730,337.142,32.6,97340.5,1.15657
144911964,144894285,3997730,337.012,32.59,97342.0,1.15658
145072763,145055058,3997730,336.756,32.6,97345.0,1.15662
145293929,145271225,3997730,336.864,32.6,97343.8,1.1566
145504973,145484733,3997730,336.735,32.6,97345.2,1.15662
145666157,145645612,3997730,337.057,32.6,97341.5,1.15658
145897073,145874350,3997730,336.756,32.6,97345.0,1.15662
146108178,146087953,3997730,336.798,32.6,97344.5,1.15661
146319321,146301663,3997730,336.906,32.6,97343.3,1.1566
146480268,146462496,3997730,337.057,32.6,97341.5,1.15658
146701152,146678464,3997730,337.25,32.6,97339.2,1.15655
146912305,146892126,3997730,337.229,32.61,97339.5,1.15655
147123578,147105831,3997730,337.099,32.61,97341.0,1.15657
147284462,147266665,3997730,336.822,32.61,97344.2,1.15661
147505529,147482745,3997730,336.927,32.61,97343.0,1.1566
147716834,147696488,3997730,336.37,32.61,97349.5,1.15667
147877472,147857332,3997730,336.433,32.61,97348.8,1.15666
148088581,148070917,3997730,336.476,32.61,97348.3,1.15666
148319811,148299627,3997730,336.219,32.61,97351.3,1.15669
148480591,148460404,3997730,336.132,32.61,97352.3,1.15671
148691762,148674134,3997730,336.024,32.61,97353.5,1.15672
148912769,148890071,3997730,335.873,32.61,97355.3,1.15674
149123833,149103660,3997730,336.024,32.61,97353.5,1.15672
149284632,149264503,3997730,335.852,32.61,97355.5,1.15674
149516003,149485707,3997730,335.913,32.61,97354.8,1.15674
149676770,149654144,3997730,335.509,32.62,97359.5,1.15679
149887861,149867698,3997730,335.596,32.62,97358.5,1.15678
150099441,150081602,3997730,335.638,32.62,97358.0,1.15677
150320639,150297876,3997730,335.767,32.62,97356.5,1.15676
150481445,150458793,3997730,335.725,32.62,97357.0,1.15676
150692559,150672364,3997730,335.873,32.62,97355.3,1.15674
150903675,150885996,3997730,335.207,32.62,97363.0,1.15683
151124862,151101990,3997730,335.252,32.62,97362.5,1.15683
151285579,151262860,3997730,334.864,32.62,97367.0,1.15688
151496727,151476571,3997730,335.123,32.63,97364.0,1.15685
151707905,151690238,3997730,335.424,32.63,97360.5,1.1568
151868653,151851019,3997730,335.207,32.63,97363.0,1.15683
152089744,152067065,3997730,335.358,32.63,97361.2,1.15681
152300807,152280684,3997730,335.123,32.63,97364.0,1.15685
152511972,152494361,3997730,334.993,32.63,97365.5,1.15686
152672983,152655321,3997730,335.358,32.63,97361.2,1.15681
152904194,152884036,3997730,335.165,32.63,97363.5,1.15684
153115230,153097574,3997730,335.014,32.63,97365.3,1.15686
153275962,153258271,3997730,335.014,32.63,97365.3,1.15686
153497047,153474368,3997730,334.755,32.64,97368.3,1.1569
153708202,153687930,3997730,334.8,32.63,97367.8,1.15689
153919376,153901728,3997730,335.144,32.63,97363.8,1.15684
154080192,154062523,3997730,335.165,32.64,97363.5,1.15684
154301514,154278672,3997730,335.057,32.64,97364.8,1.15685
154512740,154492429,3997730,334.822,32.64,97367.5,1.15689
154723832,154706139,3997730,334.734,32.64,97368.5,1.1569
154904732,154874532,3997730,334.726,32.64,97368.6,1.1569
155115807,155095683,3997730,334.864,32.64,97367.0,1.15688
155277224,155256595,3997730,334.972,32.64,97365.7,1.15687
155507973,155485289,3997730,334.758,32.64,97368.2,1.1569
155669481,155646255,3997730,335.102,32.64,97364.2,1.15685
155890168,155872517,3997730,335.186,32.64,97363.3,1.15684
156111511,156088804,3997730,334.951,32.65,97366.0,1.15687
156322683,156302493,3997730,334.972,32.65,97365.8,1.15687
156483953,156463358,3997730,335.186,32.65,97363.2,1.15684
156694774,156677120,3997730,335.08,32.64,97364.5,1.15685
156916242,156893109,3997730,335.337,32.65,97361.5,1.15682
157086725,157066453,3997730,335.231,32.64,97362.7,1.15683
157297613,157279983,3997730,335.358,32.65,97361.3,1.15681
157518985,157496203,3997730,335.553,32.65,97359.0,1.15679
157679865,157657210,3997730,335.403,32.65,97360.7,1.15681
157890999,157870868,3997730,335.638,32.65,97358.0,1.15677
158102001,158084387,3997730,335.744,32.65,97356.8,1.15676
158323179,158300495,3997730,335.725,32.65,97357.0,1.15676
158483993,158461271,3997730,335.575,32.65,97358.7,1.15678
158695156,158674979,3997730,335.897,32.65,97355.0,1.15674
158906278,158888547,3997730,335.939,32.65,97354.5,1.15673
159087156,159056939,3997730,336.05,32.65,97353.2,1.15672
159298398,159278191,3997730,335.789,32.66,97356.3,1.15675
159509483,159491793,3997730,335.81,32.65,97356.0,1.15675
159670216,159652604,3997730,335.701,32.65,97357.3,1.15677
159891443,159868693,3997730,335.659,32.66,97357.8,1.15677
160102509,160082296,3997730,335.487,32.66,97359.8,1.15679
160264027,160243294,3997730,335.337,32.66,97361.5,1.15682
160494866,160472217,3997730,335.294,32.65,97362.0,1.15682
160716287,160691888,3997730,335.226,32.66,97362.8,1.15683
160877094,160859436,3997730,335.337,32.66,97361.5,1.15682
161098489,161075676,3997730,335.144,32.66,97363.7,1.15684
161309494,161289311,3997730,335.487,32.66,97359.8,1.15679
161520634,161502919,3997730,335.252,32.66,97362.5,1.15683
161681620,161663819,3997730,335.057,32.66,97364.8,1.15685
161903153,161880067,3997730,334.906,32.66,97366.5,1.15688
162123978,162106337,3997730,334.843,32.66,97367.3,1.15688
162285597,162267305,3997730,335.057,32.66,97364.8,1.15685
162506176,162483522,3997730,335.102,32.67,97364.2,1.15685
162717375,162697225,3997730,335.014,32.66,97365.3,1.15686
162878214,162858063,3997730,334.8,32.67,97367.7,1.15689
163089519,163071839,3997730,334.864,32.67,97367.0,1.15688
163310543,163287820,3997730,334.758,32.67,97368.2,1.1569
163521723,163501454,3997730,334.951,32.67,97366.0,1.15687
163682456,163662343,3997730,334.909,32.67,97366.5,1.15688
163893671,163875991,3997730,335.273,32.67,97362.2,1.15682
164114964,164092260,3997730,335.165,32.67,97363.5,1.15684
164326140,164305797,3997730,335.186,32.67,97363.2,1.15684
164486870,164466704,3997730,335.144,32.67,97363.7,1.15684
164697864,164680223,3997730,335.102,32.68,97364.2,1.15685
164918937,164896234,3997730,335.102,32.67,97364.2,1.15685
165079889,165057101,3997730,335.358,32.67,97361.3,1.15681
165290708,165270577,3997730,335.252,32.68,97362.5,1.15683
165501747,165484077,3997730,335.337,32.68,97361.5,1.15682
165722955,165700231,3997730,335.316,32.68,97361.8,1.15682
165883836,165861170,3997730,335.294,32.67,97362.0,1.15682
166095289,166074819,3997730,335.596,32.68,97358.5,1.15678
166306119,166288479,3997730,335.789,32.68,97356.3,1.15675
166467764,166449385,3997730,336.132,32.68,97352.3,1.15671
166688326,166665680,3997730,336.283,32.68,97350.5,1.15668
166899874,166879332,3997730,336.822,32.68,97344.2,1.15661
167070556,167052875,3997730,336.822,32.68,97344.2,1.15661
167291791,167269114,3997730,336.346,32.68,97349.8,1.15668
167502917,167482742,3997730,336.412,32.68,97349.0,1.15667
167714546,167696331,3997730,335.918,32.68,97354.8,1.15674
167874692,167857086,3997730,336.433,32.68,97348.8,1.15666
168095992,168073224,3997730,336.09,32.68,97352.8,1.15671
168307103,168286913,3997730,336.111,32.68,97352.5,1.15671
168518179,168500514,3997730,335.96,32.69,97354.3,1.15673
168679093,168661430,3997730,336.153,32.68,97352.0,1.1567
168900325,168877626,3997730,335.553,32.69,97359.0,1.15679
169111734,169091535,3997730,335.897,32.68,97355.0,1.15674
169322593,169304976,3997730,335.701,32.69,97357.3,1.15677
169483585,169465956,3997730,335.873,32.69,97355.3,1.15674
169704947,169682155,3997730,335.683,32.69,97357.5,1.15677
169915812,169895675,3997730,335.897,32.69,97355.0,1.15674
170127162,170109481,3997730,335.316,32.69,97361.8,1.15682
170288095,170270426,3997730,335.445,32.69,97360.3,1.1568
170509290,170486617,3997730,335.379,32.69,97361.0,1.15681
170720334,170700154,3997730,335.231,32.69,97362.7,1.15683
170881286,170861024,3997730,335.466,32.69,97360.0,1.1568
171092431,171074698,3997730,335.487,32.69,97359.8,1.15679
171313683,171290905,3997730,335.596,32.69,97358.5,1.15678
171524783,171504613,3997730,335.852,32.69,97355.5,1.15674
171685691,171665496,3997730,335.659,32.69,97357.8,1.15677
171896920,171879167,3997730,335.831,32.7,97355.8,1.15675
172118056,172095305,3997730,336.156,32.69,97352.0,1.1567
172278927,172256298,3997730,335.767,32.7,97356.5,1.15676
172490243,172470093,3997730,335.855,32.7,97355.5,1.15674
172701364,172683701,3997730,335.897,32.7,97355.0,1.15674
172922448,172899809,3997730,336.024,32.7,97353.5,1.15672
173083806,173060813,3997730,335.81,32.7,97356.0,1.15675
173294622,173274472,3997730,335.873,32.7,97355.3,1.15674
173526148,173495716,3997730,335.95,32.7,97354.4,1.15673
173686892,173664229,3997730,335.81,32.7,97356.0,1.15675
173897965,173877811,3997730,335.553,32.7,97359.0,1.15679
174109022,174091385,3997730,335.767,32.7,97356.5,1.15676
174270011,174252260,3997730,335.683,32.7,97357.5,1.15677
174491255,174468428,3997730,335.509,32.7,97359.5,1.15679
174702463,174682216,3997730,335.683,32.7,97357.5,1.15677
174913614,174895992,3997730,335.123,32.7,97364.0,1.15685
175074397,175056782,3997730,335.057,32.71,97364.8,1.15685
175295632,175272943,3997730,334.993,32.7,97365.5,1.15686
175506969,175486585,3997730,334.629,32.71,97369.7,1.15691
175718030,175700385,3997730,334.65,32.7,97369.5,1.15691
175878860,175861197,3997730,334.779,32.71,97368.0,1.15689
176099979,176077339,3997730,335.014,32.71,97365.3,1.15686
176311222,176291027,3997730,334.758,32.71,97368.2,1.1569
176522578,176504892,3997730,334.779,32.71,97368.0,1.15689
176683382,176665721,3997730,334.864,32.71,97367.0,1.15688
176914637,176894501,3997730,335.271,32.72,97362.3,1.15682
177125844,177108185,3997730,335.445,32.71,97360.3,1.1568
177286636,177269014,3997730,334.993,32.72,97365.5,1.15686
177507912,177485289,3997730,335.659,32.71,97357.8,1.15677
177719083,177698933,3997730,335.466,32.72,97360.0,1.1568
177879911,177859715,3997730,335.659,32.72,97357.7,1.15677
178090887,178073224,3997730,335.725,32.71,97357.0,1.15676
178312052,178289349,3997730,335.939,32.71,97354.5,1.15673
178523227,178502970,3997730,335.831,32.72,97355.8,1.15675
178684025,178663806,3997730,335.918,32.72,97354.8,1.15674
178896117,178877601,3997730,335.81,32.72,97356.0,1.15675
179116244,179093604,3997730,336.132,32.72,97352.3,1.15671
179277191,179254537,3997730,335.939,32.72,97354.5,1.15673
179498384,179480712,3997730,335.897,32.72,97355.0,1.15674
179719647,179696848,3997730,336.09,32.72,97352.8,1.15671
179880427,179857694,3997730,335.873,32.72,97355.3,1.15674
180091708,180071515,3997730,336.346,32.73,97349.8,1.15668
180302803,180285192,3997730,335.466,32.72,97360.0,1.1568
180525053,180501266,3997730,335.337,32.73,97361.5,1.15682
180694921,180674751,3997730,335.316,32.72,97361.8,1.15682
180906712,180888567,3997730,335.102,32.73,97364.2,1.15685
181127426,181104803,3997730,335.165,32.73,97363.5,1.15684
181288454,181265652,3997730,335.165,32.73,97363.5,1.15684
181509658,181491994,3997730,335.057,32.73,97364.8,1.15685
181670481,181652841,3997730,335.358,32.72,97361.2,1.15681
181891813,181869083,3997730,335.252,32.73,97362.5,1.15683
182102956,182082648,3997730,335.165,32.73,97363.5,1.15684
182314238,182296540,3997730,335.701,32.73,97357.3,1.15677
182475079,182457393,3997730,335.617,32.73,97358.3,1.15678
182706143,182685983,3997730,335.466,32.73,97360.0,1.1568
182917567,182899698,3997730,335.445,32.73,97360.2,1.1568
183098335,183068145,3997730,335.432,32.74,97360.4,1.1568
183309471,183289267,3997730,335.316,32.73,97361.7,1.15682
183520676,183503024,3997730,335.144,32.73,97363.7,1.15684
183681543,183663925,3997730,335.186,32.74,97363.2,1.15684
183902653,183879935,3997730,335.102,32.73,97364.2,1.15685
184113718,184093599,3997730,334.972,32.74,97365.8,1.15687
184285116,184260395,3997730,334.932,32.74,97366.2,1.15687
184505686,184483009,3997730,335.918,32.74,97354.8,1.15674
184727329,184702787,3997730,334.589,32.74,97370.2,1.15692
184887842,184870205,3997730,334.605,32.74,97370.0,1.15692
185109083,185086383,3997730,334.734,32.74,97368.5,1.1569
185320018,185299873,3997730,334.93,32.74,97366.3,1.15687
185481076,185460859,3997730,334.671,32.74,97369.3,1.15691
185692099,185674493,3997730,334.433,32.74,97372.0,1.15694
185914319,185890641,3997730,334.198,32.74,97374.8,1.15697
186084182,186063930,3997730,334.111,32.74,97375.8,1.15699
186295883,186277766,3997730,334.327,32.74,97373.3,1.15696
186516679,186494040,3997730,334.349,32.74,97373.0,1.15695
186728054,186707706,3997730,334.261,32.75,97374.0,1.15696
186888887,186868606,3997730,334.349,32.74,97373.0,1.15695
187100026,187082305,3997730,334.563,32.74,97370.5,1.15692
187321307,187298636,3997730,334.779,32.75,97368.0,1.15689
187483002,187459543,3997730,334.563,32.75,97370.5,1.15692
187703406,187685779,3997730,334.716,32.75,97368.7,1.1569
187925097,187901809,3997730,334.586,32.75,97370.2,1.15692
188095469,188075294,3997730,334.433,32.74,97372.0,1.15694
188306618,188288884,3997730,334.52,32.75,97371.0,1.15693
188467431,188449798,3997730,334.412,32.75,97372.3,1.15694
188688477,188665855,3997730,334.629,32.75,97369.7,1.15691
188899556,188879423,3997730,334.454,32.75,97371.8,1.15694
189110855,189093235,3997730,334.65,32.75,97369.5,1.15691
189271810,189254109,3997730,334.65,32.75,97369.5,1.15691
189493004,189470360,3997730,334.563,32.75,97370.5,1.15692
189704167,189684011,3997730,334.608,32.75,97370.0,1.15692
189915342,189897709,3997730,334.755,32.75,97368.3,1.1569
190096333,190073633,3997730,334.65,32.76,97369.5,1.15691
190307433,190287212,3997730,334.843,32.75,97367.3,1.15688
190518467,190500829,3997730,334.843,32.76,97367.3,1.15688
190679242,190661579,3997730,334.779,32.75,97368.0,1.15689
190900549,190877803,3997730,334.822,32.75,97367.5,1.15689
191111574,191091377,3997730,334.972,32.75,97365.8,1.15687
191322829,191305056,3997730,335.165,32.76,97363.5,1.15684
191483477,191465830,3997730,334.993,32.76,97365.5,1.15686
191704576,191681934,3997730,334.885,32.76,97366.8,1.15688
191915615,191895501,3997730,334.671,32.76,97369.2,1.15691
192126978,192109148,3997730,335.165,32.76,97363.5,1.15684
192287819,192270097,3997730,334.906,32.76,97366.5,1.15688
192509315,192486197,3997730,334.843,32.76,97367.2,1.15688
192679732,192659540,3997730,335.123,32.76,97364.0,1.15685
192890849,192873234,3997730,335.036,32.76,97365.0,1.15686
193111901,193089274,3997730,335.014,32.76,97365.3,1.15686
193323331,193303035,3997730,335.487,32.76,97359.8,1.15679
193484073,193463911,3997730,335.294,32.76,97362.0,1.15682
193695192,193677450,3997730,335.596,32.76,97358.5,1.15678
193916299,193893641,3997730,335.509,32.76,97359.5,1.15679
194077307,194054523,3997730,335.617,32.76,97358.3,1.15678
194288479,194268316,3997730,335.53,32.76,97359.3,1.15679
194499847,194482161,3997730,335.4,32.77,97360.8,1.15681
194720953,194698333,3997730,335.701,32.77,97357.3,1.15677
194881973,194859307,3997730,335.553,32.77,97359.0,1.15679
195093154,195073025,3997730,335.337,32.76,97361.5,1.15682
195304222,195286533,3997730,335.207,32.77,97363.0,1.15683
195485304,195455006,3997730,335.07,32.77,97364.6,1.15685
195696245,195676027,3997730,335.252,32.77,97362.5,1.15683
195907285,195889566,3997730,335.358,32.77,97361.2,1.15681
196068054,196050402,3997730,335.014,32.77,97365.3,1.15686
196289239,196266404,3997730,335.358,32.77,97361.3,1.15681
196500125,196480004,3997730,334.906,32.77,97366.5,1.15688
196711216,196693480,3997730,335.403,32.77,97360.7,1.15681
196872124,196854474,3997730,335.057,32.77,97364.8,1.15685
197093597,197070584,3997730,335.466,32.77,97360.0,1.1568
197304578,197284348,3997730,335.424,32.77,97360.5,1.1568
197517010,197498130,3997730,335.659,32.77,97357.7,1.15677
197676582,197658956,3997730,335.532,32.77,97359.2,1.15679
197897868,197875160,3997730,335.831,32.77,97355.8,1.15675
198119320,198101521,3997730,335.789,32.77,97356.3,1.15675
198280102,198262476,3997730,336.045,32.77,97353.3,1.15672
198501303,198478651,3997730,336.111,32.78,97352.5,1.15671
198712496,198692186,3997730,336.153,32.77,97352.0,1.1567
198923338,198905708,3997730,335.939,32.78,97354.5,1.15673
199084507,199066643,3997730,336.003,32.78,97353.8,1.15672
199305407,199282772,3997730,335.894,32.78,97355.0,1.15674
199516421,199496283,3997730,336.177,32.78,97351.7,1.1567
199687685,199663185,3997730,336.119,32.78,97352.4,1.15671
199908624,199885924,3997730,336.24,32.78,97351.0,1.15669
200119781,200099622,3997730,336.156,32.78,97352.0,1.1567
200280545,200260424,3997730,336.024,32.78,97353.5,1.15672
200491641,200473950,3997730,336.069,32.78,97353.0,1.15671
200712947,200690121,3997730,336.045,32.79,97353.3,1.15672
200923983,200903752,3997730,336.132,32.79,97352.3,1.15671
201084764,201064638,3997730,335.939,32.79,97354.5,1.15673
201295851,201278157,3997730,336.045,32.79,97353.3,1.15672
201517046,201494376,3997730,336.198,32.78,97351.5,1.1567
201677933,201655100,3997730,336.003,32.79,97353.8,1.15672
201899058,201881338,3997730,335.939,32.78,97354.5,1.15673
202120299,202097618,3997730,336.111,32.79,97352.5,1.15671
202280988,202258366,3997730,336.003,32.79,97353.8,1.15672
202492358,202472091,3997730,335.789,32.79,97356.3,1.15675
202703517,202685796,3997730,335.596,32.79,97358.5,1.15678
202925201,202902131,3997730,335.939,32.79,97354.5,1.15673
203095506,203075393,3997730,335.789,32.79,97356.3,1.15675
203306466,203288858,3997730,335.725,32.79,97357.0,1.15676
203487485,203464864,3997730,335.596,32.79,97358.5,1.15678
203698465,203678327,3997730,335.638,32.79,97358.0,1.15677
203869884,203845175,3997730,335.741,32.79,97356.8,1.15676
204090696,204067952,3997730,335.873,32.79,97355.3,1.15674
204301850,204281694,3997730,335.831,32.8,97355.8,1.15675
204513062,204495437,3997730,335.897,32.79,97355.0,1.15674
204674519,204656265,3997730,335.575,32.79,97358.7,1.15678
204895246,204872459,3997730,335.939,32.79,97354.5,1.15673
205106519,205086203,3997730,335.744,32.8,97356.8,1.15676
205317551,205299905,3997730,335.831,32.8,97355.8,1.15675
205478394,205460774,3997730,335.873,32.8,97355.3,1.15674
205699774,205677008,3997730,335.939,32.8,97354.5,1.15673
205911063,205890674,3997730,336.045,32.8,97353.3,1.15672
206121980,206104342,3997730,335.81,32.8,97356.0,1.15675
206303021,206272834,3997730,335.863,32.8,97355.4,1.15674
206514009,206493855,3997730,335.659,32.8,97357.7,1.15677
206725173,206707540,3997730,336.024,32.8,97353.5,1.15672
206886033,206868391,3997730,336.132,32.8,97352.3,1.15671
207107301,207084605,3997730,335.982,32.8,97354.0,1.15673
207318322,207298170,3997730,336.497,32.8,97348.0,1.15666
207479149,207458873,3997730,336.283,32.8,97350.5,1.15668
207690215,207672534,3997730,336.476,32.8,97348.3,1.15666
207911486,207888686,3997730,336.325,32.8,97350.0,1.15668
208122614,208102362,3997730,336.325,32.8,97350.0,1.15668
208283525,208263368,3997730,336.521,32.8,97347.8,1.15665
208494691,208477071,3997730,336.391,32.81,97349.3,1.15667
208715720,208693082,3997730,336.391,32.8,97349.3,1.15667
208886747,208866617,3997730,336.521,32.81,97347.8,1.15665
209097904,209080255,3997730,336.325,32.8,97350.0,1.15668
209279062,209256367,3997730,336.153,32.8,97352.0,1.1567
209490159,209469987,3997730,336.111,32.8,97352.5,1.15671
209701558,209683799,3997730,335.96,32.81,97354.3,1.15673
209922738,209899971,3997730,335.617,32.8,97358.3,1.15678
210083672,210060936,3997730,336.219,32.81,97351.3,1.15669
210294650,210274513,3997730,336.219,32.81,97351.2,1.15669
210525838,210503210,3997730,335.575,32.81,97358.7,1.15678
210686793,210664103,3997730,336.09,32.81,97352.8,1.15671
210897968,210877718,3997730,336.09,32.81,97352.8,1.15671
211109059,211091377,3997730,336.24,32.81,97351.0,1.15669
211269825,211252202,3997730,335.487,32.81,97359.7,1.15679
211490916,211468233,3997730,335.939,32.81,97354.5,1.15673
211712245,211687959,3997730,335.897,32.81,97355.0,1.15674
211872935,211855277,3997730,336.003,32.81,97353.8,1.15672
212094402,212071466,3997730,335.852,32.81,97355.5,1.15674
212305195,212285028,3997730,335.982,32.81,97354.0,1.15673
212466672,212446025,3997730,336.069,32.81,97353.0,1.15671
212697379,212674736,3997730,336.174,32.81,97351.8,1.1567
212908514,212888355,3997730,335.939,32.81,97354.5,1.15673
213119720,213102059,3997730,335.789,32.81,97356.3,1.15675
213280740,213262989,3997730,335.831,32.81,97355.8,1.15675
213501863,213479138,3997730,335.659,32.81,97357.7,1.15677
213713105,213692862,3997730,335.96,32.81,97354.3,1.15673
213924222,213906568,3997730,336.003,32.81,97353.8,1.15672
214084942,214067327,3997730,335.744,32.81,97356.8,1.15676
214316361,214296128,3997730,335.789,32.81,97356.3,1.15675
214527600,214509697,3997730,336.111,32.81,97352.5,1.15671
214688448,214670694,3997730,335.81,32.81,97356.0,1.15675
214909827,214887014,3997730,335.894,32.81,97355.0,1.15674
215120976,215100769,3997730,335.789,32.81,97356.3,1.15675
215281809,215261649,3997730,335.53,32.82,97359.3,1.15679
215492939,215475306,3997730,335.596,32.82,97358.5,1.15678
215714192,215691536,3997730,335.744,32.81,97356.8,1.15676
215885119,215864993,3997730,335.918,32.82,97354.8,1.15674
216096329,216078650,3997730,335.939,32.82,97354.5,1.15673
216277251,216254576,3997730,335.918,32.82,97354.8,1.15674
216488440,216468262,3997730,336.433,32.81,97348.8,1.15666
216699609,216681920,3997730,336.346,32.81,97349.8,1.15668
216920740,216898108,3997730,336.111,32.82,97352.5,1.15671
217081625,217058934,3997730,336.219,32.82,97351.3,1.15669
217292843,217272617,3997730,336.542,32.82,97347.5,1.15665
217524086,217501290,3997730,336.262,32.82,97350.7,1.15669
217684790,217662128,3997730,336.132,32.82,97352.3,1.15671
217906136,217881798,3997730,336.293,32.82,97350.4,1.15668
218067029,218049395,3997730,336.283,32.82,97350.5,1.15668
218288294,218265503,3997730,336.476,32.82,97348.3,1.15666
218499341,218479187,3997730,336.412,32.82,97349.0,1.15667
218710440,218692811,3997730,335.982,32.82,97354.0,1.15673
218871300,218853643,3997730,336.045,32.82,97353.3,1.15672
219092467,219069841,3997730,336.09,32.82,97352.8,1.15671
219303679,219283480,3997730,336.045,32.82,97353.3,1.15672
219514968,219497291,3997730,335.683,32.82,97357.5,1.15677
219675689,219658006,3997730,335.767,32.82,97356.5,1.15676
219896854,219874099,3997730,335.424,32.82,97360.5,1.1568
220107932,220087767,3997730,335.617,32.82,97358.3,1.15678
220319169,220301441,3997730,335.725,32.83,97357.0,1.15676
220479915,220462254,3997730,335.553,32.82,97359.0,1.15679
220701489,220678595,3997730,335.638,32.82,97358.0,1.15677
220922710,220904951,3997730,335.252,32.83,97362.5,1.15683
221083427,221065818,3997730,335.596,32.83,97358.5,1.15678
221304486,221281846,3997730,335.445,32.83,97360.2,1.1568
221515474,221495316,3997730,335.53,32.83,97359.3,1.15679
221726494,221708828,3997730,335.487,32.83,97359.8,1.15679
221887343,221869698,3997730,335.403,32.83,97360.7,1.15681
222108572,222085707,3997730,335.509,32.83,97359.5,1.15679
222319582,222299412,3997730,335.701,32.83,97357.3,1.15677
222480298,222460166,3997730,335.337,32.83,97361.5,1.15682
222691253,222673627,3997730,335.553,32.83,97359.0,1.15679
222912512,222889884,3997730,335.294,32.83,97362.0,1.15682
223123706,223103518,3997730,335.725,32.83,97357.0,1.15676
223284469,223264268,3997730,335.294,32.83,97362.0,1.15682
223495675,223477989,3997730,335.767,32.83,97356.5,1.15676
223716879,223694048,3997730,335.638,32.83,97358.0,1.15677
223877750,223855003,3997730,335.96,32.83,97354.3,1.15673
224089017,224068690,3997730,335.831,32.83,97355.8,1.15675
224299948,224282297,3997730,335.659,32.84,97357.8,1.15677
224521071,224498265,3997730,335.81,32.84,97356.0,1.15675
224681913,224659190,3997730,335.789,32.84,97356.3,1.15675
224892902,224872752,3997730,336.024,32.84,97353.5,1.15672
225104202,225086525,3997730,335.767,32.84,97356.5,1.15676
225325472,225302675,3997730,335.96,32.84,97354.3,1.15673
225486327,225463618,3997730,335.96,32.84,97354.3,1.15673
225697537,225677285,3997730,335.596,32.84,97358.5,1.15678
225908566,225890912,3997730,336.024,32.84,97353.5,1.15672
226069472,226051735,3997730,335.81,32.84,97356.0,1.15675
226290585,226267891,3997730,335.725,32.84,97357.0,1.15676
226501776,226481531,3997730,335.789,32.85,97356.3,1.15675
226672554,226648430,3997730,335.828,32.84,97355.8,1.15675
226893727,226870975,3997730,335.789,32.84,97356.3,1.15675
227104998,227084757,3997730,335.873,32.84,97355.3,1.15674
227316050,227298345,3997730,335.767,32.84,97356.5,1.15676
227476912,227459203,3997730,335.424,32.85,97360.5,1.1568
227698147,227675493,3997730,335.744,32.84,97356.8,1.15676
227909407,227889242,3997730,335.572,32.84,97358.8,1.15678
228120757,228103006,3997730,335.228,32.85,97362.8,1.15683
228281683,228263836,3997730,335.617,32.85,97358.3,1.15678
228502612,228479987,3997730,335.939,32.85,97354.5,1.15673
228713945,228693516,3997730,335.572,32.85,97358.8,1.15678
228924913,228907290,3997730,335.638,32.85,97358.0,1.15677
229085772,229068136,3997730,335.81,32.85,97356.0,1.15675
229306893,229284209,3997730,335.855,32.85,97355.5,1.15674
229518491,229497830,3997730,336.069,32.85,97353.0,1.15671
229688813,229671172,3997730,336.198,32.85,97351.5,1.1567
229910124,229887348,3997730,336.198,32.85,97351.5,1.1567
230121122,230100955,3997730,336.198,32.85,97351.5,1.1567
230282036,230261880,3997730,336.626,32.85,97346.5,1.15664
230492984,230475339,3997730,336.542,32.86,97347.5,1.15665
230714040,230691399,3997730,336.542,32.86,97347.5,1.15665
230925114,230904981,3997730,336.713,32.85,97345.5,1.15663
231085990,231065786,3997730,336.777,32.86,97344.7,1.15662
231297252,231279540,3997730,336.153,32.85,97352.0,1.1567
231518534,231495770,3997730,336.219,32.86,97351.2,1.15669
231679344,231656618,3997730,335.831,32.86,97355.8,1.15675
231890450,231870323,3997730,335.744,32.86,97356.8,1.15676
232101965,232084149,3997730,335.831,32.86,97355.8,1.15675
232323091,232300320,3997730,335.228,32.86,97362.8,1.15683
232483777,232461137,3997730,335.207,32.86,97363.0,1.15683
232694824,232674686,3997730,335.186,32.86,97363.2,1.15684
232925971,232895790,3997730,335.31,32.86,97361.8,1.15682
233086731,233064036,3997730,335.358,32.86,97361.3,1.15681
233297902,233277703,3997730,335.553,32.86,97359.0,1.15679
233509003,233491327,3997730,335.683,32.86,97357.5,1.15677
233669806,233652183,3997730,335.252,32.87,97362.5,1.15683
233891041,233868370,3997730,335.4,32.87,97360.8,1.15681
234103056,234082090,3997730,335.207,32.87,97363.0,1.15683
234273028,234255425,3997730,335.466,32.87,97360.0,1.1568
234494147,234471460,3997730,335.982,32.86,97354.0,1.15673
234715569,234697832,3997730,335.81,32.87,97356.0,1.15675
234876521,234858864,3997730,335.572,32.87,97358.8,1.15678
235107704,235087523,3997730,335.617,32.87,97358.3,1.15678
235318617,235301001,3997730,335.424,32.87,97360.5,1.1568
235499552,235476911,3997730,335.509,32.87,97359.5,1.15679
235710584,235690417,3997730,335.553,32.87,97359.0,1.15679
235921708,235903997,3997730,336.09,32.87,97352.8,1.15671
