timestamp,q[0],q[1],q[2],q[3],delta_q_reset[0],delta_q_reset[1],delta_q_reset[2],delta_q_reset[3],quat_reset_counter
29920885,0.719366,0.00769111,-0.00811248,-0.694541,-0.999971,-9.84801e-10,2.3802e-10,-0.00764238,3
29925875,0.719297,0.00772432,-0.00805411,-0.694613,-0.999971,-9.84801e-10,2.3802e-10,-0.00764238,3
29975475,0.719716,0.00769264,-0.00800724,-0.69418,-0.999971,-9.84801e-10,2.3802e-10,-0.00764238,3
30025139,0.719632,0.00773163,-0.00815101,-0.694264,-0.999971,-9.84801e-10,2.3802e-10,-0.00764238,3
30074807,0.719692,0.00776912,-0.00783744,-0.694206,-0.999971,-9.84801e-10,2.3802e-10,-0.00764238,3
30124476,0.719384,0.00774285,-0.00792451,-0.694524,-0.999971,-9.84801e-10,2.3802e-10,-0.00764238,3
30174167,0.719665,0.0078123,-0.00796653,-0.694232,-0.999971,-9.84801e-10,2.3802e-10,-0.00764238,3
30223859,0.719586,0.00742114,-0.00783208,-0.69432,-0.999971,-9.84801e-10,2.3802e-10,-0.00764238,3
30273482,0.719599,0.0076029,-0.00770135,-0.694305,-0.999971,-9.84801e-10,2.3802e-10,-0.00764238,3
30323150,0.71978,0.00781327,-0.00794097,-0.694113,-0.999971,-9.84801e-10,2.3802e-10,-0.00764238,3
30372818,0.719968,0.00784816,-0.00777716,-0.693919,-0.999971,-9.84801e-10,2.3802e-10,-0.00764238,3
30427453,0.720081,0.00785678,-0.00781961,-0.693802,-0.999971,-9.84801e-10,2.3802e-10,-0.00764238,3
30472263,0.719937,0.00757846,-0.00799737,-0.693952,-0.999971,-9.84801e-10,2.3802e-10,-0.00764238,3
30521824,0.720217,0.00743012,-0.0078585,-0.693665,-0.999971,-9.84801e-10,2.3802e-10,-0.00764238,3
30571496,0.72046,0.00750667,-0.00756384,-0.693414,-0.999971,-9.84801e-10,2.3802e-10,-0.00764238,3
30626128,0.720685,0.00742619,-0.00745998,-0.693183,-0.999971,-9.84801e-10,2.3802e-10,-0.00764238,3
30675802,0.720869,0.00788097,-0.00759356,-0.692985,-0.999971,-9.84801e-10,2.3802e-10,-0.00764238,3
30720520,0.720933,0.00776659,-0.00822766,-0.692913,-0.999971,-9.84801e-10,2.3802e-10,-0.00764238,3
30775133,0.721119,0.00782037,-0.0082089,-0.692718,-0.999971,-9.84801e-10,2.3802e-10,-0.00764238,3
30824801,0.721203,0.00738648,-0.0082124,-0.692635,-0.999971,-9.84801e-10,2.3802e-10,-0.00764238,3
30874470,0.72139,0.00713987,-0.00788223,-0.692447,-0.999971,-9.84801e-10,2.3802e-10,-0.00764238,3
30924157,0.721551,0.00729982,-0.00766665,-0.692281,-0.999971,-9.84801e-10,2.3802e-10,-0.00764238,3
30973806,0.721657,0.00750885,-0.00742878,-0.69217,-0.999971,-9.84801e-10,2.3802e-10,-0.00764238,3
31023653,0.72182,0.0077362,-0.00740019,-0.691999,-0.999971,-9.84801e-10,2.3802e-10,-0.00764238,3
31073145,0.722101,0.00779943,-0.0073831,-0.691704,-0.999971,-9.84801e-10,2.3802e-10,-0.00764238,3
31127779,0.722141,0.00750401,-0.0074198,-0.691665,-0.999971,-9.84801e-10,2.3802e-10,-0.00764238,3
31172525,0.72246,0.00783506,-0.00734076,-0.691329,-0.999971,-9.84801e-10,2.3802e-10,-0.00764238,3
31222205,0.722437,0.00787412,-0.00742667,-0.691352,-0.999971,-9.84801e-10,2.3802e-10,-0.00764238,3
31271900,0.722441,0.00776093,-0.0077094,-0.691346,-0.999971,-9.84801e-10,2.3802e-10,-0.00764238,3
31326453,0.722594,0.0080239,-0.00742018,-0.691187,-0.999971,-9.84801e-10,2.3802e-10,-0.00764238,3
31376125,0.722725,0.00769798,-0.00768577,-0.69105,-0.999971,-9.84801e-10,2.3802e-10,-0.00764238,3
31420823,0.722826,0.00666973,-0.00755517,-0.690957,-0.999971,-9.84801e-10,2.3802e-10,-0.00764238,3
31475458,0.722874,0.00689815,-0.00744151,-0.690905,-0.999971,-9.84801e-10,2.3802e-10,-0.00764238,3
31525181,0.723066,0.00696611,-0.00725465,-0.690706,-0.999971,-9.84801e-10,2.3802e-10,-0.00764238,3
31574795,0.723159,0.00733922,-0.00714704,-0.690605,-0.999971,-9.84801e-10,2.3802e-10,-0.00764238,3
31624463,0.723334,0.00748612,-0.00712449,-0.690421,-0.999971,-9.84801e-10,2.3802e-10,-0.00764238,3
31674133,0.723493,0.00744749,-0.00714426,-0.690255,-0.999971,-9.84801e-10,2.3802e-10,-0.00764238,3
31723800,0.72359,0.0074368,-0.00717999,-0.690152,-0.999971,-9.84801e-10,2.3802e-10,-0.00764238,3
31773469,0.723825,0.00737147,-0.00708411,-0.689908,-0.999971,-9.84801e-10,2.3802e-10,-0.00764238,3
31823269,0.723914,0.00746527,-0.0071353,-0.689813,-0.999971,-9.84801e-10,2.3802e-10,-0.00764238,3
31872853,0.723933,0.00749027,-0.00741006,-0.68979,-0.999971,-9.84801e-10,2.3802e-10,-0.00764238,3
31922474,0.723929,0.00723337,-0.00774316,-0.689793,-0.999971,-9.84801e-10,2.3802e-10,-0.00764238,3
31972143,0.723985,0.0068067,-0.00764599,-0.68974,-0.999971,-9.84801e-10,2.3802e-10,-0.00764238,3
32026818,0.724081,0.00703144,-0.00760384,-0.689637,-0.999971,-9.84801e-10,2.3802e-10,-0.00764238,3
32071521,0.724388,0.00683054,-0.0069451,-0.689323,-0.999971,-9.84801e-10,2.3802e-10,-0.00764238,3
32121207,0.724528,0.00727942,-0.00693739,-0.689172,-0.999971,-9.84801e-10,2.3802e-10,-0.00764238,3
32175816,0.724514,0.00691929,-0.00693483,-0.68919,-0.999971,-9.84801e-10,2.3802e-10,-0.00764238,3
32225452,0.724636,0.00715468,-0.00690262,-0.68906,-0.999971,-9.84801e-10,2.3802e-10,-0.00764238,3
32275123,0.724766,0.00732609,-0.00702131,-0.68892,-0.999971,-9.84801e-10,2.3802e-10,-0.00764238,3
32324857,0.724938,0.00730311,-0.00711676,-0.688739,-0.999971,-9.84801e-10,2.3802e-10,-0.00764238,3
32374461,0.725107,0.00724463,-0.0069642,-0.688563,-0.999971,-9.84801e-10,2.3802e-10,-0.00764238,3
32424126,0.725134,0.00736043,-0.00701966,-0.688533,-0.999971,-9.84801e-10,2.3802e-10,-0.00764238,3
32473795,0.725177,0.0072653,-0.00707473,-0.688488,-0.999971,-9.84801e-10,2.3802e-10,-0.00764238,3
32523463,0.725143,0.00711559,-0.00726678,-0.688523,-0.999971,-9.84801e-10,2.3802e-10,-0.00764238,3
32573131,0.725274,0.00692788,-0.00716182,-0.688388,-0.999971,-9.84801e-10,2.3802e-10,-0.00764238,3
32622899,0.725441,0.00689569,-0.00673657,-0.688217,-0.999971,-9.84801e-10,2.3802e-10,-0.00764238,3
32672469,0.725621,0.00720735,-0.0065384,-0.688026,-0.999971,-9.84801e-10,2.3802e-10,-0.00764238,3
32727104,0.725632,0.00670225,-0.0067696,-0.688017,-0.999971,-9.84801e-10,2.3802e-10,-0.00764238,3
32771805,0.725753,0.00779302,-0.00668289,-0.687879,-0.999971,-9.84801e-10,2.3802e-10,-0.00764238,3
32821477,0.725902,0.00777035,-0.00680646,-0.68772,-0.999971,-9.84801e-10,2.3802e-10,-0.00764238,3
32876138,0.7259,0.00752202,-0.00685308,-0.687725,-0.999971,-9.84801e-10,2.3802e-10,-0.00764238,3
32925778,0.726031,0.0073711,-0.00683712,-0.687588,-0.999971,-9.84801e-10,2.3802e-10,-0.00764238,3
32975449,0.726199,0.0072978,-0.00680346,-0.687412,-0.999971,-9.84801e-10,2.3802e-10,-0.00764238,3
33020149,0.726169,0.00736041,-0.00672802,-0.687444,-0.999971,-9.84801e-10,2.3802e-10,-0.00764238,3
33074785,0.726238,0.00747241,-0.00682089,-0.687369,-0.999971,-9.84801e-10,2.3802e-10,-0.00764238,3
33124452,0.726106,0.00731678,-0.0070085,-0.687508,-0.999971,-9.84801e-10,2.3802e-10,-0.00764238,3
33174279,0.72607,0.00705152,-0.00688422,-0.687551,-0.999971,-9.84801e-10,2.3802e-10,-0.00764238,3
33223789,0.726033,0.00683642,-0.00680081,-0.687593,-0.999971,-9.84801e-10,2.3802e-10,-0.00764238,3
33273458,0.726017,0.00700566,-0.00649315,-0.68761,-0.999971,-9.84801e-10,2.3802e-10,-0.00764238,3
33323126,0.725948,0.00738259,-0.00642261,-0.68768,-0.999971,-9.84801e-10,2.3802e-10,-0.00764238,3
33372795,0.725832,0.00766052,-0.00640197,-0.687799,-0.999971,-9.84801e-10,2.3802e-10,-0.00764238,3
33422527,0.72591,0.00773349,-0.00648956,-0.687715,-0.999971,-9.84801e-10,2.3802e-10,-0.00764238,3
33472178,0.725945,0.0075718,-0.0063948,-0.687682,-0.999971,-9.84801e-10,2.3802e-10,-0.00764238,3
33521800,0.725872,0.00749732,-0.00650558,-0.687758,-0.999971,-9.84801e-10,2.3802e-10,-0.00764238,3
33576435,0.725886,0.00742529,-0.00634464,-0.687746,-0.999971,-9.84801e-10,2.3802e-10,-0.00764238,3
33626104,0.725805,0.00763756,-0.0063702,-0.687829,-0.999971,-9.84801e-10,2.3802e-10,-0.00764238,3
33675773,0.72577,0.00758443,-0.00646114,-0.687866,-0.999971,-9.84801e-10,2.3802e-10,-0.00764238,3
33720478,0.725451,0.00703951,-0.00652783,-0.688207,-0.999971,-9.84801e-10,2.3802e-10,-0.00764238,3
33775129,0.725484,0.00696205,-0.00659613,-0.688173,-0.999971,-9.84801e-10,2.3802e-10,-0.00764238,3
33824778,0.7254,0.00684627,-0.00644511,-0.688263,-0.999971,-9.84801e-10,2.3802e-10,-0.00764238,3
33874449,0.725376,0.00702054,-0.006183,-0.688289,-0.999971,-9.84801e-10,2.3802e-10,-0.00764238,3
33924115,0.725329,0.00744487,-0.00623882,-0.688334,-0.999971,-9.84801e-10,2.3802e-10,-0.00764238,3
33973921,0.725228,0.00767944,-0.00611696,-0.688438,-0.999971,-9.84801e-10,2.3802e-10,-0.00764238,3
34023452,0.725295,0.00774382,-0.00618992,-0.688367,-0.999971,-9.84801e-10,2.3802e-10,-0.00764238,3
34073122,0.725356,0.00764622,-0.0060073,-0.688305,-0.999971,-9.84801e-10,2.3802e-10,-0.00764238,3
34122790,0.725341,0.00771418,-0.00608839,-0.68832,-0.999971,-9.84801e-10,2.3802e-10,-0.00764238,3
34172460,0.725378,0.00782122,-0.00586894,-0.688282,-0.999971,-9.84801e-10,2.3802e-10,-0.00764238,3
34222207,0.725348,0.00805373,-0.00586095,-0.688311,-0.999971,-9.84801e-10,2.3802e-10,-0.00764238,3
34276796,0.72518,0.0073196,-0.00608597,-0.688494,-0.999971,-9.84801e-10,2.3802e-10,-0.00764238,3
34326430,0.725131,0.00725906,-0.00606249,-0.688546,-0.999971,-9.84801e-10,2.3802e-10,-0.00764238,3
34371176,0.725119,0.00762031,-0.0060971,-0.688555,-0.999971,-9.84801e-10,2.3802e-10,-0.00764238,3
34420850,0.724862,0.00761898,-0.00571537,-0.688828,-0.999971,-9.84801e-10,2.3802e-10,-0.00764238,3
34475436,0.724979,0.00800768,-0.00566267,-0.688701,-0.999971,-9.84801e-10,2.3802e-10,-0.00764238,3
34525294,0.72502,0.0071393,-0.00678787,-0.688657,-0.999971,-9.84801e-10,2.3802e-10,-0.00764238,3
34574773,0.724785,0.00639291,-0.00677231,-0.688912,-0.999971,-9.84801e-10,2.3802e-10,-0.00764238,3
34624441,0.724742,0.00771932,-0.00496868,-0.688959,-0.999971,-9.84801e-10,2.3802e-10,-0.00764238,3
34674110,0.724804,0.00771399,-0.00667441,-0.68888,-0.999971,-9.84801e-10,2.3802e-10,-0.00764238,3
34723779,0.724578,0.00667935,-0.00588385,-0.689135,-0.999971,-9.84801e-10,2.3802e-10,-0.00764238,3
34773544,0.724644,0.00803496,-0.00553297,-0.689054,-0.999971,-9.84801e-10,2.3802e-10,-0.00764238,3
34823117,0.724553,0.00685691,-0.0069702,-0.68915,-0.999971,-9.84801e-10,2.3802e-10,-0.00764238,3
34872784,0.724553,0.00753136,-0.00513925,-0.689159,-0.999971,-9.84801e-10,2.3802e-10,-0.00764238,3
34922452,0.724495,0.00706161,-0.00648907,-0.689214,-0.999971,-9.84801e-10,2.3802e-10,-0.00764238,3
34977088,0.724261,0.00684331,-0.00528703,-0.689472,-0.999971,-9.84801e-10,2.3802e-10,-0.00764238,3
35026824,0.724767,0.0076807,-0.00658548,-0.688919,-0.999971,-9.84801e-10,2.3802e-10,-0.00764238,3
35071458,0.724376,0.00748679,-0.00631014,-0.689336,-0.999971,-9.84801e-10,2.3802e-10,-0.00764238,3
35121128,0.72425,0.00662247,-0.00671891,-0.689473,-0.999971,-9.84801e-10,2.3802e-10,-0.00764238,3
35175764,0.724143,0.00763201,-0.00608665,-0.689581,-0.999971,-9.84801e-10,2.3802e-10,-0.00764238,3
35225431,0.724443,0.00686083,-0.00652771,-0.689269,-0.999971,-9.84801e-10,2.3802e-10,-0.00764238,3
35275100,0.724108,0.00703962,-0.00538587,-0.68963,-0.999971,-9.84801e-10,2.3802e-10,-0.00764238,3
35324916,0.724493,0.00780711,-0.00621698,-0.68921,-0.999971,-9.84801e-10,2.3802e-10,-0.00764238,3
35374451,0.723848,0.00671486,-0.00583024,-0.689902,-0.999971,-9.84801e-10,2.3802e-10,-0.00764238,3
35424129,0.724327,0.007481,-0.00563413,-0.689393,-0.999971,-9.84801e-10,2.3802e-10,-0.00764238,3
35473774,0.724015,0.00710036,-0.00550621,-0.689726,-0.999971,-9.84801e-10,2.3802e-10,-0.00764238,3
35523443,0.724109,0.00732312,-0.00701092,-0.689611,-0.999971,-9.84801e-10,2.3802e-10,-0.00764238,3
35573172,0.723916,0.00689507,-0.00459843,-0.689838,-0.999971,-9.84801e-10,2.3802e-10,-0.00764238,3
35622779,0.724149,0.0076454,-0.00671432,-0.689568,-0.999971,-9.84801e-10,2.3802e-10,-0.00764238,3
35677469,0.723975,0.00765361,-0.00566062,-0.689761,-0.999971,-9.84801e-10,2.3802e-10,-0.00764238,3
35722116,0.724067,0.00740346,-0.00600404,-0.689664,-0.999971,-9.84801e-10,2.3802e-10,-0.00764238,3
35771785,0.72382,0.00692712,-0.00571775,-0.689931,-0.999971,-9.84801e-10,2.3802e-10,-0.00764238,3
35821458,0.723839,0.00682255,-0.00558615,-0.689912,-0.999971,-9.84801e-10,2.3802e-10,-0.00764238,3
35876089,0.723898,0.00680184,-0.00518883,-0.689854,-0.999971,-9.84801e-10,2.3802e-10,-0.00764238,3
35925758,0.724145,0.00699267,-0.00510333,-0.689594,-0.999971,-9.84801e-10,2.3802e-10,-0.00764238,3
35970459,0.723844,0.00788207,-0.00617894,-0.689891,-0.999971,-9.84801e-10,2.3802e-10,-0.00764238,3
36025094,0.723748,0.00748545,-0.00673001,-0.689991,-0.999971,-9.84801e-10,2.3802e-10,-0.00764238,3
36074763,0.723766,0.00747404,-0.00585603,-0.68998,-0.999971,-9.84801e-10,2.3802e-10,-0.00764238,3
36124554,0.723707,0.0072481,-0.0059656,-0.690043,-0.999971,-9.84801e-10,2.3802e-10,-0.00764238,3
36174104,0.723699,0.00757009,-0.00640367,-0.690045,-0.999971,-9.84801e-10,2.3802e-10,-0.00764238,3
36223769,0.723711,0.00670625,-0.00520567,-0.690051,-0.999971,-9.84801e-10,2.3802e-10,-0.00764238,3
36273437,0.723556,0.00752008,-0.00632081,-0.690196,-0.999971,-9.84801e-10,2.3802e-10,-0.00764238,3
36323106,0.723549,0.00677965,-0.00605537,-0.690213,-0.999971,-9.84801e-10,2.3802e-10,-0.00764238,3
36377826,0.723679,0.00714816,-0.00522116,-0.69008,-0.999971,-9.84801e-10,2.3802e-10,-0.00764238,3
36422443,0.723763,0.00722288,-0.00534728,-0.68999,-0.999971,-9.84801e-10,2.3802e-10,-0.00764238,3
36472112,0.723699,0.00663475,-0.00520786,-0.690064,-0.999971,-9.84801e-10,2.3802e-10,-0.00764238,3
36521780,0.723519,0.00773941,-0.00652507,-0.690231,-0.999971,-9.84801e-10,2.3802e-10,-0.00764238,3
36576418,0.723589,0.00691252,-0.00605131,-0.69017,-0.999971,-9.84801e-10,2.3802e-10,-0.00764238,3
36626086,0.72348,0.00722324,-0.00608547,-0.69028,-0.999971,-9.84801e-10,2.3802e-10,-0.00764238,3
36670993,0.723325,0.0071095,-0.00517191,-0.690452,-0.999971,-9.84801e-10,2.3802e-10,-0.00764238,3
36725421,0.723567,0.00739753,-0.00729132,-0.690176,-0.999971,-9.84801e-10,2.3802e-10,-0.00764238,3
36775090,0.723615,0.00715589,-0.00536101,-0.690146,-0.999971,-9.84801e-10,2.3802e-10,-0.00764238,3
36824759,0.723354,0.00695929,-0.00696803,-0.690407,-0.999971,-9.84801e-10,2.3802e-10,-0.00764238,3
36874427,0.723522,0.00744153,-0.0059017,-0.690236,-0.999971,-9.84801e-10,2.3802e-10,-0.00764238,3
36924173,0.723486,0.00708644,-0.00572085,-0.690279,-0.999971,-9.84801e-10,2.3802e-10,-0.00764238,3
36973764,0.723185,0.00718301,-0.00671591,-0.690584,-0.999971,-9.84801e-10,2.3802e-10,-0.00764238,3
37023433,0.723181,0.00731573,-0.00687752,-0.690585,-0.999971,-9.84801e-10,2.3802e-10,-0.00764238,3
37073101,0.723419,0.00749586,-0.00646467,-0.690338,-0.999971,-9.84801e-10,2.3802e-10,-0.00764238,3
37122770,0.723578,0.00642011,-0.00524112,-0.690193,-0.999971,-9.84801e-10,2.3802e-10,-0.00764238,3
37172447,0.72296,0.00717608,-0.00683712,-0.690819,-0.999971,-9.84801e-10,2.3802e-10,-0.00764238,3
37222107,0.723273,0.00706265,-0.00663962,-0.690495,-0.999971,-9.84801e-10,2.3802e-10,-0.00764238,3
37276742,0.72326,0.00657781,-0.00574184,-0.690521,-0.999971,-9.84801e-10,2.3802e-10,-0.00764238,3
37321482,0.723365,0.00644632,-0.00586449,-0.690411,-0.999971,-9.84801e-10,2.3802e-10,-0.00764238,3
37371114,0.723041,0.00728013,-0.00683448,-0.690733,-0.999971,-9.84801e-10,2.3802e-10,-0.00764238,3
37425748,0.723151,0.00688417,-0.00566656,-0.690632,-0.999971,-9.84801e-10,2.3802e-10,-0.00764238,3
37475569,0.723134,0.00688175,-0.00731925,-0.690634,-0.999971,-9.84801e-10,2.3802e-10,-0.00764238,3
37525086,0.723249,0.00740805,-0.0058555,-0.690523,-0.999971,-9.84801e-10,2.3802e-10,-0.00764238,3
37574758,0.722991,0.00683167,-0.00656365,-0.690793,-0.999971,-9.84801e-10,2.3802e-10,-0.00764238,3
37624423,0.723304,0.00690294,-0.00639696,-0.690466,-0.999971,-9.84801e-10,2.3802e-10,-0.00764238,3
37674091,0.722723,0.00704914,-0.00640749,-0.691072,-0.999971,-9.84801e-10,2.3802e-10,-0.00764238,3
37723805,0.722985,0.00721889,-0.00688923,-0.690792,-0.999971,-9.84801e-10,2.3802e-10,-0.00764238,3
37773428,0.723082,0.00673218,-0.0060406,-0.690704,-0.999971,-9.84801e-10,2.3802e-10,-0.00764238,3
37823096,0.722711,0.00693251,-0.00714722,-0.691079,-0.999971,-9.84801e-10,2.3802e-10,-0.00764238,3
37872765,0.72305,0.0066734,-0.00649325,-0.690733,-0.999971,-9.84801e-10,2.3802e-10,-0.00764238,3
37922454,0.722856,0.00645269,-0.00662423,-0.690937,-0.999971,-9.84801e-10,2.3802e-10,-0.00764238,3
37977095,0.722968,0.00659958,-0.00625486,-0.690822,-0.999971,-9.84801e-10,2.3802e-10,-0.00764238,3
38021952,0.722907,0.0069208,-0.00674864,-0.690877,-0.999971,-9.84801e-10,2.3802e-10,-0.00764238,3
38071440,0.722637,0.00693392,-0.00732769,-0.691154,-0.999971,-9.84801e-10,2.3802e-10,-0.00764238,3
38126076,0.723085,0.00681004,-0.00600043,-0.6907,-0.999971,-9.84801e-10,2.3802e-10,-0.00764238,3
38175744,0.722624,0.00690936,-0.00655099,-0.691176,-0.999971,-9.84801e-10,2.3802e-10,-0.00764238,3
38225412,0.722745,0.00689141,-0.00678688,-0.691047,-0.999971,-9.84801e-10,2.3802e-10,-0.00764238,3
38270246,0.722633,0.00694103,-0.00647919,-0.691167,-0.999971,-9.84801e-10,2.3802e-10,-0.00764238,3
38324750,0.722588,0.00721483,-0.00696818,-0.691206,-0.999971,-9.84801e-10,2.3802e-10,-0.00764238,3
38374419,0.722824,0.00658253,-0.0063727,-0.690971,-0.999971,-9.84801e-10,2.3802e-10,-0.00764238,3
38424087,0.722632,0.00691941,-0.00751817,-0.691157,-0.999971,-9.84801e-10,2.3802e-10,-0.00764238,3
38473755,0.722551,0.0069196,-0.00628844,-0.691254,-0.999971,-9.84801e-10,2.3802e-10,-0.00764238,3
38523439,0.722469,0.00662277,-0.00712311,-0.691335,-0.999971,-9.84801e-10,2.3802e-10,-0.00764238,3
38573093,0.722535,0.00717952,-0.00694966,-0.691262,-0.999971,-9.84801e-10,2.3802e-10,-0.00764238,3
38622761,0.722803,0.00653326,-0.00620621,-0.690996,-0.999971,-9.84801e-10,2.3802e-10,-0.00764238,3
38672430,0.722426,0.00662137,-0.00798054,-0.691371,-0.999971,-9.84801e-10,2.3802e-10,-0.00764238,3
38722104,0.722534,0.00700839,-0.00693384,-0.691265,-0.999971,-9.84801e-10,2.3802e-10,-0.00764238,3
38771767,0.722539,0.0061068,-0.00702094,-0.691267,-0.999971,-9.84801e-10,2.3802e-10,-0.00764238,3
38826576,0.722502,0.00667901,-0.00620083,-0.691309,-0.999971,-9.84801e-10,2.3802e-10,-0.00764238,3
38876073,0.722207,0.00680089,-0.00718168,-0.691606,-0.999971,-9.84801e-10,2.3802e-10,-0.00764238,3
38925740,0.722326,0.0071335,-0.00729195,-0.691478,-0.999971,-9.84801e-10,2.3802e-10,-0.00764238,3
38970446,0.722447,0.00715927,-0.00721646,-0.691352,-0.999971,-9.84801e-10,2.3802e-10,-0.00764238,3
39025077,0.722187,0.00654473,-0.00723873,-0.691629,-0.999971,-9.84801e-10,2.3802e-10,-0.00764238,3
39074818,0.722455,0.00691649,-0.00678123,-0.69135,-0.999971,-9.84801e-10,2.3802e-10,-0.00764238,3
39124445,0.722112,0.00669199,-0.00711061,-0.691707,-0.999971,-9.84801e-10,2.3802e-10,-0.00764238,3
39174082,0.722114,0.00718926,-0.00709672,-0.6917,-0.999971,-9.84801e-10,2.3802e-10,-0.00764238,3
39223769,0.72223,0.00657458,-0.00742256,-0.691581,-0.999971,-9.84801e-10,2.3802e-10,-0.00764238,3
39273417,0.722255,0.00677972,-0.00710015,-0.691557,-0.999971,-9.84801e-10,2.3802e-10,-0.00764238,3
39323089,0.72205,0.00657329,-0.00794031,-0.691764,-0.999971,-9.84801e-10,2.3802e-10,-0.00764238,3
39372760,0.722193,0.00668056,-0.00703851,-0.691624,-0.999971,-9.84801e-10,2.3802e-10,-0.00764238,3
39422426,0.722019,0.00671955,-0.00752984,-0.691799,-0.999971,-9.84801e-10,2.3802e-10,-0.00764238,3
39472105,0.722075,0.00661311,-0.00724546,-0.691745,-0.999971,-9.84801e-10,2.3802e-10,-0.00764238,3
39526730,0.721973,0.00646384,-0.00707846,-0.691854,-0.999971,-9.84801e-10,2.3802e-10,-0.00764238,3
39576398,0.721901,0.00677776,-0.00749358,-0.691923,-0.999971,-9.84801e-10,2.3802e-10,-0.00764238,3
39621210,0.721635,0.00679151,-0.00787048,-0.692196,-0.999971,-9.84801e-10,2.3802e-10,-0.00764238,3
39670769,0.721996,0.00665198,-0.0074182,-0.691826,-0.999971,-9.84801e-10,2.3802e-10,-0.00764238,3
39725404,0.721735,0.00691453,-0.00729423,-0.692096,-0.999971,-9.84801e-10,2.3802e-10,-0.00764238,3
39775075,0.721629,0.00703891,-0.00731781,-0.692205,-0.999971,-9.84801e-10,2.3802e-10,-0.00764238,3
39824742,0.721963,0.00671607,-0.00703022,-0.691863,-0.999971,-9.84801e-10,2.3802e-10,-0.00764238,3
39874461,0.721752,0.00677842,-0.00753578,-0.692077,-0.999971,-9.84801e-10,2.3802e-10,-0.00764238,3
39924080,0.721648,0.00679814,-0.00719456,-0.692189,-0.999971,-9.84801e-10,2.3802e-10,-0.00764238,3
39973748,0.721692,0.00635305,-0.00776745,-0.692141,-0.999971,-9.84801e-10,2.3802e-10,-0.00764238,3
40023417,0.7217,0.00667057,-0.00729027,-0.692135,-0.999971,-9.84801e-10,2.3802e-10,-0.00764238,3
40073085,0.721654,0.00668258,-0.00763714,-0.692179,-0.999971,-9.84801e-10,2.3802e-10,-0.00764238,3
40122754,0.721787,0.00673696,-0.00737835,-0.692043,-0.999971,-9.84801e-10,2.3802e-10,-0.00764238,3
40172606,0.721611,0.0065866,-0.00812259,-0.69222,-0.999971,-9.84801e-10,2.3802e-10,-0.00764238,3
40227057,0.721727,0.00663003,-0.00785959,-0.692102,-0.999971,-9.84801e-10,2.3802e-10,-0.00764238,3
40276726,0.721522,0.00640226,-0.00833844,-0.692312,-0.999971,-9.84801e-10,2.3802e-10,-0.00764238,3
40321428,0.721784,0.0063202,-0.00806555,-0.692043,-0.999971,-9.84801e-10,2.3802e-10,-0.00764238,3
40371097,0.721654,0.00644794,-0.00737508,-0.692185,-0.999971,-9.84801e-10,2.3802e-10,-0.00764238,3
40425827,0.721696,0.00633935,-0.00778283,-0.692137,-0.999971,-9.84801e-10,2.3802e-10,-0.00764238,3
40475401,0.721694,0.00627792,-0.00835433,-0.692134,-0.999971,-9.84801e-10,2.3802e-10,-0.00764238,3
40525070,0.721735,0.00651007,-0.00754705,-0.692098,-0.999971,-9.84801e-10,2.3802e-10,-0.00764238,3
40574738,0.721614,0.00637887,-0.00849049,-0.692214,-0.999971,-9.84801e-10,2.3802e-10,-0.00764238,3
40624406,0.721832,0.00636719,-0.00815063,-0.691991,-0.999971,-9.84801e-10,2.3802e-10,-0.00764238,3
40674106,0.721854,0.00622637,-0.00824567,-0.691968,-0.999971,-9.84801e-10,2.3802e-10,-0.00764238,3
40723740,0.721643,0.00623251,-0.00862618,-0.692184,-0.999971,-9.84801e-10,2.3802e-10,-0.00764238,3
40773413,0.721759,0.00648946,-0.00802331,-0.692068,-0.999971,-9.84801e-10,2.3802e-10,-0.00764238,3
40823085,0.721524,0.00629355,-0.00864735,-0.692307,-0.999971,-9.84801e-10,2.3802e-10,-0.00764238,3
40872750,0.721734,0.00618583,-0.00837122,-0.692093,-0.999971,-9.84801e-10,2.3802e-10,-0.00764238,3
40927388,0.7215,0.00670319,-0.00802073,-0.692335,-0.999971,-9.84801e-10,2.3802e-10,-0.00764238,3
40972223,0.721376,0.00629765,-0.00837935,-0.692464,-0.999971,-9.84801e-10,2.3802e-10,-0.00764238,3
41021755,0.721833,0.00617898,-0.00861667,-0.691987,-0.999971,-9.84801e-10,2.3802e-10,-0.00764238,3
41071424,0.721559,0.00609593,-0.00846166,-0.692275,-0.999971,-9.84801e-10,2.3802e-10,-0.00764238,3
41126060,0.721714,0.00585245,-0.00869306,-0.692112,-0.999971,-9.84801e-10,2.3802e-10,-0.00764238,3
41175728,0.72169,0.00629343,-0.00863888,-0.692134,-0.999971,-9.84801e-10,2.3802e-10,-0.00764238,3
41220513,0.721597,0.00583843,-0.00884742,-0.692233,-0.999971,-9.84801e-10,2.3802e-10,-0.00764238,3
41275066,0.721347,0.00609377,-0.00859855,-0.692494,-0.999971,-9.84801e-10,2.3802e-10,-0.00764238,3
41324734,0.721404,0.00629544,-0.00830818,-0.692436,-0.999971,-9.84801e-10,2.3802e-10,-0.00764238,3
41374403,0.721601,0.00631141,-0.00833277,-0.69223,-0.999971,-9.84801e-10,2.3802e-10,-0.00764238,3
41424072,0.721529,0.00603334,-0.00909244,-0.692298,-0.999971,-9.84801e-10,2.3802e-10,-0.00764238,3
41473763,0.721712,0.00572306,-0.00858836,-0.692117,-0.999971,-9.84801e-10,2.3802e-10,-0.00764238,3
41523412,0.721555,0.00626943,-0.00795086,-0.692283,-0.999971,-9.84801e-10,2.3802e-10,-0.00764238,3
41573077,0.721316,0.0061622,-0.00863479,-0.692525,-0.999971,-9.84801e-10,2.3802e-10,-0.00764238,3
41627713,0.72141,0.00632408,-0.00873531,-0.692425,-0.999971,-9.84801e-10,2.3802e-10,-0.00764238,3
41672415,0.721474,0.00639027,-0.00846326,-0.69236,-0.999971,-9.84801e-10,2.3802e-10,-0.00764238,3
41722144,0.721511,0.00605621,-0.00875343,-0.692321,-0.999971,-9.84801e-10,2.3802e-10,-0.00764238,3
41771855,0.721607,0.00622246,-0.00891982,-0.692218,-0.999971,-9.84801e-10,2.3802e-10,-0.00764238,3
41826388,0.721523,0.0060116,-0.008848,-0.692308,-0.999971,-9.84801e-10,2.3802e-10,-0.00764238,3
41876072,0.721541,0.00571967,-0.00903097,-0.692289,-0.999971,-9.84801e-10,2.3802e-10,-0.00764238,3
41920759,0.721737,0.00572685,-0.00885595,-0.692087,-0.999971,-9.84801e-10,2.3802e-10,-0.00764238,3
41975394,0.721336,0.00602213,-0.00903623,-0.6925,-0.999971,-9.84801e-10,2.3802e-10,-0.00764238,3
42025091,0.721433,0.00604404,-0.00897906,-0.692399,-0.999971,-9.84801e-10,2.3802e-10,-0.00764238,3
42074731,0.721454,0.00555954,-0.00906274,-0.692381,-0.999971,-9.84801e-10,2.3802e-10,-0.00764238,3
42124400,0.721638,0.00561044,-0.00896213,-0.69219,-0.999971,-9.84801e-10,2.3802e-10,-0.00764238,3
42174070,0.721696,0.00522827,-0.00927319,-0.692128,-0.999971,-9.84801e-10,2.3802e-10,-0.00764238,3
42223738,0.721698,0.00580216,-0.00895819,-0.692126,-0.999971,-9.84801e-10,2.3802e-10,-0.00764238,3
42273410,0.721732,0.00611388,-0.00926622,-0.692083,-0.999971,-9.84801e-10,2.3802e-10,-0.00764238,3
42323231,0.720938,0.00540197,-0.00922905,-0.692917,-0.999971,-9.84801e-10,2.3802e-10,-0.00764238,3
42372743,0.720997,0.00563593,-0.00942141,-0.692851,-0.999971,-9.84801e-10,2.3802e-10,-0.00764238,3
42422420,0.721331,0.00675763,-0.00951407,-0.692492,-0.999971,-9.84801e-10,2.3802e-10,-0.00764238,3
42472081,0.72118,0.00601955,-0.00934326,-0.692658,-0.999971,-9.84801e-10,2.3802e-10,-0.00764238,3
42526716,0.721222,0.00566379,-0.0086695,-0.692627,-0.999971,-9.84801e-10,2.3802e-10,-0.00764238,3
42571481,0.721043,0.00666704,-0.00904738,-0.6928,-0.999971,-9.84801e-10,2.3802e-10,-0.00764238,3
42621087,0.721059,0.00566748,-0.008854,-0.692794,-0.999971,-9.84801e-10,2.3802e-10,-0.00764238,3
42675722,0.720789,0.00526619,-0.0093853,-0.693071,-0.999971,-9.84801e-10,2.3802e-10,-0.00764238,3
42725396,0.720865,0.00483041,-0.0100372,-0.692986,-0.999971,-9.84801e-10,2.3802e-10,-0.00764238,3
42775059,0.721305,0.00441213,-0.00962506,-0.692537,-0.999971,-9.84801e-10,2.3802e-10,-0.00764238,3
42824729,0.721548,0.00356376,-0.0101829,-0.69228,-0.999971,-9.84801e-10,2.3802e-10,-0.00764238,3
42874397,0.72139,0.00257267,-0.0104706,-0.692445,-0.999971,-9.84801e-10,2.3802e-10,-0.00764238,3
42924065,0.721387,0.00185847,-0.0111726,-0.692439,-0.999971,-9.84801e-10,2.3802e-10,-0.00764238,3
42973734,0.721635,0.00219081,-0.0120336,-0.692166,-0.999971,-9.84801e-10,2.3802e-10,-0.00764238,3
43023442,0.722475,0.00263669,-0.0108627,-0.691307,-0.999971,-9.84801e-10,2.3802e-10,-0.00764238,3
43073077,0.722659,0.00281704,-0.00985889,-0.691129,-0.999971,-9.84801e-10,2.3802e-10,-0.00764238,3
43122868,0.72294,0.00337109,-0.00982307,-0.690833,-0.999971,-9.84801e-10,2.3802e-10,-0.00764238,3
43172409,0.723028,0.00271419,-0.010421,-0.690735,-0.999971,-9.84801e-10,2.3802e-10,-0.00764238,3
43227045,0.723199,0.00282524,-0.0107473,-0.69055,-0.999971,-9.84801e-10,2.3802e-10,-0.00764238,3
43271747,0.724019,0.0032219,-0.0106778,-0.68969,-0.999971,-9.84801e-10,2.3802e-10,-0.00764238,3
43321415,0.724353,0.00339243,-0.00992607,-0.68935,-0.999971,-9.84801e-10,2.3802e-10,-0.00764238,3
43376107,0.724817,0.00270626,-0.0112324,-0.688845,-0.999971,-9.84801e-10,2.3802e-10,-0.00764238,3
43425719,0.725331,0.00162014,-0.0126418,-0.688282,-0.999971,-9.84801e-10,2.3802e-10,-0.00764238,3
43475388,0.726145,0.00136453,-0.0142726,-0.687393,-0.999971,-9.84801e-10,2.3802e-10,-0.00764238,3
43520090,0.72666,0.000439702,-0.0159763,-0.686811,-0.999971,-9.84801e-10,2.3802e-10,-0.00764238,3
43574725,0.727267,-0.00238334,-0.0176106,-0.686125,-0.999971,-9.84801e-10,2.3802e-10,-0.00764238,3
43624394,0.727697,-0.00407828,-0.0204975,-0.68558,-0.999971,-9.84801e-10,2.3802e-10,-0.00764238,3
43674248,0.728387,-0.00511818,-0.0209428,-0.684827,-0.999971,-9.84801e-10,2.3802e-10,-0.00764238,3
43723773,0.728539,-0.00481664,-0.0241104,-0.684563,-0.999971,-9.84801e-10,2.3802e-10,-0.00764238,3
43773400,0.729091,-0.00498938,-0.0247449,-0.683951,-0.999971,-9.84801e-10,2.3802e-10,-0.00764238,3
43823069,0.728973,-0.00475914,-0.0226831,-0.68415,-0.999971,-9.84801e-10,2.3802e-10,-0.00764238,3
43872739,0.728933,-0.00533761,-0.0203741,-0.684261,-0.999971,-9.84801e-10,2.3802e-10,-0.00764238,3
43922492,0.729035,-0.00731698,-0.0208212,-0.68412,-0.999971,-9.84801e-10,2.3802e-10,-0.00764238,3
43972125,0.728321,-0.00906831,-0.0234708,-0.684774,-0.999971,-9.84801e-10,2.3802e-10,-0.00764238,3
44021743,0.728089,-0.00885599,-0.0218673,-0.685076,-0.999971,-9.84801e-10,2.3802e-10,-0.00764238,3
44076423,0.727566,-0.00475399,-0.0212033,-0.685693,-0.999971,-9.84801e-10,2.3802e-10,-0.00764238,3
44126050,0.727424,-0.00249867,-0.0209584,-0.685864,-0.999971,-9.84801e-10,2.3802e-10,-0.00764238,3
44175804,0.727204,-0.00260903,-0.0208974,-0.686098,-0.999971,-9.84801e-10,2.3802e-10,-0.00764238,3
44220418,0.727359,-0.00670085,-0.0180949,-0.685986,-0.999971,-9.84801e-10,2.3802e-10,-0.00764238,3
44275055,0.72742,-0.00981329,-0.0142326,-0.685975,-0.999971,-9.84801e-10,2.3802e-10,-0.00764238,3
44324722,0.727197,-0.00699064,-0.0148734,-0.686232,-0.999971,-9.84801e-10,2.3802e-10,-0.00764238,3
44374392,0.726471,-0.00265107,-0.0176127,-0.686966,-0.999971,-9.84801e-10,2.3802e-10,-0.00764238,3
44424061,0.725687,-0.000246719,-0.020072,-0.687732,-0.999971,-9.84801e-10,2.3802e-10,-0.00764238,3
44473878,0.725204,-0.00376807,-0.0187601,-0.688268,-0.999971,-9.84801e-10,2.3802e-10,-0.00764238,3
44523398,0.725173,-0.00753733,-0.015852,-0.688344,-0.999971,-9.84801e-10,2.3802e-10,-0.00764238,3
44573067,0.724248,-0.00618393,-0.0172304,-0.689297,-0.999971,-9.84801e-10,2.3802e-10,-0.00764238,3
44622735,0.724105,-0.00349141,-0.0201625,-0.689386,-0.999971,-9.84801e-10,2.3802e-10,-0.00764238,3
44672405,0.723987,-0.00168966,-0.0205624,-0.689505,-0.999971,-9.84801e-10,2.3802e-10,-0.00764238,3
44722142,0.724109,0.000536685,-0.0207275,-0.689373,-0.999971,-9.84801e-10,2.3802e-10,-0.00764238,3
44776708,0.724758,0.000965186,-0.0206346,-0.688694,-0.999971,-9.84801e-10,2.3802e-10,-0.00764238,3
44826376,0.72526,-0.00164475,-0.0183327,-0.688229,-0.999971,-9.84801e-10,2.3802e-10,-0.00764238,3
44871078,0.726003,-0.00280683,-0.0163055,-0.687493,-0.999971,-9.84801e-10,2.3802e-10,-0.00764238,3
44920747,0.726436,-0.00228527,-0.0168638,-0.687023,-0.999971,-9.84801e-10,2.3802e-10,-0.00764238,3
44975384,0.727357,0.00028616,-0.0178921,-0.686026,-0.999971,-9.84801e-10,2.3802e-10,-0.00764238,3
45025051,0.728156,0.000932356,-0.0188961,-0.685151,-0.999971,-9.84801e-10,2.3802e-10,-0.00764238,3
45074721,0.72933,-0.000362376,-0.0199518,-0.683871,-0.999971,-9.84801e-10,2.3802e-10,-0.00764238,3
45124389,0.730947,-0.00254003,-0.0181367,-0.682189,-0.999971,-9.84801e-10,2.3802e-10,-0.00764238,3
45174058,0.73183,-0.000557285,-0.017401,-0.681264,-0.999971,-9.84801e-10,2.3802e-10,-0.00764238,3
45223726,0.732792,0.00111054,-0.0178889,-0.680217,-0.999971,-9.84801e-10,2.3802e-10,-0.00764238,3
45273511,0.734266,-0.000152373,-0.0178061,-0.678628,-0.999971,-9.84801e-10,2.3802e-10,-0.00764238,3
45323063,0.734921,-0.00147695,-0.0172919,-0.67793,-0.999971,-9.84801e-10,2.3802e-10,-0.00764238,3
45372732,0.734975,-0.000602945,-0.0174594,-0.677869,-0.999971,-9.84801e-10,2.3802e-10,-0.00764238,3
45422401,0.735485,-5.91787e-05,-0.014935,-0.677376,-0.999971,-9.84801e-10,2.3802e-10,-0.00764238,3
45477036,0.735358,0.00228021,-0.0123986,-0.677561,-0.999971,-9.84801e-10,2.3802e-10,-0.00764238,3
45526747,0.735062,0.00738165,-0.0138614,-0.677818,-0.999971,-9.84801e-10,2.3802e-10,-0.00764238,3
45571407,0.73468,0.0110478,-0.01731,-0.678103,-0.999971,-9.84801e-10,2.3802e-10,-0.00764238,3
45621079,0.733764,0.011121,-0.0204153,-0.679007,-0.999971,-9.84801e-10,2.3802e-10,-0.00764238,3
45675711,0.732646,0.011445,-0.0228319,-0.68013,-0.999971,-9.84801e-10,2.3802e-10,-0.00764238,3
45725393,0.731184,0.0137777,-0.0251661,-0.681576,-0.999971,-9.84801e-10,2.3802e-10,-0.00764238,3
45775054,0.730249,0.0157545,-0.0268693,-0.682471,-0.999971,-9.84801e-10,2.3802e-10,-0.00764238,3
45824899,0.729525,0.014534,-0.0262323,-0.683297,-0.999971,-9.84801e-10,2.3802e-10,-0.00764238,3
45874386,0.728763,0.00955923,-0.0215147,-0.684361,-0.999971,-9.84801e-10,2.3802e-10,-0.00764238,3
45924055,0.728528,0.00577983,-0.0158944,-0.684807,-0.999971,-9.84801e-10,2.3802e-10,-0.00764238,3
45973724,0.72807,0.00626077,-0.013671,-0.685338,-0.999971,-9.84801e-10,2.3802e-10,-0.00764238,3
46023393,0.727642,0.0124239,-0.020449,-0.685539,-0.999971,-9.84801e-10,2.3802e-10,-0.00764238,3
46073142,0.725979,0.0329138,-0.0481522,-0.685239,-0.999971,-9.84801e-10,2.3802e-10,-0.00764238,3
46122730,0.724016,0.0537806,-0.0820586,-0.68277,-0.999971,-9.84801e-10,2.3802e-10,-0.00764238,3
46177365,0.723513,0.0564424,-0.0966996,-0.68117,-0.999971,-9.84801e-10,2.3802e-10,-0.00764238,3
46222098,0.724617,0.0495986,-0.0901395,-0.681429,-0.999971,-9.84801e-10,2.3802e-10,-0.00764238,3
46271736,0.726834,0.0434261,-0.0745296,-0.681375,-0.999971,-9.84801e-10,2.3802e-10,-0.00764238,3
46321408,0.728771,0.0357611,-0.0560734,-0.68152,-0.999971,-9.84801e-10,2.3802e-10,-0.00764238,3
46376041,0.730557,0.0210375,-0.0361689,-0.681568,-0.999971,-9.84801e-10,2.3802e-10,-0.00764238,3
46425714,0.731196,0.0116757,-0.0246219,-0.681623,-0.999971,-9.84801e-10,2.3802e-10,-0.00764238,3
46470411,0.73156,0.00923662,-0.020443,-0.681408,-0.999971,-9.84801e-10,2.3802e-10,-0.00764238,3
46525046,0.731748,0.00931538,-0.0208342,-0.681193,-0.999971,-9.84801e-10,2.3802e-10,-0.00764238,3
46574715,0.732124,0.00711064,-0.0185979,-0.680881,-0.999971,-9.84801e-10,2.3802e-10,-0.00764238,3
46624530,0.73186,0.00453863,-0.0158433,-0.681256,-0.999971,-9.84801e-10,2.3802e-10,-0.00764238,3
46674053,0.732248,0.00256269,-0.013008,-0.68091,-0.999971,-9.84801e-10,2.3802e-10,-0.00764238,3
46723722,0.731961,0.00291158,-0.0157448,-0.681158,-0.999971,-9.84801e-10,2.3802e-10,-0.00764238,3
46773391,0.731969,0.00202118,-0.0182897,-0.68109,-0.999971,-9.84801e-10,2.3802e-10,-0.00764238,3
46823060,0.731442,3.786e-05,-0.0181664,-0.681662,-0.999971,-9.84801e-10,2.3802e-10,-0.00764238,3
46877762,0.731018,-0.00279014,-0.0160908,-0.682162,-0.999971,-9.84801e-10,2.3802e-10,-0.00764238,3
46922399,0.730521,-0.00485143,-0.0163976,-0.682676,-0.999971,-9.84801e-10,2.3802e-10,-0.00764238,3
46972065,0.729823,-0.00680277,-0.0199321,-0.683312,-0.999971,-9.84801e-10,2.3802e-10,-0.00764238,3
47021734,0.729418,-0.00934434,-0.0228053,-0.683624,-0.999971,-9.84801e-10,2.3802e-10,-0.00764238,3
47076370,0.727092,-0.0133117,-0.0246641,-0.685968,0.999997,6.41422e-10,-4.32156e-10,-0.00255763,4
47126064,0.726489,-0.0171495,-0.0272465,-0.686423,0.999997,6.41422e-10,-4.32156e-10,-0.00255763,4
47170961,0.726218,-0.0202926,-0.0307828,-0.686475,0.999997,6.41422e-10,-4.32156e-10,-0.00255763,4
47225376,0.725982,-0.0239361,-0.0333807,-0.686486,0.999997,6.41422e-10,-4.32156e-10,-0.00255763,4
47275045,0.725877,-0.0260986,-0.0345843,-0.686458,0.999997,6.41422e-10,-4.32156e-10,-0.00255763,4
47324714,0.726043,-0.0262413,-0.034589,-0.686278,0.999997,6.41422e-10,-4.32156e-10,-0.00255763,4
47374383,0.725936,-0.0242679,-0.03718,-0.686328,0.999997,6.41422e-10,-4.32156e-10,-0.00255763,4
47424169,0.725954,-0.0222068,-0.0371129,-0.686382,0.999997,6.41422e-10,-4.32156e-10,-0.00255763,4
47473720,0.72567,-0.0154119,-0.029837,-0.687223,0.999997,6.41422e-10,-4.32156e-10,-0.00255763,4
47523390,0.72615,-0.00776384,-0.017845,-0.68726,0.999997,6.41422e-10,-4.32156e-10,-0.00255763,4
47573058,0.726071,-0.00291087,-0.011783,-0.687513,0.999997,6.41422e-10,-4.32156e-10,-0.00255763,4
47622726,0.72611,-0.00138886,-0.0122167,-0.687469,0.999997,6.41422e-10,-4.32156e-10,-0.00255763,4
47672451,0.726262,-0.000487694,-0.0143474,-0.687268,0.999997,6.41422e-10,-4.32156e-10,-0.00255763,4
47722064,0.726448,-0.00033831,-0.0125748,-0.687106,0.999997,6.41422e-10,-4.32156e-10,-0.00255763,4
47776699,0.726616,0.000758697,-0.0103742,-0.686966,0.999997,6.41422e-10,-4.32156e-10,-0.00255763,4
47826374,0.72657,0.00169595,-0.00933039,-0.687028,0.999997,6.41422e-10,-4.32156e-10,-0.00255763,4
47871112,0.72665,0.00237221,-0.00979505,-0.686934,0.999997,6.41422e-10,-4.32156e-10,-0.00255763,4
47925706,0.72661,0.00299221,-0.0119166,-0.68694,0.999997,6.41422e-10,-4.32156e-10,-0.00255763,4
47975545,0.726651,0.00266023,-0.0122427,-0.686892,0.999997,6.41422e-10,-4.32156e-10,-0.00255763,4
48025080,0.726141,0.00235467,-0.0109514,-0.687455,0.999997,6.41422e-10,-4.32156e-10,-0.00255763,4
48074712,0.72606,0.00224676,-0.00970181,-0.687559,0.999997,6.41422e-10,-4.32156e-10,-0.00255763,4
48124385,0.725335,0.00304071,-0.0105873,-0.688308,0.999997,6.41422e-10,-4.32156e-10,-0.00255763,4
48174082,0.725082,0.00147738,-0.00970601,-0.688593,0.999997,6.41422e-10,-4.32156e-10,-0.00255763,4
48223786,0.724841,-0.006449,-0.00333722,-0.688878,0.999997,6.41422e-10,-4.32156e-10,-0.00255763,4
48273387,0.724609,-0.0214404,0.0121895,-0.688719,0.999997,6.41422e-10,-4.32156e-10,-0.00255763,4
48323089,0.723826,-0.0298698,0.0241088,-0.688914,0.999997,6.41422e-10,-4.32156e-10,-0.00255763,4
48372725,0.723521,-0.0309674,0.0268776,-0.689083,0.999997,6.41422e-10,-4.32156e-10,-0.00255763,4
48422393,0.722982,-0.0260272,0.0201806,-0.690082,0.999997,6.41422e-10,-4.32156e-10,-0.00255763,4
48477084,0.722509,-0.0186337,0.00917492,-0.691049,0.999997,6.41422e-10,-4.32156e-10,-0.00255763,4
48521731,0.722192,-0.0108117,0.000154058,-0.691608,0.999997,6.41422e-10,-4.32156e-10,-0.00255763,4
48571399,0.721982,-0.00399085,-0.00627445,-0.691872,0.999997,6.41422e-10,-4.32156e-10,-0.00255763,4
48626035,0.721776,-0.0023066,-0.00539335,-0.692102,0.999997,6.41422e-10,-4.32156e-10,-0.00255763,4
48675704,0.721661,-0.00235061,-0.00397155,-0.692231,0.999997,6.41422e-10,-4.32156e-10,-0.00255763,4
48725374,0.721714,-0.00123713,-0.00502271,-0.692172,0.999997,6.41422e-10,-4.32156e-10,-0.00255763,4
48770249,0.721261,0.00147976,-0.0087791,-0.692606,0.999997,6.41422e-10,-4.32156e-10,-0.00255763,4
48824725,0.721069,0.00234628,-0.0119169,-0.692756,0.999997,6.41422e-10,-4.32156e-10,-0.00255763,4
48874379,0.721021,-0.00113601,-0.0156947,-0.692734,0.999997,6.41422e-10,-4.32156e-10,-0.00255763,4
48924049,0.720791,-0.00742365,-0.0225032,-0.692748,0.999997,6.41422e-10,-4.32156e-10,-0.00255763,4
48973717,0.720186,-0.0124909,-0.0306738,-0.69299,0.999997,6.41422e-10,-4.32156e-10,-0.00255763,4
49023470,0.720161,-0.0168451,-0.0349859,-0.69272,0.999997,6.41422e-10,-4.32156e-10,-0.00255763,4
49073054,0.72019,-0.0205789,-0.0348276,-0.692597,0.999997,6.41422e-10,-4.32156e-10,-0.00255763,4
49122723,0.719761,-0.021621,-0.0363501,-0.692932,0.999997,6.41422e-10,-4.32156e-10,-0.00255763,4
49177358,0.7196,-0.0228439,-0.0393797,-0.692895,0.999997,6.41422e-10,-4.32156e-10,-0.00255763,4
49222060,0.719635,-0.0251335,-0.0413636,-0.692664,0.999997,6.41422e-10,-4.32156e-10,-0.00255763,4
49271724,0.71923,-0.0270225,-0.0437608,-0.692866,0.999997,6.41422e-10,-4.32156e-10,-0.00255763,4
49326368,0.719215,-0.0274175,-0.0452777,-0.692768,0.999997,6.41422e-10,-4.32156e-10,-0.00255763,4
49376035,0.719219,-0.0268227,-0.0457796,-0.692755,0.999997,6.41422e-10,-4.32156e-10,-0.00255763,4
49425738,0.718883,-0.026511,-0.0460635,-0.693096,0.999997,6.41422e-10,-4.32156e-10,-0.00255763,4
49470404,0.718591,-0.0277489,-0.0452915,-0.693401,0.999997,6.41422e-10,-4.32156e-10,-0.00255763,4
49525041,0.718273,-0.0278272,-0.0449316,-0.693751,0.999997,6.41422e-10,-4.32156e-10,-0.00255763,4
49574866,0.718585,-0.0272573,-0.0447994,-0.693459,0.999997,6.41422e-10,-4.32156e-10,-0.00255763,4
49624377,0.718478,-0.0273652,-0.0446641,-0.693575,0.999997,6.41422e-10,-4.32156e-10,-0.00255763,4
49674046,0.718565,-0.0270168,-0.0446182,-0.693501,0.999997,6.41422e-10,-4.32156e-10,-0.00255763,4
49723734,0.719048,-0.0271057,-0.0433345,-0.693078,0.999997,6.41422e-10,-4.32156e-10,-0.00255763,4
49773391,0.719031,-0.0273789,-0.0433951,-0.693081,0.999997,6.41422e-10,-4.32156e-10,-0.00255763,4
49823055,0.719273,-0.0273747,-0.0441256,-0.692784,0.999997,6.41422e-10,-4.32156e-10,-0.00255763,4
49872723,0.718922,-0.0251678,-0.0464245,-0.693082,0.999997,6.41422e-10,-4.32156e-10,-0.00255763,4
49922391,0.719544,-0.0231771,-0.0473298,-0.692444,0.999997,6.41422e-10,-4.32156e-10,-0.00255763,4
49972062,0.719633,-0.0196676,-0.0476725,-0.692437,0.999997,6.41422e-10,-4.32156e-10,-0.00255763,4
50026696,0.720275,-0.0139436,-0.0489755,-0.691818,0.999997,6.41422e-10,-4.32156e-10,-0.00255763,4
50076363,0.720967,-0.00500774,-0.0553591,-0.690736,0.999997,6.41422e-10,-4.32156e-10,-0.00255763,4
50121201,0.721121,0.00567347,-0.0654128,-0.689691,0.999997,6.41422e-10,-4.32156e-10,-0.00255763,4
50170734,0.720566,0.0205179,-0.0806649,-0.688372,0.999997,6.41422e-10,-4.32156e-10,-0.00255763,4
50225370,0.720574,0.0306119,-0.0893852,-0.686911,0.999997,6.41422e-10,-4.32156e-10,-0.00255763,4
50275039,0.7223,0.0268567,-0.0821029,-0.686164,0.999997,6.41422e-10,-4.32156e-10,-0.00255763,4
50324708,0.7238,0.0192986,-0.0683848,-0.686341,0.999997,6.41422e-10,-4.32156e-10,-0.00255763,4
50374435,0.724609,0.0187273,-0.0599519,-0.686292,0.999997,6.41422e-10,-4.32156e-10,-0.00255763,4
50424045,0.72481,0.0237437,-0.0591542,-0.685994,0.999997,6.41422e-10,-4.32156e-10,-0.00255763,4
50473715,0.72498,0.0244798,-0.0612694,-0.685602,0.999997,6.41422e-10,-4.32156e-10,-0.00255763,4
50523430,0.724933,0.0188601,-0.0617403,-0.685788,0.999997,6.41422e-10,-4.32156e-10,-0.00255763,4
50573052,0.725653,0.0112019,-0.0528804,-0.685935,0.999997,6.41422e-10,-4.32156e-10,-0.00255763,4
50622722,0.725728,0.00769549,-0.044885,-0.686473,0.999997,6.41422e-10,-4.32156e-10,-0.00255763,4
50672404,0.726158,0.00313005,-0.0356391,-0.686597,0.999997,6.41422e-10,-4.32156e-10,-0.00255763,4
50727057,0.726056,-0.000676103,-0.0266771,-0.687117,0.999997,6.41422e-10,-4.32156e-10,-0.00255763,4
50776694,0.725764,-0.000203827,-0.0203525,-0.687642,0.999997,6.41422e-10,-4.32156e-10,-0.00255763,4
50821396,0.725426,0.00174356,-0.015163,-0.688131,0.999997,6.41422e-10,-4.32156e-10,-0.00255763,4
50871064,0.725593,0.00289033,-0.0101996,-0.688042,0.999997,6.41422e-10,-4.32156e-10,-0.00255763,4
50925826,0.72564,0.00466022,-0.0105911,-0.687977,0.999997,6.41422e-10,-4.32156e-10,-0.00255763,4
50975368,0.7262,0.00423657,-0.0100093,-0.687397,0.999997,6.41422e-10,-4.32156e-10,-0.00255763,4
51025037,0.726605,0.00560996,-0.00975289,-0.686964,0.999997,6.41422e-10,-4.32156e-10,-0.00255763,4
51074706,0.72715,0.00711258,-0.00827582,-0.686392,0.999997,6.41422e-10,-4.32156e-10,-0.00255763,4
51124375,0.727457,0.00981046,-0.00915873,-0.686022,0.999997,6.41422e-10,-4.32156e-10,-0.00255763,4
51174116,0.727554,0.0219142,-0.0185973,-0.685448,0.999997,6.41422e-10,-4.32156e-10,-0.00255763,4
51223713,0.726957,0.0361473,-0.0351325,-0.684831,0.999997,6.41422e-10,-4.32156e-10,-0.00255763,4
51273383,0.726137,0.0460393,-0.0515715,-0.684066,0.999997,6.41422e-10,-4.32156e-10,-0.00255763,4
51323064,0.726207,0.0482225,-0.0626757,-0.682913,0.999997,6.41422e-10,-4.32156e-10,-0.00255763,4
51372720,0.72625,0.0457562,-0.0663542,-0.682689,0.999997,6.41422e-10,-4.32156e-10,-0.00255763,4
51427389,0.726893,0.0439303,-0.0642398,-0.682327,0.999997,6.41422e-10,-4.32156e-10,-0.00255763,4
51472233,0.72765,0.0400232,-0.0583459,-0.68229,0.999997,6.41422e-10,-4.32156e-10,-0.00255763,4
51521726,0.728125,0.031233,-0.0485866,-0.683006,0.999997,6.41422e-10,-4.32156e-10,-0.00255763,4
51571394,0.72883,0.0216219,-0.0357229,-0.68342,0.999997,6.41422e-10,-4.32156e-10,-0.00255763,4
51626030,0.728976,0.012514,-0.0209646,-0.684103,0.999997,6.41422e-10,-4.32156e-10,-0.00255763,4
51675737,0.729033,0.00732597,-0.0120829,-0.684333,0.999997,6.41422e-10,-4.32156e-10,-0.00255763,4
51720468,0.728911,0.00597281,-0.0107626,-0.684498,0.999997,6.41422e-10,-4.32156e-10,-0.00255763,4
51775038,0.728554,0.00564265,-0.0128039,-0.684846,0.999997,6.41422e-10,-4.32156e-10,-0.00255763,4
51824705,0.728011,0.00402293,-0.0146523,-0.685397,0.999997,6.41422e-10,-4.32156e-10,-0.00255763,4
51874375,0.72816,-0.00114713,-0.0148018,-0.685246,0.999997,6.41422e-10,-4.32156e-10,-0.00255763,4
51924043,0.727881,-0.00745614,-0.0183218,-0.685418,0.999997,6.41422e-10,-4.32156e-10,-0.00255763,4
51973738,0.727331,-0.0112302,-0.0229123,-0.685812,0.999997,6.41422e-10,-4.32156e-10,-0.00255763,4
52023431,0.727543,-0.013742,-0.0233767,-0.685527,0.999997,6.41422e-10,-4.32156e-10,-0.00255763,4
52073049,0.727035,-0.0127017,-0.0280609,-0.685909,0.999997,6.41422e-10,-4.32156e-10,-0.00255763,4
52127694,0.726768,-0.0157472,-0.0331522,-0.685902,0.999997,6.41422e-10,-4.32156e-10,-0.00255763,4
52172388,0.726517,-0.0207567,-0.0361806,-0.685881,0.999997,6.41422e-10,-4.32156e-10,-0.00255763,4
52222056,0.726054,-0.0260162,-0.038465,-0.686068,0.999997,6.41422e-10,-4.32156e-10,-0.00255763,4
52271964,0.72561,-0.0288123,-0.038463,-0.686426,0.999997,6.41422e-10,-4.32156e-10,-0.00255763,4
52326361,0.724965,-0.0288542,-0.0391098,-0.687069,0.999997,6.41422e-10,-4.32156e-10,-0.00255763,4
52376030,0.724983,-0.0289965,-0.0406572,-0.686954,0.999997,6.41422e-10,-4.32156e-10,-0.00255763,4
52420736,0.724968,-0.0304724,-0.0423792,-0.686802,0.999997,6.41422e-10,-4.32156e-10,-0.00255763,4
52475370,0.724802,-0.0334483,-0.0441636,-0.686727,0.999997,6.41422e-10,-4.32156e-10,-0.00255763,4
52525094,0.724572,-0.0343281,-0.0463514,-0.686782,0.999997,6.41422e-10,-4.32156e-10,-0.00255763,4
52574705,0.724231,-0.0340298,-0.0471526,-0.687101,0.999997,6.41422e-10,-4.32156e-10,-0.00255763,4
52624374,0.724044,-0.0359261,-0.0453656,-0.687322,0.999997,6.41422e-10,-4.32156e-10,-0.00255763,4
52674045,0.724077,-0.0376055,-0.0441406,-0.687277,0.999997,6.41422e-10,-4.32156e-10,-0.00255763,4
52723711,0.723833,-0.0377386,-0.0461045,-0.687398,0.999997,6.41422e-10,-4.32156e-10,-0.00255763,4
52773382,0.723793,-0.0360333,-0.0502431,-0.687242,0.999997,6.41422e-10,-4.32156e-10,-0.00255763,4
52823241,0.72396,-0.035026,-0.0527612,-0.686929,0.999997,6.41422e-10,-4.32156e-10,-0.00255763,4
52872718,0.723848,-0.0348931,-0.0524507,-0.687078,0.999997,6.41422e-10,-4.32156e-10,-0.00255763,4
52922428,0.723655,-0.0356949,-0.0485501,-0.687527,0.999997,6.41422e-10,-4.32156e-10,-0.00255763,4
52972057,0.724174,-0.0364894,-0.0454991,-0.687146,0.999997,6.41422e-10,-4.32156e-10,-0.00255763,4
53026691,0.723881,-0.0329118,-0.0477824,-0.687481,0.999997,6.41422e-10,-4.32156e-10,-0.00255763,4
53071530,0.724055,-0.029683,-0.0490406,-0.687356,0.999997,6.41422e-10,-4.32156e-10,-0.00255763,4
53121063,0.724253,-0.0255182,-0.0477664,-0.687404,0.999997,6.41422e-10,-4.32156e-10,-0.00255763,4
53175699,0.723738,-0.022741,-0.0419144,-0.688425,0.999997,6.41422e-10,-4.32156e-10,-0.00255763,4
53225367,0.723751,-0.0193656,-0.0342976,-0.688936,0.999997,6.41422e-10,-4.32156e-10,-0.00255763,4
53275036,0.722892,-0.0155912,-0.0303499,-0.690118,0.999997,6.41422e-10,-4.32156e-10,-0.00255763,4
53324724,0.721675,-0.0132118,-0.027798,-0.691548,0.999997,6.41422e-10,-4.32156e-10,-0.00255763,4
53374373,0.721249,-0.0123739,-0.0254489,-0.692098,0.999997,6.41422e-10,-4.32156e-10,-0.00255763,4
53424042,0.720225,-0.0108674,-0.0256942,-0.69318,0.999997,6.41422e-10,-4.32156e-10,-0.00255763,4
53473712,0.719883,-0.00950162,-0.0257057,-0.693554,0.999997,6.41422e-10,-4.32156e-10,-0.00255763,4
53523382,0.718547,-0.0067994,-0.0247139,-0.695006,0.999997,6.41422e-10,-4.32156e-10,-0.00255763,4
53573048,0.718535,-0.00768718,-0.0227552,-0.695076,0.999997,6.41422e-10,-4.32156e-10,-0.00255763,4
53622868,0.71746,-0.0113729,-0.0266535,-0.695996,0.999997,6.41422e-10,-4.32156e-10,-0.00255763,4
53672386,0.716991,-0.0166366,-0.0333076,-0.696088,0.999997,6.41422e-10,-4.32156e-10,-0.00255763,4
53727040,0.716022,-0.0211064,-0.0403123,-0.696593,0.999997,6.41422e-10,-4.32156e-10,-0.00255763,4
53771724,0.715013,-0.0237066,-0.0438916,-0.697329,0.999997,6.41422e-10,-4.32156e-10,-0.00255763,4
53821394,0.713905,-0.0258907,-0.0436943,-0.698398,0.999997,6.41422e-10,-4.32156e-10,-0.00255763,4
53876167,0.713179,-0.0277404,-0.0441051,-0.699043,0.999997,6.41422e-10,-4.32156e-10,-0.00255763,4
53925711,0.712452,-0.0283127,-0.045945,-0.699643,0.999997,6.41422e-10,-4.32156e-10,-0.00255763,4
53975366,0.711743,-0.0253401,-0.0446197,-0.700564,0.999997,6.41422e-10,-4.32156e-10,-0.00255763,4
54020081,0.711079,-0.0196556,-0.0407992,-0.701652,0.999997,6.41422e-10,-4.32156e-10,-0.00255763,4
54074704,0.710927,-0.0113758,-0.0295153,-0.702555,0.999997,6.41422e-10,-4.32156e-10,-0.00255763,4
54124414,0.711132,-0.00312396,-0.019903,-0.702769,0.999997,6.41422e-10,-4.32156e-10,-0.00255763,4
54174042,0.710963,0.00201082,-0.0144433,-0.703078,0.999997,6.41422e-10,-4.32156e-10,-0.00255763,4
54223712,0.710934,0.00390172,-0.0152558,-0.703082,0.999997,6.41422e-10,-4.32156e-10,-0.00255763,4
54273380,0.711406,0.00271589,-0.0128792,-0.702658,0.999997,6.41422e-10,-4.32156e-10,-0.00255763,4
54323048,0.711803,0.00217411,-0.00883938,-0.70232,0.999997,6.41422e-10,-4.32156e-10,-0.00255763,4
54372718,0.712364,0.0052158,-0.00845294,-0.70174,0.999997,6.41422e-10,-4.32156e-10,-0.00255763,4
54422503,0.712661,0.00823438,-0.0095602,-0.701395,0.999997,6.41422e-10,-4.32156e-10,-0.00255763,4
54472055,0.713441,0.00940805,-0.0118971,-0.700551,0.999997,6.41422e-10,-4.32156e-10,-0.00255763,4
54521724,0.714076,0.00763918,-0.011597,-0.69993,0.999997,6.41422e-10,-4.32156e-10,-0.00255763,4
54576360,0.714541,0.00594517,-0.0106006,-0.699488,0.999997,6.41422e-10,-4.32156e-10,-0.00255763,4
54626030,0.714302,0.00383272,-0.00967375,-0.69976,0.999997,6.41422e-10,-4.32156e-10,-0.00255763,4
54675738,0.714194,0.00415044,-0.0100703,-0.699864,0.999997,6.41422e-10,-4.32156e-10,-0.00255763,4
54720399,0.713654,0.00742225,-0.0148713,-0.700302,0.999997,6.41422e-10,-4.32156e-10,-0.00255763,4
54775035,0.713136,0.0166282,-0.0237968,-0.700424,0.999997,6.41422e-10,-4.32156e-10,-0.00255763,4
54824706,0.712337,0.0308099,-0.0370773,-0.70018,0.999997,6.41422e-10,-4.32156e-10,-0.00255763,4
54874391,0.710743,0.0441076,-0.0558114,-0.699846,0.999997,6.41422e-10,-4.32156e-10,-0.00255763,4
54924044,0.710861,0.0405632,-0.0554687,-0.699967,0.999997,6.41422e-10,-4.32156e-10,-0.00255763,4
54973951,0.712738,0.0213045,-0.0324965,-0.700354,0.999997,6.41422e-10,-4.32156e-10,-0.00255763,4
55023380,0.714118,0.00672097,-0.00999397,-0.699922,0.999997,6.41422e-10,-4.32156e-10,-0.00255763,4
55073049,0.714359,0.0054293,-0.00441359,-0.699745,0.999997,6.41422e-10,-4.32156e-10,-0.00255763,4
55122751,0.714892,0.00752747,-0.0114963,-0.6991,0.999997,6.41422e-10,-4.32156e-10,-0.00255763,4
55172386,0.715588,0.00634626,-0.0171607,-0.698283,0.999997,6.41422e-10,-4.32156e-10,-0.00255763,4
55222139,0.716774,0.00355657,-0.0162873,-0.697106,0.999997,6.41422e-10,-4.32156e-10,-0.00255763,4
55276690,0.717886,0.00217801,-0.0133954,-0.696029,0.999997,6.41422e-10,-4.32156e-10,-0.00255763,4
55326360,0.719238,0.0021507,-0.0132603,-0.694633,0.999997,6.41422e-10,-4.32156e-10,-0.00255763,4
55371061,0.720136,0.00240032,-0.0147531,-0.693672,0.999997,6.41422e-10,-4.32156e-10,-0.00255763,4
55420730,0.72082,0.0016355,-0.016015,-0.692935,0.999997,6.41422e-10,-4.32156e-10,-0.00255763,4
55475379,0.721934,-0.00143746,-0.0147299,-0.691804,0.999997,6.41422e-10,-4.32156e-10,-0.00255763,4
55525035,0.72261,-0.00542239,-0.016401,-0.69104,0.999997,6.41422e-10,-4.32156e-10,-0.00255763,4
55574718,0.723628,-0.0117594,-0.0196866,-0.689809,0.999997,6.41422e-10,-4.32156e-10,-0.00255763,4
55624374,0.724184,-0.0152209,-0.0214729,-0.689104,0.999997,6.41422e-10,-4.32156e-10,-0.00255763,4
55674042,0.724635,-0.0142122,-0.0250696,-0.688531,0.999997,6.41422e-10,-4.32156e-10,-0.00255763,4
55723710,0.724823,-0.0152339,-0.0270273,-0.688237,0.999997,6.41422e-10,-4.32156e-10,-0.00255763,4
55773521,0.725408,-0.0175399,-0.0287019,-0.687497,0.999997,6.41422e-10,-4.32156e-10,-0.00255763,4
55823075,0.725686,-0.0173964,-0.0291093,-0.68719,0.999997,6.41422e-10,-4.32156e-10,-0.00255763,4
55872717,0.726127,-0.0145737,-0.0285568,-0.686813,0.999997,6.41422e-10,-4.32156e-10,-0.00255763,4
55922386,0.726928,-0.0124378,-0.0297844,-0.685955,0.999997,6.41422e-10,-4.32156e-10,-0.00255763,4
55977022,0.727621,-0.0138798,-0.0319146,-0.685096,0.999997,6.41422e-10,-4.32156e-10,-0.00255763,4
56026811,0.727804,-0.0165893,-0.0375018,-0.684558,0.999997,6.41422e-10,-4.32156e-10,-0.00255763,4
56071392,0.727803,-0.0182824,-0.0417992,-0.684267,0.999997,6.41422e-10,-4.32156e-10,-0.00255763,4
56121061,0.727372,-0.0206467,-0.0441145,-0.684512,0.999997,6.41422e-10,-4.32156e-10,-0.00255763,4
56175697,0.726998,-0.0273548,-0.0460491,-0.684547,0.999997,6.41422e-10,-4.32156e-10,-0.00255763,4
56225366,0.726056,-0.0337399,-0.0480611,-0.685124,0.999997,6.41422e-10,-4.32156e-10,-0.00255763,4
56275054,0.725432,-0.034659,-0.0526692,-0.685399,0.999997,6.41422e-10,-4.32156e-10,-0.00255763,4
56324704,0.724645,-0.0326145,-0.056078,-0.686062,0.999997,6.41422e-10,-4.32156e-10,-0.00255763,4
56374373,0.724174,-0.0331273,-0.0557167,-0.686564,0.999997,6.41422e-10,-4.32156e-10,-0.00255763,4
56424042,0.72322,-0.035606,-0.0555166,-0.687461,0.999997,6.41422e-10,-4.32156e-10,-0.00255763,4
56473711,0.722728,-0.038831,-0.0546147,-0.687876,0.999997,6.41422e-10,-4.32156e-10,-0.00255763,4
56523380,0.721727,-0.0384152,-0.0556107,-0.68887,0.999997,6.41422e-10,-4.32156e-10,-0.00255763,4
56573158,0.721467,-0.0371148,-0.0522945,-0.689474,0.999997,6.41422e-10,-4.32156e-10,-0.00255763,4
56622717,0.720836,-0.0345453,-0.0512058,-0.690348,0.999997,6.41422e-10,-4.32156e-10,-0.00255763,4
56677353,0.720426,-0.0315599,-0.0508163,-0.690947,0.999997,6.41422e-10,-4.32156e-10,-0.00255763,4
56722055,0.720101,-0.0311694,-0.0513941,-0.691261,0.999997,6.41422e-10,-4.32156e-10,-0.00255763,4
56771724,0.719633,-0.0333698,-0.0493412,-0.691795,0.999997,6.41422e-10,-4.32156e-10,-0.00255763,4
56821405,0.719345,-0.0327079,-0.0476646,-0.692243,0.999997,6.41422e-10,-4.32156e-10,-0.00255763,4
56876029,0.718753,-0.0285612,-0.0454521,-0.69319,0.999997,6.41422e-10,-4.32156e-10,-0.00255763,4
56925698,0.71795,-0.024626,-0.044176,-0.694255,0.999997,6.41422e-10,-4.32156e-10,-0.00255763,4
56975367,0.717326,-0.0185188,-0.0426635,-0.695184,0.999997,6.41422e-10,-4.32156e-10,-0.00255763,4
57025035,0.716638,-0.00874365,-0.046495,-0.695839,0.999997,6.41422e-10,-4.32156e-10,-0.00255763,4
57074706,0.715699,0.00050016,-0.0500936,-0.69661,0.999997,6.41422e-10,-4.32156e-10,-0.00255763,4
57124547,0.715643,0.00733284,-0.0513273,-0.696539,0.999997,6.41422e-10,-4.32156e-10,-0.00255763,4
57174042,0.715621,0.00986654,-0.0473286,-0.696814,0.999997,6.41422e-10,-4.32156e-10,-0.00255763,4
57223711,0.715992,0.0086822,-0.042656,-0.69675,0.999997,6.41422e-10,-4.32156e-10,-0.00255763,4
57273380,0.716092,0.00740321,-0.0422843,-0.696684,0.999997,6.41422e-10,-4.32156e-10,-0.00255763,4
57323050,0.716803,0.00608963,-0.0423259,-0.695963,0.999997,6.41422e-10,-4.32156e-10,-0.00255763,4
57377779,0.717676,0.00352151,-0.044394,-0.694951,0.999997,6.41422e-10,-4.32156e-10,-0.00255763,4
57422387,0.718084,0.00233716,-0.0463194,-0.694409,0.999997,6.41422e-10,-4.32156e-10,-0.00255763,4
57472055,0.719224,-0.00399738,-0.0467917,-0.693189,0.999997,6.41422e-10,-4.32156e-10,-0.00255763,4
57521726,0.71973,-0.0081386,-0.046545,-0.692644,0.999997,6.41422e-10,-4.32156e-10,-0.00255763,4
57576360,0.721059,-0.00831823,-0.0471591,-0.691217,0.999997,6.41422e-10,-4.32156e-10,-0.00255763,4
57626031,0.721855,-0.00490954,-0.051397,-0.690116,0.999997,6.41422e-10,-4.32156e-10,-0.00255763,4
57670731,0.72321,-0.00736536,-0.04873,-0.688867,0.999997,6.41422e-10,-4.32156e-10,-0.00255763,4
57725407,0.72518,-0.0139422,-0.0433107,-0.687055,0.999997,6.41422e-10,-4.32156e-10,-0.00255763,4
57775038,0.726531,-0.0202637,-0.0408457,-0.685619,0.999997,6.41422e-10,-4.32156e-10,-0.00255763,4
57824705,0.727632,-0.0221374,-0.0410268,-0.684381,0.999997,6.41422e-10,-4.32156e-10,-0.00255763,4
57874374,0.728758,-0.0219073,-0.0429553,-0.683072,0.999997,6.41422e-10,-4.32156e-10,-0.00255763,4
57924181,0.729612,-0.0218405,-0.0459933,-0.681964,0.999997,6.41422e-10,-4.32156e-10,-0.00255763,4
57973711,0.730418,-0.0199289,-0.0501697,-0.680864,0.999997,6.41422e-10,-4.32156e-10,-0.00255763,4
58023380,0.731297,-0.0169916,-0.0530042,-0.679785,0.999997,6.41422e-10,-4.32156e-10,-0.00255763,4
58073051,0.731816,-0.0158341,-0.053045,-0.67925,0.999997,6.41422e-10,-4.32156e-10,-0.00255763,4
58122718,0.731996,-0.0144093,-0.0547396,-0.678954,0.999997,6.41422e-10,-4.32156e-10,-0.00255763,4
58172476,0.731939,-0.0100242,-0.0602758,-0.678624,0.999997,6.41422e-10,-4.32156e-10,-0.00255763,4
58222056,0.730918,0.000884595,-0.0736278,-0.678482,0.999997,6.41422e-10,-4.32156e-10,-0.00255763,4
58276736,0.72991,0.0117855,-0.0879059,-0.677764,0.999997,6.41422e-10,-4.32156e-10,-0.00255763,4
58326361,0.728866,0.0150617,-0.0925816,-0.6782,0.999997,6.41422e-10,-4.32156e-10,-0.00255763,4
58371068,0.728406,0.0125199,-0.0884188,-0.679301,0.999997,6.41422e-10,-4.32156e-10,-0.00255763,4
58425772,0.728136,0.00890057,-0.0831422,-0.680314,0.999997,6.41422e-10,-4.32156e-10,-0.00255763,4
58475370,0.727228,0.00831094,-0.0818954,-0.681443,0.999997,6.41422e-10,-4.32156e-10,-0.00255763,4
58525036,0.726309,0.00657163,-0.0858027,-0.68196,0.999997,6.41422e-10,-4.32156e-10,-0.00255763,4
58574715,0.726217,0.0035069,-0.0871938,-0.681904,0.999997,6.41422e-10,-4.32156e-10,-0.00255763,4
58624374,0.726951,0.000794397,-0.0844398,-0.681477,0.999997,6.41422e-10,-4.32156e-10,-0.00255763,4
58674090,0.727416,-0.00185281,-0.0796087,-0.681561,0.999997,6.41422e-10,-4.32156e-10,-0.00255763,4
58723867,0.728295,-0.00191896,-0.078363,-0.680766,0.999997,6.41422e-10,-4.32156e-10,-0.00255763,4
58773381,0.728857,-0.000327441,-0.0784163,-0.68016,0.999997,6.41422e-10,-4.32156e-10,-0.00255763,4
58823050,0.729019,0.000173681,-0.0771424,-0.680133,0.999997,6.41422e-10,-4.32156e-10,-0.00255763,4
58872719,0.7295,-0.00104255,-0.0772731,-0.679601,0.999997,6.41422e-10,-4.32156e-10,-0.00255763,4
58922388,0.729989,-0.00289318,-0.0764557,-0.679163,0.999997,6.41422e-10,-4.32156e-10,-0.00255763,4
58977051,0.730154,-0.0061408,-0.0713809,-0.679516,0.999997,6.41422e-10,-4.32156e-10,-0.00255763,4
59021737,0.730844,-0.00898639,-0.0651275,-0.67937,0.999997,6.41422e-10,-4.32156e-10,-0.00255763,4
59071395,0.731916,-0.00773573,-0.0628636,-0.678444,0.999997,6.41422e-10,-4.32156e-10,-0.00255763,4
59126032,0.732569,-0.00687149,-0.0611945,-0.677902,0.999997,6.41422e-10,-4.32156e-10,-0.00255763,4
59175700,0.733405,-0.0107987,-0.0571695,-0.677298,0.999997,6.41422e-10,-4.32156e-10,-0.00255763,4
59225412,0.734263,-0.0155907,-0.0474089,-0.677028,0.999997,6.41422e-10,-4.32156e-10,-0.00255763,4
59270213,0.734686,-0.0168668,-0.0383692,-0.677112,0.999997,6.41422e-10,-4.32156e-10,-0.00255763,4
59324706,0.735698,-0.0148896,-0.028892,-0.676529,0.999997,6.41422e-10,-4.32156e-10,-0.00255763,4
59374376,0.736141,-0.012236,-0.0246709,-0.676268,0.999997,6.41422e-10,-4.32156e-10,-0.00255763,4
59424045,0.736277,-0.010845,-0.0254669,-0.676114,0.999997,6.41422e-10,-4.32156e-10,-0.00255763,4
59473715,0.736279,-0.0107371,-0.0280744,-0.67601,0.999997,6.41422e-10,-4.32156e-10,-0.00255763,4
59523454,0.73632,-0.0117881,-0.0292656,-0.675898,0.999997,6.41422e-10,-4.32156e-10,-0.00255763,4
59573051,0.73638,-0.0140789,-0.0301632,-0.675749,0.999997,6.41422e-10,-4.32156e-10,-0.00255763,4
59622720,0.736203,-0.0160499,-0.0309028,-0.675865,0.999997,6.41422e-10,-4.32156e-10,-0.00255763,4
59677356,0.73543,-0.0196848,-0.0368166,-0.676314,0.999997,6.41422e-10,-4.32156e-10,-0.00255763,4
59722071,0.735016,-0.0226835,-0.0452984,-0.676154,0.999997,6.41422e-10,-4.32156e-10,-0.00255763,4
59771733,0.733792,-0.0247188,-0.0516675,-0.676955,0.999997,6.41422e-10,-4.32156e-10,-0.00255763,4
59826363,0.733281,-0.0291181,-0.0515619,-0.677342,0.999997,6.41422e-10,-4.32156e-10,-0.00255763,4
59876031,0.732457,-0.0331322,-0.0474454,-0.678349,0.999997,6.41422e-10,-4.32156e-10,-0.00255763,4
59925700,0.731675,-0.0353642,-0.0448192,-0.679259,0.999997,6.41422e-10,-4.32156e-10,-0.00255763,4
59970408,0.731164,-0.0367625,-0.0448302,-0.679734,0.999997,6.41422e-10,-4.32156e-10,-0.00255763,4
60025051,0.729772,-0.0340424,-0.0471448,-0.681213,0.999997,6.41422e-10,-4.32156e-10,-0.00255763,4
