timestamp,timestamp_sample,accel_device_id,gyro_device_id,delta_angle[0],delta_angle[1],delta_angle[2],delta_velocity[0],delta_velocity[1],delta_velocity[2],delta_angle_dt,delta_velocity_dt,delta_velocity_clipping
29921214,29920885,3670026,3670026,-6.96538e-05,7.80765e-05,-0.000194128,-0.00157246,0.000548953,-0.0486634,4990,4990,0
29926269,29925875,3670026,3670026,-6.41275e-05,0.000132967,-0.000182601,-0.00146302,-0.000203661,-0.0487315,4990,4990,0
30427773,30427453,3670026,3670026,0.000261954,0.000235825,0.000244974,-0.0055452,-0.00431289,-0.0521184,4966,4966,0
30924528,30924157,3670026,3670026,-0.000173226,-0.00117098,-8.96268e-05,-0.00225573,-0.000251273,-0.0500733,4985,4985,0
31421194,31420823,3670026,3670026,-0.000355039,-0.000930825,-0.000206406,0.00279495,0.00733516,-0.0462194,4967,4967,0
31922849,31922474,3670026,3670026,0.000883374,-8.67082e-05,7.39544e-06,0.00416562,-0.00297719,-0.0530767,4964,4964,0
32424477,32424126,3670026,3670026,0.000263541,7.9779e-05,0.00021414,-0.00198054,-0.00502557,-0.0526367,4966,4966,0
32926131,32925778,3670026,3670026,-2.76967e-05,-0.000221526,-0.000303401,0.0023222,-0.00237343,-0.0454539,4967,4967,0
33427894,33427524,3670026,3670026,-0.000614722,-0.0005566,-0.000410958,-0.00140091,-0.00582886,-0.0498026,4997,4997,0
33924439,33924115,3670026,3670026,-0.000738666,-0.000659617,-5.50052e-05,-0.00366242,-0.00221292,-0.0464385,4966,4966,0
34421225,34420850,3670026,3670026,-0.000792297,0.00208766,-0.000335565,-0.00812612,-0.00126155,-0.0531447,5016,5016,0
34922774,34922452,3670026,3670026,0.00128869,-0.00120146,0.00010691,-0.00184518,-0.00925597,-0.0435519,4966,4966,0
35424452,35424129,3670026,3670026,-0.000834352,0.00171232,0.00105547,-0.00810035,-0.00215175,-0.0538833,4969,4969,0
35926193,35925758,3670026,3670026,-0.00327362,0.00174247,0.000829297,-0.0121357,0.00492367,-0.0582666,4968,4968,0
36422788,36422443,3670026,3670026,-0.00292715,0.00177699,0.000597634,-0.0169819,0.00404409,-0.066056,4967,4967,0
36924590,36924173,3670026,3670026,-0.00114451,-0.000237979,0.000247646,0.0173528,0.00218579,-0.0364141,4973,4973,0
37426182,37425748,3670026,3670026,-0.00139602,0.000488703,-0.000215157,0.00101196,0.00317057,-0.0412989,4967,4967,0
37922840,37922454,3670026,3670026,-0.000378532,-0.00130011,-0.000169739,0.0139867,0.00646285,-0.0383133,4977,4977,0
38424413,38424087,3670026,3670026,0.00100906,-0.000806626,2.04572e-05,0.00646445,-0.00757339,-0.0451702,4967,4967,0
38926070,38925740,3670026,3670026,0.000280918,0.00120665,0.000155606,-0.0185805,-0.00597776,-0.060808,4967,4967,0
39422770,39422426,3670026,3670026,0.000282987,-0.00068497,0.000129122,0.00784862,-0.00512822,-0.0444136,4961,4961,0
39924423,39924080,3670026,3670026,-0.000759457,0.000777892,-0.000162969,-0.00864492,0.000418887,-0.0541041,4968,4968,0
40426179,40425827,3670026,3670026,-0.0011478,0.00038009,0.000229134,-0.00520846,0.00537019,-0.0464611,4991,4991,0
40927712,40927388,3670026,3670026,-0.000577572,0.000179703,0.000191232,-0.00338757,-0.000425071,-0.0488197,4969,4969,0
41424443,41424072,3670026,3670026,0.000572321,-0.000527544,-6.65454e-05,0.00555983,-0.00894965,-0.0475946,4967,4967,0
41926098,41925727,3670026,3670026,3.04026e-05,-0.000475934,-0.000640168,-0.00478836,-0.0130645,-0.0478603,4968,4968,0
42422751,42422420,3670026,3670026,0.00149334,0.000224838,-0.00043877,-0.000146815,-0.00407378,-0.0499766,4975,4975,0
42924411,42924065,3670026,3670026,-0.000100934,4.13044e-05,-7.08521e-05,0.000423449,0.003124,-0.045184,4966,4966,0
43426065,43425719,3670026,3670026,0.00111255,-0.00109043,-0.000821783,-0.0013764,-0.0322994,-0.0555828,4967,4967,0
43927865,43927484,3670026,3670026,0.00241848,-0.00161446,-0.00128806,0.00603518,-0.0248471,-0.0398674,4992,4992,0
44424435,44424061,3670026,3670026,0.0018945,-0.000838693,-0.000651127,0.00166551,0.00300652,-0.0426408,4967,4967,0
44921115,44920747,3670026,3670026,7.30812e-05,0.000457472,4.56489e-05,-0.00668601,-0.00260499,-0.0540752,4967,4967,0
45422828,45422401,3670026,3670026,0.000869676,0.000417305,-3.26552e-05,0.0045761,0.0106878,-0.0397624,4967,4967,0
45924379,45924055,3670026,3670026,-0.000847549,0.000249465,0.000146066,0.00856906,0.0273888,-0.0371397,4965,4965,0
46426061,46425714,3670026,3670026,-8.8925e-05,-0.000232211,-0.000618049,0.0117326,-0.0120688,-0.0306917,4970,4970,0
46922739,46922399,3670026,3670026,-9.79375e-05,-0.000705473,-0.000408173,-3.16752e-05,0.00973536,-0.0406765,4968,4968,0
47424580,47424169,3670026,3670026,-0.00065056,0.00135961,0.000150826,-0.00811443,-0.000902433,-0.0518994,5000,5000,0
47926078,47925706,3670026,3670026,0.000513385,-0.000402762,-0.00079888,-0.0018109,-0.00221686,-0.0467731,4967,4967,0
48422819,48422393,3670026,3670026,0.00324539,-0.000950004,-0.000802278,0.00354969,0.00418875,-0.0400681,4967,4967,0
48924370,48924049,3670026,3670026,-0.000687865,-0.00198789,0.000505156,-0.00597626,-0.0116982,-0.0584885,4968,4968,0
49426073,49425738,3670026,3670026,0.000737748,-7.06427e-05,-0.000534109,0.000480047,0.00122948,-0.0424523,5002,5002,0
49922733,49922391,3670026,3670026,-0.000994122,0.000648306,0.00124253,-0.00106313,0.0177033,-0.046615,4967,4967,0
50424391,50424045,3670026,3670026,0.00258525,-0.000147683,-0.000172043,-0.00273892,0.00256384,-0.0476079,4967,4967,0
50926201,50925826,3670026,3670026,0.000448053,-5.66751e-05,-7.96987e-05,-0.0103652,-0.017694,-0.0556411,4992,4992,0
51427781,51427389,3670026,3670026,-0.00332159,0.00106669,0.000604627,-0.00971054,0.00949496,-0.0620381,4985,4985,0
51924369,51924043,3670026,3670026,-0.00170023,-0.00112253,0.000388033,-0.000382056,0.00268149,-0.0448945,4965,4965,0
52421058,52420736,3670026,3670026,-0.00189751,-6.62064e-05,0.00094786,-0.0057906,0.0134324,-0.0543837,4971,4971,0
52922762,52922428,3670026,3670026,0.000653295,0.000200328,-0.00117114,-0.0107833,-0.0282806,-0.0504448,5008,5008,0
53424399,53424042,3670026,3670026,0.00167249,-0.000735545,-0.00105071,-0.0045163,-0.0299057,-0.0449761,4966,4966,0
53926057,53925711,3670026,3670026,4.65143e-07,-0.000308087,-0.000516303,-0.00730791,0.00864384,-0.0479656,4981,4981,0
54422956,54422503,3670026,3670026,-0.000298461,0.000483043,-0.000132029,-0.0049578,-0.025183,-0.0549327,4988,4988,0
54924461,54924044,3670026,3670026,-0.00388397,-0.000116886,4.58912e-05,-0.0100498,-0.032942,-0.0622557,4964,4964,0
55421099,55420730,3670026,3670026,0.00204881,-0.000838028,-0.000320315,0.00149128,-0.0110908,-0.0361904,4926,4926,0
55922713,55922386,3670026,3670026,0.00115042,-0.000546219,0.000453726,0.00134521,-0.0103688,-0.0371401,4967,4967,0
56424423,56424042,3670026,3670026,-0.000859873,-0.000927395,-0.000904364,-0.00261072,-0.0239738,-0.0479648,4962,4962,0
56926055,56925698,3670026,3670026,0.000233806,0.000799254,-0.00105854,-0.00941298,-0.0248622,-0.0531234,4968,4968,0
57422727,57422387,3670026,3670026,0.000528696,-0.000655516,-0.000436998,-0.00618333,-0.0235995,-0.0460394,4967,4967,0
57924559,57924181,3670026,3670026,0.00123353,-0.000433232,0.000806577,-0.00923208,0.00998506,-0.0428048,4999,4999,0
58426100,58425772,3670026,3670026,0.000192394,0.000348059,0.00108735,-0.0116003,0.0131382,-0.0511484,5037,5037,0
58922792,58922388,3670026,3670026,-0.000163876,0.000300134,0.000996924,-0.0077924,0.0184466,-0.0503707,4967,4967,0
59424422,59424045,3670026,3670026,0.000242537,0.000208611,0.000690591,0.000668156,-0.0232459,-0.0565708,4968,4968,0
59926032,59925700,3670026,3670026,-0.000623347,0.000365518,-0.000200887,0.000396878,-0.0186867,-0.0444648,4967,4967,0
60422752,60422390,3670026,3670026,0.000616885,0.000911631,9.23039e-05,-0.00192413,-0.00157553,-0.0563308,4967,4967,0
60924436,60924047,3670026,3670026,0.00218074,-0.0016077,-0.0011925,-0.00304815,-0.021435,-0.0432849,4964,4964,0
61426285,61425872,3670026,3670026,-0.000146178,0.00117738,-0.000628544,-0.00803928,0.00861332,-0.0447724,4947,4947,0
61927713,61927389,3670026,3670026,0.000607943,-8.49832e-06,-0.000529638,0.00506528,-0.00752957,-0.0394565,4973,4973,0
62424373,62424049,3670026,3670026,0.00127387,-0.00132316,-0.000404678,-0.011284,-0.0103419,-0.0532837,4961,4961,0
62921098,62920743,3670026,3670026,-9.03195e-05,0.000259749,-0.000573167,0.00537639,0.00308309,-0.0383316,4970,4970,0
63422819,63422399,3670026,3670026,0.000297833,-0.000458074,-0.000957362,-0.00888063,-0.0261574,-0.0536903,4929,4929,0
63924444,63924053,3670026,3670026,0.00259526,-0.000280205,-0.00141914,-0.00197487,-0.00150847,-0.0447096,4967,4967,0
64426052,64425709,3670026,3670026,-0.00288805,0.000840829,0.000198664,-0.00296864,0.0119813,-0.0400985,4966,4966,0
64927962,64927545,3670026,3670026,0.000807116,-0.000513374,-0.000720371,-0.000717492,-0.0147386,-0.0483845,5002,5002,0
65424485,65424057,3670026,3670026,-0.00153769,0.00161626,0.0010107,-0.00137885,-0.00624094,-0.0516148,4967,4967,0
65921117,65920747,3670026,3670026,-0.00161574,0.000701522,0.000226441,0.00696665,-0.0240631,-0.0344629,4967,4967,0
66422774,66422406,3670026,3670026,-0.000191044,-0.000261305,-0.000309238,0.00499632,0.0110701,-0.031273,4936,4936,0
66924448,66924062,3670026,3670026,-0.000863125,-1.79395e-05,-0.000681311,-0.00412778,-0.0222025,-0.0429347,4960,4960,0
67426110,67425719,3670026,3670026,0.000313697,2.42577e-05,0.000303839,0.00253748,-0.0219448,-0.0389556,4967,4967,0
67922758,67922410,3670026,3670026,-0.000131151,0.000490407,0.00021667,-0.00119378,0.0144422,-0.0461722,4968,4968,0
68424638,68424230,3670026,3670026,-0.000887188,0.00185838,6.58566e-05,-0.00647667,0.0103607,-0.0517437,4990,4990,0
68926088,68925742,3670026,3670026,-0.000927879,0.00124948,0.00100319,-0.00883812,0.0256244,-0.0616622,4964,4964,0
69422741,69422415,3670026,3670026,0.000609317,1.0666e-05,0.000950835,-0.0136406,0.0373091,-0.0555237,4967,4967,0
69924394,69924073,3670026,3670026,-0.000103237,-0.0023187,0.00110839,-0.0137141,-0.00738129,-0.0560663,4967,4967,0
70426148,70425764,3670026,3670026,0.00211735,0.000170247,0.00132524,0.00389736,0.0257353,-0.0378802,5000,5000,0
70922810,70922421,3670026,3670026,-0.00183461,0.00110709,0.000618102,-0.00519472,-0.00979862,-0.0566395,4967,4967,0
71424425,71424079,3670026,3670026,-0.00137968,-0.000510822,-0.000521081,-0.0186369,0.0139638,-0.0577352,4964,4964,0
71926343,71925922,3670026,3670026,0.000762688,0.000697779,-2.53607e-05,-0.00908869,-0.000865144,-0.064626,4993,4993,0
72427869,72427506,3670026,3670026,0.00376667,-0.000621856,-0.000724365,-0.00891033,-0.00277294,-0.0513098,4984,4984,0
72924453,72924087,3670026,3670026,-0.00141892,-5.36162e-05,-4.10317e-05,-0.00495729,-0.00299578,-0.0424781,4967,4967,0
73421145,73420777,3670026,3670026,-0.00105245,-0.000363715,-0.000874504,-0.00870373,-0.0130625,-0.0528336,4967,4967,0
73922866,73922435,3670026,3670026,0.00167019,-0.000657528,-0.000246559,0.00191102,0.0163299,-0.0348316,4967,4967,0
74424420,74424093,3670026,3670026,0.00285134,0.00152446,-0.000813509,0.00312922,-0.0263553,-0.0364564,4967,4967,0
74926092,74925751,3670026,3670026,0.00187768,0.000100291,-0.000628312,-0.0109116,-0.00581065,-0.0611395,4967,4967,0
75427790,75427445,3670026,3670026,7.12732e-05,-0.000412267,-0.000883345,-0.00335806,-0.0252506,-0.0527656,4824,4824,0
75924442,75924113,3670026,3670026,0.00140261,-0.00113509,-0.00102252,0.00231626,-0.0138235,-0.0450756,4980,4980,0
76426092,76425760,3670026,3670026,-0.000109465,0.000663312,-0.000420732,-0.00854494,0.00422996,-0.0427427,4967,4967,0
76922856,76922473,3670026,3670026,0.00361583,-0.00109133,-0.00116484,0.0013872,-0.0252707,-0.0378096,4991,4991,0
77424478,77424109,3670026,3670026,0.00081685,-0.00092425,6.32017e-05,-0.00545416,-0.0156226,-0.0382971,4955,4955,0
77926167,77925767,3670026,3670026,0.000884316,-0.00108834,-0.000541869,-0.00661548,-0.0285941,-0.054344,4967,4967,0
78422800,78422458,3670026,3670026,-0.000659186,-1.40687e-05,0.000477546,-0.0034691,-0.00575789,-0.0527822,4966,4966,0
78924700,78924314,3670026,3670026,-0.000687731,0.000483026,-0.000881174,0.00263706,0.00773393,-0.0406547,4994,4994,0
79426172,79425805,3670026,3670026,0.000128791,0.000143304,-0.000932027,-0.00210439,-0.0248633,-0.0560789,4963,4963,0
79922799,79922467,3670026,3670026,-0.00241294,0.00114488,0.000463344,-0.0110157,0.0167255,-0.061264,4966,4966,0
80424494,80424126,3670026,3670026,-0.000510715,0.000452474,2.95856e-05,-0.0113033,0.0077834,-0.0638219,4971,4971,0
80926174,80925785,3670026,3670026,0.00180632,-0.000574359,-0.000335233,0.00454084,0.0262839,-0.0427062,4967,4967,0
81422878,81422476,3670026,3670026,-0.00277953,0.00102494,0.000346127,-0.0134976,0.00205154,-0.0571846,4966,4966,0
81924485,81924135,3670026,3670026,-0.000652151,-0.000417891,0.000217089,-0.00202942,-0.0200655,-0.0473927,4966,4966,0
82426158,82425807,3670026,3670026,-0.000652939,0.000425911,0.000314502,-0.00188452,-0.00184249,-0.0461341,4791,4791,0
82927847,82927493,3670026,3670026,-0.00135651,-0.00254709,-0.000372574,0.00070065,-0.00519985,-0.0407938,4979,4979,0
83424568,83424148,3670026,3670026,0.00072394,-0.000232718,-0.000930623,0.00899026,-0.0162715,-0.0336731,4969,4969,0
83921238,83920837,3670026,3670026,0.00154517,-0.00150519,-0.000122482,0.00739366,-0.00258535,-0.0393077,4967,4967,0
84422828,84422496,3670026,3670026,-0.000185921,-0.000676426,-9.38319e-05,-0.0063856,-0.0330508,-0.0556634,4967,4967,0
84924481,84924156,3670026,3670026,-0.000213816,0.00220263,-0.000718991,-0.0125283,-0.0239979,-0.0614161,4961,4961,0
85426162,85425814,3670026,3670026,-0.000142585,-0.000226084,-0.00107703,-0.00172689,-0.00431598,-0.0440321,4967,4967,0
85927818,85927473,3670026,3670026,-0.00179376,-5.44366e-05,-0.00151655,-0.00542409,-0.0406778,-0.0518148,4967,4967,0
86424583,86424204,3670026,3670026,0.000467089,0.000529478,-0.000871299,0.00141115,0.00229574,-0.0496157,4930,4930,0
86921235,86920858,3670026,3670026,-0.000687872,7.81918e-06,0.000534374,-0.00436401,-0.0168114,-0.0567749,4966,4966,0
87422933,87422517,3670026,3670026,-0.000344025,-0.000534108,-0.000145044,-0.000736647,0.00456098,-0.042222,4967,4967,0
87924573,87924176,3670026,3670026,0.00133531,-0.000944747,-0.00045368,-0.00443981,0.00511893,-0.0465727,4967,4967,0
88426165,88425839,3670026,3670026,7.49724e-05,-0.000202112,-0.000343375,0.000821945,-0.00105752,-0.0398667,4971,4971,0
88922931,88922528,3670026,3670026,-0.000159941,-0.000762494,-0.000501292,0.00253451,0.00245734,-0.041807,4967,4967,0
89424541,89424192,3670026,3670026,-0.000625757,0.000324033,-0.00043294,-0.00520811,-0.0276438,-0.0522738,4969,4969,0
89926227,89925899,3670026,3670026,0.000686314,-0.000143246,-0.00154733,0.00132918,-0.0253804,-0.0419707,4978,4978,0
90427891,90427511,3670026,3670026,0.000516144,-0.000681847,-0.00115506,-0.00507464,-0.00694579,-0.0464405,4972,4972,0
90924546,90924205,3670026,3670026,-0.00188169,-0.000820706,-0.000299415,-0.00806189,-0.00742306,-0.0554838,4973,4973,0
91426273,91425858,3670026,3670026,0.000431162,-6.09745e-05,0.000341617,0.00185153,0.0130938,-0.0356458,4966,4966,0
91923023,91922567,3670026,3670026,0.000973177,8.94544e-05,-0.000113343,-0.00402859,-0.018453,-0.0505409,4935,4935,0
92424612,92424214,3670026,3670026,0.00158488,0.000932711,9.04392e-05,-0.00585309,-0.0245249,-0.048113,4970,4970,0
92926272,92925870,3670026,3670026,-0.00467525,-0.00095722,7.27941e-05,-0.00268093,-0.0180037,-0.0500558,4963,4963,0
93427967,93427599,3670026,3670026,-0.00100089,-0.000175786,0.00185571,-0.00686299,0.0343849,-0.0527779,4986,4986,0
93924603,93924223,3670026,3670026,-0.0002059,0.000986221,0.000766367,-0.00248508,0.0242092,-0.0496731,4967,4967,0
94421298,94420915,3670026,3670026,-0.000190589,0.00012743,0.000844774,-0.00920537,0.0070514,-0.0524641,4966,4966,0
94922996,94922577,3670026,3670026,-0.00102277,0.000339179,-5.80859e-05,-0.00833851,-0.0205631,-0.0618617,4969,4969,0
95424615,95424235,3670026,3670026,-0.00109073,0.000394814,0.000459576,-0.0030683,-0.00336218,-0.0493637,4965,4965,0
95926253,95925895,3670026,3670026,-0.00175068,0.000611167,0.000433429,0.00409258,0.0186357,-0.0413313,4967,4967,0
96422931,96422588,3670026,3670026,0.00137736,-0.000299063,0.000696042,0.00012622,0.0067395,-0.0456841,4967,4967,0
96924658,96924322,3670026,3670026,0.00201468,-0.00106547,6.23949e-05,-0.00168802,0.0150731,-0.0423541,4931,4931,0
97421277,97420938,3670026,3670026,0.00189953,-0.000650379,-0.00064986,-0.00365484,-0.0226614,-0.0486034,4936,4936,0
97922979,97922642,3670026,3670026,0.000267078,0.00113055,-0.000353938,-0.000294273,-0.00163626,-0.0470462,4968,4968,0
98424627,98424296,3670026,3670026,-0.000794898,0.00107314,-0.000573523,-0.00316713,-0.018841,-0.0502638,4995,4995,0
98926380,98925922,3670026,3670026,-0.00167187,0.000212407,0.000560034,-0.0135121,0.00061204,-0.0628487,4968,4968,0
99422966,99422614,3670026,3670026,0.00199738,-0.00162377,-0.00110789,-0.00141646,-0.0202686,-0.047511,4967,4967,0
99924633,99924277,3670026,3670026,-0.00269976,0.000806107,0.000656133,-0.00559569,0.00995071,-0.0567828,4970,4970,0
100426384,100426017,3670026,3670026,0.00044975,0.000197083,-0.000193667,0.000100679,0.0131235,-0.0446048,4971,4971,0
100923000,100922628,3670026,3670026,0.000725831,0.000348685,-0.0010315,-0.00845285,-0.0179725,-0.0505042,4967,4967,0
101424611,101424288,3670026,3670026,0.00147582,-0.000559252,0.000581126,0.00431121,0.00945179,-0.0393272,4966,4966,0
101926291,101925949,3670026,3670026,-0.000173563,-0.00105658,-0.000486291,-0.00414042,-0.0212204,-0.0471296,4966,4966,0
102422964,102422640,3670026,3670026,0.00293448,-0.000409387,-0.00129809,-0.00435864,-0.0303635,-0.0472162,4965,4965,0
102924701,102924306,3670026,3670026,0.00176192,-0.000874265,-0.000314243,0.0121531,-0.00569056,-0.028643,4923,4923,0
103426309,103425962,3670026,3670026,-0.00167577,0.000737633,0.000518643,-0.00831336,-1.40742e-05,-0.0580187,4967,4967,0
103928109,103927738,3670026,3670026,0.000870238,-0.000436375,-0.000218461,0.00533817,0.0114963,-0.0400893,4946,4946,0
104424639,104424316,3670026,3670026,-0.000826005,-0.000605513,-0.000718098,0.00709901,-0.00839373,-0.0408693,4966,4966,0
104921338,104921009,3670026,3670026,-0.000496072,0.000339477,-0.000321539,0.00119561,-0.0077417,-0.040918,4965,4965,0
105423040,105422670,3670026,3670026,-0.000541275,0.000793252,0.0010093,-0.0111066,0.0209716,-0.0539981,4967,4967,0
105924707,105924337,3670026,3670026,-0.00139565,-0.00052494,0.00143363,-0.0112603,0.018398,-0.0620748,4974,4974,0
106426475,106425991,3670026,3670026,0.000544892,0.000117419,0.000995257,0.00638208,-0.00282745,-0.0399493,4967,4967,0
106923033,106922684,3670026,3670026,-4.99377e-05,-0.000396544,-6.83635e-05,0.00451864,0.0101431,-0.0421935,4967,4967,0
107424874,107424547,3670026,3670026,0.000670887,-0.000596527,-0.000559428,0.00497223,-0.00847106,-0.0405039,4992,4992,0
107921417,107921038,3670026,3670026,-0.000983164,0.000540858,-0.000115506,-0.00430368,-0.00403654,-0.0522812,4967,4967,0
108423119,108422699,3670026,3670026,-0.000965997,-0.000231284,-0.000826153,-0.00285164,0.00255075,-0.0469881,4968,4968,0
108924746,108924360,3670026,3670026,-0.00103032,0.00174357,0.00113451,-0.00741456,0.0243713,-0.0566442,4968,4968,0
109426344,109426020,3670026,3670026,-0.00582594,0.00186624,0.00131862,-0.00693882,0.0427158,-0.0519969,4967,4967,0
109923105,109922713,3670026,3670026,-0.000384156,-5.06184e-05,0.000817756,-0.00307365,-0.00643364,-0.0500843,4966,4966,0
110424718,110424374,3670026,3670026,0.00244228,-0.000913054,-0.000521279,-0.0004327,-0.0300816,-0.040375,4967,4967,0
110926542,110926214,3670026,3670026,-0.00190532,-7.21861e-05,0.000727619,0.00229469,0.0195713,-0.0439455,4989,4989,0
111423054,111422729,3670026,3670026,0.00241671,-0.000481853,-0.000999249,0.00450601,-0.00707707,-0.0378132,4967,4967,0
111924753,111924431,3670026,3670026,-4.8497e-05,-0.000696992,0.000958791,0.000396901,0.0383045,-0.0402488,4995,4995,0
112421503,112421083,3670026,3670026,-0.000210805,1.391e-05,0.000509423,-0.0030026,-0.0048579,-0.0457685,4966,4966,0
112923085,112922744,3670026,3670026,-0.000100698,0.000305651,0.000583176,-0.00344386,0.00685283,-0.0513667,4967,4967,0
113424761,113424404,3670026,3670026,-0.00066274,-0.000880181,0.000637711,-0.00326872,-0.00288316,-0.0511174,4967,4967,0
113926416,113926066,3670026,3670026,0.000906879,-0.000321819,-0.00079354,-0.00419615,-0.0123952,-0.0521309,4967,4967,0
114428323,114427913,3670026,3670026,0.000101141,0.000308249,-0.000560523,0.00486387,-0.011734,-0.0409178,4994,4994,0
114924831,114924421,3670026,3670026,0.000687537,-0.00302851,-0.000177193,0.0102085,-0.0136313,-0.04414,4968,4968,0
115421437,115421114,3670026,3670026,-7.07369e-05,4.42472e-05,0.000834184,-0.00691139,-0.0165312,-0.0570838,4967,4967,0
115923152,115922775,3670026,3670026,0.000802668,0.00161463,-0.00145573,-0.00367059,-0.0305493,-0.0524697,4966,4966,0
116424804,116424436,3670026,3670026,0.00112275,-0.000404529,-0.000357731,0.00181709,0.00409142,-0.0399847,4967,4967,0
116926489,116926097,3670026,3670026,-0.00142477,0.000990975,0.00101325,-0.00309255,0.0132781,-0.0471373,4916,4916,0
117423180,117422791,3670026,3670026,-0.000939785,-0.000661196,0.000155186,0.00920239,0.0200257,-0.0363005,4968,4968,0
117925014,117924584,3670026,3670026,-0.00308603,0.000482867,0.00101609,-0.0162967,0.0155737,-0.0616547,4993,4993,0
118421541,118421148,3670026,3670026,-0.000207826,-0.000455877,6.79402e-05,0.00277614,0.00577742,-0.0453527,4969,4969,0
118923143,118922807,3670026,3670026,0.00115961,0.00260536,0.000505712,0.00601327,0.016487,-0.0331638,4967,4967,0
119424790,119424467,3670026,3670026,-0.00094824,0.00072825,0.000817628,-0.00076452,0.0329714,-0.045517,4966,4966,0
119926461,119926129,3670026,3670026,-0.00374039,0.000525835,0.000432257,-0.00331309,-0.00211964,-0.0545859,4967,4967,0
120423190,120422822,3670026,3670026,0.000454351,-8.95272e-05,-0.000533322,-0.00224472,-0.0285957,-0.0537719,4966,4966,0
120924878,120924485,3670026,3670026,-0.00205235,-1.65643e-06,0.000451745,-0.00341137,0.00445399,-0.0564929,4968,4968,0
121426709,121426294,3670026,3670026,0.000620017,-0.00198327,-0.000505633,0.000444772,0.0129894,-0.0392305,4968,4968,0
121923217,121922839,3670026,3670026,-0.00136976,0.000455067,0.00155803,-0.00633561,0.0130779,-0.0525828,4967,4967,0
122424870,122424500,3670026,3670026,-0.000202456,0.000667652,0.00055264,0.00477927,0.0233309,-0.03687,4964,4964,0
122921521,122921197,3670026,3670026,-0.000267753,7.43521e-06,-0.000288315,-0.000518191,-0.00842838,-0.0451689,4968,4968,0
123423250,123422857,3670026,3670026,-1.03305e-06,0.000672305,0.00054936,-0.00285763,0.0291136,-0.046601,4968,4968,0
123924918,123924520,3670026,3670026,-0.00154043,-6.26169e-05,0.000336353,-0.00142569,-0.00927527,-0.0465032,4928,4928,0
124426526,124426178,3670026,3670026,0.000798218,-0.000406847,-0.000235543,-0.0053229,0.0065954,-0.053095,4966,4966,0
124928397,124928022,3670026,3670026,0.000126217,-8.82697e-06,0.000564838,-0.00525844,0.000909474,-0.0527055,4951,4951,0
125424888,125424534,3670026,3670026,-0.000886687,0.000556163,0.000174255,0.00116875,-0.0176344,-0.0503985,4967,4967,0
125921559,125921229,3670026,3670026,-0.00134567,0.000437491,0.00111415,-0.00612549,-0.000809036,-0.0502048,4968,4968,0
126423263,126422890,3670026,3670026,0.00239017,-0.000702405,-0.000859405,-0.00324678,-0.0118316,-0.0424737,4968,4968,0
126924884,126924552,3670026,3670026,0.000943881,-0.00127939,-0.000592361,0.00919682,-0.020586,-0.0348852,4966,4966,0
127426626,127426213,3670026,3670026,0.00186278,-0.000753727,-0.000383329,0.0125707,0.00179863,-0.0296559,4961,4961,0
127923280,127922912,3670026,3670026,-0.000169415,0.000802279,0.000603486,-0.00790495,-0.00825626,-0.0510505,4972,4972,0
128425156,128424739,3670026,3670026,0.00105649,-0.000503168,0.000581713,-0.00243902,-0.000378985,-0.0509532,4997,4997,0
128921647,128921265,3670026,3670026,-0.000547667,0.000658566,-0.000127434,-0.00682647,0.00270791,-0.0504861,4965,4965,0
129423254,129422924,3670026,3670026,-0.00146515,-0.000609325,0.00148268,-0.00570918,0.00332048,-0.0511789,4967,4967,0
129925057,129924586,3670026,3670026,0.00260388,0.000473378,-0.000895585,-0.000314405,-0.00542951,-0.0433291,4967,4967,0
130426587,130426248,3670026,3670026,0.000381355,-0.00036678,-0.00120951,2.08444e-06,-0.0206398,-0.0476164,4966,4966,0
130923318,130922942,3670026,3670026,-0.00088383,-5.835e-05,-9.35593e-05,-0.0157575,0.000111121,-0.0642255,4967,4967,0
131424988,131424603,3670026,3670026,0.00215602,-0.000648934,-0.00136214,0.00568541,-0.0267532,-0.0442624,4967,4967,0
131926862,131926450,3670026,3670026,-0.00151599,0.000643695,0.00101964,-0.0005219,0.0259233,-0.0495396,4986,4986,0
132428385,132428050,3670026,3670026,-0.000997903,0.00133933,0.000475045,-0.00584673,0.00739758,-0.051344,4985,4985,0
132925025,132924659,3670026,3670026,-0.000475638,-4.84703e-05,0.000838162,0.00313933,0.00357952,-0.0440382,4964,4964,0
133421685,133421318,3670026,3670026,0.000246393,-2.36675e-05,0.000324562,-0.00405511,0.00368031,-0.0493724,4965,4965,0
133923357,133922980,3670026,3670026,-0.000404722,0.000338103,0.000291195,0.00286096,0.0163897,-0.0378999,4969,4969,0
134425042,134424639,3670026,3670026,-0.000123493,0.000454709,-0.000819509,0.00205806,0.00482424,-0.0541953,4961,4961,0
134926654,134926301,3670026,3670026,-0.000719767,0.000631061,-0.000640745,-0.00536725,0.00571641,-0.0584017,4967,4967,0
135423580,135423258,3670026,3670026,0.000216779,-0.000555795,0.000236695,0.00218165,-0.0111997,-0.0425474,5038,5038,0
135925050,135924669,3670026,3670026,0.00154215,-0.000335105,9.11105e-05,-0.000692126,-0.00162008,-0.0500919,4976,4976,0
136421774,136421354,3670026,3670026,-0.000312917,-0.000166598,-0.000251209,-0.00533124,0.00245842,-0.0558685,4968,4968,0
136923417,136923014,3670026,3670026,0.00725821,-0.000201807,-0.000375888,-0.00287634,0.0111006,-0.0484331,4967,4967,0
137424999,137424676,3670026,3670026,-0.00121642,-0.000167568,0.000406446,-0.00751856,0.00743018,-0.0571686,4966,4966,0
137926670,137926338,3670026,3670026,-0.00263039,0.000974434,0.00107073,-0.0046477,0.0257779,-0.0495384,4967,4967,0
138423374,138423032,3670026,3670026,-0.000703303,0.000654184,0.000416814,-0.0123879,0.0138461,-0.0589996,4966,4966,0
138925052,138924697,3670026,3670026,0.00155728,-0.000483601,-0.000576504,-0.0011615,0.00260711,-0.0468433,4788,4788,0
139421823,139421452,3670026,3670026,0.0016794,-0.000594658,-0.000540304,0.0111466,-0.0160459,-0.0327794,4994,4994,0
139923470,139923053,3670026,3670026,-0.0037542,0.000158692,-0.000737355,-0.00678507,-0.024698,-0.0586146,4969,4969,0
140425090,140424713,3670026,3670026,0.000744553,6.36051e-06,-0.000739998,-0.0117646,-0.00828282,-0.0585124,4965,4965,0
140926813,140926378,3670026,3670026,0.000323132,0.000530706,0.000274817,-0.00232179,-0.00463933,-0.0509943,4970,4970,0
141423483,141423073,3670026,3670026,0.000296718,0.000804729,0.00145166,0.00257578,0.0316663,-0.0426073,4969,4969,0
141925088,141924732,3670026,3670026,-0.0073423,0.00204053,0.00142884,-0.0135459,0.0163089,-0.0628185,4966,4966,0
142426758,142426419,3670026,3670026,-0.00159652,7.73937e-05,0.000855303,0.00099503,0.0299833,-0.042297,4977,4977,0
142923534,142923122,3670026,3670026,0.001958,0.000178416,-0.000834171,0.00392555,0.00117556,-0.0365923,4993,4993,0
143425168,143424752,3670026,3670026,-0.00132154,0.000866165,-0.00083495,-0.00684996,-0.00480246,-0.0511042,4967,4967,0
143921824,143921447,3670026,3670026,0.00151031,-0.00122059,-0.000923377,0.00227358,-0.00983756,-0.0390878,4962,4962,0
144423487,144423113,3670026,3670026,0.000501456,-0.000681389,-0.00103703,0.00735814,-0.0257015,-0.0375025,4971,4971,0
144925179,144924775,3670026,3670026,0.000166343,0.000281316,-0.000329851,-0.00238247,-0.0100185,-0.0473158,4935,4935,0
145426781,145426434,3670026,3670026,-0.000622958,-0.000709206,-0.000820117,-0.00559107,-0.015402,-0.0467938,4967,4967,0
145928496,145928101,3670026,3670026,0.000602898,-0.000445193,-0.00122347,-0.010485,-0.0345895,-0.0570082,4972,4972,0
146425242,146424863,3670026,3670026,0.00121528,-9.54514e-06,-0.000279096,-0.00430401,0.00107601,-0.0458953,4973,4973,0
146921876,146921499,3670026,3670026,0.0001043,0.000327708,0.000371244,-0.00256611,0.00383028,-0.0488119,4960,4960,0
147423523,147423149,3670026,3670026,0.00238789,-0.00147488,-0.00150393,-0.00475369,-0.0155451,-0.0466458,4967,4967,0
147925233,147924812,3670026,3670026,-0.000302884,-0.00080012,0.000114029,-0.0109522,-0.00367439,-0.060964,4971,4971,0
148426922,148426477,3670026,3670026,0.00287514,-0.00101336,-0.00103456,0.00457443,-0.0203761,-0.0395425,4969,4969,0
148923558,148923170,3670026,3670026,-0.00257937,0.00102705,0.00143918,-0.00654497,0.02335,-0.0541772,4967,4967,0
149425193,149424847,3670026,3670026,0.00444022,-0.00152367,-0.000435576,0.00592398,-0.0272557,-0.0317604,4978,4978,0
149922005,149921614,3670026,3670026,-0.00142161,0.0012574,0.000252131,-0.0036725,0.00395959,-0.0555109,4984,4984,0
150423564,150423196,3670026,3670026,0.00154756,-0.00149723,0.00144833,-0.00114373,-0.00420583,-0.0545114,4976,4976,0
150925282,150924853,3670026,3670026,0.000180551,-0.00160212,-0.000576266,-0.0098861,-0.0202821,-0.0513363,4967,4967,0
151421873,151421548,3670026,3670026,-0.000736196,-0.000578191,-0.000438445,-0.00957333,-0.0221017,-0.0599702,4967,4967,0
151923553,151923212,3670026,3670026,-0.000472777,-0.000238552,0.000673488,-0.0025581,0.01852,-0.0535445,4967,4967,0
152425228,152424874,3670026,3670026,-0.000549691,-0.000134641,0.000793525,0.00226705,0.0233102,-0.0420342,4962,4962,0
152926879,152926536,3670026,3670026,0.00179207,-0.000152219,0.000600249,0.00586736,0.0171378,-0.03733,4967,4967,0
153423722,153423348,3670026,3670026,-0.000495951,0.000725862,0.00113287,-0.004292,0.0170207,-0.0561011,5044,5044,0
153925273,153924899,3670026,3670026,-0.00329926,4.71074e-05,-0.000720052,-0.00308103,-0.0164458,-0.0511276,4970,4970,0
154421993,154421593,3670026,3670026,0.00184947,-0.000991261,-0.000578087,0.00880599,0.00665105,-0.0339387,4920,4920,0
154923631,154923254,3670026,3670026,-0.000141053,0.000769136,-0.000955147,-0.00559985,0.00505156,-0.0525806,4968,4968,0
155425296,155424917,3670026,3670026,0.00176393,0.000451121,-0.000127436,-0.00608838,0.0080004,-0.0533717,4958,4958,0
155926924,155926579,3670026,3670026,-0.000928619,0.000117465,-0.000777486,0.00460698,-0.00874057,-0.0378623,4967,4967,0
156423675,156423278,3670026,3670026,-0.00217451,0.000998916,0.00129383,0.00186685,0.0253084,-0.0437656,4932,4932,0
156925479,156925027,3670026,3670026,-0.00027516,0.000427505,-0.000371154,-0.00744595,-0.00207226,-0.053421,5002,5002,0
157422080,157421638,3670026,3670026,0.00198492,-0.00102277,-0.000431421,0.0127859,0.00287614,-0.0339188,4971,4971,0
157923669,157923297,3670026,3670026,0.00179256,-0.000261911,-0.000755602,-0.00123845,-0.0122612,-0.0441369,4966,4966,0
158425288,158424960,3670026,3670026,0.000632601,7.96982e-05,-0.000391156,-0.00313995,-0.00688455,-0.0427265,4962,4962,0
158926957,158926626,3670026,3670026,-0.00187465,0.000512423,0.000180567,-0.00219726,0.00266323,-0.0423589,4949,4949,0
159423748,159423319,3670026,3670026,-6.36524e-05,0.000293916,-3.00908e-05,-0.00493826,0.000224575,-0.0474787,4967,4967,0
159925340,159924982,3670026,3670026,-0.000128338,-9.0878e-05,-0.000629891,0.0024796,-0.00593782,-0.0436624,4967,4967,0
160427064,160426742,3670026,3670026,-0.000904273,-0.00161823,-0.000342578,0.000334041,-0.00107245,-0.0471528,4981,4981,0
160923684,160923361,3670026,3670026,-0.00170683,0.00224422,0.000340618,-0.00252922,-0.0113757,-0.053061,4986,4986,0
161425377,161425007,3670026,3670026,-0.00154541,-0.00011672,-0.000128725,0.00618331,0.0119702,-0.0393495,4965,4965,0
161922071,161921700,3670026,3670026,0.00221968,-0.00165857,-0.000119619,0.00302421,-0.00382812,-0.0436429,4965,4965,0
162423741,162423364,3670026,3670026,0.000392218,-0.000188954,-0.000197387,0.00869585,-0.0178307,-0.0352051,4967,4967,0
162925430,162925027,3670026,3670026,-0.000132178,0.000521912,0.000866378,-0.00579664,0.0127315,-0.0559505,4963,4963,0
163427032,163426690,3670026,3670026,-0.00250637,-0.00116172,0.00104581,-0.0136167,0.00567776,-0.0614146,4967,4967,0
163923805,163923475,3670026,3670026,-0.00101517,0.000816989,0.000330869,-0.0042574,-0.00134268,-0.0488215,4989,4989,0
164425420,164425050,3670026,3670026,0.00224167,-0.000517392,-0.000367742,0.00946564,0.0122189,-0.0313532,4967,4967,0
164922132,164921746,3670026,3670026,-0.000183557,-0.000338755,-0.000167292,0.01023,0.0202605,-0.0362127,4967,4967,0
165423741,165423409,3670026,3670026,-0.000177984,-0.00208762,0.000808793,0.00463166,0.00208928,-0.0452532,4967,4967,0
165925402,165925072,3670026,3670026,0.000906192,-0.00042776,-0.000406396,0.00405908,-0.00997527,-0.0389506,4964,4964,0
166427085,166426742,3670026,3670026,-0.00104695,0.000869431,0.000635506,-0.000223619,0.00368206,-0.0423076,4938,4938,0
166923837,166923434,3670026,3670026,-2.93643e-05,0.000717298,0.000433659,0.00674761,0.00404699,-0.036456,4966,4966,0
167425549,167425222,3670026,3670026,0.00421768,0.00106872,1.42774e-05,-0.00391149,-0.0143209,-0.0529683,5005,5005,0
167922128,167921792,3670026,3670026,-0.000125093,0.000660235,0.000322427,-0.0020677,0.00670064,-0.0446181,4967,4967,0
168423831,168423456,3670026,3670026,6.61078e-05,-0.000453232,-0.000345219,0.000233643,-0.00761092,-0.0393039,4968,4968,0
168925497,168925121,3670026,3670026,0.0019108,-0.00145242,-0.000753423,-0.00309292,-0.019083,-0.0394791,4969,4969,0
169427113,169426782,3670026,3670026,-0.00198876,0.00075085,0.000478231,-0.0126702,-0.0114076,-0.0631209,4967,4967,0
169923835,169923479,3670026,3670026,0.00501688,-0.00107206,-0.000876054,-0.00248991,-0.0314471,-0.0451753,4966,4966,0
170425530,170425190,3670026,3670026,-0.00240416,0.00194674,0.000347525,-0.00628475,0.00410631,-0.0609044,4983,4983,0
170922378,170921946,3670026,3670026,0.0002796,-0.00131748,-0.000873101,0.00203286,-0.00896912,-0.0417324,4991,4991,0
171423873,171423503,3670026,3670026,-0.000803683,0.000215149,0.00077447,-0.00719271,0.0115974,-0.0571354,4965,4965,0
171925541,171925166,3670026,3670026,-0.00528787,0.000124827,0.000985833,-0.00755466,-0.0031144,-0.057919,4967,4967,0
172422277,172421863,3670026,3670026,0.000768871,-0.000408846,-0.000616021,-0.00044681,-0.00254349,-0.0424135,4967,4967,0
172923861,172923528,3670026,3670026,0.00393066,-0.0015544,-0.00067836,-0.00737806,-0.0193821,-0.0456254,4969,4969,0
173425551,173425195,3670026,3670026,-0.000588859,-0.00108097,0.00126184,-0.0028509,0.0175254,-0.0494857,4972,4972,0
173927207,173926855,3670026,3670026,0.000882682,0.000174029,-6.44223e-05,-0.00107094,0.00670919,-0.0430778,4966,4966,0
174424056,174423685,3670026,3670026,-5.62705e-05,0.000135481,-0.000684538,-0.00787097,-0.0188457,-0.0578173,4997,4997,0
174925562,174925223,3670026,3670026,-0.00146944,0.000248877,0.000389813,-0.00617065,0.00865991,-0.0617028,4973,4973,0
175422286,175421909,3670026,3670026,-0.00197789,0.00116831,0.000764846,0.00494907,-0.00464944,-0.0488637,4946,4946,0
175923954,175923575,3670026,3670026,-0.0040532,0.00214452,0.000271437,-0.00195087,-0.00513935,-0.0558568,4966,4966,0
176425611,176425239,3670026,3670026,0.00109818,-0.000107803,-0.00118971,-0.00171423,-0.0299268,-0.0498097,4967,4967,0
176927295,176926904,3670026,3670026,0.000451873,0.000248222,0.000515971,0.00336935,0.0225891,-0.0405675,4968,4968,0
177423948,177423599,3670026,3670026,-9.68471e-05,-0.000183547,-0.00112663,0.00447263,-0.000818232,-0.049262,4967,4967,0
177920838,177920421,3670026,3670026,-0.00275876,0.000842876,-0.000868137,-0.0132632,0.015858,-0.0671124,4985,4985,0
178422389,178421960,3670026,3670026,-0.000889374,5.14284e-05,-0.000112489,0.000981907,0.0015709,-0.0413936,4967,4967,0
178923997,178923624,3670026,3670026,-0.00198966,0.000796287,0.000571524,-0.00494528,0.000561027,-0.052775,4966,4966,0
179425612,179425288,3670026,3670026,0.000614687,-0.000560684,-0.00254348,-0.00329325,-0.0256105,-0.0464362,4954,4954,0
179927373,179926991,3670026,3670026,-0.000642497,-0.000436902,-0.00287814,-0.00091646,-0.000882013,-0.0439156,4985,4985,0
180424085,180423649,3670026,3670026,0.00207645,-0.000626956,-0.000414014,0.00815417,-0.00340125,-0.0377514,4966,4966,0
180925657,180925313,3670026,3670026,0.00328028,0.000301761,0.000349072,-0.00384307,-0.00942662,-0.0555288,4967,4967,0
181427550,181427140,3670026,3670026,-0.000637065,0.000414016,-0.00109224,-0.0155037,0.0189278,-0.0715941,4980,4980,0
181924149,181923675,3670026,3670026,-8.51662e-05,0.000173151,0.000716004,-0.00508054,0.0235113,-0.0506217,4965,4965,0
182425718,182425341,3670026,3670026,-0.00118851,0.000472151,-0.000115253,0.00441024,0.0215774,-0.0402464,4932,4932,0
182922412,182922035,3670026,3670026,-0.000435203,0.000224054,-0.00249853,-0.00040666,-0.0111212,-0.0489831,4967,4967,0
183424073,183423741,3670026,3670026,-0.00985532,0.00194284,-0.000599247,0.0039054,-0.0171964,-0.0378781,5009,5009,0
183925754,183925364,3670026,3670026,-0.00184311,-0.000102184,-0.00103573,-0.00474055,-0.0196852,-0.053667,4967,4967,0
184427370,184427029,3670026,3670026,0.00340094,-0.00197632,-0.00140956,0.0134041,-0.0230208,-0.0366868,4967,4967,0
184924270,184923882,3670026,3670026,6.22276e-05,0.000415296,-9.98035e-05,-0.00695327,0.0039279,-0.0585859,4990,4990,0
185425814,185425386,3670026,3670026,0.000591723,-0.000101331,-0.000203936,0.00274638,-0.00590415,-0.0379444,4964,4964,0
185922437,185922107,3670026,3670026,0.00112661,-0.00048031,-0.000838501,-0.00384495,-0.0281727,-0.055937,4980,4980,0
186424126,186423751,3670026,3670026,-0.000166063,-0.000502176,0.000307924,-0.000164942,-0.00146074,-0.0506289,4967,4967,0
186925761,186925436,3670026,3670026,-0.000584577,0.000221438,0.000551749,-0.00307684,-0.00578096,-0.0522105,4979,4979,0
187427479,187427080,3670026,3670026,0.00331308,-0.00112503,-0.000845027,-0.00189109,-0.0177476,-0.0459962,4967,4967,0
187924128,187923777,3670026,3670026,0.000358339,0.000602765,0.000523854,-0.00270246,0.0117998,-0.0516025,4966,4966,0
188421036,188420631,3670026,3670026,0.00514158,0.000932911,-2.51037e-05,-0.000594591,0.00398611,-0.0519134,4990,4990,0
188922600,188922194,3670026,3670026,0.00177783,-0.00125815,-0.00166297,0.00404077,-0.0112584,-0.0431917,4997,4997,0
189424127,189423805,3670026,3670026,-0.0012052,-9.60032e-05,0.000205689,-0.00367664,-0.00575763,-0.0545891,4968,4968,0
189925804,189925468,3670026,3670026,-0.00101711,0.00032937,-0.000123382,-0.00635899,-0.00334944,-0.0577292,4962,4962,0
190422534,190422165,3670026,3670026,0.00122837,-0.00153225,-0.00169091,0.00185602,-0.0267599,-0.0441456,4953,4953,0
190924229,190923855,3670026,3670026,-0.000248582,4.00633e-05,0.000340008,-0.00488967,-0.0135838,-0.0524179,4993,4993,0
191425922,191425523,3670026,3670026,0.000361053,-0.000118602,-3.19768e-05,0.00442339,0.0155711,-0.0347155,4991,4991,0
191922745,191922375,3670026,3670026,-0.00131523,0.000896531,0.00042829,-0.0069933,0.0214345,-0.061298,4952,4952,0
192424239,192423866,3670026,3670026,0.00031937,0.000277595,-8.4497e-05,-0.00204759,-0.00799089,-0.0543475,4949,4949,0
192925955,192925521,3670026,3670026,-0.00238488,0.00114848,0.00130203,-0.00357857,0.0331242,-0.0540656,4965,4965,0
193422709,193422222,3670026,3670026,-0.00139565,0.000171165,0.000549883,-0.00798508,-0.0166164,-0.0585017,4970,4970,0
193924210,193923883,3670026,3670026,0.00201831,-0.00096917,-0.000873614,-0.000500732,-0.017053,-0.0399831,4950,4950,0
194425883,194425555,3670026,3670026,0.00221272,0.000391201,-0.00057589,-0.00862056,-0.0140937,-0.0513614,4928,4928,0
194927554,194927212,3670026,3670026,-0.00167239,0.000905721,0.000588403,-0.00215421,0.00914702,-0.0541363,4967,4967,0
195424519,195424109,3670026,3670026,0.00833843,-0.00173885,-0.000794251,0.00861833,-0.0151796,-0.0377319,4996,4996,0
195926029,195925657,3670026,3670026,0.002661,0.00081053,0.00115066,-0.00640338,0.0172019,-0.0594536,4987,4987,0
196422631,196422300,3670026,3670026,0.00482584,-0.00050044,-0.000700344,-0.0051378,-0.00991243,-0.058832,4979,4979,0
196924266,196923938,3670026,3670026,0.00102854,-0.000274314,-0.000796455,0.00468674,0.012166,-0.041685,4967,4967,0
197425999,197425603,3670026,3670026,7.04372e-05,0.000226885,-0.0030784,0.00167024,-0.00596822,-0.0535716,4968,4968,0
197927681,197927268,3670026,3670026,-0.000205667,-0.000240807,-0.00113455,-0.00532952,-0.00715393,-0.0505783,4968,4968,0
198424325,198423965,3670026,3670026,-0.00213382,0.000490717,0.000198205,-0.008163,0.00707358,-0.058507,4966,4966,0
198921290,198920853,3670026,3670026,-0.000862076,0.000433792,-0.00125775,0.00076629,0.00257474,-0.0497679,4935,4935,0
199422756,199422349,3670026,3670026,-0.000250443,3.73285e-05,-0.00184938,-0.00716845,-0.0154503,-0.0576832,4991,4991,0
199924364,199923993,3670026,3670026,-0.000775476,0.000519089,-0.000542173,0.00629447,0.0228038,-0.0387948,4965,4965,0
200426029,200425657,3670026,3670026,-0.0019306,0.000398521,-0.000671706,-0.014283,0.00237714,-0.0668004,4967,4967,0
200922679,200922356,3670026,3670026,0.000944179,-0.000250763,-0.00204187,-0.00236693,-0.0135894,-0.0457737,4968,4968,0
201424444,201424029,3670026,3670026,0.00335729,-0.000762301,-0.00202731,0.0135715,-0.00304151,-0.0295453,4976,4976,0
201926032,201925685,3670026,3670026,-0.000448668,0.000106711,2.97199e-05,0.00282321,0.00695753,-0.0392051,4967,4967,0
202422738,202422383,3670026,3670026,-0.000405334,-0.000435059,0.000975772,0.00296072,0.0146361,-0.0444341,4780,4780,0
202924513,202924139,3670026,3670026,0.000422566,0.000244996,0.000319069,-0.00584337,-0.00546339,-0.0547837,4992,4992,0
203426048,203425714,3670026,3670026,0.00143045,-0.000229535,-0.00124164,0.00432125,-0.02591,-0.04491,4967,4967,0
203922738,203922412,3670026,3670026,0.000667373,5.45802e-05,-0.00292544,-0.00498991,-0.0207412,-0.0505704,4967,4967,0
204424408,204424078,3670026,3670026,7.28062e-05,0.00056862,-0.000360082,0.00700966,0.0158351,-0.0368857,4969,4969,0
204926067,204925741,3670026,3670026,-0.00211192,-2.08209e-05,-0.000533495,-0.0107454,-0.0164486,-0.055697,4966,4966,0
205427751,205427407,3670026,3670026,0.000538531,-0.000747431,0.000527892,0.00476315,-0.00563973,-0.0447422,4967,4967,0
205924451,205924105,3670026,3670026,-0.00107786,0.000190433,0.000505876,-0.00275201,0.000114602,-0.0479827,4967,4967,0
206421154,206420831,3670026,3670026,0.00256057,-0.00133698,-0.000622061,0.0111659,0.00130486,-0.0372216,4985,4985,0
206922843,206922468,3670026,3670026,-0.000927323,0.000303106,0.000477672,-0.00405072,-0.00657725,-0.0531135,4966,4966,0
207424502,207424135,3670026,3670026,2.50418e-05,0.000584373,0.000244725,-0.000258304,0.00214325,-0.0413288,4968,4968,0
207926181,207925804,3670026,3670026,0.00149147,0.00027375,-6.48825e-05,0.00597714,0.00668541,-0.0323082,4972,4972,0
208422938,208422497,3670026,3670026,-0.000169693,-0.000795027,0.000121682,0.0104196,0.00742146,-0.0360411,4967,4967,0
208924553,208924163,3670026,3670026,0.000237714,0.000211169,-1.9567e-05,-0.000748207,0.00634193,-0.0462034,4965,4965,0
209421213,209420861,3670026,3670026,0.00180177,-0.00206659,-0.000786294,0.00045598,-0.0204923,-0.0494868,4963,4963,0
209923025,209922635,3670026,3670026,-0.000178596,-0.00173675,0.000162477,-0.000680974,-0.00545582,-0.0479666,4997,4997,0
210424564,210424196,3670026,3670026,-0.00142649,0.00105062,0.00119626,0.000952362,0.0315247,-0.0432516,4972,4972,0
210926232,210925862,3670026,3670026,0.00165606,-0.000579885,-0.00128009,0.000855272,-0.0189553,-0.045691,4954,4954,0
211422970,211422557,3670026,3670026,-0.000235442,8.60055e-05,0.000568059,-0.00299974,0.00754574,-0.0446287,4969,4969,0
211924670,211924267,3670026,3670026,-0.000849458,2.3135e-05,0.000971449,-0.00660703,0.011231,-0.0478426,5012,5012,0
212426291,212425886,3670026,3670026,7.22397e-05,0.0018717,-0.000527518,-0.00726058,0.00125357,-0.0447887,4966,4966,0
212922970,212922585,3670026,3670026,0.000739147,-0.000439078,-0.00039151,-0.00499832,-0.00125869,-0.0521941,4968,4968,0
213424698,213424320,3670026,3670026,0.000321526,0.000465524,-0.000485097,0.000456655,0.00800463,-0.0421409,4994,4994,0
213926254,213925920,3670026,3670026,0.00152004,0.00109161,-0.000377125,0.00806318,0.00300692,-0.0350247,4969,4969,0
214422944,214422614,3670026,3670026,-0.000347081,0.000875859,0.000849723,-0.0146074,0.0316918,-0.0609756,4967,4967,0
214924604,214924280,3670026,3670026,8.48309e-05,0.000678875,0.000678209,0.00205195,0.00785871,-0.0460036,4967,4967,0
215426276,215425947,3670026,3670026,0.000467258,-0.00027481,-5.25756e-05,-0.00114487,0.00629459,-0.0431196,4969,4969,0
215927955,215927612,3670026,3670026,-0.00034895,-0.000815136,-0.000140746,0.00085909,0.00567579,-0.0401637,4969,4969,0
216424691,216424309,3670026,3670026,-0.00293456,0.00443772,0.000699827,-0.00934212,0.00950738,-0.0579743,4967,4967,0
216921500,216921123,3670026,3670026,0.000852963,1.81612e-05,-0.000686454,-0.00394502,0.00828189,-0.0458653,4990,4990,0
217423056,217422676,3670026,3670026,-0.000833264,0.000575974,0.000826831,-0.00800394,0.0177751,-0.0565647,4970,4970,0
217924706,217924339,3670026,3670026,-0.00164313,0.000306841,0.000851853,-0.00743124,0.000498869,-0.0576977,4966,4966,0
218426335,218426006,3670026,3670026,0.000312345,-0.00157263,0.000466806,0.00447803,0.028702,-0.0363449,4968,4968,0
218923035,218922706,3670026,3670026,0.000274242,0.000101853,-0.000229343,0.00678711,0.00797502,-0.0379336,4970,4970,0
219424777,219424391,3670026,3670026,-0.0012886,0.000845617,0.000828958,-0.0136573,-0.00363841,-0.0620588,4943,4943,0
219921462,219921068,3670026,3670026,0.000862999,-0.00103938,-0.000744386,-0.000340031,-0.0315836,-0.046926,4967,4967,0
220423199,220422815,3670026,3670026,-0.000564487,0.00264013,0.000172389,-3.38491e-05,-0.0205496,-0.0571954,4995,4995,0
220924769,220924399,3670026,3670026,0.00130574,-0.000137351,-0.000525115,-0.0059601,-0.00643698,-0.053991,4967,4967,0
221426393,221426065,3670026,3670026,0.00177716,-0.00127593,-0.00123479,0.00560556,-0.0285685,-0.0390028,4967,4967,0
221923136,221922764,3670026,3670026,0.000549798,-0.000452694,-0.000725581,0.00178218,-0.0056002,-0.0405589,4967,4967,0
222424850,222424430,3670026,3670026,0.00298308,-0.00108779,0.000235037,0.0135192,-0.000101555,-0.0322048,4914,4914,0
222926446,222926096,3670026,3670026,0.0017563,-0.00112422,-0.000501447,0.00724321,-0.00339426,-0.0399564,4968,4968,0
223428148,223427762,3670026,3670026,-0.00014706,2.8052e-05,-0.000342732,0.00839244,0.00916251,-0.0342461,4968,4968,0
223924939,223924615,3670026,3670026,-0.00261746,0.000211494,0.00120385,-0.0113427,0.0176885,-0.058371,4991,4991,0
224421483,224421159,3670026,3670026,0.00165738,-0.000458878,-0.000900842,-0.00394251,-0.0241297,-0.0485271,4962,4962,0
224923247,224922826,3670026,3670026,-0.000267747,-0.00026728,-0.000685485,-0.00263159,0.00484976,-0.0467413,4967,4967,0
225424868,225424492,3670026,3670026,0.00097665,-0.0010432,-0.000968105,-0.00652202,-0.0215573,-0.0463455,4968,4968,0
225926481,225926157,3670026,3670026,0.000315718,-0.0016209,-2.94161e-05,0.00403333,0.0187548,-0.0362949,4962,4962,0
226428267,226427823,3670026,3670026,-0.00189048,0.000964836,0.00100002,-0.00953592,-0.00235554,-0.0533195,4967,4967,0
226924900,226924555,3670026,3670026,-0.000915792,-0.000613493,0.000783789,-0.00154337,-0.00150241,-0.0498689,4984,4984,0
227421730,227421362,3670026,3670026,-0.00255295,0.00061368,0.000798743,-0.00865352,0.0177902,-0.0553735,4990,4990,0
227923267,227922888,3670026,3670026,-0.000433228,0.00164449,0.000725142,0.00188896,0.0070613,-0.0484353,4968,4968,0
228424977,228424553,3670026,3670026,-0.0022057,0.000348225,0.000651117,-0.0111261,0.0164397,-0.0603287,4965,4965,0
228926544,228926220,3670026,3670026,0.000371416,0.000262993,-0.000344712,-0.00856105,-0.0123825,-0.0542785,4956,4956,0
229423255,229422919,3670026,3670026,-0.00108775,0.000250194,-8.58621e-05,-0.00338591,-0.000182617,-0.0469069,4947,4947,0
229924978,229924587,3670026,3670026,0.00129838,-0.00222762,-0.00132386,-0.00699615,-0.0157417,-0.0518002,4968,4968,0
230426606,230426255,3670026,3670026,-0.00123081,0.000284533,0.000637542,-0.00595195,-0.00622815,-0.0562372,4971,4971,0
230923432,230923060,3670026,3670026,0.000323514,-2.03544e-05,-0.0012372,0.00947671,-0.0225391,-0.0323313,4991,4991,0
231425011,231424682,3670026,3670026,0.00903129,7.51779e-05,0.000307733,-0.00346751,0.0364975,-0.0506932,5002,5002,0
231926616,231926283,3670026,3670026,0.000155408,0.00031666,-0.00169631,0.000574792,-0.024954,-0.050376,4966,4966,0
232423354,232422982,3670026,3670026,-0.000845313,0.000341976,5.26141e-05,-0.00806404,-0.0184326,-0.0572736,4967,4967,0
232925048,232924659,3670026,3670026,0.000229736,0.00172088,-0.000427125,-0.00633868,-0.0236729,-0.0518735,4978,4978,0
233426673,233426315,3670026,3670026,-0.000477241,0.000242787,0.000184833,0.00494073,0.00497226,-0.0425518,4947,4947,0
233923365,233923024,3670026,3670026,0.000555187,0.000367875,0.000530923,0.00311529,0.0132382,-0.0436514,4975,4975,0
234425133,234424804,3670026,3670026,0.0020959,-0.00159499,-0.000802949,0.00598347,-0.00128874,-0.0377297,4989,4989,0
234921755,234921383,3670026,3670026,-0.00136027,0.00304609,0.000101799,-0.0102331,-0.00345857,-0.0563856,4970,4970,0
235423374,235423048,3670026,3670026,-0.00276235,0.000361832,0.000249009,0.00218262,0.0120477,-0.0455087,4968,4968,0
235925036,235924713,3670026,3670026,0.0015023,-0.00025647,6.95571e-05,0.00684261,0.0228809,-0.0359672,4966,4966,0
236426801,236426382,3670026,3670026,0.00120501,-0.000673576,0.000132961,0.00671547,-0.00202673,-0.0377939,4927,4927,0
236928437,236928049,3670026,3670026,0.00202778,-0.000822679,-0.000229625,0.010593,-0.00285201,-0.0345871,4971,4971,0
237425102,237424745,3670026,3670026,0.000839006,0.000274583,-5.19733e-05,-0.00271484,-0.00488605,-0.0504779,4967,4967,0
237921934,237921568,3670026,3670026,0.00154302,-0.000347458,-0.00144024,-0.00169462,-0.0196269,-0.0422793,4991,4991,0
238423485,238423114,3670026,3670026,0.00277584,0.000113894,-0.000308804,0.00533911,0.0242353,-0.0352786,4970,4970,0
238925154,238924782,3670026,3670026,0.000415406,-0.00144159,-0.000772449,0.00603021,-0.0165001,-0.0375892,4971,4971,0
239426769,239426445,3670026,3670026,0.00074038,-9.00293e-05,0.000155713,-0.00703972,-0.00184969,-0.0522087,4968,4968,0
239923465,239923144,3670026,3670026,0.00108794,0.000339432,-0.000719187,0.00136405,0.00704283,-0.0474872,4967,4967,0
240425175,240424811,3670026,3670026,-0.00255141,0.000862433,-0.000973275,-0.00458042,-0.0157302,-0.0516414,4967,4967,0
240921911,240921518,3670026,3670026,-0.00656306,0.00269644,0.000529792,-0.0137303,0.00827893,-0.0628604,4975,4975,0
241423681,241423316,3670026,3670026,-0.000589239,-9.1455e-05,0.000373986,0.00210141,0.00276002,-0.0465671,4989,4989,0
241925284,241924843,3670026,3670026,0.00292366,-0.000849458,-0.00126671,0.0125365,-0.012306,-0.029498,4964,4964,0
242421965,242421543,3670026,3670026,-0.00131367,0.000466893,0.00072173,-0.0132841,0.00106316,-0.0624025,4966,4966,0
242923543,242923210,3670026,3670026,-0.00131862,0.000211225,3.12009e-05,-0.00743203,-0.00310207,-0.059214,4967,4967,0
243425205,243424877,3670026,3670026,-0.00192559,0.000289626,-0.000771636,0.000988207,-0.00458336,-0.0424406,4967,4967,0
243926901,243926543,3670026,3670026,0.00494971,-0.000534346,-0.000483829,0.00316215,-0.00411518,-0.0415255,4967,4967,0
244423598,244423243,3670026,3670026,-0.0003993,3.24732e-05,-0.000470017,-0.00135614,-0.0105211,-0.0478468,4966,4966,0
244925442,244925074,3670026,3670026,0.00160771,-0.000653415,-0.000828361,0.006762,-0.0233318,-0.0394484,4994,4994,0
245422003,245421636,3670026,3670026,-0.00200174,0.000198875,0.00119783,-0.00111332,0.0272375,-0.0461119,4988,4988,0
245923655,245923277,3670026,3670026,-0.000875358,0.00166264,0.000663598,-0.00476746,0.00485133,-0.0528984,4967,4967,0
246425272,246424944,3670026,3670026,0.000625808,0.000253399,-0.000467089,-0.0042714,0.00267226,-0.0542237,4967,4967,0
246926978,246926610,3670026,3670026,-0.000733558,-0.000225598,1.95032e-05,-0.0106661,-0.016589,-0.0575302,4967,4967,0
247423669,247423310,3670026,3670026,0.00168657,-0.0019558,-0.000914831,0.00054966,-0.0114846,-0.0453067,4967,4967,0
247925332,247924982,3670026,3670026,-0.00169251,0.000522111,0.00100833,-0.0128219,0.0141999,-0.0610327,4954,4954,0
248422208,248421828,3670026,3670026,0.000438502,-0.000958863,-0.00049191,-0.00828786,-0.0102358,-0.0504156,4990,4990,0
248923786,248923347,3670026,3670026,-0.00132412,0.000704876,0.000321862,-0.0028741,-0.000406863,-0.0498664,4970,4970,0
249425388,249425012,3670026,3670026,0.000355878,0.00027057,0.000290036,-0.00504271,0.0241955,-0.0532096,4968,4968,0
249927117,249926678,3670026,3670026,-0.00197651,-0.000218035,0.000214237,0.00741697,0.00567602,-0.0432298,4967,4967,0
250423700,250423378,3670026,3670026,0.00102044,-0.00192443,0.000263919,0.00827114,0.0174565,-0.0392228,4966,4966,0
250925480,250925045,3670026,3670026,0.000674715,-0.000682509,0.00122952,0.00720713,0.022965,-0.041037,4966,4966,0
251422096,251421745,3670026,3670026,0.00146594,0.000815176,-0.000106121,0.00834819,0.0183392,-0.0371308,4966,4966,0
251924006,251923591,3670026,3670026,-0.00170621,0.000129984,0.00147603,0.00483449,0.0280711,-0.0427716,4993,4993,0
252425405,252425082,3670026,3670026,0.000411423,0.000696838,-0.000985247,-0.00438806,0.000979203,-0.0522384,4970,4970,0
252922220,252921780,3670026,3670026,0.00243692,-0.0010012,-0.000979336,0.0063769,-0.0187188,-0.0397027,4968,4968,0
253423774,253423446,3670026,3670026,-0.00327192,0.00139678,0.00143888,-0.0131251,0.0265204,-0.0578362,4967,4967,0
253925478,253925114,3670026,3670026,0.000815533,-0.00117274,1.9613e-05,0.004569,-0.00526533,-0.0428101,4966,4966,0
254427108,254426781,3670026,3670026,-0.00233159,0.00150096,0.000939241,-0.00268608,0.00770888,-0.0538165,4968,4968,0
254923837,254923495,3670026,3670026,0.000515538,0.00193808,-0.000484552,-0.00657754,-0.0029016,-0.0515475,4962,4962,0
255425770,255425347,3670026,3670026,0.00236844,-0.000606171,-0.000810923,0.00911733,0.0143419,-0.0393068,5001,5001,0
255922306,255921846,3670026,3670026,0.0010531,-0.000302487,-0.000775754,0.00418061,0.00209186,-0.0454902,4965,4965,0
256423952,256423515,3670026,3670026,0.0012046,-0.000373618,-0.00145375,-0.00405683,-0.0244809,-0.0468821,4966,4966,0
256925614,256925182,3670026,3670026,-0.00106334,-0.000131722,-0.000903828,-0.00444012,-4.52148e-05,-0.0501134,4967,4967,0
257427252,257426875,3670026,3670026,0.000543096,0.00100494,0.000591105,-0.00512816,0.00129538,-0.0471911,4990,4990,0
257923999,257923550,3670026,3670026,0.00134319,-0.00111913,-0.000714179,0.00777527,-0.000222278,-0.032823,4970,4970,0
258425651,258425218,3670026,3670026,0.00258935,-0.000504904,-3.22467e-05,-0.00464923,-0.0263011,-0.0578185,4968,4968,0
258922477,258922108,3670026,3670026,-0.00128702,0.000447946,0.000292217,-0.00367853,-0.0183654,-0.0540277,5000,5000,0
259424039,259423653,3670026,3670026,0.000196429,-0.00161615,-0.000334111,-0.00641416,-0.0245285,-0.0578801,5029,5029,0
259925619,259925253,3670026,3670026,-0.00580296,2.24006e-05,-0.000186576,-0.0107754,-0.0231243,-0.0578926,4966,4966,0
260427251,260426919,3670026,3670026,-0.000625139,-0.001241,-0.00112236,-0.00990686,-0.0316457,-0.0560578,4965,4965,0
260923990,260923620,3670026,3670026,-0.000967949,0.000376992,-1.3132e-05,-0.0111246,-0.0102259,-0.0603953,4967,4967,0
261425611,261425287,3670026,3670026,0.000335452,-0.000790451,-0.00101912,-0.00390778,-0.0275321,-0.0460194,4967,4967,0
261922357,261921999,3670026,3670026,0.000569052,-0.0010582,0.000549749,-0.00267216,-0.0106367,-0.0537459,4946,4946,0
262424002,262423660,3670026,3670026,0.00140201,-0.000132155,-0.000266761,0.00296683,-0.0088574,-0.0367278,4742,4742,0
262925725,262925352,3670026,3670026,-0.00182383,-0.000128534,-0.000879899,0.00360942,-0.0160378,-0.0418529,4981,4981,0
263422345,263422023,3670026,3670026,0.00248791,-0.00192023,-0.00105026,-0.000921417,-0.0287928,-0.0422385,4967,4967,0
263924117,263923694,3670026,3670026,-0.000574381,0.00150689,0.000340767,-0.0132461,0.01786,-0.0647199,4970,4970,0
264425728,264425405,3670026,3670026,-0.000699549,0.00107087,0.00091611,0.00307622,0.025764,-0.0437623,4942,4942,0
264927438,264927026,3670026,3670026,0.000568749,-0.00028403,-0.000846487,-0.00591798,-0.0247454,-0.0513549,4967,4967,0
265424114,265423726,3670026,3670026,-0.000157023,-0.000942538,-0.000644579,-0.00454782,-0.00461254,-0.0504308,4967,4967,0
265925745,265925394,3670026,3670026,0.00152808,-0.00103263,-0.000524147,0.00310526,0.00236713,-0.0437028,4964,4964,0
266422558,266422176,3670026,3670026,-0.000644809,0.000707652,-0.000227228,-0.013682,-0.01484,-0.0621898,4981,4981,0
266924217,266923788,3670026,3670026,-0.000962822,0.000253745,0.00040408,-0.000866334,-0.00121114,-0.050316,4995,4995,0
267425802,267425430,3670026,3670026,0.00190652,-0.00110215,-0.000346556,-0.00513519,0.00896765,-0.0500435,4949,4949,0
267927531,267927097,3670026,3670026,0.00199295,-0.000952228,-0.0010676,-0.00372129,-0.028619,-0.050007,4966,4966,0
268424213,268423799,3670026,3670026,0.000231622,-0.000231009,-0.000761144,0.00222386,0.00585563,-0.0435247,4968,4968,0
268920844,268920499,3670026,3670026,0.00148858,-0.00102121,-0.000144894,0.00369325,-0.00476753,-0.0409845,4967,4967,0
269422511,269422166,3670026,3670026,7.00697e-05,-0.000379518,-0.000445003,-0.00617604,-0.0256441,-0.0524262,4767,4767,0
269924207,269923873,3670026,3670026,0.00201389,-0.0019806,-0.00161294,0.00933632,-0.0203504,-0.038331,4979,4979,0
270425834,270425505,3670026,3670026,-0.00230524,0.000911319,0.000526692,-0.0118825,-0.0116484,-0.057641,4946,4946,0
270922670,270922203,3670026,3670026,0.000413389,-0.00013837,0.000364292,-0.00262344,0.00486158,-0.0503199,4967,4967,0
271424204,271423870,3670026,3670026,0.000225043,-0.000143759,-0.000195293,0.00148864,-0.0136158,-0.0437423,4965,4965,0
271925904,271925563,3670026,3670026,-7.05314e-07,-0.000691797,-0.000149543,-0.00184872,-0.014682,-0.0425037,4988,4988,0
272422585,272422238,3670026,3670026,-0.00152282,0.000801214,0.000196707,-0.00277619,0.0039275,-0.0522241,4967,4967,0
272924277,272923915,3670026,3670026,0.000581124,-0.00267432,4.97208e-05,0.0120736,-0.00496263,-0.0345853,4974,4974,0
273426015,273425671,3670026,3670026,0.00210675,-0.000310593,-0.00134546,0.000587883,-0.0216092,-0.0463442,4935,4935,0
273922708,273922327,3670026,3670026,-0.00110623,-1.94697e-05,0.00025706,-0.00513966,-0.017615,-0.0578706,4976,4976,0
274424374,274423944,3670026,3670026,-0.00017056,-0.000383382,0.000137278,-0.00556722,-0.0185721,-0.0553005,4967,4967,0
274925990,274925610,3670026,3670026,0.0021234,-0.000657111,-0.000925293,0.000822427,-0.00868727,-0.0422148,4967,4967,0
275427645,275427278,3670026,3670026,-0.000145478,0.00104803,3.36191e-05,-0.00405721,0.00342869,-0.0560338,4967,4967,0
275924334,275923979,3670026,3670026,0.00103579,0.000617324,0.0008285,-0.00600802,0.0190764,-0.0538598,4961,4961,0
276421044,276420699,3670026,3670026,-0.00341748,0.000595214,0.000347184,-0.0108768,-0.00247175,-0.0612646,4983,4983,0
276922787,276922404,3670026,3670026,-0.00173949,0.00122183,0.000729002,0.00139956,0.0267425,-0.0458168,4992,4992,0
277424388,277424015,3670026,3670026,0.000469166,-1.1149e-05,0.000321114,0.000301763,-0.000148721,-0.0452531,4967,4967,0
277926028,277925684,3670026,3670026,-0.00332511,0.00130775,0.000921405,0.00151107,0.0234779,-0.0494036,4967,4967,0
278427735,278427359,3670026,3670026,0.00265793,-0.00114141,-0.00140396,0.000289046,-0.0154237,-0.0412088,4975,4975,0
278924426,278924053,3670026,3670026,-0.00245338,0.000454397,0.000258623,-0.00238794,-0.000281486,-0.0450925,4923,4923,0
279421140,279420753,3670026,3670026,-0.00110978,-0.000763264,-0.000965823,-0.00975866,-0.0270713,-0.0587825,4940,4940,0
279922776,279922421,3670026,3670026,0.00207874,-6.71136e-06,-0.000766005,0.0127868,-0.00145394,-0.0315306,4967,4967,0
280424584,280424164,3670026,3670026,0.000290592,-0.000873697,-0.000754385,-0.0107309,-0.0359477,-0.0590962,4983,4983,0
280926144,280925760,3670026,3670026,0.000545494,-0.000801086,0.000249528,-0.000905689,-0.00845053,-0.0513889,4970,4970,0
281422823,281422458,3670026,3670026,0.000678309,-0.000142565,-0.000411555,-0.00776719,-0.0253214,-0.0532264,4965,4965,0
