timestamp,timestamp_sample,hover_thrust,hover_thrust_var,accel_innov,accel_innov_var,accel_innov_test_ratio,accel_noise_var,valid
39978278,39976992,0.47759053,0.005891408,1.4729927,8.48694,0.02840583,4.977491,0
39997998,39996850,0.47730625,0.0038720274,0.017409861,7.573411,4.446892e-06,4.945329,0
40072490,40071334,0.50297207,0.0017446445,-1.2766632,5.555356,0.032598548,4.8130636,0
40172825,40170647,0.51670617,0.0011085167,-0.9422089,5.0016713,0.019721355,4.616102,0
40271358,40269959,0.52579594,0.0008348036,-0.7654717,4.6928983,0.013873136,4.4279175,0
40370553,40369271,0.5317278,0.0006758911,-0.7928672,4.4561467,0.015674688,4.245847,0
40470182,40468583,0.53974885,0.0005586877,-0.56876683,4.2573767,0.00844275,4.0635834,0
40578993,40577892,0.54598784,0.00046519472,0.024279714,4.0447054,1.6194133e-05,3.8673234,0
40678482,40677139,0.5510479,0.00039207403,0.034188,3.858222,3.366027e-05,3.6977267,0
40777818,40776451,0.5531719,0.00033381002,0.5607078,3.6789682,0.009495212,3.536989,0
40882400,40880729,0.55120665,0.0002870221,0.07909778,3.513391,0.0001978607,3.3749747,0
40971725,40970110,0.5483668,0.00025114085,0.8901622,3.3594038,0.026207983,3.2530792,0
41070573,41069424,0.54667115,0.00022208487,-0.45168096,3.235626,0.0070058806,3.1303866,0
41170368,41168794,0.5439288,0.00019847276,0.63810307,3.110957,0.0145427035,3.0184565,0
41279299,41277979,0.54247415,0.0001785101,0.9514383,2.9651093,0.033921733,2.8850224,0
41378502,41377373,0.54195917,0.00016144523,0.6014218,2.8346157,0.014178216,2.7562528,0
41472867,41471636,0.53827363,0.00014672504,0.9197316,2.7269125,0.0344674,2.6575944,0
41572580,41570951,0.5388451,0.00013390278,0.11157966,2.6119328,0.00052962144,2.5407934,0
41671527,41670400,0.5412542,0.0001228186,0.62156355,2.5153666,0.017065825,2.4536076,0
41770949,41769574,0.54297256,0.00011320859,-0.12955299,2.4107392,0.00077357446,2.3496487,0
41870168,41868885,0.54109126,0.00010464522,-0.6634002,2.3259523,0.021023637,2.2717159,0
41974546,41973164,0.53988034,9.694909e-05,-0.33109236,2.2265604,0.005470428,2.182543,0
42073664,42072475,0.54117554,9.000485e-05,-0.17231028,2.1367025,0.001543959,2.085469,0
42173353,42171806,0.5390521,8.374965e-05,-0.2791644,2.0594409,0.0042046346,2.0113306,0
42272253,42271100,0.5403003,7.8103796e-05,0.17634127,1.974914,0.0017495132,1.9291996,0
42371644,42370412,0.5415044,7.303071e-05,0.70812064,1.898024,0.029354203,1.8600509,0
42471517,42469836,0.5428433,6.846095e-05,-0.5440294,1.8290508,0.017979454,1.7906281,0
42575351,42574003,0.54492104,6.438176e-05,0.32346204,1.7675742,0.0065769795,1.7311275,0
42674628,42673314,0.54477966,6.0663107e-05,0.5673391,1.699146,0.021048067,1.6670111,0
42773835,42772626,0.5453538,5.7218058e-05,-0.56132454,1.6270642,0.021516956,1.5946624,0
42873250,42871940,0.544354,5.4039985e-05,-0.41929457,1.5744559,0.012406963,1.5425892,0
42972401,42971253,0.5437032,5.112485e-05,0.65153646,1.539603,0.030635584,1.5124696,0
43072186,43070563,0.5442739,4.8451388e-05,0.5734545,1.4848117,0.024608437,1.4583917,0
43171210,43169875,0.5443805,4.5965036e-05,1.1189576,1.4218144,0.09784573,1.4062412,0
43270922,43269304,0.54308414,4.3652504e-05,0.28976062,1.3885946,0.006718321,1.3615923,0
43379824,43378430,0.54270446,4.1472118e-05,0.19490162,1.3366704,0.0031576506,1.3103721,0
43478892,43477745,0.5434138,3.9404837e-05,-1.0555574,1.2872465,0.09617439,1.2720548,0
43578662,43577055,0.5442808,3.7491547e-05,-0.87648445,1.2413052,0.068764985,1.2235826,0
43678050,43676368,0.5439171,3.5704274e-05,-0.6172874,1.2085719,0.035031587,1.1883714,0
43776812,43775680,0.5446405,3.405587e-05,1.3545293,1.1824554,0.17240487,1.1789073,0
43871242,43870026,0.5445612,3.2520165e-05,-0.68970996,1.1595032,0.04558464,1.1416514,0
43970712,43969389,0.54386526,3.1076765e-05,0.45198548,1.1161011,0.02033775,1.0970948,0
44069991,44068703,0.5452618,2.9710971e-05,-0.1846843,1.085759,0.0034904708,1.0656775,0
44179061,44177894,0.5450207,2.8441762e-05,-0.2181196,1.0607916,0.0049832975,1.0415365,0
44278611,44277207,0.54476815,2.7239104e-05,-1.0612571,1.0219103,0.12245765,1.013445,0
44382828,44381484,0.5457397,2.612224e-05,-0.84918875,1.008528,0.0794471,1.0,0
44472250,44470865,0.54663247,2.5089068e-05,-1.080655,1.008149,0.12870839,1.0,0
44571878,44570196,0.54637444,2.4147077e-05,1.1634091,1.0079311,0.14920782,1.0050075,0
44675784,44674474,0.5459453,2.327459e-05,0.75773776,1.0074903,0.06332198,1.0,0
44775122,44773768,0.5451952,2.2460596e-05,0.7094847,1.0072743,0.055525925,1.0,0
44874492,44873142,0.5458892,2.169834e-05,-0.54472655,1.0070404,0.032739174,1.0,0
44973775,44972392,0.54454786,2.099213e-05,0.40852103,1.021529,0.018152466,1.0060823,0
45072876,45071708,0.54468524,2.0322921e-05,-0.07803056,1.0066638,0.0006720513,1.0,0
45172572,45171176,0.54526645,1.969659e-05,-0.08792136,1.0064256,0.0008534235,1.0,0
45271458,45270329,0.5440228,1.9109715e-05,0.3292379,1.0062873,0.011968926,1.0,0
45371208,45369646,0.54429567,1.8553435e-05,-0.005987428,1.0061182,3.959033e-06,1.0,0
45470147,45468953,0.5447218,1.802942e-05,-0.1259706,1.0059468,0.0017527537,1.0,0
45579514,45578202,0.54391783,1.753659e-05,-0.45775625,1.0058511,0.023146875,1.0,0
45678845,45677587,0.54364234,1.7065693e-05,1.4394962,1.0056852,0.22893727,1.0083861,0
45773125,45771857,0.54354554,1.6617898e-05,-0.17467332,1.0055654,0.0033713225,1.0,0
45872854,45871168,0.54506457,1.620305e-05,0.121329725,1.0369993,0.0015772968,1.021789,0
45972031,45970596,0.54519755,1.5810827e-05,-1.5300369,1.0087503,0.25785625,1.0153896,0
46071103,46069792,0.5452555,1.5440162e-05,0.29106975,1.0050796,0.009365936,1.0,0
46170432,46169107,0.5462036,1.5084289e-05,-0.23039572,1.0049269,0.0058691045,1.0,0
46279479,46278350,0.54578805,1.4749765e-05,-0.6966232,1.0048456,0.053660415,1.0,0
46379088,46377666,0.545365,1.4427134e-05,0.090077296,1.0047494,0.00089728495,1.0,0
46478104,46476973,0.54616153,1.41178525e-05,-0.6476347,1.00464,0.046388168,1.0,0
46572924,46571319,0.5466429,1.382211e-05,-0.6719961,1.0050104,0.04992527,1.0,0
46672228,46670631,0.5471391,1.3540053e-05,-1.0142431,1.0044647,0.11379074,1.0,0
46771348,46770133,0.54725116,1.32717005e-05,0.8510812,1.0045418,0.08011826,1.0,0
46870935,46869264,0.5476611,1.301262e-05,-0.7177668,1.004297,0.056998324,1.0,0
46979886,46978500,0.5474119,1.2768556e-05,-0.0016066581,1.0136111,2.8296523e-07,1.0,0
47074216,47072846,0.547733,1.2529827e-05,-0.6100054,1.0041217,0.041175462,1.0,0
47173493,47172160,0.54827243,1.2303687e-05,0.4717247,1.0040072,0.024626225,1.0,0
47273176,47271471,0.5485114,1.20869e-05,-0.83158517,1.0039352,0.07653591,1.0,0
47371960,47370834,0.5482591,1.1880086e-05,0.05307184,1.0038414,0.0003117602,1.0,0
47471466,47470097,0.5485337,1.1682202e-05,1.0158865,1.003741,0.11424211,1.0031875,0
47570651,47569498,0.54802483,1.1492192e-05,-0.028107183,1.0037036,8.74554e-05,1.0,0
47675044,47673686,0.5481469,1.1309566e-05,1.1211092,1.0036312,0.1391487,1.0044317,0
47774177,47773002,0.5482608,1.1133811e-05,-1.1169555,1.0036055,0.13812307,1.0004597,0
47873895,47872310,0.5483426,1.0940547e-05,-0.13239425,1.0042278,0.0019393828,1.0,0
47972984,47971625,0.54993695,1.0716883e-05,-2.0011277,1.0198522,0.43628463,1.0360602,0
48072656,48070935,0.55221695,1.0490367e-05,-1.6380864,1.1457709,0.2602156,1.1442767,0
48171894,48170247,0.55187094,1.0255682e-05,0.4885137,1.1379025,0.023302685,1.1273841,0
48270740,48269559,0.5519962,1.0084865e-05,1.5459995,1.2476962,0.21284692,1.2614484,0
48370194,48368885,0.55126315,9.927448e-06,1.5762744,1.3259193,0.2082112,1.3370845,0
48479529,48478115,0.55179787,9.810926e-06,-1.853245,1.320085,0.28908214,1.3304286,0
48578583,48577428,0.55306214,9.7197235e-06,-1.576261,1.4039185,0.19664001,1.401638,0
48678378,48676976,0.55277985,9.648987e-06,1.2574407,1.3877313,0.12659808,1.3947012,0
48772456,48771104,0.55268484,9.590197e-06,-0.32815278,1.3692056,0.008738583,1.3536555,0
48871604,48870399,0.55267197,9.544151e-06,0.302765,1.3128659,0.007757977,1.3007221,0
48971101,48969711,0.55298984,9.501839e-06,-1.5677354,1.2569604,0.21726085,1.2598172,0
49070201,49069024,0.5536121,9.441694e-06,-1.0408484,1.2524763,0.09610874,1.2427845,0
49179399,49178290,0.55439305,9.361747e-06,-1.3947109,1.2256663,0.17634113,1.220077,0
49278951,49277615,0.5552259,9.257932e-06,-0.19450212,1.21934,0.0034473178,1.2046154,0
49378566,49376893,0.5544002,9.137401e-06,1.3500836,1.2458639,0.16255794,1.2573478,0
49477652,49476415,0.5539099,9.0121885e-06,-0.9562739,1.314468,0.07729868,1.3020396,0
49571667,49570551,0.55412626,8.876206e-06,-1.513238,1.2757043,0.19944444,1.2743536,0
49671025,49669863,0.5534251,8.767206e-06,-0.07756686,1.3632648,0.00049037655,1.3462968,0
49770376,49769175,0.5533717,8.684569e-06,0.41347927,1.3039293,0.014568368,1.2909532,0
49870092,49868487,0.55313677,8.617592e-06,0.07990348,1.2515545,0.0005668121,1.2429714,0
49979048,49977733,0.55336076,8.561783e-06,-0.6913192,1.195968,0.04440125,1.1852641,0
50073424,50072078,0.5538126,8.492168e-06,-0.57729995,1.1635224,0.031826273,1.1512083,0
50172701,50171392,0.5543608,8.428258e-06,0.1242764,1.1464359,0.0014968733,1.1341529,0
50272531,50270792,0.5540709,8.378206e-06,0.8412643,1.1080122,0.070970505,1.1050491,0
50376150,50374981,0.55396575,8.34038e-06,-0.08725786,1.0816561,0.00078212726,1.0694261,0
50475691,50474293,0.55408573,8.300072e-06,-0.08917856,1.0357971,0.0008531074,1.0239738,0
50574952,50573605,0.5544753,8.2595425e-06,-0.48800874,1.0119412,0.02614914,1.0013744,0
50674576,50672917,0.55492127,8.210509e-06,-1.3275297,1.0019528,0.19543336,1.0019221,0
50773455,50772230,0.55533487,8.145725e-06,-0.65060544,1.002362,0.046921108,1.0,0
50872890,50871545,0.5559342,8.065461e-06,-0.027720869,1.002746,8.5149135e-05,1.0,0
50971995,50970857,0.555655,7.97351e-06,0.26008654,1.0029029,0.0074943565,1.0,0
51071618,51070282,0.5557645,7.889092e-06,-0.08240628,1.0027652,0.0007524521,1.0,0
51170767,51169479,0.5557266,7.8135945e-06,0.40130875,1.002482,0.017849995,1.0,0
51270181,51268792,0.554946,7.744978e-06,1.3528862,1.0365747,0.19619115,1.0443171,0
51384104,51383001,0.5546752,7.686256e-06,0.5913151,1.0119563,0.038391374,1.0020392,0
51473593,51472381,0.5542052,7.6208817e-06,0.701102,1.0022329,0.054494325,1.0,0
51573005,51571728,0.55452216,7.557578e-06,-1.2212417,1.004615,0.16495335,1.0066084,0
51672374,51671006,0.5549414,7.496563e-06,0.21452431,1.002289,0.005101731,1.0,0
51771602,51770319,0.5550501,7.4360846e-06,-0.36170086,1.0022818,0.014503296,1.0,0
51870953,51869654,0.5553936,7.376124e-06,-1.1589248,1.0022709,0.14889595,1.0006024,0
51970293,51968943,0.5558528,7.3183373e-06,-0.29719913,1.0022986,0.009791641,1.0,0
52079573,52078187,0.55582523,7.2603248e-06,-1.1092701,1.0022961,0.13640681,1.0,0
52178686,52177499,0.5563086,7.206852e-06,-0.5027214,1.0021547,0.028020607,1.0,0
52278371,52276818,0.55585986,7.15521e-06,0.8888903,1.019495,0.086113006,1.0175437,0
52377462,52376124,0.55579513,7.1039226e-06,0.42699635,1.0021473,0.020215023,1.0,0
52476765,52475437,0.5552024,7.052848e-06,1.5205239,1.0098646,0.25437877,1.0206511,0
52576046,52574749,0.55503625,7.0028836e-06,0.0055346936,1.0021561,3.3963252e-06,1.0,0
52675320,52674073,0.55464077,6.9538214e-06,0.2746979,1.0049378,0.008343129,1.0,0
52779651,52778340,0.55454946,6.9052994e-06,-0.3570779,1.0022036,0.014136029,1.0,0
52878878,52877651,0.55472153,6.8583668e-06,0.83257633,1.0020434,0.07686331,1.0,0
52978470,52977194,0.55470645,6.8112618e-06,-1.273323,1.0021093,0.17977099,1.0072535,0
53072593,53071310,0.55447334,6.7629426e-06,0.09729359,1.0021063,0.0010495719,1.0,0
53171932,53170623,0.5538393,6.716867e-06,1.3827947,1.0187707,0.20854343,1.0212193,0
53271130,53269935,0.5534315,6.672761e-06,0.68979037,1.0020409,0.052760188,1.0,0
53370778,53369248,0.5531471,6.630163e-06,-0.3683555,1.0020267,0.015045706,1.0,0
53479824,53478531,0.553181,6.590596e-06,0.8194464,1.0020267,0.07445936,1.0,0
53574004,53572841,0.55302536,6.5483027e-06,0.14961338,1.0019734,0.0024822308,1.0,0
53673708,53672151,0.5527797,6.509701e-06,1.292033,1.0021492,0.18508545,1.0011289,0
53772897,53771577,0.5527092,6.473728e-06,-0.0414927,1.0017669,0.00019095639,1.0,0
53872062,53870776,0.5529091,6.4376873e-06,-0.21442726,1.0020075,0.0050985483,1.0,0
53971404,53970088,0.55314267,6.398964e-06,0.538568,1.0019445,0.032165844,1.0,0
54070783,54069400,0.55277497,6.361394e-06,0.72211623,1.002037,0.057821307,1.0,0
54170069,54168716,0.5525877,6.3280886e-06,0.9873291,1.0016849,0.10813101,1.0,0
54279049,54277957,0.55240923,6.3031944e-06,-0.5644102,1.0017507,0.03533357,1.0,0
54373628,54372303,0.55300856,6.268401e-06,-0.28450608,1.0527338,0.00854323,1.0418929,0
54472998,54471615,0.5532233,6.2334216e-06,0.46844345,1.0262051,0.023759522,1.015869,0
54572118,54570994,0.55326957,6.1983355e-06,-1.0203333,1.0019197,0.115453914,1.0011706,0
54671593,54670240,0.5530487,6.164719e-06,0.17748117,1.001888,0.0034933563,1.0,0
54770707,54769565,0.5530837,6.131724e-06,-0.4684168,1.001876,0.024333717,1.0,0
54875205,54873830,0.5531887,6.1009005e-06,-1.812525,1.019436,0.35806805,1.0462706,0
54974309,54973158,0.55323607,6.0714915e-06,-1.1455277,1.0257434,0.14214447,1.0270689,0
55073845,55072455,0.5529876,6.041483e-06,1.8733978,1.0032194,0.38870633,1.0237491,0
55173124,55171767,0.5529149,6.0128464e-06,-0.93198645,1.0241121,0.09423868,1.0220193,0
55272756,55271081,0.5528165,5.983287e-06,0.5440496,1.0018368,0.03282748,1.0,0
55371571,55370434,0.5526465,5.953084e-06,1.164533,1.001846,0.15040426,1.0012112,0
55471062,55469705,0.5524408,5.923014e-06,-0.23206696,1.0018533,0.0059728273,1.0,0
55570650,55569017,0.552294,5.8929454e-06,0.29452947,1.001866,0.009620671,1.0,0
55684550,55683226,0.5518661,5.86642e-06,0.39866447,1.0018888,0.01762597,1.0,0
55773987,55772607,0.55209213,5.833537e-06,-0.77698576,1.0018904,0.066951975,1.0,0
55873353,55871920,0.5522087,5.8040164e-06,0.41114482,1.0018508,0.01874753,1.0,0
55972915,55971233,0.55183625,5.7755124e-06,0.55751103,1.0018443,0.034471817,1.0,0
56071809,56070544,0.55220765,5.74709e-06,-1.803077,1.009023,0.35800165,1.0324535,0
56171215,56169858,0.5523932,5.7203047e-06,0.04161358,1.0159354,0.00018939194,1.0041331,0
56270326,56269169,0.55284244,5.6923873e-06,-1.1600243,1.0046347,0.1488276,1.0052791,0
56379627,56378488,0.5528494,5.66762e-06,-0.19681615,1.0018246,0.0042962274,1.0,0
56479497,56477914,0.5533446,5.641301e-06,-1.0991216,1.0018052,0.13398793,1.0,0
56573682,56572072,0.5533859,5.6145586e-06,-1.0268474,1.0017908,0.116947845,1.0,0
56672519,56671385,0.55396706,5.5900764e-06,-0.51539576,1.0155681,0.029062308,1.0046716,0
56772008,56770697,0.55396014,5.5659907e-06,0.055656724,1.001752,0.0003435837,1.0,0
56871218,56870009,0.5541109,5.5422965e-06,-0.7927738,1.0017458,0.069710545,1.0,0
56970750,56969323,0.5544533,5.519067e-06,-0.007108507,1.0017321,5.6048334e-06,1.0,0
57074901,57073601,0.55423063,5.4974976e-06,1.0279561,1.005409,0.11677876,1.0083225,0
57174043,57172912,0.5548426,5.475137e-06,-1.4548281,1.0307889,0.22814511,1.0322413,0
57273443,57272340,0.55526024,5.454856e-06,-0.11929904,1.0210551,0.0015487531,1.0098252,0
57372961,57371537,0.55523235,5.43398e-06,-0.62641686,1.0016857,0.04352641,1.0,0
57472123,57470852,0.5554678,5.413109e-06,-0.29513824,1.0016865,0.009662214,1.0,0
57576522,57575127,0.5551277,5.39445e-06,-0.12655064,1.0248377,0.0017363254,1.0108676,0
57675832,57674440,0.55455345,5.376205e-06,0.7885341,1.066234,0.064795665,1.0616826,0
57775334,57773801,0.5545241,5.3589292e-06,0.4729407,1.0266355,0.02420776,1.01786,0
57874370,57873072,0.5540945,5.340837e-06,1.092627,1.0214537,0.12986217,1.02108,0
57973683,57972379,0.55403864,5.3229114e-06,-0.22754064,1.0016143,0.0057434775,1.0,0
58073159,58071770,0.5540438,5.3049116e-06,0.009041503,1.0016143,9.068557e-06,1.0,0
58172193,58171003,0.55405414,5.287036e-06,0.2173284,1.0016068,0.0052395402,1.0,0
58271888,58270315,0.554266,5.2694077e-06,-1.3596137,1.004493,0.20447566,1.0104806,0
58375994,58374639,0.55433655,5.253305e-06,0.9217855,1.0016094,0.09425812,1.0,0
58475298,58473907,0.5542415,5.235932e-06,-0.55261153,1.0016125,0.03387643,1.0,0
58574335,58573240,0.55429655,5.2186465e-06,-0.860057,1.0016159,0.08205608,1.0,0
58673908,58672530,0.5545013,5.201285e-06,-0.9210435,1.0016261,0.09410488,1.0,0
58773123,58771842,0.55473113,5.184074e-06,-0.106613204,1.0016134,0.0012608962,1.0,0
58872677,58871205,0.5546336,5.1675233e-06,0.48497352,1.0015948,0.026091648,1.0,0
58971696,58970467,0.55451804,5.151325e-06,-0.29491094,1.0015831,0.009648332,1.0,0
59071415,59069780,0.5547274,5.1355983e-06,0.032645587,1.0015771,0.000118228454,1.0,0
59170435,59169277,0.5547136,5.120281e-06,-0.48865247,1.0015644,0.02648981,1.0,0
59279639,59278336,0.5550035,5.1074067e-06,-1.5417374,1.001581,0.26368916,1.0096838,0
59378728,59377648,0.5551726,5.091985e-06,-0.5153889,1.0015845,0.029467275,1.0,0
59473207,59471995,0.5551228,5.0752856e-06,0.7117658,1.0015838,0.056201052,1.0,0
59572723,59571308,0.55503374,5.0600365e-06,-0.77527404,1.0015856,0.066677585,1.0,0
59671835,59670633,0.5545485,5.045549e-06,1.8932279,1.0381411,0.383625,1.0608667,0
59771334,59769932,0.5545418,5.033065e-06,-0.879477,1.0331059,0.08318818,1.0293026,0
59870445,59869249,0.555071,5.0218227e-06,-0.2100957,1.0817865,0.004533674,1.0697701,0
59970368,59968708,0.5552621,5.010284e-06,-0.5555768,1.048214,0.032718677,1.0380886,0
60074125,60072835,0.5555274,4.9986256e-06,-0.15973862,1.0131426,0.0027983803,1.0016845,0
60173688,60172180,0.5553782,4.985046e-06,-0.7482301,1.0015497,0.062109116,1.0,0
60272721,60271462,0.5553937,4.971161e-06,0.15593763,1.0063353,0.002684829,1.0,0
60372113,60370773,0.5553881,4.9569735e-06,0.8983163,1.0015644,0.08952353,1.0001582,0
60471276,60470123,0.55533546,4.9438963e-06,-1.5289294,1.0193639,0.25480217,1.028059,0
60570786,60569398,0.55508554,4.931344e-06,0.45823628,1.0296569,0.022659164,1.0203298,0
60679949,60678642,0.55477613,4.920549e-06,1.3026356,1.0017662,0.18820752,1.008375,0
60779427,60778166,0.5549686,4.907331e-06,-0.8858544,1.001553,0.08705792,1.0,0
60873678,60872302,0.5552835,4.8928787e-06,-0.5188002,1.0041682,0.029781826,1.0,0
60973162,60971613,0.55551416,4.879761e-06,-0.111403905,1.0015523,0.0013768437,1.0,0
61072247,61070927,0.55535746,4.867017e-06,-0.24545836,1.0015378,0.0066841445,1.0,0
61171532,61170242,0.5556123,4.855008e-06,0.29522863,1.0015044,0.009669891,1.0,0
61271337,61269551,0.5555909,4.843555e-06,-1.2385954,1.001499,0.17020246,1.0028738,0
61370053,61368864,0.5558182,4.8321717e-06,-1.1085536,1.0015024,0.13633864,1.0,0
61479322,61478109,0.55592066,4.8231036e-06,-0.66376984,1.0015081,0.048880775,1.0,0
61578921,61577569,0.556282,4.81256e-06,0.7728809,1.0243815,0.064791925,1.022447,0
61677952,61676732,0.5560781,4.8032266e-06,-0.16752827,1.0507228,0.0029678745,1.0389304,0
61777401,61776044,0.5561208,4.7929784e-06,-0.045476988,1.01253,0.00022695145,1.0012058,0
61871980,61870427,0.55605584,4.7806648e-06,1.1441921,1.0014958,0.1452467,1.0044667,0
61971001,61969704,0.5559948,4.7699136e-06,1.4157093,1.0014766,0.22236417,1.0126561,0
62070382,62069023,0.5554859,4.7617127e-06,0.6553657,1.0636706,0.04486604,1.0556561,0
62179613,62178260,0.5554038,4.755721e-06,0.12615149,1.0151539,0.0017418484,1.0037994,0
62278721,62277572,0.55548245,4.7455865e-06,-0.060289033,1.0014787,0.00040326675,1.0,0
62378313,62376961,0.55552655,4.735206e-06,0.8129931,1.0014899,0.07333051,1.0,0
62472456,62471279,0.5552751,4.723702e-06,0.7384819,1.0014781,0.06050562,1.0,0
62572140,62570545,0.55531704,4.7135836e-06,0.28007284,1.0014831,0.008702737,1.0,0
62671487,62670047,0.5553544,4.703655e-06,0.15800534,1.0014701,0.0027698933,1.0,0
62770394,62769170,0.5554812,4.693939e-06,-0.22945039,1.0036544,0.005828421,1.0,0
62879772,62878414,0.55558914,4.686726e-06,-0.43287796,1.0014687,0.020789836,1.0,0
62974143,62972760,0.5555077,4.6763935e-06,-0.38988748,1.0047818,0.016809868,1.0,0
63073343,63072072,0.555255,4.667765e-06,0.6097078,1.0042197,0.04113128,1.0,0
63172760,63171462,0.5549355,4.6591285e-06,0.7751637,1.0030476,0.06656145,1.0,0
63272010,63270697,0.5548307,4.6504438e-06,-0.22055066,1.0014367,0.0053969785,1.0,0
63371668,63370011,0.5549148,4.641836e-06,0.160891,1.001442,0.0028720712,1.0,0
63470494,63469474,0.55473363,4.6332502e-06,2.0727725,1.0014359,0.4766917,1.026859,0
63570041,63568668,0.55459225,4.6254686e-06,0.26515764,1.0031577,0.007787473,1.0,0
63679247,63677878,0.5545749,4.620148e-06,-0.054771394,1.0014019,0.0003328562,1.0,0
63778330,63777195,0.55468357,4.6125206e-06,-1.2065754,1.0014178,0.16152923,1.0071281,0
63877880,63876504,0.5550607,4.6048626e-06,-0.37676683,1.0223294,0.015428082,1.0123404,0
63977023,63975828,0.5552399,4.597001e-06,-0.63856506,1.0014327,0.045242444,1.0,0
64071391,64070164,0.5554791,4.588043e-06,-1.3055353,1.0014155,0.18911259,1.0047857,0
64170666,64169475,0.5556235,4.5805177e-06,-0.13552721,1.0014127,0.002037968,1.0,0
64269947,64268905,0.5555442,4.573441e-06,1.5918063,1.0090661,0.27900907,1.0251793,0
64379362,64378032,0.55549324,4.5695783e-06,0.62378895,1.0210972,0.042341452,1.0143548,0
64478690,64477344,0.5556811,4.562476e-06,-0.78564304,1.0014037,0.068485536,1.0,0
64578234,64576698,0.55579793,4.5553743e-06,-0.60493,1.0014002,0.040603176,1.0,0
64677136,64675969,0.5555512,4.5491147e-06,-0.98420334,1.0421456,0.10327584,1.0390133,0
64776838,64775316,0.5554755,4.5431016e-06,0.1709519,1.0200523,0.0031833393,1.0090275,0
64871076,64869631,0.5556903,4.5349807e-06,-0.8283795,1.001399,0.07613932,1.0,0
64970211,64968941,0.5552927,4.5287807e-06,2.255031,1.0434531,0.541489,1.080419,0
65079464,65078317,0.55523187,4.5269067e-06,0.6818908,1.065737,0.04847715,1.057914,0
65173805,65172532,0.55516773,4.520011e-06,0.2638008,1.0272164,0.007527448,1.0161858,0
65273427,65271866,0.55542856,4.5136285e-06,0.2232213,1.0140548,0.005459682,1.0032566,0
65372446,65371157,0.55544525,4.5068746e-06,0.13548182,1.0013987,0.0020366316,1.0,0
65471750,65470470,0.55539936,4.5003294e-06,-0.3581973,1.0013922,0.014236324,1.0,0
65571005,65569798,0.5554759,4.493817e-06,-0.2580579,1.0130681,0.007303872,1.0022668,0
65675715,65674060,0.5554325,4.48896e-06,0.5078577,1.0492188,0.027313381,1.0400511,0
65774577,65773372,0.5554113,4.4834096e-06,1.5691171,1.0079477,0.2714127,1.0205759,0
65874030,65872749,0.55546486,4.4773956e-06,-0.6958273,1.0013858,0.053722847,1.0,0
65973158,65972006,0.5555464,4.4714266e-06,0.30464816,1.001372,0.010298149,1.0,0
66072667,66071311,0.5552655,4.4656977e-06,0.8768684,1.007387,0.084806666,1.002899,0
66171822,66170638,0.55534405,4.460087e-06,-0.57830244,1.0013602,0.037108827,1.0,0
66271557,66269935,0.5552617,4.454725e-06,-0.051861346,1.001353,0.00029844057,1.0,0
66370594,66369248,0.55519587,4.449415e-06,0.12386902,1.0013565,0.0017025276,1.0,0
66469857,66468563,0.5553939,4.443895e-06,-0.07411663,1.0013698,0.000609529,1.0,0
66579134,66577804,0.55562913,4.440609e-06,-0.70457405,1.0013779,0.055082384,1.0,0
66678527,66677169,0.55529135,4.435071e-06,1.1924086,1.0074347,0.15681612,1.0094475,0
66777654,66776464,0.555454,4.429277e-06,-1.838986,1.0014763,0.37520936,1.0229553,0
66877138,66875750,0.5555413,4.423224e-06,0.6613178,1.0223651,0.04753045,1.0155483,0
66976343,66975246,0.5555262,4.4131e-06,0.31275302,1.0015372,0.010851592,1.0,0
67070616,67069401,0.5554085,4.4055164e-06,0.61498797,1.0013337,0.04196739,1.0,0
67170027,67168714,0.5553514,4.400486e-06,-0.67172575,1.0013646,0.050066732,1.0,0
67279519,67277957,0.55553246,4.3984874e-06,0.47815043,1.0013131,0.025369778,1.0,0
67378565,67377270,0.55508786,4.3943855e-06,1.8535235,1.0206311,0.37401146,1.0402647,0
67478073,67476658,0.55472386,4.3923333e-06,-0.7475427,1.1095011,0.0559631,1.105354,0
67572317,67570943,0.5544062,4.388332e-06,1.5901724,1.1078873,0.25360066,1.1139207,0
67671428,67670242,0.55392873,4.38681e-06,0.72856647,1.1366146,0.051889874,1.1256251,0
67771101,67769691,0.5538955,4.384409e-06,-0.81704,1.090105,0.0680418,1.0905212,0
67870053,67868867,0.5538894,4.380832e-06,0.3070022,1.0731152,0.009758747,1.0611627,0
67979440,67978111,0.55428547,4.3794666e-06,-1.6426445,1.0749445,0.2789065,1.0944425,0
68073745,68072458,0.5547272,4.3735563e-06,-1.3871745,1.117462,0.19133168,1.1203486,0
68172999,68171788,0.55516195,4.371234e-06,-1.3054118,1.1410505,0.16593872,1.1429725,0
68272184,68271084,0.55507094,4.3699065e-06,1.0450059,1.1289222,0.10748081,1.1283659,0
68376714,68375363,0.5549155,4.369838e-06,0.31660086,1.1343192,0.009818528,1.1228921,0
68476033,68474696,0.55460966,4.368547e-06,0.47446024,1.1296641,0.02214154,1.1188409,0
68575439,68574099,0.5547837,4.366187e-06,-0.45228946,1.0930624,0.020794356,1.0830917,0
68674579,68673336,0.5545267,4.3629307e-06,1.3181812,1.0702703,0.18039072,1.0733477,0
68773956,68772611,0.5545407,4.3591886e-06,-1.0351474,1.0461937,0.11380197,1.0465198,0
68873258,68871924,0.5543837,4.3549508e-06,0.56985825,1.0293145,0.035054445,1.0200201,0
68972602,68971236,0.5546549,4.350119e-06,-0.74255717,1.0073606,0.060818024,1.0019423,0
69072009,69070549,0.5546755,4.3453288e-06,-0.7545947,1.0013615,0.0631821,1.0,0
69170963,69169861,0.55444676,4.341002e-06,1.854195,1.006373,0.3795852,1.026142,0
69270822,69269175,0.5541127,4.338536e-06,-0.20451882,1.0519135,0.004418187,1.0415632,0
69379877,69378525,0.55420244,4.337326e-06,-1.2982563,1.0146682,0.1845671,1.0228198,0
69478924,69477730,0.5539082,4.333337e-06,1.5334249,1.0318745,0.25319526,1.038486,0
69578435,69577045,0.5537402,4.329503e-06,-0.46079186,1.0127103,0.023296025,1.0057089,0
69682513,69681321,0.5535531,4.3261007e-06,0.26662037,1.0013692,0.007887691,1.0,0
69771791,69770703,0.5535656,4.3186214e-06,0.9615048,1.0013715,0.10258059,1.0,0
69871345,69870015,0.5536387,4.314267e-06,0.13931683,1.001351,0.0021536655,1.0,0
69970648,69969328,0.5535222,4.3101e-06,-0.45726708,1.0013442,0.023201387,1.0,0
70070253,70068640,0.5533737,4.306038e-06,-0.3925761,1.0013475,0.017100954,1.0,0
70179362,70178005,0.55341464,4.3042173e-06,-1.0049539,1.0013602,0.112062275,1.003845,0
70273390,70272236,0.5535295,4.2986408e-06,0.20899682,1.0106982,0.004801925,1.0,0
70372935,70371544,0.55324024,4.294796e-06,-0.5806101,1.0102606,0.03707603,1.0047996,0
70472457,70471044,0.55317,4.291057e-06,0.7804287,1.0013337,0.067584194,1.0,0
70571438,70570169,0.5529254,4.287291e-06,0.5046498,1.0101036,0.028013786,1.0,0
70670890,70669481,0.55286926,4.283203e-06,0.26457667,1.0013442,0.0077674272,1.0,0
70770141,70768794,0.5530605,4.279374e-06,-0.73086077,1.0013486,0.059270896,1.0,0
70879446,70878046,0.5529771,4.277639e-06,-0.24902335,1.001358,0.0068809474,1.0,0
70978469,70977385,0.5527949,4.2735937e-06,0.6833923,1.0013514,0.051821638,1.0,0
71072865,71071698,0.5528496,4.268286e-06,-0.7357414,1.0013499,0.060065065,1.0,0
71172411,71171014,0.55261457,4.264455e-06,0.34186473,1.0059986,0.01290829,1.0,0
71271618,71270465,0.55251265,4.26048e-06,-0.16893071,1.0013599,0.0031665363,1.0,0
71376347,71374601,0.5526052,4.2577462e-06,0.5819143,1.0013578,0.0375739,1.0,0
71475091,71473914,0.5525113,4.253698e-06,-0.94527394,1.0013492,0.09914876,1.0025561,0
71574632,71573226,0.5525336,4.248833e-06,0.74414253,1.0013537,0.061444387,1.0,0
71673722,71672538,0.5524568,4.245057e-06,-0.26855433,1.0013211,0.008002919,1.0,0
71773254,71771874,0.55242604,4.2414144e-06,-0.1645604,1.0013484,0.0030048513,1.0,0
71872342,71871164,0.55250716,4.2374663e-06,-0.33954972,1.001534,0.012790825,1.0,0
71971894,71970476,0.55276483,4.233471e-06,-0.8430496,1.0054705,0.07854063,1.0020055,0
72071052,72069893,0.55270314,4.2298807e-06,0.8147655,1.0013486,0.07366098,1.0,0
72170752,72169107,0.55275327,4.225862e-06,-1.1516508,1.0013473,0.14716834,1.0040178,0
72279633,72278347,0.55315626,4.2246875e-06,-1.3858254,1.0140104,0.21044186,1.0195718,0
72373875,72372692,0.5532999,4.220362e-06,-0.8873952,1.0149521,0.08620771,1.0107604,0
72473614,72472005,0.55371284,4.2180627e-06,0.08709941,1.0386206,0.00081157935,1.0278854,0
72572420,72571318,0.5534555,4.216086e-06,0.022134956,1.0413624,5.227727e-05,1.0299864,0
72672215,72670630,0.5532447,4.213206e-06,0.51428026,1.0124869,0.029024702,1.0042922,0
72771293,72769978,0.55359024,4.2096667e-06,-1.5697577,1.0039253,0.27272272,1.0131177,0
72870798,72869320,0.553985,4.207613e-06,0.20572913,1.0413902,0.004515809,1.0315831,0
72979811,72978500,0.55379504,4.207818e-06,-1.3350008,1.0474629,0.18905225,1.0509728,0
73079036,73077812,0.55384433,4.205533e-06,-0.35827586,1.0479407,0.013609929,1.0367079,0
73178474,73177124,0.5542476,4.202617e-06,-2.010294,1.0255946,0.43782532,1.0445027,0
73277722,73276437,0.554391,4.2003676e-06,0.5040032,1.0143161,0.027826002,1.0087924,0
73376946,73375750,0.5543632,4.1973476e-06,0.46648902,1.0013334,0.024146914,1.0,0
73476362,73475116,0.5541808,4.1941653e-06,0.65262955,1.001335,0.047261942,1.0,0
73575573,73574375,0.55419815,4.1910343e-06,0.14549306,1.0013249,0.0023489136,1.0,0
73675393,73673770,0.55442363,4.188509e-06,-1.0837282,1.0012987,0.13032706,1.0,0
73779348,73777968,0.5546043,4.1877397e-06,-0.7936811,1.0012585,0.06990421,1.0,0
73878855,73877278,0.5545823,4.1853555e-06,0.1637444,1.0036694,0.002968245,1.0,0
73982884,73981587,0.55479974,4.183968e-06,-0.8458529,1.0013276,0.07939095,1.0,0
74072236,74070938,0.55459625,4.1788135e-06,0.33124804,1.0202011,0.011950288,1.0113388,0
74171461,74170263,0.5551654,4.1772664e-06,-1.0301199,1.06261,0.11095813,1.0560317,0
74275670,74274529,0.55521464,4.1774024e-06,0.59368485,1.0204936,0.038375948,1.0168573,0
74375220,74373841,0.55502284,4.1757125e-06,-0.028255904,1.0194253,8.7020286e-05,1.0084612,0
74474840,74473234,0.55483127,4.172928e-06,0.023926184,1.0013546,6.352088e-05,1.0,0
74573686,74572467,0.555187,4.170658e-06,-0.27928945,1.0013583,0.0086552,1.0,0
74673153,74671780,0.55519116,4.168337e-06,-0.9491492,1.0013102,0.09996726,1.0,0
74772649,74771258,0.55521214,4.1656435e-06,-1.1078557,1.0013198,0.13619183,1.0,0
74871741,74870410,0.5553582,4.163182e-06,0.13960114,1.0013008,0.0021625734,1.0,0
74971278,74969719,0.55507857,4.161161e-06,0.89862907,1.0119754,0.08866423,1.0108708,0
75070144,75069030,0.55502677,4.1592284e-06,0.44573385,1.0012742,0.022047313,1.0,0
75179505,75178274,0.55512947,4.158985e-06,0.95629,1.0013266,0.10147545,1.0012867,0
75278964,75277593,0.5549507,4.156227e-06,-0.066317745,1.001317,0.00048802872,1.0,0
75373567,75371977,0.5550616,4.152816e-06,-1.0984517,1.0013053,0.13389148,1.0003616,0
75472429,75471246,0.55526835,4.1503777e-06,-2.122805,1.00132,0.5000401,1.0292983,0
75572015,75570721,0.5554718,4.149176e-06,0.5570836,1.038225,0.033212893,1.0318344,0
75671015,75669871,0.55541724,4.147353e-06,0.1425399,1.002414,0.0022520772,1.0,0
75770771,75769186,0.5550646,4.1455937e-06,0.34397754,1.0339733,0.012714764,1.0239166,0
75879831,75878428,0.555236,4.1462135e-06,-0.69802576,1.0013059,0.05406717,1.0,0
75979380,75977786,0.5553541,4.1436683e-06,-0.06467538,1.0013134,0.00046415764,1.0,0
76078065,76077053,0.555594,4.1413373e-06,0.11655238,1.0013034,0.0015074194,1.0,0
76177758,76176366,0.55549896,4.139143e-06,0.7841719,1.0013099,0.06823568,1.0,0
76276817,76275679,0.5552638,4.1368676e-06,-0.1276095,1.0013084,0.0018069897,1.0,0
76376427,76375107,0.55516905,4.1351914e-06,-0.37733653,1.0012759,0.015800158,1.0,0
76470624,76469338,0.55513245,4.1314047e-06,0.5614205,1.0013587,0.03497392,1.0,0
76579948,76578582,0.55509764,4.1315907e-06,0.60880065,1.0040894,0.041014303,1.0,0
76678989,76677895,0.5549366,4.1296407e-06,0.62953603,1.001309,0.0439775,1.0,0
76778511,76777208,0.5550085,4.1274648e-06,1.0023423,1.0025942,0.11134339,1.0007542,0
76877847,76876526,0.55531794,4.125271e-06,-1.125077,1.0418105,0.13499984,1.041452,0
76972205,76970867,0.55514145,4.1225453e-06,0.95285225,1.0135742,0.09952977,1.0114493,0
77071461,77070180,0.55506444,4.1203807e-06,0.6911063,1.0013143,0.053000115,1.0,0
77170625,77169533,0.5553465,4.118115e-06,-0.4914061,1.0037746,0.02673021,1.0,0
77270137,77268805,0.5554576,4.115781e-06,-0.25467655,1.0013198,0.007197184,1.0,0
77379596,77378053,0.55551076,4.1159333e-06,-2.1588335,1.0021697,0.5167191,1.0332106,0
77483721,77482346,0.55564713,4.1163357e-06,0.43294442,1.0274556,0.020270234,1.0172058,0
77573301,77571750,0.55566764,4.112047e-06,-0.6366167,1.0013064,0.04497245,1.0,0
77672437,77671021,0.5557217,4.110144e-06,-0.042248737,1.0012966,0.00019807158,1.0,0
77771545,77770334,0.5555591,4.10834e-06,0.36060894,1.0012985,0.014430016,1.0,0
77870829,77869647,0.5556982,4.106157e-06,-0.038603567,1.0013093,0.00016536519,1.0,0
77970276,77969026,0.5559752,4.104128e-06,0.34788457,1.0024537,0.01341416,1.0,0
78074557,78073262,0.5556961,4.103525e-06,0.9098367,1.0217193,0.09002286,1.019585,0
78174271,78172550,0.5559719,4.10202e-06,-0.42408642,1.0121902,0.01974259,1.0018475,0
78273723,78272080,0.5558138,4.1004923e-06,-0.5395539,1.0012977,0.032304563,1.0,0
78377772,78376143,0.55576223,4.100022e-06,-0.51196164,1.001303,0.029084852,1.0,0
78476867,78475454,0.55535823,4.0981286e-06,1.987175,1.0174928,0.43121952,1.0426304,0
78575966,78574768,0.55540484,4.097462e-06,-2.194975,1.0425192,0.5134906,1.0799546,0
78675477,78674079,0.55540967,4.097871e-06,0.22297984,1.0863214,0.0050854622,1.0746981,0
78774741,78773394,0.5555597,4.0975015e-06,-0.4280031,1.0585518,0.019228226,1.0485802,0
78873913,78872704,0.55590147,4.096678e-06,0.10464883,1.07865,0.0011280951,1.0671672,0
78973345,78972017,0.55552715,4.096286e-06,1.0052376,1.0870258,0.10328924,1.0846913,0
79072766,79071512,0.5556222,4.095827e-06,0.109050065,1.0533351,0.0012544194,1.0418067,0
79177033,79175608,0.55558646,4.0959426e-06,-0.65490526,1.0110118,0.047136594,1.003994,0
79276253,79274923,0.55584264,4.0945843e-06,0.5844488,1.0082,0.03764469,1.0011617,0
79375636,79374234,0.55607677,4.09271e-06,0.008495584,1.0125232,7.920252e-06,1.00146,0
79474866,79473546,0.5559921,4.091326e-06,-0.9532392,1.0041738,0.10054314,1.000383,0
79574181,79572892,0.5559567,4.0897944e-06,1.2966567,1.0012782,0.18657471,1.0084561,0
79673402,79672177,0.55566293,4.089041e-06,0.07398791,1.0317276,0.0005895409,1.0203505,0
79773038,79771488,0.5556415,4.087682e-06,-0.8654501,1.0012925,0.08311523,1.0,0
79872035,79870887,0.55554676,4.0860186e-06,0.09413399,1.0013015,0.0009832988,1.0,0
79971388,79970111,0.5555027,4.084367e-06,-0.117198795,1.0012999,0.0015241918,1.0,0
80070778,80069422,0.5552852,4.0827963e-06,-0.1594958,1.0029417,0.002818255,1.0,0
80175025,80173702,0.55509055,4.0827367e-06,0.07404891,1.0050386,0.00060619455,1.0,0
80274612,80273013,0.55507344,4.0813325e-06,-0.6178064,1.0012819,0.04235512,1.0,0
80373743,80372369,0.5550634,4.079838e-06,-0.8372627,1.0012852,0.07778989,1.0,0
80473250,80471677,0.55535245,4.078405e-06,-1.5262953,1.0012937,0.25850752,1.0140792,0
80572229,80570954,0.5554725,4.077218e-06,-0.37737328,1.0012935,0.015802957,1.0,0
80671678,80670333,0.55517286,4.075755e-06,1.9308808,1.014116,0.40848935,1.0365319,0
80770800,80769624,0.5549686,4.076333e-06,-1.0007377,1.0670391,0.10428399,1.0677327,0
80870460,80868890,0.5552829,4.076449e-06,-1.538107,1.056787,0.24873856,1.0691489,0
80984435,80983100,0.5552953,4.0797695e-06,0.7070251,1.032061,0.05381729,1.0238864,0
81073856,81072486,0.5555054,4.0761956e-06,-0.86632514,1.0190004,0.08183611,1.0143976,0
81173112,81171793,0.5554664,4.0749574e-06,0.2790865,1.0012963,0.00864316,1.0,0
81272463,81271106,0.55532897,4.0733225e-06,-0.13384518,1.0036231,0.0019833178,1.0,0
81371750,81370419,0.5554663,4.0715927e-06,-0.42654863,1.0013047,0.020189628,1.0,0
81471214,81469752,0.555777,4.069857e-06,-0.8173886,1.0013062,0.07413917,1.0,0
81575125,81574010,0.5558363,4.0692753e-06,-1.3334618,1.0013145,0.19730955,1.0049886,0
81674613,81673326,0.5561665,4.0680875e-06,-0.6320739,1.0179819,0.04360669,1.0087029,0
81773981,81772812,0.55639136,4.0667187e-06,0.48902494,1.0012854,0.026537597,1.0,0
81873686,81871948,0.5562611,4.065741e-06,-0.6194078,1.005441,0.042398863,1.0,0
81972450,81971260,0.5560187,4.064588e-06,-0.019401442,1.0218608,4.0929248e-05,1.0105988,0
82076680,82075539,0.55607325,4.0643563e-06,-0.12032197,1.0012956,0.0016065161,1.0,0
82176258,82174851,0.55627525,4.0627847e-06,-1.1307082,1.0012953,0.1418719,1.0,0
82275622,82274178,0.55638427,4.061396e-06,-0.15567276,1.0012923,0.0026891923,1.0,0
82374841,82373535,0.55659014,4.060048e-06,0.18711275,1.0012944,0.0038851025,1.0,0
82473999,82472790,0.55678165,4.058476e-06,-0.19271609,1.0013025,0.004121242,1.0,0
82573666,82572234,0.5566881,4.057e-06,-0.28865165,1.0013015,0.009245719,1.0,0
82672596,82671415,0.55654216,4.055667e-06,0.985746,1.001279,0.10782823,1.0023011,0
82772030,82770728,0.55624986,4.0549317e-06,0.4719689,1.0034239,0.02466606,1.0,0
82876355,82875008,0.5563221,4.054857e-06,-1.2873979,1.0012876,0.183918,1.0061473,0
82975663,82974319,0.5566732,4.0543287e-06,0.07130538,1.0250056,0.0005511577,1.0141373,0
83074981,83073707,0.556842,4.053497e-06,-1.3474767,1.0076663,0.20020884,1.0099411,0
83174277,83172949,0.557116,4.052577e-06,-1.3282862,1.0012783,0.19578797,1.0019481,0
83273407,83272257,0.55712014,4.0514556e-06,-0.6475936,1.0012861,0.046537645,1.0,0
83373061,83371685,0.55715805,4.050187e-06,0.5939733,1.0012761,0.03915051,1.0,0
83472204,83470883,0.5570477,4.049386e-06,-0.10928106,1.0012609,0.0013252569,1.0,0
83571534,83570206,0.5569116,4.0486684e-06,0.3414938,1.0012654,0.012941181,1.0,0
83670911,83669530,0.5570376,4.0477103e-06,0.042171657,1.0012763,0.00019735354,1.0,0
83770136,83768825,0.55717444,4.0467476e-06,-1.3097113,1.0012859,0.190349,1.0033705,0
83879219,83878072,0.55735576,4.047841e-06,-0.32427967,1.0013275,0.011668654,1.0,0
83973700,83972413,0.55746645,4.045279e-06,0.0023233742,1.0012892,5.99013e-07,1.0,0
84073453,84071724,0.5571535,4.044357e-06,1.8045669,1.0195296,0.35489807,1.0438551,0
84172323,84171101,0.5570416,4.0450036e-06,-0.9118378,1.0447844,0.088423155,1.0403434,0
84271979,84270350,0.5568836,4.045157e-06,1.9551691,1.0362587,0.40988114,1.0627651,0
84370809,84369663,0.5569252,4.045547e-06,-0.23837905,1.0297483,0.0061314413,1.0188287,0
84475513,84473961,0.557173,4.0459586e-06,-1.1568745,1.0012827,0.14851601,1.0016769,0
84574637,84573254,0.5575013,4.045301e-06,0.24174416,1.0149071,0.0063979845,1.0053116,0
84674143,84672571,0.5575682,4.044327e-06,-0.11713393,1.0012772,0.0015225396,1.0,0
84772967,84771879,0.55733156,4.043235e-06,0.43201792,1.0051382,0.020631712,1.0,0
84872487,84871197,0.55738384,4.0422983e-06,-0.7642729,1.001289,0.064817905,1.0,0
84971568,84970535,0.55758387,4.041314e-06,-0.05173342,1.0012853,0.0002969901,1.0,0
85071209,85069834,0.55732495,4.0403465e-06,1.0089973,1.006406,0.11239949,1.0064329,0
85170492,85169134,0.5571989,4.0401537e-06,-0.05107084,1.001218,0.00028945087,1.0,0
85269999,85268605,0.5570991,4.0395157e-06,-0.1251384,1.0012722,0.0017377469,1.0,0
85378875,85377687,0.5572724,4.0409577e-06,-0.6742305,1.0012786,0.05044514,1.0,0
85478393,85477000,0.5573446,4.0399914e-06,1.0282787,1.0012693,0.11733518,1.0017428,0
85572763,85571348,0.55716044,4.0381287e-06,0.545329,1.0012658,0.033000864,1.0,0
85672059,85670659,0.5574904,4.037596e-06,-1.5665256,1.0301363,0.26469013,1.0400217,0
85771413,85769977,0.5575515,4.0375285e-06,-0.3600567,1.0051227,0.014331123,1.0,0
85870422,85869297,0.5577329,4.03669e-06,-0.5419693,1.0012673,0.03259544,1.0,0
85970006,85968598,0.5579255,4.0360405e-06,-0.035253644,1.001219,0.0001379229,1.0,0
86079360,86078017,0.5580713,4.038218e-06,-1.4385439,1.0012487,0.22964753,1.0053532,0
86173547,86172193,0.5583138,4.036634e-06,-0.71787184,1.0057591,0.056932118,1.0,0
86272672,86271503,0.5585317,4.036133e-06,-0.89921236,1.0012568,0.08972976,1.0,0
86377381,86375781,0.5586626,4.0365803e-06,-0.58729494,1.0012975,0.03827427,1.0,0
86476396,86475094,0.5585419,4.035721e-06,0.36664617,1.0037341,0.0148810325,1.0,0
86576030,86574444,0.55827326,4.034916e-06,0.38595802,1.0131676,0.016336398,1.0046426,0
86674991,86673718,0.55784386,4.0343066e-06,2.1164067,1.0238343,0.48610047,1.0569016,0
86774582,86773075,0.55784893,4.035223e-06,-1.076974,1.0548714,0.12217109,1.0543653,0
86873494,86872462,0.55777764,4.035823e-06,-0.4068531,1.028653,0.01787985,1.0189506,0
86972998,86971657,0.5578385,4.03557e-06,0.6987152,1.0049528,0.053977437,1.0,0
87072132,87070969,0.558098,4.035046e-06,-0.22401163,1.0057582,0.005543768,1.0,0
87171862,87170323,0.5581741,4.034728e-06,-0.34536567,1.0012118,0.013237009,1.0,0
87270821,87269599,0.5580184,4.034587e-06,0.91978025,1.0041466,0.09361136,1.0020972,0
87370273,87368909,0.5579613,4.0346144e-06,0.53346133,1.0012268,0.03158137,1.0,0
87479415,87478152,0.55788225,4.037041e-06,0.50646144,1.0012573,0.028464567,1.0,0
87578827,87577464,0.557719,4.0367177e-06,0.0016565509,1.001256,3.045243e-07,1.0,0
87678070,87676878,0.5577511,4.036022e-06,-0.55072904,1.0021827,0.033626877,1.0,0
87777537,87776089,0.5578967,4.035238e-06,-0.91793716,1.0012755,0.09350391,1.0,0
87876763,87875412,0.5581088,4.033972e-06,-1.1534215,1.0013478,0.14762117,1.0018132,0
87981040,87979681,0.55818975,4.0317223e-06,0.089280695,1.0013506,0.0008844768,1.0,0
88070475,88069063,0.5578611,4.028955e-06,1.5600005,1.016778,0.26593828,1.0288728,0
88179664,88178342,0.5576777,4.0317277e-06,0.29080698,1.0069296,0.009331856,1.0,0
88278977,88277621,0.55747765,4.0315954e-06,-0.39405096,1.0012348,0.017231628,1.0,0
88378266,88376932,0.5573032,4.0322775e-06,0.6152015,1.0011892,0.04200259,1.0,0
88477766,88476310,0.55721176,4.0328123e-06,-1.0974673,1.0012301,0.13366164,1.0057727,0
88571906,88570592,0.5571116,4.033301e-06,0.013768613,1.0017588,2.1026875e-05,1.0,0
88671086,88669907,0.5569946,4.0333625e-06,-0.5261375,1.0012168,0.030720467,1.0,0
88770726,88769409,0.55715686,4.0331533e-06,-0.0023287497,1.0091376,5.9710777e-07,1.0,0
88874839,88873496,0.55719376,4.0335826e-06,-0.89800656,1.0013137,0.0894842,1.0000662,0
88974164,88972809,0.55709887,4.032818e-06,-1.1761245,1.0012648,0.15350237,1.0066481,0
89073440,89072124,0.55742097,4.0330137e-06,0.09715535,1.032342,0.0010159384,1.0210242,0
89172739,89171434,0.5572682,4.0331365e-06,0.58127224,1.0012397,0.037495453,1.0,0
89271910,89270761,0.5571744,4.0327545e-06,-0.96644104,1.001258,0.10364831,1.0009044,0
89371240,89370060,0.5573518,4.032101e-06,-1.0426074,1.0012705,0.12062789,1.001352,0
89470578,89469373,0.5573305,4.0313284e-06,-1.0552375,1.0012727,0.12356788,1.0016654,0
89570209,89568822,0.5576033,4.030678e-06,-1.148643,1.0012655,0.14641257,1.0020841,0
89679554,89677930,0.557764,4.0327322e-06,0.6286939,1.0012437,0.04386278,1.0,0
89778468,89777243,0.5576317,4.0325344e-06,-1.010543,1.0012525,0.113324404,1.0,0
89872954,89871589,0.5577368,4.0309496e-06,-0.22980917,1.001239,0.005860767,1.0,0
89972509,89970904,0.557636,4.03022e-06,-0.37302148,1.0013102,0.015440328,1.0,0
90071559,90070237,0.5576349,4.0293544e-06,-0.49203798,1.0012845,0.026865644,1.0,0
90170811,90169528,0.5573622,4.0282753e-06,1.3332874,1.0148908,0.19461921,1.0200607,0
90269986,90268840,0.5578058,4.028143e-06,-1.3276865,1.0715811,0.18277785,1.074957,0
90379565,90378285,0.55773675,4.031479e-06,-0.16430737,1.0431069,0.0028756945,1.0316616,0
90473595,90472432,0.5577023,4.0299046e-06,1.9021035,1.0116158,0.39738384,1.0377532,0
90573099,90571748,0.5576545,4.030368e-06,-0.85714704,1.0437434,0.07821219,1.038891,0
90672202,90671057,0.55766076,4.030195e-06,-0.012560651,1.0012703,1.7507753e-05,1.0,0
90771721,90770370,0.55759954,4.0290997e-06,-0.12226351,1.0012909,0.0016587883,1.0,0
90870821,90869678,0.55739564,4.0281443e-06,0.8616293,1.0049719,0.082081355,1.0004205,0
90970304,90968996,0.5574131,4.027271e-06,-0.0077524334,1.0012715,6.669323e-06,1.0,0
91079407,91078240,0.557597,4.0292402e-06,-0.86171186,1.0064106,0.08197972,1.0022038,0
91179343,91177665,0.55776954,4.0285213e-06,-0.29893482,1.0012702,0.009916518,1.0,0
91278202,91276867,0.5580947,4.0277255e-06,-1.2826289,1.0012773,0.1825598,1.0028694,0
91377577,91376228,0.55788255,4.027279e-06,1.8879066,1.0473297,0.3781247,1.073498,0
91471853,91470526,0.5578894,4.027019e-06,-0.81815624,1.053097,0.070625514,1.0483016,0
91570965,91569838,0.55799866,4.0273694e-06,0.488855,1.024214,0.025925487,1.0161576,0
91670577,91669153,0.55814904,4.027056e-06,0.104866385,1.0012649,0.0012203407,1.0,0
91774804,91773482,0.5584238,4.027388e-06,-0.67855424,1.0021808,0.051048208,1.0,0
91874294,91872743,0.5583269,4.0266955e-06,-0.85586107,1.001274,0.08128513,1.0,0
91973145,91972108,0.5582272,4.0258965e-06,-0.061791286,1.0012786,0.00042369857,1.0,0
92072985,92071368,0.55787426,4.025257e-06,1.7728564,1.0157782,0.34379986,1.0353186,0
92171845,92170681,0.5575991,4.026167e-06,-0.29309702,1.0522857,0.009070822,1.0420488,0
92271599,92270200,0.5578932,4.027025e-06,0.24413699,1.0568705,0.0062661804,1.0458405,0
92375377,92374272,0.55809474,4.0282644e-06,-1.4213433,1.0132614,0.22153072,1.0200267,0
92475162,92473585,0.55833703,4.0280115e-06,-0.49473348,1.010322,0.026917847,1.0004842,0
92574079,92572904,0.55865926,4.027474e-06,0.02712071,1.0053269,8.129284e-05,1.0,0
92673800,92672250,0.55872416,4.026877e-06,-0.90612376,1.001263,0.09111384,1.0,0
92772734,92771542,0.5588256,4.026329e-06,-0.8969545,1.0012629,0.089279175,1.0,0
92872523,92870836,0.5588939,4.0257414e-06,-0.3261472,1.003475,0.011778182,1.0,0
92971339,92970149,0.55871195,4.025378e-06,2.0636582,1.0131928,0.46702585,1.0493965,0
93070798,93069613,0.55871207,4.025932e-06,0.88426644,1.0312662,0.08424672,1.029821,0
93170408,93168774,0.5587113,4.0258133e-06,0.10577959,1.012399,0.0012280316,1.001667,0
93279365,93278019,0.55866,4.027674e-06,0.51125157,1.001319,0.029003762,1.0,0
93378527,93377371,0.5586413,4.026826e-06,0.5718976,1.0012726,0.03629458,1.0,0
93477959,93476645,0.5588523,4.026023e-06,-0.6012597,1.0012697,0.0401172,1.0,0
93577277,93576025,0.55892056,4.0254035e-06,-0.14875266,1.0012655,0.0024554874,1.0,0
93671483,93670305,0.55911,4.023436e-06,-0.62372434,1.0012723,0.04317086,1.0,0
93770946,93769617,0.55942357,4.0226587e-06,-0.65699023,1.0050404,0.04771905,1.0,0
93870165,93869042,0.5592253,4.0220766e-06,0.65859497,1.0049756,0.047955543,1.0004288,0
93979399,93978174,0.5589896,4.0238547e-06,0.15131032,1.009601,0.002519677,1.0,0
94078756,94077517,0.55872416,4.0229643e-06,1.1620109,1.0012765,0.14983867,1.0034301,0
94173255,94171834,0.55868524,4.020802e-06,1.0166901,1.0275152,0.11177546,1.0261661,0
94272540,94271150,0.55883735,4.0196005e-06,0.11127299,1.0013219,0.0013739258,1.0,0
94371893,94370461,0.5592687,4.017998e-06,-1.499157,1.0151451,0.24599347,1.0219617,0
94470958,94469773,0.55968624,4.0171644e-06,-0.4467146,1.0425811,0.021267083,1.0314717,0
94570637,94569089,0.55935067,4.016748e-06,1.3941754,1.0417845,0.20730723,1.0528505,0
94669891,94668480,0.55926347,4.0168243e-06,-0.6496756,1.0279245,0.04562358,1.0231605,0
94773950,94772686,0.55945075,4.0171244e-06,-0.70535964,1.001292,0.055210024,1.0,0
94873731,94871990,0.55974317,4.015961e-06,-1.056409,1.0012926,0.12383992,1.0,0
94972601,94971302,0.5602855,4.0156783e-06,-0.85570604,1.0482528,0.0776141,1.0397012,0
95072217,95070616,0.5602356,4.0159225e-06,-0.094772615,1.0274901,0.00097128237,1.0164306,0
95171152,95169930,0.5602276,4.0157315e-06,1.3975244,1.0057151,0.21577507,1.0207467,0
95275786,95274207,0.5600343,4.0170567e-06,0.85521907,1.0161293,0.07997666,1.0150142,0
95374835,95373520,0.55997866,4.0169903e-06,-0.6831959,1.0012509,0.05179705,1.0,0
95474214,95472944,0.5603486,4.0166797e-06,-1.2234656,1.0103028,0.1646226,1.0090568,0
95573476,95572145,0.56049013,4.016146e-06,-0.65559036,1.0012673,0.04769497,1.0,0
95672755,95671458,0.5602924,4.0156065e-06,1.2951945,1.022013,0.18237743,1.031442,0
95771972,95770784,0.5602857,4.0158593e-06,-1.7716231,1.0188444,0.3422885,1.033521,0
95871422,95870085,0.560288,4.016027e-06,1.2597721,1.0069928,0.17511167,1.0147951,0
95970611,95969397,0.56024235,4.016097e-06,-0.058935713,1.0058846,0.00038367757,1.0,0
96070120,96068709,0.5600938,4.0157497e-06,-0.29983693,1.0012578,0.0099765835,1.0,0
96179380,96177959,0.56001395,4.0178265e-06,1.0363308,1.0012535,0.119181894,1.0011662,0
96278960,96277326,0.5602613,4.0176888e-06,-1.2339842,1.0353193,0.16341895,1.0367842,0
96372977,96371613,0.5605737,4.0169293e-06,-1.0353506,1.0217317,0.11657233,1.0179327,0
96472244,96470929,0.5607576,4.017189e-06,-0.33811286,1.0012283,0.012686673,1.0,0
96571593,96570398,0.5605052,4.01729e-06,1.3980122,1.0019599,0.21673499,1.0132587,0
96670913,96669552,0.5599108,4.0185837e-06,1.4431049,1.1147349,0.20757818,1.1211227,0
96770274,96768866,0.5600096,4.020603e-06,1.0955484,1.118063,0.11927636,1.1169151,0
96879402,96878113,0.56006634,4.024577e-06,0.8101889,1.0972241,0.06647138,1.0915713,0
96978785,96977425,0.5595051,4.0264276e-06,2.3621502,1.1543725,0.5370646,1.1889762,0
97078123,97076778,0.5595555,4.029533e-06,-1.4436749,1.1623164,0.1992379,1.1741475,0
97172489,97171084,0.55970556,4.031177e-06,-0.68518114,1.158741,0.045017555,1.1517549,0
97271548,97270396,0.55991435,4.0337814e-06,-0.7170287,1.1739321,0.04866173,1.1662506,0
97371433,97369835,0.56000066,4.0375635e-06,0.20121194,1.2048397,0.0037336682,1.1922671,0
97470286,97469069,0.5599073,4.041105e-06,0.5916302,1.1573753,0.033603456,1.1480733,0
97579297,97578265,0.5597232,4.0469795e-06,-1.3595037,1.1532915,0.17806527,1.1606503,0
97679137,97677577,0.55989647,4.0500354e-06,-0.801068,1.1310291,0.063040905,1.1250886,0
97778177,97776890,0.5596923,4.0524496e-06,-0.25319254,1.1224477,0.0063458993,1.1111865,0
97877359,97876204,0.5599221,4.0549885e-06,0.8019424,1.1370842,0.062842175,1.1310976,0
97971697,97970551,0.5597739,4.056e-06,0.40844876,1.1004257,0.016845034,1.0897647,0
98071254,98069864,0.55998755,4.0578398e-06,0.47111967,1.0889995,0.02264604,1.079536,0
98170662,98169276,0.55981934,4.0592045e-06,-0.09448527,1.066872,0.00092976535,1.0552583,0
98274730,98273457,0.5596564,4.0605782e-06,-0.42012495,1.0465381,0.018739559,1.0373019,0
98374423,98372768,0.5597285,4.0605873e-06,1.1036366,1.0344628,0.13082622,1.0341276,0
98473354,98472081,0.5597424,4.060527e-06,-1.5419824,1.0137241,0.2606133,1.0267096,0
98573122,98571394,0.56001955,4.060747e-06,-0.4137569,1.0324157,0.018424401,1.0223606,0
98671898,98670707,0.5602601,4.06015e-06,-0.79996455,1.0048366,0.07076256,1.0,0
98771310,98770019,0.56024796,4.058941e-06,0.48726308,1.0012859,0.026346711,1.0,0
98870739,98869332,0.56002295,4.057717e-06,1.3123217,1.0012795,0.1911097,1.0076597,0
98970032,98968756,0.5600473,4.0571913e-06,-1.6887357,1.0321299,0.30700573,1.047765,0
99074556,99072923,0.56017953,4.0585396e-06,-0.82011896,1.016988,0.073484436,1.0112581,0
99173505,99172237,0.56084925,4.0594946e-06,-1.0081058,1.145534,0.09857383,1.1386652,0
99273129,99271550,0.56060964,4.0619652e-06,0.0002539605,1.148049,6.24208e-09,1.1358162,0
99372044,99370862,0.56058705,4.063596e-06,0.12896425,1.1045898,0.0016729968,1.0931857,0
99471553,99470175,0.56074506,4.064246e-06,-0.29256743,1.0613228,0.008961113,1.0497888,0
99570695,99569515,0.56104225,4.063999e-06,-0.7350399,1.034712,0.058017608,1.0257667,0
99670413,99668801,0.56063634,4.0639848e-06,1.7300993,1.0852968,0.30644396,1.1061368,0
99779771,99778113,0.56081766,4.067912e-06,-0.7137919,1.1157978,0.050735883,1.106584,0
99878997,99877358,0.5605635,4.069531e-06,-0.38573378,1.1232839,0.014717815,1.1119533,0
99977969,99976671,0.5607265,4.0706013e-06,-0.32453978,1.0783225,0.010852872,1.0669192,0
100077326,100075987,0.56045216,4.0710706e-06,0.41019565,1.0676475,0.01751103,1.0577959,0
100176441,100175297,0.56032735,4.0710083e-06,1.589475,1.0276774,0.27315432,1.0407015,0
100276024,100274646,0.5602851,4.0709756e-06,-0.9847845,1.0393225,0.103678696,1.0377766,0
100370336,100368957,0.56031954,4.069232e-06,-0.08234634,1.0045168,0.00075004774,1.0,0
100479564,100478202,0.5598312,4.071125e-06,0.9569744,1.0433767,0.09752523,1.0383087,0
100578673,100577595,0.5595035,4.0712666e-06,0.37764013,1.0294528,0.015392435,1.0183054,0
100673183,100671861,0.5594224,4.0693667e-06,0.39312875,1.0012654,0.017150544,1.0,0
100772871,100771174,0.55945224,4.068295e-06,-2.3785357,1.0012822,0.6277986,1.0550158,0
100871808,100870622,0.55986947,4.0691143e-06,-1.4175185,1.1219226,0.19899952,1.1310018,0
100971198,100969804,0.5598684,4.0709433e-06,0.884144,1.1226851,0.07736518,1.1171882,0
101070415,101069112,0.55976796,4.0722653e-06,1.6633606,1.0845445,0.2834542,1.0973018,0
101174788,101173422,0.5596775,4.074409e-06,0.8468155,1.0710227,0.07439374,1.063513,0
101273996,101272704,0.55981225,4.0745103e-06,-0.17111032,1.0617948,0.003063863,1.0505832,0
101373347,101372017,0.5597767,4.074806e-06,2.2833326,1.0675434,0.5426382,1.1041422,0
101472594,101471330,0.55999804,4.0756613e-06,-2.0773864,1.1029356,0.43475232,1.1328264,0
101571998,101570646,0.5603698,4.077658e-06,-1.965498,1.1283275,0.38042367,1.1495488,0
101671182,101670097,0.5608362,4.0813406e-06,-1.0566676,1.207536,0.10273873,1.2008287,0
101770630,101769269,0.5612907,4.0858795e-06,-0.9268074,1.244031,0.07671942,1.233609,0
101879660,101878509,0.5610382,4.093188e-06,0.5062026,1.2814348,0.022218242,1.2731879,0
101974415,101972860,0.56122863,4.096683e-06,0.34098935,1.2641459,0.010219789,1.2542038,0
102073766,102072173,0.5612344,4.1005405e-06,0.6607847,1.2074796,0.040178865,1.2025152,0
102172882,102171538,0.5614087,4.1034573e-06,-1.1643778,1.1680287,0.12897092,1.1629446,0
102272010,102270818,0.5612899,4.105704e-06,0.11319928,1.1526486,0.0012352301,1.1411426,0
102371437,102370112,0.5614074,4.107141e-06,-0.016457334,1.102655,2.729209e-05,1.0910211,0
102471019,102469612,0.5612643,4.1080034e-06,0.39380243,1.0672346,0.016145607,1.0586185,0
102574933,102573708,0.56101376,4.1098037e-06,1.2669269,1.0446334,0.17072482,1.0510354,0
102674307,102673016,0.56068724,4.1109997e-06,1.2044386,1.050478,0.15344045,1.052813,0
102773604,102772330,0.5608247,4.112063e-06,-1.2545327,1.0495893,0.16661039,1.0529068,0
102873243,102871656,0.5606808,4.1128833e-06,-0.5359218,1.0362111,0.030797262,1.0278163,0
102972078,102970977,0.56082547,4.1132425e-06,0.95116246,1.0279334,0.09779169,1.0259149,0
103071672,103070269,0.56100667,4.113005e-06,-1.0069022,1.0158895,0.11088828,1.0133064,0
103170910,103169581,0.5610502,4.112317e-06,0.6598085,1.0012448,0.048311785,1.0,0
103270402,103269048,0.56088996,4.111629e-06,0.42312253,1.0012512,0.01986766,1.0,0
103379692,103378138,0.5607218,4.113312e-06,-0.80887395,1.0012474,0.072606884,1.0,0
103478476,103477447,0.56055886,4.1127596e-06,1.9767988,1.0104682,0.42969444,1.0351458,0
103578031,103576764,0.56045747,4.1133344e-06,-0.040324688,1.0369098,0.00017424428,1.0256653,0
103677469,103676081,0.56059396,4.1131e-06,-0.73796517,1.0012298,0.06043596,1.0,0
103776571,103775401,0.56040955,4.113351e-06,2.5688016,1.0435545,0.7025925,1.092284,0
103871079,103869738,0.56026626,4.1137273e-06,0.28847095,1.0943775,0.00844879,1.0826764,0
103970458,103969049,0.56017005,4.114472e-06,0.40877634,1.0468924,0.017734827,1.036091,0
104079844,104078452,0.5601732,4.1167873e-06,1.4865732,1.0156863,0.24175225,1.0262,0
104178795,104177607,0.5599658,4.116249e-06,-0.078890584,1.007318,0.00068650104,1.0,0
104278283,104276922,0.5596989,4.1151025e-06,0.69475096,1.0012691,0.05356301,1.0,0
104377406,104376250,0.55961573,4.1137455e-06,-0.6633768,1.0012794,0.048834052,1.0,0
104477155,104475546,0.55938554,4.112342e-06,0.74080926,1.001275,0.060899954,1.0,0
104576236,104574891,0.5592213,4.110937e-06,-0.2855949,1.0012747,0.0090511795,1.0,0
104670446,104669206,0.5593166,4.10839e-06,0.44892988,1.009307,0.022186622,1.0,0
104779555,104778450,0.55926293,4.109654e-06,0.44244418,1.0012666,0.021723246,1.0,0
104879211,104877890,0.5589403,4.1084027e-06,0.69238454,1.0019708,0.053161494,1.0,0
104973506,104972110,0.5590798,4.1055164e-06,-0.59388506,1.004394,0.039017383,1.0,0
105072790,105071423,0.5592397,4.103512e-06,-0.90824294,1.0013134,0.09153591,1.0014187,0
105172326,105170736,0.5592423,4.1014655e-06,0.17283791,1.0013169,0.0033148506,1.0,0
105271163,105270058,0.55911094,4.099649e-06,-0.8534706,1.001303,0.08082936,1.0003334,0
105370724,105369385,0.5593276,4.0981336e-06,-0.09585882,1.001278,0.0010196873,1.0,0
105474870,105473649,0.5590791,4.0979457e-06,1.0673758,1.0012848,0.12642546,1.0,0
105574361,105572953,0.5590233,4.0964546e-06,-0.5233978,1.0012808,0.030399429,1.0,0
105673489,105672388,0.55929375,4.0955706e-06,0.88581514,1.0292096,0.08471101,1.0244561,0
105773006,105771579,0.55886644,4.094853e-06,1.7449538,1.030816,0.32820424,1.0437008,0
105872219,105870893,0.55878216,4.0947175e-06,-0.5770226,1.0253296,0.03608109,1.0195844,0
105976382,105975171,0.5589933,4.0947216e-06,-2.2048578,1.0012922,0.5394583,1.0521724,0
106076037,106074486,0.5588494,4.0942114e-06,0.8927368,1.0349824,0.08556012,1.0293312,0
106175208,106173797,0.5589703,4.0929567e-06,-0.4701652,1.0167159,0.024157882,1.0084215,0
106274300,106273110,0.5588236,4.0912837e-06,0.12584737,1.0013027,0.0017574393,1.0,0
106373633,106372446,0.55898947,4.0898617e-06,1.0645641,1.0301172,0.12224033,1.0285852,0
106473421,106471763,0.55849975,4.089566e-06,1.1076984,1.0779622,0.12647279,1.0744017,0
106572227,106571049,0.55832875,4.089586e-06,0.36790663,1.0542494,0.014265577,1.0428426,0
106671686,106670362,0.5584842,4.088694e-06,-0.7664292,1.0302554,0.06335146,1.0271642,0
106770971,106769843,0.55857205,4.087198e-06,-0.3550368,1.0013044,0.013987435,1.0,0
106870384,106868987,0.5585992,4.0854434e-06,0.5153313,1.0012928,0.029469276,1.0,0
106979895,106978234,0.5587435,4.086487e-06,0.9483111,1.0012778,0.09979402,1.0,0
107078924,107077585,0.558967,4.0852033e-06,-1.2237272,1.00412,0.1657071,1.007364,0
107178227,107176858,0.55929,4.084335e-06,-1.197114,1.0022646,0.15887153,1.0030326,0
107277898,107276245,0.5593304,4.0835857e-06,-0.34742782,1.0012516,0.0133950235,1.0,0
107371853,107370518,0.5590995,4.0818422e-06,0.985076,1.0036248,0.10743,1.0029145,0
107471139,107469834,0.5590549,4.081723e-06,-1.453702,1.0012301,0.23451702,1.010078,0
107570506,107569273,0.55926573,4.0819777e-06,0.09350851,1.0123813,0.0009596562,1.0015117,0
107679746,107678388,0.55925953,4.084415e-06,-0.26894632,1.0012227,0.008027088,1.0,0
107778965,107777701,0.55925965,4.0845134e-06,-0.33097163,1.0012193,0.012156537,1.0,0
107873369,107872048,0.5589332,4.0843047e-06,-0.17804271,1.0678252,0.0032984181,1.0615474,0
107972681,107971362,0.5590016,4.085212e-06,-0.4809903,1.027714,0.025012543,1.0186937,0
108071986,108070675,0.55924004,4.0849486e-06,-0.91056275,1.0012515,0.092009805,1.0,0
108171603,108169987,0.5592609,4.084123e-06,-0.50260955,1.0012597,0.028033169,1.0,0
108270638,108269300,0.55929303,4.0832324e-06,-0.017219376,1.0012512,3.290404e-05,1.0,0
108370006,108368701,0.5592173,4.0824834e-06,-0.12762512,1.0012531,0.0018075319,1.0,0
108474114,108472897,0.5590198,4.0833365e-06,0.31676653,1.0012261,0.011135351,1.0,0
108573554,108572205,0.5588633,4.0832056e-06,1.406232,1.0012178,0.21945368,1.0079596,0
108672801,108671518,0.55881935,4.0830328e-06,0.51816875,1.001226,0.029796673,1.0,0
108772127,108770830,0.55902696,4.082781e-06,-0.5586893,1.008375,0.03439348,1.0003617,0
108871235,108870143,0.5591147,4.082337e-06,-0.008531522,1.0012456,8.077369e-06,1.0,0
108970770,108969457,0.5591418,4.081554e-06,0.18846492,1.0012703,0.0039415513,1.0,0
109070084,109068809,0.55911636,4.0804875e-06,0.08173542,1.0012714,0.0007413551,1.0,0
109179296,109178170,0.559298,4.0818804e-06,0.07644042,1.0012684,0.00064841507,1.0,0
109278662,109277328,0.5589954,4.081388e-06,0.30202886,1.0188526,0.009948167,1.0083843,0
109378297,109376640,0.55935717,4.0806053e-06,-1.205173,1.0125449,0.15938301,1.0137895,0
109482284,109480918,0.5593789,4.0810637e-06,-1.8639699,1.0170308,0.3795781,1.0418141,0
109571588,109570300,0.5597662,4.0787677e-06,-0.7125065,1.0480471,0.053821318,1.0394047,0
109670783,109669615,0.559698,4.078269e-06,2.1715074,1.0251513,0.51108384,1.0658259,0
109770140,109768956,0.55932194,4.0790983e-06,0.73255664,1.0909114,0.05465758,1.0843908,0
109879292,109878170,0.559387,4.0819846e-06,0.9157893,1.0516828,0.08860615,1.0489988,0
109978945,109977658,0.55960965,4.0817536e-06,-0.95413077,1.032181,0.09799805,1.0280175,0
110078014,110076797,0.5596576,4.0812643e-06,-0.17276776,1.0072178,0.003292756,1.0,0
110177504,110176111,0.55962324,4.0801006e-06,0.9065787,1.001278,0.091203995,1.0,0
110281716,110280388,0.5595465,4.0801697e-06,1.5540242,1.0012645,0.2679935,1.0188689,0
110370930,110369771,0.5593006,4.077175e-06,-0.1685012,1.0171978,0.003101402,1.0062797,0
110470630,110469099,0.5594237,4.076032e-06,0.12870216,1.0012723,0.0018381331,1.0,0
110579680,110578326,0.55959344,4.0773e-06,0.18600038,1.0012761,0.0038391165,1.0,0
110679009,110677642,0.55947834,4.076135e-06,-0.048475113,1.0012776,0.00026075979,1.0,0
110778317,110776981,0.5595369,4.075012e-06,-1.1067249,1.0012753,0.13591999,1.001249,0
110872704,110871339,0.55954283,4.0727555e-06,-0.47617096,1.0012606,0.025161479,1.0,0
110971997,110970613,0.5592454,4.0722966e-06,1.1190466,1.0186925,0.13658743,1.0188367,0
