timestamp,x,y,z,r,flaps,aux1,aux2,aux3,aux4,aux5,aux6,mode_switch,return_switch,rattitude_switch,posctl_switch,loiter_switch,acro_switch,offboard_switch,kill_switch,arm_switch,transition_switch,gear_switch,mode_slot,data_source,stab_switch,man_switch
26352790,-0.0,-0.056872036,-0.0,0.97820824,0.0,0.0,0.0,0.0,0.0,0.0,0.0,0,0,0,0,3,0,0,3,0,0,0,4,1,0,0
26374260,-0.0,-0.056872036,-0.0,0.97820824,0.0,0.0,0.0,0.0,0.0,0.0,0.0,0,0,0,0,3,0,0,3,0,0,0,4,1,0,0
26754323,-0.0,-0.056872036,-0.0,0.8692494,0.0,0.0,0.0,0.0,0.0,0.0,0.0,0,0,0,0,3,0,0,3,0,0,0,4,1,0,0
26952846,-0.0,-0.056872036,-0.0,0.0,0.0,0.0,0.0,0.0,0.0,0.0,0.0,0,0,0,0,3,0,0,3,0,0,0,4,1,0,0
27151533,-0.0,-0.056872036,-0.0,0.0,0.0,0.0,0.0,0.0,0.0,0.0,0.0,0,0,0,0,3,0,0,3,0,0,0,4,1,0,0
27352349,-0.0,-0.056872036,-0.0,0.0,0.0,0.0,0.0,0.0,0.0,0.0,0.0,0,0,0,0,3,0,0,3,0,0,0,4,1,0,0
27551009,-0.0,-0.056872036,0.021301774,0.0,0.0,0.0,0.0,0.0,0.0,0.0,0.0,0,0,0,0,3,0,0,3,0,0,0,4,1,0,0
27753056,-0.0,-0.056872036,0.082840234,0.0,0.0,0.0,0.0,0.0,0.0,0.0,0.0,0,0,0,0,3,0,0,3,0,0,0,4,1,0,0
27951670,-0.0,-0.056872036,0.09467456,0.0,0.0,0.0,0.0,0.0,0.0,0.0,0.0,0,0,0,0,3,0,0,3,0,0,0,4,1,0,0
28151872,-0.0,-0.056872036,0.08994083,0.0,0.0,0.0,0.0,0.0,0.0,0.0,0.0,0,0,0,0,3,0,0,3,0,0,0,4,1,0,0
28330777,-0.0,-0.056872036,0.08994083,0.0,0.0,0.0,0.0,0.0,0.0,0.0,0.0,0,0,0,0,3,0,0,3,0,0,0,4,1,0,0
28551878,-0.0,-0.056872036,0.08994083,0.0,0.0,0.0,0.0,0.0,0.0,0.0,0.0,0,0,0,0,3,0,0,3,0,0,0,4,1,0,0
28752822,-0.0,-0.056872036,0.08994083,0.0,0.0,0.0,0.0,0.0,0.0,0.0,0.0,0,0,0,0,3,0,0,3,0,0,0,4,1,0,0
28954031,-0.0,-0.056872036,0.08994083,0.0,0.0,0.0,0.0,0.0,0.0,0.0,0.0,0,0,0,0,3,0,0,3,0,0,0,4,1,0,0
29152659,-0.0,-0.056872036,0.088757396,0.0,0.0,0.0,0.0,0.0,0.0,0.0,0.0,0,0,0,0,3,0,0,3,0,0,0,4,1,0,0
29353480,-0.0,-0.056872036,0.088757396,0.0,0.0,0.0,0.0,0.0,0.0,0.0,0.0,0,0,0,0,3,0,0,3,0,0,0,4,1,0,0
29554878,-0.0,-0.056872036,0.088757396,0.0,0.0,0.0,0.0,0.0,0.0,0.0,0.0,0,0,0,0,3,0,0,3,0,0,0,4,1,0,0
29753397,-0.0,-0.016587678,0.14674556,0.0,0.0,0.0,0.0,0.0,0.0,0.0,0.0,0,0,0,0,3,0,0,3,0,0,0,4,1,0,0
29952748,-0.0,0.05060241,0.14674556,0.0,0.0,0.0,0.0,0.0,0.0,0.0,0.0,0,0,0,0,3,0,0,3,0,0,0,4,1,0,0
30153141,-0.0,0.12771085,0.14674556,0.0,0.0,0.0,0.0,0.0,0.0,0.0,0.0,0,0,0,0,3,0,0,3,0,0,0,4,1,0,0
30354364,-0.0,0.15180723,0.14674556,0.0,0.0,0.0,0.0,0.0,0.0,0.0,0.0,0,0,0,0,3,0,0,3,0,0,0,4,1,0,0
30555251,-0.0,0.15180723,0.15739645,0.0,0.0,0.0,0.0,0.0,0.0,0.0,0.0,0,0,0,0,3,0,0,3,0,0,0,4,1,0,0
30756700,-0.0,0.13253012,0.17278107,0.0,0.0,0.0,0.0,0.0,0.0,0.0,0.0,0,0,0,0,3,0,0,3,0,0,0,4,1,0,0
30957533,-0.0,0.13493976,0.17633136,0.0,0.0,0.0,0.0,0.0,0.0,0.0,0.0,0,0,0,0,3,0,0,3,0,0,0,4,1,0,0
31136129,-0.0,0.13253012,0.20236686,0.0,0.0,0.0,0.0,0.0,0.0,0.0,0.0,0,0,0,0,3,0,0,3,0,0,0,4,1,0,0
31338146,-0.0,0.08915663,0.24497041,0.0,0.0,0.0,0.0,0.0,0.0,0.0,0.0,0,0,0,0,3,0,0,3,0,0,0,4,1,0,0
31538452,-0.0,0.0746988,0.24733728,0.0,0.0,0.0,0.0,0.0,0.0,0.0,0.0,0,0,0,0,3,0,0,3,0,0,0,4,1,0,0
31740442,-0.0,0.0746988,0.25088757,0.0,0.0,0.0,0.0,0.0,0.0,0.0,0.0,0,0,0,0,3,0,0,3,0,0,0,4,1,0,0
31940843,-0.0,0.09879518,0.2662722,0.0,0.0,0.0,0.0,0.0,0.0,0.0,0.0,0,0,0,0,3,0,0,3,0,0,0,4,1,0,0
32142883,-0.0,0.12289157,0.28639054,0.0,0.0,0.0,0.0,0.0,0.0,0.0,0.0,0,0,0,0,3,0,0,3,0,0,0,4,1,0,0
32343421,-0.0,0.106024094,0.31360948,0.0,0.0,0.0,0.0,0.0,0.0,0.0,0.0,0,0,0,0,3,0,0,3,0,0,0,4,1,0,0
32544266,-0.0,0.09879518,0.32544377,0.0,0.0,0.0,0.0,0.0,0.0,0.0,0.0,0,0,0,0,3,0,0,3,0,0,0,4,1,0,0
32742807,-0.0,0.09638554,0.356213,0.0,0.0,0.0,0.0,0.0,0.0,0.0,0.0,0,0,0,0,3,0,0,3,0,0,0,4,1,0,0
32943755,-0.0,0.0746988,0.37751478,0.0,0.0,0.0,0.0,0.0,0.0,0.0,0.0,0,0,0,0,3,0,0,3,0,0,0,4,1,0,0
33144960,-0.0,0.0746988,0.38343194,0.0,0.0,0.0,0.0,0.0,0.0,0.0,0.0,0,0,0,0,3,0,0,3,0,0,0,4,1,0,0
33345960,-0.0,0.08674699,0.42485207,0.0,0.0,0.0,0.0,0.0,0.0,0.0,0.0,0,0,0,0,3,0,0,3,0,0,0,4,1,0,0
33547163,-0.0,0.07951807,0.4366864,0.0,0.0,0.0,0.0,0.0,0.0,0.0,0.0,0,0,0,0,3,0,0,3,0,0,0,4,1,0,0
33745850,-0.0,0.06746988,0.452071,0.0,0.0,0.0,0.0,0.0,0.0,0.0,0.0,0,0,0,0,3,0,0,3,0,0,0,4,1,0,0
33944514,-0.0,0.062650606,0.4781065,0.0,0.0,0.0,0.0,0.0,0.0,0.0,0.0,0,0,0,0,3,0,0,3,0,0,0,4,1,0,0
34143243,-0.0,0.060240965,0.5005917,0.0,0.0,0.0,0.0,0.0,0.0,0.0,0.0,0,0,0,0,3,0,0,3,0,0,0,4,1,0,0
34344085,-0.0,0.043373495,0.50177515,0.0,0.0,0.0,0.0,0.0,0.0,0.0,0.0,0,0,0,0,3,0,0,3,0,0,0,4,1,0,0
34542553,-0.0,0.072289154,0.504142,0.0,0.0,0.0,0.0,0.0,0.0,0.0,0.0,0,0,0,0,3,0,0,3,0,0,0,4,1,0,0
34742474,-0.0,0.15662651,0.50532544,0.0,0.0,0.0,0.0,0.0,0.0,0.0,0.0,0,0,0,0,3,0,0,3,0,0,0,4,1,0,0
34943072,-0.0,0.13975903,0.5112426,0.0,0.0,0.0,0.0,0.0,0.0,0.0,0.0,0,0,0,0,3,0,0,3,0,0,0,4,1,0,0
35143374,-0.0,0.14698794,0.5372781,0.0,0.0,0.0,0.0,0.0,0.0,0.0,0.0,0,0,0,0,3,0,0,3,0,0,0,4,1,0,0
35344731,-0.0,0.15180723,0.5763314,0.0,0.0,0.0,0.0,0.0,0.0,0.0,0.0,0,0,0,0,3,0,0,3,0,0,0,4,1,0,0
35543916,-0.0,0.15662651,0.5846154,0.0,0.0,0.0,0.0,0.0,0.0,0.0,0.0,0,0,0,0,3,0,0,3,0,0,0,4,1,0,0
35742593,-0.0,0.15180723,0.5846154,-0.004608295,0.0,0.0,0.0,0.0,0.0,0.0,0.0,0,0,0,0,3,0,0,3,0,0,0,4,1,0,0
35943025,0.012048192,0.09879518,0.5810651,0.0,0.0,0.0,0.0,0.0,0.0,0.0,0.0,0,0,0,0,3,0,0,3,0,0,0,4,1,0,0
36144865,0.09879518,0.060240965,0.5751479,0.0,0.0,0.0,0.0,0.0,0.0,0.0,0.0,0,0,0,0,3,0,0,3,0,0,0,4,1,0,0
36345199,0.110843375,0.072289154,0.5727811,-0.0069124424,0.0,0.0,0.0,0.0,0.0,0.0,0.0,0,0,0,0,3,0,0,3,0,0,0,4,1,0,0
36554222,-0.0,0.15421687,0.5408284,-0.00921659,0.0,0.0,0.0,0.0,0.0,0.0,0.0,0,0,0,0,3,0,0,3,0,0,0,4,1,0,0
36744995,-0.0,0.106024094,0.49112427,-0.004608295,0.0,0.0,0.0,0.0,0.0,0.0,0.0,0,0,0,0,3,0,0,3,0,0,0,4,1,0,0
36943641,-0.0,0.055421688,0.4852071,0.0,0.0,0.0,0.0,0.0,0.0,0.0,0.0,0,0,0,0,3,0,0,3,0,0,0,4,1,0,0
37142353,-0.0,0.055421688,0.44970414,0.0,0.0,0.0,0.0,0.0,0.0,0.0,0.0,0,0,0,0,3,0,0,3,0,0,0,4,1,0,0
37343176,-0.00952381,0.0,0.44970414,0.0,0.0,0.0,0.0,0.0,0.0,0.0,0.0,0,0,0,0,3,0,0,3,0,0,0,4,1,0,0
37542067,-0.0,-0.054502368,0.45443788,0.0,0.0,0.0,0.0,0.0,0.0,0.0,0.0,0,0,0,0,3,0,0,3,0,0,0,4,1,0,0
37743197,-0.0,-0.054502368,0.4591716,0.05811138,0.0,0.0,0.0,0.0,0.0,0.0,0.0,0,0,0,0,3,0,0,3,0,0,0,4,1,0,0
37943732,-0.0,-0.054502368,0.48757395,0.13075061,0.0,0.0,0.0,0.0,0.0,0.0,0.0,0,0,0,0,3,0,0,3,0,0,0,4,1,0,0
38145448,-0.0,0.072289154,0.56568044,-0.004608295,0.0,0.0,0.0,0.0,0.0,0.0,0.0,0,0,0,0,3,0,0,3,0,0,0,4,1,0,0
38346393,-0.0,0.08915663,0.5739645,0.0,0.0,0.0,0.0,0.0,0.0,0.0,0.0,0,0,0,0,3,0,0,3,0,0,0,4,1,0,0
38547480,-0.0,0.14216867,0.57159764,-0.004608295,0.0,0.0,0.0,0.0,0.0,0.0,0.0,0,0,0,0,3,0,0,3,0,0,0,4,1,0,0
38748577,-0.0,0.24578314,0.5704142,-0.004608295,0.0,0.0,0.0,0.0,0.0,0.0,0.0,0,0,0,0,3,0,0,3,0,0,0,4,1,0,0
38947087,-0.0,0.2554217,0.5692308,0.0,0.0,0.0,0.0,0.0,0.0,0.0,0.0,0,0,0,0,3,0,0,3,0,0,0,4,1,0,0
39139971,-0.0,0.21445782,0.56804734,0.0,0.0,0.0,0.0,0.0,0.0,0.0,0.0,0,0,0,0,3,0,0,3,0,0,0,4,1,0,0
39338566,-0.0,0.16626506,0.5668639,0.0,0.0,0.0,0.0,0.0,0.0,0.0,0.0,0,0,0,0,3,0,0,3,0,0,0,4,1,0,0
39535855,-0.0,0.0,0.56568044,0.0,0.0,0.0,0.0,0.0,0.0,0.0,0.0,0,0,0,0,3,0,0,3,0,0,0,4,1,0,0
39736815,-0.0,-0.054502368,0.56804734,0.0,0.0,0.0,0.0,0.0,0.0,0.0,0.0,0,0,0,0,3,0,0,3,0,0,0,4,1,0,0
39939255,-0.0,-0.054502368,0.5668639,0.0,0.0,0.0,0.0,0.0,0.0,0.0,0.0,0,0,0,0,1,0,0,3,0,0,0,4,1,0,0
40134149,-0.0,-0.056872036,0.56804734,0.0,0.0,0.0,0.0,0.0,0.0,0.0,0.0,0,0,0,0,1,0,0,3,0,0,0,4,1,0,0
40355119,-0.0,-0.054502368,0.5692308,0.0,0.0,0.0,0.0,0.0,0.0,0.0,0.0,0,0,0,0,1,0,0,3,0,0,0,4,1,0,0
40553595,-0.0,-0.056872036,0.5692308,0.0,0.0,0.0,0.0,0.0,0.0,0.0,0.0,0,0,0,0,1,0,0,3,0,0,0,4,1,0,0
40752409,-0.0,-0.056872036,0.56804734,0.0,0.0,0.0,0.0,0.0,0.0,0.0,0.0,0,0,0,0,1,0,0,3,0,0,0,4,1,0,0
40952004,-0.0,-0.056872036,0.56804734,0.0,0.0,0.0,0.0,0.0,0.0,0.0,0.0,0,0,0,0,1,0,0,3,0,0,0,4,1,0,0
41151951,-0.0,-0.056872036,0.5881657,0.0,0.0,0.0,0.0,0.0,0.0,0.0,0.0,0,0,0,0,1,0,0,3,0,0,0,4,1,0,0
41353159,-0.0,-0.056872036,0.61538464,0.0,0.0,0.0,0.0,0.0,0.0,0.0,0.0,0,0,0,0,1,0,0,3,0,0,0,4,1,0,0
41554243,-0.0,-0.056872036,0.616568,0.0,0.0,0.0,0.0,0.0,0.0,0.0,0.0,0,0,0,0,1,0,0,3,0,0,0,4,1,0,0
41732977,-0.0,-0.056872036,0.616568,0.0,0.0,0.0,0.0,0.0,0.0,0.0,0.0,0,0,0,0,1,0,0,3,0,0,0,4,1,0,0
41954432,-0.0,-0.056872036,0.6177515,0.0,0.0,0.0,0.0,0.0,0.0,0.0,0.0,0,0,0,0,1,0,0,3,0,0,0,4,1,0,0
42154925,-0.0,-0.056872036,0.6177515,0.0,0.0,0.0,0.0,0.0,0.0,0.0,0.0,0,0,0,0,1,0,0,3,0,0,0,4,1,0,0
42353473,-0.0,-0.056872036,0.6177515,0.0,0.0,0.0,0.0,0.0,0.0,0.0,0.0,0,0,0,0,1,0,0,3,0,0,0,4,1,0,0
42555506,-0.0,-0.056872036,0.616568,0.0,0.0,0.0,0.0,0.0,0.0,0.0,0.0,0,0,0,0,1,0,0,3,0,0,0,4,1,0,0
42755859,-0.0,-0.056872036,0.616568,0.0,0.0,0.0,0.0,0.0,0.0,0.0,0.0,0,0,0,0,1,0,0,3,0,0,0,4,1,0,0
42934470,-0.0,-0.056872036,0.616568,0.0,0.0,0.0,0.0,0.0,0.0,0.0,0.0,0,0,0,0,1,0,0,3,0,0,0,4,1,0,0
43135917,-0.0,-0.056872036,0.616568,0.0,0.0,0.0,0.0,0.0,0.0,0.0,0.0,0,0,0,0,1,0,0,3,0,0,0,4,1,0,0
43334374,-0.0,-0.056872036,0.616568,0.0,0.0,0.0,0.0,0.0,0.0,0.0,0.0,0,0,0,0,1,0,0,3,0,0,0,4,1,0,0
43555309,-0.0,-0.056872036,0.6177515,0.0,0.0,0.0,0.0,0.0,0.0,0.0,0.0,0,0,0,0,1,0,0,3,0,0,0,4,1,0,0
43757226,-0.0,-0.056872036,0.6177515,0.0,0.0,0.0,0.0,0.0,0.0,0.0,0.0,0,0,0,0,1,0,0,3,0,0,0,4,1,0,0
43955081,-0.0,-0.056872036,0.6177515,0.0,0.0,0.0,0.0,0.0,0.0,0.0,0.0,0,0,0,0,1,0,0,3,0,0,0,4,1,0,0
44155921,-0.0,-0.056872036,0.6177515,0.0,0.0,0.0,0.0,0.0,0.0,0.0,0.0,0,0,0,0,1,0,0,3,0,0,0,4,1,0,0
44334760,-0.0,-0.056872036,0.616568,0.0,0.0,0.0,0.0,0.0,0.0,0.0,0.0,0,0,0,0,1,0,0,3,0,0,0,4,1,0,0
44534010,-0.0,-0.056872036,0.616568,0.0,0.0,0.0,0.0,0.0,0.0,0.0,0.0,0,0,0,0,1,0,0,3,0,0,0,4,1,0,0
44756905,-0.0,-0.056872036,0.616568,0.0,0.0,0.0,0.0,0.0,0.0,0.0,0.0,0,0,0,0,1,0,0,3,0,0,0,4,1,0,0
44955361,-0.0,-0.056872036,0.6177515,0.0,0.0,0.0,0.0,0.0,0.0,0.0,0.0,0,0,0,0,1,0,0,3,0,0,0,4,1,0,0
45156828,-0.0,-0.056872036,0.6177515,0.0,0.0,0.0,0.0,0.0,0.0,0.0,0.0,0,0,0,0,1,0,0,3,0,0,0,4,1,0,0
45355406,-0.0,-0.056872036,0.6177515,0.0,0.0,0.0,0.0,0.0,0.0,0.0,0.0,0,0,0,0,1,0,0,3,0,0,0,4,1,0,0
45553970,-0.0,-0.056872036,0.6177515,0.0,0.0,0.0,0.0,0.0,0.0,0.0,0.0,0,0,0,0,1,0,0,3,0,0,0,4,1,0,0
45754953,-0.0,-0.056872036,0.6177515,0.0,0.0,0.0,0.0,0.0,0.0,0.0,0.0,0,0,0,0,1,0,0,3,0,0,0,4,1,0,0
45933900,-0.0,-0.056872036,0.6177515,0.0,0.0,0.0,0.0,0.0,0.0,0.0,0.0,0,0,0,0,1,0,0,3,0,0,0,4,1,0,0
46154787,-0.0,-0.056872036,0.616568,0.0,0.0,0.0,0.0,0.0,0.0,0.0,0.0,0,0,0,0,1,0,0,3,0,0,0,4,1,0,0
46355825,-0.0,-0.056872036,0.616568,0.0,0.0,0.0,0.0,0.0,0.0,0.0,0.0,0,0,0,0,1,0,0,3,0,0,0,4,1,0,0
46557160,-0.0,-0.056872036,0.616568,0.0,0.0,0.0,0.0,0.0,0.0,0.0,0.0,0,0,0,0,1,0,0,3,0,0,0,4,1,0,0
46735795,-0.0,-0.059241705,0.616568,0.0,0.0,0.0,0.0,0.0,0.0,0.0,0.0,0,0,0,0,1,0,0,3,0,0,0,4,1,0,0
46936735,-0.0,-0.056872036,0.616568,0.0,0.0,0.0,0.0,0.0,0.0,0.0,0.0,0,0,0,0,1,0,0,3,0,0,0,4,1,0,0
47155268,-0.0,-0.056872036,0.72426033,0.0,0.0,0.0,0.0,0.0,0.0,0.0,0.0,0,0,0,0,1,0,0,3,0,0,0,4,1,0,0
47334420,-0.0,-0.056872036,0.75739646,0.0,0.0,0.0,0.0,0.0,0.0,0.0,0.0,0,0,0,0,1,0,0,3,0,0,0,4,1,0,0
47557448,-0.0,-0.056872036,0.791716,0.0,0.0,0.0,0.0,0.0,0.0,0.0,0.0,0,0,0,0,1,0,0,3,0,0,0,4,1,0,0
47736807,-0.0,-0.0521327,0.8142012,0.0,0.0,0.0,0.0,0.0,0.0,0.0,0.0,0,0,0,0,1,0,0,3,0,0,0,4,1,0,0
47937743,-0.0,-0.0521327,0.8627219,0.0,0.0,0.0,0.0,0.0,0.0,0.0,0.0,0,0,0,0,1,0,0,3,0,0,0,4,1,0,0
48138815,-0.0,-0.0521327,0.8627219,0.0,0.0,0.0,0.0,0.0,0.0,0.0,0.0,0,0,0,0,1,0,0,3,0,0,0,4,1,0,0
48340162,-0.0,-0.0521327,0.86153847,0.0,0.0,0.0,0.0,0.0,0.0,0.0,0.0,0,0,0,0,1,0,0,3,0,0,0,4,1,0,0
48540637,-0.0,-0.049763035,0.8568047,-0.00921659,0.0,0.0,0.0,0.0,0.0,0.0,0.0,0,0,0,0,1,0,0,3,0,0,0,4,1,0,0
48740478,-0.0,-0.049763035,0.7337278,-0.016129032,0.0,0.0,0.0,0.0,0.0,0.0,0.0,0,0,0,0,1,0,0,3,0,0,0,4,1,0,0
48937995,-0.0,-0.049763035,0.7739645,0.0,0.0,0.0,0.0,0.0,0.0,0.0,0.0,0,0,0,0,1,0,0,3,0,0,0,4,1,0,0
49137849,-0.0,-0.049763035,0.8319527,-0.0023041475,0.0,0.0,0.0,0.0,0.0,0.0,0.0,0,0,0,0,1,0,0,3,0,0,0,4,1,0,0
49355235,-0.0,-0.049763035,0.84970415,-0.004608295,0.0,0.0,0.0,0.0,0.0,0.0,0.0,0,0,0,0,1,0,0,3,0,0,0,4,1,0,0
49556420,-0.0,-0.0521327,0.8662722,0.0,0.0,0.0,0.0,0.0,0.0,0.0,0.0,0,0,0,0,1,0,0,3,0,0,0,4,1,0,0
49755003,-0.0,-0.056872036,0.8639053,-0.004608295,0.0,0.0,0.0,0.0,0.0,0.0,0.0,0,0,0,0,1,0,0,3,0,0,0,4,1,0,0
49953531,-0.0,-0.056872036,0.8579882,-0.004608295,0.0,0.0,0.0,0.0,0.0,0.0,0.0,0,0,0,0,1,0,0,3,0,0,0,4,1,0,0
50154358,-0.0,-0.056872036,0.82840234,0.0,0.0,0.0,0.0,0.0,0.0,0.0,0.0,0,0,0,0,1,0,0,3,0,0,0,4,1,0,0
50356507,-0.0,-0.056872036,0.7301775,0.0,0.0,0.0,0.0,0.0,0.0,0.0,0.0,0,0,0,0,1,0,0,3,0,0,0,4,1,0,0
50535372,-0.0,-0.0521327,0.61538464,0.0,0.0,0.0,0.0,0.0,0.0,0.0,0.0,0,0,0,0,1,0,0,3,0,0,0,4,1,0,0
50755445,0.026506023,-0.047393367,0.60946745,-0.0069124424,0.0,0.0,0.0,0.0,0.0,0.0,0.0,0,0,0,0,1,0,0,3,0,0,0,4,1,0,0
50956584,0.20240964,-0.049763035,0.61183435,-0.004608295,0.0,0.0,0.0,0.0,0.0,0.0,0.0,0,0,0,0,1,0,0,3,0,0,0,4,1,0,0
51155358,0.24096386,-0.0521327,0.6201183,0.0,0.0,0.0,0.0,0.0,0.0,0.0,0.0,0,0,0,0,1,0,0,3,0,0,0,4,1,0,0
51353939,0.2554217,-0.0521327,0.6213018,0.0,0.0,0.0,0.0,0.0,0.0,0.0,0.0,0,0,0,0,1,0,0,3,0,0,0,4,1,0,0
51554802,0.2313253,-0.0521327,0.6213018,0.0,0.0,0.0,0.0,0.0,0.0,0.0,0.0,0,0,0,0,1,0,0,3,0,0,0,4,1,0,0
51756012,0.21927711,-0.0521327,0.6224852,0.0,0.0,0.0,0.0,0.0,0.0,0.0,0.0,0,0,0,0,1,0,0,3,0,0,0,4,1,0,0
51954732,0.22409639,-0.0521327,0.6260355,-0.00921659,0.0,0.0,0.0,0.0,0.0,0.0,0.0,0,0,0,0,1,0,0,3,0,0,0,4,1,0,0
52155660,0.23855421,-0.0521327,0.63195264,0.0,0.0,0.0,0.0,0.0,0.0,0.0,0.0,0,0,0,0,1,0,0,3,0,0,0,4,1,0,0
52354245,0.24096386,-0.0521327,0.63195264,0.0,0.0,0.0,0.0,0.0,0.0,0.0,0.0,0,0,0,0,1,0,0,3,0,0,0,4,1,0,0
52556227,0.22891566,-0.0521327,0.63195264,0.0,0.0,0.0,0.0,0.0,0.0,0.0,0.0,0,0,0,0,1,0,0,3,0,0,0,4,1,0,0
52754183,0.21927711,-0.049763035,0.63195264,0.0,0.0,0.0,0.0,0.0,0.0,0.0,0.0,0,0,0,0,1,0,0,3,0,0,0,4,1,0,0
52952840,0.2313253,-0.0521327,0.62721896,-0.004608295,0.0,0.0,0.0,0.0,0.0,0.0,0.0,0,0,0,0,1,0,0,3,0,0,0,4,1,0,0
53152419,0.27710843,-0.0521327,0.63195264,0.0,0.0,0.0,0.0,0.0,0.0,0.0,0.0,0,0,0,0,1,0,0,3,0,0,0,4,1,0,0
53352428,0.25301206,-0.0521327,0.6331361,0.0,0.0,0.0,0.0,0.0,0.0,0.0,0.0,0,0,0,0,1,0,0,3,0,0,0,4,1,0,0
53548710,0.23614457,-0.0521327,0.6295858,0.0,0.0,0.0,0.0,0.0,0.0,0.0,0.0,0,0,0,0,1,0,0,3,0,0,0,4,1,0,0
53747270,0.23855421,-0.049763035,0.60236686,0.0,0.0,0.0,0.0,0.0,0.0,0.0,0.0,0,0,0,0,1,0,0,3,0,0,0,4,1,0,0
53945967,0.2433735,-0.049763035,0.5952663,0.0,0.0,0.0,0.0,0.0,0.0,0.0,0.0,0,0,0,0,1,0,0,3,0,0,0,4,1,0,0
54146865,0.2313253,-0.049763035,0.56213015,0.0,0.0,0.0,0.0,0.0,0.0,0.0,0.0,0,0,0,0,1,0,0,3,0,0,0,4,1,0,0
54348193,0.25783134,-0.049763035,0.53846157,-0.004608295,0.0,0.0,0.0,0.0,0.0,0.0,0.0,0,0,0,0,1,0,0,3,0,0,0,4,1,0,0
54546631,0.2626506,-0.049763035,0.53846157,-0.0023041475,0.0,0.0,0.0,0.0,0.0,0.0,0.0,0,0,0,0,1,0,0,3,0,0,0,4,1,0,0
54745359,0.29156625,-0.047393367,0.5372781,-0.00921659,0.0,0.0,0.0,0.0,0.0,0.0,0.0,0,0,0,0,1,0,0,3,0,0,0,4,1,0,0
54946134,0.31325302,-0.049763035,0.5372781,0.0,0.0,0.0,0.0,0.0,0.0,0.0,0.0,0,0,0,0,1,0,0,3,0,0,0,4,1,0,0
55144957,0.29156625,-0.0521327,0.53846157,-0.00921659,0.0,0.0,0.0,0.0,0.0,0.0,0.0,0,0,0,0,1,0,0,3,0,0,0,4,1,0,0
55346298,0.23614457,-0.0521327,0.54201186,0.0,0.0,0.0,0.0,0.0,0.0,0.0,0.0,0,0,0,0,1,0,0,3,0,0,0,4,1,0,0
55544769,0.27710843,-0.0521327,0.54201186,0.0,0.0,0.0,0.0,0.0,0.0,0.0,0.0,0,0,0,0,1,0,0,3,0,0,0,4,1,0,0
55743965,0.26024097,-0.0521327,0.54556215,0.0,0.0,0.0,0.0,0.0,0.0,0.0,0.0,0,0,0,0,1,0,0,3,0,0,0,4,1,0,0
55952601,0.25301206,-0.049763035,0.54674554,0.0,0.0,0.0,0.0,0.0,0.0,0.0,0.0,0,0,0,0,1,0,0,3,0,0,0,4,1,0,0
56145594,0.27951807,-0.049763035,0.54674554,-0.0069124424,0.0,0.0,0.0,0.0,0.0,0.0,0.0,0,0,0,0,1,0,0,3,0,0,0,4,1,0,0
56344234,0.2939759,-0.049763035,0.54911244,0.0,0.0,0.0,0.0,0.0,0.0,0.0,0.0,0,0,0,0,1,0,0,3,0,0,0,4,1,0,0
56545176,0.3325301,-0.049763035,0.547929,-0.004608295,0.0,0.0,0.0,0.0,0.0,0.0,0.0,0,0,0,0,1,0,0,3,0,0,0,4,1,0,0
56746658,0.3325301,-0.049763035,0.547929,0.0,0.0,0.0,0.0,0.0,0.0,0.0,0.0,0,0,0,0,1,0,0,3,0,0,0,4,1,0,0
56945174,0.32771084,-0.0521327,0.5443787,-0.004608295,0.0,0.0,0.0,0.0,0.0,0.0,0.0,0,0,0,0,1,0,0,3,0,0,0,4,1,0,0
57146121,0.31566265,-0.0521327,0.54201186,0.0,0.0,0.0,0.0,0.0,0.0,0.0,0.0,0,0,0,0,1,0,0,3,0,0,0,4,1,0,0
57344638,0.32048193,-0.0521327,0.5372781,-0.0069124424,0.0,0.0,0.0,0.0,0.0,0.0,0.0,0,0,0,0,1,0,0,3,0,0,0,4,1,0,0
57546085,0.3253012,-0.0521327,0.5408284,-0.0023041475,0.0,0.0,0.0,0.0,0.0,0.0,0.0,0,0,0,0,1,0,0,3,0,0,0,4,1,0,0
57746582,0.3493976,-0.049763035,0.5408284,-0.00921659,0.0,0.0,0.0,0.0,0.0,0.0,0.0,0,0,0,0,1,0,0,3,0,0,0,4,1,0,0
57945518,0.34457833,-0.0521327,0.54319525,0.0,0.0,0.0,0.0,0.0,0.0,0.0,0.0,0,0,0,0,1,0,0,3,0,0,0,4,1,0,0
58146793,0.30843374,-0.0521327,0.54319525,0.0,0.0,0.0,0.0,0.0,0.0,0.0,0.0,0,0,0,0,1,0,0,3,0,0,0,4,1,0,0
58345486,0.25301206,-0.049763035,0.54556215,0.0,0.0,0.0,0.0,0.0,0.0,0.0,0.0,0,0,0,0,1,0,0,3,0,0,0,4,1,0,0
58544755,0.2433735,-0.049763035,0.54319525,-0.0069124424,0.0,0.0,0.0,0.0,0.0,0.0,0.0,0,0,0,0,1,0,0,3,0,0,0,4,1,0,0
58745171,0.25301206,-0.054502368,0.54201186,0.0,0.0,0.0,0.0,0.0,0.0,0.0,0.0,0,0,0,0,1,0,0,3,0,0,0,4,1,0,0
58946325,0.26746988,-0.073459715,0.52781063,-0.013824885,0.0,0.0,0.0,0.0,0.0,0.0,0.0,0,0,0,0,1,0,0,3,0,0,0,4,1,0,0
59147244,0.23373494,-0.14454976,0.5349112,0.0,0.0,0.0,0.0,0.0,0.0,0.0,0.0,0,0,0,0,1,0,0,3,0,0,0,4,1,0,0
59345845,0.22409639,-0.1421801,0.5349112,-0.0023041475,0.0,0.0,0.0,0.0,0.0,0.0,0.0,0,0,0,0,1,0,0,3,0,0,0,4,1,0,0
59547026,0.26506025,-0.07109005,0.53846157,-0.013824885,0.0,0.0,0.0,0.0,0.0,0.0,0.0,0,0,0,0,1,0,0,3,0,0,0,4,1,0,0
59745859,0.29638556,-0.059241705,0.5408284,-0.0023041475,0.0,0.0,0.0,0.0,0.0,0.0,0.0,0,0,0,0,1,0,0,3,0,0,0,4,1,0,0
59944445,0.33493975,-0.07582939,0.5408284,-0.0023041475,0.0,0.0,0.0,0.0,0.0,0.0,0.0,0,0,0,0,1,0,0,3,0,0,0,4,1,0,0
60145119,0.3325301,-0.056872036,0.5349112,0.0,0.0,0.0,0.0,0.0,0.0,0.0,0.0,0,0,0,0,1,0,0,3,0,0,0,4,1,0,0
60343941,0.33493975,-0.0521327,0.5408284,0.0,0.0,0.0,0.0,0.0,0.0,0.0,0.0,0,0,0,0,1,0,0,3,0,0,0,4,1,0,0
60545261,0.33975902,-0.07109005,0.54201186,0.0,0.0,0.0,0.0,0.0,0.0,0.0,0.0,0,0,0,0,1,0,0,3,0,0,0,4,1,0,0
60743845,0.32771084,-0.06635071,0.5408284,-0.013824885,0.0,0.0,0.0,0.0,0.0,0.0,0.0,0,0,0,0,1,0,0,3,0,0,0,4,1,0,0
60943171,0.34457833,-0.0521327,0.53846157,-0.013824885,0.0,0.0,0.0,0.0,0.0,0.0,0.0,0,0,0,0,1,0,0,3,0,0,0,4,1,0,0
61143565,0.32289156,-0.1042654,0.54201186,0.0,0.0,0.0,0.0,0.0,0.0,0.0,0.0,0,0,0,0,1,0,0,3,0,0,0,4,1,0,0
61341579,0.3180723,-0.11137441,0.53846157,-0.004608295,0.0,0.0,0.0,0.0,0.0,0.0,0.0,0,0,0,0,1,0,0,3,0,0,0,4,1,0,0
61540803,0.28433734,-0.13981043,0.54201186,-0.004608295,0.0,0.0,0.0,0.0,0.0,0.0,0.0,0,0,0,0,1,0,0,3,0,0,0,4,1,0,0
61741930,0.30120483,-0.11848341,0.54201186,-0.004608295,0.0,0.0,0.0,0.0,0.0,0.0,0.0,0,0,0,0,1,0,0,3,0,0,0,4,1,0,0
61943021,0.30120483,-0.1042654,0.54201186,0.0,0.0,0.0,0.0,0.0,0.0,0.0,0.0,0,0,0,0,1,0,0,3,0,0,0,4,1,0,0
62144306,0.28915662,-0.11137441,0.54319525,-0.0023041475,0.0,0.0,0.0,0.0,0.0,0.0,0.0,0,0,0,0,1,0,0,3,0,0,0,4,1,0,0
62342875,0.27710843,-0.1042654,0.54319525,0.0,0.0,0.0,0.0,0.0,0.0,0.0,0.0,0,0,0,0,1,0,0,3,0,0,0,4,1,0,0
62543854,0.29156625,-0.14691943,0.5408284,-0.0023041475,0.0,0.0,0.0,0.0,0.0,0.0,0.0,0,0,0,0,1,0,0,3,0,0,0,4,1,0,0
62742348,0.29156625,-0.1421801,0.54201186,0.0,0.0,0.0,0.0,0.0,0.0,0.0,0.0,0,0,0,0,1,0,0,3,0,0,0,4,1,0,0
62943687,0.28915662,-0.13507108,0.54201186,0.0,0.0,0.0,0.0,0.0,0.0,0.0,0.0,0,0,0,0,1,0,0,3,0,0,0,4,1,0,0
63144523,0.28433734,-0.116113745,0.54201186,0.0,0.0,0.0,0.0,0.0,0.0,0.0,0.0,0,0,0,0,1,0,0,3,0,0,0,4,1,0,0
63345797,0.32048193,-0.11848341,0.54319525,0.0,0.0,0.0,0.0,0.0,0.0,0.0,0.0,0,0,0,0,1,0,0,3,0,0,0,4,1,0,0
63544512,0.33012047,-0.10663507,0.54319525,0.0,0.0,0.0,0.0,0.0,0.0,0.0,0.0,0,0,0,0,1,0,0,3,0,0,0,4,1,0,0
63743245,0.3325301,-0.12796208,0.54319525,-0.0023041475,0.0,0.0,0.0,0.0,0.0,0.0,0.0,0,0,0,0,1,0,0,3,0,0,0,4,1,0,0
63941712,0.32771084,-0.123222746,0.54319525,0.0,0.0,0.0,0.0,0.0,0.0,0.0,0.0,0,0,0,0,1,0,0,3,0,0,0,4,1,0,0
64142044,0.33975902,-0.11374407,0.54201186,-0.004608295,0.0,0.0,0.0,0.0,0.0,0.0,0.0,0,0,0,0,1,0,0,3,0,0,0,4,1,0,0
64341181,0.3325301,-0.11137441,0.54319525,0.0,0.0,0.0,0.0,0.0,0.0,0.0,0.0,0,0,0,0,1,0,0,3,0,0,0,4,1,0,0
64542672,0.32048193,-0.09478673,0.54319525,0.0,0.0,0.0,0.0,0.0,0.0,0.0,0.0,0,0,0,0,1,0,0,3,0,0,0,4,1,0,0
64743460,0.33734939,-0.061611373,0.54319525,0.0,0.0,0.0,0.0,0.0,0.0,0.0,0.0,0,0,0,0,1,0,0,3,0,0,0,4,1,0,0
64944628,0.33734939,-0.1042654,0.54319525,0.0,0.0,0.0,0.0,0.0,0.0,0.0,0.0,0,0,0,0,1,0,0,3,0,0,0,4,1,0,0
65152641,0.34457833,-0.11137441,0.54319525,0.0,0.0,0.0,0.0,0.0,0.0,0.0,0.0,0,0,0,0,1,0,0,3,0,0,0,4,1,0,0
65347050,0.34457833,-0.11374407,0.54319525,0.0,0.0,0.0,0.0,0.0,0.0,0.0,0.0,0,0,0,0,1,0,0,3,0,0,0,4,1,0,0
65545520,0.3493976,-0.06635071,0.5443787,0.0,0.0,0.0,0.0,0.0,0.0,0.0,0.0,0,0,0,0,1,0,0,3,0,0,0,4,1,0,0
65744884,0.30361447,-0.08056872,0.5443787,0.0,0.0,0.0,0.0,0.0,0.0,0.0,0.0,0,0,0,0,1,0,0,3,0,0,0,4,1,0,0
65943597,0.23373494,-0.08293839,0.54556215,0.0,0.0,0.0,0.0,0.0,0.0,0.0,0.0,0,0,0,0,1,0,0,3,0,0,0,4,1,0,0
66143866,0.110843375,-0.054502368,0.54556215,-0.004608295,0.0,0.0,0.0,0.0,0.0,0.0,0.0,0,0,0,0,1,0,0,3,0,0,0,4,1,0,0
66345081,-0.0,-0.056872036,0.54556215,0.0,0.0,0.0,0.0,0.0,0.0,0.0,0.0,0,0,0,0,1,0,0,3,0,0,0,4,1,0,0
66543654,-0.0,-0.056872036,0.54674554,0.0,0.0,0.0,0.0,0.0,0.0,0.0,0.0,0,0,0,0,1,0,0,3,0,0,0,4,1,0,0
66742373,-0.0,-0.0521327,0.54674554,0.0,0.0,0.0,0.0,0.0,0.0,0.0,0.0,0,0,0,0,1,0,0,3,0,0,0,4,1,0,0
66943423,0.118072286,-0.0521327,0.56449705,0.0,0.0,0.0,0.0,0.0,0.0,0.0,0.0,0,0,0,0,1,0,0,3,0,0,0,4,1,0,0
67141900,0.2,-0.06635071,0.56213015,0.0,0.0,0.0,0.0,0.0,0.0,0.0,0.0,0,0,0,0,1,0,0,3,0,0,0,4,1,0,0
67343268,0.21686748,-0.0971564,0.556213,-0.0023041475,0.0,0.0,0.0,0.0,0.0,0.0,0.0,0,0,0,0,1,0,0,3,0,0,0,4,1,0,0
67542225,0.20963855,-0.13033175,0.5597633,0.0,0.0,0.0,0.0,0.0,0.0,0.0,0.0,0,0,0,0,1,0,0,3,0,0,0,4,1,0,0
67742652,0.22891566,-0.11848341,0.55857986,0.0,0.0,0.0,0.0,0.0,0.0,0.0,0.0,0,0,0,0,1,0,0,3,0,0,0,4,1,0,0
67944046,0.25783134,-0.14691943,0.5597633,0.0,0.0,0.0,0.0,0.0,0.0,0.0,0.0,0,0,0,0,1,0,0,3,0,0,0,4,1,0,0
68144528,0.26024097,-0.14691943,0.5739645,0.0,0.0,0.0,0.0,0.0,0.0,0.0,0.0,0,0,0,0,1,0,0,3,0,0,0,4,1,0,0
68342713,0.27951807,-0.14691943,0.5739645,-0.0023041475,0.0,0.0,0.0,0.0,0.0,0.0,0.0,0,0,0,0,1,0,0,3,0,0,0,4,1,0,0
68542120,0.28674698,-0.15165877,0.5727811,0.0,0.0,0.0,0.0,0.0,0.0,0.0,0.0,0,0,0,0,1,0,0,3,0,0,0,4,1,0,0
68740776,0.29156625,-0.11374407,0.5739645,0.0,0.0,0.0,0.0,0.0,0.0,0.0,0.0,0,0,0,0,1,0,0,3,0,0,0,4,1,0,0
68939452,0.3421687,-0.0900474,0.5739645,0.0,0.0,0.0,0.0,0.0,0.0,0.0,0.0,0,0,0,0,1,0,0,3,0,0,0,4,1,0,0
69141127,0.3421687,-0.11137441,0.5739645,-0.0023041475,0.0,0.0,0.0,0.0,0.0,0.0,0.0,0,0,0,0,1,0,0,3,0,0,0,4,1,0,0
69341892,0.31566265,-0.09478673,0.5739645,0.0,0.0,0.0,0.0,0.0,0.0,0.0,0.0,0,0,0,0,1,0,0,3,0,0,0,4,1,0,0
69542912,0.3325301,-0.06872038,0.5739645,0.0,0.0,0.0,0.0,0.0,0.0,0.0,0.0,0,0,0,0,1,0,0,3,0,0,0,4,1,0,0
69740136,0.33975902,-0.0900474,0.5739645,0.0,0.0,0.0,0.0,0.0,0.0,0.0,0.0,0,0,0,0,1,0,0,3,0,0,0,4,1,0,0
69940697,0.32289156,-0.11848341,0.5739645,-0.0069124424,0.0,0.0,0.0,0.0,0.0,0.0,0.0,0,0,0,0,1,0,0,3,0,0,0,4,1,0,0
70141040,0.3325301,-0.1042654,0.5739645,0.0,0.0,0.0,0.0,0.0,0.0,0.0,0.0,0,0,0,0,1,0,0,3,0,0,0,4,1,0,0
70343039,0.3493976,-0.09241706,0.5739645,0.0,0.0,0.0,0.0,0.0,0.0,0.0,0.0,0,0,0,0,1,0,0,3,0,0,0,4,1,0,0
70543302,0.33975902,-0.087677725,0.5739645,0.0,0.0,0.0,0.0,0.0,0.0,0.0,0.0,0,0,0,0,1,0,0,3,0,0,0,4,1,0,0
70744668,0.33734939,-0.0900474,0.5739645,0.0,0.0,0.0,0.0,0.0,0.0,0.0,0.0,0,0,0,0,1,0,0,3,0,0,0,4,1,0,0
70943279,0.3060241,-0.09241706,0.5751479,0.0,0.0,0.0,0.0,0.0,0.0,0.0,0.0,0,0,0,0,1,0,0,3,0,0,0,4,1,0,0
71144044,0.27951807,-0.056872036,0.5751479,0.0,0.0,0.0,0.0,0.0,0.0,0.0,0.0,0,0,0,0,1,0,0,3,0,0,0,4,1,0,0
71342721,0.26506025,-0.12085308,0.5739645,0.0,0.0,0.0,0.0,0.0,0.0,0.0,0.0,0,0,0,0,1,0,0,3,0,0,0,4,1,0,0
71544610,0.28433734,-0.14691943,0.5822485,0.0,0.0,0.0,0.0,0.0,0.0,0.0,0.0,0,0,0,0,1,0,0,3,0,0,0,4,1,0,0
71745040,0.2626506,-0.1800948,0.57988167,0.0,0.0,0.0,0.0,0.0,0.0,0.0,0.0,0,0,0,0,1,0,0,3,0,0,0,4,1,0,0
71946292,0.25301206,-0.16824645,0.57988167,-0.00921659,0.0,0.0,0.0,0.0,0.0,0.0,0.0,0,0,0,0,1,0,0,3,0,0,0,4,1,0,0
72147223,0.2626506,-0.1421801,0.5822485,-0.00921659,0.0,0.0,0.0,0.0,0.0,0.0,0.0,0,0,0,0,1,0,0,3,0,0,0,4,1,0,0
72349323,0.28433734,-0.1421801,0.5822485,-0.0069124424,0.0,0.0,0.0,0.0,0.0,0.0,0.0,0,0,0,0,1,0,0,3,0,0,0,4,1,0,0
72549426,0.32771084,-0.1421801,0.57988167,-0.00921659,0.0,0.0,0.0,0.0,0.0,0.0,0.0,0,0,0,0,1,0,0,3,0,0,0,4,1,0,0
72751671,0.31566265,-0.14691943,0.5810651,-0.0023041475,0.0,0.0,0.0,0.0,0.0,0.0,0.0,0,0,0,0,1,0,0,3,0,0,0,4,1,0,0
72949935,0.32289156,-0.14454976,0.5822485,0.0,0.0,0.0,0.0,0.0,0.0,0.0,0.0,0,0,0,0,1,0,0,3,0,0,0,4,1,0,0
73150364,0.30361447,-0.15402843,0.58343196,0.0,0.0,0.0,0.0,0.0,0.0,0.0,0.0,0,0,0,0,1,0,0,3,0,0,0,4,1,0,0
73351504,0.3180723,-0.1635071,0.5822485,-0.00921659,0.0,0.0,0.0,0.0,0.0,0.0,0.0,0,0,0,0,1,0,0,3,0,0,0,4,1,0,0
73550244,0.33493975,-0.1563981,0.5822485,-0.0023041475,0.0,0.0,0.0,0.0,0.0,0.0,0.0,0,0,0,0,1,0,0,3,0,0,0,4,1,0,0
73749527,0.3253012,-0.17535545,0.57988167,-0.00921659,0.0,0.0,0.0,0.0,0.0,0.0,0.0,0,0,0,0,1,0,0,3,0,0,0,4,1,0,0
73949908,0.3325301,-0.15402843,0.5786982,0.0,0.0,0.0,0.0,0.0,0.0,0.0,0.0,0,0,0,0,1,0,0,3,0,0,0,4,1,0,0
74151811,0.32771084,-0.17298578,0.57988167,0.0,0.0,0.0,0.0,0.0,0.0,0.0,0.0,0,0,0,0,1,0,0,3,0,0,0,4,1,0,0
74329870,0.32289156,-0.14691943,0.57988167,0.0,0.0,0.0,0.0,0.0,0.0,0.0,0.0,0,0,0,0,1,0,0,3,0,0,0,4,1,0,0
74550536,0.33975902,-0.1421801,0.5810651,-0.0023041475,0.0,0.0,0.0,0.0,0.0,0.0,0.0,0,0,0,0,1,0,0,3,0,0,0,4,1,0,0
74752662,0.33734939,-0.11848341,0.5822485,0.0,0.0,0.0,0.0,0.0,0.0,0.0,0.0,0,0,0,0,1,0,0,3,0,0,0,4,1,0,0
74951633,0.33975902,-0.123222746,0.5822485,-0.0023041475,0.0,0.0,0.0,0.0,0.0,0.0,0.0,0,0,0,0,1,0,0,3,0,0,0,4,1,0,0
75149710,0.34457833,-0.10663507,0.57988167,0.0,0.0,0.0,0.0,0.0,0.0,0.0,0.0,0,0,0,0,1,0,0,3,0,0,0,4,1,0,0
75349935,0.3493976,-0.116113745,0.57988167,-0.0023041475,0.0,0.0,0.0,0.0,0.0,0.0,0.0,0,0,0,0,1,0,0,3,0,0,0,4,1,0,0
75548645,0.34698796,-0.09952607,0.57988167,0.0,0.0,0.0,0.0,0.0,0.0,0.0,0.0,0,0,0,0,1,0,0,3,0,0,0,4,1,0,0
75750623,0.34457833,-0.06398104,0.5810651,0.0,0.0,0.0,0.0,0.0,0.0,0.0,0.0,0,0,0,0,1,0,0,3,0,0,0,4,1,0,0
75950937,0.3493976,-0.073459715,0.5822485,0.0,0.0,0.0,0.0,0.0,0.0,0.0,0.0,0,0,0,0,1,0,0,3,0,0,0,4,1,0,0
76152205,0.34698796,-0.09478673,0.5822485,0.0,0.0,0.0,0.0,0.0,0.0,0.0,0.0,0,0,0,0,1,0,0,3,0,0,0,4,1,0,0
76350877,0.34457833,-0.08293839,0.5786982,-0.004608295,0.0,0.0,0.0,0.0,0.0,0.0,0.0,0,0,0,0,1,0,0,3,0,0,0,4,1,0,0
76550012,0.3325301,-0.073459715,0.57988167,0.0,0.0,0.0,0.0,0.0,0.0,0.0,0.0,0,0,0,0,1,0,0,3,0,0,0,4,1,0,0
76748517,0.3325301,-0.0521327,0.57988167,0.0,0.0,0.0,0.0,0.0,0.0,0.0,0.0,0,0,0,0,1,0,0,3,0,0,0,4,1,0,0
76948890,0.3325301,-0.054502368,0.5822485,0.0,0.0,0.0,0.0,0.0,0.0,0.0,0.0,0,0,0,0,1,0,0,3,0,0,0,4,1,0,0
77145250,0.34457833,-0.054502368,0.5822485,-0.00921659,0.0,0.0,0.0,0.0,0.0,0.0,0.0,0,0,0,0,1,0,0,3,0,0,0,4,1,0,0
77343979,0.35903615,-0.08293839,0.58343196,-0.00921659,0.0,0.0,0.0,0.0,0.0,0.0,0.0,0,0,0,0,1,0,0,3,0,0,0,4,1,0,0
77544854,0.37831324,-0.056872036,0.5822485,0.0,0.0,0.0,0.0,0.0,0.0,0.0,0.0,0,0,0,0,1,0,0,3,0,0,0,4,1,0,0
77746214,0.3759036,-0.06398104,0.5822485,0.0,0.0,0.0,0.0,0.0,0.0,0.0,0.0,0,0,0,0,1,0,0,3,0,0,0,4,1,0,0
77944693,0.38313252,-0.061611373,0.58343196,0.0,0.0,0.0,0.0,0.0,0.0,0.0,0.0,0,0,0,0,1,0,0,3,0,0,0,4,1,0,0
78145793,0.3759036,-0.0521327,0.58343196,-0.00921659,0.0,0.0,0.0,0.0,0.0,0.0,0.0,0,0,0,0,1,0,0,3,0,0,0,4,1,0,0
78344326,0.37831324,-0.09952607,0.5822485,-0.0023041475,0.0,0.0,0.0,0.0,0.0,0.0,0.0,0,0,0,0,1,0,0,3,0,0,0,4,1,0,0
78546366,0.36385542,-0.16587678,0.58343196,-0.0023041475,0.0,0.0,0.0,0.0,0.0,0.0,0.0,0,0,0,0,1,0,0,3,0,0,0,4,1,0,0
78746536,0.35903615,-0.14454976,0.5810651,-0.0023041475,0.0,0.0,0.0,0.0,0.0,0.0,0.0,0,0,0,0,1,0,0,3,0,0,0,4,1,0,0
78945187,0.36144578,-0.123222746,0.5810651,0.0,0.0,0.0,0.0,0.0,0.0,0.0,0.0,0,0,0,0,1,0,0,3,0,0,0,4,1,0,0
79146964,0.36385542,-0.11848341,0.5810651,0.0,0.0,0.0,0.0,0.0,0.0,0.0,0.0,0,0,0,0,1,0,0,3,0,0,0,4,1,0,0
79347546,0.36144578,-0.08293839,0.5822485,-0.00921659,0.0,0.0,0.0,0.0,0.0,0.0,0.0,0,0,0,0,1,0,0,3,0,0,0,4,1,0,0
79546165,0.36144578,-0.13507108,0.5810651,-0.0069124424,0.0,0.0,0.0,0.0,0.0,0.0,0.0,0,0,0,0,1,0,0,3,0,0,0,4,1,0,0
79747371,0.35180724,-0.15165877,0.5822485,0.0,0.0,0.0,0.0,0.0,0.0,0.0,0.0,0,0,0,0,1,0,0,3,0,0,0,4,1,0,0
79945981,0.36144578,-0.15402843,0.5810651,0.0,0.0,0.0,0.0,0.0,0.0,0.0,0.0,0,0,0,0,1,0,0,3,0,0,0,4,1,0,0
80144715,0.36144578,-0.13033175,0.57988167,0.0,0.0,0.0,0.0,0.0,0.0,0.0,0.0,0,0,0,0,1,0,0,3,0,0,0,4,1,0,0
80345690,0.36144578,-0.13033175,0.5822485,0.0,0.0,0.0,0.0,0.0,0.0,0.0,0.0,0,0,0,0,1,0,0,3,0,0,0,4,1,0,0
80543774,0.37108433,-0.087677725,0.5810651,0.0,0.0,0.0,0.0,0.0,0.0,0.0,0.0,0,0,0,0,1,0,0,3,0,0,0,4,1,0,0
80742925,0.36144578,-0.08293839,0.57988167,-0.0023041475,0.0,0.0,0.0,0.0,0.0,0.0,0.0,0,0,0,0,1,0,0,3,0,0,0,4,1,0,0
80944095,0.36385542,-0.08530806,0.57988167,-0.004608295,0.0,0.0,0.0,0.0,0.0,0.0,0.0,0,0,0,0,1,0,0,3,0,0,0,4,1,0,0
81144931,0.36385542,-0.11848341,0.5786982,-0.00921659,0.0,0.0,0.0,0.0,0.0,0.0,0.0,0,0,0,0,1,0,0,3,0,0,0,4,1,0,0
81346358,0.3566265,-0.13981043,0.5786982,-0.0023041475,0.0,0.0,0.0,0.0,0.0,0.0,0.0,0,0,0,0,1,0,0,3,0,0,0,4,1,0,0
81547169,0.3566265,-0.13033175,0.5786982,0.0,0.0,0.0,0.0,0.0,0.0,0.0,0.0,0,0,0,0,1,0,0,3,0,0,0,4,1,0,0
81748551,0.35421687,-0.11848341,0.5786982,0.0,0.0,0.0,0.0,0.0,0.0,0.0,0.0,0,0,0,0,1,0,0,3,0,0,0,4,1,0,0
81947010,0.34457833,-0.101895735,0.57988167,0.0,0.0,0.0,0.0,0.0,0.0,0.0,0.0,0,0,0,0,1,0,0,3,0,0,0,4,1,0,0
82146480,0.33012047,-0.1421801,0.5810651,-0.00921659,0.0,0.0,0.0,0.0,0.0,0.0,0.0,0,0,0,0,1,0,0,3,0,0,0,4,1,0,0
82346521,0.32771084,-0.13981043,0.57988167,0.0,0.0,0.0,0.0,0.0,0.0,0.0,0.0,0,0,0,0,1,0,0,3,0,0,0,4,1,0,0
82544865,0.3325301,-0.11848341,0.57988167,0.0,0.0,0.0,0.0,0.0,0.0,0.0,0.0,0,0,0,0,1,0,0,3,0,0,0,4,1,0,0
82743950,0.33975902,-0.123222746,0.57988167,0.0,0.0,0.0,0.0,0.0,0.0,0.0,0.0,0,0,0,0,1,0,0,3,0,0,0,4,1,0,0
82945809,0.32771084,-0.1421801,0.57988167,0.0,0.0,0.0,0.0,0.0,0.0,0.0,0.0,0,0,0,0,1,0,0,3,0,0,0,4,1,0,0
83146264,0.32771084,-0.15165877,0.57988167,0.0,0.0,0.0,0.0,0.0,0.0,0.0,0.0,0,0,0,0,1,0,0,3,0,0,0,4,1,0,0
83347424,0.31566265,-0.1635071,0.5810651,0.0,0.0,0.0,0.0,0.0,0.0,0.0,0.0,0,0,0,0,1,0,0,3,0,0,0,4,1,0,0
83526158,0.31325302,-0.20616114,0.5810651,0.0,0.0,0.0,0.0,0.0,0.0,0.0,0.0,0,0,0,0,1,0,0,3,0,0,0,4,1,0,0
83750586,0.32289156,-0.17298578,0.5810651,0.0,0.0,0.0,0.0,0.0,0.0,0.0,0.0,0,0,0,0,1,0,0,3,0,0,0,4,1,0,0
83950462,0.32771084,-0.15876777,0.5822485,0.0,0.0,0.0,0.0,0.0,0.0,0.0,0.0,0,0,0,0,1,0,0,3,0,0,0,4,1,0,0
84152520,0.32771084,-0.17061612,0.5822485,0.0,0.0,0.0,0.0,0.0,0.0,0.0,0.0,0,0,0,0,1,0,0,3,0,0,0,4,1,0,0
84352793,0.33493975,-0.1492891,0.5810651,0.0,0.0,0.0,0.0,0.0,0.0,0.0,0.0,0,0,0,0,1,0,0,3,0,0,0,4,1,0,0
84554694,0.33493975,-0.14691943,0.5810651,0.0,0.0,0.0,0.0,0.0,0.0,0.0,0.0,0,0,0,0,1,0,0,3,0,0,0,4,1,0,0
84754945,0.34698796,-0.1492891,0.5810651,-0.0069124424,0.0,0.0,0.0,0.0,0.0,0.0,0.0,0,0,0,0,1,0,0,3,0,0,0,4,1,0,0
84933775,0.35421687,-0.14691943,0.57988167,0.0,0.0,0.0,0.0,0.0,0.0,0.0,0.0,0,0,0,0,1,0,0,3,0,0,0,4,1,0,0
85135036,0.35180724,-0.15876777,0.57988167,-0.004608295,0.0,0.0,0.0,0.0,0.0,0.0,0.0,0,0,0,0,1,0,0,3,0,0,0,4,1,0,0
85335884,0.3566265,-0.14691943,0.57988167,-0.0023041475,0.0,0.0,0.0,0.0,0.0,0.0,0.0,0,0,0,0,1,0,0,3,0,0,0,4,1,0,0
85557150,0.36626506,-0.13507108,0.57988167,0.0,0.0,0.0,0.0,0.0,0.0,0.0,0.0,0,0,0,0,1,0,0,3,0,0,0,4,1,0,0
85755704,0.38072288,-0.09241706,0.57988167,0.0,0.0,0.0,0.0,0.0,0.0,0.0,0.0,0,0,0,0,1,0,0,3,0,0,0,4,1,0,0
85954327,0.35421687,-0.0521327,0.5810651,0.0,0.0,0.0,0.0,0.0,0.0,0.0,0.0,0,0,0,0,1,0,0,3,0,0,0,4,1,0,0
86153857,0.3253012,-0.047393367,0.5810651,0.0,0.0,0.0,0.0,0.0,0.0,0.0,0.0,0,0,0,0,1,0,0,3,0,0,0,4,1,0,0
86354579,0.37349397,-0.0521327,0.5822485,0.0,0.0,0.0,0.0,0.0,0.0,0.0,0.0,0,0,0,0,1,0,0,3,0,0,0,4,1,0,0
86532592,0.3927711,-0.0521327,0.5822485,0.0,0.0,0.0,0.0,0.0,0.0,0.0,0.0,0,0,0,0,1,0,0,3,0,0,0,4,1,0,0
86756130,0.31325302,-0.0521327,0.5822485,0.0,0.0,0.0,0.0,0.0,0.0,0.0,0.0,0,0,0,0,1,0,0,3,0,0,0,4,1,0,0
86957445,0.05060241,-0.0521327,0.5822485,0.0,0.0,0.0,0.0,0.0,0.0,0.0,0.0,0,0,0,0,1,0,0,3,0,0,0,4,1,0,0
87156111,-0.0,-0.056872036,0.5822485,-0.0023041475,0.0,0.0,0.0,0.0,0.0,0.0,0.0,0,0,0,0,1,0,0,3,0,0,0,4,1,0,0
87354643,-0.0,-0.056872036,0.5810651,0.0,0.0,0.0,0.0,0.0,0.0,0.0,0.0,0,0,0,0,1,0,0,3,0,0,0,4,1,0,0
87553301,0.0072289156,-0.049763035,0.5810651,0.0,0.0,0.0,0.0,0.0,0.0,0.0,0.0,0,0,0,0,1,0,0,3,0,0,0,4,1,0,0
87754180,0.028915662,-0.0521327,0.57988167,0.0,0.0,0.0,0.0,0.0,0.0,0.0,0.0,0,0,0,0,1,0,0,3,0,0,0,4,1,0,0
87953093,0.13975903,-0.047393367,0.60236686,0.0,0.0,0.0,0.0,0.0,0.0,0.0,0.0,0,0,0,0,1,0,0,3,0,0,0,4,1,0,0
88154097,0.18313253,-0.049763035,0.6,0.0,0.0,0.0,0.0,0.0,0.0,0.0,0.0,0,0,0,0,1,0,0,3,0,0,0,4,1,0,0
88352822,0.24578314,-0.0521327,0.5952663,0.0,0.0,0.0,0.0,0.0,0.0,0.0,0.0,0,0,0,0,1,0,0,3,0,0,0,4,1,0,0
88553802,0.26987952,-0.047393367,0.5810651,0.0,0.0,0.0,0.0,0.0,0.0,0.0,0.0,0,0,0,0,1,0,0,3,0,0,0,4,1,0,0
88755089,0.33012047,-0.049763035,0.5810651,-0.004608295,0.0,0.0,0.0,0.0,0.0,0.0,0.0,0,0,0,0,1,0,0,3,0,0,0,4,1,0,0
88955850,0.3325301,-0.047393367,0.5810651,0.0,0.0,0.0,0.0,0.0,0.0,0.0,0.0,0,0,0,0,1,0,0,3,0,0,0,4,1,0,0
89135252,0.30361447,-0.047393367,0.57988167,0.0,0.0,0.0,0.0,0.0,0.0,0.0,0.0,0,0,0,0,1,0,0,3,0,0,0,4,1,0,0
89333506,0.3325301,-0.049763035,0.57988167,0.0,0.0,0.0,0.0,0.0,0.0,0.0,0.0,0,0,0,0,1,0,0,3,0,0,0,4,1,0,0
89556733,0.35903615,-0.049763035,0.57988167,0.0,0.0,0.0,0.0,0.0,0.0,0.0,0.0,0,0,0,0,1,0,0,3,0,0,0,4,1,0,0
89752957,0.33975902,-0.049763035,0.57988167,0.0,0.0,0.0,0.0,0.0,0.0,0.0,0.0,0,0,0,0,1,0,0,3,0,0,0,4,1,0,0
89954227,0.3493976,-0.0521327,0.57988167,0.0,0.0,0.0,0.0,0.0,0.0,0.0,0.0,0,0,0,0,1,0,0,3,0,0,0,4,1,0,0
90155278,0.34457833,-0.047393367,0.57988167,0.0,0.0,0.0,0.0,0.0,0.0,0.0,0.0,0,0,0,0,1,0,0,3,0,0,0,4,1,0,0
90353945,0.3566265,-0.049763035,0.5786982,0.0,0.0,0.0,0.0,0.0,0.0,0.0,0.0,0,0,0,0,1,0,0,3,0,0,0,4,1,0,0
90554958,0.3566265,-0.0521327,0.5786982,0.0,0.0,0.0,0.0,0.0,0.0,0.0,0.0,0,0,0,0,1,0,0,3,0,0,0,4,1,0,0
90734476,0.37349397,-0.059241705,0.57988167,0.0,0.0,0.0,0.0,0.0,0.0,0.0,0.0,0,0,0,0,1,0,0,3,0,0,0,4,1,0,0
90954773,0.38313252,-0.07109005,0.57988167,0.0,0.0,0.0,0.0,0.0,0.0,0.0,0.0,0,0,0,0,1,0,0,3,0,0,0,4,1,0,0
91155624,0.37349397,-0.06635071,0.57988167,0.0,0.0,0.0,0.0,0.0,0.0,0.0,0.0,0,0,0,0,1,0,0,3,0,0,0,4,1,0,0
91334372,0.36626506,-0.056872036,0.57988167,0.0,0.0,0.0,0.0,0.0,0.0,0.0,0.0,0,0,0,0,1,0,0,3,0,0,0,4,1,0,0
91552916,0.34457833,-0.123222746,0.57988167,0.0,0.0,0.0,0.0,0.0,0.0,0.0,0.0,0,0,0,0,1,0,0,3,0,0,0,4,1,0,0
91751506,0.33975902,-0.12559241,0.57988167,0.0,0.0,0.0,0.0,0.0,0.0,0.0,0.0,0,0,0,0,1,0,0,3,0,0,0,4,1,0,0
91953501,0.36385542,-0.0521327,0.57988167,0.0,0.0,0.0,0.0,0.0,0.0,0.0,0.0,0,0,0,0,1,0,0,3,0,0,0,4,1,0,0
92153887,0.3493976,-0.0521327,0.57988167,0.0,0.0,0.0,0.0,0.0,0.0,0.0,0.0,0,0,0,0,1,0,0,3,0,0,0,4,1,0,0
92351407,0.3566265,-0.0521327,0.57988167,0.0,0.0,0.0,0.0,0.0,0.0,0.0,0.0,0,0,0,0,1,0,0,3,0,0,0,4,1,0,0
92548815,0.3566265,-0.06872038,0.57988167,0.0,0.0,0.0,0.0,0.0,0.0,0.0,0.0,0,0,0,0,1,0,0,3,0,0,0,4,1,0,0
92754784,0.3493976,-0.07582939,0.57988167,0.0,0.0,0.0,0.0,0.0,0.0,0.0,0.0,0,0,0,0,1,0,0,3,0,0,0,4,1,0,0
92945923,0.33493975,-0.10663507,0.57988167,0.0,0.0,0.0,0.0,0.0,0.0,0.0,0.0,0,0,0,0,1,0,0,3,0,0,0,4,1,0,0
93146830,0.33975902,-0.109004736,0.57988167,0.0,0.0,0.0,0.0,0.0,0.0,0.0,0.0,0,0,0,0,1,0,0,3,0,0,0,4,1,0,0
93348875,0.3325301,-0.10663507,0.57988167,0.0,0.0,0.0,0.0,0.0,0.0,0.0,0.0,0,0,0,0,1,0,0,3,0,0,0,4,1,0,0
93549009,0.33975902,-0.09478673,0.57988167,0.0,0.0,0.0,0.0,0.0,0.0,0.0,0.0,0,0,0,0,1,0,0,3,0,0,0,4,1,0,0
93751452,0.3493976,-0.06398104,0.57988167,0.0,0.0,0.0,0.0,0.0,0.0,0.0,0.0,0,0,0,0,1,0,0,3,0,0,0,4,1,0,0
93951332,0.35180724,-0.116113745,0.57988167,0.0,0.0,0.0,0.0,0.0,0.0,0.0,0.0,0,0,0,0,1,0,0,3,0,0,0,4,1,0,0
94152771,0.3421687,-0.13744076,0.57988167,0.0,0.0,0.0,0.0,0.0,0.0,0.0,0.0,0,0,0,0,1,0,0,3,0,0,0,4,1,0,0
94353610,0.35421687,-0.116113745,0.57988167,0.0,0.0,0.0,0.0,0.0,0.0,0.0,0.0,0,0,0,0,1,0,0,3,0,0,0,4,1,0,0
94554830,0.3493976,-0.1421801,0.57988167,0.0,0.0,0.0,0.0,0.0,0.0,0.0,0.0,0,0,0,0,1,0,0,3,0,0,0,4,1,0,0
94755689,0.3493976,-0.12559241,0.57988167,0.0,0.0,0.0,0.0,0.0,0.0,0.0,0.0,0,0,0,0,1,0,0,3,0,0,0,4,1,0,0
94935222,0.3253012,-0.1563981,0.57988167,0.0,0.0,0.0,0.0,0.0,0.0,0.0,0.0,0,0,0,0,1,0,0,3,0,0,0,4,1,0,0
95155587,0.31325302,-0.11848341,0.57988167,0.0,0.0,0.0,0.0,0.0,0.0,0.0,0.0,0,0,0,0,1,0,0,3,0,0,0,4,1,0,0
95354935,0.29156625,-0.14691943,0.57988167,0.0,0.0,0.0,0.0,0.0,0.0,0.0,0.0,0,0,0,0,1,0,0,3,0,0,0,4,1,0,0
95555361,0.28433734,-0.11137441,0.57988167,0.0,0.0,0.0,0.0,0.0,0.0,0.0,0.0,0,0,0,0,1,0,0,3,0,0,0,4,1,0,0
95756643,0.27710843,-0.12796208,0.57988167,0.0,0.0,0.0,0.0,0.0,0.0,0.0,0.0,0,0,0,0,1,0,0,3,0,0,0,4,1,0,0
95955143,0.32771084,-0.123222746,0.57988167,0.0,0.0,0.0,0.0,0.0,0.0,0.0,0.0,0,0,0,0,1,0,0,3,0,0,0,4,1,0,0
96153807,0.33975902,-0.11848341,0.57988167,0.0,0.0,0.0,0.0,0.0,0.0,0.0,0.0,0,0,0,0,1,0,0,3,0,0,0,4,1,0,0
96354681,0.38072288,-0.1042654,0.57988167,0.0,0.0,0.0,0.0,0.0,0.0,0.0,0.0,0,0,0,0,1,0,0,3,0,0,0,4,1,0,0
96551811,0.38313252,-0.1492891,0.57988167,0.0,0.0,0.0,0.0,0.0,0.0,0.0,0.0,0,0,0,0,1,0,0,3,0,0,0,4,1,0,0
96752026,0.3759036,-0.116113745,0.57988167,0.0,0.0,0.0,0.0,0.0,0.0,0.0,0.0,0,0,0,0,1,0,0,3,0,0,0,4,1,0,0
96953250,0.36385542,-0.16587678,0.57988167,0.0,0.0,0.0,0.0,0.0,0.0,0.0,0.0,0,0,0,0,1,0,0,3,0,0,0,4,1,0,0
97152897,0.36385542,-0.16824645,0.57988167,0.0,0.0,0.0,0.0,0.0,0.0,0.0,0.0,0,0,0,0,1,0,0,3,0,0,0,4,1,0,0
97352966,0.36144578,-0.14454976,0.57988167,0.0,0.0,0.0,0.0,0.0,0.0,0.0,0.0,0,0,0,0,1,0,0,3,0,0,0,4,1,0,0
97554018,0.36385542,-0.13270143,0.57988167,0.0,0.0,0.0,0.0,0.0,0.0,0.0,0.0,0,0,0,0,1,0,0,3,0,0,0,4,1,0,0
97752801,0.38554215,-0.13033175,0.57988167,0.0,0.0,0.0,0.0,0.0,0.0,0.0,0.0,0,0,0,0,1,0,0,3,0,0,0,4,1,0,0
97953643,0.38795182,-0.13033175,0.57988167,0.0,0.0,0.0,0.0,0.0,0.0,0.0,0.0,0,0,0,0,1,0,0,3,0,0,0,4,1,0,0
98154981,0.4120482,-0.09478673,0.57988167,0.0,0.0,0.0,0.0,0.0,0.0,0.0,0.0,0,0,0,0,1,0,0,3,0,0,0,4,1,0,0
98355982,0.41445783,-0.11848341,0.57988167,0.0,0.0,0.0,0.0,0.0,0.0,0.0,0.0,0,0,0,0,1,0,0,3,0,0,0,4,1,0,0
98534815,0.41686746,-0.13507108,0.57988167,0.0,0.0,0.0,0.0,0.0,0.0,0.0,0.0,0,0,0,0,1,0,0,3,0,0,0,4,1,0,0
98735925,0.43373495,-0.10663507,0.57988167,0.0,0.0,0.0,0.0,0.0,0.0,0.0,0.0,0,0,0,0,1,0,0,3,0,0,0,4,1,0,0
98935812,0.45783132,-0.08056872,0.57988167,0.0,0.0,0.0,0.0,0.0,0.0,0.0,0.0,0,0,0,0,1,0,0,3,0,0,0,4,1,0,0
99155210,0.45783132,-0.07582939,0.57988167,0.0,0.0,0.0,0.0,0.0,0.0,0.0,0.0,0,0,0,0,1,0,0,3,0,0,0,4,1,0,0
99334239,0.46024096,-0.087677725,0.57988167,0.0,0.0,0.0,0.0,0.0,0.0,0.0,0.0,0,0,0,0,1,0,0,3,0,0,0,4,1,0,0
99555236,0.47228914,-0.073459715,0.57988167,0.0,0.0,0.0,0.0,0.0,0.0,0.0,0.0,0,0,0,0,1,0,0,3,0,0,0,4,1,0,0
99753797,0.4698795,-0.08293839,0.57988167,0.0,0.0,0.0,0.0,0.0,0.0,0.0,0.0,0,0,0,0,1,0,0,3,0,0,0,4,1,0,0
99954768,0.42891565,-0.11137441,0.57988167,0.0,0.0,0.0,0.0,0.0,0.0,0.0,0.0,0,0,0,0,1,0,0,3,0,0,0,4,1,0,0
100153378,0.39759037,-0.12796208,0.57988167,0.0,0.0,0.0,0.0,0.0,0.0,0.0,0.0,0,0,0,0,1,0,0,3,0,0,0,4,1,0,0
100354719,0.38554215,-0.0521327,0.57988167,0.0,0.0,0.0,0.0,0.0,0.0,0.0,0.0,0,0,0,0,1,0,0,3,0,0,0,4,1,0,0
100553293,0.38554215,-0.0521327,0.57988167,0.0,0.0,0.0,0.0,0.0,0.0,0.0,0.0,0,0,0,0,1,0,0,3,0,0,0,4,1,0,0
100754555,0.40481928,-0.1042654,0.57988167,0.0,0.0,0.0,0.0,0.0,0.0,0.0,0.0,0,0,0,0,1,0,0,3,0,0,0,4,1,0,0
100955513,0.3759036,-0.14691943,0.57988167,0.0,0.0,0.0,0.0,0.0,0.0,0.0,0.0,0,0,0,0,1,0,0,3,0,0,0,4,1,0,0
101154301,0.35903615,-0.16113745,0.57988167,0.0,0.0,0.0,0.0,0.0,0.0,0.0,0.0,0,0,0,0,1,0,0,3,0,0,0,4,1,0,0
101355157,0.36144578,-0.09241706,0.57988167,0.0,0.0,0.0,0.0,0.0,0.0,0.0,0.0,0,0,0,0,1,0,0,3,0,0,0,4,1,0,0
101552511,0.34457833,-0.18483412,0.57988167,0.0,0.0,0.0,0.0,0.0,0.0,0.0,0.0,0,0,0,0,1,0,0,3,0,0,0,4,1,0,0
101752347,0.32771084,-0.21563981,0.57988167,0.0,0.0,0.0,0.0,0.0,0.0,0.0,0.0,0,0,0,0,1,0,0,3,0,0,0,4,1,0,0
101930497,0.31325302,-0.22985782,0.57988167,0.0,0.0,0.0,0.0,0.0,0.0,0.0,0.0,0,0,0,0,1,0,0,3,0,0,0,4,1,0,0
102153365,0.31325302,-0.19668247,0.57988167,0.0,0.0,0.0,0.0,0.0,0.0,0.0,0.0,0,0,0,0,1,0,0,3,0,0,0,4,1,0,0
102353242,0.34698796,-0.1563981,0.57988167,0.0,0.0,0.0,0.0,0.0,0.0,0.0,0.0,0,0,0,0,1,0,0,3,0,0,0,4,1,0,0
102551803,0.34457833,-0.14691943,0.57988167,0.0,0.0,0.0,0.0,0.0,0.0,0.0,0.0,0,0,0,0,1,0,0,3,0,0,0,4,1,0,0
102750393,0.34457833,-0.15402843,0.57988167,0.0,0.0,0.0,0.0,0.0,0.0,0.0,0.0,0,0,0,0,1,0,0,3,0,0,0,4,1,0,0
102952471,0.32289156,-0.16587678,0.57988167,0.0,0.0,0.0,0.0,0.0,0.0,0.0,0.0,0,0,0,0,1,0,0,3,0,0,0,4,1,0,0
103152742,0.31566265,-0.1492891,0.57988167,0.0,0.0,0.0,0.0,0.0,0.0,0.0,0.0,0,0,0,0,1,0,0,3,0,0,0,4,1,0,0
103354094,0.35421687,-0.15402843,0.57988167,0.0,0.0,0.0,0.0,0.0,0.0,0.0,0.0,0,0,0,0,1,0,0,3,0,0,0,4,1,0,0
103552671,0.40481928,-0.1421801,0.57988167,0.0,0.0,0.0,0.0,0.0,0.0,0.0,0.0,0,0,0,0,1,0,0,3,0,0,0,4,1,0,0
103751137,0.4313253,-0.15876777,0.57988167,0.0,0.0,0.0,0.0,0.0,0.0,0.0,0.0,0,0,0,0,1,0,0,3,0,0,0,4,1,0,0
103950807,0.44578314,-0.1563981,0.57988167,0.0,0.0,0.0,0.0,0.0,0.0,0.0,0.0,0,0,0,0,1,0,0,3,0,0,0,4,1,0,0
104149037,0.4433735,-0.14691943,0.57988167,0.0,0.0,0.0,0.0,0.0,0.0,0.0,0.0,0,0,0,0,1,0,0,3,0,0,0,4,1,0,0
104349789,0.4361446,-0.12559241,0.57988167,0.0,0.0,0.0,0.0,0.0,0.0,0.0,0.0,0,0,0,0,1,0,0,3,0,0,0,4,1,0,0
104550556,0.44819278,-0.11848341,0.57988167,0.0,0.0,0.0,0.0,0.0,0.0,0.0,0.0,0,0,0,0,1,0,0,3,0,0,0,4,1,0,0
104751780,0.42168674,-0.109004736,0.57988167,0.0,0.0,0.0,0.0,0.0,0.0,0.0,0.0,0,0,0,0,1,0,0,3,0,0,0,4,1,0,0
104953658,0.4120482,-0.123222746,0.57988167,0.0,0.0,0.0,0.0,0.0,0.0,0.0,0.0,0,0,0,0,1,0,0,3,0,0,0,4,1,0,0
105153978,0.42409638,-0.13981043,0.57988167,0.0,0.0,0.0,0.0,0.0,0.0,0.0,0.0,0,0,0,0,1,0,0,3,0,0,0,4,1,0,0
105355171,0.42409638,-0.13033175,0.57988167,0.0,0.0,0.0,0.0,0.0,0.0,0.0,0.0,0,0,0,0,1,0,0,3,0,0,0,4,1,0,0
105556041,0.42168674,-0.101895735,0.57988167,0.0,0.0,0.0,0.0,0.0,0.0,0.0,0.0,0,0,0,0,1,0,0,3,0,0,0,4,1,0,0
105753329,0.41445783,-0.12796208,0.57988167,0.0,0.0,0.0,0.0,0.0,0.0,0.0,0.0,0,0,0,0,1,0,0,3,0,0,0,4,1,0,0
105951919,0.40722892,-0.1042654,0.57988167,0.0,0.0,0.0,0.0,0.0,0.0,0.0,0.0,0,0,0,0,1,0,0,3,0,0,0,4,1,0,0
106149599,0.4120482,-0.11848341,0.57988167,0.0,0.0,0.0,0.0,0.0,0.0,0.0,0.0,0,0,0,0,1,0,0,3,0,0,0,4,1,0,0
106350489,0.41686746,-0.10663507,0.57988167,0.0,0.0,0.0,0.0,0.0,0.0,0.0,0.0,0,0,0,0,1,0,0,3,0,0,0,4,1,0,0
106552457,0.40481928,-0.123222746,0.57988167,0.0,0.0,0.0,0.0,0.0,0.0,0.0,0.0,0,0,0,0,1,0,0,3,0,0,0,4,1,0,0
106752963,0.38072288,-0.13981043,0.57988167,0.0,0.0,0.0,0.0,0.0,0.0,0.0,0.0,0,0,0,0,1,0,0,3,0,0,0,4,1,0,0
106954092,0.38795182,-0.15876777,0.57988167,0.0,0.0,0.0,0.0,0.0,0.0,0.0,0.0,0,0,0,0,1,0,0,3,0,0,0,4,1,0,0
107152906,0.39759037,-0.123222746,0.57988167,0.0,0.0,0.0,0.0,0.0,0.0,0.0,0.0,0,0,0,0,1,0,0,3,0,0,0,4,1,0,0
107353501,0.40963855,-0.1421801,0.57988167,0.0,0.0,0.0,0.0,0.0,0.0,0.0,0.0,0,0,0,0,1,0,0,3,0,0,0,4,1,0,0
107554982,0.4120482,-0.12085308,0.57988167,0.0,0.0,0.0,0.0,0.0,0.0,0.0,0.0,0,0,0,0,1,0,0,3,0,0,0,4,1,0,0
107750833,0.42168674,-0.116113745,0.57988167,0.0,0.0,0.0,0.0,0.0,0.0,0.0,0.0,0,0,0,0,1,0,0,3,0,0,0,4,1,0,0
107953118,0.41445783,-0.13507108,0.57988167,0.0,0.0,0.0,0.0,0.0,0.0,0.0,0.0,0,0,0,0,1,0,0,3,0,0,0,4,1,0,0
108153146,0.4,-0.13507108,0.57988167,0.0,0.0,0.0,0.0,0.0,0.0,0.0,0.0,0,0,0,0,1,0,0,3,0,0,0,4,1,0,0
108351887,0.3759036,-0.123222746,0.57988167,0.0,0.0,0.0,0.0,0.0,0.0,0.0,0.0,0,0,0,0,1,0,0,3,0,0,0,4,1,0,0
108553679,0.30361447,-0.09952607,0.57988167,0.0,0.0,0.0,0.0,0.0,0.0,0.0,0.0,0,0,0,0,1,0,0,3,0,0,0,4,1,0,0
108752573,0.25783134,-0.11848341,0.57988167,0.0,0.0,0.0,0.0,0.0,0.0,0.0,0.0,0,0,0,0,1,0,0,3,0,0,0,4,1,0,0
108952519,0.31325302,-0.13033175,0.57988167,0.0,0.0,0.0,0.0,0.0,0.0,0.0,0.0,0,0,0,0,1,0,0,3,0,0,0,4,1,0,0
109153833,0.30361447,-0.12085308,0.57988167,0.0,0.0,0.0,0.0,0.0,0.0,0.0,0.0,0,0,0,0,1,0,0,3,0,0,0,4,1,0,0
109354694,0.31566265,-0.13981043,0.57988167,0.0,0.0,0.0,0.0,0.0,0.0,0.0,0.0,0,0,0,0,1,0,0,3,0,0,0,4,1,0,0
109556077,0.3253012,-0.13033175,0.57988167,0.0,0.0,0.0,0.0,0.0,0.0,0.0,0.0,0,0,0,0,1,0,0,3,0,0,0,4,1,0,0
109754598,0.3325301,-0.1492891,0.57988167,0.0,0.0,0.0,0.0,0.0,0.0,0.0,0.0,0,0,0,0,1,0,0,3,0,0,0,4,1,0,0
109955553,0.33975902,-0.16824645,0.57988167,0.0,0.0,0.0,0.0,0.0,0.0,0.0,0.0,0,0,0,0,1,0,0,3,0,0,0,4,1,0,0
110151863,0.35180724,-0.1872038,0.57988167,0.0,0.0,0.0,0.0,0.0,0.0,0.0,0.0,0,0,0,0,1,0,0,3,0,0,0,4,1,0,0
110352798,0.33734939,-0.18483412,0.57988167,0.0,0.0,0.0,0.0,0.0,0.0,0.0,0.0,0,0,0,0,1,0,0,3,0,0,0,4,1,0,0
110554231,0.32289156,-0.18246445,0.57988167,0.0,0.0,0.0,0.0,0.0,0.0,0.0,0.0,0,0,0,0,1,0,0,3,0,0,0,4,1,0,0
110752822,0.33975902,-0.17772512,0.57988167,0.0,0.0,0.0,0.0,0.0,0.0,0.0,0.0,0,0,0,0,1,0,0,3,0,0,0,4,1,0,0
110953706,0.34457833,-0.17061612,0.57988167,0.0,0.0,0.0,0.0,0.0,0.0,0.0,0.0,0,0,0,0,1,0,0,3,0,0,0,4,1,0,0
111132652,0.3325301,-0.1563981,0.57988167,0.0,0.0,0.0,0.0,0.0,0.0,0.0,0.0,0,0,0,0,1,0,0,3,0,0,0,4,1,0,0
111353665,0.3421687,-0.17772512,0.57988167,0.0,0.0,0.0,0.0,0.0,0.0,0.0,0.0,0,0,0,0,1,0,0,3,0,0,0,4,1,0,0
111554416,0.33975902,-0.18483412,0.57988167,0.0,0.0,0.0,0.0,0.0,0.0,0.0,0.0,0,0,0,0,1,0,0,3,0,0,0,4,1,0,0
111733568,0.3325301,-0.15876777,0.57988167,0.0,0.0,0.0,0.0,0.0,0.0,0.0,0.0,0,0,0,0,1,0,0,3,0,0,0,4,1,0,0
111951781,0.33734939,-0.17772512,0.57988167,0.0,0.0,0.0,0.0,0.0,0.0,0.0,0.0,0,0,0,0,1,0,0,3,0,0,0,4,1,0,0
112153247,0.33734939,-0.21090047,0.57988167,0.0,0.0,0.0,0.0,0.0,0.0,0.0,0.0,0,0,0,0,1,0,0,3,0,0,0,4,1,0,0
112353977,0.32048193,-0.22748815,0.57988167,0.0,0.0,0.0,0.0,0.0,0.0,0.0,0.0,0,0,0,0,1,0,0,3,0,0,0,4,1,0,0
112555320,0.32048193,-0.20616114,0.57988167,0.0,0.0,0.0,0.0,0.0,0.0,0.0,0.0,0,0,0,0,1,0,0,3,0,0,0,4,1,0,0
112754052,0.32048193,-0.17535545,0.57988167,0.0,0.0,0.0,0.0,0.0,0.0,0.0,0.0,0,0,0,0,1,0,0,3,0,0,0,4,1,0,0
112952778,0.33734939,-0.13744076,0.57988167,0.0,0.0,0.0,0.0,0.0,0.0,0.0,0.0,0,0,0,0,1,0,0,3,0,0,0,4,1,0,0
113151040,0.3421687,-0.15876777,0.57988167,0.0,0.0,0.0,0.0,0.0,0.0,0.0,0.0,0,0,0,0,1,0,0,3,0,0,0,4,1,0,0
113352121,0.3566265,-0.16113745,0.57988167,0.0,0.0,0.0,0.0,0.0,0.0,0.0,0.0,0,0,0,0,1,0,0,3,0,0,0,4,1,0,0
113550700,0.38072288,-0.17061612,0.57988167,0.0,0.0,0.0,0.0,0.0,0.0,0.0,0.0,0,0,0,0,1,0,0,3,0,0,0,4,1,0,0
113752076,0.39759037,-0.18246445,0.57988167,0.0,0.0,0.0,0.0,0.0,0.0,0.0,0.0,0,0,0,0,1,0,0,3,0,0,0,4,1,0,0
113953138,0.38554215,-0.1872038,0.57988167,0.0,0.0,0.0,0.0,0.0,0.0,0.0,0.0,0,0,0,0,1,0,0,3,0,0,0,4,1,0,0
114154264,0.3759036,-0.15876777,0.57988167,0.0,0.0,0.0,0.0,0.0,0.0,0.0,0.0,0,0,0,0,1,0,0,3,0,0,0,4,1,0,0
114355161,0.36385542,-0.1872038,0.57988167,0.0,0.0,0.0,0.0,0.0,0.0,0.0,0.0,0,0,0,0,1,0,0,3,0,0,0,4,1,0,0
114533971,0.38072288,-0.1492891,0.57988167,0.0,0.0,0.0,0.0,0.0,0.0,0.0,0.0,0,0,0,0,1,0,0,3,0,0,0,4,1,0,0
114733852,0.42409638,-0.12796208,0.57988167,0.0,0.0,0.0,0.0,0.0,0.0,0.0,0.0,0,0,0,0,1,0,0,3,0,0,0,4,1,0,0
114955980,0.42409638,-0.1421801,0.57988167,0.0,0.0,0.0,0.0,0.0,0.0,0.0,0.0,0,0,0,0,1,0,0,3,0,0,0,4,1,0,0
115154594,0.4,-0.13033175,0.57988167,0.0,0.0,0.0,0.0,0.0,0.0,0.0,0.0,0,0,0,0,1,0,0,3,0,0,0,4,1,0,0
115355984,0.3927711,-0.1492891,0.57988167,0.0,0.0,0.0,0.0,0.0,0.0,0.0,0.0,0,0,0,0,1,0,0,3,0,0,0,4,1,0,0
115536046,0.37108433,-0.20616114,0.57988167,0.0,0.0,0.0,0.0,0.0,0.0,0.0,0.0,0,0,0,0,1,0,0,3,0,0,0,4,1,0,0
115735596,0.38554215,-0.18957347,0.57988167,0.0,0.0,0.0,0.0,0.0,0.0,0.0,0.0,0,0,0,0,1,0,0,3,0,0,0,4,1,0,0
115934174,0.40481928,-0.1872038,0.57988167,0.0,0.0,0.0,0.0,0.0,0.0,0.0,0.0,0,0,0,0,1,0,0,3,0,0,0,4,1,0,0
116136149,0.40240964,-0.19194312,0.57988167,0.0,0.0,0.0,0.0,0.0,0.0,0.0,0.0,0,0,0,0,1,0,0,3,0,0,0,4,1,0,0
116336374,0.40722892,-0.14454976,0.57988167,0.0,0.0,0.0,0.0,0.0,0.0,0.0,0.0,0,0,0,0,1,0,0,3,0,0,0,4,1,0,0
116537810,0.42168674,-0.047393367,0.57988167,0.0,0.0,0.0,0.0,0.0,0.0,0.0,0.0,0,0,0,0,1,0,0,3,0,0,0,4,1,0,0
121741641,0.41445783,-0.0521327,0.3195266,0.0,0.0,0.0,0.0,0.0,0.0,0.0,0.0,0,0,0,0,1,0,0,3,0,0,0,4,1,0,0
121940324,0.4433735,-0.0521327,0.36449704,0.0,0.0,0.0,0.0,0.0,0.0,0.0,0.0,0,0,0,0,1,0,0,3,0,0,0,4,1,0,0
122139755,0.42409638,-0.047393367,0.35502958,0.0,0.0,0.0,0.0,0.0,0.0,0.0,0.0,0,0,0,0,1,0,0,3,0,0,0,4,1,0,0
122340065,0.44819278,-0.054502368,0.26863906,0.0,0.0,0.0,0.0,0.0,0.0,0.0,0.0,0,0,0,0,1,0,0,3,0,0,0,4,1,0,0
122536277,0.47228914,-0.049763035,0.24260356,-0.013824885,0.0,0.0,0.0,0.0,0.0,0.0,0.0,0,0,0,0,1,0,0,3,0,0,0,4,1,0,0
122737045,0.48192772,-0.0521327,0.21183433,0.0,0.0,0.0,0.0,0.0,0.0,0.0,0.0,0,0,0,0,1,0,0,3,0,0,0,4,1,0,0
122935829,0.4698795,-0.0521327,0.21301775,0.0,0.0,0.0,0.0,0.0,0.0,0.0,0.0,0,0,0,0,1,0,0,3,0,0,0,4,1,0,0
123137121,0.4698795,-0.0521327,0.21301775,0.0,0.0,0.0,0.0,0.0,0.0,0.0,0.0,0,0,0,0,1,0,0,3,0,0,0,4,1,0,0
123337889,0.48433736,-0.0521327,0.21656805,-0.00921659,0.0,0.0,0.0,0.0,0.0,0.0,0.0,0,0,0,0,1,0,0,3,0,0,0,4,1,0,0
123539311,0.4939759,-0.0521327,0.21538462,0.0,0.0,0.0,0.0,0.0,0.0,0.0,0.0,0,0,0,0,1,0,0,3,0,0,0,4,1,0,0
123740147,0.48192772,-0.0521327,0.17988166,0.0,0.0,0.0,0.0,0.0,0.0,0.0,0.0,0,0,0,0,1,0,0,3,0,0,0,4,1,0,0
123941932,0.47469878,-0.0521327,0.17869823,0.0,0.0,0.0,0.0,0.0,0.0,0.0,0.0,0,0,0,0,1,0,0,3,0,0,0,4,1,0,0
124142419,0.4433735,-0.0521327,0.17751479,-0.0023041475,0.0,0.0,0.0,0.0,0.0,0.0,0.0,0,0,0,0,1,0,0,3,0,0,0,4,1,0,0
124343925,0.44578314,-0.0521327,0.17751479,0.0,0.0,0.0,0.0,0.0,0.0,0.0,0.0,0,0,0,0,1,0,0,3,0,0,0,4,1,0,0
124543302,0.4698795,-0.054502368,0.17869823,0.0,0.0,0.0,0.0,0.0,0.0,0.0,0.0,0,0,0,0,1,0,0,3,0,0,0,4,1,0,0
124743198,0.47710842,-0.059241705,0.21065089,0.0,0.0,0.0,0.0,0.0,0.0,0.0,0.0,0,0,0,0,1,0,0,3,0,0,0,4,1,0,0
124944492,0.50843376,-0.06635071,0.22485207,0.0,0.0,0.0,0.0,0.0,0.0,0.0,0.0,0,0,0,0,1,0,0,3,0,0,0,4,1,0,0
125143345,0.5301205,-0.059241705,0.22485207,0.0,0.0,0.0,0.0,0.0,0.0,0.0,0.0,0,0,0,0,1,0,0,3,0,0,0,4,1,0,0
125342069,0.5445783,-0.061611373,0.2366864,-0.0023041475,0.0,0.0,0.0,0.0,0.0,0.0,0.0,0,0,0,0,1,0,0,3,0,0,0,4,1,0,0
125542918,0.5373494,-0.056872036,0.17278107,0.0,0.0,0.0,0.0,0.0,0.0,0.0,0.0,0,0,0,0,1,0,0,3,0,0,0,4,1,0,0
125744773,0.53975904,-0.07109005,0.1739645,-0.00921659,0.0,0.0,0.0,0.0,0.0,0.0,0.0,0,0,0,0,1,0,0,3,0,0,0,4,1,0,0
125943425,0.5253012,-0.0521327,0.14674556,-0.004608295,0.0,0.0,0.0,0.0,0.0,0.0,0.0,0,0,0,0,1,0,0,3,0,0,0,4,1,0,0
126143769,0.5301205,-0.0521327,0.043786984,0.0,0.0,0.0,0.0,0.0,0.0,0.0,0.0,0,0,0,0,1,0,0,3,0,0,0,4,1,0,0
126344825,0.5301205,-0.049763035,0.033136096,0.0,0.0,0.0,0.0,0.0,0.0,0.0,0.0,0,0,0,0,1,0,0,3,0,0,0,4,1,0,0
126545905,0.5445783,-0.06635071,-0.0,0.0,0.0,0.0,0.0,0.0,0.0,0.0,0.0,0,0,0,0,1,0,0,3,0,0,0,4,1,0,0
126747174,0.5301205,-0.07582939,-0.0,0.0,0.0,0.0,0.0,0.0,0.0,0.0,0.0,0,0,0,0,1,0,0,3,0,0,0,4,1,0,0
126945891,0.48915663,-0.061611373,0.12189349,-0.0069124424,0.0,0.0,0.0,0.0,0.0,0.0,0.0,0,0,0,0,1,0,0,3,0,0,0,4,1,0,0
127144295,0.3325301,-0.109004736,0.12189349,-0.013824885,0.0,0.0,0.0,0.0,0.0,0.0,0.0,0,0,0,0,1,0,0,3,0,0,0,4,1,0,0
127342982,0.32048193,-0.11848341,0.13017751,-0.00921659,0.0,0.0,0.0,0.0,0.0,0.0,0.0,0,0,0,0,1,0,0,3,0,0,0,4,1,0,0
127541696,0.3325301,-0.16824645,0.147929,0.0,0.0,0.0,0.0,0.0,0.0,0.0,0.0,0,0,0,0,1,0,0,3,0,0,0,4,1,0,0
127740273,0.3325301,-0.1492891,0.15029585,0.0,0.0,0.0,0.0,0.0,0.0,0.0,0.0,0,0,0,0,1,0,0,3,0,0,0,4,1,0,0
127939467,0.33012047,-0.17061612,0.15029585,0.0,0.0,0.0,0.0,0.0,0.0,0.0,0.0,0,0,0,0,1,0,0,3,0,0,0,4,1,0,0
128139891,0.35903615,-0.1421801,0.14437869,-0.0023041475,0.0,0.0,0.0,0.0,0.0,0.0,0.0,0,0,0,0,1,0,0,3,0,0,0,4,1,0,0
128339618,0.32048193,-0.1635071,0.147929,0.0,0.0,0.0,0.0,0.0,0.0,0.0,0.0,0,0,0,0,1,0,0,3,0,0,0,4,1,0,0
128546891,0.2433735,-0.0900474,0.147929,-0.004608295,0.0,0.0,0.0,0.0,0.0,0.0,0.0,0,0,0,0,1,0,0,3,0,0,0,4,1,0,0
128740583,0.18313253,-0.056872036,0.147929,0.0,0.0,0.0,0.0,0.0,0.0,0.0,0.0,0,0,0,0,1,0,0,3,0,0,0,4,1,0,0
128942441,0.084337346,-0.054502368,0.14911243,0.0,0.0,0.0,0.0,0.0,0.0,0.0,0.0,0,0,0,0,1,0,0,3,0,0,0,4,1,0,0
129142810,0.07951807,-0.07582939,0.147929,-0.004608295,0.0,0.0,0.0,0.0,0.0,0.0,0.0,0,0,0,0,1,0,0,3,0,0,0,4,1,0,0
129344296,0.072289154,-0.06398104,0.147929,-0.013824885,0.0,0.0,0.0,0.0,0.0,0.0,0.0,0,0,0,0,1,0,0,3,0,0,0,4,1,0,0
129545220,-0.0,-0.054502368,0.14911243,-0.0069124424,0.0,0.0,0.0,0.0,0.0,0.0,0.0,0,0,0,0,1,0,0,3,0,0,0,4,1,0,0
129746469,-0.0,-0.054502368,0.14911243,0.0,0.0,0.0,0.0,0.0,0.0,0.0,0.0,0,0,0,0,1,0,0,3,0,0,0,4,1,0,0
129947272,-0.0,-0.056872036,0.14911243,-0.0069124424,0.0,0.0,0.0,0.0,0.0,0.0,0.0,0,0,0,0,1,0,0,3,0,0,0,4,1,0,0
130148626,-0.0,-0.056872036,0.14911243,0.0,0.0,0.0,0.0,0.0,0.0,0.0,0.0,0,0,0,0,1,0,0,3,0,0,0,4,1,0,0
130344520,-0.0,-0.056872036,0.14911243,0.0,0.0,0.0,0.0,0.0,0.0,0.0,0.0,0,0,0,0,1,0,0,3,0,0,0,4,1,0,0
130543077,-0.0,-0.056872036,0.14911243,0.0,0.0,0.0,0.0,0.0,0.0,0.0,0.0,0,0,0,0,1,0,0,3,0,0,0,4,1,0,0
130740166,-0.0,-0.056872036,0.14911243,-0.00921659,0.0,0.0,0.0,0.0,0.0,0.0,0.0,0,0,0,0,1,0,0,3,0,0,0,4,1,0,0
130940407,-0.0,-0.056872036,0.14911243,0.0,0.0,0.0,0.0,0.0,0.0,0.0,0.0,0,0,0,0,1,0,0,3,0,0,0,4,1,0,0
131139148,-0.0,-0.056872036,0.14911243,0.0,0.0,0.0,0.0,0.0,0.0,0.0,0.0,0,0,0,0,1,0,0,3,0,0,0,4,1,0,0
131340724,-0.0,-0.056872036,0.14911243,0.0,0.0,0.0,0.0,0.0,0.0,0.0,0.0,0,0,0,0,1,0,0,3,0,0,0,4,1,0,0
131541156,-0.0,-0.07582939,0.14911243,-0.004608295,0.0,0.0,0.0,0.0,0.0,0.0,0.0,0,0,0,0,1,0,0,3,0,0,0,4,1,0,0
131743120,-0.0,-0.056872036,0.0591716,-0.013824885,0.0,0.0,0.0,0.0,0.0,0.0,0.0,0,0,0,0,1,0,0,3,0,0,0,4,1,0,0
131943145,-0.0,-0.056872036,0.057988167,0.0,0.0,0.0,0.0,0.0,0.0,0.0,0.0,0,0,0,0,1,0,0,3,0,0,0,4,1,0,0
132141390,-0.0,-0.06872038,0.049704142,0.0,0.0,0.0,0.0,0.0,0.0,0.0,0.0,0,0,0,0,1,0,0,3,0,0,0,4,1,0,0
132338633,-0.0,-0.056872036,0.082840234,-0.013824885,0.0,0.0,0.0,0.0,0.0,0.0,0.0,0,0,0,0,1,0,0,3,0,0,0,4,1,0,0
132537052,-0.0,-0.0521327,0.1964497,0.0,0.0,0.0,0.0,0.0,0.0,0.0,0.0,0,0,0,0,1,0,0,3,0,0,0,4,1,0,0
132736974,0.09638554,-0.0900474,0.25443786,0.0,0.0,0.0,0.0,0.0,0.0,0.0,0.0,0,0,0,0,1,0,0,3,0,0,0,4,1,0,0
132934338,0.08192771,-0.07582939,0.25325444,-0.011520738,0.0,0.0,0.0,0.0,0.0,0.0,0.0,0,0,0,0,1,0,0,3,0,0,0,4,1,0,0
133157735,0.091566265,-0.073459715,0.1739645,-0.011520738,0.0,0.0,0.0,0.0,0.0,0.0,0.0,0,0,0,0,1,0,0,3,0,0,0,4,1,0,0
133356346,0.0746988,-0.059241705,0.105325446,0.0,0.0,0.0,0.0,0.0,0.0,0.0,0.0,0,0,0,0,1,0,0,3,0,0,0,4,1,0,0
133555097,0.026506023,-0.0521327,0.09349112,0.0,0.0,0.0,0.0,0.0,0.0,0.0,0.0,0,0,0,0,1,0,0,3,0,0,0,4,1,0,0
133753738,0.038554218,-0.0521327,0.09349112,-0.0023041475,0.0,0.0,0.0,0.0,0.0,0.0,0.0,0,0,0,0,1,0,0,3,0,0,0,4,1,0,0
133952585,0.06506024,-0.0521327,0.10887574,0.0,0.0,0.0,0.0,0.0,0.0,0.0,0.0,0,0,0,0,1,0,0,3,0,0,0,4,1,0,0
134150838,0.17108434,-0.09241706,0.147929,0.0,0.0,0.0,0.0,0.0,0.0,0.0,0.0,0,0,0,0,1,0,0,3,0,0,0,4,1,0,0
134351913,0.24096386,-0.087677725,0.147929,0.0,0.0,0.0,0.0,0.0,0.0,0.0,0.0,0,0,0,0,1,0,0,3,0,0,0,4,1,0,0
134553848,0.25301206,-0.0521327,0.147929,-0.00921659,0.0,0.0,0.0,0.0,0.0,0.0,0.0,0,0,0,0,1,0,0,3,0,0,0,4,1,0,0
134752960,0.22409639,-0.0521327,0.1704142,0.0,0.0,0.0,0.0,0.0,0.0,0.0,0.0,0,0,0,0,1,0,0,3,0,0,0,4,1,0,0
134952703,0.2554217,-0.0521327,0.16923077,0.0,0.0,0.0,0.0,0.0,0.0,0.0,0.0,0,0,0,0,1,0,0,3,0,0,0,4,1,0,0
135151324,0.29638556,-0.0521327,0.16804734,-0.011520738,0.0,0.0,0.0,0.0,0.0,0.0,0.0,0,0,0,0,1,0,0,3,0,0,0,4,1,0,0
135350023,0.31325302,-0.0521327,0.16804734,0.0,0.0,0.0,0.0,0.0,0.0,0.0,0.0,0,0,0,0,1,0,0,3,0,0,0,4,1,0,0
135552017,0.35180724,-0.059241705,0.1668639,0.0,0.0,0.0,0.0,0.0,0.0,0.0,0.0,0,0,0,0,1,0,0,3,0,0,0,4,1,0,0
135752243,0.35421687,-0.0521327,0.16449705,-0.013824885,0.0,0.0,0.0,0.0,0.0,0.0,0.0,0,0,0,0,1,0,0,3,0,0,0,4,1,0,0
135948496,0.3493976,-0.0521327,0.32544377,0.0,0.0,0.0,0.0,0.0,0.0,0.0,0.0,0,0,0,0,1,0,0,3,0,0,0,4,1,0,0
136149439,0.3493976,-0.0521327,0.42485207,0.0,0.0,0.0,0.0,0.0,0.0,0.0,0.0,0,0,0,0,1,0,0,3,0,0,0,4,1,0,0
136351493,0.33975902,-0.0521327,0.452071,0.0,0.0,0.0,0.0,0.0,0.0,0.0,0.0,0,0,0,0,1,0,0,3,0,0,0,4,1,0,0
136551783,0.35903615,-0.06872038,0.44970414,-0.013824885,0.0,0.0,0.0,0.0,0.0,0.0,0.0,0,0,0,0,1,0,0,3,0,0,0,4,1,0,0
136752914,0.35421687,-0.116113745,0.44970414,0.0,0.0,0.0,0.0,0.0,0.0,0.0,0.0,0,0,0,0,1,0,0,3,0,0,0,4,1,0,0
136953880,0.39518073,-0.06398104,0.44970414,0.0,0.0,0.0,0.0,0.0,0.0,0.0,0.0,0,0,0,0,1,0,0,3,0,0,0,4,1,0,0
137132586,0.37831324,-0.0521327,0.47573966,-0.00921659,0.0,0.0,0.0,0.0,0.0,0.0,0.0,0,0,0,0,1,0,0,3,0,0,0,4,1,0,0
137353813,0.3927711,-0.0521327,0.4698225,-0.0023041475,0.0,0.0,0.0,0.0,0.0,0.0,0.0,0,0,0,0,1,0,0,3,0,0,0,4,1,0,0
137552484,0.36144578,-0.09241706,0.4698225,0.0,0.0,0.0,0.0,0.0,0.0,0.0,0.0,0,0,0,0,1,0,0,3,0,0,0,4,1,0,0
137753239,0.36626506,-0.11137441,0.4698225,0.0,0.0,0.0,0.0,0.0,0.0,0.0,0.0,0,0,0,0,1,0,0,3,0,0,0,4,1,0,0
137954595,0.3759036,-0.10663507,0.47573966,0.0,0.0,0.0,0.0,0.0,0.0,0.0,0.0,0,0,0,0,1,0,0,3,0,0,0,4,1,0,0
138155510,0.3686747,-0.1042654,0.53609467,-0.0023041475,0.0,0.0,0.0,0.0,0.0,0.0,0.0,0,0,0,0,1,0,0,3,0,0,0,4,1,0,0
138334429,0.37349397,-0.09478673,0.5704142,0.0,0.0,0.0,0.0,0.0,0.0,0.0,0.0,0,0,0,0,1,0,0,3,0,0,0,4,1,0,0
138535698,0.37108433,-0.09478673,0.56804734,0.0,0.0,0.0,0.0,0.0,0.0,0.0,0.0,0,0,0,0,1,0,0,3,0,0,0,4,1,0,0
138735671,0.37831324,-0.08056872,0.5704142,0.0,0.0,0.0,0.0,0.0,0.0,0.0,0.0,0,0,0,0,1,0,0,3,0,0,0,4,1,0,0
138935160,0.3927711,-0.073459715,0.59053254,-0.0023041475,0.0,0.0,0.0,0.0,0.0,0.0,0.0,0,0,0,0,1,0,0,3,0,0,0,4,1,0,0
139156346,0.3927711,-0.101895735,0.6177515,0.0,0.0,0.0,0.0,0.0,0.0,0.0,0.0,0,0,0,0,1,0,0,3,0,0,0,4,1,0,0
139354947,0.4120482,-0.0971564,0.6142012,0.0,0.0,0.0,0.0,0.0,0.0,0.0,0.0,0,0,0,0,1,0,0,3,0,0,0,4,1,0,0
139533702,0.39759037,-0.11137441,0.61183435,0.0,0.0,0.0,0.0,0.0,0.0,0.0,0.0,0,0,0,0,1,0,0,3,0,0,0,4,1,0,0
139734522,0.3325301,-0.2085308,0.61183435,-0.0069124424,0.0,0.0,0.0,0.0,0.0,0.0,0.0,0,0,0,0,1,0,0,3,0,0,0,4,1,0,0
139958051,0.32048193,-0.2014218,0.608284,0.0,0.0,0.0,0.0,0.0,0.0,0.0,0.0,0,0,0,0,1,0,0,3,0,0,0,4,1,0,0
140156636,0.35180724,-0.13033175,0.608284,0.0,0.0,0.0,0.0,0.0,0.0,0.0,0.0,0,0,0,0,1,0,0,3,0,0,0,4,1,0,0
140335412,0.37108433,-0.087677725,0.60946745,0.0,0.0,0.0,0.0,0.0,0.0,0.0,0.0,0,0,0,0,1,0,0,3,0,0,0,4,1,0,0
140556615,0.38072288,-0.07819905,0.61183435,0.0,0.0,0.0,0.0,0.0,0.0,0.0,0.0,0,0,0,0,1,0,0,3,0,0,0,4,1,0,0
140755219,0.40722892,-0.10663507,0.61183435,-0.00921659,0.0,0.0,0.0,0.0,0.0,0.0,0.0,0,0,0,0,1,0,0,3,0,0,0,4,1,0,0
140951360,0.42891565,-0.13033175,0.61301774,0.0,0.0,0.0,0.0,0.0,0.0,0.0,0.0,0,0,0,0,1,0,0,3,0,0,0,4,1,0,0
141149812,0.42168674,-0.123222746,0.61538464,-0.004608295,0.0,0.0,0.0,0.0,0.0,0.0,0.0,0,0,0,0,1,0,0,3,0,0,0,4,1,0,0
141346451,0.42409638,-0.1042654,0.54674554,-0.00921659,0.0,0.0,0.0,0.0,0.0,0.0,0.0,0,0,0,0,1,0,0,3,0,0,0,4,1,0,0
141547233,0.41686746,-0.11137441,0.4934911,-0.00921659,0.0,0.0,0.0,0.0,0.0,0.0,0.0,0,0,0,0,1,0,0,3,0,0,0,4,1,0,0
141745845,0.42891565,-0.12559241,0.4934911,0.0,0.0,0.0,0.0,0.0,0.0,0.0,0.0,0,0,0,0,1,0,0,3,0,0,0,4,1,0,0
141944347,0.42409638,-0.16587678,0.4923077,-0.00921659,0.0,0.0,0.0,0.0,0.0,0.0,0.0,0,0,0,0,1,0,0,3,0,0,0,4,1,0,0
142145584,0.42168674,-0.13033175,0.4934911,-0.00921659,0.0,0.0,0.0,0.0,0.0,0.0,0.0,0,0,0,0,1,0,0,3,0,0,0,4,1,0,0
142346616,0.43855423,-0.13507108,0.4934911,-0.004608295,0.0,0.0,0.0,0.0,0.0,0.0,0.0,0,0,0,0,1,0,0,3,0,0,0,4,1,0,0
142548497,0.4361446,-0.11848341,0.4934911,0.0,0.0,0.0,0.0,0.0,0.0,0.0,0.0,0,0,0,0,1,0,0,3,0,0,0,4,1,0,0
142748909,0.43855423,-0.116113745,0.4934911,-0.004608295,0.0,0.0,0.0,0.0,0.0,0.0,0.0,0,0,0,0,1,0,0,3,0,0,0,4,1,0,0
142950769,0.44578314,-0.0900474,0.49467456,0.0,0.0,0.0,0.0,0.0,0.0,0.0,0.0,0,0,0,0,1,0,0,3,0,0,0,4,1,0,0
143150893,0.47710842,-0.116113745,0.4934911,0.0,0.0,0.0,0.0,0.0,0.0,0.0,0.0,0,0,0,0,1,0,0,3,0,0,0,4,1,0,0
143353311,0.49638554,-0.10663507,0.49467456,0.0,0.0,0.0,0.0,0.0,0.0,0.0,0.0,0,0,0,0,1,0,0,3,0,0,0,4,1,0,0
143553141,0.48192772,-0.10663507,0.49585798,-0.00921659,0.0,0.0,0.0,0.0,0.0,0.0,0.0,0,0,0,0,1,0,0,3,0,0,0,4,1,0,0
143755399,0.47710842,-0.1042654,0.49585798,0.0,0.0,0.0,0.0,0.0,0.0,0.0,0.0,0,0,0,0,1,0,0,3,0,0,0,4,1,0,0
143933920,0.4698795,-0.1042654,0.49467456,0.0,0.0,0.0,0.0,0.0,0.0,0.0,0.0,0,0,0,0,1,0,0,3,0,0,0,4,1,0,0
144156722,0.46506023,-0.08293839,0.4934911,0.0,0.0,0.0,0.0,0.0,0.0,0.0,0.0,0,0,0,0,1,0,0,3,0,0,0,4,1,0,0
144357625,0.4698795,-0.09952607,0.49467456,0.0,0.0,0.0,0.0,0.0,0.0,0.0,0.0,0,0,0,0,1,0,0,3,0,0,0,4,1,0,0
144536389,0.47228914,-0.09478673,0.49467456,0.0,0.0,0.0,0.0,0.0,0.0,0.0,0.0,0,0,0,0,1,0,0,3,0,0,0,4,1,0,0
144737733,0.4626506,-0.1421801,0.49585798,-0.00921659,0.0,0.0,0.0,0.0,0.0,0.0,0.0,0,0,0,0,1,0,0,3,0,0,0,4,1,0,0
