timestamp,lat,lon,alt,alt_ellipsoid,delta_alt,eph,epv,terrain_alt,lat_lon_reset_counter,alt_reset_counter,terrain_alt_valid,dead_reckoning
26351376,34.03474119765332,108.75704724328818,424.56097,396.0852,-0.0,1.0874933,1.6778522,424.479,2,0,1,0
26361307,34.034741199661845,108.75704725074401,424.56094,396.08517,-0.0,1.0877483,1.6780267,424.47824,2,0,1,0
26748623,34.03474120900176,108.75704747804225,424.56348,396.04892,-0.0,1.0871621,1.6779821,424.48175,2,0,1,0
26957178,34.034741173747115,108.7570475673887,424.56174,396.02728,-0.0,1.0872375,1.6779175,424.4717,2,0,1,0
27146045,34.03474115902511,108.7570476769412,424.55753,396.00305,-0.0,1.0868145,1.6775091,424.48334,2,0,1,0
27349463,34.03474112164508,108.7570478115912,424.56125,395.98676,-0.0,1.0866534,1.6772743,424.4918,2,0,1,0
27553050,34.03474108839225,108.75704792632588,424.56674,395.97217,-0.0,1.0865004,1.6776448,424.48697,2,0,1,0
27751673,34.03474105957541,108.75704805941182,424.5694,395.95483,-0.0,1.0863767,1.6774188,424.4953,2,0,1,0
27950466,34.03474102970445,108.75704821902282,424.57742,395.94275,-0.0,1.0862632,1.6771941,424.48996,2,0,1,0
28148921,34.03474100577412,108.75704835017892,424.58838,395.93362,-0.0,1.0861236,1.6775633,424.48996,2,0,1,0
28357476,34.03474092535189,108.7570484463822,424.60843,395.93378,-0.0,1.0862315,1.6774986,424.48996,2,0,1,0
28556100,34.03474088095137,108.75704848965954,424.62405,395.92938,-0.0,1.0860981,1.6772708,424.48996,2,0,1,0
28754973,34.03474083837445,108.75704853332303,424.6346,395.92044,-0.0,1.0860002,1.6770439,424.48996,2,0,1,0
28948383,34.034740777983394,108.7570486065524,424.64377,395.9091,-0.0,1.0856309,1.6772449,424.48996,2,0,1,0
29147006,34.03474070124454,108.75704870032453,424.65814,395.90347,-0.0,1.0855327,1.677021,424.48996,2,0,1,0
29350596,34.034740666908384,108.75704883998561,424.6674,395.89273,-0.0,1.0854493,1.6767963,424.48996,2,0,1,0
29549360,34.03474064177787,108.75704894257066,424.6728,395.87833,-0.0,1.0853983,1.6765743,424.48996,2,0,1,0
29747843,34.034740622870224,108.75704906212238,424.67386,395.8592,-0.0,1.0853267,1.6769391,424.48996,2,0,1,0
29951433,34.03474058951716,108.75704921262131,424.6719,395.83725,-0.0,1.0852541,1.6767163,424.48996,2,0,1,0
30150057,34.03474057098714,108.75704939178445,424.66907,395.81473,-0.0,1.0852164,1.6764998,424.48996,2,0,1,0
30348780,34.03474051715262,108.7570495330319,424.67188,395.7972,-0.0,1.0851414,1.6768602,424.48996,2,0,1,0
30552279,34.03474046128975,108.75704963703127,424.67072,395.77603,-0.0,1.0850703,1.6766369,424.48996,2,0,1,0
30750919,34.03474044273213,108.75704970318063,424.66925,395.7537,-0.0,1.0849924,1.6764112,424.48996,2,0,1,0
30949519,34.03474043453799,108.75704975790417,424.66705,395.7324,-0.0,1.084917,1.6767638,424.48996,2,0,1,0
31148212,34.03474043215744,108.75704984820146,424.6644,395.7094,-0.0,1.0848345,1.6765373,424.48996,2,0,1,0
31356698,34.03474034624752,108.75705000496507,424.6621,395.6891,-0.0,1.0850426,1.6764659,424.48996,2,0,1,0
31555344,34.03474025225227,108.75705014496897,424.66394,395.67212,-0.0,1.0849465,1.6762394,424.48996,2,0,1,0
31748980,34.03474019120001,108.75705028981517,424.66272,395.65256,-0.0,1.0845866,1.6764358,424.48996,2,0,1,0
31947604,34.03474011941601,108.75705045661064,424.66275,395.63577,-0.0,1.0845128,1.6762115,424.48996,2,0,1,0
32151212,34.03474001283889,108.75705063686952,424.66214,395.61847,-0.0,1.0844021,1.6759914,424.48996,2,0,1,0
32349819,34.0347399026588,108.75705078111024,424.6628,395.60214,-0.0,1.0842657,1.6757736,424.48996,2,0,1,0
32548443,34.03473988880892,108.75705088903528,424.66223,395.5868,-0.0,1.0841845,1.6761205,424.48996,2,0,1,0
32747068,34.03473989876983,108.75705100618043,424.65652,395.56528,-0.0,1.0840999,1.6758972,424.48996,2,0,1,0
32950656,34.03473994590816,108.75705109453784,424.64566,395.5395,-0.0,1.0839782,1.6762348,0.0,2,0,0,0
33149280,34.03473995662622,108.75705120273781,424.64117,395.52148,-0.0,1.083857,1.6760108,0.0,2,0,0,0
33352870,34.03473996417817,108.7570512876398,424.6456,395.51334,-0.0,1.083736,1.6757903,0.0,2,0,0,0
33551494,34.03473996899019,108.75705132763925,424.65195,395.50784,-0.0,1.0836384,1.6755708,0.0,2,0,0,0
33750119,34.03473996010831,108.75705139585656,424.6584,395.50296,-0.0,1.0835472,1.6759113,0.0,2,0,0,0
33948743,34.03473996524059,108.75705148285108,424.6627,395.49652,-0.0,1.083453,1.675694,0.0,2,0,0,0
34152336,34.034739955693766,108.75705156097284,424.6697,395.4925,-0.0,1.0833331,1.6754739,0.0,2,0,0,0
34350956,34.03473984206132,108.75705162804331,424.67773,395.49072,-0.0,1.0832355,1.6758069,0.0,2,0,0,0
34549580,34.03473959493573,108.75705165782844,424.68372,395.48703,-0.0,1.0831459,1.6755853,0.0,2,0,0,0
34753171,34.03473927959536,108.7570516713371,424.69147,395.4855,-0.0,1.0830317,1.6753582,0.0,2,0,0,0
34951988,34.03473899980846,108.75705168047307,424.70798,395.49255,-0.0,1.0829402,1.675685,0.0,2,0,0,0
35150418,34.03473882332242,108.75705168574353,424.7286,395.5033,-0.0,1.0828573,1.6754622,0.0,2,0,0,0
35349044,34.0347387186386,108.75705172524684,424.7529,395.51764,-0.0,1.0827819,1.6752421,0.0,2,0,0,0
35552676,34.034738661933865,108.75705179163683,424.8103,395.56445,-0.0,1.0827199,1.6755685,0.0,2,0,0,0
35751439,34.034738684598594,108.75705185077312,424.91284,395.6569,-0.0,1.082657,1.6753483,0.0,2,0,0,0
35949883,34.03473885230702,108.75705182689494,425.05917,395.7925,-0.0,1.0825976,1.6751329,0.0,2,0,0,0
36153471,34.0347391473206,108.75705175324934,425.24487,395.96976,-0.0,1.0825182,1.675461,0.0,2,0,0,0
36352095,34.03473931905496,108.75705148943071,425.466,396.18314,-0.0,1.0824645,1.675241,0.0,2,0,0,0
36550828,34.03473949136663,108.7570510346848,425.7156,396.42487,-0.0,1.0824136,1.6750207,0.0,2,0,0,0
36749343,34.03473985225548,108.75705055170101,425.9612,396.66144,-0.0,1.0823568,1.6753424,0.0,2,0,0,0
36948028,34.03474038430698,108.75704992110644,426.17365,396.8645,-0.0,1.0822959,1.6751198,0.0,2,0,0,0
37146593,34.03474088693298,108.75704922808056,426.33707,397.01816,-0.0,1.082242,1.6749007,0.0,2,0,0,0
37355242,34.034741381049116,108.75704843780832,426.4303,397.10217,-0.0,1.082352,1.6748122,0.0,2,0,0,0
37548806,34.034741627866104,108.75704784263351,426.44156,397.1043,-0.0,1.0820097,1.674992,0.0,2,0,0,0
37757361,34.03474161290397,108.75704738215885,426.3866,397.04193,-0.0,1.0820373,1.674901,0.0,2,0,0,0
37951020,34.034741440203035,108.75704706370072,426.29266,396.9413,-0.0,1.0816399,1.675077,0.0,2,0,0,0
38149684,34.03474100526708,108.75704676572714,426.16266,396.80585,-0.0,1.0814574,1.6748567,0.0,2,0,0,0
38348272,34.03474042962719,108.75704636498854,426.04166,396.67947,-0.0,1.081276,1.6746429,0.0,2,0,0,0
38551859,34.03473967166328,108.75704588791619,425.95166,396.5822,-0.0,1.0811472,1.6749809,0.0,2,0,0,0
38750483,34.0347388858616,108.75704560587741,425.88794,396.50916,-0.0,1.0810596,1.6748091,0.0,2,0,0,0
38949122,34.03473848132272,108.75704535466886,425.85117,396.46375,-0.0,1.0810024,1.6746633,0.0,2,0,0,0
39152698,34.03473842126026,108.7570451489869,425.8514,396.4552,-0.0,1.0809733,1.6745441,0.0,2,0,0,0
39351322,34.03473867423294,108.75704498729549,425.876,396.47003,-0.0,1.0809627,1.6749879,0.0,2,0,0,0
39549946,34.03473913776168,108.75704484818657,425.92648,396.51126,-0.0,1.0809598,1.6749184,0.0,2,0,0,0
39748609,34.03473961053305,108.75704472305405,426.0095,396.58545,-0.0,1.0809664,1.6748666,0.0,2,0,0,0
39947199,34.03473994333699,108.75704458413946,426.1169,396.68457,-0.0,1.0809488,1.6753632,0.0,2,0,0,0
40150784,34.034740165056284,108.75704436522604,426.24783,396.8083,-0.0,1.0809245,1.6753292,0.0,2,0,0,0
40349409,34.03474032019169,108.75704432324623,426.3373,396.88992,-0.0,1.0809047,1.6753037,0.0,2,0,0,0
40557995,34.034740256417436,108.75704441048359,426.34506,396.89066,-0.0,1.0811143,1.6754551,0.0,2,0,0,0
40756588,34.03473997826278,108.75704441471778,426.29865,396.8377,-0.0,1.0810581,1.6759943,0.0,2,0,0,0
40950247,34.034739566972235,108.75704444570964,426.2457,396.77722,-0.0,1.0807158,1.6757878,0.0,2,0,0,0
41148872,34.03473899939274,108.7570444222581,426.2051,396.72818,-0.0,1.0806301,1.6757629,0.0,2,0,0,0
41347498,34.034738496157026,108.75704438274249,426.1738,396.68887,-0.0,1.080539,1.676301,0.0,2,0,0,0
41551088,34.034738203908866,108.75704429703401,426.15607,396.6629,-0.0,1.0804393,1.6762607,0.0,2,0,0,0
41749725,34.034737927366606,108.75704419876598,426.13907,396.63794,-0.0,1.0803655,1.676794,0.0,2,0,0,0
41948522,34.03473762416078,108.75704410501663,426.1164,396.60666,-0.0,1.0802628,1.6767308,0.0,2,0,0,0
42151925,34.034737397567035,108.75704406806376,426.09784,396.5802,-0.0,1.0801477,1.6766602,0.0,2,0,0,0
42350549,34.034737272079596,108.75704403826228,426.08655,396.56076,-0.0,1.0800344,1.6765879,0.0,2,0,0,0
42554139,34.03473721571794,108.75704400230217,426.08063,396.54788,-0.0,1.0799199,1.6770914,0.0,2,0,0,0
42752935,34.03473721706285,108.75704396432893,426.07513,396.536,-0.0,1.079819,1.6770105,0.0,2,0,0,0
42951388,34.034737258132445,108.75704396755852,426.07367,396.52902,-0.0,1.0797173,1.6769224,0.0,2,0,0,0
43150012,34.034737314846275,108.75704400019507,426.07962,396.53,-0.0,1.0796047,1.6774176,0.0,2,0,0,0
43348637,34.034737409027514,108.75704402775517,426.08395,396.5294,-0.0,1.079492,1.6773118,0.0,2,0,0,0
43557353,34.034737554530594,108.757044075242,426.08224,396.52335,-0.0,1.0795935,1.6773775,0.0,2,0,0,0
43755818,34.03473774084006,108.75704413146603,426.0802,396.51767,-0.0,1.0794567,1.6778437,0.0,2,0,0,0
43949476,34.03473793858051,108.75704419062437,426.08136,396.5158,-0.0,1.0791125,1.6775119,0.0,2,0,0,0
44148101,34.03473810823958,108.75704428012443,426.08475,396.51678,-0.0,1.0789843,1.6773684,0.0,2,0,0,0
44346803,34.034738275399654,108.75704437517422,426.09088,396.5208,-0.0,1.0788912,1.6778243,0.0,2,0,0,0
44550316,34.03473843857856,108.75704450250625,426.09613,396.52417,-0.0,1.0787772,1.677667,0.0,2,0,0,0
44753906,34.03473859333257,108.75704458442948,426.10355,396.52957,-0.0,1.0786763,1.6775123,0.0,2,0,0,0
44952529,34.03473869749751,108.7570446039199,426.1063,396.53043,-0.0,1.0785996,1.6773579,0.0,2,0,0,0
45151222,34.034738765143295,108.75704461679514,426.1073,396.52975,-0.0,1.0785122,1.6771961,0.0,2,0,0,0
45349779,34.03473884076317,108.75704462120115,426.10944,396.53073,-0.0,1.0784353,1.6776285,0.0,2,0,0,0
45548449,34.03473892671784,108.75704461995166,426.10822,396.52847,-0.0,1.0783688,1.6774498,0.0,2,0,0,0
45751993,34.034739035580614,108.75704464394123,426.10452,396.52386,-0.0,1.0783114,1.6778655,0.0,2,0,0,0
45950641,34.034739116108994,108.75704467077027,426.10367,396.52234,-0.0,1.0782741,1.6776739,0.0,2,0,0,0
46149244,34.034739201004996,108.7570447011357,426.1059,396.5238,-0.0,1.0782175,1.6774825,0.0,2,0,0,0
46357798,34.03473925469825,108.75704472505917,426.10434,396.5212,-0.0,1.0783898,1.6774638,0.0,2,0,0,0
46551504,34.03473929575953,108.75704470527089,426.09537,396.5108,-0.0,1.078128,1.6776906,0.0,2,0,0,0
46750152,34.03473931479583,108.75704467631283,426.08142,396.4957,-0.0,1.0780934,1.6774812,0.0,2,0,0,0
46948706,34.03473932801397,108.75704462824336,426.06955,396.48288,-0.0,1.0780532,1.6772711,0.0,2,0,0,0
47152298,34.034739357675605,108.75704459022019,426.06235,396.47507,-0.0,1.0779917,1.6776594,0.0,2,0,0,0
47350921,34.03473940508275,108.75704454166251,426.06406,396.47675,-0.0,1.0779458,1.6774465,0.0,2,0,0,0
47549589,34.034739429086244,108.75704450690716,426.0718,396.48508,-0.0,1.0779037,1.6772352,0.0,2,0,0,0
47753137,34.03473943705713,108.75704449314354,426.07764,396.49188,-0.0,1.0778399,1.6776193,0.0,2,0,0,0
47951761,34.03473945640513,108.75704447068281,426.089,396.50433,-0.0,1.077793,1.6774055,0.0,2,0,0,0
48150384,34.03473948850278,108.75704445906842,426.1439,396.5598,-0.0,1.0777448,1.6771907,0.0,2,0,0,0
48349009,34.03473951342397,108.75704447255413,426.31778,396.7335,-0.0,1.0776962,1.6769749,0.0,2,0,0,0
48547634,34.03473954106769,108.75704453395397,426.59506,397.00894,-0.0,1.0776627,1.67735,0.0,2,0,0,0
48751224,34.034739547123834,108.75704472064747,426.89435,397.3074,-0.0,1.0776173,1.6771318,0.0,2,0,0,0
48949849,34.03473949794883,108.75704496053682,427.14236,397.5557,-0.0,1.0776007,1.6769059,0.0,2,0,0,0
49148473,34.034739511190566,108.7570451215823,427.28854,397.7018,-0.0,1.0775557,1.6772723,0.0,2,0,0,0
49357029,34.03473955385834,108.75704516737164,427.38757,397.80118,-0.0,1.0776879,1.6772039,0.0,2,0,0,0
49550688,34.0347396356606,108.75704513096547,427.53534,397.95056,-0.0,1.0774058,1.676812,0.0,2,0,0,0
49749487,34.03473974564691,108.75704506561262,427.79782,398.21347,-0.0,1.0773083,1.6765819,0.0,2,0,0,0
49947985,34.03473978699791,108.75704496075183,428.10132,398.5156,-0.0,1.0772351,1.6769384,0.0,2,0,0,0
50151528,34.03473980207558,108.75704482603075,428.37943,398.7933,-0.0,1.0771793,1.6767112,0.0,2,0,0,0
50355120,34.034739712389275,108.75704470028195,428.6262,399.03894,-0.0,1.0770851,1.6764867,0.0,2,0,0,0
50553897,34.03473968922228,108.7570446240488,428.77505,399.18683,-0.0,1.0770357,1.676267,0.0,2,0,0,0
50752369,34.034739754623395,108.7570446210859,428.81628,399.22772,-0.0,1.0769539,1.6766207,0.0,2,0,0,0
50950992,34.03473981505974,108.75704459936459,428.80026,399.21182,-0.0,1.0768541,1.6763958,0.0,2,0,0,0
51149618,34.03473989158177,108.75704442494707,428.80698,399.21896,-0.0,1.0767416,1.6761677,0.0,2,0,0,0
51348384,34.03473996185279,108.75704375122366,428.84912,399.26178,-0.0,1.0766283,1.6765119,0.0,2,0,0,0
51551836,34.03473999968739,108.7570424121059,428.9072,399.32068,-0.0,1.0765293,1.676284,0.0,2,0,0,0
51750456,34.034740110054784,108.75704094060954,428.9673,399.38184,-0.0,1.0764632,1.6760625,0.0,2,0,0,0
51949081,34.03474018339056,108.75703955196805,429.03085,399.44574,-0.0,1.0763893,1.6758422,0.0,2,0,0,0
52147822,34.03474031717313,108.75703832848684,429.09238,399.50662,-0.0,1.0763173,1.6761837,0.0,2,0,0,0
52356262,34.034740360463445,108.75703690588126,429.15393,399.5658,-0.0,1.0764176,1.6761059,0.0,2,0,0,0
52554886,34.03474040125391,108.75703543995857,429.1984,399.60703,-0.0,1.0763143,1.6758819,0.0,2,0,0,0
52748546,34.034740469302704,108.75703412083746,429.23398,399.63977,-0.0,1.0760156,1.676075,0.0,2,0,0,0
52947206,34.03474062396442,108.75703292230203,429.26917,399.67157,-0.0,1.0759122,1.6758513,0.0,2,0,0,0
53150760,34.03474068573297,108.75703165781259,429.3028,399.702,-0.0,1.075818,1.6756314,0.0,2,0,0,0
53349385,34.03474088096355,108.75703020757064,429.3476,399.74326,-0.0,1.0757291,1.6754164,0.0,2,0,0,0
53552975,34.03474104126695,108.75702851188422,429.3911,399.78366,-0.0,1.0756686,1.6757561,0.0,2,0,0,0
53751614,34.03474120072959,108.75702704961097,429.4381,399.82755,-0.0,1.0756088,1.6755415,0.0,2,0,0,0
53950225,34.03474131960105,108.75702565623553,429.47278,399.859,-0.0,1.0755527,1.6753302,0.0,2,0,0,0
54148851,34.034741502534345,108.75702430001859,429.50327,399.8864,-0.0,1.0754713,1.6751188,0.0,2,0,0,0
54352440,34.034741690756164,108.7570229282011,429.53052,399.9101,-0.0,1.0753902,1.6754537,0.0,2,0,0,0
54551089,34.03474187871073,108.75702143437354,429.54,399.91632,-0.0,1.0753428,1.6752406,0.0,2,0,0,0
54749690,34.03474210215778,108.75701983667209,429.56024,399.93304,-0.0,1.0752913,1.6750323,0.0,2,0,0,0
54953281,34.03474240107253,108.75701801873362,429.58002,399.94858,-0.0,1.0752275,1.6753675,0.0,2,0,0,0
55151906,34.034742711064354,108.75701600721064,429.59552,399.95917,-0.0,1.075194,1.6751603,0.0,2,0,0,0
55350531,34.03474303917689,108.75701397357079,429.6018,399.9599,-0.0,1.0751593,1.6749563,0.0,2,0,0,0
55549156,34.03474340263987,108.7570122569511,429.5994,399.95178,-0.0,1.0751206,1.6747518,0.0,2,0,0,0
55752745,34.034743695476585,108.75701077909659,429.58746,399.93375,-0.0,1.0750785,1.675085,0.0,2,0,0,0
55951371,34.03474389023471,108.75700933759465,429.57333,399.91272,-0.0,1.0750326,1.6748816,0.0,2,0,0,0
56149995,34.03474402067831,108.75700775008742,429.5619,399.8942,-0.0,1.0749867,1.6746813,0.0,2,0,0,0
56348620,34.03474423354823,108.75700607681138,429.5552,399.8805,-0.0,1.0749173,1.6744802,0.0,2,0,0,0
56552210,34.034744430520405,108.75700413285757,429.55237,399.87128,-0.0,1.0748699,1.6748078,0.0,2,0,0,0
56750838,34.034744608618105,108.75700188687219,429.5504,399.8625,-0.0,1.0748206,1.6746011,0.0,2,0,0,0
56949460,34.03474483193195,108.7569995267915,429.54727,399.85266,-0.0,1.0747628,1.6749226,0.0,2,0,0,0
57153050,34.03474508845033,108.75699714407128,429.5483,399.84763,-0.0,1.0747045,1.6747092,0.0,2,0,0,0
57351677,34.03474531488979,108.7569949722425,429.55457,399.8479,-0.0,1.0746688,1.6744957,0.0,2,0,0,0
57550515,34.034745429555095,108.7569928038446,429.55368,399.84134,-0.0,1.0746087,1.6748124,0.0,2,0,0,0
57753890,34.03474555523001,108.75699058316111,429.56372,399.8454,-0.0,1.0745229,1.674596,0.0,2,0,0,0
57952515,34.034745691131874,108.75698820465833,429.5732,399.84894,-0.0,1.0744649,1.6743863,0.0,2,0,0,0
58151141,34.03474587753295,108.75698578050395,429.5798,399.84915,-0.0,1.0744064,1.6747063,0.0,2,0,0,0
58349899,34.03474605085837,108.75698352750932,429.58112,399.84396,-0.0,1.0743465,1.6744965,0.0,2,0,0,0
58553357,34.0347462001532,108.75698156028979,429.57877,399.8351,-0.0,1.0742636,1.67429,0.0,2,0,0,0
58751980,34.03474637279878,108.75697994645853,429.57913,399.82913,-0.0,1.0742052,1.674088,0.0,2,0,0,0
58950615,34.03474660621176,108.75697847943462,429.58405,399.8275,-0.0,1.0741549,1.6744084,0.0,2,0,0,0
59149320,34.03474683097274,108.75697686956198,429.58685,399.82318,-0.0,1.0740805,1.6742085,0.0,2,0,0,0
59347855,34.0347469512281,108.75697525081473,429.58566,399.8153,-0.0,1.0740064,1.6740075,0.0,2,0,0,0
59551445,34.0347469491005,108.75697370447256,429.5849,399.80798,-0.0,1.0739334,1.6743274,0.0,2,0,0,0
59750070,34.03474695757007,108.75697214102269,429.5842,399.8,-0.0,1.073882,1.6741298,0.0,2,0,0,0
59948775,34.03474715562548,108.75697036655185,429.58115,399.7894,-0.0,1.0738305,1.6739345,0.0,2,0,0,0
60152286,34.0347475254358,108.75696809002227,429.5746,399.77448,-0.0,1.0737666,1.6737422,0.0,2,0,0,0
60350911,34.03474796725268,108.7569656275072,429.56384,399.75616,-0.0,1.0737329,1.6740662,0.0,2,0,0,0
60549535,34.03474839384282,108.75696315383536,429.563,399.74652,-0.0,1.0736605,1.6738756,0.0,2,0,0,0
60748198,34.03474872377273,108.75696063774625,429.5539,399.7295,-0.0,1.0736312,1.6736894,0.0,2,0,0,0
60951751,34.03474897306919,108.75695817553141,429.54352,399.71057,-0.0,1.0736067,1.6735034,0.0,2,0,0,0
61150376,34.034749223688074,108.75695579737508,429.5407,399.69934,-0.0,1.073576,1.6738272,0.0,2,0,0,0
61349001,34.0347494385291,108.75695341833908,429.5495,399.69955,-0.0,1.073576,1.6736443,0.0,2,0,0,0
61557581,34.034749587731234,108.75695107633358,429.55298,399.6951,-0.0,1.0738169,1.6735864,0.0,2,0,0,0
61756183,34.03474953679914,108.75694901622752,429.55444,399.68848,-0.0,1.0738775,1.6734037,0.0,2,0,0,0
61949841,34.03474945066707,108.75694700679259,429.5562,399.68246,-0.0,1.073765,1.6735991,0.0,2,0,0,0
62148466,34.034749539327066,108.75694488818075,429.56232,399.68057,-0.0,1.0738417,1.6734123,0.0,2,0,0,0
62347092,34.03474974628354,108.75694279835068,429.56183,399.6719,-0.0,1.0739199,1.6737338,0.0,2,0,0,0
62550682,34.03474994951676,108.75694083096535,429.55905,399.66098,-0.0,1.074004,1.6735497,0.0,2,0,0,0
62749307,34.03475002722446,108.75693888470346,429.55725,399.65085,-0.0,1.0740939,1.6733702,0.0,2,0,0,0
62952897,34.0347499531793,108.75693682459743,429.5543,399.6402,-0.0,1.0742059,1.6731911,0.0,2,0,0,0
63151523,34.034749988646105,108.75693485328983,429.55606,399.63446,-0.0,1.0743423,1.673513,0.0,2,0,0,0
63350147,34.03475003242467,108.75693288077133,429.5547,399.62534,-0.0,1.0744808,1.6733376,0.0,2,0,0,0
63548772,34.034750159113024,108.75693073042791,429.55176,399.61493,-0.0,1.0746081,1.6731635,0.0,2,0,0,0
63747400,34.03475027329914,108.75692837186322,429.55658,399.61176,-0.0,1.0747166,1.6729896,0.0,2,0,0,0
63955954,34.03475037236653,108.75692571633046,429.55124,399.5987,-0.0,1.075007,1.672939,0.0,2,0,0,0
64149613,34.03475049899927,108.7569232873996,429.55545,399.59518,-0.0,1.0748827,1.6731409,0.0,2,0,0,0
64358169,34.03475069960001,108.75692054492067,429.55563,399.5871,-0.0,1.07518,1.6730922,0.0,2,0,0,0
64556794,34.034750893679394,108.75691795304742,429.5539,399.57715,-0.0,1.0752826,1.6729236,0.0,2,0,0,0
64755419,34.03475114252049,108.75691552946704,429.55524,399.57047,-0.0,1.0753902,1.673248,0.0,2,0,0,0
64949078,34.034751388847624,108.75691319626868,429.558,399.56577,-0.0,1.0754551,1.6730099,0.0,2,0,0,0
65152669,34.0347515531838,108.75691065514931,429.55984,399.5598,-0.0,1.0756354,1.6728406,0.0,2,0,0,0
65351439,34.034751731358824,108.75690812769123,429.55823,399.5503,-0.0,1.0758154,1.6726768,0.0,2,0,0,0
65549921,34.03475198903397,108.75690553743233,429.55322,399.53723,-0.0,1.0759873,1.6730034,0.0,2,0,0,0
65753510,34.034752302370606,108.7569028968645,429.54926,399.52585,-0.0,1.0761589,1.6728393,0.0,2,0,0,0
65952135,34.03475258199925,108.75690047332537,429.5521,399.52087,-0.0,1.0763226,1.6726776,0.0,2,0,0,0
66150875,34.03475284921711,108.75689861850076,429.56458,399.5255,-0.0,1.0764793,1.6730052,0.0,2,0,0,0
66349385,34.03475307057366,108.75689760806989,429.57767,399.53076,-0.0,1.0766215,1.6728445,0.0,2,0,0,0
66548012,34.034753278821626,108.75689724438867,429.58542,399.53006,-0.0,1.0767587,1.6726847,0.0,2,0,0,0
66746635,34.0347534196353,108.75689712318561,429.58304,399.51917,-0.0,1.0769074,1.6725242,0.0,2,0,0,0
66955296,34.034753585760626,108.75689696556269,429.57413,399.50198,-0.0,1.0772415,1.6729677,0.0,2,0,0,0
67148851,34.03475377331451,108.7568967482646,429.5783,399.49805,-0.0,1.0771773,1.6726861,0.0,2,0,0,0
67357407,34.034754004634266,108.75689609984832,429.58984,399.5021,-0.0,1.0775532,1.6726387,0.0,2,0,0,0
67551067,34.03475428043601,108.75689500435493,429.5986,399.50305,-0.0,1.0775534,1.6728426,0.0,2,0,0,0
67749786,34.03475457333688,108.75689353337188,429.60532,399.50305,-0.0,1.0777609,1.6726776,0.0,2,0,0,0
67948317,34.0347547616697,108.75689207078243,429.60495,399.49554,-0.0,1.0779732,1.6730003,0.0,2,0,0,0
68151911,34.03475475069096,108.75689063802056,429.60928,399.4933,-0.0,1.0781732,1.6728294,0.0,2,0,0,0
68345568,34.034754640608405,108.75688912002052,429.6247,399.50174,-0.0,1.0782404,1.6725717,0.0,2,0,0,0
68554147,34.03475450235667,108.75688727213071,429.63452,399.50537,-0.0,1.0786555,1.6730051,0.0,2,0,0,0
68752750,34.03475440659857,108.75688531576789,429.6437,399.5089,-0.0,1.0788505,1.6728312,0.0,2,0,0,0
68951374,34.03475425863675,108.75688328137007,429.65527,399.5145,-0.0,1.0789827,1.6726547,0.0,2,0,0,0
69149999,34.03475430896355,108.75688112571731,429.67145,399.52444,-0.0,1.0790792,1.672966,0.0,2,0,0,0
69348625,34.0347544472589,108.75687857409311,429.6911,399.53735,-0.0,1.0791517,1.6727893,0.0,2,0,0,0
69547250,34.03475463962624,108.75687589294502,429.70587,399.54587,-0.0,1.079198,1.6726148,0.0,2,0,0,0
69750840,34.034754944352606,108.75687339144302,429.72556,399.55975,-0.0,1.0791963,1.6729282,0.0,2,0,0,0
69949468,34.03475519923737,108.75687109541977,429.74573,399.57416,-0.0,1.0792192,1.672756,0.0,2,0,0,0
70148090,34.034755451117036,108.75686878527982,429.76944,399.59238,-0.0,1.0792621,1.6725858,0.0,2,0,0,0
70351681,34.03475568435531,108.75686639668044,429.79242,399.61026,-0.0,1.0793009,1.672417,0.0,2,0,0,0
70550306,34.03475589395094,108.75686391257607,429.81558,399.62787,-0.0,1.0793574,1.6727352,0.0,2,0,0,0
70748946,34.03475613090678,108.7568613283093,429.8354,399.64117,-0.0,1.0793622,1.6725692,0.0,2,0,0,0
70947556,34.03475646436119,108.75685879620373,429.85104,399.6508,-0.0,1.0793267,1.6724044,0.0,2,0,0,0
71151148,34.03475680774543,108.75685648367276,429.86926,399.66217,-0.0,1.0792758,1.672241,0.0,2,0,0,0
71354743,34.03475713387628,108.75685457599296,429.88254,399.66888,-0.0,1.0792344,1.6725602,0.0,2,0,0,0
71553364,34.03475739148142,108.75685284777336,429.89438,399.6735,-0.0,1.0791888,1.6724018,0.0,2,0,0,0
71751999,34.0347574078373,108.7568509710185,429.90247,399.6749,-0.0,1.0791496,1.6722448,0.0,2,0,0,0
71950654,34.03475719404454,108.75684918428396,429.91595,399.68182,-0.0,1.0791069,1.6720889,0.0,2,0,0,0
72149239,34.03475698589083,108.75684738599942,429.92822,399.68683,-0.0,1.0790613,1.6724104,0.0,2,0,0,0
72348019,34.03475686453656,108.75684557380497,429.93512,399.6864,-0.0,1.0790124,1.6722536,0.0,2,0,0,0
72551455,34.034756808261484,108.75684374623104,429.94482,399.68903,-0.0,1.0789614,1.6720992,0.0,2,0,0,0
72750080,34.034756897469634,108.75684160726146,429.95514,399.69318,-0.0,1.0789354,1.6724224,0.0,2,0,0,0
72948705,34.034756904934774,108.75683917397345,429.97787,399.7104,-0.0,1.0789449,1.6722683,0.0,2,0,0,0
73157415,34.034756957641044,108.75683652106926,429.99866,399.7249,-0.0,1.0791714,1.6722307,0.0,2,0,0,0
73355888,34.034756946589326,108.75683416076586,430.0193,399.73965,-0.0,1.0792251,1.6720783,0.0,2,0,0,0
73554513,34.03475691687162,108.756831776431,430.04102,399.75488,-0.0,1.0792757,1.672401,0.0,2,0,0,0
73748172,34.03475684770578,108.75682937239083,430.0668,399.7741,-0.0,1.079136,1.6721326,0.0,2,0,0,0
73946869,34.03475669097155,108.75682686024015,430.0875,399.78964,-0.0,1.0792167,1.6719826,0.0,2,0,0,0
74150388,34.03475652963599,108.7568243961939,430.1113,399.80814,-0.0,1.0793283,1.6718351,0.0,2,0,0,0
74353979,34.03475633924078,108.75682195485453,430.1382,399.82895,-0.0,1.0794272,1.6721596,0.0,2,0,0,0
74552604,34.03475613527662,108.7568197078578,430.16205,399.84778,-0.0,1.0795975,1.6720146,0.0,2,0,0,0
74751301,34.03475600857785,108.75681742279548,430.18286,399.86337,-0.0,1.079751,1.6718704,0.0,2,0,0,0
74949855,34.034756009337876,108.75681505528884,430.20227,399.8776,-0.0,1.0799087,1.6721965,0.0,2,0,0,0
75148480,34.034756127006304,108.75681255487379,430.21747,399.888,-0.0,1.0800765,1.6720518,0.0,2,0,0,0
75352076,34.03475632276869,108.75680994732065,430.2388,399.9066,-0.0,1.0802114,1.6719023,0.0,2,0,0,0
75550767,34.03475651552068,108.75680735036539,430.26822,399.93298,-0.0,1.0803387,1.6722245,0.0,2,0,0,0
75749323,34.03475676188611,108.7568048190464,430.29556,399.95645,-0.0,1.0804523,1.6720765,0.0,2,0,0,0
75947950,34.03475711394625,108.756802266966,430.3156,399.97168,-0.0,1.0805508,1.6719294,0.0,2,0,0,0
76156547,34.034757514107746,108.75679949081913,430.32498,399.9762,-0.0,1.0808413,1.6718946,0.0,2,0,0,0
76355214,34.03475785964621,108.75679686792755,430.32947,399.9756,-0.0,1.0808866,1.6722164,0.0,2,0,0,0
76548788,34.03475813519779,108.75679443240323,430.33228,399.9735,-0.0,1.0807116,1.6719499,0.0,2,0,0,0
76747416,34.03475837952639,108.75679207197484,430.34787,399.985,-0.0,1.0807633,1.6717982,0.0,2,0,0,0
76951009,34.03475866617055,108.75678960012377,430.36502,399.9978,-0.0,1.0807798,1.6721169,0.0,2,0,0,0
77149640,34.03475892354908,108.7567870831283,430.37936,400.0079,-0.0,1.0808105,1.6719652,0.0,2,0,0,0
77348256,34.034759169273926,108.75678447828643,430.39154,400.016,-0.0,1.080847,1.6718135,0.0,2,0,0,0
77551847,34.03475943629058,108.75678158198231,430.41025,400.0307,-0.0,1.0808932,1.6721289,0.0,2,0,0,0
77750471,34.03475978283017,108.75677855388756,430.43076,400.04764,-0.0,1.0809326,1.6719751,0.0,2,0,0,0
77949100,34.03476022528793,108.75677538530857,430.4496,400.06277,-0.0,1.0809679,1.6718252,0.0,2,0,0,0
78152688,34.03476071312861,108.75677218793716,430.46588,400.07544,-0.0,1.0809901,1.6721425,0.0,2,0,0,0
78356279,34.034761164925854,108.75676889704786,430.48386,400.08966,-0.0,1.0810165,1.6719928,0.0,2,0,0,0
78554906,34.03476157267512,108.7567658087809,430.50012,400.10217,-0.0,1.081076,1.671847,0.0,2,0,0,0
78753529,34.03476172132336,108.75676283328275,430.51654,400.11566,-0.0,1.0811448,1.6717023,0.0,2,0,0,0
78952157,34.0347616331591,108.75676000470668,430.53284,400.12836,-0.0,1.0812209,1.6720232,0.0,2,0,0,0
79155750,34.034761595257756,108.75675709811603,430.54837,400.13943,-0.0,1.0812736,1.6718769,0.0,2,0,0,0
79354374,34.03476165858191,108.75675430274059,430.56503,400.1519,-0.0,1.0813465,1.6717329,0.0,2,0,0,0
79552996,34.03476178900061,108.75675145383738,430.58047,400.16263,-0.0,1.0814133,1.6715901,0.0,2,0,0,0
79751624,34.034761901012786,108.7567485995732,430.59378,400.17014,-0.0,1.0814354,1.6719115,0.0,2,0,0,0
79950248,34.034761905322114,108.75674575195376,430.60397,400.1746,-0.0,1.0814306,1.6717619,0.0,2,0,0,0
80149057,34.0347618108054,108.75674291402179,430.61606,400.18073,-0.0,1.081393,1.6720806,0.0,2,0,0,0
80352500,34.03476179664033,108.75673995969922,430.637,400.1956,-0.0,1.0812812,1.6719306,0.0,2,0,0,0
80551089,34.03476186940581,108.75673714153417,430.66132,400.2149,-0.0,1.0812025,1.6717833,0.0,2,0,0,0
80749714,34.03476204478585,108.75673428571731,430.6888,400.2372,-0.0,1.0811164,1.671637,0.0,2,0,0,0
80948433,34.034762394588114,108.75673142751941,430.7186,400.26178,-0.0,1.0810186,1.6719562,0.0,2,0,0,0
81151932,34.034762790795924,108.75672848031576,430.7453,400.28302,-0.0,1.0809371,1.671811,0.0,2,0,0,0
81350556,34.03476313038295,108.75672548024711,430.76337,400.29507,-0.0,1.0808339,1.6716682,0.0,2,0,0,0
81554150,34.034763347667514,108.75672244333472,430.78195,400.30786,-0.0,1.0807103,1.6715248,0.0,2,0,0,0
81752875,34.03476348839337,108.75671955284714,430.7965,400.3163,-0.0,1.0805849,1.6718456,0.0,2,0,0,0
81951398,34.03476382496582,108.7567166684029,430.81174,400.3258,-0.0,1.080469,1.6717057,0.0,2,0,0,0
82154989,34.034764323650954,108.756713793997,430.82883,400.3366,-0.0,1.0803611,1.6715642,0.0,2,0,0,0
82353616,34.034764728688835,108.75671117197399,430.8415,400.34265,-0.0,1.0802513,1.6714257,0.0,2,0,0,0
82552294,34.034764973606045,108.75670863355472,430.8485,400.3432,-0.0,1.080149,1.6717494,0.0,2,0,0,0
82750865,34.03476506686337,108.75670615116817,430.86093,400.34927,-0.0,1.0800606,1.6716093,0.0,2,0,0,0
82954456,34.03476519395708,108.75670352831824,430.87814,400.36063,-0.0,1.0799928,1.671471,0.0,2,0,0,0
83153081,34.03476516969549,108.75670100788744,430.8997,400.3762,-0.0,1.0799431,1.6717945,0.0,2,0,0,0
83351721,34.03476509632658,108.75669856174545,430.9209,400.39148,-0.0,1.0799185,1.6716571,0.0,2,0,0,0
83550340,34.03476499835373,108.75669619092712,430.94473,400.40967,-0.0,1.0799216,1.6715213,0.0,2,0,0,0
83748959,34.03476473521698,108.7566938236283,430.96387,400.42303,-0.0,1.0799342,1.6713836,0.0,2,0,0,0
83952549,34.03476426322489,108.75669142577867,430.97885,400.43207,-0.0,1.0799336,1.6717066,0.0,2,0,0,0
84151176,34.034763839392426,108.75668899468633,430.9979,400.44632,-0.0,1.079959,1.6715693,0.0,2,0,0,0
84349800,34.034763536322444,108.75668647409114,431.02182,400.46585,-0.0,1.0800084,1.6714329,0.0,2,0,0,0
84553391,34.034763338424845,108.75668386490395,431.043,400.4836,-0.0,1.0800692,1.6717556,0.0,2,0,0,0
84752017,34.03476322647996,108.7566813339171,431.0658,400.50317,-0.0,1.0801445,1.6716133,0.0,2,0,0,0
84950646,34.03476307482287,108.75667868560868,431.09314,400.52795,-0.0,1.0802355,1.671473,0.0,2,0,0,0
85149268,34.03476293145258,108.75667594191935,431.12717,400.5601,-0.0,1.0803384,1.6717944,0.0,2,0,0,0
85357824,34.03476286494024,108.75667280238261,431.16687,400.59772,-0.0,1.0806627,1.6717632,0.0,2,0,0,0
85551487,34.03476273822088,108.75666992307359,431.20026,400.6286,-0.0,1.080546,1.6715109,0.0,2,0,0,0
85750110,34.03476276170286,108.75666685540327,431.22705,400.65198,-0.0,1.0806531,1.6713701,0.0,2,0,0,0
85948736,34.03476283593914,108.75666385910279,431.24774,400.6683,-0.0,1.0807216,1.6716912,0.0,2,0,0,0
86152326,34.0347630345853,108.75666084160596,431.26794,400.68307,-0.0,1.0807571,1.671551,0.0,2,0,0,0
86351208,34.03476339781298,108.75665813070155,431.28232,400.69174,-0.0,1.0807581,1.6714065,0.0,2,0,0,0
86554548,34.03476375021118,108.75665562864978,431.29333,400.69778,-0.0,1.0807841,1.6717237,0.0,2,0,0,0
86753169,34.03476394229708,108.75665294150852,431.30502,400.7039,-0.0,1.0808151,1.6715826,0.0,2,0,0,0
86951794,34.034764144772524,108.75664995597084,431.3176,400.71082,-0.0,1.0808691,1.6714411,0.0,2,0,0,0
87150609,34.034764367731405,108.75664711002692,431.33368,400.72153,-0.0,1.0809119,1.6713018,0.0,2,0,0,0
87349045,34.034764530039006,108.75664503528552,431.35913,400.7426,-0.0,1.0809554,1.6716192,0.0,2,0,0,0
87547671,34.034764595539556,108.75664403726363,431.39273,400.772,-0.0,1.0810077,1.6714783,0.0,2,0,0,0
87746296,34.03476459508634,108.75664379189803,431.4234,400.7987,-0.0,1.0810406,1.6713364,0.0,2,0,0,0
87954997,34.034764583153944,108.75664372777268,431.4502,400.82144,-0.0,1.0812924,1.6713053,0.0,2,0,0,0
88158444,34.034764719259655,108.75664353316031,431.48822,400.85553,-0.0,1.0813408,1.671623,0.0,2,0,0,0
88357069,34.034764947686924,108.75664295718967,431.53107,400.89447,-0.0,1.0814134,1.671485,0.0,2,0,0,0
88550729,34.034765197498004,108.75664178500575,431.56403,400.92297,-0.0,1.0812727,1.6712375,0.0,2,0,0,0
88749440,34.03476550469549,108.75664007555908,431.58502,400.93967,-0.0,1.0813409,1.6715555,0.0,2,0,0,0
88952946,34.0347658506338,108.75663782164645,431.59906,400.95062,-0.0,1.081378,1.6714191,0.0,2,0,0,0
89151572,34.034766292369774,108.75663533358659,431.62592,400.97464,-0.0,1.0813859,1.6712855,0.0,2,0,0,0
89350201,34.034766729803955,108.75663267583657,431.64835,400.99445,-0.0,1.0813999,1.6711513,0.0,2,0,0,0
89548869,34.03476703338312,108.75663002065383,431.66428,401.00778,-0.0,1.0814549,1.6714731,0.0,2,0,0,0
89757380,34.0347673534476,108.75662707634777,431.69052,401.03137,-0.0,1.0817093,1.671446,0.0,2,0,0,0
89951040,34.03476768479754,108.75662438494166,431.71466,401.0524,-0.0,1.0815293,1.6712024,0.0,2,0,0,0
90149665,34.034768097603994,108.75662178531435,431.7298,401.0642,-0.0,1.0815763,1.6715239,0.0,2,0,0,0
90348303,34.03476848511398,108.75661926463304,431.74545,401.0769,-0.0,1.0816019,1.67139,0.0,2,0,0,0
90551882,34.03476884814989,108.7566165410191,431.75836,401.087,-0.0,1.0816242,1.671257,0.0,2,0,0,0
90750507,34.034769141910665,108.75661389837988,431.7711,401.09702,-0.0,1.0816438,1.6711266,0.0,2,0,0,0
90949133,34.03476935192444,108.75661103798787,431.7823,401.1054,-0.0,1.0816764,1.6714491,0.0,2,0,0,0
91157713,34.034769504923844,108.75660779259525,431.79498,401.1152,-0.0,1.0819027,1.6714253,0.0,2,0,0,0
91356317,34.03476973555072,108.75660475973929,431.80853,401.1267,-0.0,1.081884,1.6712918,0.0,2,0,0,0
91549976,34.034770021615614,108.7566020368708,431.8354,401.15094,-0.0,1.081623,1.6710515,0.0,2,0,0,0
91753567,34.03477034018544,108.75659922565893,431.86087,401.17358,-0.0,1.0815909,1.6713734,0.0,2,0,0,0
91952200,34.034770634692165,108.75659662354816,431.87994,401.18994,-0.0,1.0815982,1.67124,0.0,2,0,0,0
92150818,34.03477086735041,108.75659390399176,431.89447,401.20163,-0.0,1.0816302,1.6711048,0.0,2,0,0,0
92354410,34.034771144861864,108.75659112747152,431.91144,401.21606,-0.0,1.0816332,1.6714228,0.0,2,0,0,0
92553035,34.034771453333185,108.75658850126703,431.92917,401.2317,-0.0,1.0816686,1.6712825,0.0,2,0,0,0
92751665,34.03477181379162,108.75658590693867,431.94583,401.24634,-0.0,1.0816706,1.6715984,0.0,2,0,0,0
92950287,34.0347722236923,108.756583405507,431.9678,401.26633,-0.0,1.0816576,1.6714532,0.0,2,0,0,0
93148912,34.0347725435391,108.75658102760727,431.99188,401.2884,-0.0,1.0816333,1.6713076,0.0,2,0,0,0
93347542,34.03477271130159,108.75657872302412,432.01068,401.30563,-0.0,1.0816041,1.6716201,0.0,2,0,0,0
93546165,34.03477273637448,108.75657624034777,432.03305,401.3262,-0.0,1.0815542,1.6714747,0.0,2,0,0,0
93749754,34.03477294225672,108.75657367541272,432.05237,401.3429,-0.0,1.0814856,1.6713302,0.0,2,0,0,0
93948380,34.03477320503396,108.75657111838433,432.06647,401.3541,-0.0,1.081402,1.6716446,0.0,2,0,0,0
94147208,34.03477343716004,108.7565684366655,432.0763,401.3604,-0.0,1.081313,1.6714967,0.0,2,0,0,0
94350597,34.03477356051065,108.7565656133249,432.07874,401.35898,-0.0,1.081217,1.6713489,0.0,2,0,0,0
94549265,34.03477367925189,108.75656294708949,432.0848,401.36148,-0.0,1.0811514,1.6712048,0.0,2,0,0,0
94752814,34.034773879421095,108.75656018965395,432.09677,401.36887,-0.0,1.0811237,1.6715165,0.0,2,0,0,0
94951578,34.034773975753644,108.75655750814283,432.104,401.37137,-0.0,1.0811244,1.6713727,0.0,2,0,0,0
95150066,34.03477390100267,108.75655492511841,432.11682,401.37955,-0.0,1.0811343,1.671231,0.0,2,0,0,0
95353688,34.034773999900736,108.75655255003487,432.1339,401.3918,-0.0,1.081145,1.671545,0.0,2,0,0,0
95552283,34.034774123541396,108.75655050298849,432.15253,401.406,-0.0,1.0811901,1.6714052,0.0,2,0,0,0
95751011,34.0347741887435,108.75654852118564,432.17337,401.42206,-0.0,1.0812201,1.6712661,0.0,2,0,0,0
95949564,34.03477411221982,108.7565466438306,432.19394,401.43768,-0.0,1.081253,1.6711266,0.0,2,0,0,0
96148160,34.03477410223189,108.75654493119762,432.21652,401.4543,-0.0,1.0812979,1.671438,0.0,2,0,0,0
96351751,34.03477422432435,108.75654288129479,432.24005,401.4717,-0.0,1.081332,1.6712937,0.0,2,0,0,0
96550445,34.034774376934244,108.75654025281408,432.2592,401.4845,-0.0,1.0813798,1.6711507,0.0,2,0,0,0
96749002,34.03477450172203,108.7565372091535,432.26782,401.4868,-0.0,1.081445,1.6714641,0.0,2,0,0,0
96947629,34.03477453731072,108.75653410410033,432.27917,401.49234,-0.0,1.0814673,1.6713226,0.0,2,0,0,0
97151220,34.03477440065152,108.75653107642091,432.30066,401.50803,-0.0,1.0814539,1.6711808,0.0,2,0,0,0
97349989,34.03477412702654,108.75652815360337,432.33136,401.53345,-0.0,1.0814466,1.6710416,0.0,2,0,0,0
97548471,34.034773891464724,108.75652529958899,432.36478,401.56128,-0.0,1.0814339,1.6713561,0.0,2,0,0,0
97747098,34.03477381685833,108.75652258868634,432.39743,401.58813,-0.0,1.0814109,1.671218,0.0,2,0,0,0
97950689,34.03477382285549,108.75651954241843,432.42746,401.61227,-0.0,1.0814338,1.6710812,0.0,2,0,0,0
98149368,34.03477394696453,108.7565163366021,432.45245,401.6303,-0.0,1.0814446,1.6713974,0.0,2,0,0,0
98352908,34.034774218943724,108.75651288827567,432.4649,401.63477,-0.0,1.0814239,1.6712617,0.0,2,0,0,0
98551531,34.03477454132091,108.75650940124181,432.47818,401.64166,-0.0,1.0814674,1.6711291,0.0,2,0,0,0
98750160,34.034774882576514,108.7565057510999,432.49182,401.64908,-0.0,1.0815297,1.6709962,0.0,2,0,0,0
98948800,34.03477522889867,108.75650210489074,432.51248,401.6637,-0.0,1.0815871,1.6713144,0.0,2,0,0,0
99152380,34.034775683094814,108.75649792795916,432.53848,401.68408,-0.0,1.0816511,1.6711797,0.0,2,0,0,0
99351058,34.034776216724474,108.75649360178744,432.5605,401.70056,-0.0,1.0817437,1.6710483,0.0,2,0,0,0
99549633,34.034776821153486,108.75648920014672,432.58087,401.7154,-0.0,1.0818205,1.6709176,0.0,2,0,0,0
99748251,34.034777468207174,108.75648461109716,432.60013,401.7284,-0.0,1.0818943,1.6712373,0.0,2,0,0,0
99956808,34.034778130717015,108.75647983393515,432.61438,401.73615,-0.0,1.0822009,1.6712139,0.0,2,0,0,0
100155434,34.03477871317303,108.75647559610609,432.62857,401.74393,-0.0,1.0822765,1.6710827,0.0,2,0,0,0
100344322,34.03477920779636,108.75647190891165,432.6512,401.7602,-0.0,1.0821424,1.6712942,0.0,2,0,0,0
100547720,34.03477965579961,108.75646828261388,432.6796,401.7825,-0.0,1.0822175,1.6711602,0.0,2,0,0,0
100751312,34.034780097085985,108.75646483681118,432.7029,401.79932,-0.0,1.0822922,1.6710235,0.0,2,0,0,0
100949945,34.03478049438979,108.75646149346868,432.72168,401.81055,-0.0,1.0823727,1.671341,0.0,2,0,0,0
101148742,34.03478078795518,108.75645813244994,432.73932,401.82092,-0.0,1.0824351,1.6712073,0.0,2,0,0,0
101352155,34.03478070188705,108.75645501580588,432.759,401.83377,-0.0,1.0824804,1.6710744,0.0,2,0,0,0
101550780,34.0347804921498,108.75645215566442,432.78152,401.8499,-0.0,1.082549,1.6709422,0.0,2,0,0,0
101749406,34.03478056060707,108.7564492371913,432.81232,401.8742,-0.0,1.0825872,1.6712599,0.0,2,0,0,0
101952999,34.03478071228728,108.75644631731005,432.8435,401.899,-0.0,1.0826293,1.6711214,0.0,2,0,0,0
102151625,34.034780501225505,108.75644361406684,432.87634,401.9253,-0.0,1.082684,1.6709847,0.0,2,0,0,0
102350249,34.034779917918705,108.75644108949983,432.90753,401.94968,-0.0,1.082734,1.6713017,0.0,2,0,0,0
102553841,34.034779320599974,108.75643859507066,432.93503,401.96982,-0.0,1.0827771,1.671165,0.0,2,0,0,0
102752466,34.034779010404144,108.75643606930123,432.9677,401.9934,-0.0,1.0827986,1.6710315,0.0,2,0,0,0
102951093,34.03477900265896,108.75643335661789,432.99255,402.0099,-0.0,1.0828286,1.6713501,0.0,2,0,0,0
103149718,34.034778938143745,108.75643078315629,433.0165,402.02643,-0.0,1.0828407,1.6712152,0.0,2,0,0,0
103348345,34.03477869869919,108.75642844210401,433.04892,402.0517,-0.0,1.0828261,1.6710806,0.0,2,0,0,0
103556902,34.034778581514736,108.75642581950342,433.08575,402.08093,-0.0,1.0830095,1.6710479,0.0,2,0,0,0
103755527,34.03477846956649,108.75642282051267,433.11792,402.10513,-0.0,1.0829287,1.6713601,0.0,2,0,0,0
103949187,34.03477829623752,108.75641937972345,433.14325,402.12265,-0.0,1.0826179,1.6711125,0.0,2,0,0,0
104147890,34.03477813630026,108.75641541073773,433.163,402.1343,-0.0,1.0825256,1.6709737,0.0,2,0,0,0
104356372,34.03477812198537,108.75641110456465,433.17923,402.1421,-0.0,1.0826274,1.6713946,0.0,2,0,0,0
104554996,34.034778211477246,108.75640722296815,433.19855,402.15366,-0.0,1.0825486,1.6712563,0.0,2,0,0,0
104748662,34.034778420893886,108.75640342780966,433.22134,402.16864,-0.0,1.0822438,1.6710117,0.0,2,0,0,0
104952248,34.03477874583171,108.75639940094595,433.2477,402.18738,-0.0,1.0821548,1.6713275,0.0,2,0,0,0
105151015,34.034779005007294,108.75639558616439,433.27213,402.20425,-0.0,1.0820932,1.6711917,0.0,2,0,0,0
105349500,34.03477933438468,108.75639183327222,433.29675,402.2212,-0.0,1.08204,1.6710576,0.0,2,0,0,0
105553091,34.03477970150432,108.7563878690432,433.32407,402.24124,-0.0,1.0819621,1.6713701,0.0,2,0,0,0
105751717,34.034780065067444,108.75638404887903,433.35428,402.26395,-0.0,1.0818924,1.6712327,0.0,2,0,0,0
105950453,34.03478052739862,108.75638023616568,433.37936,402.28134,-0.0,1.0818255,1.6710973,0.0,2,0,0,0
106153934,34.034780989707905,108.75637636350807,433.4001,402.2944,-0.0,1.0817772,1.6709616,0.0,2,0,0,0
106352560,34.03478130295634,108.75637259318731,433.41852,402.30505,-0.0,1.0817595,1.6712787,0.0,2,0,0,0
106551193,34.03478157143881,108.75636877273396,433.43945,402.31866,-0.0,1.0817684,1.6711451,0.0,2,0,0,0
106749935,34.03478184417155,108.75636507332818,433.45297,402.32498,-0.0,1.0818079,1.6710112,0.0,2,0,0,0
106948439,34.03478189089555,108.75636172344707,433.47247,402.3377,-0.0,1.0818989,1.6708839,0.0,2,0,0,0
107147064,34.034781779412114,108.75635853199721,433.49417,402.3514,-0.0,1.0819728,1.6712002,0.0,2,0,0,0
107350675,34.034781787228674,108.75635526760318,433.5168,402.36603,-0.0,1.0824544,1.671198,0.0,2,0,0,0
107549362,34.03478180355265,108.75635191523845,433.54865,402.38907,-0.0,1.0825326,1.6710627,0.0,2,0,0,0
107757843,34.034781958644245,108.75634826737402,433.57922,402.4108,-0.0,1.0827847,1.6710364,0.0,2,0,0,0
107951504,34.034782108265404,108.75634489269468,433.60422,402.42743,-0.0,1.0825319,1.6712462,0.0,2,0,0,0
108150125,34.03478227261211,108.75634145070214,433.6313,402.44565,-0.0,1.0824597,1.6711113,0.0,2,0,0,0
108348773,34.0347823967865,108.75633810715425,433.65845,402.46375,-0.0,1.0823754,1.6709783,0.0,2,0,0,0
108552345,34.03478253513867,108.75633489492053,433.68976,402.48535,-0.0,1.0822662,1.6712958,0.0,2,0,0,0
108750970,34.034782750735076,108.75633228734462,433.72467,402.51,-0.0,1.0821292,1.6711642,0.0,2,0,0,0
108949594,34.03478293780949,108.75633033932108,433.75656,402.53174,-0.0,1.0819757,1.6710318,0.0,2,0,0,0
109158166,34.034783160838295,108.75632861997951,433.7798,402.54526,-0.0,1.0819981,1.6710074,0.0,2,0,0,0
109356777,34.03478328249126,108.75632683009668,433.7995,402.55588,-0.0,1.0818162,1.6713269,0.0,2,0,0,0
109550438,34.034783403872254,108.75632473362063,433.81622,402.56418,-0.0,1.0814,1.6710856,0.0,2,0,0,0
109749063,34.034783644397834,108.75632237997948,433.8347,402.57443,-0.0,1.0812166,1.6709539,0.0,2,0,0,0
109947691,34.03478385469891,108.75631993799536,433.8499,402.582,-0.0,1.0810238,1.671272,0.0,2,0,0,0
110146316,34.03478396301106,108.75631745287542,433.8679,402.5914,-0.0,1.0808183,1.6711391,0.0,2,0,0,0
110349908,34.03478395034842,108.75631466240525,433.87564,402.58984,-0.0,1.0805942,1.6710078,0.0,2,0,0,0
110558464,34.034783884437324,108.75631177605786,433.87997,402.58585,-0.0,1.0806202,1.6709834,0.0,2,0,0,0
110757090,34.034783771202356,108.75630920168585,433.8874,402.5845,-0.0,1.0804195,1.6712995,0.0,2,0,0,0
110950751,34.034783632465604,108.75630675945634,433.90573,402.59497,-0.0,1.0800244,1.6710489,0.0,2,0,0,0
111149377,34.03478357712725,108.75630425098937,433.9364,402.61856,-0.0,1.0798566,1.6713605,0.0,2,0,0,0
111348196,34.03478347292402,108.75630179865846,433.96976,402.64465,-0.0,1.0796762,1.6712208,0.0,2,0,0,0
111551594,34.03478343076299,108.75629920350408,433.99524,402.6635,-0.0,1.0795346,1.6710812,0.0,2,0,0,0
111750220,34.03478332793101,108.7562966032169,434.02454,402.6865,-0.0,1.0794135,1.6709435,0.0,2,0,0,0
111948846,34.034783274325115,108.7562941257984,434.05478,402.71042,-0.0,1.0793113,1.6712575,0.0,2,0,0,0
112157593,34.034783294983356,108.75629155192203,434.08667,402.73535,-0.0,1.0794072,1.671227,0.0,2,0,0,0
112351064,34.03478328771362,108.75628926824552,434.11234,402.75378,-0.0,1.0791125,1.6709831,0.0,2,0,0,0
112549690,34.0347829879896,108.7562868560724,434.13132,402.7657,-0.0,1.0790476,1.6712985,0.0,2,0,0,0
112748316,34.03478255115166,108.75628447801243,434.14612,402.77316,-0.0,1.0789644,1.671163,0.0,2,0,0,0
112947082,34.03478216792986,108.75628203421206,434.16895,402.78857,-0.0,1.0789008,1.6710293,0.0,2,0,0,0
113145567,34.03478205384594,108.75627957989423,434.20145,402.81458,-0.0,1.0788683,1.6708955,0.0,2,0,0,0
113349162,34.03478205306591,108.75627688480486,434.2341,402.8398,-0.0,1.0788132,1.6712106,0.0,2,0,0,0
113557718,34.03478213959374,108.756273889414,434.25903,402.85678,-0.0,1.0789913,1.6711848,0.0,2,0,0,0
113756457,34.03478200017512,108.75627086918641,434.27365,402.86368,-0.0,1.0789628,1.6710523,0.0,2,0,0,0
113950003,34.03478173850876,108.75626767326705,434.28653,402.86804,-0.0,1.0787066,1.6712625,0.0,2,0,0,0
114148629,34.034781409157816,108.75626411718616,434.29425,402.86813,-0.0,1.0786755,1.671127,0.0,2,0,0,0
114352220,34.03478123134307,108.75626066451599,434.3072,402.874,-0.0,1.0786203,1.67099,0.0,2,0,0,0
114550960,34.034781188893575,108.75625734945136,434.32648,402.88672,-0.0,1.0785755,1.6713005,0.0,2,0,0,0
114754438,34.03478103396516,108.75625387765513,434.3467,402.9003,-0.0,1.0785313,1.6711602,0.0,2,0,0,0
114953064,34.034781038084795,108.75625031047656,434.37552,402.92267,-0.0,1.0784776,1.6710234,0.0,2,0,0,0
115151701,34.034781224094736,108.75624641674926,434.40607,402.94708,-0.0,1.0784235,1.6708874,0.0,2,0,0,0
115350394,34.03478148231419,108.75624236463268,434.4254,402.96033,-0.0,1.0783703,1.6712017,0.0,2,0,0,0
115553912,34.03478166472176,108.75623847926776,434.44034,402.96915,-0.0,1.0782852,1.6710659,0.0,2,0,0,0
115752534,34.034781523948475,108.75623500349722,434.44983,402.97247,-0.0,1.0782166,1.670933,0.0,2,0,0,0
115946199,34.034781122125736,108.75623166194134,434.45926,402.976,-0.0,1.0779399,1.671142,0.0,2,0,0,0
116154761,34.034780710952084,108.75622796626752,434.4843,402.99542,-0.0,1.0780476,1.671116,0.0,2,0,0,0
116353378,34.034780306194236,108.756224365395,434.5153,403.0204,-0.0,1.0779542,1.6709851,0.0,2,0,0,0
116552004,34.03477980451571,108.75622065647478,434.53693,403.03555,-0.0,1.0778563,1.6708537,0.0,2,0,0,0
121756005,34.03478622199846,108.75611650818936,434.69174,403.05225,-0.0,1.0807836,1.6707796,0.0,2,0,0,0
121954635,34.03478669506574,108.75611298480445,434.6953,403.0529,-0.0,1.0809423,1.6710988,0.0,2,0,0,0
122148291,34.03478714553744,108.75610940520133,434.6982,403.05167,-0.0,1.0808896,1.6708661,0.0,2,0,0,0
122356917,34.03478760993425,108.75610540516041,434.6843,403.03308,-0.0,1.0812379,1.6708446,0.0,2,0,0,0
122550509,34.03478806096118,108.75610155920278,434.63635,402.98093,-0.0,1.0811632,1.6710583,0.0,2,0,0,0
122754101,34.03478854453291,108.75609728485871,434.58035,402.92075,-0.0,1.0812951,1.6709335,0.0,2,0,0,0
122952727,34.03478907322877,108.75609281751683,434.5164,402.85294,-0.0,1.081445,1.6708118,0.0,2,0,0,0
123151367,34.03478965809643,108.75608828642142,434.46375,402.79663,-0.0,1.0815698,1.6706913,0.0,2,0,0,0
123349996,34.0347902268274,108.75608380202303,434.40366,402.73264,-0.0,1.0816928,1.6710126,0.0,2,0,0,0
123553571,34.034790757230766,108.75607894429825,434.33905,402.66476,-0.0,1.0818138,1.6708896,0.0,2,0,0,0
123752231,34.034791319800654,108.7560741096731,434.27933,402.60187,-0.0,1.0819337,1.6707672,0.0,2,0,0,0
123950823,34.034791903348925,108.75606930121116,434.20493,402.52432,-0.0,1.082054,1.6706451,0.0,2,0,0,0
124149449,34.03479248139537,108.75606452503962,434.1187,402.43497,-0.0,1.0821748,1.6709676,0.0,2,0,0,0
124348076,34.03479308594004,108.7560598743035,434.04193,402.3553,-0.0,1.0822906,1.6708455,0.0,2,0,0,0
124551672,34.034793700160584,108.75605543006021,433.95612,402.26605,-0.0,1.0823779,1.6707239,0.0,2,0,0,0
124750337,34.034794229079154,108.75605111473111,433.86322,402.1692,-0.0,1.0824288,1.6706021,0.0,2,0,0,0
124948919,34.03479471024198,108.75604666552151,433.78162,402.08386,-0.0,1.082444,1.6709251,0.0,2,0,0,0
125147545,34.03479513198759,108.75604188695041,433.7339,402.0325,-0.0,1.0824034,1.6708037,0.0,2,0,0,0
125351138,34.034795537244364,108.75603656523829,433.69196,401.98737,-0.0,1.0823544,1.670681,0.0,2,0,0,0
125549769,34.03479600309573,108.7560308600975,433.6463,401.93835,-0.0,1.0823206,1.6710038,0.0,2,0,0,0
125753355,34.03479653608605,108.75602482973349,433.5909,401.87915,-0.0,1.0823152,1.6708827,0.0,2,0,0,0
125951981,34.03479702833414,108.75601894393156,433.5218,401.8066,-0.0,1.0823394,1.6707644,0.0,2,0,0,0
126150798,34.03479753828849,108.75601307493692,433.4652,401.74658,-0.0,1.082344,1.6706446,0.0,2,0,0,0
126349233,34.03479808575857,108.75600744149614,433.37372,401.65112,-0.0,1.0823582,1.6709696,0.0,2,0,0,0
126552825,34.0347986687922,108.75600191916696,433.2481,401.52148,-0.0,1.082344,1.6708494,0.0,2,0,0,0
126751451,34.034799201978615,108.75599642242227,433.1099,401.37848,-0.0,1.0822936,1.6707302,0.0,2,0,0,0
126950229,34.034799693577256,108.75599097419644,432.94525,401.2092,-0.0,1.082234,1.6706111,0.0,2,0,0,0
127148707,34.0348001936014,108.7559859361414,432.8023,401.0609,-0.0,1.0821761,1.6709349,0.0,2,0,0,0
127357261,34.03480061979938,108.75598155970943,432.7216,400.97324,-0.0,1.0823145,1.67092,0.0,2,0,0,0
127555886,34.03480076004286,108.755978449065,432.66263,400.90567,-0.0,1.0822245,1.6708004,0.0,2,0,0,0
127754652,34.034800646570915,108.75597605237297,432.5832,400.81744,-0.0,1.0821273,1.6706796,0.0,2,0,0,0
127948175,34.03480039486613,108.75597371943554,432.4885,400.71387,-0.0,1.0818048,1.6708957,0.0,2,0,0,0
128151765,34.03479998284982,108.75597115781784,432.38367,400.6,-0.0,1.0817014,1.6707758,0.0,2,0,0,0
128350391,34.034799502292856,108.75596851588898,432.2765,400.4835,-0.0,1.0815983,1.6706557,0.0,2,0,0,0
128549108,34.03479918137078,108.75596572509107,432.17413,400.372,-0.0,1.0815377,1.6709801,0.0,2,0,0,0
128752612,34.03479900931841,108.75596309955193,432.07178,400.26004,-0.0,1.0814867,1.6708595,0.0,2,0,0,0
128951239,34.03479890933005,108.75596136009379,431.97028,400.14935,-0.0,1.0814518,1.6707414,0.0,2,0,0,0
129149862,34.03479893455036,108.75596047459113,431.8604,400.03107,-0.0,1.0814303,1.6706214,0.0,2,0,0,0
129348530,34.03479903844753,108.75596001548645,431.74332,399.9054,-0.0,1.081413,1.6709436,0.0,2,0,0,0
129552080,34.03479901786858,108.75595959538023,431.61322,399.76736,-0.0,1.0813828,1.670817,0.0,2,0,0,0
129750705,34.034798937987254,108.75595923447385,431.47913,399.62546,-0.0,1.0813656,1.6706909,0.0,2,0,0,0
129954297,34.03479890152973,108.75595892870899,431.3336,399.473,-0.0,1.0813514,1.6710099,0.0,2,0,0,0
130152957,34.03479896022179,108.75595871203133,431.1951,399.32925,-0.0,1.0813737,1.6708821,0.0,2,0,0,0
130351549,34.03479906874866,108.75595855024672,431.06693,399.19653,-0.0,1.0813739,1.6707568,0.0,2,0,0,0
130550175,34.03479916504998,108.75595843408281,430.9359,399.06216,-0.0,1.0813464,1.6710756,0.0,2,0,0,0
130748839,34.034799354369135,108.75595835509309,430.81223,398.9365,-0.0,1.0813303,1.6709476,0.0,2,0,0,0
130947428,34.034799634991,108.75595833521848,430.7016,398.82498,-0.0,1.0813237,1.6708183,0.0,2,0,0,0
131146054,34.03479996723197,108.75595841138647,430.59857,398.72244,-0.0,1.0812602,1.6711334,0.0,2,0,0,0
131349646,34.034800327231146,108.75595849334982,430.49667,398.6214,-0.0,1.0812284,1.6709981,0.0,2,0,0,0
131553284,34.034800525059715,108.75595857738514,430.38678,398.51273,-0.0,1.0811845,1.6708633,0.0,2,0,0,0
131751933,34.03480056693936,108.75595858889325,430.27213,398.39993,-0.0,1.0811298,1.67073,0.0,2,0,0,0
131950490,34.03480049866859,108.75595847099274,430.12918,398.25992,-0.0,1.0810804,1.671044,0.0,2,0,0,0
132154082,34.03480038624119,108.75595835102288,429.9575,398.09198,-0.0,1.0810658,1.6709117,0.0,2,0,0,0
132352708,34.034800186572745,108.75595824570904,429.78473,397.92282,-0.0,1.0810964,1.6707795,0.0,2,0,0,0
132551334,34.034799986296086,108.75595822186638,429.61908,397.76147,-0.0,1.0811268,1.6706489,0.0,2,0,0,0
132749960,34.03479978496555,108.75595831840899,429.5149,397.6606,-0.0,1.0811074,1.6709616,0.0,2,0,0,0
132948632,34.03479962991484,108.75595847017588,429.4732,397.62186,-0.0,1.0811157,1.6708295,0.0,2,0,0,0
133147405,34.03479951059536,108.75595875019322,429.43698,397.58923,-0.0,1.0811436,1.6706984,0.0,2,0,0,0
133350804,34.03479955562822,108.75595891205865,429.37366,397.53003,-0.0,1.0811899,1.6710119,0.0,2,0,0,0
133549431,34.03479962518512,108.75595899087948,429.27222,397.43356,-0.0,1.0812536,1.6708823,0.0,2,0,0,0
133748057,34.03479967644081,108.75595921053639,429.14432,397.31088,-0.0,1.081327,1.6707531,0.0,2,0,0,0
133946840,34.03479975855041,108.75595938415837,429.01993,397.192,-0.0,1.0814009,1.6706232,0.0,2,0,0,0
134155240,34.03479982959982,108.75595948185665,428.90607,397.08337,-0.0,1.0816996,1.6710417,0.0,2,0,0,0
134348905,34.03479980916144,108.75595944294282,428.81842,397.0008,-0.0,1.0815356,1.6708043,0.0,2,0,0,0
134552493,34.034799781192646,108.7559588969041,428.73712,396.92212,-0.0,1.08159,1.671115,0.0,2,0,0,0
134751267,34.03479979644377,108.75595765372321,428.64572,396.83334,-0.0,1.0815883,1.6709806,0.0,2,0,0,0
134949746,34.034799738116405,108.7559559409248,428.55106,396.74292,-0.0,1.0815861,1.6708473,0.0,2,0,0,0
135153338,34.0347998237759,108.75595407561448,428.4681,396.6652,-0.0,1.0815389,1.6707158,0.0,2,0,0,0
135351966,34.034799899826716,108.75595237283265,428.3856,396.58823,-0.0,1.081495,1.6710297,0.0,2,0,0,0
135550694,34.034800077526064,108.75595052316956,428.3071,396.5152,-0.0,1.0814245,1.6708966,0.0,2,0,0,0
135749216,34.03480036033991,108.75594815768652,428.22348,396.4365,-0.0,1.081345,1.670761,0.0,2,0,0,0
135952830,34.03480053510523,108.7559452561013,428.12448,396.34262,-0.0,1.0812389,1.6710701,0.0,2,0,0,0
136151434,34.03480073515068,108.755942430688,428.0571,396.28067,-0.0,1.0811657,1.6709359,0.0,2,0,0,0
136350185,34.03480093921812,108.75593956263471,428.04562,396.27527,-0.0,1.0810884,1.6708022,0.0,2,0,0,0
136548686,34.03480110131283,108.75593683102964,428.04968,396.28543,-0.0,1.0810728,1.6706688,0.0,2,0,0,0
136747312,34.0348012597505,108.75593420465822,428.04324,396.2845,-0.0,1.0810422,1.6709807,0.0,2,0,0,0
136945941,34.03480137422032,108.75593159327343,428.03076,396.27707,-0.0,1.0810088,1.6708468,0.0,2,0,0,0
137154560,34.03480143183284,108.75592865120247,428.00665,396.25757,-0.0,1.0811447,1.6708188,0.0,2,0,0,0
137348157,34.0348014913673,108.75592580509196,427.99,396.2459,-0.0,1.0808431,1.6710258,0.0,2,0,0,0
137556714,34.03480165313964,108.75592255178977,427.98178,396.2433,-0.0,1.0809901,1.670999,0.0,2,0,0,0
137750371,34.034801820527484,108.75591954091392,427.9901,396.2577,-0.0,1.0807335,1.6707622,0.0,2,0,0,0
137949033,34.03480200298407,108.75591650089372,428.00885,396.2826,-0.0,1.0806836,1.6706315,0.0,2,0,0,0
138152596,34.034802319763564,108.75591352280304,428.03262,396.31268,-0.0,1.0806384,1.6709464,0.0,2,0,0,0
138351219,34.03480280071169,108.75591051597998,428.05698,396.34357,-0.0,1.080607,1.6708198,0.0,2,0,0,0
138549845,34.03480334515705,108.75590755800563,428.08475,396.37735,-0.0,1.0805879,1.6706927,0.0,2,0,0,0
138748518,34.03480378511811,108.75590462114559,428.1047,396.40347,-0.0,1.0805364,1.6705661,0.0,2,0,0,0
138957029,34.0348041716014,108.7559014031941,428.12595,396.43124,-0.0,1.0807202,1.6709877,0.0,2,0,0,0
139150690,34.03480449738891,108.75589828095548,428.1549,396.46686,-0.0,1.0804607,1.6707548,0.0,2,0,0,0
139349316,34.034804690305656,108.75589494270407,428.2015,396.52026,-0.0,1.0803975,1.6706277,0.0,2,0,0,0
139547941,34.034804845956096,108.7558915083271,428.2453,396.57095,-0.0,1.0803615,1.670945,0.0,2,0,0,0
139746580,34.034804899003966,108.7558880086255,428.29144,396.6236,-0.0,1.0803,1.6708184,0.0,2,0,0,0
139955129,34.03480468529438,108.75588457417075,428.3326,396.67188,-0.0,1.0804379,1.670796,0.0,2,0,0,0
140148787,34.034804171786654,108.75588172831634,428.36844,396.71478,-0.0,1.0801679,1.6710031,0.0,2,0,0,0
140357345,34.0348035371097,108.75587899324456,428.402,396.75534,-0.0,1.0803213,1.6709753,0.0,2,0,0,0
140551006,34.0348032450165,108.75587627133267,428.4482,396.807,-0.0,1.0801119,1.6707387,0.0,2,0,0,0
140749633,34.034803377297656,108.75587309883953,428.49893,396.86328,-0.0,1.0801321,1.6706094,0.0,2,0,0,0
140948439,34.034803628536736,108.75586953463724,428.54395,396.91492,-0.0,1.0801378,1.6709238,0.0,2,0,0,0
141151849,34.03480378072192,108.75586569273878,428.59222,396.97208,-0.0,1.080135,1.6707951,0.0,2,0,0,0
141350475,34.034803928211744,108.75586189778565,428.64886,397.03717,-0.0,1.0801332,1.670668,0.0,2,0,0,0
141549101,34.03480409117683,108.75585798840832,428.6791,397.07532,-0.0,1.0801204,1.6705414,0.0,2,0,0,0
141747875,34.03480420245158,108.75585417822123,428.6917,397.09512,-0.0,1.0801287,1.6708558,0.0,2,0,0,0
141951364,34.03480433884638,108.7558502964153,428.7029,397.11313,-0.0,1.0801245,1.6707267,0.0,2,0,0,0
142149949,34.03480434248962,108.75584656480304,428.71088,397.12753,-0.0,1.080122,1.6706003,0.0,2,0,0,0
142348572,34.034804234683314,108.75584274749858,428.71765,397.14047,-0.0,1.0801363,1.6709152,0.0,2,0,0,0
142547317,34.034804275975794,108.75583883174765,428.72644,397.1554,-0.0,1.0801877,1.6707885,0.0,2,0,0,0
142755756,34.03480440369723,108.75583475065203,428.7317,397.16672,-0.0,1.0804665,1.6707667,0.0,2,0,0,0
142949417,34.03480452821678,108.7558308351483,428.73245,397.17346,-0.0,1.0803502,1.6705348,0.0,2,0,0,0
143153011,34.034804727517496,108.75582667787937,428.73355,397.1807,-0.0,1.0804541,1.6708499,0.0,2,0,0,0
143351796,34.03480489403303,108.75582242026225,428.7444,397.19745,-0.0,1.0805538,1.6707245,0.0,2,0,0,0
143550263,34.03480505260383,108.75581789595955,428.75998,397.21796,-0.0,1.0806663,1.6706017,0.0,2,0,0,0
143753853,34.034805274257884,108.75581319604578,428.77573,397.23828,-0.0,1.0807881,1.6704785,0.0,2,0,0,0
143952479,34.03480567652309,108.75580859689198,428.77887,397.2464,-0.0,1.0809312,1.670796,0.0,2,0,0,0
144151162,34.034806119761456,108.75580428851681,428.78497,397.2574,-0.0,1.0810509,1.6706743,0.0,2,0,0,0
144349731,34.034806596414676,108.75580003669074,428.78833,397.2662,-0.0,1.0811124,1.6705515,0.0,2,0,0,0
144548381,34.03480712526131,108.75579585076943,428.7857,397.26837,-0.0,1.0811421,1.6704301,0.0,2,0,0,0
144751950,34.03480771741915,108.75579155630165,428.77747,397.26498,-0.0,1.0811507,1.670747,0.0,2,0,0,0
144950598,34.03480803603457,108.7557872406421,428.7674,397.26044,-0.0,1.0811313,1.6706234,0.0,2,0,0,0
145149204,34.03480803822434,108.75578288135378,428.75928,397.2579,-0.0,1.0810922,1.6705034,0.0,2,0,0,0
145352794,34.03480766201944,108.75577859360678,428.753,397.2569,-0.0,1.0810325,1.6708215,0.0,2,0,0,0
145556386,34.03480739807082,108.75577446432955,428.74622,397.25595,-0.0,1.0809553,1.6706995,0.0,2,0,0,0
145755029,34.03480734530306,108.75577027576728,428.7505,397.26532,-0.0,1.0808908,1.67058,0.0,2,0,0,0
145953657,34.03480750070329,108.75576578897095,428.74582,397.26556,-0.0,1.0808012,1.6704621,0.0,2,0,0,0
146152273,34.03480772108262,108.75576117375715,428.73334,397.257,-0.0,1.0807055,1.6707822,0.0,2,0,0,0
146350891,34.034807990002136,108.75575666303105,428.72925,397.2563,-0.0,1.080574,1.6706629,0.0,2,0,0,0
146549522,34.03480811521924,108.75575202554654,428.72586,397.25555,-0.0,1.0804641,1.6705381,0.0,2,0,0,0
146748149,34.03480802079557,108.75574715267656,428.7191,397.25104,-0.0,1.0803517,1.670853,0.0,2,0,0,0
146951737,34.034807797929574,108.75574196932385,428.7071,397.24222,-0.0,1.0802373,1.670725,0.0,2,0,0,0
147150362,34.03480761417724,108.7557368136244,428.70398,397.2424,-0.0,1.0801282,1.6705985,0.0,2,0,0,0
147348996,34.03480751718118,108.75573164914725,428.70468,397.24686,-0.0,1.0800275,1.6709155,0.0,2,0,0,0
147552580,34.034807607976084,108.75572629390538,428.7027,397.24817,-0.0,1.0799335,1.6707882,0.0,2,0,0,0
