timestamp,timestamp_sample,accel_device_id,gyro_device_id,delta_angle[0],delta_angle[1],delta_angle[2],delta_velocity[0],delta_velocity[1],delta_velocity[2],delta_angle_dt,delta_velocity_dt,delta_velocity_clipping
26352670,26351653,3932170,3932170,-6.332751e-05,0.00011578484,0.00028937377,0.0006244697,-0.0006318236,-0.048405357,4965,4965,0
26357084,26356623,3932170,3932170,-0.0002216651,0.00037729702,0.00018881632,0.00013781645,-0.0017871684,-0.04858148,4970,4970,0
26855561,26855263,3932170,3932170,-2.8399909e-05,0.0006134941,2.5599325e-05,0.004229845,-0.0017318979,-0.047565896,4988,4988,0
27354487,27354124,3932170,3932170,-0.0009392272,-0.0009978398,0.00054092915,0.007721899,-0.0036073006,-0.05096144,4987,4987,0
27853276,27852986,3932170,3932170,-0.0022875834,0.00019033019,6.192765e-05,-0.00599326,-0.008339108,-0.046886984,4989,4989,0
28357093,28356844,3932170,3932170,0.0011396309,0.00073259283,-0.00053284364,0.004809893,0.0025329096,-0.04450175,4995,4995,0
28856005,28855697,3932170,3932170,0.0005887215,-0.00042947222,0.00045630865,-0.012566746,-0.00044930197,-0.05787785,4989,4989,0
29354943,29354607,3932170,3932170,-0.0009232649,0.0019488186,-0.00014694281,-0.018927848,-0.0027737746,-0.04948787,4976,4976,0
29853955,29853652,3932170,3932170,-0.0006511862,-0.00063209893,0.0011498576,0.0013343331,-0.005016549,-0.05528448,4976,4976,0
30352546,30352281,3932170,3932170,0.000667779,-0.0007147092,-1.4963671e-05,0.0022946547,-0.004618916,-0.048979275,4989,4989,0
30856461,30856130,3932170,3932170,-0.00031295983,0.00040825186,0.0006028108,0.00024957073,-0.0066879275,-0.0582911,4984,4984,0
31355252,31354994,3932170,3932170,0.0011728324,0.00010700439,0.0005918369,-0.00033780638,-0.0011263978,-0.058989152,4990,4990,0
31854158,31853854,3932170,3932170,-0.0010770378,-0.00012353348,-0.00025416838,0.008972685,0.0033369719,-0.04781502,4987,4987,0
32357953,32357706,3932170,3932170,-0.001491104,-0.0007514106,-0.00045643063,0.021882921,-5.86642e-05,-0.04369518,4946,4946,0
32857122,32856647,3932170,3932170,0.0013975726,-0.0010447957,-0.00029571666,0.0088319285,-0.0015237279,-0.049885806,4981,4981,0
33355966,33355627,3932170,3932170,0.00022295507,0.00018917744,0.00040749894,-0.011489683,-0.003623259,-0.051674243,4974,4974,0
33854550,33854291,3932170,3932170,0.00012429383,-6.0884206e-05,0.00036503092,0.0055453833,-0.0039950623,-0.045536734,4947,4947,0
34353402,34353153,3932170,3932170,-0.00011930277,-0.00048213775,0.00029241657,-0.0038320397,0.008683913,-0.051721223,4951,4951,0
34857309,34857019,3932170,3932170,0.000107784246,0.00034017148,-0.00021932578,-0.0029471624,0.0057127434,-0.04816857,4983,4983,0
35356121,35355869,3932170,3932170,0.00070710067,-0.0001489203,-0.0007216048,0.0012274946,-0.004818827,-0.051506978,4994,4994,0
35855031,35854727,3932170,3932170,0.00013713229,0.0004613021,-0.00019171843,0.0046509295,-0.007419864,-0.04970252,4989,4989,0
36358922,36358639,3932170,3932170,-0.00017857607,-0.00051949435,-0.00011565226,0.0023180833,-0.0046485355,-0.0491994,4967,4967,0
36852922,36852661,3932170,3932170,-0.0012295769,0.00013929243,0.00033789783,0.005668223,0.0017707555,-0.04432833,4970,4970,0
37356619,37356358,3932170,3932170,-0.000759325,-0.0003931886,-0.00059094856,0.0019040585,-0.001212041,-0.040582217,5047,5047,0
37855417,37855163,3932170,3932170,0.00055299426,-0.00036905424,0.0007044377,0.0038733077,0.011909414,-0.042763487,4990,4990,0
38354327,38354026,3932170,3932170,4.067595e-05,0.00055195217,0.00041465176,-0.0017566266,0.0010217227,-0.05736512,4987,4987,0
38853142,38852886,3932170,3932170,0.0010500567,1.5668013e-05,-0.00038360318,-0.0036308807,-0.00016600743,-0.054872308,4988,4988,0
39356989,39356739,3932170,3932170,-0.0013382068,-0.00012654337,-0.00016499872,-0.0053068097,0.0018639448,-0.052948017,4990,4990,0
39855915,39855609,3932170,3932170,-0.00036006063,-2.8554621e-05,-0.00045909124,-0.003554658,0.006062893,-0.052086618,4963,4963,0
40355099,40354655,3932170,3932170,-0.00014721107,-8.6265194e-05,-5.6686436e-06,0.0013567846,0.0005839858,-0.03590441,4974,4974,0
40853600,40853343,3932170,3932170,0.0012584362,-0.00065015565,-2.1390535e-05,0.0019690082,0.009349679,-0.05505266,5008,5008,0
41352561,41352187,3932170,3932170,0.0006518527,-6.25731e-05,-0.00041884786,0.0043015005,-0.0014019625,-0.04922538,4986,4986,0
41856289,41856039,3932170,3932170,0.00044189504,1.7724313e-05,-0.00033499466,0.004907038,0.009415198,-0.05042818,4990,4990,0
42355212,42354900,3932170,3932170,-0.00023728273,-0.0003322196,-7.7118115e-05,0.005884149,-0.011720825,-0.04499878,4989,4989,0
42854061,42853764,3932170,3932170,-0.00054337585,0.0005055894,0.00045823547,-0.0027248103,-0.0018666707,-0.051324256,4989,4989,0
43357857,43357608,3932170,3932170,-0.00047103432,-0.00013656296,0.00046734506,-0.0028436203,-0.0016756734,-0.049286705,4927,4927,0
43852029,43851687,3932170,3932170,0.00036854178,-0.0007606561,-0.00023599702,0.0036593692,0.00302705,-0.049371567,4974,4974,0
44355599,44355344,3932170,3932170,0.00010282885,0.0002813715,0.00027759513,0.0034457825,-0.009876172,-0.048985686,4994,4994,0
44854611,44854204,3932170,3932170,4.177924e-05,-0.0005044932,-0.0006798748,0.003993843,-0.00465578,-0.046195615,4990,4990,0
45353322,45353071,3932170,3932170,1.5446674e-05,-4.551531e-05,0.00014603976,-0.004000613,-0.0043081637,-0.04848928,4995,4995,0
45857235,45856923,3932170,3932170,0.0001430451,-0.0004600099,0.0002454021,-0.002028549,-0.015308459,-0.047808435,4994,4994,0
46356076,46355779,3932170,3932170,0.00021931948,0.00020365487,-0.0005884949,0.0027913274,-0.0007479032,-0.04925093,4990,4990,0
46855025,46854688,3932170,3932170,-0.0009412085,0.00072561175,0.00080101425,-0.003877661,-0.006914517,-0.049405556,4962,4962,0
47354053,47353722,3932170,3932170,-0.000463384,0.00013756195,0.00057413895,-0.0015279144,-0.0044600395,-0.049253006,4954,4954,0
47852634,47852366,3932170,3932170,0.00023539281,-7.0518145e-05,-0.00035060145,-0.0005237172,-0.008258325,-0.05032264,4987,4987,0
48356490,48356218,3932170,3932170,0.00033575713,0.00024012974,-0.00053333153,0.005190915,0.0021149286,-0.061724354,4989,4989,0
48855327,48855081,3932170,3932170,-2.6412336e-05,0.00049901626,0.00027301704,0.007044765,-0.0032005669,-0.03909988,4942,4942,0
49354200,49353944,3932170,3932170,0.00029426554,-0.000515989,-0.00029118115,-0.00428173,-0.00890364,-0.05360721,4984,4984,0
49858059,49857797,3932170,3932170,0.0005292016,-0.00045417974,-0.0009821928,0.003513414,-0.00012311987,-0.047609553,4976,4976,0
50356990,50356695,3932170,3932170,-0.00025553373,-0.00035400607,-8.230126e-05,0.0021472287,0.0014352103,-0.037601385,4963,4963,0
50855992,50855698,3932170,3932170,0.00026251795,-0.0006560117,-0.00048328252,-0.003163326,0.0052484274,-0.047279827,4930,4930,0
51354644,51354385,3932170,3932170,0.00032364827,0.0012856361,0.000106788844,-0.00257761,0.002689902,-0.050138827,4986,4986,0
51853530,51853248,3932170,3932170,0.00044807774,-0.0019933495,0.00027995725,0.002256477,-0.004371232,-0.051866278,4989,4989,0
52357414,52357102,3932170,3932170,7.1556965e-06,0.0010474435,-0.0003095757,-0.00087840616,-0.008018131,-0.04637575,4991,4991,0
52856216,52855965,3932170,3932170,-0.00032251948,-0.0006406642,0.00029111438,0.00770793,0.004646356,-0.052344754,4991,4991,0
53355089,53354837,3932170,3932170,0.000121367644,0.002481407,1.4603824e-05,-0.003258027,-0.0054154443,-0.050660722,4998,4998,0
53859012,53858754,3932170,3932170,-6.9984584e-05,-0.0027439366,-8.694134e-05,-0.0036466052,-0.009383829,-0.044900037,4997,4997,0
54353528,54352714,3932170,3932170,-4.421974e-06,-0.0020179178,-0.00030586004,0.0048452173,0.004533095,-0.04595003,4959,4959,0
54851670,54851416,3932170,3932170,-0.0006569355,-0.0019408434,0.00017229555,7.481129e-05,0.006463313,-0.049086656,4989,4989,0
55355538,55355267,3932170,3932170,0.00040684597,0.0014251182,-0.00074367994,-0.0004525088,0.0060879514,-0.04717544,4988,4988,0
55854499,55854131,3932170,3932170,2.0052616e-06,-0.0013152281,-0.00042172967,0.0036260607,-0.0034861362,-0.04689558,4988,4988,0
56353249,56352994,3932170,3932170,0.0003051063,-0.0021566912,7.5877574e-06,-0.0012527199,-0.010946507,-0.049217608,4987,4987,0
56857265,56856848,3932170,3932170,-0.00032237108,0.0033620968,-9.191447e-05,-0.0022627364,0.005422761,-0.050593197,4990,4990,0
57356026,57355725,3932170,3932170,-0.00012749487,0.00065550936,0.00035571447,-0.0035473139,-0.009662276,-0.049756594,4969,4969,0
57855043,57854796,3932170,3932170,-0.00045858923,0.00095633976,0.0008823671,-0.005584696,-0.0024349925,-0.049410842,4928,4928,0
58353700,58353437,3932170,3932170,-0.00025574813,-0.0003987411,0.0010247679,-0.0039590825,-0.004866413,-0.0494411,4989,4989,0
58852945,58852303,3932170,3932170,3.196097e-05,-0.00058058754,0.0002745925,-0.0027181916,0.00021324797,-0.050396543,4990,4990,0
59356393,59356153,3932170,3932170,0.0007326878,-0.00023957943,-0.00057189894,0.0035375867,-0.0033730934,-0.046004858,4989,4989,0
59855320,59855024,3932170,3932170,-0.0025952088,0.0003381678,0.00022471856,-0.0046893684,-0.010423125,-0.04882792,4986,4986,0
60354131,60353880,3932170,3932170,-2.4611023e-05,-0.0007745239,-0.00064874237,0.0021824492,0.0012716001,-0.047632147,4989,4989,0
60858170,60857733,3932170,3932170,0.00026156424,0.0001998007,0.00013268892,-0.0040167244,-0.01437605,-0.04753659,4985,4985,0
61352101,61351758,3932170,3932170,-0.001514478,8.308617e-05,0.00036706912,-0.0005264216,-0.0033370517,-0.04989213,4969,4969,0
61855719,61855460,3932170,3932170,0.0017750319,-0.0035261074,2.1054033e-05,-0.0024715664,0.00831833,-0.050432634,4989,4989,0
62354640,62354324,3932170,3932170,0.0016308402,-0.00013449579,-1.9913745e-05,-0.0020000164,-0.008447565,-0.04958438,4989,4989,0
62853540,62853193,3932170,3932170,0.0036423067,3.5987738e-05,0.00015397326,-0.004844562,0.0019943276,-0.052626256,4986,4986,0
63357292,63357043,3932170,3932170,-0.00052149635,-0.0011471632,0.00022846539,-0.00023072181,-0.010496199,-0.04813166,4992,4992,0
63856162,63855905,3932170,3932170,0.00038227992,-0.0005732581,-0.00039192731,0.0024156247,0.0067173433,-0.04795112,4988,4988,0
64355075,64354778,3932170,3932170,-0.00022956556,0.0016042662,-5.5465076e-05,-0.005520041,0.0014014539,-0.0483393,4953,4953,0
64854069,64853769,3932170,3932170,-0.00055513973,-0.002401231,0.00047719764,-0.007076401,-0.004884791,-0.049781017,4965,4965,0
65353074,65352498,3932170,3932170,0.002163159,7.3738396e-05,-0.00013223811,-0.0021103988,-0.011217628,-0.050404098,4990,4990,0
65856669,65856357,3932170,3932170,-0.00037550903,0.0039665774,0.00017425459,-0.0069741243,-0.0210425,-0.048231363,4995,4995,0
66355523,66355212,3932170,3932170,-0.0009576677,-0.0021380682,-0.00018497552,0.0023448572,0.00041264587,-0.04580671,4985,4985,0
66854432,66854081,3932170,3932170,0.000117705,0.00024777342,-0.0003220426,-0.0026191024,-0.009734284,-0.049398925,4993,4993,0
67358502,67357931,3932170,3932170,-0.0007691506,0.00061404397,0.00011170141,-0.0036117595,-0.0028509393,-0.051720075,4990,4990,0
67857084,67856836,3932170,3932170,0.0019742781,-0.0019504216,-0.00032600985,0.009387833,-0.002575957,-0.049175814,4992,4992,0
68356721,68355783,3932170,3932170,0.0009654129,9.727509e-05,0.00052536355,-0.0026064587,0.003900181,-0.052438933,4937,4937,0
68854796,68854526,3932170,3932170,0.0020640027,0.0006728736,0.0006512647,0.007556094,0.007007723,-0.0513151,4994,4994,0
69353673,69353386,3932170,3932170,0.00078657304,0.0035726083,0.00056350825,-0.004283393,0.0015350919,-0.050012972,4989,4989,0
69852507,69852250,3932170,3932170,-6.0771243e-05,-0.0007707044,-0.00045223712,-0.006296983,-0.007351021,-0.046265475,4989,4989,0
70356434,70356104,3932170,3932170,-0.0010915494,-0.0010183534,0.0007995196,-0.005207623,-0.00300039,-0.05056288,4990,4990,0
70855283,70854975,3932170,3932170,0.00067035493,-0.0009654857,-0.0007406081,-0.00011036746,-0.0016182474,-0.04755119,4997,4997,0
71354086,71353835,3932170,3932170,-0.00016974454,-0.0032458375,0.00048603312,-0.0034658643,-0.00011417381,-0.05211673,4980,4980,0
71853205,71852886,3932170,3932170,0.00164859,0.0013757265,-0.000845856,0.003194321,-0.0013015356,-0.04702981,4971,4971,0
72351857,72351560,3932170,3932170,0.00087323086,-0.0022017648,-0.00064384873,-0.0008945519,0.007235163,-0.049035247,4983,4983,0
72855683,72855414,3932170,3932170,-0.002276928,0.0029346924,-0.00030120232,-0.008075905,-0.006572096,-0.050319657,4986,4986,0
73354582,73354278,3932170,3932170,0.001980266,-0.0024883547,0.0003544706,0.00029139305,-0.0003903931,-0.04686269,4990,4990,0
73858775,73858132,3932170,3932170,-0.001641682,0.0032897757,0.00078438985,0.00085829216,-0.0010302464,-0.049849246,4991,4991,0
74357251,74356995,3932170,3932170,0.0010149301,0.00034095946,0.00017153387,0.0030508304,-0.008416969,-0.046508852,4988,4988,0
74856200,74855855,3932170,3932170,0.00070370466,-0.0009374473,-7.721061e-05,-0.005402703,-0.0139764855,-0.04789834,4970,4970,0
75355099,75354821,3932170,3932170,-0.0025149488,0.00064566813,0.00043928772,-0.0015320812,-0.007600429,-0.050310634,4963,4963,0
75853859,75853594,3932170,3932170,-0.00017223891,0.00032116394,1.144784e-05,2.1989692e-05,-0.001205706,-0.048054576,4994,4994,0
76352713,76352453,3932170,3932170,-0.00044315297,0.0016045248,-0.00022212163,0.004343017,-0.0005914328,-0.047614153,4989,4989,0
76856682,76856306,3932170,3932170,0.0002703305,0.00037318838,-0.00058224547,0.0037567338,0.01379229,-0.050853282,4983,4983,0
77355509,77355170,3932170,3932170,-0.00013602803,0.00023896368,-0.00021042889,-0.0024913275,0.0013120158,-0.050302874,4988,4988,0
77854284,77854036,3932170,3932170,-0.0001710876,0.0005273869,4.563007e-05,0.0028261924,-0.0071469294,-0.04797198,4988,4988,0
78358223,78357909,3932170,3932170,-0.0004030299,-0.0019411008,-0.0006412524,0.008291193,-0.0020143073,-0.046303373,5008,5008,0
78852241,78851883,3932170,3932170,0.0025633187,-5.53945e-05,0.00038855543,-6.3889333e-06,0.00090496097,-0.04735296,4966,4966,0
79356264,79355909,3932170,3932170,-0.0003361194,-0.000334396,0.00014987157,0.0020193257,-0.009608541,-0.04739114,5279,5279,0
79854828,79854483,3932170,3932170,0.00016428647,-0.0007009017,0.00044316665,0.0060148803,0.005402282,-0.048847597,4988,4988,0
80353789,80353389,3932170,3932170,-0.0018387184,-0.0006631001,-0.0003567085,-0.0032769335,-0.004425471,-0.04854444,4996,4996,0
80857491,80857201,3932170,3932170,-0.0008950305,-0.0011656062,-0.00012334561,0.0023437128,-0.002323604,-0.051341955,4989,4989,0
81356319,81356068,3932170,3932170,0.00024922076,0.0007764362,-0.00012629006,0.0013819161,-0.002004504,-0.046615254,4978,4978,0
81855212,81854954,3932170,3932170,-0.0014964042,-0.00021022453,0.00054664165,-0.003217134,-0.0053248466,-0.048583046,4972,4972,0
82354200,82353892,3932170,3932170,-0.0014544883,0.00049878156,-0.0003000652,-8.335838e-05,0.014738002,-0.05045788,4969,4969,0
82852985,82852676,3932170,3932170,0.00089737144,0.00069489784,-0.00020577747,0.0022379954,0.0056847185,-0.049325466,5004,5004,0
83356776,83356514,3932170,3932170,0.0022591662,-0.0014592467,3.658509e-05,0.0017020227,-0.009496169,-0.046873342,4988,4988,0
83855755,83855379,3932170,3932170,0.0027912047,-8.426837e-05,-0.00033227305,0.0031642842,-0.004260837,-0.04591718,4988,4988,0
84354529,84354280,3932170,3932170,0.0015797573,7.433298e-05,-0.00018484068,-0.0026254102,0.0025942663,-0.049533524,4987,4987,0
84858355,84858099,3932170,3932170,0.0023648255,-0.0008953667,-3.36663e-05,-0.008767116,-0.007463915,-0.047513347,4972,4972,0
85357218,85356964,3932170,3932170,0.0011963182,0.00068953785,0.00022884157,-3.478831e-06,-0.0023857562,-0.046549182,4986,4986,0
85851208,85850950,3932170,3932170,0.0024054204,-0.0001367142,0.00037397735,0.00061890326,-0.0010340263,-0.0504802,4972,4972,0
86355343,86354961,3932170,3932170,-0.0005837786,-0.002323258,0.00053847115,-0.0035714973,-0.006790223,-0.04903892,5253,5253,0
86853877,86853562,3932170,3932170,-0.00022744521,0.0032757006,-0.0003656128,-0.0042573414,-0.0037564838,-0.04766623,4992,4992,0
87352666,87352423,3932170,3932170,-5.1572715e-06,0.0006609203,-0.0004334968,0.0062420233,-0.003041334,-0.049442146,4988,4988,0
87856711,87856279,3932170,3932170,0.0008828852,-0.0009359945,-0.0003620831,-0.0022591427,-0.0016684734,-0.051500775,4990,4990,0
88355411,88355166,3932170,3932170,-0.00011255735,-0.0002292561,0.00011509271,0.0029351441,-0.0032618023,-0.051223483,5012,5012,0
88854791,88854009,3932170,3932170,-0.00015207719,-0.0022545946,-1.6824895e-05,0.004847873,0.0018271238,-0.048415214,4989,4989,0
89353248,89352953,3932170,3932170,-0.0005551957,-0.0019848011,0.00032138656,0.0029514264,-0.0077345483,-0.046984375,4948,4948,0
89852346,89852004,3932170,3932170,0.0005171459,0.0036499246,-0.00042670887,0.0010700054,-0.0014713567,-0.05139507,5254,5254,0
90355853,90355592,3932170,3932170,0.00031633413,-0.0003167725,-0.000294316,0.008324672,0.014387801,-0.050485417,4988,4988,0
90854704,90854457,3932170,3932170,-0.0002693312,-0.0014319115,-2.9654211e-05,-0.0020021142,0.0009055742,-0.048093934,4988,4988,0
91353567,91353323,3932170,3932170,0.00049623445,-0.0009221529,-0.00051341706,-0.0067406525,-0.016483055,-0.04624464,4989,4989,0
91857478,91857227,3932170,3932170,-0.00016407944,0.0007351707,0.00019167978,-0.001735035,-0.005435459,-0.051182635,5030,5030,0
92351389,92351054,3932170,3932170,-0.00017559703,-0.00025994776,-0.0001320521,-0.0004066619,0.0027801697,-0.05070351,4986,4986,0
92855286,92855033,3932170,3932170,-0.00028789937,-0.0021019047,0.0012130281,-0.008389184,-0.003905226,-0.049370334,4977,4977,0
93354281,93354024,3932170,3932170,0.002965205,-0.00033598606,-0.00024570982,0.00074328866,0.0038959535,-0.046046443,4950,4950,0
93852896,93852638,3932170,3932170,0.00014900517,0.0007883711,-0.0003182181,0.008738219,0.0064273537,-0.04777886,4988,4988,0
94356865,94356493,3932170,3932170,0.0025255582,-0.0025090426,6.780746e-05,-0.009694385,-0.0015379125,-0.048598725,4982,4982,0
94855645,94855358,3932170,3932170,0.0020104481,0.0005696249,5.214191e-05,-0.006093548,-0.00415825,-0.050330162,4989,4989,0
95354735,95354226,3932170,3932170,-0.0013567938,0.00081323594,-0.00019581856,0.0020402446,-0.0028160873,-0.049287833,4989,4989,0
95858326,95858078,3932170,3932170,0.0012824963,0.0008931155,-0.00017771058,0.0024183718,-0.008048461,-0.05073986,4989,4989,0
96352793,96352024,3932170,3932170,0.00068307744,-0.0020346174,-0.00068401877,0.0013943631,-0.0043882453,-0.04788676,4947,4947,0
96851438,96851071,3932170,3932170,0.002114849,-0.0021255491,-5.515137e-05,0.0013480694,0.0010476433,-0.047484808,5236,5236,0
97355027,97354675,3932170,3932170,0.0008525691,-0.00055322563,0.0004022745,0.008797959,0.0040332107,-0.04541067,4988,4988,0
97853807,97853541,3932170,3932170,-0.0014520729,-0.0015685995,-0.00013944038,-0.00091998733,-0.006777835,-0.047916926,4989,4989,0
98357646,98357395,3932170,3932170,-0.0014337698,-0.0024682041,-0.0005215146,0.0007263311,-0.0011355069,-0.047752783,4989,4989,0
98856516,98856266,3932170,3932170,0.0009917635,-0.0040382864,-8.079058e-05,-0.0039449325,-0.0071359235,-0.048767257,4993,4993,0
99355379,99355128,3932170,3932170,-0.00031988972,-0.00036571446,-0.00013047957,0.0003140051,0.011805225,-0.05044021,4988,4988,0
99854361,99854104,3932170,3932170,0.00015104465,0.00011944647,-0.0002952269,0.000116472176,0.0101442,-0.049136866,4962,4962,0
100353483,100353108,3932170,3932170,0.0022348478,-0.0021011713,-0.00062742765,0.00019819256,-0.0022945928,-0.05030431,4976,4976,0
100852049,100851726,3932170,3932170,-0.000119619006,-0.0018160602,-0.0006791814,0.00038137837,0.0011700107,-0.04838065,4991,4991,0
101355931,101355579,3932170,3932170,0.002880918,-0.0028061157,0.0005884727,-0.0022039965,0.0038053447,-0.04330558,4989,4989,0
101854838,101854582,3932170,3932170,-0.004111827,0.0006674385,-0.00014492271,0.0023276217,0.008566792,-0.04362913,4998,4998,0
102353728,102353435,3932170,3932170,0.004488405,-0.003136828,-0.00046685242,0.0006927811,-0.004935596,-0.04773134,4988,4988,0
102857545,102857295,3932170,3932170,-0.0024990302,0.0022815936,4.696567e-05,-0.003689198,0.0052665216,-0.049321778,4992,4992,0
103351452,103351166,3932170,3932170,-0.0012910514,-0.0029335322,0.00045223752,-0.0017726249,0.0025443602,-0.054201774,4982,4982,0
103855391,103855113,3932170,3932170,-0.00022161071,0.0008030482,-0.00012599802,0.0026197438,0.012335579,-0.04839857,4969,4969,0
104354475,104354159,3932170,3932170,0.0016760142,0.00093144074,0.00028402163,-0.005029757,0.008784528,-0.057165205,5254,5254,0
104853045,104852753,3932170,3932170,-0.00050319335,0.0019309468,8.292176e-05,0.0018764102,0.016581729,-0.049628485,4988,4988,0
105356860,105356608,3932170,3932170,-0.0016724642,0.0020403275,-2.8409562e-05,-0.0016297617,-0.005878234,-0.050909147,4988,4988,0
105855851,105855474,3932170,3932170,-0.003135239,0.0009729483,-0.00012780259,0.0049678627,0.0031668136,-0.052670535,4989,4989,0
106354639,106354346,3932170,3932170,0.001643347,-0.0011661655,0.0002783183,-0.0012900823,0.0029870754,-0.052680682,4994,4994,0
106853501,106853250,3932170,3932170,0.0024077508,-0.00089710846,0.00016977104,-0.0026801478,-6.665152e-05,-0.0509269,4985,4985,0
107352399,107352173,3932170,3932170,-8.718026e-05,-0.0012131769,-0.00045470695,-0.0003709,-0.008922316,-0.045977414,4961,4961,0
107856569,107856210,3932170,3932170,-0.0008606577,0.00013427518,0.00057586277,-0.008331852,-0.011121013,-0.04668981,5268,5268,0
108355051,108354794,3932170,3932170,0.003033477,-0.00020047245,4.4982382e-05,-0.0009390106,-0.005937935,-0.049474437,4988,4988,0
108853962,108853659,3932170,3932170,-0.0018740514,-0.0009370342,0.0005021996,-0.004551166,-0.004461377,-0.04889049,4988,4988,0
109357865,109357517,3932170,3932170,0.0012331175,0.0014740773,-0.00053602096,0.0047337003,0.0052654124,-0.047223903,4991,4991,0
109856631,109856380,3932170,3932170,-0.00036426322,-0.0010248855,0.00011054318,0.0007445353,-0.0010763407,-0.048082747,4988,4988,0
110355548,110355248,3932170,3932170,0.00038948943,0.0037583315,0.00037198563,-0.00042727054,0.00788621,-0.050560057,4988,4988,0
110854609,110854252,3932170,3932170,-0.0005937718,-0.0025913843,0.00010246993,0.0008724677,0.0013855078,-0.048225623,4968,4968,0
111353645,111353252,3932170,3932170,-0.0022584724,-0.0021687914,0.0004095042,-0.0025078033,-0.003967884,-0.05037091,5260,5260,0
111857144,111856834,3932170,3932170,0.0016294509,0.0005943903,-0.00013767119,-0.0019312409,2.7124976e-05,-0.048843227,4989,4989,0
112355998,112355706,3932170,3932170,0.0009674125,0.001298406,6.407046e-05,-0.0025278109,-0.0048900493,-0.050634198,4993,4993,0
112854847,112854573,3932170,3932170,-3.3578704e-05,-0.00012590401,7.943357e-05,0.00087601476,-0.007603462,-0.04927099,4995,4995,0
113358714,113358422,3932170,3932170,-0.0029759973,-0.0008088494,2.9688685e-05,-0.004784751,0.0025950766,-0.049749352,4989,4989,0
113852558,113852300,3932170,3932170,-0.00025695746,0.0015469156,0.00014480596,0.0027414572,0.001432819,-0.048288144,4989,4989,0
114356630,114356241,3932170,3932170,-0.0028754028,-0.0013598123,-4.9159586e-05,-0.0008681123,-0.008506689,-0.04366641,4984,4984,0
114855663,114855333,3932170,3932170,0.00033255277,-0.003783804,1.597592e-05,0.003215296,0.005923766,-0.048136193,5030,5030,0
115354150,115353889,3932170,3932170,0.0009715181,0.0011976142,-0.00023524792,0.0033755805,0.0070919944,-0.04576558,4990,4990,0
115853224,115852768,3932170,3932170,0.0035805872,-0.0016493264,-0.00045650656,-0.0019530173,0.008689808,-0.05223213,5003,5003,0
116356908,116356615,3932170,3932170,0.0022946452,0.0005410085,0.0004062577,-0.00253348,0.003621295,-0.048666243,4995,4995,0
121854676,121854373,3932170,3932170,0.000558212,0.0007774688,-0.00028722684,-0.0046570776,-0.010102302,-0.049236342,4986,4986,0
122358305,122357977,3932170,3932170,-0.00045378643,-0.0019303869,-8.6133565e-05,0.0045940396,-0.0010749804,-0.042113554,4993,4993,0
122857086,122856839,3932170,3932170,-0.0009165086,0.0004422638,0.00046038887,-0.013101459,-0.0061884834,-0.051932085,4988,4988,0
123356026,123355722,3932170,3932170,0.00028003627,-0.0016822767,-0.00033530488,-0.0047901534,-0.0047222255,-0.050291333,5001,5001,0
123854918,123854574,3932170,3932170,0.00013890197,0.0009935204,0.0005657161,0.0070458967,0.009508334,-0.047488034,4990,4990,0
124353826,124353441,3932170,3932170,-0.0010002092,-0.0016879074,0.00043857945,0.002278637,0.0090760505,-0.045104142,4985,4985,0
124852612,124852385,3932170,3932170,0.0004798736,0.002170945,0.00020168429,-0.0043984293,0.0030192307,-0.054710723,4936,4936,0
125356795,125356378,3932170,3932170,0.0002610412,0.0007288302,0.00047059805,-0.0038996676,0.0014593576,-0.051802352,4957,4957,0
125855296,125855028,3932170,3932170,0.00020531379,-0.0014017549,-0.00039346708,-0.00020517115,-0.002909434,-0.056389328,4989,4989,0
126354222,126353895,3932170,3932170,-0.0011812996,-0.0036219289,-0.0007719946,0.0014226355,0.010043791,-0.04602623,4988,4988,0
126858068,126857753,3932170,3932170,-0.00017701268,0.0032598197,-0.0006067104,-0.0032522362,0.005850447,-0.05391493,4990,4990,0
127356908,127356617,3932170,3932170,-0.00049872726,0.0014932859,0.00020608831,-0.0067986404,-0.015827253,-0.04968998,4987,4987,0
127855756,127855484,3932170,3932170,0.0012944012,-0.004213049,-0.00028161323,-0.0015592745,-0.0023322431,-0.046317622,4989,4989,0
128354677,128354429,3932170,3932170,0.00044608873,0.00011246315,-0.00047131372,-0.006857818,-0.013527193,-0.04737498,4947,4947,0
128853824,128853452,3932170,3932170,0.00037594046,-0.00048785764,-0.00084394764,0.011198782,0.014758324,-0.04379328,4972,4972,0
129357355,129357090,3932170,3932170,-0.00028893806,-0.0036627888,0.00086771004,-0.0011143789,0.001041706,-0.05126851,4995,4995,0
129856247,129855954,3932170,3932170,0.00039018513,-1.0473406e-05,-7.58295e-05,-0.002621041,0.006282375,-0.0486682,4990,4990,0
130355053,130354806,3932170,3932170,-0.0006285477,0.00050006143,0.00034172428,-0.0044376007,0.0031904716,-0.047793902,4989,4989,0
130859397,130858663,3932170,3932170,-0.0009916344,0.0005889603,0.00031124373,0.001669949,-0.0012562794,-0.053136922,4988,4988,0
131352785,131352539,3932170,3932170,-0.0004165504,-9.139234e-05,0.0003961422,-0.0036378384,-0.001164347,-0.050888356,4988,4988,0
131852158,131851511,3932170,3932170,-6.904548e-05,0.00037672272,0.00015615509,-0.002661542,-0.0106622875,-0.043211892,4970,4970,0
132355762,132355465,3932170,3932170,-0.0005685636,0.0004388713,8.003914e-05,0.002604044,0.0069993166,-0.05147812,4969,4969,0
132854392,132854134,3932170,3932170,-6.326217e-05,-4.7687623e-05,-2.3633782e-05,-0.00402281,-0.0071704015,-0.04765912,4991,4991,0
133353319,133352995,3932170,3932170,-0.001208138,0.0027628038,0.000295542,-0.006317155,-0.005440097,-0.043593723,4988,4988,0
133857221,133856851,3932170,3932170,-0.00057142344,-0.00020824742,0.00064719183,-0.0012797151,0.004927725,-0.05096188,4989,4989,0
134356065,134355718,3932170,3932170,0.00026604955,-0.003551076,-0.00043817124,0.005468183,-0.0057507535,-0.04616605,4988,4988,0
134854838,134854586,3932170,3932170,0.00013918935,0.0034051423,-0.0001403217,0.00012121528,0.0113019515,-0.05275835,4989,4989,0
135353859,135353543,3932170,3932170,0.00023386611,-0.0039057264,-0.0003741398,0.002824288,-0.005096948,-0.045715332,4973,4973,0
135852893,135852591,3932170,3932170,-5.9149203e-05,0.0035725331,-0.00011121596,-0.0074425647,-0.007828688,-0.049698185,5024,5024,0
136356434,136356174,3932170,3932170,-1.7418668e-06,-0.0002694961,0.00028929452,0.004759617,0.0011661989,-0.04639206,4980,4980,0
136855286,136855041,3932170,3932170,-0.00228519,0.001991035,0.00041654406,-0.006974244,0.00018609886,-0.049052,4989,4989,0
137359457,137358958,3932170,3932170,-0.00023874278,-0.00040698802,0.0005714326,-0.0072988323,-0.006310447,-0.05097616,5047,5047,0
137858155,137857764,3932170,3932170,0.00027107733,-0.00060399954,-0.00021297182,-0.0008629298,0.016577698,-0.050984498,4989,4989,0
138352232,138351644,3932170,3932170,0.0005760761,0.0032857417,7.224097e-05,-0.0057708723,-0.00037226945,-0.052411992,4989,4989,0
138855805,138855508,3932170,3932170,9.967576e-05,-0.0016968898,-3.5471858e-05,0.00012902606,7.1197624e-05,-0.050818153,4970,4970,0
139354927,139354553,3932170,3932170,-0.0013299063,-0.0009086167,0.0006548692,-0.0020319866,0.0015091122,-0.04855235,4958,4958,0
139853548,139853233,3932170,3932170,-0.0033854123,0.0013644759,6.1256615e-05,0.0004296749,0.0061362586,-0.049559146,4990,4990,0
140357366,140357089,3932170,3932170,0.0031426435,-0.0016081844,0.00039078115,-0.00876549,6.742837e-05,-0.053882554,4990,4990,0
140856257,140855956,3932170,3932170,-0.0014863518,0.0012040742,0.0002901602,-0.0001679514,-0.0012308882,-0.051228393,4987,4987,0
141355136,141354834,3932170,3932170,0.0003186161,0.00050135935,-0.00011579594,-0.003932101,0.011290306,-0.04593654,4988,4988,0
141853991,141853691,3932170,3932170,-0.001190171,-0.0017645159,0.00042868353,-0.0054781265,-0.014879596,-0.050592974,4989,4989,0
142352879,142352583,3932170,3932170,0.001726104,-0.00019290533,0.00041813526,0.000612733,0.0064457827,-0.04996958,4972,4972,0
142856911,142856596,3932170,3932170,5.6531508e-06,-8.93688e-05,-2.0701344e-05,-0.00025117653,-0.008643602,-0.045435306,4966,4966,0
143355537,143355278,3932170,3932170,-0.0006444618,0.0011792069,0.00045345206,-0.004214481,-0.002846741,-0.05065668,4989,4989,0
143854623,143854152,3932170,3932170,0.0009013824,-0.0008304092,-0.0005283647,-0.00651946,-0.00978615,-0.05182783,4995,4995,0
144358268,144358012,3932170,3932170,0.00047683975,-0.00023678863,0.00017026241,0.008381608,-0.008992023,-0.048121985,4999,4999,0
144857127,144856874,3932170,3932170,-0.0035499372,0.00072629255,0.0003688694,-0.004708032,-0.0006286746,-0.051592603,4993,4993,0
145350991,145350747,3932170,3932170,0.0033605173,-0.0024541127,0.00020601059,-0.008298877,-0.012773205,-0.046669632,4988,4988,0
145855690,145854654,3932170,3932170,-0.00018808462,0.0026992774,-5.2198924e-05,0.00433902,0.0044550593,-0.048612334,4970,4970,0
146353937,146353645,3932170,3932170,-8.8875575e-05,-0.0013953204,0.0005981904,-0.0011261402,-0.0027334206,-0.05210638,4967,4967,0
146852595,146852337,3932170,3932170,0.0036414398,-0.0021096605,-0.0007391957,-0.00053232006,-0.0035899966,-0.048446007,4989,4989,0
147356506,147356199,3932170,3932170,0.0009937182,0.0016443506,0.00032224896,-0.0007650195,-0.005840716,-0.045680974,4990,4990,0
147855372,147855065,3932170,3932170,0.00031186888,0.0026239944,-0.0003780247,-0.0043120994,-0.0095312465,-0.047233693,4982,4982,0
148354176,148353927,3932170,3932170,-0.0004680849,0.0011410847,-6.480861e-05,-0.0078035966,0.001249665,-0.048225205,4988,4988,0
148858047,148857783,3932170,3932170,-0.00054570445,0.002116076,0.00014107201,-0.005337798,0.0037412648,-0.055094875,4988,4988,0
149351929,149351676,3932170,3932170,-0.0004964351,-0.004185632,0.0004404924,0.00354551,0.0045985943,-0.049850643,4964,4964,0
149856037,149855743,3932170,3932170,-0.00024622848,0.0010018143,-4.249967e-05,-0.00086895615,0.00024613552,-0.054361697,4981,4981,0
150355408,150354389,3932170,3932170,-0.0003514582,0.00016427199,0.00017857457,0.0015643578,-0.007988599,-0.047421686,4993,4993,0
150853557,150853254,3932170,3932170,-0.00046646816,0.00016026021,0.00022442632,-0.00021922983,-0.0044715074,-0.050031997,4982,4982,0
151357424,151357109,3932170,3932170,3.6012007e-06,-0.00052003574,0.00034027643,0.00014679038,-0.0017998195,-0.047743276,4986,4986,0
151856300,151855975,3932170,3932170,0.0006613786,-0.0007406458,-0.00012243856,0.0029677353,-0.00059697725,-0.048579577,4984,4984,0
152355152,152354844,3932170,3932170,0.00040722897,-0.00026649027,-0.0003673458,-0.002433638,-0.0036173116,-0.051245444,4989,4989,0
152853984,152853727,3932170,3932170,0.00034467175,-0.00064657495,-0.000556037,0.001033881,-0.0109676635,-0.047725275,4991,4991,0
153353576,153352760,3932170,3932170,-0.00024333083,-0.00049097865,0.00035701133,-0.0014805077,0.005258946,-0.048776697,4921,4921,0
153856700,153856433,3932170,3932170,0.00012702034,-0.00025486635,-0.00015832252,0.0036955858,0.00106036,-0.05081919,4988,4988,0
154355597,154355301,3932170,3932170,0.00038213492,-0.0002767244,-0.0001074316,0.0013914736,0.010589864,-0.05109141,4937,4937,0
154854474,154854171,3932170,3932170,0.00021474934,-0.00035943298,-0.00030094158,0.0040730312,-0.0018291778,-0.04715595,4992,4992,0
155358367,155358024,3932170,3932170,0.00026270436,0.00013510749,-0.00012421138,0.0004213377,-0.010132834,-0.047017153,4989,4989,0
155852283,155851958,3932170,3932170,0.00040434967,-0.00024742848,-0.00027715944,-0.0010290376,-0.01692764,-0.045712963,5040,5040,0
156356032,156355778,3932170,3932170,7.499407e-05,-0.00017858269,-0.00044977746,0.0051341215,-0.006987854,-0.047138575,4965,4965,0
156855091,156854796,3932170,3932170,-6.56497e-05,-0.0002895049,0.00033441334,0.005441718,0.004627822,-0.048277203,4984,4984,0
157353764,157353494,3932170,3932170,0.00045031044,7.000091e-05,-0.0005510076,0.0044575776,0.0016590366,-0.047761768,4989,4989,0
157857672,157857350,3932170,3932170,-0.0002955449,-2.060592e-06,0.00026872853,0.0002859402,0.0039007622,-0.049539547,4982,4982,0
158356503,158356217,3932170,3932170,0.00059253455,-0.0039386125,-0.00047089256,0.00039210622,0.0007354669,-0.048360914,4983,4983,0
158855653,158855089,3932170,3932170,0.00058141147,0.0042343857,-0.00028535826,-0.0053457217,-0.0043587293,-0.048793208,4992,4992,0
159354203,159353954,3932170,3932170,-0.0005300132,-0.0035800436,0.0004959667,0.0057743574,-0.0020482622,-0.048280414,4990,4990,0
159853181,159852854,3932170,3932170,-0.0008395436,0.004413425,0.0003154685,0.0011739518,-5.838903e-05,-0.04928772,5027,5027,0
160352170,160351839,3932170,3932170,-0.0025317012,0.0033540716,0.0004436222,-0.007616875,-0.006806731,-0.05112644,4967,4967,0
160855811,160855543,3932170,3932170,0.0018950831,-0.0024726556,0.00034006743,0.0067106346,0.0085330065,-0.050193436,4988,4988,0
161354688,161354411,3932170,3932170,0.0010486343,0.0013775021,0.00031334383,-0.0034961854,0.00018083477,-0.049893986,4989,4989,0
161853631,161853279,3932170,3932170,0.0016260576,0.0028108,-0.00023361976,0.0022679274,-0.0068646497,-0.04672877,4990,4990,0
162357479,162357136,3932170,3932170,-0.00048140282,-0.0019713272,0.00048874953,-0.0071516554,0.008265839,-0.05377671,4990,4990,0
162856283,162856004,3932170,3932170,-0.00079304806,0.002289401,-0.00017491881,-0.005170438,0.0034590347,-0.051706314,4987,4987,0
163355251,163354885,3932170,3932170,-0.0012547419,-0.00025744727,0.00023311992,-0.00079185487,-0.0035561065,-0.0493455,4962,4962,0
163854197,163853940,3932170,3932170,-0.00055467663,-0.0004031295,0.00011004261,0.0007439053,-0.003135246,-0.05119366,4976,4976,0
164357866,164357598,3932170,3932170,-0.0006195158,0.0007297298,0.00029575237,0.006342254,-0.0038576678,-0.04783383,4993,4993,0
164856779,164856465,3932170,3932170,-0.00050403335,0.0002743611,0.00028392035,-0.0016828091,-0.0058672302,-0.050419178,4992,4992,0
165355640,165355350,3932170,3932170,-0.00013843247,0.0040365327,-0.0004715575,0.005356806,-0.0001256504,-0.048977245,4977,4977,0
165854518,165854201,3932170,3932170,5.574914e-05,-0.00071786036,0.0004911611,-0.001661098,0.0041584447,-0.05057838,4993,4993,0
166353314,166353066,3932170,3932170,-0.0017851741,-0.00048274317,0.00037344894,0.002005112,-0.0042898636,-0.051279534,4976,4976,0
166852207,166851934,3932170,3932170,0.002693524,0.0006236164,0.00038898326,-0.006637309,-0.021181047,-0.04978655,4989,4989,0
167356379,167355918,3932170,3932170,0.0015526838,0.0024651468,-0.00012385879,0.0023400201,0.007194767,-0.05100218,4970,4970,0
167854957,167854699,3932170,3932170,-0.0005260774,0.0011334717,-0.00013808522,-0.005769275,-0.00623335,-0.051511806,4989,4989,0
168353793,168353524,3932170,3932170,-0.0004203818,0.0018267315,-0.00055257446,-0.0028482333,-0.001631268,-0.05071382,4989,4989,0
168857696,168857386,3932170,3932170,0.00031486922,-0.00229532,8.038279e-05,-0.00068761583,0.0029208418,-0.05121539,4994,4994,0
169356530,169356254,3932170,3932170,0.00020366022,-0.0033166015,-0.00013805929,-7.8859775e-05,-0.006003113,-0.047487892,4993,4993,0
169855463,169855122,3932170,3932170,-0.0022210632,0.0024339338,0.00092120806,-0.0029716429,-0.010820061,-0.050392263,4992,4992,0
170354288,170353987,3932170,3932170,0.0037596896,0.00084651244,0.0002569168,-0.0070788157,-0.0016013419,-0.05151904,4985,4985,0
170853355,170853048,3932170,3932170,-0.0010845354,-0.0024207633,0.00019439468,0.004379559,-0.0046412353,-0.05014812,4995,4995,0
171356974,171356708,3932170,3932170,-0.00074349926,-0.004259957,-0.00015531864,0.0010334186,-0.005308121,-0.04862175,4988,4988,0
171855891,171855583,3932170,3932170,-9.567579e-05,0.002377674,-0.0003634872,0.0005019929,-0.008349043,-0.046711944,4992,4992,0
172354690,172354444,3932170,3932170,0.00030394658,-0.003463141,0.00097358937,0.0008061439,-0.0034522882,-0.04935423,4988,4988,0
172858737,172858304,3932170,3932170,-0.0015012885,0.00083755725,-0.00070419814,-0.0051995725,-0.013074581,-0.04811465,4938,4938,0
173352431,173352182,3932170,3932170,-0.002901829,0.0002424453,1.4655801e-05,-0.0007833048,-0.011340022,-0.048236743,4982,4982,0
173856405,173856037,3932170,3932170,0.004336627,-0.0003551226,0.00040504927,-0.004639208,-0.011609521,-0.050961453,4974,4974,0
174355236,174355008,3932170,3932170,-0.001343887,-0.0026223739,0.0006385152,-0.012114278,-0.006596414,-0.050370928,4964,4964,0
174854043,174853772,3932170,3932170,0.0029705558,-0.00069392397,-0.00023383638,-0.0023329004,-0.0037115784,-0.049053878,4989,4989,0
175357896,175357631,3932170,3932170,9.610168e-05,0.0039735744,-0.00094575837,-0.0061582853,-0.005077301,-0.053123068,4991,4991,0
175856753,175856502,3932170,3932170,-0.00091121544,-0.000706967,0.00031610133,-0.00734127,-0.010688977,-0.04667693,4994,4994,0
176355715,176355365,3932170,3932170,-0.0015537431,-0.003365978,-6.0634557e-05,-0.0005267538,-0.012167726,-0.046697028,4985,4985,0
176854524,176854233,3932170,3932170,-0.0006896839,0.0020943466,-0.00040835142,0.0016484588,0.0059292526,-0.04946518,4989,4989,0
177353435,177353146,3932170,3932170,0.00057894323,0.001912956,-0.00046352023,0.0028490985,0.003288134,-0.048153166,4966,4966,0
177852395,177852086,3932170,3932170,-0.0012728185,-0.0024435772,-0.00010869222,-0.003307818,9.648658e-05,-0.045850225,4967,4967,0
178356474,178356104,3932170,3932170,-0.0024813353,-0.0014839994,-0.0003021042,-0.008447079,-0.0042619817,-0.05177522,5263,5263,0
178854967,178854702,3932170,3932170,0.0010076183,0.0005678417,0.0003018846,-0.0043845507,-0.012706046,-0.050537877,4998,4998,0
179358823,179358559,3932170,3932170,0.00090545753,0.0032374312,-0.00042577068,-0.0028838527,-0.016575983,-0.046169803,4998,4998,0
179857735,179857418,3932170,3932170,0.0015308073,-7.4798896e-05,-0.00044527592,0.00041475974,0.010871098,-0.04307578,4990,4990,0
180351936,180351301,3932170,3932170,0.0003638098,0.0031944914,0.00011519865,-0.006356543,0.002003096,-0.05336633,4991,4991,0
180855449,180855154,3932170,3932170,-0.0005619974,0.00094500184,0.00078635965,-0.002595902,-0.004151104,-0.0495602,4985,4985,0
181354605,181354118,3932170,3932170,-0.00030616167,-0.004450648,-3.6349313e-05,0.0043349057,0.00071909744,-0.049625244,4966,4966,0
181853155,181852893,3932170,3932170,-0.00021800531,0.0009422854,-0.0003889509,0.0058369595,0.010559051,-0.05163292,4985,4985,0
182357066,182356746,3932170,3932170,0.00042123653,-0.00032870748,-0.0010914253,0.00045788454,0.0026210926,-0.048006743,4988,4988,0
182855873,182855614,3932170,3932170,8.969444e-05,-0.00025389087,-5.3957105e-05,-0.003317056,-0.014246605,-0.050135635,4989,4989,0
183354793,183354483,3932170,3932170,-0.0007999549,0.00050354487,0.00040600984,0.00025452665,-0.003403975,-0.049655385,4989,4989,0
183853640,183853397,3932170,3932170,-1.9812569e-05,-0.00011081604,0.0003413785,-0.0021365408,0.0096198,-0.049830914,4970,4970,0
184352516,184352219,3932170,3932170,1.4520963e-05,0.0002983392,0.000248901,-7.269565e-05,0.0056355163,-0.0494372,4974,4974,0
184856387,184856164,3932170,3932170,0.00017883477,-0.00019928964,-0.0002093672,-0.006972138,0.0062653855,-0.050259527,4949,4949,0
185355457,185355211,3932170,3932170,-0.0010876919,0.00080722535,0.000119414384,-0.0007210765,-0.002851101,-0.053461894,5257,5257,0
185854231,185853815,3932170,3932170,0.0004806646,-0.00048618225,-0.0008413319,0.0011164425,-0.004995891,-0.048103053,4993,4993,0
186357957,186357668,3932170,3932170,7.853673e-05,-0.00037443466,-0.0005283229,0.0029854535,-0.0011637431,-0.047627307,4987,4987,0
186856786,186856536,3932170,3932170,-0.00029650476,0.00017385214,-0.00011202054,-0.0055036526,2.3760691e-05,-0.049471237,4974,4974,0
187355743,187355405,3932170,3932170,-0.00047398495,0.00025937273,0.00062057946,-0.0023393591,-0.006264613,-0.04842834,4989,4989,0
187854611,187854289,3932170,3932170,0.00023778161,0.00016618846,-0.00047920452,-0.0037416003,0.0045749117,-0.05043705,4953,4953,0
188353584,188353241,3932170,3932170,-0.0008470986,0.000574387,0.00014825756,-0.0020204373,0.0035097755,-0.049030043,4981,4981,0
188857679,188857259,3932170,3932170,0.00026759508,0.0041292356,0.00021888262,0.0013907015,-0.0069006314,-0.05002858,4959,4959,0
189356121,189355865,3932170,3932170,-0.0012738747,-0.003907855,-0.00036346613,0.003800486,0.00027309766,-0.049920157,4985,4985,0
189854986,189854733,3932170,3932170,-0.0017671582,0.0031545293,-0.00025913792,0.0019317882,-0.0025122163,-0.04653633,4988,4988,0
190358873,190358594,3932170,3932170,-0.002554984,-0.00038939333,0.000998567,-0.0061592027,-0.0044865673,-0.050694354,4993,4993,0
190852722,190852470,3932170,3932170,-0.0018833207,-0.0011668524,0.000112368194,-0.008110133,-0.005676568,-0.048951074,4989,4989,0
191356585,191356330,3932170,3932170,-0.0012296742,0.0031796894,-0.00047906436,-0.0036951916,-0.0010482033,-0.048810948,4991,4991,0
191855659,191855381,3932170,3932170,0.00045465483,-0.0037778679,0.00030343604,0.0013072476,6.03144e-06,-0.045855626,4979,4979,0
192354621,192354314,3932170,3932170,-3.4756475e-05,0.0013968161,6.665416e-05,-0.00024811487,-0.002005714,-0.051407337,4954,4954,0
192853233,192852931,3932170,3932170,0.00044508034,0.0041188225,-0.00041925913,0.0019958473,0.00039040155,-0.04925826,4986,4986,0
193357462,193356792,3932170,3932170,6.271027e-05,0.0011851428,-0.0002996858,-0.010994572,-0.0071865013,-0.04730228,4993,4993,0
193855956,193855656,3932170,3932170,0.0039404393,-0.001745771,-0.0007559596,-0.0008013622,-0.0045165727,-0.046879694,4989,4989,0
194354841,194354530,3932170,3932170,-0.0019071741,-0.0034092434,2.863193e-05,-0.0016850112,-5.6700865e-05,-0.05098055,4990,4990,0
194853721,194853423,3932170,3932170,0.0025600472,-0.0014329253,-0.00026516072,-0.005915144,-0.011772599,-0.05633855,5008,5008,0
195353213,195352343,3932170,3932170,-0.0034562415,-0.00047668905,-0.00012878623,-0.006252924,-0.016813964,-0.046054363,4974,4974,0
195856689,195856350,3932170,3932170,-0.0014503492,0.0007045221,-0.00043528725,-0.0048141493,0.008771839,-0.050224487,4957,4957,0
196355250,196354985,3932170,3932170,0.0026849122,-0.0037956492,0.000148389,-0.0009922718,-0.0047160443,-0.04596361,4986,4986,0
196854234,196853854,3932170,3932170,-0.0010744008,0.003506833,-0.00016551247,-0.013471807,0.006475986,-0.04882096,4989,4989,0
197357958,197357711,3932170,3932170,0.00037391743,-0.0025403395,-7.198208e-05,0.0014646478,-0.0074423677,-0.053398736,4988,4988,0
197851894,197851599,3932170,3932170,-0.0006776928,-0.0025052612,0.0003919242,-0.011879373,-0.0048977663,-0.058255598,4997,4997,0
198355756,198355447,3932170,3932170,0.0030163494,0.0016924184,0.0010374009,-0.011881968,-0.016436404,-0.063166775,4988,4988,0
198854778,198854387,3932170,3932170,-0.00046838654,0.0043441583,0.00071644236,0.0010035768,0.0046132547,-0.060214534,4973,4973,0
199353763,199353424,3932170,3932170,-0.00019434998,-0.0011903287,-0.00015290013,-0.005877482,-0.018138427,-0.04688791,4956,4956,0
199857303,199857040,3932170,3932170,0.0017934104,-0.0043511256,-4.3199878e-05,0.0029235217,-0.012019591,-0.047909647,4988,4988,0
200356262,200355927,3932170,3932170,-0.00030721465,0.0013187834,0.0005096337,-0.0021095502,0.0057036094,-0.051110756,5008,5008,0
200855070,200854777,3932170,3932170,0.0010875049,0.0030363926,-0.000704002,0.0038312445,0.0046802643,-0.04952594,4985,4985,0
201353953,201353645,3932170,3932170,-0.00023685077,-2.467331e-07,-0.00028440298,-0.0012370296,-0.002730296,-0.05647622,4988,4988,0
201853209,201852516,3932170,3932170,0.00034117434,-0.00035922744,0.0001634046,-0.0008210781,0.001481961,-0.049784817,4990,4990,0
202356749,202356414,3932170,3932170,-0.00041272547,0.0019234892,-0.0010688036,0.0025179219,0.009741931,-0.049077537,4968,4968,0
202855950,202855468,3932170,3932170,0.0009304089,-0.000564141,-0.000967533,0.0012389489,-0.008007808,-0.047215242,4974,4974,0
203354413,203354108,3932170,3932170,-0.000321479,-0.00013569297,-0.0001332075,0.00036420135,-0.005364077,-0.04940251,4990,4990,0
203858219,203857964,3932170,3932170,-0.00014005046,0.00018940787,-0.00020171583,0.0073281694,0.013434708,-0.049747095,4989,4989,0
204357078,204356831,3932170,3932170,-4.078815e-05,-0.00033797923,0.0001088414,0.0031099543,0.009549141,-0.04371456,4983,4983,0
204850966,204850712,3932170,3932170,-0.0003829333,0.00047627633,-6.6604254e-05,-0.0049453066,-0.0050416104,-0.051431246,4989,4989,0
205354816,205354568,3932170,3932170,0.00034382296,0.00028783773,6.47595e-05,-0.0023840952,-0.0027514517,-0.050825723,4986,4986,0
205853842,205853547,3932170,3932170,6.272672e-05,0.00054209307,-0.0009522917,-0.0048232907,-0.0024571936,-0.051054556,5026,5026,0
206353044,206352600,3932170,3932170,0.0004951712,-0.0001791917,-0.002328836,0.0054811235,0.0042982777,-0.049072184,4976,4976,0
206856460,206856161,3932170,3932170,0.00015108468,5.5347606e-05,-0.0022694443,-0.0007163665,7.1124523e-06,-0.04688436,4989,4989,0
207355282,207355030,3932170,3932170,-0.00020872272,-0.00022679026,-0.0024210254,0.0024357042,-0.0063233594,-0.047682654,4986,4986,0
207854206,207853897,3932170,3932170,0.00014133865,-0.00026419733,-0.0022139861,-0.0077490374,-0.0046826084,-0.050266743,4987,4987,0
208353101,208352765,3932170,3932170,0.000699818,-0.00047120726,-0.0016438039,-0.0041548843,-0.0135708805,-0.04908092,4985,4985,0
208851977,208851634,3932170,3932170,-1.4600222e-05,2.0085196e-05,-0.0021769202,0.0017870475,-0.002046526,-0.047372296,4989,4989,0
209357314,209355603,3932170,3932170,0.00092216424,-0.00044803464,-0.0025050065,-0.0050194557,0.0036103772,-0.04760158,4943,4943,0
209854812,209854564,3932170,3932170,-0.0004951178,-0.00046821107,-0.002247711,-0.0030891455,-0.013110322,-0.046132326,4968,4968,0
210353482,210353226,3932170,3932170,-0.0006134844,1.0056115e-05,-0.0022047292,-0.0032530436,-0.0008441126,-0.04884511,4987,4987,0
210857330,210857083,3932170,3932170,0.00019443042,-0.0003443847,-0.0020859945,-0.00668833,-0.011908725,-0.050315805,4985,4985,0
211356246,211355952,3932170,3932170,0.0001863184,-0.00075953524,-0.0025525494,-0.0040048496,-0.0005769966,-0.048744094,4987,4987,0
211855264,211854908,3932170,3932170,-0.00064623763,0.00019970459,-0.0018296306,-0.004305218,-0.011901882,-0.050261624,5061,5061,0
212354021,212353721,3932170,3932170,0.00015526012,-0.00038522357,-0.0027362867,-0.007254792,-0.012351182,-0.048104577,5021,5021,0
212853250,212852607,3932170,3932170,-8.493953e-05,-0.00059900736,-0.0030557641,-0.0053876396,-0.012754812,-0.04916551,4978,4978,0
213356854,213356608,3932170,3932170,0.0005273803,-0.00035984025,-0.0017214667,0.0045982394,0.009634978,-0.0453536,4971,4971,0
213855583,213855283,3932170,3932170,-0.00033166257,0.00029865396,-0.00035296954,0.001864497,0.010845534,-0.04546169,4986,4986,0
214354469,214354151,3932170,3932170,-0.0003366377,0.001282604,0.0005543416,-0.0064284927,-0.004886151,-0.048753798,4990,4990,0
214858266,214858006,3932170,3932170,0.0010425099,0.0022391186,-0.00054483063,0.004437012,0.00779076,-0.047287166,4984,4984,0
215352138,215351886,3932170,3932170,-0.0005718482,-0.0015582719,5.7025565e-05,-0.0031186056,0.0010327225,-0.044509754,4982,4982,0
215856100,215855762,3932170,3932170,-0.001117625,0.00094151613,0.0008993918,-0.005159981,-0.004040727,-0.054788068,5005,5005,0
216354958,216354671,3932170,3932170,-0.00075014535,0.001169242,0.0007125223,0.0050283596,-0.012335189,-0.047960132,4961,4961,0
216854088,216853697,3932170,3932170,0.00353091,0.00090802356,-0.00081711257,0.014536633,0.009962439,-0.053001877,4925,4925,0
217357602,217357337,3932170,3932170,-0.0038471364,0.00012864308,0.0001634475,-0.0007295562,0.0010377746,-0.049137913,4989,4989,0
217856455,217856205,3932170,3932170,0.0022455177,-0.00041027446,-0.00074747077,0.0069399485,-0.0031091855,-0.050331995,4975,4975,0
218355371,218355079,3932170,3932170,-0.0038748183,0.00030742976,-2.9544011e-05,0.0015888829,0.006376645,-0.04777612,4995,4995,0
218854231,218853941,3932170,3932170,0.0033592163,0.0008227916,-0.00021623394,0.0033270852,0.00048923265,-0.05246118,4983,4983,0
219353068,219352816,3932170,3932170,0.0039890097,-0.00047634123,-0.00081029336,0.0018169984,-0.0075466973,-0.049794722,4995,4995,0
219857029,219856773,3932170,3932170,-0.0023739291,-0.00022752814,-0.0005918266,-0.0030359868,-0.014853296,-0.044654433,4965,4965,0
220355964,220355711,3932170,3932170,0.0027217506,-0.00022897984,0.0003173135,-0.007117418,-0.025979731,-0.041113026,4956,4956,0
220854669,220854406,3932170,3932170,-0.0035461895,0.00023040219,0.00017425293,0.0015950239,-0.0088584,-0.045603395,4991,4991,0
221358545,221358261,3932170,3932170,0.0013796529,-0.0007847684,-0.00046957735,0.004590099,-0.006155969,-0.05234366,4987,4987,0
221857379,221857130,3932170,3932170,4.4870194e-05,0.0026952573,-0.00032072788,-0.008027881,-0.014073941,-0.04758185,4990,4990,0
222356273,222356019,3932170,3932170,0.00042632385,-0.00048506213,0.00012779242,-0.0027840126,-0.005814059,-0.05160374,4945,4945,0
222855158,222854901,3932170,3932170,-7.3262585e-05,0.0006381557,2.3359135e-05,-0.004196105,0.0041246605,-0.050507396,5023,5023,0
223354106,223353738,3932170,3932170,-0.0002542492,0.000880256,-0.0005142754,-0.0011174689,-0.0060813976,-0.046063546,4965,4965,0
223853137,223852795,3932170,3932170,-0.00084773585,0.00049163104,0.0005130139,-0.0036145118,0.002450444,-0.048491094,4977,4977,0
224356715,224356459,3932170,3932170,0.00022958816,-0.0003200272,-5.6620513e-05,0.0012162449,0.012230348,-0.051447753,4988,4988,0
224855607,224855329,3932170,3932170,-2.7860482e-05,0.002803885,-0.00010650471,0.00073911005,0.005431971,-0.05012755,4990,4990,0
225354491,225354200,3932170,3932170,6.082476e-05,-0.0008840356,-0.00013471213,0.0041781357,-0.004465973,-0.048446607,4992,4992,0
225853397,225853067,3932170,3932170,0.0001288619,0.004117502,-0.00012286191,-0.0008191811,0.006763918,-0.051744223,4990,4990,0
226352198,226351935,3932170,3932170,0.0005676699,-0.0035346383,-0.00021656955,0.0024985068,-0.005678516,-0.050213087,4990,4990,0
226856125,226855794,3932170,3932170,0.00053707376,-0.0037970026,2.5056746e-05,0.004923771,-0.0051227575,-0.047425404,4973,4973,0
227355167,227354825,3932170,3932170,-0.0003141588,0.0033751612,0.0001566016,0.0032989092,-0.006716375,-0.049744952,4965,4965,0
227854611,227853528,3932170,3932170,0.00072123,0.00034286102,-0.00048527238,0.0022480334,-0.011366374,-0.04678135,4990,4990,0
228357697,228357388,3932170,3932170,-0.0001393041,-0.00058829517,-0.00034197597,0.009613406,0.004030132,-0.04849708,4991,4991,0
228856646,228856261,3932170,3932170,0.001048528,0.0017571838,0.00046485823,0.002083727,-0.014016869,-0.05463762,4993,4993,0
229355366,229355121,3932170,3932170,-0.005019932,0.0007733878,0.00050214696,0.004538937,-0.0013071056,-0.04665992,4988,4988,0
229854318,229853992,3932170,3932170,0.00057021965,0.0019040434,0.00037940286,-0.001117975,-0.0004776058,-0.050432984,4990,4990,0
230353166,230352866,3932170,3932170,-0.0002863398,0.0013532492,-0.00050140335,0.0042682556,-0.009331909,-0.049054857,4931,4931,0
230857271,230856866,3932170,3932170,0.00046855383,0.0009083922,-0.00056315743,0.0073158476,0.0039304583,-0.046922356,4973,4973,0
231355845,231355584,3932170,3932170,0.00013934346,-0.0005234852,-0.00096811936,0.0041515073,-0.005593224,-0.048546217,4987,4987,0
231854769,231854453,3932170,3932170,0.0006779151,-0.0003642793,-0.00027045573,0.0030472307,0.0016062555,-0.048607916,4990,4990,0
232358564,232358309,3932170,3932170,0.00014962797,0.00028118904,0.000482855,-0.009543362,-0.00865431,-0.05232595,4988,4988,0
232852445,232852194,3932170,3932170,-4.975191e-05,0.0033372794,0.0006060731,-0.005767021,0.001816094,-0.049593598,4984,4984,0
233356386,233356048,3932170,3932170,-0.0003194708,-0.00053582893,0.0007670637,-0.002044417,-0.004627525,-0.051102176,4990,4990,0
233855216,233854916,3932170,3932170,-0.001956729,0.0027458358,-0.00040995254,-0.0007025646,0.00476193,-0.048631,4975,4975,0
234354248,234353997,3932170,3932170,6.477926e-05,-0.0015318589,0.00037279484,-0.0053904923,-0.013602652,-0.050053842,4970,4970,0
234852960,234852653,3932170,3932170,-0.0036521656,0.00083889527,0.0002770572,0.0038683973,0.010019407,-0.050997127,4990,4990,0
235356850,235356546,3932170,3932170,0.0018895608,0.0014740559,-0.00080675416,0.003937898,0.0005470628,-0.047759783,5026,5026,0
235855644,235855377,3932170,3932170,0.0014783342,0.0014527133,-0.0003559991,0.0038631218,0.009193009,-0.048586514,4989,4989,0
236354860,236354249,3932170,3932170,-0.0030043363,-0.0020954472,-3.2340635e-05,0.0013399496,-0.007634452,-0.0481663,4992,4992,0
236853424,236853172,3932170,3932170,0.0009203131,-0.0013563358,-0.0001272953,-0.004428251,-0.0049602995,-0.049016785,4997,4997,0
237352759,237352059,3932170,3932170,-7.5880266e-06,0.001035168,2.0122774e-05,-0.0006883931,0.008638438,-0.051945508,4961,4961,0
237856304,237855979,3932170,3932170,-0.0006472337,0.0007096408,0.00057114486,-0.007297551,-0.011385118,-0.04942199,4973,4973,0
238354964,238354708,3932170,3932170,-0.00031403927,0.0006021591,0.0005061389,-0.007415916,-0.0021015466,-0.050231323,4987,4987,0
238853854,238853576,3932170,3932170,2.4094626e-05,0.0013459179,-0.0007818182,9.203e-05,0.001802687,-0.048248988,4975,4975,0
239357718,239357433,3932170,3932170,0.0006922674,-0.0038822119,-0.00010284029,0.001185405,-0.006785613,-0.0475061,4989,4989,0
239851580,239851332,3932170,3932170,-0.0015000002,0.00033563306,0.00054707343,-0.01313814,-0.018308131,-0.05201264,5008,5008,0
240355422,240355170,3932170,3932170,-0.00044610086,0.0045497995,-7.703803e-05,0.00190581,0.0064088404,-0.048848677,4988,4988,0
240854346,240854078,3932170,3932170,-0.00030292867,-0.002131825,0.00022742382,-0.0058029513,-0.00010788496,-0.049146567,4976,4976,0
241353362,241353047,3932170,3932170,-0.00020507751,0.0042116777,-4.906752e-05,-0.004239706,-0.001896035,-0.04797028,4967,4967,0
241857025,241856763,3932170,3932170,0.0015491393,0.0002728114,-0.0006964642,-0.003758124,0.0017101922,-0.04566632,4985,4985,0
242355901,242355632,3932170,3932170,-0.002813553,-0.0045420188,0.00033784864,-0.00693463,-0.011086437,-0.047138974,4967,4967,0
242854751,242854502,3932170,3932170,0.0028370302,0.000844061,0.00037209957,-0.00036158704,0.00074011844,-0.049932674,4990,4990,0
243353634,243353369,3932170,3932170,0.00013070759,0.0001237283,0.00024642632,-0.013354921,-0.008445638,-0.05195957,4990,4990,0
243852497,243852241,3932170,3932170,-0.0016758251,-0.0018265697,-0.00025757108,0.003440508,-0.008951719,-0.047023997,4992,4992,0
244356395,244356094,3932170,3932170,0.0017463884,-0.0032019317,-0.00023732414,0.004699799,-0.0038117038,-0.04738423,4979,4979,0
244855532,244855137,3932170,3932170,3.866632e-05,0.0032909883,0.00022459067,-0.001675508,-0.00706765,-0.048813056,4957,4957,0
245359093,245358824,3932170,3932170,-0.000574245,0.0051590814,8.015399e-05,0.0041665495,0.0063837976,-0.0496777,4994,4994,0
245857949,245857687,3932170,3932170,0.0003281098,-0.0042680106,-0.00034555863,-0.0049264953,-0.0015561411,-0.049737386,4988,4988,0
246356803,246356555,3932170,3932170,-0.0009104479,0.0047081606,-0.00011960494,-0.0032292774,-0.0061590667,-0.047470864,4985,4985,0
246855796,246855424,3932170,3932170,0.000117493364,-0.0035583766,0.0006203863,-0.0068302196,0.009132465,-0.050058343,4989,4989,0
247354581,247354293,3932170,3932170,0.00022545077,-0.00022689208,-0.00018799983,-0.0021477663,-0.0008697939,-0.047466643,4987,4987,0
247853489,247853170,3932170,3932170,0.0010075163,-0.002399778,-0.00048713942,-0.0016251181,-0.0019262277,-0.046830215,4960,4960,0
248357429,248357133,3932170,3932170,-0.0008162006,0.0020428838,0.00031678771,-0.0060073864,0.00011076651,-0.051223427,4978,4978,0
248856155,248855886,3932170,3932170,0.00058016315,0.0012461395,-0.00069916155,-0.0013195287,-0.0039754165,-0.04881983,4989,4989,0
249355020,249354755,3932170,3932170,-0.00086432445,0.0025075302,-6.802827e-05,-0.0006887683,-0.0109471,-0.051074248,4988,4988,0
249853972,249853622,3932170,3932170,0.00037927725,-8.7049666e-05,0.00013390416,-0.0029581827,-0.0020032045,-0.050357137,4989,4989,0
250352827,250352492,3932170,3932170,-0.00071364694,0.0014114317,0.0003268291,-0.0029879322,-0.003325362,-0.049063914,4989,4989,0
250851610,250851358,3932170,3932170,0.0022151358,-0.00015694789,-7.106201e-05,-0.003431643,-0.013792781,-0.047506686,4988,4988,0
251355527,251355217,3932170,3932170,-0.001067935,-3.0297695e-05,0.0007136919,-0.002526987,0.005815504,-0.051803287,4989,4989,0
251854506,251854257,3932170,3932170,-0.004067176,-0.00083819684,-0.0005832086,0.0047135763,-0.0054374663,-0.04540539,4979,4979,0
252353225,252352954,3932170,3932170,0.001983932,-0.0012607872,0.0001573513,-0.0066381944,0.0027408053,-0.05484337,4991,4991,0
252857091,252856832,3932170,3932170,-0.00044022474,0.004372262,-2.285636e-05,-0.0026563671,0.0007891733,-0.053418767,4981,4981,0
253355971,253355678,3932170,3932170,-0.00084371166,-0.002328781,0.0013200092,-0.00038317262,-0.013169849,-0.04401658,4990,4990,0
253854847,253854548,3932170,3932170,-0.00012256902,0.0011904589,0.0010898622,0.012821287,-0.00025632617,-0.0457508,4992,4992,0
254353707,254353414,3932170,3932170,-0.00050014205,-0.0013848048,0.0005669101,0.0032081704,-6.993349e-05,-0.047101095,4989,4989,0
254852542,254852293,3932170,3932170,0.001624696,-0.0012105032,-0.0004280505,-0.005636418,-0.0018187511,-0.048584264,4952,4952,0
255356467,255356235,3932170,3932170,1.5800046e-05,0.0045131794,-9.111944e-05,0.000110316876,0.00027762805,-0.050256625,4966,4966,0
255855670,255855297,3932170,3932170,-0.000552273,-0.0003843463,1.103648e-05,0.0023487848,0.01013333,-0.05731624,5273,5273,0
256354169,256353875,3932170,3932170,0.00063549174,-0.0033534165,-0.00014761902,0.0017916139,0.011653744,-0.052642275,4989,4989,0
256858049,256857748,3932170,3932170,-0.0002829812,0.00025098148,0.00012747903,-0.004232245,0.0076973606,-0.04613378,4987,4987,0
257351918,257351612,3932170,3932170,-0.00078618823,0.00084092974,0.0006512784,0.00437925,-0.0073569478,-0.051886417,4982,4982,0
257855741,257855479,3932170,3932170,0.00044372064,-0.00074345444,-0.0003465238,0.0009862918,-0.00930118,-0.046488773,4998,4998,0
258354635,258354337,3932170,3932170,0.0014160894,-0.00324489,-0.0004149764,0.0027358609,0.0059760488,-0.053189605,4989,4989,0
258853733,258853302,3932170,3932170,-0.00012408798,0.0008304525,-0.0002317119,0.0102698235,-0.003226602,-0.049191993,4950,4950,0
259357673,259357324,3932170,3932170,-0.0003266804,0.00078692794,-0.00017181289,-0.0031725941,0.0032647203,-0.054770846,5248,5248,0
259856200,259855932,3932170,3932170,-0.00042697642,-0.0022798937,0.00065459,-0.004395195,-0.013709195,-0.046892956,4991,4991,0
260355102,260354837,3932170,3932170,-0.0013727422,0.0030149894,-0.00020965037,-0.0045968425,-0.012883352,-0.04860957,5028,5028,0
260853917,260853666,3932170,3932170,-0.00019598441,-0.0031574564,-0.0006494734,-0.00097569614,-0.0010820631,-0.04939459,4984,4984,0
261352906,261352534,3932170,3932170,0.0012641673,0.0041588596,-0.00036160345,0.0004022011,-0.000113361384,-0.04816134,4988,4988,0
261856701,261856392,3932170,3932170,-0.0028857966,0.0013412747,0.0006451286,-0.0086403545,-0.0011437787,-0.051471636,4989,4989,0
262355637,262355388,3932170,3932170,-0.00030159103,-0.0031107946,0.00073791976,0.0016941024,-0.008836204,-0.046497025,4954,4954,0
262854700,262854402,3932170,3932170,-0.00031896195,0.0029323832,9.803244e-05,-0.0018693439,-0.006743151,-0.052377,5260,5260,0
263358293,263358030,3932170,3932170,0.00071174395,-0.0029069697,0.00019918686,-0.006245968,-0.0033288114,-0.048797455,5031,5031,0
