timestamp,timestamp_sample,xyz[0],xyz[1],xyz[2]
26355332,26355104,-0.0017998707,-0.008135142,0.055916794
26359098,26358868,-0.00886312,0.020036224,0.054318525
26376433,26376203,-0.025174739,-0.031344596,-0.013778851
26397537,26397308,0.0079431245,-0.05258065,-0.08110121
26418654,26418411,-0.008403096,-0.029805146,-0.014418617
26436031,26435790,0.045740675,-0.016990602,0.06977545
26457126,26456894,-0.0040251785,0.018816434,-0.026846865
26477003,26476775,0.019957284,-0.0059643253,0.004340111
26596296,26596068,-0.028752277,-0.016942356,-0.022755386
26617265,26617038,0.01704961,0.0072671,0.035892885
26634643,26634414,-0.02596137,0.01528487,-0.0325613
26655756,26655521,0.027206816,-0.021120746,-0.028610313
26676846,26676621,-0.023357479,-0.015759809,0.046771765
26697993,26697765,-0.0018269862,0.029456817,0.022335816
26715336,26715105,0.0021675348,-0.010302533,-0.047102034
26736434,26736209,-0.0063236514,-0.029897291,0.01653024
26757539,26757313,-0.035512142,0.025921725,0.051592007
26774923,26774693,0.04421523,0.021353964,-0.04350284
26796023,26795796,-0.0047386657,-0.0456724,-0.026614372
26817129,26816899,-0.016842898,-0.03240045,0.035219274
26838236,26838003,-0.025044821,0.052004,0.037120245
26855745,26855508,0.02942256,-0.002528063,-0.036209345
26876888,26876664,0.0016545489,-0.08181539,-0.009722478
26897875,26897646,-0.023469606,-0.015879288,0.01778037
26915200,26914970,0.0040788758,0.078489475,0.00019724775
26936300,26936075,0.0140930405,-0.029668825,-0.016081309
26957414,26957178,-0.0109747825,-0.10862737,-0.014945394
26978516,26978283,-0.001959504,-0.0040487247,0.00298148
26995886,26995661,0.007328631,0.10313858,0.018471772
27016994,27016766,-0.009452081,-0.04891908,0.01726353
27038117,27037876,-0.016214399,-0.13482526,-0.02450637
27055471,27055248,0.02399968,0.09978016,-0.01324862
27076593,27076359,0.014212491,0.11011388,0.046372123
27096448,27096219,-0.03766586,-0.08955707,0.043683615
27117585,27117358,-0.012381556,-0.13730104,-0.043091554
27135042,27134818,0.046084322,0.1376103,-0.027514052
27156033,27155801,0.0076210783,0.11316833,0.08085292
27177132,27176908,-0.06591403,-0.083762385,0.08279775
27194546,27194322,0.021201227,-0.06958241,-0.09596408
27215617,27215389,0.0653678,0.117428415,-0.06794247
27236720,27236493,0.035425592,0.13539419,0.073510535
27257828,27257596,-0.05838104,-0.036296837,0.116526105
27275208,27274976,-0.01730237,-0.10493258,-0.09183588
27296306,27296080,0.07527228,0.071849786,-0.10810745
27317417,27317183,0.06578417,0.14253107,0.03953279
27334811,27334570,-0.07904478,-0.09240461,0.092183724
27355894,27355668,-0.06058477,-0.1200586,-0.05997778
27377000,27376776,0.060879126,0.01150862,-0.12570587
27398193,27397964,0.0875727,0.109604016,-0.011580631
27415690,27415465,-0.068697736,-0.03017969,0.11392355
27436583,27436357,-0.08148026,-0.08928116,-0.011927161
27457688,27457461,0.019657861,-0.020029603,-0.11487944
27475085,27474844,0.06323289,0.06984415,0.045066215
27496172,27495945,-0.035117544,-0.0015469375,0.11386967
27517272,27517048,-0.08272841,-0.05662424,0.032934826
27538388,27538159,-0.018298162,-0.03437956,-0.07509131
27555770,27555538,0.07083854,0.045822874,-0.00011902049
27576861,27576635,0.012478958,0.025497193,0.0831925
27597974,27597741,-0.06311923,-0.016331395,0.051066395
27615347,27615120,-0.005980952,-0.023159485,-0.06910203
27636451,27636224,0.056755014,0.009713888,-0.028873613
27656357,27656130,0.04828089,0.03299457,0.056545056
27677555,27677326,-0.0268073,0.01149986,0.05638171
27696034,27695810,-0.06864342,-0.027974546,-0.03905618
27717147,27716915,-0.024978967,-0.025619686,-0.064219765
27737010,27736776,0.06366642,-0.0005704738,0.009180941
27755623,27755397,0.07231643,0.010191756,0.08466273
27775496,27775263,-0.0076546967,0.010972694,0.034532774
27796594,27796365,-0.08722875,0.051158324,-0.02583002
27817695,27817468,-0.17808865,0.11401843,-0.06368451
27835073,27834847,-0.14039536,-0.007201022,0.0028001636
27856182,27855953,-0.07505613,-0.087610096,0.026363598
27877326,27877099,-0.042047597,-0.12124605,0.015006868
27894664,27894438,0.1453452,-0.2108587,0.0020210834
27915818,27915587,0.07602343,-0.14510413,0.0492243
27936961,27936736,-0.074242234,-0.072025076,0.08886362
27957980,27957753,-0.012952911,-0.0025314593,0.078209415
27975356,27975125,-0.08873614,0.03537156,0.067118965
27996456,27996229,0.086836,-0.04617607,0.029475119
28017564,28017336,0.08284393,-0.0465664,0.023419509
28034942,28034712,-0.06504213,-0.061115343,0.05345991
28056054,28055825,-0.14232984,0.011494485,0.034916464
28077150,28076921,0.00083821174,0.0041279374,-0.047389086
28098254,28098025,0.01692775,0.04845344,-0.029051987
28115636,28115410,-0.044288784,0.104810774,-0.026965894
28136732,28136507,-0.021382872,0.120421365,-0.042126447
28157835,28157611,0.15232815,0.00079796487,-0.026013393
28175245,28175013,0.10521238,-0.005356735,-0.06898254
28196371,28196143,-0.0019537914,-0.00717195,0.015968649
28217586,28217347,0.08096386,-0.11037084,0.026302433
28238530,28238302,0.0770658,-0.108169414,0.0742305
28255913,28255681,0.049517814,-0.05841787,0.073805645
28277012,28276785,-0.04960406,-0.050226,0.03525727
28298162,28297929,0.014800848,-0.045867022,-0.008040496
28315492,28315268,0.04631926,-0.064523436,0.021488678
28336607,28336372,-0.17313206,0.04612601,0.028250834
28357722,28357476,-0.03923506,0.06041596,-0.05995667
28377571,28377338,0.034331113,0.0634759,-0.026042996
28394942,28394718,-0.09156332,0.029969638,0.016807178
28416090,28415865,-0.145806,0.0064882007,0.018155085
28437156,28436926,0.05871087,-0.019878771,0.026867164
28454586,28454362,0.10742484,0.025194239,0.02145165
28475729,28475503,-0.066531636,0.0012645205,0.025015026
28498000,28497760,0.07708911,-0.014974335,-0.014626887
28517853,28517623,0.080650955,0.025206497,-0.006306786
28535223,28534996,0.029411035,0.02351194,0.024043221
28556329,28556100,-0.018632537,0.050744914,-0.05197259
28577430,28577204,0.133167,0.0532231,-0.0515915
28594810,28594584,0.1328637,0.014754748,-0.05564599
28615921,28615687,-0.0481674,0.018381247,-0.07149782
28637023,28636793,0.03243646,-0.02320304,-0.041652102
28658124,28657896,0.062250126,0.021181872,0.021167098
28676756,28676518,-0.02066277,0.09903069,0.015281107
28696616,28696380,-0.06676765,0.042093676,-0.015067868
28717740,28717514,0.09127609,-0.08814605,0.032700617
28735202,28734969,0.044284616,-0.025858607,-0.013033588
28756360,28756127,-0.037694078,0.029475516,0.027865287
28777298,28777069,0.038245276,-0.056744408,0.019973839
28798407,28798173,0.026584,-0.044061925,0.08700719
28815792,28815553,-0.14182983,-0.023524452,0.087141685
28836882,28836656,-0.010966044,-0.05564872,0.04022137
28857990,28857760,0.02056207,-0.09471333,0.059826113
28875366,28875140,0.039217222,-0.059011057,0.082003206
28896469,28896244,-0.17055188,-0.048305728,0.07039872
28917579,28917347,0.072084025,-0.08078887,0.014780217
28937437,28937210,-0.028518893,-0.019889614,0.073765814
28956073,28955838,-0.07775085,-0.0037871578,0.113949195
28977164,28976934,-0.05612211,-0.0710466,0.0006571103
28997044,28996818,0.030305665,-0.04180773,0.048900124
29014502,29014274,-0.030162837,-0.029908925,0.10051506
29035509,29035283,-0.09318539,-0.04739591,0.05077307
29056614,29056384,-0.026078464,-0.07874547,0.01715642
29077718,29077488,0.004769441,0.04213068,0.054185297
29095090,29094867,-0.08606512,-0.011644609,0.061072174
29116203,29115973,-0.0612141,-0.0909527,0.015805675
29138552,29138319,0.020518705,0.0581183,0.024797246
29154683,29154455,-0.028179407,-0.021258418,0.07268665
29175795,29175558,-0.11024323,-0.07058423,0.027732661
29196893,29196663,0.015049717,-0.018260425,0.0067734914
29217994,29217766,-0.03294994,0.040852178,0.013970355
29235372,29235146,-0.14220941,-0.008463808,0.07066019
29257736,29257494,0.026340075,-0.003435478,-0.0101203
29277660,29277432,-0.0058569987,0.037395556,-0.0010641597
29295161,29294937,-0.055147037,0.0006720812,0.07355432
29316068,29315836,-0.100460954,-0.013037543,0.034444477
29337162,29336937,0.024814127,-0.014837373,-0.054171864
29358273,29358045,-0.039628383,0.11469014,-0.0064478596
29375660,29375425,-0.08890068,0.05850293,0.06818213
29396752,29396527,-0.018248843,0.000135825,-0.040860947
29417857,29417631,-0.018105363,0.07138334,-0.0012926835
29435246,29435011,-0.0061579575,0.022200504,0.054702263
29456367,29456136,-0.04870097,-0.010358973,-0.05653135
29477444,29477218,0.042451564,0.04841204,-0.041386332
29498545,29498322,-0.03871012,0.121184655,-0.013876036
29515956,29515722,-0.11374359,0.06393456,0.021353895
29537070,29536838,-0.042522077,0.07878449,-0.04821216
29557013,29556787,0.04482092,0.06994624,-0.056296416
29575518,29575289,-0.058145512,0.053524315,-0.0027748365
29596620,29596393,-0.10899247,0.09082033,-0.043737896
29616483,29616255,-0.014965355,0.045518268,-0.06597539
29637585,29637359,-0.05374476,0.14537308,-0.04528998
29654969,29654738,-0.11586685,0.09720396,0.0070030773
29676069,29675843,-0.05398533,0.042795155,-0.07968009
29697199,29696970,-0.04905082,0.18003923,-0.014337052
29714553,29714326,-0.122441456,0.14281185,-0.014562448
29735655,29735429,0.004555049,0.08453684,-0.05835361
29756784,29756559,-0.08441216,0.06124692,-0.04916897
29777868,29777638,0.11168339,0.020060591,-0.023611289
29795244,29795017,0.061851867,0.08841883,-0.014366945
29816474,29816250,0.019399235,0.0011653173,-0.03878464
29838893,29838658,0.09661188,-0.08291824,0.041960772
29854834,29854607,0.04448873,-0.008392537,0.06560946
29875934,29875708,0.089853264,-0.09793047,0.020594576
29897046,29896811,0.025323594,-0.046110284,0.02094638
29918143,29917915,-0.01917276,-0.050823446,0.008870718
29935518,29935295,-0.0011559386,-0.061571833,-0.0072747953
29956627,29956399,-0.101180054,0.09980129,-0.012636058
29977728,29977504,-0.02715284,0.012267866,-0.029612537
29995150,29994925,-0.027538287,0.06276835,0.0016888868
30016222,30015986,0.0009991837,0.008401059,-0.027498007
30037314,30037090,0.087308966,0.020543529,0.047395322
30058425,30058200,-0.041006744,-0.057741873,0.0010534365
30075830,30075601,0.008600408,-0.05776028,-0.028104696
30097078,30096846,0.049936656,0.031135736,0.013004057
30118014,30117781,-0.16332994,-0.0075568277,0.0077756564
30135388,30135160,-0.017511858,-0.06944517,-0.044448745
30156497,30156265,0.058265563,-0.018266648,0.020871459
30177608,30177368,-0.017595554,0.002064583,0.056690697
30194980,30194747,0.00477344,0.0060554543,0.02747852
30216087,30215851,0.08957869,-0.08836396,-0.046535734
30235943,30235714,0.029308341,0.012557044,-0.015428446
30257042,30256817,-0.06342876,0.016354267,-0.00885896
30274435,30274206,0.00015462737,-0.0016019989,-0.0067304345
30295532,30295302,0.06699129,-0.011491577,0.03316661
30316631,30316405,-0.033736307,0.023526844,-0.02192244
30337736,30337511,-0.024535887,-0.048483245,-0.033526585
30355202,30354966,0.008877685,-0.032369003,-0.013283973
30376403,30376177,0.07927846,0.01810229,0.03790751
30397327,30397096,-0.06920958,0.027111964,-0.0021284712
30414707,30414476,-0.10524311,0.009997646,-0.00031675628
30435808,30435579,0.014703007,-0.062331486,0.0052624648
30456926,30456698,0.06867941,-0.024282785,-0.01795479
30478016,30477787,-0.009759684,0.03304311,0.01419622
30495397,30495167,0.04978954,0.017589599,0.053201042
30516498,30516270,-0.107857496,-0.0054590716,0.020318124
30537606,30537374,-0.101936534,-0.0045049903,-0.053281713
30554996,30554759,-0.07145866,-0.008050997,-0.04140805
30576086,30575858,0.17712502,-0.052963294,-0.010574807
30597209,30596975,-0.052172292,0.060330834,0.032064613
30618339,30618113,-0.035474215,0.012883252,-0.018725656
30635798,30635573,0.027226174,-0.050593805,-0.0149945915
30656775,30656548,0.025378391,-0.051118944,-0.021565607
30677879,30677653,0.055376273,0.032821182,0.031368427
30695289,30695065,0.038967628,0.007285353,0.04967858
30716365,30716136,-0.11754445,0.008095106,-0.01649077
30737477,30737253,0.090198986,0.025694968,0.007472286
30758577,30758343,0.0718455,0.025150713,0.017070698
30775963,30775723,0.013656645,0.008882976,-0.01942687
30797070,30796838,-0.09158528,0.03931758,0.024435157
30816917,30816689,0.010134433,-0.03641533,-0.028185526
30835539,30835310,-0.0013054601,-0.021620113,-0.039492574
30856670,30856435,0.045337953,0.017076997,0.038329322
30876566,30876340,-0.016103707,-0.006999301,0.043832276
30897700,30897478,-0.13791513,-0.017815027,-0.0066196118
30915173,30914942,-0.08237539,-0.036920656,-0.028658098
30936097,30935865,0.10120309,0.0058761984,0.020015849
30957199,30956967,-0.020801295,0.047701243,0.0074130986
30974576,30974346,-0.048516557,0.026403045,-0.011734254
30995675,30995450,0.04499154,-0.0025606519,0.015793191
31016779,31016554,0.07003757,0.021418769,0.0023764635
31037915,31037691,-0.0035447795,0.049190793,0.025762493
31055271,31055038,-0.059325203,0.0748225,0.037391696
31076378,31076153,-0.07210254,-0.025688162,-0.02922394
31097470,31097245,0.09394264,-0.028480329,0.00106275
31114853,31114626,0.1322325,0.0043895566,0.008913925
31135967,31135738,0.016728716,0.027262475,-0.012870961
31157230,31156990,-0.027153168,-0.015752373,0.014363324
31178316,31178088,0.14983048,-0.029193388,-0.036598314
31195542,31195316,0.05502508,-0.056909017,-0.039576005
31216653,31216421,0.057430696,0.03191646,0.05253467
31237755,31237523,-0.11405935,-0.007540396,-0.026709426
31255136,31254910,-0.07893497,-0.05045275,-0.003920521
31276237,31276007,0.035863157,-0.027504226,0.010010576
31297339,31297110,-0.06339627,0.009065559,0.011871003
31318449,31318216,-0.022393648,-0.039424524,0.004994708
31335833,31335595,-0.06163865,-0.026849415,-0.02401267
31356926,31356698,0.06899194,-0.0050311047,0.008274134
31378039,31377806,-0.08797595,0.049339965,0.040128496
31395413,31395182,-0.12532982,-0.005932073,-0.009324387
31416575,31416337,0.02633468,-0.017897371,0.015956402
31436576,31436344,-0.09093412,0.08529394,0.00029260805
31457490,31457261,0.031839803,0.03536291,-0.008258428
31476114,31475872,-0.05208405,0.17473677,0.033313137
31495972,31495742,-0.12633385,-0.053247444,0.026889928
31517124,31516889,0.046538834,-0.031397626,0.006323728
31534442,31534218,0.02015882,-0.0047767153,-0.00483447
31555574,31555344,0.052179005,-0.029105512,-0.02528879
31576660,31576428,0.018667717,0.0037775065,-0.0059321653
31597755,31597530,-0.017554216,-0.037550133,0.018561808
31615145,31614912,-0.012532489,-0.028837282,-0.019221136
31636245,31636014,0.07318078,0.015185209,-0.00540567
31657344,31657117,-0.059024256,0.015737474,0.00056609453
31674798,31674568,-0.05810193,-0.10469557,-0.035172027
31695888,31695659,0.05297878,0.0837597,0.05188786
31717092,31716864,-0.0695454,-0.013794175,-0.043330096
31738036,31737808,0.07588301,0.0377689,0.016529363
31755425,31755197,-0.013903035,0.008071206,0.03647885
31776528,31776292,0.016957043,-0.09356574,-0.035105597
31797622,31797395,0.0025734545,0.08029137,0.03726697
31815001,31814775,-0.065730944,-0.0026792784,0.0034938313
31836108,31835879,0.06009972,0.009465664,-0.008277909
31857221,31856988,-0.016097043,0.005608064,-0.015741194
31878315,31878086,0.023386572,-0.01651691,-0.020222707
31895694,31895466,0.060010865,-0.08139926,-0.0318445
31916801,31916570,-0.037677296,0.023660693,0.030686975
31939156,31938923,0.072117776,-0.036405038,-0.043095693
31955288,31955064,0.082959384,-0.006658546,0.0066523887
31976491,31976267,-0.1111572,0.011598504,0.0080616465
31997493,31997261,0.071655326,-0.08589912,-0.020204132
32018601,32018364,0.013137174,0.017472446,0.013830336
32035980,32035750,-0.012552427,-0.019253194,-0.02745207
32057085,32056848,0.045538425,-0.0052573755,-0.0022547778
32076941,32076710,0.043343738,0.009816871,0.013850195
32095588,32095352,-0.05106433,0.050037682,0.01794661
32115421,32115198,-0.021323789,-0.118026845,-0.028481178
32136525,32136297,-0.0058282707,0.0710221,0.033557147
32157631,32157401,0.013154453,-0.007559924,0.0043105604
32175008,32174781,0.026956497,0.024459803,0.030610805
32196119,32195885,-0.0148752015,0.0133269625,0.055946287
32217260,32217033,-0.06262931,-0.09546999,-0.005460065
32234648,32234424,0.063369095,-0.06139762,-0.042583756
32255858,32255628,-0.07654176,0.030385852,0.0057890546
32276809,32276577,0.029456351,0.0181188,0.02607282
32297909,32297680,-0.016741548,0.0133768,0.049093015
32315289,32315059,-0.0366544,0.046787683,0.014614057
32336391,32336163,0.008769513,-0.030248012,-0.04259161
32357491,32357267,-0.034207318,0.06942655,0.029234122
32374879,32374648,-0.08749311,-0.025138572,0.02209969
32395978,32395751,0.044526253,-0.029485496,0.0042955996
32417080,32416854,-0.066938944,0.026281897,0.01324156
32438193,32437960,0.06780565,0.01330028,0.0019419317
32455576,32455341,0.005113122,0.07738471,0.017027825
32476682,32476452,-0.054510392,-0.013539302,-0.0025329022
32497868,32497637,-0.045927677,0.009757372,0.036855247
32515267,32515039,-0.022162393,0.06312837,0.03299916
32536268,32536038,0.08148997,-0.00048139595,-0.013245144
32557402,32557175,-0.04565802,0.021373177,-0.013972435
32579720,32579480,0.054741167,-0.056811493,-0.009052287
32595840,32595616,0.05708386,-0.02697511,0.016577234
32616945,32616720,-0.00033747184,-0.011151947,-0.027149124
32638061,32637823,0.03594376,-2.0763655e-05,0.007845677
32655433,32655202,-0.035957735,0.03459905,0.014902638
32676558,32676315,0.021779148,-0.06627219,0.0010331989
32697649,32697410,0.02126258,0.00705772,0.04724223
32718746,32718515,0.004266834,-0.026569197,-0.02309182
32736121,32735890,0.06720781,0.01386072,-0.00027051262
32756077,32755849,-0.09372162,0.010213533,-0.01017455
32777172,32776941,0.03948748,-0.06796245,0.020695679
32794621,32794397,0.045798715,0.006870935,0.04455815
32815569,32815344,0.051533386,-0.011334736,-0.027276408
32836675,32836447,-0.0046582003,0.029316064,0.017168032
32857780,32857553,0.011652713,-0.08160064,-0.006456505
32875156,32874930,0.08390801,0.0018220721,0.022157047
32896271,32896039,0.006656393,-0.02574222,0.004805817
32917423,32917197,-0.018421104,0.008666739,0.03296375
32934743,32934518,-0.04199308,0.054609943,0.0023647533
32955853,32955622,0.034060765,-0.024179026,0.008575073
32976968,32976741,-0.013410268,0.01612811,0.015972111
32998052,32997829,-0.0016829721,0.053176943,0.018910088
33015438,33015211,-0.05090893,0.0386947,0.016539674
33036577,33036351,0.034181718,-0.04313023,0.020089483
33057781,33057556,-0.051028017,0.008915122,0.016333582
33075024,33074796,-0.02382416,0.018472522,-0.0045546675
33096141,33095912,-0.007857414,0.03298662,0.004025536
33117236,33117004,0.0695874,-0.08448229,0.009924467
33138334,33138107,-0.02775799,-0.029487427,0.017989323
33155715,33155488,0.043597013,-0.031223966,0.01597225
33176815,33176591,-0.0042612054,0.003501535,0.010686096
33197924,33197695,0.027727107,0.033545606,0.047242474
33215309,33215083,-0.022658497,0.04927687,0.019260967
33236413,33236183,0.00011108424,-0.0582934,-0.009370425
33257517,33257288,-0.07243934,0.03146089,0.018565068
33278618,33278387,0.046448555,0.032638222,0.021372408
33295996,33295767,-0.0024036465,0.030343372,0.004169359
33315967,33315739,-0.013108411,-0.07770968,0.012373636
33337142,33336916,-0.037590552,-0.0007136052,0.032563955
33355586,33355353,0.055602357,-0.025329588,0.003955271
33375444,33375217,-0.009586734,-0.023598246,0.024665223
33396545,33396319,0.035530303,-0.04408501,0.030499967
33417649,33417422,0.02527018,-0.014504732,0.0054999315
33435030,33434802,0.029483575,-0.02194973,0.022494644
33456139,33455909,0.011085551,-0.014481967,-0.009814722
33477244,33477013,-0.029314635,0.0077336472,0.0065862783
33494616,33494390,0.018356733,-0.02285715,-0.009175834
33515723,33515497,-0.038474858,0.0133579075,0.0043695257
33536826,33536597,-0.023126053,-0.0031626318,0.0035852478
33557934,33557701,0.0069116657,0.0057215975,-0.00070770335
33575344,33575120,0.047179572,-0.0076385727,-0.009060647
33596600,33596372,-0.022472253,0.0057303132,-0.008114686
33617517,33617288,-0.060427602,0.052463003,0.010124266
33634891,33634668,-0.037100513,0.06961058,0.003759865
33656020,33655772,-0.053622503,0.07450001,0.026119098
33677101,33676875,-0.015282884,0.030968929,-0.020341545
33698207,33697979,-0.026668632,-0.007379356,0.0028181714
33715635,33715406,0.012974269,-0.065495014,0.038458962
33736691,33736463,-0.056358643,-0.034764674,0.040580653
33757793,33757566,0.054440856,-0.015182109,0.06703989
33775175,33774946,0.03169645,0.024382196,0.06573268
33796281,33796051,-0.011488152,-0.019451804,0.082043305
33817380,33817154,0.007653455,0.018771939,0.03993194
33838557,33838326,-0.040612757,0.029718833,0.00904301
33855963,33855727,0.046812374,-0.012960401,0.04151768
33875915,33875684,-0.085376054,-0.022837767,0.023925975
33898076,33897845,0.029281002,-0.017463313,0.017610762
33915452,33915225,-0.028508328,-0.0026745633,0.01945779
33936564,33936329,-0.024001101,-0.0528457,0.054367222
33957662,33957432,0.08091789,-0.12949337,0.05783817
33977519,33977295,0.0054443576,-0.14529331,0.071730524
33996147,33995918,0.044364087,-0.10181291,0.09680392
34016081,34015850,-0.04354523,-0.06725415,0.08713752
34037106,34036881,0.014572865,-0.024796197,0.10827887
34054489,34054262,-0.050615773,-0.043409806,0.07800834
34075595,34075365,-0.09032524,-0.053446487,0.09817315
34096700,34096469,-0.03846047,-0.07656268,0.09806043
34117892,34117665,0.038712427,-0.13524012,0.054774746
34135320,34135093,0.0066242814,-0.11924783,0.08219949
34156283,34156056,-0.00799899,-0.13223965,0.09262016
34177391,34177160,-0.13558893,-0.09967699,0.05193651
34194774,34194549,-0.13066146,-0.0306582,0.059175204
34215867,34215643,-0.15052693,-0.028799117,-0.017864749
34236978,34236747,-0.08694911,-0.027970621,-0.026042046
34258081,34257851,-0.14387915,-0.054820724,0.006165494
34275458,34275231,-0.17105106,-0.001301825,0.0080039315
34296566,34296335,-0.10487235,0.06575785,0.016482063
34317664,34317438,-0.08187289,0.028528815,-0.010064433
34335043,34334819,0.020704247,-0.013337085,-0.038246807
34356157,34355923,0.03188548,-0.08198304,-0.042044904
34377272,34377046,0.06400078,-0.092915274,-0.04812695
34398468,34398242,0.047261402,-0.027224995,-0.07201626
34415932,34415700,-0.0055458625,-0.05630641,-0.060301717
34436864,34436639,-0.0013174551,-0.05176027,-0.08166248
34457947,34457716,-0.04684379,0.04650891,-0.11875579
34475326,34475096,-0.027014043,0.10673763,-0.12311029
34496438,34496204,-0.087759115,0.055745024,-0.10355022
34517530,34517304,-0.1387582,0.06982394,-0.08895381
34538637,34538408,-0.07896521,0.019040966,-0.071011744
34556018,34555787,0.017154215,-0.028837001,-0.03601536
34577128,34576892,0.005253462,-0.007578609,-0.0029100375
34596979,34596754,0.049070857,0.040109783,-0.014677435
34615609,34615374,0.082907006,0.1697843,-0.027082376
34635476,34635251,0.19862984,0.10353623,-0.055766594
34656644,34656408,0.2428884,0.09909498,-0.09038341
34677836,34677606,0.36026147,0.12769884,-0.08996175
34695060,34694826,0.35419187,0.090138964,-0.039162558
34716157,34715929,0.35904515,-0.027542796,-0.07696963
34734791,34734559,0.33302832,-0.032362323,-0.057053857
34754647,34754415,0.3706754,-0.06987168,-0.042476077
34775747,34775515,0.43025282,-0.12290213,-0.037560586
34796843,34796619,0.3847311,-0.11103632,-0.06437465
34817956,34817723,0.29384148,-0.060983166,-0.07498646
34835329,34835102,0.11967286,0.0010334724,-0.04219028
34856437,34856210,0.06891136,-0.00854093,-0.055772103
34877540,34877311,-0.056410875,0.06563919,-0.06920468
34894916,34894690,-0.06624763,0.10429277,-0.055445544
34916043,34915812,-0.00018379153,0.13958226,-0.04101182
34937243,34937011,0.00909972,0.16845365,-0.06450019
34958232,34958001,0.06948802,0.1303785,-0.064479515
34975605,34975381,-0.030965712,0.07434574,-0.055211045
34996716,34996485,-0.086767316,0.0033242952,-0.045073505
35017824,35017600,-0.105074935,0.077292465,-0.029555438
35035199,35034969,-0.009943186,0.005087675,-0.0583937
35056306,35056073,-0.09087411,-0.0023670578,-0.06586282
35077407,35077176,-0.06928267,0.02317711,-0.043745007
35098506,35098280,-0.18127948,0.051401094,-0.02899292
35115889,35115660,-0.08015408,-0.0041781454,-0.057881203
35136993,35136763,0.039658196,-0.007378829,-0.056160606
35158100,35157867,0.022620872,-0.10009655,-0.04378613
35175499,35175269,0.0962578,-0.10904411,-0.044081155
35195400,35195171,0.09045333,-0.11292349,-0.043065578
35216615,35216388,0.009299473,-0.09746784,-0.030691016
35237550,35237320,-0.01451069,-0.05813541,-0.031508
35254929,35254696,-0.014338237,-0.012899947,-0.028770404
35276029,35275800,0.019307569,0.015737604,-0.0020037568
35297137,35296905,0.059654802,0.034583665,0.01831159
35314527,35314300,0.08522678,0.10998764,-0.021283615
35335612,35335387,0.034195166,0.052876875,-0.03339664
35356718,35356491,0.03982945,0.025356343,-0.023871966
35377820,35377595,-0.01792399,-0.04902953,-0.036465835
35395204,35394974,0.0029562525,-0.08434733,0.0031644132
35416314,35416080,0.05322529,-0.012684659,0.00049271673
35437457,35437229,-0.106162265,0.004799231,0.0029652482
35454812,35454584,-0.07723044,0.01907125,0.003321664
35476011,35475782,-0.08078681,0.0901276,-0.0074491254
35496996,35496769,-0.050896823,0.14394532,-0.01601972
35518104,35517873,0.08387921,0.10372392,-0.016245399
35535481,35535253,0.21329878,-0.019068522,-0.0023410544
35556581,35556356,0.21311359,-0.14773862,-0.0038858321
35577689,35577460,0.187712,-0.2749765,0.0072191525
35595067,35594840,0.1444656,-0.14839628,0.03169868
35616176,35615946,0.024115784,-0.1014142,0.038529523
35637276,35637047,-0.05196712,0.025597308,0.048155528
35658383,35658151,-0.058261972,0.035285812,0.025003929
35675767,35675533,-0.093882754,0.036152065,0.022684908
35696866,35696635,-0.017781014,-0.020578042,0.024555579
35718012,35717786,0.006707157,-0.035535775,0.018925468
35735429,35735200,0.047554567,-0.033661265,-0.019504076
35756614,35756384,-0.064191446,-0.09419414,0.009426484
35777560,35777326,0.029022738,-0.06650733,0.008638285
35797422,35797194,-0.013444104,-0.058137126,-0.0008883841
35816043,35815811,-0.00394304,-0.05956277,0.0026779987
35835912,35835672,0.03699773,0.033012774,0.012610324
35857007,35856776,-0.023509458,0.08210065,0.0060389587
35875628,35875397,-0.0356579,0.027031446,0.05157078
35895490,35895261,-0.09035748,0.04329495,0.03609139
35916592,35916363,-0.16322556,0.04831415,0.03469146
35937692,35937467,-0.18448801,0.014642074,0.039117232
35955088,35954852,-0.22287981,0.09583815,0.020969136
35976174,35975946,-0.27444258,0.06550863,0.020916393
35997318,35997092,-0.25573155,-0.0027958504,0.035025366
36014833,36014605,-0.22194451,-0.05865065,0.001031621
36035768,36035537,-0.15768881,-0.12992828,0.0247007
36056876,36056644,-0.07529601,-0.16717179,0.009526754
36075521,36075282,-0.05288913,-0.13459167,0.022086848
36095357,36095128,-0.07874712,-0.14782314,0.022172257
36116453,36116229,-0.08502821,-0.1445925,0.036496457
36135086,36134852,-0.10193213,-0.23106277,0.0047696526
36154953,36154715,-0.107717164,-0.2527148,0.02009307
36176048,36175816,-0.15104613,-0.243687,0.010561196
36197192,36196962,-0.123517945,-0.21767595,0.007416557
36218255,36218024,-0.09912691,-0.18572764,0.01201924
36235631,36235404,-0.090309314,-0.20821136,-0.01698731
36256795,36256563,-0.041642986,-0.18574877,-0.008170464
36277945,36277714,-0.050536245,-0.20897585,0.002464203
36295387,36295163,-0.046484374,-0.18885499,0.008098129
36316324,36316095,-0.04407785,-0.16739298,0.00444445
36337430,36337201,-0.006031146,-0.14697416,-0.022835964
36358527,36358302,0.0009332952,-0.09657981,-0.018436389
36375921,36375693,0.023892585,-0.07162114,-0.03832829
36397014,36396785,0.03072269,-0.048103817,-0.020373015
36418119,36417889,0.04955056,0.0015323403,-0.024974868
36435499,36435273,0.07441151,0.032973707,-0.04616621
36456619,36456377,0.11967591,0.05601559,-0.055234104
36476461,36476231,0.18366072,0.073369384,-0.052036602
36497571,36497346,0.23692515,0.09973776,-0.05184039
36514944,36514720,0.24749023,0.16831677,-0.047704462
36536152,36535917,0.26103288,0.24694206,-0.062868804
36557299,36557068,0.30612978,0.303063,-0.0519065
36574541,36574306,0.2708795,0.39831457,-0.06060008
36595642,36595412,0.17041902,0.44709376,-0.06277721
36616773,36616545,0.1421379,0.4157691,-0.057682816
36637844,36637617,0.10941706,0.3097874,-0.056569826
36655236,36654999,0.12701634,0.22876532,-0.060230955
36676329,36676102,0.092972286,0.17501624,-0.05883328
36697430,36697205,0.07813905,0.120416805,-0.04635617
36714815,36714587,0.057306863,0.08811166,-0.038797878
36735959,36735725,0.04412153,0.060905375,-0.037444282
36757018,36756793,0.0022041807,0.027439775,-0.037439432
36778126,36777896,-0.037962113,0.024805428,-0.03364901
36795506,36795281,-0.07796283,0.035233796,-0.05753236
36816734,36816510,-0.13225295,0.014190483,-0.049258526
36837711,36837486,-0.15193456,0.029479833,-0.048832696
36855143,36854918,-0.18151683,0.013280926,-0.027203633
36876201,36875968,-0.11107967,0.032364517,-0.025431631
36897333,36897109,-0.09590886,0.03720564,-0.033593304
36919649,36919419,-0.06168853,0.008616363,-0.031072805
36935788,36935553,-0.049152978,0.0017800395,-0.032448187
36956890,36956662,-0.11773171,0.040542085,-0.031299517
36977994,36977761,-0.18688689,-0.026627116,-0.016470445
36995364,36995141,-0.20219903,0.00055111275,-0.052332744
37016476,37016245,-0.2652888,0.03437549,-0.052304473
37037591,37037349,-0.2700169,0.054870624,-0.032105077
37058689,37058453,-0.23957025,0.059332166,-0.036596328
37076114,37075879,-0.2074637,0.019108474,-0.010311038
37096060,37095832,-0.12003707,0.025129642,-0.03398323
37118278,37118041,-0.07485741,0.011943184,-0.028262163
37134402,37134179,-0.030074276,-0.008505111,-0.0029760238
37155507,37155281,-0.001559878,-0.017877612,-0.003595935
37176616,37176386,0.032196693,-0.009183368,-0.009326062
37197727,37197492,0.0073602847,0.0065481877,-0.0012479236
37215097,37214870,-0.002842947,-0.017740356,0.0066227755
37237494,37237264,0.03843395,0.0008761974,-0.0025181808
37257316,37257079,0.06891016,0.009207422,-0.01931983
37274681,37274456,0.040131398,0.052089095,0.03701148
37297044,37296806,0.014865578,0.056881502,0.03963467
37316910,37316669,0.00073127274,0.00920521,0.013770836
37338051,37337824,-0.05599392,0.0046365126,-0.0048916847
37355470,37355242,-0.16269933,-0.00013587115,0.026298016
37376510,37376265,-0.26888153,0.009383772,0.041327525
37397583,37397355,-0.3320554,-0.009339601,0.047102056
37414965,37414739,-0.3299378,-0.0073903673,0.015339538
37436065,37435839,-0.35746416,0.0054284986,0.023337679
37457179,37456945,-0.34628168,0.019068677,0.04217514
37478276,37478047,-0.34600267,0.03590877,0.044268988
37495654,37495427,-0.30709273,0.027709484,0.026011007
37516753,37516529,-0.24349153,0.04206659,0.02837551
37537858,37537634,-0.19382729,0.045646735,0.031896215
37555242,37555013,-0.14891443,0.042554215,0.052314553
37576342,37576117,-0.1006571,0.012733384,0.047513682
37597531,37597306,-0.067185365,-0.041175406,0.05631972
37618639,37618404,-0.04461827,-0.05673215,0.07123927
37636093,37635857,-0.0495699,-0.055031255,0.030854601
37657049,37656813,-0.049180366,-0.068630286,0.03905156
37678144,37677912,-0.06911026,-0.056897443,0.04118668
37695515,37695291,-0.073818184,-0.06255745,0.05105045
37716624,37716395,-0.046684876,-0.026720092,0.041898757
37736481,37736258,-0.028486466,-0.010523531,0.041672643
37757590,37757361,-0.014520594,0.011542472,0.077949524
37775034,37774797,-0.013600353,0.0243556,0.10596534
37796080,37795851,-0.010312437,0.04198327,0.13764709
37817182,37816951,0.022055212,0.02182374,0.1818811
37834555,37834330,0.044272203,0.019244356,0.19861546
37855666,37855438,0.034875195,0.03600568,0.2549293
37876892,37876663,0.004725371,0.013743035,0.32229146
37898001,37897769,0.026816273,-0.01498846,0.33318746
37915248,37915024,-0.019679314,0.0037840977,0.36583188
37936353,37936123,0.00035348092,0.018279891,0.3984247
37957501,37957275,-0.02846865,-0.004825677,0.389113
37974841,37974612,-0.032644685,0.0068619708,0.39166453
37995942,37995712,-0.040999714,-0.05166383,0.37314287
38017040,38016814,-0.028718408,-0.049482133,0.3452235
38038151,38037919,-0.030793319,-0.040850326,0.28042132
38055533,38055299,0.0009674539,-0.025492214,0.23917419
38076634,38076403,0.067232676,-0.021150408,0.20509613
38097738,38097505,0.17583403,-0.010348385,0.18595609
38115161,38114932,0.26272723,0.00969429,0.15065067
38136242,38136010,0.32668388,0.016131975,0.15377069
38157389,38157163,0.34026682,0.020112885,0.1489881
38178611,38178376,0.36653876,0.048333883,0.1569206
38195803,38195576,0.34834254,-0.0024212585,0.1376
38216905,38216680,0.32257277,-0.0071319304,0.12782685
38238011,38237785,0.27516028,0.01262894,0.13112347
38255394,38255164,0.2034061,0.027208861,0.13192186
38276495,38276268,0.16740713,0.05493958,0.13085158
38297608,38297384,0.10942477,0.07771266,0.11124726
38317463,38317234,0.046899106,0.09671992,0.09538124
38336089,38335855,0.009804734,0.037966594,0.1123821
38357198,38356959,0.015024335,0.045187604,0.08754222
38377046,38376821,0.03179465,0.042705067,0.096607454
38394473,38394248,0.11083275,0.039658245,0.08687389
38415554,38415330,0.078040674,0.0073316214,0.0886175
38436751,38436526,0.08828256,-0.005130921,0.09276171
38457745,38457512,0.12521023,-0.015249984,0.090641074
38475221,38474986,0.15009646,-0.07457739,0.05206709
38496226,38495995,0.15639547,-0.05328884,0.030811116
38517327,38517099,0.11107962,-0.026973536,0.043440472
38534720,38534481,0.07170935,0.019113017,0.03728278
38555810,38555583,0.08730594,-0.008690237,0.026525155
38576916,38576686,0.13497794,0.012059287,0.034969684
38598021,38597790,0.14841315,0.03735906,0.028078256
38615402,38615171,0.17071839,0.015085844,0.035956115
38636506,38636274,0.21012332,0.024225881,0.03345844
38657625,38657394,0.24479051,0.03568635,0.011401262
38674984,38674757,0.32725817,0.013229941,-0.00629567
38696165,38695937,0.40408257,-0.016403684,-0.011190188
38717366,38717140,0.4281048,-0.038395695,-0.0029873787
38738294,38738068,0.36291713,-0.039810814,-0.0083648
38755679,38755448,0.34339502,-0.047094714,0.016698439
38776785,38776553,0.27265182,0.00086971966,0.0073511787
38797883,38797656,0.23252407,0.015688922,-0.010920261
38815266,38815036,0.18167678,0.01715892,0.011478715
38836372,38836139,0.17998745,0.031087557,0.0057672285
38857473,38857245,0.17268635,0.026545193,-0.00502879
38878584,38878353,0.15926594,0.008234144,0.007695009
38895963,38895727,0.19982633,-0.059526242,-0.018258989
38917062,38916831,0.22759898,-0.052291457,0.004017839
38936922,38936694,0.25821495,-0.031727005,-0.00061818
38955614,38955385,0.19928399,0.0052308743,0.0061814967
38975559,38975333,0.11701957,0.012549453,0.01077153
38996504,38996280,0.054279596,-0.018264167,0.011552393
39017610,39017386,-0.030608483,-0.021168994,-0.0032168832
39034997,39034765,-0.08772937,-0.038540184,0.005433742
39054861,39054631,-0.12529424,-0.0268789,0.017140588
39077203,39076973,-0.16388915,-0.02002615,0.013199721
39094584,39094353,-0.14459097,0.0035586907,-0.009312543
39115688,39115455,-0.15303706,0.020811744,-0.00034683305
39136785,39136559,-0.13571478,0.021021774,0.015576961
39157890,39157662,-0.10369315,0.021985674,0.024391463
39175273,39175043,-0.08405012,0.008182027,0.012850759
39196370,39196146,-0.04533062,-0.0026105547,0.023743719
39217535,39217307,-0.032316443,-0.018714981,0.017239992
39234930,39234704,-0.032107543,-0.035271913,0.026616495
39256146,39255920,-0.056807842,-0.034158885,0.027099336
39277067,39276837,-0.060080525,-0.04448462,0.025021432
39298170,39297941,-0.0910634,-0.0067029493,0.030878281
39315547,39315320,-0.10519957,-0.01724568,0.0151718715
39336655,39336425,-0.20945211,-0.021844683,0.016060298
39357751,39357525,-0.24631028,-0.011930163,0.008026692
39375143,39374913,-0.23553474,0.00032004938,0.03569248
39396253,39396019,-0.18222506,-0.0027171928,0.030278403
39417342,39417116,-0.14587322,-0.0046899314,0.0125519065
39438444,39438220,-0.09888069,-0.0009054249,0.022019865
39455836,39455599,-0.13444819,0.041018747,-0.006588168
39476953,39476727,-0.14677508,0.02516118,0.006553752
39498127,39497895,-0.18303937,-0.0060682367,0.0063824314
39515574,39515338,-0.27315497,0.005521867,0.014351622
39536520,39536293,-0.3239757,-0.0025605392,0.020984977
39557625,39557394,-0.3891191,-0.024348302,0.01571014
39575008,39574774,-0.52647716,-0.018758526,0.031728964
39596155,39595925,-0.598027,0.013296062,0.023756098
39615976,39615750,-0.6128839,0.018599639,0.023234826
39637069,39636845,-0.58033043,0.058050994,0.020845233
39654463,39654224,-0.51196325,0.049127266,-0.022099758
39675554,39675327,-0.4519323,0.02487965,-0.01433192
39696655,39696431,-0.3720253,-0.024538059,0.006760827
39717758,39717536,-0.25633204,-0.059712198,-0.0043256474
39735147,39734914,-0.2329506,-0.018435681,0.0154539645
39756297,39756072,-0.17267755,-0.04300713,0.0026028345
39777447,39777221,-0.15808871,-0.042249493,-0.00058462005
39794919,39794691,-0.16058546,-0.05295195,-0.0389121
39815841,39815608,-0.14490485,-0.04010687,-0.028585996
39836936,39836709,-0.12957428,-0.0043523214,-0.027721642
39858043,39857813,-0.09353089,0.0137761105,-0.026926935
39875426,39875197,-0.08361034,0.022080472,0.0029313553
39896527,39896297,-0.0676459,0.01818031,-0.014244125
39918870,39918643,-0.07199938,0.025213858,-0.013520306
39935011,39934785,-0.014403334,0.011191683,-0.03011215
39956114,39955884,-0.008635983,0.011052405,-0.031926945
39978470,39978235,-0.024602374,-0.011944316,-0.016555589
39998326,39998092,-0.0025890796,-0.013918824,-0.1285674
40015708,40015485,0.07208014,-0.024860706,-0.058810543
40036862,40036634,0.14375646,0.021161685,-0.013152479
40058088,40057848,0.22791247,0.073235124,-0.004470264
40075283,40075059,0.25453395,0.09068582,-0.00458954
40096392,40096162,0.2852757,0.11728905,0.00020456211
40117502,40117267,0.2324407,0.10509209,0.016534667
40138605,40138370,0.1604998,0.1101422,0.03870355
40155982,40155750,0.10079159,0.08479913,0.012609851
40177090,40176854,0.059320137,0.07047656,0.0060876356
40196944,40196716,0.03853812,0.055105686,0.0116199395
40215573,40215337,0.005993589,0.03147823,0.034682795
40235493,40235260,0.028265314,0.021891393,0.037386186
40256530,40256305,0.021734187,0.0035384034,0.03801153
40277643,40277408,0.05937194,-0.005014772,0.037237357
40295027,40294797,0.054078627,-0.0011510473,0.036223605
40316223,40315993,0.07925772,0.016519323,0.039217506
40337228,40336999,0.030428676,-0.010839914,0.028122155
40354612,40354375,-0.0058289915,0.01574362,0.045384187
40375704,40375478,-0.011742154,0.0122738285,0.045194246
40396807,40396582,0.006015801,-0.006960825,0.02269664
40417914,40417687,0.0038146828,-0.01583287,0.0030299965
40435294,40435065,0.0037244498,0.004795123,0.04777831
40456394,40456169,-0.023244195,-0.016386503,0.03355979
40477496,40477273,-0.015678938,-0.02657396,0.01698158
40494877,40494652,-0.009397053,-0.042979587,0.03599858
40515995,40515757,-0.020681918,-0.021933185,0.009386796
40537087,40536860,0.0017087011,-0.025653878,0.0038882762
40559437,40559204,0.00682474,-0.007275197,-0.0011431389
40575679,40575453,0.0107168695,-0.014719396,0.024438841
40596823,40596599,0.0468619,-0.018779043,0.0073359017
40617783,40617554,0.05104859,-0.00797254,-0.009693685
40635163,40634932,0.021752298,0.028517222,0.038143914
40656261,40656036,0.01958866,0.033313677,0.027497472
40677369,40677139,-0.015365506,0.02012787,0.0020009954
40698477,40698246,0.018737355,-0.01885424,0.0040825293
40715850,40715622,0.0171482,0.02823312,0.025995713
40738213,40737974,0.0563587,0.0011366731,0.019557728
40758070,40757832,0.07105806,0.016124086,0.025570655
40775439,40775210,0.083414316,-0.0008336744,0.0055629727
40796548,40796313,0.14946927,-0.034942653,0.0003185445
40817654,40817419,0.20210423,-0.09445369,-0.007863245
40837547,40837312,0.24498342,-0.13820405,0.0070512067
40855022,40854795,0.25982937,-0.17021215,0.03208559
40875996,40875764,0.2847118,-0.1784584,0.017012153
40897095,40896867,0.24162853,-0.12841612,0.023594612
40914475,40914247,0.19440888,-0.09440991,0.0026172048
40935625,40935397,0.12136152,-0.045818202,0.013334392
40956682,40956454,0.07431098,-0.027005207,0.014641155
40977786,40977558,0.08788361,-0.024963554,0.0046545416
40995178,40994939,0.05088711,-0.025116118,0.014173377
41016270,41016042,0.055477828,-0.033326253,0.019238839
41037394,41037170,0.080538325,-0.025043655,0.012302643
41054754,41054525,0.079704285,-0.027655823,0.0117871575
41075859,41075629,0.10630232,-0.02081702,0.0055309157
41096991,41096765,0.0787479,-0.007812217,0.001071514
41118204,41117969,0.05995147,0.0053901877,0.0038643254
41135604,41135379,0.05239007,0.011686186,-0.006834399
41156545,41156320,0.021495406,0.02908775,-0.01661956
41177647,41177424,0.028484935,0.046611056,-0.0006576294
41195034,41194803,0.001495176,0.033488154,0.031553857
41216137,41215909,0.045166407,-0.004899281,0.021507215
41237270,41237047,0.07079525,0.0022208618,0.0171904
41259598,41259364,0.06253933,0.008115775,0.00928544
41275754,41275522,0.08103464,-0.013106595,-0.008854255
41296824,41296598,0.07748032,0.007943347,0.002413432
41319182,41318947,0.035861824,0.0002803815,-0.0046534315
41335315,41335083,0.032126565,0.0016285232,0.0060809786
41356420,41356186,0.05448801,0.008004632,0.010708679
41377611,41377373,0.03644976,0.01670514,0.0017229279
41397561,41397331,0.047298938,0.011438201,-0.012711233
41416007,41415774,0.018177835,0.003843792,-0.0029099183
41437116,41436877,-0.00238996,-0.005721496,0.0030990792
41456975,41456744,-0.024173835,0.011352515,0.01606768
41475597,41475360,-0.043262098,0.011591414,0.013491324
41495449,41495223,-0.046431795,0.015205019,0.009917883
41516575,41516346,-0.009575368,0.026941499,-0.003810255
41537659,41537431,0.031088632,0.036154766,-0.0260952
41555041,41554810,-0.0028136629,0.024146961,-0.009878622
41576169,41575935,-0.013383289,0.018627597,-0.022634666
41597247,41597018,-0.0039166682,-0.011304364,-0.010432642
41614622,41614398,0.008042941,0.01228116,-0.0080761975
41635738,41635502,0.027524713,3.5789413e-05,-0.02755922
41656921,41656689,0.039379004,9.8360266e-05,-0.008158492
41678110,41677886,0.017172426,0.040301785,-0.014263958
41695350,41695119,-0.019732684,0.059386984,-0.013695506
41716426,41716199,-0.027536117,0.031422224,-0.0027168405
41737522,41737296,-0.035102308,0.035303988,-0.0008790006
41754949,41754718,-0.03992772,0.017793532,-0.039701752
41776009,41775781,-0.023070587,0.007908396,-0.028438741
41797108,41796884,0.013614473,0.0007190519,-0.038011163
41818219,41817987,0.06577713,-0.013619176,-0.040251877
41835595,41835368,0.029065426,0.023423335,0.00049244874
41856698,41856471,0.04057208,-0.016975716,-0.005393022
41877799,41877575,0.04279256,-0.011639401,-0.0010406389
41895185,41894956,0.03441199,-0.028334785,-0.029503068
41916322,41916096,0.04648885,-0.016088447,-0.038919445
41937517,41937292,0.026099026,-0.01525238,-0.025791397
41958499,41958270,-0.0039583016,-0.010347385,-0.024241261
41975873,41975646,0.021722993,-0.0034811692,-0.026361588
41996978,41996750,0.05472565,-0.04203391,-0.016469728
42018090,42017853,0.013131373,-0.0010754555,-0.008038751
42035463,42035234,-0.009017537,0.028062755,-0.027059717
42056579,42056337,-0.027230788,0.02363873,-0.020187387
42076426,42076201,-0.022477388,-0.016960755,-0.015195878
42097531,42097303,-0.008023799,0.00079293665,-0.019434407
42114922,42114683,0.0065868287,0.045966472,0.0072933366
42136025,42135796,-0.0015105448,0.027358765,0.011918691
42157122,42156892,0.0024216212,0.00023489121,0.009303388
42174496,42174270,0.00036384712,-0.025877679,-0.016807698
42195687,42195460,-0.017554771,0.002610251,-0.0101926485
42216890,42216661,-0.0042447834,0.008730834,-0.023055285
42237807,42237581,-0.00825787,0.0066938144,-0.015448831
42255196,42254964,-0.0112644285,-0.026519537,-0.0037659062
42276303,42276065,-0.00021609152,-0.0076737585,-0.006270805
42297396,42297169,-0.0148013495,0.02573164,-0.0054623117
42314774,42314548,0.0062721157,0.038891274,-0.010596413
42335884,42335653,0.016272824,0.025440251,-0.0060594208
42356986,42356756,-0.01680144,0.00601653,-0.008927911
42378085,42377860,-0.02224086,0.006593784,-0.0023333833
42395471,42395240,-0.030871138,-0.0018880027,0.008732069
42416570,42416344,0.0018455995,-0.006954973,0.0077483384
42437688,42437463,0.021399768,-0.00877101,0.01369163
42455161,42454930,0.017516626,-0.012548712,-0.017162383
42476298,42476063,0.026145885,-0.008645381,-0.011241615
42497264,42497036,0.0296144,0.008880412,-0.032167923
42515899,42515662,0.0033150532,0.036478195,-0.016689375
42535765,42535522,-0.015831606,0.023861002,0.00013830722
42556851,42556625,-0.017478349,0.011890776,-0.000764279
42577960,42577726,-0.014873128,-0.02525312,-0.0049545113
42595340,42595109,0.02006817,-0.005673054,-0.019294757
42616440,42616210,0.033297192,0.021397911,-0.016844215
42637543,42637313,0.011459242,0.01376609,0.0050690747
42658648,42658417,0.020404097,-0.012022871,0.024680575
42676025,42675797,0.028066868,-0.021117503,-0.0066404594
42697131,42696900,-0.0015527699,0.0026098,0.0015682265
42716997,42716769,-0.023983963,0.023528904,0.017895883
42735709,42735480,-0.032334235,-0.031132251,-0.005927078
42755660,42755434,0.004947883,0.0030885248,-0.028148988
42776583,42776356,-0.018392863,0.0107822325,-0.012634609
42797725,42797498,-0.007542214,0.0032986423,-0.008091559
42815059,42814834,-0.026232226,0.03562299,0.023729164
42836167,42835940,-0.051698387,0.036853522,0.019873396
42857277,42857045,-0.03516061,0.030756703,0.021276295
42874648,42874421,-0.026312605,-0.013647206,-0.0021598614
42895759,42895525,0.0029157603,-0.0031635242,-0.017327394
42916866,42916629,-0.01576554,-0.0056763683,-0.0049804198
42937960,42937733,-0.04944162,-0.0032399963,-0.0030976415
42955337,42955112,-0.059671592,0.011713589,0.015573589
42976477,42976246,-0.06843681,0.0019083492,0.019694354
42997602,42997378,-0.041800287,-0.002931832,0.022329625
43015063,43014835,0.031676047,0.006915806,-0.0010491321
43036055,43035821,0.032553017,0.03138474,-0.0026820344
43057138,43056909,0.02573558,0.009963744,0.0053556124
43078237,43078011,-0.0032263394,0.023168202,0.0010954367
43095624,43095391,-0.042810995,0.0021558702,0.014150219
43116723,43116495,-0.013608981,-0.031594053,0.01774384
43137827,43137599,-0.019559244,-0.02594165,0.0034619395
43155213,43154978,-0.0086563835,-0.016338255,-0.019081242
43176312,43176085,-0.012523323,0.025060903,-0.013736609
43197415,43197186,-0.01273334,0.016833609,-0.026752321
43218568,43218336,-0.014073104,0.023643212,-0.019666856
43235896,43235669,-0.03741772,0.009820011,0.010348303
43257020,43256786,-0.041973326,0.01569792,0.0018948786
43276964,43276738,-0.023198333,-0.014232815,-0.013560194
43294433,43294206,-0.013309248,-0.02770818,0.017976506
43316593,43316360,-0.008697212,-0.020029455,-0.008071129
43336451,43336223,-0.013989156,-0.01928399,0.01004742
43357553,43357328,-0.014917139,-0.029416451,0.012275084
43374934,43374706,0.004335621,-0.004267263,-0.022137005
43396040,43395810,0.012013877,-0.003927951,-0.016231295
43417138,43416914,0.0025811922,0.0027887255,-0.013580962
43434518,43434294,0.022622434,0.023675572,0.00085118815
43455625,43455398,-0.012298609,0.040516187,0.003109101
43476730,43476501,-0.039820883,0.033529665,0.021822665
43499094,43498860,-0.058250118,0.033893254,-0.00047325276
43515214,43514985,-0.036058493,-0.001267198,-0.017063625
43536443,43536214,-0.036395106,-0.0044274493,-0.009656345
43557583,43557353,-0.011289509,-0.0044195238,-0.013884377
43574797,43574572,-0.013032498,0.044082087,0.008193489
43595918,43595690,0.0071176174,0.030169357,-0.0036471486
43617008,43616780,0.02134475,-0.008676793,-0.00838306
43638117,43637885,0.023159254,-0.0026253585,-0.012008565
43655490,43655263,-0.0011695208,-0.007367671,-0.021601414
43677844,43677611,0.007283079,0.005407563,-0.050704163
43697711,43697475,-0.032473706,-0.023434548,-0.04103343
43715107,43714880,-0.037425723,0.021286417,-0.011772374
43737443,43737204,-0.03823963,0.10399614,-0.024307424
43757301,43757062,-0.034446564,0.07977827,-0.012959322
43778404,43778172,-0.007530133,0.01813219,-0.00086257135
43795795,43795559,0.038451727,-0.07204134,-0.023761518
43816999,43816769,0.025318243,-0.08008163,-0.00687199
43837975,43837749,-0.004100382,-0.1062103,-0.00036079195
43855370,43855131,0.035046373,-0.098954305,-0.013307961
43876466,43876233,0.0013840209,-0.045333672,-0.020203756
43897569,43897337,-0.048107415,0.013733672,-0.0069896593
43917434,43917202,-0.063716725,0.011132466,-0.016325347
43936049,43935821,-0.028552348,0.0058957655,-0.033529583
43957162,43956925,-0.023264287,0.006562592,-0.033765137
43977016,43976787,-0.008825578,0.01538713,-0.014261168
43995636,43995409,-0.012299605,0.02451387,0.00011398648
44015539,44015314,-0.032732595,0.008440799,-0.002195901
44036604,44036377,-0.032166034,-0.0073615205,0.00979051
44057709,44057482,-0.014013436,-0.02237041,0.0037023742
44075145,44074919,-0.0016078998,-0.0059730024,-0.029034568
44096410,44096183,-0.0010181479,-0.009849814,-0.0284286
44117293,44117066,-0.00030563705,0.014642862,-0.028984679
44134684,44134448,-0.037292037,0.06672531,-0.00041582642
44155793,44155548,-0.057561755,0.048503987,-0.009099635
44176880,44176653,-0.04822287,0.03302216,-0.011142463
44197988,44197757,0.014754168,-0.002728966,-0.011087671
44215360,44215136,-0.0041304985,0.009636514,-0.014179753
44236466,44236240,0.0038192405,-0.020236889,-0.031158203
44258932,44258693,0.011180155,-0.029899191,-0.041489214
44274953,44274723,-0.038263466,-1.9518971e-05,0.00088127697
44296053,44295828,-0.028048337,-0.005912325,0.006297982
44318408,44318175,-0.012183542,0.018396735,-0.005710363
44338308,44338079,-0.0056057675,0.014738687,0.0006114458
44355768,44355537,0.012497818,-0.0024481094,-0.013266935
44376747,44376518,0.027877277,-0.041501887,-0.024970107
44397847,44397622,0.03578884,-0.057714414,-0.023353012
44415234,44415002,0.0077894083,0.00039026517,-0.0043126
44436331,44436103,-0.014699683,0.009036237,-0.012482978
44457439,44457210,0.00033210337,-0.036445588,-0.0055885776
44478538,44478313,-0.0075431145,-0.034664553,0.002327077
44495930,44495694,0.013207316,-0.011162952,-0.017879618
44517026,44516797,0.015238536,0.00075059145,-0.028138943
44538133,44537901,0.032602843,0.0046389275,-0.03503068
44555512,44555281,0.030293182,-0.007914106,-0.022669299
44576622,44576390,0.038744554,-0.03503582,-0.020497441
44596473,44596247,0.024894709,-0.04440981,-0.000698274
44617658,44617430,-0.012513957,-0.035950627,0.0030277094
44635124,44634894,-0.0016485981,-0.019620286,0.0020625996
44656069,44655835,-0.013577976,-0.018018842,0.00017680599
44677162,44676938,-0.020317543,-0.006564453,0.0025776431
44695801,44695570,-0.022133509,-0.0026767869,-0.018996028
44715665,44715424,-0.002539357,0.020808224,-0.0075332886
44736758,44736526,0.011268266,0.012238283,-0.005915092
44757854,44757629,0.025608322,-0.0075990106,0.010966269
44775246,44775013,0.056812957,-0.01615259,0.003399182
44796384,44796159,0.026382577,-0.013912428,0.0059706834
44817455,44817217,-0.013348011,-0.019547554,0.010186703
44834833,44834600,0.006522052,-0.03823151,-0.012874452
44855934,44855700,-0.0018248076,-0.009049919,-0.016391592
44877099,44876874,-0.024575535,0.010786991,-0.021966029
44898302,44898070,-0.039676648,0.024464667,-0.0157911
44915512,44915288,-0.0336486,0.05304092,0.008756877
44936620,44936393,-0.02282033,0.0515951,0.013251414
44957725,44957495,-0.02496971,0.046258416,0.019121679
44975100,44974875,0.0014430208,0.0077741113,-0.003425721
44996210,44995979,0.00038982852,-0.0018556281,0.006115522
45017312,45017083,0.0037975842,-0.01641498,0.006952537
45038460,45038229,0.021891903,0.0009144896,0.003919805
45055797,45055566,-0.017456874,0.040131167,0.0049431473
45076898,45076670,-0.0015053469,0.0054995697,0.016664937
45098004,45097774,4.446304e-05,-0.007166622,0.019329034
45115378,45115153,-0.0027218715,0.004796777,-0.0108539
45136540,45136311,-0.0010850601,0.011382729,-0.004863416
45156450,45156220,0.0086732665,-0.007329751,0.00088856637
45177634,45177407,0.00075747573,-0.016047498,0.0011617872
45196085,45195845,-0.006755985,0.012885974,0.0014812772
45215937,45215707,-0.003940508,0.01802781,0.010266036
45237040,45236812,-0.004564548,0.009476068,0.01036326
45254423,45254196,-0.020845108,0.016107082,0.021868063
45275527,45275295,-0.042959873,0.004247207,0.028496992
45296623,45296398,-0.02407142,0.00052961096,0.021801941
45317732,45317502,-0.013308439,0.008074995,0.018631682
45335119,45334882,0.008389738,0.008953601,0.014232007
45356218,45355986,0.01579558,0.009725421,0.012348864
45377331,45377090,0.005188715,0.004897829,0.015725438
45394698,45394470,-0.0051798047,0.002429398,0.020085929
45415946,45415719,-0.004982295,0.0055111228,0.015399438
45437036,45436811,0.0057221917,0.009410408,0.02035665
45458059,45457833,0.013137473,0.006024255,0.01777257
45475388,45475162,0.01502174,-0.0049508316,0.010981705
45496526,45496303,0.039655317,-0.004990421,-0.0064273705
45517593,45517367,0.03709311,-0.008939983,-0.007049425
45534974,45534748,-0.009951859,-0.00065235764,0.01604335
45556086,45555853,-0.04111308,0.012573351,0.0141567085
45577208,45576967,-0.056934293,0.012559204,0.011249439
45599542,45599304,-0.049213573,-0.0014896048,-0.0075754854
45615662,45615439,-0.010805107,0.035304908,0.027769987
45636768,45636544,0.017211908,0.04961159,0.01681971
45659167,45658932,0.051819332,-0.0075083077,0.011067819
45675276,45675052,0.07798745,-0.034433324,0.005489968
45696447,45696223,0.052420143,-0.02793785,0.0038041454
45716402,45716178,-0.0153470235,-0.0038214228,0.009785188
45738574,45738338,-0.013757251,-0.012025548,0.0009664599
45755944,45755717,-0.03867005,0.0152029125,0.009261503
45777058,45776821,0.012821191,0.04688148,0.008754285
45798157,45797927,0.021463653,0.052201003,0.022416726
45815530,45815305,0.0323185,0.0056654746,-0.016335027
45836640,45836409,0.01827296,-0.031386796,-0.025889967
45856507,45856271,0.035939172,-0.043069653,-0.026457515
45877608,45877375,0.038101517,-0.029429017,-0.013780332
45894984,45894755,-0.026660077,0.01311485,0.009336122
45916084,45915857,-0.05364148,0.026006272,0.0074018748
45937194,45936963,-0.06881643,0.04114075,0.010367006
45954676,45954443,-0.016037948,0.02357731,-0.002443126
45975816,45975585,-0.0056157,0.047506206,-0.0003800751
45996780,45996551,-0.027936388,0.04380114,-0.010765137
46017880,46017653,-0.020080619,0.003149381,-0.006326467
46035275,46035044,0.0053795488,0.0065647406,0.0047068796
46056367,46056137,-0.013150778,-0.03871857,0.017424745
46077466,46077241,-0.010706237,-0.05362004,0.02217508
46094849,46094622,-0.012193638,-0.08739446,0.019305337
46115958,46115724,-0.006025824,-0.06653876,0.027793443
46137057,46136828,0.010338156,-0.04552652,0.02563066
46158158,46157932,0.012403398,0.004014208,0.028305778
46175547,46175321,0.022685304,-0.010244345,-0.004441488
46196666,46196440,0.025947373,0.011557447,-0.01103846
46217796,46217571,-0.0003617905,-0.0026748711,-0.015483184
46235222,46234992,-0.034168802,0.01879059,0.017236939
46256242,46256006,-0.04432709,0.0024850226,0.00023335475
46277336,46277107,-0.041885436,0.028040938,0.0010960965
46298449,46298219,-0.0053507434,0.031997412,-0.01005818
46315817,46315590,0.0060463324,-0.0018468855,0.0024552203
46336922,46336695,0.031986907,-0.003329525,-0.019741734
46359274,46359041,0.03503221,0.017528964,-0.015670728
46375402,46375177,0.027498357,-0.016688308,-0.00088649895
46396510,46396282,0.028913962,-0.018996079,-0.0107799405
46418866,46418633,0.019831847,-0.01777311,-0.031114334
46437480,46437248,-0.0010153592,-0.007904294,-0.006452419
46456111,46455872,-0.0069626546,0.010584014,0.021514202
46475981,46475757,0.004703917,0.033997342,0.015173252
46497132,46496904,0.009276215,0.05448332,0.011991021
46514581,46514358,0.019517863,0.03848853,-0.013010801
46535550,46535324,0.019654185,0.009493438,-0.0072949263
46556656,46556426,0.016673764,-0.0035474147,-0.008679099
46577756,46577526,0.04873562,-0.035472866,-0.0019012169
46595135,46594907,0.031878915,-0.040599808,0.00854653
46616245,46616014,0.008232652,-0.04450316,-0.0030673032
46637342,46637114,-0.011792443,-0.03119756,0.0062223477
46654722,46654493,-0.003503525,-0.013655565,0.009160617
46675830,46675598,0.0013511489,0.0074766977,-0.0050883484
46696929,46696701,0.019361582,0.025776664,0.009420794
46718034,46717805,0.014554625,0.0059794807,0.013247442
46735423,46735185,0.05253825,-0.018279072,-0.0109447315
46756536,46756310,0.040734284,-0.02295887,-0.010748517
46777731,46777505,0.02084246,-0.029685324,-0.01709316
46795007,46794777,0.0028287198,0.040699773,0.028138194
46816105,46815876,-0.038014248,0.06439851,0.029438723
46837221,46836982,-0.03225652,0.036630128,0.028260818
46858307,46858083,-0.031913042,0.04331827,0.019985126
46875691,46875465,-0.017072422,-0.0023362166,0.028509302
46896794,46896567,0.016996559,0.0123315975,0.02246034
46917896,46917671,0.020851893,0.025778616,0.010136267
46935283,46935051,-0.007969547,0.017197112,0.012440263
46956379,46956156,0.0053638224,0.0009000053,0.012039036
46977483,46977258,0.026213326,-0.040330388,0.020079335
46999846,46999607,0.046311382,-0.04964856,0.0023085994
47016068,47015834,-0.0050634844,-0.029605132,0.015577228
47037151,47036919,0.008312339,0.0060573984,0.014945239
47057094,47056870,-0.021292934,0.0097702155,0.007942701
47075567,47075329,-0.013545872,0.017117823,-0.008880874
47095428,47095199,-0.030485384,0.037705958,-0.0129577555
47116521,47116296,-0.013556604,0.042979464,-0.015544043
47137668,47137442,0.0005981522,0.041685347,-0.017121615
47155006,47154779,-0.0014345549,0.044114046,0.010315423
47176114,47175883,0.02049017,0.023359785,0.007402755
47197225,47196987,-0.0031016835,0.0119357975,0.005167765
47214593,47214366,0.011947204,0.01434077,0.007756263
47235693,47235470,0.016251234,-0.0018843019,0.012420113
47256805,47256574,0.004588266,-0.007914005,0.013947219
47277905,47277679,-0.008032974,0.005807622,0.026120713
47295351,47295126,-0.00016412175,0.020402014,-0.0018863244
47316505,47316278,-0.0003088529,0.031730924,0.007988638
47337494,47337267,-0.015085288,0.00128406,0.018375294
47354876,47354645,-0.013545155,0.027703911,0.012389083
47375986,47375752,-0.027088352,0.05673864,0.013809921
47397077,47396853,-0.02884002,0.013701413,0.033816583
47418181,47417957,-0.0066515966,0.005851219,0.022949863
47435566,47435336,0.0033077707,-0.018271552,-0.012477354
47456674,47456440,0.006554443,0.011354286,-0.012900246
47477828,47477604,0.017993843,0.016122553,-0.017737882
47495152,47494924,-0.028375583,0.013085071,0.021597203
47516253,47516027,-0.019976238,0.022981603,0.009085523
47537357,47537131,-0.0155054685,0.017013721,-0.00038246575
47558475,47558242,0.0024074854,-0.0143023105,-0.0061701243
47575914,47575686,0.007172456,0.02824632,-0.0007283315
47595866,47595640,0.013186133,0.018900072,-0.0056779077
47615577,47615344,0.018230492,-0.004816893,-0.011548526
47635437,47635203,0.002383021,-0.004180555,-0.002925191
47656536,47656307,0.036744885,-0.054734994,-0.009605154
47677639,47677410,0.03950484,-0.03564068,-0.0024983047
47697497,47697272,0.009022901,-0.0002482812,-0.0019983232
47714889,47714653,0.037325334,-0.029418387,-0.01047556
47735994,47735758,0.02062752,0.02105491,-0.023311824
47757093,47756862,-0.008927386,0.03944665,-0.020438876
47774469,47774240,-0.024471344,0.0446292,-0.022396224
47795570,47795344,-0.026285566,0.0095802145,-0.036290295
47816676,47816453,-0.025297523,-0.0113196,-0.025543302
47837878,47837649,-0.0059994026,-0.014704377,-0.0049473043
47855282,47855055,0.023732124,-0.031900857,-0.007946835
47876261,47876034,0.029044786,-0.041404653,0.0069200234
47897392,47897161,0.01283351,-0.02622059,0.0063468814
47914750,47914519,0.014621385,-0.03626122,-0.01757332
47935846,47935622,-0.010598876,-0.020243157,-0.020243824
47956955,47956726,-0.008052671,-0.0075218407,-0.025384266
47978058,47977831,0.017723955,0.011749979,-0.012455957
47995434,47995210,0.020559493,0.029306864,-0.042249214
48016565,48016336,0.004208437,0.014235754,-0.021314098
48037644,48037418,0.007192063,-0.023855407,0.014575828
48055026,48054796,0.039290056,-0.024443515,-0.026111403
48076193,48075953,-0.016423896,-0.0068568457,-0.014114712
48097284,48097059,-0.023566512,0.014052711,-0.0052317064
48118430,48118206,-0.0207582,-0.00228044,-0.011387817
48135895,48135665,-0.033484116,0.035433423,0.002513504
48156819,48156592,-0.0151606165,-0.0023257257,-0.025611239
48177921,48177695,-0.026768783,-0.016433697,0.009100796
48195341,48195110,-0.0069839526,-0.0140039,-0.026979268
48216412,48216179,-0.0120076705,0.03173277,0.0018064331
48237509,48237283,-0.03260669,0.044622682,-0.010724937
48258615,48258387,0.007232981,0.054152522,-0.028020447
48275997,48275767,0.012539898,-0.00025123282,-0.02820184
