timestamp,yaw_composite,yaw_variance,yaw[0],yaw[1],yaw[2],yaw[3],yaw[4],innov_vn[0],innov_vn[1],innov_vn[2],innov_vn[3],innov_vn[4],innov_ve[0],innov_ve[1],innov_ve[2],innov_ve[3],innov_ve[4],weight[0],weight[1],weight[2],weight[3],weight[4]
28019815,2.0134735,3.8036437,-2.512495,-1.255855,0.00078548136,1.2574219,2.514055,0.0,0.0,0.0,0.0,0.0,0.0,0.0,0.0,0.0,0.0,0.2,0.2,0.2,0.2,0.2
28029746,1.6927907,3.7426512,-2.5125496,-1.2559067,0.00073502085,1.2573688,2.5139992,0.0,0.0,0.0,0.0,0.0,0.0,0.0,0.0,0.0,0.0,0.2,0.2,0.2,0.2,0.2
28218596,1.9114587,3.9107242,-2.511371,-1.2537607,0.003886788,1.2601751,2.5155864,0.13313256,0.17458431,0.09499936,0.0043575093,0.027926316,-0.05510233,0.042047642,0.11149351,0.057262633,-0.045701418,0.19985184,0.19948526,0.19982961,0.20040977,0.20042351
28417072,2.9899802,3.769897,-2.5109854,-1.2544937,0.003090952,1.2604585,2.5165992,0.015257325,0.07182809,-0.025955781,-0.14272761,-0.117280245,-0.066502824,0.054602697,0.14574039,0.080925584,-0.050104465,0.20031829,0.19980225,0.19955978,0.19992532,0.20039433
28615687,-2.9620368,3.7476661,-2.5101655,-1.2540499,0.0034286897,1.2611072,2.5175462,0.06252389,0.13888752,0.008948918,-0.14764622,-0.11439313,-0.12838393,0.032910123,0.15542945,0.06959005,-0.10572133,0.20045252,0.19993702,0.1995091,0.19975911,0.20034222
28819278,1.1656946,3.5488515,-2.5089037,-1.2508756,0.006103802,1.2615603,2.5171275,0.116700426,0.20339087,0.050858818,-0.13012148,-0.08921093,-0.19829993,-0.009907832,0.13087764,0.029130151,-0.17425449,0.1994811,0.1995564,0.20024486,0.2005953,0.20012237
29018014,1.4561936,3.5676668,-2.508937,-1.2499497,0.007891295,1.2629209,2.5173633,0.12639382,0.22592041,0.04339155,-0.16855612,-0.11751401,-0.17773752,0.04653477,0.21023372,0.087442204,-0.15216853,0.19928795,0.19906111,0.20013082,0.2010215,0.2004987
29216525,0.25369605,3.579624,-2.505126,-1.2466121,0.007862545,1.2612889,2.518102,0.08065393,0.20032199,-0.0015964787,-0.24513157,-0.19465826,-0.25637075,-0.0053402837,0.18555366,0.05281413,-0.21982631,0.19856751,0.2001121,0.20150614,0.200815,0.19899921
29420114,0.01870794,3.5242705,-2.5041878,-1.2469913,0.008418473,1.263737,2.520788,0.11470365,0.25991845,0.035144962,-0.2488767,-0.20072801,-0.21504906,0.06920019,0.29457268,0.15131259,-0.16390952,0.19941027,0.20022808,0.20073166,0.20022307,0.19940679
29618738,-0.17067637,3.5374534,-2.5016549,-1.2444811,0.00899061,1.2631338,2.5213943,0.12282083,0.2766003,0.03064595,-0.27531874,-0.21882264,-0.28515756,0.023861405,0.26541704,0.106545635,-0.2339959,0.19886601,0.20079292,0.20162685,0.20020801,0.19850613
29817510,0.09094924,3.4910662,-2.5011184,-1.2422395,0.010154845,1.2619298,2.5197988,0.15639284,0.31958562,0.055510882,-0.27162826,-0.21027844,-0.30791113,0.023884747,0.28133783,0.1105925,-0.25438625,0.19773908,0.20062019,0.20265555,0.20100863,0.1979765
30020952,-0.18317698,3.4946303,-2.4962444,-1.2385074,0.010389743,1.2611358,2.5218687,0.1383146,0.29872027,0.0065452196,-0.33490732,-0.25540638,-0.3229679,0.038057722,0.3013138,0.10643263,-0.28032663,0.19720593,0.20201595,0.20405596,0.20046273,0.19625947
30219607,0.19331282,3.4793804,-2.4981523,-1.2373023,0.013360444,1.2621,2.519812,0.2010845,0.38144353,0.08793593,-0.275793,-0.2085091,-0.31788546,0.052265666,0.3374385,0.14865988,-0.25848696,0.19617948,0.20056121,0.20419893,0.2020034,0.19705702
30413234,0.3949457,3.5927472,-2.50003,-1.2388368,0.014077007,1.263873,2.5199862,0.1891513,0.37879208,0.06663626,-0.31593734,-0.24368049,-0.3061021,0.08637538,0.38620585,0.18491337,-0.24407437,0.19665244,0.19975717,0.203219,0.20221676,0.19815464
30621860,-0.051086623,3.4535327,-2.4988832,-1.2408139,0.011467275,1.2639782,2.5224233,0.15109873,0.3507042,0.024941571,-0.3750517,-0.3001216,-0.32322714,0.086028755,0.4004276,0.1903415,-0.25726372,0.1980264,0.2009669,0.20257995,0.2006157,0.19781114
30820413,-0.22316633,3.4912844,-2.4978595,-1.2405757,0.010976296,1.2638149,2.523197,0.17596386,0.3880437,0.050411973,-0.3712158,-0.29569775,-0.3602648,0.06564458,0.39815572,0.18156211,-0.2884111,0.19819638,0.2014971,0.20273516,0.20018074,0.19739069
31019037,-0.45378205,3.6244335,-2.4948342,-1.2390771,0.009900502,1.2626562,2.5245714,0.16915387,0.37571207,0.028045788,-0.39503902,-0.3098199,-0.37497613,0.05998684,0.39034525,0.16346782,-0.3112482,0.1981457,0.20294867,0.20367567,0.19930552,0.19592446
31217684,0.36012462,3.5089636,-2.4976633,-1.2353654,0.016019255,1.263763,2.5201235,0.2691127,0.47594988,0.122048035,-0.3070184,-0.21834457,-0.39189753,0.050747268,0.38423505,0.15258144,-0.3300923,0.19526869,0.19981132,0.20465994,0.20303418,0.19722578
31416337,0.61819315,3.726504,-2.4984682,-1.2334785,0.019366588,1.2653427,2.519128,0.23529156,0.4469911,0.0852208,-0.34910858,-0.26071963,-0.37856394,0.073479585,0.41191253,0.17611928,-0.31319296,0.19413666,0.1982543,0.20483768,0.20471472,0.19805656
31614912,0.51181036,3.5851989,-2.49652,-1.2308719,0.020114863,1.2642803,2.518796,0.19820939,0.42778516,0.060877763,-0.39219508,-0.31253788,-0.4151103,0.047720015,0.40527937,0.17124124,-0.33532766,0.19292282,0.19862214,0.20631641,0.20523037,0.19690832
31818499,0.5403102,3.600162,-2.4975696,-1.2313776,0.019707208,1.2633944,2.517511,0.20152967,0.44266522,0.07999752,-0.38211524,-0.31326166,-0.40175143,0.061213892,0.42930144,0.20342332,-0.31012893,0.19248568,0.19831333,0.20657156,0.20569631,0.1969332
32012157,0.7589926,3.531475,-2.4984334,-1.2259105,0.026505413,1.2647443,2.5140955,0.26364318,0.5005951,0.134274,-0.32564422,-0.25216332,-0.43760103,0.027886346,0.39257267,0.16235206,-0.3505491,0.18882068,0.19512227,0.20832314,0.21001147,0.19772245
32220766,0.91617346,3.3701508,-2.501552,-1.2255754,0.02938865,1.265795,2.5114307,0.25632557,0.48076904,0.1055036,-0.34354693,-0.2592132,-0.39133185,0.079519376,0.43142557,0.1907901,-0.31575227,0.18736376,0.19249244,0.20811605,0.21262333,0.19940452
32419337,0.75599855,3.5426679,-2.497751,-1.2280296,0.024886115,1.266201,2.5169933,0.14090142,0.36874977,-0.01235003,-0.46531686,-0.38025746,-0.36297235,0.11427495,0.46996015,0.22561611,-0.28544536,0.19050162,0.19587407,0.20706192,0.2084839,0.19807854
32617965,0.6269232,3.616422,-2.495575,-1.2254165,0.025120845,1.2645303,2.5165,0.18763907,0.42639095,0.06024606,-0.39856574,-0.32723084,-0.42967913,0.035608374,0.40053874,0.17135313,-0.34004512,0.18902366,0.19660713,0.20907752,0.20892765,0.1963641
32821592,0.35789883,3.3975255,-2.4922485,-1.227365,0.021575054,1.2651963,2.5214353,0.14176542,0.37204608,0.0011384897,-0.45298854,-0.37456566,-0.36193594,0.10683143,0.46449214,0.22944066,-0.28049788,0.19193684,0.19971716,0.2080291,0.20513628,0.19518058
33020198,0.46589535,3.465556,-2.4922516,-1.2259424,0.02378,1.2664826,2.5213532,0.22677504,0.45112404,0.07918812,-0.37343982,-0.28887329,-0.39268366,0.075592674,0.42968938,0.19098584,-0.31833988,0.19118035,0.19870457,0.20817384,0.20624883,0.19569242
33218798,0.45988345,3.4625525,-2.4894018,-1.2239625,0.026246948,1.2701108,2.5252283,0.20188554,0.42090255,0.049345788,-0.3967,-0.30937114,-0.36822584,0.09767779,0.44547358,0.20544198,-0.29795524,0.19199817,0.19890507,0.20745303,0.20561844,0.19602527
33412457,0.5087473,3.5283277,-2.4879634,-1.2243265,0.027692372,1.2744569,2.5296001,0.19681558,0.4212249,0.052571908,-0.3972654,-0.31451127,-0.3422688,0.12200231,0.47477436,0.23857786,-0.26684132,0.19425365,0.19894433,0.20515549,0.20420645,0.1974401
33621012,0.4448013,3.4724553,-2.4855747,-1.2227864,0.029163346,1.276722,2.532438,0.17879306,0.41331843,0.06220857,-0.38704646,-0.3198224,-0.37551394,0.07247182,0.43069488,0.21155527,-0.28677937,0.19490954,0.19942057,0.20478424,0.20350157,0.19738404
33819637,0.35092348,3.3924267,-2.4830966,-1.2204243,0.03062892,1.2777452,2.5340796,0.18683137,0.40154293,0.049703147,-0.38095948,-0.30056477,-0.3799165,0.062395684,0.4005238,0.1740786,-0.30868298,0.1945591,0.19995308,0.20547631,0.20338026,0.19663113
34018261,0.15868023,3.2780364,-2.4746144,-1.2121496,0.03609569,1.2816725,2.5398462,0.17464976,0.3855785,0.031172367,-0.39774954,-0.3136875,-0.4074105,0.036778215,0.37190717,0.14230634,-0.3401357,0.19324814,0.20154807,0.20781879,0.2031665,0.19421852
34221850,0.30636618,3.3238482,-2.4633622,-1.1997174,0.04948182,1.2944891,2.551344,0.19220239,0.41765958,0.097730115,-0.3250686,-0.27202165,-0.362042,0.051474854,0.39078677,0.19586776,-0.2708486,0.1927414,0.20044206,0.20765327,0.20418093,0.19498242
34420474,0.5284912,3.4752336,-2.4544482,-1.1895986,0.06151341,1.3065234,2.5614598,0.1759828,0.399357,0.12022221,-0.27408332,-0.2446661,-0.32317382,0.045993976,0.3693727,0.20808648,-0.22050047,0.19272202,0.19876307,0.20661636,0.20526423,0.19663428
34619101,1.0507644,3.3114243,-2.4665813,-1.1984231,0.05725198,1.3018379,2.5519266,0.21762788,0.4157996,0.19332072,-0.1398494,-0.12884805,-0.25532135,0.044884022,0.32320657,0.20102638,-0.15617579,0.1923092,0.19443806,0.20426269,0.20827223,0.20071788
34812757,1.4149663,3.2191288,-2.4845693,-1.212119,0.04876518,1.2923564,2.5365863,0.23315266,0.42286253,0.25052065,-0.041212708,-0.05495368,-0.23370068,0.009346241,0.2618196,0.1784968,-0.12579626,0.19132711,0.18918197,0.20177981,0.21222697,0.20548414
35021313,1.5827647,3.2656155,-2.5003345,-1.2263176,0.03794976,1.2821012,2.52329,0.1621767,0.34245926,0.16757528,-0.11408237,-0.12012138,-0.20014536,0.041252427,0.2836637,0.1945776,-0.10094423,0.19172001,0.18641365,0.19949129,0.21371482,0.20866017
35220115,1.5991421,3.2424529,-2.5134087,-1.2362666,0.030331928,1.2728521,2.5106752,0.18921494,0.3730905,0.15696464,-0.15183108,-0.13477437,-0.27735913,0.007799876,0.26640567,0.1432689,-0.18811075,0.1901415,0.1833123,0.1989406,0.21670295,0.21090272
35418561,1.6224891,3.2114098,-2.5246146,-1.2435279,0.026218325,1.2668066,2.5002675,0.23606241,0.41901988,0.15773812,-0.17527908,-0.13080564,-0.28993413,0.041931745,0.3126077,0.15117876,-0.21507464,0.18821415,0.1792744,0.19802195,0.22053428,0.21395524
35622197,1.5691614,3.1583061,-2.5276978,-1.2445437,0.025205908,1.2637784,2.4959517,0.21045673,0.37634993,0.06354317,-0.28080788,-0.19551188,-0.33005884,0.05004635,0.3174031,0.10731357,-0.28497675,0.18625398,0.17793305,0.19905354,0.22271119,0.21404827
35820775,1.7399081,3.3073022,-2.5267313,-1.2479886,0.022828225,1.2663367,2.5006058,0.15131828,0.33923003,-0.028298005,-0.42511198,-0.32147914,-0.2747592,0.16990668,0.47602147,0.22749522,-0.22706506,0.19085713,0.17966475,0.19561672,0.2185005,0.21536084
36019597,1.9061888,3.5810401,-2.5155203,-1.24787,0.015960736,1.2660401,2.5113752,0.03261307,0.22135298,-0.1842447,-0.6059679,-0.47783244,-0.36198533,0.122067876,0.44213519,0.1604511,-0.32699347,0.19751401,0.190086,0.19614758,0.20766476,0.2085877
36213058,2.2427168,3.2957964,-2.5115633,-1.2464795,0.018473437,1.27173,2.517977,0.22713104,0.41478682,-0.01954059,-0.466313,-0.3171831,-0.3391013,0.1766848,0.5097608,0.20245752,-0.31719375,0.2008657,0.19100843,0.1934543,0.20493317,0.20973834
36421620,3.1249988,3.580613,-2.5035212,-1.2458723,0.015833842,1.2743739,2.5271854,0.095814265,0.31798252,-0.07715196,-0.5352906,-0.42962322,-0.35186207,0.1328121,0.49057916,0.22639728,-0.28933278,0.20677595,0.19755177,0.19188099,0.19724888,0.20654245
36620237,-1.4943967,3.2324839,-2.4940302,-1.2458655,0.001830467,1.2611152,2.528279,-0.14492507,0.16936073,-0.12408514,-0.61786264,-0.62913305,-0.48235932,-0.07389401,0.35159218,0.20255294,-0.31110832,0.20767394,0.2132023,0.20012294,0.18734682,0.19165401
36818965,-1.6734151,3.0406616,-2.4897454,-1.2652477,-0.027123518,1.2494569,2.537204,-0.26087165,0.15183085,-0.06436321,-0.6184751,-0.7415737,-0.1962161,0.16999497,0.6775855,0.6300199,0.08456585,0.2263907,0.23665306,0.19389492,0.16316243,0.17989893
37017486,-1.8628885,2.9468153,-2.4918702,-1.2859814,-0.047773596,1.2472835,2.5466244,-0.085979015,0.35878646,0.15117845,-0.4516436,-0.5968376,-0.19831407,0.17713869,0.7271051,0.69807434,0.107428744,0.24833646,0.25011632,0.1798179,0.1443222,0.17740707
37216115,-1.9574732,2.5887048,-2.4896805,-1.3089826,-0.07254425,1.2465607,2.5626495,-0.14784974,0.2667334,0.027156591,-0.5817677,-0.6795745,-0.10978857,0.29035664,0.8293743,0.75898683,0.15187892,0.27793798,0.26898667,0.16181958,0.12028241,0.17097336
37419720,-1.9869366,2.420052,-2.488808,-1.3187357,-0.082662806,1.2468837,2.5697706,-0.02043897,0.35518736,0.12169227,-0.46260563,-0.53058326,-0.27603516,0.106328085,0.6136409,0.5312296,-0.054034054,0.2922659,0.27716056,0.15307726,0.109815665,0.16768067
37618404,-2.0242705,2.3768036,-2.4872296,-1.3167924,-0.07704246,1.2544014,2.5748065,0.13187459,0.4459494,0.23895308,-0.26552275,-0.31037945,-0.32742238,0.0050910264,0.4385795,0.35723025,-0.14984997,0.29690582,0.27454558,0.14905518,0.108814724,0.1706787
37816951,-1.9942007,2.3442612,-2.4752781,-1.3078496,-0.07044302,1.2624774,2.586132,-0.034028053,0.20580918,0.043768093,-0.3434068,-0.37393808,-0.26304668,-0.006270081,0.32629555,0.25951922,-0.12963873,0.29942626,0.27950794,0.14838563,0.10553044,0.16714977
38020539,-2.0015388,2.3267412,-2.4565287,-1.288321,-0.048232853,1.2854962,2.6072297,0.116324976,0.27855346,0.21261905,-0.020221796,-0.07196076,-0.11484799,0.014895409,0.22379094,0.21809942,-0.007995993,0.30176416,0.27685377,0.14610788,0.10559266,0.16968147
38219163,-1.9434468,2.2989192,-2.3866565,-1.2199444,0.021153988,1.3565384,2.6791592,0.07867734,0.17640597,0.20442244,0.11130166,0.032138426,0.106052384,0.11493939,0.21481997,0.2723607,0.19637913,0.304703,0.2770515,0.14406157,0.1041495,0.17003444
38417866,-1.8993031,2.2574623,-2.3510327,-1.1881247,0.051249236,1.389283,2.7166653,0.24268875,0.289494,0.39766768,0.41847333,0.3129106,0.2291941,0.13717498,0.14881146,0.26206693,0.3089885,0.30831993,0.28124636,0.14241956,0.100728914,0.16728526
38621377,-1.8909748,2.1619077,-2.3283858,-1.1720014,0.066167355,1.4123616,2.745456,0.41290724,0.42402068,0.5694249,0.657816,0.5463948,-0.05555994,-0.19894683,-0.24239495,-0.107024916,0.010009805,0.31795284,0.28556395,0.13665959,0.094602875,0.16522086
38820003,-1.876707,2.1524148,-2.3191648,-1.1639531,0.07334696,1.420249,2.7549257,0.014109351,0.014310442,0.12445852,0.20168447,0.12084456,0.09484994,-0.01672794,-0.05938101,0.040901497,0.1382308,0.31860003,0.2870618,0.1364948,0.09371079,0.16413264
39013660,-1.8779806,2.1508858,-2.3191984,-1.163848,0.07351605,1.4204742,2.7553458,0.15152068,0.1610005,0.1681469,0.16225107,0.15069833,-0.0042287856,-0.007892191,0.00039504468,0.009423666,0.0057298243,0.31880802,0.28695023,0.13633181,0.09365978,0.16425017
39222280,-1.8751669,2.1572733,-2.319202,-1.1631385,0.07404621,1.4201777,2.7547884,0.1457289,0.17560983,0.0031407028,-0.15300545,-0.045933463,-0.13790989,0.04826913,0.15038897,0.0015937164,-0.18305242,0.31807154,0.2869441,0.13683279,0.09399578,0.16415578
39420841,-1.8410996,2.1031969,-2.3111227,-1.1608193,0.07168255,1.4213605,2.762495,0.09066419,0.14721596,-0.20262879,-0.5147282,-0.29468995,-0.27180222,0.104616955,0.30669186,0.004475102,-0.36588803,0.32175422,0.29526907,0.13577685,0.0890901,0.1581098
39619464,-1.7819257,1.9792336,-2.296915,-1.1593966,0.06319053,1.4209821,2.7764938,0.05793187,0.13445756,-0.32115227,-0.73677117,-0.4489949,-0.3653801,0.12697543,0.3964391,0.002937846,-0.48768887,0.32944357,0.31334853,0.13298197,0.078878604,0.14534728
39818088,-1.7157737,1.8072755,-2.279427,-1.1586928,0.050339263,1.4183495,2.7932677,0.010453552,0.08919677,-0.39186296,-0.841462,-0.5297209,-0.41072014,0.11034002,0.39970794,-0.019133594,-0.5469305,0.33747125,0.33818793,0.12931164,0.06653162,0.1284976
40016713,-1.7082818,1.6370636,-2.2712889,-1.1660244,0.03608356,1.4170493,2.8057828,-0.106015116,-0.047528177,-0.42226407,-0.7832564,-0.5319682,-0.22403751,0.18307817,0.4130509,0.08290208,-0.3382644,0.3501919,0.35403255,0.12104364,0.05647315,0.11825872
40220306,-1.6885601,1.5710818,-2.2713573,-1.1715673,0.024644163,1.4080868,2.8035944,-0.14531998,-0.1194569,-0.312742,-0.49871612,-0.3632217,-0.2759816,-0.06781014,0.04944373,-0.12504493,-0.3412642,0.35007942,0.36397073,0.12085252,0.05314729,0.11195007
40418960,-1.6775738,1.5686436,-2.266916,-1.1662208,0.02827847,1.4108634,2.8065853,0.062131032,0.056806356,-0.00331226,-0.04510691,0.0048267767,-0.19559526,-0.13636976,-0.114319466,-0.1746321,-0.22709432,0.34877852,0.36527163,0.12166362,0.053132776,0.11115346
40617554,-1.6676973,1.5651113,-2.2599988,-1.15939,0.034451026,1.4167519,2.8134034,0.12530924,0.08793104,0.095460005,0.14927688,0.1650715,0.065475754,0.04131171,-0.0049646944,-0.013093747,0.038740717,0.34827417,0.36612698,0.12195393,0.053006038,0.110638835
40816176,-1.6621394,1.541527,-2.2550368,-1.1565478,0.03544679,1.419882,2.8193812,0.14457248,0.06749004,0.119646624,0.26055327,0.265051,-0.0031620255,-0.09084445,-0.20416439,-0.18481162,-0.04151241,0.3497106,0.36869824,0.12088093,0.051667016,0.109043114
41019766,-1.6464528,1.4855945,-2.2474535,-1.1546193,0.032898065,1.4211433,2.8282635,0.24286461,0.14767188,0.257247,0.4687909,0.43831438,0.10186904,-0.05289629,-0.2139067,-0.14685732,0.07521602,0.35111472,0.3762538,0.11947848,0.048701964,0.10445096
41218390,-1.6396416,1.432544,-2.2414107,-1.1539818,0.029658267,1.4225651,2.8363185,0.18014184,0.08369979,0.21165973,0.44226933,0.39699036,0.07152192,-0.10336533,-0.2752279,-0.19126458,0.053104904,0.3542481,0.3823764,0.1169144,0.04573448,0.100726485
41421980,-1.6393915,1.4228979,-2.2394445,-1.1532317,0.029852178,1.4240685,2.8389983,-0.029331546,-0.09698419,0.015885714,0.19862956,0.14704569,0.09348987,-0.053165626,-0.18491122,-0.10415164,0.09187017,0.3552773,0.3831136,0.116174735,0.045179993,0.10025446
41620605,-1.6364573,1.4063017,-2.2372043,-1.1526664,0.029038396,1.4246738,2.8418937,0.12201213,0.08084975,0.15343027,0.26803464,0.23307243,0.04465878,-0.048479434,-0.13019665,-0.07764895,0.045509223,0.3561167,0.3851615,0.11542808,0.044269815,0.09902391
41819244,-1.6357436,1.3965385,-2.2377102,-1.153994,0.026740065,1.4230198,2.8417826,0.21187596,0.1938208,0.22791365,0.2801118,0.2625035,0.023299363,-0.019727804,-0.056149714,-0.03147711,0.024677072,0.35639626,0.38654006,0.11510205,0.04374611,0.09821552
42022819,-1.6383897,1.3958567,-2.2406735,-1.1569059,0.0236347,1.4199888,2.838888,0.0912907,0.08320511,0.08169037,0.09084531,0.09636712,-0.058495037,-0.060422663,-0.068376444,-0.07389949,-0.06576363,0.35636654,0.38667586,0.115108036,0.043710317,0.09813919
42221444,-1.6400355,1.3955969,-2.2433016,-1.1594565,0.020911729,1.4171242,2.836083,0.039404653,0.03892748,-0.0048586167,-0.041358683,-0.005761478,-0.061058726,-0.016128093,0.0047357045,-0.038275395,-0.08197786,0.3561161,0.3869036,0.11524969,0.04371374,0.098016895
42420073,-1.6397233,1.3948861,-2.2439597,-1.1600741,0.020127017,1.4161994,2.835257,0.061316043,0.05732734,-0.019014865,-0.07829833,-0.013898481,-0.058931034,0.01770007,0.049578615,-0.025881018,-0.097725675,0.3558967,0.38717964,0.115364864,0.04369331,0.09786543
42613726,-1.6390443,1.3896164,-2.2441962,-1.1607778,0.018990045,1.4153155,2.8349674,0.04509136,0.044084072,-0.066088706,-0.15783757,-0.067505985,-0.07856776,0.034133848,0.08537568,-0.021257032,-0.13073012,0.3559687,0.38798565,0.11523302,0.04341998,0.097392604
42822282,-1.6336304,1.3806213,-2.2427826,-1.1600904,0.018514538,1.4148808,2.835835,0.03823697,0.04687108,-0.07775224,-0.19456422,-0.09810172,-0.13444567,-0.0023955922,0.06713127,-0.049597956,-0.18579149,0.35537115,0.38986427,0.11542649,0.043007523,0.09633056
43021079,-1.6254506,1.3710653,-2.2399821,-1.1580034,0.019180274,1.4153785,2.8378413,0.05850764,0.06351042,-0.07569457,-0.20036598,-0.08962653,-0.1522841,-0.0068977643,0.06526542,-0.06677097,-0.21337564,0.35438544,0.39210173,0.11582919,0.042595927,0.09508773
43219531,-1.6209269,1.3546381,-2.2379599,-1.1576377,0.018088257,1.41523,2.8398018,0.019629776,0.021293275,-0.13178,-0.2642303,-0.1399551,-0.1279729,0.030212533,0.10508326,-0.04144806,-0.1982845,0.3546067,0.3946324,0.115384005,0.041742206,0.09363473
43418161,-1.6149025,1.3349512,-2.2359354,-1.157609,0.016156474,1.4142746,2.8415477,-0.01359728,-0.007383518,-0.15366295,-0.28693962,-0.17064768,-0.1496536,0.0037777927,0.081119806,-0.057206843,-0.2134518,0.35453156,0.39793113,0.1150215,0.04074142,0.091774374
43616780,-1.61077,1.312642,-2.235017,-1.1590743,0.012612492,1.4120965,2.8424003,-0.040343195,-0.036157668,-0.18099017,-0.31106383,-0.19433759,-0.14547288,0.005624503,0.080189854,-0.0576067,-0.21048301,0.3547823,0.40146998,0.11438092,0.03958299,0.08978384
43815543,-1.6072911,1.2937312,-2.234183,-1.1602963,0.009599227,1.4102666,2.8431814,-0.038210332,-0.037130028,-0.17087945,-0.28803068,-0.1781267,-0.13526034,0.003045626,0.068966016,-0.059526615,-0.19781035,0.35497588,0.40451023,0.11381913,0.038603373,0.08809138
44018994,-1.6032641,1.2821751,-2.2352927,-1.1624706,0.0057420866,1.4064729,2.8413203,0.01434233,0.0074615553,-0.111609586,-0.20595479,-0.103037275,-0.1609815,-0.041552953,0.008053534,-0.109564364,-0.22307225,0.35398072,0.40715557,0.114091285,0.038077697,0.086694725
44217619,-1.6024066,1.2692062,-2.2368348,-1.1654246,0.0014108873,1.402859,2.8396003,-0.036838695,-0.043585233,-0.15057887,-0.23500821,-0.14204726,-0.12747912,-0.020320348,0.023783732,-0.08215367,-0.18385477,0.35387725,0.4094337,0.11380737,0.037419718,0.08546195
44421204,-1.5985705,1.2610264,-2.2370648,-1.1664183,-0.0008925705,1.4005419,2.8387167,-0.031584315,-0.033493824,-0.1106885,-0.17588693,-0.11052576,-0.16204268,-0.08321607,-0.047608025,-0.12300916,-0.20052184,0.35299268,0.4114479,0.11408146,0.03705529,0.0844226
44619932,-1.5980945,1.2565547,-2.2375798,-1.1674305,-0.0024242199,1.3992478,2.8380766,-0.05639577,-0.058122985,-0.10685629,-0.14750777,-0.10595651,-0.08773866,-0.03813217,-0.016071599,-0.064002655,-0.11249866,0.35289192,0.41228944,0.11401257,0.03683063,0.083975375
44823424,-1.5982941,1.2553562,-2.2380397,-1.1680242,-0.0031516762,1.3985859,2.8375766,-0.021280162,-0.01936724,-0.048043188,-0.07600707,-0.053405687,-0.04023309,-0.00955219,0.0071120765,-0.02005763,-0.05253254,0.3528677,0.412517,0.11399161,0.036769338,0.08385432
45022048,-1.5982621,1.2558004,-2.2384212,-1.1683172,-0.003494821,1.3981515,2.8370953,-0.00018323958,0.011080533,0.0074183494,-0.0111444965,-0.015154846,-0.077626824,-0.06821016,-0.052530535,-0.051882505,-0.070583016,0.35271975,0.41254693,0.11408738,0.036800142,0.083845824
45220675,-1.5974647,1.2571326,-2.237699,-1.1674391,-0.0025378237,1.399006,2.8377416,-0.06742272,-0.05127776,-0.026210003,-0.026051782,-0.057060055,-0.057021085,-0.074889205,-0.06737381,-0.037120134,-0.03235107,0.35263288,0.4123782,0.11417539,0.036873963,0.08393959
45419356,-1.5959605,1.2586087,-2.2363324,-1.1658986,-0.00091143436,1.400493,2.839021,-0.07319472,-0.04439178,0.0027395934,0.005247146,-0.05191674,-0.036186203,-0.07066846,-0.058732253,-0.0021870695,0.009004325,0.3525169,0.41220084,0.11428413,0.03695831,0.084039904
45617977,-1.5935966,1.2625706,-2.2340531,-1.1631526,0.0021252423,1.4031911,2.8411374,-0.117945075,-0.08617552,-0.024251185,-0.01272089,-0.08403729,-0.061422545,-0.10974359,-0.10147089,-0.029502876,-0.006808467,0.35229838,0.41166288,0.114522114,0.037178714,0.08433788
45821512,-1.5927962,1.2633096,-2.2315247,-1.1606178,0.004964162,1.4063338,2.8440034,-0.05545045,-0.027531542,0.051393673,0.083048224,-6.248802e-05,-0.032713804,-0.100482896,-0.105103925,-0.01833395,0.027009279,0.3528072,0.41117328,0.11425862,0.03718748,0.084573396
46020136,-1.5916542,1.2655689,-2.229489,-1.1583619,0.0075240238,1.4088911,2.8461454,-0.08974119,-0.064524435,0.013585195,0.048124917,-0.03263814,-0.026741832,-0.09497522,-0.102443874,-0.017503768,0.030456603,0.35297626,0.41065705,0.11422906,0.037296433,0.0848412
46218782,-1.5923133,1.2654715,-2.2278469,-1.1568358,0.009378027,1.4112315,2.848271,-0.05292745,-0.023354553,0.0678673,0.108007185,0.013678297,-0.026510391,-0.1061551,-0.11476529,-0.015472058,0.040366687,0.35370478,0.41015366,0.11381934,0.03724918,0.08507307
46417387,-1.5918406,1.2639315,-2.2273307,-1.1565105,0.009578496,1.4115804,2.8488421,-0.07146823,-0.041333474,0.056988884,0.10254447,0.0019440465,0.026876193,-0.059792478,-0.07117287,0.035217974,0.09758281,0.3537854,0.41034308,0.11373483,0.03717001,0.08496669
46620976,-1.5937488,1.2618802,-2.2263546,-1.1559064,0.010450881,1.4132231,2.8504844,-0.055719838,-0.02073998,0.09308239,0.14573517,0.029212596,-0.0101155825,-0.11041341,-0.123538986,-0.00027846172,0.07183385,0.3547939,0.40996853,0.11311721,0.037007652,0.08511273
46819600,-1.5925041,1.2581948,-2.224466,-1.154488,0.011667806,1.4148991,2.8526225,-0.06321114,-0.019925302,0.09390274,0.13528459,0.013666656,0.02632083,-0.06988707,-0.07304361,0.053600714,0.11478347,0.35517168,0.41031376,0.112808086,0.036801483,0.084905
47018230,-1.5926261,1.2573712,-2.222754,-1.1529523,0.01341635,1.4170905,2.8547373,-0.088677526,-0.04869729,0.074933365,0.12942652,0.0015437454,-0.00026007742,-0.10816015,-0.12009271,0.014741026,0.09035227,0.35578725,0.4099946,0.11244749,0.036729302,0.0850414
47221815,-1.5887289,1.2567247,-2.2194736,-1.1497183,0.016501417,1.4201044,2.8578997,-0.116397485,-0.07368347,0.05416552,0.108613044,-0.024476606,0.029594917,-0.08128593,-0.09198114,0.04805218,0.124366805,0.35561022,0.4101983,0.11253364,0.036716215,0.08494163
47420442,-1.5881778,1.2531965,-2.2174158,-1.1481458,0.018022513,1.4222436,2.8603806,-0.065470114,-0.022206046,0.098893166,0.1467109,0.018934693,0.015683677,-0.08798838,-0.09476902,0.03898897,0.10766182,0.3562584,0.41032326,0.1120796,0.036502987,0.08483569
47624031,-1.5880812,1.2501547,-2.2146192,-1.1458265,0.02051627,1.4255526,2.863834,-0.063921474,-0.024351861,0.100371614,0.1563756,0.027732048,0.0015036203,-0.1076639,-0.12067417,0.01518175,0.09236039,0.35726756,0.4101059,0.111441106,0.036293987,0.08489137
47822679,-1.5860273,1.2486904,-2.2134454,-1.1447848,0.021304334,1.4262896,2.864864,-0.09925977,-0.067751564,0.04899104,0.10885446,-0.008275386,0.04475887,-0.06005936,-0.07888513,0.046155773,0.12549318,0.3570488,0.41048753,0.11152531,0.03623975,0.08469854
48021279,-1.5858476,1.2487416,-2.2140694,-1.1453598,0.0206111,1.4254224,2.8640635,-0.1119334,-0.08166588,0.034317292,0.09525687,-0.02050465,0.037138566,-0.06751971,-0.087504715,0.036321145,0.116562575,0.35677853,0.41064402,0.11168067,0.03626617,0.08463069
48219907,-1.5896422,1.2481703,-2.2166195,-1.1480248,0.018096462,1.4232043,2.8617873,-0.08435908,-0.058721308,0.052120034,0.114840895,0.006211702,0.012674086,-0.088966355,-0.112033,0.00498737,0.08601164,0.35719973,0.41042158,0.11143597,0.036218,0.084724694
48418540,-1.591489,1.2487932,-2.218335,-1.1496638,0.016530812,1.421602,2.8600738,-0.10024094,-0.08318697,0.022417597,0.092139,-0.006906286,0.030696232,-0.069718465,-0.10055996,0.008028522,0.09480631,0.35720274,0.41028976,0.11145569,0.036256023,0.08479577
48617153,-1.6026623,1.2495672,-2.2209787,-1.1525756,0.015012779,1.4217191,2.8591726,-0.05150532,-0.037851423,0.069077715,0.14455704,0.04647526,-0.096486524,-0.19992597,-0.2355017,-0.12698343,-0.034404144,0.359899,0.40821052,0.109999314,0.036139946,0.08575123
48820743,-1.6108594,1.2446338,-2.2209976,-1.1535265,0.014960548,1.4237587,2.861023,0.022049874,0.037239157,0.1370615,0.20395708,0.11087034,-0.0833956,-0.17862147,-0.2088097,-0.10640983,-0.023573145,0.3627956,0.40694666,0.108292714,0.035724584,0.086240485
49019367,-1.6097512,1.2472341,-2.220052,-1.1522573,0.016405813,1.4249218,2.861835,-0.10958111,-0.100769565,-0.017166503,0.04405774,-0.031681325,0.026136786,-0.055395633,-0.08536759,-0.0010142736,0.07321168,0.36259526,0.40662974,0.108473584,0.03587178,0.086429656
49218025,-1.6071018,1.246477,-2.219574,-1.1517771,0.016483765,1.4246318,2.8618817,-0.09077841,-0.063754514,0.0137272775,0.04479534,-0.036681063,0.05876948,-0.0076159704,-0.012640731,0.072953604,0.11705783,0.3619326,0.4072333,0.10881407,0.035874728,0.08614532
49416617,-1.6045341,1.2467607,-2.2198706,-1.1519196,0.015911058,1.4234602,2.8609726,-0.12725154,-0.08944903,-0.026583001,-0.022902995,-0.098565504,0.036388855,-0.009758748,0.0052835364,0.08098428,0.096063584,0.360991,0.4078606,0.10933499,0.035946015,0.085867375
49620208,-1.5998807,1.250793,-2.2200904,-1.1514397,0.015942482,1.4221463,2.8595998,-0.19971316,-0.14667901,-0.07110031,-0.0768945,-0.1724274,-0.012525817,-0.06434506,-0.03716909,0.05683609,0.0651564,0.359206,0.4084371,0.110423915,0.03626056,0.08567247
49818831,-1.599608,1.2436465,-2.2212355,-1.1533703,0.013232317,1.4198031,2.8583927,-0.08082855,-0.0015926771,0.10140839,0.08427662,-0.050089594,0.041585587,-0.025754461,0.019566257,0.15037921,0.1529275,0.35911492,0.4097158,0.110279284,0.035907652,0.084982306
50017629,-1.5946459,1.2381713,-2.2221308,-1.154652,0.010601312,1.4164934,2.8564522,-0.14747253,-0.07511112,0.042703398,0.048004843,-0.09480426,0.0741629,-0.011733074,0.018031415,0.16052198,0.1873413,0.35748994,0.41179547,0.11101932,0.03573225,0.08396311
50221046,-1.5970023,1.2235833,-2.2207766,-1.1552254,0.009441449,1.4174185,2.85905,0.01858433,0.08781056,0.21191114,0.22733077,0.08097097,0.054846115,-0.039118245,-0.01635161,0.13099596,0.1687401,0.35942084,0.41292945,0.10954239,0.03488321,0.08322412
50424637,-1.5911143,1.2226144,-2.2188468,-1.1532176,0.010753809,1.4180056,2.8601723,-0.14841604,-0.09253304,0.035733305,0.072986566,-0.06910805,0.051621545,-0.053000763,-0.04841294,0.09789174,0.15722907,0.3581608,0.41396832,0.11020345,0.034915123,0.0827524
50623261,-1.5860622,1.2329723,-2.2161913,-1.1491756,0.015276369,1.4210783,2.8619885,-0.21402064,-0.16705203,-0.046722353,-0.004156202,-0.13418299,-0.022751361,-0.12365305,-0.12600234,0.009035818,0.07211868,0.35686126,0.41305676,0.1112278,0.035528764,0.083325386
50822100,-1.580766,1.231081,-2.2127569,-1.1458781,0.018134758,1.4237297,2.8650908,-0.09402123,-0.05564075,0.043984577,0.07986351,-0.027302146,0.04797647,-0.035893314,-0.03839109,0.07307426,0.12604798,0.35634154,0.41373512,0.111460514,0.03546779,0.08299495
51020511,-1.5753093,1.2330649,-2.2094173,-1.1421967,0.021653317,1.4266382,2.867925,-0.12759499,-0.09669048,-0.006787613,0.030737706,-0.063735455,0.031757172,-0.045778353,-0.05255885,0.046537478,0.09932437,0.35555187,0.41393092,0.11195721,0.035620827,0.08293919
51219135,-1.567706,1.2331367,-2.2057474,-1.1377668,0.025089812,1.4289484,2.8704143,-0.13402823,-0.09070052,0.018054225,0.055427052,-0.062420353,0.053275548,-0.037652753,-0.038719304,0.083489664,0.1396519,0.3544121,0.41474506,0.11258476,0.03568429,0.082573816
51412794,-1.5555178,1.1687156,-2.195992,-1.1359516,0.021171387,1.4304601,2.8816254,-0.120152414,0.07707865,0.28333884,0.19841634,-0.09514753,0.18676028,0.07061286,0.20683834,0.48463917,0.440674,0.35641402,0.4245737,0.10940784,0.032309707,0.07729484
51621467,-1.497508,1.0214494,-2.1802201,-1.1375178,-0.0017077855,1.4120666,2.8919082,-0.48228788,-0.043589488,0.32914406,0.06255762,-0.5223319,0.10124472,-0.06507021,0.2797232,0.8187851,0.6257213,0.3452989,0.45897648,0.108808495,0.02553572,0.0613805
51820023,-1.497483,0.77304184,-2.1584547,-1.1578486,-0.050233074,1.3961565,2.9260874,-0.36771828,0.20683238,0.6571927,0.27839985,-0.47439378,0.23368227,0.063634515,0.5286623,1.212393,0.9099705,0.35418108,0.50245416,0.08760414,0.013747496,0.042013105
52018599,-1.4422059,0.6593443,-2.1334157,-1.1544542,-0.07295067,1.3785381,2.943997,-0.5422246,-0.0540618,0.35253197,0.035804078,-0.64767987,0.09807238,-0.04991281,0.3348323,0.9637905,0.688974,0.3328195,0.5429045,0.08496603,0.009566141,0.029743843
52217225,-1.4423648,0.58659446,-2.1183724,-1.1588988,-0.09010705,1.3770387,2.9650257,-0.17056762,0.15909426,0.46342206,0.28571445,-0.21952349,0.2718538,0.14746183,0.38536718,0.850419,0.69445187,0.3340107,0.55949515,0.075325884,0.006846256,0.024321977
52415914,-1.4327426,0.5350488,-2.1078014,-1.1637745,-0.10828949,1.3675814,2.9759352,-0.23839554,0.044445936,0.32081586,0.18025428,-0.27536783,0.28895,0.17282838,0.3682947,0.78980315,0.66221344,0.32718363,0.5773407,0.070388645,0.00521813,0.01986888
52614474,-1.4277966,0.503104,-2.1011453,-1.1675051,-0.12069966,1.3612154,2.9832132,-0.22368518,0.04659615,0.3184249,0.1926798,-0.2579158,0.15320563,0.038482666,0.21934515,0.6361012,0.51741856,0.32260337,0.5889575,0.06689845,0.0042962907,0.017244305
52818064,-1.4028814,0.48557642,-2.0916367,-1.162015,-0.1245656,1.3543987,2.9863832,-0.38078696,-0.16142476,0.076080844,-0.005917251,-0.39341086,0.12362167,0.015313387,0.15049234,0.50903165,0.43154523,0.3092903,0.6032131,0.0684559,0.003923586,0.015117258
53021654,-1.4010638,0.4697109,-2.0839767,-1.161205,-0.12741694,1.3564891,2.9957025,-0.011168309,0.13063508,0.3067832,0.2844506,0.007600464,0.22249898,0.1291078,0.19972092,0.4549178,0.43808234,0.30909106,0.6077149,0.06563378,0.0034839222,0.014076465
53220378,-1.3806714,0.46670836,-2.0737538,-1.1506839,-0.12060214,1.3600515,3.0012844,-0.30772552,-0.21625142,-0.07145703,-0.047032297,-0.26006603,0.14537331,0.05318156,0.077567846,0.27409142,0.30556715,0.3018675,0.6136522,0.067570165,0.003469853,0.013440237
53418905,-1.3613237,0.44969076,-2.0530818,-1.1378145,-0.11318204,1.370518,3.0210679,-0.09990266,0.044048533,0.22727983,0.21270652,-0.075889714,0.2758581,0.17641187,0.24417192,0.50960517,0.4993657,0.29760617,0.6213565,0.06580301,0.0030646487,0.012169758
53622494,-1.350147,0.44054955,-2.0457697,-1.1322176,-0.11235092,1.3714857,3.0275602,-0.23865706,-0.025578946,0.1902951,0.09870483,-0.2721752,-0.0026723146,-0.08979857,0.047758877,0.38792998,0.29236728,0.29313773,0.62718785,0.06543154,0.0028646241,0.011378384
53821119,-1.342096,0.41820934,-2.0298796,-1.1279378,-0.11486105,1.375953,3.0453334,-0.12485651,0.08573294,0.2966603,0.20419823,-0.16159041,0.24457562,0.16135132,0.29836315,0.63335,0.53539234,0.29069626,0.635322,0.061628703,0.0023546997,0.009998362
54019767,-1.3199633,0.4120339,-2.0140007,-1.1126689,-0.10508794,1.3846095,3.0590959,-0.22315647,-0.1109692,0.025185645,0.006493211,-0.21642908,0.17904842,0.11115801,0.16715509,0.37080044,0.35096827,0.2849811,0.64131343,0.06209193,0.0022439654,0.009369597
54218369,-1.3115269,0.41094822,-2.0084214,-1.1072549,-0.10088334,1.3877604,3.063024,-0.09982064,-0.08361025,-0.0062370896,0.06853944,-0.027734622,0.16552332,0.09448624,0.061193526,0.14774033,0.23106843,0.28263512,0.6432361,0.06267779,0.0022386035,0.009212385
54412053,-1.3040209,0.40917537,-2.0049372,-1.1041768,-0.09966864,1.3874352,3.0641556,-0.093342036,-0.078335136,-0.0022639632,0.07346206,-0.020692982,0.2410486,0.17025113,0.13617396,0.22076842,0.30500162,0.27920952,0.64608175,0.0635063,0.0022266312,0.008975865
54620592,-1.2976669,0.40686357,-2.0018458,-1.1017262,-0.09917658,1.3868172,3.0653799,-0.11203844,-0.075215176,0.011751547,0.063992545,-0.056716073,0.19845515,0.1306926,0.118323565,0.2272883,0.28532365,0.27614442,0.6488578,0.064072095,0.0021982563,0.008727505
54819250,-1.2961941,0.40583912,-2.0046992,-1.1043375,-0.103411846,1.3808346,3.060327,-0.19646017,-0.15289623,-0.062659085,-0.017291024,-0.14635083,0.14021629,0.07330841,0.067581296,0.18408912,0.2343114,0.27292097,0.65132827,0.065005876,0.0022004603,0.008544534
55022799,-1.2895898,0.39787638,-1.9991568,-1.1040804,-0.10586602,1.3782315,3.0632694,-0.17366679,-0.06322639,0.07255514,0.061939776,-0.1625286,0.19564652,0.12534451,0.1775263,0.3811892,0.36860096,0.26823452,0.65673226,0.06496671,0.0020730223,0.007993385
55221423,-1.2869158,0.3854585,-1.996514,-1.1072271,-0.115425766,1.3702669,3.06548,-0.19028658,-0.019882314,0.15572987,0.094244465,-0.21627907,0.18505108,0.11327344,0.21765554,0.49942857,0.4286757,0.26320896,0.6640264,0.06371274,0.0018424885,0.007209384
55420094,-1.28143,0.37274754,-2.000349,-1.1136765,-0.13262494,1.3504316,3.0586925,-0.34085238,-0.13916576,0.056547284,-0.032029122,-0.38910633,0.1342107,0.063295126,0.19504726,0.5187297,0.41488868,0.25252748,0.6753758,0.06419711,0.0016447209,0.0062549496
55618675,-1.2883735,0.36366725,-2.0052938,-1.125738,-0.14759973,1.3365335,3.0519776,-0.14142643,-0.018342957,0.1253255,0.10838893,-0.13978781,0.22005755,0.15036696,0.2117182,0.4343421,0.4105988,0.24847516,0.6808038,0.06343868,0.0015084074,0.0057738926
55812333,-1.2845892,0.36336893,-2.0042627,-1.1245914,-0.14718325,1.3353903,3.0512571,-0.007924393,-0.056724034,-0.03017319,0.098345205,0.10152659,0.20427632,0.13971663,0.05263573,0.045860708,0.19120216,0.24639823,0.68214715,0.06422399,0.0015204118,0.005710171
56020932,-1.2725329,0.36129394,-1.9978287,-1.1186857,-0.14337443,1.3357576,3.0543287,0.11534561,-0.0069782175,-0.018768027,0.18891828,0.28699955,0.25948218,0.183541,0.024526536,-0.0691185,0.16770768,0.2414704,0.6857733,0.06572673,0.0015231459,0.00550645
56219513,-1.2789843,0.36468193,-2.008317,-1.1237957,-0.1500139,1.3282229,3.0446358,-0.13127616,-0.23249742,-0.22559877,-0.029157013,0.033573225,0.2124281,0.1306194,-0.013390064,-0.0748775,0.14883733,0.24208547,0.68437874,0.06632215,0.0015745382,0.005639037
56418138,-1.2715769,0.36462852,-2.005465,-1.1202726,-0.14743741,1.3282199,3.0450063,-0.0244091,-0.097214945,-0.06827281,0.10830272,0.1258348,0.25502986,0.1693502,0.047890842,0.02749449,0.22724825,0.2390623,0.6861355,0.0676383,0.0016008858,0.0055631036
56621733,-1.2613156,0.36223197,-1.9957148,-1.1148221,-0.14060578,1.3333619,3.0511923,0.0073269457,-0.031764884,0.016187813,0.15903413,0.13159858,0.22994894,0.14747047,0.057881415,0.07857585,0.23939216,0.23590939,0.6884748,0.0685924,0.0015987898,0.005424678
56820353,-1.2586595,0.3594862,-1.9945992,-1.1147491,-0.14235185,1.3308994,3.0513692,-0.14704047,-0.059026495,0.07374656,0.110653654,-0.10350719,0.07509023,-0.009858251,0.009984732,0.19909912,0.23592591,0.2336228,0.6908039,0.068753906,0.0015620096,0.0052571786
57019174,-1.260782,0.3471391,-1.9985623,-1.1214035,-0.15987436,1.3143923,3.048994,-0.21845606,-0.01758276,0.18220082,0.11321962,-0.25833458,0.1550057,0.077515066,0.20046252,0.531536,0.44441605,0.22800234,0.69900465,0.067038134,0.0013457906,0.0046091597
57212637,-1.2593422,0.33531934,-1.9947754,-1.1276342,-0.17001638,1.3042126,3.0497506,-0.24450675,-0.0638092,0.12093502,0.06797439,-0.27582657,0.14954424,0.07509035,0.18109488,0.48610193,0.41494238,0.22145319,0.7068867,0.066386044,0.0011957429,0.004078398
57421198,-1.2646235,0.32615185,-1.9956163,-1.1310478,-0.18236047,1.2967023,3.0541315,0.02269451,0.1541856,0.3058607,0.29568008,0.022709897,0.29117614,0.2177298,0.28075457,0.5207011,0.49888366,0.22102848,0.7111365,0.06310053,0.0010229491,0.0037115563
57614852,-1.2644131,0.3247026,-1.9963783,-1.1324322,-0.18490094,1.293598,3.0526817,-0.07948428,-0.04611859,0.048678905,0.13522647,-0.002013415,0.10766041,0.024845064,-0.0035790205,0.11254871,0.20561749,0.21955474,0.7125559,0.063244544,0.0010087639,0.0036361234
57823587,-1.2557434,0.32075724,-1.9858378,-1.1283002,-0.1795272,1.2980552,3.0597968,-0.069033094,-0.034356177,0.06287559,0.15124533,0.0099340975,0.21524131,0.13047546,0.101832926,0.22129023,0.31621146,0.21635874,0.7155214,0.06365296,0.0009824886,0.0034842866
58022033,-1.2454813,0.3173927,-1.9780608,-1.1220188,-0.17619494,1.2997801,3.0657635,-0.15346064,-0.07898815,0.04346013,0.09711407,-0.10353978,0.16853279,0.08528912,0.09161395,0.264283,0.31645548,0.21265675,0.71899813,0.06408388,0.00095069164,0.0033105067
58220658,-1.235672,0.31286174,-1.9724654,-1.1144693,-0.17665368,1.2987254,3.072764,-0.12788852,-0.018837951,0.12307563,0.14312178,-0.106784284,0.18432558,0.10528445,0.14372331,0.3605047,0.37135512,0.20917971,0.7232931,0.06356958,0.0008825272,0.0030750702
58414318,-1.2254566,0.30785567,-1.9588417,-1.1085663,-0.17008747,1.3049933,3.0831442,-0.061581995,-0.005626641,0.09464423,0.15015663,-0.012050327,0.2496401,0.1773957,0.17482835,0.31279075,0.36849838,0.20597376,0.72670203,0.063575044,0.0008420062,0.0029071865
58613049,-1.2093807,0.30879757,-1.9465663,-1.094914,-0.15640077,1.316298,3.093113,-0.057334732,-0.1353768,-0.12908514,0.03144957,0.08130123,0.26158965,0.1929819,0.07913476,0.02687049,0.21587306,0.20416102,0.7272061,0.06485026,0.000869584,0.0029130117
58821499,-1.2120965,0.3055418,-1.936974,-1.0891695,-0.15026921,1.3305385,3.1097238,-0.049056858,-0.2825388,-0.3706995,-0.06689097,0.2126293,0.13164818,0.050685406,-0.20299757,-0.46164745,-0.094210446,0.21091232,0.7242901,0.061047927,0.00079997955,0.0029496625
59020123,-1.2066996,0.30016062,-1.9299926,-1.0809569,-0.1492172,1.3347684,3.1224227,0.0977107,-0.20538723,-0.34859037,0.0044702366,0.39940375,0.24566406,0.17270696,-0.13552481,-0.4999948,-0.06840497,0.2116594,0.72601205,0.058806177,0.0007220166,0.0028003969
59218748,-1.2139287,0.2949566,-1.928715,-1.083972,-0.15411472,1.3353208,3.1284425,0.05442378,-0.22304003,-0.35765034,-0.036938734,0.32943538,0.19924611,0.1349985,-0.1454634,-0.48479062,-0.08976889,0.21476948,0.725814,0.05604292,0.00065329607,0.002720283
59417501,-1.2227578,0.28951284,-1.9263242,-1.0910892,-0.15869531,1.3354667,3.1316917,0.029312082,-0.19948447,-0.28382212,0.028908074,0.29684126,0.170246,0.08496392,-0.16936219,-0.42454654,-0.04388672,0.2169537,0.7257847,0.0540071,0.000603112,0.0026513813
59620964,-1.2207577,0.28324494,-1.923226,-1.0917842,-0.1637205,1.3308425,3.1350844,0.075589776,-0.15884916,-0.200766,0.19806336,0.41516382,0.25684303,0.116514206,-0.18174964,-0.40052098,0.07684457,0.21392569,0.7298649,0.05320618,0.0005507909,0.0024524936
59819590,-1.2380949,0.27572897,-1.9291141,-1.1004304,-0.18017042,1.324611,3.1414585,0.01910277,-0.23528849,-0.26892173,0.18696654,0.40829423,0.10981223,-0.05792135,-0.39228487,-0.6203727,-0.07413632,0.21978372,0.72939694,0.048086803,0.00044265587,0.0022897895
60013248,-1.2366565,0.2737015,-1.9202675,-1.0981919,-0.17376031,1.3334608,-3.1344674,-0.05133056,-0.20715895,-0.2371889,0.03219799,0.17754143,0.17384177,0.08050245,-0.11876881,-0.26946312,0.055997133,0.22163379,0.7282186,0.04740542,0.00043552494,0.0023066113
60221873,-1.2386016,0.27353865,-1.9233553,-1.1010668,-0.17708528,1.3293625,-3.1380658,-0.16063227,-0.14611012,-0.121266894,-0.10814863,-0.15057099,0.12493831,0.10796374,0.107889414,0.14368963,0.15520787,0.22071922,0.72891253,0.04764236,0.00043612122,0.0022896803
60420429,-1.2372496,0.27171126,-1.9275099,-1.101163,-0.18418786,1.3211198,-3.1392102,-0.17613441,-0.059289232,0.033814445,-0.04553102,-0.24719673,0.063035905,0.05057752,0.14045584,0.32330102,0.21319431,0.21785605,0.7321442,0.047423877,0.0004120823,0.0021637552
60619054,-1.2372148,0.26520815,-1.9217805,-1.1014055,-0.18972464,1.3197099,-3.1299732,-0.10730129,0.0447236,0.1642482,0.05870582,-0.20278494,0.19741142,0.18329906,0.3013935,0.5385362,0.39159566,0.2168981,0.73545444,0.04531999,0.00035376116,0.001973791
60822645,-1.239517,0.26209283,-1.9200578,-1.1028795,-0.19357675,1.3188577,-3.1257906,-0.04355462,0.08334178,0.19469965,0.12653075,-0.1086666,0.08653951,0.06193328,0.15072167,0.36184496,0.25877643,0.21737315,0.7363882,0.044016615,0.00032590883,0.0018961453
61021302,-1.2401363,0.260826,-1.9218409,-1.1052939,-0.19743945,1.3141513,-3.1281989,-0.142081,-0.069524236,0.010395333,0.00033272803,-0.156567,0.0549109,0.021977544,0.058785677,0.19616067,0.16801625,0.21552403,0.7381416,0.044168033,0.0003201186,0.0018463153
61219894,-1.2361137,0.25696278,-1.9134305,-1.1051824,-0.19558047,1.3159969,-3.1238704,-0.108328976,-0.04939331,0.030710429,0.050227538,-0.09814739,0.22031385,0.17561746,0.19228548,0.31899452,0.32611698,0.212806,0.74091583,0.044208467,0.0003076898,0.0017620173
61418575,-1.2363756,0.2580838,-1.9204051,-1.105292,-0.20074522,1.3091589,-3.1280344,-0.10583014,-0.07669759,-0.010095999,0.048854336,-0.061589748,0.08375782,0.02970612,0.014389157,0.103779554,0.16088498,0.21161121,0.7419005,0.044441447,0.00030690964,0.0017399737
61617144,-1.2307886,0.2564379,-1.9162756,-1.1020715,-0.19934951,1.3093536,-3.1248398,0.01471643,0.0053072874,0.07200958,0.21322435,0.12859236,0.18088686,0.09394437,0.022274613,0.08047831,0.23667353,0.20918447,0.7441727,0.044663806,0.00029992018,0.0016791783
61815804,-1.2245758,0.25226185,-1.9080949,-1.1018795,-0.19756626,1.308869,-3.1228342,0.0046406332,-0.07901872,-0.023972562,0.25445014,0.23604669,0.26239425,0.12591219,-0.04412031,-0.058125615,0.26635462,0.20446663,0.7482145,0.04544064,0.00029330316,0.0015849068
62019360,-1.2131989,0.2531419,-1.9040303,-1.0903492,-0.19069299,1.3136635,-3.115937,-0.11322918,-0.2514564,-0.21528718,0.14511067,0.19077379,0.269731,0.10860777,-0.124684334,-0.20295036,0.22606438,0.20336664,0.74891686,0.045846067,0.0002958653,0.0015745726
62217987,-1.2103451,0.25133568,-1.8991979,-1.0870997,-0.18834606,1.3172411,-3.1098492,-0.03240146,-0.16956168,-0.15905836,0.15150216,0.23194733,0.16883987,0.039213836,-0.16990656,-0.27250677,0.101872265,0.20358115,0.7493686,0.045222107,0.00028438025,0.0015437907
62421575,-1.203246,0.24865617,-1.8886789,-1.0794368,-0.18257882,1.3252159,-3.09713,0.06953619,-0.052118074,-0.07426016,0.14412796,0.25824705,0.027501881,-0.050196588,-0.20839071,-0.3304484,-0.060549974,0.20380041,0.7503368,0.04411192,0.00026421645,0.0014866203
62620214,-1.2053998,0.24896699,-1.888755,-1.0795647,-0.18185385,1.3275487,-3.095897,-0.033815548,-0.16174637,-0.2375457,-0.103898525,0.088325486,0.14307225,0.12360692,0.0030500889,-0.17734885,0.002263844,0.20580606,0.7487885,0.04362812,0.00026354945,0.0015137041
62818826,-1.2016411,0.24426956,-1.882692,-1.0818878,-0.18388672,1.3236659,-3.0961945,0.19313234,0.057239894,0.012828313,0.22232483,0.3761099,0.17018491,0.10638845,-0.05372107,-0.20984596,0.054482758,0.2007902,0.75335,0.04419728,0.0002529977,0.0014094714
63022415,-1.2127377,0.24683252,-1.8929034,-1.0857484,-0.18905345,1.3225175,-3.0983348,-0.18840429,-0.315445,-0.3146786,-0.03994952,0.046435922,0.07471603,-0.03596866,-0.22304726,-0.32867253,0.006068468,0.20675538,0.7488096,0.042699955,0.00025017015,0.0014850078
63221041,-1.2085494,0.24209009,-1.8874882,-1.0843707,-0.19212404,1.3198496,-3.0922358,0.1230111,0.024289772,0.073428795,0.37805033,0.37635612,0.14872074,0.004965782,-0.18358892,-0.21734983,0.14114612,0.20349601,0.75293964,0.041980542,0.00022507245,0.0013587377
63419666,-1.2039642,0.24131396,-1.884421,-1.0814067,-0.1898829,1.320813,-3.0902054,0.008908061,-0.095925495,-0.1035183,0.11029352,0.19182746,0.19837016,0.116300166,-0.03164929,-0.12740785,0.13521588,0.20186476,0.7542486,0.042326342,0.00022472102,0.0013355287
63618291,-1.1980128,0.24008498,-1.8802695,-1.0777409,-0.18765917,1.3215085,-3.0872133,0.13244346,0.039514028,0.004951991,0.14180176,0.2534392,0.1307159,0.09129715,-0.014963746,-0.12720966,0.048308253,0.19950086,0.7562994,0.042682547,0.00022187809,0.001295386
63816918,-1.1950872,0.23886849,-1.8723925,-1.0759867,-0.18227433,1.3276538,-3.0834305,0.034121193,0.009321718,-0.01322737,-0.0020959787,0.046526253,0.118842065,0.124367416,0.10799092,0.06500608,0.08419281,0.19950496,0.7562013,0.04277036,0.00022332753,0.0013000009
64015751,-1.2029405,0.23840934,-1.8808994,-1.0847127,-0.19158743,1.317766,-3.0924125,-0.10889263,-0.06717333,-0.013834141,-0.0038624182,-0.10714921,0.055233836,0.027620435,0.04159105,0.1289199,0.12820452,0.19859391,0.75700057,0.04289925,0.00022207868,0.0012842381
64219132,-1.200593,0.23803005,-1.8846911,-1.0833724,-0.19582312,1.3116257,-3.0926828,-0.15451059,-0.09494382,-0.028643735,-0.032816395,-0.1666037,0.2115078,0.18386269,0.21252775,0.32761914,0.3063963,0.19624436,0.7593579,0.042952895,0.00021440804,0.0012303718
64417792,-1.2019812,0.23660803,-1.8846115,-1.08484,-0.19872652,1.3096786,-3.0916297,-0.008590373,0.057568993,0.1290614,0.120796,-0.025265694,0.15208232,0.12394321,0.15753949,0.2834291,0.25561583,0.19595203,0.7602089,0.04243527,0.00020534417,0.0011984056
64616382,-1.2054749,0.23616931,-1.8882003,-1.0887557,-0.20320998,1.3050761,-3.0952606,-0.07017694,-0.031750027,0.006270826,-0.0052452013,-0.085311346,0.07091069,0.058870792,0.081540704,0.15141118,0.12771475,0.19546798,0.7607328,0.042409852,0.0002032992,0.001186051
64815159,-1.2098231,0.23616233,-1.892434,-1.0930103,-0.20754892,1.3008622,-3.0994036,-0.030270386,-0.025294758,-0.026033804,-0.038466368,-0.040826052,0.09421468,0.099543095,0.10762131,0.11120093,0.09615922,0.19554439,0.76070046,0.042366482,0.000202907,0.0011857533
65018597,-1.2127848,0.23497704,-1.8906425,-1.0975621,-0.20799357,1.3007585,-3.1023371,0.11701938,0.08320804,0.04884565,0.056975365,0.12880161,0.1501041,0.16189885,0.14287353,0.08051431,0.09927952,0.19521861,0.76076657,0.042618938,0.00020563051,0.0011903476
65222193,-1.2181329,0.23514147,-1.8955941,-1.1024817,-0.21260346,1.2964711,-3.1070647,0.0006560087,-0.049812887,-0.09863542,-0.08177576,0.021907762,0.08050835,0.09513968,0.06451905,-0.026122928,0.006973505,0.19567269,0.760383,0.04254131,0.00020600781,0.0011971048
65420813,-1.217294,0.23678248,-1.9003927,-1.1001519,-0.21432845,1.2939701,-3.107507,-0.14744185,-0.15292962,-0.15957609,-0.16035704,-0.14719132,0.14342046,0.14666128,0.14454842,0.1334101,0.13416481,0.19590619,0.76019156,0.04249592,0.0002061152,0.0012003026
65619638,-1.2164329,0.23674387,-1.8994294,-1.0992868,-0.21347857,1.2948653,-3.1065123,-0.096713856,-0.09455387,-0.09780641,-0.10880591,-0.1056946,0.029102921,0.034959316,0.041094184,0.039809704,0.02715242,0.1959082,0.7602154,0.042471495,0.00020574892,0.0011991777
65823029,-1.2145374,0.23632851,-1.8966566,-1.0971293,-0.2116698,1.2972806,-3.1031904,-0.042568773,-0.012421578,0.0008528307,-0.03973668,-0.079198904,0.15047467,0.16096938,0.19360316,0.23236835,0.1791861,0.19610268,0.76029384,0.042209778,0.00020245442,0.0011912064
66021654,-1.2199881,0.23491691,-1.896256,-1.1037393,-0.21398064,1.2959462,-3.1070056,-0.09404381,-0.10393224,-0.10792661,-0.09396886,-0.081529915,0.07231903,0.06847763,0.057450056,0.04509127,0.06328368,0.19622181,0.76016587,0.04221525,0.00020293433,0.0011941671
66220279,-1.2254722,0.23347156,-1.8968493,-1.1067066,-0.21754445,1.2959545,-3.1045413,-0.0049749315,-0.15735555,-0.2514629,-0.098139346,0.13948104,0.026636243,0.0063577294,-0.13423294,-0.3564269,-0.14411455,0.19855468,0.7591886,0.040883433,0.00019066683,0.0011826629
66419063,-1.2556645,0.22273111,-1.8967272,-1.1231128,-0.2409275,1.295344,-3.0841644,0.029069856,-0.36688423,-0.62309295,-0.24348181,0.3897255,0.025023222,-0.014775813,-0.37070733,-0.96112865,-0.4281239,0.21178125,0.75415134,0.032893028,0.00011928507,0.0010550569
66617529,-1.2755688,0.19753544,-1.8758886,-1.1374506,-0.27982393,1.2876226,-3.0335305,0.2609498,-0.34599322,-0.7431879,-0.13260946,0.83934987,0.10456461,0.035443574,-0.5184548,-1.4480209,-0.5761729,0.2177834,0.7586458,0.022876494,4.0742663e-05,0.0006536195
66816154,-1.3060455,0.17652997,-1.8648688,-1.1591423,-0.3346489,1.2729106,-2.9786212,0.24273312,-0.42568687,-0.8855601,-0.19162615,0.9245361,0.10815604,0.027430117,-0.5831236,-1.6840109,-0.6312889,0.22973442,0.7559348,0.013949054,9.54092e-06,0.00037213956
67019766,-1.3432207,0.16030131,-1.8585391,-1.1908221,-0.39099193,1.2569695,-2.9343195,0.18964383,-0.4083535,-0.8530302,-0.21599925,0.84065235,-0.01904689,-0.08811227,-0.63001347,-1.7115399,-0.6725699,0.24376084,0.74760324,0.008413291,2.1024737e-06,0.00022041163
67218445,-1.3624952,0.15091825,-1.8545388,-1.2094622,-0.42504278,1.2453164,-2.9092038,0.18007952,-0.3111911,-0.69787383,-0.13832961,0.76051044,0.06725664,0.0043593496,-0.4462832,-1.4082993,-0.45193252,0.25010437,0.7435893,0.006152313,7.605484e-07,0.00015323021
67416995,-1.3727635,0.14422494,-1.8438817,-1.2208741,-0.43711686,1.2473452,-2.8920684,0.10473334,-0.24620289,-0.5340118,-0.11608679,0.5423095,0.020249605,-0.027141482,-0.35132214,-1.0728085,-0.34246162,0.25528565,0.7394836,0.005103263,4.2333212e-07,0.00012695887
67620587,-1.3836472,0.14352612,-1.8487529,-1.2292992,-0.44548082,1.2444363,-2.8925297,-0.02541931,-0.21836063,-0.37788436,-0.12108361,0.23475958,0.007654071,-0.025657415,-0.21176553,-0.61281824,-0.18018854,0.2601431,0.73501664,0.0047161616,3.5214939e-07,0.00012365571
67819212,-1.3924338,0.14345002,-1.8564968,-1.2377652,-0.45337766,1.2373717,-2.90015,-0.02952763,-0.05093948,-0.056532983,0.03946513,0.03901787,-0.08098948,-0.10809922,-0.15279108,-0.17588848,-0.07166457,0.26089674,0.73429924,0.0046795723,3.485673e-07,0.00012404844
68017872,-1.398271,0.14349025,-1.8604939,-1.2426667,-0.4572906,1.2353357,-2.9037743,-0.066227406,-0.04030729,0.016814552,0.12182373,-0.022743154,-0.17607051,-0.22546077,-0.2539333,-0.15076411,-0.08640462,0.2626978,0.732539,0.004636173,3.5048348e-07,0.00012668602
68221427,-1.3924499,0.143085,-1.8536439,-1.2368051,-0.45257288,1.241459,-2.896293,-0.06834543,-0.040707234,0.06417763,0.2958117,0.04030676,0.028790236,-0.07669133,-0.1579848,-0.00079512596,0.18230906,0.26308694,0.7322076,0.0045800013,3.3647132e-07,0.00012505878
68415087,-1.3927783,0.14246878,-1.8510579,-1.2363535,-0.45400193,1.2438502,-2.8915117,-0.06708401,-0.008579746,0.15287311,0.43553367,0.048475716,-0.008387864,-0.14779639,-0.23731399,0.019797802,0.21917006,0.26501885,0.73042357,0.0044342023,3.0849483e-07,0.000123196
68623642,-1.3829842,0.14377986,-1.8493962,-1.2256106,-0.45320565,1.2435148,-2.8826962,-0.20682257,-0.09690592,0.11051507,0.34226397,-0.15166835,0.03222716,-0.10415292,-0.15023822,0.22201091,0.3176429,0.26291397,0.7325572,0.00441113,2.8754235e-07,0.00011746757
68822296,-1.3828396,0.1398806,-1.8351628,-1.2269526,-0.452317,1.2532938,-2.8679633,0.0063308775,0.16454762,0.410025,0.5797099,-0.0030107498,0.040444672,-0.08689022,-0.08617705,0.38830522,0.3731231,0.26636803,0.729431,0.004089667,2.2790586e-07,0.00011112753
69020914,-1.368282,0.1407653,-1.8283309,-1.2119021,-0.44765928,1.2570416,-2.8532095,-0.2311872,-0.0681065,0.17984304,0.34096473,-0.25197333,-0.02360189,-0.14766276,-0.14113826,0.34647882,0.3117838,0.2638081,0.7320392,0.0040482897,2.0563527e-07,0.00010431114
69219518,-1.3551756,0.13864033,-1.8130096,-1.2011913,-0.44311816,1.2642525,-2.832928,-0.0925835,0.07423538,0.2927489,0.35400155,-0.16905046,0.16938359,0.086897135,0.13642395,0.5972724,0.46251208,0.26158008,0.73445016,0.003876408,1.6243624e-07,9.3209565e-05
69418143,-1.3414164,0.1340692,-1.7864498,-1.1912103,-0.43219095,1.2816108,-2.8054256,-0.08898543,0.11783677,0.32953614,0.22382867,-0.2803061,0.11629188,0.09056163,0.22592378,0.73480034,0.3921824,0.26176453,0.7345366,0.0036149605,1.2157842e-07,8.381398e-05
69616768,-1.3184942,0.13284285,-1.7744769,-1.1730387,-0.4286261,1.2797527,-2.7843843,-0.32889596,-0.07493852,0.15092655,-0.09141447,-0.6242624,-0.140463,-0.12571359,0.085080445,0.67773914,0.14355135,0.2514489,0.7448325,0.003648861,9.808206e-08,6.965829e-05
69820359,-1.3053094,0.13173021,-1.7581294,-1.15983,-0.4185049,1.2936326,-2.7636077,-0.068101026,0.13513982,0.31324288,0.11639149,-0.30971557,-0.10507953,-0.08991885,0.08084148,0.5573734,0.11889076,0.2525384,0.7438951,0.0034995922,8.396645e-08,6.6633525e-05
70018999,-1.2945372,0.12754855,-1.7388797,-1.1548333,-0.40951258,1.3027024,-2.749259,-0.21698081,-0.06130238,0.07075019,-0.09222995,-0.40842947,0.004101634,0.021143913,0.1570319,0.5205599,0.16929299,0.2484306,0.74803555,0.003472996,7.32737e-08,6.072823e-05
70222575,-1.2921317,0.12934282,-1.7445854,-1.1505458,-0.415249,1.2966574,-2.7457464,-0.09788146,0.029412419,0.1406261,0.020162128,-0.24921721,-0.0072653294,0.002282977,0.10860443,0.41148525,0.13312364,0.24761939,0.74889964,0.0034225408,6.727837e-08,5.839174e-05
70421269,-1.2888258,0.1285425,-1.7399,-1.1480331,-0.4151507,1.2981527,-2.7387037,-0.08218079,0.03492389,0.14750573,0.069525644,-0.20612547,0.10615516,0.101946235,0.1865688,0.47709513,0.25050092,0.24704397,0.7495526,0.0033476166,6.014892e-08,5.5719764e-05
70619825,-1.2939831,0.12566033,-1.7345982,-1.1558093,-0.4165194,1.2997434,-2.7383811,-0.0059910454,0.09384327,0.1994137,0.16520666,-0.0966693,0.08999908,0.07392299,0.13330054,0.3924775,0.2278741,0.24766247,0.74901164,0.003271442,5.5156075e-08,5.4356136e-05
70818450,-1.2973402,0.12701464,-1.7474073,-1.1588134,-0.4302986,1.2837105,-2.7428534,-0.211147,-0.09642214,0.002901867,-0.112187356,-0.35238242,0.044109464,0.055237412,0.15310192,0.4276082,0.16686648,0.24439678,0.7522856,0.0032667385,5.038424e-08,5.0785973e-05
71022041,-1.3027227,0.12622009,-1.7525904,-1.1655264,-0.43921453,1.2747129,-2.746481,-0.14532419,-0.03857054,0.049330354,-0.07246837,-0.28451598,0.045159698,0.061590195,0.15853322,0.41005296,0.15210986,0.24269788,0.75401735,0.003236383,4.6263757e-08,4.8350255e-05
71220666,-1.3096144,0.12611078,-1.7599666,-1.1728512,-0.44668865,1.2665812,-2.7540433,-0.09432288,-0.05453088,-0.024974197,-0.07369227,-0.14706019,-0.103859425,-0.095351815,-0.056951284,0.035524845,-0.06589353,0.2419637,0.7547349,0.0032533263,4.643816e-08,4.804471e-05
71424257,-1.321563,0.12373742,-1.7618729,-1.1868565,-0.45175347,1.263333,-2.7627316,-0.095361546,-0.1458519,-0.19477658,-0.1439454,-0.030245498,0.041166425,0.038401008,-0.0024765134,-0.12531042,-0.012996852,0.24312255,0.75360614,0.0032226804,4.6036416e-08,4.8521593e-05
71622882,-1.3177522,0.12631549,-1.7685335,-1.1805102,-0.45399338,1.2589966,-2.7628713,0.06295071,-0.029860903,-0.11573267,-0.019049902,0.18274882,0.25665712,0.24892986,0.17117536,-0.05286622,0.15896559,0.24243498,0.7542562,0.0032599901,4.7544212e-08,4.8669717e-05
71821507,-1.3212565,0.12594053,-1.769534,-1.1833236,-0.457934,1.2576782,-2.7612672,-0.008061454,-0.13190512,-0.20395477,0.06060299,0.2153885,0.028972447,-0.035352767,-0.19349593,-0.4484771,-0.037671685,0.24417858,0.752622,0.0031516107,4.3019032e-08,4.7830203e-05
72020135,-1.3294098,0.12578253,-1.7758099,-1.1902517,-0.4650963,1.2526848,-2.765747,-0.16217002,-0.27106333,-0.27047214,0.17665339,0.135207,0.15736037,0.017141998,-0.20663834,-0.36422312,0.19925559,0.24642253,0.7504554,0.0030739096,4.0913847e-08,4.8098293e-05
72218758,-1.3288671,0.12431845,-1.7758301,-1.1920588,-0.46923336,1.2470014,-2.765269,-0.093056664,-0.19186886,-0.15266299,0.38303113,0.23716867,0.2643993,0.086750746,-0.16759211,-0.26971775,0.3630818,0.24312302,0.7537561,0.0030761207,3.7477573e-08,4.479835e-05
72422349,-1.3349268,0.12298109,-1.7750331,-1.1970656,-0.47887,1.2448897,-2.756292,0.07874997,-0.031924278,-0.003557384,0.5456012,0.42492324,-0.030676484,-0.20977348,-0.47440207,-0.60751,0.056420445,0.24686725,0.7503047,0.0027865623,2.6879292e-08,4.1476178e-05
72621140,-1.3404952,0.12295939,-1.7791778,-1.2016654,-0.48354048,1.2418944,-2.7591956,-0.11740908,-0.21075676,-0.22876915,0.101518854,0.11114895,0.11322546,0.015527189,-0.15422457,-0.31251287,0.12445003,0.24865566,0.74856806,0.0027345822,2.5939626e-08,4.175055e-05
72819599,-1.3432546,0.119967096,-1.7728606,-1.2082443,-0.48240444,1.2434906,-2.7598472,0.119160034,0.0901582,0.10506591,0.2819649,0.22456919,0.10172266,0.04352975,-0.037822306,-0.06433183,0.13965952,0.24724844,0.74997485,0.0027362225,2.5008015e-08,4.0541938e-05
73018267,-1.3477592,0.11952199,-1.7777658,-1.2138069,-0.4889585,1.2361306,-2.764558,-0.13411276,-0.064531386,0.021580018,0.033857733,-0.18478599,0.06774974,0.04290998,0.0693419,0.26687652,0.17937535,0.24565972,0.751558,0.0027429354,2.421304e-08,3.9378825e-05
73216846,-1.3519745,0.12147589,-1.7914206,-1.2162509,-0.5019785,1.2219275,-2.7700725,-0.119977206,-0.016952615,0.1114551,0.1301262,-0.19554353,0.03381908,-0.0034062862,0.035238147,0.32806057,0.19922984,0.24422109,0.7530117,0.0027292748,2.275468e-08,3.791131e-05
73415586,-1.3581543,0.118009366,-1.7886237,-1.2272947,-0.5058646,1.2175428,-2.7741096,-0.13562538,-0.054778937,0.06776588,0.15861975,-0.16052347,0.17030454,0.11232805,0.11302042,0.36608958,0.33534235,0.2412448,0.755982,0.0027374807,2.1226837e-08,3.5750258e-05
73614109,-1.3503091,0.12029275,-1.7906876,-1.2172486,-0.505866,1.2162446,-2.7686572,-0.052659303,-0.021691151,0.053235438,0.18805337,-0.016593106,0.096518934,0.03677261,-0.0016020536,0.12505418,0.20612288,0.24029611,0.75692934,0.0027394406,2.0728777e-08,3.5059566e-05
73817691,-1.3496848,0.11734714,-1.7802528,-1.2201605,-0.50020194,1.2225454,-2.765291,-0.05082368,-0.0047202185,0.08711025,0.21744584,-0.029625624,0.09256828,0.030140162,0.00020813942,0.16768503,0.22298855,0.23936331,0.7578688,0.0027335803,1.998915e-08,3.423628e-05
74021282,-1.3518238,0.11700574,-1.7818099,-1.2226099,-0.5032587,1.2198936,-2.7661173,-0.083811246,-0.019665435,0.105465546,0.2764665,-0.05954086,0.01690495,-0.066093564,-0.10385716,0.12600732,0.19345194,0.23914032,0.75811505,0.0027110206,1.9138207e-08,3.363465e-05
74220046,-1.3344401,0.11880932,-1.774536,-1.2039151,-0.49660197,1.2251049,-2.7502263,-0.054709002,0.0066724643,0.13342369,0.3218953,-0.020556957,0.16689456,0.078225374,0.032470226,0.25979352,0.3472476,0.23692897,0.7603373,0.0027018443,1.7684775e-08,3.1866224e-05
