timestamp,timestamp_sample,xyz[0],xyz[1],xyz[2]
16199095,16198867,0.014939411,0.001848364,-0.010162584
16200343,16200109,0.008661576,-0.0071074003,-0.020080816
16220204,16219970,-0.0040775076,-0.014664885,0.0011585355
16241320,16241090,-0.004370917,0.012070863,0.06231603
16262515,16262284,0.017434431,0.013291319,0.0062727313
16278734,16278498,-0.035094686,-0.0021477372,-0.08644641
16300920,16300664,0.022938699,-0.02380573,0.091036335
16320756,16320528,-0.0341508,0.00047155438,-0.031303138
16341864,16341632,0.05136725,-0.017496895,0.009041248
16359238,16359013,0.021522677,0.039453074,0.005801631
16380351,16380122,0.017026743,-0.0051964903,0.04135643
16401448,16401222,-0.061153345,-0.018611599,0.027278181
16418829,16418604,0.068654045,0.0383372,-0.03487217
16439994,16439762,-0.08704793,-0.02525405,0.00043549552
16461047,16460812,0.038561646,-0.009639322,0.039138623
16482141,16481917,0.044349357,0.0241919,-0.0043265945
16499530,16499300,-0.0053204303,-0.01691391,-0.02792502
16520675,16520450,-0.042672947,-0.0046514543,0.012253096
16541880,16541652,0.060979195,-0.005731484,0.042082455
16559114,16558887,-0.018760968,-0.0024975857,-0.041526116
16580224,16579993,-0.030656153,0.0049244617,-0.012479465
16601329,16601097,0.027056444,0.03196219,0.03395432
16622430,16622201,0.03149995,-0.0077064247,0.013565226
16639810,16639582,-0.040172603,-0.043506484,-0.02621805
16660913,16660687,0.014996575,0.05330133,0.0070368154
16682024,16681791,0.048427504,0.093842536,0.024058245
16699398,16699172,-0.045374114,-0.11748685,0.014065621
16720497,16720273,-0.046537578,-0.08502242,-0.037224043
16741611,16741382,0.05343147,0.0935878,-0.01335873
16762715,16762486,0.06630192,0.15371531,0.030261982
16780109,16779886,-0.07358786,-0.15496935,0.013600669
16801351,16801124,-0.015606977,-0.11588388,-0.053704187
16822307,16822079,0.05674705,0.10734945,-0.020518608
16839682,16839456,0.001894938,0.045973245,0.07276524
16860785,16860561,-0.075606786,-0.1612169,-0.006025267
16881905,16881666,-0.012837113,-0.13051121,-0.07956516
16901767,16901531,0.056258366,0.115018144,0.008853116
16920384,16920150,0.0037888398,0.07594828,0.08045079
16940249,16940017,-0.0554665,-0.13412248,-0.028344158
16961349,16961119,-0.008951165,-0.08396818,-0.06034489
16978768,16978542,0.049604688,0.13214196,0.054515693
16999834,16999604,-0.0018209664,0.020458624,0.055748217
17020941,17020708,-0.031215126,-0.08870875,-0.024613285
17042092,17041861,-0.020323884,-0.026458109,-0.04730442
17059467,17059241,0.021566,0.07634575,0.05164658
17080684,17080456,0.008333283,-0.049564913,0.028807115
17101630,17101403,-0.009756413,-0.11561074,-0.044718053
17119008,17118783,0.0127856815,0.10239419,0.012335523
17140119,17139888,-0.004685208,0.111012,0.06539368
17161240,17161003,-0.010287034,-0.07060598,0.028781626
17182332,17182099,-0.019429432,-0.17185232,-0.05604234
17199709,17199478,0.028261438,0.13692015,0.014201713
17220815,17220584,0.010404362,0.1825307,0.08664196
17241915,17241687,-0.005390429,-0.02763556,0.04414213
17259297,17259068,-0.020460712,-0.17841369,-0.090898134
17280444,17280216,-0.0007334548,0.06973912,-0.01737551
17301502,17301278,0.02281814,0.22862113,0.080165535
17320148,17319917,0.021955296,-0.027443586,0.045144476
17340100,17339872,-0.038109683,-0.21047463,-0.06827328
17361094,17360868,-0.034641404,-0.05707196,-0.059066433
17382202,17381972,0.016611468,0.14028247,0.017184831
17399582,17399353,0.034819417,0.017320441,0.051402867
17420681,17420457,-0.02718912,-0.1300461,-0.011546784
17441789,17441562,-0.060633287,-0.084882416,-0.03372645
17462904,17462667,0.00043576682,0.048891168,-0.015515816
17480277,17480048,0.050270684,0.027408754,0.032279555
17501398,17501164,-0.008876826,-0.061714027,0.033814646
17521242,17521017,-0.04540966,0.0067156125,-0.004426354
17539869,17539637,0.017136319,0.06941865,-0.009166901
17559777,17559554,0.02909191,-0.05240763,0.00904272
17580830,17580605,-0.018137684,-0.11430403,0.0036574812
17602030,17601790,-0.040668923,-0.013083367,-0.010891541
17619463,17619239,0.057318047,0.13854791,0.015148911
17640422,17640198,0.040550314,-0.001456098,0.042839993
17661527,17661300,-0.046555538,-0.17018355,0.012482864
17678917,17678680,-0.027479231,0.011976557,-0.05184061
17700009,17699785,0.07688506,0.18956107,0.005849831
17721125,17720890,0.07654029,0.14403689,0.089467466
17742275,17742045,-0.030145925,-0.07734465,0.071241386
17759610,17759382,-0.065015554,-0.122769125,-0.10157075
17780716,17780485,0.054906633,0.07843321,-0.065363474
17801824,17801585,0.08432776,0.15544572,0.05460696
17819193,17818965,-0.0658992,-0.085576735,0.064950675
17840300,17840070,-0.06447514,-0.09751516,-0.061805476
17861511,17861275,0.025972499,0.02389965,-0.083903246
17882634,17882402,0.05946987,0.061349086,0.009442778
17899905,17899675,-0.04401087,-0.06513196,0.07188548
17920998,17920765,-0.050957553,-0.03399229,-0.037723977
17942098,17941872,0.036174245,0.11650496,-0.07148292
17959490,17959250,0.010578411,0.00563511,0.08448868
17980591,17980357,-0.07626296,-0.177429,0.05732237
18001683,18001459,-0.06366611,-0.15727128,-0.08121456
18019068,18018839,0.099258386,0.20343365,0.0033559003
18040180,18039947,0.040365182,0.13296762,0.12526333
18061318,18061091,-0.052477732,-0.12226312,0.07861058
18082389,18082154,-0.05527752,-0.26329872,-0.0797668
18099762,18099534,-0.03396547,0.12303876,-0.074895136
18120872,18120640,-0.124750525,0.28733632,0.049559176
18140818,18140591,-0.25764403,0.20340213,0.121003136
18162006,18161779,-0.37183386,0.09220474,0.050182167
18179218,18178987,-0.2558823,-0.09071461,-0.04966437
18200317,18200092,-0.094877325,-0.021778071,-0.08260034
18221424,18221199,-0.0911959,0.10093425,0.02981352
18238820,18238583,-0.1451025,0.11291675,0.063161
18259912,18259684,0.0037262612,0.0458012,-0.0011218768
18281028,18280804,0.097888835,0.117694385,0.07033735
18302124,18301893,-0.022180054,-0.006241113,-0.047074635
18319503,18319273,0.09912085,0.012630408,0.007649384
18340612,18340377,-0.044027183,0.006156564,-0.018237507
18361712,18361481,0.050702997,-0.034047723,-0.051769964
18379086,18378862,0.060356643,0.0530423,-0.051902726
18400228,18399998,0.012706895,-0.035053395,0.031543158
18421432,18421203,0.06005422,-0.06848239,0.069781795
18442433,18442205,-0.054708317,-0.049753614,0.019571917
18459779,18459557,0.08091687,-0.037733395,-0.011565851
18480893,18480661,-0.07336017,0.027326323,0.0047858795
18501999,18501766,-0.072650954,0.010611447,-0.029944677
18519385,18519146,-0.107705764,0.0135975955,-0.052266136
18540485,18540251,-0.044163477,-0.013268391,-0.016936395
18561597,18561361,0.016196573,0.02156199,0.071027935
18582685,18582461,0.014753389,-0.040669627,0.059887785
18600072,18599842,0.010110964,-0.028266443,0.064739354
18621184,18620948,-0.0333551,-0.021846384,0.06554239
18642277,18642051,-0.018818848,0.07419251,0.0010378145
18659665,18659435,-0.10659244,-0.016744968,-0.00022123301
18680917,18680674,-0.12849869,0.02066026,-0.036799684
18700812,18700584,-0.095447324,0.07962538,-0.015572545
18719252,18719021,-0.050767742,0.04066824,0.0048370864
18740367,18740127,-0.07603592,0.039432023,0.015227619
18760224,18759990,0.058817085,0.031085258,0.056792222
18781324,18781095,0.042331394,-0.00012454476,0.027430227
18799949,18799715,0.033802986,-0.023045816,0.07483446
18819805,18819579,-0.07427496,-0.076498784,0.013104383
18840914,18840684,-0.083837174,0.03307205,0.00919412
18862012,18861788,-0.056767575,0.07025285,-0.017942788
18879397,18879169,-0.117322,0.11945403,-0.03384216
18900501,18900277,-0.058512323,0.055659547,-0.009345189
18921606,18921378,-0.027380748,0.036188528,-0.012425512
18939022,18938796,0.039599244,-0.010294451,-0.012428511
18960274,18960047,0.01107802,-0.0064359936,0.05210961
18981196,18980968,0.088821,-0.019947393,0.04224636
19002303,19002073,-0.058434293,0.020207884,0.034102466
19019682,19019454,-0.028769266,0.029396346,-0.004786092
19040785,19040558,-0.13850419,0.11080422,-0.021642508
19061896,19061663,-0.104947105,0.07408339,0.001958437
19079271,19079044,-0.09584635,0.0109210815,-0.04778869
19100379,19100149,0.003090461,-0.015609609,-0.0120305475
19121508,19121280,0.034989037,-0.007646825,0.03477776
19142585,19142359,0.038676266,-0.017675081,0.07539556
19159962,19159738,0.017495817,-0.039292466,0.045359574
19181071,19180843,-0.026245696,-0.040721,0.050854873
19202195,19201960,-0.089411095,-0.031673376,0.018546918
19219635,19219411,-0.007617618,-0.009999018,0.051699936
19240848,19240620,-0.04634408,-0.041043922,-0.019725658
19261763,19261538,-0.06372834,0.02282357,-0.07038768
19282876,19282642,0.00701838,0.006494141,-0.024887888
19300259,19300025,-0.032083627,0.0041846186,-0.054518748
19321360,19321128,0.07815344,0.0023391033,0.023456095
19341238,19341005,0.09925846,-0.019428942,0.016668888
19359860,19359613,0.059641413,-0.008260659,0.025607415
19380951,19380718,0.10244359,-0.012784454,0.06960173
19400809,19400581,0.009962906,-0.013898158,0.08036498
19419436,19419203,0.09314749,-0.028737515,0.054948434
19439295,19439066,-0.029237663,-0.050805166,0.037114386
19460453,19460228,-0.030486919,-0.037794545,0.0043483456
19481553,19481328,-0.08646707,-0.021333767,-0.057738878
19499077,19498845,-0.04380037,0.022375826,0.0140479775
19519999,19519761,-0.10306484,-0.025324421,-0.027273534
19541092,19540865,-0.09065239,0.012154968,-0.04737448
19562205,19561970,0.06404545,0.0029577513,-0.016201343
19579578,19579351,0.006500165,0.062085938,-0.05498578
19600679,19600455,0.08793907,0.048448443,-0.006170543
19621788,19621560,0.09425488,-0.009907995,0.037669957
19639166,19638940,0.04657269,0.029897667,0.023090655
19660275,19660049,0.08218742,-0.014482321,0.0084278835
19681376,19681150,0.00550358,-0.043789987,0.033060446
19702488,19702255,-0.06069798,-0.01818544,0.024349492
19719869,19719636,0.010510298,-0.103029065,0.03748842
19741038,19740802,0.00084029697,0.0010559636,0.004959131
19762217,19761983,-0.066719934,0.011583274,-0.00023985127
19779641,19779417,-0.014069583,0.029353794,0.04469692
19800555,19800330,-0.040451527,0.011580891,-0.02655871
19821663,19821435,-0.07035623,0.053810254,-0.09025287
19842771,19842543,-0.05739368,0.042838946,-0.019438814
19860144,19859920,-0.1086272,0.049916916,-0.07420872
19881259,19881025,-0.029020062,0.041635633,-0.0059577627
19902388,19902152,0.06319466,-0.022996483,-0.013178063
19919735,19919511,0.06632742,-0.015229014,-0.031449076
19940842,19940614,0.110487305,-0.049579743,0.04287862
19961955,19961720,0.09994884,-0.05387221,0.05629286
19981823,19981585,0.061221503,0.021310639,0.08337966
20000460,20000223,0.08220345,-0.0082803015,0.03290504
20021625,20021395,-0.018760648,-0.029783767,0.06149937
20041568,20041337,-0.03377304,-0.104818575,0.027686244
20058778,20058553,0.01268581,-0.07748449,0.08002866
20079884,20079658,0.09159595,-0.01689848,0.024324764
20100991,20100763,-0.016371392,0.034318,0.0004785127
20122137,20121910,-0.07510751,0.091717266,-0.028390197
20139482,20139253,-0.15562251,-0.017600559,-0.030257331
20160587,20160356,-0.16131537,0.047897883,-0.051147055
20181682,20181457,-0.033175543,0.050050497,-0.028920764
20199070,20198838,-0.09335535,0.04700401,-0.08199284
20220176,20219945,0.042967137,0.032617655,-0.012567973
20241279,20241049,0.015001048,-0.0111350445,0.004129656
20262386,20262153,0.0316222,-0.024204753,0.0354176
20279830,20279600,-0.17922632,0.007933605,0.022241557
20300987,20300760,-0.16292314,-0.024644107,0.04737023
20321994,20321770,-0.21445999,0.05218148,0.0063763894
20339350,20339122,-0.061502088,0.028434781,-0.030709594
20360459,20360229,-0.17695092,0.021563789,-0.04297058
20381559,20381332,-0.23493887,-0.07297768,-0.03179673
20402670,20402437,-0.2225961,-0.1362301,0.028845323
20420042,20419817,-0.19572905,-0.1233175,0.018651178
20441150,20440923,-0.17841429,-0.102019146,0.032305755
20462259,20462026,-0.2544148,-0.030895928,-0.04607844
20479634,20479408,-0.21632852,-0.032013185,-0.024810689
20500739,20500513,-0.28193387,-0.06299204,0.011014146
20521853,20521617,-0.40774047,-0.0046171574,-0.012514722
20541718,20541489,-0.37152928,-0.00027574488,-0.024226923
20560401,20560169,-0.2278304,0.025950525,0.0058843894
20580356,20580130,-0.22368936,-0.03749987,-0.021593431
20601299,20601070,-0.1974947,-0.10989223,-0.040041186
20619925,20619694,-0.18676473,-0.10699899,0.040652104
20639778,20639555,-0.2528528,-0.08539991,-0.008798599
20660891,20660660,-0.26133138,0.011574225,-0.009113583
20681998,20681770,-0.12045953,0.08343223,0.0443695
20699379,20699145,-0.12651286,0.107791275,0.0038751985
20720481,20720250,-0.050252162,-0.0054691127,-0.0370401
20741587,20741355,-0.011701833,-0.038353294,-0.03062004
20758965,20758735,0.046509065,-0.10724908,-0.0067723985
20780073,20779841,0.1244204,-0.081087045,0.01457155
20801183,20800953,0.06584415,0.01278504,0.017674278
20822314,20822086,0.27099258,0.052829478,0.024840992
20839832,20839603,0.21797241,0.10994967,-0.0019705717
20860769,20860536,0.25325105,0.035264973,-0.07391937
20881864,20881639,0.25716394,0.065064035,0.0055064764
20899264,20899021,0.35020873,0.01054932,-0.006559015
20920370,20920140,0.47024634,-0.0063277613,0.03603502
20941455,20941230,0.47537372,0.04682071,0.04453195
20958839,20958610,0.54064107,0.04946867,0.018117378
20979949,20979715,0.61502284,0.059915964,0.03898597
21001093,21000867,0.5206779,0.0948145,-0.0052711363
21022162,21021939,0.4495748,0.11835225,-0.02840329
21039529,21039301,0.24472778,0.060082536,0.04874218
21060634,21060409,-0.12817815,-0.13802955,-0.05400822
21081739,21081514,-0.3198312,-0.03193797,-0.019856045
21102936,21102703,0.13230368,0.0634308,-0.07034534
21120413,21120179,0.2097774,0.12465686,-0.003905725
21141335,21141104,-0.04550692,0.061451875,-0.03551833
21162443,21162209,-0.08371249,-0.004273429,0.03763344
21179815,21179590,-0.20232436,-0.03852955,0.06445652
21200927,21200694,-0.08895367,6.79691e-05,-0.0019809825
21220783,21220560,-0.098930895,0.03408482,-0.08604156
21241891,21241662,0.042492654,0.010760834,0.013880592
21259294,21259064,-0.084072635,-0.028728452,-0.03198189
21280380,21280148,-0.18913352,-0.11463733,-0.034026768
21301482,21301252,-0.16655503,-0.071599975,0.02286568
21318859,21318633,-0.22024722,-0.033716857,-0.01596915
21339963,21339737,-0.06900656,-0.057585143,-0.0076820785
21361104,21360876,-0.19300684,-0.13799196,0.010655011
21382361,21382135,-0.14959231,-0.10292152,-0.008556292
21399555,21399328,-0.2099151,-0.023370491,0.011165933
21420662,21420432,-0.24408498,-0.036227662,0.00048654093
21441778,21441538,-0.19970727,-0.050690573,-0.02721582
21459143,21458918,-0.15434042,-0.004787801,-0.015026961
21481498,21481266,-0.13260596,0.027441965,0.022278482
21501357,21501128,-0.16505584,-0.059871715,-0.015973976
21522470,21522238,-0.101067044,-0.05905525,0.0023396502
21539840,21539612,-0.11789569,-0.12855129,-0.0017384443
21560951,21560720,-0.09242703,-0.034934446,0.003857606
21582053,21581822,-0.056437064,-0.014336388,0.02818651
21599433,21599202,-0.042337045,-0.049775224,0.025326492
21620544,21620316,0.109059244,-0.03909539,0.03740569
21641787,21641560,0.07567989,0.018906305,0.047756758
21659214,21658967,0.13890699,0.050791588,0.048469227
21680125,21679897,0.13765222,0.049677804,0.036506467
21701231,21701002,0.16594644,-0.01878795,0.012552873
21722380,21722147,0.27138972,0.092616305,0.0017445327
21739715,21739487,0.21426123,0.06354355,-0.006949843
21760819,21760592,0.22076574,-0.0018612089,0.01476503
21781941,21781696,0.24714112,0.078671746,-0.01869576
21801783,21801560,0.2628487,0.13293912,0.020342777
21820413,21820181,0.29710957,0.029159695,0.027375001
21840271,21840045,0.24647392,0.01638718,0.022979375
21861424,21861198,0.22828415,-0.072253175,0.042015355
21878757,21878532,0.30983108,0.0069921017,-0.005970577
21900007,21899782,0.25150388,0.089344226,0.013876728
21921100,21920876,0.071956806,0.025612224,0.026054455
21942074,21941845,-0.10256878,-0.04011339,0.025567638
21959459,21959227,-0.17371821,-0.12397842,-0.0013330635
21980557,21980330,0.012431382,0.036982346,-0.0047486937
22001664,22001434,-0.100702934,0.060698953,-0.016913848
22019093,22018865,-0.07124392,0.036291398,0.017409284
22040146,22039920,0.0042908057,0.03215901,0.018540816
22062512,22062275,0.014913948,0.0014935096,0.033087812
22082384,22082151,-0.0018806035,-0.026513254,0.042813435
22099733,22099509,-0.025916409,-0.04715962,0.059092026
22120844,22120615,-0.13645953,-0.02114513,0.059396103
22141958,22141720,-0.085636586,0.0034649337,0.044299573
22159365,22159138,-0.08750468,-0.022979233,0.067532375
22180526,22180298,-0.049266323,-0.036638767,0.03420072
22201544,22201314,-0.06106653,-0.054065764,0.046588123
22222640,22222414,0.033970322,-0.029064724,0.04937482
22240026,22239795,0.037381027,0.037042663,0.047836017
22261126,22260900,-0.05180466,0.056912545,0.05586779
22282234,22282005,0.034595154,0.020427147,0.049859826
22299626,22299384,0.0966383,-0.01604501,0.05655921
22320718,22320490,0.061326664,-0.014253559,0.03132777
22341844,22341610,0.018748008,0.011168011,0.067548394
22362933,22362700,-0.019408174,0.07145811,0.06989556
22380305,22380079,-0.032524377,-0.008821634,0.0706031
22401417,22401184,0.06448751,0.018196817,0.06843817
22421275,22421048,0.09354939,-0.05210949,0.06264949
22439947,22439717,0.12908372,-0.039031662,0.026000667
22459900,22459673,0.10058361,-0.043862503,0.006093268
22480861,22480637,0.049737044,-0.056070406,0.031239562
22501966,22501742,0.006338704,-0.00507368,0.0040645204
22519355,22519124,-0.003998301,0.08860748,0.036638755
22540452,22540227,0.007923109,0.076344095,0.027932586
22561605,22561383,0.039842736,0.11026686,0.0361685
22578941,22578714,0.019139292,-0.09997311,0.00518658
22600096,22599871,0.080196254,-0.12250505,0.017718894
22621148,22620922,-0.10886346,-0.06323845,0.023011165
22642259,22642028,-0.20081182,-0.006427897,0.02674104
22659639,22659411,-0.17699139,0.024776066,-0.0134599935
22680743,22680512,-0.037202775,0.044669125,-0.008863854
22701912,22701680,0.024673456,0.06290103,-0.018514335
22719334,22719105,-0.027071094,0.047792263,-0.0694071
22740327,22740104,-0.028929695,-0.02347726,-0.027821727
22761440,22761207,-0.08023698,-0.053426594,-0.016983707
22782541,22782314,-0.11229377,0.06938315,-0.031066673
22799921,22799692,-0.14159882,0.03947906,-0.054468393
22821027,22820798,-0.081102856,0.083586305,-0.06345381
22842133,22841903,-0.051876258,0.09962125,-0.07722419
22859506,22859282,-0.11470734,0.0030232484,-0.04824321
22880617,22880387,-0.027161686,-0.055772495,-0.049142305
22901719,22901493,0.003794946,-0.07640842,-0.06180244
22922824,22922596,-0.08925855,-0.07293495,-0.092432365
22940215,22939981,-0.17207874,-0.045591217,-0.07808267
22961309,22961082,-0.21830766,-0.10041693,-0.10374423
22981235,22981006,-0.13019711,-0.051501382,-0.11100302
22999957,22999724,-0.14411554,-0.06833468,-0.10734328
23020942,23020710,-0.13631788,-0.10026089,-0.10503679
23040763,23040535,-0.12813182,-0.012569781,-0.10961302
23059397,23059157,-0.16058463,-0.093048975,-0.1285847
23079254,23079022,-0.13021433,-0.0834954,-0.14168125
23100353,23100125,-0.12613806,-0.065373644,-0.16827366
23121454,23121231,-0.12041555,-0.020371161,-0.156411
23138839,23138610,-0.11901792,0.0019060893,-0.18090068
23159943,23159715,-0.11564597,-0.0014565351,-0.19050707
23181048,23180819,-0.088851064,-0.0152383875,-0.1946212
23202157,23201924,-0.091901794,-0.015144675,-0.22050983
23219533,23219306,0.032748815,-0.06335662,-0.22783326
23240706,23240482,0.033113047,-0.0264696,-0.23745197
23261858,23261632,0.09325462,-0.018292097,-0.2224645
23279134,23278901,0.20214835,-0.043078464,-0.21649475
23300284,23300059,0.2022187,-0.06924008,-0.21396194
23321329,23321104,0.122194946,-0.13351603,-0.19164973
23342438,23342210,0.01322005,-0.18649723,-0.16561647
23359820,23359591,-0.0236413,-0.23819394,-0.17425275
23380969,23380742,-0.04870517,-0.26399183,-0.16432297
23402044,23401806,-0.059998427,-0.27308872,-0.13525608
23419412,23419180,-0.044538718,-0.31718814,-0.14856151
23440511,23440286,0.006347639,-0.29732972,-0.13819633
23462868,23462632,0.01057643,-0.26996925,-0.109270826
23482766,23482538,0.002729019,-0.22165826,-0.06387668
23500101,23499875,-0.007444337,-0.19933063,-0.0632647
23521281,23521051,0.040680293,-0.16671267,-0.052411735
23541238,23541007,0.058434155,-0.13682127,-0.04572317
23559695,23559464,0.14928506,-0.09036679,-0.051215135
23580801,23580573,0.20027372,-0.031224044,-0.038379326
23601921,23601676,0.3706691,0.08099336,-0.05975408
23621773,23621541,0.518299,0.17106208,-0.045810156
23641637,23641402,0.6114636,0.2409205,-0.039483212
23660251,23660019,0.63612247,0.30520535,-0.0339282
23681364,23681129,0.5815257,0.3369757,-0.031784363
23698736,23698508,0.55401516,0.29811853,-0.017398458
23719844,23719612,0.42358828,0.30316335,-0.014092453
23740947,23740717,0.32228443,0.2655846,0.0024190822
23762113,23761885,0.18905975,0.23305164,-0.01132051
23779457,23779227,0.11740904,0.21492204,0.010793155
23800662,23800434,0.035084575,0.13705939,-0.0005648646
23821642,23821414,0.0138273,0.12363568,0.0029305608
23839022,23838792,-0.0022533985,0.10140948,0.044588648
23860135,23859898,0.023285547,0.090562955,0.031567726
23881271,23881044,-0.023976443,0.07434557,0.027890144
23902336,23902107,-0.082551494,0.013784955,0.007417943
23919719,23919491,-0.21544969,0.0500166,0.05370911
23940819,23940592,-0.402592,0.03662092,0.050355464
23961925,23961697,-0.49278593,0.015126187,0.048643284
23979310,23979078,-0.58177185,0.02608043,0.03635627
24000421,24000183,-0.56836766,0.0030223518,0.03498321
24021511,24021287,-0.42802426,0.02830747,0.026390105
24042630,24042398,-0.19456825,0.06812741,0.015009221
24060079,24059850,0.006414339,0.047818754,0.029298175
24081297,24081058,0.29036033,0.04132928,0.026646618
24102217,24101981,0.4911098,0.052537363,0.023804262
24119587,24119362,0.55504507,0.006540851,0.0054431465
24140695,24140467,0.43622193,-0.0015648603,0.009309063
24163049,24162816,0.23980592,-0.029119132,0.037321784
24182921,24182680,0.07326361,-0.03632444,0.03817701
24200334,24200110,-0.01918063,-0.037661392,0.022942884
24221397,24221162,-0.121881515,-0.03869695,0.032185715
24241261,24241026,-0.17128165,-0.020331379,0.027493037
24259890,24259647,-0.27155444,-0.008983027,0.026576202
24279736,24279510,-0.33185652,0.0023395016,0.026296476
24300848,24300617,-0.36661267,0.020932572,0.028482148
24321994,24321767,-0.41033465,-0.024093049,0.016224835
24339445,24339222,-0.43857622,-0.043828495,0.024544496
24360439,24360206,-0.5004178,-0.033803318,0.018825306
24381537,24381311,-0.49671063,-0.058291737,0.0433509
24398917,24398691,-0.38894212,-0.04072906,0.038601656
24420029,24419796,-0.3887207,0.0021462962,0.005428113
24441128,24440902,-0.2833464,0.03340019,0.030861007
24462235,24462006,-0.18800275,0.052148737,0.009999916
24479616,24479386,-0.18590745,0.028154638,0.011387308
24500716,24500490,-0.21178626,0.006818443,0.025725711
24521840,24521607,-0.27569637,-0.016128022,0.008394026
24539211,24538976,-0.29472664,-0.021176321,0.038146883
24560324,24560091,-0.3039697,0.0032017524,0.04277268
24581467,24581243,-0.28059193,-0.010414041,0.04451181
24602610,24602387,-0.1999948,0.00892373,0.033596445
24620082,24619853,-0.15836056,0.013640792,0.0025581995
24641003,24640775,-0.09135834,0.002399208,0.018378822
24662108,24661883,-0.032747608,0.009233624,0.018601421
24679538,24679310,-0.020562164,0.039811864,0.045013666
24700604,24700375,-0.010105937,0.02566669,0.04297564
24721700,24721473,-0.0067147464,0.019446744,0.031831495
24742802,24742574,-0.028600682,-0.017023316,0.023137853
24760191,24759956,-0.00062933203,-0.06605621,0.028798845
24781290,24781061,-0.0032321485,-0.0411158,0.026595261
24802401,24802164,-0.009256804,-0.013526003,0.031874347
24819769,24819545,0.002870209,-0.011545616,0.038800966
24840890,24840651,0.010323382,-0.03685595,0.022427423
24860798,24860571,0.0135516925,-0.025112461,0.009262122
24881992,24881762,-0.033265106,0.010120693,0.008249196
24899231,24898998,-0.011495684,0.017577749,0.0010054942
24920332,24920105,-0.024974955,0.04225478,0.012202482
24941444,24941213,-0.037953515,0.049399145,0.0021853684
24958816,24958589,-0.034754228,0.029208442,0.020601286
24979921,24979693,0.00019877426,0.03414541,0.013816616
25001037,25000804,-0.0145374285,0.024545642,0.0031041717
25022180,25021952,0.016791316,0.013047018,-0.0025710438
25039506,25039283,0.016706645,0.024043,0.007165953
25060619,25060388,0.0047799703,0.0141818635,0.006170968
25081729,25081494,0.023043944,0.0044446667,0.011534555
25099103,25098874,0.03633262,0.0011841535,0.016454617
25120279,25120049,0.04267083,-0.014459082,0.024490044
25141422,25141195,0.032041524,-0.01934139,0.025827063
25162455,25162229,0.01142845,-0.015301576,0.028671281
25179797,25179568,0.020391325,-0.05263454,-0.0073061287
25200902,25200672,0.015494619,-0.032280136,-0.0057098162
25222007,25221778,0.01933372,-0.005224334,0.013573472
25239394,25239158,0.0002024953,0.020958425,0.044312473
25260492,25260263,0.014287942,0.011060445,0.03121434
25281594,25281368,0.03247049,-0.013304351,0.027011989
25302699,25302473,0.03215103,-0.021730956,0.011628975
25320083,25319857,0.057158187,-0.051797047,-0.00043617742
25341193,25340959,0.039254356,-0.051221877,0.0066555752
25362290,25362065,0.022368055,-0.03295177,0.009606291
25379674,25379444,-0.0027899053,-0.019196104,0.023864228
25400824,25400601,0.027040312,-0.00449415,0.028171228
25420846,25420619,0.04372893,-0.0070816795,0.041168
25441741,25441516,0.12945361,0.0028709164,0.03888144
25460374,25460138,0.24368182,0.017712664,-0.0018417396
25480237,25480001,0.39061463,0.036551457,-0.01804098
25501336,25501107,0.51541084,0.038612217,-0.018619366
25519956,25519728,0.5302366,0.049068727,-0.011110545
25539864,25539640,0.52136105,0.02375481,-0.0010287669
25560925,25560696,0.506092,0.017659329,0.017448159
25582042,25581808,0.4423934,-0.053814795,0.0033984566
25599412,25599181,0.42310545,-0.033799835,0.0005056712
25620511,25620286,0.32173163,0.0073296605,0.016017912
25641621,25641388,0.24347623,0.007874344,0.020999918
25659011,25658782,0.24776764,0.016356317,0.0062759826
25680204,25679976,0.26680675,0.031806502,-0.0071767806
25702509,25702276,0.29727483,0.010289485,-0.009416337
25722332,25722103,0.32675466,0.008176131,-0.018784989
25739697,25739466,0.36373228,0.018367713,0.0014978065
25760801,25760571,0.365719,0.00075406773,0.0033967989
25781914,25781676,0.35660467,-0.00019349765,-0.0030861157
25799281,25799056,0.31467667,-0.008289646,-0.011897933
25820390,25820161,0.30839247,-0.017873287,-0.0042696353
25841511,25841278,0.2602518,-0.01193184,-0.023032062
25862600,25862371,0.2001282,-0.037325755,-0.00979535
25879980,25879751,0.07292958,-0.05374543,-0.009107891
25901086,25900858,-0.07289027,-0.027326336,0.00011351572
25922197,25921961,-0.20358223,-0.031105353,-0.009218629
25939628,25939399,-0.26099843,-0.0030230642,-0.011265915
25960951,25960719,-0.2484308,0.03724247,-0.0072472654
25981776,25981551,-0.2317451,0.067301854,-0.008695224
25999159,25998931,-0.12371561,0.038004275,-0.029259989
26020279,26020036,0.022590397,0.025869679,-0.043431316
26041377,26041141,0.09570079,-0.014535482,-0.045927644
26061236,26061004,0.13817312,0.013751342,-0.017754387
26079868,26079627,0.18145244,-0.03453175,-0.02934224
26099717,26099489,0.2870961,-0.014509837,-0.056865793
26120820,26120594,0.38996753,-0.012271373,-0.052397314
26141928,26141699,0.5168706,0.00020079874,-0.047301233
26159306,26159079,0.57220876,-0.022567378,-0.05337004
26180459,26180234,0.5660029,-0.047040824,-0.056809112
26201537,26201314,0.46108544,-0.061944835,-0.04826849
26219061,26218834,0.34332424,-0.020947175,-0.051412683
26240005,26239775,0.26220635,-0.023402039,-0.05352218
26261106,26260879,0.17527728,0.0024555603,-0.063149616
26282227,26281986,0.13217671,0.021280302,-0.05618895
26299590,26299365,0.108436674,0.03522433,-0.029404951
26320700,26320469,0.07493823,0.02739741,-0.03631724
26341810,26341574,0.054872863,-0.00081457524,-0.030292165
26359179,26358954,0.008409339,0.051107194,-0.057116777
26380282,26380059,-0.10982357,0.07813659,-0.029571533
26401402,26401164,-0.16262992,0.04265778,-0.015430614
26422549,26422321,-0.1543392,0.013514559,-0.027265897
26439877,26439649,-0.15262857,-0.038299713,-0.06065572
26461019,26460791,-0.099548794,-0.033233404,-0.065504745
26482175,26481945,-0.11623534,-0.011346535,-0.05584789
26499625,26499400,-0.15470608,-0.063674375,-0.0459111
26520572,26520344,-0.17299707,-0.03958968,-0.0375559
26541676,26541449,-0.22090133,0.0028523188,-0.035183117
26562781,26562554,-0.21567944,-0.0058742017,-0.041167427
26580165,26579935,-0.19824496,-0.013915317,-0.04324518
26601276,26601042,-0.22617562,-0.034987926,-0.052268684
26622381,26622144,-0.26438123,0.011336855,-0.0679478
26639752,26639524,-0.3360254,0.04315458,-0.028019086
26660927,26660697,-0.27052227,0.04344045,-0.034254976
26680726,26680497,-0.25333104,0.052885834,-0.04591733
26699341,26699114,-0.22175942,0.009696053,-0.05275699
26720454,26720219,-0.22602148,-0.004365178,-0.04309183
26740343,26740115,-0.31159654,0.0056884694,-0.032481793
26761602,26761377,-0.32895598,-0.021205677,-0.03840783
26780052,26779814,-0.42748305,0.0042709755,-0.047329478
26799903,26799672,-0.5358437,-0.02877082,-0.03687976
26821004,26820777,-0.5526453,-0.014218654,-0.04559654
26842112,26841882,-0.60952866,0.029994134,-0.04534586
26859497,26859264,-0.52312493,0.0036881415,-0.05372535
26880649,26880424,-0.45702252,-0.0056082793,-0.0563181
26901701,26901473,-0.37383097,-0.014001532,-0.06366369
26919082,26918854,-0.40765843,0.007949409,-0.016012998
26940181,26939957,-0.42268884,-0.007941383,-0.014157919
26961287,26961062,-0.3915431,-0.015649185,-0.027552487
26982398,26982167,-0.34608617,0.028871402,-0.049843185
26999773,26999547,-0.3408825,0.027769003,-0.032043006
27020963,27020738,-0.24595764,0.017111523,-0.019858845
27042173,27041942,-0.18176131,0.034413513,-0.028005717
27059366,27059137,-0.13995203,-0.027636321,-0.048504487
27080467,27080242,-0.091192715,-0.018832425,-0.028863758
27101575,27101347,-0.10521188,0.0023727838,-0.025479857
27122675,27122448,-0.10323952,-0.018064631,-0.009436312
27140056,27139832,-0.07790462,-0.019540189,-0.036609713
27161175,27160944,-0.11504056,0.00676772,-0.043337405
27182284,27182044,-0.05647198,-0.0064811986,-0.03319582
27199654,27199422,-0.052937202,0.0064188307,-0.050594132
27220758,27220527,-0.035592355,-0.031339344,-0.04836892
27241870,27241632,0.018030396,-0.04369745,-0.034572672
27261730,27261495,-0.01550786,-0.017367557,-0.052281786
27280441,27280209,-0.02705703,-0.0017736902,-0.032633
27300398,27300168,-0.0358858,-0.0002355383,-0.019451633
27321312,27321085,-0.040273234,-0.032156818,-0.023796298
27339942,27339709,-0.03333475,-0.0034413035,-0.017744767
27359808,27359572,-0.05610259,0.023485063,-0.009541459
27380904,27380675,-0.007902899,0.004804183,-0.0026900945
27402005,27401780,0.020304892,-0.007949557,-0.0135894185
27419395,27419166,-0.024895316,0.00013321992,0.017445821
27440491,27440266,-0.0062611685,-0.0271779,0.012509162
27461602,27461376,-0.016235052,-0.043635394,-0.009191505
27478982,27478751,-0.060023885,0.047137737,-0.002677592
27500082,27499856,-0.049588803,0.03828695,0.03289103
27521209,27520978,-0.054937303,0.06837637,0.01861483
27542304,27542079,-0.03562111,0.05344788,0.006599952
27559821,27559595,0.027363747,0.013944358,-0.008558046
27580963,27580738,-0.0076518543,0.00170106,-0.0027601891
27601887,27601655,0.015811944,0.0025386245,0.023963
27619260,27619035,0.028750215,-0.004350609,-0.013458062
27640376,27640142,0.050988477,-0.02474856,-0.0050748186
27661471,27661245,0.047519468,-0.033691462,-0.00055383745
27682581,27682350,-0.0075677885,-0.01466746,-0.00039391124
27699953,27699730,0.038618438,-0.03230464,0.002094603
27721059,27720835,-0.023705663,0.008184751,-0.009772233
27742170,27741940,-0.025218615,-0.008078745,-0.009260009
27759546,27759320,-0.01938098,0.007932059,-0.0021591089
27780650,27780426,-0.0043318053,0.028238488,-0.014349635
27801758,27801530,0.0212193,-0.0038076008,-0.008954208
27822951,27822718,0.04876659,0.0048545725,-0.005543502
27840447,27840215,-0.013108291,0.012684567,-0.016647708
27861361,27861121,0.04245825,-0.021355405,-0.0012983544
27882459,27882226,0.007947258,-0.0054198005,-0.009645822
27899832,27899605,0.005081889,-0.0065492834,-0.0013836573
27920946,27920710,0.019544818,-0.01870979,0.0053611663
27940804,27940574,0.048585422,0.023448851,0.009305217
27961916,27961679,0.12709314,-0.00056475634,0.011491528
27979286,27979058,0.18428135,0.04861928,0.011723482
28000395,28000165,0.23868524,0.020616233,0.00095037743
28021501,28021272,0.3138021,0.006012422,0.010016229
28038876,28038651,0.3587748,0.003865016,0.008708487
28059985,28059754,0.44745886,0.020503735,0.012800528
28081104,28080877,0.6105445,0.02493516,0.0033212628
28102331,28102106,0.82540655,0.044551674,-0.008022083
28120864,28120632,0.901873,0.03358865,-0.015099966
28140675,28140449,1.0124587,0.038206663,-0.0070989616
28161781,28161553,1.011048,0.04594232,-0.00564164
28179164,28178935,0.97788423,0.006510131,-0.016107557
28200265,28200039,0.9717696,0.008747571,0.0025067907
28221379,28221152,0.9540851,-0.0010622649,0.005426566
28242476,28242248,1.0343953,0.00888433,0.003411067
28259854,28259629,1.035694,0.0008396859,-0.019868568
28280958,28280733,1.0126017,-0.00942123,-0.010141127
28302065,28301840,0.86452895,0.02502635,0.01489709
28319445,28319219,0.74386644,0.023388209,-0.0095257275
28340572,28340349,0.5504729,0.01582511,0.026701089
28361716,28361491,0.27937582,0.019547744,0.023943868
28382932,28382698,0.07459886,0.020085042,0.029843656
28400140,28399914,-0.07242984,0.046833683,0.05889017
28421260,28421035,-0.1351142,0.033142857,0.0023691687
28442351,28442123,-0.09073095,0.032483142,0.008159275
28459730,28459504,-0.022734767,0.09407212,0.004459269
28480835,28480608,0.088941135,0.08244229,-0.013915924
28501948,28501713,0.17206977,0.051506072,-0.008924867
28523059,28522820,0.17798656,0.018641936,0.0042979354
28540429,28540199,0.108661376,-0.03863995,-0.0072831116
28560286,28560062,0.051121138,-0.017369635,0.016986065
28581396,28581166,-0.06333899,-0.010453554,0.033973917
28598841,28598614,-0.0644741,-0.015955118,0.008290637
28619920,28619695,-0.08511154,-0.0035197653,0.0153557435
28641095,28640866,-0.12857036,-0.009552174,0.028339189
28662093,28661862,-0.16583651,0.0040839785,0.007868446
28679470,28679242,-0.18041454,0.01918541,0.04025255
28700579,28700347,-0.2354153,0.030335326,0.0154225025
28721685,28721455,-0.17748572,0.0016467519,0.0062038708
28739057,28738833,-0.21233183,0.028418558,0.0051804325
28760172,28759937,-0.20253651,0.017589191,-0.012336305
28781272,28781042,-0.16143644,-0.028058937,-0.010160137
28802377,28802147,-0.19800772,-0.030152544,-0.0018959447
28819756,28819528,-0.22140075,-0.034668263,-0.011743569
28840862,28840632,-0.28439778,-0.02077359,0.017092481
28861965,28861738,-0.40462738,-0.035584565,0.029275028
28879346,28879117,-0.43354267,-0.08779475,0.012130427
28900583,28900355,-0.577037,-0.13684942,0.027224638
28921729,28921502,-0.6390369,-0.22466482,0.060263406
28942658,28942432,-0.6782595,-0.27539766,0.04426722
28960041,28959814,-0.6014498,-0.23479953,0.018409431
28981209,28980976,-0.5157262,-0.24266508,0.04654703
29002250,29002022,-0.4244538,-0.17999983,0.033011593
29019633,29019409,-0.38065544,-0.19643873,0.0068417885
29040734,29040509,-0.36202395,-0.23384897,0.021399105
29061842,29061613,-0.34845367,-0.2284169,0.014977706
29082952,29082717,-0.3053565,-0.19625264,0.017573945
29100329,29100097,-0.24515401,-0.18700324,0.039017696
29121431,29121205,-0.120914705,-0.23786539,0.024550837
29141300,29141069,0.007945052,-0.256071,0.009721843
29159950,29159721,0.03780794,-0.2346456,0.025897393
29179943,29179717,0.08043011,-0.2099874,0.027815213
29200878,29200655,0.1264952,-0.21989995,0.024722205
29221991,29221760,0.09525713,-0.19652472,0.016011717
29239369,29239140,0.092447996,-0.18860337,0.0083395075
29260470,29260245,0.052049764,-0.17644654,0.012779271
29281579,29281350,-0.030146744,-0.18461724,0.0011369641
29298957,29298730,-0.09494328,-0.18132086,0.023242095
29320061,29319835,-0.07564572,-0.2021013,0.017771687
29341171,29340940,-0.09260078,-0.28986797,0.018238584
29362275,29362046,-0.124146946,-0.32856762,0.03519007
29379651,29379425,-0.14653963,-0.39214748,0.026657265
29400763,29400534,-0.17297833,-0.4355908,0.032254346
29421865,29421639,-0.19613397,-0.4806469,0.04572214
29439319,29439090,-0.21059237,-0.5306262,0.061910752
29460526,29460297,-0.16392462,-0.58561,0.054320466
29481486,29481259,-0.13575785,-0.62315625,0.03840974
29502559,29502330,-0.13737494,-0.6180311,0.043683928
29519944,29519711,-0.17613852,-0.55117214,0.05011474
29541054,29540819,-0.15440856,-0.45710012,0.049816065
29562161,29561935,-0.17863554,-0.4221988,0.036386464
29579528,29579301,-0.2745349,-0.28977183,0.016926832
29600632,29600407,-0.42722917,-0.13067786,0.022504253
29621736,29621510,-0.51547253,0.023148874,0.04159069
29642841,29642615,-0.59508216,0.2519131,-0.0044586784
29660226,29659996,-0.6436981,0.4647107,0.01700115
29681329,29681102,-0.58843637,0.71003586,0.027098112
29701277,29701050,-0.5580788,0.9237998,0.03896512
29718702,29718462,-0.42847043,0.9676911,0.01310452
29740927,29740690,-0.29438537,1.0258173,0.005828917
29760782,29760554,-0.16991831,0.99020076,0.0056126174
29781937,29781709,-0.062311944,0.89428115,0.037186597
29799264,29799039,-0.022331808,0.75802463,0.03568395
29820371,29820146,0.0055560046,0.6131784,0.06865572
29841473,29841249,-0.011027036,0.4675004,0.08634235
29858855,29858629,-0.021886213,0.41936406,0.07923983
29879959,29879734,-0.066149235,0.31596518,0.102700636
29901061,29900839,-0.07650779,0.26190668,0.11629125
29922173,29921944,-0.031150179,0.21456908,0.113095455
29939595,29939371,-0.05969317,0.21500231,0.08106512
29960655,29960431,-0.018117929,0.22220176,0.08063979
29981863,29981634,0.008759649,0.2015949,0.088595435
29999327,29999094,0.017926713,0.22190899,0.1056308
30020247,30020019,-0.010015026,0.2012568,0.10895085
30042599,30042367,-0.008597083,0.16051295,0.11687329
30062474,30062248,0.026318796,0.15061957,0.111747645
30079839,30079612,-0.0075056315,0.062779374,0.08954569
30100949,30100714,0.08369091,0.045987688,0.08471318
30122053,30121819,0.050709616,0.052774202,0.052784402
30139426,30139201,0.017336844,0.041924763,0.08970645
30160534,30160304,0.06761916,0.036098666,0.073297724
30181640,30181410,0.034645684,0.018676493,0.060181912
30202737,30202513,0.01672276,0.015908957,0.053038996
30220122,30219892,0.05580749,0.046863582,0.07846178
30241319,30241089,-0.00623773,0.0366068,0.04561983
30261239,30261008,0.048732936,0.023876209,0.03979769
30279712,30279484,0.057110164,0.009181095,0.008713211
30300816,30300590,0.027112996,0.0033944948,-0.0013640694
30321931,30321694,0.007856195,-0.007736076,7.550446e-05
30341784,30341557,0.033423338,-0.024366662,-0.004937792
30360413,30360179,-0.0013908257,0.013156812,0.0057304916
30380269,30380044,-0.02951074,0.028095622,0.007884926
30401375,30401147,-0.009638279,0.0072190803,-0.000363143
30418766,30418528,0.0035827402,-0.013354197,-0.021750173
30439857,30439632,-0.03200455,-0.0007593242,-0.022488475
30460969,30460738,0.02037216,-0.020146536,-0.016064953
30482087,30481859,0.024164706,-0.013994141,-0.03126631
30499463,30499232,-0.006659723,-0.039193004,-0.051141206
30520703,30520475,0.0229976,-0.042680867,-0.033647053
30541663,30541436,-0.017546637,0.016825117,-0.044369604
30559039,30558812,-0.016580166,0.012868182,-0.07697744
30580141,30579917,-0.021571327,-0.007641542,-0.07421328
30601252,30601023,-0.018354446,-0.03339269,-0.07184907
30622358,30622128,0.017353449,-0.05893401,-0.0776252
30639744,30639519,0.009808721,-0.04417103,-0.06872414
30660880,30660656,0.068504214,-0.06407703,-0.0776925
30681948,30681717,0.11273834,-0.018985882,-0.0727455
30699329,30699098,0.11180925,-0.02951981,-0.06965771
30720429,30720202,0.14279374,-0.03757071,-0.0627529
30741535,30741307,0.062400255,-0.006873504,-0.08274839
30762681,30762452,-0.031342447,-0.03157512,-0.076314196
30780069,30779842,-0.041483864,-0.023070488,-0.055140182
30802562,30802332,-0.059061028,-0.0015870144,-0.08730488
30822237,30822003,0.057666305,-0.0039414363,-0.07640507
30839606,30839383,0.23888525,-0.011988656,-0.06434051
30860720,30860488,0.38204616,0.013746629,-0.07515222
30881831,30881593,0.5606315,0.0144624,-0.06314012
30902927,30902697,0.7469439,0.0034114732,-0.058972962
30920307,30920078,0.7861408,-0.025904993,-0.09476378
30941417,30941182,0.80636996,-0.047007058,-0.058800377
30961281,30961049,0.68658996,-0.015533356,-0.06697199
30979905,30979668,0.59680927,-0.039661445,-0.06842032
31001007,31000778,0.42204913,0.008879941,-0.038728796
31022162,31021928,0.315327,0.023325123,-0.046057586
31042085,31041856,0.28825334,0.047474436,-0.040378798
31059455,31059225,0.2722512,0.04110504,-0.05840528
31080464,31080230,0.221907,0.040426273,-0.040887605
31101561,31101331,0.26680034,0.0031072267,-0.026185447
31118946,31118712,0.24147403,-0.013604737,-0.077428475
31140044,31139816,0.18107715,-0.0071194074,-0.035914786
31161147,31160922,0.15549487,-0.048249975,-0.036922965
31182253,31182025,0.092736624,-0.047082935,-0.020772494
31199636,31199407,0.012751549,0.013753153,-0.034185037
31220734,31220511,-0.09004282,0.050434183,0.009960891
31241861,31241636,-0.14852567,0.059126824,-0.0010309021
31259240,31258997,-0.1890661,-0.007465605,0.00048553752
31280327,31280101,-0.22525498,-0.016277539,-0.0031629496
31301438,31301210,-0.34001607,-0.01727884,-0.009015743
31322615,31322386,-0.3581973,-0.013126448,0.013904763
31340123,31339887,-0.543364,-0.017531242,0.012574484
31361022,31360796,-0.617589,-0.03709223,0.04929979
31382131,31381902,-0.7150611,-0.0015249708,0.019680029
31399549,31399324,-0.6950577,-0.0077718277,0.030964253
31420612,31420386,-0.7085662,-0.012671378,0.035478238
31441720,31441491,-0.6466487,0.022581836,0.022640262
31462832,31462597,-0.53273326,0.016890207,0.02834294
31480243,31480016,-0.4226695,0.02785927,0.028664753
31501312,31501081,-0.32569173,0.01833645,0.026691906
31522425,31522192,-0.1907075,-0.020644905,0.026995057
31539793,31539566,-0.1239793,-0.014019918,-0.009991043
31560917,31560672,-0.11275317,-0.030567652,0.0174257
31580790,31580562,-0.14837414,-0.021077426,0.012110606
31602000,31601767,-0.18752588,-0.0024411147,0.028348314
31619249,31619019,-0.18702327,-0.01050701,0.018064443
31640357,31640126,-0.13764328,-0.0016334377,0.0024764333
31661462,31661230,-0.1157609,-0.0037414795,0.0014337545
31678837,31678611,-0.08052151,-0.009918041,0.02215375
31699947,31699715,-0.025821889,-0.019254912,0.023243215
31721054,31720820,-0.010074369,-0.021309545,0.013450809
31742152,31741925,-0.0010400355,-0.010501204,0.019420827
31760783,31760548,-0.076558575,0.010243692,0.018647354
31780645,31780415,-0.06417651,0.00018868655,0.03355563
31801740,31801515,-0.075610876,0.02071432,0.022378573
31819130,31818901,-0.060220383,0.014771294,0.036521036
31840240,31840006,0.005022944,-0.0015288144,0.047399785
31861448,31861222,0.005410701,0.009724518,0.037364975
31882616,31882390,0.02549629,-0.022885842,0.046640284
31899823,31899593,0.027988844,-0.025221612,0.047839675
31920923,31920695,-0.012570837,0.014296951,0.049670354
31942030,31941807,-0.0058133644,0.01865012,0.05603668
31959418,31959180,0.016576389,0.02206889,0.039576
31980509,31980285,-0.044012863,0.040472973,0.034975868
32001617,32001390,-0.02385317,0.015205078,0.046265025
32022726,32022496,-0.045665063,0.01354371,0.036513872
32040126,32039893,-1.527351e-05,-0.017016279,0.03217344
32061223,32060989,0.035366885,-0.024087016,0.04551421
32082313,32082085,0.021538818,-0.04325984,0.044675197
32099692,32099467,0.0746179,-0.06398206,0.03415419
32120822,32120599,0.033994526,-0.043769136,0.022192882
32140815,32140592,0.03214037,-0.038037438,0.03642498
32161766,32161538,0.046653446,-0.009856489,0.025169661
32180390,32180160,-0.0067276172,0.0066585112,0.028318139
32201506,32201265,0.020298798,-0.0059381966,0.045111652
32221357,32221128,-0.00858514,0.017168099,0.040199466
32238757,32238532,0.00333798,0.020743908,0.033800367
32259874,32259646,0.021296673,0.015130958,0.06339603
32280952,32280718,0.009519204,0.012675311,0.04110842
32302060,32301825,0.003107611,0.0046216976,0.044004496
32319431,32319204,-0.0049725873,0.009191336,0.05008679
32340537,32340308,0.001417168,-0.012904357,0.05203799
32361644,32361413,0.033766698,-0.0349705,0.05916099
32379021,32378795,0.05150662,-0.035885356,0.017004607
32400208,32399975,0.01099978,-0.013238834,0.02086201
32421478,32421252,0.006916474,0.005893521,0.024644244
32442334,32442108,0.084047034,0.02760425,0.019973813
32459719,32459488,0.17582326,-0.027334858,0.016230052
32480837,32480597,0.31058106,0.03106714,0.02193965
32501929,32501698,0.41972595,0.046380483,0.0009844846
32519309,32519079,0.57356143,0.026983883,0.029383289
32540418,32540184,0.7479609,0.025673918,0.029632
32561515,32561289,0.8491211,0.004909828,0.028655063
32578913,32578680,0.974738,-0.04691176,0.021602921
32600003,32599774,0.98665655,-0.031021956,0.032647777
32621106,32620878,0.8963791,-0.050080765,0.04654167
32642263,32642035,0.83548886,-0.03520219,0.042430457
32659636,32659407,0.7258764,-0.033009045,0.012257718
32680886,32680653,0.71565396,-0.019886214,0.021409767
32701805,32701575,0.6260781,-0.04212865,-0.0036391127
32722917,32722678,0.5244061,-0.058001284,0.0023239104
32740294,32740066,0.43579885,-0.050198734,0.0482592
32761396,32761164,0.36871734,-0.044921547,0.041550737
32781259,32781029,0.35081095,-0.025947308,0.0176388
32799883,32799649,0.30692515,-0.029089417,0.003765841
32819739,32819512,0.30943576,-0.0051285564,0.024659975
32840842,32840617,0.2723513,-0.013020622,0.022854138
32863202,32862964,0.23370078,0.0025907902,0.028593024
32879335,32879103,0.22547911,-0.053468753,9.481281e-05
32900452,32900227,0.17734663,-0.03973343,0.0052198875
32921542,32921314,0.100288846,0.026337324,0.0048864707
32939107,32938876,0.0508516,0.040456768,0.023770588
32960216,32959981,0.037269536,0.065648325,0.0051683765
32981133,32980903,-0.021011656,0.076231405,-0.0041282717
33002242,33002009,-0.06823719,0.0612194,0.002414013
33019622,33019388,-0.0898888,0.09252644,0.0017597347
33040726,33040492,-0.09504637,0.086296394,0.0025474883
33061836,33061597,-0.08253,0.071399204,0.0050209747
33079217,33078980,-0.016689591,0.048229247,-0.034901828
33100319,33100082,0.0056594554,0.00824271,-0.038258713
33121449,33121222,0.1287941,-0.021055266,-0.03600506
33142520,33142293,0.22153987,-0.06517777,-0.033077817
33159902,33159672,0.22397344,-0.07589185,-0.025009261
33181006,33180777,0.27718696,-0.077580765,-0.020636173
33202167,33201941,0.26994807,-0.097249255,-0.018738154
33219628,33219398,0.26740262,-0.08372278,-0.035103466
33240595,33240368,0.25647864,-0.051705368,-0.044055544
33261699,33261472,0.2540605,-0.044625822,-0.041175544
33282802,33282577,0.20302477,-0.009330461,-0.053335346
33300195,33299960,0.13575244,-0.018700365,-0.02414897
33321288,33321062,0.023273658,-0.011068731,-0.026286582
33342431,33342204,-0.10589076,-0.013794949,-0.042302735
33359808,33359584,-0.19934885,0.0027720716,-0.008079256
33380886,33380654,-0.34558046,0.059120875,-0.00790469
33401987,33401757,-0.52135265,0.14879477,-0.0072075524
33421858,33421621,-0.638979,0.23210192,-0.041021805
33439232,33439001,-0.74630797,0.35493717,-0.05295541
33460341,33460114,-0.81724757,0.4467334,-0.04401973
33481581,33481354,-0.9377555,0.53838485,-0.059242286
33499005,33498776,-1.0095509,0.61574745,-0.01947952
33519923,33519696,-1.074326,0.6475343,-0.027681435
33541030,33540801,-1.0193717,0.69750416,-0.04564275
33562139,33561910,-0.9582368,0.6565833,-0.039319757
33579513,33579286,-0.8346974,0.6021169,-0.035722375
33600626,33600401,-0.69808865,0.44162172,-0.041125733
33621728,33621496,-0.5009699,0.37068927,-0.046110153
33639110,33638886,-0.35848954,0.24074464,-0.012666878
33660212,33659981,-0.24629615,0.14364739,-0.019434014
33681317,33681086,-0.16853319,0.06331745,-0.033398397
33702429,33702198,-0.14265567,0.015746912,-0.009911989
33719801,33719571,-0.11359844,-0.01437243,-0.0027006725
33741013,33740784,-0.16117135,0.019976951,-0.030303566
33762171,33761944,-0.15275015,0.012376779,-0.026180482
33779389,33779162,-0.18785562,0.06605121,-0.00059225847
33800504,33800273,-0.16498677,0.07298791,-0.0020272993
33821617,33821385,-0.13888068,0.070563845,-0.016027275
33842705,33842478,-0.04428096,0.0005934257,-0.019462809
33860090,33859856,-0.050050944,0.008414481,0.0007085846
33881192,33880961,0.01931556,-0.088181645,0.017967487
33902292,33902066,0.02847713,-0.16872859,-0.0040000407
33919677,33919447,0.076439165,-0.21504915,0.014407493
33940778,33940552,0.12001593,-0.3659768,0.011093928
33961888,33961656,0.23465043,-0.41321793,-0.0043181623
33981744,33981520,0.29159272,-0.45479733,0.03489085
34000466,34000230,0.43204936,-0.5526257,0.019751437
34020348,34020122,0.58952814,-0.6191373,-0.019970842
34041344,34041111,0.8524718,-0.6007223,0.0014823691
34058722,34058490,0.9918273,-0.5423964,0.017682165
34079828,34079595,1.1432383,-0.51376474,-0.0028767034
34100926,34100700,1.1876863,-0.45538032,-0.0025402391
34122041,34121815,1.1895728,-0.37018967,-0.0034294787
34139420,34139190,1.100613,-0.34955767,-0.007200092
34160518,34160291,0.89189976,-0.28703505,0.0005269827
34181659,34181437,0.59770715,-0.24945047,0.019119998
34199003,34198776,0.44704264,-0.16538914,-0.012449362
34220106,34219880,0.17173399,-0.10514992,0.0036357208
34241219,34240985,-0.04044453,-0.05917549,0.0062183724
34262322,34262091,-0.10052644,0.0065535335,0.018081756
34279762,34279535,-0.31247357,-0.08408572,-0.01101595
34300962,34300736,-0.36091962,-0.0558927,-0.010685903
34321911,34321680,-0.43583092,-0.05495088,-0.0020093017
34339359,34339132,-0.487146,0.0016896585,0.026630973
34360388,34360165,-0.57146966,-0.0070304857,0.009832119
34381501,34381270,-0.5497257,0.04308247,0.0036366337
34402620,34402382,-0.4555613,0.055715695,-0.0150992945
34420038,34419814,-0.4001697,0.0486318,-0.01902146
34441087,34440860,-0.35916236,0.04188013,-0.027516043
34462202,34461966,-0.4048476,0.04434782,-0.028349385
34479574,34479346,-0.5261049,0.0356178,-0.0053585335
34500682,34500450,-0.53941643,0.04185534,0.0020464445
34521843,34521609,-0.6099313,0.04224552,-0.01416026
34542922,34542695,-0.5402712,0.018533614,-0.020267613
34560398,34560158,-0.47288966,0.013634979,-0.034270156
34581388,34581148,-0.36369017,-0.028886264,-0.04396109
34602496,34602254,-0.22613764,-0.0040570763,-0.07069175
34619872,34619630,-0.15525256,0.017150525,-0.04330065
34639722,34639494,-0.09354149,0.092931874,-0.029179914
34660832,34660601,-0.07428998,0.08595055,-0.056377046
34681934,34681704,-0.0746174,0.086600825,-0.06070291
34699313,34699084,-0.1423529,0.076964766,-0.057618033
34720424,34720195,-0.18590681,0.019591374,-0.0551749
34741522,34741294,-0.23378943,0.009208924,-0.05731101
34758916,34758674,-0.26808962,-0.031222215,-0.08478035
34780009,34779780,-0.282376,0.0038520633,-0.0735938
34801146,34800917,-0.3131138,-0.019239033,-0.07178774
34822346,34822121,-0.27166465,0.004335739,-0.07256396
34839785,34839551,-0.21542954,-0.016838444,-0.09763404
34860704,34860474,-0.1806633,0.030055404,-0.093796
34881811,34881579,-0.11176384,0.03603066,-0.09938102
34899190,34898961,-0.08317139,-0.012493426,-0.100883156
34920288,34920064,-0.05358894,-0.03784121,-0.10575102
34941395,34941169,-0.047321085,-0.033271573,-0.105854146
34963750,34963518,-0.10243278,-0.033987373,-0.10332593
34979881,34979655,-0.055308733,-0.06958908,-0.108843446
35001004,35000780,-0.06788361,-0.046655513,-0.1240876
35022095,35021864,-0.054644607,-0.064000376,-0.11378514
35039477,35039249,-0.08049644,-0.05030218,-0.10701581
35060578,35060351,-0.09514399,-0.030326704,-0.12581296
35081722,35081492,-0.0598904,-0.054622017,-0.10409593
35102967,35102722,-0.11039636,-0.040496722,-0.08885411
35120163,35119939,-0.072139375,-0.04908857,-0.12533185
35141275,35141045,-0.100767195,-0.029889867,-0.11230916
35162386,35162149,-0.1183991,-0.013457997,-0.10458646
35179754,35179530,-0.08404873,-0.038115926,-0.11306656
35200869,35200635,-0.08610633,-0.01688235,-0.09559124
35220726,35220498,-0.0764061,-0.0031693634,-0.10192398
35241837,35241603,-0.056026347,0.0069784997,-0.085013725
35259211,35258983,-0.0028675736,-0.020139463,-0.11083984
35280318,35280088,-0.008830695,-0.020281747,-0.09978226
35301430,35301198,-0.015944464,-0.0012207327,-0.096388474
35318799,35318573,-0.04837702,0.0055331937,-0.07804547
35339909,35339679,-0.016547011,-0.007862118,-0.073086955
35361102,35360872,-0.020299802,0.0028663685,-0.108016625
35382317,35382090,-0.01655308,0.021409754,-0.11003209
35399498,35399268,-0.0375171,0.015362274,-0.07978113
35420602,35420373,-0.008858945,0.026949283,-0.08363324
35441703,35441478,0.009620986,0.007334924,-0.078080066
35459091,35458858,0.07225725,-0.036729924,-0.07609612
35480196,35479963,0.0968138,-0.0359318,-0.07282082
35501293,35501068,0.08171233,-0.0040633567,-0.04928318
35522450,35522225,0.103856266,0.010416476,-0.05284872
35539789,35539554,0.06332876,0.022340579,-0.053077273
35560884,35560657,0.04588201,0.019569017,-0.06482538
35581993,35581764,0.11504816,0.01329202,-0.05884009
35599381,35599149,0.10008327,0.018993825,-0.05071087
35620576,35620350,0.11668592,0.0069898893,-0.058076013
35641720,35641495,0.13513494,0.027450565,-0.041883882
35662686,35662458,0.1328601,0.00092713075,-0.024228198
35680066,35679840,0.14950661,0.038336653,-0.025285311
35701176,35700950,0.027700404,-0.002502662,-0.008926227
35722281,35722049,-0.017426807,-0.004907159,-0.018603595
35739653,35739428,-0.110525414,0.008817768,0.011009468
35760773,35760535,-0.118239716,0.014980244,-0.0139224315
35783116,35782882,-0.08061606,0.06765473,-0.02206578
35802982,35802748,0.0823034,0.05360947,0.00769116
35820360,35820125,0.10602619,0.0062195486,-0.0117192
35840215,35839987,0.2892773,0.021732444,-0.009732382
35861324,35861092,0.56328034,0.025996946,0.007931441
35878737,35878512,0.77245575,0.011916739,-0.018323101
35899892,35899666,1.0879198,0.04463786,-0.016936637
35922166,35921930,1.2376953,0.06987274,0.0048126183
35942025,35941788,1.2493298,0.08871438,0.03321109
35959393,35959168,1.2038865,0.057741158,0.013944467
35980501,35980272,1.018516,0.06530039,0.016756538
36001602,36001377,0.84013474,0.062815405,0.037814472
36018988,36018758,0.6082118,0.0520518,0.06728723
36040097,36039862,0.5129166,0.01830447,0.03947718
36061239,36061011,0.44444022,-0.0248317,0.040777393
36082297,36082072,0.32603103,0.03805035,0.06937879
36099681,36099452,0.24478799,0.021522215,0.038009744
36120783,36120558,0.2645581,0.0060855267,0.077969566
36141912,36141686,0.15672778,0.028895387,0.07984183
36159321,36159089,0.124632195,-0.034559406,0.07054277
36180526,36180300,0.06863894,-0.0019753163,0.08314267
36201479,36201253,-0.06898287,0.006746726,0.05985004
36222582,36222357,-0.177579,-0.0008843549,0.0675256
36239965,36239738,-0.3529635,0.009717877,0.08602988
36261100,36260875,-0.6715711,-0.028837401,0.046246573
36282179,36281949,-0.9400908,-0.013787848,0.081434004
36299558,36299333,-1.096827,0.0047022365,0.071435966
36320659,36320433,-1.0840153,-0.0016101317,0.05360136
36341768,36341538,-0.9501412,0.007669321,0.0790429
36362878,36362642,-0.8941368,-0.0072734887,0.060785204
36380251,36380024,-0.7417215,0.0082926145,0.061378468
36401388,36401159,-0.61675197,0.0067672036,0.070314735
36421232,36421004,-0.52436227,0.03376899,0.05423824
36439945,36439715,-0.4394647,-0.012218259,0.045619536
36460955,36460721,-0.37598497,-0.03994569,0.043040868
36480809,36480581,-0.3786062,-0.061982427,0.052227393
36501922,36501686,-0.3825908,-0.032163434,0.05928544
36519325,36519100,-0.3264923,0.0010481388,0.050687715
36540399,36540173,-0.1810528,-0.028869506,0.04306813
36562755,36562520,-0.017661197,-0.011340017,0.03150607
36578876,36578653,0.018859565,-0.0013065545,0.037745144
36599984,36599761,0.07448281,-2.975706e-05,0.03845118
36621095,36620867,0.03960697,-0.012887336,0.029067619
36642211,36641973,0.068814546,-0.017678117,0.036999088
36659582,36659356,0.06578528,0.005786222,0.025581783
36680708,36680479,0.10809535,0.004546741,0.01733551
36701865,36701636,0.28399146,-0.0027803874,0.009541292
36719321,36719093,0.39312056,0.020228328,0.02290951
36740276,36740047,0.47897175,-0.01977573,0.01121511
36761403,36761176,0.509527,0.0031811644,0.0062545487
36782484,36782259,0.4225059,-0.017464295,-0.0114592025
36799867,36799637,0.31454778,0.0018842163,0.028754393
36820975,36820742,0.22622244,-0.019977218,0.013432492
36842074,36841848,0.12288164,-0.05608361,0.009141003
36859457,36859227,0.017767731,-0.015763372,0.047338564
36880563,36880333,-0.053708147,-0.003924472,0.035614002
36901716,36901490,-0.029760886,-0.03542673,0.031394877
36919047,36918817,-0.055876844,-0.009455433,0.03915775
36940180,36939953,-0.023150254,-0.008952757,0.04058594
36961277,36961049,0.0036663357,-0.02450487,0.03932601
36981233,36981002,0.026948132,-0.012732428,0.030563649
36999746,36999513,-0.0021135504,-0.019884348,0.018975127
37020842,37020617,0.02066557,-0.020021401,0.021632135
37041955,37041722,0.05213641,0.005254104,0.0070475847
37061817,37061585,0.04929231,-0.013632413,0.0039816243
37080442,37080212,0.054371353,0.017111491,0.018660925
37100304,37100071,-0.018315937,-0.009423133,0.0030251772
37121463,37121236,-0.0013332141,-0.018541615,0.016375223
37138785,37138556,-0.058434125,-0.0033212632,0.033610467
37159906,37159680,-0.0362331,-0.0057852557,0.024063412
37180990,37180765,-0.0101002455,0.02815891,0.0037381782
37202102,37201871,0.015072549,0.06086518,0.011458997
37219475,37219251,0.08237768,0.007542751,0.027059637
37240651,37240423,0.13625923,0.010381391,-0.015498407
37261861,37261633,0.113999456,-0.00963651,-0.0031576585
37279090,37278866,0.10220933,-0.019177156,0.010761991
37300179,37299948,0.03730811,-0.030465838,-0.003376273
37321282,37321052,-0.039038226,-0.07905879,0.010286297
37342384,37342156,-0.08943346,-0.030932963,-0.00789994
37359762,37359536,-0.20158039,0.026142815,-0.0059299883
37380875,37380641,-0.20861487,-0.04583847,0.004107051
37401972,37401747,-0.25296578,-0.02665192,-0.024926629
37419356,37419127,-0.28746495,-0.0006983179,-0.012030485
37440459,37440231,-0.26376945,0.055142026,-0.00080727553
37461567,37461343,-0.28065,0.047131136,-0.0029419854
37482724,37482498,-0.282066,0.03399029,0.0056985104
37500078,37499847,-0.32881862,0.02346534,-0.010461751
37521282,37521054,-0.28157756,-0.006284624,-0.012702271
37542259,37542031,-0.2563949,-0.00563198,-0.0021610972
37559638,37559411,-0.23435889,-0.0008785517,-0.02870528
37580766,37580528,-0.2639438,-0.025598774,-0.015469027
37601902,37601667,-0.23211667,-0.03773421,-0.012891548
37619236,37619001,-0.28031388,-0.013697852,-0.04852951
37640340,37640109,-0.20468248,-0.0050598257,-0.048145127
37661449,37661211,-0.14927834,-0.0063732266,-0.050928026
37678823,37678592,-0.17795528,0.04721685,-0.03253361
37699961,37699728,-0.09580449,0.0034141005,-0.025606446
37719793,37719562,-0.045467652,0.032949306,-0.030728932
37740890,37740665,-0.064891964,-0.0043801363,-0.032857876
37761992,37761767,-0.043047834,-0.0023573057,-0.026147243
37779488,37779255,-0.014539156,-0.00992013,-0.010165073
37800663,37800438,-0.008985884,-0.028696112,-0.022182565
37821613,37821391,-0.031754468,-0.029324729,-0.013015574
37838972,37838741,-0.0051258556,-0.051213123,-0.030725531
37860113,37859885,0.00085410837,-0.04634258,0.0008933987
37881183,37880950,-0.054605935,0.010928911,-0.011553533
37902290,37902055,-0.017562563,-0.024767136,0.011790954
37919661,37919436,-0.018790264,-0.0044856095,-0.014557469
37940769,37940541,0.0017965604,-0.0105561,-0.011826802
37961878,37961645,0.0008085466,0.012601363,0.012088919
37979256,37979030,0.0029913231,-2.2809274e-05,-0.031073572
38000353,38000130,-0.024831008,0.010227683,-0.0015203885
38021471,38021237,-0.0047232076,0.033614,-0.0011830367
38042642,38042414,-0.036066733,0.05482349,-0.003913321
38060138,38059907,0.001472246,-0.03393438,-0.014136846
38081054,38080825,-0.030764986,0.03343953,-0.020126462
38102162,38101932,-0.0347557,0.02546543,-0.008055708
38119540,38119311,0.016271373,-0.014483141,0.016715188
38140643,38140416,0.016759818,0.020474847,0.009785927
38161745,38161520,-0.02993044,0.026714085,0.012553198
38182860,38182626,-0.018456662,0.027211478,0.015361438
38200248,38200005,0.015073488,0.024591304,-0.0076638907
38221336,38221111,0.036888886,0.025408184,0.012583631
38241203,38240974,-0.019330189,0.04947273,0.01447283
38259829,38259596,0.04985023,0.0007349367,0.0034834575
