timestamp,timestamp_sample,accel_device_id,gyro_device_id,delta_angle[0],delta_angle[1],delta_angle[2],delta_velocity[0],delta_velocity[1],delta_velocity[2],delta_angle_dt,delta_velocity_dt,delta_velocity_clipping
16196758,16196384,3670026,3670026,9.585176e-05,-0.0001074871,-0.0002403133,0.0033015292,-0.004780307,-0.048425633,4966,4966,0
16201765,16201350,3670026,3670026,-0.00026380236,-0.00036530496,-0.0003843349,0.003411059,-0.0025282544,-0.049232177,4966,4966,0
16698319,16697933,3670026,3670026,9.5552256e-05,-0.00019966588,0.00024764874,0.0068659927,0.00022718398,-0.050523553,4948,4948,0
17199801,17199478,3670026,3670026,2.947841e-05,-0.000786122,-0.00051175617,-0.003641021,-0.0051358934,-0.046860866,4966,4966,0
17696449,17696060,3670026,3670026,0.0004679306,0.0013735717,-0.0002781994,-0.007903762,-0.0054448918,-0.045441277,4961,4961,0
18197958,18197609,3670026,3670026,-0.0010440347,-0.0003006148,-0.0016361892,0.003078553,0.0016320378,-0.038623273,4965,4965,0
18699701,18699333,3670026,3670026,-0.00015216239,0.00049598137,-0.00030077202,0.007298863,0.001480504,-0.03776473,4953,4953,0
19201134,19200708,3670026,3670026,-0.0011534553,0.00039290157,-0.00077556423,-0.0011173484,0.0030756635,-0.052482624,4968,4968,0
19702644,19702255,3670026,3670026,-0.0017931339,0.0010874717,-0.0005207059,-0.0028062575,-6.29723e-05,-0.0459395,4965,4965,0
20199212,20198838,3670026,3670026,0.00028016962,-0.00091139885,-0.00083056214,0.01776626,0.006180748,-0.035621613,4965,4965,0
20695805,20695422,3670026,3670026,-0.0010408012,0.0013760393,0.0001131276,-0.0064950106,0.003051447,-0.055478986,4967,4967,0
21197343,21196972,3670026,3670026,-0.00026840362,0.00013957199,-0.00024507643,-0.0022294207,-0.00412187,-0.046221644,4930,4930,0
21698908,21698518,3670026,3670026,0.0006454763,-0.00055825815,-0.00021250547,0.011764518,0.00069335796,-0.038717117,4965,4965,0
22200577,22200256,3670026,3670026,-0.00016160955,-0.0005191122,0.00045041324,0.0019805513,-0.0015578019,-0.051278405,4991,4991,0
22702007,22701680,3670026,3670026,-0.00058042957,0.00074250513,0.0001785479,0.0020601475,-0.0005890021,-0.05879703,4982,4982,0
23198568,23198201,3670026,3670026,-0.00022558322,-8.9085486e-05,-0.00093218574,-0.0053809877,-0.014603277,-0.058833096,4913,4913,0
23700129,23699752,3670026,3670026,0.0023091154,0.0017323783,0.00010792491,0.0029506537,-0.0044696108,-0.04639691,4967,4967,0
24196702,24196333,3670026,3670026,0.00039793318,-0.0004451056,-0.0003190813,-0.0015666534,-0.011983132,-0.048366003,4966,4966,0
24698285,24697882,3670026,3670026,-0.00016356444,0.00035076827,0.00039623817,3.102148e-05,-0.013857848,-0.04993467,4965,4965,0
25199813,25199474,3670026,3670026,0.0006846682,-0.00077278505,-0.0007184293,8.320157e-05,-0.004371332,-0.045039095,4963,4963,0
25701338,25700983,3670026,3670026,0.0014170856,-0.00010788921,-0.00015218362,0.00019912556,0.0020850445,-0.04371427,4782,4782,0
26198011,26197586,3670026,3670026,0.002690819,-0.00063641387,-0.0006960049,0.0007557481,-0.002089326,-0.04406906,4991,4991,0
26699444,26699114,3670026,3670026,-0.0014069655,0.00030510916,1.7237142e-05,0.0042030374,0.0029025236,-0.050925452,4948,4948,0
27196086,27195701,3670026,3670026,-0.00075391756,0.00051491795,-8.1663864e-05,0.0035660043,0.0026883946,-0.044584304,4969,4969,0
27697662,27697248,3670026,3670026,0.000510191,-0.00029994833,-0.00017253478,0.0008965235,-0.011754133,-0.045941465,4966,4966,0
28199121,28198797,3670026,3670026,0.0048682424,-0.00032638398,-9.728551e-05,0.0038045628,0.00259695,-0.048104882,4966,4966,0
28700696,28700347,3670026,3670026,-0.00097405177,-0.00027772452,-0.0003383721,0.007460975,0.01068591,-0.04388189,4966,4966,0
29202256,29201902,3670026,3670026,0.0003918983,-0.00046052254,5.9290793e-05,-0.0029071022,-0.0054808888,-0.04081474,4968,4968,0
29698948,29698509,3670026,3670026,-0.002817176,0.004776146,0.00083468464,-0.004698748,0.00043007822,-0.049207155,4987,4987,0
30200370,30200033,3670026,3670026,-0.00027077337,0.00044072446,0.0004058185,0.0033848793,0.0048596696,-0.05031789,4968,4968,0
30696987,30696615,3670026,3670026,0.00024600056,7.3244855e-06,-6.14053e-05,-0.0017130352,0.0074225054,-0.052925333,4966,4966,0
31198485,31198165,3670026,3670026,-0.0001300379,-0.0002165072,1.7519671e-05,-0.006409023,-0.0016279045,-0.057161998,4966,4966,0
31700123,31699715,3670026,3670026,0.00038745257,-0.00063290517,-0.00023875062,-0.003319552,0.003091624,-0.04474349,4959,4959,0
32201705,32201265,3670026,3670026,0.00053905894,-0.00031931672,-0.0002916139,0.0074227387,-0.00067059405,-0.04498319,4965,4965,0
32698198,32697849,3670026,3670026,0.0032033732,-0.00033217517,-0.00038905928,0.008606644,-0.0027956348,-0.041326202,4754,4754,0
33199826,33199501,3670026,3670026,0.0014354492,-0.00034770972,8.929512e-05,3.4035347e-07,-0.0034531623,-0.046724476,4994,4994,0
33701277,33700950,3670026,3670026,-0.000675113,-0.00011666943,-0.00026878985,0.0030621893,0.0042622895,-0.04416001,4953,4953,0
34197856,34197534,3670026,3670026,0.0019637062,-0.0012551183,-0.00039529678,-0.0053928723,-0.004677041,-0.033030123,4966,4966,0
34699406,34699084,3670026,3670026,-0.0010011994,0.00047048763,0.00014404976,0.003023265,-0.0008861119,-0.048682757,4966,4966,0
35201009,35200635,3670026,3670026,-0.0005736008,0.00013698799,6.0267364e-05,-0.0011846016,0.0036046852,-0.053931493,4965,4965,0
35697570,35697220,3670026,3670026,1.144359e-07,-0.00017854641,-0.00012850096,0.00032640775,-0.006022703,-0.058861688,4967,4967,0
36199136,36198793,3670026,3670026,-0.00039592708,0.0001447756,0.0006083493,-0.0011042213,-0.0029796073,-0.055553462,4986,4986,0
36700800,36700388,3670026,3670026,0.0019575008,-0.00049613346,-0.00047955444,2.8755987e-05,0.0037978638,-0.050015356,4938,4938,0
37202285,37201871,3670026,3670026,0.00067943666,-7.841124e-05,-0.00031150976,0.0036436412,0.0011348389,-0.04388682,4964,4964,0
37698837,37698456,3670026,3670026,-0.00064756256,0.00011515286,-0.0003163162,0.003872989,0.003067884,-0.041249737,4967,4967,0
38200341,38200005,3670026,3670026,-0.00026861217,0.0006003629,0.000701779,-0.009917212,-0.004733831,-0.053300854,4965,4965,0
38696934,38696604,3670026,3670026,0.0075794063,0.0002623228,0.0007436535,-0.005849288,-0.009040191,-0.05235607,4979,4979,0
39198534,39198142,3670026,3670026,-0.002015509,0.00028908436,0.00089886005,0.004839703,-0.0025440159,-0.050232112,4967,4967,0
39700041,39699692,3670026,3670026,-0.00015906889,0.0006269511,0.0010995284,0.00030315339,-0.009316622,-0.057218917,4965,4965,0
40201748,40201380,3670026,3670026,9.288183e-05,-0.0019129373,-0.00042400137,0.0042397073,0.002485413,-0.04249436,4991,4991,0
40703227,40702793,3670026,3670026,-0.00018830331,0.0018493746,0.0002491273,0.0012856525,-0.005230295,-0.051762033,4966,4966,0
41199703,41199379,3670026,3670026,0.00032472948,-0.00019175457,-0.000907583,0.0034044434,0.002326019,-0.045773122,4966,4966,0
41696292,41695963,3670026,3670026,-0.00021502652,-0.00043665836,-0.00031828464,-0.0061054267,-0.003474905,-0.04834029,4964,4964,0
42197888,42197518,3670026,3670026,-0.0020821013,-0.00037343,0.00023353925,0.0009786508,-0.0027855614,-0.045905765,4970,4970,0
42699460,42699117,3670026,3670026,0.00042462093,-0.00030238615,-0.0005417094,-0.00059570844,-0.0055600205,-0.044903394,4999,4999,0
43200963,43200616,3670026,3670026,-0.000622248,0.00016956448,0.0003319644,0.007288357,0.0024561493,-0.046757296,4966,4966,0
43702592,43702263,3670026,3670026,-0.00034230252,0.00042723998,0.00035575044,4.931354e-05,0.002512591,-0.054029543,4993,4993,0
44199122,44198752,3670026,3670026,-0.0027239488,0.0013661942,0.000709926,0.0017008528,-0.0076274364,-0.0449971,4964,4964,0
44695758,44695388,3670026,3670026,-0.00078123837,0.0004405251,0.00021675297,-0.0027409364,0.0034542952,-0.050166983,4997,4997,0
45197263,45196890,3670026,3670026,0.0032955743,-0.00018048554,-0.00034896165,0.00017743843,-0.00695475,-0.049780637,4968,4968,0
45698850,45698439,3670026,3670026,-0.0033239615,-0.00023629928,0.0006795975,-0.00066979526,0.0014830156,-0.04830158,4966,4966,0
46200381,46199990,3670026,3670026,-0.0045052613,-0.00012488071,0.0005957251,0.0018138534,0.0016646304,-0.049705185,4965,4965,0
46701897,46701541,3670026,3670026,0.0037912289,3.0249706e-05,0.0006928122,-0.0054553705,-0.0077135875,-0.055880085,4963,4963,0
47198589,47198266,3670026,3670026,0.00049796765,-0.00021682073,0.00047969917,-0.003961589,-0.007406376,-0.051322266,5042,5042,0
47700058,47699679,3670026,3670026,-0.00020482756,-0.00016996572,8.1441634e-05,-0.005827113,-0.0048448844,-0.056310833,4966,4966,0
48196692,48196263,3670026,3670026,-0.0013971571,0.0003500363,0.00018150681,-0.0029967153,0.0036263047,-0.059390094,4966,4966,0
48698236,48697814,3670026,3670026,3.53738e-05,-0.0002475577,-0.00028505022,-0.0023538836,-0.00338855,-0.055243846,4962,4962,0
49199735,49199366,3670026,3670026,0.0008093337,-0.0003318835,-0.00056112575,0.005672171,3.4655575e-05,-0.04424888,4966,4966,0
49701302,49700954,3670026,3670026,0.00025065968,0.00014791178,-0.00015505384,-0.00040536778,-0.005868495,-0.040868714,5002,5002,0
50197863,50197520,3670026,3670026,1.4372458e-05,0.00039127635,5.6475426e-05,0.0042125606,-0.0029252514,-0.05049866,4984,4984,0
50699528,50699162,3670026,3670026,-0.00024425855,0.00041414073,0.0005019358,-0.0014813992,-0.01188091,-0.056853235,4989,4989,0
51200973,51200601,3670026,3670026,0.00045948618,-0.0002531043,0.000106797685,-0.00020249984,-0.01157134,-0.051613547,4962,4962,0
51697583,51697196,3670026,3670026,-0.0005280535,0.00051497156,1.0584238e-06,-0.0014244776,0.004758889,-0.049776632,4970,4970,0
52199069,52198744,3670026,3670026,0.00027989206,-0.00012773399,-0.00045782086,-0.0002124469,-0.006678241,-0.04757206,4962,4962,0
52700616,52700294,3670026,3670026,-0.00010076228,6.659574e-05,0.0003937933,0.0026348773,-0.00061179645,-0.045571774,4966,4966,0
53197227,53196879,3670026,3670026,-0.0002792615,-1.0395611e-05,-0.00029448856,-0.0055676135,-0.0060266387,-0.04694324,4965,4965,0
53698783,53698433,3670026,3670026,-7.774487e-07,1.9078912e-05,-0.00025242497,0.0034692003,-7.6252836e-06,-0.044915263,4968,4968,0
54200573,54200167,3670026,3670026,-0.0007610362,0.00024586808,7.362818e-05,-0.003758758,-0.0039302623,-0.056843404,4990,4990,0
54701916,54701534,3670026,3670026,-0.00019976488,0.0001757377,-9.444275e-05,-0.0029252796,-0.006508151,-0.053210698,4966,4966,0
55198503,55198120,3670026,3670026,9.707454e-05,-0.00031228323,-0.00047791863,0.001160485,-0.0038694558,-0.04453899,4966,4966,0
55699996,55699671,3670026,3670026,-0.00012265824,-0.00011082945,0.00043269023,-0.003812547,0.0002692754,-0.05115238,4964,4964,0
56196577,56196257,3670026,3670026,6.210278e-05,-0.00015221452,0.00018662766,-0.0014256231,0.005274791,-0.044756103,4965,4965,0
56698165,56697809,3670026,3670026,0.0004082536,3.947379e-05,0.0003530973,-0.0039756345,-0.0020492554,-0.052800197,4966,4966,0
57199702,57199361,3670026,3670026,0.0009583723,-0.000787648,-0.00040960385,-0.00024163305,-0.008441965,-0.046652168,4966,4966,0
57701372,57701049,3670026,3670026,0.00027635,-0.00020126565,-0.00028395705,0.0061288048,-0.0051594237,-0.04338558,4987,4987,0
58202914,58202500,3670026,3670026,-0.00060497416,0.00014205441,0.00047090882,-0.0050211526,-0.00602684,-0.057306536,4983,4983,0
58699420,58699050,3670026,3670026,8.250053e-05,-0.00014893798,1.9745188e-05,0.0051897774,0.0033650184,-0.057219107,4966,4966,0
59196014,59195636,3670026,3670026,0.00038943652,-0.0003476317,-0.00040216747,-0.0018049183,-0.0052162865,-0.042275384,4965,4965,0
59697522,59697193,3670026,3670026,-0.00023217443,-0.00023666372,-0.00041226187,0.009186662,-0.0048100967,-0.03432572,4970,4970,0
60199133,60198740,3670026,3670026,0.00034850632,-0.004382141,-6.883477e-06,-0.0050870054,-0.0017820065,-0.04853345,4966,4966,0
60700634,60700292,3670026,3670026,0.000373416,0.002393677,-7.816963e-05,0.0031297558,-0.013912584,-0.047746655,4966,4966,0
61202361,61202022,3670026,3670026,-0.00044566527,-0.0011023743,0.0006407135,-0.004305336,-0.0022887215,-0.049733438,4962,4962,0
61698820,61698454,3670026,3670026,6.5859895e-05,0.0019391183,0.00036445557,0.002538075,-0.0068347803,-0.052671403,4984,4984,0
62195421,62195046,3670026,3670026,-6.518253e-05,0.0028137148,-0.00025388607,0.0003111439,-0.0042568683,-0.04891503,4989,4989,0
62696903,62696568,3670026,3670026,-0.00087281625,-0.00027301733,0.00074384623,-0.004376882,0.008419469,-0.05107609,4966,4966,0
63198533,63198120,3670026,3670026,7.531295e-05,-0.00021516172,-0.00038512287,0.0029050917,-0.004961885,-0.045994844,4964,4964,0
63700037,63699672,3670026,3670026,-0.0005917094,-0.00020149123,0.00042442651,-0.00787159,-0.0011638079,-0.048377343,4966,4966,0
64201615,64201224,3670026,3670026,-0.0005041418,-0.0017260265,-6.3181156e-05,0.0030136027,0.0060819876,-0.042399537,4923,4923,0
64698330,64697959,3670026,3670026,0.0005570258,0.0024855651,0.00040388276,-0.012967418,-0.011841688,-0.06362683,4976,4976,0
65199751,65199375,3670026,3670026,0.000644639,-0.0007452851,-0.00017073733,-0.010350797,-0.006254737,-0.058898427,4978,4978,0
65696277,65695949,3670026,3670026,-0.00039376874,-0.0044128965,-0.00048342554,0.0055298135,-0.007613441,-0.0434811,4966,4966,0
66197873,66197505,3670026,3670026,-0.0003864406,-0.0025271745,-0.00012576327,0.00033701336,0.004426763,-0.035083704,4933,4933,0
66699486,66699055,3670026,3670026,0.0002348788,-0.0014039441,-0.00015492682,-0.0046026427,-0.0030437168,-0.050396718,4967,4967,0
67201076,67200647,3670026,3670026,-3.5935824e-05,0.0024648472,0.00037907646,0.0008681117,0.0014181259,-0.047023866,5007,5007,0
67697545,67697199,3670026,3670026,0.0005864237,-0.0017777847,1.3208399e-05,-0.0017014969,-0.007801758,-0.04900405,4969,4969,0
68199341,68198920,3670026,3670026,-0.00033068677,0.002479718,0.00037206674,-0.004590852,0.0014348192,-0.050717853,4993,4993,0
68700623,68700299,3670026,3670026,-0.0002085164,0.0022625006,-0.000521074,-0.0030079123,0.0056471745,-0.0476923,4968,4968,0
69197304,69196884,3670026,3670026,0.00063776626,-0.0036138056,-4.0203926e-05,-0.012846167,-0.0052309036,-0.04896905,4965,4965,0
69698759,69698436,3670026,3670026,0.0003160059,0.00018413065,0.00044975258,0.0024040914,-0.0089718755,-0.05046165,4964,4964,0
70200357,70199988,3670026,3670026,0.00014238119,-0.0027150647,0.00050835195,-0.014485678,-0.0022226498,-0.054545205,4964,4964,0
70697006,70696575,3670026,3670026,-0.00045485338,0.0028136934,0.00016358402,-0.0011533668,0.0077003427,-0.05201779,4965,4965,0
71198476,71198127,3670026,3670026,-0.00046858858,-0.0027313547,-7.987866e-05,3.9679388e-05,-0.0073852725,-0.047555525,4965,4965,0
71700245,71699865,3670026,3670026,-0.00056909263,-0.0018443541,0.0006057899,-0.0016393228,-0.006278735,-0.054505978,4993,4993,0
72201571,72201247,3670026,3670026,-0.00058115134,0.0025010924,0.00043172162,-0.0009347381,0.007633217,-0.055994548,4977,4977,0
72703157,72702787,3670026,3670026,9.7169526e-05,-0.00079630216,-0.00030826035,-0.0012316382,0.008810081,-0.046630684,4966,4966,0
73199695,73199372,3670026,3670026,-0.00015648949,-0.0011801241,0.0005521768,-0.0026378636,-0.008374944,-0.056575395,4965,4965,0
73696308,73695977,3670026,3670026,0.00044216975,0.004105272,-0.00079650665,-0.0041662687,-0.007505586,-0.062036313,4981,4981,0
74197924,74197512,3670026,3670026,-6.6723645e-05,0.0021873855,-0.0007651776,0.0043801055,0.0012461324,-0.04421829,4966,4966,0
74699407,74699064,3670026,3670026,0.00058213837,-0.0015598923,0.0007337559,0.006001188,0.0028916788,-0.041630525,4965,4965,0
75200964,75200621,3670026,3670026,-9.484269e-05,0.002006509,-0.00065828825,-0.0019049373,-0.0022126355,-0.045121454,4792,4792,0
75702577,75702211,3670026,3670026,-0.00027120372,0.0038311544,1.3255481e-05,-0.0038367785,0.017391043,-0.047361933,4985,4985,0
76199142,76198757,3670026,3670026,0.00026358594,-0.002937877,-0.00018148571,0.0028880446,-0.018811988,-0.05046655,4964,4964,0
76695669,76695344,3670026,3670026,5.9984184e-05,0.0042248676,1.4825954e-05,-0.00031130933,0.00020487916,-0.0455527,4965,4965,0
77197308,77196901,3670026,3670026,-0.00022579284,0.0031774596,0.00022420022,-0.0071284086,-0.0117339725,-0.05418139,4970,4970,0
77698857,77698457,3670026,3670026,0.00022778772,-0.00074962986,0.00028737288,-0.014312132,0.0028599668,-0.055477712,4974,4974,0
78200405,78200005,3670026,3670026,-3.8195427e-05,0.0029889941,-0.0004316347,-0.002834459,-0.0019495114,-0.047329452,4968,4968,0
78701905,78701555,3670026,3670026,-0.00026360303,0.0019021347,-0.00091625995,-0.0026500486,-0.008802234,-0.04217979,4963,4963,0
79198546,79198223,3670026,3670026,0.0015655726,-0.004184933,0.001854781,-0.0068738074,-0.008649778,-0.04629778,4988,4988,0
79700042,79699713,3670026,3670026,-0.00025953425,0.0013469643,0.0004396951,0.006607352,0.004875972,-0.043688186,4981,4981,0
80196648,80196283,3670026,3670026,0.0011151343,0.001387258,-0.00060299697,0.0014038505,-0.009641011,-0.05130186,4966,4966,0
80698218,80697836,3670026,3670026,0.0007235609,0.0011254607,-0.000867011,0.0029880833,-0.003470704,-0.041968934,4965,4965,0
81199715,81199391,3670026,3670026,0.0013054543,-0.00263015,-0.00077474717,0.005602665,-0.0020125632,-0.048100524,4966,4966,0
81701332,81700942,3670026,3670026,0.00084060564,0.00049127947,-0.00020825326,0.006211322,-0.0025943448,-0.040211204,4964,4964,0
82197873,82197529,3670026,3670026,0.00041288932,0.0012685176,0.00020954499,-0.0017394864,-0.004710564,-0.049117923,4773,4773,0
82699528,82699130,3670026,3670026,0.00024015123,0.001698425,0.0005193419,-0.0072496985,-0.007224245,-0.048280537,4994,4994,0
83200956,83200631,3670026,3670026,0.00073804654,0.00060476374,0.00014130429,0.0007279974,-0.0005097787,-0.05211322,4948,4948,0
83697633,83697224,3670026,3670026,7.029317e-05,-0.0008960226,-0.00026191154,0.0026048324,0.0009575054,-0.04329688,4915,4915,0
84199143,84198775,3670026,3670026,-0.00022202835,-0.0012808674,0.00058939244,0.0031491178,-0.00028807513,-0.05114978,4966,4966,0
84700696,84700329,3670026,3670026,0.0001440846,-0.0005960387,2.5016221e-05,0.0011059905,-0.0076453276,-0.0419985,4965,4965,0
85202286,85201883,3670026,3670026,4.7795398e-05,-0.0007597298,-0.00015079847,0.0054938123,-0.019925388,-0.04573986,4966,4966,0
85698849,85698507,3670026,3670026,0.0006888842,-0.002714525,-0.00041980873,-0.0038893705,-0.00691347,-0.043622978,4984,4984,0
86200520,86200138,3670026,3670026,0.0007076487,0.00019536231,-0.0007436592,-0.0027780507,0.0036171698,-0.04342683,4987,4987,0
86701971,86701586,3670026,3670026,0.0002482168,-0.0025948188,-0.0002975606,-0.0034408066,-0.0055475314,-0.045426935,4924,4924,0
87198493,87198166,3670026,3670026,0.00023227531,0.000718269,0.00019266283,-0.0032204278,0.0017814946,-0.048306283,4968,4968,0
87700091,87699716,3670026,3670026,0.00016689152,-0.0005040075,-0.0006055127,-0.0032638276,0.009542646,-0.039645668,4966,4966,0
88201644,88201270,3670026,3670026,0.0013542937,-0.0022485468,-0.00048698153,-0.0043302933,-0.0067192614,-0.047585204,4967,4967,0
88698210,88697857,3670026,3670026,0.00024462413,-0.000655532,0.0005693371,-0.0068659214,-0.0069273557,-0.05862896,4966,4966,0
89199778,89199410,3670026,3670026,7.0430004e-05,0.0026765743,-0.000488415,-0.008089647,-0.004801174,-0.04725725,4966,4966,0
89701464,89701041,3670026,3670026,0.00059733045,0.003677775,0.00013251262,-0.0049425685,-0.008978906,-0.041137695,4924,4924,0
90197921,90197551,3670026,3670026,8.840983e-05,-0.004452699,0.0003852439,-0.004496581,0.0031568874,-0.05110918,4966,4966,0
90699478,90699105,3670026,3670026,-0.0005715379,0.0041319304,0.00013214287,-0.0059840227,0.00535338,-0.05630373,4966,4966,0
91200993,91200658,3670026,3670026,3.6168076e-05,-0.0010686326,-4.0001574e-05,-0.0003499312,-0.006131307,-0.043001868,4966,4966,0
91697567,91697245,3670026,3670026,-0.0005119095,-0.00027239593,-0.00044282863,-0.0070638363,-0.0014020321,-0.049960516,4965,4965,0
92199195,92198799,3670026,3670026,0.00019093667,0.0030044017,0.00046406884,-0.0034082565,0.011573348,-0.05359754,4966,4966,0
92700699,92700352,3670026,3670026,0.0006187662,-0.003701614,0.0003641465,-0.004823525,-0.013374301,-0.0489476,4964,4964,0
93202476,93202004,3670026,3670026,0.00025264174,0.0037505652,-0.0003936163,0.0005340083,0.011867861,-0.044051856,4997,4997,0
93698868,93698493,3670026,3670026,3.699597e-05,-0.0026359644,0.0002738441,-0.0034245923,-0.0023127869,-0.04883081,4966,4966,0
94200464,94200047,3670026,3670026,0.00020222248,0.002490609,-0.00065948255,0.008090037,-0.009269472,-0.05073972,4966,4966,0
96201648,96201302,3670026,3670026,-0.00017081528,0.0009837503,-0.0007247014,0.008645096,0.0029636358,-0.048943944,4969,4969,0
99201077,99200727,3670026,3670026,-0.00060401316,0.00053683436,0.001675434,-0.005490622,0.00553809,-0.055268034,5008,5008,0
99702669,99702239,3670026,3670026,-0.0020930711,-0.00015525201,-0.00065719744,-0.010366543,-0.0118706385,-0.054743443,4966,4966,0
100199341,100198926,3670026,3670026,6.515245e-05,0.0029951364,0.00026441432,0.0028978025,0.010238474,-0.055087436,4983,4983,0
100700743,100700419,3670026,3670026,-0.00020685204,0.0021808585,0.00066122017,-0.007344239,0.002189405,-0.048861854,4983,4983,0
101197340,101197014,3670026,3670026,0.00018460842,0.0011677427,0.0006746133,0.0044559236,-0.009903879,-0.049491122,5008,5008,0
101698937,101698523,3670026,3670026,-0.001026923,0.00090558565,0.00016448261,-0.0070276647,0.0047788233,-0.043616273,4967,4967,0
102200450,102200076,3670026,3670026,0.00036005833,0.003694,-0.0004300553,-0.0054970956,-0.0044835946,-0.049725458,4967,4967,0
102701983,102701629,3670026,3670026,-0.002404962,-0.0038810591,-0.0038547092,-0.011577801,0.007863308,-0.060683705,4966,4966,0
103198572,103198221,3670026,3670026,0.002485645,0.0002693618,-0.0010273778,0.002423216,-0.013004026,-0.051245674,4970,4970,0
103700322,103699949,3670026,3670026,1.888754e-05,0.0028982675,-0.00019550047,0.0067683007,0.010781616,-0.04516852,4992,4992,0
104196775,104196366,3670026,3670026,0.0011979495,-0.00076882204,0.0012590461,-0.0034864475,0.0026561974,-0.043319393,4973,4973,0
104698304,104697913,3670026,3670026,0.00033086233,0.0016839303,0.0005635931,-0.0030938555,-0.00018470616,-0.05217871,4966,4966,0
105199835,105199466,3670026,3670026,3.8207072e-05,0.0005977599,-0.0005689352,-0.0054953615,0.006983318,-0.047432195,4965,4965,0
105701362,105701024,3670026,3670026,-0.00030077985,-0.002115404,-0.00027376311,-0.015927631,-0.008053319,-0.054713238,4970,4970,0
106197990,106197608,3670026,3670026,0.0006142047,0.0025561927,-0.0006101801,-0.006629228,-0.008010012,-0.0415017,4965,4965,0
106699504,106699161,3670026,3670026,0.0003671253,-0.0014942698,0.00019739613,-0.0085437205,-0.011807017,-0.042625424,4965,4965,0
107201230,107200847,3670026,3670026,-6.0644375e-05,0.0016998636,9.080232e-06,-0.014173661,-0.0059396503,-0.054440524,4885,4885,0
107697675,107697305,3670026,3670026,-0.0002461806,0.0008425566,0.0005107405,-0.00043467892,0.0046995007,-0.046685938,4967,4967,0
108199283,108198862,3670026,3670026,-0.000357837,0.0024053368,0.00033072103,-0.009393788,0.0014315151,-0.051170185,4970,4970,0
108700735,108700411,3670026,3670026,0.00038152112,-0.0002936488,-0.00045800404,-0.0013624886,-0.0055293585,-0.05239854,4959,4959,0
109197366,109196999,3670026,3670026,-0.0012495779,0.0020601386,-0.0010485529,-0.0095412545,-0.0017090831,-0.055517968,4964,4964,0
109698943,109698553,3670026,3670026,0.0012428028,-0.0026304729,0.00033114155,-0.0066099516,-0.019721797,-0.06352779,4966,4966,0
110200447,110200108,3670026,3670026,-0.00038984753,0.0033787831,-3.6121717e-05,-0.0045024813,0.008993161,-0.048129912,4963,4963,0
110702148,110701824,3670026,3670026,-0.0009808032,-0.0028876427,0.0007987689,-0.0033071178,-0.004052765,-0.054685213,4995,4995,0
111198656,111198332,3670026,3670026,-0.0010742544,0.0026480295,0.0003939972,0.0006207767,0.009416572,-0.043555316,4983,4983,0
111700192,111699803,3670026,3670026,0.00049511675,-0.00019040614,0.00096523477,-0.010256693,-0.001115807,-0.041593883,4966,4966,0
112196768,112196392,3670026,3670026,-1.1669161e-05,-0.0045762244,0.00036230258,-0.012000449,-0.014373025,-0.049730964,4966,4966,0
112698280,112697947,3670026,3670026,0.00090371456,-0.0002985795,-0.00038877164,-0.0074704587,-0.009817278,-0.047884613,4965,4965,0
113199860,113199499,3670026,3670026,0.00024483094,0.0038472596,-0.00030133573,0.0040776306,-0.012811429,-0.038819604,4966,4966,0
113701397,113701052,3670026,3670026,-0.00033043805,-0.0039746864,8.4994936e-05,0.00044461113,-0.0105449455,-0.049580146,4962,4962,0
114203191,114202777,3670026,3670026,0.0007426011,-0.0028726729,-3.695063e-05,-0.012924886,-0.015796319,-0.057561386,4993,4993,0
114699596,114699222,3670026,3670026,0.00021375435,-0.0011542003,0.00020162652,-0.0062406175,-0.0062863766,-0.04612036,4990,4990,0
115196153,115195825,3670026,3670026,0.00022961407,-0.0015465867,0.0001874701,-0.013332427,-0.0055909553,-0.048772868,4996,4996,0
115697707,115697337,3670026,3670026,-0.0009262224,0.0006580699,0.00055663346,-0.012483396,-0.0046718684,-0.052902848,4966,4966,0
116199268,116198892,3670026,3670026,-0.00034290768,-0.00085645175,0.00044429008,-0.012191992,0.002502288,-0.056409698,4967,4967,0
116700839,116700445,3670026,3670026,0.0010044555,0.00024462328,0.0018081943,0.002944373,-0.0011501703,-0.04690051,4966,4966,0
117202364,117202014,3670026,3670026,-0.00017352922,-0.0009250675,0.00036538643,0.0020327296,0.014363036,-0.048601065,4978,4978,0
117699164,117698754,3670026,3670026,0.00028477065,-0.002390575,4.0187642e-05,0.0014758452,-0.00063885323,-0.05368772,4991,4991,0
118195640,118195176,3670026,3670026,0.0009111121,-0.0023820528,0.0002088218,-0.0072578667,-0.01233713,-0.045013197,4965,4965,0
118697055,118696730,3670026,3670026,0.0010364677,0.0003221519,-5.94463e-05,-0.0042006127,-0.008358266,-0.047757033,4961,4961,0
119198669,119198345,3670026,3670026,-7.499772e-05,-0.0031737566,0.0007922583,-0.005794606,-0.0048158765,-0.04799455,5027,5027,0
119700162,119699838,3670026,3670026,9.744629e-07,-0.002234832,-0.00086956535,-0.015653407,0.0016506967,-0.04178864,4966,4966,0
120201836,120201392,3670026,3670026,0.0006998454,-0.004940099,0.00014784587,0.009161871,-0.010652439,-0.036423273,4966,4966,0
120698333,120697982,3670026,3670026,-0.00077182543,-0.0010651697,-3.771843e-05,-0.014420991,0.009730567,-0.05688401,4967,4967,0
121200159,121199723,3670026,3670026,-0.00054553006,-0.0027076153,-4.7999558e-05,0.009617163,-0.0059061884,-0.04106066,5003,5003,0
121696500,121696125,3670026,3670026,-0.00080325117,-0.0031853144,0.0004939047,-0.006283975,-0.00580214,-0.040346462,4968,4968,0
122198003,122197677,3670026,3670026,-1.3872244e-05,0.004583824,-0.0005796248,-0.0028262225,-0.008565877,-0.0589204,4967,4967,0
122699610,122699231,3670026,3670026,0.00054337666,-0.0042962204,-0.00034356667,0.011984512,0.0046708724,-0.037812427,4966,4966,0
123201170,123200784,3670026,3670026,-0.00023507857,0.0019406384,0.00010579989,-0.0046679066,-0.014167167,-0.051199436,4965,4965,0
123697769,123697373,3670026,3670026,0.0005254626,-0.0009186447,-0.00029708847,-0.01328241,-0.005562801,-0.054996427,4969,4969,0
124199331,124198932,3670026,3670026,0.0007976444,0.0003743895,-0.00034535938,-0.0025982019,0.0062611345,-0.037450895,4971,4971,0
124700828,124700483,3670026,3670026,1.2908319e-05,-0.003998603,-0.00034702427,-0.0067341,-0.0059428955,-0.047794852,4794,4794,0
125197444,125197078,3670026,3670026,0.0004087086,-0.0016482285,0.00025382332,0.0040499256,-0.010013413,-0.055291936,4974,4974,0
125698991,125698623,3670026,3670026,-0.00011733078,-0.002894986,-9.5649564e-05,0.004146252,-0.0021387609,-0.054746494,4965,4965,0
126200510,126200177,3670026,3670026,-0.00072040566,-0.0012927687,4.9821138e-05,-0.0035838145,0.0010183039,-0.05197174,4965,4965,0
126697090,126696766,3670026,3670026,-0.002115838,-0.0014348662,-0.0014854595,0.0032933953,0.0018087354,-0.045262013,4958,4958,0
127198727,127198321,3670026,3670026,0.0016077465,-0.0030699566,-0.0002593267,-0.00086668035,-0.0012284584,-0.05299327,4968,4968,0
127700319,127699877,3670026,3670026,0.0007651552,0.0043086885,0.002106372,-0.011778821,-0.007395864,-0.04622024,4969,4969,0
128201774,128201428,3670026,3670026,-0.00050890405,-0.0039244336,0.0015624817,-0.0035975664,0.00075396436,-0.05202387,4776,4776,0
128698363,128698038,3670026,3670026,-0.0007049307,-0.0038290385,0.0005559061,0.0012652397,-0.0050840536,-0.042816218,4981,4981,0
129199944,129199570,3670026,3670026,0.0020140682,0.0031276904,-0.00057950744,-0.002546784,-0.00032546747,-0.043083895,4965,4965,0
129696542,129696158,3670026,3670026,-0.0005793693,0.0015256525,-0.00014477022,-0.00030531758,0.010928241,-0.048802003,4960,4960,0
130198042,130197713,3670026,3670026,-6.0997925e-05,0.0034350718,-5.779978e-06,-0.0017418631,0.01245735,-0.047488723,4962,4962,0
130699715,130699316,3670026,3670026,-0.00052789494,-0.004104925,0.00015407389,0.0041556293,0.0038390579,-0.044235334,4992,4992,0
131201212,131200821,3670026,3670026,-0.00043319934,0.00076048274,6.578478e-05,0.0013559242,-0.0048196125,-0.04274654,4966,4966,0
131702741,131702390,3670026,3670026,-0.00043289652,0.00043485683,-0.0003322747,0.004292107,-0.008430906,-0.03905811,4931,4931,0
132199431,132199001,3670026,3670026,0.00045364967,-0.00039788373,-0.00027275272,0.0015862766,-0.008672923,-0.045560703,4979,4979,0
132695876,132695552,3670026,3670026,0.0007871927,-0.00019581166,0.00020757568,-0.009751686,-0.012092999,-0.048820466,4964,4964,0
133197444,133197107,3670026,3670026,9.734796e-05,-0.00028815272,-0.00017778897,0.0028740384,0.004989166,-0.039649576,4967,4967,0
133698992,133698660,3670026,3670026,-0.0002914329,-0.00018372433,-9.241222e-05,-0.0061249533,-0.008083929,-0.047944136,4966,4966,0
134200656,134200254,3670026,3670026,0.00058589916,-0.00016955625,-0.00061882567,0.010373768,0.002533436,-0.05432309,5006,5006,0
134702152,134701768,3670026,3670026,-0.00017101537,-8.715463e-05,-0.00034065143,0.0037315341,-0.0032443805,-0.041655,4966,4966,0
135198700,135198356,3670026,3670026,0.00038785406,0.00014853911,-0.0008325601,-0.011012471,-0.0016027829,-0.05455709,4966,4966,0
135700380,135699968,3670026,3670026,-6.801728e-05,-0.0036844802,-0.0003879987,0.005167644,0.0009762778,-0.043757375,4996,4996,0
136196905,136196504,3670026,3670026,-2.4119163e-05,0.0019341698,-0.00013538329,-0.008509341,-0.0074671498,-0.044984207,4971,4971,0
136698498,136698072,3670026,3670026,-0.0007895209,-0.0031120959,0.00044585412,0.007702113,-0.013161833,-0.054511257,4987,4987,0
137199978,137199607,3670026,3670026,0.0005747839,0.0029516441,-0.00012068346,0.0037445084,0.0003769593,-0.039524615,4966,4966,0
137701609,137701164,3670026,3670026,0.00023253745,-0.0009884225,-0.0003226013,-0.004067428,-0.0076328167,-0.0462219,4966,4966,0
138198096,138197749,3670026,3670026,-0.00032298724,-0.0021263966,0.00025812336,-0.0052060573,-0.008708064,-0.04899087,4966,4966,0
138699653,138699303,3670026,3670026,0.0007124763,-0.0029693486,8.3566745e-05,0.00041316493,-0.010510609,-0.044992156,4966,4966,0
139196327,139196000,3670026,3670026,0.00036601195,0.0029865631,-0.0005336114,0.0046831714,-0.003333413,-0.042697567,4994,4994,0
139697815,139697445,3670026,3670026,-0.0003145096,0.000564374,-0.00028694453,-0.005268139,0.005314371,-0.052332968,4965,4965,0
140199334,140198999,3670026,3670026,-0.00025243525,0.0020310495,-0.000381208,-0.0022142192,0.0011349361,-0.047123235,4965,4965,0
140700966,140700554,3670026,3670026,-8.021708e-05,-0.0020162214,-0.00042095818,-0.012451412,-0.011168588,-0.046874583,4966,4966,0
141197508,141197142,3670026,3670026,-0.00024051155,-0.0004368778,-0.00015767674,-0.0041558743,0.00423343,-0.039787937,4965,4965,0
141699042,141698696,3670026,3670026,0.00014855522,-0.0015618799,0.00062684616,-0.009872058,-0.020778287,-0.048259463,4966,4966,0
142200593,142200250,3670026,3670026,0.00037429042,-0.0027477045,0.0005555273,-0.0026846172,-0.0101912515,-0.052545182,4966,4966,0
142702222,142701891,3670026,3670026,0.00023526911,0.0014340832,0.0002091006,-0.016363498,-0.008636311,-0.05512329,4988,4988,0
143198716,143198392,3670026,3670026,0.00041559548,-0.0026136704,0.000560102,0.0008780122,-0.00917729,-0.043629076,4963,4963,0
143700341,143699946,3670026,3670026,0.00035892669,0.0014112744,-0.0004896226,-0.010630222,-0.0068918862,-0.049917568,4965,4965,0
144196962,144196535,3670026,3670026,-0.00043458416,-0.0014189349,0.0020405995,0.002527881,-0.0010831769,-0.06277471,4966,4966,0
144698427,144698090,3670026,3670026,0.0002699368,-0.0047191605,0.001478765,0.001235456,-0.0031233528,-0.04795395,4967,4967,0
145200030,145199644,3670026,3670026,0.0005708603,0.0047382256,0.00042655627,-0.008430922,-0.0048343325,-0.048398353,4967,4967,0
145701540,145701198,3670026,3670026,-0.0015880612,-0.00047939678,-0.005718742,-0.012527337,-0.007922807,-0.050379414,4964,4964,0
146198277,146197909,3670026,3670026,0.0020517716,-0.0031489213,-0.0007679582,0.0036469435,-0.0061229845,-0.047773965,4989,4989,0
146699716,146699341,3670026,3670026,-0.0009313507,0.0011169146,0.00065047794,-0.014275273,0.00089536404,-0.05505232,4915,4915,0
147201335,147200896,3670026,3670026,-0.00069409923,-0.0015292526,0.0005445434,-0.007692782,0.0035009016,-0.049413737,4967,4967,0
147697860,147697483,3670026,3670026,-0.00045013338,0.0037938647,0.0002291266,0.0041326866,0.006020582,-0.044450626,4967,4967,0
148199416,148199037,3670026,3670026,-0.00021426173,0.0008202834,0.0006619941,-0.0033608903,-0.0057042367,-0.054537464,4967,4967,0
148701022,148700590,3670026,3670026,0.00043027967,0.0003606289,-4.925184e-05,-0.0025428804,-0.0045216302,-0.04545357,4963,4963,0
149202493,149202144,3670026,3670026,0.00017726826,-0.0040552975,0.001368344,-0.00955921,-0.010198049,-0.05325293,4965,4965,0
149699257,149698833,3670026,3670026,-0.0016660003,0.0030758772,0.0005151256,-0.009782386,-0.016647544,-0.050677326,4989,4989,0
150200619,150200287,3670026,3670026,6.285416e-06,0.002356954,-0.00024338489,-0.0073889773,0.0028144931,-0.045113157,4966,4966,0
150697207,150696875,3670026,3670026,-0.0005871225,8.522208e-05,-6.697167e-05,-0.0024048125,-0.004900631,-0.0428004,4963,4963,0
151198851,151198434,3670026,3670026,-4.860424e-05,-0.0041626007,-0.00054082135,-0.0073835864,-0.008720955,-0.044836875,4971,4971,0
151700402,151699983,3670026,3670026,0.0002457536,0.0020406928,3.7501373e-05,-0.0048537273,-0.010629334,-0.054285146,4966,4966,0
152202009,152201537,3670026,3670026,-0.00011517479,0.0024288418,0.00019354047,-0.005553116,-0.014882762,-0.057061817,4966,4966,0
152698470,152698125,3670026,3670026,0.00019558519,0.0035171793,2.8215849e-05,-0.009417957,-0.006013459,-0.055181604,4966,4966,0
153200172,153199800,3670026,3670026,0.00048404685,-0.003273171,-0.00063124765,-0.011525684,-0.004979438,-0.049690664,4989,4989,0
153696676,153696267,3670026,3670026,-0.0020367906,0.002946263,8.709431e-06,-0.005064216,0.001503315,-0.052670717,4966,4966,0
154198163,154197836,3670026,3670026,0.0015905163,-0.00469182,0.00055369094,0.006883629,-0.0019609663,-0.058748476,4985,4985,0
154699806,154699375,3670026,3670026,-0.0006222147,-0.00082720385,-9.428896e-05,0.015962817,-0.007873151,-0.04837439,4964,4964,0
155201313,155200929,3670026,3670026,-0.0005531287,0.0031689354,0.00048050258,-0.0048096804,-0.006898407,-0.050740592,4966,4966,0
155697909,155697517,3670026,3670026,-0.0011637172,-0.0013297842,2.0442883e-05,-0.0033692452,-0.0044043628,-0.057867166,4966,4966,0
156199422,156199071,3670026,3670026,0.00027514092,0.0014208965,0.00039602342,-0.007822385,-0.0017798276,-0.04579929,4966,4966,0
156701129,156700757,3670026,3670026,-8.680099e-05,0.0016529718,-0.00040974794,0.007615351,-0.013245539,-0.045088504,4988,4988,0
157197597,157197220,3670026,3670026,0.00044304543,0.00028483602,-0.00035403646,-0.0012771653,-0.012371069,-0.04095059,4973,4973,0
157699149,157698767,3670026,3670026,-0.0009511725,0.0029692675,0.0006238872,-0.0019206124,0.0022597034,-0.053549625,4965,4965,0
158200648,158200326,3670026,3670026,0.00028527036,-0.0015944976,-0.00054135645,-0.00604836,-0.003313939,-0.04432717,4971,4971,0
158697320,158696909,3670026,3670026,0.0006159774,0.0027225746,-0.00025758776,-0.007087048,-0.012174293,-0.050759763,4966,4966,0
159198868,159198471,3670026,3670026,0.000853778,-0.0005847375,-0.00058972515,-0.006147249,-0.006599418,-0.050231434,4960,4960,0
159700365,159700018,3670026,3670026,-0.0008128866,0.0029951867,0.0003504012,-0.008591061,-0.008889053,-0.057182558,4967,4967,0
160197068,160196742,3670026,3670026,-0.000705257,-0.00044660573,0.0005168773,-0.0015594183,0.0027275132,-0.058372587,4998,4998,0
160698535,160698160,3670026,3670026,-0.0005553577,-0.0033496846,-7.709685e-05,-0.0036777074,-0.009370055,-0.045027222,4961,4961,0
161200144,161199713,3670026,3670026,-0.00011967172,0.003781013,-0.00080146536,-0.0039296267,-0.0012967072,-0.044814475,4966,4966,0
161701596,161701267,3670026,3670026,0.0006088262,0.0004661263,-0.00045546237,-0.0068416554,-0.0024991096,-0.040836345,4966,4966,0
162198192,162197866,3670026,3670026,5.3726264e-05,0.001968137,-0.0008362611,0.005454422,-0.0018950169,-0.043077923,4974,4974,0
162699794,162699408,3670026,3670026,-0.0006090774,-0.0027970783,0.0003183852,-0.011918922,-0.0027493832,-0.053821363,4966,4966,0
163201318,163200962,3670026,3670026,0.0014587025,-0.0013860395,0.00018656197,-0.014191176,-0.008327549,-0.06586412,4965,4965,0
163698110,163697696,3670026,3670026,0.0012220949,-0.002180875,-0.0005184694,-0.005544965,-0.0027609535,-0.041392606,4984,4984,0
164199459,164199137,3670026,3670026,-0.00017216276,-0.002022485,0.00045454694,-0.009572509,-0.018903421,-0.0469198,4990,4990,0
164701027,164700698,3670026,3670026,0.000703694,-0.00024438047,-0.00046218626,-0.004633067,-0.009072529,-0.050682332,5006,5006,0
165197614,165197245,3670026,3670026,-0.0013464185,-0.0019657647,0.0005639666,-0.001475707,0.0018480406,-0.055295646,4966,4966,0
165699124,165698800,3670026,3670026,-0.00017037413,-0.0026932417,0.0007464431,-0.014775929,-0.0008183794,-0.049882103,4967,4967,0
166200674,166200353,3670026,3670026,-0.0009728923,0.0007503442,0.00036096014,0.0003186259,0.0020614946,-0.053204246,4964,4964,0
166702254,166701908,3670026,3670026,0.00039907306,0.0015798226,-0.00039651166,0.003542653,0.000587876,-0.04360467,4966,4966,0
167199037,167198661,3670026,3670026,-0.000584942,-0.00327581,7.935242e-05,-0.0012787222,-0.0039118035,-0.053704076,4989,4989,0
167700470,167700141,3670026,3670026,0.00060865365,0.0013180076,-0.00071117596,-0.011653323,-0.004606973,-0.04812667,4990,4990,0
168197001,168196676,3670026,3670026,0.000330874,0.0007158937,-0.000512446,-0.0076196967,-0.0061114915,-0.04690927,4952,4952,0
168698571,168698195,3670026,3670026,0.001307832,-0.0014544916,-0.0003181118,-7.051611e-05,-0.004483089,-0.05268303,4972,4972,0
169200122,169199743,3670026,3670026,0.00023630893,-0.0030422248,-5.7318648e-05,0.009035329,-0.00036018147,-0.045117896,4965,4965,0
169701626,169701297,3670026,3670026,-7.366642e-05,0.0042438796,-0.00067324383,0.009870888,-0.005640186,-0.04318008,4966,4966,0
170203303,170202851,3670026,3670026,0.0002634678,-0.00084115297,0.0004134022,-0.006049276,0.0010940752,-0.048288893,4915,4915,0
170700049,170699627,3670026,3670026,0.00029019057,0.0024922204,0.0004317861,4.7846617e-05,0.0046559437,-0.048505563,4990,4990,0
171196446,171196028,3670026,3670026,-4.3694523e-05,0.0043112473,0.0006288467,-0.0058300504,-0.008083173,-0.053471953,4968,4968,0
171698021,171697581,3670026,3670026,-0.0008369755,-0.0035619193,0.0011701611,-0.00045993677,-0.0061040246,-0.05183402,4968,4968,0
172199458,172199133,3670026,3670026,2.7762104e-07,0.00021267039,-0.00069730805,-0.0004632799,-0.0040511843,-0.047384653,4966,4966,0
172701079,172700686,3670026,3670026,0.00030329148,-0.0010051262,-0.0067425105,0.0103059895,-0.010028867,-0.042526234,4966,4966,0
173202651,173202240,3670026,3670026,-9.0377995e-05,0.00010986054,-0.010737119,0.00023855215,-0.0063064992,-0.04654556,4966,4966,0
173699170,173698827,3670026,3670026,-0.0001250925,-0.00014200242,-0.010209699,-0.0007635602,-0.0041876147,-0.05022202,4966,4966,0
174196004,174195594,3670026,3670026,0.00011642882,0.000892607,-0.0027010853,-0.007774726,-0.007944394,-0.058315773,4986,4986,0
174697404,174697035,3670026,3670026,-0.00022570622,-0.0004530118,-0.003338676,0.004022481,0.0046159537,-0.04383699,4985,4985,0
175198905,175198522,3670026,3670026,0.00011634703,-0.00036556856,0.0022157226,-0.006748717,-0.004660951,-0.05594254,4965,4965,0
175700400,175700075,3670026,3670026,-0.0005757601,1.8570114e-05,0.0004208495,0.0016299551,-0.0012722245,-0.045569673,4966,4966,0
176201962,176201628,3670026,3670026,-0.0005431157,0.00053984486,0.002500355,0.0040382473,-0.0035655699,-0.046809833,4966,4966,0
176698534,176698216,3670026,3670026,0.00015656187,0.0026338436,0.00047613008,0.0015383593,-0.0065413336,-0.049437117,4966,4966,0
177200159,177199769,3670026,3670026,-0.0002773299,0.00032925588,6.112495e-05,-3.1302356e-05,-0.0049986634,-0.048945475,4966,4966,0
177701699,177701360,3670026,3670026,-0.00035708747,-0.00047264862,-0.0006320453,0.008646814,0.011868009,-0.043658536,4975,4975,0
178198311,178197935,3670026,3670026,-1.8864877e-05,-0.0006574927,-0.00051913684,-0.0058635627,-0.004009287,-0.052903637,4986,4986,0
178699879,178699463,3670026,3670026,0.00039312284,0.00030898716,-0.0031985114,-0.005218363,0.007081388,-0.053212445,4966,4966,0
179201410,179201016,3670026,3670026,0.0007017512,-0.004011201,3.2396212e-05,0.004316004,-0.003074582,-0.054877747,4966,4966,0
179697994,179697604,3670026,3670026,0.00033702518,0.003072354,-0.00015535908,0.00082363735,-0.004795997,-0.04371798,4966,4966,0
180199492,180199158,3670026,3670026,-0.00015966696,-0.00065907254,0.0029809591,-0.0033666259,0.00017704365,-0.05945954,4962,4962,0
180701057,180700710,3670026,3670026,-0.0008265403,0.00041996784,0.0047352314,0.0037970617,-0.0025207584,-0.05706933,4965,4965,0
181197648,181197299,3670026,3670026,0.0003033246,0.00044116145,0.0010077944,-0.0038417967,0.004579944,-0.053302143,4769,4769,0
181699275,181698944,3670026,3670026,0.00040030124,0.00025010665,-0.0040338244,0.004899664,-0.008590328,-0.050075825,5020,5020,0
182200774,182200405,3670026,3670026,0.00021592378,0.00056426204,-0.004354484,-0.0018100707,0.013503219,-0.048175998,4966,4966,0
182697317,182696991,3670026,3670026,0.0004883125,-0.0006794044,-0.002287074,0.0003377941,-0.0022552859,-0.0444317,4965,4965,0
183198938,183198545,3670026,3670026,0.0011765503,-0.003950942,-0.00079289026,0.004568814,0.0024351599,-0.049058527,4967,4967,0
183700427,183700098,3670026,3670026,-0.00018780264,-8.074222e-05,0.00022595146,0.008333932,7.636977e-05,-0.047777295,4965,4965,0
184202007,184201651,3670026,3670026,0.0010621025,-0.0042684465,0.00045708384,0.0041171913,-0.008702603,-0.043333396,4966,4966,0
184698580,184698238,3670026,3670026,0.0015908044,0.00399323,-0.00043778314,0.0027254156,0.003261326,-0.046986803,4965,4965,0
185200310,185199863,3670026,3670026,7.6572855e-05,0.00021424293,0.00012333356,-0.00382887,-0.00024165386,-0.04546476,5000,5000,0
185696702,185696379,3670026,3670026,-0.00019501298,0.0011117636,-0.00058366614,0.0026827392,0.0043325154,-0.0436045,4965,4965,0
186198267,186197935,3670026,3670026,-6.311784e-05,0.0007384147,-0.00044408755,0.0012471445,-0.008515718,-0.049727824,4969,4969,0
186699807,186699485,3670026,3670026,0.00024222804,7.2879134e-06,-0.00013957039,-0.00340568,0.00769593,-0.042264443,4966,4966,0
187201365,187201038,3670026,3670026,0.00021426847,0.0001137635,8.9714325e-05,-0.0043238187,-0.0056013525,-0.045355063,4958,4958,0
187702954,187702592,3670026,3670026,-0.0008832599,0.00077898684,0.00021546573,0.00047268707,0.0010446948,-0.052538443,4967,4967,0
188199527,188199178,3670026,3670026,0.00060457666,-8.18603e-05,0.00011097723,-0.009247058,-0.0050144666,-0.045455284,4966,4966,0
188696255,188695877,3670026,3670026,0.0026861613,-0.0002892407,0.00085649575,0.0024902967,0.0002756916,-0.044421505,4983,4983,0
189197788,189197363,3670026,3670026,-0.00033705996,-7.686513e-05,-0.000175893,-0.00476348,-0.00721906,-0.05306607,5011,5011,0
189699253,189698871,3670026,3670026,0.00046705914,0.0004684382,0.00049399433,-0.00043370805,7.3258554e-05,-0.04475903,4964,4964,0
190200793,190200424,3670026,3670026,-5.7933066e-06,0.00014012068,0.0007914243,-0.0002480674,-0.006473895,-0.05444222,4964,4964,0
190702402,190701977,3670026,3670026,-0.0004030534,-0.0016206646,0.0006893357,0.0017130361,-0.0077181556,-0.051437825,4966,4966,0
191198962,191198564,3670026,3670026,0.00024138318,-0.0002784414,-0.0007550695,0.0061526676,-0.015885428,-0.04604254,4965,4965,0
191700463,191700117,3670026,3670026,-0.0002725373,0.000706595,0.00095553766,-0.004866493,-0.010820797,-0.054117072,4965,4965,0
192197174,192196831,3670026,3670026,-0.0005291687,2.0179465e-05,0.0010449043,0.0031757231,0.006536291,-0.04720409,4984,4984,0
192698594,192698270,3670026,3670026,5.864228e-05,-0.00037834074,-0.0002623504,0.0035040877,-0.00044789937,-0.042700674,4976,4976,0
193200142,193199810,3670026,3670026,0.00014065324,0.0025045692,-0.002420125,-0.0042178715,0.0009239272,-0.048130613,4966,4966,0
193701778,193701364,3670026,3670026,0.0017900288,-0.00013817764,-0.0014923796,0.0053334334,0.0006206199,-0.042818323,4964,4964,0
194198366,194197950,3670026,3670026,0.00047541643,-6.391768e-05,-0.0009954661,0.0030476188,0.0031668986,-0.04164009,4966,4966,0
194699855,194699503,3670026,3670026,0.0011653405,-0.0007140469,0.0042596934,-0.0047394955,-0.004210085,-0.052733034,4966,4966,0
195196444,195196090,3670026,3670026,-0.0011923041,0.0023819257,0.00037046376,0.001078932,0.007155659,-0.040314827,4966,4966,0
195698118,195697795,3670026,3670026,0.0005377287,0.0005563956,3.571507e-05,-0.008857089,-0.008502244,-0.05504079,5001,5001,0
196199589,196199215,3670026,3670026,-0.00041094335,2.2369675e-05,0.00052115467,-0.0068087014,-0.00057348434,-0.049931247,4933,4933,0
196701133,196700748,3670026,3670026,-0.00018612952,-0.0020638076,-6.51631e-05,0.004794095,-0.001852476,-0.039834175,4965,4965,0
197197702,197197336,3670026,3670026,-5.2509597e-05,0.0022480402,-0.00034840766,-0.0024694463,-0.01061956,-0.05017609,4966,4966,0
197699225,197698890,3670026,3670026,0.0006391178,0.0014002329,0.0003998503,-0.007124531,-0.005841459,-0.051435385,4968,4968,0
198195824,198195476,3670026,3670026,4.3235206e-05,-0.0026501513,0.00077828026,-0.0016616684,0.00021476856,-0.049403656,4967,4967,0
198697371,198697029,3670026,3670026,-0.00019232943,0.0018570594,-0.000319891,-0.0033174881,-0.00082163955,-0.04590915,4965,4965,0
199199113,199198745,3670026,3670026,-0.00039962746,-0.0040747668,0.0005800449,-0.0067534507,0.010309483,-0.052031457,4989,4989,0
199700550,199700135,3670026,3670026,0.0012570783,-0.0032419548,-0.00068092084,0.00035510075,0.007913635,-0.04237919,4967,4967,0
200197090,200196721,3670026,3670026,-0.00028876352,0.004585799,0.00015785286,-0.005871001,0.0032251256,-0.05542579,4966,4966,0
200698723,200698274,3670026,3670026,-0.0008053978,0.0020931377,0.0007275041,0.0056292084,-0.0006700772,-0.047562983,4967,4967,0
201200149,201199826,3670026,3670026,-0.0006664593,-0.0040841326,1.0229445e-06,0.0022083174,0.00146845,-0.045008194,4966,4966,0
201701736,201701379,3670026,3670026,-0.0005498658,0.0017680392,-6.634259e-06,0.0008372762,0.0047973255,-0.056422297,4966,4966,0
202198320,202197967,3670026,3670026,0.00021798827,0.0047162203,-0.00054004905,0.00095525273,-0.0065335217,-0.04279892,4966,4966,0
202700017,202699648,3670026,3670026,0.0010748863,-0.00023305358,-0.0061397976,0.019189341,-0.0050939834,-0.049699962,4989,4989,0
203196439,203196106,3670026,3670026,0.00014936998,-0.004238687,-0.0015660498,0.0005178605,-0.002486313,-0.050009668,4967,4967,0
203697992,203697658,3670026,3670026,0.0013901801,-0.0012907189,-0.0008767988,-0.0026849522,-0.002083235,-0.043352537,4965,4965,0
204199588,204199212,3670026,3670026,-0.00038013494,0.004889359,0.00092890783,-0.0047991937,-0.005331307,-0.056415744,4966,4966,0
204701142,204700765,3670026,3670026,0.0012083013,-0.003661137,0.00033145957,-0.0036434545,0.0029046198,-0.046851538,4967,4967,0
205202699,205202343,3670026,3670026,-0.00055717817,0.0015433115,0.00058203854,-0.005198788,-0.0075001665,-0.047124032,4990,4990,0
205699350,205698952,3670026,3670026,0.0009856536,0.0022798914,0.0036129917,0.0115666045,-0.0015725585,-0.049083687,5014,5014,0
206195983,206195610,3670026,3670026,0.00021810502,-0.002475059,0.0030735848,0.0032202473,0.004922186,-0.048499543,4984,4984,0
206697470,206697043,3670026,3670026,-0.0009634581,0.004470722,0.00016337087,0.008704111,0.004821703,-0.046981927,4966,4966,0
207198924,207198595,3670026,3670026,-0.002650076,-0.0043278113,-0.0022275688,0.003526185,-0.0080289375,-0.04561975,4965,4965,0
207700539,207700148,3670026,3670026,0.000933125,0.00030434306,-0.0013605058,-9.138112e-05,0.0034729906,-0.044211015,4966,4966,0
208202029,208201703,3670026,3670026,-0.00036218663,0.003311676,0.0004447611,-0.005746622,0.00087305804,-0.050752196,4968,4968,0
208698648,208698287,3670026,3670026,-0.0013150929,0.0034196754,0.00080512033,-0.0029752902,-0.0006688575,-0.051523454,4966,4966,0
209200253,209199891,3670026,3670026,0.00026043798,-0.00016598807,-5.623183e-05,-0.0021379713,0.002215098,-0.04189808,4979,4979,0
209696945,209696565,3670026,3670026,-0.00087294274,-0.0032495146,0.0007509331,0.0044347597,-0.007130284,-0.05542837,4985,4985,0
210198397,210197981,3670026,3670026,-0.00038536216,-0.0005710128,-0.0005308922,0.010223661,-0.0025584882,-0.042207282,4965,4965,0
210699902,210699532,3670026,3670026,0.00036644525,0.0034874307,-0.00077958644,0.00092242076,-0.0011178874,-0.03916996,4965,4965,0
211201458,211201087,3670026,3670026,-0.00028431896,0.0010987585,0.0004329383,-0.0029663164,0.00637408,-0.05210914,4967,4967,0
211697998,211697672,3670026,3670026,0.00064888,0.0013445346,-0.00048346387,0.008044187,-0.001405095,-0.04636371,4966,4966,0
212199586,212199224,3670026,3670026,-0.00044611475,0.0024985743,-0.0002623773,-0.0038157138,0.0017370633,-0.054089203,4966,4966,0
212696179,212695816,3670026,3670026,-0.0006246126,0.002224133,-0.0029866213,0.00048109697,0.0021558814,-0.047583465,4971,4971,0
213197984,213197524,3670026,3670026,0.0007955426,-0.002732219,-0.0006761184,-0.0148845585,-0.0047387113,-0.05696158,4944,4944,0
213699310,213698918,3670026,3670026,-7.261004e-06,0.0040643415,6.818259e-05,0.0016745904,0.003832958,-0.051570244,4966,4966,0
214200793,214200470,3670026,3670026,0.0004779659,-0.0035950665,-8.390795e-05,-0.010695819,-0.013164245,-0.055079117,4967,4967,0
214697380,214697052,3670026,3670026,0.002578934,0.0024331696,0.0032792178,-0.0029840395,-0.0064143604,-0.048982162,4962,4962,0
215199036,215198608,3670026,3670026,-0.0016468029,-0.0016015479,0.0012733093,-0.005633283,0.0055080946,-0.050887696,4921,4921,0
215700568,215700161,3670026,3670026,-0.00067946187,0.000133289,0.0004699182,-0.0101349335,-0.00883134,-0.0562335,4963,4963,0
216197087,216196746,3670026,3670026,0.000582031,0.0017797832,-0.0010715135,-0.00038458183,-0.0058311643,-0.045872666,4964,4964,0
216698852,216698482,3670026,3670026,-0.00026495947,0.0005582291,0.00030877272,-0.005882222,0.0022100792,-0.04803939,4977,4977,0
217200276,217199860,3670026,3670026,4.5521097e-05,0.0016418543,0.0002041846,-0.00669592,0.004407627,-0.055552986,4974,4974,0
217696811,217696439,3670026,3670026,0.00036230765,-0.00054439413,-0.00070548337,0.003697126,-0.007907905,-0.04444527,4966,4966,0
218198428,218198044,3670026,3670026,0.00027483134,-0.0023597996,-0.0007067933,-0.002155775,0.0017094684,-0.044717357,5018,5018,0
218699913,218699543,3670026,3670026,0.0001787367,-0.0032872471,-0.00023946934,-0.008043342,-0.0030013374,-0.050067417,4965,4965,0
219201512,219201100,3670026,3670026,0.00018382829,0.00011757571,-0.00019227293,0.0104898,-0.007754374,-0.039575256,4969,4969,0
219702998,219702648,3670026,3670026,0.00059502164,-0.00016246803,0.00020441403,-0.005767655,-0.004199329,-0.041560806,4965,4965,0
220199579,220199238,3670026,3670026,-0.001840108,0.0009942806,-0.0024992034,0.0017384595,-0.011944162,-0.043483105,4798,4798,0
220696204,220695868,3670026,3670026,0.0022593234,-0.0043843784,-0.0006288002,-0.007970318,-0.00541433,-0.046558917,4977,4977,0
221197745,221197375,3670026,3670026,0.00034917062,0.0030211587,0.0014522668,-0.0054282844,0.0019843408,-0.052229885,4967,4967,0
221699267,221698927,3670026,3670026,-0.00028244246,0.0017784804,0.0006386997,-0.010490012,-0.0029101304,-0.054010317,4966,4966,0
222200800,222200479,3670026,3670026,0.0003057032,0.002579888,-0.0006063416,-0.004964183,-0.011729364,-0.049255453,4966,4966,0
222702356,222702033,3670026,3670026,-5.150305e-05,-0.003865276,-0.00011305969,-0.00042857722,-0.008573959,-0.037527636,4967,4967,0
223198962,223198618,3670026,3670026,0.00042693017,-0.0023592282,-0.000170666,0.00090418104,-0.0057384395,-0.04667214,4966,4966,0
223700533,223700172,3670026,3670026,0.0006410136,0.0029451663,0.0007551816,-0.016792186,-0.0013742008,-0.0573057,4772,4772,0
224197243,224196823,3670026,3670026,0.00030610536,0.0007684146,0.00028926844,0.0047696466,-0.0011810886,-0.05409893,4981,4981,0
224698746,224698368,3670026,3670026,-0.00086210325,-0.0026518484,0.00022915246,-0.0017145439,0.00204722,-0.048277516,4987,4987,0
225200242,225199862,3670026,3670026,0.0013189012,0.00046404524,0.000659911,-0.0066383993,-0.009078793,-0.05666111,4963,4963,0
225701784,225701413,3670026,3670026,0.00048954965,0.0038134267,-3.864094e-05,-0.01069309,-0.0042811185,-0.04840131,4918,4918,0
226198454,226198009,3670026,3670026,-0.00012008968,-0.0031968362,0.00016920341,-0.006719513,0.006003178,-0.05085246,4974,4974,0
226699912,226699554,3670026,3670026,0.00025602832,0.0032414182,0.00029340645,-0.008001249,-0.004502454,-0.05591922,4966,4966,0
227196484,227196140,3670026,3670026,-0.0006512693,-0.0034305283,0.00052898854,-0.0036204418,0.0049085016,-0.051804256,4782,4782,0
227698052,227697723,3670026,3670026,-0.00072690495,-0.002517997,0.00013665491,0.00075370714,0.0040520458,-0.04290426,4974,4974,0
228199680,228199249,3670026,3670026,0.0001898501,0.0013665904,0.0001139214,-0.01154218,-0.008134457,-0.04185338,4970,4970,0
228701214,228700838,3670026,3670026,-0.00026363664,-0.002275384,-7.338824e-05,-0.0005467663,-0.0048825536,-0.041388083,4992,4992,0
229202730,229202350,3670026,3670026,2.0107038e-05,-0.0045029223,0.00018267697,-0.0064994628,0.00083502696,-0.056312617,4966,4966,0
229699318,229698936,3670026,3670026,0.0002828504,0.0010959799,-0.00022240978,-0.008863253,-0.009169698,-0.047393452,4966,4966,0
230195889,230195548,3670026,3670026,-0.0005009092,-0.0026650778,0.0007549495,-0.018312834,-0.01576347,-0.06123331,4991,4991,0
230697421,230697075,3670026,3670026,0.0009516029,-0.0034754751,0.00020873111,-0.0040061157,-0.0019514736,-0.04629965,4963,4963,0
231199003,231198679,3670026,3670026,0.0005037458,-0.0005902518,-0.00057786854,0.0066164997,0.001436609,-0.04177127,4984,4984,0
231700507,231700180,3670026,3670026,-9.2770744e-05,0.004846775,-0.0016765244,-0.020795364,-0.004504522,-0.063607424,4965,4965,0
232202063,232201732,3670026,3670026,-0.00072569033,-0.0023745697,-1.2798913e-05,0.0052170223,-0.0018782621,-0.049756948,4965,4965,0
232698685,232698319,3670026,3670026,0.00014980337,-0.0027855255,0.00026401345,-0.009054389,-0.008859982,-0.06938458,4966,4966,0
233200323,233199871,3670026,3670026,-0.0005519133,0.0043973117,-6.564196e-05,-0.007711607,-0.004850911,-0.058467153,4965,4965,0
233696815,233696460,3670026,3670026,9.162146e-05,-0.0017378705,-0.0005161417,0.00023759715,-0.00073492725,-0.049437016,4968,4968,0
234198368,234198015,3670026,3670026,-0.0012597005,-0.0001663252,0.0003164675,-0.004991369,-0.0036548662,-0.059866186,4969,4969,0
234700017,234699632,3670026,3670026,0.00021081271,0.0033653984,-0.0010524801,0.011245872,-0.0032687434,-0.040407456,4990,4990,0
235201534,235201158,3670026,3670026,0.00026874337,-0.001520552,0.00055728364,0.003059042,-0.014858524,-0.059380256,5007,5007,0
235698114,235697701,3670026,3670026,-0.00015176849,-0.002222444,0.00039038502,-0.0048491047,-0.004740468,-0.054863725,4966,4966,0
236199632,236199254,3670026,3670026,-0.00029628095,0.004209655,0.0008298896,-0.00843133,-0.00031445175,-0.05132177,4967,4967,0
236701258,236700806,3670026,3670026,0.0005002641,-0.0034908308,0.0005800135,-0.0006987498,0.0023138423,-0.041455526,4966,4966,0
237197783,237197392,3670026,3670026,0.00087467337,0.0032890192,0.00013231533,-0.0016503664,-0.006076117,-0.04536891,4966,4966,0
237699299,237698944,3670026,3670026,-0.001248062,-0.0010369163,-0.00036235107,0.0005562412,0.005991985,-0.03945404,4966,4966,0
238201010,238200586,3670026,3670026,0.00011018347,-0.0034843753,0.00034790367,-0.010978693,0.0050833155,-0.046886418,4982,4982,0
238697408,238697083,3670026,3670026,0.00085391005,0.0010543701,-0.00033405816,-0.0043768473,-0.00628893,-0.043531116,4968,4968,0
239198962,239198636,3670026,3670026,-0.0008002469,0.0038793776,-0.00028459704,-0.002486857,-0.010314074,-0.053962465,4967,4967,0
239700574,239700245,3670026,3670026,0.00022354082,-0.0046557463,2.9065367e-07,-0.0030100602,-0.0027247418,-0.03706763,5023,5023,0
240202121,240201752,3670026,3670026,-0.00038265376,0.0007539921,0.0002340683,0.010320722,0.008552299,-0.052666157,4978,4978,0
243201464,243201124,3670026,3670026,-0.00071642234,-0.0022777098,0.00023311318,0.006892143,0.0037179384,-0.048074555,4967,4967,0
243703015,243702675,3670026,3670026,0.00022819416,-0.0035890338,-0.0006113392,0.0015098987,-0.0122498805,-0.04638997,4967,4967,0
249200264,249199879,3670026,3670026,-0.0005062767,-0.00088942505,0.0005851565,9.2696544e-05,-0.0016846464,-0.04564666,4960,4960,0
249701813,249701436,3670026,3670026,0.0013661241,0.0025984298,-0.00032789703,0.0013646692,-0.0053940658,-0.041949786,4965,4965,0
250198437,250198069,3670026,3670026,0.00020715673,0.0018873271,-0.0006504002,-0.0013923619,-0.003965843,-0.05068225,4982,4982,0
250700008,250699575,3670026,3670026,0.0003022164,-0.00023274103,3.531302e-05,-0.007586648,0.0052362266,-0.058650807,4966,4966,0
251196556,251196161,3670026,3670026,-0.0003101228,0.0046707406,0.0008329835,0.0002618682,-0.0027431243,-0.05023229,4962,4962,0
251698063,251697715,3670026,3670026,-0.0012276883,0.0001846414,-5.3224987e-05,0.0037139165,0.009080121,-0.049165845,4968,4968,0
252199808,252199402,3670026,3670026,-0.00021785365,0.0031047508,9.271998e-05,-0.0012714423,0.008056813,-0.04693739,4939,4939,0
252701267,252700818,3670026,3670026,-0.00048286366,-0.0043693967,-0.00085790886,-0.0031531113,-0.007800546,-0.045611378,4965,4965,0
253197813,253197404,3670026,3670026,0.00066888396,0.0035294963,-0.00033397568,0.00363882,-0.0018863194,-0.050044354,4965,4965,0
253699296,253698964,3670026,3670026,-0.00105957,0.00037150242,-0.0006408233,0.00059289567,-0.0039091674,-0.04580204,4941,4941,0
254200902,254200509,3670026,3670026,0.00048435674,-0.00025766128,5.9726375e-05,-0.0014563419,-0.00063137896,-0.0533111,4966,4966,0
254697449,254697095,3670026,3670026,-0.0009725559,-0.0023356779,0.0005805364,-0.00033897534,-0.013903528,-0.04833413,4966,4966,0
255198991,255198648,3670026,3670026,-0.00022139709,-5.3722066e-05,2.3287004e-05,0.0004959663,-0.00023402635,-0.05635928,4967,4967,0
255700718,255700348,3670026,3670026,-0.00018842812,-0.002082397,0.0008904424,-0.0071790637,-0.013103888,-0.05501326,4984,4984,0
256197118,256196792,3670026,3670026,0.00024749947,0.0035685035,0.00028498887,-0.005076587,-0.00037888068,-0.050906207,4973,4973,0
256698661,256698337,3670026,3670026,-0.0008426272,-0.0029544435,0.0005645344,-0.002166301,-0.008866792,-0.04510836,4963,4963,0
257200225,257199890,3670026,3670026,0.00040429423,-0.0023475436,0.00026156637,-0.003363104,-0.0013517208,-0.054646574,4966,4966,0
257701763,257701443,3670026,3670026,-0.00015414383,0.0024885454,-7.47145e-05,-0.0063762306,-0.007913577,-0.049108163,4963,4963,0
258198464,258198036,3670026,3670026,-0.0002708523,0.0017246896,-0.0001483779,-0.0018355222,0.0042039836,-0.05618908,4974,4974,0
258699926,258699580,3670026,3670026,-0.0009959248,-0.0018161593,0.00024432017,-0.0003111091,0.0034135496,-0.049877174,4966,4966,0
259196722,259196310,3670026,3670026,0.0009427385,0.0012835935,-0.0006410184,-0.0042904047,-0.0035770359,-0.04946609,4989,4989,0
259698129,259697751,3670026,3670026,-9.153115e-06,0.0008944614,0.00016739366,-0.003912982,-0.0010080296,-0.062355805,4967,4967,0
260199647,260199322,3670026,3670026,-0.0014057088,-0.0034515199,0.0005593151,-0.0086162845,0.0049543455,-0.052881952,5017,5017,0
