timestamp,x,y,z,yaw,yawspeed,vx,vy,vz,acceleration[0],acceleration[1],acceleration[2],jerk[0],jerk[1],jerk[2],thrust[0],thrust[1],thrust[2]
44144130,-0.55480796,0.07527057,-1.7595469,-1.6129558,0.7853982,-0.33532554,0.09444125,-0.2128478,-3.1006337e-05,8.717179e-06,-0.00045478344,0.0,0.0,0.0,-0.0,-0.0,-0.51002365
44163992,-0.5612094,0.07707013,-1.7636085,-1.6129558,0.0,-0.3373247,0.09439624,-0.21290791,-0.07303167,-0.065347895,0.028698806,0.0,0.0,0.0,-0.0037899676,-0.0033912193,-0.5085075
44233597,-0.5841114,0.08324582,-1.7779768,-1.6129558,0.0,-0.33356595,0.084747076,-0.20191056,0.29420835,-0.24589984,0.3351822,0.0,0.0,0.0,0.014777031,-0.012350668,-0.49256867
44332830,-0.6132921,0.0905093,-1.795275,-1.6129558,0.0,-0.29085812,0.06772509,-0.16470304,0.31432897,-0.16574776,0.26671225,0.0,0.0,0.0,0.015902476,-0.008385481,-0.49612948
44432148,-0.6349712,0.09591386,-1.8077691,-1.6129558,0.0,-0.20082012,0.045456816,-0.13420868,1.025203,-0.28296483,-0.015903592,0.0,0.0,0.0,0.0534027,-0.014739605,-0.51082706
44531468,-0.646269,0.09953049,-1.8156,-1.6129558,0.0,-0.07728223,0.020359643,-0.10732934,1.0918889,-0.300304,-0.34689522,0.0,0.0,0.0,0.05879286,-0.016169898,-0.52804047
44630781,-0.6480135,0.10125542,-1.8185134,-1.6129558,0.0,0.03787061,-0.007909166,-0.08478069,1.0978669,-0.33754557,-0.5513726,0.0,0.0,0.0,0.060305297,-0.018541215,-0.5386744
44730098,-0.6439807,0.10105489,-1.8165989,-1.6129558,0.0,0.11923593,-0.036780987,-0.06898736,0.7516522,-0.31997693,-1.0305113,0.0,0.0,0.0,0.043197468,-0.018389082,-0.56359226
44849278,-0.63687575,0.09895982,-1.8114518,-1.6129558,0.0,0.17069738,-0.06367672,-0.10117588,0.59309345,-0.16567177,-1.6417865,0.0,0.0,0.0,0.036007706,-0.010058213,-0.595382
44928732,-0.6325578,0.097680435,-1.8086045,-1.6129558,0.0,0.19395621,-0.07199171,-0.13071784,0.6555362,-0.18609542,-1.485345,0.0,0.0,0.0,0.039254937,-0.011143802,-0.5872461
45048011,nan,nan,nan,-1.6033217,0.0,0.059639,-0.017894464,-0.154016,0.75716364,-0.18151495,-1.6750597,0.0,0.0,0.0,0.04610262,-0.0110521875,-0.59711236
45132333,nan,nan,nan,-1.6033217,0.0,0.11470597,-0.02410718,-0.15188792,1.4770564,-0.14170337,-0.81062067,0.0,0.0,0.0,0.0831644,-0.007978488,-0.55215675
45231649,nan,nan,nan,-1.6033217,0.0,0.25213224,-0.03139221,-0.07661408,2.4133558,-0.22391321,0.26865673,0.0,0.0,0.0,0.12206935,-0.011325697,-0.49602836
45331128,nan,nan,nan,-1.6033217,0.0,0.47097477,-0.038756225,-0.0041338173,3.3611307,-0.18623576,-0.37954915,0.0,0.0,0.0,0.18156254,-0.010060139,-0.52973866
45430283,nan,nan,nan,-1.6033217,0.0,0.7609521,-0.0448008,-0.006250534,3.9788632,-0.118211925,-1.2291067,0.0,0.0,0.0,0.23285736,-0.0069181863,-0.5739203
45549464,nan,nan,-1.5301734,-1.6033217,0.0,1.0701506,-0.041408584,-0.005372415,3.147838,-0.055800594,-0.6519573,0.0,0.0,0.0,0.1745883,-0.003094864,-0.5439054
45628936,nan,nan,-1.5301794,-1.6033217,0.0,1.2105447,-0.038384706,-0.022271514,2.3591452,-0.08208632,-0.8461649,0.0,0.0,0.0,0.13327487,-0.0046372907,-0.55400527
45748098,nan,nan,-1.5301794,-1.6033217,0.0,1.3283465,-0.033816017,-0.04453981,1.316896,-0.10335314,-0.8667628,0.0,0.0,0.0,0.07453901,-0.00585,-0.5550764
45847577,nan,nan,-1.5301794,-1.6033217,0.0,1.3397398,-0.02999933,-0.059000254,0.46741426,-0.06983061,-0.9400031,0.0,0.0,0.0,0.026637886,-0.0039796387,-0.55888534
45931835,nan,nan,-1.5301794,-1.6033217,0.0,1.287669,-0.026776273,-0.06857586,-0.22971618,-0.10469708,-0.9569947,0.0,0.0,0.0,-0.013113186,-0.005976559,-0.559769
46031151,nan,nan,-1.5301794,-1.6033217,0.0,1.1529044,-0.02295851,-0.08186698,-1.0264106,-0.053966686,-0.97603,0.0,0.0,0.0,-0.058691535,-0.0030858873,-0.56075895
46130594,nan,nan,-1.5301794,-1.6033217,0.0,0.93916845,-0.019145085,-0.092505336,-1.9177456,-0.06955985,-0.99326867,0.0,0.0,0.0,-0.109834895,-0.003983896,-0.56165546
46249648,nan,nan,-1.5301794,-1.6033217,0.0,0.58531404,-0.014579696,-0.107373,-2.4332352,-0.0859897,-0.9845457,0.0,0.0,0.0,-0.13924585,-0.004920901,-0.5612018
46329106,nan,nan,-1.5301794,-1.6033217,0.0,0.36790556,-0.011539901,-0.114028335,-1.8907881,-0.078312136,-0.93656635,0.0,0.0,0.0,-0.10772265,-0.0044616265,-0.55870664
46433386,nan,nan,-1.5301794,-1.6033217,0.0,0.15794913,-0.007529363,-0.12088168,-0.9643998,-0.10724637,-0.9505625,0.0,0.0,0.0,-0.055015385,-0.0061180023,-0.5594345
46542634,nan,nan,-1.5301794,-1.6033217,0.0,0.03132546,-0.003301848,-0.12462497,0.006376028,-0.13978022,-1.0276376,0.0,0.0,0.0,0.0003663828,-0.008032127,-0.5634428
46632021,-0.27614948,0.23413275,-1.5301794,-1.6033217,0.0,0.004956242,-0.0015461415,-0.12526464,0.7628132,-0.10721765,-1.0791819,0.0,0.0,0.0,0.044036448,-0.006189568,-0.5661234
46746233,-0.2761495,0.23413275,-1.5301794,-1.6033217,0.0,0.023885451,-0.0058716116,-0.12689352,0.83100784,-0.139423,-1.0521371,0.0,0.0,0.0,0.047853626,-0.0080286795,-0.56471694
46845551,-0.2761495,0.23413275,-1.5301794,-1.6033217,0.0,0.03972834,-0.009761935,-0.13043451,0.7977458,-0.15036163,-0.99987864,0.0,0.0,0.0,0.045717135,-0.008616909,-0.5619992
46885278,-0.2761495,0.23413275,-1.5301794,-1.6033217,0.0,0.046189778,-0.011255079,-0.13070464,0.7651253,-0.13614424,-0.9727444,0.0,0.0,0.0,0.043737765,-0.0077825743,-0.56058806
49129846,-0.23511975,0.46494672,-1.2226267,-1.5430385,0.7853982,0.045403372,0.12552224,-0.5033006,0.30690145,-0.0676566,-0.8741072,0.0,0.0,0.0,0.017382821,-0.003832053,-0.55545837
49149720,-0.23425013,0.46735922,-1.2323142,-1.5430385,0.0,0.044693302,0.1263378,-0.50236875,0.29814643,-0.13261701,-0.74244684,0.0,0.0,0.0,0.016679099,-0.007418946,-0.54861134
49229161,-0.23092508,0.47674105,-1.2714872,-1.5430385,0.0,0.04047411,0.11827425,-0.48304683,0.34280768,-0.22182567,-0.29988,0.0,0.0,0.0,0.018373787,-0.011889401,-0.5255954
49328515,-0.22735655,0.4867965,-1.3168654,-1.5430385,0.0,0.037527833,0.10412414,-0.42344025,0.44801265,-0.23684897,0.14789641,0.0,0.0,0.0,0.022948207,-0.012131932,-0.50230855
49412909,-0.22488342,0.49373424,-1.3491738,-1.5430385,0.0,0.040317103,0.09183977,-0.34090936,0.43651277,-0.2318694,0.47407615,0.0,0.0,0.0,0.0216039,-0.011475686,-0.48534542
49532078,-0.22221993,0.50114495,-1.3810847,-1.5430385,0.0,0.046357483,0.071272254,-0.17792037,0.48878056,-0.21856034,0.864614,0.0,0.0,0.0,0.023177752,-0.010364032,-0.4650353
49631546,-0.22079968,0.50502443,-1.3924289,-1.5430385,0.0,0.06429658,0.042480074,-0.042603243,0.6057613,-0.23534723,0.39323407,0.0,0.0,0.0,0.030239323,-0.011748425,-0.48954964
49730712,-0.2200744,0.5069041,-1.3930042,-1.5430385,0.0,0.07939435,0.014118899,0.048949465,0.5947628,-0.2877499,-0.19226772,0.0,0.0,0.0,0.031536978,-0.015257783,-0.51999897
49830075,-0.22004853,0.50676525,-1.3862612,-1.5430385,0.0,0.07842664,-0.012335437,0.10074801,0.58933115,-0.28503913,-0.74786854,0.0,0.0,0.0,0.032985687,-0.015954038,-0.5488933
49924381,-0.22071046,0.5046753,-1.3760313,-1.5430385,0.0,0.07705432,-0.035290577,0.112753965,0.57339835,-0.16367935,-1.2005695,0.0,0.0,0.0,0.03347003,-0.009554183,-0.5724362
50023698,-0.22178747,0.50171757,-1.3650486,-1.5430385,0.0,0.0801668,-0.03245858,0.08905509,0.5976119,-0.041077375,-1.3982389,0.0,0.0,0.0,0.035510436,-0.002440841,-0.58271617
50132947,-0.22282211,0.4989589,-1.3544018,-1.5430385,0.0,0.08307584,-0.02852857,0.071522236,0.5735016,-0.043239508,-1.1624522,0.0,0.0,0.0,0.033360638,-0.0025152462,-0.57045394
50232264,-0.22368012,0.49666467,-1.345571,-1.5430385,0.0,0.08233254,-0.027281327,0.06392109,0.5635668,-0.04800839,-1.0933353,0.0,0.0,0.0,0.03257594,-0.0027750363,-0.5668595
50331581,-0.2244859,0.49451417,-1.3372517,-1.5430385,0.0,0.080681734,-0.026330763,0.056449175,0.53092694,-0.11366402,-1.0233032,0.0,0.0,0.0,0.030492498,-0.006528016,-0.5632174
50431056,-0.22523442,0.4925103,-1.329458,-1.5430385,0.0,0.07485924,-0.0223254,0.05107689,0.49660152,-0.075284295,-1.0165818,0.0,0.0,0.0,0.028503615,-0.0043211193,-0.5628679
50530216,-0.22593516,0.49063113,-1.3222208,-1.5430385,0.0,0.06870138,-0.01924393,0.045174874,0.47258282,-0.10216468,-0.99047494,0.0,0.0,0.0,0.027059177,-0.005849752,-0.56151015
50629532,-0.22659548,0.4888711,-1.315411,-1.5430385,0.0,0.059611563,-0.01649648,0.03911914,0.4111847,-0.07343742,-1.0146259,0.0,0.0,0.0,0.023596024,-0.00421424,-0.56276613
50728851,-0.22720619,0.48724103,-1.3090706,-1.5430385,0.0,0.05132788,-0.014941289,0.032259997,0.4343236,-0.09724426,-1.0046049,0.0,0.0,0.0,0.024900837,-0.0055752513,-0.562245
50828167,-0.22777887,0.48569533,-1.3031179,-1.5430385,0.0,0.043804992,-0.01584331,0.026564568,0.41271773,-0.082463644,-1.0211407,0.0,0.0,0.0,0.02369881,-0.004735174,-0.5631049
50927487,-0.22831629,0.4842603,-1.2975785,-1.5430385,0.0,0.03734265,-0.017009927,0.020967495,0.41038448,-0.10107,-1.0240172,0.0,0.0,0.0,0.023569582,-0.0058047464,-0.56325454
51031766,-0.22884521,0.48284978,-1.2921084,-1.5430385,0.0,0.035221543,-0.020125862,0.018568512,0.44076666,-0.108077005,-1.0372902,0.0,0.0,0.0,0.025346885,-0.0062151146,-0.5639448
51131083,-0.22931126,0.4816029,-1.287288,-1.5430385,0.0,0.03381785,-0.022806108,0.015687086,0.4234941,-0.119059384,-0.99511296,0.0,0.0,0.0,0.024258992,-0.0068200734,-0.56175137
51230475,-0.22974396,0.480445,-1.2827944,-1.5430385,0.0,0.030729178,-0.026192173,0.014781851,0.44097248,-0.10643695,-0.9828115,0.0,0.0,0.0,0.02523189,-0.0060901884,-0.5611116
51329717,-0.23014474,0.4793731,-1.2786554,-1.5430385,0.0,0.027897712,-0.02881137,0.012982242,0.42600462,-0.1078076,-0.95605415,0.0,0.0,0.0,0.024313496,-0.0061529363,-0.5597201
51429035,-0.23051941,0.4783692,-1.274756,-1.5430385,0.0,0.021921057,-0.029251076,0.011454817,0.42648947,-0.10337102,-0.9708017,0.0,0.0,0.0,0.024375629,-0.005908079,-0.56048703
51533318,-0.23088841,0.47738618,-1.2709452,-1.5430385,0.0,0.016301183,-0.029553939,0.010348558,0.46324098,-0.10784438,-0.9473401,0.0,0.0,0.0,0.026417753,-0.0061501605,-0.5592669
51632636,-0.23122036,0.47649738,-1.2675238,-1.5430385,0.0,0.008840577,-0.0253427,0.010453217,0.3868225,-0.1150894,-0.9194464,0.0,0.0,0.0,0.022002868,-0.006546405,-0.55781627
51731953,-0.23153272,0.47566107,-1.2643031,-1.5430385,0.0,0.0023738265,-0.020745406,0.009622216,0.4261123,-0.08144438,-0.9267932,0.0,0.0,0.0,0.024254182,-0.00463579,-0.55819833
51831269,-0.23182331,0.47488293,-1.261307,-1.5430385,0.0,-0.0017522451,-0.014167773,0.007038953,0.39232615,-0.0710555,-0.91220206,0.0,0.0,0.0,0.022300102,-0.004038846,-0.55743957
51930586,-0.23209582,0.47415316,-1.2584964,-1.5430385,0.0,-0.004767555,-0.008339145,0.0041456223,0.41446945,-0.056236897,-0.9188073,0.0,0.0,0.0,0.023574771,-0.0031987205,-0.55778307
52029946,-0.23235166,0.47346792,-1.2558573,-1.5430385,0.0,-0.0026843504,-0.0017462978,0.0018531084,0.4232562,-0.05835462,-0.8973209,0.0,0.0,0.0,0.024025256,-0.0033123787,-0.55666566
52124258,-0.23257893,0.47285917,-1.2535139,-1.5430385,0.0,-0.00049936364,0.003483605,-0.00041759014,0.42210996,-0.052760255,-0.91311914,0.0,0.0,0.0,0.02399582,-0.002999279,-0.55748725
52223571,-0.23280388,0.47225672,-1.2511938,-1.5430385,0.0,0.00487143,0.0091119,-0.0026712418,0.5244168,-0.029832358,-0.89520377,0.0,0.0,0.0,0.029761907,-0.0016930576,-0.5565555
52333060,-0.23303583,0.47163552,-1.2488011,-1.5430385,0.0,0.010188097,0.014111441,-0.0043861866,0.47608975,-0.031088835,-0.89589304,0.0,0.0,0.0,0.027021872,-0.001764538,-0.5565914
52427192,-0.23321855,0.47114614,-1.2469165,-1.5430385,0.0,0.014812224,0.017527565,-0.0048503876,0.49329993,-0.031104522,-0.90416545,0.0,0.0,0.0,0.028019635,-0.0017667494,-0.5570216
52526489,-0.23340078,0.4706581,-1.245037,-1.5430385,0.0,0.01919768,0.020222016,-0.0056284666,0.50867945,-0.023534343,-0.88253874,0.0,0.0,0.0,0.028834887,-0.0013340622,-0.5558969
52625806,-0.23357089,0.4702026,-1.2432826,-1.5430385,0.0,0.024203235,0.022931352,-0.008673906,0.52126366,-0.061311916,-0.86117506,0.0,0.0,0.0,0.029489007,-0.003468547,-0.55478585
52725123,-0.23373039,0.46977532,-1.2416369,-1.5430385,0.0,0.02812094,0.024991974,-0.011548519,0.5218014,-0.0009888597,-0.8919043,0.0,0.0,0.0,0.029604267,-5.6102697e-05,-0.55638397
52824477,-0.23387937,0.46937633,-1.2400999,-1.5430385,0.0,0.03458782,0.026491161,-0.012936711,0.53077745,-0.017847158,-0.91045976,0.0,0.0,0.0,0.030166902,-0.0010143489,-0.5573489
52923758,-0.2340179,0.46900532,-1.2386711,-1.5430385,0.0,0.03959948,0.027408391,-0.013472319,0.52252465,-0.027133543,-0.8972863,0.0,0.0,0.0,0.029660553,-0.0015402066,-0.5566638
53033036,-0.23416033,0.46862388,-1.2372015,-1.5430385,0.0,0.04821441,0.027586058,-0.014645934,0.54532546,-0.045003317,-0.91200686,0.0,0.0,0.0,0.030997828,-0.0025581145,-0.5574294
53132490,-0.23428228,0.46829736,-1.2359436,-1.5430385,0.0,0.053618137,0.02747266,-0.016026378,0.53849655,-0.041062385,-0.92934525,0.0,0.0,0.0,0.030658014,-0.0023377887,-0.5583311
53231640,-0.23439366,0.46799913,-1.2347949,-1.5430385,0.0,0.05738871,0.027521005,-0.01820159,0.5676804,-0.056460153,-0.9346934,0.0,0.0,0.0,0.032336995,-0.0032161607,-0.5586092
53330963,-0.23449968,0.46771523,-1.2337013,-1.5430385,0.0,0.059437722,0.027372241,-0.020737886,0.51425517,-0.05960516,-0.9850925,0.0,0.0,0.0,0.029431276,-0.0034112555,-0.56123024
53430275,-0.23459713,0.46745422,-1.2326959,-1.5430385,0.0,0.061766196,0.027419172,-0.022785306,0.5427193,-0.05579398,-0.9720987,0.0,0.0,0.0,0.031021893,-0.0031891898,-0.5605545
53529592,-0.23468965,0.46720642,-1.2317411,-1.5430385,0.0,0.06253222,0.027046356,-0.025250912,0.5346118,-0.06129715,-0.9771003,0.0,0.0,0.0,0.030572917,-0.0035054083,-0.5608146
53628910,-0.23477487,0.46697825,-1.2308624,-1.5430385,0.0,0.06269964,0.025574686,-0.023848295,0.5205179,-0.055290096,-0.9806989,0.0,0.0,0.0,0.029777033,-0.0031629554,-0.5610018
53728322,-0.23485513,0.46676338,-1.2300348,-1.5430385,0.0,0.061369613,0.023816578,-0.022782922,0.53165793,-0.07698897,-0.9588642,0.0,0.0,0.0,0.030352622,-0.004395339,-0.55986625
53827543,-0.23493025,0.4665623,-1.22926,-1.5430385,0.0,0.062164452,0.022284022,-0.02259779,0.5195924,-0.08213736,-0.95041543,0.0,0.0,0.0,0.029640744,-0.004685619,-0.55942684
53926975,-0.23500012,0.4663753,-1.2285392,-1.5430385,0.0,0.06131841,0.02045261,-0.021949768,0.5249526,-0.0865068,-0.9323564,0.0,0.0,0.0,0.029896084,-0.004926568,-0.55848765
54031143,-0.23506896,0.46619087,-1.2278289,-1.5430385,0.0,0.062890835,0.021155994,-0.02187121,0.52499074,-0.072061114,-0.92949927,0.0,0.0,0.0,0.029890575,-0.0041028303,-0.55833906
54130460,-0.23512968,0.4660284,-1.2272025,-1.5430385,0.0,0.062878005,0.021203112,-0.02354002,0.5103718,-0.07546368,-0.92509204,0.0,0.0,0.0,0.029046359,-0.004294801,-0.5581099
54224812,-0.23518394,0.46588317,-1.2266431,-1.5430385,0.0,0.063779406,0.021812558,-0.025656104,0.5315909,-0.060444165,-0.93888575,0.0,0.0,0.0,0.03029286,-0.003444428,-0.5588272
54324129,-0.2352375,0.46573982,-1.2260908,-1.5430385,0.0,0.06323305,0.021723218,-0.026976943,0.52533364,-0.088889696,-0.9454943,0.0,0.0,0.0,0.029953746,-0.005068359,-0.5591709
54403584,-0.23527753,0.46563253,-1.2256773,-1.5430385,0.0,0.06261076,0.021172686,-0.027162194,0.5004993,-0.09016381,-0.93249327,0.0,0.0,0.0,0.028504433,-0.005135009,-0.5584948
54532695,-0.23533866,0.4654688,-1.2250466,-1.5430385,0.0,0.06001323,0.019642632,-0.026854277,0.5394101,-0.095848784,-0.88901633,0.0,0.0,0.0,0.030594822,-0.0054364507,-0.55623376
54632012,-0.23538181,0.4653533,-1.2246017,-1.5430385,0.0,0.05740813,0.019298391,-0.0260247,0.49161112,-0.091434665,-0.8708488,0.0,0.0,0.0,0.027836312,-0.0051772706,-0.5552889
54731420,-0.23542231,0.4652449,-1.2241838,-1.5430385,0.0,0.054121148,0.018382559,-0.023787737,0.53551143,-0.10078175,-0.85038996,0.0,0.0,0.0,0.030263785,-0.0056955596,-0.55422497
54830647,-0.23546003,0.465144,-1.2237954,-1.5430385,0.0,0.052461848,0.017993702,-0.02218616,0.5375114,-0.12774797,-0.8702003,0.0,0.0,0.0,0.03043368,-0.0072330385,-0.55525523
54929964,-0.23549522,0.46504965,-1.2234321,-1.5430385,0.0,0.05017931,0.01676579,-0.019342065,0.5195082,-0.094210185,-0.8558599,0.0,0.0,0.0,0.029375246,-0.005327053,-0.55450946
55029317,-0.2355283,0.4649611,-1.2230909,-1.5430385,0.0,0.046737887,0.015815001,-0.016870618,0.5369122,-0.11427016,-0.83943874,0.0,0.0,0.0,0.030312201,-0.006451297,-0.55365545
55128598,-0.23555912,0.46487847,-1.222773,-1.5430385,0.0,0.04326868,0.014075387,-0.014728665,0.5365067,-0.12001134,-0.83881664,0.0,0.0,0.0,0.03028812,-0.0067751585,-0.5536231
55227917,-0.2355879,0.46480137,-1.2224761,-1.5430385,0.0,0.03687167,0.015311289,-0.014178157,0.50716895,-0.08800729,-0.88743734,0.0,0.0,0.0,0.028762167,-0.004991001,-0.5561516
55332198,-0.23561619,0.46472564,-1.2221844,-1.5430385,0.0,0.030874087,0.01517066,-0.015137792,0.5460274,-0.12855399,-0.8802604,0.0,0.0,0.0,0.030946158,-0.0072858096,-0.5557784
55431515,-0.23564118,0.46465868,-1.2219261,-1.5430385,0.0,0.027788302,0.014226933,-0.015293002,0.53379905,-0.10694248,-0.9142606,0.0,0.0,0.0,0.030348908,-0.0060801674,-0.5575466
55530890,-0.23566458,0.4645959,-1.2216836,-1.5430385,0.0,0.024560044,0.012626069,-0.016782284,0.5000396,-0.12752801,-0.9276276,0.0,0.0,0.0,0.028463705,-0.007259264,-0.5582417
55630150,-0.23568647,0.46453735,-1.2214575,-1.5430385,0.0,0.02387684,0.010898697,-0.018206134,0.5512418,-0.13784525,-0.90929294,0.0,0.0,0.0,0.03132629,-0.007833551,-0.5572882
55729474,-0.235707,0.4644826,-1.2212462,-1.5430385,0.0,0.022658356,0.008745263,-0.020298403,0.5179595,-0.12217976,-0.9131701,0.0,0.0,0.0,0.029445043,-0.0069456943,-0.5574899
55828984,-0.23572618,0.4644315,-1.2210487,-1.5430385,0.0,0.021762889,0.007779585,-0.021737099,0.52774835,-0.13695805,-0.9175196,0.0,0.0,0.0,0.030013468,-0.007788913,-0.5577161
55933070,-0.23574503,0.46438107,-1.2208544,-1.5430385,0.0,0.020461453,0.006348896,-0.021937013,0.54947764,-0.12600106,-0.92005056,0.0,0.0,0.0,0.03125613,-0.007167363,-0.5578477
56032431,-0.23576157,0.4643366,-1.2206831,-1.5430385,0.0,0.019380689,0.0044812276,-0.022101335,0.5675154,-0.12260263,-0.9043967,0.0,0.0,0.0,0.032236107,-0.0069640954,-0.5570336
56131702,-0.23577717,0.46429467,-1.2205218,-1.5430385,0.0,0.018055735,0.002813479,-0.022260234,0.54886454,-0.12333732,-0.8988867,0.0,0.0,0.0,0.031160276,-0.007002137,-0.5567471
56231020,-0.23579165,0.46425587,-1.2203723,-1.5430385,0.0,0.017763045,0.00060336717,-0.021480504,0.5526198,-0.12515274,-0.9082685,0.0,0.0,0.0,0.031400867,-0.007111408,-0.55723494
56330372,-0.2358053,0.4642193,-1.2202319,-1.5430385,0.0,0.017259335,-0.0015030254,-0.019355893,0.57639927,-0.1313561,-0.9176842,0.0,0.0,0.0,0.032781027,-0.0074704946,-0.55772465
56429653,-0.23581801,0.4641854,-1.2201011,-1.5430385,0.0,0.018363865,-7.242107e-05,-0.0149618685,0.56093585,-0.11172244,-0.9137838,0.0,0.0,0.0,0.03189061,-0.0063517,-0.5575218
56528971,-0.23582993,0.46415353,-1.2199783,-1.5430385,0.0,0.01906321,0.0008315898,-0.012806892,0.5795966,-0.14169997,-0.91405153,0.0,0.0,0.0,0.032951888,-0.008056087,-0.5575357
56628460,-0.23584104,0.4641238,-1.2198641,-1.5430385,0.0,0.020880261,4.5153545e-05,-0.005305769,0.57532626,-0.1342853,-0.869963,0.0,0.0,0.0,0.032574244,-0.0076030632,-0.5552429
56732570,-0.23585199,0.46409458,-1.2197517,-1.5430385,0.0,0.021893304,-0.0006181493,-0.00019541662,0.5946631,-0.13690601,-0.88472766,0.0,0.0,0.0,0.03371512,-0.0077620465,-0.5560107
56831887,-0.23586166,0.46406886,-1.2196524,-1.5430385,0.0,0.02217448,0.0003844512,0.006111145,0.5906085,-0.088218085,-0.8931359,0.0,0.0,0.0,0.033512346,-0.0050056768,-0.556448
56931205,-0.23587075,0.46404463,-1.2195592,-1.5430385,0.0,0.022211686,0.0011529246,0.008245587,0.5880505,-0.12430148,-0.9225357,0.0,0.0,0.0,0.03345855,-0.007072432,-0.55797696
57030574,-0.23587911,0.464022,-1.2194724,-1.5430385,0.0,0.023695288,0.0031836028,0.010650625,0.61488897,-0.1002087,-0.91519237,0.0,0.0,0.0,0.03496183,-0.0056977435,-0.5575951
57129839,-0.23588692,0.46400082,-1.2193912,-1.5430385,0.0,0.024447253,0.0049432646,0.012614369,0.62849295,-0.09199263,-0.91664046,0.0,0.0,0.0,0.03574044,-0.005231334,-0.55767035
57229157,-0.2358942,0.46398106,-1.2193153,-1.5430385,0.0,0.026044548,0.006607653,0.017122388,0.6164161,-0.086603366,-0.91578877,0.0,0.0,0.0,0.035050787,-0.0049244594,-0.55762607
57328474,-0.23590104,0.46396258,-1.219244,-1.5430385,0.0,0.026830938,0.007980858,0.02108788,0.6296668,-0.09840657,-0.9136463,0.0,0.0,0.0,0.035797767,-0.0055946023,-0.55751467
57427914,-0.23590738,0.46394554,-1.2191782,-1.5430385,0.0,0.02501811,0.010152255,0.028172016,0.62039584,-0.0869609,-0.8637565,0.0,0.0,0.0,0.035105314,-0.0049207127,-0.5549201
57532077,-0.23591366,0.4639287,-1.2191129,-1.5430385,0.0,0.023187095,0.012049959,0.032659978,0.62526524,-0.08051553,-0.84221977,0.0,0.0,0.0,0.03530982,-0.0045468532,-0.55380005
57631392,-0.23591924,0.4639137,-1.2190553,-1.5430385,0.0,0.022435224,0.016039269,0.036728952,0.62198836,-0.06262847,-0.8557249,0.0,0.0,0.0,0.03516999,-0.0035412924,-0.5545024
57725744,-0.23592417,0.4639004,-1.2190044,-1.5430385,0.0,0.021358268,0.018975701,0.037319183,0.62328696,-0.13023603,-0.8808119,0.0,0.0,0.0,0.035326052,-0.0073813917,-0.55580705
57825059,-0.23592906,0.4638872,-1.2189537,-1.5430385,0.0,0.018660197,0.022215672,0.038731694,0.58798486,-0.054092955,-0.9076645,0.0,0.0,0.0,0.03340908,-0.0030735412,-0.55720353
57924418,-0.2359336,0.46387488,-1.2189066,-1.5430385,0.0,0.015870834,0.024335599,0.038023114,0.5785066,-0.055239327,-0.875991,0.0,0.0,0.0,0.032773588,-0.0031294215,-0.55555636
58023694,-0.23593788,0.4638633,-1.2188624,-1.5430385,0.0,0.013291918,0.024937687,0.038593046,0.5645548,-0.07275165,-0.86169887,0.0,0.0,0.0,0.031940095,-0.004115977,-0.5548131
58113079,-0.2359415,0.46385354,-1.218825,-1.5430385,0.0,0.010765713,0.024698645,0.03939068,0.5552461,-0.091666356,-0.8534224,0.0,0.0,0.0,0.03138897,-0.0051820483,-0.5543827
58232376,-0.23594466,0.463845,nan,-1.5333632,0.0,0.008323817,0.023874437,-0.0010796147,0.5720902,-0.107809685,-1.1036797,0.0,0.0,0.0,0.03310022,-0.0062376955,-0.5673974
58331577,-0.23594466,0.463845,nan,-1.5333632,0.0,0.0059540425,0.022297503,-0.055727802,0.5492104,-0.0984344,-2.0042427,0.0,0.0,0.0,0.03440017,-0.0061655054,-0.6142317
58430897,-0.23594466,0.463845,nan,-1.5333632,0.0,0.0028468631,0.02019906,-0.188925,0.55609834,-0.1018648,-2.856564,0.0,0.0,0.0,0.0373435,-0.006840495,-0.6585571
58525245,-0.23594466,0.463845,nan,-1.5333632,0.0,-0.00028942153,0.01756158,-0.38902318,0.5445658,-0.10854148,-3.627534,0.0,0.0,0.0,0.03879608,-0.0077327364,-0.6986518
58624563,-0.23594466,0.463845,nan,-1.5333632,0.0,-0.0024037063,0.015219142,-0.6758446,0.52851355,-0.16779552,-4.3343134,0.0,0.0,0.0,0.039634798,-0.012583482,-0.73540825
58723879,-0.23594466,0.463845,nan,-1.5333632,0.0,-0.0050695976,0.012334297,-0.9691185,0.5251421,-0.19824587,-3.453196,0.0,0.0,0.0,0.036927275,-0.01394038,-0.68958527
58813265,-0.23594466,0.463845,nan,-1.5333632,0.0,-0.009815742,0.012567647,-1.1660587,0.57264465,-0.15370391,-2.5149105,0.0,0.0,0.0,0.03741769,-0.010043306,-0.6407892
58932446,-0.23594466,0.463845,nan,-1.5333632,0.0,-0.0150676565,0.012751138,-1.3296969,0.55313116,-0.14756289,-1.4762132,0.0,0.0,0.0,0.033095594,-0.008829157,-0.58677125
59031889,-0.23594466,0.463845,nan,-1.5333632,0.0,-0.01684538,0.014702557,-1.3782836,0.58834064,-0.09653638,-0.70076716,0.0,0.0,0.0,0.032782733,-0.005379072,-0.54644376
59131084,-0.23594466,0.463845,nan,-1.5333632,0.0,-0.018160058,0.01671329,-1.3481756,0.5823467,-0.06313371,0.038876355,0.0,0.0,0.0,0.030165818,-0.0032703544,-0.5079782
59230398,-0.23594466,0.463845,nan,-1.5333632,0.0,-0.014800928,0.018365137,-1.2398392,0.58677304,-0.072013795,0.76387924,0.0,0.0,0.0,0.028138546,-0.003453402,-0.47027406
59329714,-0.23594466,0.463845,nan,-1.5333632,0.0,-0.012188362,0.019801812,-1.0519676,0.62284225,-0.039171167,1.5470412,0.0,0.0,0.0,0.027281785,-0.0017157785,-0.4295453
59429032,-0.23594466,0.463845,nan,-1.5333632,0.0,-0.014971749,0.020769948,-0.7865898,0.539757,-0.03826367,2.2732353,0.0,0.0,0.0,0.021563102,-0.0015286201,-0.39177918
59528349,-0.23594466,0.463845,nan,-1.5333632,0.0,-0.017494239,0.021796266,-0.4892435,0.59971917,-0.06542373,2.1418686,0.0,0.0,0.0,0.02437691,-0.002659292,-0.39861098
59627666,-0.23594466,0.463845,nan,-1.5333632,0.0,-0.024069382,0.024917629,-0.23460871,0.58640164,-0.024324635,1.044683,0.0,0.0,0.0,0.027247684,-0.0011302662,-0.4556707
59726983,-0.23594466,0.463845,nan,-1.5333632,0.0,-0.02920193,0.02755777,-0.058945026,0.5494131,-0.063841656,-0.019408941,0.0,0.0,0.0,0.028629195,-0.0033267052,-0.51100934
59826371,-0.23594466,0.463845,nan,-1.5333632,0.0,-0.030033419,0.026490713,0.037414942,0.5729955,-0.06844864,-0.978024,0.0,0.0,0.0,0.032770235,-0.0039146524,-0.56086266
59930584,nan,nan,nan,-1.5333632,0.0,-0.030075137,0.025424672,0.049843732,0.5565705,-0.035307787,-1.8740652,0.0,0.0,0.0,0.034475908,-0.0021870872,-0.60746175
60029904,nan,nan,nan,-1.5333632,0.0,-0.01652216,-0.013381964,0.004380475,0.73342526,-0.8467847,-1.7286302,0.0,0.0,0.0,0.044865802,-0.051800337,-0.59989834
60129395,nan,nan,-2.35705,-1.5333632,0.0,-0.0012510135,-0.13258794,-0.0104415445,0.7949095,-1.7583807,-1.1583023,0.0,0.0,0.0,0.046222452,-0.10224643,-0.5702381
60223569,nan,nan,-2.35705,-1.5333632,0.0,0.013023046,-0.30749732,-0.01101208,0.7369667,-2.0198598,-0.95917255,0.0,0.0,0.0,0.042074982,-0.115318045,-0.5598823
60332818,nan,nan,-2.35705,-1.5333632,0.0,0.021245608,-0.45638314,-0.009676221,0.58045113,-1.2644486,-0.74762243,0.0,0.0,0.0,0.032488078,-0.070771694,-0.5488805
60432135,nan,nan,-2.35705,-1.5333632,0.0,0.019359542,-0.5081483,-0.006349805,0.5653842,-0.34473127,-0.7212456,0.0,0.0,0.0,0.03156583,-0.01924661,-0.5475087
60531452,nan,nan,-2.35705,-1.5333632,0.0,0.01884627,-0.50298077,-0.0047159223,0.589476,0.17649026,-0.8016136,0.0,0.0,0.0,0.033162173,0.009928818,-0.5516883
60630778,nan,nan,-2.35705,-1.5333632,0.0,0.017305613,-0.44752917,-0.007003787,0.5591507,0.7263247,-0.9287596,0.0,0.0,0.0,0.031832747,0.041350048,-0.5583006
60725122,nan,nan,-2.35705,-1.5333632,0.0,0.01650918,-0.4075226,-0.010007384,0.5715151,-0.017473698,-0.9811112,0.0,0.0,0.0,0.03269613,-0.0009996627,-0.5610232
60824446,nan,nan,-2.35705,-1.5333632,0.0,0.016785773,-0.43978176,-0.015933756,0.5846604,-0.55926204,-1.0505015,0.0,0.0,0.0,0.033662718,-0.03220037,-0.5646319
60923868,nan,nan,-2.35705,-1.5333632,0.0,0.017485453,-0.47254273,-0.020181183,0.6065018,-0.7575388,-1.0554197,0.0,0.0,0.0,0.034936316,-0.043636497,-0.56488764
61033005,nan,nan,-2.35705,-1.5333632,0.0,0.01907034,-0.50921315,-0.02251387,0.5743446,-0.21750844,-1.0034214,0.0,0.0,0.0,0.03292492,-0.012468904,-0.56218344
61112458,nan,nan,-2.35705,-1.5333632,0.0,0.019784907,-0.5234061,-0.02226806,0.604563,-0.7670883,-0.9562123,0.0,0.0,0.0,0.034506224,-0.043782566,-0.5597283
61231639,nan,nan,-2.35705,-1.5333632,0.0,0.02085536,-0.56655717,-0.020609383,0.5801597,-0.13518237,-0.93467987,0.0,0.0,0.0,0.03304731,-0.0077003166,-0.55860853
61330956,nan,nan,-2.35705,-1.5333632,0.0,0.02109851,-0.54825807,-0.01848388,0.6106458,-0.34478915,-0.9102333,0.0,0.0,0.0,0.03470523,-0.019595629,-0.55733716
61430273,nan,nan,-2.35705,-1.5333632,0.0,0.022728002,-0.5961258,-0.014230016,0.6426515,-0.9979702,-0.9248315,0.0,0.0,0.0,0.036573246,-0.05679441,-0.55809635
61529591,nan,nan,-2.35705,-1.5333632,0.0,0.02466631,-0.67606276,-0.010853293,0.6118932,-0.9304404,-0.90140426,0.0,0.0,0.0,0.034746747,-0.05283566,-0.556878
61628909,nan,nan,-2.35705,-1.5333632,0.0,0.026078308,-0.6969404,-0.005518201,0.6196321,-0.36524817,-0.8531622,0.0,0.0,0.0,0.035027597,-0.020647358,-0.55436915
61728408,nan,nan,-2.35705,-1.5333632,0.0,0.026101917,-0.6969693,-0.00049066823,0.63446885,-0.3165398,-0.84099567,0.0,0.0,0.0,0.03582521,-0.017873384,-0.5537364
61827543,nan,nan,-2.35705,-1.5333632,0.0,0.02725863,-0.73577464,-0.0015628366,0.6046921,-1.0248365,-0.9194659,0.0,0.0,0.0,0.03439575,-0.05829417,-0.5578173
61926867,nan,nan,-2.35705,-1.5333632,0.0,0.028967531,-0.7730646,-0.0033524064,0.6407952,-0.68942237,-0.94575876,0.0,0.0,0.0,0.03653875,-0.039311524,-0.5591847
62031142,nan,nan,-2.35705,-1.5333632,0.0,0.029032389,-0.7813676,-0.005580428,0.56249964,-0.22867283,-0.95421803,0.0,0.0,0.0,0.032100018,-0.013049612,-0.5596246
62130460,nan,nan,-2.35705,-1.5333632,0.0,0.027213113,-0.7299618,-0.0078499345,0.5978172,0.5887723,-0.97893256,0.0,0.0,0.0,0.034193374,0.033676036,-0.56090987
62229780,nan,nan,-2.35705,-1.5333632,0.0,0.027480185,-0.67852104,-0.0122203855,0.6130601,-0.16729765,-0.975117,0.0,0.0,0.0,0.035052605,-0.009565486,-0.56071144
62329095,nan,nan,-2.35705,-1.5333632,0.0,0.028611954,-0.706476,-0.015640024,0.5995945,-0.96140933,-1.061964,0.0,0.0,0.0,0.03455905,-0.0554131,-0.565228
62428433,nan,nan,-2.35705,-1.5333632,0.0,0.027570527,-0.7345285,-0.021043781,0.57137406,-0.31981567,-1.0908924,0.0,0.0,0.0,0.033019695,-0.018482141,-0.5667324
62527803,nan,nan,-2.35705,-1.5333632,0.0,0.02597714,-0.6839842,-0.021257643,0.5783092,0.4229526,-0.94434077,0.0,0.0,0.0,0.03297119,0.02411383,-0.55911094
62632012,nan,nan,-2.35705,-1.5333632,0.0,0.023921363,-0.6342042,-0.02657986,0.5498383,0.0808278,-0.9802683,0.0,0.0,0.0,0.031452555,0.004623615,-0.56097937
62731329,nan,nan,-2.35705,-1.5333632,0.0,0.023633817,-0.6019103,-0.028559688,0.6345093,-0.3603622,-1.0119582,0.0,0.0,0.0,0.036403123,-0.020674732,-0.56262743
62810921,nan,nan,-2.35705,-1.5333632,0.0,0.025368953,-0.62844366,-0.02740312,0.66797185,-0.9871305,-0.97360486,0.0,0.0,0.0,0.038187042,-0.056432914,-0.5606328
62924998,nan,nan,-2.35705,-1.5333632,0.0,0.02794947,-0.73619145,-0.023350243,0.6597357,-1.2998523,-0.8543277,0.0,0.0,0.0,0.0372989,-0.0734886,-0.55442977
63024318,nan,nan,-2.35705,-1.5333632,0.0,0.03046789,-0.84279156,-0.018900875,0.66297984,-1.4302245,-0.7855261,0.0,0.0,0.0,0.037240338,-0.080337346,-0.5508517
63123632,nan,nan,-2.35705,-1.5333632,0.0,0.03329492,-0.92735744,-0.012266639,0.6981565,-1.3796284,-0.7063394,0.0,0.0,0.0,0.03892309,-0.076915994,-0.54673356
63213022,nan,nan,-2.35705,-1.5333632,0.0,0.036317904,-1.019819,-0.008929494,0.69252145,-1.767849,-0.7389705,0.0,0.0,0.0,0.038728803,-0.09886578,-0.54843056
63332308,nan,nan,-2.35705,-1.5333632,0.0,0.041202564,-1.1698942,-0.0048725633,0.71885335,-1.5727124,-0.7439117,0.0,0.0,0.0,0.040220182,-0.087994,-0.5486875
63431516,nan,nan,-2.35705,-1.5333632,0.0,0.043633737,-1.26864,-0.0024006395,0.66755223,-1.0715601,-0.71072346,0.0,0.0,0.0,0.037232444,-0.059765816,-0.54696155
63530836,nan,nan,-2.35705,-1.5333632,0.0,0.043634303,-1.2917091,0.0027170153,0.68676245,-0.30257267,-0.68273723,0.0,0.0,0.0,0.03820209,-0.016831012,-0.5455061
63630351,nan,nan,-2.35705,-1.5333632,0.0,0.047401987,-1.2853568,0.005892989,0.7039142,-0.700778,-0.68820095,0.0,0.0,0.0,0.039176464,-0.039001912,-0.54579026
63724505,nan,nan,-2.35705,-1.5333632,0.0,0.048499793,-1.3074918,0.009776351,0.6260244,-0.23361757,-0.75139225,0.0,0.0,0.0,0.03505164,-0.013080446,-0.54907656
63823819,nan,nan,-2.35705,-1.5333632,0.0,0.048439376,-1.2934207,0.011958835,0.61792797,-0.52089924,-0.7138562,0.0,0.0,0.0,0.03447485,-0.029061513,-0.54712445
63913227,nan,nan,-2.35705,-1.5333632,0.0,0.048439376,-1.2934207,0.01752257,0.621148,-0.39637318,-0.78456485,0.0,0.0,0.0,0.03488753,-0.022262778,-0.5508017
64032385,nan,nan,-2.35705,-1.5333632,0.0,0.048582595,-1.3037527,0.02143788,0.64805627,-0.13352042,-0.91002035,0.0,0.0,0.0,0.036830325,-0.007588231,-0.5573261
64131723,nan,nan,-2.35705,-1.5333632,0.0,0.049906444,-1.3168793,0.024588104,0.6436465,-1.017606,-0.9919621,0.0,0.0,0.0,0.036858886,-0.058273945,-0.5615875
64231020,nan,nan,-2.35705,-1.5333632,0.0,0.05209597,-1.4042094,0.021163698,0.70324737,-1.3745681,-1.1847901,0.0,0.0,0.0,0.040991332,-0.0801217,-0.57161564
64330339,nan,nan,-2.35705,-1.5333632,0.0,0.05504774,-1.5125159,0.0151512595,0.74825037,-1.6339417,-1.2049873,0.0,0.0,0.0,0.04369458,-0.09541511,-0.572666
64429879,nan,nan,-2.35705,-1.5333632,0.0,0.05894938,-1.6465766,0.008349654,0.7312581,-2.0564327,-1.2286358,0.0,0.0,0.0,0.042794004,-0.12034463,-0.5738958
64524006,nan,nan,-2.35705,-1.5333632,0.0,0.0635996,-1.8063217,0.002868888,0.7505863,-2.2160995,-1.2304132,0.0,0.0,0.0,0.04393221,-0.12970947,-0.57398826
64613391,nan,nan,-2.35705,-1.5333632,0.0,0.06815983,-1.9172881,-0.00652695,0.7456921,-1.4687192,-1.2213223,0.0,0.0,0.0,0.043609723,-0.08589396,-0.5735155
64732572,nan,nan,-2.35705,-1.5333632,0.0,0.0691002,-1.9657719,-0.0138835935,0.61037034,-0.43037286,-1.1073389,0.0,0.0,0.0,0.035327297,-0.024909323,-0.56758773
64831891,nan,nan,-2.35705,-1.5333632,0.0,0.0665806,-1.9194132,-0.020475391,0.6015466,0.40249968,-1.0521057,0.0,0.0,0.0,0.034640018,0.023177914,-0.5647153
64931211,nan,nan,-2.35705,-1.5333632,0.0,0.06405636,-1.799117,-0.022662405,0.62079895,1.059039,-1.0475318,0.0,0.0,0.0,0.035733674,0.060959112,-0.56447744
65030525,nan,nan,-2.35705,-1.5333632,0.0,0.061200943,-1.6299256,-0.022686962,0.60903955,1.139194,-0.9311939,0.0,0.0,0.0,0.03468098,0.064869955,-0.5584272
65129852,nan,nan,nan,-1.5333632,0.0,0.054944728,-1.489752,-0.047861226,0.5553794,1.1067526,-1.6080327,0.0,0.0,0.0,0.033618666,0.06699483,-0.59362656
65229276,nan,nan,nan,-1.5333632,0.0,0.048605323,-1.334339,-0.1503574,0.5164871,1.2752368,-2.566596,0.0,0.0,0.0,0.033890083,0.0836766,-0.64347714
65328475,nan,nan,nan,-1.5333632,0.0,0.046118993,-1.197077,-0.3314472,0.65635216,0.496216,-3.4322147,0.0,0.0,0.0,0.04608009,0.034837514,-0.68849415
65427792,nan,nan,nan,-1.5333632,0.0,0.046838686,-1.1384465,-0.54376787,0.59318626,-0.38278413,-3.379355,0.0,0.0,0.0,0.041479513,-0.026766801,-0.6857451
65532082,nan,nan,nan,-1.5333632,0.0,0.046725422,-1.1618595,-0.74437803,0.55216813,-1.2919478,-2.5352545,0.0,0.0,0.0,0.036139455,-0.0845581,-0.64184725
65631393,nan,nan,nan,-1.5333632,0.0,0.048591252,-1.2655848,-0.859326,0.5635816,-2.1549032,-1.4473122,0.0,0.0,0.0,0.033635005,-0.12860636,-0.5852682
65730712,nan,nan,nan,-1.5333632,0.0,0.051842634,-1.4218973,-0.89475554,0.5745324,-2.1933112,-0.48635837,0.0,0.0,0.0,0.031360704,-0.11972133,-0.53529334
65825062,nan,nan,nan,-1.5333632,0.0,0.05481485,-1.5459614,-0.85536224,0.49666896,-1.6906352,0.331468,0.0,0.0,0.0,0.024956502,-0.084950626,-0.49276182
65924379,nan,nan,nan,-1.5333632,0.0,0.05402896,-1.6013802,-0.7371294,0.50064087,-0.92807263,1.1264603,0.0,0.0,0.0,0.023045363,-0.042720784,-0.45141783
66003834,nan,nan,nan,-1.5333632,0.0,0.0545935,-1.5889268,-0.5854206,0.5256765,-0.16657895,1.659322,0.0,0.0,0.0,0.022712167,-0.0071971435,-0.42370608
66132948,nan,nan,nan,-1.5333632,0.0,0.058590528,-1.5945159,-0.27307445,0.47845072,-1.1098999,1.2849417,0.0,0.0,0.0,0.021621807,-0.050157808,-0.4431759
66232263,nan,nan,nan,-1.5333632,0.0,0.060555164,-1.6224393,-0.10545296,0.5332392,-1.0085615,0.115941286,0.0,0.0,0.0,0.027403485,-0.051830586,-0.5039704
66331580,nan,nan,nan,-1.5333632,0.0,0.06082887,-1.6292912,-0.016011642,0.44515544,-0.330472,-0.9393978,0.0,0.0,0.0,0.025368577,-0.01883298,-0.55885386
66430911,nan,nan,-3.0582428,-1.5333632,0.0,0.058588166,-1.5606987,-0.009026289,0.4358893,0.22716242,-1.5696282,0.0,0.0,0.0,0.026296627,0.01370441,-0.5916293
66530215,nan,nan,-3.0582428,-1.5333632,0.0,0.05955515,-1.5207235,-0.014299393,0.4508927,-0.4142586,-1.421881,0.0,0.0,0.0,0.026848318,-0.024666948,-0.58394563
66629532,nan,nan,-3.0582428,-1.5333632,0.0,0.05901012,-1.5505015,-0.015711784,0.3784861,-0.72864455,-1.2738107,0.0,0.0,0.0,0.022239992,-0.04281544,-0.5762452
66728849,nan,nan,-3.0582428,-1.5333632,0.0,0.057346147,-1.5371808,-0.010780573,0.4480756,-0.081014425,-1.1303406,0.0,0.0,0.0,0.025989078,-0.0046989624,-0.56878394
66828219,nan,nan,-3.0582428,-1.5333632,0.0,0.05808788,-1.5284872,-0.00012755394,0.47402495,-0.7853126,-0.99398553,0.0,0.0,0.0,0.027150474,-0.044979934,-0.5616927
66932449,nan,nan,-3.0582428,-1.5333632,0.0,0.060396902,-1.6048516,0.010874987,0.4844892,-1.6299121,-0.9883272,0.0,0.0,0.0,0.02773548,-0.09330732,-0.56139845
67031767,nan,nan,-3.0582428,-1.5333632,0.0,0.063566364,-1.7408344,0.0154976845,0.5179268,-2.0415568,-0.9507866,0.0,0.0,0.0,0.029546542,-0.11646616,-0.55944616
67131122,nan,nan,-3.0582428,-1.5333632,0.0,0.064992055,-1.8473927,0.022055626,0.46695617,-1.3083513,-0.9139074,0.0,0.0,0.0,0.026547363,-0.07438231,-0.5575282
67230402,nan,nan,-3.0582428,-1.5333632,0.0,0.06952985,-1.8909409,0.028854132,0.5598573,-0.7811302,-0.829051,0.0,0.0,0.0,0.031577084,-0.044057317,-0.55311525
67329755,nan,nan,-3.0582428,-1.5333632,0.0,0.07041422,-1.8794461,0.034300804,0.46551412,0.05482933,-0.8763942,0.0,0.0,0.0,0.026373705,0.0031063557,-0.55557734
67429036,nan,nan,-3.0582428,-1.5333632,0.0,0.069347315,-1.8496509,0.039565086,0.51209146,-0.44070816,-0.9092309,0.0,0.0,0.0,0.029100986,-0.02504444,-0.557285
67528358,nan,nan,-3.0582428,-1.5333632,0.0,0.067606606,-1.8146428,0.045051336,0.49305475,0.35812783,-0.948797,0.0,0.0,0.0,0.028122926,0.020426944,-0.5593427
67627686,nan,nan,-3.0582428,-1.5333632,0.0,0.06737634,-1.7517787,0.05035138,0.5041207,-0.1539112,-0.9170933,0.0,0.0,0.0,0.028668553,-0.008752688,-0.5576939
67731953,nan,nan,-3.0582428,-1.5333632,0.0,0.06452083,-1.7128042,0.056122303,0.42916983,0.25136912,-0.911387,0.0,0.0,0.0,0.024394039,0.014287835,-0.5573971
67831274,nan,nan,-3.0582428,-1.5333632,0.0,0.063684024,-1.6868416,0.06160736,0.52856225,-0.5823406,-0.8914745,0.0,0.0,0.0,0.029987354,-0.033038408,-0.5563616
67930759,nan,nan,-3.0582428,-1.5333632,0.0,0.06664488,-1.7397959,0.06642914,0.49899918,-1.2930865,-0.9719113,0.0,0.0,0.0,0.028522702,-0.07391259,-0.5605447
68029909,nan,nan,-3.0582428,-1.5333632,0.0,0.06959554,-1.8647025,0.06671333,0.5896337,-1.7261835,-0.99517536,0.0,0.0,0.0,0.033776004,-0.09888103,-0.5617546
68129223,nan,nan,-3.0582428,-1.5333632,0.0,0.07114295,-1.9517943,0.06672287,0.48435014,-1.0280224,-0.98594147,0.0,0.0,0.0,0.027721377,-0.05883801,-0.5612744
68233506,nan,nan,-3.0582428,-1.5333632,0.0,0.06906391,-1.9580802,0.06826997,0.5070719,-0.1504401,-0.9085972,0.0,0.0,0.0,0.02881447,-0.008548791,-0.55725205
68312964,nan,nan,-3.0582428,-1.5333632,0.0,0.06743423,-1.9044204,0.06974125,0.4868083,0.59446806,-0.8842586,0.0,0.0,0.0,0.027599668,0.03370345,-0.55598634
68432200,nan,nan,-3.0582428,-1.5355726,-0.2006857,0.065507255,-1.7704033,0.07724738,0.5235654,1.0586387,-0.8541296,0.0,0.0,0.0,0.029599912,0.059850425,-0.55441946
68531460,nan,nan,-3.0582428,-1.5479298,-0.36629635,0.05808699,-1.6425272,0.086358786,0.44482106,0.6738754,-0.736843,0.0,0.0,0.0,0.024871115,0.03767814,-0.5483199
68630775,nan,nan,-3.0582428,-1.5687791,-0.16665268,0.04445355,-1.5092155,0.09582305,0.42632312,1.4870586,-0.72337174,0.0,0.0,0.0,0.023806598,0.08303984,-0.54761934
68730226,nan,nan,-3.0582428,-1.5872438,-0.055043433,0.024866661,-1.3710946,0.10604,0.39446586,0.6446848,-0.6456291,0.0,0.0,0.0,0.021865252,0.035734892,-0.5435763
68824445,nan,nan,-3.0582428,-1.5974723,-0.019215634,0.005863644,-1.3127202,0.11726713,0.42453527,-0.04042214,-0.6476743,0.0,0.0,0.0,0.02353564,-0.002240947,-0.54368263
68923761,nan,nan,-3.0582428,-1.6022856,-0.006321218,-0.022391198,-1.3266896,0.12620592,0.10259533,-0.75884444,-0.66357386,0.0,0.0,0.0,0.0056965356,-0.042134322,-0.5445095
69028044,nan,nan,-3.0582428,-1.6027735,-0.002008534,-0.05364998,-1.3636407,0.1318543,0.6598777,-1.1429822,-0.62995607,0.0,0.0,0.0,0.03652162,-0.06325954,-0.5427612
69127388,nan,nan,-3.0582428,-1.6020778,-0.0006621554,-0.052004512,-1.4627842,0.13522792,0.6192804,-1.8582925,-0.66303813,0.0,0.0,0.0,0.034383483,-0.103175506,-0.54448164
69226680,nan,nan,-3.0582428,-1.6020778,-0.0002182906,-0.05067885,-1.5682079,0.13659191,0.75112695,-1.301299,-0.6669756,0.0,0.0,0.0,0.041719567,-0.07227757,-0.54468644
69326003,nan,nan,-3.0582428,-1.6020778,-7.2077826e-05,-0.04935255,-1.6032329,0.14002681,0.7151794,-0.50178105,-0.54829633,0.0,0.0,0.0,0.03927298,-0.027554538,-0.53851444
69425314,nan,nan,-3.0582428,-1.6020778,-2.3791832e-05,-0.050468408,-1.6093525,0.14163017,0.65156376,-0.8210484,-0.61840594,0.0,0.0,0.0,0.036021587,-0.04539151,-0.5421605
69524706,nan,nan,-3.0582428,-1.6020778,-7.842536e-06,-0.050362114,-1.6404344,0.14099193,0.7124022,-0.29153007,-0.75972056,0.0,0.0,0.0,0.039919138,-0.016335756,-0.54950964
69623948,nan,nan,-3.0582428,-1.6020778,-2.594414e-06,-0.05062678,-1.6240731,0.14221716,0.71802187,-0.5901895,-0.7192362,0.0,0.0,0.0,0.040079687,-0.032944135,-0.5474042
69733199,nan,nan,-3.0582428,-1.6020778,-7.7311796e-07,-0.049546342,-1.6189153,0.14036512,0.73475057,0.099508345,-0.7779931,0.0,0.0,0.0,0.041242905,0.0055855867,-0.5504599
69832514,nan,nan,-3.0582428,-1.6020778,-2.56557e-07,-0.047814943,-1.5502344,0.13811374,0.744849,0.4153139,-0.76381856,0.0,0.0,0.0,0.041753,0.023280693,-0.5497228
69931834,nan,nan,-3.0582428,-1.6020778,-8.4287926e-08,-0.045595516,-1.430664,0.13480902,0.74685633,1.0223984,-0.79649794,0.0,0.0,0.0,0.041995157,0.05748867,-0.5514223
70031149,nan,nan,-3.0582428,-1.6020778,-2.7940292e-08,-0.04083387,-1.3290809,0.13253713,0.72127753,0.37122744,-0.8636033,0.0,0.0,0.0,0.040813845,0.021006087,-0.55491215
70130466,nan,nan,-3.0582428,-1.6020778,-9.218646e-09,-0.041535504,-1.3010066,0.12677646,0.6749384,-0.447482,-0.962117,0.0,0.0,0.0,0.038544297,-0.025554745,-0.5600354
70229784,nan,nan,-3.0582428,-1.6020778,-3.0400302e-09,-0.043634444,-1.3518839,0.12149954,0.58941257,-1.2844864,-1.0375246,0.0,0.0,0.0,0.033895798,-0.07386795,-0.563957
70329218,nan,nan,-3.0582428,-1.6020778,-9.994171e-10,-0.04409611,-1.4181747,0.116234064,0.5635053,-0.9166138,-1.0141435,0.0,0.0,0.0,0.032336116,-0.052598845,-0.56274104
70428425,nan,nan,-3.0582428,-1.6020778,-3.310228e-10,-0.045192886,-1.4359523,0.113630295,0.61350274,-0.81943446,-0.8871274,0.0,0.0,0.0,0.0347916,-0.04646994,-0.55613554
70527736,nan,nan,-3.0582428,-1.6020778,-1.09015866e-10,-0.046303086,-1.4944819,0.11274886,0.61445856,-0.88528705,-0.86428046,0.0,0.0,0.0,0.03477148,-0.050097343,-0.5549474
70632022,nan,nan,-3.0582428,-1.6020778,-3.431075e-11,-0.045442034,-1.5008327,0.11449003,0.67534816,-0.15274507,-0.7847862,0.0,0.0,0.0,0.037932053,-0.008579181,-0.5508132
70731337,nan,nan,-3.0582428,-1.6020778,-1.1305389e-11,-0.04537499,-1.4574537,0.116119385,0.6177213,-0.030027509,-0.757518,0.0,0.0,0.0,0.034606256,-0.0016822141,-0.5493951
70830688,nan,nan,-3.0582428,-1.6020778,-3.743979e-12,-0.04398445,-1.3898656,0.11598444,0.6437007,0.22619572,-0.77105904,0.0,0.0,0.0,0.03610833,0.012688426,-0.5500993
70925005,nan,nan,-3.0582428,-1.6020778,-1.2990771e-12,-0.044382058,-1.3683659,0.11474919,0.6765803,-0.18235415,-0.7724018,0.0,0.0,0.0,0.037956763,-0.010230231,-0.55016917
71024326,nan,nan,-3.0582428,-1.6020778,-4.2726564e-13,-0.04204477,-1.3153028,0.11223841,0.6167308,0.40097827,-0.77077603,0.0,0.0,0.0,0.034594093,0.022491952,-0.5500846
71133624,nan,nan,-3.0582428,-1.6020778,-1.2824351e-13,-0.039482314,-1.264502,0.10755634,0.6210083,-0.3350414,-0.81001484,0.0,0.0,0.0,0.03496365,-0.018863305,-0.5521252
71232889,nan,nan,-3.0582428,-1.6020778,-4.280258e-14,-0.04075363,-1.3009411,0.102033615,0.59550315,-1.2057836,-0.8950918,0.0,0.0,0.0,0.03379629,-0.068431236,-0.5565497
71332206,nan,nan,-3.0582428,-1.6020778,-1.4099745e-14,-0.04107636,-1.3659142,0.09512806,0.6291806,-0.7811139,-0.9301131,0.0,0.0,0.0,0.03582428,-0.04447506,-0.558371
71431717,nan,nan,-3.0582428,-1.6020778,-4.649218e-15,-0.03997686,-1.3549557,0.090340376,0.6118651,-0.08907598,-0.7750757,0.0,0.0,0.0,0.034334917,-0.004998514,-0.5503082
71525875,nan,nan,-3.0582428,-1.6020778,-1.612533e-15,-0.03942996,-1.2840248,0.08644462,0.57270586,0.13680208,-0.79138166,0.0,0.0,0.0,0.03218711,0.0076885256,-0.5511562
71625198,nan,nan,-3.0582428,-1.6020778,-5.321952e-16,-0.041548748,-1.2613425,0.08137822,0.54137015,-0.45560253,-0.847599,0.0,0.0,0.0,0.030587764,-0.02574184,-0.55407983
71724510,nan,nan,-3.0582428,-1.6020778,-1.7611296e-16,-0.043799672,-1.3172646,0.07675266,0.5494059,-1.381707,-0.9415134,0.0,0.0,0.0,0.03131532,-0.078755245,-0.5589639
71823836,nan,nan,-3.0582428,-1.6020778,-5.798763e-17,-0.04552813,-1.4438957,0.07705188,0.5083215,-1.7502882,-0.9163691,0.0,0.0,0.0,0.02890571,-0.09953017,-0.5576562
71933158,nan,nan,-3.0582428,-1.6020778,-1.7280233e-17,-0.046766683,-1.5310099,0.07858682,0.5030315,-1.0148716,-0.7606493,0.0,0.0,0.0,0.028189464,-0.056872554,-0.549558
72032393,nan,nan,-3.0582428,-1.6020778,-5.7428685e-18,-0.045782965,-1.526894,0.07511139,0.5489634,-0.046004146,-0.7331142,0.0,0.0,0.0,0.030683503,-0.0025713341,-0.548126
72131718,nan,nan,-3.0582428,-1.6020778,-1.8805662e-18,-0.04486974,-1.4551957,0.0712688,0.55500984,0.23427051,-0.75210154,0.0,0.0,0.0,0.03107731,0.01311778,-0.54911345
72231192,nan,nan,-3.0582428,-1.6020778,-6.242201e-19,-0.045494296,-1.4137609,0.06691003,0.5454319,-0.260848,-0.85328186,0.0,0.0,0.0,0.03083407,-0.01474612,-0.55437535
72330346,nan,nan,-3.0582428,-1.6020778,-2.0633334e-19,-0.046495527,-1.4464803,0.05872345,0.58564466,-0.8030157,-0.958763,0.0,0.0,0.0,0.033434525,-0.045844268,-0.55986094
72429663,nan,nan,-3.0582428,-1.6020778,-6.8009536e-20,-0.046580743,-1.4954187,0.050285816,0.53552073,-0.9860954,-0.93227327,0.0,0.0,0.0,0.030497637,-0.05615764,-0.55848336
72524015,nan,nan,-3.0582428,-1.6020778,-2.3613186e-20,-0.046347667,-1.5021889,0.044723988,0.60821205,-0.51810515,-0.8877549,0.0,0.0,0.0,0.034493506,-0.029383278,-0.55616814
72613400,nan,nan,-3.0582428,-1.6020778,-8.838539e-21,-0.04790795,-1.5254962,0.04183507,0.5080686,-0.9277593,-0.8362556,0.0,0.0,0.0,0.028675703,-0.052363303,-0.5534899
72732581,nan,nan,-3.0582428,-1.6020778,-2.3404536e-21,-0.0472018,-1.5237193,0.040154696,0.51901084,-0.045983315,-0.8291905,0.0,0.0,0.0,0.029273154,-0.0025935424,-0.55312246
72831901,nan,nan,-3.0582428,-1.6020778,-7.713007e-22,-0.04536834,-1.4627839,0.042226315,0.638734,0.5763804,-0.8050308,0.0,0.0,0.0,0.03594445,0.032435533,-0.55186605
72931215,nan,nan,-3.0582428,-1.6020778,-2.550334e-22,-0.044811532,-1.3653883,0.04541731,0.5394158,0.21659648,-0.7753424,0.0,0.0,0.0,0.030270029,0.012154598,-0.55032206
73030699,nan,nan,-3.0582428,-1.6020778,-8.389301e-23,-0.044955503,-1.3392766,0.047638893,0.56316376,-0.42473724,-0.86512715,0.0,0.0,0.0,0.031871222,-0.024037225,-0.55499136
73129851,nan,nan,-3.0582428,-1.6020778,-2.7768888e-23,-0.042756554,-1.3621788,0.047614574,0.54951715,-0.808513,-0.92756474,0.0,0.0,0.0,0.03128118,-0.046024486,-0.5582385
73229168,nan,nan,-3.0582428,-1.6020778,-9.1424656e-24,-0.04480629,-1.4313747,0.045844078,0.51811683,-1.6285734,-0.9152149,0.0,0.0,0.0,0.029459635,-0.092599146,-0.5575962
73328485,nan,nan,-3.0582428,-1.6020778,-3.0182106e-24,-0.047906984,-1.5647012,0.044517517,0.5464202,-1.7355406,-0.96510327,0.0,0.0,0.0,0.031213379,-0.09913997,-0.5601907
73427802,nan,nan,-3.0582428,-1.6020778,-9.95498e-25,-0.049371168,-1.6475714,0.04243827,0.5443181,-1.0962331,-0.8692135,0.0,0.0,0.0,0.03081669,-0.06206348,-0.5552039
73527120,nan,nan,nan,-1.6020778,-3.269401e-25,-0.048254706,-1.6513284,0.043282747,0.60713995,-0.12016958,-0.860477,0.0,0.0,0.0,0.034344878,-0.0067977887,-0.55474955
73631403,nan,nan,nan,-1.6020778,-1.03326764e-25,-0.046538476,-1.5707998,0.00024641643,0.5878725,0.8115047,-1.8539761,0.0,0.0,0.0,0.03635243,0.05018124,-0.606417
73730720,nan,nan,nan,-1.6020778,-3.3995662e-26,-0.044655308,-1.4252623,-0.12207497,0.5889523,0.98684055,-2.7871804,0.0,0.0,0.0,0.039333783,0.06590715,-0.6549488
73830131,nan,nan,nan,-1.6020778,-1.12393974e-26,-0.043546937,-1.3302529,-0.31330094,0.6589643,0.32574615,-3.09251,0.0,0.0,0.0,0.045076862,0.022282865,-0.6708276
73924422,nan,nan,nan,-1.6020778,-3.9020693e-27,-0.04360438,-1.3101046,-0.45456353,0.6307194,-0.5992413,-2.051295,0.0,0.0,0.0,0.039661888,-0.03768243,-0.61667866
74003843,nan,nan,nan,-1.6020778,-1.6093367e-27,-0.044427436,-1.3482662,-0.51820856,0.6302849,-1.2728107,-1.2037942,0.0,0.0,0.0,0.036801837,-0.07431841,-0.57260394
74132956,nan,nan,nan,-1.6020778,-3.881291e-28,-0.04311808,-1.384517,-0.5329215,0.63582075,-0.34121162,-0.5421203,0.0,0.0,0.0,0.034894243,-0.018725911,-0.5381932
74232273,nan,nan,nan,-1.6020778,-1.2847377e-28,-0.042835306,-1.350098,-0.53133,0.58241653,-0.39403194,-0.51524454,0.0,0.0,0.0,0.031880524,-0.02156866,-0.53679556
74331592,nan,nan,nan,-1.6020778,-4.2362963e-29,-0.043098718,-1.3691932,-0.4759705,0.62258637,-0.37535572,0.20040315,0.0,0.0,0.0,0.03171607,-0.019121539,-0.4995779
74425942,nan,nan,nan,-1.6020778,-1.4717036e-29,-0.042248998,-1.3614689,-0.35037208,0.6177975,-0.010314107,1.0013818,0.0,0.0,0.0,0.02884833,-0.00048162186,-0.4579226
74525259,nan,nan,nan,-1.6020778,-4.8671515e-30,-0.04002543,-1.2866212,-0.16095836,0.6449648,0.7892804,1.0602263,0.0,0.0,0.0,0.02991532,0.03660909,-0.45486236
74624663,nan,nan,nan,-1.6020778,-1.6042891e-30,-0.04024131,-1.2138314,-0.022987572,0.56541103,0.17691408,-0.075853825,0.0,0.0,0.0,0.029632457,0.009271838,-0.5139448
74728859,nan,nan,-3.3998191,-1.6020778,-5.0501287e-31,-0.04225664,-1.2223653,0.0319555,0.53968745,-0.64222926,-1.276436,0.0,0.0,0.0,0.031719826,-0.03774666,-0.57638174
74828177,nan,nan,nan,-1.6020778,-1.662933e-31,-0.04531775,-1.3115755,0.0046438994,0.5626118,-1.5505981,-1.8825643,0.0,0.0,0.0,0.034875754,-0.09612006,-0.6079037
74927676,nan,nan,-3.3612823,-1.6020778,-5.478916e-32,-0.048526578,-1.4798876,-0.025786879,0.56700486,-2.5090394,-1.488646,0.0,0.0,0.0,0.03396354,-0.15029123,-0.5874178
75026812,nan,nan,-3.3612823,-1.6020778,-1.812493e-32,-0.04885735,-1.647675,-0.047718525,0.61325854,-1.7199427,-1.2810128,0.0,0.0,0.0,0.036058906,-0.10113068,-0.57661974
75126139,nan,nan,-3.3612823,-1.6020778,-5.981233e-33,-0.049179133,-1.7370985,-0.057177305,0.5260805,-0.9211663,-1.0376326,0.0,0.0,0.0,0.030253997,-0.05297471,-0.56396264
75225447,nan,nan,-3.3612823,-1.6020778,-1.9685464e-33,-0.053663667,-1.8268687,-0.065520525,0.53441143,-1.6439036,-0.9784423,0.0,0.0,0.0,0.030565295,-0.09402196,-0.5608844
75324764,nan,nan,-3.3612823,-1.6020778,-6.509633e-34,-0.058338713,-1.982398,-0.0693357,0.49243027,-1.805628,-1.0696918,0.0,0.0,0.0,0.028402416,-0.10414509,-0.5656299
75424128,nan,nan,-3.3612823,-1.6020778,-2.1462024e-34,-0.05859635,-2.087882,-0.06923723,0.59365857,-1.1980989,-0.96608454,0.0,0.0,0.0,0.033915024,-0.068445995,-0.5602417
75533344,nan,nan,-3.3612823,-1.6020778,-6.4390114e-35,-0.0567339,-2.1126482,-0.06446862,0.6037266,-0.19391839,-0.9329004,0.0,0.0,0.0,0.034383748,-0.011044139,-0.55851597
75632648,nan,nan,-3.3612823,-1.6020778,-2.1268251e-35,-0.054943375,-2.0524015,-0.05895877,0.59065336,0.6065915,-0.9288559,0.0,0.0,0.0,0.03362675,0.034534138,-0.5583056
75732143,nan,nan,-3.3612823,-1.6020778,-6.9950595e-36,-0.054354206,-1.9202794,-0.05348468,0.55713415,1.0097561,-0.93861175,0.0,0.0,0.0,0.03174705,0.057538703,-0.558813
75831286,nan,nan,-3.3612823,-1.6020778,-2.308263e-36,-0.053933494,-1.7591891,-0.04105282,0.5430689,1.1709406,-0.8765168,0.0,0.0,0.0,0.030766755,0.0663379,-0.5555837
75930601,nan,nan,-3.3612823,-1.6020778,-7.631787e-37,-0.055484254,-1.6489922,-0.030030968,0.56634265,0.37209797,-0.8405203,0.0,0.0,0.0,0.03197749,0.021009821,-0.5537117
76029917,nan,nan,-3.3612823,-1.6020778,-2.5132156e-37,-0.054699726,-1.6141782,-0.021231653,0.6176163,-0.22406836,-0.8446311,0.0,0.0,0.0,0.034886498,-0.012656662,-0.55392545
76129235,nan,nan,-3.3612823,-1.6020778,-8.3116724e-38,-0.05156369,-1.6015017,-0.012439013,0.5859649,-0.8013611,-0.85949326,0.0,0.0,0.0,0.033144105,-0.045327615,-0.5546984
76228552,nan,nan,-3.3612823,-1.6020778,-2.740856e-38,-0.05400028,-1.6645559,-0.007546664,0.52225286,-1.5957198,-0.9226304,0.0,0.0,0.0,0.029715348,-0.09079389,-0.55798185
76312973,nan,nan,-3.3612823,-1.6020778,-1.0770624e-38,-0.056503735,-1.7767792,-0.0028376589,0.5625578,-1.9912581,-0.9195342,0.0,0.0,0.0,0.03199929,-0.11326632,-0.55782086
76432153,nan,nan,-3.3612823,-1.6020778,-2.8391e-39,-0.058947306,-1.949589,0.0035014143,0.5433801,-2.0513978,-0.8896551,0.0,0.0,0.0,0.030822348,-0.1163622,-0.55626696
76531649,nan,nan,-3.3612823,-1.6020778,-9.31636e-40,-0.058512088,-2.0420604,0.009214877,0.5453583,-1.2300344,-0.82791656,0.0,0.0,0.0,0.030756075,-0.06936912,-0.55305624
76630788,nan,nan,-3.3612823,-1.6020778,-3.09348e-40,-0.057209387,-2.0550718,0.007910012,0.6147332,-0.33335212,-0.83045447,0.0,0.0,0.0,0.03467697,-0.018804323,-0.5531882
76730105,nan,nan,-3.3612823,-1.6020778,-1.02192e-40,-0.057935957,-2.0022125,0.005925893,0.5036362,-0.08360228,-0.9104114,0.0,0.0,0.0,0.028623728,-0.004751463,-0.5573464
76824457,nan,nan,-3.3612823,-1.6020778,-3.537e-41,-0.058834516,-1.9531544,0.001910924,0.5623028,0.49892333,-0.99727863,0.0,0.0,0.0,0.03221658,0.028585315,-0.561864
76923774,nan,nan,-3.3612823,-1.6020778,-1.1666e-41,-0.060503613,-1.9067979,-0.0015969286,0.5661942,-0.39755917,-0.9995731,0.0,0.0,0.0,0.032446537,-0.022782674,-0.5619833
77013160,nan,nan,-3.3612823,-1.6020778,-4.373e-42,-0.06084393,-1.9198561,-0.003919364,0.55949503,-0.38567945,-1.018349,0.0,0.0,0.0,0.03211862,-0.022140484,-0.5629598
77132340,nan,nan,-3.3612823,-1.6020778,-1.153e-42,-0.05781037,-1.863942,-0.0027985582,0.541857,0.34033138,-0.93648285,0.0,0.0,0.0,0.030870164,0.019389037,-0.5587023
77231661,nan,nan,-3.3612823,-1.6020778,-3.81e-43,-0.057249665,-1.7833436,0.0020744791,0.52314687,0.0016183853,-0.8921899,0.0,0.0,0.0,0.029680615,9.181871e-05,-0.5563988
77331125,nan,nan,-3.3612823,-1.6020778,-1.25e-43,-0.053745028,-1.7693232,0.009026288,0.70432436,-0.2609983,-0.9012514,0.0,0.0,0.0,0.039994974,-0.014820759,-0.55687004
77425327,nan,nan,-3.3612823,-1.6020778,-4.3e-44,-0.0546516,-1.7854351,0.011574267,0.5205888,-0.8103018,-0.94773656,0.0,0.0,0.0,0.029689973,-0.046212748,-0.55928755
77524644,nan,nan,-3.3612823,-1.6020778,-1.4e-44,-0.05753767,-1.8004434,0.014815091,0.6088909,-1.0103078,-0.9191613,0.0,0.0,0.0,0.034633715,-0.057466313,-0.5578015
77623962,nan,nan,-3.3612823,-1.6020778,-4e-45,-0.05908863,-1.8689578,0.016342161,0.5989577,-1.1241366,-0.88743055,0.0,0.0,0.0,0.033968076,-0.063752,-0.5561513
77703446,nan,nan,-3.3612823,-1.6020778,-3e-45,-0.059731867,-1.906816,0.016800163,0.5379798,-1.3214319,-0.9017781,0.0,0.0,0.0,0.030550674,-0.075041175,-0.55689746
77832531,nan,nan,-3.3612823,-1.6020778,-1e-45,-0.05955578,-1.9786372,0.024383066,0.5657572,-0.64463997,-0.8541217,0.0,0.0,0.0,0.031984918,-0.036444526,-0.55441904
77931857,nan,nan,-3.3612823,-1.6020778,-1e-45,-0.063057825,-2.0032907,0.034230947,0.64605814,-0.6718168,-0.7360748,0.0,0.0,0.0,0.036120303,-0.037560437,-0.54827994
78031215,nan,nan,-3.3612823,-1.6020778,-1e-45,-0.06049627,-1.9667151,0.04492545,0.5925663,0.20753103,-0.7361037,0.0,0.0,0.0,0.033130508,0.011603103,-0.54828143
78130540,nan,nan,-3.3612823,-1.6020778,-1e-45,-0.057542358,-1.8510023,0.05241704,0.5756088,1.0631019,-0.7114005,0.0,0.0,0.0,0.032106303,0.05929769,-0.5469968
78229797,nan,nan,-3.3612823,-1.6020778,-1e-45,-0.054534644,-1.7073048,0.060970306,0.5411696,0.71035415,-0.7141633,0.0,0.0,0.0,0.030193433,0.039632734,-0.5471404
78329115,nan,nan,-3.3612823,-1.5801116,-0.020314394,-0.054019723,-1.638535,0.06915879,0.5329039,-0.118454635,-0.72344124,0.0,0.0,0.0,0.029759098,-0.0066148946,-0.5476229
78408678,nan,nan,-3.3612823,-1.5797396,-0.24783744,-0.045275334,-1.6279393,0.07730508,0.66901,-0.2773267,-0.7493844,0.0,0.0,0.0,0.037451033,-0.015524688,-0.54897213
78532771,nan,nan,-3.3612823,-1.598297,-0.40433925,-0.025684351,-1.5291761,0.08577013,0.5188036,0.685232,-0.7657267,0.0,0.0,0.0,0.02908728,0.038418263,-0.54982203
78632041,nan,nan,-3.3612823,-1.6196693,-0.13744523,-0.033363547,-1.3711556,0.091477394,0.4090932,1.3350941,-0.75522655,0.0,0.0,0.0,0.022913545,0.07477939,-0.54927593
78731351,nan,nan,-3.3612823,-1.6318067,0.12189359,-0.04363931,-1.2302867,0.0958035,0.3902356,0.6469239,-0.80617654,0.0,0.0,0.0,0.02196278,0.03640941,-0.5519256
78830670,nan,nan,-3.3612823,-1.6289026,0.42775583,-0.055158723,-1.1199467,0.094638824,0.37998384,1.0325844,-0.90130264,0.0,0.0,0.0,0.021577425,0.05863542,-0.5568727
78930018,nan,nan,-3.3612823,-1.6103086,0.5938785,-0.06247253,-1.0211941,0.09257722,0.48608154,0.102119595,-0.9118916,0.0,0.0,0.0,0.02762968,0.0058046463,-0.5574234
79024337,nan,nan,-3.3612823,-1.5795296,0.6519688,-0.05317532,-1.0007082,0.08183646,0.68811786,-0.52170664,-1.0441935,0.0,0.0,0.0,0.039596476,-0.030020647,-0.5643038
79103791,nan,nan,-3.3612823,-1.547121,0.59605485,-0.03485995,-1.0386406,0.073595285,0.76082885,-1.28947,-1.0964091,0.0,0.0,0.0,0.04399111,-0.07455714,-0.56701934
79223158,nan,nan,nan,-1.4990377,0.3784596,0.0033587732,-1.1919055,0.059557877,0.8669312,-2.305415,-1.4050013,0.0,0.0,0.0,0.051544543,-0.1370715,-0.58306783
79327255,nan,nan,nan,-1.4680942,0.12452547,0.044108868,-1.3874967,-0.0066558,0.9347988,-2.1064935,-1.7698828,0.0,0.0,0.0,0.057388574,-0.12932052,-0.6020437
79426572,nan,nan,nan,-1.4495387,0.040708862,0.106126636,-1.544461,-0.029217275,1.1723071,-2.3233864,-0.82571256,0.0,0.0,0.0,0.066099785,-0.13100266,-0.5529416
79525904,nan,nan,nan,-1.4358839,0.013478634,0.1727742,-1.7579726,-0.029217275,1.2222643,-2.9339645,-0.8026005,0.0,0.0,0.0,0.06876669,-0.1650699,-0.55173963
79625208,nan,nan,nan,-1.4262064,0.004427694,0.23995374,-2.0005493,-0.029217275,1.1978389,-2.556494,-0.8594213,0.0,0.0,0.0,0.06775354,-0.14460334,-0.55469465
79724525,nan,nan,nan,-1.4211468,0.001478605,0.3044453,-2.164363,-0.029217275,1.0812536,-1.765604,-0.82274204,0.0,0.0,0.0,0.060948692,-0.09952453,-0.5527871
79823842,nan,nan,nan,-1.4189885,0.00048278898,0.32003903,-2.2522533,-0.029217275,0.546127,-0.83101624,-0.86038685,0.0,0.0,0.0,0.030893479,-0.047009174,-0.55474484
79933097,nan,nan,nan,-1.4189885,0.00014434854,0.31978193,-2.2561421,-0.029217275,0.42269725,0.09724292,-0.9519295,0.0,0.0,0.0,0.024116574,0.005548099,-0.5595056
80012618,nan,nan,nan,-1.4189885,6.081261e-05,0.31278414,-2.2003183,-0.029217275,0.4658873,0.8084488,-0.94524395,0.0,0.0,0.0,0.026564224,0.046096586,-0.5591579
80131729,nan,nan,nan,-1.4119292,-0.06352512,0.30270258,-2.0319839,-0.010603672,0.6121993,1.1112604,-0.7875212,0.0,0.0,0.0,0.03439458,0.062432833,-0.5509554
80231045,nan,nan,nan,-1.41415,-0.3184157,0.30900884,-1.9365692,-0.0065597096,0.6821193,0.44830802,-0.5681468,0.0,0.0,0.0,0.03752919,0.024665238,-0.5395468
80330361,nan,nan,-3.357247,-1.4251587,-0.18010339,0.30481195,-1.9092615,0.0047146278,0.6173028,-0.39502782,-1.0653479,0.0,0.0,0.0,0.035590358,-0.022775179,-0.565404
80429679,nan,nan,-3.3572392,-1.4370172,-0.059148096,0.28186128,-1.9043405,0.010814667,0.4281549,-0.022066385,-0.9397446,0.0,0.0,0.0,0.024399698,-0.0012575195,-0.5588719
80528996,nan,nan,-3.3572392,-1.4451897,-0.019597411,0.25521395,-1.8367554,0.02033043,0.341222,0.026683092,-0.82929003,0.0,0.0,0.0,0.019246263,0.0015050315,-0.55312765
80633324,nan,nan,-3.3572392,-1.4507372,-0.0061314227,0.22513595,-1.7337908,0.02284956,0.35629964,1.0183511,-0.8340752,0.0,0.0,0.0,0.020105507,0.05746417,-0.5533765
80702802,nan,nan,-3.3572392,-1.4532676,-0.05275569,0.20514369,-1.6613593,0.026757002,0.3240646,0.3874647,-0.8099873,0.0,0.0,0.0,0.018245403,0.021814937,-0.5521238
80832031,nan,nan,-3.3572392,-1.4636642,-0.49575216,0.18793678,-1.5521963,0.032525063,0.6975363,0.63339776,-0.79491097,0.0,0.0,0.0,0.039216124,0.035610195,-0.55133975
80931233,nan,nan,nan,-1.4901206,-0.31421998,0.18321376,-1.4908828,0.020170242,0.45517516,-0.10137209,-1.1393247,0.0,0.0,0.0,0.026421603,-0.005884357,-0.5692512
81030550,nan,nan,nan,-1.5122693,-0.10281606,0.12531115,-1.4748167,0.013963584,-0.06553888,-0.109583065,-0.87208045,0.0,0.0,0.0,-0.0037115584,-0.006205842,-0.555353
81124902,nan,nan,nan,-1.5278522,-0.2885003,0.07516918,-1.474742,0.013963584,0.3599671,-0.8312391,-0.8857634,0.0,0.0,0.0,0.0204112,-0.047133718,-0.5560646
81224218,nan,nan,nan,-1.548309,-0.14952858,0.05521697,-1.5490023,0.012947517,0.30888128,-1.6219523,-0.93730986,0.0,0.0,0.0,0.017598892,-0.092412725,-0.55874527
81323535,nan,nan,nan,-1.5650052,-0.048851334,0.03486917,-1.6473151,0.009739065,0.49072206,-1.1937491,-0.93473554,0.0,0.0,0.0,0.02795286,-0.06799919,-0.5586114
81412921,nan,nan,nan,-1.5761342,-0.018289575,0.016719801,-1.6688765,0.009739065,0.4330021,-0.5006491,-0.8658877,0.0,0.0,0.0,0.02450668,-0.028335303,-0.55503094
81532102,nan,nan,nan,-1.5839146,-0.0049203075,-0.007254182,-1.7109301,0.009590396,0.43992263,-1.2988752,-0.8936156,0.0,0.0,0.0,0.024963114,-0.0737038,-0.55647296
81631497,nan,nan,nan,-1.5848259,-0.0016202439,-0.025867315,-1.7575651,0.009739065,0.6195111,-0.8711264,-0.92720133,0.0,0.0,0.0,0.035264272,-0.04958691,-0.5582196
81730737,nan,nan,nan,-1.5849003,-0.0005304998,-0.028326789,-1.8308525,0.009739065,0.58509034,-1.3964117,-0.8830871,0.0,0.0,0.0,0.03316787,-0.07916042,-0.5559254
81830054,nan,nan,nan,-1.5849003,-0.00017702054,-0.027970733,-1.9023414,0.009739065,0.5379421,-1.5679649,-0.929708,0.0,0.0,0.0,0.030628245,-0.08927357,-0.55834997
81929374,nan,nan,nan,-1.5849003,-5.796644e-05,-0.027871955,-1.9906545,0.009739065,0.62606055,-1.0553238,-0.8742694,0.0,0.0,0.0,0.03546134,-0.05977569,-0.55546683
