timestamp,gyro_device_id,gyro_bias[0],gyro_bias[1],gyro_bias[2],accel_device_id,accel_bias[0],accel_bias[1],accel_bias[2],mag_device_id,mag_bias[0],mag_bias[1],mag_bias[2]
61872382,3670026,0.003117113,-0.001868452,0.00061062444,3670026,0.018077517,0.0,-0.08178315,396809,0.0,0.0,0.0
61882310,3670026,0.0031172142,-0.0018685578,0.00060984265,3670026,0.018078083,0.0,-0.08178489,396809,0.0,0.0,0.0
62870856,3670026,0.0031249656,-0.0018843404,0.00047755794,3670026,0.018028587,0.0,-0.08090725,396809,0.0,0.0,0.0
63874033,3670026,0.003119855,-0.0018706854,0.00034540423,3670026,0.017954392,0.0,-0.0796479,396809,0.0,0.0,0.0
64867409,3670026,0.003116799,-0.0018820177,0.00023927091,3670026,0.033037174,-0.005190081,-0.07890968,396809,0.0,0.0,0.0
65875685,3670026,0.0031310837,-0.0018800925,0.00023141097,3670026,0.06936352,0.0012650985,-0.07885354,396809,0.0,0.0,0.0
66874080,3670026,0.003135533,-0.0018554094,0.00021844672,3670026,0.06994862,0.0068337345,-0.078662165,396809,0.0,0.0,0.0
67867403,3670026,0.0031438519,-0.0018393383,0.00023457491,3670026,0.0695065,0.010185593,-0.07865981,396809,0.0,0.0,0.0
68870713,3670026,0.0031497346,-0.0018331972,0.00025255824,3670026,0.0713289,0.00760918,-0.078646526,396809,0.0,0.0,0.0
69874222,3670026,0.00312232,-0.0018107794,0.00032137937,3670026,0.065368876,0.0043167244,-0.0782531,396809,0.0,0.0,0.0
70872365,3670026,0.0031286576,-0.0018283065,0.000402775,3670026,0.06645062,0.005832094,-0.078609385,396809,0.0,0.0,0.0
71875674,3670026,0.0031401545,-0.0018204128,0.0003654765,3670026,0.06448269,0.009314955,-0.07857142,396809,0.0,0.0,0.0
72874018,3670026,0.0031154195,-0.0017541661,0.00028549778,3670026,0.062758595,0.011544584,-0.077876434,396809,0.0,0.0,0.0
73877435,3670026,0.0031412563,-0.0018441121,0.00022917353,3670026,0.061033197,0.011197293,-0.07770307,396809,0.0,0.0,0.0
74870701,3670026,0.0031442125,-0.0018325523,0.00022652102,3670026,0.055248547,0.011123245,-0.07711532,396809,0.0,0.0,0.0
75869044,3670026,0.0031427555,-0.0018257869,0.00022546484,3670026,0.053389896,0.007395144,-0.07654971,396809,0.0,0.0,0.0
76877320,3670026,0.0031410765,-0.0018343952,0.00022953244,3670026,0.049443007,0.009017261,-0.07775677,396809,0.0,0.0,0.0
77875662,3670026,0.0031265283,-0.0018247026,0.00023012204,3670026,0.048050288,0.008880771,-0.077842705,396809,0.0,0.0,0.0
78869039,3670026,0.0031419264,-0.0018357657,0.0002313362,3670026,0.048514638,0.011410601,-0.0777565,396809,0.0,0.0,0.0
79872347,3670026,0.0031176172,-0.0018401564,0.00022073646,3670026,0.047000013,0.013957634,-0.07642281,396809,0.0,0.0,0.0
80870740,3670026,0.003098664,-0.0019043037,0.00023542938,3670026,0.04421128,0.020191578,-0.075362444,396809,0.0,0.0,0.0
81869033,3670026,0.0031090872,-0.001935143,0.00020696995,3670026,0.0405965,0.020325461,-0.06877759,396809,0.0,0.0,0.0
82872342,3670026,0.0032068344,-0.0018589724,0.00021042097,3670026,0.037962396,0.008792559,-0.061390135,396809,0.0,0.0,0.0
83875650,3670026,0.0032859198,-0.00184547,0.00020491585,3670026,0.034919485,0.0039242175,-0.05829874,396809,0.0,0.0,0.0
84874002,3670026,0.0033703037,-0.0019310338,0.00024113186,3670026,0.02707358,0.003572769,-0.0592575,396809,0.0,0.0,0.0
85872335,3670026,0.0034462062,-0.0019805345,0.0002726878,3670026,0.02317355,0.0023489676,-0.06181326,396809,0.0,0.0,0.0
86875644,3670026,0.003474665,-0.001900974,0.0002811711,3670026,0.024790227,0.0001277855,-0.06378415,396809,0.0,0.0,0.0
87874098,3670026,0.0034446951,-0.0018156416,0.00027694364,3670026,0.02695173,-0.00018500052,-0.0639633,396809,0.0,0.0,0.0
88872329,3670026,0.0034439736,-0.0018387508,0.00027776102,3670026,0.026112564,-0.0003495493,-0.06258509,396809,0.0,0.0,0.0
89875651,3670026,0.0034793732,-0.0018604562,0.00021992324,3670026,0.024982585,-0.0016316149,-0.06382301,396809,0.0,0.0,0.0
90873979,3670026,0.0033999365,-0.0019468046,0.0001981417,3670026,0.021480957,0.00032152556,-0.06618901,396809,0.0,0.0,0.0
91872323,3670026,0.0033336235,-0.0018118736,0.0002108742,3670026,0.02289159,0.003439235,-0.067656495,396809,0.0,0.0,0.0
92875631,3670026,0.0032772943,-0.001795893,0.00018078282,3670026,0.02197497,0.004703645,-0.066409156,396809,0.0,0.0,0.0
93873986,3670026,0.0032377285,-0.0018235451,0.00014303376,3670026,0.02026181,0.0053072684,-0.068031475,396809,0.0,0.0,0.0
94872459,3670026,0.0032046,-0.0018905279,0.00014609486,3670026,0.01792049,0.005029501,-0.068698354,396809,0.0,0.0,0.0
95870671,3670026,0.003165932,-0.0019317091,0.0001470881,3670026,0.016303932,0.00553408,-0.07094466,396809,0.0,0.0,0.0
96873968,3670026,0.0031616741,-0.001992788,0.0001174142,3670026,0.014932235,0.0043754973,-0.07138133,396809,0.0,0.0,0.0
97872309,3670026,0.0031217788,-0.0018801756,0.00012367986,3670026,0.01640202,0.0068981093,-0.07107646,396809,0.0,0.0,0.0
98875617,3670026,0.0030368723,-0.0018596787,4.5883677e-05,3670026,0.014874556,0.010723195,-0.06566816,396809,0.0,0.0,0.0
99873964,3670026,0.0030532754,-0.0017752558,3.726525e-05,3670026,0.016074337,0.01277181,-0.06718462,396809,0.0,0.0,0.0
100872303,3670026,0.0030569166,-0.0017335855,4.899167e-06,3670026,0.016614348,0.012778191,-0.06793028,396809,0.0,0.0,0.0
101870819,3670026,0.0030999917,-0.0017850057,6.7474255e-05,3670026,0.016438259,0.011945892,-0.067234986,396809,0.0,0.0,0.0
102873959,3670026,0.003122905,-0.0018040853,7.751777e-05,3670026,0.016403757,0.011448715,-0.06377647,396809,0.0,0.0,0.0
103872297,3670026,0.0031389343,-0.0018379049,3.4985776e-05,3670026,0.016337326,0.011010198,-0.06508361,396809,0.0,0.0,0.0
104875606,3670026,0.0031324879,-0.0018580516,2.0187555e-05,3670026,0.01607255,0.010872654,-0.06869373,396809,0.0,0.0,0.0
105873974,3670026,0.0031356164,-0.0018124224,6.439254e-05,3670026,0.016555218,0.011295744,-0.07150344,396809,0.0,0.0,0.0
106872290,3670026,0.0031766954,-0.001842203,0.0001195525,3670026,0.016546708,0.011069116,-0.07225941,396809,0.0,0.0,0.0
107875599,3670026,0.00318668,-0.0018170093,2.2791342e-05,3670026,0.016847009,0.010899605,-0.072579615,396809,0.0,0.0,0.0
108873942,3670026,0.0032116598,-0.0018109948,2.2123862e-05,3670026,0.017058617,0.0105977515,-0.07326188,396809,0.0,0.0,0.0
109872285,3670026,0.003200788,-0.0018728122,1.2987764e-06,3670026,0.016835775,0.010329743,-0.069093116,396809,0.0,0.0,0.0
110870627,3670026,0.0032025084,-0.0017799968,3.5647543e-05,3670026,0.017476873,0.011235355,-0.06563219,396809,0.0,0.0,0.0
111873936,3670026,0.003165241,-0.0017898917,-2.3528111e-05,3670026,0.017333549,0.011353431,-0.06338447,396809,0.0,0.0,0.0
112872385,3670026,0.003183633,-0.0017756128,-4.789427e-05,3670026,0.017477222,0.0111313155,-0.06480521,396809,0.0,0.0,0.0
113870623,3670026,0.0032262178,-0.0017858344,5.4855558e-05,3670026,0.017499149,0.011127137,-0.06558332,396809,0.0,0.0,0.0
114873931,3670026,0.0032273547,-0.0017556929,-5.857169e-05,3670026,0.017695587,0.01081987,-0.065350905,396809,0.0,0.0,0.0
115872274,3670026,0.0032471034,-0.0017813185,-4.1338015e-05,3670026,0.01757961,0.0107486425,-0.06802243,396809,0.0,0.0,0.0
116870632,3670026,0.0032322,-0.0017791247,-7.6075936e-05,3670026,0.018859344,0.010747305,-0.06944415,396809,0.0,0.0,0.0
117873926,3670026,0.0032294388,-0.0017670449,-8.940392e-05,3670026,0.022536172,0.009515983,-0.07036063,396809,0.0,0.0,0.0
118872270,3670026,0.0032655292,-0.001740777,-0.0002852015,3670026,0.02676498,0.011661772,-0.07253606,396809,0.0,0.0,0.0
119870749,3670026,0.003247576,-0.00171633,-0.0003768336,3670026,0.025249505,0.015425607,-0.07428047,396809,0.0,0.0,0.0
120868954,3670026,0.0032641313,-0.0017689898,-0.00039653326,3670026,0.011928409,0.00487508,-0.074769765,396809,0.0,0.0,0.0
121877230,3670026,0.0032016311,-0.0017795499,-0.0004036357,3670026,0.0020070565,-0.00050158333,-0.0731054,396809,0.0,0.0,0.0
122870650,3670026,0.0031881235,-0.0017920348,-0.00043725487,3670026,-0.0009357738,-0.0027549767,-0.07188508,396809,0.0,0.0,0.0
123868969,3670026,0.003148104,-0.0017632192,-0.0004287106,3670026,-0.005072413,-0.0032217805,-0.07191634,396809,0.0,0.0,0.0
124872261,3670026,0.0030996248,-0.001783674,-0.00043124292,3670026,-0.0058416016,-0.0053149043,-0.07359332,396809,0.0,0.0,0.0
125870603,3670026,0.0030250277,-0.0018243951,-0.00040425328,3670026,-0.0060048513,-0.0072893566,-0.075293325,396809,0.0,0.0,0.0
126874115,3670026,0.0030092534,-0.0017719818,-0.00039879774,3670026,-0.0064894804,-0.007614689,-0.07377361,396809,0.0,0.0,0.0
127872256,3670026,0.0030529678,-0.001789959,-0.000348516,3670026,-0.007003303,-0.0074347435,-0.07544667,396809,0.0,0.0,0.0
128875567,3670026,0.0030933178,-0.0017802271,-0.0002989982,3670026,-0.0077169486,-0.0074681332,-0.07580803,396809,0.0,0.0,0.0
129873909,3670026,0.0031377273,-0.0017786407,-0.00026189248,3670026,-0.008482434,-0.007437619,-0.07483279,396809,0.0,0.0,0.0
130867286,3670026,0.0031241116,-0.0017368341,-0.00020067778,3670026,-0.008155321,-0.0078447275,-0.07282163,396809,0.0,0.0,0.0
131875579,3670026,0.003179495,-0.0017142146,-0.00015825474,3670026,-0.0087309,-0.008410703,-0.072305635,396809,0.0,0.0,0.0
132873908,3670026,0.0031447276,-0.0017663016,-9.6134965e-05,3670026,-0.00855376,-0.0071936348,-0.07370847,396809,0.0,0.0,0.0
133872428,3670026,0.0031440924,-0.0017204247,-9.75383e-05,3670026,-0.008410416,-0.007999986,-0.077834606,396809,0.0,0.0,0.0
134875560,3670026,0.003153058,-0.0017267419,-8.217594e-05,3670026,-0.008765147,-0.0077437367,-0.07636053,396809,0.0,0.0,0.0
135868937,3670026,0.003172277,-0.0017108908,-0.00012757562,3670026,-0.008643084,-0.00815254,-0.07362355,396809,0.0,0.0,0.0
136877215,3670026,0.003136679,-0.0016895618,-0.00023636814,3670026,-0.008352021,-0.008437374,-0.072305106,396809,0.0,0.0,0.0
137875590,3670026,0.003161636,-0.0017046751,-0.00032428865,3670026,-0.008664799,-0.008240797,-0.06935656,396809,0.0,0.0,0.0
138873905,3670026,0.0031416344,-0.0017017766,-0.00043895328,3670026,-0.008438418,-0.0083690025,-0.067955755,396809,0.0,0.0,0.0
139872247,3670026,0.0031233334,-0.0016960645,-0.00053750083,3670026,-0.008291705,-0.008644551,-0.06879604,396809,0.0,0.0,0.0
140870592,3670026,0.0031113424,-0.0017190899,-0.00062528765,3670026,-0.008198665,-0.008415679,-0.06746063,396809,0.0,0.0,0.0
141873905,3670026,0.00308641,-0.001716831,-0.00067857426,3670026,-0.008097491,-0.008375699,-0.06705381,396809,0.0,0.0,0.0
142872249,3670026,0.003032132,-0.0017832209,-0.00072968,3670026,-0.007625794,-0.00804358,-0.07117178,396809,0.0,0.0,0.0
143875559,3670026,0.0030646164,-0.0017419083,-0.0008141714,3670026,-0.0071979538,-0.008755476,-0.07124122,396809,0.0,0.0,0.0
144873970,3670026,0.0030074406,-0.0017724431,-0.00097252894,3670026,-0.0064033624,-0.0041703433,-0.07060034,396809,0.0,0.0,0.0
145872250,3670026,0.003039476,-0.001824083,-0.000932185,3670026,-0.009596659,-0.0019717591,-0.0694164,396809,0.0,0.0,0.0
146875562,3670026,0.003067223,-0.0018967495,-0.0010432578,3670026,-0.015444513,-0.0008474192,-0.06893083,396809,0.0,0.0,0.0
147873919,3670026,0.0031281894,-0.001914026,-0.0010474374,3670026,-0.022544295,-0.0023892615,-0.06680076,396809,0.0,0.0,0.0
148872253,3670026,0.0031801914,-0.0018979354,-0.001052187,3670026,-0.02719694,-0.004289798,-0.065813094,396809,0.0,0.0,0.0
149875565,3670026,0.00321216,-0.0018692485,-0.001048807,3670026,-0.029522842,-0.0057539986,-0.06610249,396809,0.0,0.0,0.0
150873911,3670026,0.0032209847,-0.0018677742,-0.0010310488,3670026,-0.029807502,-0.005617326,-0.067655474,396809,0.0,0.0,0.0
154877228,3670026,0.0031526356,-0.0017835412,-0.0006148019,3670026,-0.030780286,-0.0067409887,-0.0675704,396809,0.0,0.0,0.0
155875574,3670026,0.00317565,-0.0017318067,-0.00050100917,3670026,-0.030830892,-0.0061973697,-0.06573256,396809,0.0,0.0,0.0
156873922,3670026,0.0031912203,-0.0017216788,-0.0003688741,3670026,-0.030664513,-0.0060690413,-0.06557167,396809,0.0,0.0,0.0
157877233,3670026,0.0031670053,-0.001744126,-0.00026590782,3670026,-0.03093858,-0.00622418,-0.065582186,396809,0.0,0.0,0.0
158870740,3670026,0.0031718924,-0.001798254,-0.0001326291,3670026,-0.030911803,-0.0066622803,-0.06470921,396809,0.0,0.0,0.0
159873926,3670026,0.0031938436,-0.0017601877,-1.15359835e-05,3670026,-0.030277891,-0.0063509517,-0.06488461,396809,0.0,0.0,0.0
160872276,3670026,0.0032236704,-0.0017353521,8.826222e-05,3670026,-0.029942209,-0.0060752076,-0.066329874,396809,0.0,0.0,0.0
161875586,3670026,0.0032120948,-0.0016613706,0.00017205029,3670026,-0.029627196,-0.0053653168,-0.06543688,396809,0.0,0.0,0.0
162868982,3670026,0.003220313,-0.0016775044,0.00023178959,3670026,-0.029833177,-0.005405097,-0.06668861,396809,0.0,0.0,0.0
163872280,3670026,0.0032237254,-0.0017195011,0.00028478898,3670026,-0.02980964,-0.0057448307,-0.06810345,396809,0.0,0.0,0.0
164870627,3670026,0.003212328,-0.0016997402,0.0003412481,3670026,-0.029735444,-0.005520322,-0.067752585,396809,0.0,0.0,0.0
165869174,3670026,0.0032041033,-0.0016478654,0.0003126637,3670026,-0.029788958,-0.005086626,-0.068233564,396809,0.0,0.0,0.0
166872289,3670026,0.0032004374,-0.0016269588,0.00032902302,3670026,-0.029648108,-0.004900248,-0.06839045,396809,0.0,0.0,0.0
167870636,3670026,0.0032380386,-0.001617423,0.00040761408,3670026,-0.029596547,-0.0047381846,-0.06766253,396809,0.0,0.0,0.0
168878918,3670026,0.0032829181,-0.0016286236,0.0003886559,3670026,-0.029430564,-0.0047710715,-0.067168966,396809,0.0,0.0,0.0
169872312,3670026,0.0033403106,-0.0016753746,0.0004726641,3670026,-0.029041555,-0.005002658,-0.06779646,396809,0.0,0.0,0.0
170870646,3670026,0.0033038866,-0.0016328715,0.00049021194,3670026,-0.029258123,-0.0046696262,-0.06647404,396809,0.0,0.0,0.0
171873962,3670026,0.0032247682,-0.0016131054,0.0005085778,3670026,-0.029426295,-0.0044121654,-0.06390092,396809,0.0,0.0,0.0
172872355,3670026,0.0032410887,-0.0016222296,0.0005074307,3670026,-0.029525584,-0.004405282,-0.06428487,396809,0.0,0.0,0.0
173870657,3670026,0.0032509454,-0.0016741192,0.0005460279,3670026,-0.029622521,-0.004487819,-0.06610328,396809,0.0,0.0,0.0
174873972,3670026,0.0032663022,-0.0016489308,0.0005102158,3670026,-0.029461792,-0.004411251,-0.06523543,396809,0.0,0.0,0.0
175872320,3670026,0.0033184346,-0.0016703899,0.000549083,3670026,-0.029528685,-0.004509905,-0.06670644,396809,0.0,0.0,0.0
176870711,3670026,0.0033044387,-0.0016837699,0.000495319,3670026,-0.02951277,-0.0045003775,-0.06756372,396809,0.0,0.0,0.0
177873985,3670026,0.0032847682,-0.0016553117,0.00052068016,3670026,-0.029601496,-0.004412728,-0.06822356,396809,0.0,0.0,0.0
178872334,3670026,0.0032498841,-0.0016086642,0.00050942367,3670026,-0.029566959,-0.004273051,-0.06883243,396809,0.0,0.0,0.0
179875650,3670026,0.0032073758,-0.0015579918,0.00046432082,3670026,-0.029495453,-0.0040760096,-0.06841519,396809,0.0,0.0,0.0
180869033,3670026,0.0032161046,-0.0015293307,0.00047836837,3670026,-0.029628882,-0.003975589,-0.068273485,396809,0.0,0.0,0.0
181872348,3670026,0.0031743376,-0.001542281,0.0005260719,3670026,-0.029562384,-0.003990034,-0.069382556,396809,0.0,0.0,0.0
182870698,3670026,0.0031044339,-0.0015314549,0.0005756815,3670026,-0.029858865,-0.0038541427,-0.06890345,396809,0.0,0.0,0.0
183874112,3670026,0.003135323,-0.0015163358,0.00065119035,3670026,-0.029568985,-0.003834619,-0.070397735,396809,0.0,0.0,0.0
184872364,3670026,0.0031515143,-0.0015862556,0.00068607373,3670026,-0.029749412,-0.0040320707,-0.07217467,396809,0.0,0.0,0.0
185875685,3670026,0.0031713864,-0.0015789864,0.00074722903,3670026,-0.029761495,-0.003985688,-0.07280534,396809,0.0,0.0,0.0
186874032,3670026,0.0031627065,-0.0016237644,0.00074666005,3670026,-0.029734401,-0.004042152,-0.073339164,396809,0.0,0.0,0.0
187877351,3670026,0.0031195849,-0.0016109255,0.0008134937,3670026,-0.029681865,-0.0039881836,-0.072172396,396809,0.0,0.0,0.0
188875698,3670026,0.0030823774,-0.0015888446,0.0008612129,3670026,-0.029734395,-0.003927751,-0.07358635,396809,0.0,0.0,0.0
189874055,3670026,0.003169225,-0.0015816123,0.0009278743,3670026,-0.029735964,-0.0039473195,-0.07320949,396809,0.0,0.0,0.0
190872521,3670026,0.0031512207,-0.0015223998,0.0009406583,3670026,-0.029712172,-0.003964189,-0.07117903,396809,0.0,0.0,0.0
191875717,3670026,0.003157723,-0.0014840021,0.00096512545,3670026,-0.029503644,-0.0038765783,-0.07114127,396809,0.0,0.0,0.0
192874068,3670026,0.0032091457,-0.0015021447,0.0009084658,3670026,-0.0296586,-0.003852105,-0.072089836,396809,0.0,0.0,0.0
193872419,3670026,0.003193249,-0.0014700248,0.00092490355,3670026,-0.02926239,-0.003199878,-0.07014424,396809,0.0,0.0,0.0
194875767,3670026,0.0031100642,-0.001461906,0.00074854924,3670026,-0.030128721,-0.0008193553,-0.06903667,396809,0.0,0.0,0.0
195874088,3670026,0.0031346763,-0.0014089702,0.00076340226,3670026,-0.028206607,-0.0011639667,-0.068165466,396809,0.0,0.0,0.0
196872440,3670026,0.0031324606,-0.0014137179,0.0007879957,3670026,-0.027854739,-0.0012940855,-0.06948165,396809,0.0,0.0,0.0
197870940,3670026,0.0031195492,-0.0014329363,0.00063665287,3670026,-0.027861532,0.00019660311,-0.06946782,396809,0.0,0.0,0.0
198869143,3670026,0.0031775532,-0.0014082984,0.0006325313,3670026,-0.027046286,0.00045499965,-0.070851475,396809,0.0,0.0,0.0
199872464,3670026,0.0031605277,-0.0014024355,0.000459031,3670026,-0.02729049,0.0018966752,-0.07114501,396809,0.0,0.0,0.0
200870814,3670026,0.0031857523,-0.0014194256,0.00045568883,3670026,-0.0270922,0.0015415378,-0.071874745,396809,0.0,0.0,0.0
201874211,3670026,0.003183808,-0.0013626845,0.00042510894,3670026,-0.027366353,0.0016923783,-0.07063215,396809,0.0,0.0,0.0
202872486,3670026,0.0032250918,-0.0013771139,0.00039456485,3670026,-0.027230902,0.0013260866,-0.06999738,396809,0.0,0.0,0.0
203870838,3670026,0.0032387855,-0.0013484071,0.0004158288,3670026,-0.027400905,0.0015878055,-0.06872458,396809,0.0,0.0,0.0
204874158,3670026,0.0032044204,-0.0013459249,0.00038707504,3670026,-0.027620463,0.0013630856,-0.06855463,396809,0.0,0.0,0.0
205872514,3670026,0.0030761168,-0.0013444425,0.00032697708,3670026,-0.028797232,0.0017513125,-0.06863587,396809,0.0,0.0,0.0
206875831,3670026,0.0031116183,-0.0013158775,0.00022920645,3670026,-0.026401184,0.0024755714,-0.06807484,396809,0.0,0.0,0.0
207874185,3670026,0.0031256815,-0.0013436045,0.00021658333,3670026,-0.026088333,0.002392256,-0.0692168,396809,0.0,0.0,0.0
208872574,3670026,0.0031240475,-0.0013283656,0.0002717642,3670026,-0.026322953,0.0021902453,-0.06840254,396809,0.0,0.0,0.0
209875860,3670026,0.0031570562,-0.001346444,0.00022010719,3670026,-0.026282085,0.0017762166,-0.068573095,396809,0.0,0.0,0.0
210879180,3670026,0.003202923,-0.001313078,0.00023028931,3670026,-0.02645568,0.0020633426,-0.06827346,396809,0.0,0.0,0.0
211872612,3670026,0.0032237275,-0.0013442341,0.00013851836,3670026,-0.026251463,0.0013114316,-0.06946172,396809,0.0,0.0,0.0
212870921,3670026,0.0032444708,-0.0013423389,0.00016372548,3670026,-0.026347741,0.0015958981,-0.06876816,396809,0.0,0.0,0.0
213874264,3670026,0.0032518096,-0.0013547972,0.00010992044,3670026,-0.026303703,0.0012315742,-0.069392465,396809,0.0,0.0,0.0
214872597,3670026,0.0032362805,-0.0013683169,9.9815e-05,3670026,-0.026238196,0.0012050717,-0.06917397,396809,0.0,0.0,0.0
215871019,3670026,0.0032400675,-0.00132725,5.3846128e-05,3670026,-0.026194325,0.0009130185,-0.069540106,396809,0.0,0.0,0.0
216874273,3670026,0.0032259466,-0.0012980126,5.2655083e-05,3670026,-0.026161028,0.000929105,-0.06897532,396809,0.0,0.0,0.0
217872630,3670026,0.0031783574,-0.0013089159,-6.205881e-06,3670026,-0.026067745,0.0006259983,-0.06873245,396809,0.0,0.0,0.0
218870983,3670026,0.0032056097,-0.0012634657,-2.9314973e-05,3670026,-0.025953442,0.0005443966,-0.06980545,396809,0.0,0.0,0.0
219874389,3670026,0.003167847,-0.001265947,-6.255672e-05,3670026,-0.025858443,0.0003685676,-0.06810781,396809,0.0,0.0,0.0
220872661,3670026,0.0031447033,-0.0012189845,-8.58814e-05,3670026,-0.025851754,0.00025773485,-0.06731249,396809,0.0,0.0,0.0
221871017,3670026,0.0031260767,-0.0012231038,-9.210706e-05,3670026,-0.025861332,0.00022800692,-0.06611785,396809,0.0,0.0,0.0
222874340,3670026,0.003118771,-0.0012433038,-0.00016387185,3670026,-0.025710603,-8.3276944e-05,-0.06666716,396809,0.0,0.0,0.0
223877663,3670026,0.0031353883,-0.0012271676,-0.00013471546,3670026,-0.02565195,2.3772001e-05,-0.06653568,396809,0.0,0.0,0.0
224871052,3670026,0.0031534021,-0.0012516485,-0.00018672904,3670026,-0.025844598,-0.00013152605,-0.06794805,396809,0.0,0.0,0.0
225869409,3670026,0.00315825,-0.0012567106,-0.00032663913,3670026,-0.025738537,-0.0006305224,-0.069527656,396809,0.0,0.0,0.0
226872861,3670026,0.0031699524,-0.0012550711,-0.0003418407,3670026,-0.025813553,-0.0007056534,-0.06940424,396809,0.0,0.0,0.0
227871090,3670026,0.003189635,-0.0012522411,-0.000438069,3670026,-0.025881998,-0.00097044243,-0.07004775,396809,0.0,0.0,0.0
228874414,3670026,0.0031831325,-0.0012266468,-0.0004334881,3670026,-0.025828425,-0.00096195086,-0.06959483,396809,0.0,0.0,0.0
229872771,3670026,0.0031839632,-0.0012005516,-0.0004960482,3670026,-0.025712447,-0.001111619,-0.070187986,396809,0.0,0.0,0.0
230871129,3670026,0.0031847006,-0.0012009749,-0.0005716824,3670026,-0.025743032,-0.0012481861,-0.07064371,396809,0.0,0.0,0.0
231879421,3670026,0.003189317,-0.0011848954,-0.0005891463,3670026,-0.025781723,-0.0012688105,-0.070126496,396809,0.0,0.0,0.0
232867844,3670026,0.0031922401,-0.0011590844,-0.00061297044,3670026,-0.025714116,-0.0013041578,-0.06903215,396809,0.0,0.0,0.0
233871288,3670026,0.0032595652,-0.0011825971,-0.00059654034,3670026,-0.025809895,-0.0012730524,-0.068140134,396809,0.0,0.0,0.0
234869531,3670026,0.0032364205,-0.0011568026,-0.00061359385,3670026,-0.02581899,-0.0012998504,-0.067288324,396809,0.0,0.0,0.0
235872854,3670026,0.0032032984,-0.001160088,-0.00067876437,3670026,-0.025771465,-0.001343582,-0.06750104,396809,0.0,0.0,0.0
236871264,3670026,0.0031658376,-0.0011605727,-0.00065098295,3670026,-0.025890548,-0.0012815809,-0.06720287,396809,0.0,0.0,0.0
237874544,3670026,0.0031334353,-0.0011791994,-0.00063220196,3670026,-0.0258523,-0.0012890792,-0.066981845,396809,0.0,0.0,0.0
238872898,3670026,0.0031552785,-0.0011829387,-0.0006575304,3670026,-0.025915561,-0.0013670969,-0.06770715,396809,0.0,0.0,0.0
239871257,3670026,0.0031463106,-0.0012672431,-0.0007549426,3670026,-0.031048574,-0.0005370093,-0.071773894,396809,0.0,0.0,0.0
240874736,3670026,0.0030905327,-0.0013572321,-0.0010165256,3670026,-0.036938112,0.0017351378,-0.07425712,396809,0.0,0.0,0.0
241872945,3670026,0.002991934,-0.0013885673,-0.0016357517,3670026,-0.033167843,0.0061554476,-0.081606895,396809,0.0,0.0,0.0
242876271,3670026,0.0029503505,-0.0014558142,-0.0020436991,3670026,-0.02972659,0.0062928763,-0.08724609,396809,0.0,0.0,0.0
243874631,3670026,0.0029652761,-0.0015924502,-0.0023640923,3670026,-0.029827807,0.0036420666,-0.090432055,396809,0.0,0.0,0.0
244878023,3670026,0.0029844735,-0.0016399595,-0.0024942688,3670026,-0.03540947,-0.0012082004,-0.09199608,396809,0.0,0.0,0.0
245876320,3670026,0.0029716715,-0.0016162283,-0.0025819775,3670026,-0.04067494,-0.0029972594,-0.09102991,396809,0.0,0.0,0.0
246874680,3670026,0.0029471638,-0.0015781609,-0.0026604785,3670026,-0.04446182,-0.0048866533,-0.088799216,396809,0.0,0.0,0.0
247873233,3670026,0.002919158,-0.0015607213,-0.0027530554,3670026,-0.046059474,-0.0065157847,-0.08675626,396809,0.0,0.0,0.0
248871404,3670026,0.002875442,-0.0014916252,-0.0028203118,3670026,-0.049539663,-0.008647301,-0.08652322,396809,0.0,0.0,0.0
249869764,3670026,0.0029198357,-0.0014310449,-0.0029214344,3670026,-0.05147108,-0.007103271,-0.084940195,396809,0.0,0.0,0.0
250873101,3670026,0.0029018936,-0.0014008142,-0.0029979795,3670026,-0.052238736,-0.007049721,-0.084570706,396809,0.0,0.0,0.0
251871574,3670026,0.0028534124,-0.001352496,-0.0030916892,3670026,-0.05332448,-0.0073185246,-0.083154015,396809,0.0,0.0,0.0
252874785,3670026,0.0027289514,-0.0013830971,-0.0031437133,3670026,-0.053501178,-0.007948694,-0.08129655,396809,0.0,0.0,0.0
253873149,3670026,0.002630445,-0.0013625331,-0.0032172583,3670026,-0.05378325,-0.007842325,-0.07965418,396809,0.0,0.0,0.0
254871513,3670026,0.0025964477,-0.0014202659,-0.0033076692,3670026,-0.05399583,-0.007850525,-0.07817883,396809,0.0,0.0,0.0
255874841,3670026,0.0025969588,-0.0014245824,-0.0033782676,3670026,-0.053815756,-0.007648526,-0.07609374,396809,0.0,0.0,0.0
256868238,3670026,0.0026233895,-0.0014435085,-0.0034648387,3670026,-0.054035697,-0.007624933,-0.07510133,396809,0.0,0.0,0.0
257876536,3670026,0.0026938021,-0.0015294014,-0.0035692814,3670026,-0.058382507,-0.009267361,-0.07729233,396809,0.0,0.0,0.0
258875063,3670026,0.0027447613,-0.001618997,-0.0037023828,3670026,-0.06603962,-0.012159063,-0.085064866,396809,0.0,0.0,0.0
259873271,3670026,0.0028302541,-0.0016109904,-0.0038007656,3670026,-0.069123276,-0.012734857,-0.09026928,396809,0.0,0.0,0.0
260871630,3670026,0.0029011406,-0.0015593782,-0.0038042103,3670026,-0.069023624,-0.011566837,-0.09020858,396809,0.0,0.0,0.0
261874969,3670026,0.0029464269,-0.001501512,-0.0038121126,3670026,-0.06781266,-0.010429973,-0.088075794,396809,0.0,0.0,0.0
262873327,3670026,0.0030249602,-0.0014302938,-0.0038188512,3670026,-0.066946305,-0.009241078,-0.08587209,396809,0.0,0.0,0.0
263876659,3670026,0.0030180756,-0.0013586748,-0.0038195946,3670026,-0.06718114,-0.008260322,-0.08490392,396809,0.0,0.0,0.0
264875026,3670026,0.0030137266,-0.0012886516,-0.0037945393,3670026,-0.06695042,-0.007682811,-0.08421672,396809,0.0,0.0,0.0
265873479,3670026,0.0029828013,-0.0012620959,-0.0037409905,3670026,-0.06704189,-0.0077487766,-0.082748055,396809,0.0,0.0,0.0
266871797,3670026,0.0029671323,-0.0012583868,-0.0036912702,3670026,-0.06714213,-0.007849226,-0.08095044,396809,0.0,0.0,0.0
267875091,3670026,0.0029177535,-0.0012693082,-0.0035944595,3670026,-0.06719798,-0.007988773,-0.079462186,396809,0.0,0.0,0.0
268868490,3670026,0.0028648768,-0.0012267152,-0.0034895511,3670026,-0.0668372,-0.008201392,-0.07817092,396809,0.0,0.0,0.0
269871830,3670026,0.002959138,-0.001278247,-0.0034033512,3670026,-0.06750054,-0.008587953,-0.07589414,396809,0.0,0.0,0.0
270875159,3670026,0.0029906267,-0.0012511417,-0.003275702,3670026,-0.06752839,-0.009152629,-0.07420639,396809,0.0,0.0,0.0
271873526,3670026,0.0029934852,-0.0012559214,-0.0031418337,3670026,-0.067546666,-0.009509232,-0.074328564,396809,0.0,0.0,0.0
272872012,3670026,0.0030312075,-0.0012831189,-0.0030098096,3670026,-0.06784191,-0.009968135,-0.07178095,396809,0.0,0.0,0.0
273875229,3670026,0.003075309,-0.00126335,-0.0028702072,3670026,-0.06786104,-0.010558591,-0.0703744,396809,0.0,0.0,0.0
274873596,3670026,0.0030274834,-0.0012263178,-0.0027123888,3670026,-0.067776665,-0.0109423725,-0.06848113,396809,0.0,0.0,0.0
275871965,3670026,0.0029654542,-0.0012008916,-0.0025682505,3670026,-0.0676839,-0.011227905,-0.06532959,396809,0.0,0.0,0.0
276875317,3670026,0.0029458613,-0.0012338365,-0.0023815588,3670026,-0.06755249,-0.011548391,-0.06294353,396809,0.0,0.0,0.0
277873669,3670026,0.0029288568,-0.001211291,-0.002300039,3670026,-0.06789159,-0.011797207,-0.06420152,396809,0.0,0.0,0.0
278872043,3670026,0.00296289,-0.0011785325,-0.0020987566,3670026,-0.06770855,-0.012358303,-0.061956514,396809,0.0,0.0,0.0
279870546,3670026,0.0029561403,-0.0011663947,-0.0019827501,3670026,-0.06780275,-0.012559298,-0.06240452,396809,0.0,0.0,0.0
280873743,3670026,0.0028558285,-0.001139654,-0.0018226621,3670026,-0.06747967,-0.01271043,-0.06273484,396809,0.0,0.0,0.0
281877080,3670026,0.0029739342,-0.0012051868,-0.0017220812,3670026,-0.06784578,-0.013072776,-0.06065968,396809,0.0,0.0,0.0
282870483,3670026,0.0029603075,-0.0011401988,-0.0015811875,3670026,-0.06777136,-0.01335891,-0.06254619,396809,0.0,0.0,0.0
283878861,3670026,0.0030020906,-0.0010770493,-0.0014891279,3670026,-0.06773256,-0.013656796,-0.06327907,396809,0.0,0.0,0.0
284872194,3670026,0.0029123742,-0.0011024782,-0.0013811135,3670026,-0.067571454,-0.013634707,-0.061200246,396809,0.0,0.0,0.0
285870560,3670026,0.0029863135,-0.0011042295,-0.001294005,3670026,-0.06772175,-0.01396422,-0.05969492,396809,0.0,0.0,0.0
286874094,3670026,0.0029095733,-0.0011207957,-0.001200683,3670026,-0.06742695,-0.01400847,-0.056906175,396809,0.0,0.0,0.0
287872268,3670026,0.0029708126,-0.0010196925,-0.0011523676,3670026,-0.06759057,-0.01423767,-0.058831282,396809,0.0,0.0,0.0
288870639,3670026,0.002976377,-0.00089952134,-0.0010079079,3670026,-0.06753438,-0.014447806,-0.060991008,396809,0.0,0.0,0.0
289873976,3670026,0.0029524378,-0.00084521837,-0.0009515998,3670026,-0.0671822,-0.01441881,-0.06260646,396809,0.0,0.0,0.0
290872374,3670026,0.0029315546,-0.0008699021,-0.0008566242,3670026,-0.067293055,-0.014426777,-0.0636362,396809,0.0,0.0,0.0
291875686,3670026,0.0028837288,-0.0008743906,-0.000767418,3670026,-0.06734146,-0.014401936,-0.06500949,396809,0.0,0.0,0.0
292874057,3670026,0.0028740135,-0.00085700984,-0.00073415175,3670026,-0.06723399,-0.014369158,-0.06663531,396809,0.0,0.0,0.0
293877399,3670026,0.0029647693,-0.00088507595,-0.0006567535,3670026,-0.067406386,-0.014455193,-0.06728741,396809,0.0,0.0,0.0
294875767,3670026,0.0030403992,-0.0009847718,-0.0005866808,3670026,-0.067586824,-0.014391317,-0.06568493,396809,0.0,0.0,0.0
295874139,3670026,0.0030266298,-0.0009654501,-0.00046209342,3670026,-0.067664295,-0.014627457,-0.064444326,396809,0.0,0.0,0.0
296872513,3670026,0.0028464047,-0.0009408723,-0.0003781226,3670026,-0.06665159,-0.01486458,-0.06492998,396809,0.0,0.0,0.0
297870979,3670026,0.002803371,-0.0009070284,-0.00032622792,3670026,-0.06645566,-0.015283774,-0.06375727,396809,0.0,0.0,0.0
298869256,3670026,0.0029512327,-0.00088353804,-0.00024949538,3670026,-0.0718299,-0.014508376,-0.06486655,396809,0.0,0.0,0.0
299877616,3670026,0.0029526511,-0.0010460101,-8.220626e-05,3670026,-0.08025501,-0.010464509,-0.06285386,396809,0.0,0.0,0.0
300870968,3670026,0.0030575155,-0.001092737,4.0276984e-05,3670026,-0.08782368,-0.008518735,-0.05914592,396809,0.0,0.0,0.0
301874309,3670026,0.0031261626,-0.00093495916,7.779865e-05,3670026,-0.08922309,-0.008592085,-0.05776516,396809,0.0,0.0,0.0
302872718,3670026,0.00315095,-0.0008194987,0.00016063161,3670026,-0.09029625,-0.009218114,-0.058109924,396809,0.0,0.0,0.0
303876022,3670026,0.002917879,-0.0006757927,0.0001507764,3670026,-0.09054642,-0.009764804,-0.05574739,396809,0.0,0.0,0.0
304874493,3670026,0.0030132523,-0.00062767486,0.00026641844,3670026,-0.09090536,-0.01002567,-0.057791106,396809,0.0,0.0,0.0
305867802,3670026,0.0029580276,-0.00071951526,0.00046025627,3670026,-0.099950254,-0.0071542365,-0.06063435,396809,0.0,0.0,0.0
306871145,3670026,0.0029035658,-0.00076205144,0.0005650079,3670026,-0.10956174,-0.004698246,-0.063044354,396809,0.0,0.0,0.0
307874484,3670026,0.0027622795,-0.00082903047,0.00061551685,3670026,-0.11488606,-0.0032912758,-0.062363613,396809,0.0,0.0,0.0
308872859,3670026,0.002790162,-0.00075008755,0.00063903874,3670026,-0.115749575,-0.0032197107,-0.062320143,396809,0.0,0.0,0.0
309871234,3670026,0.0027130274,-0.0006984689,0.0006336151,3670026,-0.11695405,-0.0033839801,-0.061217487,396809,0.0,0.0,0.0
310874578,3670026,0.0027751396,-0.0007190101,0.0006513234,3670026,-0.11617668,-0.003136983,-0.059301503,396809,0.0,0.0,0.0
311873076,3670026,0.0028531156,-0.00078326365,0.00070352154,3670026,-0.12320724,-0.0017616196,-0.057292175,396809,0.0,0.0,0.0
312876291,3670026,0.002817339,-0.0007728386,0.00074607454,3670026,-0.12733248,-0.0018103216,-0.055766284,396809,0.0,0.0,0.0
313869699,3670026,0.0027660162,-0.0008056224,0.00074908783,3670026,-0.12881473,-0.0016928209,-0.053142235,396809,0.0,0.0,0.0
314873046,3670026,0.0029004188,-0.00084790244,0.0007941915,3670026,-0.1298306,-0.0010289537,-0.048877135,396809,0.0,0.0,0.0
315871418,3670026,0.0030275139,-0.0008068374,0.0008361166,3670026,-0.13202386,-0.0015871832,-0.047208007,396809,0.0,0.0,0.0
316869793,3670026,0.0029898218,-0.0007211316,0.000854216,3670026,-0.1324768,-0.0027330236,-0.047086917,396809,0.0,0.0,0.0
317878103,3670026,0.0030353884,-0.0007342155,0.00086054776,3670026,-0.13236675,-0.0026897618,-0.048053615,396809,0.0,0.0,0.0
318871662,3670026,0.0030943768,-0.00070129056,0.0008678752,3670026,-0.13298655,-0.0028467912,-0.049735144,396809,0.0,0.0,0.0
319869888,3670026,0.0030974133,-0.0006855049,0.00086356566,3670026,-0.1328587,-0.0029030242,-0.054219738,396809,0.0,0.0,0.0
320868265,3670026,0.0030248335,-0.00063255324,0.00084690924,3670026,-0.13270515,-0.0028907678,-0.0570343,396809,0.0,0.0,0.0
321876576,3670026,0.0029922856,-0.000674312,0.0008275456,3670026,-0.13268873,-0.0028952437,-0.058845583,396809,0.0,0.0,0.0
322875029,3670026,0.0030315346,-0.0007679796,0.00080254336,3670026,-0.13307413,-0.003059671,-0.06105824,396809,0.0,0.0,0.0
323873330,3670026,0.0029758182,-0.00079959113,0.000833769,3670026,-0.13368571,-0.0034704504,-0.06167427,396809,0.0,0.0,0.0
324871706,3670026,0.002910149,-0.00081728096,0.0008075678,3670026,-0.13397963,-0.0034599514,-0.06223834,396809,0.0,0.0,0.0
325875052,3670026,0.0028835053,-0.0008045658,0.0007950934,3670026,-0.13368353,-0.0034444972,-0.06239809,396809,0.0,0.0,0.0
326868462,3670026,0.0028349946,-0.0008798058,0.0007618933,3670026,-0.13485639,-0.0035457243,-0.06593029,396809,0.0,0.0,0.0
327871806,3670026,0.0028524937,-0.00093777454,0.00073744304,3670026,-0.1343339,-0.0036946288,-0.06393215,396809,0.0,0.0,0.0
328875155,3670026,0.0028750596,-0.0009381205,0.00067747664,3670026,-0.13459328,-0.0034518505,-0.06511435,396809,0.0,0.0,0.0
329878558,3670026,0.0028526199,-0.00092721824,0.00066170935,3670026,-0.13486715,-0.0033590358,-0.06249889,396809,0.0,0.0,0.0
330876879,3670026,0.0028829728,-0.00089589687,0.0006005442,3670026,-0.13417296,-0.0030660687,-0.0573156,396809,0.0,0.0,0.0
331870287,3670026,0.0028408936,-0.0008587007,0.0005619306,3670026,-0.1346975,-0.0027790149,-0.0570623,396809,0.0,0.0,0.0
332873678,3670026,0.002748542,-0.000834207,0.00055095385,3670026,-0.1349223,-0.0026237592,-0.058222488,396809,0.0,0.0,0.0
333872011,3670026,0.0027392858,-0.0008180439,0.0005162535,3670026,-0.13461469,-0.0024537917,-0.058764834,396809,0.0,0.0,0.0
334870389,3670026,0.0027199714,-0.00077537086,0.000510273,3670026,-0.13476035,-0.0023240445,-0.059592158,396809,0.0,0.0,0.0
335873735,3670026,0.0027700344,-0.00079460494,0.00049027364,3670026,-0.13424675,-0.0023065729,-0.058888648,396809,0.0,0.0,0.0
336872174,3670026,0.002795892,-0.00079631805,0.000450562,3670026,-0.13446085,-0.0022173782,-0.05875456,396809,0.0,0.0,0.0
337870495,3670026,0.0028274548,-0.0008587106,0.0004310431,3670026,-0.1346141,-0.0023011505,-0.05897041,396809,0.0,0.0,0.0
338873840,3670026,0.0027849865,-0.0008129868,0.00040811914,3670026,-0.13436212,-0.002157566,-0.059083153,396809,0.0,0.0,0.0
339872219,3670026,0.0027490358,-0.0007753853,0.00041349875,3670026,-0.13468204,-0.0021090473,-0.058291532,396809,0.0,0.0,0.0
340870626,3670026,0.0027393482,-0.0007289428,0.00036143133,3670026,-0.13459411,-0.0019973784,-0.058649365,396809,0.0,0.0,0.0
341873946,3670026,0.0027353065,-0.0007644705,0.0003240317,3670026,-0.13429762,-0.0019163667,-0.05668085,396809,0.0,0.0,0.0
342872326,3670026,0.0027305402,-0.0007518411,0.00026009427,3670026,-0.13459277,-0.0018212408,-0.05655362,396809,0.0,0.0,0.0
343875674,3670026,0.0027023463,-0.00072491856,0.00015925153,3670026,-0.13465157,-0.0016850514,-0.058102217,396809,0.0,0.0,0.0
344874057,3670026,0.0026515278,-0.00070770766,0.00010796015,3670026,-0.13452648,-0.00164821,-0.056238696,396809,0.0,0.0,0.0
345877403,3670026,0.002672072,-0.0007221706,4.5668385e-06,3670026,-0.13523915,-0.0015645473,-0.054058474,396809,0.0,0.0,0.0
346875783,3670026,0.002730752,-0.00076203386,-8.6684035e-05,3670026,-0.13404486,-0.001652439,-0.05316456,396809,0.0,0.0,0.0
347874246,3670026,0.0027121296,-0.00075764843,-0.00016873411,3670026,-0.13453175,-0.0016314376,-0.054315653,396809,0.0,0.0,0.0
348872546,3670026,0.0026926387,-0.0007389449,-0.00027198376,3670026,-0.13558263,-0.0019178325,-0.05487528,396809,0.0,0.0,0.0
349875894,3670026,0.002706401,-0.0007585423,-0.0004885867,3670026,-0.13563466,-0.0052206307,-0.05514061,396809,0.0,0.0,0.0
350879243,3670026,0.00275757,-0.000597971,-0.00041087862,3670026,-0.12395177,-0.0037625565,-0.051905144,396809,0.0,0.0,0.0
351872657,3670026,0.00285541,-0.00040592754,-0.00015688119,3670026,-0.108173884,-0.0031163213,-0.043013487,396809,0.0,0.0,0.0
352871040,3670026,0.0030262386,-0.0002737397,0.00011808709,3670026,-0.094892494,-0.006138526,-0.034919363,396809,0.0,0.0,0.0
353869422,3670026,0.0031174298,-0.0002514648,0.00019620649,3670026,-0.090580456,-0.010798907,-0.03148003,396809,0.0,0.0,0.0
354872868,3670026,0.0031503218,-0.00031489538,0.00028366438,3670026,-0.084349334,-0.016363136,-0.031512834,396809,0.0,0.0,0.0
355876121,3670026,0.003116905,-0.0003622421,0.0003333585,3670026,-0.08353445,-0.020545317,-0.0329047,396809,0.0,0.0,0.0
356874506,3670026,0.0031587465,-0.00040181997,0.0003636004,3670026,-0.08157154,-0.020769412,-0.0342041,396809,0.0,0.0,0.0
357872887,3670026,0.0030693691,-0.00045618444,0.00036113698,3670026,-0.08024477,-0.024059853,-0.034019724,396809,0.0,0.0,0.0
358871310,3670026,0.0032056554,-0.00042957536,0.0004916905,3670026,-0.080660366,-0.03522707,-0.021232644,396809,0.0,0.0,0.0
359874620,3670026,0.0033676785,-0.0003286101,0.000601462,3670026,-0.082124434,-0.0457816,-0.012433435,396809,0.0,0.0,0.0
360873003,3670026,0.0034781636,-0.0003454781,0.00053462316,3670026,-0.08373162,-0.053046707,-0.0026762546,396809,0.0,0.0,0.0
361871512,3670026,0.0035047457,-0.00035123507,0.00062042306,3670026,-0.08375647,-0.061398,0.0031663317,396809,0.0,0.0,0.0
362869771,3670026,0.0033779927,-0.00038336628,0.00069196,3670026,-0.082775876,-0.06595121,0.004027072,396809,0.0,0.0,0.0
363873142,3670026,0.0033028196,-0.00038245498,0.00076245336,3670026,-0.08320003,-0.06699756,0.0016200029,396809,0.0,0.0,0.0
364876475,3670026,0.0031347955,-0.00043444228,0.00079837645,3670026,-0.0817316,-0.06695173,-0.0011591149,396809,0.0,0.0,0.0
365874858,3670026,0.002974469,-0.0004295571,0.00091223617,3670026,-0.081349276,-0.06685854,-0.0039006234,396809,0.0,0.0,0.0
366878209,3670026,0.0028625235,-0.00041898052,0.00095776503,3670026,-0.081090115,-0.06716739,-0.0085239,396809,0.0,0.0,0.0
367876594,3670026,0.0027527013,-0.00040559555,0.0009933654,3670026,-0.080283456,-0.06659614,-0.013767296,396809,0.0,0.0,0.0
368875159,3670026,0.0027337517,-0.00039381805,0.0010285315,3670026,-0.080578886,-0.06672381,-0.015378404,396809,0.0,0.0,0.0
369873365,3670026,0.002749169,-0.00036030644,0.0010100749,3670026,-0.080555685,-0.06708382,-0.017029958,396809,0.0,0.0,0.0
370871749,3670026,0.0028031862,-0.00036360807,0.001023299,3670026,-0.08105771,-0.067331,-0.018303413,396809,0.0,0.0,0.0
371875104,3670026,0.0027479094,-0.00035620993,0.0010059924,3670026,-0.08051242,-0.0670846,-0.017463747,396809,0.0,0.0,0.0
372873503,3670026,0.00275588,-0.00039318512,0.000951357,3670026,-0.08014634,-0.066812016,-0.018779002,396809,0.0,0.0,0.0
373871873,3670026,0.0028788275,-0.00037029083,0.00075707305,3670026,-0.083258115,-0.07781523,-0.021541469,396809,0.0,0.0,0.0
374875226,3670026,0.0028079473,-0.0004599104,0.00039974647,3670026,-0.0846405,-0.07929161,-0.033015765,396809,0.0,0.0,0.0
375873612,3670026,0.0026959728,-0.0005599501,4.236365e-05,3670026,-0.08324193,-0.076707475,-0.044545017,396809,0.0,0.0,0.0
376872001,3670026,0.002499736,-0.0007665275,-0.0003369286,3670026,-0.07886324,-0.06547743,-0.054926675,396809,0.0,0.0,0.0
377875393,3670026,0.0024891146,-0.0009203534,-0.0005351151,3670026,-0.08277171,-0.060341302,-0.064425446,396809,0.0,0.0,0.0
378873739,3670026,0.0024719574,-0.00097570725,-0.0006320863,3670026,-0.082032315,-0.05796282,-0.06757868,396809,0.0,0.0,0.0
379872159,3670026,0.002478841,-0.0010099268,-0.0006769163,3670026,-0.08123792,-0.056734864,-0.06871882,396809,0.0,0.0,0.0
380875480,3670026,0.0024950453,-0.00097354635,-0.00071258366,3670026,-0.0830995,-0.05771886,-0.06951318,396809,0.0,0.0,0.0
381873866,3670026,0.0024841358,-0.00096622854,-0.0007466929,3670026,-0.08308433,-0.05818878,-0.07041624,396809,0.0,0.0,0.0
384869030,3670026,0.0022554726,-0.00094554655,-0.000789513,3670026,-0.097532734,-0.06273897,-0.07903477,396809,0.0,0.0,0.0
385872383,3670026,0.0022336869,-0.0009672278,-0.0008438325,3670026,-0.10186573,-0.06337691,-0.083745405,396809,0.0,0.0,0.0
386870886,3670026,0.0021943697,-0.0009233069,-0.00090223795,3670026,-0.10551774,-0.06313461,-0.08482544,396809,0.0,0.0,0.0
387874126,3670026,0.002221499,-0.0008961262,-0.0009103347,3670026,-0.10577165,-0.06285432,-0.08433234,396809,0.0,0.0,0.0
388872516,3670026,0.0022471305,-0.00085700554,-0.0009290384,3670026,-0.10603312,-0.062365122,-0.081846714,396809,0.0,0.0,0.0
389870906,3670026,0.0022936682,-0.00083507213,-0.0009527175,3670026,-0.106235445,-0.062225275,-0.07984876,396809,0.0,0.0,0.0
390874258,3670026,0.0024241244,-0.0009293939,-0.0009162511,3670026,-0.1053779,-0.0634926,-0.079439946,396809,0.0,0.0,0.0
391872648,3670026,0.0025239019,-0.00097331504,-0.00091418705,3670026,-0.10541642,-0.064325534,-0.07863528,396809,0.0,0.0,0.0
392876003,3670026,0.0025136718,-0.000931526,-0.0009084138,3670026,-0.10538287,-0.06400839,-0.07978051,396809,0.0,0.0,0.0
393874501,3670026,0.002485259,-0.00085214595,-0.0008990524,3670026,-0.107841186,-0.06367397,-0.08505317,396809,0.0,0.0,0.0
394872782,3670026,0.0024899344,-0.0010046005,-0.00086359744,3670026,-0.11705634,-0.06398494,-0.092000045,396809,0.0,0.0,0.0
395876169,3670026,0.002459224,-0.0009679143,-0.00085172884,3670026,-0.12013901,-0.063179694,-0.09336793,396809,0.0,0.0,0.0
396874528,3670026,0.002454462,-0.0009771849,-0.0008342779,3670026,-0.12110131,-0.06358319,-0.09207189,396809,0.0,0.0,0.0
397867963,3670026,0.00243522,-0.00092922983,-0.0008580399,3670026,-0.121470734,-0.063002855,-0.08754074,396809,0.0,0.0,0.0
398876276,3670026,0.0024426964,-0.00086705567,-0.0008495848,3670026,-0.12125614,-0.062472228,-0.082738295,396809,0.0,0.0,0.0
399874666,3670026,0.0025042573,-0.00082854414,-0.00084534707,3670026,-0.12089059,-0.06214396,-0.078272134,396809,0.0,0.0,0.0
400873204,3670026,0.0025132026,-0.00075184257,-0.0008380714,3670026,-0.12099172,-0.061847236,-0.073631674,396809,0.0,0.0,0.0
401871455,3670026,0.0024906183,-0.00078090123,-0.00082933967,3670026,-0.121415,-0.0620522,-0.06849562,396809,0.0,0.0,0.0
402874806,3670026,0.0025078245,-0.00070065487,-0.00083639397,3670026,-0.121079564,-0.061739,-0.0660457,396809,0.0,0.0,0.0
403873201,3670026,0.002573368,-0.00066840654,-0.0008147149,3670026,-0.12180854,-0.061436024,-0.06658593,396809,0.0,0.0,0.0
404871680,3670026,0.0025549761,-0.00064690836,-0.00075100246,3670026,-0.12556231,-0.06074487,-0.07129545,396809,0.0,0.0,0.0
405869979,3670026,0.0025196057,-0.00064345344,-0.00068535976,3670026,-0.1286346,-0.0600186,-0.07562996,396809,0.0,0.0,0.0
406873391,3670026,0.0025042696,-0.00056686037,-0.00068923197,3670026,-0.12886827,-0.05972232,-0.075923845,396809,0.0,0.0,0.0
407871891,3670026,0.00251237,-0.00056037103,-0.0006570074,3670026,-0.12908737,-0.06013343,-0.07450428,396809,0.0,0.0,0.0
408875091,3670026,0.0025349453,-0.00059501926,-0.0005907366,3670026,-0.12818432,-0.060504444,-0.07012454,396809,0.0,0.0,0.0
409873481,3670026,0.0024652614,-0.00052549376,-0.0005207441,3670026,-0.12884237,-0.061251964,-0.069058314,396809,0.0,0.0,0.0
410871877,3670026,0.002439765,-0.0005152188,-0.00047105932,3670026,-0.12912157,-0.061798166,-0.06745765,396809,0.0,0.0,0.0
411875257,3670026,0.002469019,-0.0005233758,-0.0004297889,3670026,-0.12861043,-0.06196012,-0.0657897,396809,0.0,0.0,0.0
412873626,3670026,0.002544337,-0.0005449712,-0.00039262863,3670026,-0.12867777,-0.06250556,-0.06296858,396809,0.0,0.0,0.0
413876987,3670026,0.0025567657,-0.0005156531,-0.0003491603,3670026,-0.12880759,-0.062871814,-0.06082831,396809,0.0,0.0,0.0
414870608,3670026,0.0025554926,-0.00048979727,-0.00030360027,3670026,-0.12907314,-0.06323275,-0.06189588,396809,0.0,0.0,0.0
415868806,3670026,0.0025457866,-0.0004657743,-0.00025140843,3670026,-0.12908567,-0.06352566,-0.06360522,396809,0.0,0.0,0.0
416877133,3670026,0.0025162587,-0.0004483946,-0.00018582962,3670026,-0.12862891,-0.0636286,-0.062406108,396809,0.0,0.0,0.0
417870571,3670026,0.0025012444,-0.00041951626,-0.00013393686,3670026,-0.12901275,-0.06403925,-0.061851006,396809,0.0,0.0,0.0
418869024,3670026,0.0025037096,-0.0004512116,-7.882036e-05,3670026,-0.12901795,-0.06428097,-0.061711926,396809,0.0,0.0,0.0
419872314,3670026,0.002529621,-0.00042325404,-4.2073957e-06,3670026,-0.12873076,-0.06451067,-0.061015584,396809,0.0,0.0,0.0
420875675,3670026,0.002554801,-0.00046200253,5.9334634e-05,3670026,-0.12882796,-0.06487051,-0.058061764,396809,0.0,0.0,0.0
421874071,3670026,0.002523445,-0.000388299,0.00011626177,3670026,-0.12841274,-0.06486198,-0.055859674,396809,0.0,0.0,0.0
422872465,3670026,0.0025701849,-0.00039031362,0.00014960257,3670026,-0.12876257,-0.0651993,-0.05564489,396809,0.0,0.0,0.0
423870859,3670026,0.0025699355,-0.00038764716,0.0002134557,3670026,-0.12897882,-0.06548588,-0.056151304,396809,0.0,0.0,0.0
424874220,3670026,0.0025524807,-0.00034025864,0.00022508418,3670026,-0.12839447,-0.06521182,-0.05582102,396809,0.0,0.0,0.0
425872686,3670026,0.0025596959,-0.0003519148,0.0002589869,3670026,-0.1285097,-0.06536827,-0.055184215,396809,0.0,0.0,0.0
426875977,3670026,0.0025537403,-0.00034079168,0.00027136056,3670026,-0.12883694,-0.065547265,-0.054977067,396809,0.0,0.0,0.0
427874372,3670026,0.0025632165,-0.0003486062,0.00026680657,3670026,-0.12902984,-0.06565435,-0.05502934,396809,0.0,0.0,0.0
428867800,3670026,0.0025675169,-0.00035756986,0.00027175274,3670026,-0.12860517,-0.06545701,-0.05601101,396809,0.0,0.0,0.0
429876133,3670026,0.0025664403,-0.00037958552,0.00028001712,3670026,-0.12827225,-0.065311335,-0.055736948,396809,0.0,0.0,0.0
430874527,3670026,0.002509852,-0.0003856091,0.00027718468,3670026,-0.12900952,-0.0656287,-0.056334738,396809,0.0,0.0,0.0
431872972,3670026,0.0025542644,-0.00039473912,0.00026221064,3670026,-0.12858817,-0.06543859,-0.053999096,396809,0.0,0.0,0.0
432876405,3670026,0.002608797,-0.00033475368,0.00024019826,3670026,-0.12840104,-0.065404244,-0.051814854,396809,0.0,0.0,0.0
433869713,3670026,0.002661807,-0.00027487538,0.00022516532,3670026,-0.12908891,-0.06575276,-0.052776523,396809,0.0,0.0,0.0
434873089,3670026,0.0027023307,-0.00030992573,0.00019144983,3670026,-0.12871823,-0.065570384,-0.050749943,396809,0.0,0.0,0.0
435871473,3670026,0.0027209069,-0.00036681557,0.00016543936,3670026,-0.12900406,-0.06573575,-0.0478844,396809,0.0,0.0,0.0
436869869,3670026,0.0026691365,-0.00034712855,0.000153256,3670026,-0.12898009,-0.0657355,-0.04609916,396809,0.0,0.0,0.0
437873234,3670026,0.0025978717,-0.00027125617,7.464627e-05,3670026,-0.12862463,-0.065602414,-0.04572187,396809,0.0,0.0,0.0
438871630,3670026,0.0025728587,-0.00031585066,4.7205274e-05,3670026,-0.1292789,-0.06589618,-0.046254765,396809,0.0,0.0,0.0
439875144,3670026,0.002493418,-0.00033357655,1.1390951e-05,3670026,-0.12824507,-0.06532308,-0.047251776,396809,0.0,0.0,0.0
440873391,3670026,0.0023524966,-0.00028426255,-5.393113e-05,3670026,-0.12867579,-0.065342054,-0.05108099,396809,0.0,0.0,0.0
441871788,3670026,0.0024413215,-0.0003119246,-0.00012554016,3670026,-0.1290108,-0.06560101,-0.051888965,396809,0.0,0.0,0.0
442875153,3670026,0.002490179,-0.00031833228,-0.00017432177,3670026,-0.12851728,-0.0653998,-0.054054968,396809,0.0,0.0,0.0
443868584,3670026,0.0025326938,-0.00038446265,-0.00023421115,3670026,-0.12928404,-0.065843515,-0.055459585,396809,0.0,0.0,0.0
444871951,3670026,0.002519149,-0.0003777921,-0.000302784,3670026,-0.12885262,-0.06565299,-0.05557627,396809,0.0,0.0,0.0
445870346,3670026,0.0025409102,-0.00037436813,-0.00036918727,3670026,-0.12911955,-0.06581647,-0.05309265,396809,0.0,0.0,0.0
446868899,3670026,0.0025356947,-0.00035568004,-0.0004505873,3670026,-0.1292424,-0.06589473,-0.049836546,396809,0.0,0.0,0.0
447872110,3670026,0.002506293,-0.00036619676,-0.0005381331,3670026,-0.12906124,-0.065826036,-0.045850087,396809,0.0,0.0,0.0
448870506,3670026,0.0025372382,-0.00043367554,-0.0006401927,3670026,-0.1294255,-0.06604637,-0.03892231,396809,0.0,0.0,0.0
449873872,3670026,0.0025377076,-0.00044852702,-0.0007457884,3670026,-0.12893832,-0.06580636,-0.03584301,396809,0.0,0.0,0.0
450872289,3670026,0.00259661,-0.000482176,-0.0008800289,3670026,-0.12947409,-0.06612332,-0.03231167,396809,0.0,0.0,0.0
451875635,3670026,0.0025811167,-0.000433698,-0.0010300989,3670026,-0.1295575,-0.06631134,-0.026935762,396809,0.0,0.0,0.0
452874035,3670026,0.0025265464,-0.000533376,-0.0013990126,3670026,-0.13069925,-0.06730536,-0.02741716,396809,0.0,0.0,0.0
453872431,3670026,0.0024834292,-0.00044365102,-0.0017243987,3670026,-0.13233744,-0.06903035,-0.02675198,396809,0.0,0.0,0.0
454870830,3670026,0.0024209763,-0.0005587174,-0.0017842335,3670026,-0.13110484,-0.07169969,-0.027454881,396809,0.0,0.0,0.0
455874201,3670026,0.002372614,-0.0006355537,-0.0018923072,3670026,-0.12985976,-0.07509919,-0.026897362,396809,0.0,0.0,0.0
456872594,3670026,0.0023199886,-0.00064353715,-0.001953916,3670026,-0.1332661,-0.080521405,-0.027660053,396809,0.0,0.0,0.0
457876073,3670026,0.00227099,-0.0006737637,-0.0019688278,3670026,-0.1362328,-0.08474449,-0.028560195,396809,0.0,0.0,0.0
458869392,3670026,0.0022319967,-0.000783269,-0.0019470737,3670026,-0.13987054,-0.08748548,-0.031421002,396809,0.0,0.0,0.0
