timestamp,roll,pitch,yaw,thrust_body[0],thrust_body[1],thrust_body[2]
61872924,-0.4668313,0.0024657561,-9.7045435e-05,0.0,0.0,-0.0
61877887,-0.46732596,0.0021956358,-0.00019726578,0.0,0.0,-0.0
61897931,-0.46759948,0.0028944889,-0.0005821809,0.0,0.0,-0.0
61917676,-0.4651974,0.0041682757,-0.001690739,0.0,0.0,-0.0
61937601,-0.46192792,0.0059477114,0.00054936897,0.0,0.0,-0.0
61957378,-0.46133646,0.007382239,0.00089654926,0.0,0.0,-0.0
61977256,-0.46849042,0.007799156,0.00024049741,0.0,0.0,-0.0
61997103,-0.46340322,0.0059999777,-0.0006096943,0.0,0.0,-0.0
62036764,-0.45870245,-0.0023470481,-4.846449e-05,0.0,0.0,-0.0
62056773,-0.47403562,0.0010748346,0.0006332276,0.0,0.0,-0.0
62076767,-0.46759042,-0.000697451,0.00020230483,0.0,0.0,-0.0
62096476,-0.47114563,0.0056133624,0.00063875166,0.0,0.0,-0.0
62116432,-0.46963274,0.0035440042,-0.00040644288,0.0,0.0,-0.0
62136287,-0.4660911,0.0020825982,-0.0010946301,0.0,0.0,-0.0
62156083,-0.4674218,-0.002231254,0.0011213372,0.0,0.0,-0.0
62175915,-0.4686297,-0.00034286006,0.0002642866,0.0,0.0,-0.0
62195760,-0.47100484,0.0012775431,-0.00047007625,0.0,0.0,-0.0
62215678,-0.4717498,-0.0037941013,0.0009770687,0.0,0.0,-0.0
62235549,-0.47091436,-0.004470094,-7.403639e-05,0.0,0.0,-0.0
62255470,-0.47078106,-0.00018119735,-0.0010683046,0.0,0.0,-0.0
62275215,-0.47307158,-0.0068125213,0.00073310436,0.0,0.0,-0.0
62295096,-0.46937874,-0.007845145,0.0007217482,0.0,0.0,-0.0
62314956,-0.4692354,0.002564167,-0.0013769912,0.0,0.0,-0.0
62340029,-0.46723393,0.0046146545,-0.0011474844,0.0,0.0,-0.0
62354783,-0.47176018,-0.0078659495,0.0009783802,0.0,0.0,-0.0
62374664,-0.46910295,-0.0068963515,0.00028380525,0.0,0.0,-0.0
62399526,-0.46941963,-0.0042388192,-0.0005875682,0.0,0.0,-0.0
62414386,-0.4711215,-0.0001670502,0.00015481537,0.0,0.0,-0.0
62434316,-0.4735437,-0.011212097,0.0015485769,0.0,0.0,-0.0
62459034,-0.4738175,-0.0119498465,0.0014031352,0.0,0.0,-0.0
62478913,-0.46950424,-0.004049086,-0.0014405795,0.0,0.0,-0.0
62493702,-0.46989858,-0.0009097477,0.00059509586,0.0,0.0,-0.0
62518662,-0.4713452,-0.0028726617,0.0013966953,0.0,0.0,-0.0
62538525,-0.47391373,-0.009189463,0.0019249932,0.0,0.0,-0.0
62553390,-0.46555403,0.0045595923,-0.0021452392,0.0,0.0,-0.0
62578284,-0.4646831,0.0045909416,-0.0021883817,0.0,0.0,-0.0
62598259,-0.4694283,-0.0018662032,0.000905896,0.0,0.0,-0.0
62617981,-0.47556984,-0.010465557,0.001989633,0.0,0.0,-0.0
62637847,-0.47262964,-0.0077665295,-0.0005982897,0.0,0.0,-0.0
62657817,-0.46567443,0.0010468056,-0.0018285227,0.0,0.0,-0.0
62677646,-0.46850014,0.0008501806,0.00040493434,0.0,0.0,-0.0
62692550,-0.47519267,-0.011732154,0.00010784897,0.0,0.0,-0.0
62717344,-0.47392422,-0.011445146,-7.5986194e-05,0.0,0.0,-0.0
62737126,-0.4650977,-0.0032110438,-0.0013494923,0.0,0.0,-0.0
62756964,-0.46584195,0.0026322908,-0.00054449943,0.0,0.0,-0.0
62776818,-0.47335577,-0.0024669096,0.0015258794,0.0,0.0,-0.0
62796677,-0.47326657,-0.009781884,0.00054010807,0.0,0.0,-0.0
62816544,-0.46624807,-0.004436518,-0.00072921626,0.0,0.0,-0.0
62836553,-0.46436328,0.0028908616,-0.0011036664,0.0,0.0,-0.0
62856490,-0.46905956,0.000619934,0.00038867118,0.0,0.0,-0.0
62876520,-0.47096068,-0.0075136176,0.00094470446,0.0,0.0,-0.0
62896133,-0.46782398,-0.005292332,-7.664824e-06,0.0,0.0,-0.0
62915993,-0.4695757,0.0014520893,-0.00066780736,0.0,0.0,-0.0
62935871,-0.47037402,-0.00051506615,-0.00028074655,0.0,0.0,-0.0
62955803,-0.4676276,-0.009205836,0.0004431162,0.0,0.0,-0.0
62975520,-0.466875,-0.008610012,0.00042665485,0.0,0.0,-0.0
62995475,-0.472712,-0.00035555658,-0.00023000424,0.0,0.0,-0.0
63015270,-0.47403347,0.00015156003,5.6165318e-05,0.0,0.0,-0.0
63040069,-0.47309005,-0.0017817887,0.00032178187,0.0,0.0,-0.0
63055069,-0.4617358,-0.0070343306,-0.000676285,0.0,0.0,-0.0
63074878,-0.4689425,0.0015036368,-0.00088473735,0.0,0.0,-0.0
63099820,-0.47057828,0.0031774186,-0.00061130576,0.0,0.0,-0.0
63114686,-0.46911505,-0.007894503,0.0015342537,0.0,0.0,-0.0
63134613,-0.46316615,-0.009862736,-0.00014163538,0.0,0.0,-0.0
63159427,-0.4652079,-0.008917283,-0.00076485553,0.0,0.0,-0.0
63179300,-0.47014576,0.0005908237,-0.0016642504,0.0,0.0,-0.0
63194250,-0.47174755,-0.006965766,0.0019624173,0.0,0.0,-0.0
63214044,-0.46703368,-0.012674248,0.0009228064,0.0,0.0,-0.0
63238773,-0.46745655,-0.011638688,0.0007402033,0.0,0.0,-0.0
63253681,-0.4717027,0.0037556952,-0.001788974,0.0,0.0,-0.0
63273564,-0.466878,-0.0016870657,0.0008491569,0.0,0.0,-0.0
63298397,-0.46415347,-0.0039629685,0.0007206391,0.0,0.0,-0.0
63318316,-0.46565104,-0.01152668,0.0015990546,0.0,0.0,-0.0
63333207,-0.47666073,0.0015352162,-0.0014588705,0.0,0.0,-0.0
63358020,-0.47527286,0.001489368,-0.00139912,0.0,0.0,-0.0
63377872,-0.46561962,-0.0018151111,-0.000396003,0.0,0.0,-0.0
63392889,-0.46981224,-0.009301596,0.0010463675,0.0,0.0,-0.0
63417843,-0.4703012,-0.006856125,0.0006669378,0.0,0.0,-0.0
63437581,-0.47816968,-2.6058028e-06,-0.0008140826,0.0,0.0,-0.0
63457416,-0.47351462,-0.0031800398,-0.000706759,0.0,0.0,-0.0
63477251,-0.4621477,-0.0078898035,0.00064026035,0.0,0.0,-0.0
63497167,-0.4642281,-0.0042906534,0.00079838285,0.0,0.0,-0.0
63516924,-0.4744243,0.0013707263,-0.00025757696,0.0,0.0,-0.0
63536772,-0.47778118,-0.005334264,-5.8586076e-05,0.0,0.0,-0.0
63556666,-0.47153282,-0.012422954,0.00026900633,0.0,0.0,-0.0
63576592,-0.4682227,-0.008175986,0.00015544114,0.0,0.0,-0.0
63596466,-0.47093543,0.00093926076,-0.00057852175,0.0,0.0,-0.008449704
63616316,-0.47285536,-0.0007696003,-0.00011256594,0.0,0.0,-0.012071006
63636211,-0.47107017,-0.010567488,0.00043134645,0.0,0.0,-0.014485207
63656096,-0.47000754,-0.009329749,0.0007342793,0.0,0.0,-0.018106509
63676033,-0.47097874,0.0021534169,-0.000155893,0.0,0.0,-0.02052071
63695750,-0.46806937,0.005524609,-0.000955391,0.0,0.0,-0.022934912
63715813,-0.4665646,-0.0045506875,-0.0008004027,0.0,0.0,-0.022934912
63735539,-0.4707968,-0.012861275,0.00083148386,0.0,0.0,-0.022934912
63755427,-0.47701272,-0.0070785433,0.0016902823,0.0,0.0,-0.024142012
63775309,-0.47598696,0.0006464608,0.00021106483,0.0,0.0,-0.026556212
63795172,-0.46880302,-0.00072182866,-0.0013978573,0.0,0.0,-0.028970415
63815036,-0.46705025,-0.0098431865,-0.0005751599,0.0,0.0,-0.036213018
63834809,-0.4721868,-0.013194773,0.0007568748,0.0,0.0,-0.035005916
63854687,-0.47780168,-0.0055840113,0.00030758604,0.0,0.0,-0.035005916
63879576,-0.47700405,-0.003600467,0.0001451121,0.0,0.0,-0.035005916
63894567,-0.46867073,-0.0015050328,-0.0004662049,0.0,0.0,-0.035005916
63914343,-0.46511737,-0.007862077,5.4414126e-05,0.0,0.0,-0.035005916
63939350,-0.4662878,-0.0068740407,-0.00021031043,0.0,0.0,-0.035005916
63954241,-0.47334075,-0.0016694936,0.0005819367,0.0,0.0,-0.035005916
63973944,-0.4743718,0.001441339,-8.390896e-05,0.0,0.0,-0.035005916
63998800,-0.4740158,0.0009478944,-4.623035e-05,0.0,0.0,-0.035005916
64018646,-0.47328192,-0.00033393243,-0.00087701407,0.0,0.0,-0.035005916
64033601,-0.47013313,-0.008824931,0.0005509536,0.0,0.0,-0.035005916
64058398,-0.47037804,-0.010206772,0.00038492438,0.0,0.0,-0.035005916
64078318,-0.47295874,-0.006994131,0.001429418,0.0,0.0,-0.033798818
64093243,-0.47282517,0.001786322,-0.0009780553,0.0,0.0,-0.033798818
64118084,-0.4737178,0.0039635673,-0.00055246055,0.0,0.0,-0.035005916
64137850,-0.4692815,-0.0012706653,-0.0015652945,0.0,0.0,-0.035005916
64157694,-0.4645688,-0.00946859,-0.0011273328,0.0,0.0,-0.035005916
64177503,-0.46577972,-0.010662485,0.0005220649,0.0,0.0,-0.035005916
64197445,-0.4744366,-0.0045181513,0.0014889638,0.0,0.0,-0.036213018
64217360,-0.48238188,0.0036512378,0.0012862335,0.0,0.0,-0.053112425
64237314,-0.4820096,0.0039337412,-0.00019493708,0.0,0.0,-0.07121893
64257160,-0.47208244,-0.0038303533,-0.0008881618,0.0,0.0,-0.107431956
64276993,-0.4584005,-0.013233146,0.00032628237,0.0,0.0,-0.17261538
64296893,-0.45188856,-0.016323507,-0.00017879716,0.0,0.0,-0.17770414
64316713,-0.45275667,-0.012466864,-0.00066692044,0.0,0.0,-0.20111242
64336507,-0.45349222,-0.007526238,-0.0003677848,0.0,0.0,-0.20925443
64356368,-0.4565148,-0.005947071,0.00038838352,0.0,0.0,-0.21128994
64376227,-0.4623482,-0.0008155177,0.001115382,0.0,0.0,-0.21128994
64396122,-0.46865508,-0.0007519897,0.0030077803,0.0,0.0,-0.21230769
64415956,-0.4653425,-0.01033234,0.003170092,0.0,0.0,-0.21230769
64435805,-0.46688443,-0.007407388,0.00353592,0.0,0.0,-0.21230769
64455722,-0.46621078,-0.0025564888,0.0022005609,0.0,0.0,-0.21332544
64475740,-0.45613202,-0.005389283,-0.0007140907,0.0,0.0,-0.21332544
64495591,-0.4491812,0.006650943,0.00040008826,0.0,0.0,-0.21332544
64515341,-0.45672706,0.010953819,-9.175681e-05,0.0,0.0,-0.21230769
64535264,-0.4509768,0.012206785,0.00014250915,0.0,0.0,-0.21230769
64555123,-0.45124978,0.018990735,0.0002089536,0.0,0.0,-0.21230769
64579969,-0.43794954,0.022499474,0.0021886136,0.0,0.0,-0.20925443
64594837,-0.43773273,0.0264615,0.0008699743,0.0,0.0,-0.20925443
64614733,-0.44028324,0.020935548,-9.7142416e-05,0.0,0.0,-0.2102722
64639408,-0.43765795,0.028175851,-0.00063209346,0.0,0.0,-0.20925443
64654352,-0.43508428,0.03130761,-0.00020709763,0.0,0.0,-0.20925443
64674160,-0.4339143,0.033980742,-0.0017239756,0.0,0.0,-0.20925443
64699123,-0.42459884,0.03342566,-0.0015782159,0.0,0.0,-0.20925443
64718952,-0.4192894,0.034612715,-0.0005697795,0.0,0.0,-0.20925443
64733917,-0.4234512,0.035565022,-0.0017126177,0.0,0.0,-0.20925443
64758848,-0.4173769,0.037345756,-0.001912406,0.0,0.0,-0.20925443
64778591,-0.42283002,0.043966696,-0.00064657367,0.0,0.0,-0.20925443
64793561,-0.4222507,0.043453734,0.0007652244,0.0,0.0,-0.20925443
64818326,-0.42322534,0.042089127,-0.0015646227,0.0,0.0,-0.20925443
64838311,-0.42361084,0.038024135,-0.0027911174,0.0,0.0,-0.20925443
64858034,-0.41997728,0.041921373,-0.002381809,0.0,0.0,-0.20925443
64877948,-0.42238438,0.039214708,-0.003636141,0.0,0.0,-0.20925443
64897717,-0.41447702,0.04063002,-0.0017014347,0.0,0.0,-0.20925443
64917588,-0.41945425,0.038108334,-0.0019512007,0.0,0.0,-0.20925443
64932443,-0.4169774,0.038781393,-0.003165441,0.0,0.0,-0.20925443
64957287,-0.41797924,0.046737723,-0.0008600558,0.0,0.0,-0.20925443
64977161,-0.41300943,0.04707504,-0.0019252412,0.0,0.0,-0.20925443
64997177,-0.41208333,0.04946457,-0.0019089563,0.0,0.0,-0.20925443
65017133,-0.41146737,0.042122677,-0.004515264,0.0,0.0,-0.20925443
65036917,-0.41424912,0.047460396,-0.003197036,0.0,0.0,-0.20925443
65056807,-0.41503522,0.04075911,-0.0054775462,0.0,0.0,-0.20925443
65076607,-0.41757992,0.04728541,-0.0036510555,0.0,0.0,-0.20925443
65096475,-0.41372463,0.04601966,-0.004269099,0.0,0.0,-0.20925443
65116266,-0.40792733,0.05253847,-0.002621158,0.0,0.0,-0.20925443
65136137,-0.40413702,0.050348185,-0.0023970604,0.0,0.0,-0.20925443
65156011,-0.40037426,0.05528102,-0.0016105087,0.0,0.0,-0.20925443
65175880,-0.39996222,0.05082317,-0.0016575879,0.0,0.0,-0.20925443
65195803,-0.39488417,0.054848403,0.0008622939,0.0,0.0,-0.20925443
65215632,-0.39814335,0.053458672,-0.00033397885,0.0,0.0,-0.20925443
65235565,-0.3938479,0.055285327,0.0006794279,0.0,0.0,-0.20925443
65255399,-0.39794445,0.05090803,-0.0020269358,0.0,0.0,-0.20925443
65280427,-0.41250473,0.051965635,-0.0026575103,0.0,0.0,-0.2102722
65295323,-0.3987891,0.048686873,-0.0018989987,0.0,0.0,-0.20925443
65315062,-0.40432274,0.049457952,-0.0018508412,0.0,0.0,-0.20925443
65339855,-0.4091332,0.05004874,-0.0040332847,0.0,0.0,-0.2102722
65354691,-0.40622494,0.050946187,-0.003599681,0.0,0.0,-0.2102722
65374741,-0.40400025,0.047042053,-0.003997052,0.0,0.0,-0.2102722
65394526,-0.40503186,0.0504814,-0.0028303578,0.0,0.0,-0.21128994
65419252,-0.40483838,0.052415907,-0.0018116932,0.0,0.0,-0.21128994
65434151,-0.4082766,0.0546485,-0.0032025117,0.0,0.0,-0.21128994
65454004,-0.32796696,0.055608448,-0.003900589,0.0,0.0,-0.21128994
65478844,-0.27124438,0.05526861,-0.0014628168,0.0,0.0,-0.21128994
65493771,-0.23899542,0.0598366,-0.0032736303,0.0,0.0,-0.21128994
65513736,-0.24742362,0.0587922,-0.0025556672,0.0,0.0,-0.21128994
65538542,-0.2182127,0.05507621,0.00013822963,0.0,0.0,-0.21128994
65558481,-0.12347875,0.055292536,-1.9127297e-05,0.0,0.0,-0.21128994
65573477,-0.042276002,0.05600778,-0.0010513727,0.0,0.0,-0.21128994
65598208,-0.0021560965,0.05688742,-0.0006529399,0.0,0.0,-0.21128994
65617951,0.040261902,0.056870937,-0.00055614184,0.0,0.0,-0.21128994
65632839,0.04335043,0.05244959,-0.00088221655,0.0,0.0,-0.21128994
65657644,0.14399771,0.04756119,-0.0031486722,0.0,0.0,-0.21128994
65677589,0.17481634,0.0419529,-0.0065301144,0.0,0.0,-0.21128994
65697486,0.18795191,0.04519758,-0.0064732237,0.0,0.0,-0.21128994
65717311,0.15353157,0.03662826,-0.005297677,0.0,0.0,-0.21128994
65737181,0.15423997,0.027505524,-0.0038007903,0.0,0.0,-0.21128994
65757018,0.13743386,0.02820404,-0.0029404797,0.0,0.0,-0.21128994
65776935,0.11852111,0.02231934,-0.0029422801,0.0,0.0,-0.21128994
65796773,0.09015178,0.026200946,-0.003016005,0.0,0.0,-0.21128994
65816813,0.080775365,0.015099772,-0.0038151392,0.0,0.0,-0.21128994
65836705,0.05067193,0.017018354,-0.0016545304,0.0,0.0,-0.21128994
65856402,0.057592265,0.013323,-0.001896718,0.0,0.0,-0.21230769
65876268,0.07815866,0.008679721,-0.0035338555,0.0,0.0,-0.21230769
65896121,0.06802149,0.014025537,-0.0017659928,0.0,0.0,-0.21230769
65915970,0.057545513,0.013515989,-0.0041207224,0.0,0.0,-0.21230769
65935837,0.06195889,0.021417556,-0.0042804033,0.0,0.0,-0.21230769
65955943,0.01343051,0.024285974,-0.0048925593,0.0,0.0,-0.21230769
65975599,0.0023335305,0.015639229,-0.005182834,0.0,0.0,-0.21230769
65995508,0.0007244904,0.023124997,-0.0042070583,0.0,0.0,-0.21230769
66015328,-0.003673377,0.024886012,-0.005323664,0.0,0.0,-0.21332544
66035208,-0.032291494,0.025947535,-0.0040628286,0.0,0.0,-0.21739644
66054971,-0.047829233,0.022491721,-0.0048901127,0.0,0.0,-0.22655621
66074861,-0.049115654,0.030224819,-0.002897731,0.0,0.0,-0.22757396
66094808,-0.050840158,0.028420813,-0.0039018656,0.0,0.0,-0.22859171
66119606,-0.04242334,0.027186166,-0.0029160017,0.0,0.0,-0.22960947
66134512,-0.04344779,0.025180437,-0.0051505365,0.0,0.0,-0.23062722
66154376,-0.04799215,0.023075912,-0.0050754836,0.0,0.0,-0.23062722
66179331,-0.053949326,0.017664889,-0.0047097625,0.0,0.0,-0.23062722
66194233,-0.056027528,0.018031765,-0.0027952653,0.0,0.0,-0.23062722
66214056,-0.070238076,0.01622501,-0.0026384343,0.0,0.0,-0.23164497
66238820,-0.07933982,0.017161882,-0.0010459669,0.0,0.0,-0.23164497
66258722,-0.08657088,0.015534734,-0.0031712614,0.0,0.0,-0.23164497
66273564,-0.08114904,0.012321743,-0.0036017618,0.0,0.0,-0.23164497
66298373,-0.08355276,0.022546439,-0.0045187683,0.0,0.0,-0.23266272
66318215,-0.075329356,0.01906647,-0.0049610594,0.0,0.0,-0.23266272
66333122,-0.10367178,0.027642015,-0.00401154,0.0,0.0,-0.23673372
66358125,-0.11506049,0.027693674,-0.0033942633,0.0,0.0,-0.24691124
66378090,-0.11792362,0.04191908,-0.00253331,0.0,0.0,-0.24996449
66397803,-0.12723212,0.03628144,-0.0044825417,0.0,0.0,-0.25505325
66417744,-0.14853443,0.036958992,-0.0034039936,0.0,0.0,-0.25505325
66437674,-0.13870712,0.036629416,-0.0029529112,0.0,0.0,-0.25505325
66457558,-0.22314012,0.040330093,-0.002334061,0.0,0.0,-0.2540355
66477457,-0.2853975,0.036475975,-0.0019541897,0.0,0.0,-0.2540355
66497160,-0.30939862,0.042338196,-0.0027061363,0.0,0.0,-0.2540355
66516958,-0.34532744,0.04218448,-0.003914232,0.0,0.0,-0.2540355
66536752,-0.3670124,0.03257964,-0.0045689675,0.0,0.0,-0.25505325
66556683,-0.39285535,0.036874212,-0.0038057673,0.0,0.0,-0.25505325
66576532,-0.40482622,0.04310288,-0.0025739493,0.0,0.0,-0.25505325
66596403,-0.40102547,0.053037975,-0.0008452113,0.0,0.0,-0.260142
66616388,-0.3979029,0.057614055,-0.00013779623,0.0,0.0,-0.260142
66636317,-0.39450815,0.05986606,0.00011368063,0.0,0.0,-0.26421303
66656105,-0.38825652,0.06840933,0.0012241444,0.0,0.0,-0.26828402
66675923,-0.3796066,0.065834224,0.0013552823,0.0,0.0,-0.27846155
66695846,-0.3755411,0.064323984,0.0014507723,0.0,0.0,-0.28049704
66715716,-0.3823729,0.06711351,0.0022001704,0.0,0.0,-0.28253254
66735593,-0.3786087,0.06703358,0.0028401702,0.0,0.0,-0.2835503
66755412,-0.38413483,0.06338442,0.00237467,0.0,0.0,-0.29169232
66775199,-0.3883176,0.06155951,0.0013667906,0.0,0.0,-0.2957633
66795091,-0.38399082,0.064818226,0.0013591356,0.0,0.0,-0.2957633
66819848,-0.37828562,0.06317283,0.0036907883,0.0,0.0,-0.2957633
66834762,-0.37363756,0.06173701,0.0022390014,0.0,0.0,-0.2957633
66854689,-0.3721236,0.066923134,0.0035936867,0.0,0.0,-0.2957633
66879628,-0.37819716,0.07177911,0.0021578772,0.0,0.0,-0.2957633
66894545,-0.37090853,0.07292254,0.0010186365,0.0,0.0,-0.29678106
66914516,-0.36601895,0.068234384,0.0011632818,0.0,0.0,-0.2977988
66939193,-0.35616982,0.07145151,0.0023199068,0.0,0.0,-0.2977988
66959048,-0.3331058,0.07366487,0.003925736,0.0,0.0,-0.30594084
66974080,-0.30048406,0.07375739,0.002154466,0.0,0.0,-0.31102958
66998722,-0.29527405,0.075341366,0.0018814069,0.0,0.0,-0.31204733
67018682,-0.28615054,0.07010028,0.002750686,0.0,0.0,-0.31611836
67033536,-0.29220068,0.07293452,0.0029329227,0.0,0.0,-0.31611836
67058366,-0.31416827,0.076818526,0.0028136442,0.0,0.0,-0.3212071
67078132,-0.32456863,0.07502004,0.0017842054,0.0,0.0,-0.32222486
67098002,-0.3334442,0.06860389,0.0018704805,0.0,0.0,-0.32426035
67112912,-0.33405802,0.06968407,0.002045577,0.0,0.0,-0.3252781
67137844,-0.34064284,0.078680195,0.0034910191,0.0,0.0,-0.3273136
67157742,-0.342815,0.07877333,0.0029604756,0.0,0.0,-0.32934913
67172736,-0.33427036,0.08529144,0.002740474,0.0,0.0,-0.33138463
67197553,-0.31474787,0.08161892,0.004313242,0.0,0.0,-0.33240238
67217324,-0.30236888,0.08766933,0.003725607,0.0,0.0,-0.33240238
67237247,-0.29026106,0.08714626,0.0032122924,0.0,0.0,-0.34359762
67257097,-0.26328716,0.07033459,0.0038778335,0.0,0.0,-0.3568284
67276845,-0.23999321,0.070546664,0.0049882503,0.0,0.0,-0.35988164
67296781,-0.22570787,0.07171558,0.0049838466,0.0,0.0,-0.35988164
67316600,-0.20903924,0.077154934,0.0048665097,0.0,0.0,-0.37005916
67336464,-0.18080644,0.07809458,0.0059778057,0.0,0.0,-0.37921894
67356372,-0.14663489,0.07564673,0.0057313745,0.0,0.0,-0.38532543
67376209,-0.12052089,0.08068981,0.005656327,0.0,0.0,-0.38736096
67396079,-0.08303986,0.07677722,0.005055096,0.0,0.0,-0.39448524
67415953,-0.04464665,0.077899694,0.005272213,0.0,0.0,-0.3985562
67435972,-0.0071734423,0.080096364,0.005597407,0.0,0.0,-0.40466273
67455772,0.035570264,0.07357104,0.0069248127,0.0,0.0,-0.40466273
67475601,0.14168571,0.079232424,0.009249779,0.0,0.0,-0.40466273
67495545,0.18847345,0.08107059,0.010501827,0.0,0.0,-0.40466273
67520339,0.4109287,0.08695928,0.0114376005,0.0,0.0,-0.40466273
67535224,0.44547,0.086581945,0.013148114,0.0,0.0,-0.40466273
67555105,0.5511845,0.08961212,0.014591889,0.0,0.0,-0.40466273
67579809,0.69132054,0.09331556,0.021103729,0.0,0.0,-0.40466273
67594790,0.7290433,0.08875683,0.027691387,0.0,0.0,-0.40568048
67614669,0.81991154,0.08255103,0.038427096,0.0,0.0,-0.40568048
67634476,0.8763711,0.07349279,0.05144666,0.0,0.0,-0.40466273
67659305,0.89078754,0.061987728,0.07342959,0.0,0.0,-0.40466273
67674256,0.90180993,0.06120155,0.0872238,0.0,0.0,-0.40466273
67694136,0.8713474,0.053621385,0.10563227,0.0,0.0,-0.40466273
67719170,0.82071877,0.04623213,0.12986462,0.0,0.0,-0.40466273
67733983,0.7671485,0.034692407,0.14360599,0.0,0.0,-0.40466273
67753749,0.7702909,0.01506585,0.16437683,0.0,0.0,-0.40466273
67778641,0.7344151,-0.008607005,0.19001263,0.0,0.0,-0.40568048
67798478,0.6622988,-0.024895368,0.21167713,0.0,0.0,-0.40466273
67813281,0.5931023,-0.030385371,0.23027793,0.0,0.0,-0.40568048
67838207,0.4845646,-0.050317433,0.2547679,0.0,0.0,-0.40873373
67858031,0.38375485,-0.07441428,0.27441782,0.0,0.0,-0.41076925
67872995,0.29598567,-0.09153366,0.2883048,0.0,0.0,-0.41789347
67897824,0.22007965,-0.109847195,0.30952576,0.0,0.0,-0.42298225
67917686,0.19861215,-0.11669305,0.32455444,0.0,0.0,-0.43315977
67937577,0.173443,-0.12299775,0.3376046,0.0,0.0,-0.43315977
67957559,0.13581607,-0.14251423,0.3452433,0.0,0.0,-0.43723077
67977341,0.072100244,-0.16027464,0.35041997,0.0,0.0,-0.4433373
67997142,0.04728142,-0.17218825,0.351313,0.0,0.0,-0.4453728
68017038,0.045961045,-0.16748932,0.34991437,0.0,0.0,-0.45249707
68036920,0.038135257,-0.15974435,0.34340844,0.0,0.0,-0.45453253
68056741,-0.08045459,-0.17756753,0.3328929,0.0,0.0,-0.45656803
68076649,-0.13196263,-0.18626237,0.32061285,0.0,0.0,-0.45860356
68096472,-0.103883415,-0.18673247,0.30644548,0.0,0.0,-0.45860356
68116270,-0.08901393,-0.185164,0.29195577,0.0,0.0,-0.45860356
68136210,-0.025999153,-0.1819605,0.27482852,0.0,0.0,-0.45860356
68156024,0.007649613,-0.17418867,0.25534284,0.0,0.0,-0.45860356
68175985,0.028192956,-0.17436387,0.23253404,0.0,0.0,-0.45860356
68195802,0.037163492,-0.17271592,0.21059121,0.0,0.0,-0.45860356
68215599,0.081318,-0.16939917,0.18859807,0.0,0.0,-0.45860356
68235542,0.11700645,-0.16368963,0.16680805,0.0,0.0,-0.45860356
68255503,0.13118705,-0.15189327,0.14481884,0.0,0.0,-0.45860356
68275216,0.1287241,-0.14673698,0.12603508,0.0,0.0,-0.4596213
68295083,0.15787902,-0.14008047,0.10669351,0.0,0.0,-0.4596213
68315122,0.18434435,-0.13810837,0.08732277,0.0,0.0,-0.4596213
68334936,0.23331182,-0.13350339,0.07009089,0.0,0.0,-0.46063906
68359803,0.27057445,-0.1257152,0.052004468,0.0,0.0,-0.4636923
68374625,0.25319356,-0.121024586,0.04183065,0.0,0.0,-0.46572784
68394460,0.23371544,-0.11322416,0.031282976,0.0,0.0,-0.46674556
68419256,0.23082846,-0.10830545,0.021580458,0.0,0.0,-0.4677633
68434103,0.26193842,-0.111248,0.015276577,0.0,0.0,-0.46878108
68453962,0.34361124,-0.1160361,0.009998395,0.0,0.0,-0.47081658
68478864,0.38798532,-0.12827022,0.002911915,0.0,0.0,-0.47488758
68498745,0.4097109,-0.12861888,0.0015472071,0.0,0.0,-0.47692308
68513736,0.39815825,-0.12847626,0.0001201086,0.0,0.0,-0.47692308
68538566,0.43910828,-0.1305773,0.002342851,0.0,0.0,-0.48302957
68558394,0.45756653,-0.13680391,0.0025329476,0.0,0.0,-0.48608282
68573287,0.45716536,-0.14448716,0.0047108657,0.0,0.0,-0.48608282
68598126,0.43604785,-0.17348754,0.0056886906,0.0,0.0,-0.48608282
68617958,0.4086657,-0.19231543,0.007906061,0.0,0.0,-0.48608282
68637878,0.3764503,-0.21015787,0.00903251,0.0,0.0,-0.4871006
68657761,0.3130798,-0.21987233,0.00951523,0.0,0.0,-0.48811835
68677513,0.18282692,-0.22867154,0.008850949,0.0,0.0,-0.49422488
68697388,0.16587709,-0.23616868,0.008666632,0.0,0.0,-0.49422488
68717267,0.07764613,-0.2453955,0.0064415196,0.0,0.0,-0.49727812
68737094,-0.042512186,-0.25735986,0.0012603232,0.0,0.0,-0.4993136
68757039,-0.19147919,-0.2581764,-0.006470593,0.0,0.0,-0.5023669
68777013,-0.19315983,-0.2536408,-0.016280493,0.0,0.0,-0.5023669
68796967,-0.16084924,-0.24962994,-0.02950544,0.0,0.0,-0.50440234
68816695,-0.12185284,-0.24637899,-0.04481399,0.0,0.0,-0.5064379
68836590,-0.08669756,-0.24189681,-0.060189754,0.0,0.0,-0.5064379
68856456,-0.06677614,-0.22942899,-0.07590879,0.0,0.0,-0.5105798
68876328,-0.025008561,-0.21780442,-0.090186134,0.0,0.0,-0.5105798
68896129,0.014963113,-0.2094305,-0.105479814,0.0,0.0,-0.5117396
68915939,0.048334464,-0.2069485,-0.11921354,0.0,0.0,-0.5140591
68935750,0.10557883,-0.20826373,-0.13045523,0.0,0.0,-0.5175385
68955622,0.14433274,-0.22110935,-0.13840126,0.0,0.0,-0.5210178
68975480,0.16956168,-0.23850912,-0.14541115,0.0,0.0,-0.52449703
68995411,0.21056381,-0.2533914,-0.15298398,0.0,0.0,-0.52449703
69015314,0.23672093,-0.25813827,-0.15884964,0.0,0.0,-0.5407337
69035268,0.27303487,-0.27062884,-0.16240117,0.0,0.0,-0.5500118
69060244,0.2864865,-0.2690901,-0.16862974,0.0,0.0,-0.5511716
69075020,0.29300895,-0.27357614,-0.1722469,0.0,0.0,-0.5511716
69094852,0.27981868,-0.26478916,-0.17437758,0.0,0.0,-0.5511716
69119693,0.2948991,-0.24736267,-0.18027502,0.0,0.0,-0.5546509
69134587,0.47423685,-0.24939506,-0.18031745,0.0,0.0,-0.5546509
69154500,0.5412306,-0.22588296,-0.18093996,0.0,0.0,-0.5546509
69179134,0.6549107,-0.22362284,-0.18285827,0.0,0.0,-0.5546509
69199061,0.73279023,-0.36124384,-0.18239987,0.0,0.0,-0.5546509
69213889,0.71863174,-0.37918466,-0.18074769,0.0,0.0,-0.5546509
69238879,0.6652531,-0.3954094,-0.17610262,0.0,0.0,-0.5546509
69258692,0.5845931,-0.42563304,-0.17362557,0.0,0.0,-0.5546509
69273609,0.5350298,-0.4225715,-0.16946885,0.0,0.0,-0.5546509
69293488,0.46164584,-0.45994687,-0.16649702,0.0,0.0,-0.5534911
69318364,0.39841416,-0.453925,-0.16194895,0.0,0.0,-0.5534911
69338172,0.39062354,-0.44278684,-0.15840033,0.0,0.0,-0.5534911
69353155,0.38029018,-0.40897602,-0.15655226,0.0,0.0,-0.5534911
69377999,0.37095073,-0.3765815,-0.15355144,0.0,0.0,-0.5534911
69397845,0.35062405,-0.33370468,-0.14980668,0.0,0.0,-0.5534911
69412689,0.3404618,-0.29974163,-0.1464067,0.0,0.0,-0.5534911
69437480,0.26885948,-0.26267543,-0.14038394,0.0,0.0,-0.5534911
69457274,0.24763468,-0.22410437,-0.13518515,0.0,0.0,-0.5534911
69477153,0.21328028,-0.1886509,-0.13071437,0.0,0.0,-0.5534911
69497069,0.19122161,-0.17881626,-0.1251286,0.0,0.0,-0.5534911
69516994,0.18118133,-0.17929918,-0.11952481,0.0,0.0,-0.5534911
69536865,0.15313478,-0.17882192,-0.113597564,0.0,0.0,-0.5534911
69556763,0.15350695,-0.18122299,-0.10714176,0.0,0.0,-0.5534911
69576629,0.13908432,-0.18763977,-0.10172333,0.0,0.0,-0.5523313
69596651,0.14408664,-0.2210245,-0.09624448,0.0,0.0,-0.5523313
69616335,0.15685786,-0.21914029,-0.09068024,0.0,0.0,-0.5523313
69636148,0.16273847,-0.20983723,-0.08533643,0.0,0.0,-0.5523313
69656105,0.15773393,-0.21230906,-0.079472326,0.0,0.0,-0.5523313
69675967,0.1507512,-0.21324523,-0.07282159,0.0,0.0,-0.5523313
69695779,0.16290176,-0.21665503,-0.066576935,0.0,0.0,-0.5523313
69715662,0.17788468,-0.22089347,-0.06013649,0.0,0.0,-0.5523313
69735649,0.17421472,-0.18990855,-0.055688165,0.0,0.0,-0.5511716
69760300,0.16193132,-0.17940006,-0.051660072,0.0,0.0,-0.5511716
69775259,0.15530303,-0.16608167,-0.046340466,0.0,0.0,-0.5511716
69795091,0.18087691,-0.15842116,-0.04132678,0.0,0.0,-0.5500118
69815014,0.18918636,-0.15679477,-0.035744894,0.0,0.0,-0.548852
69834878,0.18676603,-0.15559736,-0.03074542,0.0,0.0,-0.548852
69854848,0.18326922,-0.17199972,-0.026524799,0.0,0.0,-0.548852
69874796,0.17217536,-0.17012794,-0.022028876,0.0,0.0,-0.5476923
69899395,0.13795307,-0.16865446,-0.015961988,0.0,0.0,-0.5476923
69914351,0.1402427,-0.16562311,-0.014019089,0.0,0.0,-0.5476923
69934163,0.15229525,-0.17570464,-0.009978232,0.0,0.0,-0.5476923
69958977,0.1284199,-0.16101348,-0.0028209991,0.0,0.0,-0.5476923
69973955,0.13928999,-0.15876293,-0.0016664257,0.0,0.0,-0.5476923
69993751,0.13429834,-0.14825869,0.002473528,0.0,0.0,-0.5476923
70018593,0.1144405,-0.12824735,0.0077467505,0.0,0.0,-0.5476923
70038505,0.13098893,-0.12624556,0.011111733,0.0,0.0,-0.5476923
70053428,0.11788423,-0.10252912,0.014518566,0.0,0.0,-0.5476923
70078249,0.12124347,-0.0740583,0.017274186,0.0,0.0,-0.5476923
70098109,0.14087713,-0.056247734,0.020407828,0.0,0.0,-0.5465326
70113036,0.16019404,-0.04683609,0.022422552,0.0,0.0,-0.5465326
70138065,0.18244368,-0.03422799,0.026672432,0.0,0.0,-0.5476923
70157765,0.26555932,-0.010132201,0.027492132,0.0,0.0,-0.5476923
70177673,0.3095737,-0.017770385,0.029991055,0.0,0.0,-0.5476923
70197468,0.30376163,-0.027413364,0.032892995,0.0,0.0,-0.5476923
70217345,0.2961279,-0.033947103,0.03518048,0.0,0.0,-0.5476923
70237119,0.26833287,-0.026426919,0.03760404,0.0,0.0,-0.5476923
70256963,0.22795595,-0.030838242,0.03984531,0.0,0.0,-0.5476923
70276877,0.2273698,-0.0032782643,0.040310215,0.0,0.0,-0.5476923
70296727,0.33801508,0.05713806,0.03857028,0.0,0.0,-0.5476923
70316645,0.468015,0.08108142,0.037395336,0.0,0.0,-0.5476923
70336512,0.46672747,0.09632215,0.038990844,0.0,0.0,-0.5476923
70356377,0.4237803,0.09444633,0.041264873,0.0,0.0,-0.5476923
70376226,0.37737995,0.0870109,0.04332891,0.0,0.0,-0.5476923
70396249,0.30835757,0.065168224,0.046346623,0.0,0.0,-0.5476923
70416051,0.22829893,0.03208659,0.05034975,0.0,0.0,-0.5476923
70435918,0.17409366,0.0092382105,0.053046655,0.0,0.0,-0.5476923
70455772,0.13458315,-0.01394446,0.054996826,0.0,0.0,-0.5476923
70475590,0.08079736,-0.03321038,0.056117266,0.0,0.0,-0.5476923
70495412,0.048348162,-0.029593198,0.05606821,0.0,0.0,-0.5476923
70515265,0.05094709,-0.04664547,0.05713403,0.0,0.0,-0.5476923
70535139,-3.621948e-06,-0.050280787,0.058555525,0.0,0.0,-0.5476923
70554967,-0.076703906,-0.039141502,0.05965069,0.0,0.0,-0.5476923
70574987,-0.18774758,0.0031610806,0.059612043,0.0,0.0,-0.5476923
70599815,-0.33746493,0.063228264,0.05811184,0.0,0.0,-0.5476923
70614704,-0.46886602,0.19224769,0.056011334,0.0,0.0,-0.5476923
70634572,-0.44034332,0.18099585,0.055650752,0.0,0.0,-0.5476923
70659471,-0.400795,0.16704902,0.05527883,0.0,0.0,-0.5476923
70674547,-0.34207758,0.1455628,0.055145472,0.0,0.0,-0.5476923
70694229,-0.3234173,0.14353533,0.054782864,0.0,0.0,-0.5476923
70718929,-0.5676144,0.095375255,0.056397162,0.0,0.0,-0.5476923
70738806,-0.62621236,0.092611045,0.055833705,0.0,0.0,-0.5476923
70753705,-0.61137706,0.0723548,0.056652628,0.0,0.0,-0.5476923
70778498,-0.5040127,0.042448558,0.05424829,0.0,0.0,-0.5476923
70798450,-0.40424648,0.021421246,0.05349035,0.0,0.0,-0.5476923
70813324,-0.33187273,0.010552799,0.055416442,0.0,0.0,-0.5476923
70838157,-0.2116291,-0.005166094,0.053268354,0.0,0.0,-0.5476923
70858013,-0.13566627,-0.012681848,0.053458612,0.0,0.0,-0.5476923
70877848,-0.08443552,-0.015629672,0.053986367,0.0,0.0,-0.5476923
70897784,-0.058145735,-0.017206524,0.054759394,0.0,0.0,-0.5476923
70917641,-0.04576888,-0.015586736,0.054783586,0.0,0.0,-0.5476923
70937715,-0.0434721,-0.015170471,0.05464249,0.0,0.0,-0.5476923
70957375,-0.04266579,-0.017280186,0.055207197,0.0,0.0,-0.5476923
70977241,-0.03673474,-0.023419866,0.055401046,0.0,0.0,-0.5476923
70997139,-0.021905078,-0.033792444,0.056252137,0.0,0.0,-0.5476923
71016993,-0.005498597,-0.04453034,0.05603523,0.0,0.0,-0.5476923
71036822,0.01648351,-0.060637493,0.055706453,0.0,0.0,-0.5476923
71056680,0.039540716,-0.07749942,0.05541748,0.0,0.0,-0.548852
71076576,0.05027974,-0.08853614,0.05468835,0.0,0.0,-0.548852
71096461,0.049505074,-0.092908606,0.055520885,0.0,0.0,-0.548852
71116334,0.042571634,-0.0950895,0.05590958,0.0,0.0,-0.5500118
71136196,0.032991454,-0.092697665,0.056003574,0.0,0.0,-0.548852
71155939,0.026401741,-0.082992256,0.056553565,0.0,0.0,-0.548852
71175870,0.022401148,-0.07724567,0.05575718,0.0,0.0,-0.5500118
71195820,0.021698017,-0.077185124,0.054624446,0.0,0.0,-0.5500118
71215754,0.025564115,-0.08485727,0.054349706,0.0,0.0,-0.5500118
71235515,0.024430793,-0.09134545,0.053528935,0.0,0.0,-0.5511716
71255386,0.022340989,-0.105389684,0.052968174,0.0,0.0,-0.55581063
71275235,0.018476702,-0.12207964,0.051865865,0.0,0.0,-0.55581063
71300247,0.010673308,-0.13993981,0.051576756,0.0,0.0,-0.57204735
71314964,0.015126469,-0.14520364,0.050225224,0.0,0.0,-0.57204735
71334880,0.015000244,-0.14310916,0.04796049,0.0,0.0,-0.5732071
71359685,0.023397928,-0.12866566,0.04736279,0.0,0.0,-0.5766864
71374646,0.02976667,-0.11327572,0.044487648,0.0,0.0,-0.57784617
71394436,0.03742135,-0.09215852,0.043238282,0.0,0.0,-0.5790059
71419203,0.04921549,-0.06686432,0.04380038,0.0,0.0,-0.5824852
71439056,0.055092566,-0.045881055,0.042973634,0.0,0.0,-0.5871242
71453994,0.0594673,-0.035869297,0.040910542,0.0,0.0,-0.5871242
71474051,0.060569614,-0.024275435,0.040757656,0.0,0.0,-0.588284
71498763,0.049056105,-0.013677429,0.042472225,0.0,0.0,-0.588284
71513699,0.050799064,-0.0104046725,0.04113225,0.0,0.0,-0.5929231
71533582,0.044100765,-0.006379807,0.04134548,0.0,0.0,-0.5929231
71558362,0.038953993,0.0008038068,0.04325537,0.0,0.0,-0.5929231
71578218,0.03864163,0.0021693865,0.043488238,0.0,0.0,-0.5929231
71593129,0.03607078,0.0010838766,0.042818837,0.0,0.0,-0.5929231
71617969,0.077020235,-0.00024201167,0.044195842,0.0,0.0,-0.59408283
71637857,0.1105139,-0.0025378559,0.044432886,0.0,0.0,-0.59408283
71652688,0.1051294,-0.0053504566,0.04521846,0.0,0.0,-0.59408283
71677524,0.12435581,-0.014086085,0.045413446,0.0,0.0,-0.59408283
71697382,0.14874732,-0.021198953,0.046030916,0.0,0.0,-0.59408283
71717336,0.12660985,-0.025715243,0.046878114,0.0,0.0,-0.59408283
71737229,0.08375012,-0.025604216,0.047645614,0.0,0.0,-0.59408283
71757251,0.07280381,-0.025283694,0.04864619,0.0,0.0,-0.59408283
71777121,0.09712215,-0.023418464,0.048754465,0.0,0.0,-0.59408283
71796994,0.2545334,-0.020170392,0.049399123,0.0,0.0,-0.59408283
71816790,0.31688514,-0.01790803,0.05015952,0.0,0.0,-0.5929231
71836733,0.36582845,-0.016366526,0.05054008,0.0,0.0,-0.59408283
71856373,0.55088854,-0.015080233,0.05150594,0.0,0.0,-0.5929231
71876285,0.51673216,-0.019939074,0.052071266,0.0,0.0,-0.5929231
71896013,0.63114524,-0.022130374,0.053210843,0.0,0.0,-0.5929231
71915978,0.5907722,-0.02523702,0.054588802,0.0,0.0,-0.5929231
71935811,0.5751537,-0.028126232,0.055217836,0.0,0.0,-0.5929231
71955698,0.6303034,-0.032067284,0.056059968,0.0,0.0,-0.5929231
71975536,0.5528135,-0.035468806,0.057252184,0.0,0.0,-0.5929231
71995510,0.46539736,-0.035627782,0.057677492,0.0,0.0,-0.5929231
72015438,0.37223557,-0.035862975,0.057701968,0.0,0.0,-0.5929231
72035210,0.30084264,-0.033424653,0.056704383,0.0,0.0,-0.5929231
72055123,0.24184042,-0.03136972,0.055457078,0.0,0.0,-0.5929231
72074977,0.28570762,-0.02620233,0.054530613,0.0,0.0,-0.5929231
72094883,0.28362972,-0.01806959,0.05368993,0.0,0.0,-0.5929231
72114636,0.27610686,-0.014495904,0.05269275,0.0,0.0,-0.5929231
72139488,0.17973684,-0.01347496,0.051439494,0.0,0.0,-0.5917633
72154294,0.01575664,-0.019225543,0.050182544,0.0,0.0,-0.5917633
72174154,-0.05497183,-0.023201397,0.049333077,0.0,0.0,-0.5917633
72199053,-0.062751055,-0.027967302,0.04649608,0.0,0.0,-0.5917633
72213980,-0.07593028,-0.029116223,0.04653231,0.0,0.0,-0.59060353
72233849,-0.06698137,-0.028827146,0.04482311,0.0,0.0,-0.59060353
72258706,-0.13091667,-0.02908394,0.040643804,0.0,0.0,-0.5917633
72278664,-0.11097272,-0.026379786,0.038718697,0.0,0.0,-0.5917633
72293601,-0.24402443,-0.023896426,0.038446862,0.0,0.0,-0.59060353
72318422,-0.21493097,-0.021638691,0.034602668,0.0,0.0,-0.59060353
72338219,-0.19277568,-0.019335233,0.032412168,0.0,0.0,-0.59060353
72353145,-0.12837222,-0.014322091,0.031933606,0.0,0.0,-0.59060353
72377828,-0.084210426,-0.012186852,0.028504273,0.0,0.0,-0.59060353
72397700,-0.1141497,-0.011947147,0.025824277,0.0,0.0,-0.59060353
72417536,-0.091972485,-0.01093783,0.023358312,0.0,0.0,-0.59060353
72437477,-0.06791887,-0.009381885,0.020743055,0.0,0.0,-0.59060353
72457326,-0.052542157,-0.0080577815,0.018080752,0.0,0.0,-0.59060353
72477234,-0.009098046,-0.0058202697,0.0153298415,0.0,0.0,-0.59060353
72497150,0.0052899243,-0.0067734723,0.01242509,0.0,0.0,-0.59060353
72516943,0.0095096715,-0.0077347076,0.0093513755,0.0,0.0,-0.59060353
72536893,0.016858999,-0.0070484993,0.0067293155,0.0,0.0,-0.59060353
72556831,0.019985748,-0.007006663,0.0041993684,0.0,0.0,-0.59060353
72576632,0.019874925,-0.004534512,0.0012725645,0.0,0.0,-0.59060353
72596521,-0.026673304,-0.0023151035,-0.0014004789,0.0,0.0,-0.5894438
72616332,-0.14032772,-2.1935834e-05,-0.004177624,0.0,0.0,-0.5894438
72636185,-0.13926518,0.002414633,-0.00668209,0.0,0.0,-0.5894438
72656030,-0.17189807,0.0052500726,-0.009554051,0.0,0.0,-0.5894438
72675812,-0.22444843,0.0075115548,-0.012509578,0.0,0.0,-0.5894438
72695689,-0.26757142,0.011026095,-0.015109347,0.0,0.0,-0.588284
72715643,-0.2812714,0.013967744,-0.017457468,0.0,0.0,-0.588284
72735528,-0.47660083,0.018532643,-0.020325288,0.0,0.0,-0.5871242
72755379,-0.5617728,0.021039141,-0.022969615,0.0,0.0,-0.5871242
72775251,-0.51211244,0.020900562,-0.02525561,0.0,0.0,-0.5871242
72795154,-0.44895715,0.020368831,-0.028055683,0.0,0.0,-0.5813255
72815094,-0.37217492,0.020396998,-0.030652674,0.0,0.0,-0.5813255
72839777,-0.27432156,0.020594269,-0.034102757,0.0,0.0,-0.5766864
72854698,-0.22645923,0.02051418,-0.035868384,0.0,0.0,-0.5766864
72874623,-0.17149232,0.019869842,-0.038314644,0.0,0.0,-0.56508875
72899507,-0.12925635,0.022314724,-0.040738102,0.0,0.0,-0.5581302
72914355,-0.11260502,0.021739818,-0.04280684,0.0,0.0,-0.5581302
72934170,-0.09999352,0.023523409,-0.044785123,0.0,0.0,-0.5581302
72959093,-0.08987483,0.030343305,-0.04789473,0.0,0.0,-0.5581302
72978874,-0.078158505,0.031188149,-0.049989775,0.0,0.0,-0.5581302
72993784,-0.07020701,0.031108396,-0.049579848,0.0,0.0,-0.5581302
73018716,-0.048534647,0.031356514,-0.054374672,0.0,0.0,-0.5581302
73038571,-0.03433608,0.033083953,-0.055903666,0.0,0.0,-0.5581302
73053527,-0.033165272,0.03661307,-0.055599328,0.0,0.0,-0.5581302
73078438,-0.016340407,0.03316229,-0.05951719,0.0,0.0,-0.5581302
73098281,-0.011061434,0.032239255,-0.060884647,0.0,0.0,-0.5581302
73118001,-0.006974044,0.029394008,-0.062481117,0.0,0.0,-0.5581302
73137833,0.00085977477,0.025751028,-0.063103884,0.0,0.0,-0.5581302
73157703,0.0030893052,0.025074285,-0.06485091,0.0,0.0,-0.5581302
73177588,0.0048998315,0.021957418,-0.06679132,0.0,0.0,-0.5581302
73192453,0.0069051576,0.022144336,-0.067102745,0.0,0.0,-0.5581302
73217237,-0.00026891418,0.027523564,-0.069781065,0.0,0.0,-0.5581302
73237115,-0.0060587535,0.031907342,-0.071169496,0.0,0.0,-0.5581302
73257112,-0.011105981,0.03574912,-0.07223221,0.0,0.0,-0.5581302
73276918,-0.013107436,0.035442073,-0.07268646,0.0,0.0,-0.55928993
73296814,-0.010762855,0.032899868,-0.0729295,0.0,0.0,-0.5581302
73316579,-0.004626295,0.02862643,-0.07348154,0.0,0.0,-0.55928993
73336479,0.005291135,0.023782987,-0.07360708,0.0,0.0,-0.55928993
73356391,0.013115503,0.020504573,-0.07369526,0.0,0.0,-0.5581302
73376251,0.0176959,0.019954614,-0.07372236,0.0,0.0,-0.55928993
73396117,0.019823741,0.018141396,-0.07359935,0.0,0.0,-0.5581302
73415963,0.017651493,0.019173164,-0.07445393,0.0,0.0,-0.5581302
73435933,0.016680786,0.0192863,0.6572941,0.0,0.0,-0.5069331
73455759,0.14621356,0.0031612604,-0.13281694,0.0,0.0,-0.50332105
73475590,0.22334789,0.013897842,-0.13688397,0.0,0.0,-0.50030327
73495391,0.27218878,0.017220393,-0.13767861,0.0,0.0,-0.49751136
73515258,0.27631286,-0.0013919338,-0.13622218,0.0,0.0,-0.49696812
73540036,0.26272255,-0.008850267,-0.13504112,0.0,0.0,-0.49740592
73554942,0.23076539,-0.0074538337,-0.13219218,0.0,0.0,-0.49740592
73574855,0.19375347,-0.010825339,-0.13060752,0.0,0.0,-0.4975372
73599705,0.16926375,-0.013143049,-0.12715743,0.0,0.0,-0.4961615
73614706,0.13776188,-0.008053795,-0.12502067,0.0,0.0,-0.4961615
73634634,0.11420898,-0.01326636,-0.122070834,0.0,0.0,-0.4959275
73654399,0.15702303,-0.0097824065,-0.12049439,0.0,0.0,-0.49435154
73679226,0.14511691,0.015792644,-0.117202245,0.0,0.0,-0.49362114
73694173,0.1385844,0.009533055,-0.11686796,0.0,0.0,-0.4928405
73714045,0.1111737,-0.0005221969,-0.11285919,0.0,0.0,-0.4907877
73738834,0.097115315,-0.013285485,-0.11020022,0.0,0.0,-0.487815
73753751,0.11196924,-0.019378064,-0.10720097,0.0,0.0,-0.48491508
73773576,0.12237413,0.0073988703,-0.10638691,0.0,0.0,-0.48284987
73798319,0.0777719,-0.01744445,-0.64143616,0.0,0.0,-0.48035783
73818173,0.07611493,0.027031284,-0.12979788,0.0,0.0,-0.47702333
73833133,0.089356855,0.0114614405,-0.12298858,0.0,0.0,-0.47266012
73858022,0.08723216,0.018084746,-0.11758195,0.0,0.0,-0.46855506
73877984,0.09544933,0.018282907,-0.11563003,0.0,0.0,-0.46897164
73892913,0.07963515,0.030826809,-0.11250313,0.0,0.0,-0.4722217
73917656,0.07662703,0.010077939,-0.109482765,0.0,0.0,-0.47688344
73937501,0.06678861,0.039411858,-0.107844576,0.0,0.0,-0.4823332
73957369,0.053446133,0.05229695,-0.10848645,0.0,0.0,-0.48856983
73977244,0.055983137,0.025553893,-0.10755141,0.0,0.0,-0.4940419
73997036,0.08604785,0.02097773,-0.104996055,0.0,0.0,-0.49902073
74017003,0.096128896,0.027865417,-0.103125565,0.0,0.0,-0.505811
74036778,0.09036377,0.04361335,-0.103299804,0.0,0.0,-0.5126215
74056681,0.049215347,0.034464728,-0.10275453,0.0,0.0,-0.51839685
74076475,0.04779698,0.029906193,-0.10195349,0.0,0.0,-0.52344173
74096321,0.059887916,0.02274926,-0.09996754,0.0,0.0,-0.5287011
74116209,0.071900144,0.043187838,-0.09873668,0.0,0.0,-0.5347264
74136229,0.069552094,0.044256296,-0.09821103,0.0,0.0,-0.54090506
74156170,0.0600449,0.03751719,-0.09713562,0.0,0.0,-0.54090506
74176114,0.040792383,0.036153026,-0.09645589,0.0,0.0,-0.5477528
74195883,0.039242346,0.01957476,-0.0944769,0.0,0.0,-0.5515054
74215695,0.034539387,0.027388785,-0.093565166,0.0,0.0,-0.5562692
74235559,0.037410602,0.021815054,-0.091461554,0.0,0.0,-0.56012106
74255303,0.05012508,0.034661435,-0.08941789,0.0,0.0,-0.56518245
74275178,0.045648657,0.04341191,-0.088223204,0.0,0.0,-0.56962776
74294997,0.036452208,0.043491736,-0.08637327,0.0,0.0,-0.5735739
74314930,0.012142157,-0.008850647,-0.082099795,0.0,0.0,-0.57641774
74334791,-0.048069846,-0.03048603,-0.078885384,0.0,0.0,-0.57855946
74354641,-0.096413955,-0.050316844,-0.07556573,0.0,0.0,-0.5806516
74379481,-0.12403489,-0.048239104,-0.07124367,0.0,0.0,-0.5858476
74394390,-0.10896017,-0.0488519,-0.07035555,0.0,0.0,-0.5858476
74414355,-0.08329241,-0.04866158,-0.067285635,0.0,0.0,-0.5883396
74439293,-0.051617093,-0.04352391,-0.061543196,0.0,0.0,-0.5912756
74454100,-0.037053593,-0.04061125,-0.06058277,0.0,0.0,-0.5912756
74473962,-0.027991047,-0.041555677,-0.057167653,0.0,0.0,-0.5874691
74498793,-0.029937133,-0.024499893,-0.051007435,0.0,0.0,-0.5790374
74518591,-0.04076357,-0.01208031,-0.04811447,0.0,0.0,-0.5748756
74533445,-0.037974697,-0.010979898,-0.045769364,0.0,0.0,-0.5748756
74558238,-0.017160919,-0.008520456,-0.040965296,0.0,0.0,-0.5687947
74578104,-0.00075444987,-0.012288587,-0.036966313,0.0,0.0,-0.56639445
74593137,0.0023425536,-0.013297456,-0.034349754,0.0,0.0,-0.56639445
74617934,0.013914827,0.0003199853,-0.03023482,0.0,0.0,-0.563171
74637851,0.04145377,0.04036706,-0.027968235,0.0,0.0,-0.5617354
74657623,0.04304008,0.024651114,-0.024560757,0.0,0.0,-0.5609166
74677596,0.0333282,0.030205041,-0.021861555,0.0,0.0,-0.5595713
74697508,0.043035027,0.028590713,-0.018830918,0.0,0.0,-0.55867493
74717345,0.047994703,0.03499378,-0.015779072,0.0,0.0,-0.558152
74737149,0.04479402,0.035463545,-0.012581142,0.0,0.0,-0.5579593
74756978,0.035021104,0.033499233,-0.009467819,0.0,0.0,-0.5574425
74776895,0.03870786,0.031369522,-0.006397172,0.0,0.0,-0.556978
74796697,0.017373117,0.030148376,-0.0031581915,0.0,0.0,-0.5560881
74816629,0.019248582,0.022391992,8.2731385e-06,0.0,0.0,-0.5553768
74836450,0.0026740693,0.021878764,0.0030295965,0.0,0.0,-0.5549065
74856371,0.0047715427,0.0083504785,0.006002723,0.0,0.0,-0.55424184
74876217,0.01467246,0.0069742,0.008410267,0.0,0.0,-0.5536843
74896058,0.02979311,0.0019982173,0.010666723,0.0,0.0,-0.5538483
74915913,0.02945963,0.008783586,0.012062795,0.0,0.0,-0.55384505
74935777,0.03677735,-0.00029936325,0.014173278,0.0,0.0,-0.5534819
74955801,0.031109788,0.013288703,0.01451277,0.0,0.0,-0.5534796
74975716,0.041440923,0.008064894,0.015591534,0.0,0.0,-0.5535824
74995432,0.04203909,0.0071302764,0.016595611,0.0,0.0,-0.5535824
75015302,0.0006196771,0.031246912,0.01686277,0.0,0.0,-0.5529322
75035271,0.005387323,0.007938373,0.018739292,0.0,0.0,-0.5537307
75055027,0.009479446,0.006995768,0.019717555,0.0,0.0,-0.5543937
75079889,0.02782698,0.016829487,0.023045296,0.0,0.0,-0.55390733
75094762,0.033487752,0.013422953,0.021532537,0.0,0.0,-0.55390733
75114635,0.04530049,4.7141555e-05,0.02299663,0.0,0.0,-0.55422163
75139461,0.00785381,0.0021032875,0.023468368,0.0,0.0,-0.5549285
75154372,0.007537437,0.0018972065,0.02474458,0.0,0.0,-0.5549285
75174239,0.0011243249,0.006802381,0.025822235,0.0,0.0,-0.55552375
75199056,0.020559227,0.003493041,0.023330381,0.0,0.0,-0.55624396
75218853,0.025460783,-0.0075739347,0.023349259,0.0,0.0,-0.55644226
75233847,0.020455187,-0.006044077,0.025775388,0.0,0.0,-0.55644226
75258719,-5.86068e-06,-0.0005368936,0.023658345,0.0,0.0,-0.5563413
75278562,-0.007951979,-0.0028767139,0.024025455,0.0,0.0,-0.55588263
75293462,-0.0059550935,-0.0024977098,0.023707613,0.0,0.0,-0.55588263
75318318,-0.015864132,-0.010316142,0.024499495,0.0,0.0,-0.5551002
75338207,-0.015438002,-0.018151835,0.024053687,0.0,0.0,-0.5551785
75358033,-0.0073017734,-0.018590705,0.023421867,0.0,0.0,-0.5552327
75377878,0.0011594165,-0.028540066,0.022928344,0.0,0.0,-0.55523986
75397810,0.026519656,-0.03006317,0.02191191,0.0,0.0,-0.55533457
75417690,0.029098738,-0.021473624,0.020755643,0.0,0.0,-0.5556318
75432657,0.028954647,-0.01659903,0.019904194,0.0,0.0,-0.5556318
75457299,0.025261708,-0.001386057,0.017712241,0.0,0.0,-0.5567035
75477216,0.014446013,0.0026613437,0.017136522,0.0,0.0,-0.556894
75497113,0.014879665,0.01926935,0.015847057,0.0,0.0,-0.55718887
75517071,-0.00071645837,0.0058085136,0.015300194,0.0,0.0,-0.55709815
75536778,-0.0017970668,0.0054842727,0.014820682,0.0,0.0,-0.55709815
75556731,-0.010360575,-0.017048724,0.014842038,0.0,0.0,-0.5564898
75576603,-0.008292797,0.0017079635,0.013450994,0.0,0.0,-0.55763286
75596470,-0.0066704075,-0.002106533,0.012567639,0.0,0.0,-0.55567974
75616419,-0.0025991516,-0.0021478923,0.011551967,0.0,0.0,-0.55567974
75636163,-0.011950981,0.018037843,0.009966073,0.0,0.0,-0.555119
75656001,-0.016010432,0.01453048,0.009042579,0.0,0.0,-0.5577389
75675788,-0.028166663,0.009066337,0.008138595,0.0,0.0,-0.5579837
75695661,-0.025703512,-0.0010034494,0.0076084435,0.0,0.0,-0.5568049
75715592,-0.008799601,0.0016226933,0.00668756,0.0,0.0,-0.5564894
75735458,0.0028903037,-0.009930216,0.005997705,0.0,0.0,-0.55631924
75755382,0.021425828,-0.010418302,0.0055300747,0.0,0.0,-0.5561232
75775342,0.0168849,-0.010499029,0.0047283163,0.0,0.0,-0.55637056
75795139,0.0252531,-0.0068576345,0.004424952,0.0,0.0,-0.55646926
75815046,-0.00709658,0.025808657,0.0028258231,0.0,0.0,-0.5586604
75839862,-0.002728489,0.024051161,0.0015368934,0.0,0.0,-0.5591955
75854661,-0.0055506113,0.009064881,0.0024447602,0.0,0.0,-0.55684096
75874498,0.010990208,-0.008322272,0.0020827863,0.0,0.0,-0.5581962
75894344,0.01280068,0.00036778764,0.0012305942,0.0,0.0,-0.5579377
75919255,0.011394676,-0.014084749,-0.0005509607,0.0,0.0,-0.5582952
75934175,0.008502552,0.010493187,-0.0011545068,0.0,0.0,-0.5587567
75954019,-0.0010007494,0.018006463,-0.002372841,0.0,0.0,-0.55965346
75978857,-0.011731969,0.035275303,-0.0027944625,0.0,0.0,-0.5601032
75993765,-0.02130894,0.036969602,-0.0042848145,0.0,0.0,-0.5607518
76013644,-0.020548424,0.027799647,-0.004317716,0.0,0.0,-0.5610277
76038541,-0.026782947,0.02148232,-0.0046344437,0.0,0.0,-0.5606415
76058619,-0.017503263,0.009001882,-0.0052392622,0.0,0.0,-0.56093967
76073274,-0.008628962,0.0057387506,-0.004426102,0.0,0.0,-0.56007063
76098080,0.005416618,-0.00035267114,-0.0065844026,0.0,0.0,-0.5604274
76117961,0.005147495,-0.00045663453,-0.0077206423,0.0,0.0,-0.559862
76132849,-0.0016513458,-0.00045237417,-0.0055473717,0.0,0.0,-0.5597483
76157655,-0.024838202,0.0030156635,-0.008682974,0.0,0.0,-0.5597049
76177504,-0.013186557,0.014181788,-0.009457289,0.0,0.0,-0.5601022
76197376,-0.011293989,0.004787214,-0.009675935,0.0,0.0,-0.5600658
76217272,-0.0028952712,0.003110391,-0.010237749,0.0,0.0,-0.5603621
76237218,-0.004170952,-0.001331566,-0.010750622,0.0,0.0,-0.5606849
76257033,-0.024019068,0.010298105,-0.011531919,0.0,0.0,-0.56107455
76276822,-0.028371664,0.0045009656,-0.012190578,0.0,0.0,-0.56148976
76296729,-0.038171872,0.012016167,-0.013568322,0.0,0.0,-0.56219065
76316654,-0.034816615,0.000960345,-0.014695583,0.0,0.0,-0.5617703
76336497,-0.024854511,0.0018009114,-0.015738262,0.0,0.0,-0.56133556
76356358,-0.014442625,0.0005522425,-0.017120231,0.0,0.0,-0.5608753
76376323,-0.013129366,-0.0019669628,-0.018231083,0.0,0.0,-0.5605768
76396107,-0.01647654,4.799525e-07,-0.018759511,0.0,0.0,-0.56007296
76415936,-0.01626823,-0.0009129236,-0.019200396,0.0,0.0,-0.56007296
76435807,-0.011923549,0.0021094058,-0.019918542,0.0,0.0,-0.5592715
76455709,-0.016041428,0.015979575,-0.020654049,0.0,0.0,-0.56076425
76475588,-0.029572971,0.018940097,-0.021051986,0.0,0.0,-0.56133616
76495435,-0.026621858,0.0130645875,-0.021177677,0.0,0.0,-0.560849
76515247,-0.019676283,0.00969783,-0.021817232,0.0,0.0,-0.5614284
76535056,-0.024671346,0.017135208,-0.022864336,0.0,0.0,-0.5619263
76554978,-0.039572127,0.007395783,-0.023896055,0.0,0.0,-0.56247324
76574886,-0.04027451,-0.00030945466,-0.024596475,0.0,0.0,-0.56210715
76594948,-0.040747706,-0.0067550805,-0.02526738,0.0,0.0,-0.5617511
76619568,-0.011312625,-0.015256585,-0.025772147,0.0,0.0,-0.5610338
76634560,-0.008528402,-0.01680918,-0.026475633,0.0,0.0,-0.5610338
76654484,-0.008237678,-0.017690713,-0.026936602,0.0,0.0,-0.5604378
76679321,-0.015746096,-0.025453249,-0.026944976,0.0,0.0,-0.560438
76694224,-0.018792136,-0.02719299,-0.026882825,0.0,0.0,-0.560438
76714052,-0.027656756,-0.010463052,-0.027069109,0.0,0.0,-0.5612158
76738804,-0.041636765,0.0053023584,-0.02974129,0.0,0.0,-0.5620589
76758567,-0.04035929,0.00038494778,-0.02993014,0.0,0.0,-0.56285524
76773512,-0.045153797,0.0031971931,-0.028790418,0.0,0.0,-0.56285524
76798324,-0.05608693,-0.007543002,-0.030215934,0.0,0.0,-0.5634
76818308,-0.049193487,-0.021664817,-0.029492397,0.0,0.0,-0.5628731
76833234,-0.046030976,-0.021175465,-0.02971471,0.0,0.0,-0.5628731
76858171,-0.04567847,-0.02525931,-0.028908046,0.0,0.0,-0.5619546
76877962,-0.042533398,-0.023556313,-0.02890698,0.0,0.0,-0.5619546
76897800,-0.011342185,-0.0011931576,-0.029724756,0.0,0.0,-0.56427765
76917667,-0.022026671,-0.0031504983,-0.029887903,0.0,0.0,-0.5632736
76937525,-0.029959284,-0.0047069015,-0.030217025,0.0,0.0,-0.5621441
76957476,-0.043131493,-0.013589809,-0.030699147,0.0,0.0,-0.5620605
76977262,-0.032430973,-0.029392555,-0.030402107,0.0,0.0,-0.5610199
76997052,-0.033772185,-0.01840938,-0.030640796,0.0,0.0,-0.56073105
77016901,-0.029156001,-0.029495768,-0.030768117,0.0,0.0,-0.560391
77036765,-0.018630406,-0.018214175,-0.030406505,0.0,0.0,-0.56025386
77056591,-0.025253987,-0.022356411,-0.030188875,0.0,0.0,-0.56038696
77076476,-0.014600862,-0.0066335774,-0.029848397,0.0,0.0,-0.56030685
77096396,-0.02371938,-5.2298557e-05,-0.029947173,0.0,0.0,-0.56085944
77116394,-0.023632063,0.019499967,-0.030475957,0.0,0.0,-0.5607633
77136390,-0.03418521,0.0030129955,-0.029958047,0.0,0.0,-0.5609651
77156086,-0.034773372,0.002093999,-0.030095968,0.0,0.0,-0.5609651
77176077,-0.051718578,0.013586755,-0.030703384,0.0,0.0,-0.56102085
77195783,-0.044484064,0.0033738697,-0.031037245,0.0,0.0,-0.56063
77215575,-0.05670129,-0.005168983,-0.03191227,0.0,0.0,-0.561163
77235434,-0.049833983,-0.01794978,-0.031979524,0.0,0.0,-0.55944103
77255262,-0.04853032,-0.006305395,-0.032189697,0.0,0.0,-0.5591248
77275187,-0.05288818,-0.004013435,-0.032635152,0.0,0.0,-0.55893075
77295034,-0.05306729,-0.008073519,-0.032771997,0.0,0.0,-0.5592495
77319869,-0.029634472,-0.0065450217,-0.03320706,0.0,0.0,-0.55980545
77334793,-0.03347955,-0.0013620174,-0.031910792,0.0,0.0,-0.55980545
77354702,-0.023930466,0.0029312181,-0.031886023,0.0,0.0,-0.5607285
77379549,-0.0383354,0.01206668,-0.03385004,0.0,0.0,-0.5618011
77394585,-0.041241203,0.008869324,-0.032718822,0.0,0.0,-0.5618011
77414354,-0.035957832,-0.00026105347,-0.03315861,0.0,0.0,-0.5615449
77439199,-0.045476414,-0.0082383575,-0.03242514,0.0,0.0,-0.56047034
77459051,-0.044015706,-0.002557115,-0.031981803,0.0,0.0,-0.56035954
77473968,-0.043325424,-0.0044422606,-0.03410434,0.0,0.0,-0.56035954
77498670,-0.03792506,-0.012483333,-0.031948317,0.0,0.0,-0.5598551
77518494,-0.026789844,-0.00582517,-0.03256406,0.0,0.0,-0.55980814
77533460,-0.016715445,-0.0068133753,-0.034435716,0.0,0.0,-0.55980814
77558249,-0.011565011,0.002986038,-0.033702448,0.0,0.0,-0.56049466
77578291,-0.017232139,0.009805824,-0.03440309,0.0,0.0,-0.56084675
77598115,-0.014532017,0.013952156,-0.035007473,0.0,0.0,-0.56148833
77612987,-0.0143771395,0.016966065,-0.033947796,0.0,0.0,-0.56148833
77637821,-0.037978984,0.019761493,-0.034874655,0.0,0.0,-0.56205815
77657753,-0.032344986,0.0025687045,-0.034020245,0.0,0.0,-0.5613724
77672710,-0.02497409,-0.0024733348,-0.034616046,0.0,0.0,-0.5613724
77697372,0.037966263,0.005072871,-0.033621855,0.0,0.0,-0.56100583
77717299,0.027141927,0.013737389,-0.033902094,0.0,0.0,-0.56090474
77737165,0.00017914886,0.027837276,-0.034394525,0.0,0.0,-0.56107974
77756990,-0.026394457,0.006149525,-0.033945724,0.0,0.0,-0.5608777
77776860,-0.04271891,0.0059699574,-0.034536723,0.0,0.0,-0.5604059
77796664,-0.04643228,-0.0029505312,-0.034941502,0.0,0.0,-0.55981594
77816566,-0.027249042,-0.009672336,-0.035062037,0.0,0.0,-0.5589947
77836529,-0.012266622,-0.0017693258,-0.035955798,0.0,0.0,-0.55885714
77856402,-0.0010003141,-0.009466632,-0.036066815,0.0,0.0,-0.55835557
77876271,0.0025207668,0.0022201443,-0.036548667,0.0,0.0,-0.55846345
77896137,0.0015139898,-0.0067264396,-0.036089636,0.0,0.0,-0.5587467
77916076,-0.001399639,-0.003975658,-0.035414413,0.0,0.0,-0.5587467
77936024,-0.0061468114,0.0042430316,-0.03563019,0.0,0.0,-0.55901706
77955686,-0.009614752,0.016730208,-0.03602926,0.0,0.0,-0.55996823
77975618,-0.010646163,0.0057812566,-0.036585204,0.0,0.0,-0.559861
77995514,-0.012537424,-0.0037645032,-0.037051793,0.0,0.0,-0.5597614
78020461,-0.023138484,-0.009655171,-0.03694504,0.0,0.0,-0.55901724
78035279,-0.024113866,-0.009992079,-0.038016863,0.0,0.0,-0.55901724
78055052,-0.0201186,-0.008817409,-0.038378518,0.0,0.0,-0.55857277
78079775,-0.008799942,-0.010472149,-0.036591604,0.0,0.0,-0.5581508
78094677,-0.006702941,-0.011345116,-0.03762312,0.0,0.0,-0.5581508
78114527,-0.0060601635,-0.0049426705,-0.037169117,0.0,0.0,-0.55819625
78134397,-0.005208878,0.008920828,-0.0367386,0.0,0.0,-0.5588576
78159279,-0.0027889137,0.015663404,-0.037445694,0.0,0.0,-0.5597267
78174290,-0.0057699746,0.016383238,-0.036468673,0.0,0.0,-0.5597267
78194216,-0.0077493656,0.0065431884,-0.036296394,0.0,0.0,-0.5605076
78218997,-0.017561795,-0.010238177,-0.035036054,0.0,0.0,-0.55992967
78233882,-0.0148268035,-0.016396614,-0.03579314,0.0,0.0,-0.55992967
78253767,0.012871918,-0.03607894,-0.03510766,0.0,0.0,-0.55905694
78278582,0.014942071,-0.033991657,-0.032669757,0.0,0.0,-0.5585464
78298386,0.017488753,-0.034133602,-0.03262524,0.0,0.0,-0.5588587
78313209,0.012829466,-0.029233873,-0.03369435,0.0,0.0,-0.5588587
78338029,0.0043385434,-0.015292653,0.00010046125,0.0,0.0,-0.5501324
78357892,-0.10365358,-0.04210893,-0.07331041,0.0,0.0,-0.55851173
78372807,-0.11516362,-0.033419117,-0.07252175,0.0,0.0,-0.55851173
78397717,-0.0068467646,-0.0062628617,-0.18672428,0.0,0.0,-0.57848024
78417616,0.0049130386,-0.010847538,-0.23411177,0.0,0.0,-0.5890731
78437452,0.014446037,-0.019441236,-0.29862174,0.0,0.0,-0.59925705
78457417,0.015397539,-0.03799671,-0.35971057,0.0,0.0,-0.6095034
78477341,0.013897201,-0.033829942,-0.43588802,0.0,0.0,-0.6199197
78497046,0.008953147,-0.038067736,-0.5136405,0.0,0.0,-0.63006073
78516906,0.016415792,-0.017771576,-0.58668816,0.0,0.0,-0.6272605
78536860,0.019394118,-0.021131689,-0.6543805,0.0,0.0,-0.6197916
78556770,0.038734253,-0.007873542,-0.7074452,0.0,0.0,-0.61123
78576585,-0.004737305,-0.028134782,-0.752482,0.0,0.0,-0.601221
78596507,-0.0048786704,-0.013309689,-0.7916327,0.0,0.0,-0.5927274
78616244,0.00019215098,-0.02555035,-0.8319787,0.0,0.0,-0.58143836
78636117,-0.0041301767,-0.039582774,-0.88494956,0.0,0.0,-0.5704649
78655919,-0.0081206355,-0.056596283,-0.9486541,0.0,0.0,-0.5586472
78675820,-0.01604808,-0.04956455,-1.0088735,0.0,0.0,-0.5472542
78695714,0.004070574,-0.026697516,-1.0716742,0.0,0.0,-0.5440147
78715621,-0.01047813,-0.03503407,-1.1183504,0.0,0.0,-0.5409173
78735623,-0.018145183,-0.038274985,-1.1525347,0.0,0.0,-0.54709595
78755368,-0.012757953,-0.029178632,-1.1833155,0.0,0.0,-0.54655445
78775273,-0.01835004,-0.017605672,-1.1938746,0.0,0.0,-0.54817283
78795095,-0.022575883,-0.0073055597,-1.1870378,0.0,0.0,-0.53974396
78815018,0.0093327155,-0.037301227,-1.1452835,0.0,0.0,-0.5392891
78834859,0.010378408,-0.013199819,-1.1068583,0.0,0.0,-0.54923344
78859693,-0.024697833,-0.040378243,-1.058999,0.0,0.0,-0.5582792
78874567,-0.011919878,-0.00980055,-1.0153604,0.0,0.0,-0.56548005
78894366,-0.020323543,-0.00739339,-0.9374245,0.0,0.0,-0.56022555
78919154,-0.0072128447,0.010135324,-0.84499305,0.0,0.0,-0.55576617
78934069,-0.0045793597,-0.0032182653,-0.75624746,0.0,0.0,-0.5551983
78953977,0.0035868613,-0.007986601,-0.67780375,0.0,0.0,-0.5472047
78978886,0.008626733,0.015820952,-0.5881999,0.0,0.0,-0.5429523
78998893,-0.016717028,0.0087275645,-0.50269634,0.0,0.0,-0.54193413
79013816,-0.0076112947,0.0062455237,-0.4385536,0.0,0.0,-0.5506875
79038519,-0.006039134,-0.011237499,-0.36653933,0.0,0.0,-0.5622862
79058357,-0.009462845,-0.0044025164,-0.31138465,0.0,0.0,-0.5724024
79073251,-0.009676114,-0.0051574665,-0.290554,0.0,0.0,-0.5724024
79098015,-0.023356771,-0.008856707,-0.23480266,0.0,0.0,-0.570897
79117827,-0.029676123,-0.009669744,-0.21085453,0.0,0.0,-0.5711872
79137770,-0.01254622,-0.00970592,-0.19666149,0.0,0.0,-0.5630368
79157634,-0.011500292,-0.020197611,-0.19103725,0.0,0.0,-0.5546905
79177535,0.0038512587,-0.03260971,-0.18847905,0.0,0.0,-0.5623437
79197331,0.00031346834,-0.040219173,-0.19094051,0.0,0.0,-0.57145053
79217184,-0.013262332,-0.045206998,-0.19172658,0.0,0.0,-0.564368
79237067,-0.007541884,-0.0386785,-0.22956109,0.0,0.0,-0.5632343
79257134,-0.02185712,-0.051815514,-0.25773522,0.0,0.0,-0.55439764
79277097,-0.020041008,-0.054637402,-0.3164047,0.0,0.0,-0.5539858
79296804,-0.020217193,-0.051470097,-0.2987887,0.0,0.0,-0.5539858
79316659,-0.00018300972,-0.07076118,-0.45472646,0.0,0.0,-0.5706701
79336552,-0.004093016,-0.0811525,-0.529099,0.0,0.0,-0.5756981
79356551,-0.005845663,-0.083589256,-0.60832584,0.0,0.0,-0.56745744
79376198,0.0007346115,-0.09323358,-0.67618066,0.0,0.0,-0.56553674
79396076,7.44291e-06,-0.08477584,-0.7303063,0.0,0.0,-0.5566299
79415886,-0.0037624442,-0.07324211,-0.70256096,0.0,0.0,-0.5566299
79435719,0.0069155125,-0.07808397,-0.7471844,0.0,0.0,-0.5645458
79455587,0.0050795237,-0.044869043,-0.73981655,0.0,0.0,-0.5578073
79475484,-0.01905108,-0.065821804,-0.67864376,0.0,0.0,-0.5568617
79495464,-0.035592612,-0.051835697,-0.6313575,0.0,0.0,-0.55068475
79515296,-0.033701945,-0.048602764,-0.58087295,0.0,0.0,-0.5576557
79535285,-0.032535017,-0.033729047,-0.48687488,0.0,0.0,-0.5632896
79560007,-0.028592313,0.0010281289,-0.34363043,0.0,0.0,-0.56554574
79574841,-0.033224292,0.004869244,-0.32347867,0.0,0.0,-0.56554574
79594771,-0.03454339,-0.01204683,-0.25621516,0.0,0.0,-0.57446766
79619595,-0.033289,-0.034801975,-0.17251468,0.0,0.0,-0.5665697
79634571,-0.028707443,-0.038146984,-0.15953556,0.0,0.0,-0.5665697
79654407,-0.020149022,-0.041035753,-0.12382084,0.0,0.0,-0.5755963
79679285,-0.023295254,-0.044167772,-0.0838553,0.0,0.0,-0.56645167
79699066,-0.03877244,-0.047280636,-0.06612663,0.0,0.0,-0.5653139
79713997,-0.033415005,-0.047605194,-0.059499077,0.0,0.0,-0.5653139
79738708,-0.032138843,-0.036210217,-0.04194303,0.0,0.0,-0.5646893
79758614,-0.027503978,-0.027389368,-0.03382009,0.0,0.0,-0.56479096
79773480,-0.02731559,-0.024409618,-0.027420048,0.0,0.0,-0.56479096
79793479,-0.023815995,-0.042039678,-0.019740492,0.0,0.0,-0.5646094
79818367,0.0015766809,-0.056329284,-0.01680687,0.0,0.0,-0.56460506
79838211,0.0043933163,-0.06174693,-0.013570902,0.0,0.0,-0.5646346
79853153,0.001981453,-0.05860255,-0.006691252,0.0,0.0,-0.5646346
79877869,0.0020634732,-0.056027435,-0.008620098,0.0,0.0,-0.5567114
79897751,-0.0367226,-0.034895208,-0.007504625,0.0,0.0,-0.56347483
79912626,-0.04464123,-0.029973518,-0.0017400705,0.0,0.0,-0.56347483
79937531,-0.27032316,-0.264109,2.3758714e-05,0.0,0.0,-0.56598383
79957357,-0.25905997,-0.3797786,0.0037967209,0.0,0.0,-0.5669173
79977156,-0.21570401,-0.47704017,0.0070161843,0.0,0.0,-0.5678612
79997047,-0.17079112,-0.5493101,0.008968845,0.0,0.0,-0.569174
80016850,-0.13204221,-0.6163335,0.009833089,0.0,0.0,-0.5705584
80036754,-0.1297371,-0.6767441,0.009710221,0.0,0.0,-0.5718296
80056652,-0.12964164,-0.71193236,0.010306634,0.0,0.0,-0.5727645
80076711,-0.12272249,-0.74719673,0.011016365,0.0,0.0,-0.5739021
80096476,-0.12445378,-0.7648679,0.010125736,0.0,0.0,-0.5754805
80116372,-0.10610026,-0.7812568,0.01178397,0.0,0.0,-0.5793848
80136196,-0.10068458,-0.8037519,0.013629464,0.0,0.0,-0.58130395
80156070,0.031979524,-0.81743413,0.01831964,0.0,0.0,-0.5837575
80175816,0.04007056,-0.71380126,0.017618548,0.0,0.0,-0.5837575
80195706,0.15851793,-0.7820283,0.022891495,0.0,0.0,-0.58680636
80215516,0.14735706,-0.7995155,0.024378275,0.0,0.0,-0.58026004
80235457,0.13736536,-0.8074322,0.025944836,0.0,0.0,-0.58968437
80260276,0.088695936,-0.8813815,0.029737618,0.0,0.0,-0.5990144
80275167,0.08452371,-0.8477336,0.030386627,0.0,0.0,-0.5955366
80295099,0.055539172,-0.73748964,0.030059684,0.0,0.0,-0.5955366
80314921,0.058041297,-0.5033012,0.027208608,0.0,0.0,-0.58960646
80334825,0.06611785,-0.3161126,0.02502367,0.0,0.0,-0.5899142
80354857,0.05899091,-0.17096929,0.022925312,0.0,0.0,-0.58659244
