timestamp,q[0],q[1],q[2],q[3],delta_q_reset[0],delta_q_reset[1],delta_q_reset[2],delta_q_reset[3],quat_reset_counter
61872382,-0.32299075,-0.011426386,0.034044225,0.9457206,-0.9997383,-3.005598e-09,2.2678082e-09,0.022878816,3
61877350,-0.3230171,-0.011459066,0.03407327,0.9457102,-0.9997383,-3.005598e-09,2.2678082e-09,0.022878816,3
61922051,-0.32375416,-0.011322802,0.034107905,0.94545853,-0.9997383,-3.005598e-09,2.2678082e-09,0.022878816,3
61976685,-0.32252756,-0.011063473,0.034302726,0.9458736,-0.9997383,-3.005598e-09,2.2678082e-09,0.022878816,3
62026355,-0.32320017,-0.011555891,0.03399099,0.94564945,-0.9997383,-3.005598e-09,2.2678082e-09,0.022878816,3
62076221,-0.32265288,-0.011664121,0.03402475,0.9458337,-0.9997383,-3.005598e-09,2.2678082e-09,0.022878816,3
62125692,-0.32271704,-0.01138562,0.033713456,0.94582635,-0.9997383,-3.005598e-09,2.2678082e-09,0.022878816,3
62175361,-0.32298282,-0.0116762,0.034105085,0.94571805,-0.9997383,-3.005598e-09,2.2678082e-09,0.022878816,3
62225029,-0.32266936,-0.011642778,0.03443906,0.9458134,-0.9997383,-3.005598e-09,2.2678082e-09,0.022878816,3
62274698,-0.32277468,-0.0122513445,0.034269813,0.94577587,-0.9997383,-3.005598e-09,2.2678082e-09,0.022878816,3
62324454,-0.32279077,-0.012241099,0.034189466,0.9457735,-0.9997383,-3.005598e-09,2.2678082e-09,0.022878816,3
62374037,-0.32323313,-0.01217408,0.03397336,0.9456311,-0.9997383,-3.005598e-09,2.2678082e-09,0.022878816,3
62423705,-0.32321736,-0.01171107,0.0341579,0.9456356,-0.9997383,-3.005598e-09,2.2678082e-09,0.022878816,3
62478341,-0.32345846,-0.011980754,0.034072034,0.94555295,-0.9997383,-3.005598e-09,2.2678082e-09,0.022878816,3
62528011,-0.3234113,-0.011424596,0.034039844,0.9455771,-0.9997383,-3.005598e-09,2.2678082e-09,0.022878816,3
62577753,-0.3233362,-0.011225536,0.03393828,0.9456088,-0.9997383,-3.005598e-09,2.2678082e-09,0.022878816,3
62622380,-0.32313028,-0.012047925,0.034230884,0.94565845,-0.9997383,-3.005598e-09,2.2678082e-09,0.022878816,3
62677015,-0.32313597,-0.011591999,0.034123324,0.9456662,-0.9997383,-3.005598e-09,2.2678082e-09,0.022878816,3
62726684,-0.32331565,-0.011854412,0.034240685,0.94559723,-0.9997383,-3.005598e-09,2.2678082e-09,0.022878816,3
62776355,-0.32342532,-0.011967671,0.034389578,0.9455529,-0.9997383,-3.005598e-09,2.2678082e-09,0.022878816,3
62826024,-0.32360756,-0.0121635925,0.03422289,0.94549406,-0.9997383,-3.005598e-09,2.2678082e-09,0.022878816,3
62875856,-0.3237862,-0.012286847,0.034085438,0.9454363,-0.9997383,-3.005598e-09,2.2678082e-09,0.022878816,3
62925360,-0.32378003,-0.012382837,0.033828594,0.94544643,-0.9997383,-3.005598e-09,2.2678082e-09,0.022878816,3
62975028,-0.32394177,-0.01226896,0.033759266,0.945395,-0.9997383,-3.005598e-09,2.2678082e-09,0.022878816,3
63024697,-0.3240428,-0.01192958,0.033937022,0.9453583,-0.9997383,-3.005598e-09,2.2678082e-09,0.022878816,3
63074379,-0.32417604,-0.011589886,0.034160115,0.94530886,-0.9997383,-3.005598e-09,2.2678082e-09,0.022878816,3
63124149,-0.32400566,-0.011484389,0.034459732,0.9453576,-0.9997383,-3.005598e-09,2.2678082e-09,0.022878816,3
63178670,-0.32426858,-0.011687804,0.034224384,0.9452735,-0.9997383,-3.005598e-09,2.2678082e-09,0.022878816,3
63228339,-0.32426363,-0.011569304,0.03437766,0.9452712,-0.9997383,-3.005598e-09,2.2678082e-09,0.022878816,3
63273041,-0.32405022,-0.011770175,0.033930413,0.9453579,-0.9997383,-3.005598e-09,2.2678082e-09,0.022878816,3
63322710,-0.3242489,-0.012008655,0.03349571,0.9453023,-0.9997383,-3.005598e-09,2.2678082e-09,0.022878816,3
63377370,-0.32436278,-0.011756233,0.033832833,0.9452545,-0.9997383,-3.005598e-09,2.2678082e-09,0.022878816,3
63427014,-0.32443115,-0.012015973,0.03359184,0.94523627,-0.9997383,-3.005598e-09,2.2678082e-09,0.022878816,3
63476684,-0.3244849,-0.0121182315,0.033426132,0.9452224,-0.9997383,-3.005598e-09,2.2678082e-09,0.022878816,3
63526351,-0.3246067,-0.01229248,0.03355427,0.94517386,-0.9997383,-3.005598e-09,2.2678082e-09,0.022878816,3
63576027,-0.324618,-0.012294596,0.033859592,0.945159,-0.9997383,-3.005598e-09,2.2678082e-09,0.022878816,3
63625694,-0.3248165,-0.011994295,0.034154482,0.94508404,-0.9997383,-3.005598e-09,2.2678082e-09,0.022878816,3
63675478,-0.32502013,-0.011625909,0.034313496,0.945013,-0.9997383,-3.005598e-09,2.2678082e-09,0.022878816,3
63725027,-0.3251296,-0.011625906,0.03443345,0.94497085,-0.9997383,-3.005598e-09,2.2678082e-09,0.022878816,3
63774703,-0.32511663,-0.011865432,0.03463852,0.9449649,-0.9997383,-3.005598e-09,2.2678082e-09,0.022878816,3
63824364,-0.32505164,-0.011933584,0.034667533,0.94498533,-0.9997383,-3.005598e-09,2.2678082e-09,0.022878816,3
63879001,-0.3251649,-0.01220144,0.034605633,0.94494516,-0.9997383,-3.005598e-09,2.2678082e-09,0.022878816,3
63928717,-0.3251561,-0.0118983975,0.03452023,0.94495517,-0.9997383,-3.005598e-09,2.2678082e-09,0.022878816,3
63973370,-0.32535398,-0.011775086,0.03453824,0.944888,-0.9997383,-3.005598e-09,2.2678082e-09,0.022878816,3
64023106,-0.32543254,-0.01176425,0.034482736,0.9448631,-0.9997383,-3.005598e-09,2.2678082e-09,0.022878816,3
64077675,-0.32516122,-0.012349904,0.034225408,0.9449583,-0.9997383,-3.005598e-09,2.2678082e-09,0.022878816,3
64127344,-0.3252324,-0.012420004,0.033946853,0.944943,-0.9997383,-3.005598e-09,2.2678082e-09,0.022878816,3
64177026,-0.32520488,-0.012436129,0.033611722,0.94496423,-0.9997383,-3.005598e-09,2.2678082e-09,0.022878816,3
64226877,-0.32546154,-0.012410903,0.03305981,0.94489574,-0.9997383,-3.005598e-09,2.2678082e-09,0.022878816,3
64276350,-0.32565376,-0.012453359,0.03300498,0.9448309,-0.9997383,-3.005598e-09,2.2678082e-09,0.022878816,3
64326024,-0.325826,-0.012158655,0.035584018,0.9446817,-0.9997383,-3.005598e-09,2.2678082e-09,0.022878816,3
64375688,-0.32551724,-0.011646421,0.03360434,0.944867,-0.9997383,-3.005598e-09,2.2678082e-09,0.022878816,3
64425356,-0.32450205,-0.011644614,0.03442026,0.94518685,-0.9997383,-3.005598e-09,2.2678082e-09,0.022878816,3
64475237,-0.3258315,-0.011829741,0.03303532,0.94477654,-0.9997383,-3.005598e-09,2.2678082e-09,0.022878816,3
64524696,-0.32542115,-0.010438406,0.033287954,0.9449255,-0.9997383,-3.005598e-09,2.2678082e-09,0.022878816,3
64579331,-0.3253566,-0.009335612,0.032415304,0.94498956,-0.9997383,-3.005598e-09,2.2678082e-09,0.022878816,3
64624064,-0.32589605,-0.00871923,0.03295045,0.9447911,-0.9997383,-3.005598e-09,2.2678082e-09,0.022878816,3
64673700,-0.32602003,-0.008413093,0.032405935,0.94476986,-0.9997383,-3.005598e-09,2.2678082e-09,0.022878816,3
64723422,-0.32573923,-0.007421461,0.031882815,0.9448928,-0.9997383,-3.005598e-09,2.2678082e-09,0.022878816,3
64778019,-0.32584655,-0.007405218,0.031851247,0.944857,-0.9997383,-3.005598e-09,2.2678082e-09,0.022878816,3
64827674,-0.3257061,-0.0074888146,0.031146683,0.9449283,-0.9997383,-3.005598e-09,2.2678082e-09,0.022878816,3
64877343,-0.32635197,-0.007749775,0.031697202,0.94468504,-0.9997383,-3.005598e-09,2.2678082e-09,0.022878816,3
64927030,-0.32633355,-0.007138547,0.031545714,0.9447012,-0.9997383,-3.005598e-09,2.2678082e-09,0.022878816,3
64976694,-0.32606998,-0.006937199,0.031214068,0.9448047,-0.9997383,-3.005598e-09,2.2678082e-09,0.022878816,3
65026501,-0.3260602,-0.0074003995,0.031230068,0.9448041,-0.9997383,-3.005598e-09,2.2678082e-09,0.022878816,3
65076031,-0.3263577,-0.007042389,0.031550396,0.9446934,-0.9997383,-3.005598e-09,2.2678082e-09,0.022878816,3
65125686,-0.32621187,-0.0066208504,0.030872168,0.9447693,-0.9997383,-3.005598e-09,2.2678082e-09,0.022878816,3
65175355,-0.32603467,-0.006336481,0.030359508,0.94484895,-0.9997383,-3.005598e-09,2.2678082e-09,0.022878816,3
65225044,-0.32627422,-0.0062746876,0.031042533,0.94474447,-0.9997383,-3.005598e-09,2.2678082e-09,0.022878816,3
65279742,-0.3261936,-0.006571363,0.031299535,0.9447618,-0.9997383,-3.005598e-09,2.2678082e-09,0.022878816,3
65324362,-0.32631323,-0.00682978,0.030560365,0.944743,-0.9997383,-3.005598e-09,2.2678082e-09,0.022878816,3
65374030,-0.3264268,-0.0067203874,0.03055662,0.94470453,-0.9997383,-3.005598e-09,2.2678082e-09,0.022878816,3
65423699,-0.3257832,-0.0062432564,0.030356783,0.9449364,-0.9997383,-3.005598e-09,2.2678082e-09,0.022878816,3
65478339,-0.32596642,-0.0058991387,0.030153915,0.9448819,-0.9997383,-3.005598e-09,2.2678082e-09,0.022878816,3
65528003,-0.32618225,-0.0057078227,0.030895228,0.94478476,-0.9997383,-3.005598e-09,2.2678082e-09,0.022878816,3
65572897,-0.32582375,-0.005857377,0.030219866,0.94492924,-0.9997383,-3.005598e-09,2.2678082e-09,0.022878816,3
65627342,-0.32611716,-0.006129514,0.030550115,0.9448157,-0.9997383,-3.005598e-09,2.2678082e-09,0.022878816,3
65677032,-0.32671255,-0.007141704,0.030797904,0.9445949,-0.9997383,-3.005598e-09,2.2678082e-09,0.022878816,3
65726678,-0.32608515,-0.0074313823,0.031896774,0.9447729,-0.9997383,-3.005598e-09,2.2678082e-09,0.022878816,3
65776348,-0.3261636,-0.009053918,0.03160317,0.94474155,-0.9997383,-3.005598e-09,2.2678082e-09,0.022878816,3
65826139,-0.32563892,-0.009596045,0.03216459,0.9448983,-0.9997383,-3.005598e-09,2.2678082e-09,0.022878816,3
65875685,-0.32629716,-0.010334678,0.032109626,0.9446652,-0.9997383,-3.005598e-09,2.2678082e-09,0.022878816,3
65925368,-0.32625204,-0.009670888,0.03252141,0.9446738,-0.9997383,-3.005598e-09,2.2678082e-09,0.022878816,3
65975023,-0.3265713,-0.009567921,0.031538047,0.94459784,-0.9997383,-3.005598e-09,2.2678082e-09,0.022878816,3
66024691,-0.3267549,-0.009102297,0.032435168,0.9445086,-0.9997383,-3.005598e-09,2.2678082e-09,0.022878816,3
66074386,-0.3261553,-0.008613782,0.032160584,0.9447298,-0.9997383,-3.005598e-09,2.2678082e-09,0.022878816,3
66124034,-0.3264673,-0.0086932825,0.031839706,0.9446322,-0.9997383,-3.005598e-09,2.2678082e-09,0.022878816,3
66178665,-0.3264845,-0.009639765,0.03219998,0.94460475,-0.9997383,-3.005598e-09,2.2678082e-09,0.022878816,3
66223367,-0.32593957,-0.009574064,0.031807598,0.9448069,-0.9997383,-3.005598e-09,2.2678082e-09,0.022878816,3
66273037,-0.3263123,-0.009997494,0.0319541,0.9446689,-0.9997383,-3.005598e-09,2.2678082e-09,0.022878816,3
66327674,-0.3262236,-0.008751871,0.03202022,0.9447097,-0.9997383,-3.005598e-09,2.2678082e-09,0.022878816,3
66377535,-0.32609224,-0.007575065,0.031889953,0.9447696,-0.9997383,-3.005598e-09,2.2678082e-09,0.022878816,3
66427009,-0.32615316,-0.007676671,0.031059168,0.9447754,-0.9997383,-3.005598e-09,2.2678082e-09,0.022878816,3
66476677,-0.32604337,-0.007860435,0.031407136,0.9448003,-0.9997383,-3.005598e-09,2.2678082e-09,0.022878816,3
66526348,-0.32638067,-0.008021172,0.03080869,0.9447022,-0.9997383,-3.005598e-09,2.2678082e-09,0.022878816,3
66576015,-0.3261863,-0.007022891,0.030518876,0.94478667,-0.9997383,-3.005598e-09,2.2678082e-09,0.022878816,3
66625868,-0.3257167,-0.0055874866,0.029970575,0.9449758,-0.9997383,-3.005598e-09,2.2678082e-09,0.022878816,3
66675353,-0.32553977,-0.0047248686,0.029257331,0.9450639,-0.9997383,-3.005598e-09,2.2678082e-09,0.022878816,3
66725021,-0.32564405,-0.0047620796,0.029476158,0.9450209,-0.9997383,-3.005598e-09,2.2678082e-09,0.022878816,3
66774722,-0.32553178,-0.00525401,0.029783733,0.9450474,-0.9997383,-3.005598e-09,2.2678082e-09,0.022878816,3
66824359,-0.3254214,-0.0050400766,0.029806377,0.9450858,-0.9997383,-3.005598e-09,2.2678082e-09,0.022878816,3
66879018,-0.3254045,-0.0042546755,0.029304167,0.9451112,-0.9997383,-3.005598e-09,2.2678082e-09,0.022878816,3
66923710,-0.32509455,-0.0036499957,0.028445857,0.9452465,-0.9997383,-3.005598e-09,2.2678082e-09,0.022878816,3
66973365,-0.32539552,-0.0036042,0.027874542,0.94516015,-0.9997383,-3.005598e-09,2.2678082e-09,0.022878816,3
67028001,-0.3254595,-0.0036568367,0.028967645,0.9451051,-0.9997383,-3.005598e-09,2.2678082e-09,0.022878816,3
67077670,-0.32546204,-0.0036364351,0.028266769,0.9451256,-0.9997383,-3.005598e-09,2.2678082e-09,0.022878816,3
67127340,-0.32529983,-0.0036497274,0.027512744,0.9452036,-0.9997383,-3.005598e-09,2.2678082e-09,0.022878816,3
67172168,-0.3253341,-0.0021697714,0.026448082,0.9452268,-0.9997383,-3.005598e-09,2.2678082e-09,0.022878816,3
67226676,-0.32527742,-0.001438837,0.023402546,0.9453279,-0.9997383,-3.005598e-09,2.2678082e-09,0.022878816,3
67276344,-0.32500902,-0.0008760124,0.019222135,0.9455152,-0.9997383,-3.005598e-09,2.2678082e-09,0.022878816,3
67326016,-0.32483917,0.0009983327,0.015813563,0.9456366,-0.9997383,-3.005598e-09,2.2678082e-09,0.022878816,3
67375684,-0.3249363,0.0028530762,0.010785827,0.94567007,-0.9997383,-3.005598e-09,2.2678082e-09,0.022878816,3
67425406,-0.3249096,0.005113806,0.003694891,0.94572407,-0.9997383,-3.005598e-09,2.2678082e-09,0.022878816,3
67475019,-0.32430863,0.0076187737,-0.0034591695,0.9459143,-0.9997383,-3.005598e-09,2.2678082e-09,0.022878816,3
67524689,-0.323745,0.011176958,-0.011969569,0.94600266,-0.9997383,-3.005598e-09,2.2678082e-09,0.022878816,3
67574364,-0.32238576,0.013532916,-0.018345937,0.9463339,-0.9997383,-3.005598e-09,2.2678082e-09,0.022878816,3
67624026,-0.3181381,0.013238889,-0.021752175,0.94770235,-0.9997383,-3.005598e-09,2.2678082e-09,0.022878816,3
67673706,-0.3108957,0.010679435,-0.020756753,0.95015734,-0.9997383,-3.005598e-09,2.2678082e-09,0.022878816,3
67728331,-0.3021154,0.00493384,-0.011704222,0.9531868,-0.9997383,-3.005598e-09,2.2678082e-09,0.022878816,3
67778001,-0.29380992,-0.0048902817,0.002351999,0.9558485,-0.9997383,-3.005598e-09,2.2678082e-09,0.022878816,3
67827689,-0.28460088,-0.013004528,0.016784197,0.95841104,-0.9997383,-3.005598e-09,2.2678082e-09,0.022878816,3
67872371,-0.27712125,-0.02005888,0.025988784,0.960274,-0.9997383,-3.005598e-09,2.2678082e-09,0.022878816,3
67927006,-0.26967305,-0.025080353,0.03256628,0.9620742,-0.9997383,-3.005598e-09,2.2678082e-09,0.022878816,3
67976790,-0.26645893,-0.028558014,0.035267215,0.9627775,-0.9997383,-3.005598e-09,2.2678082e-09,0.022878816,3
68026343,-0.26687077,-0.029101329,0.036196534,0.96261257,-0.9997383,-3.005598e-09,2.2678082e-09,0.022878816,3
68076012,-0.27139968,-0.029229628,0.036131628,0.9613441,-0.9997383,-3.005598e-09,2.2678082e-09,0.022878816,3
68125681,-0.27785417,-0.028022673,0.033283245,0.9596374,-0.9997383,-3.005598e-09,2.2678082e-09,0.022878816,3
68175351,-0.28664756,-0.02527658,0.027449038,0.95730925,-0.9997383,-3.005598e-09,2.2678082e-09,0.022878816,3
68225042,-0.2959985,-0.022578258,0.022415424,0.95465845,-0.9997383,-3.005598e-09,2.2678082e-09,0.022878816,3
68274687,-0.30480927,-0.018852698,0.017429644,0.9520674,-0.9997383,-3.005598e-09,2.2678082e-09,0.022878816,3
68324356,-0.3128678,-0.016099911,0.012545117,0.94957733,-0.9997383,-3.005598e-09,2.2678082e-09,0.022878816,3
68374027,-0.31909034,-0.013326585,0.009098275,0.9475869,-0.9997383,-3.005598e-09,2.2678082e-09,0.022878816,3
68428661,-0.32323912,-0.011661955,0.0076972926,0.94621414,-0.9997383,-3.005598e-09,2.2678082e-09,0.022878816,3
68478332,-0.32575014,-0.012094056,0.004739932,0.94536674,-0.9997383,-3.005598e-09,2.2678082e-09,0.022878816,3
68523196,-0.3262219,-0.012784692,0.006939252,0.94518125,-0.9997383,-3.005598e-09,2.2678082e-09,0.022878816,3
68572700,-0.32558748,-0.015398865,0.010425484,0.94532907,-0.9997383,-3.005598e-09,2.2678082e-09,0.022878816,3
68627336,-0.32498586,-0.021186197,0.014295482,0.94537354,-0.9997383,-3.005598e-09,2.2678082e-09,0.022878816,3
68677004,-0.32490873,-0.02457936,0.017140515,0.94527054,-0.9997383,-3.005598e-09,2.2678082e-09,0.022878816,3
68726673,-0.32559764,-0.026715793,0.018023055,0.94495904,-0.9997383,-3.005598e-09,2.2678082e-09,0.022878816,3
68776479,-0.3286684,-0.026153753,0.016002715,0.9439476,-0.9997383,-3.005598e-09,2.2678082e-09,0.022878816,3
68826011,-0.334888,-0.023681618,0.011174496,0.9418941,-0.9997383,-3.005598e-09,2.2678082e-09,0.022878816,3
68875680,-0.34117845,-0.019401347,0.005292515,0.9397834,-0.9997383,-3.005598e-09,2.2678082e-09,0.022878816,3
68925361,-0.34709013,-0.01636142,-0.0010812038,0.9376884,-0.9997383,-3.005598e-09,2.2678082e-09,0.022878816,3
68975017,-0.35046822,-0.015909737,-0.008688916,0.9363992,-0.9997383,-3.005598e-09,2.2678082e-09,0.022878816,3
69024689,-0.35301846,-0.015805589,-0.015669785,0.93535167,-0.9997383,-3.005598e-09,2.2678082e-09,0.022878816,3
69074354,-0.35495368,-0.015300122,-0.01785478,0.93458813,-0.9997383,-3.005598e-09,2.2678082e-09,0.022878816,3
69128990,-0.35647458,-0.013571278,-0.014978796,0.9340864,-0.9997383,-3.005598e-09,2.2678082e-09,0.022878816,3
69178659,-0.35715672,-0.010882073,-0.011533355,0.9339099,-0.9997383,-3.005598e-09,2.2678082e-09,0.022878816,3
69223361,-0.3566783,-0.011666172,-0.005478019,0.93413836,-0.9997383,-3.005598e-09,2.2678082e-09,0.022878816,3
69273031,-0.35517487,-0.015830941,0.0050626565,0.93465215,-0.9997383,-3.005598e-09,2.2678082e-09,0.022878816,3
69327812,-0.35354257,-0.01610834,0.014815157,0.93516237,-0.9997383,-3.005598e-09,2.2678082e-09,0.022878816,3
69377334,-0.35229346,-0.0088989455,0.021510625,0.9356001,-0.9997383,-3.005598e-09,2.2678082e-09,0.022878816,3
69427003,-0.35015818,-0.0015591948,0.028274337,0.9362624,-0.9997383,-3.005598e-09,2.2678082e-09,0.022878816,3
69476677,-0.34787777,0.003455915,0.035069827,0.9368775,-0.9997383,-3.005598e-09,2.2678082e-09,0.022878816,3
69526342,-0.34544197,0.0044481293,0.03866003,0.9376329,-0.9997383,-3.005598e-09,2.2678082e-09,0.022878816,3
69576063,-0.34307835,0.004033452,0.039130297,0.93848276,-0.9997383,-3.005598e-09,2.2678082e-09,0.022878816,3
69625678,-0.34071398,0.0051649576,0.037728216,0.9393956,-0.9997383,-3.005598e-09,2.2678082e-09,0.022878816,3
69675347,-0.338264,0.0053936164,0.037251804,0.9402982,-0.9997383,-3.005598e-09,2.2678082e-09,0.022878816,3
69725024,-0.33568364,0.0073515372,0.03823747,0.9411697,-0.9997383,-3.005598e-09,2.2678082e-09,0.022878816,3
69774684,-0.3335946,0.010242506,0.040327236,0.9417981,-0.9997383,-3.005598e-09,2.2678082e-09,0.022878816,3
69829320,-0.33135474,0.010572287,0.040786717,0.942565,-0.9997383,-3.005598e-09,2.2678082e-09,0.022878816,3
69874222,-0.32946816,0.010529351,0.042356394,0.94315743,-0.9997383,-3.005598e-09,2.2678082e-09,0.022878816,3
69923691,-0.32782668,0.011072006,0.0447625,0.9436119,-0.9997383,-3.005598e-09,2.2678082e-09,0.022878816,3
69973400,-0.32600835,0.012116617,0.046524197,0.94414365,-0.9997383,-3.005598e-09,2.2678082e-09,0.022878816,3
70027995,-0.32404068,0.014163427,0.04997472,0.9446162,-0.9997383,-3.005598e-09,2.2678082e-09,0.022878816,3
70077664,-0.32241994,0.018000778,0.05328836,0.94492424,-0.9997383,-3.005598e-09,2.2678082e-09,0.022878816,3
70122504,-0.32105604,0.02005735,0.05394976,0.9453096,-0.9997383,-3.005598e-09,2.2678082e-09,0.022878816,3
70177002,-0.31955892,0.01846751,0.055329766,0.94576937,-0.9997383,-3.005598e-09,2.2678082e-09,0.022878816,3
70226670,-0.3186143,0.015005117,0.060612474,0.9458255,-0.9997383,-3.005598e-09,2.2678082e-09,0.022878816,3
70276339,-0.31780618,0.012114464,0.06763458,0.94566274,-0.9997383,-3.005598e-09,2.2678082e-09,0.022878816,3
70326030,-0.316962,0.009995685,0.07208975,0.9456418,-0.9997383,-3.005598e-09,2.2678082e-09,0.022878816,3
70375696,-0.31631956,0.0054910798,0.077934444,0.9454301,-0.9997383,-3.005598e-09,2.2678082e-09,0.022878816,3
70425346,-0.31543818,-0.0024695855,0.087336056,0.9449154,-0.9997383,-3.005598e-09,2.2678082e-09,0.022878816,3
70475015,-0.315162,-0.008350803,0.09189746,0.94454116,-0.9997383,-3.005598e-09,2.2678082e-09,0.022878816,3
70529650,-0.31482294,-0.010173546,0.091180265,0.94470596,-0.9997383,-3.005598e-09,2.2678082e-09,0.022878816,3
70574353,-0.314803,-0.009533136,0.0891591,0.9449121,-0.9997383,-3.005598e-09,2.2678082e-09,0.022878816,3
70624021,-0.3148982,-0.008458503,0.08330631,0.94542456,-0.9997383,-3.005598e-09,2.2678082e-09,0.022878816,3
70673850,-0.31543127,-0.007984913,0.07014816,0.9463185,-0.9997383,-3.005598e-09,2.2678082e-09,0.022878816,3
70728325,-0.31591797,-0.009477571,0.05341806,0.94723415,-0.9997383,-3.005598e-09,2.2678082e-09,0.022878816,3
70777993,-0.3164915,-0.009329122,0.03777246,0.9477971,-0.9997383,-3.005598e-09,2.2678082e-09,0.022878816,3
70822696,-0.3165108,-0.0066244155,0.020801483,0.94833773,-0.9997383,-3.005598e-09,2.2678082e-09,0.022878816,3
70877332,-0.31677553,-0.0032201414,0.0057672975,0.94847757,-0.9997383,-3.005598e-09,2.2678082e-09,0.022878816,3
70927080,-0.3166387,-0.0024217148,0.0028901207,0.94853884,-0.9997383,-3.005598e-09,2.2678082e-09,0.022878816,3
70976669,-0.31654108,-0.0026116911,0.0020998649,0.9485729,-0.9997383,-3.005598e-09,2.2678082e-09,0.022878816,3
71026362,-0.31654885,-0.0036597261,-0.0016394127,0.94856775,-0.9997383,-3.005598e-09,2.2678082e-09,0.022878816,3
71076009,-0.31665358,-0.0052124467,-0.0058456673,0.948509,-0.9997383,-3.005598e-09,2.2678082e-09,0.022878816,3
71125675,-0.31642777,-0.005826637,-0.004989457,0.94858557,-0.9997383,-3.005598e-09,2.2678082e-09,0.022878816,3
71175344,-0.31647637,-0.005077155,-0.0035353713,0.94858027,-0.9997383,-3.005598e-09,2.2678082e-09,0.022878816,3
71225013,-0.31677538,-0.0059094094,-0.004017999,0.9484737,-0.9997383,-3.005598e-09,2.2678082e-09,0.022878816,3
71274702,-0.31712702,-0.008439142,-0.004357404,0.9483356,-0.9997383,-3.005598e-09,2.2678082e-09,0.022878816,3
71324351,-0.31756338,-0.010268676,-0.004724051,0.94816977,-0.9997383,-3.005598e-09,2.2678082e-09,0.022878816,3
71374019,-0.31837773,-0.0075152786,-0.0049687955,0.94792116,-0.9997383,-3.005598e-09,2.2678082e-09,0.022878816,3
71428656,-0.31865364,-0.0027222466,-0.0051484653,0.9478534,-0.9997383,-3.005598e-09,2.2678082e-09,0.022878816,3
71473483,-0.3190182,-0.00026878805,-0.005012272,0.94773537,-0.9997383,-3.005598e-09,2.2678082e-09,0.022878816,3
71523025,-0.3189425,0.0004575284,-0.0035448163,0.9477674,-0.9997383,-3.005598e-09,2.2678082e-09,0.022878816,3
71577661,-0.31855863,0.0011136624,-0.0027609712,0.94789857,-0.9997383,-3.005598e-09,2.2678082e-09,0.022878816,3
71627330,-0.3184528,0.00043367373,-0.00194629,0.94793665,-0.9997383,-3.005598e-09,2.2678082e-09,0.022878816,3
71677002,-0.3182414,-0.00040743657,-0.0024685862,0.9480064,-0.9997383,-3.005598e-09,2.2678082e-09,0.022878816,3
71726775,-0.31792697,-0.0013450485,-0.0024672628,0.9481111,-0.9997383,-3.005598e-09,2.2678082e-09,0.022878816,3
71776337,-0.3176835,-0.002259039,0.0006702955,0.9481939,-0.9997383,-3.005598e-09,2.2678082e-09,0.022878816,3
71826010,-0.31748024,-0.0030527185,0.0036206914,0.94825315,-0.9997383,-3.005598e-09,2.2678082e-09,0.022878816,3
71875674,-0.31718418,-0.0052063367,0.008315778,0.9483132,-0.9997383,-3.005598e-09,2.2678082e-09,0.022878816,3
71925342,-0.3165932,-0.009865915,0.01929924,0.9483138,-0.9997383,-3.005598e-09,2.2678082e-09,0.022878816,3
71975019,-0.31624743,-0.01612158,0.03508611,0.9478907,-0.9997383,-3.005598e-09,2.2678082e-09,0.022878816,3
72024874,-0.31608093,-0.021206252,0.05035976,0.94715744,-0.9997383,-3.005598e-09,2.2678082e-09,0.022878816,3
72074349,-0.31621456,-0.023946263,0.06031794,0.94646543,-0.9997383,-3.005598e-09,2.2678082e-09,0.022878816,3
72128985,-0.3164051,-0.025499346,0.06797955,0.9458417,-0.9997383,-3.005598e-09,2.2678082e-09,0.022878816,3
72173686,-0.3167453,-0.027370011,0.07203374,0.9453753,-0.9997383,-3.005598e-09,2.2678082e-09,0.022878816,3
72223358,-0.317396,-0.028234806,0.073316015,0.9450331,-0.9997383,-3.005598e-09,2.2678082e-09,0.022878816,3
72278106,-0.31859493,-0.026662892,0.06983504,0.9449389,-0.9997383,-3.005598e-09,2.2678082e-09,0.022878816,3
72327660,-0.3195555,-0.024822645,0.066567205,0.9449005,-0.9997383,-3.005598e-09,2.2678082e-09,0.022878816,3
72377330,-0.3204587,-0.022435123,0.06134968,0.9450075,-0.9997383,-3.005598e-09,2.2678082e-09,0.022878816,3
72422030,-0.32133055,-0.020886984,0.057889324,0.94496524,-0.9997383,-3.005598e-09,2.2678082e-09,0.022878816,3
72476666,-0.3228008,-0.019497054,0.05470694,0.94468343,-0.9997383,-3.005598e-09,2.2678082e-09,0.022878816,3
72526400,-0.3240774,-0.018762985,0.05240661,0.94439155,-0.9997383,-3.005598e-09,2.2678082e-09,0.022878816,3
72576005,-0.3252205,-0.018303854,0.05198692,0.9440307,-0.9997383,-3.005598e-09,2.2678082e-09,0.022878816,3
72625672,-0.32640034,-0.017678855,0.05187125,0.94364166,-0.9997383,-3.005598e-09,2.2678082e-09,0.022878816,3
72675336,-0.32753897,-0.01677242,0.050601125,0.9433327,-0.9997383,-3.005598e-09,2.2678082e-09,0.022878816,3
72725010,-0.32870224,-0.014324666,0.045505196,0.94322795,-0.9997383,-3.005598e-09,2.2678082e-09,0.022878816,3
72774679,-0.32991856,-0.011421003,0.03773559,0.94318575,-0.9997383,-3.005598e-09,2.2678082e-09,0.022878816,3
72824500,-0.33124486,-0.006991773,0.024898292,0.94319046,-0.9997383,-3.005598e-09,2.2678082e-09,0.022878816,3
72874018,-0.33234355,-0.0029075597,0.012957763,0.943065,-0.9997383,-3.005598e-09,2.2678082e-09,0.022878816,3
72923686,-0.33330655,-0.0010150329,0.00814186,0.9427828,-0.9997383,-3.005598e-09,2.2678082e-09,0.022878816,3
72978321,-0.33433115,0.00027401833,0.0064673796,0.9424335,-0.9997383,-3.005598e-09,2.2678082e-09,0.022878816,3
73027991,-0.33530113,0.0013601359,0.003952244,0.94210184,-0.9997383,-3.005598e-09,2.2678082e-09,0.022878816,3
73077746,-0.33593956,0.001989088,0.002032433,0.94187933,-0.9997383,-3.005598e-09,2.2678082e-09,0.022878816,3
73122360,-0.3365265,0.0017745587,0.00097197766,0.94167185,-0.9997383,-3.005598e-09,2.2678082e-09,0.022878816,3
73177020,-0.3371635,0.0017182172,0.00020644545,0.9414446,-0.9997383,-3.005598e-09,2.2678082e-09,0.022878816,3
73226665,-0.3377803,0.0020396828,0.0009951452,0.9412223,-0.9997383,-3.005598e-09,2.2678082e-09,0.022878816,3
73276333,-0.33815357,0.0022344408,0.0018592085,0.94108653,-0.9997383,-3.005598e-09,2.2678082e-09,0.022878816,3
73326002,-0.33829245,0.0019410847,0.0006003001,0.9410389,-0.9997383,-3.005598e-09,2.2678082e-09,0.022878816,3
73375671,-0.3383284,0.0019009543,-0.0007716446,0.9410259,-0.9997383,-3.005598e-09,2.2678082e-09,0.022878816,3
73425341,-0.338463,0.0018006368,-0.0006867625,0.9409777,-0.9997383,-3.005598e-09,2.2678082e-09,0.022878816,3
73475008,-0.3399206,0.0015200243,0.00012653369,0.940453,-0.9997383,-3.005598e-09,2.2678082e-09,0.022878816,3
73524677,-0.33967948,-2.7435174e-06,0.0030703654,0.94053626,-0.9997383,-3.005598e-09,2.2678082e-09,0.022878816,3
73574346,-0.33888623,-0.0028588113,0.009657129,0.94077355,-0.9997383,-3.005598e-09,2.2678082e-09,0.022878816,3
73624148,-0.33767185,-0.004181672,0.017522004,0.9410916,-0.9997383,-3.005598e-09,2.2678082e-09,0.022878816,3
73678650,-0.33653232,-0.0037383733,0.023253594,0.94137734,-0.9997383,-3.005598e-09,2.2678082e-09,0.022878816,3
73728320,-0.33571184,-0.0041468944,0.026162446,0.9415922,-0.9997383,-3.005598e-09,2.2678082e-09,0.022878816,3
73773024,-0.33473018,-0.00486689,0.029260455,0.941847,-0.9997383,-3.005598e-09,2.2678082e-09,0.022878816,3
73822690,-0.33804268,-0.0052121878,0.033307746,0.94052684,0.9999868,7.9837204e-10,9.347241e-10,0.0051309415,4
73877435,-0.3362156,-0.0054017953,0.03601377,0.94108075,0.9999868,7.9837204e-10,9.347241e-10,0.0051309415,4
73927025,-0.33497792,-0.006049258,0.038761925,0.941409,0.9999868,7.9837204e-10,9.347241e-10,0.0051309415,4
73976663,-0.33477128,-0.006957567,0.040753227,0.94139206,0.9999868,7.9837204e-10,9.347241e-10,0.0051309415,4
74026332,-0.33390912,-0.0075533204,0.042670634,0.94160867,0.9999868,7.9837204e-10,9.347241e-10,0.0051309415,4
74076024,-0.33374208,-0.008445584,0.043891907,0.94160426,0.9999868,7.9837204e-10,9.347241e-10,0.0051309415,4
74125692,-0.3329944,-0.009070651,0.04584873,0.9417698,0.9999868,7.9837204e-10,9.347241e-10,0.0051309415,4
74175522,-0.33267817,-0.0105072595,0.047050428,0.9418074,0.9999868,7.9837204e-10,9.347241e-10,0.0051309415,4
74225022,-0.33196816,-0.011844904,0.04812658,0.94198763,0.9999868,7.9837204e-10,9.347241e-10,0.0051309415,4
74274676,-0.33113718,-0.012513091,0.048574235,0.9422485,0.9999868,7.9837204e-10,9.347241e-10,0.0051309415,4
74324344,-0.3302537,-0.014059731,0.047929596,0.9425697,0.9999868,7.9837204e-10,9.347241e-10,0.0051309415,4
74378980,-0.3288424,-0.014556153,0.045749377,0.94316375,0.9999868,7.9837204e-10,9.347241e-10,0.0051309415,4
74428755,-0.32756186,-0.01263428,0.04251771,0.9437881,0.9999868,7.9837204e-10,9.347241e-10,0.0051309415,4
74473352,-0.32656646,-0.010802325,0.03975311,0.94427615,0.9999868,7.9837204e-10,9.347241e-10,0.0051309415,4
74523019,-0.32490358,-0.009497108,0.038595427,0.9449116,0.9999868,7.9837204e-10,9.347241e-10,0.0051309415,4
74577655,-0.32306206,-0.008790096,0.037997995,0.94557387,0.9999868,7.9837204e-10,9.347241e-10,0.0051309415,4
74627324,-0.32156977,-0.008584517,0.036831643,0.9461304,0.9999868,7.9837204e-10,9.347241e-10,0.0051309415,4
74677028,-0.3202763,-0.008646918,0.035882883,0.9466049,0.9999868,7.9837204e-10,9.347241e-10,0.0051309415,4
74726662,-0.3189044,-0.009359014,0.035924282,0.9470596,0.9999868,7.9837204e-10,9.347241e-10,0.0051309415,4
74776331,-0.31759468,-0.010290218,0.036601078,0.94746405,0.9999868,7.9837204e-10,9.347241e-10,0.0051309415,4
74825999,-0.31624037,-0.011357906,0.0371189,0.9478847,0.9999868,7.9837204e-10,9.347241e-10,0.0051309415,4
74875668,-0.31516397,-0.012122135,0.037208654,0.94823015,0.9999868,7.9837204e-10,9.347241e-10,0.0051309415,4
74925338,-0.31433746,-0.012221081,0.036958683,0.9485129,0.9999868,7.9837204e-10,9.347241e-10,0.0051309415,4
74975158,-0.3139435,-0.012109305,0.036969706,0.9486444,0.9999868,7.9837204e-10,9.347241e-10,0.0051309415,4
75024675,-0.31348553,-0.012274584,0.036845054,0.94879854,0.9999868,7.9837204e-10,9.347241e-10,0.0051309415,4
75079346,-0.3126139,-0.012557902,0.037148565,0.9490706,0.9999868,7.9837204e-10,9.347241e-10,0.0051309415,4
75124012,-0.31266546,-0.012669949,0.03655178,0.9490752,0.9999868,7.9837204e-10,9.347241e-10,0.0051309415,4
75173682,-0.31218955,-0.012903395,0.036684085,0.94922364,0.9999868,7.9837204e-10,9.347241e-10,0.0051309415,4
75223405,-0.3122462,-0.013164525,0.03582242,0.94923437,0.9999868,7.9837204e-10,9.347241e-10,0.0051309415,4
75277985,-0.3125401,-0.013107328,0.03563161,0.94914556,0.9999868,7.9837204e-10,9.347241e-10,0.0051309415,4
75327678,-0.31257737,-0.012566774,0.035654016,0.9491397,0.9999868,7.9837204e-10,9.347241e-10,0.0051309415,4
75377323,-0.3129026,-0.012100114,0.034830693,0.9490693,0.9999868,7.9837204e-10,9.347241e-10,0.0051309415,4
75426992,-0.31340298,-0.011292246,0.034107666,0.94894034,0.9999868,7.9837204e-10,9.347241e-10,0.0051309415,4
75476706,-0.3137712,-0.010543638,0.034542836,0.9488116,0.9999868,7.9837204e-10,9.347241e-10,0.0051309415,4
75526329,-0.3141628,-0.010297066,0.034838766,0.94867384,0.9999868,7.9837204e-10,9.347241e-10,0.0051309415,4
75575999,-0.31441495,-0.010116944,0.034857154,0.94859153,0.9999868,7.9837204e-10,9.347241e-10,0.0051309415,4
75625685,-0.3147809,-0.009775762,0.034142233,0.94849974,0.9999868,7.9837204e-10,9.347241e-10,0.0051309415,4
75675336,-0.31530097,-0.009390491,0.033546977,0.9483521,0.9999868,7.9837204e-10,9.347241e-10,0.0051309415,4
75725006,-0.3156311,-0.008868514,0.032665383,0.9482782,0.9999868,7.9837204e-10,9.347241e-10,0.0051309415,4
75774888,-0.31600913,-0.008198082,0.03159571,0.94819444,0.9999868,7.9837204e-10,9.347241e-10,0.0051309415,4
75824342,-0.31612608,-0.007687778,0.031268172,0.9481706,0.9999868,7.9837204e-10,9.347241e-10,0.0051309415,4
75874010,-0.31646022,-0.0076518296,0.03096233,0.9480695,0.9999868,7.9837204e-10,9.347241e-10,0.0051309415,4
75923680,-0.31687,-0.008010087,0.030501774,0.9479446,0.9999868,7.9837204e-10,9.347241e-10,0.0051309415,4
75978315,-0.31707698,-0.007903824,0.030827558,0.9478658,0.9999868,7.9837204e-10,9.347241e-10,0.0051309415,4
76028025,-0.31737095,-0.0078536095,0.030848967,0.9477671,0.9999868,7.9837204e-10,9.347241e-10,0.0051309415,4
76072686,-0.31747773,-0.008209319,0.030144626,0.947751,0.9999868,7.9837204e-10,9.347241e-10,0.0051309415,4
76127321,-0.31803638,-0.008411226,0.028912432,0.9476003,0.9999868,7.9837204e-10,9.347241e-10,0.0051309415,4
76176992,-0.31828123,-0.008529062,0.029758757,0.94749075,0.9999868,7.9837204e-10,9.347241e-10,0.0051309415,4
76226659,-0.31847095,-0.009060634,0.02927324,0.94743717,0.9999868,7.9837204e-10,9.347241e-10,0.0051309415,4
76276329,-0.31875938,-0.00943301,0.02888427,0.94734854,0.9999868,7.9837204e-10,9.347241e-10,0.0051309415,4
76326203,-0.31927532,-0.009490895,0.029239899,0.9471633,0.9999868,7.9837204e-10,9.347241e-10,0.0051309415,4
76375745,-0.31981522,-0.009194977,0.029134512,0.94698733,0.9999868,7.9837204e-10,9.347241e-10,0.0051309415,4
76425334,-0.3199515,-0.008885474,0.029231118,0.9469412,0.9999868,7.9837204e-10,9.347241e-10,0.0051309415,4
76475003,-0.32020342,-0.009144249,0.02933258,0.9468505,0.9999868,7.9837204e-10,9.347241e-10,0.0051309415,4
76524690,-0.32039565,-0.00969537,0.028782016,0.9467969,0.9999868,7.9837204e-10,9.347241e-10,0.0051309415,4
76574427,-0.3208534,-0.010189256,0.028972708,0.9466308,0.9999868,7.9837204e-10,9.347241e-10,0.0051309415,4
76624036,-0.3211933,-0.010354736,0.02822113,0.9465365,0.9999868,7.9837204e-10,9.347241e-10,0.0051309415,4
76678646,-0.3213579,-0.010117548,0.02746548,0.9465054,0.9999868,7.9837204e-10,9.347241e-10,0.0051309415,4
76723350,-0.321378,-0.010221435,0.02796023,0.9464829,0.9999868,7.9837204e-10,9.347241e-10,0.0051309415,4
76773015,-0.32156286,-0.009693567,0.02868186,0.94640416,0.9999868,7.9837204e-10,9.347241e-10,0.0051309415,4
76827714,-0.32172492,-0.009612872,0.028109986,0.9463671,0.9999868,7.9837204e-10,9.347241e-10,0.0051309415,4
76877320,-0.32170475,-0.009242451,0.027845317,0.9463854,0.9999868,7.9837204e-10,9.347241e-10,0.0051309415,4
76926988,-0.32185486,-0.008673437,0.027465163,0.9463509,0.9999868,7.9837204e-10,9.347241e-10,0.0051309415,4
76976658,-0.32199824,-0.008607744,0.027485812,0.9463021,0.9999868,7.9837204e-10,9.347241e-10,0.0051309415,4
77026326,-0.32204694,-0.008270614,0.027432099,0.94629014,0.9999868,7.9837204e-10,9.347241e-10,0.0051309415,4
77076019,-0.32184705,-0.007403136,0.027531827,0.9463623,0.9999868,7.9837204e-10,9.347241e-10,0.0051309415,4
77125814,-0.3218757,-0.0070195696,0.027492544,0.9463567,0.9999868,7.9837204e-10,9.347241e-10,0.0051309415,4
77175332,-0.32191586,-0.0073172855,0.027227726,0.9463485,0.9999868,7.9837204e-10,9.347241e-10,0.0051309415,4
77225001,-0.3221849,-0.0077497726,0.02638887,0.9462772,0.9999868,7.9837204e-10,9.347241e-10,0.0051309415,4
77274670,-0.3223077,-0.007324576,0.026233805,0.9462431,0.9999868,7.9837204e-10,9.347241e-10,0.0051309415,4
77324340,-0.32223028,-0.0070565096,0.02596314,0.9462789,0.9999868,7.9837204e-10,9.347241e-10,0.0051309415,4
77379045,-0.3224711,-0.0066294866,0.025732601,0.94620633,0.9999868,7.9837204e-10,9.347241e-10,0.0051309415,4
77423676,-0.32254383,-0.00689214,0.025667854,0.9461814,0.9999868,7.9837204e-10,9.347241e-10,0.0051309415,4
77473345,-0.32257023,-0.006795949,0.02579613,0.94616956,0.9999868,7.9837204e-10,9.347241e-10,0.0051309415,4
77527980,-0.32236752,-0.0063723056,0.025302373,0.94625497,0.9999868,7.9837204e-10,9.347241e-10,0.0051309415,4
77577650,-0.32259214,-0.0057894,0.024302788,0.9462084,0.9999868,7.9837204e-10,9.347241e-10,0.0051309415,4
77627318,-0.32265306,-0.005545852,0.024420075,0.94618607,0.9999868,7.9837204e-10,9.347241e-10,0.0051309415,4
77672210,-0.32267356,-0.0056940806,0.024120763,0.9461859,0.9999868,7.9837204e-10,9.347241e-10,0.0051309415,4
77726656,-0.32253918,-0.0053285304,0.023896873,0.9462394,0.9999868,7.9837204e-10,9.347241e-10,0.0051309415,4
77776325,-0.32262364,-0.0060634664,0.02506823,0.9461759,0.9999868,7.9837204e-10,9.347241e-10,0.0051309415,4
77825993,-0.32281944,-0.006128374,0.025565451,0.94609547,0.9999868,7.9837204e-10,9.347241e-10,0.0051309415,4
77875662,-0.32299346,-0.0052587837,0.024723385,0.9460637,0.9999868,7.9837204e-10,9.347241e-10,0.0051309415,4
77925451,-0.32282913,-0.0048099207,0.025212497,0.94610924,0.9999868,7.9837204e-10,9.347241e-10,0.0051309415,4
77975000,-0.32299834,-0.004849863,0.025620446,0.9460403,0.9999868,7.9837204e-10,9.347241e-10,0.0051309415,4
78024670,-0.32329136,-0.0050248015,0.026090413,0.9459264,0.9999868,7.9837204e-10,9.347241e-10,0.0051309415,4
78079325,-0.32307526,-0.004374031,0.026648749,0.94598794,0.9999868,7.9837204e-10,9.347241e-10,0.0051309415,4
78124006,-0.3231823,-0.003871736,0.026707878,0.9459518,0.9999868,7.9837204e-10,9.347241e-10,0.0051309415,4
78173759,-0.3229736,-0.0034658625,0.02686064,0.9460204,0.9999868,7.9837204e-10,9.347241e-10,0.0051309415,4
78228310,-0.3227152,-0.0039758147,0.026861873,0.9461065,0.9999868,7.9837204e-10,9.347241e-10,0.0051309415,4
78277979,-0.32250336,-0.004202078,0.025685757,0.9462105,0.9999868,7.9837204e-10,9.347241e-10,0.0051309415,4
78327648,-0.32245854,-0.003781431,0.026788345,0.946197,0.9999868,7.9837204e-10,9.347241e-10,0.0051309415,4
78372351,-0.32223406,-0.0029007024,0.02918927,0.9462055,0.9999868,7.9837204e-10,9.347241e-10,0.0051309415,4
78426987,-0.32138655,-0.0025441293,0.02894433,0.9465022,0.9999868,7.9837204e-10,9.347241e-10,0.0051309415,4
78476830,-0.31869927,-0.0022723002,0.027707824,0.9474482,0.9999868,7.9837204e-10,9.347241e-10,0.0051309415,4
78526354,-0.31431562,-0.0025533708,0.028761256,0.9488793,0.9999868,7.9837204e-10,9.347241e-10,0.0051309415,4
78575992,-0.30714288,-0.0020995834,0.030513652,0.9511718,0.9999868,7.9837204e-10,9.347241e-10,0.0051309415,4
78625661,-0.29760975,-0.002524927,0.030868053,0.9541851,0.9999868,7.9837204e-10,9.347241e-10,0.0051309415,4
78675329,-0.2859011,-0.0029131689,0.031122662,0.9577491,0.9999868,7.9837204e-10,9.347241e-10,0.0051309415,4
78725115,-0.2720322,-0.0026464073,0.03213777,0.9617477,0.9999868,7.9837204e-10,9.347241e-10,0.0051309415,4
78774667,-0.25578412,-0.0019713747,0.032764345,0.96617657,0.9999868,7.9837204e-10,9.347241e-10,0.0051309415,4
78824336,-0.23725851,-0.002094222,0.03309496,0.9708804,0.9999868,7.9837204e-10,9.347241e-10,0.0051309415,4
78874006,-0.21779121,-0.0020889717,0.033140726,0.97543037,0.9999868,7.9837204e-10,9.347241e-10,0.0051309415,4
78928640,-0.19696297,-0.0023353414,0.03382327,0.97982454,0.9999868,7.9837204e-10,9.347241e-10,0.0051309415,4
78978371,-0.17928834,-0.0028159427,0.034327485,0.98319346,0.9999868,7.9837204e-10,9.347241e-10,0.0051309415,4
79023011,-0.16569394,-0.003894566,0.034101713,0.9855798,0.9999868,7.9837204e-10,9.347241e-10,0.0051309415,4
79072681,-0.1527496,-0.004970289,0.033733476,0.9876766,0.9999868,7.9837204e-10,9.347241e-10,0.0051309415,4
79127316,-0.14066924,-0.0057887444,0.033949845,0.9894575,0.9999868,7.9837204e-10,9.347241e-10,0.0051309415,4
79176984,-0.13157408,-0.006155744,0.033074114,0.99073535,0.9999868,7.9837204e-10,9.347241e-10,0.0051309415,4
79226680,-0.12329549,-0.006417307,0.033493146,0.9917839,0.9999868,7.9837204e-10,9.347241e-10,0.0051309415,4
79276490,-0.115392506,-0.0064558163,0.033800922,0.99272376,0.9999868,7.9837204e-10,9.347241e-10,0.0051309415,4
79325990,-0.10722988,-0.0061913054,0.0337955,0.9936404,0.9999868,7.9837204e-10,9.347241e-10,0.0051309415,4
79375659,-0.09751125,-0.005355222,0.033589844,0.99465305,0.9999868,7.9837204e-10,9.347241e-10,0.0051309415,4
79425328,-0.08538215,-0.003539473,0.03426547,0.9957527,0.9999868,7.9837204e-10,9.347241e-10,0.0051309415,4
79475024,-0.07204622,-0.0021805016,0.034306962,0.9968087,0.9999868,7.9837204e-10,9.347241e-10,0.0051309415,4
79524713,-0.05857465,-0.0011982636,0.03441458,0.99768895,0.9999868,7.9837204e-10,9.347241e-10,0.0051309415,4
79574331,-0.046454795,-0.00084831606,0.034522895,0.9983233,0.9999868,7.9837204e-10,9.347241e-10,0.0051309415,4
79628970,-0.036121394,-0.0018286974,0.03382089,0.9987733,0.9999868,7.9837204e-10,9.347241e-10,0.0051309415,4
79678639,-0.028786875,-0.0022351875,0.033422347,0.99902415,0.9999868,7.9837204e-10,9.347241e-10,0.0051309415,4
79723340,-0.024102818,-0.0021698999,0.0331874,0.9991562,0.9999868,7.9837204e-10,9.347241e-10,0.0051309415,4
79773009,-0.019345276,-0.0012749747,0.033459093,0.999252,0.9999868,7.9837204e-10,9.347241e-10,0.0051309415,4
79827655,-0.015340097,-0.0014447222,0.032782894,0.99934375,0.9999868,7.9837204e-10,9.347241e-10,0.0051309415,4
79877314,-0.012332255,-0.0013780015,0.031855896,0.99941546,0.9999868,7.9837204e-10,9.347241e-10,0.0051309415,4
79926984,-0.009756043,-0.0007653659,0.032749146,0.99941576,0.9999868,7.9837204e-10,9.347241e-10,0.0051309415,4
79976651,-0.0076502585,0.00057650276,0.0317479,0.99946654,0.9999868,7.9837204e-10,9.347241e-10,0.0051309415,4
80026322,-0.0063975123,0.007379603,0.025379369,0.9996303,0.9999868,7.9837204e-10,9.347241e-10,0.0051309415,4
80076107,-0.005426284,0.021441966,0.021370603,0.99952704,0.9999868,7.9837204e-10,9.347241e-10,0.0051309415,4
80125658,-0.0050170873,0.039205972,0.019374913,0.99903077,0.9999868,7.9837204e-10,9.347241e-10,0.0051309415,4
80175327,-0.0046850615,0.058658943,0.017547565,0.9981129,0.9999868,7.9837204e-10,9.347241e-10,0.0051309415,4
80224997,-0.0044891383,0.07859088,0.017460596,0.996744,0.9999868,7.9837204e-10,9.347241e-10,0.0051309415,4
80274664,-0.0046303496,0.09888587,0.021665873,0.9948522,0.9999868,7.9837204e-10,9.347241e-10,0.0051309415,4
80329354,-0.0049381987,0.121983185,0.02678004,0.99215853,0.9999868,7.9837204e-10,9.347241e-10,0.0051309415,4
80374002,-0.0047671595,0.13481535,0.028122928,0.99046016,0.9999868,7.9837204e-10,9.347241e-10,0.0051309415,4
80423671,-0.0037992736,0.13709427,0.02893822,0.990128,0.9999868,7.9837204e-10,9.347241e-10,0.0051309415,4
80473339,-0.0028419322,0.13121387,0.030432807,0.9908828,0.9999868,7.9837204e-10,9.347241e-10,0.0051309415,4
80528035,-0.0015289593,0.11868894,0.030953422,0.99244773,0.9999868,7.9837204e-10,9.347241e-10,0.0051309415,4
80577645,-9.39434e-05,0.1031755,0.030448966,0.994197,0.9999868,7.9837204e-10,9.347241e-10,0.0051309415,4
80622493,0.0013746008,0.08707535,0.031099431,0.9957152,0.9999868,7.9837204e-10,9.347241e-10,0.0051309415,4
80676996,0.0027522908,0.065079845,0.03138647,0.9973826,0.9999868,7.9837204e-10,9.347241e-10,0.0051309415,4
80726650,0.0042156675,0.044276804,0.031082483,0.99852675,0.9999868,7.9837204e-10,9.347241e-10,0.0051309415,4
80776328,0.005510123,0.024223179,0.0310926,0.9992078,0.9999868,7.9837204e-10,9.347241e-10,0.0051309415,4
80826000,0.006851077,0.0044625113,0.03183139,0.99945986,0.9999868,7.9837204e-10,9.347241e-10,0.0051309415,4
80875737,0.007907701,-0.0158957,0.031952593,0.9993317,0.9999868,7.9837204e-10,9.347241e-10,0.0051309415,4
80925325,0.008679895,-0.037095215,0.031283982,0.9987843,0.9999868,7.9837204e-10,9.347241e-10,0.0051309415,4
80974994,0.008594734,-0.054748308,0.030431833,0.9979994,0.9999868,7.9837204e-10,9.347241e-10,0.0051309415,4
81024707,0.008239044,-0.059343964,0.030853152,0.9977267,0.9999868,7.9837204e-10,9.347241e-10,0.0051309415,4
81074331,0.007948672,-0.051021885,0.031475972,0.9981697,0.9999868,7.9837204e-10,9.347241e-10,0.0051309415,4
81124004,0.007070964,-0.037079055,0.030728664,0.9988148,0.9999868,7.9837204e-10,9.347241e-10,0.0051309415,4
81173669,0.0064105266,-0.020998234,0.0315641,0.99926054,0.9999868,7.9837204e-10,9.347241e-10,0.0051309415,4
81228305,0.0059858044,0.0008647132,0.03253621,0.9994523,0.9999868,7.9837204e-10,9.347241e-10,0.0051309415,4
81277976,0.005702892,0.012961599,0.032543693,0.99937004,0.9999868,7.9837204e-10,9.347241e-10,0.0051309415,4
81322675,0.006020464,0.011145182,0.0320795,0.99940515,0.9999868,7.9837204e-10,9.347241e-10,0.0051309415,4
81377312,0.006231411,-0.001126919,0.03171534,0.9994769,0.9999868,7.9837204e-10,9.347241e-10,0.0051309415,4
81427121,0.0062685073,-0.013217683,0.032008618,0.9993806,0.9999868,7.9837204e-10,9.347241e-10,0.0051309415,4
81476648,0.0059949285,-0.018866682,0.032397743,0.999279,0.9999868,7.9837204e-10,9.347241e-10,0.0051309415,4
81526317,0.0050741797,-0.014831277,0.03278625,0.9993395,0.9999868,7.9837204e-10,9.347241e-10,0.0051309415,4
81575988,0.004277344,-0.0032714035,0.032689303,0.9994511,0.9999868,7.9837204e-10,9.347241e-10,0.0051309415,4
81625655,0.0035033107,0.01162919,0.03257842,0.9993954,0.9999868,7.9837204e-10,9.347241e-10,0.0051309415,4
81675375,0.0032065497,0.01915296,0.0321934,0.999293,0.9999868,7.9837204e-10,9.347241e-10,0.0051309415,4
81725034,0.00263338,0.021429304,0.03165565,0.9992657,0.9999868,7.9837204e-10,9.347241e-10,0.0051309415,4
81774661,0.0020141744,0.029666692,0.03129732,0.9990678,0.9999868,7.9837204e-10,9.347241e-10,0.0051309415,4
81824330,0.0008824608,0.04543582,0.03176381,0.9984618,0.9999868,7.9837204e-10,9.347241e-10,0.0051309415,4
81874005,-0.0004325353,0.063653514,0.032217603,0.9974518,0.9999868,7.9837204e-10,9.347241e-10,0.0051309415,4
81928655,-0.0013251327,0.08256158,0.03219881,0.99606484,0.9999868,7.9837204e-10,9.347241e-10,0.0051309415,4
81978309,-0.0018757742,0.09247032,0.032170407,0.9951939,0.9999868,7.9837204e-10,9.347241e-10,0.0051309415,4
82023005,-0.0020642579,0.09175559,0.032702982,0.9952423,0.9999868,7.9837204e-10,9.347241e-10,0.0051309415,4
82077641,-0.002784414,0.08739647,0.03246791,0.9956405,0.9999868,7.9837204e-10,9.347241e-10,0.0051309415,4
82127309,-0.003459218,0.09124001,0.032978155,0.9952768,0.9999868,7.9837204e-10,9.347241e-10,0.0051309415,4
82176982,-0.0041883443,0.09192681,0.032703146,0.9952199,0.9999868,7.9837204e-10,9.347241e-10,0.0051309415,4
82226753,-0.0044260314,0.08202646,0.03227307,0.99609774,0.9999868,7.9837204e-10,9.347241e-10,0.0051309415,4
82276316,-0.0045709196,0.0660797,0.03251466,0.99727404,0.9999868,7.9837204e-10,9.347241e-10,0.0051309415,4
82325985,-0.0045107044,0.049448766,0.034427635,0.99817294,0.9999868,7.9837204e-10,9.347241e-10,0.0051309415,4
82375653,-0.0048221215,0.031469863,0.035689835,0.99885565,0.9999868,7.9837204e-10,9.347241e-10,0.0051309415,4
82425322,-0.0050071296,0.01164221,0.034602612,0.99932086,0.9999868,7.9837204e-10,9.347241e-10,0.0051309415,4
82475050,-0.0048489715,-0.009413365,0.033484828,0.9993832,0.9999868,7.9837204e-10,9.347241e-10,0.0051309415,4
82524659,-0.0052726087,-0.024443118,0.033223532,0.9991351,0.9999868,7.9837204e-10,9.347241e-10,0.0051309415,4
82574330,-0.005446022,-0.026600633,0.033137552,0.9990819,0.9999868,7.9837204e-10,9.347241e-10,0.0051309415,4
82628966,-0.006350262,-0.016417308,0.03199055,0.99933314,0.9999868,7.9837204e-10,9.347241e-10,0.0051309415,4
82673666,-0.00689426,-0.0034400998,0.031720895,0.99946713,0.9999868,7.9837204e-10,9.347241e-10,0.0051309415,4
82723334,-0.0069914893,0.006439048,0.03166585,0.99945337,0.9999868,7.9837204e-10,9.347241e-10,0.0051309415,4
82778142,-0.0066125817,0.005843142,0.031756498,0.99945676,0.9999868,7.9837204e-10,9.347241e-10,0.0051309415,4
82827639,-0.0072092493,0.008078705,0.031445812,0.9994468,0.9999868,7.9837204e-10,9.347241e-10,0.0051309415,4
82877308,-0.007941376,0.020283416,0.03263297,0.9992301,0.9999868,7.9837204e-10,9.347241e-10,0.0051309415,4
82922010,-0.008812676,0.03609019,0.03268028,0.9987752,0.9999868,7.9837204e-10,9.347241e-10,0.0051309415,4
82976646,-0.009265798,0.049779285,0.031595778,0.9982174,0.9999868,7.9837204e-10,9.347241e-10,0.0051309415,4
83026447,-0.009223075,0.050021686,0.031991895,0.998193,0.9999868,7.9837204e-10,9.347241e-10,0.0051309415,4
83075983,-0.009266259,0.04131354,0.031822003,0.9985964,0.9999868,7.9837204e-10,9.347241e-10,0.0051309415,4
83125651,-0.0090267435,0.027884075,0.030948076,0.99909127,0.9999868,7.9837204e-10,9.347241e-10,0.0051309415,4
83175320,-0.008610045,0.010966708,0.02988743,0.99945605,0.9999868,7.9837204e-10,9.347241e-10,0.0051309415,4
83224989,-0.008696743,-0.0063428874,0.029761542,0.99949914,0.9999868,7.9837204e-10,9.347241e-10,0.0051309415,4
83274738,-0.008418017,-0.016886206,0.031313416,0.99933153,0.9999868,7.9837204e-10,9.347241e-10,0.0051309415,4
83329294,-0.008731032,-0.026423326,0.03211775,0.99909663,0.9999868,7.9837204e-10,9.347241e-10,0.0051309415,4
83373996,-0.008882867,-0.038531363,0.031123566,0.99873316,0.9999868,7.9837204e-10,9.347241e-10,0.0051309415,4
83423664,-0.009261457,-0.045721486,0.030630926,0.9984416,0.9999868,7.9837204e-10,9.347241e-10,0.0051309415,4
83478300,-0.010166796,-0.038142685,0.03208887,0.9987052,0.9999868,7.9837204e-10,9.347241e-10,0.0051309415,4
83527969,-0.011010018,-0.02354232,0.032592855,0.9991308,0.9999868,7.9837204e-10,9.347241e-10,0.0051309415,4
83577776,-0.011097476,-0.00698071,0.032921005,0.99937195,0.9999868,7.9837204e-10,9.347241e-10,0.0051309415,4
83622339,-0.01168277,0.008471025,0.032359112,0.9993721,0.9999868,7.9837204e-10,9.347241e-10,0.0051309415,4
83676976,-0.012114999,0.030071896,0.02993202,0.999026,0.9999868,7.9837204e-10,9.347241e-10,0.0051309415,4
83726644,-0.012273086,0.0517711,0.030196814,0.9981269,0.9999868,7.9837204e-10,9.347241e-10,0.0051309415,4
83776312,-0.012813139,0.073267415,0.030839218,0.9967531,0.9999868,7.9837204e-10,9.347241e-10,0.0051309415,4
83826021,-0.013143793,0.09396861,0.0308112,0.99501145,0.9999868,7.9837204e-10,9.347241e-10,0.0051309415,4
83875650,-0.013176799,0.11393211,0.031249737,0.9929096,0.9999868,7.9837204e-10,9.347241e-10,0.0051309415,4
83925319,-0.013299024,0.12758967,0.031820934,0.99122727,0.9999868,7.9837204e-10,9.347241e-10,0.0051309415,4
83974987,-0.012632296,0.12803458,0.03197056,0.9911738,0.9999868,7.9837204e-10,9.347241e-10,0.0051309415,4
84024656,-0.011492059,0.11902721,0.030950652,0.99234194,0.9999868,7.9837204e-10,9.347241e-10,0.0051309415,4
84074327,-0.010264706,0.10466026,0.028360624,0.99405056,0.9999868,7.9837204e-10,9.347241e-10,0.0051309415,4
84124176,-0.009289901,0.08736903,0.028529767,0.99572414,0.9999868,7.9837204e-10,9.347241e-10,0.0051309415,4
84178630,-0.008090741,0.06661569,0.03021078,0.9972885,0.9999868,7.9837204e-10,9.347241e-10,0.0051309415,4
84228323,-0.0070323395,0.046077076,0.029664373,0.9984726,0.9999868,7.9837204e-10,9.347241e-10,0.0051309415,4
84273000,-0.0063229604,0.026976673,0.029926065,0.9991681,0.9999868,7.9837204e-10,9.347241e-10,0.0051309415,4
84322669,-0.0053628744,0.0058396896,0.031479456,0.999473,0.9999868,7.9837204e-10,9.347241e-10,0.0051309415,4
84377410,-0.0044318903,-0.015755456,0.032754365,0.99932945,0.9999868,7.9837204e-10,9.347241e-10,0.0051309415,4
84426974,-0.0042069564,-0.032824323,0.032551903,0.99892205,0.9999868,7.9837204e-10,9.347241e-10,0.0051309415,4
84476643,-0.0039192317,-0.041716218,0.03287857,0.9985807,0.9999868,7.9837204e-10,9.347241e-10,0.0051309415,4
84526311,-0.004696436,-0.041021917,0.033420563,0.9985881,0.9999868,7.9837204e-10,9.347241e-10,0.0051309415,4
84575983,-0.005178101,-0.032997753,0.034317676,0.99885267,0.9999868,7.9837204e-10,9.347241e-10,0.0051309415,4
84625662,-0.0057473085,-0.031147307,0.03417717,0.99891376,0.9999868,7.9837204e-10,9.347241e-10,0.0051309415,4
84675317,-0.006074273,-0.030787537,0.033392258,0.9989495,0.9999868,7.9837204e-10,9.347241e-10,0.0051309415,4
84724986,-0.0072118174,-0.020562766,0.03383659,0.99918985,0.9999868,7.9837204e-10,9.347241e-10,0.0051309415,4
84774654,-0.007877302,-0.0023620375,0.03382368,0.999394,0.9999868,7.9837204e-10,9.347241e-10,0.0051309415,4
84824357,-0.0088004945,0.018023964,0.03376147,0.9992287,0.9999868,7.9837204e-10,9.347241e-10,0.0051309415,4
84878960,-0.009331984,0.04055191,0.034060873,0.9985531,0.9999868,7.9837204e-10,9.347241e-10,0.0051309415,4
84928808,-0.009346408,0.061227545,0.033990752,0.9975012,0.9999868,7.9837204e-10,9.347241e-10,0.0051309415,4
84973331,-0.0087563,0.079830356,0.033474904,0.9962078,0.9999868,7.9837204e-10,9.347241e-10,0.0051309415,4
85022999,-0.008128302,0.09917369,0.033240158,0.99448156,0.9999868,7.9837204e-10,9.347241e-10,0.0051309415,4
85077634,-0.0073172688,0.11028361,0.03313657,0.9933207,0.9999868,7.9837204e-10,9.347241e-10,0.0051309415,4
85127303,-0.006009628,0.1078192,0.03290677,0.99360764,0.9999868,7.9837204e-10,9.347241e-10,0.0051309415,4
85177092,-0.0047667306,0.0981251,0.033164077,0.9946099,0.9999868,7.9837204e-10,9.347241e-10,0.0051309415,4
85226641,-0.0034921684,0.08503703,0.033108484,0.9958215,0.9999868,7.9837204e-10,9.347241e-10,0.0051309415,4
85276306,-0.0024888366,0.069023505,0.03229078,0.99708927,0.9999868,7.9837204e-10,9.347241e-10,0.0051309415,4
85325978,-0.0013958964,0.049876127,0.03177937,0.9982488,0.9999868,7.9837204e-10,9.347241e-10,0.0051309415,4
85375647,-0.0005372682,0.029169444,0.031933155,0.9990642,0.9999868,7.9837204e-10,9.347241e-10,0.0051309415,4
85425316,0.0004217364,0.00715048,0.031319235,0.99948376,0.9999868,7.9837204e-10,9.347241e-10,0.0051309415,4
85474986,0.0010106808,-0.014209004,0.031580172,0.9993997,0.9999868,7.9837204e-10,9.347241e-10,0.0051309415,4
85524706,0.0017345326,-0.036094286,0.031683188,0.9988445,0.9999868,7.9837204e-10,9.347241e-10,0.0051309415,4
85579291,0.002293119,-0.059510995,0.030466123,0.99776,0.9999868,7.9837204e-10,9.347241e-10,0.0051309415,4
85623991,0.0027332292,-0.07893299,0.029571306,0.99643755,0.9999868,7.9837204e-10,9.347241e-10,0.0051309415,4
85673705,0.003052002,-0.09588891,0.02908225,0.9949625,0.9999868,7.9837204e-10,9.347241e-10,0.0051309415,4
85723451,0.0025863438,-0.10267482,0.028918229,0.9942912,0.9999868,7.9837204e-10,9.347241e-10,0.0051309415,4
85778009,0.0017710492,-0.095654465,0.029795432,0.99496704,0.9999868,7.9837204e-10,9.347241e-10,0.0051309415,4
85827633,0.0011839577,-0.08163731,0.031253856,0.9961713,0.9999868,7.9837204e-10,9.347241e-10,0.0051309415,4
85877302,0.0005989949,-0.06515942,0.03237601,0.9973493,0.9999868,7.9837204e-10,9.347241e-10,0.0051309415,4
85926971,-0.00044583814,-0.046773892,0.032887854,0.99836385,0.9999868,7.9837204e-10,9.347241e-10,0.0051309415,4
85976713,-0.0011186633,-0.026273148,0.03279298,0.9991162,0.9999868,7.9837204e-10,9.347241e-10,0.0051309415,4
86026308,-0.0012818184,-0.00593461,0.03166406,0.9994801,0.9999868,7.9837204e-10,9.347241e-10,0.0051309415,4
86075977,-0.0014598337,0.015303287,0.030165188,0.9994267,0.9999868,7.9837204e-10,9.347241e-10,0.0051309415,4
86125645,-0.0016055709,0.037261076,0.02953856,0.9988677,0.9999868,7.9837204e-10,9.347241e-10,0.0051309415,4
86175314,-0.0016620812,0.05824884,0.02872897,0.99788725,0.9999868,7.9837204e-10,9.347241e-10,0.0051309415,4
86225033,-0.001125807,0.07083868,0.027733557,0.99710155,0.9999868,7.9837204e-10,9.347241e-10,0.0051309415,4
86279622,0.0001767034,0.06980245,0.028825017,0.9971443,0.9999868,7.9837204e-10,9.347241e-10,0.0051309415,4
86324322,0.0009594988,0.061127603,0.0289573,0.9977094,0.9999868,7.9837204e-10,9.347241e-10,0.0051309415,4
86373989,0.0017330842,0.050112538,0.029471789,0.9983072,0.9999868,7.9837204e-10,9.347241e-10,0.0051309415,4
86423662,0.0023429235,0.03900461,0.029579133,0.9987985,0.9999868,7.9837204e-10,9.347241e-10,0.0051309415,4
86478336,0.0024837297,0.031440552,0.02947069,0.99906796,0.9999868,7.9837204e-10,9.347241e-10,0.0051309415,4
86528065,0.0023219755,0.03078426,0.030095676,0.99907017,0.9999868,7.9837204e-10,9.347241e-10,0.0051309415,4
86572664,0.00255769,0.028456613,0.030285187,0.9991329,0.9999868,7.9837204e-10,9.347241e-10,0.0051309415,4
86627301,0.0020980071,0.028991666,0.029880667,0.9991307,0.9999868,7.9837204e-10,9.347241e-10,0.0051309415,4
86676969,0.0014867145,0.037774008,0.030090883,0.9988321,0.9999868,7.9837204e-10,9.347241e-10,0.0051309415,4
86726683,0.00054370577,0.052882195,0.030508963,0.99813443,0.9999868,7.9837204e-10,9.347241e-10,0.0051309415,4
86776322,-0.00082474865,0.070330605,0.03136482,0.9970302,0.9999868,7.9837204e-10,9.347241e-10,0.0051309415,4
86825976,-0.0021181027,0.08962499,0.03251909,0.99544233,0.9999868,7.9837204e-10,9.347241e-10,0.0051309415,4
86875644,-0.0025054943,0.1070735,0.033158787,0.99369484,0.9999868,7.9837204e-10,9.347241e-10,0.0051309415,4
86925314,-0.0024511432,0.11595836,0.031623203,0.9927475,0.9999868,7.9837204e-10,9.347241e-10,0.0051309415,4
86974984,-0.0022793952,0.11427959,0.03212179,0.9929266,0.9999868,7.9837204e-10,9.347241e-10,0.0051309415,4
87024650,-0.002406352,0.104810886,0.03365216,0.99391973,0.9999868,7.9837204e-10,9.347241e-10,0.0051309415,4
87074468,-0.0024657042,0.09113634,0.034293946,0.9952447,0.9999868,7.9837204e-10,9.347241e-10,0.0051309415,4
87123988,-0.0023292007,0.07441974,0.03535808,0.99659735,0.9999868,7.9837204e-10,9.347241e-10,0.0051309415,4
87178623,-0.0020586106,0.052749757,0.035360444,0.9979794,0.9999868,7.9837204e-10,9.347241e-10,0.0051309415,4
87228292,-0.0015129264,0.03150249,0.03505708,0.99888754,0.9999868,7.9837204e-10,9.347241e-10,0.0051309415,4
87272994,-0.0008714127,0.012222599,0.0353945,0.99929833,0.9999868,7.9837204e-10,9.347241e-10,0.0051309415,4
87327696,-0.00013009073,-0.011485757,0.035670962,0.9992977,0.9999868,7.9837204e-10,9.347241e-10,0.0051309415,4
87377298,0.00057865743,-0.033075094,0.034727715,0.9988492,0.9999868,7.9837204e-10,9.347241e-10,0.0051309415,4
87426971,0.0010348012,-0.055338893,0.03367378,0.9978991,0.9999868,7.9837204e-10,9.347241e-10,0.0051309415,4
87476636,0.0011523876,-0.07647078,0.035028744,0.9964557,0.9999868,7.9837204e-10,9.347241e-10,0.0051309415,4
87526304,0.0002456401,-0.090429164,0.034618575,0.99530107,0.9999868,7.9837204e-10,9.347241e-10,0.0051309415,4
87575973,-0.0009937241,-0.09167725,0.033459887,0.995226,0.9999868,7.9837204e-10,9.347241e-10,0.0051309415,4
87625644,-0.0029349432,-0.081798576,0.033466965,0.9960825,0.9999868,7.9837204e-10,9.347241e-10,0.0051309415,4
87675311,-0.0040245703,-0.066498555,0.035277802,0.9971546,0.9999868,7.9837204e-10,9.347241e-10,0.0051309415,4
87724982,-0.004944461,-0.049892753,0.036108833,0.99808943,0.9999868,7.9837204e-10,9.347241e-10,0.0051309415,4
87774648,-0.0058866036,-0.030927956,0.035433907,0.9988761,0.9999868,7.9837204e-10,9.347241e-10,0.0051309415,4
87824318,-0.0068058455,-0.010266017,0.033914927,0.9993488,0.9999868,7.9837204e-10,9.347241e-10,0.0051309415,4
87879091,-0.0076303156,0.013743304,0.033620685,0.9993111,0.9999868,7.9837204e-10,9.347241e-10,0.0051309415,4
87923655,-0.008339248,0.03368033,0.03402551,0.9988185,0.9999868,7.9837204e-10,9.347241e-10,0.0051309415,4
87973325,-0.008757069,0.05686515,0.033738445,0.9977733,0.9999868,7.9837204e-10,9.347241e-10,0.0051309415,4
88027961,-0.008961689,0.08036848,0.032994434,0.9961787,0.9999868,7.9837204e-10,9.347241e-10,0.0051309415,4
88077628,-0.008604697,0.09790497,0.03164413,0.99465543,0.9999868,7.9837204e-10,9.347241e-10,0.0051309415,4
88127384,-0.008142343,0.10460033,0.031214349,0.9939911,0.9999868,7.9837204e-10,9.347241e-10,0.0051309415,4
88171999,-0.007707517,0.100925975,0.032484137,0.9943337,0.9999868,7.9837204e-10,9.347241e-10,0.0051309415,4
88226634,-0.0068844254,0.08840089,0.033095215,0.99551123,0.9999868,7.9837204e-10,9.347241e-10,0.0051309415,4
88276303,-0.006270951,0.07566395,0.033437174,0.99655294,0.9999868,7.9837204e-10,9.347241e-10,0.0051309415,4
88325971,-0.005779146,0.06555817,0.033411518,0.9972725,0.9999868,7.9837204e-10,9.347241e-10,0.0051309415,4
88375646,-0.005518633,0.056619186,0.034053836,0.9977997,0.9999868,7.9837204e-10,9.347241e-10,0.0051309415,4
88425486,-0.00532509,0.044467993,0.033709355,0.99842775,0.9999868,7.9837204e-10,9.347241e-10,0.0051309415,4
88474978,-0.0049590133,0.028366022,0.033319347,0.9990299,0.9999868,7.9837204e-10,9.347241e-10,0.0051309415,4
88524647,-0.004597177,0.009481153,0.033617068,0.99937934,0.9999868,7.9837204e-10,9.347241e-10,0.0051309415,4
88579283,-0.004352141,-0.012014843,0.03475333,0.9993143,0.9999868,7.9837204e-10,9.347241e-10,0.0051309415,4
88624007,-0.0041218963,-0.029918151,0.034130648,0.99896103,0.9999868,7.9837204e-10,9.347241e-10,0.0051309415,4
88673727,-0.0044454187,-0.04813603,0.03402326,0.99825126,0.9999868,7.9837204e-10,9.347241e-10,0.0051309415,4
88728289,-0.004826833,-0.06432623,0.033723652,0.99734724,0.9999868,7.9837204e-10,9.347241e-10,0.0051309415,4
88777957,-0.005334898,-0.07921337,0.032162756,0.9963245,0.9999868,7.9837204e-10,9.347241e-10,0.0051309415,4
88827626,-0.0053452784,-0.09285672,0.031472426,0.9951677,0.9999868,7.9837204e-10,9.347241e-10,0.0051309415,4
88872329,-0.0057887095,-0.102652185,0.0315232,0.9942009,0.9999868,7.9837204e-10,9.347241e-10,0.0051309415,4
88927027,-0.0061190072,-0.107296616,0.031441335,0.99371094,0.9999868,7.9837204e-10,9.347241e-10,0.0051309415,4
88976633,-0.0062230392,-0.1012778,0.031830087,0.9943294,0.9999868,7.9837204e-10,9.347241e-10,0.0051309415,4
89026301,-0.006175319,-0.09505653,0.03217672,0.9949326,0.9999868,7.9837204e-10,9.347241e-10,0.0051309415,4
89075973,-0.006020264,-0.095148705,0.031403195,0.9949494,0.9999868,7.9837204e-10,9.347241e-10,0.0051309415,4
89125639,-0.0059404336,-0.09248669,0.030856246,0.995218,0.9999868,7.9837204e-10,9.347241e-10,0.0051309415,4
89175308,-0.0064543486,-0.08127551,0.030593479,0.9962012,0.9999868,7.9837204e-10,9.347241e-10,0.0051309415,4
89225119,-0.007472022,-0.06391724,0.029395146,0.9974943,0.9999868,7.9837204e-10,9.347241e-10,0.0051309415,4
89274645,-0.008100244,-0.04532275,0.024199756,0.9986464,0.9999868,7.9837204e-10,9.347241e-10,0.0051309415,4
89324318,-0.0086382385,-0.026213553,0.019444346,0.99942994,0.9999868,7.9837204e-10,9.347241e-10,0.0051309415,4
