timestamp,ref_timestamp,ref_lat,ref_lon,x,y,z,delta_xy[0],delta_xy[1],delta_z,vx,vy,vz,z_deriv,delta_vxy[0],delta_vxy[1],delta_vz,ax,ay,az,heading,delta_heading,ref_alt,dist_bottom,eph,epv,evh,evv,vxy_max,vz_max,hagl_min,hagl_max,xy_valid,z_valid,v_xy_valid,v_z_valid,xy_reset_counter,z_reset_counter,vxy_reset_counter,vz_reset_counter,heading_reset_counter,xy_global,z_global,dist_bottom_valid
61872382,26016546,34.0337013,108.7636997,0.80243635,5.6197453,0.18368866,-0.08098992,-0.3500504,0.0,-0.03947033,-0.05324852,0.04343931,-0.020340184,-0.1632025,-0.22137304,-0.13551536,0.31870502,0.028564027,-0.0800083,-2.48339,-0.045761622,446.97424,0.1,0.29963094,0.37978378,0.13532875,0.08517888,inf,inf,inf,inf,1,1,1,1,2,0,2,1,3,1,1,1
61882310,26016546,34.0337013,108.7636997,0.80116105,5.6197534,0.18338518,-0.08098992,-0.3500504,0.0,-0.041482627,-0.05333289,0.044271357,-0.019601539,-0.1632025,-0.22137304,-0.13551536,-0.30626857,-0.041412525,0.103512794,-2.4833808,-0.045761622,446.97424,0.1,0.3004745,0.38033286,0.13577418,0.08528931,inf,inf,inf,inf,1,1,1,1,2,0,2,1,3,1,1,1
61971719,26016546,34.0337013,108.7636997,0.79078084,5.6192465,0.18126284,-0.08098992,-0.3500504,0.0,-0.038534954,-0.04738414,0.041156303,-0.022873959,-0.1632025,-0.22137304,-0.13551536,0.3608481,0.8582491,0.34596282,-2.4842665,-0.045761622,446.97424,0.1,0.3082984,0.38078776,0.13981849,0.08585745,inf,inf,inf,inf,1,1,1,1,2,0,2,1,3,1,1,1
62071230,26016546,34.0337013,108.7636997,0.78090066,5.61854,0.17895666,-0.08098992,-0.3500504,0.0,-0.036134176,-0.035315838,0.04174463,-0.022182414,-0.1632025,-0.22137304,-0.13551536,-0.4514955,-0.2854358,0.8595362,-2.484017,-0.045761622,446.97424,0.1,0.29931897,0.37894067,0.1350293,0.084987044,inf,inf,inf,inf,1,1,1,1,2,0,2,1,3,1,1,1
62175361,26016546,34.0337013,108.7636997,0.7702886,5.6181307,0.1764675,-0.08098992,-0.3500504,0.0,-0.043110285,-0.051412355,0.03909433,-0.025066203,-0.1632025,-0.22137304,-0.13551536,-0.42772183,-0.6421181,0.77254874,-2.4833877,-0.045761622,446.97424,0.1,0.30795604,0.38220572,0.139502,0.08588038,inf,inf,inf,inf,1,1,1,1,2,0,2,1,3,1,1,1
62274698,26016546,34.0337013,108.7636997,0.76044947,5.617287,0.17453256,-0.08098992,-0.3500504,0.0,-0.035491325,-0.04001635,0.04000247,-0.023615986,-0.1632025,-0.22137304,-0.13551536,-0.012228753,0.70909816,-0.812721,-2.483783,-0.045761622,446.97424,0.1,0.29993317,0.38080508,0.13588493,0.08525927,inf,inf,inf,inf,1,1,1,1,2,0,2,1,3,1,1,1
62374037,26016546,34.0337013,108.7636997,0.7487265,5.616444,0.1710413,-0.08098992,-0.3500504,0.0,-0.043573853,-0.044739366,0.04329594,-0.021098489,-0.1632025,-0.22137304,-0.13551536,0.5842499,0.31914642,1.0721356,-2.482821,-0.045761622,446.97424,0.1,0.30865583,0.38182804,0.14037667,0.0859389,inf,inf,inf,inf,1,1,1,1,2,0,2,1,3,1,1,1
62473376,26016546,34.0337013,108.7636997,0.73833483,5.615223,0.16853885,-0.08098992,-0.3500504,0.0,-0.04699219,-0.045602966,0.03586654,-0.02827757,-0.1632025,-0.22137304,-0.13551536,-1.3921093,-1.0848172,-0.28762802,-2.4828968,-0.045761622,446.97424,0.1,0.29945543,0.37995377,0.13523933,0.08504687,inf,inf,inf,inf,1,1,1,1,2,0,2,1,3,1,1,1
62572764,26016546,34.0337013,108.7636997,0.72544855,5.615077,0.16651334,-0.08098992,-0.3500504,0.0,-0.043188382,-0.03861794,0.041028813,-0.0224356,-0.1632025,-0.22137304,-0.13551536,-0.67057663,-0.5423733,-0.9489158,-2.4834318,-0.045761622,446.97424,0.1,0.30812362,0.38095143,0.13970827,0.08572205,inf,inf,inf,inf,1,1,1,1,2,0,2,1,3,1,1,1
62672048,26016546,34.0337013,108.7636997,0.71394444,5.6138263,0.16494274,-0.08098992,-0.3500504,0.0,-0.044775013,-0.03460924,0.047674347,-0.014687501,-0.1632025,-0.22137304,-0.13551536,-1.0985441,0.25312632,1.5489194,-2.4829214,-0.045761622,446.97424,0.1,0.29985663,0.3795037,0.13570502,0.08506362,inf,inf,inf,inf,1,1,1,1,2,0,2,1,3,1,1,1
62771386,26016546,34.0337013,108.7636997,0.69959736,5.6113663,0.1608374,-0.08098992,-0.3500504,0.0,-0.040367305,-0.036303278,0.038769096,-0.025009206,-0.1632025,-0.22137304,-0.13551536,-0.1575888,0.4327087,1.7345039,-2.4818995,-0.045761622,446.97424,0.1,0.30857953,0.38276625,0.14020428,0.08594924,inf,inf,inf,inf,1,1,1,1,2,0,2,1,3,1,1,1
62870856,26016546,34.0337013,108.7636997,0.686592,5.608073,0.15669087,-0.08098992,-0.3500504,0.0,-0.041053545,-0.03578806,0.028479027,-0.03668683,-0.1632025,-0.22137304,-0.13551536,1.5784453,0.53154117,-0.63552064,-2.4813483,-0.045761622,446.97424,0.1,0.29975027,0.3810426,0.13550267,0.08514708,inf,inf,inf,inf,1,1,1,1,2,0,2,1,3,1,1,1
62970061,26016546,34.0337013,108.7636997,0.6734029,5.603777,0.15162194,-0.08098992,-0.3500504,0.0,-0.05291675,-0.034230683,0.030991398,-0.036145803,-0.1632025,-0.22137304,-0.13551536,-0.5044877,0.9761287,-1.723216,-2.4812121,-0.045761622,446.97424,0.1,0.30846503,0.3820457,0.1399812,0.08582007,inf,inf,inf,inf,1,1,1,1,2,0,2,1,3,1,1,1
63069397,26016546,34.0337013,108.7636997,0.66083825,5.599123,0.14631705,-0.08098992,-0.3500504,0.0,-0.050893497,-0.03777709,0.03637891,-0.03269108,-0.1632025,-0.22137304,-0.13551536,-2.255193,0.48743635,-0.3667113,-2.4811814,-0.045761622,446.97424,0.1,0.29966313,0.38039193,0.13546905,0.08505487,inf,inf,inf,inf,1,1,1,1,2,0,2,1,3,1,1,1
63173703,26016546,34.0337013,108.7636997,0.64361787,5.59326,0.13884477,-0.08098992,-0.3500504,0.0,-0.053016707,-0.039643276,0.03473193,-0.038064662,-0.1632025,-0.22137304,-0.13551536,-2.1411324,-0.33574918,-0.103708304,-2.4812615,-0.045761622,446.97424,0.1,0.3083772,0.38138717,0.13995993,0.08572522,inf,inf,inf,inf,1,1,1,1,2,0,2,1,3,1,1,1
63273041,26016546,34.0337013,108.7636997,0.62797177,5.587523,0.13326733,-0.08098992,-0.3500504,0.0,-0.04744728,-0.04295403,0.034933034,-0.03910478,-0.1632025,-0.22137304,-0.13551536,-0.28645113,-1.6120551,0.6489858,-2.4811258,-0.045761622,446.97424,0.1,0.2996569,0.37978035,0.13548376,0.08497851,inf,inf,inf,inf,1,1,1,1,2,0,2,1,3,1,1,1
63372390,26016546,34.0337013,108.7636997,0.6083832,5.5807867,0.12507239,-0.08098992,-0.3500504,0.0,-0.051618766,-0.04035614,0.03097672,-0.04635913,-0.1632025,-0.22137304,-0.13551536,1.8217854,-1.1939154,0.58186793,-2.4806178,-0.045761622,446.97424,0.1,0.3083821,0.38076863,0.14013897,0.0856528,inf,inf,inf,inf,1,1,1,1,2,0,2,1,3,1,1,1
63471716,26016546,34.0337013,108.7636997,0.5915321,5.573867,0.118743315,-0.08098992,-0.3500504,0.0,-0.065592356,-0.039573375,0.028955244,-0.049343407,-0.1632025,-0.22137304,-0.13551536,1.2762676,-0.6637631,0.16365236,-2.4799955,-0.045761622,446.97424,0.1,0.29919317,0.3812109,0.13513678,0.085006736,inf,inf,inf,inf,1,1,1,1,2,0,2,1,3,1,1,1
63571054,26016546,34.0337013,108.7636997,0.5745289,5.5649195,0.111576505,-0.08098992,-0.3500504,0.0,-0.071819074,-0.04525587,0.028746357,-0.05099361,-0.1632025,-0.22137304,-0.13551536,-1.3338578,-0.60703266,0.5916842,-2.4798756,-0.045761622,446.97424,0.1,0.30787638,0.38221252,0.13961035,0.085678905,inf,inf,inf,inf,1,1,1,1,2,0,2,1,3,1,1,1
63670487,26016546,34.0337013,108.7636997,0.5592988,5.5565796,0.10481905,-0.08098992,-0.3500504,0.0,-0.06691222,-0.049085367,0.023649434,-0.0569799,-0.1632025,-0.22137304,-0.13551536,-1.7875069,-0.6332977,-0.6003252,-2.4791307,-0.045761622,446.97424,0.1,0.2994051,0.38071385,0.1354574,0.084995545,inf,inf,inf,inf,1,1,1,1,2,0,2,1,3,1,1,1
63774703,26016546,34.0337013,108.7636997,0.5422936,5.547721,0.096325904,-0.08098992,-0.3500504,0.0,-0.06249513,-0.048309147,0.017371679,-0.06557484,-0.1632025,-0.22137304,-0.13551536,-0.79500985,0.89727074,-0.82532334,-2.478865,-0.045761622,446.97424,0.1,0.30812603,0.3817173,0.13994236,0.085665256,inf,inf,inf,inf,1,1,1,1,2,0,2,1,3,1,1,1
63874033,26016546,34.0337013,108.7636997,0.5272008,5.539333,0.08948196,-0.08098992,-0.3500504,0.0,-0.064675145,-0.049135305,0.0140948575,-0.06910777,-0.1632025,-0.22137304,-0.13551536,-1.0272745,0.62518907,-1.0763091,-2.4787052,-0.045761622,446.97424,0.1,0.2996449,0.38023445,0.13596016,0.08499393,inf,inf,inf,inf,1,1,1,1,2,0,2,1,3,1,1,1
63968404,26016546,34.0337013,108.7636997,0.51063097,5.53022,0.080832206,-0.08098992,-0.3500504,0.0,-0.05948161,-0.050272603,0.013796684,-0.071752176,-0.1632025,-0.22137304,-0.13551536,0.2905577,-0.20182888,-1.683917,-2.478392,-0.045761622,446.97424,0.1,0.30751103,0.38067862,0.1400033,0.085550785,inf,inf,inf,inf,1,1,1,1,2,0,2,1,3,1,1,1
64077675,26016546,34.0337013,108.7636997,0.49339738,5.519854,0.071655534,-0.08098992,-0.3500504,0.0,-0.06790729,-0.047069,0.018004673,-0.06845511,-0.1632025,-0.22137304,-0.13551536,0.9701679,1.2341168,0.0809497,-2.478733,-0.045761622,446.97424,0.1,0.2992985,0.37949166,0.13556294,0.08483749,inf,inf,inf,inf,1,1,1,1,2,0,2,1,3,1,1,1
64177026,26016546,34.0337013,108.7636997,0.47587696,5.5087395,0.06312963,-0.08098992,-0.3500504,0.0,-0.065834224,-0.04709736,0.015499355,-0.07159686,-0.1632025,-0.22137304,-0.13551536,1.6688367,-0.2557614,0.80742836,-2.4786348,-0.045761622,446.97424,0.1,0.3080342,0.38274142,0.14020656,0.085720114,inf,inf,inf,inf,1,1,1,1,2,0,2,1,3,1,1,1
64276350,26016546,34.0337013,108.7636997,0.45947677,5.498107,0.05508379,-0.08098992,-0.3500504,0.0,-0.05952677,-0.06289324,0.019963233,-0.06714483,-0.1632025,-0.22137304,-0.13551536,1.8146533,-2.8286698,1.4802544,-2.4776857,-0.045761622,446.97424,0.1,0.2996415,0.38125405,0.13622086,0.08505114,inf,inf,inf,inf,1,1,1,1,2,0,2,1,3,1,1,1
64375688,26016546,34.0337013,108.7636997,0.44112474,5.4869,0.04614814,-0.08098992,-0.3500504,0.0,-0.07425721,-0.057534616,0.0152781345,-0.07246412,-0.1632025,-0.22137304,-0.13551536,-1.6597135,-0.24530202,1.3416467,-2.4780347,-0.045761622,446.97424,0.1,0.3084335,0.38224894,0.14382327,0.085730284,inf,inf,inf,inf,1,1,1,1,2,0,2,1,3,1,1,1
64475237,26016546,34.0337013,108.7636997,0.42427164,5.476807,0.03908987,-0.08098992,-0.3500504,0.0,-0.073728085,-0.058287468,0.011316714,-0.07516362,-0.1632025,-0.22137304,-0.13551536,0.9134889,-1.1924099,0.7645942,-2.477357,-0.045761622,446.97424,0.107522264,0.29957655,0.38058212,0.14504032,0.08500002,inf,inf,inf,inf,1,1,1,1,2,0,2,1,3,1,1,1
64579331,26016546,34.0337013,108.7636997,0.40602452,5.4669476,0.03200304,-0.08098992,-0.3500504,0.0,-0.08391522,-0.062358744,0.01774491,-0.06770424,-0.1632025,-0.22137304,-0.13551536,-1.6829486,-1.5126121,2.3587084,-2.4785395,-0.045761622,446.97424,0.11460909,0.30840173,0.38154906,0.15940209,0.08571775,inf,inf,inf,inf,1,1,1,1,2,0,2,1,3,1,1,1
64668734,26016546,34.0337013,108.7636997,0.39169368,5.45839,0.026501229,-0.08098992,-0.3500504,0.0,-0.076071255,-0.05871734,0.009805728,-0.07390484,-0.1632025,-0.22137304,-0.13551536,1.2579157,1.749118,-1.3456799,-2.4777472,-0.045761622,446.97424,0.12011091,0.2986381,0.38159987,0.16084903,0.08511075,inf,inf,inf,inf,1,1,1,1,2,0,2,1,3,1,1,1
64778019,26016546,34.0337013,108.7636997,0.37241453,5.4460483,0.018839758,-0.08098992,-0.3500504,0.0,-0.07684188,-0.06636807,0.005647726,-0.076662965,-0.1632025,-0.22137304,-0.13551536,0.4064115,-0.26062444,-0.6035801,-2.47763,-0.045761622,446.97424,0.12777238,0.3084552,0.38313302,0.18057355,0.085989416,inf,inf,inf,inf,1,1,1,1,2,0,2,1,3,1,1,1
64877343,26016546,34.0337013,108.7636997,0.35702085,5.4354134,0.0128405215,-0.08098992,-0.3500504,0.0,-0.06792527,-0.059340753,0.0011792367,-0.0791372,-0.1632025,-0.22137304,-0.13551536,1.3018644,0.45444545,-0.6359711,-2.4765382,-0.045761622,446.97424,0.13377161,0.29940763,0.38143876,0.18105713,0.08526998,inf,inf,inf,inf,1,1,1,1,2,0,2,1,3,1,1,1
64976694,26016546,34.0337013,108.7636997,0.3412019,5.424663,0.006644138,-0.08098992,-0.3500504,0.0,-0.07014042,-0.06518581,0.0073644645,-0.071353525,-0.1632025,-0.22137304,-0.13551536,-1.2301979,-1.657435,0.20127852,-2.4771833,-0.045761622,446.97424,0.139968,0.30862835,0.3824023,0.20004214,0.086034104,inf,inf,inf,inf,1,1,1,1,2,0,2,1,3,1,1,1
65076031,26016546,34.0337013,108.7636997,0.3270174,5.415352,0.0019214428,-0.08098992,-0.3500504,0.0,-0.07301301,-0.061173353,0.011394192,-0.06439879,-0.1632025,-0.22137304,-0.13551536,-2.4374862,-0.119325124,0.7795106,-2.4765704,-0.045761622,446.97424,0.14469069,0.29889357,0.3804933,0.19432229,0.085167296,inf,inf,inf,inf,1,1,1,1,2,0,2,1,3,1,1,1
65175355,26016546,34.0337013,108.7636997,0.31145793,5.407965,-0.0014158373,-0.08098992,-0.3500504,0.0,-0.05408586,-0.047438335,0.008345707,-0.06345395,-0.1632025,-0.22137304,-0.13551536,0.7291075,0.13051715,1.2258763,-2.4772894,-0.045761622,446.97424,0.14802797,0.3083174,0.38144645,0.21284936,0.08593511,inf,inf,inf,inf,1,1,1,1,2,0,2,1,3,1,1,1
65274750,26016546,34.0337013,108.7636997,0.29754657,5.401193,-0.0038098574,-0.08098992,-0.3500504,0.0,-0.056177016,-0.05264888,0.013560989,-0.053939097,-0.1632025,-0.22137304,-0.13551536,-2.0578942,-1.1743251,1.9741769,-2.4775915,-0.045761622,446.97424,0.15042199,0.29898885,0.38202432,0.20433795,0.085370526,inf,inf,inf,inf,1,1,1,1,2,0,2,1,3,1,1,1
65374030,26016546,34.0337013,108.7636997,0.2816199,5.394357,-0.0053498503,-0.08098992,-0.3500504,0.0,-0.053101376,-0.04471723,0.004471513,-0.058362987,-0.1632025,-0.22137304,-0.13551536,0.9433751,0.55626553,-0.39918002,-2.476438,-0.045761622,446.97424,0.15196198,0.30878678,0.382989,0.2219071,0.08613897,inf,inf,inf,inf,1,1,1,1,2,0,2,1,3,1,1,1
65473368,26016546,34.0337013,108.7636997,0.2670153,5.3876157,-0.0062816907,-0.08098992,-0.3500504,0.0,-0.05534645,-0.042744707,0.008468435,-0.049679488,-0.1632025,-0.22137304,-0.13551536,-1.6158034,-0.3978561,0.65023214,-2.4773867,-0.045761622,446.97424,0.15289383,0.2986481,0.38107935,0.20782399,0.08520748,inf,inf,inf,inf,1,1,1,1,2,0,2,1,3,1,1,1
65572897,26016546,34.0337013,108.7636997,0.25269148,5.3793473,-0.0074575245,-0.08098992,-0.3500504,0.0,-0.042808287,-0.035761535,0.0046759485,-0.04958649,-0.1632025,-0.22137304,-0.13551536,0.21299842,0.102955475,0.7869935,-2.477763,-0.045761622,446.97424,0.15406966,0.30862707,0.3820343,0.2239525,0.08596927,inf,inf,inf,inf,1,1,1,1,2,0,2,1,3,1,1,1
65677032,26016546,34.0337013,108.7636997,0.24117744,5.372072,-0.0071516936,-0.08098992,-0.3500504,0.0,-0.028093465,-0.036115155,0.0009151792,-0.048645835,-0.1632025,-0.22137304,-0.13551536,0.8044401,0.52497137,-1.7509925,-2.4758093,-0.045761622,446.97424,0.15376383,0.29826233,0.3801374,0.20770082,0.0850214,inf,inf,inf,inf,1,1,1,1,2,0,2,1,3,1,1,1
65776348,26016546,34.0337013,108.7636997,0.22768341,5.3649273,-0.008492718,-0.08098992,-0.3500504,0.0,-0.020115096,-0.035745922,0.009364494,-0.037409484,-0.1632025,-0.22137304,-0.13551536,-0.27976778,-1.501314,1.0846639,-2.47685,-0.045761622,446.97424,0.15510486,0.3083535,0.38108924,0.22239874,0.08578395,inf,inf,inf,inf,1,1,1,1,2,0,2,1,3,1,1,1
65875685,26016546,34.0337013,108.7636997,0.21642242,5.3588195,-0.009198096,-0.08098992,-0.3500504,0.0,-0.024537802,-0.024227789,0.001193494,-0.042469185,-0.1632025,-0.22137304,-0.13551536,0.74662995,-0.19656365,0.17839676,-2.4764805,-0.045761622,446.97424,0.15581024,0.29795486,0.37921968,0.20561203,0.08484063,inf,inf,inf,inf,1,1,1,1,2,0,2,1,3,1,1,1
65975023,26016546,34.0337013,108.7636997,0.20186447,5.351252,-0.0104645,-0.08098992,-0.3500504,0.0,-0.020039225,-0.012074505,0.004835202,-0.036658593,-0.1632025,-0.22137304,-0.13551536,1.1172489,0.9715399,0.523861,-2.4759529,-0.045761622,446.97424,0.15707664,0.30812928,0.38242522,0.21891846,0.08580262,inf,inf,inf,inf,1,1,1,1,2,0,2,1,3,1,1,1
66074386,26016546,34.0337013,108.7636997,0.1875192,5.343919,-0.011569589,-0.08098992,-0.3500504,0.0,-0.030534174,-0.022786573,0.017743506,-0.021770226,-0.1632025,-0.22137304,-0.13551536,-2.4566305,-1.4926331,1.9228365,-2.4768991,-0.045761622,446.97424,0.15818173,0.2978215,0.3805515,0.20262232,0.08488384,inf,inf,inf,inf,1,1,1,1,2,0,2,1,3,1,1,1
66173701,26016546,34.0337013,108.7636997,0.16790842,5.334851,-0.011877326,-0.08098992,-0.3500504,0.0,-0.022818582,-0.019894797,0.012610865,-0.024234267,-0.1632025,-0.22137304,-0.13551536,-0.30751064,-0.51163465,0.059640717,-2.4768896,-0.045761622,446.97424,0.15848947,0.3080736,0.38150278,0.21473928,0.08563135,inf,inf,inf,inf,1,1,1,1,2,0,2,1,3,1,1,1
66273037,26016546,34.0337013,108.7636997,0.1503583,5.326102,-0.010011878,-0.08098992,-0.3500504,0.0,-0.026483122,-0.014313916,0.010557354,-0.021771751,-0.1632025,-0.22137304,-0.13551536,0.76325685,0.15566671,-0.17844455,-2.4764717,-0.045761622,446.97424,0.15662402,0.2977036,0.3796488,0.19884521,0.084712595,inf,inf,inf,inf,1,1,1,1,2,0,2,1,3,1,1,1
66372535,26016546,34.0337013,108.7636997,0.13030283,5.3154416,-0.00796581,-0.08098992,-0.3500504,0.0,-0.037085466,-0.016705357,0.015483208,-0.012783344,-0.1632025,-0.22137304,-0.13551536,-2.1345565,-2.3565924,2.7620754,-2.4767299,-0.045761622,446.97424,0.15457794,0.3079982,0.38059217,0.20991743,0.085453674,inf,inf,inf,inf,1,1,1,1,2,0,2,1,3,1,1,1
66471710,26016546,34.0337013,108.7636997,0.113551795,5.306552,-0.007087046,-0.08098992,-0.3500504,0.0,-0.022336086,-0.01420702,0.0027715575,-0.02320572,-0.1632025,-0.22137304,-0.13551536,1.9914134,0.449744,-0.49991888,-2.4767647,-0.045761622,446.97424,0.15369919,0.29751596,0.3787556,0.19440778,0.08454461,inf,inf,inf,inf,1,1,1,1,2,0,2,1,3,1,1,1
66571049,26016546,34.0337013,108.7636997,0.09376892,5.2978067,-0.0075503187,-0.08098992,-0.3500504,0.0,-0.036267623,-0.0047875955,0.010472532,-0.014898834,-0.1632025,-0.22137304,-0.13551536,-0.62682575,0.9693389,-0.521339,-2.476356,-0.045761622,446.97424,0.15416245,0.30779976,0.37969115,0.20455042,0.08528155,inf,inf,inf,inf,1,1,1,1,2,0,2,1,3,1,1,1
66675353,26016546,34.0337013,108.7636997,0.076045424,5.2908583,-0.007385604,-0.08098992,-0.3500504,0.0,-0.028167997,0.0004511855,0.006067339,-0.018116467,-0.1632025,-0.22137304,-0.13551536,0.8601067,0.44204,-0.2774102,-2.4784207,-0.045761622,446.97424,0.15399775,0.29736373,0.38009548,0.18990624,0.084578015,inf,inf,inf,inf,1,1,1,1,2,0,2,1,3,1,1,1
66774722,26016546,34.0337013,108.7636997,0.0571236,5.2827125,-0.008123076,-0.08098992,-0.3500504,0.0,-0.022429137,-0.004467321,0.007853981,-0.016240232,-0.1632025,-0.22137304,-0.13551536,0.10642754,2.3966327,-1.8777684,-2.4784122,-0.045761622,446.97424,0.15473521,0.30762038,0.38104647,0.19924633,0.085312776,inf,inf,inf,inf,1,1,1,1,2,0,2,1,3,1,1,1
66874080,26016546,34.0337013,108.7636997,0.039295726,5.275366,-0.007901447,-0.08098992,-0.3500504,0.0,-0.034806285,-0.008182427,0.018416451,-0.004447085,-0.1632025,-0.22137304,-0.13551536,-1.0560607,-1.4323425,1.7445116,-2.4787498,-0.045761622,446.97424,0.15451358,0.2984674,0.3796061,0.18822283,0.08464232,inf,inf,inf,inf,1,1,1,1,2,0,2,1,3,1,1,1
66973365,26016546,34.0337013,108.7636997,0.01896016,5.26643,-0.00854574,-0.08098992,-0.3500504,0.0,-0.022553837,-0.006762753,0.014496898,-0.007938031,-0.1632025,-0.22137304,-0.13551536,1.2767274,0.12311762,0.35091013,-2.4787726,-0.045761622,446.97424,0.15515788,0.30895063,0.3805648,0.19697762,0.08536064,inf,inf,inf,inf,1,1,1,1,2,0,2,1,3,1,1,1
67072701,26016546,34.0337013,108.7636997,0.00161587,5.2585287,-0.009026081,-0.08098992,-0.3500504,0.0,-0.033322886,-0.00699268,0.011233365,-0.010767512,-0.1632025,-0.22137304,-0.13551536,-1.4136972,-1.8902466,0.5523229,-2.4785783,-0.045761622,446.97424,0.15563822,0.2993732,0.37911475,0.18564145,0.08467044,inf,inf,inf,inf,1,1,1,1,2,0,2,1,3,1,1,1
67172168,26016546,34.0337013,108.7636997,-0.022557544,5.2486167,-0.012183945,-0.08098992,-0.3500504,0.0,-0.044194784,0.0076496373,0.009136606,-0.014520035,-0.1632025,-0.22137304,-0.13551536,-0.6895282,-0.12188155,0.8416739,-2.4789574,-0.045761622,446.97424,0.15879609,0.3099815,0.38006628,0.19384658,0.08537597,inf,inf,inf,inf,1,1,1,1,2,0,2,1,3,1,1,1
67276344,26016546,34.0337013,108.7636997,-0.04368812,5.2428403,-0.015123515,-0.08098992,-0.3500504,0.0,-0.05412633,0.033705734,-0.005050455,-0.029247547,-0.1632025,-0.22137304,-0.13551536,-1.4031357,-1.7186015,0.75844,-2.479623,-0.045761622,446.97424,0.16173565,0.29905677,0.37823734,0.18047023,0.0844666,inf,inf,inf,inf,1,1,1,1,2,0,2,1,3,1,1,1
67375684,26016546,34.0337013,108.7636997,-0.06766471,5.2392387,-0.017271506,-0.08098992,-0.3500504,0.0,-0.07142475,0.046266373,-0.015999554,-0.039124604,-0.1632025,-0.22137304,-0.13551536,-0.101235494,0.24609898,-0.2139064,-2.4797761,-0.045761622,446.97424,0.16388364,0.30951753,0.37918636,0.18809511,0.08518289,inf,inf,inf,inf,1,1,1,1,2,0,2,1,3,1,1,1
67475019,26016546,34.0337013,108.7636997,-0.09167369,5.2400584,-0.020744871,-0.08098992,-0.3500504,0.0,-0.09110412,0.07256469,-0.018684685,-0.041235726,-0.1632025,-0.22137304,-0.13551536,-0.08136207,-0.5239477,0.7344297,-2.4809372,-0.045761622,446.97424,0.16735701,0.29887548,0.3796037,0.17592694,0.084491946,inf,inf,inf,inf,1,1,1,1,2,0,2,1,3,1,1,1
67574364,26016546,34.0337013,108.7636997,-0.11982333,5.2434797,-0.023813615,-0.08098992,-0.3500504,0.0,-0.087531015,0.07912818,-0.014833642,-0.036310934,-0.1632025,-0.22137304,-0.13551536,-0.79810464,-0.8574669,0.50919664,-2.4846187,-0.045761622,446.97424,0.17042576,0.30922052,0.38056797,0.18307954,0.08517858,inf,inf,inf,inf,1,1,1,1,2,0,2,1,3,1,1,1
67673706,26016546,34.0337013,108.7636997,-0.1425605,5.2461123,-0.025315007,-0.08098992,-0.3500504,0.0,-0.06065245,0.03502912,0.009962928,-0.010531631,-0.1632025,-0.22137304,-0.13551536,1.5846993,-0.83134615,1.552587,-2.5089734,-0.045761622,446.97424,0.17192714,0.29857907,0.3787565,0.17158261,0.08425512,inf,inf,inf,inf,1,1,1,1,2,0,2,1,3,1,1,1
67778001,26016546,34.0337013,108.7636997,-0.1659718,5.2443414,-0.022416323,-0.08098992,-0.3500504,0.0,-0.027944172,0.027493017,0.0549734,0.035092074,-0.1632025,-0.22137304,-0.13551536,1.3113391,0.14087395,-0.58922833,-2.5451338,-0.045761622,446.97424,0.16902846,0.30879107,0.3797047,0.17831051,0.08486676,inf,inf,inf,inf,1,1,1,1,2,0,2,1,3,1,1,1
67867403,26016546,34.0337013,108.7636997,-0.18112774,5.242076,-0.018551527,-0.08098992,-0.3500504,0.0,-0.019555077,0.008779348,0.042276017,0.023593457,-0.1632025,-0.22137304,-0.13551536,0.92283094,-0.9167708,-0.22475375,-2.5775495,-0.045761622,446.97424,0.16516367,0.29734704,0.37737712,0.16696444,0.083815254,inf,inf,inf,inf,1,1,1,1,2,0,2,1,3,1,1,1
67976790,26016546,34.0337013,108.7636997,-0.20342866,5.2309456,-0.01589432,-0.08098992,-0.3500504,0.0,0.00074593246,-0.018104032,0.018789094,0.0020079461,-0.1632025,-0.22137304,-0.13551536,0.2784672,0.19111092,-0.31704867,-2.6000795,-0.045761622,446.97424,0.16250646,0.30839428,0.37885422,0.17395389,0.08456111,inf,inf,inf,inf,1,1,1,1,2,0,2,1,3,1,1,1
68076012,26016546,34.0337013,108.7636997,-0.21904002,5.2236457,-0.01591485,-0.08098992,-0.3500504,0.0,-0.009440072,0.012155059,0.011964337,-0.004472205,-0.1632025,-0.22137304,-0.13551536,-0.2877924,-1.7419765,0.24342395,-2.589723,-0.045761622,446.97424,0.162527,0.2980549,0.3770779,0.16391315,0.08371468,inf,inf,inf,inf,1,1,1,1,2,0,2,1,3,1,1,1
68175351,26016546,34.0337013,108.7636997,-0.23714793,5.217304,-0.018701114,-0.08098992,-0.3500504,0.0,-0.021413265,0.04014861,0.00090625935,-0.016545096,-0.1632025,-0.22137304,-0.13551536,-0.8436315,-0.2952097,1.4524274,-2.5586274,-0.045761622,446.97424,0.16531324,0.30802134,0.38024336,0.16992913,0.084623605,inf,inf,inf,inf,1,1,1,1,2,0,2,1,3,1,1,1
68274687,26016546,34.0337013,108.7636997,-0.2530046,5.2146463,-0.01999045,-0.08098992,-0.3500504,0.0,-0.027678046,0.047632873,-0.006800127,-0.023403475,-0.1632025,-0.22137304,-0.13551536,-1.0204747,2.1165066,-0.30377477,-2.5213401,-0.045761622,446.97424,0.16660258,0.2978445,0.37845874,0.16050752,0.08381532,inf,inf,inf,inf,1,1,1,1,2,0,2,1,3,1,1,1
68374027,26016546,34.0337013,108.7636997,-0.27306098,5.2118964,-0.020571062,-0.08098992,-0.3500504,0.0,-0.033274565,0.02290675,0.007964829,-0.008020813,-0.1632025,-0.22137304,-0.13551536,-0.16061373,0.65872055,0.80313164,-2.4917154,-0.045761622,446.97424,0.1671832,0.30769712,0.37941033,0.16627587,0.08452698,inf,inf,inf,inf,1,1,1,1,2,0,2,1,3,1,1,1
68473363,26016546,34.0337013,108.7636997,-0.28833923,5.208866,-0.019280387,-0.08098992,-0.3500504,0.0,-0.021225378,0.008455881,0.0141040115,-0.0005654562,-0.1632025,-0.22137304,-0.13551536,-0.6023855,-1.3107169,1.2995667,-2.4782157,-0.045761622,446.97424,0.16589253,0.2975455,0.37764087,0.15729752,0.08368718,inf,inf,inf,inf,1,1,1,1,2,0,2,1,3,1,1,1
68572700,26016546,34.0337013,108.7636997,-0.3073467,5.204941,-0.021149253,-0.08098992,-0.3500504,0.0,-0.004414462,0.009173051,0.027528161,0.010662549,-0.1632025,-0.22137304,-0.13551536,-0.85078514,-0.8665372,1.186329,-2.4778755,-0.045761622,446.97424,0.16776139,0.3072759,0.3785848,0.16283597,0.084350884,inf,inf,inf,inf,1,1,1,1,2,0,2,1,3,1,1,1
68672039,26016546,34.0337013,108.7636997,-0.32064006,5.202508,-0.021785336,-0.08098992,-0.3500504,0.0,-0.0009310562,0.0072345193,0.017264599,-0.0007463614,-0.1632025,-0.22137304,-0.13551536,-1.5307641,0.8676576,1.5060475,-2.4791868,-0.045761622,446.97424,0.16839747,0.29735422,0.37683368,0.15448254,0.08350754,inf,inf,inf,inf,1,1,1,1,2,0,2,1,3,1,1,1
68771489,26016546,34.0337013,108.7636997,-0.3347641,5.1996436,-0.023338271,-0.08098992,-0.3500504,0.0,-0.019712174,0.016081806,0.008264731,-0.010960487,-0.1632025,-0.22137304,-0.13551536,1.0354785,0.9502543,-1.408647,-2.470758,-0.045761622,446.97424,0.16995041,0.30698177,0.37776333,0.159813,0.08417164,inf,inf,inf,inf,1,1,1,1,2,0,2,1,3,1,1,1
68870713,26016546,34.0337013,108.7636997,-0.3497984,5.1995673,-0.025202733,-0.08098992,-0.3500504,0.0,-0.054708317,0.061802603,-0.0052077677,-0.02484348,-0.1632025,-0.22137304,-0.13551536,0.61648405,-1.3954297,0.17826341,-2.4454029,-0.045761622,446.97424,0.17181487,0.29713708,0.37822324,0.15187554,0.08355517,inf,inf,inf,inf,1,1,1,1,2,0,2,1,3,1,1,1
68970050,26016546,34.0337013,108.7636997,-0.36968908,5.202378,-0.026869161,-0.08098992,-0.3500504,0.0,-0.049293,0.111191854,-0.011445133,-0.029463122,-0.1632025,-0.22137304,-0.13551536,0.4764262,1.3111413,0.7739272,-2.4254074,-0.045761622,446.97424,0.1734813,0.3066651,0.37916872,0.15703064,0.08425627,inf,inf,inf,inf,1,1,1,1,2,0,2,1,3,1,1,1
69069393,26016546,34.0337013,108.7636997,-0.38794655,5.210527,-0.02889559,-0.08098992,-0.3500504,0.0,-0.065170065,0.1482094,-0.01682585,-0.033217374,-0.1632025,-0.22137304,-0.13551536,-0.22211303,2.5247405,0.7497139,-2.4165413,-0.045761622,446.97424,0.17550772,0.2969231,0.37741834,0.14948134,0.083456576,inf,inf,inf,inf,1,1,1,1,2,0,2,1,3,1,1,1
69178659,26016546,34.0337013,108.7636997,-0.4153968,5.2271137,-0.031851448,-0.08098992,-0.3500504,0.0,-0.08335516,0.22711444,-0.03693291,-0.052131303,-0.1632025,-0.22137304,-0.13551536,0.14348891,0.4662926,-0.23240447,-2.4112492,-0.045761622,446.97424,0.17846358,0.30733415,0.37889615,0.15498237,0.08423232,inf,inf,inf,inf,1,1,1,1,2,0,2,1,3,1,1,1
69268063,26016546,34.0337013,108.7636997,-0.4349628,5.2466555,-0.036264732,-0.08098992,-0.3500504,0.0,-0.07602631,0.26244232,-0.0662411,-0.08027946,-0.1632025,-0.22137304,-0.13551536,-0.66575104,0.8437866,-1.1874928,-2.4141197,-0.045761622,446.97424,0.18287687,0.2966859,0.3766293,0.14727014,0.08330649,inf,inf,inf,inf,1,1,1,1,2,0,2,1,3,1,1,0
69372367,26016546,34.0337013,108.7636997,-0.46048993,5.2723284,-0.045630172,-0.08098992,-0.3500504,0.0,-0.108015075,0.28395572,-0.093150996,-0.10618287,-0.1632025,-0.22137304,-0.13551536,0.5652353,-1.2766299,0.8446305,-2.4213016,-0.045761622,446.97424,0.19224231,0.3060245,0.37756157,0.15216164,0.083982855,inf,inf,inf,inf,1,1,1,1,2,0,2,1,3,1,1,0
69471706,26016546,34.0337013,108.7636997,-0.4824901,5.298045,-0.057529185,-0.08098992,-0.3500504,0.0,-0.09628743,0.2832189,-0.13488294,-0.1471933,-0.1632025,-0.22137304,-0.13551536,1.1507915,-2.2068174,-1.9895376,-2.430839,-0.045761622,446.97424,0.20414132,0.29636458,0.3758397,0.14520207,0.08318622,inf,inf,inf,inf,1,1,1,1,2,0,2,1,3,1,1,0
69571081,26016546,34.0337013,108.7636997,-0.5077374,5.3191957,-0.07515796,-0.08098992,-0.3500504,0.0,-0.10835614,0.27910578,-0.15993379,-0.17411675,-0.1632025,-0.22137304,-0.13551536,-0.82303745,0.21543545,-0.8482558,-2.4420133,-0.045761622,446.97424,0.22177011,0.30560544,0.3767724,0.15002324,0.08388257,inf,inf,inf,inf,1,1,1,1,2,0,2,1,3,1,1,0
69675347,26016546,34.0337013,108.7636997,-0.53164285,5.340583,-0.09544899,-0.08098992,-0.3500504,0.0,-0.118420154,0.25235623,-0.20924686,-0.2232858,-0.1632025,-0.22137304,-0.13551536,0.17925912,0.57059455,-1.5467292,-2.4521158,-0.045761622,446.97424,0.24206114,0.2961412,0.3772517,0.14345764,0.08329677,inf,inf,inf,inf,1,1,1,1,2,0,2,1,3,1,1,0
69774684,26016546,34.0337013,108.7636997,-0.5585636,5.355211,-0.11654979,-0.08098992,-0.3500504,0.0,-0.1405316,0.2136832,-0.21442011,-0.22748685,-0.1632025,-0.22137304,-0.13551536,-1.7538376,-0.38654488,0.28995672,-2.4623525,-0.045761622,446.97424,0.26316193,0.3052991,0.37819582,0.148157,0.08399247,inf,inf,inf,inf,1,1,1,1,2,0,2,1,3,1,1,0
69874222,26016546,34.0337013,108.7636997,-0.5851984,5.366477,-0.13909645,-0.08098992,-0.3500504,0.0,-0.15417536,0.17293824,-0.22243942,-0.23442739,-0.1632025,-0.22137304,-0.13551536,0.13901684,-2.5059178,1.0973974,-2.4711945,-0.045761622,446.97424,0.2857086,0.296003,0.37648904,0.14198063,0.08321903,inf,inf,inf,inf,1,1,1,1,2,0,2,1,3,1,1,0
69973400,26016546,34.0337013,108.7636997,-0.6154932,5.3699317,-0.16189742,-0.08098992,-0.3500504,0.0,-0.17130345,0.1284005,-0.23360646,-0.24451451,-0.1632025,-0.22137304,-0.13551536,1.2905657,-0.6008151,-1.1663469,-2.478773,-0.045761622,446.97424,0.30850956,0.30509192,0.3774349,0.14659417,0.083902255,inf,inf,inf,inf,1,1,1,1,2,0,2,1,3,1,1,0
70072697,26016546,34.0337013,108.7636997,-0.645147,5.371221,-0.18340033,-0.08098992,-0.3500504,0.0,-0.20368089,0.06986881,-0.21503744,-0.22483343,-0.1632025,-0.22137304,-0.13551536,-1.6118896,1.684555,-0.515321,-2.487009,-0.045761622,446.97424,0.33001247,0.29577774,0.37574,0.14048205,0.08311508,inf,inf,inf,inf,1,1,1,1,2,0,2,1,3,1,1,0
70177002,26016546,34.0337013,108.7636997,-0.6800796,5.3716164,-0.2088214,-0.08098992,-0.3500504,0.0,-0.21436407,0.008031402,-0.20394519,-0.21571095,-0.1632025,-0.22137304,-0.13551536,-1.0006019,-0.03256921,1.7293261,-2.4931972,-0.045761622,446.97424,0.35543352,0.30478767,0.37668028,0.14502516,0.083799005,inf,inf,inf,inf,1,1,1,1,2,0,2,1,3,1,1,0
70276339,26016546,34.0337013,108.7636997,-0.7133568,5.364508,-0.23051415,-0.08098992,-0.3500504,0.0,-0.2234953,-0.08537074,-0.20282172,-0.21459398,-0.1632025,-0.22137304,-0.13551536,0.6464522,-3.986047,-0.08464953,-2.4971635,-0.045761622,446.97424,0.37712628,0.29563528,0.37500015,0.139195,0.083033174,inf,inf,inf,inf,1,1,1,1,2,0,2,1,3,1,1,0
70375696,26016546,34.0337013,108.7636997,-0.749717,5.3487134,-0.249249,-0.08098992,-0.3500504,0.0,-0.2030878,-0.16643289,-0.19882572,-0.20839989,-0.1632025,-0.22137304,-0.13551536,2.2967901,-0.022448888,-1.7837877,-2.5001812,-0.045761622,446.97424,0.39586115,0.3045794,0.3759416,0.14374498,0.08371129,inf,inf,inf,inf,1,1,1,1,2,0,2,1,3,1,1,0
70475015,26016546,34.0337013,108.7636997,-0.77911514,5.323725,-0.26707262,-0.08098992,-0.3500504,0.0,-0.18326084,-0.25870264,-0.18508816,-0.19265969,-0.1632025,-0.22137304,-0.13551536,2.1430995,-1.9891363,-1.2841957,-2.5012968,-0.045761622,446.97424,0.41368476,0.29703012,0.3771246,0.13995254,0.08350775,inf,inf,inf,inf,1,1,1,1,2,0,2,1,3,1,1,0
70574353,26016546,34.0337013,108.7636997,-0.80457777,5.288703,-0.28279287,-0.08098992,-0.3500504,0.0,-0.15437932,-0.34495622,-0.15081804,-0.15714426,-0.1632025,-0.22137304,-0.13551536,0.122025095,1.7236232,-1.3367527,-2.5017662,-0.045761622,446.97424,0.429405,0.30610126,0.3780907,0.1444554,0.08418592,inf,inf,inf,inf,1,1,1,1,2,0,2,1,3,1,1,0
70673850,26016546,34.0337013,108.7636997,-0.82478505,5.2480555,-0.29545197,-0.08098992,-0.3500504,0.0,-0.119754285,-0.3985947,-0.12102782,-0.1262131,-0.1632025,-0.22137304,-0.13551536,1.5735561,-1.3594406,-0.22081536,-2.500126,-0.045761622,446.97424,0.4420641,0.29673043,0.37638816,0.13853194,0.08340617,inf,inf,inf,inf,1,1,1,1,2,0,2,1,3,1,1,0
70773027,26016546,34.0337013,108.7636997,-0.8439838,5.2047787,-0.30470803,-0.08098992,-0.3500504,0.0,-0.11782596,-0.42397147,-0.07639742,-0.08034657,-0.1632025,-0.22137304,-0.13551536,-1.8141675,1.9382685,1.2155417,-2.4981124,-0.045761622,446.97424,0.45132017,0.30570534,0.37734744,0.14294004,0.08410638,inf,inf,inf,inf,1,1,1,1,2,0,2,1,3,1,1,0
70872365,26016546,34.0337013,108.7636997,-0.86114556,5.1633077,-0.30879286,-0.08098992,-0.3500504,0.0,-0.11213492,-0.4269671,-0.035594866,-0.037642807,-0.1632025,-0.22137304,-0.13551536,0.11631595,-0.885714,0.27276576,-2.4966624,-0.045761622,446.97424,0.455405,0.29648796,0.37565142,0.13723798,0.08332378,inf,inf,inf,inf,1,1,1,1,2,0,2,1,3,1,1,0
70971702,26016546,34.0337013,108.7636997,-0.87787634,5.1278563,-0.30966586,-0.08098992,-0.3500504,0.0,-0.10974552,-0.38015693,-0.023270205,-0.023537805,-0.1632025,-0.22137304,-0.13551536,1.4509177,1.856173,-0.9594481,-2.4971225,-0.045761622,446.97424,0.456278,0.30537546,0.37660414,0.14155304,0.084011786,inf,inf,inf,inf,1,1,1,1,2,0,2,1,3,1,1,0
71071039,26016546,34.0337013,108.7636997,-0.8968877,5.0991282,-0.3106293,-0.08098992,-0.3500504,0.0,-0.13673396,-0.3157424,-0.019405013,-0.018493187,-0.1632025,-0.22137304,-0.13551536,-1.4588822,-0.395875,1.1975622,-2.4980748,-0.045761622,446.97424,0.45724145,0.29621542,0.37709686,0.1360265,0.08337916,inf,inf,inf,inf,1,1,1,1,2,0,2,1,3,1,1,0
71170377,26016546,34.0337013,108.7636997,-0.9267171,5.078009,-0.31199855,-0.08098992,-0.3500504,0.0,-0.15488002,-0.251415,-0.02223158,-0.020842511,-0.1632025,-0.22137304,-0.13551536,2.1619978,-0.36117542,-1.3291512,-2.4967465,-0.045761622,446.97424,0.45861068,0.30502278,0.37805825,0.14034723,0.08406191,inf,inf,inf,inf,1,1,1,1,2,0,2,1,3,1,1,0
71269712,26016546,34.0337013,108.7636997,-0.95405424,5.0642796,-0.312588,-0.08098992,-0.3500504,0.0,-0.1722153,-0.1670377,-0.028720716,-0.026111186,-0.1632025,-0.22137304,-0.13551536,-0.47789365,2.5551631,-1.0616702,-2.496613,-0.045761622,446.97424,0.45920014,0.2959445,0.37635154,0.13503677,0.08325344,inf,inf,inf,inf,1,1,1,1,2,0,2,1,3,1,1,0
71369052,26016546,34.0337013,108.7636997,-0.98091733,5.0602555,-0.3124489,-0.08098992,-0.3500504,0.0,-0.20778827,-0.10188095,-0.033939343,-0.028360171,-0.1632025,-0.22137304,-0.13551536,-0.42668813,2.0047748,1.6844746,-2.4942915,-0.045761622,446.97424,0.45906103,0.30468008,0.37729385,0.13937946,0.08393477,inf,inf,inf,inf,1,1,1,1,2,0,2,1,3,1,1,0
71468484,26016546,34.0337013,108.7636997,-1.0083392,5.0607977,-0.3133744,-0.08098992,-0.3500504,0.0,-0.22888868,-0.03407654,-0.053479362,-0.045050416,-0.1632025,-0.22137304,-0.13551536,-1.7466537,1.70359,1.3646276,-2.492754,-0.045761622,446.97424,0.45998654,0.29560053,0.3755923,0.13418342,0.083140455,inf,inf,inf,inf,1,1,1,1,2,0,2,1,3,1,1,0
71572694,26016546,34.0337013,108.7636997,-1.0423821,5.0679846,-0.31917363,-0.08098992,-0.3500504,0.0,-0.25674447,0.028337575,-0.11155821,-0.10133314,-0.1632025,-0.22137304,-0.13551536,0.7050093,-1.5704904,-0.96341115,-2.4927979,-0.045761622,446.97424,0.46578577,0.3042625,0.37872615,0.138548,0.08402262,inf,inf,inf,inf,1,1,1,1,2,0,2,1,3,1,1,0
71672032,26016546,34.0337013,108.7636997,-1.0761319,5.07984,-0.3313406,-0.08098992,-0.3500504,0.0,-0.29232657,0.09730798,-0.17068772,-0.16010186,-0.1632025,-0.22137304,-0.13551536,-1.4391252,-1.2738248,0.46451512,-2.4941144,-0.045761622,446.97424,0.47795275,0.29565752,0.37717405,0.1341134,0.0833198,inf,inf,inf,inf,1,1,1,1,2,0,2,1,3,1,1,0
71776337,26016546,34.0337013,108.7636997,-1.1170168,5.0950522,-0.35524997,-0.08098992,-0.3500504,0.0,-0.31392768,0.1547482,-0.25684127,-0.2489217,-0.1632025,-0.22137304,-0.13551536,1.0619327,1.8513564,-0.99221027,-2.4950147,-0.045761622,446.97424,0.5018621,0.3043016,0.37813014,0.138628,0.084009506,inf,inf,inf,inf,1,1,1,1,2,0,2,1,3,1,1,0
71875674,26016546,34.0337013,108.7636997,-1.1559188,5.1137223,-0.38403568,-0.08098992,-0.3500504,0.0,-0.32195795,0.19006352,-0.3148982,-0.30809566,-0.1632025,-0.22137304,-0.13551536,-0.6993862,0.5146853,1.4555527,-2.4959989,-0.045761622,446.97424,0.5306478,0.29533562,0.3764247,0.13376692,0.08323253,inf,inf,inf,inf,1,1,1,1,2,0,2,1,3,1,1,0
71975019,26016546,34.0337013,108.7636997,-1.1980387,5.1326923,-0.4173004,-0.08098992,-0.3500504,0.0,-0.30776286,0.18771742,-0.37825793,-0.37114158,-0.1632025,-0.22137304,-0.13551536,-1.4997994,0.5047508,0.35867092,-2.497231,-0.045761622,446.97424,0.5639125,0.3039226,0.3773814,0.13853106,0.08393136,inf,inf,inf,inf,1,1,1,1,2,0,2,1,3,1,1,0
72074349,26016546,34.0337013,108.7636997,-1.2358496,5.1508393,-0.45690563,-0.08098992,-0.3500504,0.0,-0.27646285,0.1759067,-0.44685876,-0.43959436,-0.1632025,-0.22137304,-0.13551536,0.15086626,0.8850517,-2.4604695,-2.4962447,-0.045761622,446.97424,0.6035178,0.29702565,0.37651306,0.13592821,0.083581634,inf,inf,inf,inf,1,1,1,1,2,0,2,1,3,1,1,0
72173686,26016546,34.0337013,108.7636997,-1.2709547,5.165796,-0.5048909,-0.08098992,-0.3500504,0.0,-0.21421671,0.11325872,-0.5042265,-0.49892047,-0.1632025,-0.22137304,-0.13551536,0.20247394,-2.7065015,-0.15575361,-2.494536,-0.045761622,446.97424,0.6515031,0.3057933,0.3774801,0.14057954,0.08425869,inf,inf,inf,inf,1,1,1,1,2,0,2,1,3,1,1,0
72273119,26016546,34.0337013,108.7636997,-1.298715,5.1750636,-0.559169,-0.08098992,-0.3500504,0.0,-0.16137642,0.058698986,-0.5533831,-0.55022043,-0.1632025,-0.22137304,-0.13551536,-0.6838133,-2.210558,0.75156724,-2.4913852,-0.045761622,446.97424,0.7057811,0.2984474,0.37648284,0.13745008,0.08385014,inf,inf,inf,inf,1,1,1,1,2,0,2,1,3,1,1,0
72372362,26016546,34.0337013,108.7636997,-1.3239906,5.176968,-0.61945593,-0.08098992,-0.3500504,0.0,-0.104983315,0.00600118,-0.6000558,-0.60012376,-0.1632025,-0.22137304,-0.13551536,0.59101725,-1.2226787,-0.3284445,-2.48786,-0.045761622,446.97424,0.7660681,0.3073506,0.3774565,0.14210895,0.084515035,inf,inf,inf,inf,1,1,1,1,2,0,2,1,3,1,1,0
72471702,26016546,34.0337013,108.7636997,-1.3402944,5.1727705,-0.68274343,-0.08098992,-0.3500504,0.0,-0.053787123,-0.04558923,-0.633988,-0.63611877,-0.1632025,-0.22137304,-0.13551536,0.3130982,-0.16312602,-0.7758417,-2.483486,-0.045761622,446.97424,0.8293556,0.30049726,0.37894264,0.13948646,0.08443052,inf,inf,inf,inf,1,1,1,1,2,0,2,1,3,1,1,0
72576005,26016546,34.0337013,108.7636997,-1.3493416,5.1560726,-0.75329363,-0.08098992,-0.3500504,0.0,-0.00293657,-0.097785175,-0.66672033,-0.67124873,-0.1632025,-0.22137304,-0.13551536,1.9531555,-2.4427862,0.7373202,-2.4780147,-0.045761622,446.97424,0.8999058,0.30959913,0.3799431,0.14418367,0.08508109,inf,inf,inf,inf,1,1,1,1,2,0,2,1,3,1,1,0
72675336,26016546,34.0337013,108.7636997,-1.3558902,5.136488,-0.82372314,-0.08098992,-0.3500504,0.0,0.02367769,-0.12953976,-0.7022669,-0.7086694,-0.1632025,-0.22137304,-0.13551536,1.1039734,-2.8105936,0.52273506,-2.4732902,-0.045761622,446.97424,0.97033525,0.30349863,0.3795423,0.14234804,0.08495583,inf,inf,inf,inf,1,1,1,1,2,0,2,1,3,1,1,0
72774679,26016546,34.0337013,108.7636997,-1.3713577,5.111755,-0.9014705,-0.08098992,-0.3500504,0.0,0.022219561,-0.13921839,-0.737864,-0.7494398,-0.1632025,-0.22137304,-0.13551536,0.11464905,-1.7420706,0.5583434,-2.4687464,-0.045761622,446.97424,1.0480826,0.31289566,0.38055617,0.1472682,0.085597515,inf,inf,inf,inf,1,1,1,1,2,0,2,1,3,1,1,0
72874018,26016546,34.0337013,108.7636997,-1.3845774,5.0897717,-0.9819043,-0.08098992,-0.3500504,0.0,0.013163508,-0.1289873,-0.7647837,-0.78043425,-0.1632025,-0.22137304,-0.13551536,0.19873783,-1.2406731,0.25011003,-2.4639974,-0.045761622,446.97424,1.1285164,0.30578902,0.3798601,0.14427654,0.08531029,inf,inf,inf,inf,1,1,1,1,2,0,2,1,3,1,1,0
72973365,26016546,34.0337013,108.7636997,-1.4011674,5.068789,-1.0661858,-0.08098992,-0.3500504,0.0,-0.010852637,-0.10757057,-0.76073056,-0.78262526,-0.1632025,-0.22137304,-0.13551536,-1.529551,1.1238544,-0.3423214,-2.460447,-0.045761622,446.97424,1.212798,0.3153779,0.38088638,0.14903446,0.085958734,inf,inf,inf,inf,1,1,1,1,2,0,2,1,3,1,1,0
73072745,26016546,34.0337013,108.7636997,-1.415967,5.0548296,-1.1459937,-0.08098992,-0.3500504,0.0,-0.047514148,-0.06693543,-0.72830653,-0.7532752,-0.1632025,-0.22137304,-0.13551536,-2.4996011,1.371315,1.7504468,-2.457006,-0.045761622,446.97424,1.2926059,0.30769992,0.38003066,0.14533767,0.08554806,inf,inf,inf,inf,1,1,1,1,2,0,2,1,3,1,1,0
73172039,26016546,34.0337013,108.7636997,-1.4303325,5.0519333,-1.21993,-0.08098992,-0.3500504,0.0,-0.07678966,-0.019295663,-0.70999604,-0.7346044,-0.1632025,-0.22137304,-0.13551536,-0.66050476,1.6015211,-1.6487352,-2.4537826,-0.045761622,446.97424,1.3665422,0.31741366,0.38333532,0.14987941,0.086384974,inf,inf,inf,inf,1,1,1,1,2,0,2,1,3,1,1,0
73271366,26016546,34.0337013,108.7636997,-1.4435894,5.0548263,-1.2887919,-0.08098992,-0.3500504,0.0,-0.113001734,0.025330579,-0.67073464,-0.6929449,-0.1632025,-0.22137304,-0.13551536,-1.6381724,-0.099704765,2.0947301,-2.4525757,-0.045761622,446.97424,1.4354041,0.30900574,0.38225377,0.14526665,0.085854955,inf,inf,inf,inf,1,1,1,1,2,0,2,1,3,1,1,0
73370895,26016546,34.0337013,108.7636997,-1.4518539,5.0683312,-1.3530986,-0.08098992,-0.3500504,0.0,-0.14009383,0.08226435,-0.65324134,-0.6713314,-0.1632025,-0.22137304,-0.13551536,-0.03893962,1.0070951,-0.84759986,-2.451135,-0.045761622,446.97424,1.4997108,0.3187579,0.3832923,0.14978386,0.08646877,inf,inf,inf,inf,1,1,1,1,2,0,2,1,3,1,1,0
73475008,26016546,34.0337013,108.7636997,-1.4625263,5.0871153,-1.4160476,-0.08098992,-0.3500504,0.0,-0.16182794,0.13381827,-0.62299454,-0.6357389,-0.1632025,-0.22137304,-0.13551536,1.0894161,1.7952813,-0.3030179,-2.4479258,-0.045761622,446.97424,1.5626597,0.3081914,0.3814529,0.14296922,0.0855425,inf,inf,inf,inf,1,1,1,1,2,0,2,1,3,1,1,0
73574346,26016546,34.0337013,108.7636997,-1.4646106,5.1215825,-1.4628359,-0.08098992,-0.3500504,0.0,-0.16491646,0.16763915,-0.51072806,-0.512567,-0.1632025,-0.22137304,-0.13551536,-0.626852,1.1701175,1.4477241,-2.4501023,-0.045761622,446.97424,1.6094481,0.31774256,0.38247752,0.14766976,0.08616287,inf,inf,inf,inf,1,1,1,1,2,0,2,1,3,1,1,0
73678650,26016546,34.0337013,108.7636997,-1.4731873,5.157165,-1.5018467,-0.08098992,-0.3500504,0.0,-0.1875238,0.2042969,-0.36855125,-0.36364606,-0.1632025,-0.22137304,-0.13551536,-1.9143248,1.4211307,1.707936,-2.4551299,-0.045761622,446.97424,1.6484588,0.30953497,0.38142672,0.14344487,0.08566552,inf,inf,inf,inf,1,1,1,1,2,0,2,1,3,1,1,0
73768055,26016546,34.0337013,108.7636997,-1.4887915,5.1925664,-1.5264515,-0.08098992,-0.3500504,0.0,-0.18231486,0.2182672,-0.24423005,-0.23717251,-0.1632025,-0.22137304,-0.13551536,-0.22192049,0.872024,1.2946084,-2.4593058,-0.045761622,446.97424,1.6730636,0.3181578,0.38417056,0.147116,0.08636497,inf,inf,inf,inf,1,1,1,1,2,0,2,1,3,1,1,0
73877435,26016546,34.0337013,108.7636997,-1.5083139,5.2321568,-1.5431542,-0.08098992,-0.3500504,0.0,-0.17852962,0.21970385,-0.07998716,-0.07295414,-0.1632025,-0.22137304,-0.13551536,-0.10589951,-0.47464204,2.4780507,-2.4558299,0.010261929,446.97424,1.6897664,0.31168625,0.38395232,0.14083591,0.08603048,inf,inf,inf,inf,1,1,1,1,2,0,2,1,4,1,1,0
73976663,26016546,34.0337013,108.7636997,-1.528124,5.2651415,-1.5438771,-0.08098992,-0.3500504,0.0,-0.16977188,0.21125026,0.083680086,0.0887655,-0.1632025,-0.22137304,-0.13551536,1.0861025,-0.6411231,0.79319715,-2.458838,0.010261929,446.97424,1.6904893,0.32125238,0.38496348,0.14261961,0.0866541,inf,inf,inf,inf,1,1,1,1,2,0,2,1,4,1,1,0
74076024,26016546,34.0337013,108.7636997,-1.5466963,5.29295,-1.529964,-0.08098992,-0.3500504,0.0,-0.15547468,0.19423655,0.21366459,0.21650445,-0.1632025,-0.22137304,-0.13551536,1.906735,-0.45192215,0.046373155,-2.4609358,0.010261929,446.97424,1.6765761,0.31258896,0.3837453,0.13703538,0.086185254,inf,inf,inf,inf,1,1,1,1,2,0,2,1,4,1,1,0
74175522,26016546,34.0337013,108.7636997,-1.5649925,5.312957,-1.5084373,-0.08098992,-0.3500504,0.0,-0.1409875,0.17352752,0.28674525,0.28500357,-0.1632025,-0.22137304,-0.13551536,0.6954735,0.5686543,-0.8056429,-2.463039,0.010261929,446.97424,1.6550494,0.3219324,0.3847212,0.14049049,0.086995125,inf,inf,inf,inf,1,1,1,1,2,0,2,1,4,1,1,0
74274676,26016546,34.0337013,108.7636997,-1.5812849,5.328467,-1.4823089,-0.08098992,-0.3500504,0.0,-0.12703553,0.14070389,0.3122024,0.3066695,-0.1632025,-0.22137304,-0.13551536,-0.9941182,-0.6635075,1.3117746,-2.4661207,0.010261929,446.97424,1.628921,0.31142163,0.38500434,0.13495548,0.08648606,inf,inf,inf,inf,1,1,1,1,2,0,2,1,4,1,1,0
74374010,26016546,34.0337013,108.7636997,-1.5979128,5.3369374,-1.4610535,-0.08098992,-0.3500504,0.0,-0.10288559,0.108471535,0.27617213,0.2634674,-0.1632025,-0.22137304,-0.13551536,0.238887,-2.791915,0.09389779,-2.470149,0.010261929,446.97424,1.6076657,0.32038137,0.38596725,0.14028208,0.08750986,inf,inf,inf,inf,1,1,1,1,2,0,2,1,4,1,1,0
74473352,26016546,34.0337013,108.7636997,-1.6114547,5.343549,-1.4426669,-0.08098992,-0.3500504,0.0,-0.08424592,0.08897463,0.20792218,0.19074343,-0.1632025,-0.22137304,-0.13551536,1.4217982,-0.5756061,-1.8973329,-2.4758973,0.010261929,446.97424,1.589279,0.32974243,0.3869509,0.1465901,0.088630125,inf,inf,inf,inf,1,1,1,1,2,0,2,1,4,1,1,0
74572688,26016546,34.0337013,108.7636997,-1.6242279,5.3421845,-1.4315537,-0.08098992,-0.3500504,0.0,-0.06725674,0.06806681,0.14012672,0.118609,-0.1632025,-0.22137304,-0.13551536,0.4490623,0.76001817,-2.0967,-2.4830751,0.010261929,446.97424,1.5781659,0.31934574,0.38509414,0.14410624,0.08830468,inf,inf,inf,inf,1,1,1,1,2,0,2,1,4,1,1,0
74672028,26016546,34.0337013,108.7636997,-1.6369249,5.341138,-1.4253092,-0.08098992,-0.3500504,0.0,-0.061402693,0.04623961,0.102803424,0.07788553,-0.1632025,-0.22137304,-0.13551536,-0.9815414,-0.31478366,-0.7906573,-2.4895294,0.010261929,446.97424,1.5719213,0.3096918,0.38306978,0.141487,0.08789845,inf,inf,inf,inf,1,1,1,1,2,0,2,1,4,1,1,0
74771364,26016546,34.0337013,108.7636997,-1.6570114,5.341342,-1.4236587,-0.08098992,-0.3500504,0.0,-0.05770219,0.033383876,0.08823929,0.05887154,-0.1632025,-0.22137304,-0.13551536,-1.4520106,-0.64376795,1.954016,-2.4950845,0.010261929,446.97424,1.5702709,0.31815776,0.38399827,0.14974438,0.089303434,inf,inf,inf,inf,1,1,1,1,2,0,2,1,4,1,1,0
74870701,26016546,34.0337013,108.7636997,-1.6724682,5.3410077,-1.4203233,-0.08098992,-0.3500504,0.0,-0.039535556,0.018528253,0.07047084,0.04041036,-0.1632025,-0.22137304,-0.13551536,2.0548544,-2.3421566,-0.25239593,-2.4988577,0.010261929,446.97424,1.5669354,0.30882612,0.384294,0.14674619,0.08916035,inf,inf,inf,inf,1,1,1,1,2,0,2,1,4,1,1,0
74970165,26016546,34.0337013,108.7636997,-1.6836143,5.3393,-1.4177969,-0.08098992,-0.3500504,0.0,-0.029492456,0.018654704,0.06649944,0.035546254,-0.1632025,-0.22137304,-0.13551536,0.23256789,2.6611605,-1.1886111,-2.5024009,0.010261929,446.97424,1.564409,0.31714323,0.3852189,0.15539011,0.090692066,inf,inf,inf,inf,1,1,1,1,2,0,2,1,4,1,1,0
75074349,26016546,34.0337013,108.7636997,-1.691143,5.3369036,-1.4142177,-0.08098992,-0.3500504,0.0,-0.011315245,0.0048297374,0.06552935,0.03457434,-0.1632025,-0.22137304,-0.13551536,1.5397109,1.5495074,-1.6905266,-2.5042133,0.010261929,446.97424,1.5608299,0.3080786,0.3831955,0.15178864,0.09038878,inf,inf,inf,inf,1,1,1,1,2,0,2,1,4,1,1,0
75173682,26016546,34.0337013,108.7636997,-1.6952723,5.33359,-1.4101623,-0.08098992,-0.3500504,0.0,0.0029781112,-0.00369784,0.071234524,0.040908087,-0.1632025,-0.22137304,-0.13551536,-0.9326406,0.73920923,0.73336244,-2.5060394,0.010261929,446.97424,1.5567745,0.31632432,0.38412327,0.16091445,0.09207386,inf,inf,inf,inf,1,1,1,1,2,0,2,1,4,1,1,0
75273020,26016546,34.0337013,108.7636997,-1.696374,5.3296857,-1.4062666,-0.08098992,-0.3500504,0.0,0.021320334,-0.022162957,0.06779545,0.03817209,-0.1632025,-0.22137304,-0.13551536,-0.41210932,-1.1371871,0.55533195,-2.5053508,0.010261929,446.97424,1.5528787,0.30747718,0.382134,0.15654802,0.09180653,inf,inf,inf,inf,1,1,1,1,2,0,2,1,4,1,1,0
75372356,26016546,34.0337013,108.7636997,-1.6953162,5.3245006,-1.4004005,-0.08098992,-0.3500504,0.0,0.0464316,-0.026388632,0.05832248,0.031608105,-0.1632025,-0.22137304,-0.13551536,2.4402137,-0.92470014,-1.6480471,-2.5040903,0.010261929,446.97424,1.5470127,0.31572962,0.38538358,0.16542572,0.09377135,inf,inf,inf,inf,1,1,1,1,2,0,2,1,4,1,1,0
75471742,26016546,34.0337013,108.7636997,-1.6917334,5.318777,-1.39445,-0.08098992,-0.3500504,0.0,0.054022186,-0.027378956,0.0599063,0.036175773,-0.1632025,-0.22137304,-0.13551536,-0.6867639,1.9831785,1.1357273,-2.5030363,0.010261929,446.97424,1.5410621,0.30681518,0.38336694,0.1600239,0.093483984,inf,inf,inf,inf,1,1,1,1,2,0,2,1,4,1,1,0
75575999,26016546,34.0337013,108.7636997,-1.6870652,5.3099513,-1.3884853,-0.08098992,-0.3500504,0.0,0.06982657,-0.037738387,0.05196067,0.03117607,-0.1632025,-0.22137304,-0.13551536,0.24153851,0.3877552,0.3840587,-2.5015743,0.010261929,446.97424,1.5350975,0.31510496,0.38433397,0.16883144,0.095349625,inf,inf,inf,inf,1,1,1,1,2,0,2,1,4,1,1,0
75675336,26016546,34.0337013,108.7636997,-1.6808418,5.301502,-1.3821663,-0.08098992,-0.3500504,0.0,0.08555564,-0.051447008,0.046098232,0.029216975,-0.1632025,-0.22137304,-0.13551536,1.6216402,-2.7308602,0.5545011,-2.499758,0.010261929,446.97424,1.5287784,0.30615512,0.38234064,0.16251253,0.09503389,inf,inf,inf,inf,1,1,1,1,2,0,2,1,4,1,1,0
75774888,26016546,34.0337013,108.7636997,-1.6760489,5.2903824,-1.3746183,-0.08098992,-0.3500504,0.0,0.09244854,-0.041906048,0.035616867,0.023804303,-0.1632025,-0.22137304,-0.13551536,1.6053632,2.3527308,-1.6866926,-2.4983413,0.010261929,446.97424,1.5212305,0.3145152,0.3833456,0.17136279,0.097016096,inf,inf,inf,inf,1,1,1,1,2,0,2,1,4,1,1,0
75869044,26016546,34.0337013,108.7636997,-1.669394,5.2810173,-1.3676953,-0.08098992,-0.3500504,0.0,0.100943774,-0.052617956,0.03475975,0.027193796,-0.1632025,-0.22137304,-0.13551536,1.639278,-0.93138623,-1.0879425,-2.4970787,0.010261929,446.97424,1.5143075,0.32274193,0.38385138,0.17921469,0.09875317,inf,inf,inf,inf,1,1,1,1,2,0,2,1,4,1,1,0
75978315,26016546,34.0337013,108.7636997,-1.6655935,5.264279,-1.3582642,-0.08098992,-0.3500504,0.0,0.096253656,-0.06392713,0.037647106,0.036256336,-0.1632025,-0.22137304,-0.13551536,-0.19222012,-1.5875057,1.1260515,-2.496107,0.010261929,446.97424,1.5048764,0.31413856,0.38243026,0.17285566,0.09870728,inf,inf,inf,inf,1,1,1,1,2,0,2,1,4,1,1,0
76067718,26016546,34.0337013,108.7636997,-1.6609138,5.2519774,-1.351831,-0.08098992,-0.3500504,0.0,0.10400741,-0.06094875,0.027302256,0.02961863,-0.1632025,-0.22137304,-0.13551536,1.6433163,-2.1557643,0.45999974,-2.4948049,0.010261929,446.97424,1.4984431,0.3052856,0.38219142,0.16469242,0.09825571,inf,inf,inf,inf,1,1,1,1,2,0,2,1,4,1,1,0
76176992,26016546,34.0337013,108.7636997,-1.6560968,5.2335963,-1.3463596,-0.08098992,-0.3500504,0.0,0.10672123,-0.05832231,0.01955692,0.024232298,-0.1632025,-0.22137304,-0.13551536,0.7709971,1.6187328,-0.96570843,-2.493525,0.010261929,446.97424,1.4929718,0.31467804,0.38387713,0.17336807,0.100547865,inf,inf,inf,inf,1,1,1,1,2,0,2,1,4,1,1,0
76276329,26016546,34.0337013,108.7636997,-1.6512485,5.2193584,-1.341877,-0.08098992,-0.3500504,0.0,0.10849649,-0.059924316,0.022460822,0.028971167,-0.1632025,-0.22137304,-0.13551536,-0.010989592,-0.5948658,1.7854959,-2.4924579,0.010261929,446.97424,1.4884892,0.30827525,0.3819158,0.16581997,0.10007053,inf,inf,inf,inf,1,1,1,1,2,0,2,1,4,1,1,0
76375745,26016546,34.0337013,108.7636997,-1.6506562,5.205654,-1.3372461,-0.08098992,-0.3500504,0.0,0.10628372,-0.049590133,0.009408384,0.018080117,-0.1632025,-0.22137304,-0.13551536,0.5484702,1.7046524,-1.0789268,-2.4902458,0.010261929,446.97424,1.4838582,0.3170139,0.38309443,0.17339803,0.102164455,inf,inf,inf,inf,1,1,1,1,2,0,2,1,4,1,1,0
76475003,26016546,34.0337013,108.7636997,-1.6478008,5.194048,-1.3346053,-0.08098992,-0.3500504,0.0,0.106558904,-0.0480443,0.008764402,0.017990975,-0.1632025,-0.22137304,-0.13551536,-1.2710483,0.64567107,0.16747521,-2.48943,0.010261929,446.97424,1.4812175,0.3100235,0.38114262,0.16541244,0.101583645,inf,inf,inf,inf,1,1,1,1,2,0,2,1,4,1,1,0
76574427,26016546,34.0337013,108.7636997,-1.6440365,5.181709,-1.3318816,-0.08098992,-0.3500504,0.0,0.10913281,-0.04626977,0.008033364,0.01793174,-0.1632025,-0.22137304,-0.13551536,-0.8956862,-0.55617815,0.63681334,-2.4879906,0.010261929,446.97424,1.4784938,0.31888112,0.38237262,0.17269109,0.103709415,inf,inf,inf,inf,1,1,1,1,2,0,2,1,4,1,1,0
76673677,26016546,34.0337013,108.7636997,-1.6384581,5.172207,-1.3303753,-0.08098992,-0.3500504,0.0,0.11286289,-0.034206025,-0.0009395445,0.008775635,-0.1632025,-0.22137304,-0.13551536,-0.20517056,1.5997125,-1.7221148,-2.4869437,0.010261929,446.97424,1.4769875,0.312461,0.3810012,0.1666338,0.10350925,inf,inf,inf,inf,1,1,1,1,2,0,2,1,4,1,1,0
76773015,26016546,34.0337013,108.7636997,-1.6326433,5.161079,-1.3276786,-0.08098992,-0.3500504,0.0,0.113734655,-0.03962638,0.00831648,0.018932715,-0.1632025,-0.22137304,-0.13551536,-1.2133976,-2.1704295,1.3943582,-2.486525,0.010261929,446.97424,1.4742907,0.32160506,0.3823176,0.17363457,0.105643235,inf,inf,inf,inf,1,1,1,1,2,0,2,1,4,1,1,0
76877320,26016546,34.0337013,108.7636997,-1.6243597,5.152557,-1.3259541,-0.08098992,-0.3500504,0.0,0.11254713,-0.024035564,0.002042499,0.012756698,-0.1632025,-0.22137304,-0.13551536,-1.8898184,0.8008229,0.9939654,-2.4862537,0.010261929,446.97424,1.4725662,0.31326157,0.38260183,0.1647465,0.10500281,inf,inf,inf,inf,1,1,1,1,2,0,2,1,4,1,1,0
76976658,26016546,34.0337013,108.7636997,-1.6164004,5.1417317,-1.3244942,-0.08098992,-0.3500504,0.0,0.12144247,-0.020946605,-0.008386987,0.002797531,-0.1632025,-0.22137304,-0.13551536,-0.6503049,-0.4125204,-0.31889036,-2.4856722,0.010261929,446.97424,1.4711064,0.3224135,0.38401023,0.17135434,0.107136846,inf,inf,inf,inf,1,1,1,1,2,0,2,1,4,1,1,0
77076019,26016546,34.0337013,108.7636997,-1.6076418,5.13212,-1.3247229,-0.08098992,-0.3500504,0.0,0.121039875,-0.0087267,-0.011009943,-0.00073746196,-0.1632025,-0.22137304,-0.13551536,-0.44460827,2.7212467,-0.61237574,-2.4860623,0.010261929,446.97424,1.471335,0.313514,0.38199443,0.16289903,0.106253624,inf,inf,inf,inf,1,1,1,1,2,0,2,1,4,1,1,0
77175332,26016546,34.0337013,108.7636997,-1.6001436,5.1189876,-1.3260822,-0.08098992,-0.3500504,0.0,0.11928219,-0.014928453,-0.010352014,-0.0018167123,-0.1632025,-0.22137304,-0.13551536,-1.3264297,-1.3826796,1.2315091,-2.4859211,0.010261929,446.97424,1.4726944,0.32266393,0.3834663,0.16928118,0.10840262,inf,inf,inf,inf,1,1,1,1,2,0,2,1,4,1,1,0
77274670,26016546,34.0337013,108.7636997,-1.5918778,5.1084175,-1.3281676,-0.08098992,-0.3500504,0.0,0.124665685,-0.016239459,-0.015717337,-0.009012953,-0.1632025,-0.22137304,-0.13551536,1.3301245,-1.7909666,-1.6480238,-2.4850903,0.010261929,446.97424,1.4747797,0.31511518,0.3827056,0.16491936,0.108473115,inf,inf,inf,inf,1,1,1,1,2,0,2,1,4,1,1,0
77374057,26016546,34.0337013,108.7636997,-1.5851784,5.0965137,-1.3286791,-0.08098992,-0.3500504,0.0,0.117457286,-0.0094666,-0.0042619198,0.0021312349,-0.1632025,-0.22137304,-0.13551536,-0.87457716,-1.2685372,2.1688247,-2.485283,0.010261929,446.97424,1.4752913,0.3246336,0.3842994,0.1710946,0.11059796,inf,inf,inf,inf,1,1,1,1,2,0,2,1,4,1,1,0
77473345,26016546,34.0337013,108.7636997,-1.5778267,5.0872827,-1.3292595,-0.08098992,-0.3500504,0.0,0.12075834,-0.002438406,-0.014633185,-0.008647162,-0.1632025,-0.22137304,-0.13551536,1.3699669,-0.07877949,-1.1637286,-2.4845634,0.010261929,446.97424,1.4758717,0.31824067,0.3840847,0.16814964,0.11102893,inf,inf,inf,inf,1,1,1,1,2,0,2,1,4,1,1,0
77572683,26016546,34.0337013,108.7636997,-1.5724852,5.0784707,-1.3289268,-0.08098992,-0.3500504,0.0,0.11263822,0.0060501914,-0.011123667,-0.004513388,-0.1632025,-0.22137304,-0.13551536,0.36836413,-0.027700061,0.07949641,-2.4846387,0.010261929,446.97424,1.475539,0.3282763,0.38583037,0.17419411,0.113134906,inf,inf,inf,inf,1,1,1,1,2,0,2,1,4,1,1,0
77672210,26016546,34.0337013,108.7636997,-1.5659695,5.072824,-1.3293114,-0.08098992,-0.3500504,0.0,0.1107906,0.012320651,-0.012305574,-0.00589977,-0.1632025,-0.22137304,-0.13551536,1.4925268,-2.1308055,0.5151352,-2.484396,0.010261929,446.97424,1.4759235,0.32099417,0.38769487,0.1696108,0.11341522,inf,inf,inf,inf,1,1,1,1,2,0,2,1,4,1,1,0
77776325,26016546,34.0337013,108.7636997,-1.5608658,5.0683384,-1.3308368,-0.08098992,-0.3500504,0.0,0.10401263,0.013584385,-0.015208409,-0.009583082,-0.1632025,-0.22137304,-0.13551536,-1.1863308,-2.0757425,0.82008946,-2.4844866,0.010261929,446.97424,1.4774489,0.33139065,0.38959986,0.17548946,0.11550179,inf,inf,inf,inf,1,1,1,1,2,0,2,1,4,1,1,0
77875662,26016546,34.0337013,108.7636997,-1.5550649,5.066222,-1.3336294,-0.08098992,-0.3500504,0.0,0.100276306,0.030771492,-0.022268895,-0.01848472,-0.1632025,-0.22137304,-0.13551536,1.7041738,-0.30995074,-1.8620278,-2.4837441,0.010261929,446.97424,1.4802415,0.32333785,0.38877016,0.1698187,0.11520868,inf,inf,inf,inf,1,1,1,1,2,0,2,1,4,1,1,0
77975000,26016546,34.0337013,108.7636997,-1.5485753,5.064717,-1.3366334,-0.08098992,-0.3500504,0.0,0.0962087,0.03540487,-0.012995135,-0.011189855,-0.1632025,-0.22137304,-0.13551536,-0.59679496,-1.0529678,1.3396816,-2.483759,0.010261929,446.97424,1.4832456,0.33396497,0.39079028,0.1755933,0.11728098,inf,inf,inf,inf,1,1,1,1,2,0,2,1,4,1,1,0
78074341,26016546,34.0337013,108.7636997,-1.5414088,5.0657496,-1.3396126,-0.08098992,-0.3500504,0.0,0.096172795,0.04483871,-0.018691376,-0.018664673,-0.1632025,-0.22137304,-0.13551536,1.159089,0.3121982,-1.654266,-2.4830656,0.010261929,446.97424,1.4862248,0.3224438,0.3884101,0.16513269,0.1155066,inf,inf,inf,inf,1,1,1,1,2,0,2,1,4,1,1,0
78173759,26016546,34.0337013,108.7636997,-1.535015,5.0697074,-1.3411642,-0.08098992,-0.3500504,0.0,0.0889174,0.047102075,-0.0063299043,-0.006696934,-0.1632025,-0.22137304,-0.13551536,-1.1713123,-1.8265884,1.6155374,-2.483889,0.010261929,446.97424,1.4877764,0.33280295,0.3904493,0.17059481,0.1175297,inf,inf,inf,inf,1,1,1,1,2,0,2,1,4,1,1,0
78273014,26016546,34.0337013,108.7636997,-1.5281947,5.0750813,-1.3422375,-0.08098992,-0.3500504,0.0,0.09153379,0.05573241,-0.015783383,-0.01614628,-0.1632025,-0.22137304,-0.13551536,1.585561,-1.6734,-1.3587176,-2.4840047,0.010261929,446.97424,1.4888496,0.32116258,0.38786885,0.16045968,0.11553438,inf,inf,inf,inf,1,1,1,1,2,0,2,1,4,1,1,0
78372351,26016546,34.0337013,108.7636997,-1.5257772,5.0794334,-1.3427801,-0.08098992,-0.3500504,0.0,0.08435346,0.05646639,-0.0049209227,-0.004894869,-0.1632025,-0.22137304,-0.13551536,-0.04677936,-0.3248067,1.7068096,-2.4855034,0.010261929,446.97424,1.4893923,0.33123013,0.39237377,0.1656802,0.11778464,inf,inf,inf,inf,1,1,1,1,2,0,2,1,4,1,1,0
78471844,26016546,34.0337013,108.7636997,-1.5227846,5.0853004,-1.3456112,-0.08098992,-0.3500504,0.0,0.08032099,0.06586765,-0.02935374,-0.031017464,-0.1632025,-0.22137304,-0.13551536,2.031728,-0.5264243,-1.1953061,-2.4914684,0.010261929,446.97424,1.4922234,0.32006454,0.38975552,0.15654701,0.11576458,inf,inf,inf,inf,1,1,1,1,2,0,2,1,4,1,1,0
78571026,26016546,34.0337013,108.7636997,-1.5210506,5.091342,-1.3560896,-0.08098992,-0.3500504,0.0,0.06673818,0.06800301,-0.122190915,-0.12735958,-0.1632025,-0.22137304,-0.13551536,-0.05470898,2.2773738,0.2162169,-2.5158453,0.010261929,446.97424,1.5027018,0.32989392,0.39186913,0.16157341,0.11772828,inf,inf,inf,inf,1,1,1,1,2,0,2,1,4,1,1,0
78670363,26016546,34.0337013,108.7636997,-1.519107,5.098391,-1.3779532,-0.08098992,-0.3500504,0.0,0.06416765,0.06558384,-0.22372793,-0.23257771,-0.1632025,-0.22137304,-0.13551536,1.703266,0.4939841,-2.4903896,-2.5587587,0.010261929,446.97424,1.5245653,0.31901878,0.3892264,0.15326017,0.11570903,inf,inf,inf,inf,1,1,1,1,2,0,2,1,4,1,1,0
78769700,26016546,34.0337013,108.7636997,-1.5190029,5.1060705,-1.4047856,-0.08098992,-0.3500504,0.0,0.053665414,0.062141437,-0.22645903,-0.23833342,-0.1632025,-0.22137304,-0.13551536,-0.40009508,-1.5072976,0.7643174,-2.6210687,0.010261929,446.97424,1.5513978,0.32864982,0.39132565,0.15853892,0.11773497,inf,inf,inf,inf,1,1,1,1,2,0,2,1,4,1,1,0
78869039,26016546,34.0337013,108.7636997,-1.517903,5.1149793,-1.4306879,-0.08098992,-0.3500504,0.0,0.055403475,0.062806435,-0.20584327,-0.22079274,-0.1632025,-0.22137304,-0.13551536,1.6379071,-0.79209673,-1.0582135,-2.6982293,0.010261929,446.97424,1.5773001,0.31803796,0.39108723,0.15077816,0.11595154,inf,inf,inf,inf,1,1,1,1,2,0,2,1,4,1,1,0
78978371,26016546,34.0337013,108.7636997,-1.5163879,5.127919,-1.4609898,-0.08098992,-0.3500504,0.0,0.05834295,0.06511201,-0.17783576,-0.20038448,-0.1632025,-0.22137304,-0.13551536,-0.55455273,1.020849,1.0417883,-2.7810824,0.010261929,446.97424,1.607602,0.32847446,0.39396068,0.15601876,0.11809516,inf,inf,inf,inf,1,1,1,1,2,0,2,1,4,1,1,0
79072681,26016546,34.0337013,108.7636997,-1.5131882,5.137061,-1.483876,-0.08098992,-0.3500504,0.0,0.072108105,0.05602053,-0.1504569,-0.1778436,-0.1632025,-0.22137304,-0.13551536,0.06341185,-0.42426836,1.2074108,-2.8347297,0.010261929,446.97424,1.6304882,0.3176121,0.39082578,0.14847386,0.11591642,inf,inf,inf,inf,1,1,1,1,2,0,2,1,4,1,1,0
