timestamp,ref_timestamp,ref_lat,ref_lon,x,y,z,delta_xy[0],delta_xy[1],delta_z,vx,vy,vz,z_deriv,delta_vxy[0],delta_vxy[1],delta_vz,ax,ay,az,heading,delta_heading,ref_alt,dist_bottom,eph,epv,evh,evv,vxy_max,vz_max,hagl_min,hagl_max,xy_valid,z_valid,v_xy_valid,v_z_valid,xy_reset_counter,z_reset_counter,vxy_reset_counter,vz_reset_counter,heading_reset_counter,xy_global,z_global,dist_bottom_valid
24886405,15351402,34.0356236,108.7574244,0.137104,0.0564051,0.0290174,-0.0767876,0.0698566,0.0,-0.00948805,-0.0487246,0.0120004,-0.0300414,-0.326441,-0.344948,0.0449908,0.189963,1.13147,-0.645922,-1.52126,0.0875103,424.851,0.114133,0.332748,0.410099,0.176784,0.121523,inf,inf,inf,inf,1,1,1,1,2,0,2,1,3,1,1,1
24896378,15351402,34.0356236,108.7574244,0.137318,0.056191,0.0291549,-0.0767876,0.0698566,0.0,-0.00429934,-0.0521934,0.016286,-0.0253564,-0.326441,-0.344948,0.0449908,0.351334,-0.609306,0.284967,-1.52083,0.0875103,424.851,0.114184,0.333647,0.410876,0.177581,0.121753,inf,inf,inf,inf,1,1,1,1,2,0,2,1,3,1,1,1
24995663,15351402,34.0356236,108.7574244,0.138615,0.0531278,0.0297003,-0.0767876,0.0698566,0.0,-0.00919547,-0.0555757,0.0162451,-0.0225363,-0.326441,-0.344948,0.0449908,-0.49435,-0.855568,-0.312302,-1.52042,0.0875103,424.851,0.111227,0.343126,0.413077,0.185667,0.123352,inf,inf,inf,inf,1,1,1,1,2,0,2,1,3,1,1,1
25085141,15351402,34.0356236,108.7574244,0.142938,0.0519139,0.0288174,-0.0767876,0.0698566,0.0,0.00249876,-0.0644826,0.00919608,-0.0286057,-0.326441,-0.344948,0.0449908,1.21382,-1.23701,-1.19441,-1.5208,0.0875103,424.851,0.108151,0.331189,0.4083,0.175726,0.120347,inf,inf,inf,inf,1,1,1,1,2,0,2,1,3,1,1,1
25194310,15351402,34.0356236,108.7574244,0.146416,0.0490435,0.0272139,-0.0767876,0.0698566,0.0,0.000110645,-0.0509832,0.0111387,-0.0261042,-0.326441,-0.344948,0.0449908,0.427533,-0.589285,-0.592655,-1.52009,0.0875103,424.851,0.103865,0.341616,0.411237,0.184423,0.122128,inf,inf,inf,inf,1,1,1,1,2,0,2,1,3,1,1,1
25293633,15351402,34.0356236,108.7574244,0.149611,0.0475713,0.0266318,-0.0767876,0.0698566,0.0,-0.00121457,-0.0563713,0.0181586,-0.0178044,-0.326441,-0.344948,0.0449908,-0.644957,-0.788678,-0.19845,-1.51976,0.0875103,424.851,0.106593,0.330634,0.407348,0.175158,0.119412,inf,inf,inf,inf,1,1,1,1,2,0,2,1,3,1,1,1
25387989,15351402,34.0356236,108.7574244,0.151198,0.0449784,0.0255909,-0.0767876,0.0698566,0.0,0.00490425,-0.0498784,0.016835,-0.0187414,-0.326441,-0.344948,0.0449908,1.23682,0.775493,0.700544,-1.51836,0.0875103,424.851,0.10397,0.339192,0.408702,0.182017,0.120698,inf,inf,inf,inf,1,1,1,1,2,0,2,1,3,1,1,1
25497245,15351402,34.0356236,108.7574244,0.154142,0.0414136,0.0240802,-0.0767876,0.0698566,0.0,0.00587643,-0.047209,0.0183186,-0.0170658,-0.326441,-0.344948,0.0449908,0.813818,1.60868,0.53572,-1.51726,0.0875103,424.851,0.101601,0.329234,0.405694,0.173628,0.118274,inf,inf,inf,inf,1,1,1,1,2,0,2,1,3,1,1,1
25586634,15351402,34.0356236,108.7574244,0.155541,0.0377541,0.0220834,-0.0767876,0.0698566,0.0,0.00480151,-0.0533164,0.0171488,-0.0188145,-0.326441,-0.344948,0.0449908,-0.704085,-1.64452,-0.393409,-1.51632,0.0875103,424.851,0.102771,0.337818,0.409826,0.180775,0.119919,inf,inf,inf,inf,1,1,1,1,2,0,2,1,3,1,1,1
25695892,15351402,34.0356236,108.7574244,0.159051,0.0333971,0.0197233,-0.0767876,0.0698566,0.0,0.00532037,-0.0567005,0.0147758,-0.0216424,-0.326441,-0.344948,0.0449908,-0.91592,-1.27103,-0.0950877,-1.51464,0.0875103,424.851,0.103918,0.327884,0.406845,0.172464,0.117547,inf,inf,inf,inf,1,1,1,1,2,0,2,1,3,1,1,1
25785283,15351402,34.0356236,108.7574244,0.16096,0.0292163,0.0171557,-0.0767876,0.0698566,0.0,0.00236899,-0.0566423,0.0198465,-0.0175411,-0.326441,-0.344948,0.0449908,-0.596614,0.00426534,0.670933,-1.51352,0.0875103,424.851,0.100344,0.336492,0.408208,0.179189,0.118802,inf,inf,inf,inf,1,1,1,1,2,0,2,1,3,1,1,1
25894647,15351402,34.0356236,108.7574244,0.164296,0.0239647,0.0131064,-0.0767876,0.0698566,0.0,0.00723976,-0.0569514,0.016984,-0.0223019,-0.326441,-0.344948,0.0449908,-0.226036,0.108262,-0.0173776,-1.5127,0.0875103,424.851,0.1,0.326584,0.40531,0.171067,0.116501,inf,inf,inf,inf,1,1,1,1,2,0,2,1,3,1,1,1
25993880,15351402,34.0356236,108.7574244,0.166235,0.0186331,0.0101811,-0.0767876,0.0698566,0.0,0.0100944,-0.057071,0.0163972,-0.0235586,-0.326441,-0.344948,0.0449908,0.304438,-0.0229596,0.600326,-1.51075,0.0875103,424.851,0.101688,0.336208,0.407413,0.17838,0.11793,inf,inf,inf,inf,1,1,1,1,2,0,2,1,3,1,1,1
26093184,15351402,34.0356236,108.7574244,0.170247,0.0154559,0.00812205,-0.0767876,0.0698566,0.0,0.00286021,-0.0593266,0.0119262,-0.0277283,-0.326441,-0.344948,0.0449908,-0.171219,0.473812,0.135238,-1.50918,0.0875103,424.851,0.10451,0.325348,0.403827,0.169666,0.115483,inf,inf,inf,inf,1,1,1,1,2,0,2,1,3,1,1,1
26197474,15351402,34.0356236,108.7574244,0.173025,0.0111873,0.00707531,-0.0767876,0.0698566,0.0,0.00127941,-0.0589642,0.0123363,-0.0260635,-0.326441,-0.344948,0.0449908,-0.420042,0.817595,0.277976,-1.50834,0.0875103,424.851,0.105043,0.334987,0.405888,0.176811,0.116872,inf,inf,inf,inf,1,1,1,1,2,0,2,1,3,1,1,1
26286864,15351402,34.0356236,108.7574244,0.175711,0.00900495,0.00653892,-0.0767876,0.0698566,0.0,0.0188881,-0.0475423,0.0144415,-0.0224946,-0.326441,-0.344948,0.0449908,1.00064,0.544833,-0.297014,-1.50725,0.0875103,424.851,0.105001,0.323247,0.404326,0.167639,0.114614,inf,inf,inf,inf,1,1,1,1,2,0,2,1,3,1,1,1
26396120,15351402,34.0356236,108.7574244,0.177755,0.00547173,0.00603002,-0.0767876,0.0698566,0.0,0.0132539,-0.0538346,0.0126888,-0.0224377,-0.326441,-0.344948,0.0449908,0.0647999,-0.659615,-0.447974,-1.50534,0.0875103,424.851,0.10679,0.33382,0.407149,0.175661,0.116219,inf,inf,inf,inf,1,1,1,1,2,0,2,1,3,1,1,1
26485511,15351402,34.0356236,108.7574244,0.178929,0.00466655,0.00607521,-0.0767876,0.0698566,0.0,0.012393,-0.0532632,0.0177067,-0.0156393,-0.326441,-0.344948,0.0449908,0.226517,-0.0167333,1.02045,-1.50489,0.0875103,424.851,0.106813,0.322109,0.402923,0.166576,0.113687,inf,inf,inf,inf,1,1,1,1,2,0,2,1,3,1,1,1
26594767,15351402,34.0356236,108.7574244,0.179502,0.00265855,0.00678158,-0.0767876,0.0698566,0.0,0.0108793,-0.0516427,0.0185978,-0.0122608,-0.326441,-0.344948,0.0449908,-0.475488,-0.623478,0.300788,-1.50401,0.0875103,424.851,0.107653,0.332697,0.40572,0.174195,0.115233,inf,inf,inf,inf,1,1,1,1,2,0,2,1,3,1,1,1
26694214,15351402,34.0356236,108.7574244,0.180942,0.00260207,0.00860674,-0.0767876,0.0698566,0.0,0.0114807,-0.0456103,0.0184383,-0.0092867,-0.326441,-0.344948,0.0449908,0.292874,0.0753966,0.977816,-1.50219,0.0875103,424.851,0.107404,0.321968,0.402301,0.165985,0.11296,inf,inf,inf,inf,1,1,1,1,2,0,2,1,3,1,1,1
26793413,15351402,34.0356236,108.7574244,0.181612,0.00142601,0.00843948,-0.0767876,0.0698566,0.0,0.00418877,-0.0468374,0.0133644,-0.0136278,-0.326441,-0.344948,0.0449908,-0.461246,0.548754,-0.134734,-1.50138,0.0875103,424.851,0.100528,0.331638,0.404321,0.172742,0.114268,inf,inf,inf,inf,1,1,1,1,2,0,2,1,3,1,1,1
26892737,15351402,34.0356236,108.7574244,0.182006,0.000358838,0.00636146,-0.0767876,0.0698566,0.0,0.00776948,-0.0473858,0.0165391,-0.0117148,-0.326441,-0.344948,0.0449908,-1.09727,-1.16646,-0.432782,-1.50107,0.0875103,424.851,0.1,0.320934,0.400971,0.164676,0.112051,inf,inf,inf,inf,1,1,1,1,2,0,2,1,3,1,1,1
26992073,15351402,34.0356236,108.7574244,0.181779,-0.00157525,0.00273336,-0.0767876,0.0698566,0.0,0.0150211,-0.0368096,0.019289,-0.0115704,-0.326441,-0.344948,0.0449908,1.12546,-0.182846,0.395394,-1.50019,0.0875103,424.851,0.1,0.330604,0.402959,0.171377,0.113334,inf,inf,inf,inf,1,1,1,1,2,0,2,1,3,1,1,1
27091383,15351402,34.0356236,108.7574244,0.180137,-0.00424254,-0.00478492,-0.0767876,0.0698566,0.0,0.0049844,-0.035885,0.0148283,-0.0220358,-0.326441,-0.344948,0.0449908,1.43064,1.76364,0.760391,-1.49908,0.0875103,424.851,0.1,0.319954,0.402317,0.163492,0.111484,inf,inf,inf,inf,1,1,1,1,2,0,2,1,3,1,1,1
27190706,15351402,34.0356236,108.7574244,0.178296,-0.00743593,-0.011781,-0.0767876,0.0698566,0.0,-0.00128696,-0.0471405,0.0092623,-0.0322352,-0.326441,-0.344948,0.0449908,-0.811434,0.190558,-0.621816,-1.49815,0.0875103,424.851,0.1,0.329624,0.404324,0.170033,0.112749,inf,inf,inf,inf,1,1,1,1,2,0,2,1,3,1,1,1
27294995,15351402,34.0356236,108.7574244,0.180816,-0.00708364,-0.0156111,-0.0767876,0.0698566,0.0,0.0032186,-0.0463491,0.0113144,-0.0311594,-0.326441,-0.344948,0.0449908,-0.276742,-0.64394,-0.0890402,-1.49709,0.0875103,424.851,0.1,0.318991,0.401037,0.162291,0.110623,inf,inf,inf,inf,1,1,1,1,2,0,2,1,3,1,1,1
27394320,15351402,34.0356236,108.7574244,0.182419,-0.0075384,-0.0195533,-0.0767876,0.0698566,0.0,0.00908891,-0.0392964,0.0125821,-0.0308253,-0.326441,-0.344948,0.0449908,0.334985,-1.37749,-0.0358641,-1.49642,0.0875103,424.851,0.1,0.328657,0.403013,0.168791,0.111866,inf,inf,inf,inf,1,1,1,1,2,0,2,1,3,1,1,1
27493670,15351402,34.0356236,108.7574244,0.182917,-0.0109158,-0.0245472,-0.0767876,0.0698566,0.0,0.00486137,-0.0340647,0.0121708,-0.0329596,-0.326441,-0.344948,0.0449908,0.881274,0.156333,-0.15944,-1.49646,0.0875103,424.851,0.1,0.318077,0.399797,0.161454,0.109817,inf,inf,inf,inf,1,1,1,1,2,0,2,1,3,1,1,1
27592965,15351402,34.0356236,108.7574244,0.182974,-0.0146606,-0.028581,-0.0767876,0.0698566,0.0,-0.00260693,-0.0350317,0.011763,-0.033874,-0.326441,-0.344948,0.0449908,-0.761096,0.467136,0.308132,-1.49549,0.0875103,424.851,0.1,0.327749,0.401753,0.167835,0.111033,inf,inf,inf,inf,1,1,1,1,2,0,2,1,3,1,1,1
27692290,15351402,34.0356236,108.7574244,0.186601,-0.0176833,-0.0295717,-0.0767876,0.0698566,0.0,0.00413173,-0.0349905,0.00885813,-0.0342561,-0.326441,-0.344948,0.0449908,-0.604882,0.257724,0.168155,-1.49334,0.0875103,424.851,0.102254,0.317169,0.398594,0.160329,0.109006,inf,inf,inf,inf,1,1,1,1,2,0,2,1,3,1,1,1
27791811,15351402,34.0356236,108.7574244,0.189245,-0.0210803,-0.0313912,-0.0767876,0.0698566,0.0,0.00675781,-0.0374256,0.00745594,-0.0343278,-0.326441,-0.344948,0.0449908,0.396511,0.387783,-1.0782,-1.49272,0.0875103,424.851,0.103367,0.326831,0.403167,0.16659,0.11051,inf,inf,inf,inf,1,1,1,1,2,0,2,1,3,1,1,1
27890936,15351402,34.0356236,108.7574244,0.192786,-0.0222946,-0.0334468,-0.0767876,0.0698566,0.0,0.00450427,-0.0386149,0.0123043,-0.0285282,-0.326441,-0.344948,0.0449908,-0.882335,-1.1244,-0.701435,-1.49265,0.0875103,424.851,0.103208,0.316266,0.400001,0.159216,0.108512,inf,inf,inf,inf,1,1,1,1,2,0,2,1,3,1,1,1
27990258,15351402,34.0356236,108.7574244,0.19537,-0.0241738,-0.0344905,-0.0767876,0.0698566,0.0,0.00974807,-0.0294856,0.0151335,-0.0238595,-0.326441,-0.344948,0.0449908,0.110379,-0.372502,0.75808,-1.49162,0.0875103,424.851,0.105402,0.325917,0.401933,0.165445,0.109692,inf,inf,inf,inf,1,1,1,1,2,0,2,1,3,1,1,1
28084615,15351402,34.0356236,108.7574244,0.199425,-0.0257442,-0.0317405,-0.0767876,0.0698566,0.0,0.00525178,-0.0348493,0.0100197,-0.024005,-0.326441,-0.344948,0.0449908,-1.00979,1.00649,-0.222468,-1.49117,0.0875103,424.851,0.111788,0.314472,0.398117,0.157548,0.107557,inf,inf,inf,inf,1,1,1,1,2,0,2,1,3,1,1,1
28193871,15351402,34.0356236,108.7574244,0.203083,-0.0280081,-0.0295811,-0.0767876,0.0698566,0.0,0.00345574,-0.0316253,0.012381,-0.017511,-0.326441,-0.344948,0.0449908,-0.44293,0.913833,0.162373,-1.49123,0.0875103,424.851,0.108011,0.325035,0.400723,0.164287,0.108887,inf,inf,inf,inf,1,1,1,1,2,0,2,1,3,1,1,1
28293227,15351402,34.0356236,108.7574244,0.203481,-0.0292262,-0.0293716,-0.0767876,0.0698566,0.0,0.00588893,-0.0325128,0.0136349,-0.0147199,-0.326441,-0.344948,0.0449908,-1.70013,-0.527917,-0.169284,-1.4909,0.0875103,424.851,0.103107,0.314529,0.397665,0.157409,0.106997,inf,inf,inf,inf,1,1,1,1,2,0,2,1,3,1,1,1
28387552,15351402,34.0356236,108.7574244,0.203405,-0.0309627,-0.0301966,-0.0767876,0.0698566,0.0,0.0150094,-0.0243652,0.0126793,-0.0154846,-0.326441,-0.344948,0.0449908,1.87332,0.583458,-0.532213,-1.49218,0.0875103,424.851,0.101451,0.323169,0.401447,0.162865,0.108264,inf,inf,inf,inf,1,1,1,1,2,0,2,1,3,1,1,1
28496805,15351402,34.0356236,108.7574244,0.204411,-0.0328503,-0.0316117,-0.0767876,0.0698566,0.0,0.000958549,-0.026306,0.0146516,-0.0135873,-0.326441,-0.344948,0.0449908,-1.08571,-0.180602,0.277463,-1.49211,0.0875103,424.851,0.1,0.313688,0.396537,0.156428,0.106257,inf,inf,inf,inf,1,1,1,1,2,0,2,1,3,1,1,1
28586357,15351402,34.0356236,108.7574244,0.204809,-0.0347704,-0.0334678,-0.0767876,0.0698566,0.0,0.00400045,-0.0218094,0.00950815,-0.0194439,-0.326441,-0.344948,0.0449908,-0.324674,0.903755,0.13416,-1.4917,0.0875103,424.851,0.1,0.32232,0.40029,0.162053,0.107524,inf,inf,inf,inf,1,1,1,1,2,0,2,1,3,1,1,1
28695453,15351402,34.0356236,108.7574244,0.206704,-0.0350195,-0.0352304,-0.0767876,0.0698566,0.0,0.000357498,-0.0291677,0.0113011,-0.0180762,-0.326441,-0.344948,0.0449908,-1.65864,1.082,-2.36989,-1.49409,0.0875103,424.851,0.1,0.312869,0.398011,0.155655,0.105851,inf,inf,inf,inf,1,1,1,1,2,0,2,1,3,1,1,1
28784845,15351402,34.0356236,108.7574244,0.207747,-0.0356106,-0.0378382,-0.0767876,0.0698566,0.0,0.00586381,-0.0342068,0.0197815,-0.0111347,-0.326441,-0.344948,0.0449908,-0.502387,-0.619159,-1.07866,-1.49452,0.0875103,424.851,0.1,0.321488,0.399168,0.160965,0.106779,inf,inf,inf,inf,1,1,1,1,2,0,2,1,3,1,1,1
28894100,15351402,34.0356236,108.7574244,0.210976,-0.0361673,-0.0381891,-0.0767876,0.0698566,0.0,0.0153699,-0.0274135,0.0243335,-0.00557021,-0.326441,-0.344948,0.0449908,0.933976,-1.20655,0.980055,-1.49454,0.0875103,424.851,0.1,0.31207,0.396921,0.154772,0.105147,inf,inf,inf,inf,1,1,1,1,2,0,2,1,3,1,1,1
28993423,15351402,34.0356236,108.7574244,0.213376,-0.0373536,-0.0402747,-0.0767876,0.0698566,0.0,-0.00135575,-0.0255374,0.0145998,-0.0164575,-0.326441,-0.344948,0.0449908,-2.33724,0.859388,-1.711,-1.49465,0.0875103,424.851,0.1,0.321663,0.398757,0.160519,0.106217,inf,inf,inf,inf,1,1,1,1,2,0,2,1,3,1,1,1
29092747,15351402,34.0356236,108.7574244,0.216307,-0.0375804,-0.039968,-0.0767876,0.0698566,0.0,0.0154555,-0.0214334,0.0197771,-0.0100171,-0.326441,-0.344948,0.0449908,2.14198,-1.0136,0.763037,-1.49471,0.0875103,424.851,0.104111,0.311285,0.395846,0.154475,0.10445,inf,inf,inf,inf,1,1,1,1,2,0,2,1,3,1,1,1
29187105,15351402,34.0356236,108.7574244,0.21838,-0.0384696,-0.0408932,-0.0767876,0.0698566,0.0,0.0124717,-0.0276259,0.0282195,-0.00196522,-0.326441,-0.344948,0.0449908,1.84324,-1.55413,2.28407,-1.49452,0.0875103,424.851,0.105036,0.319881,0.399539,0.163861,0.105645,inf,inf,inf,inf,1,1,1,1,2,0,2,1,3,1,1,1
29286435,15351402,34.0356236,108.7574244,0.219547,-0.0387566,-0.039046,-0.0767876,0.0698566,0.0,0.0100301,-0.019013,0.0300061,0.00221867,-0.326441,-0.344948,0.0449908,0.21552,-0.562071,2.06191,-1.49571,0.0875103,424.851,0.108131,0.309596,0.396643,0.164466,0.103903,inf,inf,inf,inf,1,1,1,1,2,0,2,1,3,1,1,1
29395796,15351402,34.0356236,108.7574244,0.220866,-0.0394467,-0.0386793,-0.0767876,0.0698566,0.0,0.00694763,-0.0188123,0.0270225,-0.000236203,-0.326441,-0.344948,0.0449908,1.84285,-0.0747951,1.20198,-1.49612,0.0875103,424.851,0.107764,0.300991,0.39453,0.167123,0.102381,inf,inf,inf,inf,1,1,1,1,2,0,2,1,3,1,1,1
29485076,15351402,34.0356236,108.7574244,0.22405,-0.0380381,-0.0378631,-0.0767876,0.0698566,0.0,0.000970269,-0.0210906,0.0237106,-0.00274574,-0.326441,-0.344948,0.0449908,-4.25459,-0.416466,-0.550966,-1.49657,0.0875103,424.851,0.106948,0.308947,0.395594,0.184083,0.103278,inf,inf,inf,inf,1,1,1,1,2,0,2,1,3,1,1,1
29594330,15351402,34.0356236,108.7574244,0.227362,-0.0370008,-0.039957,-0.0767876,0.0698566,0.0,0.00435285,-0.0169264,0.025709,-0.00313971,-0.326441,-0.344948,0.0449908,-1.45902,-0.0312715,-0.594187,-1.49685,0.0875103,424.851,0.109042,0.319812,0.398049,0.20711,0.104476,inf,inf,inf,inf,1,1,1,1,2,0,2,1,3,1,1,1
29693653,15351402,34.0356236,108.7574244,0.229994,-0.0357312,-0.04321,-0.0767876,0.0698566,0.0,0.0164784,-0.00310616,0.0218226,-0.010286,-0.326441,-0.344948,0.0449908,1.4541,0.860973,-0.786154,-1.49707,0.0875103,424.851,0.112295,0.30922,0.395203,0.204696,0.102793,inf,inf,inf,inf,1,1,1,1,2,0,2,1,3,1,1,1
29792985,15351402,34.0356236,108.7574244,0.232512,-0.0351168,-0.0466195,-0.0767876,0.0698566,0.0,0.0110297,-0.00531505,0.0295029,-0.00565123,-0.326441,-0.344948,0.0449908,-1.72995,-1.24282,1.45682,-1.49761,0.0875103,424.851,0.115705,0.319467,0.396937,0.226402,0.103809,inf,inf,inf,inf,1,1,1,1,2,0,2,1,3,1,1,1
29892316,15351402,34.0356236,108.7574244,0.233119,-0.033007,-0.048,-0.0767876,0.0698566,0.0,0.0242651,-0.0056115,0.0264728,-0.0094031,-0.326441,-0.344948,0.0449908,2.06376,1.4127,-1.04568,-1.49713,0.0875103,424.851,0.117085,0.30863,0.396658,0.218043,0.102448,inf,inf,inf,inf,1,1,1,1,2,0,2,1,3,1,1,1
29991624,15351402,34.0356236,108.7574244,0.233524,-0.0310699,-0.0482814,-0.0767876,0.0698566,0.0,0.0234288,0.00418853,0.0237634,-0.0116963,-0.326441,-0.344948,0.0449908,0.262029,-0.331106,-0.405853,-1.49772,0.0875103,424.851,0.117366,0.319212,0.398404,0.238937,0.103456,inf,inf,inf,inf,1,1,1,1,2,0,2,1,3,1,1,1
30090950,15351402,34.0356236,108.7574244,0.231836,-0.0300941,-0.0478916,-0.0767876,0.0698566,0.0,0.00392493,-0.000291658,0.0305089,-0.0039599,-0.326441,-0.344948,0.0449908,-2.07294,-1.71976,0.917777,-1.49822,0.0875103,424.851,0.116977,0.308098,0.39559,0.225239,0.101824,inf,inf,inf,inf,1,1,1,1,2,0,2,1,3,1,1,1
30190334,15351402,34.0356236,108.7574244,0.230124,-0.0292808,-0.0467617,-0.0767876,0.0698566,0.0,0.0114818,0.0053413,0.0247253,-0.00814133,-0.326441,-0.344948,0.0449908,-0.607335,0.373214,-0.751026,-1.49798,0.0875103,424.851,0.115847,0.318973,0.397299,0.244652,0.102816,inf,inf,inf,inf,1,1,1,1,2,0,2,1,3,1,1,1
30294559,15351402,34.0356236,108.7574244,0.229778,-0.0307624,-0.0409062,-0.0767876,0.0698566,0.0,-0.0008872,0.00389842,0.0273959,0.000344433,-0.326441,-0.344948,0.0449908,-1.59857,1.50183,-1.14092,-1.49874,0.0875103,424.851,0.109991,0.307636,0.394527,0.227385,0.101211,inf,inf,inf,inf,1,1,1,1,2,0,2,1,3,1,1,1
30393882,15351402,34.0356236,108.7574244,0.229459,-0.0323846,-0.0351368,-0.0767876,0.0698566,0.0,0.00602903,-0.0020217,0.0359246,0.0139116,-0.326441,-0.344948,0.0449908,-1.73578,-1.53642,1.0145,-1.49916,0.0875103,424.851,0.110461,0.318731,0.396215,0.245111,0.102204,inf,inf,inf,inf,1,1,1,1,2,0,2,1,3,1,1,1
30493206,15351402,34.0356236,108.7574244,0.229206,-0.0346506,-0.0272822,-0.0767876,0.0698566,0.0,0.0136315,0.0025032,0.0364434,0.0208296,-0.326441,-0.344948,0.0449908,2.11493,0.922131,0.900755,-1.49918,0.0875103,424.851,0.110552,0.307185,0.393483,0.226044,0.100632,inf,inf,inf,inf,1,1,1,1,2,0,2,1,3,1,1,1
30592529,15351402,34.0356236,108.7574244,0.229567,-0.0368956,-0.0209549,-0.0767876,0.0698566,0.0,0.0121721,-0.00552283,0.0328665,0.0212297,-0.326441,-0.344948,0.0449908,1.18195,-0.100349,-0.980139,-1.4995,0.0875103,424.851,0.105677,0.318428,0.397695,0.242002,0.101882,inf,inf,inf,inf,1,1,1,1,2,0,2,1,3,1,1,1
30691857,15351402,34.0356236,108.7574244,0.231003,-0.0357497,-0.0156494,-0.0767876,0.0698566,0.0,0.0137232,-0.00184695,0.0429151,0.0338055,-0.326441,-0.344948,0.0449908,-2.08441,-1.56695,1.57311,-1.49953,0.0875103,424.851,0.10371,0.306613,0.394952,0.222047,0.100316,inf,inf,inf,inf,1,1,1,1,2,0,2,1,3,1,1,1
30796142,15351402,34.0356236,108.7574244,0.232645,-0.0345194,-0.0102726,-0.0767876,0.0698566,0.0,0.00977708,0.00411622,0.0406909,0.0335505,-0.326441,-0.344948,0.0449908,-0.471726,-0.290791,0.144202,-1.50021,0.0875103,424.851,0.102389,0.317892,0.396607,0.236413,0.101268,inf,inf,inf,inf,1,1,1,1,2,0,2,1,3,1,1,1
30885533,15351402,34.0356236,108.7574244,0.23301,-0.0340127,-0.00373262,-0.0767876,0.0698566,0.0,0.0159187,0.0113605,0.0330417,0.0292503,-0.326441,-0.344948,0.0449908,1.41217,1.63885,-1.89324,-1.49973,0.0875103,424.851,0.105649,0.305128,0.393233,0.216095,0.0995857,inf,inf,inf,inf,1,1,1,1,2,0,2,1,3,1,1,1
30994893,15351402,34.0356236,108.7574244,0.233636,-0.033586,0.00336396,-0.0767876,0.0698566,0.0,0.0110342,0.00162754,0.0426278,0.0415084,-0.326441,-0.344948,0.0449908,-1.21347,-0.659732,-0.0388863,-1.50049,0.0875103,424.851,0.102675,0.317489,0.395523,0.230368,0.100689,inf,inf,inf,inf,1,1,1,1,2,0,2,1,3,1,1,1
31089146,15351402,34.0356236,108.7574244,0.233301,-0.0323348,0.00872261,-0.0767876,0.0698566,0.0,0.0149234,0.0104575,0.0443896,0.044435,-0.326441,-0.344948,0.0449908,1.0046,0.415119,1.15148,-1.50033,0.0875103,424.851,0.100374,0.304671,0.394686,0.210928,0.0993144,inf,inf,inf,inf,1,1,1,1,2,0,2,1,3,1,1,1
31188470,15351402,34.0356236,108.7574244,0.233087,-0.0312197,0.01442,-0.0767876,0.0698566,0.0,0.0139228,0.00947798,0.0430035,0.0440145,-0.326441,-0.344948,0.0449908,1.40454,2.32967,-0.902832,-1.50043,0.0875103,424.851,0.1,0.315832,0.396291,0.222688,0.100242,inf,inf,inf,inf,1,1,1,1,2,0,2,1,3,1,1,1
31287953,15351402,34.0356236,108.7574244,0.233401,-0.0286367,0.0194761,-0.0767876,0.0698566,0.0,0.00633749,0.0122166,0.0460723,0.047287,-0.326441,-0.344948,0.0449908,-1.08733,-1.84948,0.321386,-1.50068,0.0875103,424.851,0.1,0.304193,0.393611,0.205509,0.0987653,inf,inf,inf,inf,1,1,1,1,2,0,2,1,3,1,1,1
31387116,15351402,34.0356236,108.7574244,0.233531,-0.0263778,0.0229381,-0.0767876,0.0698566,0.0,0.00550762,0.00922463,0.0488354,0.0485913,-0.326441,-0.344948,0.0449908,-0.686844,-1.8872,1.4139,-1.50126,0.0875103,424.851,0.1,0.315326,0.39519,0.216226,0.0996794,inf,inf,inf,inf,1,1,1,1,2,0,2,1,3,1,1,1
31496371,15351402,34.0356236,108.7574244,0.23401,-0.0247371,0.0271699,-0.0767876,0.0698566,0.0,0.00612824,0.00521648,0.0471577,0.0457917,-0.326441,-0.344948,0.0449908,-0.612614,-0.66324,0.117775,-1.50113,0.0875103,424.851,0.1,0.304911,0.39321,0.201339,0.0983738,inf,inf,inf,inf,1,1,1,1,2,0,2,1,3,1,1,1
31585762,15351402,34.0356236,108.7574244,0.234457,-0.0236899,0.0293491,-0.0767876,0.0698566,0.0,0.00947034,0.0136682,0.0490824,0.0455571,-0.326441,-0.344948,0.0449908,0.277896,0.336679,0.634938,-1.50173,0.0875103,424.851,0.1,0.31496,0.394118,0.21019,0.0991297,inf,inf,inf,inf,1,1,1,1,2,0,2,1,3,1,1,1
31695020,15351402,34.0356236,108.7574244,0.23419,-0.0248163,0.0310014,-0.0767876,0.0698566,0.0,0.00911624,0.00706188,0.0526165,0.0456377,-0.326441,-0.344948,0.0449908,1.68718,0.209779,1.27044,-1.50128,0.0875103,424.851,0.1,0.304407,0.392165,0.195914,0.0978392,inf,inf,inf,inf,1,1,1,1,2,0,2,1,3,1,1,1
31794357,15351402,34.0356236,108.7574244,0.23388,-0.0259717,0.031455,-0.0767876,0.0698566,0.0,0.00699185,0.00779024,0.0483209,0.0375479,-0.326441,-0.344948,0.0449908,-0.338781,-0.64925,-1.39258,-1.50141,0.0875103,424.851,0.1,0.294015,0.392088,0.182603,0.0966904,inf,inf,inf,inf,1,1,1,1,2,0,2,1,3,1,1,1
31893665,15351402,34.0356236,108.7574244,0.232757,-0.0286274,0.0303148,-0.0767876,0.0698566,0.0,0.00684802,0.0051556,0.046025,0.0303915,-0.326441,-0.344948,0.0449908,-0.302724,-0.703034,0.696489,-1.50112,0.0875103,424.851,0.1,0.304001,0.393612,0.19094,0.0976006,inf,inf,inf,inf,1,1,1,1,2,0,2,1,3,1,1,1
31992992,15351402,34.0356236,108.7574244,0.231773,-0.0308212,0.0297027,-0.0767876,0.0698566,0.0,0.00230081,0.0020757,0.0477509,0.0284019,-0.326441,-0.344948,0.0449908,0.164567,1.83577,-0.479715,-1.50239,0.0875103,424.851,0.1,0.315074,0.395161,0.199331,0.0984874,inf,inf,inf,inf,1,1,1,1,2,0,2,1,3,1,1,1
32092458,15351402,34.0356236,108.7574244,0.230308,-0.0320129,0.0296702,-0.0767876,0.0698566,0.0,0.00914513,-0.00787818,0.0510356,0.0289343,-0.326441,-0.344948,0.0449908,0.620613,-0.325236,1.24045,-1.50303,0.0875103,424.851,0.1,0.303341,0.392564,0.185771,0.0970797,inf,inf,inf,inf,1,1,1,1,2,0,2,1,3,1,1,1
32186669,15351402,34.0356236,108.7574244,0.229009,-0.0326596,0.0301971,-0.0767876,0.0698566,0.0,0.00215695,0.00242019,0.0467381,0.0228846,-0.326441,-0.344948,0.0449908,0.517431,0.150738,1.1384,-1.50319,0.0875103,424.851,0.1,0.313146,0.393425,0.192791,0.0978096,inf,inf,inf,inf,1,1,1,1,2,0,2,1,3,1,1,1
32285992,15351402,34.0356236,108.7574244,0.228679,-0.0341888,0.0331915,-0.0767876,0.0698566,0.0,-0.000664034,-0.0023674,0.0454649,0.0224228,-0.326441,-0.344948,0.0449908,1.03429,0.294083,-0.371603,-1.50295,0.0875103,424.851,0.1,0.301756,0.390892,0.180387,0.0964533,inf,inf,inf,inf,1,1,1,1,2,0,2,1,3,1,1,1
32395248,15351402,34.0356236,108.7574244,0.228149,-0.0350231,0.0367794,-0.0767876,0.0698566,0.0,0.0106476,-0.00142006,0.0467441,0.0248219,-0.326441,-0.344948,0.0449908,2.19143,1.32614,0.0706657,-1.50268,0.0875103,424.851,0.1,0.313633,0.393033,0.188415,0.0974575,inf,inf,inf,inf,1,1,1,1,2,0,2,1,3,1,1,1
32494572,15351402,34.0356236,108.7574244,0.227269,-0.0337483,0.0392582,-0.0767876,0.0698566,0.0,-0.00395961,-0.0122692,0.056698,0.0346199,-0.326441,-0.344948,0.0449908,-0.236388,-2.76386,1.89905,-1.50254,0.0875103,424.851,0.1,0.302235,0.392983,0.176767,0.0963818,inf,inf,inf,inf,1,1,1,1,2,0,2,1,3,1,1,1
32593895,15351402,34.0356236,108.7574244,0.226233,-0.0323018,0.0419388,-0.0767876,0.0698566,0.0,-0.00716875,0.00333677,0.0486253,0.0266952,-0.326441,-0.344948,0.0449908,-0.409256,1.43942,-1.42938,-1.50294,0.0875103,424.851,0.1,0.312972,0.394495,0.183635,0.0972373,inf,inf,inf,inf,1,1,1,1,2,0,2,1,3,1,1,1
32693218,15351402,34.0356236,108.7574244,0.225423,-0.0312829,0.0488498,-0.0767876,0.0698566,0.0,-0.00132921,-0.00467282,0.0542131,0.0364178,-0.326441,-0.344948,0.0449908,-0.609992,-1.71475,1.27765,-1.5034,0.0875103,424.851,0.100735,0.301682,0.391969,0.172699,0.0959055,inf,inf,inf,inf,1,1,1,1,2,0,2,1,3,1,1,1
32792542,15351402,34.0356236,108.7574244,0.224848,-0.030783,0.0552024,-0.0767876,0.0698566,0.0,0.00427717,0.0167235,0.0457933,0.0309469,-0.326441,-0.344948,0.0449908,2.87796,3.90465,-2.37175,-1.50299,0.0875103,424.851,0.1,0.312307,0.39344,0.179185,0.0967546,inf,inf,inf,inf,1,1,1,1,2,0,2,1,3,1,1,1
32892031,15351402,34.0356236,108.7574244,0.22533,-0.0296692,0.0629658,-0.0767876,0.0698566,0.0,0.000956217,-0.00430525,0.056983,0.0460916,-0.326441,-0.344948,0.0449908,-0.760798,-2.1844,1.87496,-1.50316,0.0875103,424.851,0.100492,0.301093,0.390934,0.168895,0.0954358,inf,inf,inf,inf,1,1,1,1,2,0,2,1,3,1,1,1
32986222,15351402,34.0356236,108.7574244,0.225568,-0.0289708,0.0692681,-0.0767876,0.0698566,0.0,-0.00558799,0.0006619,0.0591458,0.0502654,-0.326441,-0.344948,0.0449908,-1.5569,-1.92041,1.02994,-1.50343,0.0875103,424.851,0.1,0.310517,0.394223,0.17444,0.0964084,inf,inf,inf,inf,1,1,1,1,2,0,2,1,3,1,1,1
33095478,15351402,34.0356236,108.7574244,0.226346,-0.0278781,0.0754156,-0.0767876,0.0698566,0.0,0.0056694,0.00689519,0.0514252,0.0433759,-0.326441,-0.344948,0.0449908,2.41431,1.6854,-1.15154,-1.50301,0.0875103,424.851,0.1,0.300502,0.392352,0.165345,0.0952556,inf,inf,inf,inf,1,1,1,1,2,0,2,1,3,1,1,1
33194802,15351402,34.0356236,108.7574244,0.226961,-0.0270802,0.0800464,-0.0767876,0.0698566,0.0,-0.000978806,-0.00237371,0.0589834,0.0506742,-0.326441,-0.344948,0.0449908,0.240996,-1.77221,2.31943,-1.50341,0.0875103,424.851,0.1,0.310906,0.393812,0.17123,0.0960916,inf,inf,inf,inf,1,1,1,1,2,0,2,1,3,1,1,1
33294125,15351402,34.0356236,108.7574244,0.229725,-0.0249731,0.0844772,-0.0767876,0.0698566,0.0,0.00172356,0.00196827,0.0558059,0.0472004,-0.326441,-0.344948,0.0449908,1.66891,0.181453,0.475333,-1.50399,0.0875103,424.851,0.1,0.299908,0.391336,0.162063,0.0948106,inf,inf,inf,inf,1,1,1,1,2,0,2,1,3,1,1,1
33393461,15351402,34.0356236,108.7574244,0.232101,-0.0237796,0.0886738,-0.0767876,0.0698566,0.0,0.00842605,0.00911265,0.0533211,0.0440362,-0.326441,-0.344948,0.0449908,0.624662,0.607298,-1.51765,-1.50365,0.0875103,424.851,0.1,0.3102,0.392773,0.167705,0.0956382,inf,inf,inf,inf,1,1,1,1,2,0,2,1,3,1,1,1
33487806,15351402,34.0356236,108.7574244,0.234968,-0.0230631,0.0939307,-0.0767876,0.0698566,0.0,0.00212385,-0.00841826,0.0610481,0.0524202,-0.326441,-0.344948,0.0449908,0.161062,-0.919668,0.850781,-1.50454,0.0875103,424.851,0.1,0.298329,0.389703,0.158484,0.0942422,inf,inf,inf,inf,1,1,1,1,2,0,2,1,3,1,1,1
33587129,15351402,34.0356236,108.7574244,0.237996,-0.0226708,0.0986995,-0.0767876,0.0698566,0.0,0.000451598,-0.000362922,0.0590559,0.0502009,-0.326441,-0.344948,0.0449908,-1.77946,-1.53736,0.341197,-1.50413,0.0875103,424.851,0.1,0.308439,0.393574,0.163913,0.0953295,inf,inf,inf,inf,1,1,1,1,2,0,2,1,3,1,1,1
33686501,15351402,34.0356236,108.7574244,0.240714,-0.0208982,0.102904,-0.0767876,0.0698566,0.0,-0.000523395,0.00587694,0.0529812,0.0433541,-0.326441,-0.344948,0.0449908,-1.78949,0.146906,-2.51037,-1.50257,0.0875103,424.851,0.1,0.297762,0.391138,0.155718,0.0940884,inf,inf,inf,inf,1,1,1,1,2,0,2,1,3,1,1,1
33795715,15351402,34.0356236,108.7574244,0.243429,-0.0195387,0.105332,-0.0767876,0.0698566,0.0,0.0129079,-0.0100611,0.0629316,0.0502528,-0.326441,-0.344948,0.0449908,1.61665,-0.786387,1.21443,-1.50319,0.0875103,424.851,0.1,0.308809,0.393193,0.161505,0.0950436,inf,inf,inf,inf,1,1,1,1,2,0,2,1,3,1,1,1
33895031,15351402,34.0356236,108.7574244,0.24904,-0.0180907,0.110559,-0.0767876,0.0698566,0.0,0.00554843,0.00456246,0.0594026,0.0471273,-0.326441,-0.344948,0.0449908,-1.02555,-0.46833,-0.421807,-1.50056,0.0875103,424.851,0.1,0.298112,0.390776,0.153668,0.0938097,inf,inf,inf,inf,1,1,1,1,2,0,2,1,3,1,1,1
33984619,15351402,34.0356236,108.7574244,0.253404,-0.0172428,0.113788,-0.0767876,0.0698566,0.0,0.0104158,0.000914321,0.0678878,0.0542213,-0.326441,-0.344948,0.0449908,-2.36053,-0.95464,0.714863,-1.4995,0.0875103,424.851,0.1,0.307056,0.391549,0.158271,0.0944885,inf,inf,inf,inf,1,1,1,1,2,0,2,1,3,1,1,1
34088712,15351402,34.0356236,108.7574244,0.257341,-0.0188077,0.117875,-0.0767876,0.0698566,0.0,0.0181662,-0.00796745,0.0707078,0.0557057,-0.326441,-0.344948,0.0449908,0.208573,-2.47408,1.89005,-1.49979,0.0875103,424.851,0.1,0.296532,0.389174,0.150822,0.0932755,inf,inf,inf,inf,1,1,1,1,2,0,2,1,3,1,1,0
34188036,15351402,34.0356236,108.7574244,0.260911,-0.0207442,0.12055,-0.0767876,0.0698566,0.0,0.0227426,0.00557556,0.0588288,0.0413984,-0.326441,-0.344948,0.0449908,-0.150578,1.47647,-1.67577,-1.5004,0.0875103,424.851,0.1,0.306336,0.39055,0.155844,0.0940869,inf,inf,inf,inf,1,1,1,1,2,0,2,1,3,1,1,0
34287360,15351402,34.0356236,108.7574244,0.263469,-0.0199905,0.123456,-0.0767876,0.0698566,0.0,0.00499521,0.00427453,0.061889,0.0425424,-0.326441,-0.344948,0.0449908,-3.39332,-0.686347,-0.828932,-1.49989,0.0875103,424.851,0.1,0.296002,0.388218,0.148837,0.0929033,inf,inf,inf,inf,1,1,1,1,2,0,2,1,3,1,1,0
34386683,15351402,34.0356236,108.7574244,0.265775,-0.0193828,0.125198,-0.0767876,0.0698566,0.0,0.0303964,-0.00105299,0.0770975,0.0548237,-0.326441,-0.344948,0.0449908,5.66664,-1.55779,2.93826,-1.49795,0.0875103,424.851,0.1,0.305721,0.392017,0.153727,0.0939587,inf,inf,inf,inf,1,1,1,1,2,0,2,1,3,1,1,0
34496003,15351402,34.0356236,108.7574244,0.268739,-0.018344,0.129111,-0.0767876,0.0698566,0.0,0.0196988,0.00325612,0.0640469,0.0407202,-0.326441,-0.344948,0.0449908,-1.96204,0.384361,-1.37084,-1.49924,0.0875103,424.851,0.1,0.296292,0.387878,0.147377,0.092647,inf,inf,inf,inf,1,1,1,1,2,0,2,1,3,1,1,0
34595266,15351402,34.0356236,108.7574244,0.270461,-0.018252,0.130641,-0.0767876,0.0698566,0.0,0.00933576,-0.00569513,0.0729614,0.0464753,-0.326441,-0.344948,0.0449908,0.361098,-0.534695,0.401973,-1.502,0.0875103,424.851,0.1,0.305976,0.391659,0.152205,0.0937022,inf,inf,inf,inf,1,1,1,1,2,0,2,1,3,1,1,0
34694585,15351402,34.0356236,108.7574244,0.271581,-0.0159551,0.129762,-0.0767876,0.0698566,0.0,0.00162369,0.00376722,0.06891,0.0375449,-0.326441,-0.344948,0.0449908,-3.43186,-0.608057,-0.091749,-1.50307,0.0875103,424.851,0.1,0.295631,0.389323,0.145635,0.0925279,inf,inf,inf,inf,1,1,1,1,2,0,2,1,3,1,1,0
34793913,15351402,34.0356236,108.7574244,0.272033,-0.0123846,0.127042,-0.0767876,0.0698566,0.0,0.0125022,0.0288637,0.0606149,0.0238,-0.326441,-0.344948,0.0449908,-0.662738,-0.691875,1.2098,-1.50447,0.0875103,424.851,0.1,0.305222,0.390679,0.150397,0.0933202,inf,inf,inf,inf,1,1,1,1,2,0,2,1,3,1,1,0
34893279,15351402,34.0356236,108.7574244,0.271525,-0.00932135,0.120513,-0.0767876,0.0698566,0.0,-0.00341482,0.027399,0.0493646,0.00442768,-0.326441,-0.344948,0.0449908,-1.0154,-1.57376,1.32199,-1.5106,0.0875103,424.851,0.1,0.294963,0.388371,0.144111,0.0921699,inf,inf,inf,inf,1,1,1,1,2,0,2,1,3,1,1,0
34992556,15351402,34.0356236,108.7574244,0.271508,-0.00529845,0.114117,-0.0767876,0.0698566,0.0,0.00160812,0.0459949,0.0438929,-0.00741539,-0.326441,-0.344948,0.0449908,-0.754732,1.08172,-1.19644,-1.52311,0.0875103,424.851,0.102386,0.304468,0.389708,0.148821,0.0929488,inf,inf,inf,inf,1,1,1,1,2,0,2,1,3,1,1,0
35091914,15351402,34.0356236,108.7574244,0.272044,0.00092797,0.107076,-0.0767876,0.0698566,0.0,0.0118793,0.0718185,0.0562801,-0.00129785,-0.326441,-0.344948,0.0449908,1.46492,1.07684,0.485583,-1.53712,0.0875103,424.851,0.109427,0.294322,0.387427,0.142779,0.091811,inf,inf,inf,inf,1,1,1,1,2,0,2,1,3,1,1,0
35191207,15351402,34.0356236,108.7574244,0.272586,0.00991168,0.103205,-0.0767876,0.0698566,0.0,0.0107935,0.0960435,0.0589529,-0.00112189,-0.326441,-0.344948,0.0449908,0.491196,0.625293,2.40822,-1.55409,0.0875103,424.851,0.113297,0.284965,0.387578,0.137113,0.0909258,inf,inf,inf,inf,1,1,1,1,2,0,2,1,3,1,1,0
35290535,15351402,34.0356236,108.7574244,0.273569,0.0218869,0.101951,-0.0767876,0.0698566,0.0,0.019301,0.113171,0.0660641,0.00554796,-0.326441,-0.344948,0.0449908,-1.1145,0.190967,-1.07899,-1.57507,0.0875103,424.851,0.114552,0.293767,0.388873,0.141733,0.0917196,inf,inf,inf,inf,1,1,1,1,2,0,2,1,3,1,1,0
35394816,15351402,34.0356236,108.7574244,0.276271,0.0364921,0.10457,-0.0767876,0.0698566,0.0,0.0328076,0.138033,0.123452,0.06293,-0.326441,-0.344948,0.0449908,2.37993,-0.326413,1.86376,-1.58924,0.0875103,424.851,0.111932,0.303125,0.390195,0.146391,0.0924817,inf,inf,inf,inf,1,1,1,1,2,0,2,1,3,1,1,0
35494141,15351402,34.0356236,108.7574244,0.275907,0.0499924,0.107963,-0.0767876,0.0698566,0.0,0.0105513,0.152048,0.0557855,-0.00421193,-0.326441,-0.344948,0.0449908,0.0372759,-0.402435,-0.146974,-1.60752,0.0875103,424.851,0.10854,0.293103,0.387926,0.140667,0.0913625,inf,inf,inf,inf,1,1,1,1,2,0,2,1,3,1,1,0
35593621,15351402,34.0356236,108.7574244,0.278379,0.0571042,0.106355,-0.0767876,0.0698566,0.0,0.050852,0.0464087,0.000896843,-0.0585263,-0.326441,-0.344948,0.0449908,2.72046,0.218158,-2.66412,-1.63343,0.0875103,424.851,0.110148,0.302389,0.389237,0.145307,0.0921358,inf,inf,inf,inf,1,1,1,1,2,0,2,1,3,1,1,0
35692788,15351402,34.0356236,108.7574244,0.282568,0.0553046,0.100058,-0.0767876,0.0698566,0.0,0.058431,-0.0228927,0.00274048,-0.0572627,-0.326441,-0.344948,0.0449908,7.16402,-0.244089,0.372611,-1.64525,0.0875103,424.851,0.116445,0.292439,0.387002,0.140028,0.0910341,inf,inf,inf,inf,1,1,1,1,2,0,2,1,3,1,1,0
35792110,15351402,34.0356236,108.7574244,0.285736,0.0478732,0.0942811,-0.0767876,0.0698566,0.0,0.0362315,-0.0790015,0.0358135,-0.0253568,-0.326441,-0.344948,0.0449908,-1.0861,-0.915895,0.427783,-1.64206,0.0875103,424.851,0.122222,0.283228,0.38484,0.134936,0.0899484,inf,inf,inf,inf,1,1,1,1,2,0,2,1,3,1,1,0
35891433,15351402,34.0356236,108.7574244,0.290456,0.0319532,0.0917098,-0.0767876,0.0698566,0.0,0.0628076,-0.14651,0.0576298,-0.00445063,-0.326441,-0.344948,0.0449908,-0.0120382,0.115626,-1.82676,-1.62685,0.0875103,424.851,0.124793,0.291864,0.386088,0.139585,0.0907315,inf,inf,inf,inf,1,1,1,1,2,0,2,1,3,1,1,0
35990757,15351402,34.0356236,108.7574244,0.295581,0.00985103,0.0931299,-0.0767876,0.0698566,0.0,0.0454537,-0.220956,0.109746,0.0476939,-0.326441,-0.344948,0.0449908,-0.275532,-0.971977,1.20918,-1.60332,0.0875103,424.851,0.123373,0.301042,0.389758,0.144279,0.0917405,inf,inf,inf,inf,1,1,1,1,2,0,2,1,3,1,1,0
36090080,15351402,34.0356236,108.7574244,0.299368,-0.0156696,0.0962913,-0.0767876,0.0698566,0.0,0.0811996,-0.228229,0.0464064,-0.0155474,-0.326441,-0.344948,0.0449908,3.87805,2.75315,-3.51754,-1.58486,0.0875103,424.851,0.120211,0.291191,0.387531,0.138953,0.0906626,inf,inf,inf,inf,1,1,1,1,2,0,2,1,3,1,1,0
36194370,15351402,34.0356236,108.7574244,0.300899,-0.0404601,0.0900268,-0.0767876,0.0698566,0.0,0.000621813,-0.257487,-0.0663655,-0.126484,-0.326441,-0.344948,0.0449908,-3.18356,0.741801,-1.27717,-1.56128,0.0875103,424.851,0.126476,0.300312,0.388796,0.143606,0.0914218,inf,inf,inf,inf,1,1,1,1,2,0,2,1,3,1,1,0
36293694,15351402,34.0356236,108.7574244,0.300888,-0.0678591,0.0822112,-0.0767876,0.0698566,0.0,0.00936068,-0.318514,-0.0599379,-0.115145,-0.326441,-0.344948,0.0449908,0.555368,0.369349,-1.91707,-1.53809,0.0875103,424.851,0.134291,0.290523,0.386582,0.138988,0.0904038,inf,inf,inf,inf,1,1,1,1,2,0,2,1,3,1,1,0
36393208,15351402,34.0356236,108.7574244,0.300269,-0.101684,0.0758437,-0.0767876,0.0698566,0.0,0.0121497,-0.354126,-0.0665059,-0.116704,-0.326441,-0.344948,0.0449908,6.94721,3.11578,-0.523285,-1.51556,0.0875103,424.851,0.140659,0.299614,0.387832,0.144172,0.0911846,inf,inf,inf,inf,1,1,1,1,2,0,2,1,3,1,1,0
36487389,15351402,34.0356236,108.7574244,0.299879,-0.131061,0.062182,-0.0767876,0.0698566,0.0,-0.0242144,-0.394072,-0.11482,-0.165531,-0.326441,-0.344948,0.0449908,0.0228324,1.48617,-2.2682,-1.49767,0.0875103,424.851,0.154321,0.288989,0.387414,0.138514,0.0902348,inf,inf,inf,inf,1,1,1,1,2,0,2,1,3,1,1,0
36586698,15351402,34.0356236,108.7574244,0.300594,-0.165869,0.0439614,-0.0767876,0.0698566,0.0,0.00148334,-0.431091,-0.168846,-0.218166,-0.326441,-0.344948,0.0449908,1.78677,-0.487217,0.359236,-1.48385,0.0875103,424.851,0.172541,0.29799,0.38867,0.143698,0.0910109,inf,inf,inf,inf,1,1,1,1,2,0,2,1,3,1,1,0
36695954,15351402,34.0356236,108.7574244,0.297508,-0.20396,0.0196942,-0.0767876,0.0698566,0.0,-0.00837939,-0.424765,-0.235527,-0.282009,-0.326441,-0.344948,0.0449908,1.9966,-1.1536,0.587305,-1.46981,0.0875103,424.851,0.196808,0.289306,0.38709,0.139468,0.0901091,inf,inf,inf,inf,1,1,1,1,2,0,2,1,3,1,1,0
36795277,15351402,34.0356236,108.7574244,0.296347,-0.242417,-0.0154591,-0.0767876,0.0698566,0.0,-0.00920555,-0.461924,-0.349173,-0.396626,-0.326441,-0.344948,0.0449908,0.407884,-0.213786,0.0943362,-1.46019,0.0875103,424.851,0.231962,0.280271,0.384962,0.134741,0.0890744,inf,inf,inf,inf,1,1,1,1,2,0,2,1,3,1,1,0
36894601,15351402,34.0356236,108.7574244,0.304773,-0.280258,-0.063472,-0.0767876,0.0698566,0.0,0.00402114,-0.462411,-0.468113,-0.518103,-0.326441,-0.344948,0.0449908,2.47298,1.22463,-3.91184,-1.45507,0.0875103,424.851,0.279975,0.288759,0.386176,0.139907,0.089865,inf,inf,inf,inf,1,1,1,1,2,0,2,1,3,1,1,0
36993924,15351402,34.0356236,108.7574244,0.31043,-0.321856,-0.125215,-0.0767876,0.0698566,0.0,-0.0131062,-0.482289,-0.571981,-0.626906,-0.326441,-0.344948,0.0449908,-2.8321,0.757688,-1.78873,-1.44975,0.0875103,424.851,0.341718,0.297813,0.387418,0.145453,0.0906354,inf,inf,inf,inf,1,1,1,1,2,0,2,1,3,1,1,0
37093249,15351402,34.0356236,108.7574244,0.313411,-0.371001,-0.205376,-0.0767876,0.0698566,0.0,0.0052179,-0.491426,-0.696067,-0.762408,-0.326441,-0.344948,0.0449908,2.98492,1.81581,-2.22973,-1.44408,0.0875103,424.851,0.421879,0.288103,0.385274,0.140831,0.0896444,inf,inf,inf,inf,1,1,1,1,2,0,2,1,3,1,1,0
37192710,15351402,34.0356236,108.7574244,0.315117,-0.421493,-0.298079,-0.0767876,0.0698566,0.0,-0.016235,-0.499207,-0.804171,-0.881581,-0.326441,-0.344948,0.0449908,-1.78544,-0.138109,-1.34863,-1.43748,0.0875103,424.851,0.514582,0.297163,0.386495,0.146432,0.0904325,inf,inf,inf,inf,1,1,1,1,2,0,2,1,3,1,1,0
37286928,15351402,34.0356236,108.7574244,0.314104,-0.458955,-0.400578,-0.0767876,0.0698566,0.0,0.00392183,-0.478667,-0.915588,-1.00686,-0.326441,-0.344948,0.0449908,3.09365,2.06743,-2.66803,-1.43174,0.0875103,424.851,0.617081,0.286601,0.38613,0.141235,0.0895565,inf,inf,inf,inf,1,1,1,1,2,0,2,1,3,1,1,0
37396184,15351402,34.0356236,108.7574244,0.313021,-0.502002,-0.53188,-0.0767876,0.0698566,0.0,-0.0161985,-0.461047,-1.0242,-1.12931,-0.326441,-0.344948,0.0449908,-2.20304,-1.20254,0.389468,-1.42778,0.0875103,424.851,0.748383,0.29655,0.387958,0.147787,0.0904961,inf,inf,inf,inf,1,1,1,1,2,0,2,1,3,1,1,0
37495507,15351402,34.0356236,108.7574244,0.296733,-0.533284,-0.670214,-0.0767876,0.0698566,0.0,-0.0183796,-0.424276,-1.11242,-1.23723,-0.326441,-0.344948,0.0449908,0.034783,0.21303,-0.584467,-1.4259,0.0875103,424.851,0.886717,0.286875,0.385827,0.142989,0.0895213,inf,inf,inf,inf,1,1,1,1,2,0,2,1,3,1,1,0
37594831,15351402,34.0356236,108.7574244,0.283392,-0.56432,-0.812877,-0.0767876,0.0698566,0.0,-0.0271828,-0.387194,-1.15449,-1.29468,-0.326441,-0.344948,0.0449908,-4.13007,-0.412211,0.645756,-1.42505,0.0875103,424.851,1.02938,0.295974,0.387059,0.148595,0.0903067,inf,inf,inf,inf,1,1,1,1,2,0,2,1,3,1,1,0
37694157,15351402,34.0356236,108.7574244,0.273352,-0.586833,-0.963395,-0.0767876,0.0698566,0.0,-0.044865,-0.350947,-1.19437,-1.35265,-0.326441,-0.344948,0.0449908,-4.55816,0.720323,-1.48219,-1.42419,0.0875103,424.851,1.1799,0.286306,0.38495,0.143534,0.0893338,inf,inf,inf,inf,1,1,1,1,2,0,2,1,3,1,1,0
37793479,15351402,34.0356236,108.7574244,0.263724,-0.609191,-1.1106,-0.0767876,0.0698566,0.0,-0.0469452,-0.312725,-1.19656,-1.3661,-0.326441,-0.344948,0.0449908,0.141504,0.48146,-1.64597,-1.42451,0.0875103,424.851,1.32711,0.29542,0.386161,0.148849,0.0901034,inf,inf,inf,inf,1,1,1,1,2,0,2,1,3,1,1,0
37892808,15351402,34.0356236,108.7574244,0.245584,-0.623343,-1.26124,-0.0767876,0.0698566,0.0,-0.0517587,-0.269615,-1.16529,-1.34921,-0.326441,-0.344948,0.0449908,1.77301,1.73066,0.0767852,-1.42609,0.0875103,424.851,1.47774,0.285791,0.384073,0.143421,0.0891296,inf,inf,inf,inf,1,1,1,1,2,0,2,1,3,1,1,0
37992247,15351402,34.0356236,108.7574244,0.229156,-0.636256,-1.40198,-0.0767876,0.0698566,0.0,-0.0785881,-0.211412,-1.07021,-1.26283,-0.326441,-0.344948,0.0449908,-1.24395,-0.168495,1.50195,-1.42887,0.0875103,424.851,1.61848,0.294909,0.387633,0.148404,0.0901212,inf,inf,inf,inf,1,1,1,1,2,0,2,1,3,1,1,0
38091449,15351402,34.0356236,108.7574244,0.21451,-0.648584,-1.53535,-0.0767876,0.0698566,0.0,-0.0839965,-0.173115,-0.932591,-1.13803,-0.326441,-0.344948,0.0449908,0.0796368,-0.327443,1.66644,-1.43214,0.0875103,424.851,1.75186,0.285192,0.385523,0.142582,0.08912,inf,inf,inf,inf,1,1,1,1,2,0,2,1,3,1,1,0
38190772,15351402,34.0356236,108.7574244,0.201404,-0.658595,-1.64951,-0.0767876,0.0698566,0.0,-0.0819204,-0.115099,-0.76097,-0.973307,-0.326441,-0.344948,0.0449908,-3.82261,-0.762451,3.0423,-1.43734,0.0875103,424.851,1.86601,0.294282,0.386734,0.146946,0.0898581,inf,inf,inf,inf,1,1,1,1,2,0,2,1,3,1,1,0
38290296,15351402,34.0356236,108.7574244,0.199839,-0.674209,-1.74393,-0.0767876,0.0698566,0.0,-0.0920223,-0.0731789,-0.580989,-0.797002,-0.326441,-0.344948,0.0449908,-3.53939,-1.82726,1.8259,-1.42054,0.0226978,424.851,1.96043,0.284663,0.384633,0.137556,0.0887323,inf,inf,inf,inf,1,1,1,1,2,0,2,1,4,1,1,0
38394388,15351402,34.0356236,108.7574244,0.195677,-0.684605,-1.81665,-0.0767876,0.0698566,0.0,-0.08078,-0.0200534,-0.361551,-0.577373,-0.326441,-0.344948,0.0449908,-2.34714,0.937194,2.38703,-1.42846,0.0226978,424.851,2.03315,0.293545,0.385794,0.138369,0.0896243,inf,inf,inf,inf,1,1,1,1,2,0,2,1,4,1,1,0
38493710,15351402,34.0356236,108.7574244,0.195484,-0.695153,-1.87095,-0.0767876,0.0698566,0.0,-0.0808623,0.0260189,-0.170864,-0.390701,-0.326441,-0.344948,0.0449908,-2.98681,-1.53146,1.72524,-1.44012,0.0226978,424.851,2.08745,0.284011,0.383716,0.13157,0.0891632,inf,inf,inf,inf,1,1,1,1,2,0,2,1,4,1,1,0
38588078,15351402,34.0356236,108.7574244,0.194061,-0.699008,-1.90055,-0.0767876,0.0698566,0.0,-0.103616,0.069619,0.017581,-0.202952,-0.326441,-0.344948,0.0449908,-5.6327,0.601249,-0.37835,-1.4514,0.0226978,424.851,2.11705,0.291726,0.38662,0.134701,0.0907805,inf,inf,inf,inf,1,1,1,1,2,0,2,1,4,1,1,0
38687390,15351402,34.0356236,108.7574244,0.200891,-0.699038,-1.90919,-0.0767876,0.0698566,0.0,-0.0792115,0.110477,0.177497,-0.0380695,-0.326441,-0.344948,0.0449908,0.265876,1.90303,0.0404714,-1.46,0.0226978,424.851,2.12569,0.282507,0.38455,0.130868,0.0908764,inf,inf,inf,inf,1,1,1,1,2,0,2,1,4,1,1,0
38796750,15351402,34.0356236,108.7574244,0.206141,-0.69453,-1.90265,-0.0767876,0.0698566,0.0,-0.0726627,0.122523,0.294231,0.0847754,-0.326441,-0.344948,0.0449908,-1.79283,-1.22381,0.0225674,-1.46885,0.0226978,424.851,2.11915,0.291698,0.386282,0.137498,0.0934355,inf,inf,inf,inf,1,1,1,1,2,0,2,1,4,1,1,0
38891003,15351402,34.0356236,108.7574244,0.211656,-0.688213,-1.88507,-0.0767876,0.0698566,0.0,-0.0972523,0.142397,0.396971,0.192888,-0.326441,-0.344948,0.0449908,-2.54704,-2.00956,1.79663,-1.47661,0.0226978,424.851,2.10157,0.281766,0.383655,0.135132,0.0937666,inf,inf,inf,inf,1,1,1,1,2,0,2,1,4,1,1,0
38990328,15351402,34.0356236,108.7574244,0.214486,-0.679727,-1.85797,-0.0767876,0.0698566,0.0,-0.0964269,0.136694,0.490025,0.291258,-0.326441,-0.344948,0.0449908,-2.28233,-1.92373,0.600184,-1.4809,0.0226978,424.851,2.07448,0.289979,0.38479,0.143218,0.0966756,inf,inf,inf,inf,1,1,1,1,2,0,2,1,4,1,1,0
39089801,15351402,34.0356236,108.7574244,0.215631,-0.672263,-1.82136,-0.0767876,0.0698566,0.0,-0.0914261,0.110432,0.594375,0.40027,-0.326441,-0.344948,0.0449908,0.149734,-1.93157,2.36791,-1.48246,0.0226978,424.851,2.03787,0.28098,0.385072,0.142715,0.0979232,inf,inf,inf,inf,1,1,1,1,2,0,2,1,4,1,1,0
39188974,15351402,34.0356236,108.7574244,0.213271,-0.667579,-1.77501,-0.0767876,0.0698566,0.0,-0.101102,0.0811156,0.682011,0.491916,-0.326441,-0.344948,0.0449908,-2.34497,-0.945642,0.468517,-1.4825,0.0226978,424.851,1.99152,0.289194,0.386257,0.152156,0.101346,inf,inf,inf,inf,1,1,1,1,2,0,2,1,4,1,1,0
39288298,15351402,34.0356236,108.7574244,0.222979,-0.66718,-1.72413,-0.0767876,0.0698566,0.0,-0.106002,0.0273753,0.721368,0.532562,-0.326441,-0.344948,0.0449908,-3.37813,-0.0395978,-0.193709,-1.48155,0.0226978,424.851,1.94063,0.280336,0.384205,0.151168,0.102461,inf,inf,inf,inf,1,1,1,1,2,0,2,1,4,1,1,0
39387621,15351402,34.0356236,108.7574244,0.228137,-0.672282,-1.67039,-0.0767876,0.0698566,0.0,-0.106886,-0.0478455,0.724753,0.538275,-0.326441,-0.344948,0.0449908,-0.802386,0.999848,0.373928,-1.47977,0.0226978,424.851,1.88689,0.288679,0.385447,0.161475,0.106291,inf,inf,inf,inf,1,1,1,1,2,0,2,1,4,1,1,0
39496877,15351402,34.0356236,108.7574244,0.233957,-0.688912,-1.61649,-0.0767876,0.0698566,0.0,-0.118034,-0.139455,0.699549,0.510873,-0.326441,-0.344948,0.0449908,-0.279501,-1.01278,1.84735,-1.47852,0.0226978,424.851,1.83299,0.280536,0.383996,0.160769,0.107911,inf,inf,inf,inf,1,1,1,1,2,0,2,1,4,1,1,0
39586270,15351402,34.0356236,108.7574244,0.234526,-0.708962,-1.57468,-0.0767876,0.0698566,0.0,-0.12281,-0.218458,0.624993,0.436766,-0.326441,-0.344948,0.0449908,4.77567,-0.849291,-0.412082,-1.47527,0.0226978,424.851,1.79118,0.288284,0.384736,0.171009,0.111741,inf,inf,inf,inf,1,1,1,1,2,0,2,1,4,1,1,0
39695524,15351402,34.0356236,108.7574244,0.226969,-0.736125,-1.52864,-0.0767876,0.0698566,0.0,-0.173399,-0.296485,0.537309,0.352394,-0.326441,-0.344948,0.0449908,-5.14621,-1.64353,-0.616246,-1.4707,0.0226978,424.851,1.74514,0.28009,0.383287,0.16903,0.113275,inf,inf,inf,inf,1,1,1,1,2,0,2,1,4,1,1,0
39794848,15351402,34.0356236,108.7574244,0.215418,-0.767765,-1.49358,-0.0767876,0.0698566,0.0,-0.169731,-0.357758,0.452297,0.271802,-0.326441,-0.344948,0.0449908,2.66217,-1.67291,-2.06074,-1.46531,0.0226978,424.851,1.71009,0.289066,0.384753,0.181016,0.117945,inf,inf,inf,inf,1,1,1,1,2,0,2,1,4,1,1,0
39894310,15351402,34.0356236,108.7574244,0.201025,-0.80853,-1.46912,-0.0767876,0.0698566,0.0,-0.205226,-0.441845,0.367765,0.189627,-0.326441,-0.344948,0.0449908,-5.92495,-0.513807,-1.57954,-1.46171,0.0226978,424.851,1.68562,0.279817,0.384998,0.176093,0.118924,inf,inf,inf,inf,1,1,1,1,2,0,2,1,4,1,1,0
39988530,15351402,34.0356236,108.7574244,0.184039,-0.854197,-1.45454,-0.0767876,0.0698566,0.0,-0.222943,-0.510932,0.265655,0.0883768,-0.326441,-0.344948,0.0449908,-4.47428,-1.5834,-2.33186,-1.46063,0.0226978,424.851,1.67104,0.288177,0.385993,0.186626,0.123217,inf,inf,inf,inf,1,1,1,1,2,0,2,1,4,1,1,0
40087852,15351402,34.0356236,108.7574244,0.15832,-0.90562,-1.45366,-0.0767876,0.0698566,0.0,-0.205596,-0.58649,0.170207,-0.00937953,-0.326441,-0.344948,0.0449908,1.33735,-0.275166,0.13405,-1.45906,0.0226978,424.851,1.67016,0.278791,0.38387,0.180178,0.12367,inf,inf,inf,inf,1,1,1,1,2,0,2,1,4,1,1,0
40197108,15351402,34.0356236,108.7574244,0.128789,-0.970177,-1.4659,-0.0767876,0.0698566,0.0,-0.217215,-0.662482,0.0296013,-0.151728,-0.326441,-0.344948,0.0449908,-1.05296,-0.899206,-2.23304,-1.45882,0.0226978,424.851,1.6824,0.289413,0.38631,0.192582,0.129101,inf,inf,inf,inf,1,1,1,1,2,0,2,1,4,1,1,0
40286499,15351402,34.0356236,108.7574244,0.10533,-1.02332,-1.49596,-0.0767876,0.0698566,0.0,-0.226352,-0.708863,-0.0691789,-0.261482,-0.326441,-0.344948,0.0449908,-1.53057,-1.18133,0.200214,-1.45804,0.0226978,424.851,1.71247,0.278765,0.38349,0.183026,0.128405,inf,inf,inf,inf,1,1,1,1,2,0,2,1,4,1,1,0
40395756,15351402,34.0356236,108.7574244,0.0778402,-1.09435,-1.54389,-0.0767876,0.0698566,0.0,-0.211579,-0.738873,-0.206426,-0.408399,-0.326441,-0.344948,0.0449908,2.47054,-1.28428,0.0922695,-1.45614,0.0226978,424.851,1.76039,0.289739,0.386123,0.194883,0.133876,inf,inf,inf,inf,1,1,1,1,2,0,2,1,4,1,1,0
40490113,15351402,34.0356236,108.7574244,0.0592145,-1.15844,-1.59247,-0.0767876,0.0698566,0.0,-0.195847,-0.742954,-0.315802,-0.521713,-0.326441,-0.344948,0.0449908,2.07991,-0.278151,-0.610814,-1.45384,0.0226978,424.851,1.80897,0.278844,0.385549,0.183948,0.13274,inf,inf,inf,inf,1,1,1,1,2,0,2,1,4,1,1,0
40589436,15351402,34.0356236,108.7574244,0.0400054,-1.22803,-1.65248,-0.0767876,0.0698566,0.0,-0.204135,-0.739059,-0.451038,-0.65695,-0.326441,-0.344948,0.0449908,-1.11078,0.202182,-1.78824,-1.45154,0.0226978,424.851,1.86898,0.289023,0.387716,0.194004,0.137622,inf,inf,inf,inf,1,1,1,1,2,0,2,1,4,1,1,0
40688851,15351402,34.0356236,108.7574244,0.0244542,-1.29314,-1.72058,-0.0767876,0.0698566,0.0,-0.167163,-0.69799,-0.560939,-0.762451,-0.326441,-0.344948,0.0449908,2.17749,0.95979,-1.21066,-1.45137,0.0226978,424.851,1.93708,0.278956,0.385374,0.183761,0.136376,inf,inf,inf,inf,1,1,1,1,2,0,2,1,4,1,1,0
40788083,15351402,34.0356236,108.7574244,0.0120165,-1.35429,-1.7944,-0.0767876,0.0698566,0.0,-0.130495,-0.63789,-0.625606,-0.820204,-0.326441,-0.344948,0.0449908,1.90997,1.7664,-1.1891,-1.4517,0.0226978,424.851,2.01091,0.289347,0.387709,0.193153,0.141158,inf,inf,inf,inf,1,1,1,1,2,0,2,1,4,1,1,0
40897340,15351402,34.0356236,108.7574244,0.00224546,-1.42415,-1.85929,-0.0767876,0.0698566,0.0,-0.0752419,-0.572058,-0.599953,-0.769688,-0.326441,-0.344948,0.0449908,6.40268,3.2168,-0.317587,-1.45409,0.0226978,424.851,2.0758,0.280098,0.385984,0.182863,0.139673,inf,inf,inf,inf,1,1,1,1,2,0,2,1,4,1,1,0
40986731,15351402,34.0356236,108.7574244,-0.00109359,-1.47668,-1.90851,-0.0767876,0.0698566,0.0,-0.0382251,-0.531613,-0.569698,-0.721242,-0.326441,-0.344948,0.0449908,-1.33436,1.58655,-0.912181,-1.46458,0.0226978,424.851,2.12501,0.289614,0.387765,0.190385,0.14363,inf,inf,inf,inf,1,1,1,1,2,0,2,1,4,1,1,0
41095986,15351402,34.0356236,108.7574244,0.0118368,-1.53749,-1.954,-0.0767876,0.0698566,0.0,0.0242353,-0.465689,-0.516098,-0.638272,-0.326441,-0.344948,0.0449908,-0.100538,1.16999,-0.154845,-1.47719,0.0226978,424.851,2.17051,0.28009,0.388307,0.179319,0.141553,inf,inf,inf,inf,1,1,1,1,2,0,2,1,4,1,1,0
41185378,15351402,34.0356236,108.7574244,0.0274159,-1.58214,-1.99018,-0.0767876,0.0698566,0.0,0.0846588,-0.433414,-0.512019,-0.61547,-0.326441,-0.344948,0.0449908,-1.01,0.0428773,-0.615864,-1.48267,0.0226978,424.851,2.20668,0.289619,0.390229,0.186064,0.145235,inf,inf,inf,inf,1,1,1,1,2,0,2,1,4,1,1,0
41294634,15351402,34.0356236,108.7574244,0.0549567,-1.6284,-2.02993,-0.0767876,0.0698566,0.0,0.151494,-0.373704,-0.499607,-0.579526,-0.326441,-0.344948,0.0449908,0.875492,0.930243,-0.285467,-1.48595,0.0226978,424.851,2.24643,0.280144,0.388288,0.175631,0.142579,inf,inf,inf,inf,1,1,1,1,2,0,2,1,4,1,1,0
41393957,15351402,34.0356236,108.7574244,0.0791525,-1.66405,-2.0709,-0.0767876,0.0698566,0.0,0.169277,-0.316705,-0.482731,-0.549666,-0.326441,-0.344948,0.0449908,5.6587,0.0440653,0.178622,-1.48729,0.0226978,424.851,2.2874,0.29078,0.391097,0.182918,0.14667,inf,inf,inf,inf,1,1,1,1,2,0,2,1,4,1,1,0
41493411,15351402,34.0356236,108.7574244,0.106021,-1.68682,-2.11629,-0.0767876,0.0698566,0.0,0.182426,-0.260312,-0.458179,-0.519916,-0.326441,-0.344948,0.0449908,2.57483,1.53797,-1.01552,-1.48874,0.0226978,424.851,2.3328,0.280164,0.388286,0.172411,0.143386,inf,inf,inf,inf,1,1,1,1,2,0,2,1,4,1,1,0
41592604,15351402,34.0356236,108.7574244,0.129904,-1.7051,-2.16107,-0.0767876,0.0698566,0.0,0.153829,-0.193017,-0.395384,-0.45524,-0.326441,-0.344948,0.0449908,-0.597615,2.2855,-0.734,-1.49038,0.0226978,424.851,2.37757,0.290778,0.391195,0.179167,0.147266,inf,inf,inf,inf,1,1,1,1,2,0,2,1,4,1,1,0
41691928,15351402,34.0356236,108.7574244,0.14834,-1.71008,-2.20517,-0.0767876,0.0698566,0.0,0.121253,-0.128543,-0.259758,-0.327108,-0.326441,-0.344948,0.0449908,-0.530563,0.792333,1.66806,-1.48937,0.0226978,424.851,2.42167,0.280106,0.390712,0.168857,0.143898,inf,inf,inf,inf,1,1,1,1,2,0,2,1,4,1,1,0
41796218,15351402,34.0356236,108.7574244,0.164368,-1.71101,-2.23607,-0.0767876,0.0698566,0.0,0.109196,-0.0685491,-0.102654,-0.177181,-0.326441,-0.344948,0.0449908,-0.634239,-1.80259,0.73107,-1.48879,0.0226978,424.851,2.45257,0.270453,0.387889,0.159358,0.140164,inf,inf,inf,inf,1,1,1,1,2,0,2,1,4,1,1,0
41885609,15351402,34.0356236,108.7574244,0.172717,-1.70459,-2.25618,-0.0767876,0.0698566,0.0,0.0960765,-0.00912839,0.0107294,-0.0740669,-0.326441,-0.344948,0.0449908,-0.748911,-0.165178,1.88224,-1.48761,0.0226978,424.851,2.47268,0.279118,0.389957,0.164292,0.143139,inf,inf,inf,inf,1,1,1,1,2,0,2,1,4,1,1,0
41994865,15351402,34.0356236,108.7574244,0.180276,-1.69238,-2.26396,-0.0767876,0.0698566,0.0,0.0692716,0.0634767,0.141133,0.0495855,-0.326441,-0.344948,0.0449908,-3.42295,0.5693,1.51841,-1.48819,0.0226978,424.851,2.48046,0.270458,0.387853,0.155863,0.139681,inf,inf,inf,inf,1,1,1,1,2,0,2,1,4,1,1,0
42094189,15351402,34.0356236,108.7574244,0.186554,-1.67984,-2.25523,-0.0767876,0.0698566,0.0,0.0682369,0.0673483,0.235854,0.143478,-0.326441,-0.344948,0.0449908,0.891065,0.150731,-0.202084,-1.4894,0.0226978,424.851,2.47173,0.280069,0.390752,0.161227,0.142943,inf,inf,inf,inf,1,1,1,1,2,0,2,1,4,1,1,0
42193558,15351402,34.0356236,108.7574244,0.190412,-1.6679,-2.2407,-0.0767876,0.0698566,0.0,0.0462795,0.0771218,0.248109,0.155561,-0.326441,-0.344948,0.0449908,1.84173,-1.08683,0.821593,-1.49157,0.0226978,424.851,2.4572,0.29044,0.393897,0.1666,0.146173,inf,inf,inf,inf,1,1,1,1,2,0,2,1,4,1,1,0
42292870,15351402,34.0356236,108.7574244,0.194982,-1.65699,-2.22736,-0.0767876,0.0698566,0.0,0.0275713,0.0536427,0.234149,0.140716,-0.326441,-0.344948,0.0449908,1.10679,-0.640426,0.372694,-1.49441,0.0226978,424.851,2.44386,0.279818,0.390732,0.157733,0.142189,inf,inf,inf,inf,1,1,1,1,2,0,2,1,4,1,1,0
42387199,15351402,34.0356236,108.7574244,0.196984,-1.65076,-2.21261,-0.0767876,0.0698566,0.0,0.00395881,0.00824066,0.234604,0.143171,-0.326441,-0.344948,0.0449908,-1.4864,-2.41065,1.66587,-1.49534,0.0226978,424.851,2.42911,0.289026,0.395585,0.162693,0.145399,inf,inf,inf,inf,1,1,1,1,2,0,2,1,4,1,1,0
42496449,15351402,34.0356236,108.7574244,0.191055,-1.64785,-2.19129,-0.0767876,0.0698566,0.0,-0.00676482,-0.0359741,0.242148,0.156441,-0.326441,-0.344948,0.0449908,3.72504,0.600496,-0.654704,-1.49638,0.0226978,424.851,2.40779,0.279532,0.393137,0.155118,0.141923,inf,inf,inf,inf,1,1,1,1,2,0,2,1,4,1,1,0
42585985,15351402,34.0356236,108.7574244,0.184839,-1.65146,-2.17289,-0.0767876,0.0698566,0.0,-0.0277752,-0.0928252,0.243489,0.161843,-0.326441,-0.344948,0.0449908,2.35282,-0.566743,-0.946204,-1.49926,0.0226978,424.851,2.38939,0.28867,0.39556,0.159997,0.144786,inf,inf,inf,inf,1,1,1,1,2,0,2,1,4,1,1,0
42695097,15351402,34.0356236,108.7574244,0.179861,-1.66354,-2.14527,-0.0767876,0.0698566,0.0,-0.04681,-0.161491,0.233464,0.162196,-0.326441,-0.344948,0.0449908,1.93223,-0.535746,0.291043,-1.50341,0.0226978,424.851,2.36178,0.279226,0.393071,0.152567,0.141167,inf,inf,inf,inf,1,1,1,1,2,0,2,1,4,1,1,0
42794421,15351402,34.0356236,108.7574244,0.174826,-1.68187,-2.12478,-0.0767876,0.0698566,0.0,-0.040552,-0.226545,0.234064,0.166909,-0.326441,-0.344948,0.0449908,-3.36068,-1.8947,1.82085,-1.50558,0.0226978,424.851,2.34128,0.289318,0.396352,0.157759,0.144224,inf,inf,inf,inf,1,1,1,1,2,0,2,1,4,1,1,0
42888808,15351402,34.0356236,108.7574244,0.171081,-1.7036,-2.10208,-0.0767876,0.0698566,0.0,-0.0384732,-0.278422,0.22965,0.168842,-0.326441,-0.344948,0.0449908,5.47324,1.59921,-1.97751,-1.507,0.0226978,424.851,2.31858,0.277932,0.392165,0.149733,0.139898,inf,inf,inf,inf,1,1,1,1,2,0,2,1,4,1,1,0
42988101,15351402,34.0356236,108.7574244,0.166538,-1.73401,-2.07953,-0.0767876,0.0698566,0.0,-0.030298,-0.366933,0.231514,0.175739,-0.326441,-0.344948,0.0449908,6.328,-0.219587,2.0447,-1.50923,0.0226978,424.851,2.29603,0.287864,0.395396,0.154811,0.142816,inf,inf,inf,inf,1,1,1,1,2,0,2,1,4,1,1,0
43087457,15351402,34.0356236,108.7574244,0.159604,-1.77801,-2.05337,-0.0767876,0.0698566,0.0,-0.0369297,-0.421483,0.217784,0.170577,-0.326441,-0.344948,0.0449908,1.52769,-1.17328,-0.229334,-1.51306,0.0226978,424.851,2.26987,0.277589,0.394512,0.147799,0.139246,inf,inf,inf,inf,1,1,1,1,2,0,2,1,4,1,1,0
43191715,15351402,34.0356236,108.7574244,0.151977,-1.83173,-2.03175,-0.0767876,0.0698566,0.0,-0.0473618,-0.504662,0.204032,0.160425,-0.326441,-0.344948,0.0449908,2.0983,0.181911,-1.28772,-1.51697,0.0226978,424.851,2.24825,0.287435,0.397793,0.15283,0.142071,inf,inf,inf,inf,1,1,1,1,2,0,2,1,4,1,1,0
43291038,15351402,34.0356236,108.7574244,0.150515,-1.8859,-2.00754,-0.0767876,0.0698566,0.0,-0.0187709,-0.558167,0.186709,0.151664,-0.326441,-0.344948,0.0449908,5.14687,-0.338339,1.08659,-1.52183,0.0226978,424.851,2.22405,0.277226,0.394312,0.145928,0.138122,inf,inf,inf,inf,1,1,1,1,2,0,2,1,4,1,1,0
43390490,15351402,34.0356236,108.7574244,0.153365,-1.94458,-1.99034,-0.0767876,0.0698566,0.0,0.0406722,-0.600011,0.156334,0.123757,-0.326441,-0.344948,0.0449908,-1.85901,-1.46945,-0.546123,-1.5245,0.0226978,424.851,2.20684,0.286987,0.397572,0.151055,0.140887,inf,inf,inf,inf,1,1,1,1,2,0,2,1,4,1,1,0
43489686,15351402,34.0356236,108.7574244,0.163382,-2.003,-1.9817,-0.0767876,0.0698566,0.0,0.117023,-0.624346,0.102189,0.0672467,-0.326441,-0.344948,0.0449908,1.77963,0.0731325,-1.31997,-1.52546,0.0226978,424.851,2.1982,0.276949,0.394089,0.144587,0.137053,inf,inf,inf,inf,1,1,1,1,2,0,2,1,4,1,1,0
43589011,15351402,34.0356236,108.7574244,0.180318,-2.06311,-1.98173,-0.0767876,0.0698566,0.0,0.183945,-0.632204,0.0180983,-0.0204477,-0.326441,-0.344948,0.0449908,-0.576509,-1.40074,0.49151,-1.52633,0.0226978,424.851,2.19823,0.286636,0.39732,0.149509,0.139639,inf,inf,inf,inf,1,1,1,1,2,0,2,1,4,1,1,0
43688333,15351402,34.0356236,108.7574244,0.201926,-2.12307,-1.9919,-0.0767876,0.0698566,0.0,0.253622,-0.618993,-0.0716375,-0.11509,-0.326441,-0.344948,0.0449908,-4.71566,0.730375,-1.75164,-1.52644,0.0226978,424.851,2.2084,0.276645,0.396352,0.143411,0.136229,inf,inf,inf,inf,1,1,1,1,2,0,2,1,4,1,1,0
43787657,15351402,34.0356236,108.7574244,0.229623,-2.18182,-2.01307,-0.0767876,0.0698566,0.0,0.333795,-0.586363,-0.1626,-0.211699,-0.326441,-0.344948,0.0449908,4.4618,0.481772,0.633989,-1.52202,0.0226978,424.851,2.22957,0.286267,0.399614,0.148502,0.138801,inf,inf,inf,inf,1,1,1,1,2,0,2,1,4,1,1,0
43896935,15351402,34.0356236,108.7574244,0.265479,-2.24104,-2.04264,-0.0767876,0.0698566,0.0,0.368889,-0.563891,-0.257171,-0.307215,-0.326441,-0.344948,0.0449908,-1.87686,-2.1546,-0.275642,-1.51909,0.0226978,424.851,2.25914,0.277147,0.396858,0.142989,0.13539,inf,inf,inf,inf,1,1,1,1,2,0,2,1,4,1,1,0
43986304,15351402,34.0356236,108.7574244,0.29713,-2.28898,-2.07797,-0.0767876,0.0698566,0.0,0.389602,-0.55312,-0.326831,-0.381225,-0.326441,-0.344948,0.0449908,2.6932,-0.814756,-0.379602,-1.5188,0.0226978,424.851,2.29447,0.285774,0.399258,0.14767,0.137578,inf,inf,inf,inf,1,1,1,1,2,0,2,1,4,1,1,0
44095560,15351402,34.0356236,108.7574244,0.341294,-2.34524,-2.12458,-0.0767876,0.0698566,0.0,0.366395,-0.555725,-0.40571,-0.46107,-0.326441,-0.344948,0.0449908,-2.62175,0.098377,-1.10628,-1.51874,0.0226978,424.851,2.34108,0.276609,0.396473,0.142196,0.134184,inf,inf,inf,inf,1,1,1,1,2,0,2,1,4,1,1,0
44185031,15351402,34.0356236,108.7574244,0.377133,-2.39357,-2.16837,-0.0767876,0.0698566,0.0,0.361434,-0.579061,-0.435441,-0.493218,-0.326441,-0.344948,0.0449908,-0.667469,-0.941479,-1.53563,-1.51745,0.0226978,424.851,2.38487,0.285168,0.39883,0.146675,0.13622,inf,inf,inf,inf,1,1,1,1,2,0,2,1,4,1,1,0
44294207,15351402,34.0356236,108.7574244,0.421135,-2.46668,-2.22016,-0.0767876,0.0698566,0.0,0.378635,-0.638061,-0.428739,-0.485512,-0.326441,-0.344948,0.0449908,0.69764,-0.0139069,-0.323431,-1.51373,0.0226978,424.851,2.43666,0.276181,0.39607,0.141357,0.132889,inf,inf,inf,inf,1,1,1,1,2,0,2,1,4,1,1,0
