timestamp,timestamp_sample,accel_device_id,gyro_device_id,delta_angle[0],delta_angle[1],delta_angle[2],delta_velocity[0],delta_velocity[1],delta_velocity[2],delta_angle_dt,delta_velocity_dt,delta_velocity_clipping
24892424,24892281,4259850,4325386,-0.00012593,0.00033512,0.000250264,0.000819349,0.003247,-0.0455091,4985,4790,0
24897450,24897271,4259850,4325386,0.000493507,-0.000449062,0.000167643,0.00270272,0.00127384,-0.0486392,4990,4990,0
25396139,25396017,4259850,4325386,0.000914957,-0.00092112,-0.00020429,0.00333469,0.000158486,-0.04722,4986,4975,0
25895064,25894918,4259850,4325386,0.000319372,-0.000163581,-0.000861154,-0.00132278,-0.0019182,-0.0471598,4987,4928,0
26393776,26393620,4259850,4325386,0.000555231,-0.00111337,0.00048297,1.04201e-05,-0.00170833,-0.0510022,5053,4932,0
26897392,26897256,4259850,4325386,-0.000539754,0.00050937,0.000357279,-0.000756261,-0.00812066,-0.0496268,4988,4928,0
27391145,27391019,4259850,4325386,-0.000268456,-0.00114402,0.000333225,0.0011672,0.00667414,-0.0482378,4988,4956,0
27895425,27895316,4259850,4325386,-0.0004326,0.000694723,0.00035756,0.00215006,0.00182304,-0.0469044,4995,4513,0
28394233,28394096,4259850,4325386,0.00150243,-0.000369647,0.000778044,0.00326981,-0.00441273,-0.0568189,5016,5971,0
28892909,28892761,4259850,4325386,0.000942024,-0.00141713,-0.000326012,0.00737249,0.00451588,-0.0436848,4976,4929,0
29397622,29396498,4259850,4325386,-0.000306245,-0.000134215,-3.11624e-05,0.00319115,0.0033428,-0.0425802,4991,4982,0
29895360,29895249,4259850,4325386,0.000598634,7.07181e-05,0.000389206,-0.00533531,-0.00312358,-0.0501663,4986,4924,0
30394314,30394163,4259850,4325386,0.00076915,-0.000626055,-0.000691485,0.00731005,-0.0126259,-0.0416271,4962,4965,0
30892428,30892248,4259850,4325386,0.000256579,-2.40362e-06,-9.27689e-05,0.0101492,0.00744813,-0.0462453,4983,4967,0
31394624,31394489,4259850,4325386,-0.00066389,0.000873171,0.000112805,-0.00822454,0.00198094,-0.0529926,4974,4922,0
31893367,31893240,4259850,4325386,-0.00109129,2.00752e-05,0.000132834,0.00392801,-0.00657978,-0.0474351,4987,4935,0
32392135,32391992,4259850,4325386,8.98247e-05,0.000431328,-0.000224877,-0.00691295,-0.00178129,-0.0509905,4977,4926,0
32896196,32896004,4259850,4325386,0.00038435,-0.00108074,0.000345983,-0.00266395,-0.000215015,-0.0446216,4996,5004,0
33394816,33394657,4259850,4325386,-0.000336012,0.000396597,0.000950964,-0.00475585,0.00899616,-0.050486,4950,4745,0
33893342,33893233,4259850,4325386,0.000415718,-0.000645418,0.000416535,0.00277622,-0.00321023,-0.04526,4988,4687,0
34391600,34391484,4259850,4325386,0.0011845,-0.000299716,-0.00116199,-0.00547233,-0.0274415,-0.0563994,4986,4964,0
34895386,34895226,4259850,4325386,0.000792168,-0.000222708,-0.000659118,0.00275474,-0.00923411,-0.0526909,4991,4947,0
35394579,35394471,4259850,4325386,-0.000570234,-0.0021214,0.000847942,-0.000741265,0.0224898,-0.0462601,4933,4928,0
35893345,35893223,4259850,4325386,3.82005e-07,0.000739738,0.00116723,-0.0053559,-0.0107659,-0.0481277,4988,4929,0
36392362,36392227,4259850,4325386,-0.00126492,0.00108381,0.00133209,-0.0215089,0.0207941,-0.0524712,4976,4985,0
36896425,36896259,4259850,4325386,0.000624691,0.000405658,0.00048217,-0.00327276,-0.00368352,-0.0615892,4980,4970,0
37395396,37395255,4259850,4325386,0.000544909,0.000254872,0.000194415,0.00285174,0.00172038,-0.0477156,4942,4648,0
37894007,37893767,4259850,4325386,-0.000829621,0.000264515,0.000398771,-0.00943313,0.0165214,-0.0486343,4993,5001,0
38392723,38392563,4259850,4325386,0.00102659,-0.000544786,-0.00165442,0.00748567,0.00646296,-0.0383277,4987,5907,0
38891462,38891295,4259850,4325386,0.00190625,-0.00120711,-0.000890846,0.00969668,-0.00582229,-0.039278,4967,4922,0
39394570,39394456,4259850,4325386,0.000216562,-0.000297604,3.4931e-05,-0.0028496,0.00279121,-0.0482466,4981,4957,0
39893516,39893389,4259850,4325386,0.00133636,-0.000844918,-0.000717614,-0.00684776,-0.0384499,-0.0511729,4986,4991,0
40397154,40396981,4259850,4325386,0.000331743,0.00105768,0.000119972,0.00432282,0.00906776,-0.052269,4995,4970,0
40895835,40895701,4259850,4325386,-0.00032835,0.000141561,-0.00122288,-0.0114727,0.0019912,-0.0492867,4983,4926,0
41395252,41394451,4259850,4325386,-0.00140323,0.0014323,0.000955228,0.00855485,0.0236461,-0.0601354,4987,5976,0
41893439,41893328,4259850,4325386,-0.00103569,0.000463489,0.000244153,0.000234388,0.014075,-0.0445863,4962,4924,0
42392062,42391952,4259850,4325386,-6.31504e-05,-2.49052e-05,-0.00102025,-0.0112805,-0.00396199,-0.0490609,4987,4922,0
42895809,42895691,4259850,4325386,-7.93642e-05,-0.00111091,-0.000688898,-0.00200571,-0.0230301,-0.0450056,4987,4763,0
43394707,43394581,4259850,4325386,0.00109277,0.00105366,3.64648e-05,-0.00226281,-0.0128577,-0.0548464,4999,4991,0
43893853,43893741,4259850,4325386,-0.00206716,0.000315657,0.000797973,-0.0070161,0.0286917,-0.0586939,4987,4946,0
44392701,44392568,4259850,4325386,0.000481725,-0.000581036,0.000735318,-0.00366687,-0.00112908,-0.0471331,4967,4988,0
44891421,44891258,4259850,4325386,-0.000147086,-1.63819e-05,-0.000446597,-0.00119266,-0.0131985,-0.0428212,4999,4927,0
45395106,45394985,4259850,4325386,-0.000141083,0.00115564,-0.000575099,-0.00155394,0.0125667,-0.0327961,4989,4787,0
45894026,45893845,4259850,4325386,-0.000889408,0.00107561,0.000534231,-0.0118211,0.0343591,-0.0573085,4952,4955,0
46393053,46392938,4259850,4325386,-0.000768043,-0.000551499,-0.000117584,-0.00487183,0.00894295,-0.0421892,4988,4930,0
46897109,46896963,4259850,4325386,-0.00224034,0.000439884,-0.000544726,-0.000406709,-0.00868218,-0.0516013,5020,4928,0
47390755,47390594,4259850,4325386,-0.00074482,0.000299033,-0.000142294,-0.0114286,0.0110389,-0.0538586,4988,4979,0
47894345,47894186,4259850,4325386,-0.000684064,0.000717874,0.00032922,-0.0147843,0.0144235,-0.0509064,4987,4967,0
48393049,48392933,4259850,4325386,-0.00016871,-0.000156398,1.65382e-05,0.00581608,-0.00622486,-0.041382,4988,4923,0
48892138,48891938,4259850,4325386,-0.000660054,0.00103746,0.000564183,-0.00357658,0.0138881,-0.0489014,4967,4959,0
49395611,49395428,4259850,4325386,0.00239093,0.000375997,-0.0012081,-0.00216963,-0.0213975,-0.0597506,4992,4954,0
49894035,49893900,4259850,4325386,0.000636963,-0.00155797,0.000329632,-0.000559715,0.019959,-0.0487494,4951,4953,0
50392588,50392476,4259850,4325386,-0.000657802,0.000350288,-0.000265713,-0.0101266,0.034192,-0.0550195,4987,4983,0
50895961,50895846,4259850,4325386,0.0011881,-0.00134257,-2.08311e-05,0.00528216,-0.00389564,-0.038967,4973,4980,0
51394550,51394440,4259850,4325386,-0.00206465,-0.00108835,0.000294791,-0.00661942,0.00139974,-0.0426157,4994,4930,0
51893563,51893373,4259850,4325386,2.65707e-05,-0.000904463,-0.00129677,-0.00718584,-0.0246052,-0.0485102,4994,4928,0
52392130,52391925,4259850,4325386,0.000872558,0.00168745,0.00175138,-0.006692,0.0275322,-0.0495712,4988,5908,0
52896167,52895998,4259850,4325386,0.000213467,0.00108916,-4.03254e-05,-0.00210512,0.00771605,-0.048864,5038,4626,0
53394142,53394027,4259850,4325386,-0.00195376,0.00196564,0.000303684,-0.0121289,0.0276715,-0.0575855,4969,4977,0
53893294,53893064,4259850,4325386,-0.00160431,-0.00127096,0.00134139,-0.000643257,0.029019,-0.0487785,4990,4999,0
54396625,54396413,4259850,4325386,0.000294011,0.000824716,0.00152597,-0.010909,0.0278539,-0.0518046,4991,4929,0
54895277,54895162,4259850,4325386,0.00176029,-0.000875868,-0.000143616,0.000128051,0.000790608,-0.0396749,4989,4979,0
55394100,55393963,4259850,4325386,-0.00069637,-0.000376215,-0.000448317,-0.00251768,0.0149248,-0.0469889,4964,4963,0
55892807,55892665,4259850,4325386,0.000163824,0.000411416,0.000348281,-0.00691723,0.0131568,-0.049128,4988,4927,0
56391528,56391417,4259850,4325386,-0.000434962,0.000543532,-0.00109707,-0.00926308,-0.0024557,-0.0492016,4987,4988,0
56895779,56895656,4259850,4325386,-0.00092674,-0.000439625,-0.000548195,-0.00475071,0.00365905,-0.0482197,4988,4924,0
57393167,57392999,4259850,4325386,-0.000342511,0.000510427,0.000491364,-0.00906822,0.0173318,-0.0581429,4990,4990,0
57897121,57896961,4259850,4325386,0.000633445,0.00200246,0.000158089,-0.0133738,0.0119218,-0.0392766,4982,4771,0
58395778,58395553,4259850,4325386,0.000836899,-0.000787716,-0.000191104,0.00870836,-0.0405219,-0.0413642,4991,4985,0
58893971,58893835,4259850,4325386,7.90072e-05,-0.00168517,-0.000914895,0.00140374,-0.0147421,-0.0369736,4967,4792,0
59392600,59392457,4259850,4325386,-0.00208348,-0.000955179,-0.000990454,-0.0113501,0.0156738,-0.0500524,4978,4985,0
59891343,59891209,4259850,4325386,0.000861337,7.3242e-06,0.0010073,0.00188003,0.0207809,-0.0517862,4987,4962,0
60395318,60395058,4259850,4325386,0.000333687,0.000508934,-0.000298283,0.00343189,0.000764617,-0.0471988,4965,4927,0
60894100,60893972,4259850,4325386,0.000103044,-6.48816e-05,-0.000980202,-0.00655862,-0.00757753,-0.0522536,5254,4959,0
61392563,61392454,4259850,4325386,-0.00115554,0.00112043,0.000134944,-0.0124655,0.0111008,-0.0547102,4982,4926,0
61896317,61896204,4259850,4325386,-0.000870817,0.00076274,0.000738121,-0.00550465,0.0142681,-0.0455704,4998,4965,0
62390173,62390034,4259850,4325386,0.00122685,-0.000249122,-0.000984591,-0.00610846,-0.00751381,-0.0461364,4965,4928,0
62893806,62893697,4259850,4325386,-9.79628e-05,-0.000121014,0.000669037,-0.00305019,-0.00288351,-0.0550204,4984,4925,0
63392646,63392451,4259850,4325386,0.00158426,-0.000583611,-0.000828043,0.00707822,-0.0318155,-0.0581123,4988,5915,0
63897030,63896288,4259850,4325386,-0.000366056,-1.73724e-05,-0.000496647,-0.00294798,-0.00116272,-0.0411215,4976,4978,0
64394501,64394396,4259850,4325386,-0.000414178,-0.00153666,-0.000101745,-0.00272654,0.0125772,-0.0302944,4025,3656,0
64893291,64893149,4259850,4325386,-4.31004e-05,-0.00061982,-0.00038077,-0.00210803,0.00400442,-0.047753,4987,5000,0
65396627,65396397,4259850,4325386,0.000481431,-0.00070507,-0.000563882,0.00610823,-0.0115022,-0.0448811,4994,4965,0
65890763,65890654,4259850,4325386,-0.000373004,-0.000127205,-0.000346378,0.00426115,-0.00717969,-0.0422502,4986,4920,0
66394801,66394521,4259850,4325386,0.000615727,-0.000574118,0.000322679,-0.00466371,-0.010511,-0.0430083,4995,4957,0
66893292,66893145,4259850,4325386,-0.00083274,0.000140031,0.000187425,-0.00674335,0.00666774,-0.052265,4986,4927,0
67392019,67391897,4259850,4325386,-0.00188422,0.000716953,0.000506009,-0.0155497,0.00520265,-0.0568977,4986,4929,0
67895757,67895638,4259850,4325386,-0.000623468,0.000448283,0.000354674,-0.00138108,0.00281257,-0.0470199,4988,4960,0
68394365,68394230,4259850,4325386,0.000408314,0.000635839,0.00126515,0.00068614,0.0241291,-0.0501321,5276,4928,0
68897351,68897135,4259850,4325386,-0.00139439,0.000371847,0.000324953,-0.0156663,-0.00539715,-0.0573961,4989,4933,0
69391252,69391135,4259850,4325386,-0.000285198,1.65635e-05,0.000394559,-0.00126346,0.00473615,-0.0453384,4968,4784,0
69894755,69894637,4259850,4325386,0.00206547,-0.000212226,4.72599e-05,0.00408636,0.0022101,-0.0404899,4981,4972,0
70393512,70393390,4259850,4325386,0.000707958,-8.26659e-05,-0.000625823,0.0101599,-0.0109314,-0.0348147,4987,4926,0
70892526,70892364,4259850,4325386,0.00134803,-0.000319502,0.000691678,0.00258461,0.0115125,-0.0436998,4974,4974,0
71396618,71395884,4259850,4325386,-0.000238089,0.000296572,-0.00119952,-0.00490048,-0.0221149,-0.0570171,4988,4931,0
71894755,71894645,4259850,4325386,-0.000112767,0.000255009,2.19217e-06,-0.0193375,0.0145901,-0.0539074,4998,5008,0
72394694,72393388,4259850,4325386,0.000599899,0.000708561,6.89397e-05,0.00510255,-0.00649619,-0.0550527,4987,5918,0
72892403,72892293,4259850,4325386,-0.000314029,-0.000720099,0.000747322,-0.00640298,0.0146257,-0.0467494,4970,4783,0
73391008,73390892,4259850,4325386,-0.000907194,0.000570186,-9.20744e-05,0.000228273,-0.0159043,-0.0482955,4987,4925,0
73894744,73894632,4259850,4325386,0.000735339,-0.000905162,-0.00112523,0.00396928,-0.0123513,-0.0379767,4986,4922,0
74393634,74393528,4259850,4325386,-0.0027581,-0.00220606,0.000219361,-0.00353154,-0.00761044,-0.0471262,4969,4388,0
74892278,74892136,4259850,4325386,-0.00131956,0.00127722,0.00165958,-0.0105986,0.0145389,-0.0549832,4984,4980,0
75395507,75395395,4259850,4325386,-0.000509148,-0.000327784,-0.000662149,-0.00574747,-0.00143966,-0.0500763,4978,4993,0
75897910,75897732,4259850,4325386,0.000193754,0.00126463,0.00100623,-0.00109166,0.0311377,-0.0448108,4993,4928,0
76391535,76391389,4259850,4325386,-0.000279336,-0.000549695,-0.000666508,0.00325048,-0.0113419,-0.0404127,4986,4968,0
76895245,76895130,4259850,4325386,0.000473248,-0.000231002,0.000421499,0.000672369,-0.0195757,-0.045007,4988,4958,0
77394383,77394150,4259850,4325386,-0.000165725,0.000353185,-4.25858e-05,0.00524186,-0.00990449,-0.0520109,5258,5946,0
77892329,77892212,4259850,4325386,1.51476e-05,0.0001959,-0.000412313,0.00409952,0.0102149,-0.052058,4967,4923,0
78396240,78396085,4259850,4325386,0.00117055,-0.000420636,-0.000583945,0.00479829,-0.001522,-0.043611,4962,4968,0
78895067,78894630,4259850,4325386,-0.00082882,0.000118051,-0.00032615,-0.0122098,-0.00195389,-0.0576594,4992,5640,0
79394543,79394388,4259850,4325386,9.22691e-05,8.61204e-05,0.000280008,-0.00493159,0.00750495,-0.0496794,4997,4947,0
79893509,79893389,4259850,4325386,-0.000206851,-0.000144454,-0.000558653,-0.00270467,-0.0201441,-0.0456314,5245,4748,0
80392002,80391881,4259850,4325386,0.000822106,1.10437e-05,0.00041051,0.00913599,0.0241915,-0.0458648,4988,4928,0
80896323,80896172,4259850,4325386,0.000495591,-0.00029943,0.000304945,-0.00754734,0.00609496,-0.049997,4992,4933,0
81395063,81394920,4259850,4325386,2.77621e-05,0.000237194,-0.000335874,-0.0018288,-0.00112008,-0.0479785,4985,4923,0
81894012,81893735,4259850,4325386,-0.00150411,0.00204512,0.000900159,-0.0100038,0.0299896,-0.0537796,4987,4965,0
82392867,82392713,4259850,4325386,-1.76747e-06,0.000411074,0.000214624,0.00517315,0.00770012,-0.043623,4980,4976,0
82896882,82896745,4259850,4325386,0.000895518,-0.000461077,0.000244174,-0.00403993,-0.00700961,-0.0573285,5015,4913,0
83390542,83390382,4259850,4325386,-0.000501519,-0.000102364,-0.000102918,-0.00685487,0.00277723,-0.0499017,4988,4960,0
83894756,83894627,4259850,4325386,4.54087e-05,-9.44369e-05,0.000302219,0.000158701,0.0118094,-0.0564452,4994,4994,0
84393483,84393374,4259850,4325386,9.63996e-05,0.000837138,-0.00118473,0.00588446,-0.00429881,-0.0398272,4988,4954,0
84892276,84892130,4259850,4325386,0.00181149,0.000490174,-0.000337648,-0.00378438,0.00412344,-0.0430023,4992,4929,0
85396312,85396147,4259850,4325386,-0.00125163,0.000780357,0.000157674,-0.0105316,0.00942311,-0.0487409,4974,4972,0
85894769,85894619,4259850,4325386,0.00159119,-0.000763893,-0.000372062,-0.00338861,-0.0157143,-0.0524407,4988,4926,0
86393482,86393372,4259850,4325386,-0.00127006,0.00107805,0.0010235,-0.0067863,0.035333,-0.0506101,4985,4961,0
86894767,86894619,4259850,4325386,-0.000472247,0.000790364,0.00158604,-0.00344474,0.0285644,-0.0549772,4984,4964,0
87393696,87393585,4259850,4325386,-0.00028682,0.00063455,0.000777951,-0.0105538,0.0208207,-0.049113,4960,4925,0
87892247,87892124,4259850,4325386,-0.000866978,0.000806047,-0.000264735,-0.000724222,0.00317831,-0.0414644,4988,4968,0
88396026,88395865,4259850,4325386,-0.000119372,0.00114269,0.0004321,-0.00041973,0.00987937,-0.0475715,4983,4967,0
88895016,88894874,4259850,4325386,-0.000222867,0.000321488,-0.0012101,-0.0115739,-0.0174055,-0.0496143,4954,4955,0
89393520,89393374,4259850,4325386,0.000302072,-0.000240478,4.14298e-05,-0.00975355,0.0239069,-0.0587287,4990,4928,0
89892236,89892121,4259850,4325386,0.00150036,-0.000885756,-0.000856292,0.000865425,-0.0216678,-0.0466643,4985,4948,0
90392051,90391938,4259850,4325386,0.000720799,-0.00082342,-0.00102147,0.00265089,-0.0409665,-0.038189,4960,4926,0
90890732,90890624,4259850,4325386,-0.000261626,0.00158913,-0.000196103,0.0053172,-0.0161179,-0.0375108,4988,4936,0
91394906,91394368,4259850,4325386,0.00211479,-0.00102263,-9.79768e-05,0.015274,0.0191127,-0.0372121,4991,4926,0
91893369,91893225,4259850,4325386,-0.0011845,9.55587e-05,-0.000209227,-0.0179753,0.00804551,-0.0524645,5023,4916,0
92392247,92392071,4259850,4325386,0.000131737,0.000725421,0.00144916,-0.0157416,0.0288337,-0.0628954,4972,4922,0
92895797,92895610,4259850,4325386,0.000540205,-0.000249347,0.000601151,-0.00238239,0.0112819,-0.0546506,4988,5620,0
93395129,93394981,4259850,4325386,-0.000976839,0.00164478,-8.98374e-05,0.00427541,0.0105579,-0.0414451,4988,4991,0
93893239,93893119,4259850,4325386,-6.84265e-05,7.6123e-05,0.000293122,0.00236039,-0.0120175,-0.0447879,4973,4971,0
94391996,94391868,4259850,4325386,-0.000726688,-0.000130105,-2.21572e-05,-0.00970046,0.0134476,-0.0547225,4988,4934,0
94895767,94895617,4259850,4325386,0.000143544,-0.000499183,-9.2059e-05,0.00534295,-0.0221682,-0.0310612,4991,3942,0
95394534,95394358,4259850,4325386,0.00184355,-0.000738872,-0.000783163,0.00325746,-0.0254426,-0.0456876,4977,4929,0
95893685,95893438,4259850,4325386,-0.000614296,0.000750702,0.000335484,-0.00693483,0.0214,-0.0590262,4966,4968,0
96396972,96396853,4259850,4325386,0.000901852,9.8052e-05,-0.000230138,-0.000494552,0.00152533,-0.0406924,4980,4929,0
96895723,96895606,4259850,4325386,-0.000207001,-0.000809127,-0.000141459,-0.00325226,0.00926033,-0.0435287,4982,4928,0
97394473,97394359,4259850,4325386,0.000468718,-0.000754549,-0.00120707,-0.00234403,-0.0107892,-0.037976,4987,4983,0
97892872,97892707,4259850,4325386,0.000701571,-0.000797296,-6.33319e-05,0.00489966,0.00382723,-0.0607092,4991,5924,0
98392241,98391367,4259850,4325386,0.000156056,0.000977958,-0.000381838,-0.0125929,-0.0176251,-0.0560246,4988,4932,0
98895424,98895297,4259850,4325386,9.67356e-05,0.000341808,-0.000408063,0.0049266,-0.0136232,-0.0433383,4953,4926,0
99393970,99393859,4259850,4325386,0.000429579,-0.000368396,0.000657297,-0.00458194,-0.00775778,-0.051209,4988,4998,0
99897716,99897601,4259850,4325386,-0.00152605,0.000867415,0.000564849,-0.00987124,0.00720234,-0.052033,4990,4997,0
100396559,100396400,4259850,4325386,0.000731991,-0.000171891,-0.00029538,-0.0121362,-0.00904175,-0.0494419,4971,4971,0
100895251,100895108,4259850,4325386,0.000709922,-0.000918283,-0.00168219,-0.00706671,-0.0335052,-0.0542055,4988,4928,0
101394673,101394541,4259850,4325386,-0.000381384,0.000463195,-0.000320179,-0.00275744,-0.00563132,-0.0572127,4956,4927,0
101892906,101892624,4259850,4325386,-0.00130748,0.000314914,4.39538e-05,-0.00429104,-0.0117681,-0.0492674,5000,4967,0
102391672,102391501,4259850,4325386,-0.000893183,0.000451593,-0.00023271,-0.00161944,0.00946802,-0.0525009,4959,4959,0
102895221,102895102,4259850,4325386,0.000960131,-0.00186738,0.00134392,0.00260714,0.026099,-0.0407186,4985,4926,0
103394015,103393855,4259850,4325386,0.00125299,0.000816819,6.60573e-05,0.00370069,0.00305428,-0.0495627,4980,4930,0
103897768,103897605,4259850,4325386,-0.000488651,-7.70545e-05,-0.000303666,-0.013554,0.00806417,-0.055226,4996,4954,0
104391501,104391380,4259850,4325386,0.000142701,0.000310462,-0.00010414,-0.00946891,0.00712979,-0.0468341,5001,4872,0
104895281,104895135,4259850,4325386,0.000312306,0.000841144,8.35289e-05,0.002841,0.000501464,-0.043973,4990,4783,0
105394692,105394355,4259850,4325386,0.000373931,0.000358148,0.00114742,-0.00321279,-0.00299328,-0.0645536,4980,5853,0
105893218,105893106,4259850,4325386,-0.00049795,-0.000619256,-0.000607982,-0.00860985,0.0118527,-0.0506348,4988,4740,0
106397782,106396945,4259850,4325386,0.00137746,-0.00135622,-0.00036645,-0.00250213,-0.0214268,-0.0632966,4968,5917,0
106896182,106896033,4259850,4325386,0.000796536,-0.00101471,-0.000314283,0.00649923,-0.0129796,-0.0472201,4989,4981,0
107394469,107394350,4259850,4325386,0.000393779,-0.000202414,4.37506e-06,0.0104727,-0.00566868,-0.0415617,4988,4928,0
107893228,107893104,4259850,4325386,-0.000845213,0.000162502,0.000139359,-0.00320413,-0.0199435,-0.0437081,4989,4967,0
108391479,108391357,4259850,4325386,0.000626129,-0.000733263,0.000375029,0.00874102,0.0131755,-0.0444867,4988,4926,0
108895844,108895607,4259850,4325386,-0.000640071,-0.000586815,-0.000176797,-0.00491008,-0.0127505,-0.0550944,4999,4924,0
109394058,109393899,4259850,4325386,0.000192482,-0.000237424,0.000815142,-0.00141581,0.00554359,-0.0517453,4976,4975,0
109892742,109892602,4259850,4325386,-0.00157403,-0.000722291,0.0004891,-0.0115934,-0.0101628,-0.0523972,4988,4928,0
110396452,110396343,4259850,4325386,-0.000325488,5.75018e-05,0.000708761,0.00809596,-0.0101677,-0.0422593,4988,4937,0
110895284,110895098,4259850,4325386,0.0015008,0.00070298,-0.0013096,-0.00358777,-0.014349,-0.060102,4990,5914,0
111394135,111393981,4259850,4325386,-0.00192133,-0.000605569,7.10298e-05,-0.0124869,-0.000805156,-0.0597929,4960,4958,0
111892711,111892600,4259850,4325386,0.000201252,0.000601873,0.000785495,0.0053131,-0.0156324,-0.0453313,4936,4922,0
112391979,112391852,4259850,4325386,-0.000443697,0.000116819,-0.00056117,-0.0036813,-0.0194367,-0.0534615,4984,4784,0
112895745,112895599,4259850,4325386,-0.00216183,-0.000111252,-0.000574257,-0.0191061,0.00528432,-0.0536272,4994,4983,0
113394555,113394374,4259850,4325386,0.00109738,-8.93626e-05,-0.000229623,0.0104809,-0.000731534,-0.0386217,4974,4963,0
113893758,113893646,4259850,4325386,0.000247883,0.000645733,-0.000377367,-0.00737871,-0.0184458,-0.051625,4990,5010,0
114397522,114397386,4259850,4325386,-0.00117435,0.00230954,-0.000395111,-0.0118633,0.0146244,-0.0550976,4993,4979,0
114891540,114891426,4259850,4325386,-0.000260298,-0.00118711,-0.000326612,0.0137667,-0.0126568,-0.0437865,5263,4751,0
115395010,115394895,4259850,4325386,0.000706885,-0.000426328,-0.000360514,0.00268597,0.00806244,-0.0532504,4975,4922,0
115893931,115893816,4259850,4325386,0.000471789,0.000634332,0.000446178,0.00722828,-0.0151555,-0.0425797,4974,4927,0
116392685,116392470,4259850,4325386,0.000142959,0.00060674,0.000122968,0.000817093,0.0041745,-0.049856,4972,5908,0
116896355,116896136,4259850,4325386,0.00181579,-0.00022242,-0.000630032,0.00173405,-0.00134369,-0.0429186,4947,4931,0
117394996,117394887,4259850,4325386,-0.000434272,-6.98685e-05,-0.000981748,-0.00140623,0.000385546,-0.0365115,4987,4916,0
117893759,117893641,4259850,4325386,0.000449716,-0.00053492,-0.00068058,0.00116691,-0.0176363,-0.0459838,4987,4927,0
118392774,118392589,4259850,4325386,-0.00118341,0.000344788,0.00110843,-0.000235848,0.00218188,-0.0550555,4959,4960,0
118891258,118891145,4259850,4325386,-0.000149208,-0.00093512,-3.66425e-05,-0.00644815,-0.0154663,-0.0509949,4990,4995,0
119395112,119395001,4259850,4325386,-0.00326785,-0.00036059,-0.00017205,0.0027713,-0.0173542,-0.041451,4993,4957,0
119892821,119892676,4259850,4325386,0.000927128,-0.000437983,-0.000526971,0.00592447,-0.0135234,-0.0422693,4992,4930,0
120397032,120396833,4259850,4325386,0.00100707,-0.00143458,-0.000567449,-0.000208826,-0.0138416,-0.0397048,4986,4926,0
120896243,120896130,4259850,4325386,-0.000786229,0.00010703,0.000478769,-0.0112955,0.0104302,-0.0584506,4987,5151,0
121395101,121394885,4259850,4325386,-0.0013426,-0.000312308,0.00021301,-0.000410211,0.0153807,-0.0465498,4988,4994,0
121893862,121893752,4259850,4325386,0.00210705,-0.000151082,-0.000824575,0.00138206,-0.0100528,-0.038636,4962,4927,0
122392497,122392388,4259850,4325386,-0.000795169,-5.46702e-05,-0.000960413,0.000438727,-0.0101653,-0.042628,4988,4986,0
122891389,122891252,4259850,4325386,-0.00122841,-0.000162406,0.000279594,-0.00938387,0.00875002,-0.051642,5039,4934,0
123395440,123395331,4259850,4325386,0.00117944,0.00123507,0.000542388,-0.00530454,0.0091563,-0.0552132,4987,4962,0
123894303,123894156,4259850,4325386,-0.00117767,0.000773499,0.000674489,-0.00332729,0.0263846,-0.0545779,5024,4913,0
124393390,124393195,4259850,4325386,0.000331806,-0.000255623,-0.000724297,-0.0106049,-0.0129285,-0.0548519,4963,4958,0
124896736,124896587,4259850,4325386,-0.000663106,7.33726e-05,0.000186451,-0.00453871,0.0102741,-0.0443015,4998,4927,0
125390472,125390343,4259850,4325386,-0.00166204,9.52658e-06,0.00119558,-0.016485,0.0209986,-0.0465776,4988,4669,0
125894249,125894083,4259850,4325386,0.0020119,-0.0016824,-0.001039,0.0119046,-0.0230312,-0.0403472,4988,4926,0
126392965,126392834,4259850,4325386,-0.000643063,-0.000450826,0.000304913,-0.00465045,0.000212391,-0.0529131,4987,4990,0
126896416,126896303,4259850,4325386,-0.000600418,0.000843489,0.00135313,-0.009418,0.0341895,-0.0515546,5006,4651,0
127395198,127395061,4259850,4325386,0.003117,-0.000930857,-0.000784939,0.00808484,-0.00360322,-0.0424524,4954,4924,0
127893743,127893630,4259850,4325386,-0.000123735,0.000321961,0.00100915,-0.00732095,0.00711257,-0.0499529,4990,4927,0
128397527,128397375,4259850,4325386,-0.000144375,0.00129307,-5.2942e-05,-0.0110577,0.0108523,-0.0376724,4992,4053,0
128891325,128891148,4259850,4325386,-0.0003639,0.00034404,0.000370819,-0.00993425,-0.0112511,-0.0619985,4993,5912,0
129395002,129394873,4259850,4325386,0.000376859,-0.000374039,0.0012125,-0.0106447,0.030528,-0.0555301,4987,4926,0
129893800,129893626,4259850,4325386,-0.000312642,0.000617985,1.96089e-05,-2.93999e-07,-0.0142478,-0.0523213,4985,5908,0
130392602,130392482,4259850,4325386,0.000381251,-0.000981366,-0.000116759,0.00259612,-0.013714,-0.0448143,4994,4927,0
130896689,130896571,4259850,4325386,-0.000434474,0.000258291,0.000613375,-0.00527537,0.00452227,-0.0546779,4989,4976,0
131394982,131394871,4259850,4325386,0.000220387,-0.000120002,-0.000647721,0.000950899,-0.0127208,-0.048933,4988,4929,0
131894120,131893627,4259850,4325386,-7.64907e-05,0.000522844,-0.00020722,0.0112438,0.0162896,-0.0423244,4988,4983,0
132392491,132392376,4259850,4325386,0.000461162,0.000496319,-0.000645523,-0.00131767,-3.25692e-05,-0.0472824,4987,4927,0
132891592,132891401,4259850,4325386,0.000732065,-0.000209576,0.000782429,0.00710927,0.0167804,-0.0465648,5259,4987,0
133394996,133394868,4259850,4325386,0.000544135,-0.000648305,-0.000703989,0.00572368,-0.00843085,-0.0421353,4987,4962,0
133893766,133893656,4259850,4325386,0.000169533,-0.000928931,-0.00076446,-0.00186278,-0.0255993,-0.0436493,4990,4965,0
134392940,134392827,4259850,4325386,0.000390214,0.000813821,0.000308833,0.010366,0.0174641,-0.0447478,4990,4957,0
134897180,134897062,4259850,4325386,-0.00011952,0.000146349,-8.49558e-06,0.00286424,0.00641404,-0.0426455,4987,4926,0
135395932,135395816,4259850,4325386,0.000494235,-0.000342742,-0.00076641,-0.0134784,-0.0275273,-0.0566056,4986,5014,0
135894212,135894069,4259850,4325386,-0.0027752,0.000570097,0.00143802,-0.00606579,0.0234422,-0.05175,4988,4925,0
136392975,136392830,4259850,4325386,-0.00070467,0.000631178,3.26939e-05,-0.00416738,0.00411923,-0.0427937,4995,4950,0
136891774,136891657,4259850,4325386,0.00172898,-0.0013765,-0.000465356,-0.00210993,-0.0272173,-0.0456407,4966,4927,0
137395423,137395314,4259850,4325386,0.00043497,-0.000593844,-0.000144933,0.00864459,-0.0128208,-0.04253,4988,4925,0
137894234,137894069,4259850,4325386,-0.000404705,0.000309035,0.00071921,-0.00481615,0.00627247,-0.0526636,4990,4950,0
138393008,138392855,4259850,4325386,-0.00158444,0.000895848,0.000703453,-0.0101212,0.00213894,-0.0536495,4960,4927,0
138896997,138896883,4259850,4325386,0.00323696,0.000645037,-0.000579882,0.00418062,0.00403058,-0.0439594,5005,4931,0
139390457,139390323,4259850,4325386,-0.00499846,0.000175296,-0.000353102,0.00555523,0.00589008,-0.0435971,4984,4927,0
139894521,139894066,4259850,4325386,0.000485698,0.000448013,-0.00052874,-0.00421392,-0.000990106,-0.053251,4989,4924,0
140392947,140392832,4259850,4325386,0.00152446,-0.00039395,-0.00104283,0.00408939,-0.000683487,-0.0362757,4931,4922,0
140891743,140891568,4259850,4325386,0.00107803,-0.000622076,-0.00134545,0.000319834,-0.0292946,-0.0470985,4987,4979,0
141395418,141395308,4259850,4325386,2.48071e-05,0.000360141,0.000598059,0.00637318,0.0214779,-0.0486605,4987,4924,0
141894021,141893861,4259850,4325386,-0.00151528,0.000626869,0.000642993,-0.00890004,0.0155121,-0.0552407,4969,4926,0
142397726,142397353,4259850,4325386,-0.000541988,0.000469635,0.000758273,-0.00501017,0.0117191,-0.0519234,4990,4932,0
142891242,142891120,4259850,4325386,-0.00136248,0.00021333,0.00148916,0.00360733,0.0216107,-0.0450225,4991,4957,0
143394489,143394376,4259850,4325386,-0.000160467,0.000475962,0.000304629,-0.00583086,-2.62209e-05,-0.0482071,4994,4926,0
143893201,143893062,4259850,4325386,-0.00114822,4.32843e-05,0.000699564,-0.000370764,0.0210676,-0.0509418,4987,4928,0
144392088,144391858,4259850,4325386,-0.000313713,-4.48051e-05,0.000147307,-0.00140557,-0.0022721,-0.0478907,4967,4926,0
144895788,144895556,4259850,4325386,-0.00125167,-0.000378123,-0.00107125,-0.00668289,-0.0174627,-0.0498947,4976,4929,0
145394173,145394063,4259850,4325386,-0.000277718,-0.000416122,0.000152826,-0.00773508,-0.0138639,-0.0539661,4976,4968,0
145897835,145897707,4259850,4325386,0.000111312,0.000159891,-0.000670918,-0.00530917,0.00595267,-0.0506763,4993,4927,0
146391431,146391315,4259850,4325386,0.000833594,0.000234186,0.000635797,0.00340145,-0.00148118,-0.0432068,4990,4926,0
146895176,146895052,4259850,4325386,0.00086673,-0.00107971,-0.000191326,0.0139858,-0.0125204,-0.0410934,4988,4678,0
147394032,147393918,4259850,4325386,0.000938278,0.000264166,-0.000674592,0.0025819,-0.00891086,-0.0438783,4949,4922,0
147892677,147892556,4259850,4325386,0.000290013,-0.000855578,-0.000594444,0.000722842,-0.000853736,-0.046765,4987,4983,0
148396794,148396297,4259850,4325386,-0.000908389,0.000286854,0.000113089,-0.00464527,0.00190437,-0.0545912,4987,5675,0
148895327,148895136,4259850,4325386,-0.000462548,5.52641e-05,0.000467554,0.00320437,0.00984162,-0.0440046,4962,4956,0
149394392,149394221,4259850,4325386,0.00103637,-0.00181344,-0.000600079,0.0080074,-0.0244977,-0.039875,4976,4763,0
149893325,149893151,4259850,4325386,0.00267369,-0.000219713,-0.000878091,-0.00777254,-0.0276484,-0.055414,4965,4929,0
150391923,150391807,4259850,4325386,0.000238691,-0.000419968,-0.000325533,0.00160668,-0.00060386,-0.0362826,4988,4926,0
150895858,150895656,4259850,4325386,0.000837388,-0.000281454,-0.000843565,-0.00371215,-0.0186907,-0.0513339,4992,4952,0
151394439,151394297,4259850,4325386,0.00118321,0.000180148,0.000950209,0.00329644,0.0101003,-0.0476571,4985,4926,0
151892694,151892554,4259850,4325386,-0.00103981,-0.000447498,0.000226307,-0.000154153,-0.000865656,-0.0439106,4985,4927,0
152391537,152391344,4259850,4325386,0.000587907,0.000214638,-0.00588392,0.006505,-0.0020753,-0.0535965,4948,4955,0
152897023,152895544,4259850,4325386,0.00158525,-0.000431862,-0.00596527,0.01353,-0.0146945,-0.0348132,4985,4981,0
153394435,153394321,4259850,4325386,0.000641063,-0.000684577,0.000132278,0.00974342,-0.00682406,-0.0385181,4973,4979,0
153893195,153893047,4259850,4325386,0.000381204,-0.00071222,0.000419932,-0.00101259,-0.00810864,-0.0490256,4988,4985,0
154396898,154396289,4259850,4325386,-0.000890454,-0.000413405,0.000225127,-0.00781731,-0.000500388,-0.0565988,4985,4951,0
154895166,154895041,4259850,4325386,-0.000276198,2.79793e-05,0.000325084,0.00402192,-0.000229372,-0.0464037,4985,4925,0
155393910,155393793,4259850,4325386,-0.000567867,-0.000324397,-0.000685676,-0.00720233,-0.0220769,-0.0523571,4984,4966,0
155897653,155897535,4259850,4325386,0.0029064,-0.00112267,-0.00455612,-0.00217327,-0.0155613,-0.0482368,4990,4927,0
156396723,156396528,4259850,4325386,-0.00161821,0.000196552,-0.000523188,-0.0031947,0.0017393,-0.0470623,4985,4989,0
156890316,156890189,4259850,4325386,-0.00124318,0.000368805,0.00112242,-0.006536,0.00935994,-0.0509317,4983,4926,0
157393969,157393790,4259850,4325386,0.00127908,-0.000469748,-0.000635777,0.00247012,-0.0306497,-0.0409017,4987,4924,0
157892657,157892543,4259850,4325386,-0.000449428,-0.000152664,0.000137429,0.0109282,0.00932352,-0.0399532,4987,4672,0
158391687,158391551,4259850,4325386,6.14625e-05,-0.0009686,-0.000851554,0.000922174,-0.00537363,-0.0453941,4926,4926,0
158895152,158895037,4259850,4325386,0.000927868,-0.000437862,-0.000819972,-0.00714815,-0.0243157,-0.049577,4987,4930,0
159393957,159393838,4259850,4325386,0.00060349,-0.000733396,-0.000211919,0.00370722,-0.0166693,-0.0464049,5039,4932,0
159898179,159898028,4259850,4325386,0.000893145,-0.000526803,-9.6434e-05,0.00697916,-0.0107938,-0.0396305,4988,4986,0
160391900,160391792,4259850,4325386,-0.000139998,0.000263441,0.000683672,-0.0013545,0.0183441,-0.0507368,4987,4960,0
160895171,160895033,4259850,4325386,0.000844576,-0.00094598,-0.00139277,-0.00564026,-0.0323859,-0.0515784,4989,4951,0
161393906,161393785,4259850,4325386,0.000789765,-0.00038481,-0.00121501,0.00736554,-0.00750424,-0.0366429,4984,4926,0
161892849,161892715,4259850,4325386,0.000173415,-0.000213504,0.000173722,-0.00161238,-0.00867218,-0.0405838,4971,4926,0
162396642,162396279,4259850,4325386,0.00160623,0.000853847,-0.000185662,0.0116672,-0.00544323,-0.0425021,4990,4933,0
162895147,162895030,4259850,4325386,-0.000782435,-0.00013534,-2.99063e-05,-0.0113544,0.000410971,-0.0576648,4988,4969,0
163394090,163393899,4259850,4325386,3.74053e-05,0.000402757,0.000167599,0.00670056,0.0196427,-0.0385335,4986,4947,0
163892758,163892605,4259850,4325386,-0.000227256,-0.000172018,-0.00184283,-0.00369482,-0.000447251,-0.0502747,5039,4926,0
164391708,164391472,4259850,4325386,-0.00090074,3.82495e-05,-0.000834748,-0.0149954,-0.0101907,-0.0606137,4980,4925,0
164895228,164895036,4259850,4325386,-6.245e-05,0.0016589,0.000263349,-0.00167668,0.00583779,-0.056279,4997,4977,0
165394014,165393879,4259850,4325386,-0.00030776,-0.000242094,-0.000189152,-0.0136954,-0.0189808,-0.0565475,4966,4927,0
165897655,165897524,4259850,4325386,-0.000272378,4.99213e-05,-1.4654e-05,-0.00467974,-0.0103943,-0.0562391,4993,4968,0
166396387,166396271,4259850,4325386,0.000493734,-0.00026176,-0.000742222,-0.00454414,-0.0128945,-0.0415366,4987,4967,0
166895231,166895079,4259850,4325386,0.00019516,-0.000413738,-0.00029018,0.00388779,-0.000250203,-0.0363958,4987,4919,0
167393392,167393279,4259850,4325386,0.000507255,-0.000571823,-0.000458384,-0.00485762,-0.0163291,-0.0435173,4988,4991,0
167892762,167892652,4259850,4325386,-0.000248186,-0.000250303,0.000772438,-0.00486164,-0.0155948,-0.0523788,4996,4927,0
168391425,168391281,4259850,4325386,0.000495868,-0.00122028,-0.000934946,-0.000927441,-0.0298886,-0.053625,4986,4924,0
168895188,168895051,4259850,4325386,0.000919791,3.41954e-05,-0.000251258,-0.00269211,0.00495338,-0.0507431,4967,4927,0
169393979,169393776,4259850,4325386,-0.000922146,0.00022057,0.0003768,-0.00167555,0.00259853,-0.0518575,4990,4921,0
169892669,169892526,4259850,4325386,0.000288824,-0.000107635,-0.000155267,0.00114513,-0.0162223,-0.050443,4988,4965,0
170396494,170396271,4259850,4325386,-0.000137129,0.000128969,-0.00041876,-0.000928044,-0.00504756,-0.0451162,4996,4926,0
170890373,170890263,4259850,4325386,0.000986077,-0.00021584,-0.00180723,0.00793903,0.00161312,-0.04219,4966,4966,0
171394438,171394288,4259850,4325386,0.000726244,-0.0011957,-0.0111295,0.0143244,0.00630613,-0.0313448,4945,4926,0
171897641,171897513,4259850,4325386,-0.000708747,2.87875e-05,-0.00127995,-0.00549969,-0.0126782,-0.039116,4944,4926,0
172396407,172396264,4259850,4325386,9.04165e-05,-9.87524e-05,0.00169725,0.00370605,0.0110445,-0.0457926,4988,4927,0
172895198,172895015,4259850,4325386,0.00109675,0.00171371,3.10294e-05,-0.00665261,-0.0181808,-0.0540401,4984,4716,0
173393882,173393768,4259850,4325386,0.00121822,0.00018487,9.5272e-05,0.00396151,0.0117781,-0.0552166,4988,4968,0
173898025,173897509,4259850,4325386,-0.00130162,0.000664516,-0.000402749,-0.0165753,0.00221806,-0.0747937,4987,5914,0
174391562,174391380,4259850,4325386,7.57513e-05,-0.000226138,-0.000980553,0.00561827,0.00549295,-0.0468527,4964,4922,0
174895150,174895021,4259850,4325386,0.000391113,0.00016126,4.76605e-05,-0.00129024,0.000462452,-0.0435548,4995,4933,0
175394097,175393944,4259850,4325386,0.00336359,-0.00074354,-0.00100672,-0.00436564,-0.0225721,-0.0530841,5004,5000,0
175892638,175892517,4259850,4325386,-0.000784011,-0.000115227,-0.000154323,0.000936237,-0.00801086,-0.0470027,4987,4927,0
176396626,176396474,4259850,4325386,-7.65768e-05,0.000638436,-6.20058e-05,-0.0033249,0.000568653,-0.0471231,4969,4922,0
176895186,176895015,4259850,4325386,0.000108804,-0.000131853,-0.000165633,-0.016238,-0.00908331,-0.0557219,4991,4939,0
177394969,177393763,4259850,4325386,0.00129658,-0.000219481,-9.2735e-05,0.00744195,-0.00985055,-0.0468068,4974,4928,0
177892710,177892602,4259850,4325386,-0.000287048,-2.48142e-05,-0.000396471,-0.000917987,-0.00843735,-0.0442864,4974,4984,0
178391401,178391267,4259850,4325386,0.000190378,-0.000483939,-0.000740199,0.0013495,-0.0119056,-0.050131,4987,4927,0
178895295,178895110,4259850,4325386,-0.000717718,-0.000366122,-0.00124244,0.00531956,-0.010708,-0.0410251,4993,4977,0
179393902,179393760,4259850,4325386,0.000238173,-7.33562e-05,-0.00185038,-0.000763776,-0.0120998,-0.0473783,4988,4944,0
179892812,179892667,4259850,4325386,-0.000209881,-7.2952e-05,-3.46184e-05,-0.00647551,-0.00947812,-0.053407,4952,4924,0
180396359,180396251,4259850,4325386,0.000362545,0.000100894,-8.74873e-05,-0.000661634,0.000323067,-0.0462328,4944,4927,0
180895435,180895007,4259850,4325386,0.000432166,0.000168175,0.000989752,-0.000115345,0.00213193,-0.0508081,4982,4982,0
181393880,181393770,4259850,4325386,-0.00214835,0.000351499,5.60892e-05,-0.00843186,-0.0105336,-0.0560441,5000,4883,0
181892632,181892509,4259850,4325386,-0.000520094,-3.6347e-05,0.00039773,0.000255178,0.0118372,-0.0496136,4988,4990,0
182391444,182391293,4259850,4325386,-0.000182276,-0.00102395,-0.000203425,0.00246527,0.00558286,-0.044402,4991,4986,0
182895142,182895005,4259850,4325386,-0.00068185,0.00103901,-0.000372087,-0.00352885,0.00397745,-0.0532175,4989,4927,0
183394011,183393839,4259850,4325386,0.000841556,-0.000587231,-0.00150006,0.00219838,-0.0303891,-0.0473943,4964,4962,0
183896786,183896656,4259850,4325386,-0.000121961,0.000107054,-0.000270974,-0.000610915,-0.00375606,-0.0487671,4959,4927,0
184395356,184395248,4259850,4325386,-0.000149789,0.000295734,0.000135319,0.00769791,0.00763151,-0.0449123,4987,4994,0
184894117,184894001,4259850,4325386,0.000454293,4.87482e-05,-0.000215601,-0.00598303,-0.011949,-0.0553611,4987,5003,0
185392414,185392303,4259850,4325386,-0.00180349,0.000311639,0.000525845,-0.00195737,0.0108697,-0.0504306,4980,4928,0
185896474,185896228,4259850,4325386,-5.30829e-05,-6.33536e-05,5.08813e-05,0.00352236,0.0104989,-0.0393368,5002,4963,0
186394905,186394795,4259850,4325386,0.000634949,0.000105083,-0.000547341,-0.00176523,-0.00807941,-0.0452568,4983,4965,0
186894589,186894055,4259850,4325386,0.00265532,-0.00101859,-0.000903113,0.00503953,-0.0218579,-0.0424904,4986,4921,0
187393002,187392859,4259850,4325386,-0.00125791,0.000582487,-0.000844197,-0.00307409,-0.00442367,-0.0465738,4966,4926,0
187896601,187896490,4259850,4325386,-0.00108485,0.000208075,0.000138613,0.00395768,0.0163027,-0.0442221,4987,4975,0
188390371,188390256,4259850,4325386,-0.00136502,0.00105846,0.00137355,-0.00839785,0.0154329,-0.050593,4988,4937,0
188894107,188893996,4259850,4325386,0.000357198,-0.000294916,-0.000191071,-0.000271278,0.00299697,-0.0493732,4986,4987,0
189393111,189392997,4259850,4325386,-0.000347553,0.000434951,0.000479165,-0.00232834,0.0138784,-0.0542098,4960,4925,0
189896186,189896038,4259850,4325386,0.000867098,-0.00116743,-1.80365e-05,0.00945807,-0.0190219,-0.0416466,4988,4923,0
190395112,190394926,4259850,4325386,-0.00101333,-3.8258e-05,-0.00051556,-0.00105672,-0.0183828,-0.0502197,4965,4934,0
190893658,190893542,4259850,4325386,-0.000560981,0.000248996,-0.000617188,-0.0168516,-0.0156759,-0.0543994,4987,4927,0
191397394,191397282,4259850,4325386,-0.000350562,-0.000358747,0.000301752,-0.00105544,-0.00325762,-0.0448205,4987,4963,0
191891200,191891077,4259850,4325386,-0.000508868,-9.75461e-05,0.000113483,0.00233581,0.0036003,-0.0437858,4971,4969,0
192395201,192395057,4259850,4325386,-0.000661764,-0.000456573,0.00048036,-0.0079497,0.017569,-0.0537548,5256,4990,0
192893174,192892994,4259850,4325386,-0.00125568,0.00223245,0.000455387,-0.00431894,0.0246887,-0.0527787,4990,4977,0
193396364,193396250,4259850,4325386,-0.000378632,4.01928e-05,0.000477137,-0.0035361,-0.00276875,-0.0540793,4985,4980,0
193895368,193895181,4259850,4325386,-0.00119326,-0.000128354,0.000692201,0.00474434,-0.00436966,-0.0574225,5005,5912,0
194394138,194393958,4259850,4325386,-0.000577536,0.000141583,2.32308e-05,-8.45782e-05,0.00968221,-0.0565841,4966,6021,0
194897588,194897480,4259850,4325386,0.000142074,-0.000240881,-0.000220467,0.0031237,-0.0130876,-0.0380071,4987,4925,0
195391398,195391248,4259850,4325386,-0.0014869,0.00057244,0.00158548,0.000364427,0.0346277,-0.0385756,4989,4080,0
195895150,195894983,4259850,4325386,-0.00102671,-6.95819e-06,0.00113168,0.00147223,0.01845,-0.0471792,4973,4948,0
196393876,196393738,4259850,4325386,-0.000535873,0.000390176,-0.000225063,-0.00646819,-0.00423649,-0.0519325,4988,4927,0
196892609,196892490,4259850,4325386,-0.00117791,0.000875774,0.000600475,-0.00641048,0.0200678,-0.0550613,4987,4968,0
197396499,197396342,4259850,4325386,0.00049797,0.000687124,-0.00104309,-0.00350684,-0.0101095,-0.0453873,4988,4991,0
197894631,197894485,4259850,4325386,-0.00115413,0.000764463,4.3698e-05,-0.0132183,0.000477065,-0.0560055,4988,4974,0
198393367,198393239,4259850,4325386,0.000173244,5.70865e-05,-3.12747e-06,0.00293421,0.00631396,-0.0472394,4988,4926,0
198892336,198892184,4259850,4325386,5.30046e-05,-0.000306025,0.000340408,0.000338624,0.0017686,-0.0488892,4986,4785,0
199390956,199390777,4259850,4325386,0.000447197,-0.000340038,-0.000194214,-0.00195357,-0.00562853,-0.0443923,4985,4928,0
199894620,199894482,4259850,4325386,-0.00157468,-0.000230999,-0.000798355,-0.00378621,-0.0101012,-0.0431064,4987,4976,0
200393349,200393236,4259850,4325386,0.000496096,0.000429341,-0.000155975,0.000758292,-0.00612787,-0.0461262,4978,4965,0
200896615,200896489,4259850,4325386,0.00160276,-0.000702783,-0.000630786,0.00168621,-0.0195216,-0.0469192,4997,4887,0
201396068,201395300,4259850,4325386,0.00156851,-0.000518683,-0.000624343,0.00342376,-0.014115,-0.0459251,4982,4971,0
201894429,201894316,4259850,4325386,6.84126e-05,0.000179306,-0.0002874,0.00760785,0.0102868,-0.0424955,4954,4926,0
202392894,202392749,4259850,4325386,-0.00069233,-0.000455346,-0.000792371,-0.00237477,-0.0111928,-0.0479551,5002,4884,0
202891640,202891487,4259850,4325386,0.000219792,-0.000311496,-0.000455763,-0.000829232,-0.00656953,-0.0389324,4984,4921,0
203395340,203395230,4259850,4325386,0.00108018,0.000170587,0.000805115,0.00812774,0.0171556,-0.04262,4989,4926,0
203894175,203893984,4259850,4325386,-0.00124634,-0.000256972,-3.72014e-05,-0.00648151,-0.00536938,-0.050389,4991,4928,0
204392617,204392465,4259850,4325386,0.0010087,-0.000658633,-0.0008115,-0.00455697,-0.0203299,-0.052164,4986,4986,0
204896373,204896208,4259850,4325386,0.000915689,-0.000164761,-0.000771322,-0.000801732,-0.0085627,-0.0528228,4965,4926,0
205394890,205394775,4259850,4325386,0.000106575,0.00101508,0.000885917,-0.00176607,0.0130602,-0.0518349,4988,4969,0
205893439,205893254,4259850,4325386,-0.000256657,-0.000569608,3.74593e-05,0.00629028,0.0107553,-0.0448991,4988,4988,0
206392031,206391891,4259850,4325386,-0.000807764,-0.000782179,-0.000662867,-0.0102634,-0.0267232,-0.0514269,4996,4930,0
206895640,206895475,4259850,4325386,-0.000291418,-0.000266463,-0.000130605,0.00329865,-0.00448647,-0.0439584,4987,4970,0
207394412,207394265,4259850,4325386,0.00109018,-0.000252521,0.000745761,0.00185826,0.0159534,-0.0451325,4967,4967,0
207892590,207892481,4259850,4325386,0.000598731,-0.00136575,-0.000670765,-0.0078162,-0.0138632,-0.0442364,4987,4928,0
208395062,208394937,4259850,4325386,-0.00163279,0.00255599,0.000764578,-0.0141938,0.0236204,-0.0550157,5012,4909,0
208893636,208893525,4259850,4325386,0.00158192,-0.000742,0.000777736,-0.00982985,-0.0038591,-0.057824,4986,4927,0
209392407,209392280,4259850,4325386,-0.000951689,0.000738486,0.00117402,-0.00296394,0.0271573,-0.0564642,4989,4987,0
209890712,209890571,4259850,4325386,0.000497742,-0.00166396,-0.00107908,0.00883221,-0.0214538,-0.0379664,4991,4925,0
210394401,210394225,4259850,4325386,-0.00104581,0.00056617,0.000210635,-0.00590203,-0.0015045,-0.0482204,4984,4432,0
210893126,210893015,4259850,4325386,0.000964152,-0.000186,-0.000113208,0.0115209,4.73485e-05,-0.0391008,5025,4910,0
211392176,211391990,4259850,4325386,-0.000118766,-0.000708222,-0.000125741,-0.00736287,-0.00997849,-0.0524305,5244,4927,0
211890617,211890489,4259850,4325386,-0.000529252,-0.000270984,-0.000557992,-0.00246036,-0.00340499,-0.0420783,4994,4751,0
212394444,212394226,4259850,4325386,-0.000527541,-0.000650298,0.00158233,0.000805087,0.0315127,-0.0598752,4979,5904,0
212893217,212893100,4259850,4325386,0.000230498,-0.00111639,5.24077e-05,0.00818873,-0.00756627,-0.0402855,4977,4926,0
213391901,213391761,4259850,4325386,0.000129099,2.86937e-06,2.36972e-05,0.0108218,0.0150393,-0.0356483,4999,4930,0
213895756,213895476,4259850,4325386,0.0013257,-0.000699855,-0.000934417,0.00318661,-0.0114967,-0.0438413,4801,4930,0
214394334,214394223,4259850,4325386,6.58735e-05,0.000490827,0.000458768,-0.00398668,0.00234771,-0.0513685,4986,4949,0
214894097,214893525,4259850,4325386,-0.00042718,-0.000124952,0.000459987,-0.00879515,0.00550853,-0.0654567,4991,5916,0
215392563,215392455,4259850,4325386,-0.00258624,0.000286108,0.000407947,-0.011459,-0.00829697,-0.0587093,4966,4927,0
215896134,215896017,4259850,4325386,0.00333106,-0.000143894,-0.000480885,0.00747927,0.00103218,-0.0472824,4988,4928,0
216389893,216389780,4259850,4325386,-0.00129376,0.000164026,0.000769716,-0.0122739,0.00793173,-0.0510174,4987,4981,0
216893701,216893521,4259850,4325386,-0.000332895,-0.0010121,-0.00021959,-0.00240738,-0.0216138,-0.047968,4985,4928,0
217392563,217392406,4259850,4325386,0.000463735,-0.000408519,-0.000713554,-0.00169221,-0.0195401,-0.0468786,4969,4971,0
217896128,217896014,4259850,4325386,-0.000432137,0.000135203,0.000232086,0.0023146,0.0179253,-0.0491824,4949,4925,0
218394477,218394330,4259850,4325386,-0.000904311,0.00362131,6.87489e-05,5.70833e-05,0.00252162,-0.0467345,4974,4929,0
218893090,218892973,4259850,4325386,0.00209404,0.000417973,-0.000472802,0.0053141,-0.00360455,-0.0447677,4987,4962,0
219396876,219396714,4259850,4325386,1.52886e-05,-0.0013229,-0.00058052,-0.00230185,-0.0184884,-0.0533989,4988,5913,0
219895648,219895504,4259850,4325386,0.000655348,-0.000875106,-0.00125307,0.00643225,-0.0194421,-0.0429275,5022,4933,0
220394600,220394468,4259850,4325386,-0.000304441,0.00104224,0.000884528,-0.00788744,0.0213771,-0.0562428,4968,4992,0
220893720,220893567,4259850,4325386,0.000823157,4.2681e-05,-0.00036248,0.000740789,-0.00951858,-0.0460584,4956,4949,0
221392425,221392273,4259850,4325386,0.000304059,-0.000331774,-0.00130988,-0.00945826,-0.0288707,-0.0475226,4988,4780,0
221896152,221896013,4259850,4325386,0.000990886,-0.000403668,-0.000781344,0.00383165,-0.0139464,-0.0436704,4984,4962,0
222394949,222394837,4259850,4325386,8.28665e-05,-0.000285299,-0.000732375,0.001208,0.00359931,-0.0470792,4961,4967,0
222894177,222893971,4259850,4325386,0.000558823,-0.000215808,-0.000191722,0.00223346,0.000778536,-0.0451344,4980,4969,0
223393052,223392895,4259850,4325386,-3.99202e-05,0.000261781,0.000304639,-0.00415233,0.00125168,-0.0539771,4961,4959,0
223891740,223891611,4259850,4325386,-0.000156,-0.000209679,-0.000387987,0.00760415,0.00673812,-0.0441252,5047,4935,0
224394884,224394769,4259850,4325386,-0.000653141,-0.000928585,-0.000358018,-0.00768133,-0.0303236,-0.0515691,4979,4999,0
224893654,224893519,4259850,4325386,0.0014772,-0.000388965,-0.000128381,0.00838156,0.0163855,-0.0413658,4988,4928,0
225397561,225397263,4259850,4325386,-0.000807896,0.000127303,0.000137093,-0.00707619,0.00609841,-0.0503002,4991,4926,0
225896597,225896486,4259850,4325386,0.000196352,-0.00105461,-0.000263843,-0.0144245,-0.00175562,-0.0565034,5010,4888,0
226395246,226395066,4259850,4325386,-0.000708529,-3.38703e-05,-0.000545554,0.00339065,0.00852446,-0.0456675,4963,4947,0
226893659,226893518,4259850,4325386,0.00275303,-0.000233566,-0.000309214,0.0036565,0.0118251,-0.046178,4987,4933,0
227392381,227392272,4259850,4325386,-0.00253437,-0.000903902,-0.000778366,-0.0119166,-0.0242477,-0.0522165,4988,4927,0
227896189,227896015,4259850,4325386,-0.000266088,0.000607563,-0.000129392,-0.00307236,0.00269266,-0.0474075,4990,4945,0
228395197,228395017,4259850,4325386,0.00222604,-0.000284051,-0.000635547,-0.00678435,-0.00771689,-0.0584169,4967,4961,0
228893633,228893519,4259850,4325386,-0.000457068,-0.00107011,-0.000231273,0.00880699,0.0118312,-0.0451864,4948,4925,0
229392830,229392724,4259850,4325386,0.000352859,0.000131796,0.000194888,-0.00275671,0.0151125,-0.0481376,4989,4929,0
229896574,229896464,4259850,4325386,-0.00053966,0.000304269,0.000888468,0.000744963,0.00108787,-0.049204,4986,4955,0
230394908,230394768,4259850,4325386,0.000732546,6.10433e-05,-0.000757177,0.00611226,-0.0186653,-0.0463815,4990,4930,0
230893630,230893519,4259850,4325386,-0.00113384,0.000917784,0.00115543,-0.000945544,0.0241258,-0.0458741,4988,4965,0
231397500,231397263,4259850,4325386,0.000837734,-0.000267058,-0.000823133,0.00251014,-0.00482934,-0.0457865,4986,4964,0
231896335,231896200,4259850,4325386,9.18311e-05,-0.00125854,0.00101132,0.00122896,-0.00793089,-0.0558998,4974,4928,0
232395587,232394769,4259850,4325386,-0.00169699,0.00271918,-0.000175921,0.00509467,-0.0102751,-0.0475971,4991,4987,0
232893632,232893519,4259850,4325386,0.000936283,0.000506688,-0.000166481,-0.00546575,-0.0121093,-0.0529805,4939,4924,0
233398768,233397476,4259850,4325386,-0.0015011,-0.00150161,-0.000140789,0.00717236,-0.0123274,-0.0414314,4974,4782,0
233890596,233890479,4259850,4325386,-0.000661291,0.000191988,-0.000309476,-0.00627036,-0.0204563,-0.0495289,4984,4929,0
234393332,234393222,4259850,4325386,0.000140486,-4.37046e-05,0.000233986,-0.0104735,-0.000881918,-0.0554249,4988,4963,0
234891642,234891531,4259850,4325386,-0.000966235,0.000386109,0.000285604,0.00678863,0.0113025,-0.0376558,4989,4925,0
235395864,235395721,4259850,4325386,-0.00173852,9.56602e-05,-0.000335986,0.0013041,-0.00325264,-0.0452243,4993,4938,0
235894641,235894469,4259850,4325386,-0.00161419,0.00152976,0.00031159,-0.00637505,0.0255951,-0.0630477,4988,5914,0
236393408,236393290,4259850,4325386,0.00109962,-0.000992291,-0.000193582,0.00769724,-0.0117411,-0.0529005,4983,4928,0
236897313,236897156,4259850,4325386,-0.000828768,8.06814e-05,-8.37551e-05,-0.00905331,-0.00663651,-0.0502922,4954,4927,0
237390839,237390729,4259850,4325386,0.000822106,-0.00088174,-0.000843617,-0.00173312,-0.0250925,-0.0439942,4987,4925,0
237894579,237894471,4259850,4325386,-0.000391971,-0.000424692,-0.000929026,-0.00438842,-0.0182362,-0.0420278,4988,4922,0
238393437,238393226,4259850,4325386,-0.00110492,-0.000489931,-0.000405526,-0.00480881,-0.0125969,-0.0548318,4973,5915,0
238892163,238891978,4259850,4325386,-0.000441211,-0.000327111,0.000158492,-0.0105022,0.00766706,-0.051374,4989,4964,0
239395869,239395721,4259850,4325386,0.000710235,-0.00113773,0.000903344,0.00410514,0.0212179,-0.0462889,4991,4927,0
239894627,239894471,4259850,4325386,0.000950329,0.000493845,0.00105098,-0.00949311,-0.00497165,-0.0540973,4982,4931,0
240393727,240393562,4259850,4325386,-0.000372179,0.000822398,0.00062234,0.000437473,-0.0015897,-0.0480799,4972,4966,0
240892358,240891981,4259850,4325386,0.00165535,-0.00124319,-0.000479492,0.00607636,-0.00749323,-0.0466752,4991,4928,0
241390838,241390730,4259850,4325386,-0.000617101,0.000470145,-0.000455084,-0.0150826,0.00110723,-0.0582755,4986,4966,0
241894609,241894472,4259850,4325386,6.20188e-06,-0.00132947,0.000505642,-0.00737545,-0.00824723,-0.0538883,4993,4971,0
242393654,242393492,4259850,4325386,-0.000648515,0.000189043,0.000498966,-0.00349748,0.00297326,-0.0602262,5255,6144,0
242897086,242896976,4259850,4325386,0.000284887,-0.000863723,-0.000822643,-0.00752292,-0.0163063,-0.0492561,4998,4877,0
243395832,243395720,4259850,4325386,0.000855213,0.00130611,0.000689773,0.0021563,0.0110973,-0.0510047,4988,4929,0
243894962,243894732,4259850,4325386,-0.000304274,0.000213857,0.00067903,0.00803906,-0.00539588,-0.0451039,4964,4971,0
244392975,244392729,4259850,4325386,0.000133329,0.000125325,8.67906e-05,-0.00529568,-0.0042124,-0.0537348,4978,4932,0
244891654,244891500,4259850,4325386,0.00133146,-0.000373851,-0.000692559,0.00373912,-0.0118893,-0.0471967,4976,4991,0
245394505,245394377,4259850,4325386,-0.00104338,-2.55306e-05,-0.000231816,0.00552624,0.00762673,-0.0397789,4963,4965,0
245893087,245892977,4259850,4325386,-0.00129115,0.000845062,0.000569608,-0.00346828,0.0111254,-0.0483478,4985,4980,0
246392724,246392536,4259850,4325386,-0.000450806,-0.000491089,0.00103293,-0.00152454,0.0118885,-0.0540812,4970,4974,0
246896173,246896024,4259850,4325386,0.00266665,-0.000835918,-0.00016118,0.00398054,0.00901912,-0.0447218,4991,4750,0
247394881,247394771,4259850,4325386,0.001049,0.000959802,-0.00112327,-0.00589131,-0.0278092,-0.0515029,4987,4928,0
247893092,247892978,4259850,4325386,-0.00237291,0.000987737,0.00181037,-0.00221896,0.0362216,-0.0541097,4988,4985,0
248391855,248391741,4259850,4325386,0.000515042,-9.74473e-05,2.28462e-05,0.00853693,0.0158459,-0.0445608,4997,4958,0
248895681,248895547,4259850,4325386,-0.00101739,0.000580415,0.000562979,-0.0084922,0.0101012,-0.0471896,4960,4961,0
249394390,249394229,4259850,4325386,-0.00131095,0.000163637,0.000127253,-0.00418865,-0.0118967,-0.0529964,4988,4928,0
249893093,249892981,4259850,4325386,0.000846748,-0.000739418,-0.000311488,0.00917744,-0.0245849,-0.0462229,4990,4926,0
250397531,250396784,4259850,4325386,-0.000538526,0.00068814,0.000389621,-0.0102301,0.0159913,-0.0607892,4986,5913,0
250895772,250895637,4259850,4325386,0.00237674,-0.000506102,-0.000854731,-0.0044001,-0.00723075,-0.0495312,4966,4930,0
251394342,251394227,4259850,4325386,0.000710806,-0.00105955,-0.000107324,-0.000874875,-0.0196613,-0.0518409,4988,4926,0
251893092,251892982,4259850,4325386,-0.000313313,-0.000127152,0.000105302,-0.00607653,0.0029426,-0.0456814,4988,4973,0
252391934,252391757,4259850,4325386,0.00046539,-3.56903e-05,0.00117708,0.00632879,-0.00606276,-0.0445914,4959,4962,0
252895609,252895476,4259850,4325386,0.0014781,0.000258158,-0.000156519,-0.00903616,0.00445371,-0.0550828,4988,4986,0
253393914,253393729,4259850,4325386,-0.000910404,-0.000593182,-0.000271379,-0.0102996,-0.0118493,-0.040776,4989,4953,0
253892912,253892736,4259850,4325386,-0.00355186,0.00166579,0.00172482,0.000528295,0.0378511,-0.0481464,5237,4929,0
254396336,254396224,4259850,4325386,-1.79774e-05,0.000636725,0.000504176,-0.00756767,-0.00700046,-0.0577854,4988,4948,0
254895102,254894987,4259850,4325386,0.000112488,-0.000173538,0.000792669,0.00411144,0.0150088,-0.0472026,4984,4978,0
255392932,255392748,4259850,4325386,0.00234305,0.000528444,0.000734433,-0.000376768,0.0207421,-0.0549832,5001,4964,0
255891798,255891689,4259850,4325386,0.00178305,-0.000399177,0.000562329,0.0112055,0.00204898,-0.0363494,5021,4920,0
256395338,256395228,4259850,4325386,-0.00165698,0.00123868,0.00068193,-0.00436149,0.0377948,-0.0458107,4987,4984,0
256894174,256894003,4259850,4325386,0.000161713,-0.000671633,-0.000350377,-0.000610162,-0.0138688,-0.049772,4996,4436,0
257393047,257392927,4259850,4325386,0.000394888,-0.000920319,1.11408e-06,0.0104026,-0.0211662,-0.0494999,4993,4928,0
257896877,257896748,4259850,4325386,-7.26034e-05,-0.000863887,0.000819192,-0.00582793,-0.00758035,-0.0573063,5259,4931,0
258390375,258390243,4259850,4325386,-0.000179173,0.000731937,0.000625427,-0.001608,0.0177488,-0.0451128,4988,4983,0
258894709,258894037,4259850,4325386,-0.00536204,0.00213731,0.000268388,-0.0133102,0.0160258,-0.0535547,5039,4919,0
259392970,259392859,4259850,4325386,-2.16944e-05,0.000220258,4.62007e-05,-0.00960622,0.00934326,-0.0525849,4970,4971,0
259896172,259896027,4259850,4325386,0.000503527,-0.000165419,0.000352927,0.00298367,-0.00873483,-0.0476648,4980,4935,0
260394906,260394783,4259850,4325386,-0.000975584,-0.00110031,-0.00088381,-0.00538232,-0.0172276,-0.0508816,4994,4924,0
260893667,260893535,4259850,4325386,-0.000425874,8.57625e-05,-0.000245129,0.00147267,0.00315958,-0.0464007,4987,4927,0
261398445,261396868,4259850,4325386,0.000167237,0.00100381,0.000524222,-0.00204191,0.0096232,-0.0473084,4951,4938,0
261890633,261890496,4259850,4325386,-6.85268e-05,0.000571809,0.000223041,-0.00632119,-0.00618331,-0.05135,4987,4928,0
262394348,262394236,4259850,4325386,-0.000256673,-0.000640933,-0.000699881,-0.000940111,-0.0204289,-0.0433363,4988,4952,0
262893106,262892990,4259850,4325386,-0.000310212,0.00044641,-1.54912e-05,-0.00219586,0.0102657,-0.0469686,4988,4932,0
263396348,263396234,4259850,4325386,-7.66671e-05,0.00033235,-0.000155409,-0.00865513,0.00179463,-0.0529722,4990,4924,0
263895715,263895529,4259850,4325386,-0.000553846,0.00360941,0.000939562,-0.0110905,0.0120058,-0.058337,5026,4901,0
264394370,264394238,4259850,4325386,0.00172223,-2.54694e-05,-0.000190041,-0.00172422,-0.0150494,-0.0489369,4988,4932,0
264898715,264898053,4259850,4325386,-0.00149466,-0.000800409,-0.00021471,0.00405191,-0.0121897,-0.0409755,4976,4933,0
265392278,265392162,4259850,4325386,0.00127577,0.000642071,0.00173793,-0.00596282,0.0210643,-0.0544431,4981,4929,0
265890651,265890511,4259850,4325386,-0.000136792,0.000702234,0.000757372,-0.00325052,0.0196038,-0.0451859,5000,4887,0
266394358,266394241,4259850,4325386,2.30648e-05,-0.000185502,0.000286746,0.000190528,0.00467785,-0.0445256,4976,4928,0
266893166,266893033,4259850,4325386,0.000408016,-0.00139172,-0.000712772,0.00112299,-0.0157797,-0.0485791,4968,4939,0
267396425,267396314,4259850,4325386,-0.000507697,-0.000795248,-0.000442671,0.00458313,-0.0172426,-0.0438421,4986,4965,0
267895135,267895006,4259850,4325386,0.00039214,-0.000381802,-7.27441e-05,-0.00776384,-0.00031337,-0.0502404,4958,4961,0
268393418,268393244,4259850,4325386,-0.000499775,2.81101e-05,5.63831e-05,-0.0038609,-0.000681793,-0.056127,4987,5913,0
268892264,268892115,4259850,4325386,-0.000413281,0.000598779,0.000234456,-0.000894105,0.00723693,-0.0440713,4971,4927,0
269391223,269391033,4259850,4325386,-0.00144738,0.000884548,0.000663914,-0.0107204,0.006622,-0.0660127,5251,6013,0
269894884,269894677,4259850,4325386,0.00113323,-0.000806171,-1.46594e-05,0.0126111,0.013834,-0.0471945,4997,4915,0
270393356,270393247,4259850,4325386,-0.00017592,0.0020606,-7.05925e-05,-0.0132604,-0.00360593,-0.0548175,4988,4928,0
270896233,270896038,4259850,4325386,0.00172912,-0.0014819,-0.000236924,0.00607289,0.0112975,-0.0519895,4986,5959,0
271395078,271394948,4259850,4325386,-7.15776e-05,-0.000843516,-0.000215443,0.00438581,0.00931191,-0.0470502,4964,4961,0
271893670,271893545,4259850,4325386,0.000404716,0.000268358,0.00061607,-0.00769188,0.0074015,-0.0509858,4988,4951,0
272392457,272392301,4259850,4325386,0.000433386,5.54529e-05,0.000527158,-0.0107473,0.0278768,-0.0534382,4989,4657,0
272891166,272891052,4259850,4325386,-0.0011199,0.000310741,-0.000240071,-0.00656827,-0.00527101,-0.0451233,4987,4927,0
273395183,273395036,4259850,4325386,-0.000779882,-9.27587e-06,-0.000525467,-0.00395466,-0.00215633,-0.0422551,4960,4782,0
273893690,273893582,4259850,4325386,-8.51955e-05,-0.000297937,-0.000972936,-0.00887714,-0.0294064,-0.0495564,4973,4968,0
274392572,274392453,4259850,4325386,0.00105592,-0.000258399,-0.00101284,0.000314122,-0.0271887,-0.0440358,4983,4927,0
274896259,274896078,4259850,4325386,-0.000418479,0.000633738,0.000106023,-0.0122788,0.00234414,-0.0544443,4961,4967,0
275394941,275394796,4259850,4325386,0.00105668,-0.00143609,-0.000598429,-0.00225717,-0.025777,-0.0471462,4988,4954,0
275893803,275893554,4259850,4325386,-0.001331,0.00017249,8.60425e-05,0.00316579,0.0077947,-0.0430278,4989,4958,0
276392413,276392303,4259850,4325386,-0.000303098,-0.000924968,-0.00036143,-0.00181354,0.0101444,-0.0469972,4974,4928,0
