timestamp,time_utc_usec,lat,lon,alt,alt_ellipsoid,s_variance_m_s,c_variance_rad,eph,epv,hdop,vdop,noise_per_ms,jamming_indicator,vel_m_s,vel_n_m_s,vel_e_m_s,vel_d_m_s,cog_rad,timestamp_time_relative,heading,heading_offset,fix_type,vel_ned_valid,satellites_used
24738255,1603428604800338,340356251,1087574246,425857,397943,0.222,0.486559,0.883,1.355,0.63,1.04,108,6,0.009,-0.006,-0.008,0.031,4.01389,0,nan,0.0,3,1,18
24941956,1603428605000338,340356252,1087574245,425910,397996,0.124,0.486566,0.877,1.347,0.63,1.04,108,6,0.035,0.035,0.007,-0.007,4.01389,0,nan,0.0,3,1,18
25742952,1603428605800338,340356254,1087574238,426121,398207,0.179,0.486611,0.858,1.318,0.63,1.04,108,5,0.012,0.008,-0.009,0.008,4.01389,0,nan,0.0,3,1,18
26740955,1603428606800337,340356255,1087574236,426306,398392,0.161,0.486665,0.839,1.294,0.63,1.04,108,6,0.018,-0.016,0.007,0.016,4.01389,0,nan,0.0,3,1,18
27744943,1603428607800337,340356256,1087574235,426434,398520,0.173,0.486723,0.821,1.269,0.65,1.07,107,6,0.033,0.02,0.026,0.014,4.01389,0,nan,0.0,3,1,17
28741047,1603428608800336,340356257,1087574237,426556,398641,0.238,0.486784,0.805,1.246,0.65,1.05,107,9,0.028,0.027,0.007,0.101,4.01389,0,nan,0.0,3,1,17
29740128,1603428609800335,340356256,1087574240,426681,398766,0.208,0.48685,0.791,1.23,0.63,1.04,107,5,0.023,-0.02,0.012,0.053,4.01389,0,nan,0.0,3,1,18
30743035,1603428610800335,340356255,1087574240,426786,398871,0.221,0.48691,0.777,1.21,0.63,1.04,107,6,0.012,0.0,-0.012,0.077,4.01389,0,nan,0.0,3,1,18
31740334,1603428611800334,340356255,1087574241,426872,398957,0.136,0.486965,0.763,1.188,0.63,1.04,107,6,0.02,-0.001,-0.02,0.003,4.01389,0,nan,0.0,3,1,18
32744295,1603428612800334,340356255,1087574241,426932,399018,0.229,0.487023,0.751,1.168,0.63,1.04,108,5,0.025,0.02,0.016,0.104,4.01389,0,nan,0.0,3,1,18
33744010,1603428613800333,340356258,1087574243,426949,399034,0.232,0.487088,0.741,1.153,0.63,1.04,108,13,0.062,0.062,0.0,0.138,4.01389,0,nan,0.0,3,1,18
34745421,1603428614800333,340356259,1087574244,426961,399047,0.158,0.487149,0.731,1.138,0.63,1.04,108,8,0.022,0.01,-0.019,-0.014,4.01389,0,nan,0.0,3,1,18
35738149,1603428615800332,340356262,1087574251,426950,399036,0.158,0.487197,0.722,1.124,0.63,1.04,108,6,0.101,0.048,-0.089,0.033,4.01389,0,nan,0.0,3,1,18
36741393,1603428616800332,340356267,1087574230,426885,398971,0.127,0.316348,0.712,1.11,0.63,1.04,108,7,0.384,0.169,-0.345,-0.133,4.93113,0,nan,0.0,3,1,18
37740972,1603428617800331,340356260,1087574194,427713,399798,0.23,0.472815,0.702,1.095,0.63,1.04,108,21,0.349,-0.228,-0.264,-1.408,4.19232,0,nan,0.0,3,1,18
38746110,1603428618800330,340356263,1087574170,428377,400462,0.25,0.770569,0.695,1.082,0.61,1.03,115,6,0.038,0.037,0.01,0.111,5.07026,0,nan,0.0,3,1,19
39741287,1603428619800330,340356262,1087574172,427771,399856,0.213,0.44136,0.686,1.068,0.61,1.03,116,6,0.351,-0.167,-0.308,0.541,4.41344,0,nan,0.0,3,1,19
40746942,1603428620800329,340356244,1087574114,427533,399618,0.121,0.171931,0.678,1.055,0.61,1.03,116,6,0.887,-0.193,-0.866,-0.127,4.4495,0,nan,0.0,3,1,19
41737274,1603428621800329,340356253,1087574069,427828,399914,0.224,0.642295,0.67,1.042,0.61,1.03,116,7,0.144,0.054,-0.134,-0.525,4.98095,0,nan,0.0,3,1,19
42746092,1603428622800328,340356256,1087574068,427566,399651,0.236,0.642357,0.664,1.033,0.61,1.03,116,9,0.113,-0.032,-0.108,0.354,4.98095,0,nan,0.0,3,1,19
43745947,1603428623800328,340356256,1087574023,427159,399245,0.157,0.239635,0.659,1.026,0.61,1.03,116,8,0.65,0.222,-0.611,0.097,4.85647,0,nan,0.0,3,1,19
44744942,1603428624800327,340356289,1087573955,427240,399325,0.145,0.171273,0.655,1.021,0.61,1.03,116,7,0.866,0.346,-0.794,-0.299,5.1643,0,nan,0.0,3,1,19
45743941,1603428625800327,340356319,1087573847,427254,399340,0.187,0.199879,0.653,1.019,0.61,1.03,116,17,1.077,0.382,-1.007,-0.159,5.04299,0,nan,0.0,3,1,19
46743944,1603428626800326,340356340,1087573769,427002,399087,0.175,0.214378,0.651,1.018,0.61,1.03,115,7,0.62,0.164,-0.598,0.317,5.02654,0,nan,0.0,3,1,19
47742985,1603428627800325,340356358,1087573692,426791,398877,0.119,0.152299,0.645,1.008,0.61,1.03,115,8,0.925,0.247,-0.892,-0.034,5.00512,0,nan,0.0,3,1,19
48745112,1603428628800325,340356369,1087573568,426615,398700,0.158,0.114618,0.642,1.002,0.61,1.03,116,9,1.318,-0.019,-1.318,0.048,4.76235,0,nan,0.0,3,1,19
49741970,1603428629800324,340356371,1087573419,426593,398678,0.115,0.120814,0.64,0.998,0.61,1.03,116,5,1.104,0.09,-1.101,-0.269,4.77867,0,nan,0.0,3,1,19
50746081,1603428630800324,340356374,1087573328,426741,398827,0.155,0.230569,0.636,0.994,0.61,1.03,116,7,0.708,0.045,-0.707,0.18,4.81492,0,nan,0.0,3,1,19
51744831,1603428631800323,340356381,1087573282,426430,398515,0.146,0.358741,0.634,0.989,0.61,1.03,115,5,0.375,0.072,-0.368,0.138,4.97771,0,nan,0.0,3,1,19
52743060,1603428632800323,340356384,1087573199,425976,398061,0.206,0.187808,0.632,0.987,0.61,1.03,115,5,1.381,-0.407,-1.319,0.583,4.60972,0,nan,0.0,3,1,19
53744939,1603428633800322,340356367,1087573062,425504,397589,0.156,0.16076,0.634,0.991,0.61,1.03,115,5,1.083,-0.279,-1.047,-0.326,4.53814,0,nan,0.0,3,1,19
54741943,1603428634800321,340356373,1087572975,425796,397882,0.139,0.233391,0.633,0.99,0.61,1.03,115,7,0.7,0.163,-0.681,-0.019,4.86186,0,nan,0.0,3,1,19
55740964,1603428635800321,340356390,1087572889,425516,397602,0.164,0.155593,0.632,0.99,0.61,1.03,107,5,0.92,0.135,-0.91,0.435,4.89337,0,nan,0.0,3,1,19
56745127,1603428636800320,340356397,1087572749,424917,397003,0.15,0.104632,0.631,0.991,0.61,1.03,108,4,1.42,0.066,-1.418,0.162,4.76155,0,nan,0.0,3,1,19
57743477,1603428637800320,340356409,1087572605,425258,397344,0.141,0.106159,0.632,0.991,0.61,1.03,107,5,1.371,0.071,-1.369,-0.708,4.79949,0,nan,0.0,3,1,19
58745944,1603428638800319,340356422,1087572474,425378,397463,0.16,0.218415,0.63,0.992,0.59,1.02,107,5,0.924,0.14,-0.913,0.035,4.82113,0,nan,0.0,3,1,20
59745076,1603428639800319,340356439,1087572397,425296,397381,0.138,0.166664,0.63,0.99,0.59,1.02,107,6,0.878,0.101,-0.872,0.109,4.86705,0,nan,0.0,3,1,20
60750094,1603428640800318,340356434,1087572275,425045,397130,0.192,0.157585,0.629,0.99,0.59,1.02,107,4,1.322,-0.149,-1.314,-0.044,4.63908,0,nan,0.0,3,1,20
61734957,1603428641800317,340356425,1087572111,425131,397216,0.208,0.257941,0.64,1.012,0.59,1.02,84,3,1.284,-0.034,-1.284,-0.335,4.69074,0,nan,0.0,3,1,20
62746960,1603428642800317,340356417,1087571977,425133,397218,0.171,0.157551,0.65,1.026,0.59,1.02,84,2,1.131,-0.109,-1.126,0.281,4.66999,0,nan,0.0,3,1,20
63741946,1603428643800316,340356413,1087571882,425220,397306,0.179,0.349985,0.668,1.052,0.59,1.02,84,3,0.777,-0.022,-0.776,-0.34,4.69035,0,nan,0.0,3,1,20
64745007,1603428644800316,340356409,1087571810,424998,397083,0.3,0.510945,0.688,1.082,0.59,1.02,84,3,0.626,-0.028,-0.626,0.588,4.71393,0,nan,0.0,3,1,20
65745998,1603428645800315,340356405,1087571701,424733,396819,0.154,0.162974,0.687,1.078,0.59,1.02,84,2,1.439,-0.118,-1.434,-0.087,4.69911,0,nan,0.0,3,1,20
66742718,1603428646800315,340356407,1087571548,424943,397028,0.197,0.189235,0.701,1.101,0.64,1.2,84,3,1.271,0.046,-1.271,-0.03,4.76728,0,nan,0.0,3,1,19
67744032,1603428647800314,340356409,1087571421,424838,396923,0.191,0.254046,0.716,1.125,0.59,1.02,84,2,1.02,0.149,-1.009,0.01,4.83593,0,nan,0.0,3,1,20
68745941,1603428648800314,340356411,1087571314,424895,396980,0.125,0.181875,0.718,1.127,0.59,1.02,78,2,0.882,0.035,-0.881,-0.308,4.76191,0,nan,0.0,3,1,20
69742974,1603428649800313,340356418,1087571225,425085,397170,0.135,0.21584,0.709,1.113,0.59,1.02,84,4,0.623,-0.004,-0.623,0.024,4.74661,0,nan,0.0,3,1,20
70755987,1603428650800312,340356416,1087571173,424757,396842,0.195,0.3577,0.703,1.102,0.59,1.02,84,8,0.468,-0.123,-0.452,0.508,4.54971,0,nan,0.0,3,1,20
71735944,1603428651800312,340356419,1087571107,424262,396347,0.191,0.349223,0.701,1.102,0.59,1.02,114,6,0.704,-0.021,-0.704,-0.082,4.71596,0,nan,0.0,3,1,20
72739990,1603428652800311,340356410,1087570992,424445,396530,0.195,0.210839,0.705,1.11,0.59,1.02,113,7,1.298,-0.117,-1.293,0.105,4.61699,0,nan,0.0,3,1,20
73736946,1603428653800311,340356405,1087570856,424295,396380,0.239,0.297926,0.715,1.125,0.59,1.02,113,6,1.011,0.017,-1.01,0.052,4.69788,0,nan,0.0,3,1,20
74734943,1603428654800310,340356404,1087570782,424065,396150,0.214,0.335845,0.726,1.145,0.59,1.02,106,3,0.71,0.241,-0.668,0.024,4.88531,0,nan,0.0,3,1,20
75739951,1603428655800310,340356420,1087570686,424094,396179,0.23,0.171135,0.73,1.154,0.59,1.02,98,3,1.116,0.272,-1.082,-0.054,4.9008,0,nan,0.0,3,1,20
76741013,1603428656800309,340356438,1087570557,423813,395898,0.185,0.138863,0.731,1.155,0.59,1.02,98,2,1.16,0.166,-1.148,0.366,4.84497,0,nan,0.0,3,1,20
77738306,1603428657800308,340356440,1087570443,423677,395762,0.176,0.178306,0.733,1.162,0.59,1.02,98,3,1.104,-0.089,-1.101,-0.158,4.67732,0,nan,0.0,3,1,20
78740939,1603428658800308,340356434,1087570320,423755,395840,0.158,0.21546,0.734,1.161,0.59,1.02,98,3,1.128,-0.211,-1.108,0.084,4.59605,0,nan,0.0,3,1,20
79737990,1603428659800307,340356430,1087570213,424013,396098,0.188,0.268957,0.733,1.16,0.59,1.02,98,3,0.89,-0.181,-0.871,-0.587,4.58801,0,nan,0.0,3,1,20
80743942,1603428660800307,340356420,1087570135,424414,396498,0.174,0.384558,0.747,1.18,0.59,1.02,98,2,0.776,-0.111,-0.768,-0.234,4.63717,0,nan,0.0,3,1,20
81744993,1603428661800306,340356401,1087570040,424518,396603,0.176,0.208858,0.755,1.197,0.59,1.02,77,3,1.15,0.018,-1.15,-0.179,4.63208,0,nan,0.0,3,1,20
82744971,1603428662800306,340356413,1087569925,424513,396597,0.16,0.203431,0.751,1.191,0.59,1.02,77,2,0.834,0.114,-0.826,-0.029,4.87547,0,nan,0.0,3,1,20
83744941,1603428663800305,340356419,1087569849,424261,396346,0.166,0.265996,0.751,1.192,0.59,1.02,82,3,0.62,0.066,-0.616,-0.017,4.8497,0,nan,0.0,3,1,20
84736945,1603428664800304,340356436,1087569767,424735,396820,0.225,0.245058,0.753,1.198,0.59,1.02,82,10,0.937,0.446,-0.824,-0.492,5.13835,0,nan,0.0,3,1,20
85741942,1603428665800304,340356447,1087569702,424387,396471,0.226,0.288833,0.762,1.203,0.62,1.04,82,2,0.675,-0.015,-0.674,0.532,4.79884,0,nan,0.0,3,1,19
86746552,1603428666800303,340356448,1087569600,424285,396370,0.127,0.128053,0.759,1.191,0.59,1.02,77,3,1.166,0.033,-1.165,-0.236,4.73774,0,nan,0.0,3,1,20
87747016,1603428667800303,340356444,1087569454,424345,396430,0.125,0.10651,0.762,1.19,0.59,1.02,77,5,1.455,0.044,-1.454,0.071,4.70731,0,nan,0.0,3,1,20
88745946,1603428668800302,340356448,1087569303,424045,396130,0.173,0.109792,0.749,1.17,0.59,1.02,77,3,1.306,0.052,-1.305,0.456,4.73757,0,nan,0.0,3,1,20
89744948,1603428669800302,340356445,1087569197,423830,395915,0.135,0.168004,0.74,1.157,0.59,1.02,82,7,0.831,-0.092,-0.826,-0.231,4.63961,0,nan,0.0,3,1,20
90746135,1603428670800301,340356451,1087569110,423868,395953,0.158,0.264192,0.733,1.146,0.59,1.02,88,6,0.838,0.316,-0.776,-0.048,5.00741,0,nan,0.0,3,1,20
91742023,1603428671800301,340356474,1087569035,423572,395657,0.219,0.280061,0.731,1.146,0.59,1.02,94,10,0.714,0.295,-0.65,0.332,5.11287,0,nan,0.0,3,1,20
92745431,1603428672800300,340356495,1087568933,423655,395740,0.163,0.175687,0.73,1.15,0.59,1.02,94,9,1.086,0.227,-1.061,-0.299,4.88969,0,nan,0.0,3,1,20
93750953,1603428673800299,340356501,1087568788,423981,396066,0.204,0.150773,0.729,1.15,0.59,1.02,94,5,1.402,-0.015,-1.401,-0.269,4.71324,0,nan,0.0,4,1,20
94745946,1603428674800299,340356502,1087568658,423769,395853,0.163,0.155916,0.733,1.159,0.59,1.02,94,2,1.102,-0.028,-1.102,0.209,4.73558,0,nan,0.0,4,1,20
95753109,1603428675800298,340356490,1087568536,423742,395827,0.15,0.134929,0.746,1.179,0.59,1.02,94,3,1.226,-0.004,-1.226,-0.142,4.68749,0,nan,0.0,4,1,20
96752941,1603428676800298,340356487,1087568387,424027,396111,0.165,0.122365,0.738,1.168,0.59,1.02,94,4,1.48,-0.045,-1.479,-0.213,4.66949,0,nan,0.0,4,1,20
97745063,1603428677800297,340356487,1087568246,423562,395647,0.172,0.1332,0.732,1.159,0.59,1.02,101,3,1.302,-0.214,-1.284,0.487,4.62602,0,nan,0.0,4,1,20
98739965,1603428678800297,340356490,1087568104,423470,395555,0.234,0.221649,0.73,1.156,0.59,1.02,101,3,1.24,0.191,-1.225,-0.331,4.78857,0,nan,0.0,4,1,20
99746024,1603428679800296,340356484,1087567966,424083,396167,0.185,0.147398,0.738,1.166,0.59,1.02,101,2,1.171,-0.318,-1.127,-0.638,4.56542,0,nan,0.0,4,1,20
100746142,1603428680800295,340356475,1087567847,424151,396235,0.21,0.183466,0.731,1.156,0.59,1.02,101,6,0.918,-0.171,-0.902,0.522,4.6009,0,nan,0.0,4,1,20
101744943,1603428681800295,340356474,1087567757,423956,396040,0.144,0.252418,0.723,1.144,0.59,1.02,101,4,0.655,-0.033,-0.654,-0.299,4.70271,0,nan,0.0,4,1,20
102745941,1603428682800294,340356478,1087567701,424326,396411,0.162,0.311288,0.715,1.129,0.59,1.02,101,5,0.428,0.242,-0.354,-0.262,5.20085,0,nan,0.0,4,1,20
103736943,1603428683800294,340356496,1087567652,424305,396389,0.154,0.227854,0.711,1.121,0.59,1.02,101,12,0.701,0.079,-0.697,0.126,4.95565,0,nan,0.0,4,1,20
104742961,1603428684800293,340356504,1087567538,424167,396251,0.34,0.271926,0.708,1.112,0.59,1.02,101,9,1.44,0.052,-1.439,0.106,4.74135,0,nan,0.0,4,1,20
105743942,1603428685800293,340356506,1087567359,423871,395955,0.169,0.0951618,0.714,1.115,0.59,1.02,101,9,1.712,0.129,-1.707,0.208,4.74426,0,nan,0.0,4,1,20
106742943,1603428686800292,340356510,1087567213,423904,395988,0.14,0.156789,0.715,1.115,0.59,1.02,102,2,0.968,0.139,-0.958,-0.238,4.7842,0,nan,0.0,4,1,20
107738131,1603428687800292,340356519,1087567124,424245,396330,0.136,0.239469,0.715,1.116,0.59,1.02,101,3,0.689,0.049,-0.687,-0.141,4.7987,0,nan,0.0,4,1,20
108741949,1603428688800291,340356516,1087567039,424287,396371,0.203,0.302132,0.732,1.148,0.59,1.02,101,4,0.837,-0.02,-0.837,-0.007,4.7261,0,nan,0.0,4,1,20
109744976,1603428689800290,340356513,1087566937,424172,396256,0.156,0.145894,0.731,1.148,0.59,1.02,94,5,1.028,-0.045,-1.027,0.015,4.65214,0,nan,0.0,4,1,20
110743950,1603428690800290,340356499,1087566810,423999,396083,0.154,0.140043,0.723,1.14,0.59,1.02,94,4,1.29,-0.191,-1.275,0.065,4.60221,0,nan,0.0,4,1,20
111738941,1603428691800289,340356496,1087566686,423950,396035,0.143,0.184902,0.722,1.139,0.63,1.04,94,2,1.01,0.089,-1.006,0.024,4.78757,0,nan,0.0,4,1,19
112741947,1603428692800289,340356511,1087566587,424008,396092,0.143,0.227119,0.719,1.136,0.59,1.02,94,2,0.779,0.098,-0.773,-0.214,4.91433,0,nan,0.0,4,1,20
113743944,1603428693800288,340356533,1087566493,424159,396243,0.159,0.159067,0.724,1.145,0.59,1.02,94,3,1.089,0.277,-1.053,0.042,4.95289,0,nan,0.0,4,1,20
114737938,1603428694800288,340356543,1087566361,423959,396044,0.18,0.124945,0.723,1.144,0.59,1.02,94,2,1.324,0.163,-1.314,0.375,4.82097,0,nan,0.0,4,1,20
115737956,1603428695800287,340356553,1087566232,423730,395814,0.266,0.227898,0.722,1.146,0.59,1.02,94,2,1.218,0.072,-1.216,0.064,4.77732,0,nan,0.0,4,1,20
116741947,1603428696800286,340356559,1087566067,423711,395795,0.206,0.117407,0.729,1.153,0.59,1.02,94,4,1.65,0.085,-1.647,-0.13,4.77682,0,nan,0.0,4,1,20
117749033,1603428697800286,340356569,1087565910,423694,395778,0.169,0.116019,0.723,1.144,0.59,1.02,94,3,1.316,0.121,-1.31,0.252,4.79822,0,nan,0.0,4,1,20
118750947,1603428698800285,340356580,1087565792,423561,395645,0.165,0.145691,0.721,1.142,0.59,1.02,100,3,1.064,0.153,-1.053,-0.2,4.86016,0,nan,0.0,4,1,20
119751947,1603428699800285,340356602,1087565679,424147,396231,0.156,0.167463,0.716,1.136,0.59,1.02,100,3,0.973,-0.036,-0.972,-0.385,4.8414,0,nan,0.0,4,1,20
120739942,1603428700800284,340356585,1087565592,424629,396713,0.161,0.189586,0.713,1.131,0.59,1.02,100,3,0.746,-0.312,-0.677,-0.202,4.34374,0,nan,0.0,4,1,20
121746942,1603428701800284,340356561,1087565535,424704,396788,0.201,0.448145,0.712,1.13,0.59,1.02,100,3,0.646,-0.289,-0.578,-0.191,4.26048,0,nan,0.0,4,1,20
122753941,1603428702800283,340356552,1087565452,424539,396624,0.151,0.166355,0.726,1.135,0.59,1.02,100,3,1.058,0.129,-1.05,0.59,4.79948,0,nan,0.0,4,1,20
123749047,1603428703800283,340356544,1087565316,424084,396168,0.125,0.101831,0.714,1.116,0.59,1.02,75,7,1.399,0.023,-1.398,0.202,4.69364,0,nan,0.0,4,1,20
124753141,1603428704800282,340356563,1087565162,424149,396233,0.123,0.121728,0.704,1.101,0.59,1.02,81,8,1.164,0.289,-1.127,-0.452,4.937,0,nan,0.0,4,1,20
125750943,1603428705800281,340356592,1087565047,424198,396282,0.171,0.160494,0.696,1.09,0.59,1.02,86,12,0.804,0.206,-0.777,0.373,4.9939,0,nan,0.0,4,1,20
126752164,1603428706800281,340356618,1087564924,423908,395992,0.155,0.104016,0.688,1.079,0.59,1.02,92,4,1.568,0.163,-1.559,0.17,4.89475,0,nan,0.0,4,1,20
127748051,1603428707800280,340356625,1087564780,424120,396204,0.171,0.129879,0.683,1.072,0.59,1.02,98,5,1.157,-0.301,-1.117,-0.266,4.59351,0,nan,0.0,4,1,20
128751945,1603428708800280,340356615,1087564685,424280,396364,0.158,0.248733,0.68,1.065,0.59,1.02,106,5,0.538,-0.067,-0.534,0.211,4.58508,0,nan,0.0,4,1,20
129751016,1603428709800279,340356608,1087564606,424044,396128,0.15,0.163036,0.673,1.055,0.59,1.02,106,5,0.831,-0.095,-0.826,0.232,4.53033,0,nan,0.0,4,1,20
130752089,1603428710800279,340356616,1087564475,424118,396202,0.151,0.120668,0.671,1.05,0.59,1.02,113,13,1.351,0.192,-1.337,-0.072,4.81994,0,nan,0.0,4,1,20
131748210,1603428711800278,340356636,1087564332,424224,396308,0.12,0.101647,0.664,1.041,0.62,1.04,113,8,1.32,0.311,-1.283,-0.163,4.91259,0,nan,0.0,4,1,19
132745947,1603428712800277,340356660,1087564177,424465,396549,0.165,0.15347,0.663,1.038,0.59,1.02,113,11,1.332,0.141,-1.325,-0.191,4.8745,0,nan,0.0,4,1,20
133742951,1603428713800277,340356669,1087564048,424415,396499,0.145,0.201284,0.664,1.036,0.59,1.02,73,7,0.938,0.147,-0.927,0.157,4.80894,0,nan,0.0,4,1,20
134752226,1603428714800276,340356666,1087563950,424656,396740,0.191,0.247524,0.663,1.032,0.59,1.02,84,2,0.691,-0.026,-0.691,-0.198,4.65761,0,nan,0.0,4,1,20
135752337,1603428715800276,340356650,1087563864,424870,396954,0.197,0.249072,0.662,1.026,0.59,1.02,90,3,0.671,-0.183,-0.645,-0.34,4.44733,0,nan,0.0,4,1,20
136751019,1603428716800275,340356644,1087563797,424937,397021,0.188,0.354031,0.661,1.028,0.59,1.02,96,2,0.507,-0.038,-0.506,0.205,4.57716,0,nan,0.0,4,1,20
137746944,1603428717800275,340356637,1087563731,424389,396472,0.182,0.204845,0.664,1.031,0.59,1.02,96,6,0.921,0.029,-0.921,0.484,4.73328,0,nan,0.0,4,1,20
138750021,1603428718800274,340356636,1087563608,424181,396265,0.142,0.12171,0.662,1.031,0.59,1.02,102,4,1.396,-0.011,-1.396,0.039,4.68881,0,nan,0.0,4,1,20
139748945,1603428719800274,340356654,1087563450,424210,396294,0.139,0.128689,0.661,1.028,0.59,1.02,103,2,1.487,0.526,-1.391,-0.156,4.95736,0,nan,0.0,4,1,20
140747066,1603428720800273,340356684,1087563301,424248,396332,0.167,0.164824,0.663,1.029,0.61,1.03,103,2,1.246,0.107,-1.241,0.243,4.87461,0,nan,0.0,4,1,19
141750032,1603428721800272,340356692,1087563167,424251,396335,0.169,0.160765,0.667,1.032,0.59,1.02,103,3,1.134,-0.069,-1.132,-0.44,4.69637,0,nan,0.0,4,1,20
142750003,1603428722800272,340356705,1087563033,424750,396834,0.162,0.156759,0.672,1.042,0.59,1.02,103,2,1.079,0.058,-1.077,-0.366,4.80523,0,nan,0.0,4,1,20
143750971,1603428723800271,340356702,1087562930,424925,397009,0.183,0.343599,0.677,1.056,0.59,1.02,102,2,0.885,-0.095,-0.88,0.041,4.63348,0,nan,0.0,4,1,20
144752944,1603428724800271,340356698,1087562848,424919,397002,0.178,0.302717,0.687,1.076,0.59,1.02,95,3,0.687,0.091,-0.681,-0.062,4.75721,0,nan,0.0,4,1,20
145749378,1603428725800270,340356709,1087562772,425007,397091,0.15,0.280878,0.691,1.085,0.59,1.02,95,2,0.646,0.035,-0.645,-0.113,4.80848,0,nan,0.0,4,1,20
146739998,1603428726800270,340356710,1087562709,424891,396975,0.185,0.463383,0.691,1.089,0.59,1.02,95,2,0.413,0.117,-0.397,0.102,4.79201,0,nan,0.0,4,1,20
147749328,1603428727800269,340356718,1087562660,424753,396836,0.194,0.24321,0.69,1.091,0.59,1.02,95,9,0.702,0.04,-0.7,0.209,4.74213,0,nan,0.0,4,1,20
148751014,1603428728800268,340356733,1087562546,424560,396643,0.136,0.117065,0.683,1.074,0.59,1.02,95,11,1.178,0.265,-1.148,0.053,4.92054,0,nan,0.0,4,1,20
149747796,1603428729800268,340356742,1087562427,424669,396753,0.17,0.19321,0.682,1.069,0.59,1.02,95,2,0.932,0.065,-0.93,-0.188,4.74895,0,nan,0.0,4,1,20
150751053,1603428730800267,340356745,1087562322,425036,397119,0.162,0.215311,0.687,1.075,0.59,1.02,95,6,0.781,0.216,-0.75,0.101,4.83573,0,nan,0.0,4,1,20
151752011,1603428731800267,340356742,1087562238,424769,396853,0.166,0.264456,0.688,1.078,0.59,1.02,95,2,0.649,-0.01,-0.649,0.21,4.6735,0,nan,0.0,4,1,20
152750080,1603428732800266,340356738,1087562174,424840,396924,0.225,0.238932,0.685,1.072,0.59,1.02,95,3,0.606,-0.251,-0.552,-0.608,4.3804,0,nan,0.0,4,1,20
153749941,1603428733800266,340356714,1087562132,424988,397072,0.207,0.642167,0.68,1.06,0.62,1.04,96,3,0.244,-0.178,-0.168,0.32,3.97943,0,nan,0.0,4,1,19
154741947,1603428734800265,340356670,1087562105,424650,396734,0.165,0.196204,0.678,1.054,0.59,1.02,96,3,0.748,-0.706,-0.247,0.326,3.45795,0,nan,0.0,4,1,20
155743464,1603428735800265,340356611,1087562064,424681,396765,0.183,0.177139,0.675,1.05,0.62,1.04,96,2,0.774,-0.75,-0.192,-0.271,3.53424,0,nan,0.0,4,1,19
156741957,1603428736800264,340356548,1087562033,425025,397109,0.186,0.199127,0.68,1.062,0.62,1.04,96,2,0.896,-0.624,-0.643,0.09,3.85116,0,nan,0.0,4,1,19
157740968,1603428737800263,340356498,1087561950,424738,396821,0.168,0.179537,0.68,1.068,0.59,1.02,96,2,0.922,-0.417,-0.822,0.363,4.16558,0,nan,0.0,4,1,20
158743050,1603428738800263,340356451,1087561867,424596,396680,0.191,0.199643,0.675,1.061,0.59,1.02,96,4,0.763,-0.597,-0.475,0.142,3.96899,0,nan,0.0,4,1,20
159743115,1603428739800262,340356376,1087561809,424510,396594,0.172,0.133458,0.681,1.065,0.59,1.02,96,2,0.921,-0.872,-0.297,0.041,3.51053,0,nan,0.0,4,1,20
160742942,1603428740800262,340356303,1087561776,424854,396938,0.205,0.196357,0.677,1.055,0.59,1.02,96,6,0.781,-0.76,-0.181,-0.478,3.43509,0,nan,0.0,4,1,20
161746033,1603428741800261,340356237,1087561717,425189,397273,0.151,0.147585,0.675,1.047,0.59,1.02,96,7,1.005,-0.77,-0.645,0.002,3.85205,0,nan,0.0,4,1,20
162745945,1603428742800261,340356168,1087561663,424861,396944,0.263,0.245063,0.672,1.041,0.59,1.02,96,7,0.969,-0.869,-0.428,0.574,3.61247,0,nan,0.0,4,1,20
163743304,1603428743800260,340356087,1087561633,424513,396597,0.198,0.135823,0.674,1.044,0.59,1.02,96,5,0.924,-0.914,-0.138,0.321,3.34531,0,nan,0.0,4,1,20
164742942,1603428744800259,340356006,1087561623,424336,396420,0.19,0.121333,0.671,1.036,0.59,1.02,96,3,1.138,-1.137,-0.05,-0.237,3.19102,0,nan,0.0,4,1,20
165744128,1603428745800259,340355900,1087561609,425108,397192,0.236,0.152759,0.667,1.029,0.59,1.02,96,2,1.153,-1.128,-0.239,-1.073,3.25755,0,nan,0.0,4,1,20
166747026,1603428746800258,340355800,1087561602,425841,397925,0.175,0.125395,0.665,1.022,0.59,1.02,96,2,1.008,-0.972,0.268,-0.285,3.04586,0,nan,0.0,4,1,20
167747014,1603428747800258,340355709,1087561614,425287,397371,0.215,0.129668,0.662,1.011,0.59,1.02,96,5,0.922,-0.91,0.147,0.836,2.9706,0,nan,0.0,4,1,20
168748947,1603428748800257,340355626,1087561610,424345,396429,0.208,0.12047,0.658,1.002,0.59,1.02,96,5,1.127,-1.127,-0.014,0.687,3.15619,0,nan,0.0,4,1,20
169745098,1603428749800257,340355538,1087561590,424213,396297,0.17,0.148492,0.657,0.999,0.62,1.04,103,3,1.084,-1.063,-0.213,-0.16,3.29993,0,nan,0.0,4,1,19
170745992,1603428750800256,340355455,1087561574,424538,396622,0.223,0.22023,0.659,1.003,0.62,1.04,103,5,0.846,-0.846,-0.032,-0.257,3.24898,0,nan,0.0,4,1,19
171749964,1603428751800256,340355366,1087561586,425005,397089,0.177,0.189775,0.663,1.007,0.59,1.02,103,2,0.803,-0.786,0.164,0.101,2.96572,0,nan,0.0,4,1,20
172743968,1603428752800255,340355289,1087561611,424194,396277,0.203,0.174646,0.661,1.008,0.59,1.02,102,2,0.849,-0.799,0.286,0.869,2.81024,0,nan,0.0,4,1,20
173744058,1603428753800254,340355226,1087561648,423954,396038,0.218,0.191474,0.664,1.015,0.59,1.02,102,3,0.939,-0.798,0.494,-0.101,2.57203,0,nan,0.0,4,1,20
174742980,1603428754800254,340355184,1087561700,424658,396741,0.258,0.333325,0.665,1.021,0.59,1.02,102,4,0.516,-0.251,0.45,-0.774,2.1639,0,nan,0.0,4,1,20
175746264,1603428755800253,340355175,1087561760,425212,397295,0.182,0.209938,0.664,1.025,0.59,1.02,96,7,0.721,0.231,0.683,-0.529,1.42093,0,nan,0.0,4,1,20
176736960,1603428756800253,340355191,1087561846,425577,397661,0.133,0.168303,0.66,1.024,0.59,1.02,102,6,1.068,0.443,0.972,-0.098,1.20645,0,nan,0.0,4,1,20
177741996,1603428757800252,340355236,1087561948,425508,397592,0.142,0.130646,0.656,1.02,0.59,1.02,102,6,1.059,0.494,0.936,-0.332,1.09404,0,nan,0.0,4,1,20
178737942,1603428758800252,340355254,1087562033,425839,397923,0.209,0.300239,0.655,1.024,0.59,1.02,102,2,0.591,-0.156,0.57,-0.479,1.50458,0,nan,0.0,4,1,20
179736955,1603428759800251,340355238,1087562114,425743,397826,0.202,0.281351,0.657,1.032,0.59,1.02,102,5,0.747,-0.057,0.745,0.36,1.71543,0,nan,0.0,4,1,20
180742950,1603428760800251,340355231,1087562184,425514,397598,0.186,0.350331,0.658,1.036,0.59,1.02,102,5,0.562,0.039,0.56,0.153,1.55416,0,nan,0.0,4,1,20
181749218,1603428761800250,340355229,1087562248,424779,396863,0.221,0.327433,0.657,1.033,0.59,1.02,102,6,0.493,-0.151,0.469,0.819,1.67433,0,nan,0.0,4,1,20
182736944,1603428762800249,340355211,1087562327,424243,396326,0.127,0.156198,0.653,1.027,0.59,1.02,102,3,0.901,-0.241,0.868,0.307,1.83772,0,nan,0.0,4,1,20
183742060,1603428763800249,340355202,1087562439,423981,396065,0.12,0.141913,0.649,1.02,0.59,1.02,102,2,1.027,-0.03,1.027,0.173,1.60671,0,nan,0.0,4,1,20
184744454,1603428764800248,340355206,1087562535,424101,396185,0.141,0.199785,0.647,1.013,0.59,1.02,102,3,0.778,0.078,0.774,-0.18,1.55385,0,nan,0.0,4,1,20
185739946,1603428765800248,340355213,1087562615,424371,396455,0.15,0.233979,0.647,1.01,0.59,1.02,102,6,0.659,-0.054,0.657,-0.249,1.63446,0,nan,0.0,4,1,20
186745849,1603428766800247,340355201,1087562687,424408,396492,0.147,0.28007,0.645,1.011,0.59,1.02,102,5,0.682,-0.214,0.648,0.127,1.81485,0,nan,0.0,4,1,20
187748965,1603428767800247,340355172,1087562767,424305,396388,0.251,0.20949,0.649,1.018,0.59,1.02,102,5,1.264,-0.564,1.131,0.023,2.00388,0,nan,0.0,4,1,20
188749976,1603428768800246,340355149,1087562887,424230,396314,0.144,0.177076,0.661,1.03,0.59,1.02,101,3,0.919,-0.15,0.907,0.186,1.69673,0,nan,0.0,4,1,20
189746007,1603428769800245,340355148,1087562990,424233,396317,0.136,0.186395,0.656,1.025,0.59,1.02,102,4,0.829,0.167,0.812,-0.158,1.43752,0,nan,0.0,4,1,20
190745067,1603428770800245,340355148,1087563073,424640,396724,0.171,0.282149,0.654,1.023,0.59,1.02,102,4,0.631,-0.126,0.618,-0.271,1.52901,0,nan,0.0,4,1,20
191754955,1603428771800244,340355144,1087563150,424625,396709,0.169,0.21299,0.654,1.026,0.59,1.02,102,4,0.727,-0.083,0.723,0.39,1.65541,0,nan,0.0,4,1,20
192749800,1603428772800244,340355137,1087563241,424124,396208,0.15,0.20696,0.658,1.033,0.59,1.02,101,10,0.958,-0.068,0.955,0.411,1.64298,0,nan,0.0,4,1,20
193745983,1603428773800243,340355144,1087563352,424070,396154,0.143,0.232249,0.663,1.039,0.59,1.02,101,10,0.87,0.016,0.87,-0.092,1.57568,0,nan,0.0,4,1,20
194748008,1603428774800243,340355124,1087563433,424385,396469,0.17,0.318068,0.664,1.042,0.62,1.04,101,7,0.564,0.005,0.564,-0.272,1.69575,0,nan,0.0,4,1,19
195744985,1603428775800242,340355114,1087563503,424390,396474,0.136,0.22549,0.66,1.033,0.62,1.04,94,3,0.732,-0.005,0.732,0.415,1.64808,0,nan,0.0,4,1,19
196749964,1603428776800242,340355113,1087563587,424019,396103,0.128,0.217223,0.658,1.026,0.62,1.04,94,5,0.841,-0.114,0.834,0.144,1.61092,0,nan,0.0,4,1,19
197750494,1603428777800241,340355108,1087563689,423907,395991,0.169,0.19761,0.659,1.025,0.59,1.02,94,4,0.996,0.03,0.996,0.29,1.58064,0,nan,0.0,4,1,20
198744950,1603428778800240,340355108,1087563780,423845,395929,0.161,0.259745,0.656,1.021,0.59,1.02,94,4,0.666,-0.067,0.662,-0.313,1.5884,0,nan,0.0,4,1,20
199740218,1603428779800240,340355106,1087563847,424004,396088,0.135,0.243597,0.654,1.017,0.59,1.02,109,5,0.678,-0.066,0.675,0.153,1.6246,0,nan,0.0,4,1,20
200742287,1603428780800239,340355095,1087563964,423626,395710,0.144,0.146815,0.656,1.017,0.59,1.02,109,5,1.26,0.01,1.26,0.434,1.6119,0,nan,0.0,4,1,20
201744130,1603428781800239,340355085,1087564094,423760,395844,0.179,0.191853,0.657,1.021,0.59,1.02,109,5,1.105,-0.262,1.073,-0.312,1.71015,0,nan,0.0,4,1,20
202737043,1603428782800238,340355074,1087564204,423981,396065,0.158,0.219719,0.663,1.028,0.59,1.02,109,5,0.838,0.044,0.837,-0.176,1.5441,0,nan,0.0,4,1,20
203741942,1603428783800238,340355073,1087564292,424081,396165,0.152,0.294107,0.664,1.031,0.59,1.02,108,2,0.693,0.054,0.69,0.019,1.51126,0,nan,0.0,4,1,20
204741943,1603428784800237,340355071,1087564378,423873,395957,0.152,0.221488,0.672,1.041,0.59,1.02,108,4,0.949,0.141,0.938,0.293,1.50821,0,nan,0.0,4,1,20
205736031,1603428785800236,340355067,1087564492,423863,395947,0.168,0.209449,0.675,1.045,0.59,1.02,101,2,1.039,-0.192,1.021,-0.122,1.68135,0,nan,0.0,4,1,20
206737991,1603428786800236,340355038,1087564586,424089,396173,0.211,0.304329,0.683,1.052,0.59,1.02,101,4,0.694,-0.202,0.663,-0.269,1.87682,0,nan,0.0,4,1,20
207744004,1603428787800235,340355027,1087564657,424288,396372,0.145,0.262956,0.689,1.059,0.59,1.02,101,3,0.802,0.043,0.801,0.076,1.53171,0,nan,0.0,4,1,20
208742963,1603428788800235,340355016,1087564782,423903,395987,0.172,0.17325,0.69,1.058,0.59,1.02,101,2,1.257,0.061,1.255,0.371,1.59969,0,nan,0.0,4,1,20
209746132,1603428789800234,340354994,1087564899,423690,395774,0.217,0.270959,0.696,1.069,0.59,1.02,101,3,0.893,-0.364,0.815,-0.063,1.90443,0,nan,0.0,4,1,20
210745941,1603428790800234,340354974,1087564995,424010,396094,0.158,0.211653,0.692,1.061,0.59,1.02,93,4,0.821,-0.083,0.817,-0.355,1.70625,0,nan,0.0,4,1,20
211746942,1603428791800233,340354970,1087565092,424239,396324,0.172,0.248454,0.692,1.055,0.59,1.02,93,5,0.773,-0.052,0.771,-0.115,1.6094,0,nan,0.0,4,1,20
212756978,1603428792800233,340354967,1087565167,424342,396426,0.185,0.281001,0.693,1.061,0.59,1.02,93,3,0.689,-0.033,0.689,-0.154,1.53255,0,nan,0.0,4,1,20
213747029,1603428793800232,340354945,1087565270,424421,396505,0.128,0.12302,0.686,1.05,0.59,1.02,93,4,1.265,-0.357,1.214,0.042,1.85912,0,nan,0.0,4,1,20
214750945,1603428794800231,340354929,1087565417,424219,396303,0.134,0.149231,0.681,1.044,0.59,1.02,93,2,1.316,-0.073,1.314,0.007,1.65051,0,nan,0.0,4,1,20
215750941,1603428795800231,340354955,1087565532,424521,396605,0.164,0.195131,0.679,1.04,0.62,1.04,100,6,0.842,0.231,0.81,-0.408,1.27428,0,nan,0.0,4,1,19
216749066,1603428796800230,340354971,1087565598,425249,397334,0.258,0.300155,0.678,1.042,0.59,1.02,100,4,0.661,-0.065,0.657,-0.604,1.55401,0,nan,0.0,4,1,20
217742958,1603428797800230,340354962,1087565675,425181,397265,0.166,0.173382,0.674,1.039,0.59,1.02,100,3,0.881,-0.078,0.878,0.225,1.6998,0,nan,0.0,4,1,20
218737942,1603428798800229,340354951,1087565796,424968,397053,0.267,0.251707,0.687,1.057,0.59,1.02,100,3,1.136,-0.108,1.131,0.128,1.64395,0,nan,0.0,4,1,20
219744067,1603428799800229,340354933,1087565901,424711,396796,0.142,0.246205,0.692,1.059,0.59,1.02,100,2,0.885,-0.173,0.868,0.085,1.79798,0,nan,0.0,4,1,20
220740969,1603428800800228,340354915,1087566008,424688,396773,0.153,0.14314,0.691,1.052,0.62,1.04,110,3,1.224,-0.214,1.205,-0.144,1.74711,0,nan,0.0,4,1,19
221742946,1603428801800227,340354906,1087566162,424612,396697,0.132,0.12784,0.688,1.05,0.59,1.02,110,3,1.222,-0.151,1.213,-0.105,1.64797,0,nan,0.0,4,1,20
222743101,1603428802800227,340354906,1087566291,424509,396593,0.131,0.199253,0.684,1.043,0.62,1.04,110,3,0.906,0.065,0.904,-0.018,1.53197,0,nan,0.0,4,1,19
223744005,1603428803800226,340354902,1087566400,424608,396692,0.14,0.148865,0.682,1.044,0.62,1.04,110,3,1.222,-0.153,1.213,0.114,1.68155,0,nan,0.0,4,1,19
224746053,1603428804800226,340354879,1087566503,424669,396754,0.159,0.243752,0.681,1.049,0.59,1.02,110,3,0.929,-0.049,0.928,0.028,1.74863,0,nan,0.0,4,1,20
225744012,1603428805800225,340354879,1087566596,424613,396697,0.165,0.297592,0.687,1.048,0.59,1.02,110,2,0.817,0.103,0.811,0.125,1.50206,0,nan,0.0,4,1,20
226736950,1603428806800225,340354881,1087566725,424536,396621,0.145,0.137403,0.686,1.052,0.59,1.02,110,10,1.496,-0.01,1.496,0.041,1.54141,0,nan,0.0,4,1,20
227737111,1603428807800224,340354874,1087566872,424355,396439,0.134,0.144263,0.687,1.052,0.59,1.02,103,11,1.142,-0.198,1.125,0.134,1.67727,0,nan,0.0,4,1,20
228741960,1603428808800224,340354870,1087566970,424130,396214,0.134,0.333544,0.684,1.045,0.59,1.02,103,10,0.637,-0.015,0.637,0.024,1.59981,0,nan,0.0,4,1,20
229736956,1603428809800223,340354861,1087567044,423991,396076,0.206,0.396303,0.686,1.043,0.62,1.04,103,2,0.903,-0.026,0.903,0.133,1.63422,0,nan,0.0,4,1,19
230737944,1603428810800222,340354849,1087567162,423912,395997,0.195,0.249114,0.702,1.059,0.66,1.22,103,3,1.213,0.036,1.212,-0.009,1.58663,0,nan,0.0,4,1,18
231736967,1603428811800222,340354853,1087567262,423769,395854,0.168,0.246264,0.705,1.062,0.59,1.02,103,3,0.741,0.382,0.635,0.342,1.31912,0,nan,0.0,4,1,20
232729358,1603428812800221,340354852,1087567355,423543,395628,0.225,0.382978,0.718,1.079,0.66,1.2,103,2,0.896,-0.109,0.89,0.074,1.61143,0,nan,0.0,4,1,18
233733990,1603428813800221,340354829,1087567453,423882,395966,0.355,0.353305,0.743,1.107,0.65,1.05,103,3,0.839,-0.383,0.746,-0.542,1.96432,0,nan,0.0,4,1,18
234742946,1603428814800220,340354804,1087567545,424658,396743,0.32,0.532339,0.773,1.142,0.61,1.03,103,3,0.658,0.1,0.65,-0.463,1.61318,0,nan,0.0,4,1,19
235748994,1603428815800220,340354791,1087567645,424718,396803,0.137,0.111093,0.761,1.126,0.59,1.02,89,6,1.231,-0.479,1.134,0.39,1.88781,0,nan,0.0,4,1,20
236739955,1603428816800219,340354770,1087567784,424351,396436,0.152,0.15661,0.757,1.121,0.59,1.02,89,18,1.431,-0.038,1.431,0.156,1.67277,0,nan,0.0,4,1,20
237744048,1603428817800218,340354765,1087567930,424612,396697,0.138,0.137442,0.747,1.109,0.64,1.19,89,18,1.012,0.078,1.009,-0.302,1.56716,0,nan,0.0,4,1,19
238744941,1603428818800218,340354769,1087568028,424934,397019,0.118,0.197242,0.734,1.098,0.59,1.02,96,5,0.663,-0.154,0.645,0.052,1.67344,0,nan,0.0,4,1,20
239741944,1603428819800217,340354769,1087568116,424780,396865,0.114,0.129388,0.724,1.091,0.59,1.02,102,19,1.118,0.079,1.115,0.243,1.52148,0,nan,0.0,4,1,20
240743994,1603428820800217,340354760,1087568261,424472,396557,0.169,0.177265,0.719,1.087,0.59,1.02,102,7,1.386,-0.131,1.38,0.329,1.6752,0,nan,0.0,4,1,20
241743049,1603428821800216,340354755,1087568380,424302,396387,0.137,0.180869,0.714,1.082,0.59,1.02,102,6,0.849,0.036,0.848,-0.137,1.58998,0,nan,0.0,4,1,20
242744554,1603428822800216,340354754,1087568476,424478,396563,0.173,0.268035,0.712,1.079,0.59,1.02,102,4,0.9,-0.059,0.898,-0.044,1.58716,0,nan,0.0,4,1,20
243735175,1603428823800215,340354748,1087568589,424335,396420,0.182,0.231688,0.715,1.083,0.59,1.02,101,11,1.12,-0.008,1.12,0.049,1.5663,0,nan,0.0,4,1,20
244741528,1603428824800214,340354747,1087568700,424528,396613,0.206,0.323827,0.715,1.084,0.59,1.02,101,5,0.867,0.073,0.864,-0.324,1.53533,0,nan,0.0,4,1,20
245740072,1603428825800214,340354752,1087568798,424737,396822,0.128,0.177513,0.716,1.088,0.62,1.04,95,5,0.85,-0.048,0.849,0.192,1.60496,0,nan,0.0,4,1,19
246739010,1603428826800213,340354754,1087568890,424507,396592,0.18,0.330504,0.721,1.098,0.59,1.02,76,2,0.95,-0.014,0.949,0.09,1.54124,0,nan,0.0,4,1,20
247743944,1603428827800213,340354749,1087569014,424402,396487,0.145,0.137959,0.739,1.122,0.59,1.02,76,9,1.377,-0.061,1.376,-0.036,1.62789,0,nan,0.0,4,1,20
248749156,1603428828800212,340354737,1087569151,424726,396811,0.237,0.290371,0.75,1.137,0.59,1.02,76,3,1.03,-0.141,1.02,-0.313,1.66228,0,nan,0.0,4,1,20
249744944,1603428829800212,340354736,1087569249,424650,396735,0.125,0.222067,0.741,1.125,0.59,1.02,76,3,0.765,-0.047,0.763,0.017,1.62231,0,nan,0.0,4,1,20
250743108,1603428830800211,340354726,1087569333,424978,397063,0.35,0.432546,0.752,1.136,0.59,1.02,82,2,0.829,-0.094,0.823,-0.493,1.66489,0,nan,0.0,4,1,20
251745949,1603428831800211,340354713,1087569400,424781,396866,0.127,0.218634,0.757,1.134,0.62,1.04,74,6,0.681,-0.213,0.647,0.212,1.84817,0,nan,0.0,4,1,19
252752062,1603428832800210,340354715,1087569499,424674,396759,0.122,0.118875,0.744,1.121,0.64,1.19,79,5,1.141,-0.015,1.14,-0.117,1.5749,0,nan,0.0,4,1,19
253743053,1603428833800209,340354699,1087569635,424919,397004,0.123,0.112559,0.737,1.113,0.59,1.02,85,6,1.304,-0.404,1.24,-0.038,1.83345,0,nan,0.0,4,1,20
254749979,1603428834800209,340354689,1087569770,424634,396719,0.13,0.160948,0.729,1.104,0.59,1.02,85,5,1.084,-0.088,1.08,0.173,1.63436,0,nan,0.0,4,1,20
255746505,1603428835800208,340354704,1087569855,424925,397010,0.217,0.386083,0.722,1.093,0.59,1.02,85,6,0.619,0.005,0.619,-0.59,1.47719,0,nan,0.0,4,1,20
256744459,1603428836800208,340354717,1087569903,424709,396794,0.215,0.399071,0.715,1.082,0.59,1.02,85,18,0.403,0.212,0.343,0.774,1.28189,0,nan,0.0,4,1,20
257742618,1603428837800207,340354728,1087569948,424424,396509,0.134,0.273836,0.71,1.072,0.59,1.02,85,23,0.657,0.015,0.656,0.15,1.47815,0,nan,0.0,4,1,20
258746104,1603428838800207,340354752,1087570043,424344,396429,0.12,0.145143,0.701,1.06,0.59,1.02,91,5,1.096,0.064,1.094,-0.09,1.45164,0,nan,0.0,4,1,20
259737943,1603428839800206,340354746,1087570147,424281,396366,0.113,0.21037,0.693,1.049,0.59,1.02,91,5,0.794,-0.029,0.794,0.119,1.60889,0,nan,0.0,4,1,20
260745058,1603428840800205,340354728,1087570232,424244,396329,0.122,0.213103,0.685,1.041,0.59,1.02,97,13,0.779,-0.26,0.734,0.002,1.85558,0,nan,0.0,4,1,20
261739008,1603428841800205,340354721,1087570327,424225,396310,0.181,0.251544,0.689,1.042,0.59,1.02,104,12,0.868,0.053,0.866,-0.143,1.55107,0,nan,0.0,4,1,20
262740943,1603428842800204,340354722,1087570405,424269,396354,0.13,0.19354,0.692,1.045,0.59,1.02,88,10,0.811,-0.053,0.809,0.132,1.69443,0,nan,0.0,4,1,20
263739982,1603428843800204,340354720,1087570537,424251,396336,0.216,0.170997,0.694,1.052,0.59,1.02,88,11,1.614,0.101,1.611,-0.158,1.54726,0,nan,0.0,4,1,20
264744947,1603428844800203,340354717,1087570714,424290,396375,0.133,0.113186,0.708,1.065,0.59,1.02,88,6,1.436,0.052,1.435,-0.159,1.545,0,nan,0.0,4,1,20
265746949,1603428845800203,340354711,1087570838,424518,396603,0.129,0.152881,0.696,1.049,0.59,1.02,76,6,0.809,-0.064,0.807,-0.232,1.67121,0,nan,0.0,4,1,20
266740960,1603428846800202,340354710,1087570906,424522,396607,0.107,0.256374,0.685,1.032,0.59,1.02,87,6,0.52,-0.266,0.447,0.146,1.82333,0,nan,0.0,4,1,20
267744571,1603428847800202,340354696,1087570964,424431,396516,0.118,0.197022,0.674,1.017,0.59,1.02,93,5,0.698,-0.102,0.691,-0.059,1.77462,0,nan,0.0,4,1,20
268748943,1603428848800201,340354697,1087571075,424511,396596,0.11,0.108255,0.666,1.006,0.59,1.02,93,17,1.252,0.056,1.251,-0.108,1.53743,0,nan,0.0,4,1,20
269746266,1603428849800200,340354683,1087571200,424512,396598,0.126,0.149985,0.656,0.99,0.59,1.02,100,16,0.942,-0.238,0.911,-0.241,1.77845,0,nan,0.0,4,1,20
270747943,1603428850800200,340354669,1087571293,424654,396739,0.151,0.205093,0.648,0.979,0.59,1.02,100,6,0.886,0.046,0.884,-0.097,1.63136,0,nan,0.0,4,1,20
271746037,1603428851800199,340354667,1087571399,424368,396453,0.112,0.129459,0.642,0.968,0.59,1.02,100,8,1.177,-0.035,1.176,0.33,1.57255,0,nan,0.0,4,1,20
272748963,1603428852800199,340354655,1087571559,424159,396245,0.111,0.0791399,0.634,0.956,0.59,1.02,107,11,1.667,-0.191,1.656,0.15,1.67615,0,nan,0.0,4,1,20
273744988,1603428853800198,340354634,1087571730,424102,396188,0.11,0.0974653,0.628,0.948,0.59,1.02,107,12,1.385,-0.127,1.379,-0.099,1.68951,0,nan,0.0,4,1,20
274738962,1603428854800198,340354635,1087571853,424371,396456,0.187,0.215943,0.623,0.944,0.59,1.02,107,8,1.021,0.064,1.019,-0.49,1.52141,0,nan,0.0,4,1,20
275741014,1603428855800197,340354647,1087571932,424675,396760,0.181,0.322825,0.626,0.948,0.59,1.02,81,5,0.434,0.026,0.433,-0.334,1.45182,0,nan,0.0,4,1,20
276741963,1603428856800196,340354638,1087572012,424575,396661,0.118,0.166955,0.623,0.947,0.59,1.02,81,3,0.92,-0.066,0.918,0.248,1.68444,0,nan,0.0,4,1,20
277739010,1603428857800196,340354637,1087572148,424342,396427,0.126,0.0952972,0.62,0.946,0.59,1.02,81,5,1.475,-0.098,1.472,0.013,1.59461,0,nan,0.0,4,1,20
278734647,1603428858800195,340354625,1087572295,424330,396416,0.128,0.159635,0.617,0.942,0.59,1.02,87,3,1.035,-0.155,1.023,0.076,1.7094,0,nan,0.0,4,1,20
279735968,1603428859800195,340354624,1087572399,423775,395861,0.159,0.199461,0.614,0.94,0.64,1.19,87,3,0.986,0.347,0.923,0.482,1.49074,0,nan,0.0,4,1,19
280739945,1603428860800194,340354640,1087572523,423607,395693,0.143,0.125236,0.616,0.943,0.59,1.02,87,8,1.184,-0.073,1.182,-0.237,1.56663,0,nan,0.0,4,1,20
281738109,1603428861800194,340354628,1087572662,423923,396008,0.155,0.14047,0.615,0.947,0.67,1.22,93,10,1.109,0.057,1.108,-0.418,1.59801,0,nan,0.0,4,1,18
282744955,1603428862800193,340354611,1087572791,424300,396386,0.125,0.135257,0.614,0.948,0.59,1.02,93,4,1.077,-0.051,1.076,-0.044,1.65642,0,nan,0.0,4,1,20
283740156,1603428863800193,340354613,1087572885,424282,396367,0.137,0.198731,0.613,0.951,0.59,1.02,93,3,0.773,0.038,0.772,-0.028,1.51618,0,nan,0.0,4,1,20
284738950,1603428864800192,340354607,1087572971,424274,396360,0.129,0.18876,0.613,0.957,0.62,1.04,100,3,0.796,-0.106,0.789,0.018,1.67503,0,nan,0.0,4,1,19
285742982,1603428865800191,340354607,1087573082,424223,396308,0.132,0.151082,0.612,0.961,0.59,1.02,100,4,1.029,-0.154,1.018,-0.121,1.61459,0,nan,0.0,4,1,20
286750078,1603428866800191,340354605,1087573180,424251,396336,0.133,0.240233,0.614,0.969,0.59,1.02,118,4,0.716,-0.065,0.713,-0.044,1.61922,0,nan,0.0,4,1,20
287747942,1603428867800190,340354599,1087573261,424221,396306,0.136,0.255096,0.617,0.97,0.64,1.19,118,4,0.762,-0.181,0.74,0.018,1.73406,0,nan,0.0,4,1,19
288750082,1603428868800190,340354589,1087573370,423936,396022,0.137,0.145843,0.623,0.977,0.59,1.02,117,3,1.183,-0.198,1.166,0.095,1.71975,0,nan,0.0,4,1,20
289734382,1603428869800189,340354577,1087573510,423835,395920,0.244,0.25144,0.628,0.985,0.61,1.03,110,5,1.268,-0.193,1.254,0.078,1.64163,0,nan,0.0,4,1,19
290749946,1603428870800189,340354554,1087573623,423929,396015,0.145,0.233395,0.639,0.995,0.65,1.22,100,4,0.78,-0.194,0.756,-0.082,1.77908,0,nan,0.0,4,1,18
291750970,1603428871800188,340354547,1087573718,424181,396267,0.133,0.170721,0.637,0.995,0.6,1.05,101,5,0.882,-0.047,0.88,-0.117,1.64838,0,nan,0.0,4,1,19
292750966,1603428872800188,340354551,1087573803,424004,396090,0.142,0.171601,0.638,0.997,0.64,1.19,101,9,0.87,0.001,0.87,0.431,1.55366,0,nan,0.0,4,1,19
293738948,1603428873800187,340354554,1087573897,423627,395712,0.118,0.125299,0.634,0.993,0.6,1.05,101,6,1.064,-0.006,1.064,0.153,1.56731,0,nan,0.0,4,1,19
294751972,1603428874800186,340354543,1087574029,423963,396048,0.137,0.119857,0.628,0.987,0.6,1.05,101,6,1.1,-0.001,1.1,-0.298,1.65399,0,nan,0.0,4,1,19
295759676,1603428875800186,340354542,1087574139,424163,396248,0.131,0.21317,0.625,0.981,0.65,1.22,101,6,0.826,0.154,0.811,0.171,1.49705,0,nan,0.0,4,1,18
296745123,1603428876800185,340354566,1087574201,424551,396637,0.137,0.179924,0.623,0.976,0.6,1.05,101,5,0.646,0.475,0.438,-0.115,0.827062,0,nan,0.0,4,1,19
297748975,1603428877800185,340354603,1087574247,424037,396123,0.186,0.166936,0.619,0.967,0.6,1.05,108,9,0.659,0.53,0.391,0.913,0.570795,0,nan,0.0,4,1,19
298744945,1603428878800184,340354698,1087574293,423407,395493,0.171,0.108739,0.616,0.96,0.65,1.22,108,12,1.315,1.221,0.487,-0.141,0.361825,0,nan,0.0,4,1,18
299751301,1603428879800184,340354788,1087574362,424332,396418,0.171,0.118002,0.614,0.957,0.65,1.22,108,9,1.158,0.932,0.688,-0.841,0.628997,0,nan,0.0,4,1,18
300744851,1603428880800183,340354855,1087574405,424402,396488,0.23,0.196939,0.614,0.955,0.6,1.05,115,12,0.842,0.778,0.321,0.206,0.414748,0,nan,0.0,4,1,19
301738128,1603428881800182,340354935,1087574468,424052,396137,0.193,0.133059,0.623,0.964,0.6,1.05,84,3,1.132,0.977,0.572,0.282,0.542035,0,nan,0.0,4,1,19
302743943,1603428882800182,340355021,1087574514,424120,396205,0.138,0.12451,0.625,0.966,0.6,1.05,84,3,1.016,0.997,0.193,-0.163,0.279745,0,nan,0.0,4,1,19
303735965,1603428883800181,340355118,1087574552,423704,395790,0.209,0.11431,0.623,0.964,0.6,1.05,84,2,1.384,1.338,0.356,0.243,0.271728,0,nan,0.0,4,1,19
304745009,1603428884800181,340355234,1087574578,423568,395654,0.183,0.0939238,0.65,0.987,0.6,1.05,84,2,1.435,1.421,0.199,-0.09,0.145481,0,nan,0.0,4,1,19
305745380,1603428885800180,340355341,1087574575,423888,395974,0.162,0.0965706,0.648,0.981,0.6,1.05,68,4,1.39,1.376,-0.196,-0.457,6.21535,0,nan,0.0,4,1,19
306747939,1603428886800180,340355442,1087574558,424213,396298,0.17,0.116068,0.645,0.975,0.6,1.05,72,6,1.094,1.093,-0.052,0.025,6.19797,0,nan,0.0,4,1,19
307743947,1603428887800179,340355530,1087574560,424256,396341,0.154,0.136407,0.643,0.971,0.6,1.05,83,4,0.93,0.906,0.211,-0.143,0.146102,0,nan,0.0,4,1,19
308752107,1603428888800179,340355610,1087574599,424612,396698,0.151,0.129804,0.638,0.965,0.6,1.05,89,6,0.88,0.845,0.245,-0.366,0.352682,0,nan,0.0,4,1,19
309743943,1603428889800178,340355673,1087574615,424801,396886,0.19,0.216213,0.634,0.956,0.6,1.05,95,7,0.537,0.537,0.02,0.07,0.104647,0,nan,0.0,4,1,19
310748112,1603428890800177,340355734,1087574616,424360,396446,0.175,0.188617,0.631,0.949,0.6,1.05,101,5,0.609,0.598,-0.115,0.316,6.20186,0,nan,0.0,4,1,19
311745002,1603428891800177,340355800,1087574604,424412,396498,0.129,0.137196,0.628,0.946,0.6,1.05,101,7,0.897,0.863,-0.248,-0.325,6.02817,0,nan,0.0,4,1,19
312751942,1603428892800176,340355888,1087574581,424384,396469,0.15,0.131336,0.624,0.938,0.6,1.05,101,5,1.023,0.949,-0.38,0.058,6.01383,0,nan,0.0,4,1,19
313744970,1603428893800176,340355984,1087574551,424166,396252,0.17,0.154482,0.621,0.936,0.65,1.22,108,7,0.868,0.843,-0.205,0.343,6.03739,0,nan,0.0,4,1,18
314744136,1603428894800175,340356031,1087574522,423740,395826,0.194,0.672339,0.616,0.927,0.6,1.05,108,15,0.186,0.11,-0.15,0.335,5.80202,0,nan,0.0,4,1,19
315741035,1603428895800175,340356050,1087574496,422924,395009,0.27,0.6326,0.629,0.937,0.6,1.05,94,5,0.29,0.229,-0.177,0.65,5.43486,0,nan,0.0,4,1,19
316739144,1603428896800174,340356069,1087574468,422761,394846,0.255,0.518881,0.638,0.954,0.6,1.05,94,2,0.358,-0.042,-0.355,0.391,4.98735,0,nan,0.0,4,1,19
317744317,1603428897800174,340356072,1087574471,422853,394938,0.319,0.518956,0.65,0.97,0.59,1.02,94,3,0.078,-0.077,-0.004,-0.072,4.98735,0,nan,0.0,4,1,20
318736943,1603428898800173,340356074,1087574473,422910,394996,0.232,0.519027,0.664,0.986,0.59,1.02,94,3,0.052,0.033,-0.04,0.014,4.98735,0,nan,0.0,4,1,20
319742009,1603428899800172,340356076,1087574479,422997,395082,0.198,0.519086,0.674,0.999,0.59,1.02,94,3,0.085,0.076,-0.038,-0.056,4.98735,0,nan,0.0,4,1,20
