timestamp,roll_body,pitch_body,yaw_body,yaw_sp_move_rate,q_d[0],q_d[1],q_d[2],q_d[3],thrust_body[0],thrust_body[1],thrust_body[2],roll_reset_integral,pitch_reset_integral,yaw_reset_integral,fw_control_yaw,apply_flaps
24891949,-0.456083,0.421649,-1.62027,0.0,0.690953,-0.00473824,0.300668,-0.657389,0.0,0.0,-0.0,0,0,0,0,0
24896953,-0.456083,0.421649,-1.62008,0.0,0.691016,-0.00476716,0.300668,-0.657322,0.0,0.0,-0.0,0,0,0,0,0
24996255,-0.456083,0.421649,-1.61967,0.0,0.691149,-0.00482777,0.300667,-0.657183,0.0,0.0,-0.0,0,0,0,0,0
25090588,-0.456083,0.421649,-1.61982,0.0,0.691101,-0.00480589,0.300667,-0.657233,0.0,0.0,-0.0,0,0,0,0,0
25194980,-0.456583,0.421102,-1.61932,0.0,0.691258,-0.00525118,0.30066,-0.657068,0.0,0.0,-0.0,0,0,0,0,0
25294091,-0.465511,0.411066,-1.61852,0.0,0.691368,-0.0120819,0.300463,-0.656952,0.0,0.0,-0.0,0,0,0,0,0
25393520,-0.122927,-0.0146826,-1.51755,0.0,0.723981,-0.049615,0.0369437,-0.687041,0.0,0.0,-0.0,0,0,0,0,0
25497725,0.0134052,-0.0117754,-1.51734,0.0,0.725752,0.000813963,-0.00888385,-0.687899,0.0,0.0,-0.0,0,0,0,0,0
25592055,0.0153202,-0.0117753,-1.51634,0.0,0.726093,0.00151367,-0.00954173,-0.687529,0.0,0.0,-0.0,0,0,0,0,0
25696507,0.0153204,-0.0132472,-1.51474,0.0,0.726643,0.00101575,-0.0100753,-0.686941,0.0,0.0,-0.0,0,0,0,0,0
25790703,0.0153204,-0.0132472,-1.51395,0.0,0.726913,0.00101971,-0.0100749,-0.686655,0.0,0.0,-0.0,0,0,0,0,0
25895199,0.0153202,-0.0117753,-1.51279,0.0,0.727313,0.00153061,-0.00953902,-0.686238,0.0,0.0,-0.0,0,0,0,0,0
25994373,0.0153202,-0.0117753,-1.51084,0.0,0.727981,0.0015399,-0.00953753,-0.685529,0.0,0.0,-0.0,0,0,0,0,0
26093733,0.0153204,-0.0132472,-1.50928,0.0,0.728514,0.00104324,-0.0100725,-0.684956,0.0,0.0,-0.0,0,0,0,0,0
26197993,0.0153202,-0.0117753,-1.50843,0.0,0.728806,0.00155138,-0.00953567,-0.684653,0.0,0.0,-0.0,0,0,0,0,0
26292413,0.0153204,-0.0132472,-1.50689,0.0,0.729333,0.00105528,-0.0100712,-0.684084,0.0,0.0,-0.0,0,0,0,0,0
26396690,0.0153204,-0.0132472,-1.50544,0.0,0.729828,0.00106257,-0.0100705,-0.683556,0.0,0.0,-0.0,0,0,0,0,0
26490991,0.0153204,-0.0132472,-1.50531,0.0,0.729875,0.00106326,-0.0100704,-0.683506,0.0,0.0,-0.0,0,0,0,0,0
26595323,0.0153204,-0.0132472,-1.50411,0.0,0.730283,0.00106928,-0.0100698,-0.683069,0.0,0.0,-0.0,0,0,0,0,0
26694682,0.0153204,-0.0132472,-1.50229,0.0,0.730905,0.00107846,-0.0100688,-0.682404,0.0,0.0,-0.0,0,0,0,0,0
26794167,0.0153204,-0.0132472,-1.50149,0.0,0.731179,0.0010825,-0.0100684,-0.68211,0.0,0.0,-0.0,0,0,0,0,0
26893252,0.0153204,-0.0132472,-1.50117,0.0,0.731287,0.00108409,-0.0100682,-0.681994,0.0,0.0,-0.0,0,0,0,0,0
26992588,0.0153204,-0.0132472,-1.50029,0.0,0.731587,0.00108852,-0.0100677,-0.681673,0.0,0.0,-0.0,0,0,0,0,0
27096900,0.0153204,-0.0132472,-1.49918,0.0,0.731965,0.0010941,-0.0100671,-0.681267,0.0,0.0,-0.0,0,0,0,0,0
27191222,0.0153202,-0.0117753,-1.49824,0.0,0.732284,0.00159994,-0.00952764,-0.680931,0.0,0.0,-0.0,0,0,0,0,0
27295611,0.0153204,-0.0132472,-1.4972,0.0,0.732641,0.00110409,-0.010066,-0.68054,0.0,0.0,-0.0,0,0,0,0,0
27394843,0.0153204,-0.0132472,-1.49652,0.0,0.732872,0.00110751,-0.0100656,-0.680291,0.0,0.0,-0.0,0,0,0,0,0
27494175,0.0153202,-0.0117753,-1.49655,0.0,0.732861,0.00160802,-0.00952628,-0.68031,0.0,0.0,-0.0,0,0,0,0,0
27593527,0.0153202,-0.0117753,-1.49558,0.0,0.733191,0.00161264,-0.0095255,-0.679954,0.0,0.0,-0.0,0,0,0,0,0
27692867,0.0153204,-0.0132472,-1.49344,0.0,0.733917,0.00112299,-0.0100639,-0.679164,0.0,0.0,-0.0,0,0,0,0,0
27797303,0.0153202,-0.0117753,-1.49259,0.0,0.734207,0.00162688,-0.00952308,-0.678857,0.0,0.0,-0.0,0,0,0,0,0
27891580,0.0153202,-0.0117753,-1.49274,0.0,0.734155,0.00162615,-0.0095232,-0.678914,0.0,0.0,-0.0,0,0,0,0,0
27995738,0.0153204,-0.0132472,-1.49201,0.0,0.734403,0.0011302,-0.0100631,-0.678638,0.0,0.0,-0.0,0,0,0,0,0
28090241,0.0153204,-0.0132472,-1.4912,0.0,0.734677,0.00113426,-0.0100627,-0.678342,0.0,0.0,-0.0,0,0,0,0,0
28194337,0.0172355,-0.013247,-1.49134,0.0,0.734628,0.00183702,-0.0107123,-0.678383,0.0,0.0,-0.0,0,0,0,0,0
28293795,0.0172355,-0.013247,-1.49102,0.0,0.734738,0.00183876,-0.010712,-0.678264,0.0,0.0,-0.0237209,0,0,0,0,0
28393152,0.0172355,-0.013247,-1.49137,0.0,0.734618,0.00183687,-0.0107123,-0.678394,0.0,0.0,-0.0499388,0,0,0,0,0
28497277,0.0172355,-0.013247,-1.49222,0.0,0.73433,0.00183231,-0.0107131,-0.678706,0.0,0.0,-0.0474419,0,0,0,0,0
28591828,0.0172355,-0.013247,-1.49254,0.0,0.734222,0.00183061,-0.0107134,-0.678823,0.0,0.0,-0.0474419,0,0,0,0,0
28696119,0.0172355,-0.013247,-1.4942,0.0,0.733656,0.00182169,-0.0107149,-0.679434,0.0,0.0,-0.0474419,0,0,0,0,0
28790371,0.0172355,-0.013247,-1.49403,0.0,0.733716,0.00182263,-0.0107147,-0.679369,0.0,0.0,-0.0474419,0,0,0,0,0
28894693,0.0172355,-0.013247,-1.49466,0.0,0.733503,0.00181926,-0.0107153,-0.6796,0.0,0.0,-0.0511873,0,0,0,0,0
28993923,0.0172355,-0.013247,-1.49476,0.0,0.733467,0.0018187,-0.0107154,-0.679639,0.0,0.0,-0.0674174,0,0,0,0,0
29093245,0.0172355,-0.013247,-1.49526,0.0,0.733297,0.00181602,-0.0107158,-0.679822,0.0,0.0,-0.170526,0,0,0,0,0
29192585,0.0172355,-0.013247,-1.49526,0.0,0.733297,0.00181602,-0.0107158,-0.679822,0.0,0.0,-0.213684,0,0,0,0,0
29291959,0.0172355,-0.013247,-1.49526,0.0,0.733297,0.00181602,-0.0107158,-0.679822,0.0,0.0,-0.213684,0,0,0,0,0
29396299,0.0172355,-0.013247,-1.49526,0.0,0.733297,0.00181602,-0.0107158,-0.679822,0.0,0.0,-0.211579,0,0,0,0,0
29490713,0.0172355,-0.013247,-1.49526,0.0,0.733297,0.00181602,-0.0107158,-0.679822,0.0,0.0,-0.211579,0,0,0,0,0
29594783,0.0172355,-0.013247,-1.49526,0.0,0.733297,0.00181602,-0.0107158,-0.679822,0.0,0.0,-0.210526,0,0,0,0,0
29694232,0.0172355,-0.013247,-1.49526,0.0,0.733297,0.00181602,-0.0107158,-0.679822,0.0,0.0,-0.211579,0,0,0,0,0
29793455,0.0172355,-0.013247,-1.49526,0.0,0.733297,0.00181602,-0.0107158,-0.679822,0.0,0.0,-0.213684,0,0,0,0,0
29892879,0.0172355,-0.013247,-1.49526,0.0,0.733297,0.00181602,-0.0107158,-0.679822,0.0,0.0,-0.224211,0,0,0,0,0
29992263,0.0172355,-0.013247,-1.49526,0.0,0.733297,0.00181602,-0.0107158,-0.679822,0.0,0.0,-0.241053,0,0,0,0,0
30096376,0.0172355,-0.013247,-1.49526,0.0,0.733297,0.00181602,-0.0107158,-0.679822,0.0,0.0,-0.242105,0,0,0,0,0
30190837,0.0172355,-0.013247,-1.49526,0.0,0.733297,0.00181602,-0.0107158,-0.679822,0.0,0.0,-0.242105,0,0,0,0,0
30295204,0.0172355,-0.013247,-1.49526,0.0,0.733297,0.00181602,-0.0107158,-0.679822,0.0,0.0,-0.244211,0,0,0,0,0
30394450,0.0172355,-0.013247,-1.49526,0.0,0.733297,0.00181602,-0.0107158,-0.679822,0.0,0.0,-0.255789,0,0,0,0,0
30493774,0.0172355,-0.013247,-1.49526,0.0,0.733297,0.00181602,-0.0107158,-0.679822,0.0,0.0,-0.255789,0,0,0,0,0
30593114,0.0172355,-0.013247,-1.49526,0.0,0.733297,0.00181602,-0.0107158,-0.679822,0.0,0.0,-0.269474,0,0,0,0,0
30692386,0.0172355,-0.013247,-1.49526,0.0,0.733297,0.00181602,-0.0107158,-0.679822,0.0,0.0,-0.286316,0,0,0,0,0
30796763,0.0172355,-0.013247,-1.49526,0.0,0.733297,0.00181602,-0.0107158,-0.679822,0.0,0.0,-0.287368,0,0,0,0,0
30890951,0.0172355,-0.013247,-1.49526,0.0,0.733297,0.00181602,-0.0107158,-0.679822,0.0,0.0,-0.287368,0,0,0,0,0
30995397,0.0172355,-0.013247,-1.49526,0.0,0.733297,0.00181602,-0.0107158,-0.679822,0.0,0.0,-0.290526,0,0,0,0,0
31094675,0.0172355,-0.013247,-1.49526,0.0,0.733297,0.00181602,-0.0107158,-0.679822,0.0,0.0,-0.309474,0,0,0,0,0
31193990,0.0172355,-0.013247,-1.49526,0.0,0.733297,0.00181602,-0.0107158,-0.679822,0.0,0.0,-0.308421,0,0,0,0,0
31293528,0.0172355,-0.013247,-1.49526,0.0,0.733297,0.00181602,-0.0107158,-0.679822,0.0,0.0,-0.306316,0,0,0,0,0
31392639,0.0172355,-0.013247,-1.49526,0.0,0.733297,0.00181602,-0.0107158,-0.679822,0.0,0.0,-0.304211,0,0,0,0,0
31496831,0.0153204,-0.0132472,-1.49525,0.0,0.733302,0.00111389,-0.0100649,-0.679827,0.0,0.0,-0.304211,0,0,0,0,0
31591361,0.0153204,-0.0132472,-1.49525,0.0,0.733302,0.00111389,-0.0100649,-0.679827,0.0,0.0,-0.306316,0,0,0,0,0
31695474,0.0153204,-0.0132472,-1.49525,0.0,0.733302,0.00111389,-0.0100649,-0.679827,0.0,0.0,-0.309474,0,0,0,0,0
31794909,0.0114903,-0.0132474,-1.49522,0.0,0.733312,-0.000290391,-0.0087631,-0.679836,0.0,0.0,-0.309474,0,0,0,0,0
31894307,0.0134054,-0.0132473,-1.49524,0.0,0.733307,0.000411749,-0.00941402,-0.679832,0.0,0.0,-0.309474,0,0,0,0,0
31993679,0.0153204,-0.0132472,-1.49525,0.0,0.733302,0.00111389,-0.0100649,-0.679827,0.0,0.0,-0.309474,0,0,0,0,0
32093067,0.0172355,-0.013247,-1.49526,0.0,0.733297,0.00181602,-0.0107158,-0.679822,0.0,0.0,-0.309474,0,0,0,0,0
32192124,0.0153204,-0.0132472,-1.49525,0.0,0.733302,0.00111389,-0.0100649,-0.679827,0.0,0.0,-0.309474,0,0,0,0,0
32291466,0.0134054,-0.0132473,-1.49524,0.0,0.733307,0.000411749,-0.00941402,-0.679832,0.0,0.0,-0.311579,0,0,0,0,0
32395779,0.0153204,-0.0132472,-1.49525,0.0,0.733302,0.00111389,-0.0100649,-0.679827,0.0,0.0,-0.309474,0,0,0,0,0
32495243,0.0114933,-0.0309106,-1.49533,0.0,0.73324,-0.00629451,-0.0152392,-0.67977,0.0,0.0,-0.310526,0,0,0,0,0
32594426,0.0153204,-0.0132472,-1.49525,0.0,0.733302,0.00111389,-0.0100649,-0.679827,0.0,0.0,-0.306316,0,0,0,0,0
32693855,0.0153202,-0.0117753,-1.49524,0.0,0.733306,0.00161425,-0.00952523,-0.67983,0.0,0.0,-0.306316,0,0,0,0,0
32793064,0.0153202,-0.0117753,-1.49524,0.0,0.733306,0.00161425,-0.00952523,-0.67983,0.0,0.0,-0.306316,0,0,0,0,0
32892492,0.0153202,-0.0117753,-1.49524,0.0,0.733306,0.00161425,-0.00952523,-0.67983,0.0,0.0,-0.304211,0,0,0,0,0
32991812,0.0153202,-0.0117753,-1.49524,0.0,0.733306,0.00161425,-0.00952523,-0.67983,0.0,0.0,-0.304211,0,0,0,0,0
33096000,0.0153202,-0.0117753,-1.49524,0.0,0.733306,0.00161425,-0.00952523,-0.67983,0.0,0.0,-0.304211,0,0,0,0,0
33195428,0.0153202,-0.0117753,-1.49524,0.0,0.733306,0.00161425,-0.00952523,-0.67983,0.0,0.0,-0.329474,0,0,0,0,0
33294578,0.0172352,-0.0117751,-1.49525,0.0,0.7333,0.00231638,-0.0101761,-0.679825,0.0,0.0,-0.337895,0,0,0,0,0
33393978,0.0172355,-0.013247,-1.49526,0.0,0.733297,0.00181602,-0.0107158,-0.679822,0.0,0.0,-0.355789,0,0,0,0,0
33493386,0.0153202,-0.0117753,-1.49524,0.0,0.733306,0.00161425,-0.00952523,-0.67983,0.0,0.0,-0.355789,0,0,0,0,0
33592629,0.0153202,-0.0117753,-1.49524,0.0,0.733306,0.00161425,-0.00952523,-0.67983,0.0,0.0,-0.388421,0,0,0,0,0
33692076,0.0153202,-0.0117753,-1.49524,0.0,0.733306,0.00161425,-0.00952523,-0.67983,0.0,0.0,-0.397895,0,0,0,0,0
33796322,0.0153202,-0.0117753,-1.49524,0.0,0.733306,0.00161425,-0.00952523,-0.67983,0.0,0.0,-0.398947,0,0,0,0,0
33895617,0.0153204,-0.0132472,-1.49525,0.0,0.733302,0.00111389,-0.0100649,-0.679827,0.0,0.0,-0.397895,0,0,0,0,0
33994878,0.0172355,-0.013247,-1.49526,0.0,0.733297,0.00181602,-0.0107158,-0.679822,0.0,0.0,-0.398947,0,0,0,0,0
34094233,0.0172355,-0.013247,-1.49526,0.0,0.733297,0.00181602,-0.0107158,-0.679822,0.0,0.0,-0.4,0,0,0,0,0
34193618,0.0191505,-0.0132469,-1.49528,0.0,0.73329,0.00251815,-0.0113667,-0.679816,0.0,0.0,-0.414737,0,0,0,0,0
34292930,0.0191505,-0.0132469,-1.49528,0.0,0.73329,0.00251815,-0.0113667,-0.679816,0.0,0.0,-0.414737,0,0,0,0,0
34392103,0.0172359,-0.0161908,-1.49529,0.0,0.733289,0.000815306,-0.0117952,-0.679814,0.0,0.0,-0.414737,0,0,0,0,0
34496576,0.0172359,-0.0161908,-1.49529,0.0,0.733289,0.000815306,-0.0117952,-0.679814,0.0,0.0,-0.414737,0,0,0,0,0
34595895,0.0172355,-0.013247,-1.49526,0.0,0.733297,0.00181602,-0.0107158,-0.679822,0.0,0.0,-0.409474,0,0,0,0,0
34695139,0.0172355,-0.013247,-1.49526,0.0,0.733297,0.00181602,-0.0107158,-0.679822,0.0,0.0,-0.430526,0,0,0,0,0
34794538,0.0153202,-0.0117753,-1.49524,0.0,0.733306,0.00161425,-0.00952523,-0.67983,0.0,0.0,-0.464211,0,0,0,0,0
34893819,0.0153202,-0.0117753,-1.49524,0.0,0.733306,0.00161425,-0.00952523,-0.67983,0.0,0.0,-0.464211,0,0,0,0,0
34993129,0.0134052,-0.0117754,-1.49523,0.0,0.733311,0.00091211,-0.00887431,-0.679835,0.0,0.0,-0.462105,0,0,0,0,0
35092491,0.0153202,-0.0117753,-1.49524,0.0,0.733306,0.00161425,-0.00952523,-0.67983,0.0,0.0,-0.464211,0,0,0,0,0
35191775,0.0172357,-0.0147189,-1.49528,0.0,0.733293,0.00131566,-0.0112555,-0.679818,0.0,0.0,-0.464211,0,0,0,0,0
35296070,0.0153391,-0.0618201,-1.49562,0.0,0.732968,-0.0153956,-0.0278713,-0.679517,0.0,0.0,-0.464211,0,0,0,0,0
35395359,0.00961919,-0.117755,-1.49572,0.0,0.732061,-0.0364973,-0.0464057,-0.678676,0.0,0.0,-0.463158,0,0,0,0,0
35494696,0.0,-0.151612,-1.49515,0.0,0.731234,-0.0514884,-0.0555385,-0.677909,0.0,0.0,-0.464211,0,0,0,0,0
35594292,0.0,-0.163388,-1.49515,0.0,0.730894,-0.0554789,-0.0598429,-0.677595,0.0,0.0,-0.476842,0,0,0,0,0
35693351,0.0,-0.160444,-1.49515,0.0,0.730982,-0.0544815,-0.058767,-0.677676,0.0,0.0,-0.476842,0,0,0,0,0
35792778,0.0,-0.153084,-1.49515,0.0,0.731193,-0.0519873,-0.0560766,-0.677871,0.0,0.0,-0.48,0,0,0,0,0
35891988,0.0,-0.144253,-1.49515,0.0,0.731433,-0.0489934,-0.0528472,-0.678094,0.0,0.0,-0.485263,0,0,0,0,0
35996379,0.0,-0.129533,-1.49515,0.0,0.731803,-0.0440015,-0.0474626,-0.678437,0.0,0.0,-0.506316,0,0,0,0,0
36095550,0.0,-0.122173,-1.49515,0.0,0.731972,-0.0415046,-0.0447693,-0.678594,0.0,0.0,-0.521395,0,0,0,0,0
36195025,0.0,-0.119229,-1.49515,0.0,0.732037,-0.0405057,-0.0436919,-0.678654,0.0,0.0,-0.501053,0,0,0,0,0
36294239,0.0,-0.117757,-1.49515,0.0,0.732069,-0.0400062,-0.0431531,-0.678684,0.0,0.0,-0.504211,0,0,0,0,0
36393667,0.0,-0.108925,-1.49515,0.0,0.732253,-0.0370088,-0.0399199,-0.678854,0.0,0.0,-0.536989,0,0,0,0,0
36492820,0.0,-0.107453,-1.49515,0.0,0.732282,-0.0365092,-0.039381,-0.678881,0.0,0.0,-0.544186,0,0,0,0,0
36592276,0.0,-0.107453,-1.49515,0.0,0.732282,-0.0365092,-0.039381,-0.678881,0.0,0.0,-0.550184,0,0,0,0,0
36696519,0.0,-0.108925,-1.49515,0.0,0.732253,-0.0370088,-0.0399199,-0.678854,0.0,0.0,-0.569376,0,0,0,0,0
36795885,0.0,-0.111869,-1.49515,0.0,0.732193,-0.038008,-0.0409977,-0.678799,0.0,0.0,-0.569376,0,0,0,0,0
36895060,0.0,-0.107453,-1.49515,0.0,0.732282,-0.0365092,-0.039381,-0.678881,0.0,0.0,-0.572974,0,0,0,0,0
36994532,0.0,-0.0942057,-1.49515,0.0,0.732527,-0.0320116,-0.0345296,-0.679108,0.0,0.0,-0.572974,0,0,0,0,0
37093788,0.0,-0.0853739,-1.49515,0.0,0.732672,-0.0290124,-0.0312946,-0.679243,0.0,0.0,-0.575373,0,0,0,0,0
37193225,0.0,-0.0750702,-1.49515,0.0,0.732824,-0.0255127,-0.0275195,-0.679383,0.0,0.0,-0.574174,0,0,0,0,0
37292568,0.0153381,-0.0603482,-1.49561,0.0,0.732985,-0.0148954,-0.0273319,-0.679533,0.0,0.0,-0.574174,0,0,0,0,0
37396643,0.015343,-0.0677077,-1.49567,0.0,0.732898,-0.0173962,-0.0300289,-0.679452,0.0,0.0,-0.574174,0,0,0,0,0
37496094,0.0172632,-0.0706508,-1.49576,0.0,0.732855,-0.0176943,-0.0317583,-0.679413,0.0,0.0,-0.541787,0,0,0,0,0
37595379,0.0172575,-0.0632913,-1.4957,0.0,0.732946,-0.0151937,-0.0290615,-0.679496,0.0,0.0,-0.538188,0,0,0,0,0
37694817,0.0172575,-0.0632913,-1.4957,0.0,0.732946,-0.0151937,-0.0290615,-0.679496,0.0,0.0,-0.523794,0,0,0,0,0
37794130,0.0172472,-0.0471005,-1.49556,0.0,0.733109,-0.00969135,-0.0231273,-0.679648,0.0,0.0,-0.521395,0,0,0,0,0
37893283,0.0172389,-0.0279659,-1.49539,0.0,0.733241,-0.00318746,-0.0161126,-0.67977,0.0,0.0,-0.474737,0,0,0,0,0
37992754,0.0191517,-0.0191344,-1.49533,0.0,0.733273,0.000516726,-0.0135255,-0.6798,0.0,0.0,-0.461053,0,0,0,0,0
38096999,0.0172389,-0.0279659,-1.49539,0.0,0.733241,-0.00318746,-0.0161126,-0.67977,0.0,0.0,-0.46,0,0,0,0,0
38191333,0.0191503,-0.011775,-1.49526,0.0,0.733294,0.00301851,-0.010827,-0.679819,0.0,0.0,-0.429474,0,0,0,0,0
38295632,0.0172352,-0.0117751,-1.47255,0.0,0.740968,0.00243172,-0.0101492,-0.671459,0.0,0.0,-0.42,0,0,0,0,0
38394975,0.0172352,-0.0117751,-1.47255,0.0,0.740968,0.00243172,-0.0101492,-0.671459,0.0,0.0,-0.421053,0,0,0,0,0
38494282,0.0172352,-0.0117751,-1.47255,0.0,0.740968,0.00243172,-0.0101492,-0.671459,0.0,0.0,-0.42,0,0,0,0,0
38593546,0.0153227,-0.0250224,-1.47264,0.0,0.740929,-0.00272552,-0.0144142,-0.671423,0.0,0.0,-0.458947,0,0,0,0,0
38692880,0.015343,-0.0677077,-1.47297,0.0,0.740562,-0.0170542,-0.0302244,-0.671091,0.0,0.0,-0.476842,0,0,0,0,0
38797263,0.015345,-0.0706515,-1.47299,0.0,0.740524,-0.0180422,-0.0313144,-0.671057,0.0,0.0,-0.475789,0,0,0,0,0
38891734,0.0153543,-0.0824268,-1.47308,0.0,0.740357,-0.0219933,-0.0356737,-0.670906,0.0,0.0,-0.475789,0,0,0,0,0
38995784,0.0115305,-0.103035,-1.47305,0.0,0.740013,-0.0303241,-0.0420146,-0.670594,0.0,0.0,-0.474737,0,0,0,0,0
39095364,0.00772015,-0.153083,-1.47304,0.0,0.738833,-0.0485122,-0.0592321,-0.669525,0.0,0.0,-0.48,0,0,0,0,0
39194493,0.00579279,-0.157499,-1.47291,0.0,0.738709,-0.0506994,-0.0602209,-0.669412,0.0,0.0,-0.511799,0,0,0,0,0
39293765,0.00193063,-0.156028,-1.4726,0.0,0.738754,-0.0516242,-0.0583928,-0.669453,0.0,0.0,-0.523794,0,0,0,0,0
39393165,0.0,-0.151612,-1.47245,0.0,0.73888,-0.0508548,-0.0561192,-0.669567,0.0,0.0,-0.538188,0,0,0,0,0
39497506,0.0,-0.145724,-1.47245,0.0,0.739042,-0.0488834,-0.0539438,-0.669714,0.0,0.0,-0.550184,0,0,0,0,0
39591731,0.0,-0.145724,-1.47245,0.0,0.739042,-0.0488834,-0.0539438,-0.669714,0.0,0.0,-0.556181,0,0,0,0,0
39696199,0.00192861,-0.145724,-1.47259,0.0,0.739042,-0.0481745,-0.0545861,-0.669714,0.0,0.0,-0.563378,0,0,0,0,0
39795320,0.0135042,-0.148664,-1.47346,0.0,0.738945,-0.0449069,-0.0595275,-0.669626,0.0,0.0,-0.55978,0,0,0,0,0
39894865,0.0154573,-0.163382,-1.47372,0.0,0.738515,-0.0491261,-0.0656058,-0.669237,0.0,0.0,-0.557381,0,0,0,0,0
39994029,0.0193154,-0.160434,-1.474,0.0,0.738591,-0.046723,-0.0658029,-0.669306,0.0,0.0,-0.562179,0,0,0,0,0
40093274,0.0212116,-0.144242,-1.47398,0.0,0.739041,-0.0405921,-0.0604649,-0.669713,0.0,0.0,-0.562179,0,0,0,0,0
40197688,0.0192752,-0.139828,-1.4738,0.0,0.739164,-0.0398218,-0.0581911,-0.669824,0.0,0.0,-0.564578,0,0,0,0,0
40291961,0.0153872,-0.114809,-1.47334,0.0,0.739766,-0.032854,-0.0476556,-0.67037,0.0,0.0,-0.575373,0,0,0,0,0
40396360,0.0172608,-0.067707,-1.47304,0.0,0.740556,-0.0163449,-0.0308671,-0.671086,0.0,0.0,-0.574174,0,0,0,0,0
40490636,0.0210841,-0.0529868,-1.47301,0.0,0.740707,-0.00998575,-0.026702,-0.671223,0.0,0.0,-0.572974,0,0,0,0,0
40594896,0.0497945,-0.0191276,-1.47293,0.0,0.740745,0.0120207,-0.0238033,-0.671257,0.0,0.0,-0.571775,0,0,0,0,0
40694407,0.0938344,-0.00881883,-1.47299,-0.00607423,0.740145,0.031786,-0.0347652,-0.670795,0.0,0.0,-0.550184,0,0,0,0,0
40793547,0.112985,-0.0102818,-1.47575,-0.0728908,0.738906,0.0383233,-0.0417805,-0.671419,0.0,0.0,-0.506316,0,0,0,0,0
40897862,0.122559,-0.00880969,-1.48825,-0.151856,0.734474,0.0420756,-0.0447146,-0.675853,0.0,0.0,-0.506316,0,0,0,0,0
40992282,0.112991,-0.0161572,-1.5032,-0.11541,0.72972,0.035745,-0.0444466,-0.681363,0.0,0.0,-0.506316,0,0,0,0,0
41096574,0.078527,-0.0235272,-1.5055,0.0,0.729514,0.0206098,-0.0354121,-0.682738,0.0,0.0,-0.535789,0,0,0,0,0
41190884,0.0555583,-0.0367802,-1.5056,0.0,0.729722,0.00769909,-0.0324013,-0.682933,0.0,0.0,-0.529792,0,0,0,0,0
41295363,0.0191539,-0.0264937,-1.50483,0.0,0.730029,-0.00206146,-0.0162143,-0.68322,0.0,0.0,-0.515398,0,0,0,0,0
41394426,0.0248951,-0.0103027,-1.50471,0.0,0.730061,0.00556745,-0.0122664,-0.68325,0.0,0.0,-0.5,0,0,0,0,0
41493969,0.0306401,-0.0103021,-1.50474,0.0,0.730031,0.00766451,-0.0142289,-0.683222,0.0,0.0,-0.482105,0,0,0,0,0
41593248,0.0210651,-0.010303,-1.50469,0.0,0.730077,0.00416938,-0.010958,-0.683265,0.0,0.0,-0.434737,0,0,0,0,0
41692449,0.0210651,-0.010303,-1.50469,0.0,0.730077,0.00416938,-0.010958,-0.683265,0.0,0.0,-0.436842,0,0,0,0,0
41796797,0.0229803,-0.0117747,-1.50505,-0.00607423,0.729952,0.0043635,-0.0121503,-0.683376,0.0,0.0,-0.461053,0,0,0,0,0
41891131,0.0191521,-0.0206062,-1.50523,0.0,0.7299,-5.3117e-05,-0.0140651,-0.683409,0.0,0.0,-0.462105,0,0,0,0,0
41995374,0.0172575,-0.0632913,-1.50588,-0.00607423,0.729476,-0.0153414,-0.0289838,-0.683219,0.0,0.0,-0.473684,0,0,0,0,0
42094777,0.0173453,-0.138358,-1.50689,0.0,0.727973,-0.0409796,-0.0563316,-0.682058,0.0,0.0,-0.5,0,0,0,0,0
42194017,0.017355,-0.144245,-1.50695,0.0,0.727821,-0.0429878,-0.0584741,-0.681915,0.0,0.0,-0.526193,0,0,0,0,0
42293415,0.0173575,-0.145717,-1.50696,0.0,0.727783,-0.0434898,-0.0590097,-0.681879,0.0,0.0,-0.5,0,0,0,0,0
42392745,0.0154334,-0.148663,-1.50684,0.0,0.727709,-0.0451919,-0.0594268,-0.68181,0.0,0.0,-0.508421,0,0,0,0,0
42497067,0.0154334,-0.148663,-1.50684,0.0,0.727709,-0.0451919,-0.0594268,-0.68181,0.0,0.0,-0.524994,0,0,0,0,0
42591554,0.0154334,-0.148663,-1.50684,0.0,0.727709,-0.0451919,-0.0594268,-0.68181,0.0,0.0,-0.521395,0,0,0,0,0
42695626,0.0154334,-0.148663,-1.50684,0.0,0.727709,-0.0451919,-0.0594268,-0.68181,0.0,0.0,-0.523794,0,0,0,0,0
42795005,0.0173839,-0.160436,-1.50709,0.0,0.727372,-0.0485082,-0.0643636,-0.681494,0.0,0.0,-0.522595,0,0,0,0,0
42894371,0.017401,-0.169267,-1.50717,0.0,0.727107,-0.051518,-0.0675744,-0.681246,0.0,0.0,-0.521395,0,0,0,0,0
42993599,0.0212643,-0.167791,-1.50748,0.0,0.727138,-0.0496203,-0.0683466,-0.681275,0.0,0.0,-0.520196,0,0,0,0,0
43092960,0.0270372,-0.158953,-1.50785,0.0,0.727376,-0.0445159,-0.0670969,-0.681498,0.0,0.0,-0.521395,0,0,0,0,0
43197311,0.0597611,-0.141225,-1.50992,0.0,0.727604,-0.0266216,-0.0717832,-0.681712,0.0,0.0,-0.524994,0,0,0,0,0
43291497,0.125062,-0.11892,-1.51315,0.0,0.727038,0.00465075,-0.0859485,-0.681181,0.0,0.0,-0.526193,0,0,0,0,0
43396059,0.14605,-0.102673,-1.51557,-0.0546681,0.726043,0.0177509,-0.0872535,-0.68186,0.0,0.0,-0.544186,0,0,0,0,0
43490177,0.113266,-0.0866607,-1.51501,0.0,0.726391,0.0113703,-0.0702772,-0.683584,0.0,0.0,-0.541787,0,0,0,0,0
43594455,0.0940297,-0.0793692,-1.51383,0.0,0.726863,0.00692486,-0.0610566,-0.684028,0.0,0.0,-0.544186,0,0,0,0,0
43693889,0.0575739,-0.0809134,-1.51243,0.0,0.727342,-0.00682041,-0.0491435,-0.684479,0.0,0.0,-0.547785,0,0,0,0,0
43793172,0.0441365,-0.0794603,-1.51185,0.0,0.727488,-0.0111958,-0.0440193,-0.684616,0.0,0.0,-0.553782,0,0,0,0,0
43897541,0.0172939,-0.10156,-1.51097,0.0,0.727273,-0.0285146,-0.0428686,-0.684414,0.0,0.0,-0.546585,0,0,0,0,0
43991895,0.0153943,-0.120696,-1.51102,0.0,0.726892,-0.0357594,-0.0491687,-0.684055,0.0,0.0,-0.545386,0,0,0,0,0
44096070,0.0154403,-0.153078,-1.51128,0.0,0.726086,-0.0468318,-0.0609303,-0.683296,0.0,0.0,-0.53459,0,0,0,0,0
44190602,0.0174039,-0.170739,-1.51158,0.0,0.72556,-0.0521693,-0.0679947,-0.682802,0.0,0.0,-0.530991,0,0,0,0,0
44294752,0.0174099,-0.173683,-1.51161,0.0,0.725468,-0.0531745,-0.0690624,-0.682715,0.0,0.0,-0.507368,0,0,0,0,0
44394056,0.0173951,-0.166324,-1.51154,0.0,0.725695,-0.0506611,-0.0663929,-0.682929,0.0,0.0,-0.508421,0,0,0,0,0
44493431,0.0173677,-0.151605,-1.51141,0.0,0.726121,-0.045632,-0.0610513,-0.683329,0.0,0.0,-0.521395,0,0,0,0,0
44592643,0.0173453,-0.138358,-1.5113,0.0,0.72647,-0.0411035,-0.0562413,-0.683658,0.0,0.0,-0.521395,0,0,0,0,0
44692113,0.0173501,-0.141302,-1.51132,0.0,0.726395,-0.04211,-0.0573104,-0.683588,0.0,0.0,-0.524994,0,0,0,0,0
44796364,0.0173525,-0.142773,-1.51134,0.0,0.726357,-0.0426133,-0.0578449,-0.683552,0.0,0.0,-0.508421,0,0,0,0,0
44890705,0.0173453,-0.138358,-1.5113,0.0,0.72647,-0.0411035,-0.0562413,-0.683658,0.0,0.0,-0.505263,0,0,0,0,0
44995179,0.0173453,-0.138358,-1.5113,0.0,0.72647,-0.0411035,-0.0562413,-0.683658,0.0,0.0,-0.505263,0,0,0,0,0
45094268,0.015418,-0.138359,-1.51116,0.0,0.726476,-0.0418003,-0.0555858,-0.683664,0.0,0.0,-0.504211,0,0,0,0,0
45193697,0.0153854,-0.113337,-1.51097,0.0,0.727049,-0.0332414,-0.0464938,-0.684203,0.0,0.0,-0.504211,0,0,0,0,0
45293017,0.0153608,-0.0897863,-1.51078,0.0,0.727484,-0.0251807,-0.0379305,-0.684612,0.0,0.0,-0.503158,0,0,0,0,0
45392317,0.0172405,-0.0323816,-1.51037,0.0,0.728117,-0.00482081,-0.017696,-0.685208,0.0,0.0,-0.506316,0,0,0,0,0
45496534,0.0172352,-0.0117751,-1.5102,0.0,0.7282,0.00224027,-0.0101932,-0.685286,0.0,0.0,-0.504211,0,0,0,0,0
45590988,0.0153202,-0.0117753,-1.51018,0.0,0.728205,0.00154302,-0.00953703,-0.685291,0.0,0.0,-0.503158,0,0,0,0,0
45695128,0.0134052,-0.0117754,-1.51017,0.0,0.72821,0.000845769,-0.00888088,-0.685296,0.0,0.0,-0.503158,0,0,0,0,0
45794619,0.0134052,-0.0117754,-1.51017,0.0,0.72821,0.000845769,-0.00888088,-0.685296,0.0,0.0,-0.505263,0,0,0,0,0
45893925,0.0172352,-0.0117751,-1.5102,0.0,0.7282,0.00224027,-0.0101932,-0.685286,0.0,0.0,-0.505263,0,0,0,0,0
45993151,0.0172429,-0.0382692,-1.51042,0.0,0.728079,-0.00683813,-0.0198394,-0.685172,0.0,0.0,-0.505263,0,0,0,0,0
46092737,0.0172708,-0.0794821,-1.51078,0.0,0.727637,-0.0209556,-0.0348384,-0.684756,0.0,0.0,-0.506316,0,0,0,0,0
46196795,0.0172794,-0.0883135,-1.51086,0.0,0.727502,-0.0239796,-0.038051,-0.68463,0.0,0.0,-0.508421,0,0,0,0,0
46291143,0.0172736,-0.0824259,-1.51081,0.0,0.727594,-0.0219637,-0.0359093,-0.684716,0.0,0.0,-0.506316,0,0,0,0,0
46395521,0.0172764,-0.0853697,-1.51083,0.0,0.727549,-0.0229717,-0.0369802,-0.684673,0.0,0.0,-0.508421,0,0,0,0,0
46494690,0.0172993,-0.105976,-1.51101,0.0,0.72719,-0.0300259,-0.0444741,-0.684336,0.0,0.0,-0.507368,0,0,0,0,0
46594173,0.015398,-0.12364,-1.51105,0.0,0.726827,-0.0367665,-0.0502385,-0.683994,0.0,0.0,-0.508421,0,0,0,0,0
46693511,0.0154159,-0.136887,-1.51115,0.0,0.726513,-0.0412971,-0.0550512,-0.683698,0.0,0.0,-0.507368,0,0,0,0,0
46792663,0.0154267,-0.144247,-1.51121,0.0,0.726324,-0.0438132,-0.0577239,-0.683521,0.0,0.0,-0.506316,0,0,0,0,0
46892217,0.0154289,-0.145719,-1.51122,0.0,0.726286,-0.0443164,-0.0582584,-0.683485,0.0,0.0,-0.507368,0,0,0,0,0
46991344,0.0154245,-0.142775,-1.5112,0.0,0.726363,-0.04331,-0.0571894,-0.683557,0.0,0.0,-0.507368,0,0,0,0,0
47095648,0.017355,-0.144245,-1.51135,0.0,0.726319,-0.0431165,-0.0583794,-0.683516,0.0,0.0,-0.507368,0,0,0,0,0
47195080,0.0173703,-0.153077,-1.51143,0.0,0.72608,-0.0461351,-0.0615856,-0.683291,0.0,0.0,-0.508421,0,0,0,0,0
47294283,0.0173784,-0.157492,-1.51147,0.0,0.725955,-0.047644,-0.0631883,-0.683174,0.0,0.0,-0.508421,0,0,0,0,0
47393678,0.0173811,-0.158964,-1.51148,0.0,0.725913,-0.0481469,-0.0637225,-0.683134,0.0,0.0,-0.508421,0,0,0,0,0
47492951,0.0154624,-0.166325,-1.51138,0.0,0.725701,-0.0513577,-0.0657376,-0.682934,0.0,0.0,-0.508421,0,0,0,0,0
47592267,0.0135364,-0.170743,-1.51125,0.0,0.72557,-0.0535623,-0.0666843,-0.682812,0.0,0.0,-0.507368,0,0,0,0,0
47691717,0.00386495,-0.16486,-1.51041,0.0,0.725765,-0.0550342,-0.0612716,-0.682995,0.0,0.0,-0.508421,0,0,0,0,0
47795906,0.00386432,-0.163388,-1.51041,0.0,0.725809,-0.0545315,-0.0607375,-0.683036,0.0,0.0,-0.508421,0,0,0,0,0
47895153,0.00193093,-0.1575,-1.51025,0.0,0.725982,-0.0532169,-0.0579451,-0.683199,0.0,0.0,-0.508421,0,0,0,0,0
47994578,0.005785,-0.144252,-1.51051,0.0,0.726343,-0.0472969,-0.0544464,-0.683538,0.0,0.0,-0.508421,0,0,0,0,0
48093988,0.00770901,-0.138363,-1.51063,0.0,0.726492,-0.0445875,-0.0529636,-0.683679,0.0,0.0,-0.508421,0,0,0,0,0
48193130,0.0115543,-0.12953,-1.51084,0.0,0.7267,-0.040174,-0.0510665,-0.683875,0.0,0.0,-0.508421,0,0,0,0,0
48292600,0.0173337,-0.130998,-1.51123,0.0,0.72665,-0.0385868,-0.053568,-0.683828,0.0,0.0,-0.508421,0,0,0,0,0
48391830,0.0057757,-0.126588,-1.51046,0.0,0.726778,-0.0412577,-0.0480299,-0.683948,0.0,0.0,-0.508421,0,0,0,0,0
48496287,0.00963626,-0.138363,-1.51076,0.0,0.726489,-0.0438907,-0.0536192,-0.683676,0.0,0.0,-0.511799,0,0,0,0,0
48595440,0.0134908,-0.13836,-1.51103,0.0,0.726481,-0.0424971,-0.0549303,-0.683668,0.0,0.0,-0.538188,0,0,0,0,0
48694849,0.00963626,-0.138363,-1.51076,0.0,0.726489,-0.0438907,-0.0536192,-0.683676,0.0,0.0,-0.53339,0,0,0,0,0
48794183,0.00770901,-0.138363,-1.51063,0.0,0.726492,-0.0445875,-0.0529636,-0.683679,0.0,0.0,-0.53339,0,0,0,0,0
48893491,0.0115573,-0.132474,-1.51086,0.0,0.72663,-0.0411808,-0.052136,-0.683809,0.0,0.0,-0.532191,0,0,0,0,0
48992820,0.0173125,-0.116279,-1.5111,0.0,0.726982,-0.0335517,-0.0482195,-0.68414,0.0,0.0,-0.53339,0,0,0,0,0
49092051,0.0172669,-0.0750665,-1.51074,0.0,0.727699,-0.0194435,-0.0332319,-0.684815,0.0,0.0,-0.53459,0,0,0,0,0
49196451,0.0153206,-0.0147191,-1.51021,0.0,0.728198,0.000534266,-0.0106089,-0.685284,0.0,0.0,-0.532191,0,0,0,0,0
49295805,0.013405,-0.0103034,-1.51016,0.0,0.728213,0.00135015,-0.00834493,-0.685299,0.0,0.0,-0.529792,0,0,0,0,0
49395039,0.013405,-0.0103034,-1.51016,0.0,0.728213,0.00135015,-0.00834493,-0.685299,0.0,0.0,-0.532191,0,0,0,0,0
49494332,0.013405,-0.0103034,-1.51016,0.0,0.728213,0.00135015,-0.00834493,-0.685299,0.0,0.0,-0.53459,0,0,0,0,0
49593644,0.013405,-0.0103034,-1.51016,0.0,0.728213,0.00135015,-0.00834493,-0.685299,0.0,0.0,-0.535789,0,0,0,0,0
49693034,0.0172352,-0.0117751,-1.5102,0.0,0.7282,0.00224027,-0.0101932,-0.685286,0.0,0.0,-0.53459,0,0,0,0,0
49792301,0.0172515,-0.05446,-1.51056,0.0,0.727942,-0.0123852,-0.025733,-0.685044,0.0,0.0,-0.529792,0,0,0,0,0
49891752,0.0191787,-0.0677062,-1.51074,0.0,0.727788,-0.0162257,-0.03121,-0.684899,0.0,0.0,-0.505263,0,0,0,0,0
49995939,0.0172534,-0.0574038,-1.51059,0.0,0.727912,-0.0133936,-0.0268044,-0.685015,0.0,0.0,-0.497895,0,0,0,0,0
50095330,0.0172524,-0.0559319,-1.51058,0.0,0.727927,-0.0128894,-0.0262687,-0.68503,0.0,0.0,-0.470526,0,0,0,0,0
50194583,0.0172554,-0.0603475,-1.51062,0.0,0.727881,-0.0144021,-0.0278758,-0.684986,0.0,0.0,-0.470526,0,0,0,0,0
50293928,0.0191704,-0.0574031,-1.51064,0.0,0.727906,-0.0126964,-0.0274604,-0.685009,0.0,0.0,-0.471579,0,0,0,0,0
50393372,0.0191694,-0.0559312,-1.51063,0.0,0.727921,-0.0121922,-0.0269247,-0.685024,0.0,0.0,-0.467368,0,0,0,0,0
50492561,0.0191602,-0.0412125,-1.51049,0.0,0.728051,-0.00714951,-0.0215671,-0.685146,0.0,0.0,-0.467368,0,0,0,0,0
50591875,0.0191645,-0.0485719,-1.51056,0.0,0.727991,-0.00967096,-0.024246,-0.68509,0.0,0.0,-0.469474,0,0,0,0,0
50696254,0.0191645,-0.0485719,-1.51056,0.0,0.727991,-0.00967096,-0.024246,-0.68509,0.0,0.0,-0.469474,0,0,0,0,0
50795468,0.0191704,-0.0574031,-1.51064,0.0,0.727906,-0.0126964,-0.0274604,-0.685009,0.0,0.0,-0.467368,0,0,0,0,0
50894873,0.0172554,-0.0603475,-1.51062,0.0,0.727881,-0.0144021,-0.0278758,-0.684986,0.0,0.0,-0.466316,0,0,0,0,0
50994151,0.0172488,-0.0500443,-1.51053,0.0,0.727984,-0.0108724,-0.0241258,-0.685083,0.0,0.0,-0.464211,0,0,0,0,0
51093442,0.0172564,-0.0618194,-1.51063,0.0,0.727864,-0.0149062,-0.0284115,-0.68497,0.0,0.0,-0.466316,0,0,0,0,0
51192868,0.0153755,-0.104505,-1.5109,0.0,0.727224,-0.0302192,-0.0432832,-0.684368,0.0,0.0,-0.48,0,0,0,0,0
51292175,0.0115588,-0.133946,-1.51087,0.0,0.726594,-0.0416841,-0.0526707,-0.683775,0.0,0.0,-0.521395,0,0,0,0,0
51396367,0.00193123,-0.158972,-1.51025,0.0,0.72594,-0.0537198,-0.0584794,-0.683159,0.0,0.0,-0.523794,0,0,0,0,0
51495803,0.0,-0.169276,-1.51009,0.0,0.725632,-0.0579351,-0.0615631,-0.68287,0.0,0.0,-0.503158,0,0,0,0,0
51595020,0.0,-0.178108,-1.51009,0.0,0.725353,-0.06095,-0.0647668,-0.682607,0.0,0.0,-0.502105,0,0,0,0,0
51694351,0.0,-0.178108,-1.51009,0.0,0.725353,-0.06095,-0.0647668,-0.682607,0.0,0.0,-0.501053,0,0,0,0,0
51793766,0.0,-0.173692,-1.51009,0.0,0.725495,-0.0594427,-0.0631651,-0.68274,0.0,0.0,-0.502105,0,0,0,0,0
51892994,0.0,-0.166332,-1.51009,0.0,0.725722,-0.0569299,-0.0604949,-0.682954,0.0,0.0,-0.501053,0,0,0,0,0
51992521,0.0,-0.170748,-1.51009,0.0,0.725587,-0.0584377,-0.0620971,-0.682827,0.0,0.0,-0.5,0,0,0,0,0
52096626,0.0,-0.175164,-1.51009,0.0,0.725448,-0.0599452,-0.0636991,-0.682696,0.0,0.0,-0.527393,0,0,0,0,0
52195995,0.0,-0.181052,-1.51009,0.0,0.725257,-0.0619547,-0.0658344,-0.682517,0.0,0.0,-0.501053,0,0,0,0,0
52295333,0.0,-0.170748,-1.51009,0.0,0.725587,-0.0584377,-0.0620971,-0.682827,0.0,0.0,-0.5,0,0,0,0,0
52394549,0.0,-0.170748,-1.51009,0.0,0.725587,-0.0584377,-0.0620971,-0.682827,0.0,0.0,-0.501053,0,0,0,0,0
52493937,0.0,-0.169276,-1.51009,0.0,0.725632,-0.0579351,-0.0615631,-0.68287,0.0,0.0,-0.5,0,0,0,0,0
52593275,0.0,-0.166332,-1.51009,0.0,0.725722,-0.0569299,-0.0604949,-0.682954,0.0,0.0,-0.503158,0,0,0,0,0
52692581,0.0,-0.158972,-1.51009,0.0,0.72594,-0.0544163,-0.0578239,-0.683159,0.0,0.0,-0.506316,0,0,0,0,0
52796861,0.00192572,-0.129533,-1.51022,0.0,0.726712,-0.0436581,-0.0477882,-0.683886,0.0,0.0,-0.53459,0,0,0,0,0
52891365,0.00769903,-0.123644,-1.51057,0.0,0.726843,-0.039554,-0.0476158,-0.684009,0.0,0.0,-0.53339,0,0,0,0,0
52995533,0.0173166,-0.119223,-1.51113,0.0,0.726918,-0.0345589,-0.0492894,-0.68408,0.0,0.0,-0.53339,0,0,0,0,0
53094802,0.0211574,-0.114805,-1.51131,0.0,0.726999,-0.0316542,-0.0489958,-0.684156,0.0,0.0,-0.542987,0,0,0,0,0
53194187,0.0211193,-0.0883113,-1.51103,0.0,0.727489,-0.0225855,-0.0393627,-0.684617,0.0,0.0,-0.550184,0,0,0,0,0
53293459,0.0268342,-0.0529844,-1.51081,0.0,0.727918,-0.00839492,-0.0284772,-0.685021,0.0,0.0,-0.548984,0,0,0,0,0
53392788,0.0651136,-0.0161802,-1.51062,0.0,0.727829,0.0181554,-0.0282004,-0.684938,0.0,0.0,-0.550184,0,0,0,0,0
53497117,0.0478751,-0.0102998,-1.51034,0.0,0.728021,0.0138996,-0.0201542,-0.685118,0.0,0.0,-0.554982,0,0,0,0,0
53591412,0.0363851,-0.0103015,-1.51028,0.0,0.728109,0.00971678,-0.0162182,-0.685201,0.0,0.0,-0.551383,0,0,0,0,0
53695754,0.0459601,-0.0103001,-1.51033,0.0,0.728037,0.0132025,-0.0194982,-0.685133,0.0,0.0,-0.550184,0,0,0,0,0
53795041,0.0459705,-0.0279575,-1.51074,0.0,0.727976,0.00715021,-0.0259285,-0.685075,0.0,0.0,-0.547785,0,0,0,0,0
53894539,0.04983,-0.0500261,-1.51134,0.0,0.727786,0.00097961,-0.0352763,-0.684896,0.0,0.0,-0.551383,0,0,0,0,0
53993860,0.0536772,-0.0573791,-1.51164,0.0,0.727678,-0.000147539,-0.0392657,-0.684795,0.0,0.0,-0.521395,0,0,0,0,0
54092961,0.0517662,-0.0603236,-1.51166,0.0,0.727664,-0.00185313,-0.0396811,-0.684782,0.0,0.0,-0.517797,0,0,0,0,0
54197435,0.0517662,-0.0603236,-1.51166,0.0,0.727664,-0.00185313,-0.0396811,-0.684782,0.0,0.0,-0.5106,0,0,0,0,0
54291661,0.0479345,-0.0617989,-1.51158,0.0,0.727683,-0.00375158,-0.0389053,-0.684799,0.0,0.0,-0.507368,0,0,0,0,0
54396008,0.0364302,-0.0618088,-1.51122,0.0,0.727771,-0.00793443,-0.0349706,-0.684882,0.0,0.0,-0.481053,0,0,0,0,0
54495397,0.0306763,-0.0603411,-1.51102,0.0,0.727822,-0.00952173,-0.0324674,-0.684931,0.0,0.0,-0.481053,0,0,0,0,0
54594538,0.019175,-0.0632906,-1.5107,0.0,0.727841,-0.0147132,-0.0296031,-0.684949,0.0,0.0,-0.483158,0,0,0,0,0
54694103,0.01918,-0.0691781,-1.51076,0.0,0.72777,-0.0167299,-0.0317456,-0.684882,0.0,0.0,-0.482105,0,0,0,0,0
54793280,0.0172644,-0.0721227,-1.51072,0.0,0.727739,-0.0184353,-0.0321608,-0.684852,0.0,0.0,-0.485263,0,0,0,0,0
54897523,0.0172889,-0.0971448,-1.51093,0.0,0.727353,-0.0270031,-0.0412629,-0.684489,0.0,0.0,-0.504211,0,0,0,0,0
54992007,0.0153962,-0.122168,-1.51104,0.0,0.72686,-0.036263,-0.0497036,-0.684025,0.0,0.0,-0.503158,0,0,0,0,0
55096265,0.0153962,-0.122168,-1.51104,0.0,0.72686,-0.036263,-0.0497036,-0.684025,0.0,0.0,-0.503158,0,0,0,0,0
55190606,0.015398,-0.12364,-1.51105,0.0,0.726827,-0.0367665,-0.0502385,-0.683994,0.0,0.0,-0.502105,0,0,0,0,0
55294831,0.0154077,-0.131,-1.51111,0.0,0.726656,-0.0392837,-0.0529125,-0.683833,0.0,0.0,-0.504211,0,0,0,0,0
55394240,0.015418,-0.138359,-1.51116,0.0,0.726476,-0.0418003,-0.0555858,-0.683664,0.0,0.0,-0.504211,0,0,0,0,0
55493593,0.0154289,-0.145719,-1.51122,0.0,0.726286,-0.0443164,-0.0582584,-0.683485,0.0,0.0,-0.503158,0,0,0,0,0
55597802,0.0115785,-0.151609,-1.51097,0.0,0.726136,-0.0477221,-0.0590851,-0.683344,0.0,0.0,-0.504211,0,0,0,0,0
55692069,0.00964873,-0.15161,-1.51083,0.0,0.726139,-0.0484188,-0.0584297,-0.683347,0.0,0.0,-0.507368,0,0,0,0,0
55796525,0.00578417,-0.14278,-1.51051,0.0,0.726381,-0.0467938,-0.0539118,-0.683575,0.0,0.0,-0.507368,0,0,0,0,0
55890761,0.00577427,-0.123644,-1.51045,0.0,0.726845,-0.0402509,-0.0469601,-0.684011,0.0,0.0,-0.507368,0,0,0,0,0
55995071,0.0173067,-0.111864,-1.51106,0.0,0.727073,-0.0320408,-0.0466145,-0.684226,0.0,0.0,-0.532191,0,0,0,0,0
56094495,0.0172993,-0.105976,-1.51101,0.0,0.72719,-0.0300259,-0.0444741,-0.684336,0.0,0.0,-0.53339,0,0,0,0,0
56193746,0.0153787,-0.107449,-1.51092,0.0,0.727167,-0.0312267,-0.0443535,-0.684314,0.0,0.0,-0.535789,0,0,0,0,0
56293163,0.0153739,-0.103033,-1.51089,0.0,0.727252,-0.0297154,-0.042748,-0.684394,0.0,0.0,-0.551383,0,0,0,0,0
56392524,0.0115305,-0.103035,-1.51069,0.0,0.727261,-0.0311095,-0.0414365,-0.684402,0.0,0.0,-0.553782,0,0,0,0,0
56496740,0.0115293,-0.101563,-1.51068,0.0,0.727288,-0.0306057,-0.0409012,-0.684428,0.0,0.0,-0.556181,0,0,0,0,0
56591091,0.0172939,-0.10156,-1.51097,0.0,0.727273,-0.0285146,-0.0428686,-0.684414,0.0,0.0,-0.553782,0,0,0,0,0
56695241,0.0172809,-0.0897854,-1.51087,0.0,0.727478,-0.0244836,-0.0385864,-0.684607,0.0,0.0,-0.574174,0,0,0,0,0
56794626,0.0134444,-0.0942029,-1.51073,0.0,0.727415,-0.0273895,-0.0388807,-0.684548,0.0,0.0,-0.572974,0,0,0,0,0
56894039,0.00960223,-0.0927323,-1.51054,0.0,0.727448,-0.0282797,-0.0370336,-0.684579,0.0,0.0,-0.571775,0,0,0,0,0
56993203,0.00768178,-0.0927329,-1.51045,0.0,0.727451,-0.0289768,-0.0363778,-0.684582,0.0,0.0,-0.574174,0,0,0,0,0
57092683,0.0153543,-0.0824268,-1.51073,0.0,0.727599,-0.0226608,-0.0352535,-0.684721,0.0,0.0,-0.572974,0,0,0,0,0
57197004,0.0153568,-0.0853706,-1.51075,0.0,0.727554,-0.0236688,-0.0363243,-0.684679,0.0,0.0,-0.562179,0,0,0,0,0
57291305,0.00768178,-0.0927329,-1.51045,0.0,0.727451,-0.0289768,-0.0363778,-0.684582,0.0,0.0,-0.562179,0,0,0,0,0
57395531,0.0019201,-0.0897898,-1.51018,0.0,0.727505,-0.0300601,-0.0333392,-0.684632,0.0,0.0,-0.563378,0,0,0,0,0
57494937,0.0,-0.0927338,-1.51009,0.0,0.727456,-0.0317649,-0.0337541,-0.684587,0.0,0.0,-0.548984,0,0,0,0,0
57594181,0.0,-0.0853739,-1.51009,0.0,0.727576,-0.0292455,-0.0310769,-0.684699,0.0,0.0,-0.508421,0,0,0,0,0
57693646,0.0172575,-0.0632913,-1.51064,0.0,0.727847,-0.0154104,-0.0289471,-0.684954,0.0,0.0,-0.509474,0,0,0,0,0
57792769,0.0172355,-0.013247,-1.51021,0.0,0.728196,0.00173589,-0.0107291,-0.685283,0.0,0.0,-0.477895,0,0,0,0,0
57897261,0.0153202,-0.0117753,-1.51018,0.0,0.728205,0.00154302,-0.00953703,-0.685291,0.0,0.0,-0.472632,0,0,0,0,0
57991559,0.0153202,-0.0117753,-1.51018,0.0,0.728205,0.00154302,-0.00953703,-0.685291,0.0,0.0,-0.501053,0,0,0,0,0
58095761,0.0153202,-0.0117753,-1.51018,0.0,0.728205,0.00154302,-0.00953703,-0.685291,0.0,0.0,-0.502105,0,0,0,0,0
58190281,0.01532,-0.0103033,-1.51017,0.0,0.728208,0.0020474,-0.00900107,-0.685294,0.0,0.0,-0.504211,0,0,0,0,0
58294422,0.013405,-0.0103034,-1.51016,0.0,0.728213,0.00135015,-0.00834493,-0.685299,0.0,0.0,-0.515398,0,0,0,0,0
58393763,0.013405,-0.0103034,-1.51016,0.0,0.728213,0.00135015,-0.00834493,-0.685299,0.0,0.0,-0.532191,0,0,0,0,0
58493147,0.01149,-0.0103035,-1.51015,0.0,0.728217,0.000652893,-0.00768877,-0.685303,0.0,0.0,-0.538188,0,0,0,0,0
58597297,0.00957513,-0.0117755,-1.51015,0.0,0.728218,-0.000548747,-0.00756857,-0.685303,0.0,0.0,-0.538188,0,0,0,0,0
58691727,0.00191544,-0.0279673,-1.51012,0.0,0.728168,-0.00888577,-0.0108393,-0.685256,0.0,0.0,-0.539388,0,0,0,0,0
58796089,0.0,-0.0456309,-1.51009,0.0,0.72805,-0.0156346,-0.0166137,-0.685145,0.0,0.0,-0.535789,0,0,0,0,0
58890387,0.0,-0.0456309,-1.51009,0.0,0.72805,-0.0156346,-0.0166137,-0.685145,0.0,0.0,-0.506316,0,0,0,0,0
58994797,0.0,-0.0750702,-1.51009,0.0,0.727726,-0.0257176,-0.0273281,-0.68484,0.0,0.0,-0.504211,0,0,0,0,0
59093935,0.0,-0.0912618,-1.51009,0.0,0.727481,-0.0312611,-0.0332187,-0.68461,0.0,0.0,-0.498947,0,0,0,0,0
59193328,0.0,-0.0971496,-1.51009,0.0,0.72738,-0.0332764,-0.0353602,-0.684515,0.0,0.0,-0.526193,0,0,0,0,0
59292769,-0.0018694,-0.105981,-1.51,0.0,0.727217,-0.0369766,-0.037934,-0.684361,0.0,0.0,-0.504211,0,0,0,0,0
59391935,-0.0131102,-0.129529,-1.50924,0.0,0.726697,-0.0490982,-0.0426681,-0.683872,0.0,0.0,-0.505263,0,0,0,0,0
59496264,-0.0224924,-0.138353,-1.50854,0.0,0.726452,-0.0555044,-0.0426883,-0.683641,0.0,0.0,-0.521395,0,0,0,0,0
59590620,-0.0262412,-0.138349,-1.50828,0.0,0.726435,-0.0568591,-0.0414127,-0.683626,0.0,0.0,-0.520196,0,0,0,0,0
59694965,-0.0262412,-0.138349,-1.50828,0.0,0.726435,-0.0568591,-0.0414127,-0.683626,0.0,0.0,-0.518996,0,0,0,0,0
59794312,-0.0224863,-0.135409,-1.50857,0.0,0.726525,-0.0544983,-0.0416186,-0.68371,0.0,0.0,-0.518996,0,0,0,0,0
59893709,-0.0262376,-0.136877,-1.5083,0.0,0.726472,-0.0563561,-0.0408778,-0.68366,0.0,0.0,-0.53459,0,0,0,0,0
59992776,-0.0224833,-0.133938,-1.50859,0.0,0.726561,-0.0539952,-0.0410837,-0.683744,0.0,0.0,-0.535789,0,0,0,0,0
60092268,0.0,-0.123645,-1.51009,0.0,0.726848,-0.0423414,-0.0449929,-0.684014,0.0,0.0,-0.539388,0,0,0,0,0
60196551,0.0,-0.110397,-1.51009,0.0,0.72713,-0.0378097,-0.0401774,-0.684279,0.0,0.0,-0.545386,0,0,0,0,0
60290810,0.0,-0.105981,-1.51009,0.0,0.727217,-0.0362988,-0.0385719,-0.684361,0.0,0.0,-0.553782,0,0,0,0,0
60395180,0.00192214,-0.105981,-1.5102,0.0,0.727217,-0.0356018,-0.0392277,-0.684361,0.0,0.0,-0.55978,0,0,0,0,0
60494419,0.015382,-0.110393,-1.51094,0.0,0.727109,-0.0322341,-0.0454237,-0.684259,0.0,0.0,-0.562179,0,0,0,0,0
60593851,0.0153925,-0.119224,-1.51101,0.0,0.726924,-0.0352559,-0.0486338,-0.684086,0.0,0.0,-0.563378,0,0,0,0,0
60693126,0.0154019,-0.126584,-1.51107,0.0,0.72676,-0.0377734,-0.0513081,-0.683931,0.0,0.0,-0.564578,0,0,0,0,0
60792451,0.0154019,-0.126584,-1.51107,0.0,0.72676,-0.0377734,-0.0513081,-0.683931,0.0,0.0,-0.563378,0,0,0,0,0
60896809,0.0153771,-0.105977,-1.51091,0.0,0.727196,-0.0307229,-0.0438184,-0.684341,0.0,0.0,-0.55978,0,0,0,0,0
60991026,0.0153347,-0.0544606,-1.51051,0.0,0.727948,-0.0130824,-0.025077,-0.685049,0.0,0.0,-0.563378,0,0,0,0,0
61095342,0.0172352,-0.0117751,-1.5102,0.0,0.7282,0.00224027,-0.0101932,-0.685286,0.0,0.0,-0.563378,0,0,0,0,0
61194725,0.0134052,-0.0117754,-1.51017,0.0,0.72821,0.000845769,-0.00888088,-0.685296,0.0,0.0,-0.563378,0,0,0,0,0
61294067,0.0134052,-0.0117754,-1.51017,0.0,0.72821,0.000845769,-0.00888088,-0.685296,0.0,0.0,-0.562179,0,0,0,0,0
61393285,0.0134052,-0.0117754,-1.51017,0.0,0.72821,0.000845769,-0.00888088,-0.685296,0.0,0.0,-0.563378,0,0,0,0,0
61492832,0.0134052,-0.0117754,-1.51017,0.0,0.72821,0.000845769,-0.00888088,-0.685296,0.0,0.0,-0.563378,0,0,0,0,0
61596970,0.0134052,-0.0117754,-1.51017,0.0,0.72821,0.000845769,-0.00888088,-0.685296,0.0,0.0,-0.562179,0,0,0,0,0
61691485,0.0134052,-0.0117754,-1.51017,0.0,0.72821,0.000845769,-0.00888088,-0.685296,0.0,0.0,-0.509474,0,0,0,0,0
61795657,0.0153202,-0.0117753,-1.51018,0.0,0.728205,0.00154302,-0.00953703,-0.685291,0.0,0.0,-0.509474,0,0,0,0,0
61894952,0.0153202,-0.0117753,-1.51018,0.0,0.728205,0.00154302,-0.00953703,-0.685291,0.0,0.0,-0.501053,0,0,0,0,0
61994269,0.0153202,-0.0117753,-1.51018,0.0,0.728205,0.00154302,-0.00953703,-0.685291,0.0,0.0,-0.497895,0,0,0,0,0
62093514,0.0153202,-0.0117753,-1.51018,0.0,0.728205,0.00154302,-0.00953703,-0.685291,0.0,0.0,-0.488421,0,0,0,0,0
62192889,0.0172352,-0.0117751,-1.5102,0.0,0.7282,0.00224027,-0.0101932,-0.685286,0.0,0.0,-0.476842,0,0,0,0,0
62292284,0.0191505,-0.0132469,-1.51022,0.0,0.72819,0.00243314,-0.0113852,-0.685277,0.0,0.0,-0.478947,0,0,0,0,0
62391494,0.0191511,-0.0161906,-1.51025,0.0,0.728182,0.00142439,-0.0124571,-0.685269,0.0,0.0,-0.5106,0,0,0,0,0
62496021,0.017238,-0.0250222,-1.51031,0.0,0.728155,-0.00229907,-0.0150165,-0.685244,0.0,0.0,-0.548984,0,0,0,0,0
62595103,0.0153276,-0.0397415,-1.51034,0.00629325,0.728095,-0.00803906,-0.0197194,-0.685145,0.0,0.0,-0.571775,0,0,0,0,0
62694542,0.015327,-0.0382696,-1.5097,0.0,0.72832,-0.00752877,-0.0191859,-0.684927,0.0,0.0,-0.576573,0,0,0,0,0
62793785,0.0153276,-0.0397415,-1.50971,0.0,0.728309,-0.0080329,-0.0197219,-0.684918,0.0,0.0,-0.574174,0,0,0,0,0
62893086,0.0191602,-0.0412125,-1.5098,0.0,0.728286,-0.00714211,-0.0215695,-0.684896,0.0,0.0,-0.574174,0,0,0,0,0
62992529,0.0191544,-0.0279656,-1.50968,0.0,0.72837,-0.00260479,-0.0167453,-0.684975,0.0,0.0,-0.575373,0,0,0,0,0
63091752,0.0172359,-0.0161908,-1.50955,0.0,0.728424,0.000731194,-0.0118007,-0.685025,0.0,0.0,-0.575373,0,0,0,0,0
63196056,0.0153204,-0.0132472,-1.50951,0.0,0.728437,0.0010421,-0.0100726,-0.685038,0.0,0.0,-0.574174,0,0,0,0,0
63295481,0.0153202,-0.0117753,-1.5095,0.0,0.728441,0.0015463,-0.00953649,-0.685041,0.0,0.0,-0.574174,0,0,0,0,0
63394848,0.0153202,-0.0117753,-1.5095,0.0,0.728441,0.0015463,-0.00953649,-0.685041,0.0,0.0,-0.544186,0,0,0,0,0
63493964,0.0172355,-0.013247,-1.50952,0.0,0.728432,0.00173958,-0.0107285,-0.685032,0.0,0.0,-0.515398,0,0,0,0,0
63593375,0.0172365,-0.0191346,-1.50957,0.0,0.728414,-0.000277186,-0.0128729,-0.685016,0.0,0.0,-0.522595,0,0,0,0,0
63692587,0.0172355,-0.013247,-1.50952,0.0,0.728432,0.00173958,-0.0107285,-0.685032,0.0,0.0,-0.512999,0,0,0,0,0
63792013,0.0172355,-0.013247,-1.50952,0.0,0.728432,0.00173958,-0.0107285,-0.685032,0.0,0.0,-0.476842,0,0,0,0,0
63896417,0.0153204,-0.0132472,-1.50951,0.0,0.728437,0.0010421,-0.0100726,-0.685038,0.0,0.0,-0.475789,0,0,0,0,0
63995607,0.0172355,-0.013247,-1.50952,0.0,0.728432,0.00173958,-0.0107285,-0.685032,0.0,0.0,-0.475789,0,0,0,0,0
64094977,0.0172355,-0.013247,-1.50952,0.0,0.728432,0.00173958,-0.0107285,-0.685032,0.0,0.0,-0.481053,0,0,0,0,0
64194277,0.0172357,-0.0147189,-1.50953,0.0,0.728428,0.00123539,-0.0112646,-0.685029,0.0,0.0,-0.518996,0,0,0,0,0
64293596,0.0172464,-0.0456286,-1.5098,0.0,0.728258,-0.00935189,-0.0225217,-0.684869,0.0,0.0,-0.516597,0,0,0,0,0
64392925,0.0134444,-0.0942029,-1.51004,0.0,0.72765,-0.0273761,-0.0388901,-0.684298,0.0,0.0,-0.55978,0,0,0,0,0
64492166,0.0134684,-0.119226,-1.51021,0.0,0.727164,-0.0359363,-0.0479904,-0.683841,0.0,0.0,-0.566977,0,0,0,0,0
64591530,0.0153925,-0.119224,-1.51033,0.0,0.727159,-0.0352392,-0.0486459,-0.683836,0.0,0.0,-0.570575,0,0,0,0,0
64695930,0.0153907,-0.117753,-1.51031,0.0,0.727191,-0.0347358,-0.0481107,-0.683866,0.0,0.0,-0.568176,0,0,0,0,0
64795170,0.0153872,-0.114809,-1.51029,0.0,0.727253,-0.0337289,-0.0470404,-0.683924,0.0,0.0,-0.568176,0,0,0,0,0
64894518,0.0153872,-0.114809,-1.51029,0.0,0.727253,-0.0337289,-0.0470404,-0.683924,0.0,0.0,-0.569376,0,0,0,0,0
64993890,0.0173207,-0.122167,-1.51047,0.0,0.727089,-0.0355487,-0.0503714,-0.68377,0.0,0.0,-0.569376,0,0,0,0,0
65093066,0.0154019,-0.126584,-1.51038,0.0,0.726995,-0.0377558,-0.0513211,-0.683681,0.0,0.0,-0.569376,0,0,0,0,0
65192645,0.015398,-0.12364,-1.51036,0.0,0.727061,-0.0367492,-0.0502511,-0.683744,0.0,0.0,-0.568176,0,0,0,0,0
65291910,0.0154019,-0.126584,-1.51038,0.0,0.726995,-0.0377558,-0.0513211,-0.683681,0.0,0.0,-0.569376,0,0,0,0,0
65396058,0.0154098,-0.132472,-1.51043,0.0,0.726856,-0.0397687,-0.0534608,-0.68355,0.0,0.0,-0.569376,0,0,0,0,0
65495505,0.0153943,-0.120696,-1.51034,0.0,0.727127,-0.0357425,-0.049181,-0.683806,0.0,0.0,-0.568176,0,0,0,0,0
65594700,0.0172497,-0.0515162,-1.50985,0.0,0.728206,-0.0113682,-0.0246654,-0.68482,0.0,0.0,-0.565777,0,0,0,0,0
65694034,0.0153202,-0.0117753,-1.5095,0.0,0.728441,0.0015463,-0.00953649,-0.685041,0.0,0.0,-0.550184,0,0,0,0,0
65793411,0.01532,-0.0103033,-1.50949,0.0,0.728444,0.00205049,-0.00900037,-0.685044,0.0,0.0,-0.529792,0,0,0,0,0
65892727,0.01532,-0.0103033,-1.50949,0.0,0.728444,0.00205049,-0.00900037,-0.685044,0.0,0.0,-0.527393,0,0,0,0,0
65992151,0.013405,-0.0103034,-1.50948,0.0,0.728449,0.00135302,-0.00834446,-0.685048,0.0,0.0,-0.502105,0,0,0,0,0
66096425,0.0134052,-0.0117754,-1.50949,0.0,0.728446,0.00084882,-0.00888059,-0.685046,0.0,0.0,-0.526193,0,0,0,0,0
66195639,0.0153202,-0.0117753,-1.5095,0.0,0.728441,0.0015463,-0.00953649,-0.685041,0.0,0.0,-0.526193,0,0,0,0,0
66295004,0.0268104,-0.0117743,-1.50957,0.0,0.728396,0.00573107,-0.0134718,-0.684999,0.0,0.0,-0.474737,0,0,0,0,0
66394261,0.0210653,-0.0117748,-1.50953,0.0,0.728422,0.00363871,-0.0115042,-0.685023,0.0,0.0,-0.482105,0,0,0,0,0
66493665,0.0191503,-0.011775,-1.50952,0.0,0.728428,0.00294124,-0.0108483,-0.68503,0.0,0.0,-0.497895,0,0,0,0,0
66593167,0.0172355,-0.013247,-1.50952,0.0,0.728432,0.00173958,-0.0107285,-0.685032,0.0,0.0,-0.511799,0,0,0,0,0
66692216,0.0153204,-0.0132472,-1.50951,0.0,0.728437,0.0010421,-0.0100726,-0.685038,0.0,0.0,-0.5,0,0,0,0,0
66796702,0.0210655,-0.0132467,-1.50955,0.0,0.728418,0.00313452,-0.0120403,-0.68502,0.0,0.0,-0.509474,0,0,0,0,0
66895941,0.0210655,-0.0132467,-1.50955,0.0,0.728418,0.00313452,-0.0120403,-0.68502,0.0,0.0,-0.53459,0,0,0,0,0
66995289,0.0210655,-0.0132467,-1.50955,0.0,0.728418,0.00313452,-0.0120403,-0.68502,0.0,0.0,-0.53459,0,0,0,0,0
67094557,0.0172355,-0.013247,-1.50952,0.0,0.728432,0.00173958,-0.0107285,-0.685032,0.0,0.0,-0.53339,0,0,0,0,0
67193938,0.0172355,-0.013247,-1.50952,0.0,0.728432,0.00173958,-0.0107285,-0.685032,0.0,0.0,-0.532191,0,0,0,0,0
67293081,0.0153208,-0.016191,-1.50953,0.0,0.728429,3.37184e-05,-0.0111448,-0.68503,0.0,0.0,-0.527393,0,0,0,0,0
67392471,0.015322,-0.0220786,-1.50958,0.0,0.728409,-0.00198303,-0.0132893,-0.685011,0.0,0.0,-0.529792,0,0,0,0,0
67496885,0.0153381,-0.0603482,-1.50987,0.0,0.728122,-0.0150899,-0.027225,-0.684741,0.0,0.0,-0.535789,0,0,0,0,0
67591135,0.0153381,-0.0603482,-1.50987,0.0,0.728122,-0.0150899,-0.027225,-0.684741,0.0,0.0,-0.548984,0,0,0,0,0
67695478,0.0153295,-0.0441572,-1.50975,0.0,0.728276,-0.00954524,-0.0213299,-0.684886,0.0,0.0,-0.542987,0,0,0,0,0
67794730,0.0153204,-0.0132472,-1.50951,0.0,0.728437,0.0010421,-0.0100726,-0.685038,0.0,0.0,-0.544186,0,0,0,0,0
67894146,0.0172369,-0.0206065,-1.50959,0.0,0.728409,-0.000781371,-0.013409,-0.685011,0.0,0.0,-0.547785,0,0,0,0,0
67993320,0.0172385,-0.026494,-1.50964,0.0,0.728384,-0.00279808,-0.0155534,-0.684987,0.0,0.0,-0.545386,0,0,0,0,0
68092668,0.0172369,-0.0206065,-1.50959,0.0,0.728409,-0.000781371,-0.013409,-0.685011,0.0,0.0,-0.544186,0,0,0,0,0
68197017,0.0172359,-0.0161908,-1.50955,0.0,0.728424,0.000731194,-0.0118007,-0.685025,0.0,0.0,-0.545386,0,0,0,0,0
68291403,0.0172357,-0.0147189,-1.50953,0.0,0.728428,0.00123539,-0.0112646,-0.685029,0.0,0.0,-0.548984,0,0,0,0,0
68395695,0.0172355,-0.013247,-1.50952,0.0,0.728432,0.00173958,-0.0107285,-0.685032,0.0,0.0,-0.542987,0,0,0,0,0
68495103,0.0172355,-0.013247,-1.50952,0.0,0.728432,0.00173958,-0.0107285,-0.685032,0.0,0.0,-0.544186,0,0,0,0,0
68594297,0.0172355,-0.013247,-1.50952,0.0,0.728432,0.00173958,-0.0107285,-0.685032,0.0,0.0,-0.541787,0,0,0,0,0
68693784,0.0172357,-0.0147189,-1.50953,0.0,0.728428,0.00123539,-0.0112646,-0.685029,0.0,0.0,-0.548984,0,0,0,0,0
68792950,0.0172376,-0.0235503,-1.50961,0.0,0.728397,-0.00178974,-0.0144812,-0.685,0.0,0.0,-0.544186,0,0,0,0,0
68897241,0.0172352,-0.0117751,-1.50951,0.0,0.728435,0.00224377,-0.0101924,-0.685036,0.0,0.0,-0.540587,0,0,0,0,0
68991653,0.0153202,-0.0117753,-1.5095,0.0,0.728441,0.0015463,-0.00953649,-0.685041,0.0,0.0,-0.522595,0,0,0,0,0
69096033,0.0191503,-0.011775,-1.50952,0.0,0.728428,0.00294124,-0.0108483,-0.68503,0.0,0.0,-0.515398,0,0,0,0,0
69195182,0.0191505,-0.0132469,-1.50953,0.0,0.728425,0.00243705,-0.0113844,-0.685026,0.0,0.0,-0.5106,0,0,0,0,0
69294608,0.0172352,-0.0117751,-1.50951,0.0,0.728435,0.00224377,-0.0101924,-0.685036,0.0,0.0,-0.509474,0,0,0,0,0
69393802,0.0153202,-0.0117753,-1.5095,0.0,0.728441,0.0015463,-0.00953649,-0.685041,0.0,0.0,-0.511799,0,0,0,0,0
69493383,0.0153202,-0.0117753,-1.5095,0.0,0.728441,0.0015463,-0.00953649,-0.685041,0.0,0.0,-0.508421,0,0,0,0,0
69597539,0.0153202,-0.0117753,-1.5095,0.0,0.728441,0.0015463,-0.00953649,-0.685041,0.0,0.0,-0.496842,0,0,0,0,0
69691795,0.0153202,-0.0117753,-1.5095,0.0,0.728441,0.0015463,-0.00953649,-0.685041,0.0,0.0,-0.491579,0,0,0,0,0
69796158,0.0153202,-0.0117753,-1.5095,0.0,0.728441,0.0015463,-0.00953649,-0.685041,0.0,0.0,-0.492632,0,0,0,0,0
69895433,0.0153202,-0.0117753,-1.5095,0.0,0.728441,0.0015463,-0.00953649,-0.685041,0.0,0.0,-0.472632,0,0,0,0,0
69994835,0.0153202,-0.0117753,-1.5095,0.0,0.728441,0.0015463,-0.00953649,-0.685041,0.0,0.0,-0.473684,0,0,0,0,0
70094221,0.0172355,-0.013247,-1.50952,0.0,0.728432,0.00173958,-0.0107285,-0.685032,0.0,0.0,-0.521395,0,0,0,0,0
70193403,0.0172464,-0.0456286,-1.5098,0.0,0.728258,-0.00935189,-0.0225217,-0.684869,0.0,0.0,-0.508421,0,0,0,0,0
70297848,0.0153364,-0.0574044,-1.50985,0.0,0.728153,-0.0140818,-0.0261533,-0.684771,0.0,0.0,-0.512999,0,0,0,0,0
70392078,0.0153461,-0.0721234,-1.50996,0.0,0.727979,-0.0191216,-0.0315114,-0.684607,0.0,0.0,-0.511799,0,0,0,0,0
70496384,0.0134444,-0.0942029,-1.51004,0.0,0.72765,-0.0273761,-0.0388901,-0.684298,0.0,0.0,-0.5106,0,0,0,0,0
70590776,0.0153724,-0.101562,-1.51019,0.0,0.727514,-0.0291971,-0.0422229,-0.68417,0.0,0.0,-0.511799,0,0,0,0,0
70695064,0.0153755,-0.104505,-1.51021,0.0,0.727459,-0.0302043,-0.0432936,-0.684118,0.0,0.0,-0.509474,0,0,0,0,0
70794273,0.0153872,-0.114809,-1.51029,0.0,0.727253,-0.0337289,-0.0470404,-0.683924,0.0,0.0,-0.511799,0,0,0,0,0
70893790,0.0115588,-0.133946,-1.51018,0.0,0.726829,-0.041666,-0.052685,-0.683526,0.0,0.0,-0.514198,0,0,0,0,0
70997946,0.00578176,-0.138364,-1.50981,0.0,0.726729,-0.0452663,-0.0523235,-0.683431,0.0,0.0,-0.535789,0,0,0,0,0
71092401,0.00192597,-0.131005,-1.50953,0.0,0.726912,-0.0441449,-0.0483382,-0.683603,0.0,0.0,-0.556181,0,0,0,0,0
71196733,0.0,-0.126589,-1.50941,0.0,0.727016,-0.0433324,-0.0460776,-0.683701,0.0,0.0,-0.586169,0,0,0,0,0
71290879,0.0,-0.133949,-1.50941,0.0,0.726841,-0.045848,-0.0487527,-0.683537,0.0,0.0,-0.581371,0,0,0,0,0
71395272,0.0,-0.151612,-1.50941,0.0,0.726382,-0.051883,-0.05517,-0.683105,0.0,0.0,-0.58257,0,0,0,0,0
71494487,0.0,-0.17222,-1.50941,0.0,0.725775,-0.0589187,-0.0626514,-0.682535,0.0,0.0,-0.577772,0,0,0,0,0
71593907,0.00580947,-0.182523,-1.50994,0.0,0.72544,-0.0603446,-0.0683546,-0.682219,0.0,0.0,-0.553782,0,0,0,0,0
71693302,0.00580947,-0.182523,-1.50994,0.0,0.72544,-0.0603446,-0.0683546,-0.682219,0.0,0.0,-0.532191,0,0,0,0,0
71792477,0.0116168,-0.181048,-1.51046,0.0,0.72548,-0.0577526,-0.0697856,-0.682256,0.0,0.0,-0.504211,0,0,0,0,0
71896888,0.00774042,-0.176634,-1.51009,0.0,0.72563,-0.0576391,-0.0668739,-0.682398,0.0,0.0,-0.526193,0,0,0,0,0
71991308,0.0154701,-0.170741,-1.51073,0.0,0.7258,-0.0528427,-0.0673577,-0.682558,0.0,0.0,-0.524994,0,0,0,0,0
72095488,0.0173811,-0.158964,-1.51079,0.0,0.726147,-0.048125,-0.063739,-0.682885,0.0,0.0,-0.515398,0,0,0,0,0
72194839,0.017373,-0.154549,-1.51075,0.0,0.726273,-0.0466167,-0.0621359,-0.683003,0.0,0.0,-0.520196,0,0,0,0,0
72294232,0.0173625,-0.148661,-1.5107,0.0,0.726436,-0.0446053,-0.059998,-0.683156,0.0,0.0,-0.520196,0,0,0,0,0
72393455,0.0173086,-0.113336,-1.51039,0.0,0.727278,-0.0325283,-0.0471607,-0.683948,0.0,0.0,-0.514198,0,0,0,0,0
72492868,0.0172824,-0.0912573,-1.5102,0.0,0.727689,-0.0249741,-0.0391303,-0.684334,0.0,0.0,-0.487368,0,0,0,0,0
72597113,0.0210863,-0.0559305,-1.51,0.0,0.728149,-0.0114855,-0.0275847,-0.684767,0.0,0.0,-0.494737,0,0,0,0,0
72691367,0.0210841,-0.0529868,-1.50997,0.0,0.728178,-0.0104774,-0.0265129,-0.684794,0.0,0.0,-0.496842,0,0,0,0,0
72795750,0.0191787,-0.0677062,-1.51006,0.0,0.728024,-0.016215,-0.0312156,-0.684649,0.0,0.0,-0.502105,0,0,0,0,0
72895043,0.0172722,-0.080954,-1.51011,0.0,0.727851,-0.0214475,-0.0353813,-0.684486,0.0,0.0,-0.522595,0,0,0,0,0
72994567,0.0172669,-0.0750665,-1.51006,0.0,0.727934,-0.019432,-0.0332386,-0.684565,0.0,0.0,-0.517797,0,0,0,0,0
73093685,0.0172362,-0.0176627,-1.50956,0.0,0.728419,0.000227003,-0.0123368,-0.685021,0.0,0.0,-0.511799,0,0,0,0,0
73192929,0.0191505,-0.0132469,-1.50953,0.0,0.728425,0.00243705,-0.0113844,-0.685026,0.0,0.0,-0.520196,0,0,0,0,0
73297436,0.0153202,-0.0117753,-1.5095,0.0,0.728441,0.0015463,-0.00953649,-0.685041,0.0,0.0,-0.523794,0,0,0,0,0
73391578,0.0153202,-0.0117753,-1.5095,0.0,0.728441,0.0015463,-0.00953649,-0.685041,0.0,0.0,-0.526193,0,0,0,0,0
73495974,0.0153202,-0.0117753,-1.5095,0.0,0.728441,0.0015463,-0.00953649,-0.685041,0.0,0.0,-0.521395,0,0,0,0,0
73590378,0.0172359,-0.0161908,-1.50955,0.0,0.728424,0.000731194,-0.0118007,-0.685025,0.0,0.0,-0.520196,0,0,0,0,0
73694614,0.0191508,-0.0147187,-1.50955,0.0,0.728421,0.00193286,-0.0119205,-0.685023,0.0,0.0,-0.508421,0,0,0,0,0
73794079,0.0248953,-0.0117745,-1.50955,0.0,0.728405,0.00503362,-0.0128159,-0.685008,0.0,0.0,-0.509474,0,0,0,0,0
73893257,0.0210655,-0.0132467,-1.50955,0.0,0.728418,0.00313452,-0.0120403,-0.68502,0.0,0.0,-0.511799,0,0,0,0,0
73997573,0.0191521,-0.0206062,-1.5096,0.0,0.728402,-8.38981e-05,-0.0140649,-0.685005,0.0,0.0,-0.5106,0,0,0,0,0
74091986,0.0325568,-0.0161887,-1.50967,0.0,0.728354,0.0063108,-0.0170476,-0.68496,0.0,0.0,-0.509474,0,0,0,0,0
74196160,0.132186,-0.0352244,-1.51174,0.0,0.726772,0.035998,-0.0580818,-0.683472,0.0,0.0,-0.511799,0,0,0,0,0
74290506,0.0940225,-0.0778994,-1.51307,0.0,0.727119,0.0074498,-0.060519,-0.683798,0.0,0.0,-0.55978,0,0,0,0,0
74394862,0.0191929,-0.082425,-1.5102,0.0,0.727822,-0.021254,-0.0365725,-0.68446,0.0,0.0,-0.562179,0,0,0,0,0
74494081,0.0172736,-0.0824259,-1.51012,0.0,0.727829,-0.0219514,-0.0359169,-0.684466,0.0,0.0,-0.55858,0,0,0,0,0
74593648,0.0153724,-0.101562,-1.51019,0.0,0.727514,-0.0291971,-0.0422229,-0.68417,0.0,0.0,-0.55978,0,0,0,0,0
74692902,0.015438,-0.151606,-1.51058,0.0,0.726361,-0.046308,-0.0604119,-0.683085,0.0,0.0,-0.55858,0,0,0,0,0
74792094,0.0154334,-0.148663,-1.51056,0.0,0.726441,-0.0453022,-0.0593428,-0.683161,0.0,0.0,-0.55978,0,0,0,0,0
74896503,0.0115588,-0.133946,-1.51018,0.0,0.726829,-0.041666,-0.052685,-0.683526,0.0,0.0,-0.55978,0,0,0,0,0
74990687,0.00962261,-0.122171,-1.51,0.0,0.727107,-0.0383373,-0.0477498,-0.683787,0.0,0.0,-0.55978,0,0,0,0,0
75095025,0.00768776,-0.104508,-1.50981,0.0,0.727475,-0.0329932,-0.0406714,-0.684133,0.0,0.0,-0.55858,0,0,0,0,0
75194442,0.00768544,-0.100093,-1.50979,0.0,0.727557,-0.0314825,-0.0390652,-0.68421,0.0,0.0,-0.55978,0,0,0,0,0
75293737,0.00768394,-0.0971487,-1.50978,0.0,0.72761,-0.0304753,-0.0379942,-0.68426,0.0,0.0,-0.522595,0,0,0,0,0
75393136,0.0115282,-0.100091,-1.50998,0.0,0.72755,-0.030088,-0.0403763,-0.684204,0.0,0.0,-0.517797,0,0,0,0,0
75492365,0.0153804,-0.108921,-1.51025,0.0,0.727373,-0.031715,-0.0448995,-0.684037,0.0,0.0,-0.515398,0,0,0,0,0
75596692,0.0134593,-0.110394,-1.51015,0.0,0.727349,-0.0329157,-0.0447793,-0.684014,0.0,0.0,-0.520196,0,0,0,0,0
75691002,0.0115341,-0.107451,-1.51003,0.0,0.727411,-0.0326059,-0.0430532,-0.684073,0.0,0.0,-0.516597,0,0,0,0,0
75795311,0.0134495,-0.100091,-1.51008,0.0,0.727546,-0.0293908,-0.0410319,-0.6842,0.0,0.0,-0.520196,0,0,0,0,0
75894595,0.0153331,-0.0515167,-1.5098,0.0,0.728211,-0.0120657,-0.0240096,-0.684826,0.0,0.0,-0.503158,0,0,0,0,0
75994060,0.0172416,-0.0353254,-1.50971,0.0,0.728334,-0.00582303,-0.0187697,-0.684941,0.0,0.0,-0.502105,0,0,0,0,0
76093307,0.0153235,-0.0279662,-1.50962,0.0,0.728382,-0.00399972,-0.0154336,-0.684986,0.0,0.0,-0.503158,0,0,0,0,0
76192651,0.015327,-0.0382696,-1.5097,0.0,0.72832,-0.00752877,-0.0191859,-0.684927,0.0,0.0,-0.502105,0,0,0,0,0
76297025,0.0153347,-0.0544606,-1.50983,0.0,0.728183,-0.0130738,-0.0250815,-0.684799,0.0,0.0,-0.505263,0,0,0,0,0
76391222,0.0153295,-0.0441572,-1.50975,0.0,0.728276,-0.00954524,-0.0213299,-0.684886,0.0,0.0,-0.535789,0,0,0,0,0
76495617,0.0153301,-0.0456291,-1.50976,0.0,0.728264,-0.0100493,-0.0218659,-0.684874,0.0,0.0,-0.536989,0,0,0,0,0
76594815,0.015343,-0.0677077,-1.50993,0.0,0.728036,-0.0176098,-0.0299041,-0.68466,0.0,0.0,-0.538188,0,0,0,0,0
76694137,0.00959802,-0.0853726,-1.50982,0.0,0.727803,-0.0257483,-0.0343655,-0.684441,0.0,0.0,-0.550184,0,0,0,0,0
76793571,0.00767973,-0.088317,-1.50975,0.0,0.727759,-0.0274531,-0.034781,-0.6844,0.0,0.0,-0.548984,0,0,0,0,0
76892744,0.00767842,-0.0853731,-1.50974,0.0,0.727805,-0.0264456,-0.0337098,-0.684444,0.0,0.0,-0.545386,0,0,0,0,0
76992175,0.00767842,-0.0853731,-1.50974,0.0,0.727805,-0.0264456,-0.0337098,-0.684444,0.0,0.0,-0.550184,0,0,0,0,0
77091512,0.0153419,-0.0662358,-1.50992,0.0,0.728054,-0.0171058,-0.0293683,-0.684677,0.0,0.0,-0.551383,0,0,0,0,0
77195792,0.0172575,-0.0632913,-1.50995,0.0,0.728083,-0.0154005,-0.0289524,-0.684704,0.0,0.0,-0.548984,0,0,0,0,0
77295284,0.0172708,-0.0794821,-1.51009,0.0,0.727872,-0.0209437,-0.0348456,-0.684506,0.0,0.0,-0.551383,0,0,0,0,0
77394554,0.0172764,-0.0853697,-1.51015,0.0,0.727784,-0.022959,-0.0369881,-0.684423,0.0,0.0,-0.550184,0,0,0,0,0
77493802,0.0172708,-0.0794821,-1.51009,0.0,0.727872,-0.0209437,-0.0348456,-0.684506,0.0,0.0,-0.544186,0,0,0,0,0
77593085,0.0172722,-0.080954,-1.51011,0.0,0.727851,-0.0214475,-0.0353813,-0.684486,0.0,0.0,-0.544186,0,0,0,0,0
77692361,0.0172722,-0.080954,-1.51011,0.0,0.727851,-0.0214475,-0.0353813,-0.684486,0.0,0.0,-0.544186,0,0,0,0,0
77791731,0.0172632,-0.0706508,-1.51002,0.0,0.727993,-0.0179203,-0.0316314,-0.68462,0.0,0.0,-0.544186,0,0,0,0,0
77895995,0.0172632,-0.0706508,-1.51002,0.0,0.727993,-0.0179203,-0.0316314,-0.68462,0.0,0.0,-0.544186,0,0,0,0,0
77995389,0.0172632,-0.0706508,-1.51002,0.0,0.727993,-0.0179203,-0.0316314,-0.68462,0.0,0.0,-0.532191,0,0,0,0,0
78094794,0.0172632,-0.0706508,-1.51002,0.0,0.727993,-0.0179203,-0.0316314,-0.68462,0.0,0.0,-0.520196,0,0,0,0,0
78193973,0.0172575,-0.0632913,-1.50995,0.0,0.728083,-0.0154005,-0.0289524,-0.684704,0.0,0.0,-0.520196,0,0,0,0,0
78293278,0.017248,-0.0485724,-1.50983,0.0,0.728233,-0.0103601,-0.0235936,-0.684845,0.0,0.0,-0.526193,0,0,0,0,0
78392635,0.0210662,-0.0161904,-1.50958,0.0,0.72841,0.00212613,-0.0131125,-0.685012,0.0,0.0,-0.493684,0,0,0,0,0
