timestamp,ref_timestamp,ref_lat,ref_lon,x,y,z,delta_xy[0],delta_xy[1],delta_z,vx,vy,vz,z_deriv,delta_vxy[0],delta_vxy[1],delta_vz,ax,ay,az,heading,delta_heading,ref_alt,dist_bottom,eph,epv,evh,evv,vxy_max,vz_max,hagl_min,hagl_max,xy_valid,z_valid,v_xy_valid,v_z_valid,xy_reset_counter,z_reset_counter,vxy_reset_counter,vz_reset_counter,heading_reset_counter,xy_global,z_global,dist_bottom_valid
18515730,0,0.0,0.0,0.0,0.0,0.9671359,-5.3372147e-05,6.362885e-05,0.0,-0.052446105,0.026632484,0.42157507,0.07354361,-0.010748595,0.012814189,0.0,-0.2591405,-0.3044811,0.03933302,-1.4467961,-0.12893043,0.0,0.1,0.40618935,0.6645886,0.38295186,0.24080253,inf,inf,inf,inf,0,1,0,1,1,0,1,0,2,0,0,1
18525660,0,0.0,0.0,0.0,0.0,0.9676268,-5.3372147e-05,6.362885e-05,0.0,-0.052360743,0.027937122,0.42183903,0.07380573,-0.010748595,0.012814189,0.0,0.05906007,0.03003197,0.19880041,-1.4472082,-0.12893043,0.0,0.1,0.40945473,0.66661835,0.38496962,0.24118298,inf,inf,inf,inf,0,1,0,1,1,0,1,0,2,0,0,1
18615044,0,0.0,0.0,0.0,0.0,0.9681167,-5.3372147e-05,6.362885e-05,0.0,-0.051662818,0.026973775,0.42217016,0.07044657,-0.010748595,0.012814189,0.0,-0.04539547,-0.24398796,-0.09695674,-1.4493295,-0.12893043,0.0,0.1,0.4399241,0.6609798,0.40511224,0.2386311,inf,inf,inf,inf,0,1,0,1,1,0,1,0,2,0,0,1
18724292,0,0.0,0.0,0.0,0.0,0.9687623,-5.3372147e-05,6.362885e-05,0.0,-0.04056533,0.02300815,0.4176399,0.06263188,-0.010748595,0.012814189,0.0,-0.1200917,0.5159537,-0.63366735,-1.4501501,-0.12893043,0.0,0.1,0.4796668,0.6594652,0.43068725,0.23675984,inf,inf,inf,inf,0,1,0,1,1,0,1,0,2,0,0,1
18813677,0,0.0,0.0,0.0,0.0,0.97146124,-5.3372147e-05,6.362885e-05,0.0,-0.0496502,0.020578474,0.42373192,0.06814268,-0.010748595,0.012814189,0.0,-0.73141843,-0.20471801,-0.25228685,-1.4509422,-0.12893043,0.0,0.1,0.51461726,0.65386575,0.45334053,0.23412906,inf,inf,inf,inf,0,1,0,1,1,0,1,0,2,0,0,1
18922999,0,0.0,0.0,0.0,0.0,0.96919435,-5.3372147e-05,6.362885e-05,0.0,-0.048566196,0.018759582,0.42193544,0.06007771,-0.010748595,0.012814189,0.0,0.49793202,-0.48972568,-0.07104711,-1.4521887,-0.12893043,0.0,0.1,0.5598032,0.6523025,0.48262292,0.23231055,inf,inf,inf,inf,0,1,0,1,1,0,1,0,2,0,0,1
19017274,0,0.0,0.0,0.0,0.0,0.96791,-5.3372147e-05,6.362885e-05,0.0,-0.054127585,0.034322772,0.42146835,0.053521927,-0.010748595,0.012814189,0.0,-0.52040106,1.1258119,0.22012512,-1.4530259,-0.12893043,0.0,0.1,0.5995076,0.65835905,0.50794715,0.23267663,inf,inf,inf,inf,0,1,0,1,1,0,1,0,2,0,0,1
19116590,0,0.0,0.0,0.0,0.0,0.9627182,-5.3372147e-05,6.362885e-05,0.0,-0.06037465,0.043426573,0.41933396,0.043955103,-0.010748595,0.012814189,0.0,-0.65199137,2.60372,-0.7607957,-1.4518589,-0.12893043,0.0,0.1,0.6456858,0.6547971,0.5368379,0.23051782,inf,inf,inf,inf,0,1,0,1,1,0,1,0,2,0,0,1
19216039,0,0.0,0.0,0.0,0.0,0.9584143,-5.3372147e-05,6.362885e-05,0.0,-0.05689372,0.035921305,0.41889682,0.03864802,-0.010748595,0.012814189,0.0,0.37504947,-0.1035271,1.4529767,-1.4523286,-0.12893043,0.0,0.1,0.6954423,0.65121144,0.5682267,0.22851071,inf,inf,inf,inf,0,1,0,1,1,0,1,0,2,0,0,1
19320187,0,0.0,0.0,0.0,0.0,0.9568749,-5.3372147e-05,6.362885e-05,0.0,-0.06536158,0.039761618,0.4158481,0.031908438,-0.010748595,0.012814189,0.0,-0.69087154,1.5997753,0.46859488,-1.4521629,-0.12893043,0.0,0.1,0.7473078,0.64766604,0.5986703,0.22638816,inf,inf,inf,inf,0,1,0,1,1,0,1,0,2,0,0,1
19419552,0,0.0,0.0,0.0,0.0,0.9500992,-5.3372147e-05,6.362885e-05,0.0,-0.06727347,0.03838211,0.41702446,0.026663892,-0.010748595,0.012814189,0.0,0.89303195,-1.6703842,0.097736575,-1.4523109,-0.12893043,0.0,0.1,0.80322444,0.64422685,0.63217074,0.22451913,inf,inf,inf,inf,0,1,0,1,1,0,1,0,2,0,0,1
19518820,0,0.0,0.0,0.0,0.0,0.9423165,-5.3372147e-05,6.362885e-05,0.0,-0.07137522,0.049839262,0.4121967,0.015926797,-0.010748595,0.012814189,0.0,0.39336276,1.6948695,-0.61096656,-1.4526906,-0.12893043,0.0,0.1,0.8609988,0.65197766,0.66408885,0.22524486,inf,inf,inf,inf,0,1,0,1,1,0,1,0,2,0,0,1
19618135,0,0.0,0.0,0.0,0.0,0.9355047,-5.3372147e-05,6.362885e-05,0.0,-0.08089864,0.058179736,0.4054212,0.0046510715,-0.010748595,0.012814189,0.0,-1.5457402,2.3119905,-2.2452233,-1.4523566,-0.12893043,0.0,0.1,0.92350143,0.6485631,0.69766164,0.22325425,inf,inf,inf,inf,0,1,0,1,1,0,1,0,2,0,0,1
19717462,0,0.0,0.0,0.0,0.0,0.92748976,-5.3372147e-05,6.362885e-05,0.0,-0.07261094,0.050118234,0.41759333,0.011358362,-0.010748595,0.012814189,0.0,1.3149904,-1.30506,2.1155899,-1.4540718,-0.12893043,0.0,0.1,0.9871503,0.64524037,0.73058045,0.22133683,inf,inf,inf,inf,0,1,0,1,1,0,1,0,2,0,0,1
19816767,0,0.0,0.0,0.0,0.0,0.9180632,-5.3372147e-05,6.362885e-05,0.0,-0.08794492,0.058168735,0.40614778,-0.0064344266,-0.010748595,0.012814189,0.0,-0.4778131,-0.4478232,-0.37409467,-1.4535383,-0.12893043,0.0,0.1,1.0564371,0.64194745,0.76522684,0.2194213,inf,inf,inf,inf,0,1,0,1,1,0,1,0,2,0,0,1
19916085,0,0.0,0.0,0.0,0.0,0.90811306,-5.3372147e-05,6.362885e-05,0.0,-0.08233525,0.06243616,0.4147807,-0.0040254453,-0.010748595,0.012814189,0.0,2.0182977,-1.0356698,1.3551078,-1.4549621,-0.12893043,0.0,0.1,1.1258556,0.6387421,0.79870206,0.21758965,inf,inf,inf,inf,0,1,0,1,1,0,1,0,2,0,0,1
20015543,0,0.0,0.0,0.0,0.0,0.90133333,-5.3372147e-05,6.362885e-05,0.0,-0.089187406,0.06525007,0.4083213,-0.013077861,-0.010748595,0.012814189,0.0,0.048751395,-1.8878917,0.5257062,-1.4557223,-0.12893043,0.0,0.1,1.2021401,0.63556397,0.834403,0.21577364,inf,inf,inf,inf,0,1,0,1,1,0,1,0,2,0,0,1
20119718,0,0.0,0.0,0.0,0.0,0.899552,-5.3372147e-05,6.362885e-05,0.0,-0.09811141,0.06835389,0.40866104,-0.012124442,-0.010748595,0.012814189,0.0,-0.53982997,-0.70942754,1.1574638,-1.4564472,-0.12893043,0.0,0.1,1.277082,0.6324671,0.86784935,0.21401154,inf,inf,inf,inf,0,1,0,1,1,0,1,0,2,0,0,1
20219004,0,0.0,0.0,0.0,0.0,0.8978046,-5.3372147e-05,6.362885e-05,0.0,-0.11216232,0.0826782,0.3988731,-0.019377837,-0.010748595,0.012814189,0.0,-3.4995055,1.7582332,-3.3436499,-1.4561138,-0.12893043,0.0,0.10038906,1.3605007,0.62945247,0.9053729,0.21239462,inf,inf,inf,inf,0,1,0,1,1,0,1,0,2,0,0,1
20318313,0,0.0,0.0,0.0,0.0,0.89850694,-5.3372147e-05,6.362885e-05,0.0,-0.11802581,0.09486191,0.39780492,-0.015079442,-0.010748595,0.012814189,0.0,-1.7506946,2.0768714,-1.0361935,-1.4566176,-0.12893043,0.0,0.1,1.4404999,0.6368043,0.93842816,0.21314572,inf,inf,inf,inf,0,1,0,1,1,0,1,0,2,0,0,1
20417629,0,0.0,0.0,0.0,0.0,0.9026801,-5.3372147e-05,6.362885e-05,0.0,-0.11713531,0.094387494,0.40390003,-0.0013590637,-0.010748595,0.012814189,0.0,0.13503565,2.119049,0.092271,-1.4572951,-0.12893043,0.0,0.1,1.5312366,0.63363296,0.9755119,0.21137561,inf,inf,inf,inf,0,1,0,1,1,0,1,0,2,0,0,1
20516946,0,0.0,0.0,0.0,0.0,0.91103077,-5.3372147e-05,6.362885e-05,0.0,-0.12547888,0.09219787,0.40407473,0.009196637,-0.010748595,0.012814189,0.0,-0.18621005,-0.15006162,-1.0550151,-1.4577444,-0.12893043,0.0,0.1,1.6153418,0.63054484,1.0074764,0.20969014,inf,inf,inf,inf,0,1,0,1,1,0,1,0,2,0,0,1
20616261,0,0.0,0.0,0.0,0.0,0.9206361,-5.3372147e-05,6.362885e-05,0.0,-0.12960477,0.103720814,0.40971303,0.024652973,-0.010748595,0.012814189,0.0,-0.57254225,1.2775499,-0.3186114,-1.457963,-0.12893043,0.0,0.1,1.7132587,0.62748617,1.0456576,0.20804498,inf,inf,inf,inf,0,1,0,1,1,0,1,0,2,0,0,1
20715577,0,0.0,0.0,0.0,0.0,0.9276226,-5.3372147e-05,6.362885e-05,0.0,-0.13801607,0.09896659,0.40841326,0.029147174,-0.010748595,0.012814189,0.0,-2.1139233,0.7362195,-2.856025,-1.4589543,-0.12893043,0.0,0.1,1.8003615,0.6244511,1.0758594,0.20638989,inf,inf,inf,inf,0,1,0,1,1,0,1,0,2,0,0,1
20814951,0,0.0,0.0,0.0,0.0,0.93519497,-5.3372147e-05,6.362885e-05,0.0,-0.13399775,0.09971148,0.42313758,0.04925596,-0.010748595,0.012814189,0.0,-2.5594268,-0.6432664,-2.0076213,-1.4587724,-0.12893043,0.0,0.1,1.9053766,0.63153726,1.1144922,0.20710278,inf,inf,inf,inf,0,1,0,1,1,0,1,0,2,0,0,1
20919174,0,0.0,0.0,0.0,0.0,0.94073933,-5.3372147e-05,6.362885e-05,0.0,-0.14847134,0.11249825,0.41353998,0.040228277,-0.010748595,0.012814189,0.0,-2.4238892,2.497563,-2.0643828,-1.4593542,-0.12893043,0.0,0.1,1.9942563,0.6285199,1.142641,0.20549077,inf,inf,inf,inf,0,1,0,1,1,0,1,0,2,0,0,1
21018542,0,0.0,0.0,0.0,0.0,0.9409073,-5.3372147e-05,6.362885e-05,0.0,-0.15424736,0.10634293,0.41545308,0.0392403,-0.010748595,0.012814189,0.0,-4.01484,0.078598134,-3.9553823,-1.459659,-0.12893043,0.0,0.1,2.1061764,0.6255325,1.1825653,0.2040372,inf,inf,inf,inf,0,1,0,1,1,0,1,0,2,0,0,1
21117806,0,0.0,0.0,0.0,0.0,0.9382116,-5.3372147e-05,6.362885e-05,0.0,-0.14959495,0.108228855,0.42123753,0.04050301,-0.010748595,0.012814189,0.0,-0.8919336,0.8360453,-2.0318544,-1.4604346,-0.12893043,0.0,0.1,2.2222602,0.6226833,1.2220327,0.20254247,inf,inf,inf,inf,0,1,0,1,1,0,1,0,2,0,0,1
21217122,0,0.0,0.0,0.0,0.0,0.9364091,-5.3372147e-05,6.362885e-05,0.0,-0.14630036,0.11388327,0.42930323,0.04503817,-0.010748595,0.012814189,0.0,-1.721978,-0.16830002,-1.6024246,-1.4601902,-0.12893043,0.0,0.1,2.3137276,0.6198467,1.247231,0.20103124,inf,inf,inf,inf,0,1,0,1,1,0,1,0,2,0,0,1
21316438,0,0.0,0.0,0.0,0.0,0.93623304,-5.3372147e-05,6.362885e-05,0.0,-0.15938626,0.110328175,0.42631927,0.040323056,-0.010748595,0.012814189,0.0,-1.5034232,-2.0591693,-2.0609922,-1.4610213,-0.12893043,0.0,0.1,2.436477,0.6170354,1.2868797,0.19957152,inf,inf,inf,inf,0,1,0,1,1,0,1,0,2,0,0,1
21415754,0,0.0,0.0,0.0,0.0,0.93589133,-5.3372147e-05,6.362885e-05,0.0,-0.15666501,0.11847362,0.43026724,0.04232194,-0.010748595,0.012814189,0.0,0.893132,-0.1465135,-0.073896,-1.4614407,-0.12893043,0.0,0.1,2.5253525,0.61423683,1.3083323,0.19810946,inf,inf,inf,inf,0,1,0,1,1,0,1,0,2,0,0,1
21515070,0,0.0,0.0,0.0,0.0,0.9368656,-5.3372147e-05,6.362885e-05,0.0,-0.16042112,0.12410773,0.43374106,0.045198675,-0.010748595,0.012814189,0.0,-0.29816434,-1.320921,-0.24213803,-1.4613672,-0.12893043,0.0,0.1,2.65441,0.62112075,1.3479569,0.19882287,inf,inf,inf,inf,0,1,0,1,1,0,1,0,2,0,0,1
21614470,0,0.0,0.0,0.0,0.0,0.9392159,-5.3372147e-05,6.362885e-05,0.0,-0.17128219,0.12364621,0.43013412,0.042137075,-0.010748595,0.012814189,0.0,-0.6436265,-1.5579326,-0.96500695,-1.4627539,-0.12893043,0.0,0.1,2.7383149,0.6183303,1.3648123,0.19739561,inf,inf,inf,inf,0,1,0,1,1,0,1,0,2,0,0,1
21718668,0,0.0,0.0,0.0,0.0,0.94340825,-5.3372147e-05,6.362885e-05,0.0,-0.18283877,0.12798296,0.4258946,0.037913494,-0.010748595,0.012814189,0.0,-1.4834287,-0.31000593,-2.008648,-1.4627818,-0.12893043,0.0,0.1,2.8731723,0.6156176,1.4044756,0.19600157,inf,inf,inf,inf,0,1,0,1,1,0,1,0,2,0,0,1
21817984,0,0.0,0.0,0.0,0.0,0.9483815,-5.3372147e-05,6.362885e-05,0.0,-0.1839984,0.13318397,0.42052037,0.03518789,-0.010748595,0.012814189,0.0,-0.83878154,1.8974301,-2.2826498,-1.4640713,-0.12893043,0.0,0.1,2.950135,0.6129094,1.4160682,0.19460641,inf,inf,inf,inf,0,1,0,1,1,0,1,0,2,0,0,1
21917489,0,0.0,0.0,0.0,0.0,0.95416254,-5.3372147e-05,6.362885e-05,0.0,-0.18835956,0.13396204,0.42336977,0.041874103,-0.010748595,0.012814189,0.0,-0.55693954,0.611019,-2.1908255,-1.4649684,-0.12893043,0.0,0.1,3.090394,0.61028564,1.4564273,0.19335367,inf,inf,inf,inf,0,1,0,1,1,0,1,0,2,0,0,1
22016616,0,0.0,0.0,0.0,0.0,0.96128947,-5.3372147e-05,6.362885e-05,0.0,-0.18755372,0.13513193,0.43267354,0.05558995,-0.010748595,0.012814189,0.0,-0.030788884,2.7119021,-1.1959826,-1.4661027,-0.12893043,0.0,0.1,3.157476,0.607614,1.4620824,0.19199656,inf,inf,inf,inf,0,1,0,1,1,0,1,0,2,0,0,1
22115937,0,0.0,0.0,0.0,0.0,0.96849126,-5.3372147e-05,6.362885e-05,0.0,-0.1966524,0.14807956,0.42948252,0.055921197,-0.010748595,0.012814189,0.0,0.5244983,2.9995382,-1.658267,-1.468162,-0.12893043,0.0,0.1,3.3024173,0.6142701,1.5013696,0.19269496,inf,inf,inf,inf,0,1,0,1,1,0,1,0,2,0,0,1
22215249,0,0.0,0.0,0.0,0.0,0.97617376,-5.3372147e-05,6.362885e-05,0.0,-0.19362518,0.13393044,0.4383439,0.06800656,-0.010748595,0.012814189,0.0,1.3202331,0.23862709,0.80399644,-1.469303,-0.12893043,0.0,0.1,3.3570216,0.6115576,1.5002838,0.19131395,inf,inf,inf,inf,0,1,0,1,1,0,1,0,2,0,0,1
22314564,0,0.0,0.0,0.0,0.0,0.98171943,-5.3372147e-05,6.362885e-05,0.0,-0.20964041,0.13458839,0.43678024,0.06692733,-0.010748595,0.012814189,0.0,-1.7219852,-0.7683126,-0.66527873,-1.4685454,-0.12893043,0.0,0.1,3.5058684,0.6088833,1.5394154,0.1900317,inf,inf,inf,inf,0,1,0,1,1,0,1,0,2,0,0,1
22413884,0,0.0,0.0,0.0,0.0,0.9879455,-5.3372147e-05,6.362885e-05,0.0,-0.20141853,0.14427005,0.4424518,0.073420644,-0.010748595,0.012814189,0.0,0.73371583,1.4893352,0.54285413,-1.4713306,-0.12893043,0.0,0.1,3.5458071,0.6062069,1.5315429,0.18868522,inf,inf,inf,inf,0,1,0,1,1,0,1,0,2,0,0,1
22518162,0,0.0,0.0,0.0,0.0,0.9954758,-5.3372147e-05,6.362885e-05,0.0,-0.21139127,0.13879055,0.43601352,0.06655087,-0.010748595,0.012814189,0.0,-1.07457,2.1862428,-1.5798652,-1.4724429,-0.12893043,0.0,0.1,3.6978369,0.6036179,1.5695835,0.1873993,inf,inf,inf,inf,0,1,0,1,1,0,1,0,2,0,0,1
22617478,0,0.0,0.0,0.0,0.0,1.0018971,-5.3372147e-05,6.362885e-05,0.0,-0.20148632,0.13261925,0.44905913,0.07996326,-0.010748595,0.012814189,0.0,-0.41483378,1.0646516,0.08129692,-1.4736181,-0.12893043,0.0,0.1,3.7223716,0.6010205,1.5552579,0.18610567,inf,inf,inf,inf,0,1,0,1,1,0,1,0,2,0,0,1
22716942,0,0.0,0.0,0.0,0.0,1.0064654,-5.3372147e-05,6.362885e-05,0.0,-0.20647602,0.13296005,0.44816133,0.078217186,-0.010748595,0.012814189,0.0,1.1020668,1.3966436,-0.22969125,-1.4745764,-0.12893043,0.0,0.1,3.8769321,0.59856045,1.5936896,0.1849731,inf,inf,inf,inf,0,1,0,1,1,0,1,0,2,0,0,1
22816130,0,0.0,0.0,0.0,0.0,1.011482,-5.3372147e-05,6.362885e-05,0.0,-0.20581882,0.11146916,0.45497215,0.08454753,-0.010748595,0.012814189,0.0,-0.50555915,-2.2716415,0.007145093,-1.4762837,-0.12893043,0.0,0.1,3.8839712,0.60496825,1.5723698,0.18559714,inf,inf,inf,inf,0,1,0,1,1,0,1,0,2,0,0,1
22915428,0,0.0,0.0,0.0,0.0,1.0155715,-5.3372147e-05,6.362885e-05,0.0,-0.2139362,0.12509735,0.44625178,0.07403375,-0.010748595,0.012814189,0.0,-0.30964345,-1.7193953,1.2674706,-1.4777651,-0.12893043,0.0,0.1,4.040206,0.6024693,1.6089625,0.18436383,inf,inf,inf,inf,0,1,0,1,1,0,1,0,2,0,0,1
23019708,0,0.0,0.0,0.0,0.0,1.0209167,-5.3372147e-05,6.362885e-05,0.0,-0.23602413,0.12824033,0.44411153,0.06970798,-0.010748595,0.012814189,0.0,-0.11848653,0.93038356,0.61558276,-1.4787681,-0.12893043,0.0,0.1,4.028877,0.59995,1.5806344,0.18307592,inf,inf,inf,inf,0,1,0,1,1,0,1,0,2,0,0,1
23119026,0,0.0,0.0,0.0,0.0,1.0236571,-5.3372147e-05,6.362885e-05,0.0,-0.2728867,0.09992781,0.43766212,0.061595988,-0.010748595,0.012814189,0.0,-0.9722607,-2.652071,1.7494308,-1.4798722,-0.12893043,0.0,0.1,4.185989,0.59752053,1.6168802,0.1819662,inf,inf,inf,inf,0,1,0,1,1,0,1,0,2,0,0,1
23218340,0,0.0,0.0,0.0,0.0,1.0250334,-5.3372147e-05,6.362885e-05,0.0,-0.29541457,0.09556559,0.41873097,0.041209996,-0.010748595,0.012814189,0.0,-0.08312412,1.3544363,-0.9091915,-1.4815527,-0.12893043,0.0,0.1,4.157667,0.5950717,1.5840825,0.18086413,inf,inf,inf,inf,0,1,0,1,1,0,1,0,2,0,0,1
23317664,0,0.0,0.0,0.0,0.0,1.0285889,-5.3372147e-05,6.362885e-05,0.0,-0.29659802,0.08599355,0.4276235,0.051156722,-0.010748595,0.012814189,0.0,-1.7088982,-0.33535197,0.086854294,-1.4832819,-0.12893043,0.0,0.1,4.315138,0.5926345,1.618996,0.17967357,inf,inf,inf,inf,0,1,0,1,1,0,1,0,2,0,0,1
23416972,0,0.0,0.0,0.0,0.0,1.0322224,-5.3372147e-05,6.362885e-05,0.0,-0.25573355,0.08907932,0.44917122,0.07254357,-0.010748595,0.012814189,0.0,1.1792545,2.7662258,0.16737983,-1.4843888,-0.12893043,0.0,0.1,4.2689824,0.59878963,1.5798318,0.18009336,inf,inf,inf,inf,0,1,0,1,1,0,1,0,2,0,0,1
23516447,0,0.0,0.0,0.0,0.0,1.0375767,-5.3372147e-05,6.362885e-05,0.0,-0.13807394,0.14861955,0.49916083,0.12021236,-0.010748595,0.012814189,0.0,-0.330646,-0.7010256,2.0304346,-1.4760239,-0.12893043,0.0,0.1,4.426019,0.59634876,1.6134081,0.1786132,inf,inf,inf,inf,0,1,0,1,1,0,1,0,2,0,0,0
23620601,0,0.0,0.0,0.0,0.0,1.0541184,-5.3372147e-05,6.362885e-05,0.0,0.0023172866,0.16989674,0.5757052,0.19548678,-0.010748595,0.012814189,0.0,-0.93240297,-0.031485226,-1.000169,-1.4545976,-0.12893043,0.0,0.1,4.3642373,0.5938643,1.5690697,0.17683387,inf,inf,inf,inf,0,1,0,1,1,0,1,0,2,0,0,0
23719887,0,0.0,0.0,0.0,0.0,1.054197,-5.3372147e-05,6.362885e-05,0.0,-0.07745386,0.16464788,0.52313286,0.1366214,-0.010748595,0.012814189,0.0,1.1584526,1.4144837,3.6099381,-1.4528137,-0.12893043,0.0,0.1,4.520146,0.59144235,1.6011236,0.1751082,inf,inf,inf,inf,0,1,0,1,1,0,1,0,2,0,0,0
23819202,0,0.0,0.0,0.0,0.0,1.0473745,-5.3372147e-05,6.362885e-05,0.0,-0.2002624,0.08940082,0.45071507,0.052920733,-0.010748595,0.012814189,0.0,-0.7451237,-2.8757503,5.5536203,-1.4622278,-0.12893043,0.0,0.1,4.4425263,0.58902115,1.5567322,0.17448434,inf,inf,inf,inf,0,1,0,1,1,0,1,0,2,0,0,0
23918524,0,0.0,0.0,0.0,0.0,1.0453923,-5.3372147e-05,6.362885e-05,0.0,-0.17314467,0.08893104,0.46246454,0.058805503,-0.010748595,0.012814189,0.0,0.55510217,-1.1954962,1.1560013,-1.4633012,-0.12893043,0.0,0.1,4.59704,0.5866674,1.5870821,0.17324346,inf,inf,inf,inf,0,1,0,1,1,0,1,0,2,0,0,0
24017837,0,0.0,0.0,0.0,0.0,1.0468957,-5.3372147e-05,6.362885e-05,0.0,-0.17895363,0.09384062,0.46567857,0.05999135,-0.010748595,0.012814189,0.0,1.6667899,-0.41086733,-0.78985983,-1.4630985,-0.12893043,0.0,0.1,4.7547674,0.58437043,1.6179298,0.17221205,inf,inf,inf,inf,0,1,0,1,1,0,1,0,2,0,0,0
24117150,0,0.0,0.0,0.0,0.0,1.047411,-5.3372147e-05,6.362885e-05,0.0,-0.17696667,0.079389766,0.4658429,0.057186782,-0.010748595,0.012814189,0.0,0.23078035,-1.9446186,1.4002926,-1.464539,-0.12893043,0.0,0.1,4.6578574,0.5820898,1.5656201,0.17112657,inf,inf,inf,inf,0,1,0,1,1,0,1,0,2,0,0,0
24216463,0,0.0,0.0,0.0,0.0,1.0487132,-5.3372147e-05,6.362885e-05,0.0,-0.17651235,0.07059473,0.47533277,0.06450437,-0.010748595,0.012814189,0.0,1.0099461,-2.806479,2.0515199,-1.4654171,-0.12893043,0.0,0.1,4.813528,0.5880231,1.5959169,0.17171712,inf,inf,inf,inf,0,1,0,1,1,0,1,0,2,0,0,0
24315859,0,0.0,0.0,0.0,0.0,1.0512007,-5.3372147e-05,6.362885e-05,0.0,-0.16775934,0.07658047,0.46281496,0.050979543,-0.010748595,0.012814189,0.0,-0.55917203,2.683496,-0.9692372,-1.4659072,-0.12893043,0.0,0.1,4.7038856,0.5857087,1.5411758,0.17067778,inf,inf,inf,inf,0,1,0,1,1,0,1,0,2,0,0,0
24415099,0,0.0,0.0,0.0,0.0,1.0552117,-5.3372147e-05,6.362885e-05,0.0,-0.16850804,0.063251756,0.472924,0.061383497,-0.010748595,0.012814189,0.0,-0.3714969,-0.46605352,0.8929233,-1.4650623,-0.12893043,0.0,0.1,4.8570375,0.5834432,1.5703521,0.16965175,inf,inf,inf,inf,0,1,0,1,1,0,1,0,2,0,0,0
24514415,0,0.0,0.0,0.0,0.0,1.0591683,-5.3372147e-05,6.362885e-05,0.0,-0.15660095,0.07254655,0.47075966,0.059275225,-0.010748595,0.012814189,0.0,0.48399028,1.6399459,0.064537205,-1.4650828,-0.12893043,0.0,0.1,4.7365403,0.58119285,1.5141525,0.16862549,inf,inf,inf,inf,0,1,0,1,1,0,1,0,2,0,0,0
24618697,0,0.0,0.0,0.0,0.0,1.0672327,-5.3372147e-05,6.362885e-05,0.0,-0.16699152,0.07357088,0.4756886,0.06537951,-0.010748595,0.012814189,0.0,-1.2178519,-0.43051788,1.2852933,-1.467691,-0.12893043,0.0,0.1,4.886926,0.5789888,1.5420126,0.16766639,inf,inf,inf,inf,0,1,0,1,1,0,1,0,2,0,0,0
24718014,0,0.0,0.0,0.0,0.0,1.0746137,-5.3372147e-05,6.362885e-05,0.0,-0.18818207,0.07583751,0.478966,0.07067189,-0.010748595,0.012814189,0.0,-1.9929029,-0.71458775,0.5021075,-1.4704027,-0.12893043,0.0,0.1,4.7590175,0.57676244,1.4852972,0.16669253,inf,inf,inf,inf,0,1,0,1,1,0,1,0,2,0,0,0
24817391,0,0.0,0.0,0.0,0.0,1.0795189,-5.3372147e-05,6.362885e-05,0.0,-0.16003115,0.06793691,0.47796723,0.06993063,-0.010748595,0.012814189,0.0,0.8911346,-0.7147638,1.1247087,-1.4680635,-0.12893043,0.0,0.1,4.9064875,0.5746567,1.5130384,0.1659163,inf,inf,inf,inf,0,1,0,1,1,0,1,0,2,0,0,0
24916645,0,0.0,0.0,0.0,0.0,1.088056,-5.3372147e-05,6.362885e-05,0.0,-0.15928869,0.06741542,0.48365024,0.079120904,-0.010748595,0.012814189,0.0,-0.54680526,2.35045,-0.8061691,-1.4666015,-0.12893043,0.0,0.1,4.7711635,0.5803889,1.4557493,0.1665076,inf,inf,inf,inf,0,1,0,1,1,0,1,0,2,0,0,0
25016005,0,0.0,0.0,0.0,0.0,1.0955889,-5.3372147e-05,6.362885e-05,0.0,-0.14747435,0.053424314,0.48315385,0.08055848,-0.010748595,0.012814189,0.0,0.7762758,0.65247715,1.1559795,-1.464956,-0.12893043,0.0,0.1,4.915596,0.57825637,1.4815915,0.16552396,inf,inf,inf,inf,0,1,0,1,1,0,1,0,2,0,0,0
25115332,0,0.0,0.0,0.0,0.0,1.1010324,-5.3372147e-05,6.362885e-05,0.0,-0.1509628,0.040083665,0.4914544,0.08767357,-0.010748595,0.012814189,0.0,-0.5964862,-1.390972,1.7406702,-1.4644723,-0.12893043,0.0,0.1,4.7743096,0.5761371,1.424525,0.16464904,inf,inf,inf,inf,0,1,0,1,1,0,1,0,2,0,0,0
25219559,0,0.0,0.0,0.0,0.0,1.1100975,-5.3372147e-05,6.362885e-05,0.0,-0.14355955,0.039242174,0.48821586,0.084352314,-0.010748595,0.012814189,0.0,-0.25768474,0.073856644,-1.0022329,-1.4640588,-0.12893043,0.0,0.1,4.915516,0.57405657,1.4493836,0.16371989,inf,inf,inf,inf,0,1,0,1,1,0,1,0,2,0,0,0
25318875,0,0.0,0.0,0.0,0.0,1.1156607,-5.3372147e-05,6.362885e-05,0.0,-0.14144559,0.03658784,0.4967695,0.09138558,-0.010748595,0.012814189,0.0,-0.9960987,-0.5520264,0.698812,-1.4650208,-0.12893043,0.0,0.1,4.7712827,0.5719906,1.3931956,0.16283382,inf,inf,inf,inf,0,1,0,1,1,0,1,0,2,0,0,0
25418199,0,0.0,0.0,0.0,0.0,1.1192294,-5.3372147e-05,6.362885e-05,0.0,-0.13237563,0.031268343,0.49406907,0.08605718,-0.010748595,0.012814189,0.0,-1.0348101,0.5790283,-0.8630219,-1.4645853,-0.12893043,0.0,0.1,4.9093266,0.5700004,1.4176822,0.16204278,inf,inf,inf,inf,0,1,0,1,1,0,1,0,2,0,0,0
25517507,0,0.0,0.0,0.0,0.0,1.1229556,-5.3372147e-05,6.362885e-05,0.0,-0.12173725,0.042952828,0.4947579,0.08423276,-0.010748595,0.012814189,0.0,1.186209,-0.0595755,1.171499,-1.4635993,-0.12893043,0.0,0.1,4.76171,0.56798977,1.3622597,0.16117464,inf,inf,inf,inf,0,1,0,1,1,0,1,0,2,0,0,0
25616824,0,0.0,0.0,0.0,0.0,1.1276557,-5.3372147e-05,6.362885e-05,0.0,-0.12232082,0.03290843,0.49133065,0.07913546,-0.010748595,0.012814189,0.0,-1.4242218,-0.47443208,0.07649065,-1.4583796,-0.12893043,0.0,0.1,4.896522,0.57363117,1.3852315,0.16178931,inf,inf,inf,inf,0,1,0,1,1,0,1,0,2,0,0,0
25716139,0,0.0,0.0,0.0,0.0,1.1337742,-5.3372147e-05,6.362885e-05,0.0,-0.12103462,0.033585325,0.4985586,0.08590736,-0.010748595,0.012814189,0.0,-0.20011958,0.86481917,-0.6611188,-1.4567225,-0.12893043,0.0,0.1,4.7465777,0.57162106,1.3309389,0.16088781,inf,inf,inf,inf,0,1,0,1,1,0,1,0,2,0,0,0
25815457,0,0.0,0.0,0.0,0.0,1.1382768,-5.3372147e-05,6.362885e-05,0.0,-0.124053314,0.028979039,0.49892908,0.08396757,-0.010748595,0.012814189,0.0,-1.8612467,1.9081501,-1.1043684,-1.4578596,-0.12893043,0.0,0.1,4.878104,0.56967413,1.353033,0.1600722,inf,inf,inf,inf,0,1,0,1,1,0,1,0,2,0,0,0
25914840,0,0.0,0.0,0.0,0.0,1.140362,-5.3372147e-05,6.362885e-05,0.0,-0.11785203,0.03460511,0.50089794,0.081188984,-0.010748595,0.012814189,0.0,0.07643301,-0.15565522,1.2920103,-1.4588588,-0.12893043,0.0,0.1,4.7268157,0.5677093,1.2999132,0.15927331,inf,inf,inf,inf,0,1,0,1,1,0,1,0,2,0,0,0
26019054,0,0.0,0.0,0.0,0.0,1.1444824,-5.3372147e-05,6.362885e-05,0.0,-0.11651234,0.040665485,0.5050804,0.08054041,-0.010748595,0.012814189,0.0,-0.73248124,-1.0765592,0.43753472,-1.4573838,-0.12893043,0.0,0.1,4.855114,0.5658072,1.321261,0.15847747,inf,inf,inf,inf,0,1,0,1,1,0,1,0,2,0,0,0
26118370,0,0.0,0.0,0.0,0.0,1.1465043,-5.3372147e-05,6.362885e-05,0.0,-0.11201277,0.08139178,0.47467476,0.04683315,-0.010748595,0.012814189,0.0,0.9942936,0.3896431,-0.25020066,-1.4513611,-0.12893043,0.0,0.1,4.704676,0.56388706,1.2701689,0.15766288,inf,inf,inf,inf,0,1,0,1,1,0,1,0,2,0,0,0
26217901,0,0.0,0.0,0.0,0.0,1.1477256,-5.3372147e-05,6.362885e-05,0.0,-0.109842494,0.10698639,0.48374403,0.054303307,-0.010748595,0.012814189,0.0,-0.030838931,-0.131575,-0.342371,-1.4460735,-0.12893043,0.0,0.1,4.8298864,0.56202775,1.2913798,0.15690106,inf,inf,inf,inf,0,1,0,1,1,0,1,0,2,0,0,0
26321969,0,0.0,0.0,0.0,0.0,1.1496375,-5.3372147e-05,6.362885e-05,0.0,-0.108564444,0.14231579,0.48643455,0.05319862,-0.010748595,0.012814189,0.0,0.8816513,-0.80256844,0.69362235,-1.4401925,-0.12893043,0.0,0.1,4.680773,0.560186,1.2426015,0.15619811,inf,inf,inf,inf,0,1,0,1,1,0,1,0,2,0,0,0
26421284,0,0.0,0.0,0.0,0.0,1.1492903,-5.3372147e-05,6.362885e-05,0.0,-0.0847962,0.1855848,0.439707,0.005250364,-0.010748595,0.012814189,0.0,0.50386643,0.73814,-0.5196998,-1.4346604,-0.12893043,0.0,0.1,4.8030205,0.5656435,1.2631902,0.1568138,inf,inf,inf,inf,0,1,0,1,1,0,1,0,2,0,0,0
26520602,0,0.0,0.0,0.0,0.0,1.141408,-5.3372147e-05,6.362885e-05,0.0,-0.06202929,0.22519504,0.34295845,-0.0925085,-0.010748595,0.012814189,0.0,0.5111214,1.9403155,-1.5312968,-1.4316549,-0.12893043,0.0,0.1,4.654249,0.56380534,1.215528,0.15599,inf,inf,inf,inf,0,1,0,1,1,0,1,0,2,0,0,0
26619916,0,0.0,0.0,0.0,0.0,1.119322,-5.3372147e-05,6.362885e-05,0.0,-0.031321067,0.24421373,0.23328903,-0.20685135,-0.010748595,0.012814189,0.0,0.15055396,1.8370155,-2.4571252,-1.4288251,-0.12893043,0.0,0.1,4.7736,0.5620164,1.2358778,0.15533046,inf,inf,inf,inf,0,1,0,1,1,0,1,0,2,0,0,0
26719240,0,0.0,0.0,0.0,0.0,1.0867798,-5.3372147e-05,6.362885e-05,0.0,-0.02584512,0.24971779,0.13221398,-0.31233424,-0.010748595,0.012814189,0.0,0.12853813,1.1392597,-0.72450477,-1.427041,-0.12893043,0.0,0.1,4.625741,0.5602191,1.1913636,0.1547031,inf,inf,inf,inf,0,1,0,1,1,0,1,0,2,0,0,0
26818549,0,0.0,0.0,0.0,0.0,1.0465231,-5.3372147e-05,6.362885e-05,0.0,-0.025588626,0.24527268,0.04072241,-0.40517244,-0.010748595,0.012814189,0.0,1.4664559,-0.47939515,-0.46144772,-1.4315218,-0.12893043,0.0,0.13066232,4.742457,0.5584493,1.2117954,0.15417567,inf,inf,inf,inf,0,1,0,1,1,0,1,0,2,0,0,0
26917877,0,0.0,0.0,0.0,0.0,1.001799,-5.3372147e-05,6.362885e-05,0.0,-0.029948566,0.20227598,0.041655995,-0.40588638,-0.010748595,0.012814189,0.0,-0.055016164,-0.83499575,1.0966442,-1.440582,-0.12893043,0.0,0.17538643,4.861174,0.5567215,1.2326312,0.15364222,inf,inf,inf,inf,0,1,0,1,1,0,1,0,2,0,0,0
27017311,0,0.0,0.0,0.0,0.0,0.96247816,-5.3372147e-05,6.362885e-05,0.0,-0.053036705,0.13806559,0.07309113,-0.3729456,-0.010748595,0.012814189,0.0,0.096780665,-1.8793977,1.3015947,-1.4546186,-0.12893043,0.0,0.21470726,4.7101274,0.55498844,1.1885091,0.1530226,inf,inf,inf,inf,0,1,0,1,1,0,1,0,2,0,0,0
27116497,0,0.0,0.0,0.0,0.0,0.9298325,-5.3372147e-05,6.362885e-05,0.0,-0.101584606,0.07961922,0.11133949,-0.32982945,-0.010748595,0.012814189,0.0,-1.5309554,-0.6226198,0.71420705,-1.471155,-0.12893043,0.0,0.2473529,4.8261476,0.560348,1.2068348,0.1535359,inf,inf,inf,inf,0,1,0,1,1,0,1,0,2,0,0,0
27215813,0,0.0,0.0,0.0,0.0,0.9018234,-5.3372147e-05,6.362885e-05,0.0,-0.11750239,-0.03856012,0.1900087,-0.24851723,-0.010748595,0.012814189,0.0,0.4373385,-1.7505997,2.070112,-1.4874977,-0.12893043,0.0,0.275362,4.6766458,0.5586096,1.1631833,0.1527703,inf,inf,inf,inf,0,1,0,1,1,0,1,0,2,0,0,0
27315129,0,0.0,0.0,0.0,0.0,0.880668,-5.3372147e-05,6.362885e-05,0.0,-0.1675454,-0.12456881,0.25283036,-0.18405685,-0.010748595,0.012814189,0.0,-0.8115603,-1.2690083,1.0362992,-1.5048994,-0.12893043,0.0,0.29651743,4.789838,0.5568794,1.1804678,0.15194026,inf,inf,inf,inf,0,1,0,1,1,0,1,0,2,0,0,0
27424377,0,0.0,0.0,0.0,0.0,0.8637069,-5.3372147e-05,6.362885e-05,0.0,-0.1614523,-0.19562796,0.30819553,-0.12707733,-0.010748595,0.012814189,0.0,-0.5247751,-0.23724656,-0.4858101,-1.522196,-0.12893043,0.0,0.31347853,4.6530595,0.5563858,1.1394215,0.1512566,inf,inf,inf,inf,0,1,0,1,1,0,1,0,2,0,0,0
27513762,0,0.0,0.0,0.0,0.0,0.8528094,-5.3372147e-05,6.362885e-05,0.0,-0.153518,-0.27107564,0.34086105,-0.0943412,-0.010748595,0.012814189,0.0,-0.28326073,-0.6891614,0.82537,-1.5287158,-0.12893043,0.0,0.324376,4.752492,0.55343634,1.1545913,0.15020052,inf,inf,inf,inf,0,1,0,1,1,0,1,0,2,0,0,0
27618042,0,0.0,0.0,0.0,0.0,0.8400615,-5.3372147e-05,6.362885e-05,0.0,-0.12256277,-0.3011039,0.32150593,-0.116448864,-0.010748595,0.012814189,0.0,-0.2563581,-0.28531146,0.023981227,-1.5329368,-0.12893043,0.0,0.33712393,4.6067605,0.551723,1.1141711,0.14932337,inf,inf,inf,inf,0,1,0,1,1,0,1,0,2,0,0,0
27717360,0,0.0,0.0,0.0,0.0,0.82198423,-5.3372147e-05,6.362885e-05,0.0,-0.054938365,-0.32909593,0.29307774,-0.1480303,-0.010748595,0.012814189,0.0,2.100339,-2.027014,1.5536765,-1.5358336,-0.12893043,0.0,0.35520118,4.714536,0.55001575,1.1313307,0.14875118,inf,inf,inf,inf,0,1,0,1,1,0,1,0,2,0,0,0
27816769,0,0.0,0.0,0.0,0.0,0.8023447,-5.3372147e-05,6.362885e-05,0.0,0.01494758,-0.33238316,0.24113554,-0.19950269,-0.010748595,0.012814189,0.0,1.8594272,-0.73027486,0.29794112,-1.5371087,-0.12893043,0.0,0.37484074,4.5722194,0.5483685,1.0950024,0.14821634,inf,inf,inf,inf,0,1,0,1,1,0,1,0,2,0,0,0
27915988,0,0.0,0.0,0.0,0.0,0.77935684,-5.3372147e-05,6.362885e-05,0.0,0.07760709,-0.33634192,0.17575242,-0.26248556,-0.010748595,0.012814189,0.0,0.24052139,-0.6207584,-0.7239,-1.5379285,-0.12893043,0.0,0.39782858,4.677741,0.5535554,1.1127608,0.14874762,inf,inf,inf,inf,0,1,0,1,1,0,1,0,2,0,0,0
28015309,0,0.0,0.0,0.0,0.0,0.74859273,-5.3372147e-05,6.362885e-05,0.0,0.1557438,-0.34013924,0.113397926,-0.32445124,-0.010748595,0.012814189,0.0,1.6254581,1.3999735,-0.9305305,-1.5384,-0.12893043,0.0,0.42859268,4.5377846,0.55188,1.0779272,0.14804326,inf,inf,inf,inf,0,1,0,1,1,0,1,0,2,0,0,0
28119590,0,0.0,0.0,0.0,0.0,0.7074083,-5.3372147e-05,6.362885e-05,0.0,0.23144132,-0.3512654,0.048096973,-0.39385715,-0.010748595,0.012814189,0.0,-0.28039387,-1.1286618,0.66078985,-1.5395689,-0.12893043,0.0,0.4697771,4.641176,0.55021125,1.0960963,0.14736846,inf,inf,inf,inf,0,1,0,1,1,0,1,0,2,0,0,0
28218955,0,0.0,0.0,0.0,0.0,0.6597565,-5.3372147e-05,6.362885e-05,0.0,0.2946069,-0.348416,-0.0038456866,-0.4494711,-0.010748595,0.012814189,0.0,-0.13973674,0.8311398,-0.031081349,-1.5400218,-0.12893043,0.0,0.51742893,4.504685,0.5485645,1.0633798,0.1466763,inf,inf,inf,inf,0,1,0,1,1,0,1,0,2,0,0,0
28318223,0,0.0,0.0,0.0,0.0,0.60862833,-5.3372147e-05,6.362885e-05,0.0,0.32558176,-0.3568841,-0.00089604966,-0.4503681,-0.010748595,0.012814189,0.0,0.18136193,0.55969816,-0.6048489,-1.5402613,-0.12893043,0.0,0.5685571,4.6061416,0.54692316,1.0823681,0.14613114,inf,inf,inf,inf,0,1,0,1,1,0,1,0,2,0,0,0
28417553,0,0.0,0.0,0.0,0.0,0.55865943,-5.3372147e-05,6.362885e-05,0.0,0.3351682,-0.36233813,0.049676254,-0.40467042,-0.010748595,0.012814189,0.0,0.35060474,-0.14328668,1.1434503,-1.541621,-0.12893043,0.0,0.618526,4.472026,0.54534155,1.0508726,0.14553311,inf,inf,inf,inf,0,1,0,1,1,0,1,0,2,0,0,0
28516855,0,0.0,0.0,0.0,0.0,0.51508194,-5.3372147e-05,6.362885e-05,0.0,0.31548738,-0.36255687,0.08444756,-0.3728212,-0.010748595,0.012814189,0.0,-2.7457662,1.1001078,-0.43337047,-1.5428784,-0.12893043,0.0,0.6621035,4.5716157,0.54376215,1.0673997,0.14494742,inf,inf,inf,inf,0,1,0,1,1,0,1,0,2,0,0,0
28616236,0,0.0,0.0,0.0,0.0,0.475065,-5.3372147e-05,6.362885e-05,0.0,0.25760037,-0.37014684,0.102267876,-0.3568467,-0.010748595,0.012814189,0.0,-0.3770911,-1.3118339,0.7392371,-1.5442948,-0.12893043,0.0,0.7021204,4.4397035,0.5488255,1.0357465,0.1452866,inf,inf,inf,inf,0,1,0,1,1,0,1,0,2,0,0,0
28715488,0,0.0,0.0,0.0,0.0,0.43458495,-5.3372147e-05,6.362885e-05,0.0,0.1895872,-0.37188655,0.10984586,-0.3524873,-0.010748595,0.012814189,0.0,-2.418632,0.6219071,0.26389766,-1.5467201,-0.12893043,0.0,0.74260044,4.5373464,0.5471994,1.0519558,0.14463726,inf,inf,inf,inf,0,1,0,1,1,0,1,0,2,0,0,0
28824735,0,0.0,0.0,0.0,0.0,0.39518267,-5.3372147e-05,6.362885e-05,0.0,0.10302413,-0.37624362,0.11785072,-0.34369072,-0.010748595,0.012814189,0.0,1.0045799,-0.27294225,0.25286806,-1.5489788,-0.12893043,0.0,0.78200275,4.417175,0.5467654,1.0243745,0.14417328,inf,inf,inf,inf,0,1,0,1,1,0,1,0,2,0,0,0
28914326,0,0.0,0.0,0.0,0.0,0.36528602,-5.3372147e-05,6.362885e-05,0.0,0.022876084,-0.37147585,0.12371677,-0.3357518,-0.010748595,0.012814189,0.0,-1.2656786,0.8800034,-0.40119013,-1.5502292,-0.12893043,0.0,0.8118994,4.5035295,0.54399997,1.0392278,0.14348646,inf,inf,inf,inf,0,1,0,1,1,0,1,0,2,0,0,0
29018402,0,0.0,0.0,0.0,0.0,0.33113566,-5.3372147e-05,6.362885e-05,0.0,-0.07131004,-0.36732158,0.11962949,-0.33966738,-0.010748595,0.012814189,0.0,-1.9173088,1.8817774,-2.1861956,-1.5516481,-0.12893043,0.0,0.8460498,4.377036,0.54242975,1.0118473,0.14297462,inf,inf,inf,inf,0,1,0,1,1,0,1,0,2,0,0,0
29117719,0,0.0,0.0,0.0,0.0,0.29495054,-5.3372147e-05,6.362885e-05,0.0,-0.1564303,-0.36821842,0.12022588,-0.33964044,-0.010748595,0.012814189,0.0,-1.18355,0.12712835,0.49223992,-1.5527341,-0.12893043,0.0,0.8822349,4.4713078,0.5408955,1.0294836,0.14263505,inf,inf,inf,inf,0,1,0,1,1,0,1,0,2,0,0,0
29217034,0,0.0,0.0,0.0,0.0,0.2584323,-5.3372147e-05,6.362885e-05,0.0,-0.23697856,-0.36861172,0.11348433,-0.3460394,-0.010748595,0.012814189,0.0,-0.600672,-0.2715788,-0.29559776,-1.55219,-0.12893043,0.0,0.91875315,4.347052,0.5393694,1.0037392,0.14225629,inf,inf,inf,inf,0,1,0,1,1,0,1,0,2,0,0,0
29316351,0,0.0,0.0,0.0,0.0,0.22146766,-5.3372147e-05,6.362885e-05,0.0,-0.32803872,-0.35566598,0.10511426,-0.35438356,-0.010748595,0.012814189,0.0,-2.8796186,1.8639491,-1.663954,-1.552025,-0.12893043,0.0,0.95571774,4.439892,0.5443448,1.020628,0.14293729,inf,inf,inf,inf,0,1,0,1,1,0,1,0,2,0,0,0
29415692,0,0.0,0.0,0.0,0.0,0.18452016,-5.3372147e-05,6.362885e-05,0.0,-0.40045178,-0.35949066,0.10689759,-0.35233635,-0.010748595,0.012814189,0.0,-0.9884012,-0.9477345,0.92775655,-1.5523417,-0.12893043,0.0,0.9926653,4.3178167,0.5427738,0.9962999,0.1425545,inf,inf,inf,inf,0,1,0,1,1,0,1,0,2,0,0,0
29514985,0,0.0,0.0,0.0,0.0,0.14689967,-5.3372147e-05,6.362885e-05,0.0,-0.48046443,-0.34777275,0.09786405,-0.3614631,-0.010748595,0.012814189,0.0,-1.0753466,0.3890188,-0.2439098,-1.5519003,-0.12893043,0.0,1.0302857,4.409309,0.5412149,1.0134506,0.1422039,inf,inf,inf,inf,0,1,0,1,1,0,1,0,2,0,0,0
29614351,0,0.0,0.0,0.0,0.0,0.10839421,-5.3372147e-05,6.362885e-05,0.0,-0.55113715,-0.3374804,0.09196768,-0.36785868,-0.010748595,0.012814189,0.0,-1.8392982,0.2639194,-0.41140524,-1.5532682,-0.12893043,0.0,1.0687912,4.5024033,0.53966254,1.0307373,0.14178538,inf,inf,inf,inf,0,1,0,1,1,0,1,0,2,0,0,0
29713775,0,0.0,0.0,0.0,0.0,0.068415575,-5.3372147e-05,6.362885e-05,0.0,-0.6018502,-0.3300499,0.089054115,-0.37217462,-0.010748595,0.012814189,0.0,-0.8970024,-1.08218,0.68675077,-1.5547556,-0.12893043,0.0,1.1087699,4.37966,0.5381424,1.0076109,0.14140199,inf,inf,inf,inf,0,1,0,1,1,0,1,0,2,0,0,0
29817922,0,0.0,0.0,0.0,0.0,0.02994001,-5.3372147e-05,6.362885e-05,0.0,-0.59649754,-0.31783915,0.10182505,-0.35990915,-0.010748595,0.012814189,0.0,1.8930773,-0.8887756,0.9436096,-1.5569354,-0.12893043,0.0,1.1472454,4.47154,0.5430785,1.0251026,0.14208376,inf,inf,inf,inf,0,1,0,1,1,0,1,0,2,0,0,0
29917213,0,0.0,0.0,0.0,0.0,-0.007840943,-5.3372147e-05,6.362885e-05,0.0,-0.5613216,-0.3010088,0.1230365,-0.3396182,-0.010748595,0.012814189,0.0,-1.262776,0.56040937,0.080879554,-1.5599468,-0.12893043,0.0,1.1850264,4.3518724,0.54154015,1.0045375,0.14160845,inf,inf,inf,inf,0,1,0,1,1,0,1,0,2,0,0,0
30016530,0,0.0,0.0,0.0,0.0,-0.046849933,-5.3372147e-05,6.362885e-05,0.0,-0.4518011,-0.28839028,0.1515773,-0.3149099,-0.010748595,0.012814189,0.0,1.7294002,-0.06278657,0.9352083,-1.5619655,-0.12893043,0.0,1.2240354,4.442716,0.5400555,1.021653,0.14082049,inf,inf,inf,inf,0,1,0,1,1,0,1,0,2,0,0,0
30115846,0,0.0,0.0,0.0,0.0,-0.08091398,-5.3372147e-05,6.362885e-05,0.0,-0.3080809,-0.28271002,0.21107028,-0.25878352,-0.010748595,0.012814189,0.0,1.5874864,0.39215055,0.33804488,-1.5636489,-0.12893043,0.0,1.2580994,4.32512,0.5385564,1.0004808,0.14003956,inf,inf,inf,inf,0,1,0,1,1,0,1,0,2,0,0,0
30215216,0,0.0,0.0,0.0,0.0,-0.10866729,-5.3372147e-05,6.362885e-05,0.0,-0.13032569,-0.26927814,0.28612494,-0.18713057,-0.010748595,0.012814189,0.0,1.4683174,0.24081855,0.7086449,-1.5635631,-0.12893043,0.0,1.2858527,4.4149337,0.53704405,1.0173432,0.13904722,inf,inf,inf,inf,0,1,0,1,1,0,1,0,2,0,0,0
30319442,0,0.0,0.0,0.0,0.0,-0.12667634,-5.3372147e-05,6.362885e-05,0.0,0.06860833,-0.25809807,0.36964595,-0.10684639,-0.010748595,0.012814189,0.0,2.0368502,0.9426389,0.46822587,-1.5629058,-0.12893043,0.0,1.3038617,4.299262,0.53553486,0.9962005,0.13823259,inf,inf,inf,inf,0,1,0,1,1,0,1,0,2,0,0,0
30418767,0,0.0,0.0,0.0,0.0,-0.13559717,-5.3372147e-05,6.362885e-05,0.0,0.24456705,-0.25365335,0.45370117,-0.02348596,-0.010748595,0.012814189,0.0,1.4278339,-0.43526047,1.6102692,-1.5617393,-0.12893043,0.0,1.3127825,4.3880634,0.5340094,1.0121137,0.13709326,inf,inf,inf,inf,0,1,0,1,1,0,1,0,2,0,0,0
30518278,0,0.0,0.0,0.0,0.0,-0.138171,-5.3372147e-05,6.362885e-05,0.0,0.38438419,-0.23624277,0.52551603,0.047246333,-0.010748595,0.012814189,0.0,-1.4316103,0.7287494,-0.14207646,-1.5610416,-0.12893043,0.0,1.3153564,4.2750235,0.53247714,0.99307954,0.13611223,inf,inf,inf,inf,0,1,0,1,1,0,1,0,2,0,0,0
30617393,0,0.0,0.0,0.0,0.0,-0.13418531,-5.3372147e-05,6.362885e-05,0.0,0.511448,-0.23013945,0.5874599,0.10770516,-0.010748595,0.012814189,0.0,0.47004032,0.6328092,-1.295795,-1.5597736,-0.12893043,0.0,1.3113707,4.3629513,0.53719443,1.0091609,0.13628696,inf,inf,inf,inf,0,1,0,1,1,0,1,0,2,0,0,0
30716710,0,0.0,0.0,0.0,0.0,-0.1241318,-5.3372147e-05,6.362885e-05,0.0,0.5973321,-0.21746355,0.6411743,0.16018888,-0.010748595,0.012814189,0.0,2.0074565,-0.47131252,1.6514769,-1.561625,-0.12893043,0.0,1.3013172,4.2515955,0.53561485,0.98979247,0.13535945,inf,inf,inf,inf,0,1,0,1,1,0,1,0,2,0,0,0
30820991,0,0.0,0.0,0.0,0.0,-0.10735626,-5.3372147e-05,6.362885e-05,0.0,0.60708547,-0.2016721,0.67162913,0.18902196,-0.010748595,0.012814189,0.0,0.60943323,-1.9129759,1.7341807,-1.5641476,-0.12893043,0.0,1.2845417,4.338705,0.5340216,1.0066504,0.13458762,inf,inf,inf,inf,0,1,0,1,1,0,1,0,2,0,0,0
30920311,0,0.0,0.0,0.0,0.0,-0.09244311,-5.3372147e-05,6.362885e-05,0.0,0.61573786,-0.17084703,0.675072,0.19034871,-0.010748595,0.012814189,0.0,-1.0608888,0.95142704,-1.2787367,-1.5676793,-0.12893043,0.0,1.2696285,4.2297873,0.53243834,0.9892099,0.13394497,inf,inf,inf,inf,0,1,0,1,1,0,1,0,2,0,0,0
31019624,0,0.0,0.0,0.0,0.0,-0.079870835,-5.3372147e-05,6.362885e-05,0.0,0.5569673,-0.15265517,0.68326813,0.19425642,-0.010748595,0.012814189,0.0,-0.2576358,0.49873903,0.97420454,-1.5725374,-0.12893043,0.0,1.2570562,4.3163066,0.53089285,1.0083971,0.13354042,inf,inf,inf,inf,0,1,0,1,1,0,1,0,2,0,0,0
31118940,0,0.0,0.0,0.0,0.0,-0.07073647,-5.3372147e-05,6.362885e-05,0.0,0.49120966,-0.12882037,0.6477908,0.15294667,-0.010748595,0.012814189,0.0,0.04119143,1.2287856,-1.0325859,-1.5765432,-0.12893043,0.0,1.247922,4.2090955,0.52936906,0.99304426,0.13300796,inf,inf,inf,inf,0,1,0,1,1,0,1,0,2,0,0,0
31218257,0,0.0,0.0,0.0,0.0,-0.06752874,-5.3372147e-05,6.362885e-05,0.0,0.39648002,-0.10430384,0.5668774,0.066392615,-0.010748595,0.012814189,0.0,1.1212035,0.7593196,-1.1437707,-1.5806651,-0.12893043,0.0,1.2447141,4.295227,0.52786326,1.011664,0.1327075,inf,inf,inf,inf,0,1,0,1,1,0,1,0,2,0,0,0
31317688,0,0.0,0.0,0.0,0.0,-0.0743819,-5.3372147e-05,6.362885e-05,0.0,0.29281324,-0.09038863,0.4729913,-0.03378418,-0.010748595,0.012814189,0.0,0.18041804,-0.19993763,-0.22652952,-1.5838549,-0.12893043,0.0,1.2515674,4.1896677,0.53244674,0.9986826,0.13345648,inf,inf,inf,inf,0,1,0,1,1,0,1,0,2,0,0,0
31416896,0,0.0,0.0,0.0,0.0,-0.08923216,-5.3372147e-05,6.362885e-05,0.0,0.18499109,-0.078633785,0.38503668,-0.12636605,-0.010748595,0.012814189,0.0,-2.3504632,-0.49824864,-0.07305331,-1.5857183,-0.12893043,0.0,1.2664176,4.2756367,0.5309312,1.0202674,0.13344033,inf,inf,inf,inf,0,1,0,1,1,0,1,0,2,0,0,0
31516205,0,0.0,0.0,0.0,0.0,-0.111819334,-5.3372147e-05,6.362885e-05,0.0,0.079799935,-0.064914405,0.29976508,-0.21498966,-0.010748595,0.012814189,0.0,-2.1740623,-0.44020033,0.08654878,-1.586512,-0.12893043,0.0,1.2890048,4.171814,0.5294409,1.009126,0.13345478,inf,inf,inf,inf,0,1,0,1,1,0,1,0,2,0,0,0
31615521,0,0.0,0.0,0.0,0.0,-0.14049642,-5.3372147e-05,6.362885e-05,0.0,-0.017423553,-0.04913966,0.19926384,-0.31591445,-0.010748595,0.012814189,0.0,-0.66401035,0.2991579,-1.1997423,-1.5861783,-0.12893043,0.0,1.3176818,4.2578607,0.52799153,1.0311469,0.13353668,inf,inf,inf,inf,0,1,0,1,1,0,1,0,2,0,0,0
31714837,0,0.0,0.0,0.0,0.0,-0.18283646,-5.3372147e-05,6.362885e-05,0.0,-0.111581825,-0.03507329,0.07564584,-0.442799,-0.010748595,0.012814189,0.0,0.11488108,0.38422686,-1.8795365,-1.5852829,-0.12893043,0.0,1.3600218,4.1556706,0.5265887,1.0207623,0.1336205,inf,inf,inf,inf,0,1,0,1,1,0,1,0,2,0,0,0
31824086,0,0.0,0.0,0.0,0.0,-0.24338338,-5.3372147e-05,6.362885e-05,0.0,-0.16315065,-0.024170931,-0.06784382,-0.5883372,-0.010748595,0.012814189,0.0,0.31348085,-1.9841003,0.35644853,-1.5854614,-0.12893043,0.0,1.4205688,4.250672,0.5262852,1.0461621,0.13399108,inf,inf,inf,inf,0,1,0,1,1,0,1,0,2,0,0,0
31918436,0,0.0,0.0,0.0,0.0,-0.3035173,-5.3372147e-05,6.362885e-05,0.0,-0.20364553,-0.0112879,-0.18462677,-0.7044188,-0.010748595,0.012814189,0.0,0.6962868,-1.1682789,0.7990859,-1.5852602,-0.12893043,0.0,1.4807028,4.1420364,0.5298683,1.035354,0.13479671,inf,inf,inf,inf,0,1,0,1,1,0,1,0,2,0,0,0
32017759,0,0.0,0.0,0.0,0.0,-0.38102552,-5.3372147e-05,6.362885e-05,0.0,-0.18748578,-0.00085383595,-0.26453108,-0.78560513,-0.010748595,0.012814189,0.0,-0.5102288,-0.5056777,-1.241913,-1.5846522,-0.12893043,0.0,1.558211,4.2287474,0.5285285,1.059642,0.13457684,inf,inf,inf,inf,0,1,0,1,1,0,1,0,2,0,0,0
32117206,0,0.0,0.0,0.0,0.0,-0.46254963,-5.3372147e-05,6.362885e-05,0.0,-0.121681206,0.0012098282,-0.25687525,-0.77794033,-0.010748595,0.012814189,0.0,-0.5995008,-1.1669905,1.2655385,-1.5841274,-0.12893043,0.0,1.639735,4.1303015,0.5272248,1.0529643,0.13472278,inf,inf,inf,inf,0,1,0,1,1,0,1,0,2,0,0,0
32216385,0,0.0,0.0,0.0,0.0,-0.538533,-5.3372147e-05,6.362885e-05,0.0,-0.067183234,0.0139210895,-0.14463478,-0.6663011,-0.010748595,0.012814189,0.0,0.064310916,0.099404156,0.6998381,-1.5828226,-0.12893043,0.0,1.7157184,4.217633,0.5259684,1.0751355,0.13409589,inf,inf,inf,inf,0,1,0,1,1,0,1,0,2,0,0,0
32315701,0,0.0,0.0,0.0,0.0,-0.6006083,-5.3372147e-05,6.362885e-05,0.0,0.023220994,0.017044127,0.045982312,-0.47850987,-0.010748595,0.012814189,0.0,-0.7631413,0.73362345,1.0163755,-1.5813537,-0.12893043,0.0,1.7777936,4.120242,0.5247035,1.062022,0.13343541,inf,inf,inf,inf,0,1,0,1,1,0,1,0,2,0,0,0
32415017,0,0.0,0.0,0.0,0.0,-0.64331126,-5.3372147e-05,6.362885e-05,0.0,0.12595317,0.023307512,0.23735186,-0.28985637,-0.010748595,0.012814189,0.0,-0.33783364,1.4620286,0.8833881,-1.5920404,-0.011473478,0.0,1.8204967,4.2076154,0.5234394,1.0639104,0.13264923,inf,inf,inf,inf,0,1,0,1,1,0,1,0,3,0,0,0
32524265,0,0.0,0.0,0.0,0.0,-0.6701144,-5.3372147e-05,6.362885e-05,0.0,0.24600103,0.03438287,0.4311387,-0.09985022,-0.010748595,0.012814189,0.0,1.5730736,0.47951776,1.4360203,-1.5901287,-0.011473478,0.0,1.8472998,4.1179852,0.52314335,1.0200824,0.13198599,inf,inf,inf,inf,0,1,0,1,1,0,1,0,3,0,0,0
32613649,0,0.0,0.0,0.0,0.0,-0.67907107,-5.3372147e-05,6.362885e-05,0.0,0.35135013,0.07381574,0.5062934,-0.02678437,-0.010748595,0.012814189,0.0,2.4808247,-0.26776043,1.4772543,-1.5842096,-0.011473478,0.0,1.8562565,4.1942105,0.52661663,1.0118865,0.132447,inf,inf,inf,inf,0,1,0,1,1,0,1,0,3,0,0,0
32717932,0,0.0,0.0,0.0,0.0,-0.6837494,-5.3372147e-05,6.362885e-05,0.0,0.47229216,0.12732913,0.5022326,-0.033202607,-0.010748595,0.012814189,0.0,0.40888926,-0.4211418,1.0796663,-1.5771074,-0.011473478,0.0,1.8609347,4.2792196,0.52516073,1.0045555,0.13258092,inf,inf,inf,inf,0,1,0,1,1,0,1,0,3,0,0,0
32817249,0,0.0,0.0,0.0,0.0,-0.69209546,-5.3372147e-05,6.362885e-05,0.0,0.611139,0.18797348,0.4606958,-0.075627565,-0.010748595,0.012814189,0.0,0.81301945,-1.0388128,0.1750195,-1.5762401,-0.011473478,0.0,1.8692808,4.176797,0.52365303,0.9691308,0.133146,inf,inf,inf,inf,0,1,0,1,1,0,1,0,3,0,0,0
32916603,0,0.0,0.0,0.0,0.0,-0.70487064,-5.3372147e-05,6.362885e-05,0.0,0.7413601,0.2659549,0.40815642,-0.12815481,-0.010748595,0.012814189,0.0,2.1683395,0.3278822,-0.9599625,-1.5807769,-0.011473478,0.0,1.882056,4.2587595,0.5221586,0.9681508,0.13419007,inf,inf,inf,inf,0,1,0,1,1,0,1,0,3,0,0,0
33015881,0,0.0,0.0,0.0,0.0,-0.7207922,-5.3372147e-05,6.362885e-05,0.0,0.86886847,0.33784142,0.3652455,-0.16927461,-0.010748595,0.012814189,0.0,1.2932506,0.7237629,-0.5602009,-1.5859222,-0.011473478,0.0,1.8979776,4.1553445,0.5264856,0.940313,0.13641313,inf,inf,inf,inf,0,1,0,1,1,0,1,0,3,0,0,0
33115202,0,0.0,0.0,0.0,0.0,-0.7437705,-5.3372147e-05,6.362885e-05,0.0,0.98203003,0.39066198,0.3160278,-0.21931249,-0.010748595,0.012814189,0.0,0.27766845,-0.6562377,1.0592331,-1.5915643,-0.011473478,0.0,1.9209559,4.2344303,0.52494633,0.945001,0.13831353,inf,inf,inf,inf,0,1,0,1,1,0,1,0,3,0,0,0
33214701,0,0.0,0.0,0.0,0.0,-0.77002376,-5.3372147e-05,6.362885e-05,0.0,1.0723814,0.42566657,0.3018626,-0.23464522,-0.010748595,0.012814189,0.0,0.900196,-1.3343167,1.1509879,-1.5976547,-0.011473478,0.0,1.9472091,4.1306963,0.5234059,0.9244455,0.14064775,inf,inf,inf,inf,0,1,0,1,1,0,1,0,3,0,0,0
33318801,33318801,34.0347399,108.757311,0.0,0.0,-0.79522586,-5.3372147e-05,6.362885e-05,0.0,1.1036369,0.4929826,0.29546416,-0.24207585,-0.010748595,0.012814189,0.0,0.70306724,0.17185415,-0.4635111,-1.601979,-0.011473478,426.3826,1.9724113,4.2072034,0.5219767,0.93484855,0.1433127,inf,inf,inf,inf,0,1,0,1,1,0,1,0,3,1,1,0
33418112,33318801,34.0347399,108.757311,0.24931087,0.0949248,-0.86910826,-0.5816318,-0.0018339619,0.0,0.549928,-0.107823245,-0.66880363,-1.2067659,-0.55203843,-0.6771984,-0.953158,-1.4607116,1.7426213,-1.9315772,-1.6072364,-0.0011705331,426.3826,2.0462937,0.9870472,0.5166157,0.24211866,0.18820845,inf,inf,inf,inf,1,1,1,1,2,0,2,1,4,1,1,0
33517428,33318801,34.0347399,108.757311,0.2713011,0.067815624,-1.0245126,-0.5816318,-0.0018339619,0.0,0.485014,-0.050005917,-0.6709564,-1.2092954,-0.55203843,-0.6771984,-0.953158,-0.90042555,0.8573331,-0.7626711,-1.6104221,-0.0011705331,426.3826,2.201698,0.9875884,0.5063244,0.25164935,0.1887361,inf,inf,inf,inf,1,1,1,1,2,0,2,1,4,1,1,0
33616792,33318801,34.0347399,108.757311,0.2792149,0.041014627,-1.1891419,-0.5816318,-0.0018339619,0.0,0.39956018,0.040284187,-0.6703129,-1.2068048,-0.55203843,-0.6771984,-0.953158,-1.225423,1.9903947,-0.2877205,-1.612736,-0.0011705331,426.3826,2.3663273,0.8053553,0.49696988,0.22973645,0.17464878,inf,inf,inf,inf,1,1,1,1,2,0,2,1,4,1,1,0
33716120,33318801,34.0347399,108.757311,0.283306,0.033661366,-1.3388214,-0.5816318,-0.0018339619,0.0,0.2882046,0.12963739,-0.66149276,-1.1956478,-0.55203843,-0.6771984,-0.953158,-1.3635318,2.2056334,-0.81525344,-1.614911,-0.0011705331,426.3826,2.516007,0.8067431,0.4888591,0.2530427,0.17553079,inf,inf,inf,inf,1,1,1,1,2,0,2,1,4,1,1,0
33820343,33318801,34.0347399,108.757311,0.2821205,0.03997916,-1.4715953,-0.5816318,-0.0018339619,0.0,0.17400047,0.19113615,-0.5834604,-1.1102587,-0.55203843,-0.6771984,-0.953158,-1.3863493,1.7996339,0.27866754,-1.6166289,-0.0011705331,426.3826,2.6487808,0.697369,0.48555097,0.23842126,0.16453533,inf,inf,inf,inf,1,1,1,1,2,0,2,1,4,1,1,0
33919659,33318801,34.0347399,108.757311,0.27302623,0.05288751,-1.5782279,-0.5816318,-0.0018339619,0.0,0.06884067,0.23363711,-0.47518662,-0.99029446,-0.55203843,-0.6771984,-0.953158,-2.019598,2.2180374,-0.12178691,-1.617799,-0.0011705331,426.3826,2.7554133,0.69967,0.47886732,0.2679492,0.16585879,inf,inf,inf,inf,1,1,1,1,2,0,2,1,4,1,1,0
34019198,33318801,34.0347399,108.757311,0.2618257,0.06853124,-1.6620543,-0.5816318,-0.0018339619,0.0,-0.0044151912,0.24730597,-0.34800825,-0.8456075,-0.55203843,-0.6771984,-0.953158,1.4835156,-0.43936586,2.4420378,-1.618248,-0.0011705331,426.3826,2.8392396,0.6244346,0.471799,0.24946463,0.15689085,inf,inf,inf,inf,1,1,1,1,2,0,2,1,4,1,1,0
34123258,33318801,34.0347399,108.757311,0.2494767,0.08584571,-1.7303076,-0.5816318,-0.0018339619,0.0,-0.079773046,0.2520671,-0.2322187,-0.7128946,-0.55203843,-0.6771984,-0.953158,-1.2318541,-0.56098753,1.6561369,-1.6177119,-0.0011705331,426.3826,2.907493,0.6277521,0.46642968,0.27755663,0.15842576,inf,inf,inf,inf,1,1,1,1,2,0,2,1,4,1,1,0
34212642,33318801,34.0347399,108.757311,0.234585,0.099694416,-1.7769476,-0.5816318,-0.0018339619,0.0,-0.117998816,0.2617993,-0.14022753,-0.60507226,-0.55203843,-0.6771984,-0.953158,-0.024155583,0.26761067,1.2374249,-1.6161057,-0.0011705331,426.3826,2.954133,0.5711011,0.45986637,0.25046957,0.15067549,inf,inf,inf,inf,1,1,1,1,2,0,2,1,4,1,1,0
34321892,33318801,34.0347399,108.757311,0.21287419,0.11411574,-1.8161117,-0.5816318,-0.0018339619,0.0,-0.1511211,0.2513375,-0.016889242,-0.46008533,-0.55203843,-0.6771984,-0.953158,-1.7856698,-0.65246856,1.176666,-1.6139617,-0.0011705331,426.3826,2.993297,0.57569975,0.45589182,0.27917832,0.1525965,inf,inf,inf,inf,1,1,1,1,2,0,2,1,4,1,1,0
34421209,33318801,34.0347399,108.757311,0.19177881,0.12697954,-1.8373648,-0.5816318,-0.0018339619,0.0,-0.1689529,0.23902571,0.084885806,-0.3394013,-0.55203843,-0.6771984,-0.953158,0.35066295,-2.1222663,1.8531965,-1.6103008,-0.0011705331,426.3826,3.0145502,0.53110105,0.45033547,0.25206402,0.14609346,inf,inf,inf,inf,1,1,1,1,2,0,2,1,4,1,1,0
34520524,33318801,34.0347399,108.757311,0.1708004,0.14009292,-1.8468568,-0.5816318,-0.0018339619,0.0,-0.16711976,0.2359401,0.16551162,-0.2399293,-0.55203843,-0.6771984,-0.953158,1.2257137,0.32766226,-0.050112955,-1.6056811,-0.0011705331,426.3826,3.0240421,0.53621036,0.45058215,0.27591836,0.1481311,inf,inf,inf,inf,1,1,1,1,2,0,2,1,4,1,1,0
34619839,33318801,34.0347399,108.757311,0.1523269,0.153236,-1.8449208,-0.5816318,-0.0018339619,0.0,-0.15954356,0.23476659,0.24343172,-0.1422969,-0.55203843,-0.6771984,-0.953158,-0.4586053,1.1427068,0.27768034,-1.6008036,-0.0011705331,426.3826,3.0221062,0.49924156,0.44542617,0.24760522,0.14251408,inf,inf,inf,inf,1,1,1,1,2,0,2,1,4,1,1,0
34719155,33318801,34.0347399,108.757311,0.136915,0.16832891,-1.8354568,-0.5816318,-0.0018339619,0.0,-0.13461713,0.25017777,0.31992954,-0.04821464,-0.55203843,-0.6771984,-0.953158,0.3324058,-0.25878373,1.8997561,-1.5958345,-0.0011705331,426.3826,3.0126424,0.505042,0.44265196,0.26928392,0.14467236,inf,inf,inf,inf,1,1,1,1,2,0,2,1,4,1,1,0
34818596,33318801,34.0347399,108.757311,0.12102248,0.18953106,-1.8195723,-0.5816318,-0.0018339619,0.0,-0.11668566,0.30296627,0.3894859,0.0359995,-0.55203843,-0.6771984,-0.953158,-0.7880807,0.75515497,-0.04009209,-1.5893501,-0.0011705331,426.3826,2.9967577,0.47350955,0.43793064,0.24203536,0.13977669,inf,inf,inf,inf,1,1,1,1,2,0,2,1,4,1,1,0
34917790,33318801,34.0347399,108.757311,0.103263214,0.21676661,-1.796961,-0.5816318,-0.0018339619,0.0,-0.108581565,0.36289793,0.45866668,0.11777224,-0.55203843,-0.6771984,-0.953158,-0.9418051,2.0911698,0.15549287,-1.5828819,-0.0011705331,426.3826,2.9741464,0.47989398,0.43578538,0.2614081,0.1421773,inf,inf,inf,inf,1,1,1,1,2,0,2,1,4,1,1,0
35017104,33318801,34.0347399,108.757311,0.08662479,0.2549419,-1.7663317,-0.5816318,-0.0018339619,0.0,-0.11427119,0.44555724,0.509636,0.18222734,-0.55203843,-0.6771984,-0.953158,-0.36506456,0.32285392,0.91811067,-1.5767014,-0.0011705331,426.3826,2.9435172,0.45233333,0.43140092,0.23566486,0.1378758,inf,inf,inf,inf,1,1,1,1,2,0,2,1,4,1,1,0
35121386,33318801,34.0347399,108.757311,0.06811024,0.30466783,-1.7256927,-0.5816318,-0.0018339619,0.0,-0.12389092,0.5015301,0.5471669,0.23534353,-0.55203843,-0.6771984,-0.953158,0.076273434,1.0414194,0.24838032,-1.5709538,-0.0011705331,426.3826,2.9028783,0.45920184,0.4330559,0.25292864,0.14066532,inf,inf,inf,inf,1,1,1,1,2,0,2,1,4,1,1,0
35220706,33318801,34.0347399,108.757311,0.048144214,0.35632995,-1.6869293,-0.5816318,-0.0018339619,0.0,-0.15426144,0.5647364,0.56264883,0.26302093,-0.55203843,-0.6771984,-0.953158,-1.0194846,0.59172004,0.40900427,-1.567801,-0.0011705331,426.3826,2.8641148,0.43464604,0.42885366,0.2292522,0.13683139,inf,inf,inf,inf,1,1,1,1,2,0,2,1,4,1,1,0
35320017,33318801,34.0347399,108.757311,0.024516119,0.4106907,-1.648503,-0.5816318,-0.0018339619,0.0,-0.19345152,0.5680375,0.5792495,0.2896213,-0.55203843,-0.6771984,-0.953158,0.6388837,-0.5151579,0.8964741,-1.5668427,-0.0011705331,426.3826,2.8256884,0.44193727,0.42767528,0.24591164,0.13977987,inf,inf,inf,inf,1,1,1,1,2,0,2,1,4,1,1,0
35419335,33318801,34.0347399,108.757311,-0.0057428125,0.46086195,-1.609749,-0.5816318,-0.0018339619,0.0,-0.23267277,0.5571044,0.5968769,0.31511718,-0.55203843,-0.6771984,-0.953158,-1.6161792,0.060527693,-0.6421254,-1.5664549,-0.0011705331,426.3826,2.7869344,0.4196957,0.4237061,0.22375256,0.13619941,inf,inf,inf,inf,1,1,1,1,2,0,2,1,4,1,1,0
35518652,33318801,34.0347399,108.757311,-0.038214758,0.5061197,-1.5702083,-0.5816318,-0.0018339619,0.0,-0.2060504,0.5316558,0.5902465,0.31552252,-0.55203843,-0.6771984,-0.953158,0.60466164,-0.58906895,1.0426978,-1.5668656,-0.0011705331,426.3826,2.7473936,0.42734557,0.42295104,0.23827687,0.13919857,inf,inf,inf,inf,1,1,1,1,2,0,2,1,4,1,1,0
35618116,33318801,34.0347399,108.757311,-0.06955409,0.5473925,-1.5381392,-0.5816318,-0.0018339619,0.0,-0.19445163,0.48642945,0.50856334,0.23685603,-0.55203843,-0.6771984,-0.953158,-0.5376005,-1.1258363,-0.10130349,-1.5672137,-0.0011705331,426.3826,2.7153246,0.40699518,0.41916683,0.21758607,0.13574998,inf,inf,inf,inf,1,1,1,1,2,0,2,1,4,1,1,0
35722250,33318801,34.0347399,108.757311,-0.09640306,0.5866831,-1.5143367,-0.5816318,-0.0018339619,0.0,-0.09511631,0.45524067,0.40058675,0.13144821,-0.55203843,-0.6771984,-0.953158,0.63555557,-0.4400553,-0.9491959,-1.5671601,-0.0011705331,426.3826,2.6915221,0.41493884,0.41876566,0.2313337,0.13889693,inf,inf,inf,inf,1,1,1,1,2,0,2,1,4,1,1,0
35821566,33318801,34.0347399,108.757311,-0.11034511,0.61558634,-1.5049131,-0.5816318,-0.0018339619,0.0,0.0055497247,0.40402454,0.29469383,0.02657066,-0.55203843,-0.6771984,-0.953158,1.4601134,-1.0789897,0.60731375,-1.5666049,-0.0011705331,426.3826,2.6820984,0.39609832,0.41513902,0.2137081,0.1358883,inf,inf,inf,inf,1,1,1,1,2,0,2,1,4,1,1,0
35920883,33318801,34.0347399,108.757311,-0.11214822,0.6369563,-1.5061588,-0.5816318,-0.0018339619,0.0,0.11465546,0.35977545,0.1897424,-0.07645524,-0.55203843,-0.6771984,-0.953158,1.186516,-0.7482586,-1.4375983,-1.5642238,-0.0011705331,426.3826,2.6833444,0.40433872,0.4180431,0.22726214,0.13944347,inf,inf,inf,inf,1,1,1,1,2,0,2,1,4,1,1,0
36020202,33318801,34.0347399,108.757311,-0.11329706,0.6630771,-1.5166098,-0.5816318,-0.0018339619,0.0,0.17867099,0.32556787,0.08206412,-0.18167846,-0.55203843,-0.6771984,-0.953158,-0.101892106,1.0644755,-2.4719856,-1.56099,-0.0011705331,426.3826,2.6937952,0.38677642,0.41445997,0.20976788,0.13639753,inf,inf,inf,inf,1,1,1,1,2,0,2,1,4,1,1,0
36119518,33318801,34.0347399,108.757311,-0.12176494,0.6929827,-1.5366005,-0.5816318,-0.0018339619,0.0,0.14159504,0.3049045,-0.021950431,-0.28194544,-0.55203843,-0.6771984,-0.953158,2.4106882,-0.31597602,0.39383987,-1.5568941,-0.0011705331,426.3826,2.713786,0.39524868,0.41472206,0.222388,0.1398754,inf,inf,inf,inf,1,1,1,1,2,0,2,1,4,1,1,0
36218832,33318801,34.0347399,108.757311,-0.12956785,0.72271466,-1.5663013,-0.5816318,-0.0018339619,0.0,0.11358338,0.27362886,-0.12191474,-0.3783645,-0.55203843,-0.6771984,-0.953158,-0.14973788,0.7622832,-1.5148602,-1.554121,-0.0011705331,426.3826,2.743487,0.37875766,0.4112349,0.20569606,0.13689229,inf,inf,inf,inf,1,1,1,1,2,0,2,1,4,1,1,0
36318154,33318801,34.0347399,108.757311,-0.14356929,0.7515496,-1.604092,-0.5816318,-0.0018339619,0.0,0.0017008631,0.2569938,-0.21426575,-0.46631685,-0.55203843,-0.6771984,-0.953158,0.080227025,0.6637523,-1.5012895,-1.5517052,-0.0011705331,426.3826,2.7812774,0.38741764,0.41177446,0.21736676,0.14039604,inf,inf,inf,inf,1,1,1,1,2,0,2,1,4,1,1,0
36417522,33318801,34.0347399,108.757311,-0.17211238,0.7814913,-1.6514125,-0.5816318,-0.0018339619,0.0,-0.11438563,0.24681011,-0.3019748,-0.55094063,-0.55203843,-0.6771984,-0.953158,-1.6688889,2.0927052,-3.0810463,-1.5504864,-0.0011705331,426.3826,2.828598,0.3717931,0.4083611,0.20130281,0.13728316,inf,inf,inf,inf,1,1,1,1,2,0,2,1,4,1,1,0
36516781,33318801,34.0347399,108.757311,-0.21437912,0.8118349,-1.7068158,-0.5816318,-0.0018339619,0.0,-0.2389509,0.23320346,-0.3826433,-0.62833774,-0.55203843,-0.6771984,-0.953158,-1.9235886,1.057901,-1.734686,-1.5493476,-0.0011705331,426.3826,2.8840013,0.38059998,0.41198084,0.21196945,0.14105602,inf,inf,inf,inf,1,1,1,1,2,0,2,1,4,1,1,0
36616097,33318801,34.0347399,108.757311,-0.26837173,0.84369814,-1.7740954,-0.5816318,-0.0018339619,0.0,-0.36379907,0.22054186,-0.44619173,-0.6934141,-0.55203843,-0.6771984,-0.953158,-2.683063,-0.12665887,-0.5707994,-1.5497501,-0.0011705331,426.3826,2.9512808,0.36568704,0.4085516,0.1968389,0.13788392,inf,inf,inf,inf,1,1,1,1,2,0,2,1,4,1,1,0
36715417,33318801,34.0347399,108.757311,-0.3324303,0.87613213,-1.8471228,-0.5816318,-0.0018339619,0.0,-0.45562676,0.21223229,-0.48838577,-0.7367451,-0.55203843,-0.6771984,-0.953158,0.5544512,-1.3963516,0.8811393,-1.5502344,-0.0011705331,426.3826,3.0243082,0.37460518,0.40960115,0.20681764,0.14144252,inf,inf,inf,inf,1,1,1,1,2,0,2,1,4,1,1,0
36814730,33318801,34.0347399,108.757311,-0.40225407,0.902458,-1.9248058,-0.5816318,-0.0018339619,0.0,-0.55886745,0.20443407,-0.5336358,-0.7832943,-0.55203843,-0.6771984,-0.953158,-1.4177155,0.89729357,-0.96220523,-1.5510848,-0.0011705331,426.3826,3.1019912,0.36034113,0.40622297,0.19237596,0.13815449,inf,inf,inf,inf,1,1,1,1,2,0,2,1,4,1,1,0
36923978,33318801,34.0347399,108.757311,-0.48558223,0.92517495,-2.013772,-0.5816318,-0.0018339619,0.0,-0.64941204,0.19182587,-0.5801653,-0.8293842,-0.55203843,-0.6771984,-0.953158,-1.0604001,0.77690727,-1.066165,-1.553009,-0.0011705331,426.3826,3.1909575,0.37029412,0.40817747,0.20231038,0.14197291,inf,inf,inf,inf,1,1,1,1,2,0,2,1,4,1,1,0
37018375,33318801,34.0347399,108.757311,-0.56499237,0.94596297,-2.0958285,-0.5816318,-0.0018339619,0.0,-0.69055337,0.17507914,-0.58277774,-0.8354319,-0.55203843,-0.6771984,-0.953158,0.29686293,-0.18760315,0.23423013,-1.5554836,-0.0011705331,426.3826,3.273014,0.35564038,0.40412647,0.18791313,0.13822302,inf,inf,inf,inf,1,1,1,1,2,0,2,1,4,1,1,0
37117645,33318801,34.0347399,108.757311,-0.65246564,0.9674305,-2.1807761,-0.5816318,-0.0018339619,0.0,-0.7410537,0.16805492,-0.53690445,-0.7920221,-0.55203843,-0.6771984,-0.953158,0.7984028,-0.5637464,1.839577,-1.5588057,-0.0011705331,426.3826,3.3579617,0.36468714,0.40555957,0.19651245,0.14163253,inf,inf,inf,inf,1,1,1,1,2,0,2,1,4,1,1,0
37217091,33318801,34.0347399,108.757311,-0.75075424,0.99572664,-2.26015,-0.5816318,-0.0018339619,0.0,-0.80553806,0.17744195,-0.4864616,-0.7424658,-0.55203843,-0.6771984,-0.953158,-1.433778,-0.9537703,0.47085804,-1.5623274,-0.0011705331,426.3826,3.4373355,0.35150796,0.4022395,0.18372022,0.13813001,inf,inf,inf,inf,1,1,1,1,2,0,2,1,4,1,1,0
37316278,33318801,34.0347399,108.757311,-0.85511357,1.0296367,-2.3319657,-0.5816318,-0.0018339619,0.0,-0.8229214,0.19845095,-0.40978375,-0.6650803,-0.55203843,-0.6771984,-0.953158,0.16075946,0.7600371,-0.16959605,-1.5666354,-0.0011705331,426.3826,3.509151,0.360579,0.40656114,0.19091332,0.1415777,inf,inf,inf,inf,1,1,1,1,2,0,2,1,4,1,1,0
37415595,33318801,34.0347399,108.757311,-0.948742,1.066881,-2.3945918,-0.5816318,-0.0018339619,0.0,-0.7532322,0.20394199,-0.307535,-0.5621908,-0.55203843,-0.6771984,-0.953158,-0.051410157,-0.06769251,0.84893554,-1.5721638,-0.0011705331,426.3826,3.5717773,0.34785545,0.40320233,0.17842042,0.13792683,inf,inf,inf,inf,1,1,1,1,2,0,2,1,4,1,1,0
37515066,33318801,34.0347399,108.757311,-1.0289928,1.1068826,-2.4470172,-0.5816318,-0.0018339619,0.0,-0.6774016,0.2313975,-0.21408847,-0.46761438,-0.55203843,-0.6771984,-0.953158,2.66589,0.86919385,1.2266978,-1.5774777,-0.0011705331,426.3826,3.6242027,0.3569179,0.40497622,0.18481547,0.1408928,inf,inf,inf,inf,1,1,1,1,2,0,2,1,4,1,1,0
37624165,33318801,34.0347399,108.757311,-1.1008791,1.1483264,-2.4877641,-0.5816318,-0.0018339619,0.0,-0.50134885,0.24131176,-0.1060637,-0.35238287,-0.55203843,-0.6771984,-0.953158,2.6342304,0.05906273,1.5782316,-1.5828438,-0.0011705331,426.3826,3.6649494,0.34540197,0.40233302,0.17356761,0.13742259,inf,inf,inf,inf,1,1,1,1,2,0,2,1,4,1,1,0
37713543,33318801,34.0347399,108.757311,-1.1407503,1.1793786,-2.5100129,-0.5816318,-0.0018339619,0.0,-0.31929198,0.24570368,-0.02021906,-0.25923777,-0.55203843,-0.6771984,-0.953158,3.391323,1.4594169,0.16365014,-1.5874988,-0.0011705331,426.3826,3.6871982,0.3535621,0.40349823,0.17918396,0.14006835,inf,inf,inf,inf,1,1,1,1,2,0,2,1,4,1,1,0
37817825,33318801,34.0347399,108.757311,-1.1687684,1.2124251,-2.523243,-0.5816318,-0.0018339619,0.0,-0.07122722,0.23683701,0.093380556,-0.13756837,-0.55203843,-0.6771984,-0.953158,1.9696722,0.54987544,-0.03560686,-1.591996,-0.0011705331,426.3826,3.7004285,0.34158385,0.4001598,0.16861135,0.13633682,inf,inf,inf,inf,1,1,1,1,2,0,2,1,4,1,1,0
37917138,33318801,34.0347399,108.757311,-1.1765093,1.240649,-2.5254505,-0.5816318,-0.0018339619,0.0,0.16816276,0.22173248,0.2040719,-0.019802669,-0.55203843,-0.6771984,-0.953158,2.5031052,-0.7896485,1.026218,-1.5949556,-0.0011705331,426.3826,3.7026358,0.3505722,0.40479976,0.17475703,0.13943017,inf,inf,inf,inf,1,1,1,1,2,0,2,1,4,1,1,0
38016456,33318801,34.0347399,108.757311,-1.1612537,1.2637873,-2.5188406,-0.5816318,-0.0018339619,0.0,0.4095782,0.20467179,0.31415948,0.09494385,-0.55203843,-0.6771984,-0.953158,2.3108435,-0.83006245,1.7004621,-1.5954695,-0.0011705331,426.3826,3.6960258,0.33902404,0.40140316,0.16566212,0.1357681,inf,inf,inf,inf,1,1,1,1,2,0,2,1,4,1,1,0
