timestamp,timestamp_sample,baro_device_id,baro_alt_meter,baro_temp_celcius,baro_pressure_pa,rho
18491668,18471203,3997730,301.1478,24.33,97759.75,1.1615475
18561720,18531543,3997730,301.14514,24.33,97759.8,1.1615481
18722571,18699928,3997730,301.44904,24.33,97756.25,1.1615059
18883486,18860681,3997730,301.42523,24.33,97756.5,1.1615089
19104753,19087093,3997730,301.235,24.33,97758.74,1.1615356
19265551,19247927,3997730,301.3407,24.34,97757.5,1.1615208
19486708,19463986,3997730,301.44904,24.34,97756.25,1.1615059
19697689,19677564,3997730,301.44904,24.34,97756.25,1.1615059
19908809,19891184,3997730,301.235,24.34,97758.75,1.1615356
20069957,20052196,3997730,301.27728,24.35,97758.25,1.1615298
20301055,20280924,3997730,301.02097,24.35,97761.24,1.1615653
20512423,20494645,3997730,301.29843,24.35,97757.99,1.1615267
20673301,20655663,3997730,301.36185,24.359999,97757.25,1.1615179
20894655,20871829,3997730,301.3407,24.359999,97757.49,1.1615207
21105672,21085492,3997730,301.31955,24.359999,97757.74,1.1615237
21316821,21299133,3997730,301.1478,24.369999,97759.75,1.1615475
21477788,21460045,3997730,301.31955,24.369999,97757.75,1.1615238
21698877,21676246,3997730,301.1901,24.369999,97759.25,1.1615416
21920100,21902360,3997730,301.29843,24.369999,97758.0,1.1615268
22080976,22063254,3997730,301.36185,24.369999,97757.25,1.1615179
22302113,22279439,3997730,301.1901,24.38,97759.25,1.1615416
22513246,22493075,3997730,301.31955,24.38,97757.75,1.1615238
22724535,22706872,3997730,301.10553,24.38,97760.25,1.1615535
22885374,22867723,3997730,301.1901,24.39,97759.25,1.1615416
23116623,23096434,3997730,301.1478,24.39,97759.75,1.1615475
23277579,23257402,3997730,301.25613,24.39,97758.5,1.1615326
23488663,23471057,3997730,301.59964,24.39,97754.49,1.1614851
23709899,23687111,3997730,301.08438,24.39,97760.5,1.1615565
23920930,23900807,3997730,301.44904,24.4,97756.25,1.1615059
24081880,24061659,3997730,301.31955,24.4,97757.74,1.1615237
24292964,24275328,3997730,301.36185,24.4,97757.25,1.1615179
24514063,24491417,3997730,301.16895,24.41,97759.5,1.1615446
24674983,24652232,3997730,301.10553,24.41,97760.24,1.1615534
24885998,24865785,3997730,301.40674,24.41,97756.75,1.1615119
25097147,25079478,3997730,301.38562,24.41,97756.99,1.1615148
25318303,25295557,3997730,301.235,24.41,97758.75,1.1615356
25479094,25456411,3997730,301.235,24.41,97758.75,1.1615356
25690203,25669979,3997730,301.57587,24.41,97754.75,1.1614882
25901453,25883763,3997730,301.29843,24.42,97758.0,1.1615268
26122687,26099994,3997730,301.38297,24.42,97757.0,1.1615149
26283555,26260846,3997730,301.1901,24.42,97759.25,1.1615416
26494611,26474481,3997730,301.53357,24.42,97755.25,1.1614941
26705673,26688017,3997730,301.55472,24.43,97755.0,1.1614912
26866682,26849067,3997730,301.25613,24.43,97758.5,1.1615326
27087868,27065083,3997730,301.59964,24.43,97754.5,1.1614852
27298664,27278518,3997730,301.76874,24.43,97752.5,1.1614614
27509843,27492196,3997730,301.66306,24.439999,97753.75,1.1614763
27670713,27652991,3997730,301.53357,24.439999,97755.25,1.1614941
27891930,27869204,3997730,302.1968,24.439999,97747.5,1.161402
28103031,28082874,3997730,302.17566,24.439999,97747.75,1.161405
28314364,28296704,3997730,301.85596,24.439999,97751.49,1.1614494
28475249,28457594,3997730,302.1968,24.449999,97747.5,1.161402
28696795,28673925,3997730,301.85596,24.439999,97751.5,1.1614496
28907790,28887665,3997730,302.284,24.449999,97746.5,1.1613901
29069354,29048595,3997730,302.17566,24.449999,97747.75,1.161405
29300057,29277397,3997730,302.39233,24.449999,97745.24,1.1613752
29511080,29490961,3997730,302.4346,24.449999,97744.75,1.1613693
29722180,29704554,3997730,302.64865,24.46,97742.25,1.1613396
29883251,29865604,3997730,302.69092,24.46,97741.75,1.1613337
30104377,30081706,3997730,302.84152,24.46,97740.0,1.1613129
30315490,30295295,3997730,303.01328,24.46,97737.99,1.161289
30476344,30456058,3997730,302.90494,24.46,97739.24,1.1613039
30687375,30669720,3997730,302.79926,24.46,97740.5,1.1613188
30908488,30885706,3997730,303.11896,24.47,97736.76,1.1612743
31120130,31099338,3997730,302.971,24.46,97738.49,1.1612949
31290365,31272719,3997730,302.94986,24.47,97738.74,1.1612979
31511726,31488959,3997730,303.01328,24.47,97738.0,1.1612891
31722788,31702546,3997730,302.88382,24.47,97739.49,1.1613069
31883585,31863424,3997730,302.86267,24.47,97739.75,1.16131
32094860,32077197,3997730,303.4202,24.47,97733.25,1.1612327
32316084,32293349,3997730,303.7637,24.48,97729.25,1.1611851
32486931,32466783,3997730,303.71878,24.48,97729.76,1.1611912
32698029,32680421,3997730,303.63422,24.48,97730.75,1.161203
32879075,32856404,3997730,303.63422,24.48,97730.75,1.161203
33090336,33070195,3997730,303.54703,24.48,97731.75,1.1612148
33301491,33283869,3997730,303.84824,24.48,97728.25,1.1611732
33462361,33444694,3997730,304.14948,24.48,97724.75,1.1611317
33683543,33660817,3997730,303.80597,24.49,97728.75,1.1611792
33894816,33874671,3997730,304.17062,24.49,97724.5,1.1611288
34105898,34088263,3997730,303.97772,24.49,97726.75,1.1611555
34266723,34249075,3997730,304.10455,24.49,97725.25,1.1611376
34487757,34465126,3997730,304.17062,24.49,97724.5,1.1611288
34698812,34678656,3997730,304.0623,24.49,97725.75,1.1611435
34869791,34845509,3997730,303.8007,24.5,97728.8,1.1611798
35090999,35068231,3997730,304.04114,24.5,97725.99,1.1611464
35302085,35281930,3997730,303.7637,24.5,97729.25,1.1611851
35513054,35495403,3997730,303.69763,24.5,97730.0,1.1611941
35673917,35656257,3997730,303.78482,24.5,97729.0,1.1611822
35895401,35872555,3997730,303.61307,24.51,97730.99,1.1612059
36106258,36086060,3997730,303.63422,24.51,97730.75,1.161203
36317439,36299730,3997730,303.61307,24.51,97731.0,1.161206
36478287,36460584,3997730,303.37527,24.51,97733.75,1.1612387
36699335,36676648,3997730,303.69763,24.51,97730.0,1.1611941
36910385,36890216,3997730,303.67648,24.519999,97730.25,1.1611971
37121665,37103921,3997730,303.99887,24.519999,97726.5,1.1611525
37282507,37264841,3997730,304.2129,24.519999,97724.0,1.1611228
37503690,37480972,3997730,304.34238,24.519999,97722.5,1.1611049
37665228,37641830,3997730,304.49033,24.519999,97720.74,1.161084
37885726,37868097,3997730,304.42694,24.519999,97721.5,1.1610931
38106875,38084168,3997730,304.4058,24.529999,97721.75,1.1610961
38318128,38297945,3997730,304.17062,24.529999,97724.5,1.1611288
38480548,38458718,3997730,304.08606,24.519999,97725.49,1.1611406
38710147,38687486,3997730,304.4058,24.529999,97721.75,1.1610961
38922316,38901060,3997730,304.34238,24.529999,97722.5,1.1611049
39112456,39089833,3997730,303.59195,24.529999,97731.25,1.1612089
39273272,39250599,3997730,303.35678,24.529999,97734.0,1.1612417
39514567,39491916,3997730,303.18237,24.539999,97736.0,1.1612654
39675368,39652598,3997730,302.86267,24.529999,97739.75,1.16131
39886429,39866227,3997730,302.75433,24.539999,97741.0,1.1613247
40097560,40079809,3997730,302.45575,24.539999,97744.49,1.1613662
40318646,40295880,3997730,302.60635,24.539999,97742.75,1.1613456
40479405,40456734,3997730,302.49802,24.539999,97743.99,1.1613603
40690518,40670320,3997730,302.77548,24.539999,97740.75,1.1613218
40901642,40883986,3997730,302.7332,24.539999,97741.25,1.1613277
41062455,41044788,3997730,302.7332,24.539999,97741.25,1.1613277
41283757,41261136,3997730,302.8204,24.55,97740.25,1.1613158
41494771,41474605,3997730,302.69092,24.55,97741.75,1.1613337
41706103,41688392,3997730,303.05557,24.55,97737.49,1.1612831
41887056,41864370,3997730,303.2907,24.55,97734.74,1.1612505
42098160,42078011,3997730,303.1401,24.55,97736.5,1.1612713
42309443,42291713,3997730,302.9895,24.55,97738.25,1.1612921
42470335,42452614,3997730,303.20618,24.56,97735.74,1.1612623
42691597,42668900,3997730,303.0767,24.56,97737.25,1.1612802
42902712,42882571,3997730,302.86267,24.56,97739.75,1.16131
43113859,43096208,3997730,303.0767,24.56,97737.24,1.1612802
43274883,43257163,3997730,302.9895,24.56,97738.26,1.1612922
43505982,43485839,3997730,303.05557,24.56,97737.49,1.1612831
43716981,43699352,3997730,303.09784,24.56,97737.0,1.1612773
43897928,43875265,3997730,303.16125,24.56,97736.25,1.1612684
44109035,44088848,3997730,303.4202,24.56,97733.25,1.1612327
44320160,44302531,3997730,303.2273,24.57,97735.5,1.1612594
44481085,44463270,3997730,303.44135,24.56,97732.99,1.1612296
44702164,44679464,3997730,303.01328,24.57,97737.99,1.161289
44913305,44893133,3997730,303.4836,24.57,97732.49,1.1612236
45124564,45106888,3997730,303.4836,24.57,97732.49,1.1612236
45285360,45267722,3997730,303.73993,24.57,97729.5,1.1611881
45506610,45483922,3997730,303.67648,24.57,97730.25,1.1611971
45717706,45697521,3997730,303.46246,24.58,97732.75,1.1612267
45878653,45858391,3997730,303.63422,24.57,97730.75,1.161203
46089716,46071976,3997730,303.59195,24.57,97731.25,1.1612089
46311079,46288285,3997730,303.93283,24.58,97727.25,1.1611614
46522091,46501864,3997730,303.99887,24.58,97726.5,1.1611525
46682963,46662783,3997730,303.93283,24.58,97727.25,1.1611614
46894167,46876464,3997730,303.97772,24.58,97726.75,1.1611555
47115625,47092796,3997730,303.91168,24.58,97727.5,1.1611644
47276308,47253640,3997730,304.02,24.59,97726.25,1.1611495
47487655,47467207,3997730,304.2763,24.58,97723.25,1.1611139
47698636,47680980,3997730,304.14948,24.59,97724.75,1.1611317
47919656,47897034,3997730,304.2763,24.59,97723.25,1.1611139
48080559,48057877,3997730,304.29745,24.59,97723.0,1.1611109
48291748,48271579,3997730,304.4058,24.59,97721.75,1.1610961
48502919,48485202,3997730,304.4692,24.59,97721.0,1.1610872
48663787,48646010,3997730,304.44806,24.59,97721.25,1.1610901
48884859,48862185,3997730,304.707,24.59,97718.24,1.1610544
49095922,49075755,3997730,304.51147,24.59,97720.5,1.1610812
49307113,49289465,3997730,304.59866,24.59,97719.49,1.1610693
49468034,49450327,3997730,304.77042,24.6,97717.5,1.1610456
49689292,49666463,3997730,304.79156,24.6,97717.24,1.1610425
49900864,49880215,3997730,304.92105,24.6,97715.75,1.1610248
50071336,50053652,3997730,304.96332,24.6,97715.25,1.1610188
50292433,50269730,3997730,304.94217,24.6,97715.5,1.1610218
50503567,50483311,3997730,304.96332,24.609999,97715.25,1.1610188
50714844,50697031,3997730,304.79156,24.609999,97717.24,1.1610425
50875555,50857921,3997730,305.2196,24.6,97712.25,1.1609832
51096579,51073896,3997730,305.00558,24.609999,97714.75,1.1610129
51318000,51300232,3997730,305.32794,24.609999,97711.0,1.1609683
51478765,51461131,3997730,305.28302,24.609999,97711.5,1.1609743
51699856,51677203,3997730,305.17734,24.609999,97712.76,1.1609892
51910914,51890724,3997730,305.6054,24.609999,97707.75,1.1609297
52121836,52104176,3997730,305.6054,24.609999,97707.75,1.1609297
52282671,52265051,3997730,305.58426,24.619999,97707.99,1.1609325
52503790,52481131,3997730,305.90662,24.619999,97704.25,1.1608881
52715072,52694872,3997730,305.64767,24.619999,97707.25,1.1609237
52875997,52855687,3997730,305.756,24.619999,97706.0,1.1609089
53087149,53069482,3997730,305.92776,24.619999,97704.0,1.1608851
53318406,53298240,3997730,305.81943,24.619999,97705.25,1.1609
53479461,53459236,3997730,305.97003,24.619999,97703.5,1.1608793
53690528,53672807,3997730,306.2924,24.619999,97699.75,1.1608347
53911698,53888936,3997730,306.14178,24.619999,97701.49,1.1608553
54122614,54102500,3997730,306.31354,24.63,97699.5,1.1608317
54283422,54263275,3997730,305.9489,24.63,97703.75,1.1608822
54494653,54476913,3997730,306.31354,24.63,97699.5,1.1608317
54716057,54693342,3997730,306.37695,24.63,97698.75,1.1608227
54876995,54854241,3997730,306.31354,24.63,97699.5,1.1608317
55088234,55068048,3997730,306.03345,24.63,97702.75,1.1608703
55319594,55296942,3997730,306.50644,24.64,97697.25,1.160805
55480520,55457792,3997730,306.31354,24.64,97699.5,1.1608317
55691676,55671483,3997730,306.6359,24.63,97695.75,1.1607871
55902906,55885224,3997730,306.31354,24.64,97699.5,1.1608317
56063660,56045998,3997730,306.8288,24.63,97693.49,1.1607603
56284921,56262118,3997730,306.72046,24.64,97694.74,1.1607752
56496084,56475823,3997730,306.87106,24.63,97692.99,1.1607543
56707061,56689405,3997730,306.41922,24.64,97698.25,1.1608168
56867978,56850221,3997730,306.61212,24.64,97696.0,1.1607901
57089040,57066413,3997730,306.72046,24.65,97694.74,1.1607752
57310377,57286027,3997730,306.8869,24.65,97692.805,1.1607522
57471041,57453378,3997730,306.9979,24.65,97691.5,1.1607367
57692231,57669547,3997730,306.8922,24.65,97692.74,1.1607513
57903398,57883206,3997730,306.8288,24.65,97693.49,1.1607603
58114571,58096945,3997730,307.38632,24.65,97687.0,1.1606832
58275500,58257857,3997730,307.19342,24.65,97689.24,1.1607099
58496702,58474045,3997730,307.19342,24.65,97689.24,1.1607099
58707804,58687660,3997730,307.34402,24.65,97687.49,1.160689
58869292,58848525,3997730,307.06393,24.65,97690.75,1.1607277
59099810,59077190,3997730,307.3414,24.66,97687.5,1.1606891
59310931,59290715,3997730,307.25684,24.66,97688.5,1.160701
59521869,59504264,3997730,307.36517,24.66,97687.24,1.160686
59682806,59665078,3997730,307.12738,24.66,97690.0,1.1607188
59904022,59881246,3997730,307.83554,24.66,97681.75,1.1606208
60115052,60094726,3997730,307.55542,24.66,97685.0,1.1606594
60275830,60255694,3997730,307.44974,24.67,97686.26,1.1606743
60486955,60469308,3997730,307.70605,24.66,97683.25,1.1606386
60718355,60698050,3997730,307.81436,24.67,97681.99,1.1606237
60879047,60858880,3997730,307.29913,24.67,97688.0,1.1606951
61110501,61087761,3997730,307.60034,24.67,97684.5,1.1606535
61321492,61301268,3997730,307.17227,24.67,97689.49,1.1607127
61482287,61462099,3997730,307.66376,24.67,97683.75,1.1606445
61693187,61675574,3997730,307.6215,24.67,97684.25,1.1606505
61914470,61891719,3997730,307.6849,24.68,97683.5,1.1606416
62075301,62052580,3997730,307.79324,24.67,97682.25,1.1606268
62286510,62266291,3997730,307.96497,24.68,97680.25,1.1606029
62497758,62480056,3997730,307.70605,24.68,97683.25,1.1606386
62718912,62696246,3997730,308.02838,24.68,97679.51,1.1605941
62879816,62857037,3997730,307.98615,24.68,97680.0,1.1606
63090960,63070729,3997730,308.5648,24.68,97673.25,1.1605198
63302202,63284572,3997730,308.32965,24.68,97676.0,1.1605525
63523316,63500601,3997730,308.30847,24.68,97676.25,1.1605555
63684058,63661374,3997730,308.4776,24.68,97674.25,1.1605316
63895184,63874941,3997730,308.32965,24.68,97676.0,1.1605525
64106109,64088418,3997730,308.39307,24.68,97675.25,1.1605436
64287116,64256868,3997730,308.13937,24.689999,97678.195,1.1605785
64498352,64478098,3997730,308.35077,24.689999,97675.75,1.1605495
64709407,64691601,3997730,308.32965,24.689999,97675.99,1.1605524
64870069,64852433,3997730,308.2424,24.689999,97676.99,1.1605643
65091498,65068562,3997730,308.32965,24.689999,97676.0,1.1605525
65302161,65282047,3997730,308.49872,24.689999,97674.0,1.1605287
65513219,65495602,3997730,308.54367,24.689999,97673.5,1.1605227
65674268,65656576,3997730,308.2847,24.699999,97676.5,1.1605583
65895802,65872802,3997730,307.98615,24.689999,97680.0,1.1606
66116636,66099032,3997730,308.22128,24.699999,97677.25,1.1605673
66277589,66259807,3997730,308.8211,24.699999,97670.24,1.1604841
66498668,66476004,3997730,308.9083,24.699999,97669.24,1.1604722
66710250,66689596,3997730,309.03778,24.699999,97667.74,1.1604544
66900792,66878114,3997730,308.73654,24.699999,97671.25,1.160496
67112125,67091942,3997730,308.73654,24.699999,97671.25,1.160496
67273002,67252814,3997730,308.5648,24.699999,97673.25,1.1605198
67483880,67466263,3997730,308.7788,24.71,97670.74,1.16049
67705159,67682418,3997730,308.69427,24.71,97671.75,1.160502
67916458,67896150,3997730,308.73654,24.71,97671.25,1.160496
68077212,68057054,3997730,309.0589,24.71,97667.5,1.1604514
68288302,68270673,3997730,308.9717,24.71,97668.5,1.1604633
68509679,68486910,3997730,308.99286,24.71,97668.25,1.1604604
68720806,68700458,3997730,308.9083,24.71,97669.24,1.1604722
68881547,68861423,3997730,308.86337,24.71,97669.75,1.1604782
69092692,69075048,3997730,308.95056,24.72,97668.74,1.1604662
69313791,69291156,3997730,309.27292,24.72,97665.0,1.1604217
69474704,69452072,3997730,309.37863,24.72,97663.74,1.1604068
69685759,69665622,3997730,309.1646,24.72,97666.24,1.1604365
69896800,69879152,3997730,308.95056,24.72,97668.74,1.1604662
70118059,70095407,3997730,309.14346,24.72,97666.5,1.1604396
70279118,70256375,3997730,309.63492,24.72,97660.76,1.1603713
70490266,70470024,3997730,309.0589,24.73,97667.49,1.1604514
70701376,70683753,3997730,309.0589,24.72,97667.49,1.1604514
70922616,70899970,3997730,309.5081,24.72,97662.24,1.160389
71083506,71060870,3997730,309.48697,24.72,97662.5,1.160392
71294761,71274527,3997730,309.228,24.73,97665.5,1.1604277
71505830,71488217,3997730,309.03778,24.73,97667.74,1.1604544
71666682,71649013,3997730,309.27292,24.73,97665.0,1.1604217
71887863,71865192,3997730,309.5953,24.73,97661.24,1.1603771
72098951,72078777,3997730,309.67987,24.73,97660.25,1.1603653
72309996,72292327,3997730,308.99286,24.73,97668.25,1.1604604
72470901,72453187,3997730,308.866,24.73,97669.74,1.1604781
72692009,72669318,3997730,308.84488,24.74,97669.99,1.1604811
72903301,72883064,3997730,309.03513,24.74,97667.75,1.1604544
73114522,73096702,3997730,309.0589,24.74,97667.5,1.1604514
73275280,73257544,3997730,308.95056,24.74,97668.75,1.1604663
73496468,73473624,3997730,308.5225,24.74,97673.75,1.1605257
73717659,73693322,3997730,308.72333,24.74,97671.4,1.1604978
73878417,73860788,3997730,308.9294,24.74,97668.99,1.1604692
74099814,74077076,3997730,309.14346,24.74,97666.5,1.1604396
74311091,74290916,3997730,309.42355,24.74,97663.24,1.1604009
74522141,74504470,3997730,309.39978,24.75,97663.5,1.160404
74682975,74665328,3997730,309.0589,24.74,97667.5,1.1604514
74904264,74881489,3997730,309.4632,24.75,97662.75,1.160395
75115525,75095284,3997730,309.65872,24.75,97660.5,1.1603683
75276335,75256160,3997730,309.63757,24.75,97660.75,1.1603713
75487531,75469917,3997730,309.1012,24.75,97666.99,1.1604455
75708760,75686075,3997730,308.79996,24.75,97670.49,1.160487
75919881,75899660,3997730,309.20688,24.75,97665.75,1.1604307
76080660,76060512,3997730,308.84222,24.76,97670.0,1.1604812
76291789,76274179,3997730,309.31522,24.75,97664.49,1.1604158
76513170,76490321,3997730,309.1646,24.75,97666.25,1.1604366
76673917,76651262,3997730,309.65872,24.75,97660.5,1.1603683
76885262,76864970,3997730,309.35748,24.75,97664.0,1.1604099
77096388,77078663,3997730,309.14346,24.76,97666.49,1.1604395
77317697,77294991,3997730,309.48697,24.76,97662.5,1.160392
77478605,77455877,3997730,309.55038,24.76,97661.75,1.1603831
77689869,77669456,3997730,309.4024,24.76,97663.49,1.1604038
77900570,77882960,3997730,309.48697,24.76,97662.5,1.160392
78121768,78099093,3997730,309.5953,24.76,97661.24,1.1603771
78282600,78259860,3997730,309.31522,24.76,97664.5,1.1604158
78493792,78473592,3997730,309.20688,24.76,97665.75,1.1604307
78704849,78687223,3997730,309.0589,24.76,97667.5,1.1604514
78865897,78848095,3997730,309.01398,24.769999,97668.0,1.1604574
79096973,79076837,3997730,309.18573,24.76,97666.0,1.1604337
79308408,79290598,3997730,309.1012,24.769999,97667.0,1.1604456
79469125,79451383,3997730,309.2518,24.769999,97665.25,1.1604247
79690401,79667534,3997730,309.5081,24.769999,97662.26,1.1603892
79901357,79881187,3997730,309.2518,24.769999,97665.25,1.1604247
80112459,80094690,3997730,308.95056,24.769999,97668.74,1.1604662
80273199,80255587,3997730,308.5225,24.769999,97673.75,1.1605257
80494660,80471896,3997730,308.6282,24.769999,97672.5,1.1605109
80705647,80685458,3997730,308.20016,24.769999,97677.5,1.1605703
80916647,80898914,3997730,308.54367,24.779999,97673.5,1.1605227
81077449,81059770,3997730,308.7154,24.769999,97671.5,1.160499
81298719,81276009,3997730,308.64935,24.769999,97672.25,1.1605079
81519827,81502199,3997730,309.1223,24.779999,97666.75,1.1604426
81680693,81663040,3997730,308.99286,24.779999,97668.24,1.1604602
81901788,81879168,3997730,308.9083,24.779999,97669.24,1.1604722
82112869,82092714,3997730,308.866,24.779999,97669.74,1.1604781
82273696,82253521,3997730,308.99286,24.779999,97668.24,1.1604602
82485026,82467255,3997730,308.9717,24.779999,97668.5,1.1604633
82716234,82696025,3997730,309.0589,24.779999,97667.5,1.1604514
82877199,82857002,3997730,309.1012,24.779999,97666.99,1.1604455
83108545,83085800,3997730,309.1223,24.779999,97666.75,1.1604426
83319712,83299527,3997730,309.33636,24.789999,97664.24,1.1604128
83480625,83460482,3997730,309.5081,24.779999,97662.24,1.160389
83691693,83674042,3997730,309.2518,24.789999,97665.25,1.1604247
83912788,83890120,3997730,309.27292,24.789999,97665.0,1.1604217
84073517,84050874,3997730,309.27292,24.789999,97665.0,1.1604217
84284639,84264512,3997730,309.35748,24.789999,97664.0,1.1604099
84495842,84478055,3997730,309.63492,24.789999,97660.76,1.1603713
84716946,84694123,3997730,309.27292,24.789999,97665.0,1.1604217
84877800,84855170,3997730,309.48697,24.789999,97662.5,1.160392
85098976,85074758,3997730,309.08267,24.789999,97667.2,1.160448
85320347,85297596,3997730,309.31522,24.789999,97664.5,1.1604158
85481040,85458415,3997730,309.08005,24.789999,97667.25,1.1604486
85692183,85672045,3997730,309.63757,24.789999,97660.74,1.1603712
85903172,85885565,3997730,309.228,24.789999,97665.5,1.1604277
86064236,86046530,3997730,309.1012,24.789999,97667.0,1.1604456
86285418,86262688,3997730,308.5859,24.789999,97673.0,1.1605169
86496475,86476360,3997730,309.42355,24.8,97663.24,1.1604009
86707596,86689958,3997730,308.88718,24.8,97669.49,1.1604751
86868451,86850811,3997730,308.73654,24.8,97671.25,1.160496
87089953,87067067,3997730,308.7788,24.8,97670.74,1.16049
87310984,87293359,3997730,309.18573,24.8,97666.0,1.1604337
87471862,87454192,3997730,309.35748,24.8,97664.0,1.1604099
87693070,87670394,3997730,309.31522,24.8,97664.5,1.1604158
87904505,87884213,3997730,309.0589,24.8,97667.5,1.1604514
88115532,88097898,3997730,309.701,24.8,97660.0,1.1603624
88276372,88258745,3997730,309.5081,24.8,97662.26,1.1603892
88497543,88474866,3997730,309.29407,24.8,97664.75,1.1604187
88709020,88688674,3997730,308.9083,24.81,97669.24,1.1604722
88920099,88902440,3997730,308.7788,24.8,97670.74,1.16049
89081184,89063374,3997730,309.0589,24.8,97667.5,1.1604514
89302334,89279643,3997730,308.9717,24.8,97668.49,1.1604632
89513501,89493342,3997730,308.9294,24.81,97669.0,1.1604693
89674393,89654273,3997730,308.866,24.81,97669.74,1.1604781
89885633,89867966,3997730,309.52927,24.81,97662.0,1.1603861
90106777,90084022,3997730,309.5953,24.81,97661.24,1.1603771
90268336,90244909,3997730,309.701,24.81,97660.0,1.1603624
90488777,90471084,3997730,309.33636,24.81,97664.25,1.1604129
90709854,90687231,3997730,309.2518,24.81,97665.25,1.1604247
90921040,90900870,3997730,308.73654,24.81,97671.25,1.160496
91082056,91061746,3997730,309.228,24.81,97665.5,1.1604277
91293074,91275405,3997730,308.84488,24.81,97669.99,1.1604811
91514417,91491631,3997730,308.7788,24.81,97670.75,1.16049
91675186,91652415,3997730,308.32965,24.82,97675.99,1.1605524
91886008,91865889,3997730,308.67047,24.81,97672.0,1.1605049
92097225,92079535,3997730,308.7788,24.82,97670.74,1.16049
92318889,92295826,3997730,308.45645,24.82,97674.5,1.1605346
92479387,92456737,3997730,308.39307,24.82,97675.25,1.1605436
92690515,92670385,3997730,308.39307,24.82,97675.24,1.1605434
92901743,92884058,3997730,308.7577,24.82,97671.0,1.160493
93123016,93100201,3997730,308.2424,24.82,97677.0,1.1605643
93283545,93260892,3997730,308.22128,24.82,97677.25,1.1605673
93494677,93474523,3997730,308.69427,24.82,97671.75,1.160502
93705784,93688179,3997730,308.6282,24.82,97672.5,1.1605109
93866816,93849183,3997730,308.6282,24.82,97672.5,1.1605109
94088109,94065471,3997730,308.49872,24.82,97674.0,1.1605287
94299397,94279236,3997730,308.67047,24.82,97672.0,1.1605049
94510511,94492852,3997730,309.1012,24.82,97666.99,1.1604455
94671224,94653551,3997730,308.9083,24.82,97669.24,1.1604722
94902409,94882274,3997730,308.7154,24.82,97671.5,1.160499
95113396,95095759,3997730,308.866,24.83,97669.74,1.1604781
95274304,95256668,3997730,308.7788,24.83,97670.75,1.16049
95495472,95472783,3997730,308.69427,24.82,97671.75,1.160502
95706659,95686441,3997730,309.65872,24.83,97660.5,1.1603683
95917740,95900115,3997730,309.35748,24.83,97663.99,1.1604098
96078718,96060993,3997730,308.9294,24.83,97668.99,1.1604692
96299833,96277098,3997730,309.08005,24.83,97667.24,1.1604484
96510793,96490655,3997730,309.37863,24.83,97663.74,1.1604068
96721892,96704234,3997730,309.48697,24.83,97662.49,1.1603919
96882624,96864997,3997730,309.37863,24.83,97663.74,1.1604068
97103825,97081181,3997730,309.42355,24.83,97663.24,1.1604009
97314919,97294801,3997730,308.866,24.84,97669.74,1.1604781
97475869,97455739,3997730,308.6071,24.83,97672.75,1.1605139
97687051,97669329,3997730,308.8211,24.84,97670.24,1.1604841
97908168,97885531,3997730,309.31522,24.83,97664.49,1.1604158
98069500,98046304,3997730,308.49872,24.83,97674.0,1.1605287
98290172,98272562,3997730,308.84488,24.84,97669.99,1.1604811
98511188,98488549,3997730,309.5953,24.84,97661.24,1.1603771
98722364,98702131,3997730,309.35748,24.84,97663.99,1.1604098
98883246,98862981,3997730,309.14346,24.83,97666.5,1.1604396
99114515,99091842,3997730,308.9717,24.84,97668.5,1.1604633
99275189,99252561,3997730,308.07068,24.84,97679.0,1.1605881
99496486,99478645,3997730,307.87778,24.84,97681.25,1.1606148
99718227,99695047,3997730,307.9412,24.84,97680.51,1.160606
99888859,99868543,3997730,308.02838,24.84,97679.5,1.160594
100099930,100082245,3997730,308.2847,24.83,97676.49,1.1605583
100321337,100298541,3997730,308.17905,24.84,97677.75,1.1605732
100482310,100459508,3997730,308.04956,24.84,97679.25,1.1605911
100693378,100673152,3997730,307.4709,24.84,97686.0,1.1606712
100904571,100886822,3997730,307.85666,24.84,97681.49,1.1606177
101065360,101047697,3997730,307.79324,24.84,97682.25,1.1606268
101286658,101263864,3997730,307.7721,24.85,97682.5,1.1606297
101497862,101477645,3997730,307.7721,24.84,97682.5,1.1606297
101709073,101691429,3997730,307.79324,24.85,97682.25,1.1606268
101870205,101852433,3997730,308.22128,24.84,97677.25,1.1605673
102091460,102068659,3997730,307.83554,24.84,97681.75,1.1606208
102302689,102282567,3997730,308.2424,24.85,97677.0,1.1605643
102513634,102496017,3997730,308.22128,24.85,97677.25,1.1605673
102674569,102656893,3997730,308.35077,24.84,97675.75,1.1605495
102895964,102873061,3997730,308.45645,24.85,97674.5,1.1605346
103106889,103086703,3997730,308.41418,24.84,97674.99,1.1605405
103318310,103300260,3997730,308.84222,24.85,97670.0,1.1604812
103478609,103461001,3997730,309.18573,24.85,97666.0,1.1604337
103699742,103677098,3997730,309.55038,24.85,97661.75,1.1603831
103910953,103890779,3997730,309.98108,24.85,97656.75,1.1603237
104121934,104104295,3997730,309.701,24.85,97660.0,1.1603624
104282848,104265218,3997730,309.701,24.85,97660.0,1.1603624
104503896,104481277,3997730,309.5715,24.85,97661.5,1.1603801
104665247,104642206,3997730,308.9083,24.85,97669.24,1.1604722
104886047,104868341,3997730,309.37863,24.85,97663.74,1.1604068
105107227,105084559,3997730,308.95056,24.85,97668.75,1.1604663
105318577,105298323,3997730,309.39978,24.85,97663.5,1.160404
105489525,105465336,3997730,309.85425,24.85,97658.2,1.160341
105710631,105687956,3997730,309.0589,24.85,97667.49,1.1604514
105921738,105901582,3997730,309.78552,24.85,97659.0,1.1603504
106082738,106062537,3997730,309.37863,24.85,97663.74,1.1604068
106293794,106276154,3997730,308.88718,24.85,97669.5,1.1604753
106515096,106492411,3997730,308.69427,24.859999,97671.75,1.160502
106726043,106705908,3997730,308.88718,24.85,97669.49,1.1604751
106886719,106866577,3997730,309.52927,24.85,97661.99,1.160386
107117990,107087737,3997730,309.41034,24.85,97663.4,1.1604028
107278917,107256243,3997730,309.95993,24.85,97656.99,1.1603266
107490688,107469902,3997730,309.35748,24.85,97664.0,1.1604099
107721584,107698886,3997730,308.49872,24.85,97674.0,1.1605287
107882361,107859721,3997730,308.11298,24.85,97678.5,1.1605822
108093684,108073380,3997730,308.04956,24.85,97679.25,1.1605911
108304945,108287229,3997730,308.2847,24.859999,97676.5,1.1605583
108465850,108448160,3997730,308.32965,24.85,97675.99,1.1605524
108687076,108664366,3997730,308.30847,24.85,97676.25,1.1605555
108898150,108877995,3997730,308.0918,24.85,97678.75,1.1605852
109109300,109091500,3997730,308.2847,24.85,97676.5,1.1605583
109270111,109252448,3997730,308.32965,24.859999,97675.99,1.1605524
109491184,109468460,3997730,308.11298,24.85,97678.5,1.1605822
109702242,109682099,3997730,308.3719,24.85,97675.5,1.1605465
109863532,109843049,3997730,308.00726,24.85,97679.75,1.160597
110094385,110071726,3997730,307.94385,24.85,97680.5,1.1606059
110305557,110285357,3997730,308.5225,24.85,97673.75,1.1605257
110516521,110498893,3997730,308.54367,24.85,97673.5,1.1605227
110677739,110659877,3997730,308.04956,24.859999,97679.25,1.1605911
110898749,110876057,3997730,308.00726,24.85,97679.75,1.160597
111110716,111089750,3997730,308.39307,24.85,97675.25,1.1605436
111280925,111263283,3997730,308.35077,24.859999,97675.75,1.1605495
111502131,111479480,3997730,308.5648,24.859999,97673.25,1.1605198
111713341,111693143,3997730,308.3719,24.85,97675.5,1.1605465
111874304,111854048,3997730,308.5225,24.85,97673.75,1.1605257
112085346,112067678,3997730,308.0918,24.859999,97678.75,1.1605852
112306541,112283856,3997730,308.3719,24.85,97675.5,1.1605465
112477652,112457480,3997730,308.4776,24.859999,97674.25,1.1605316
112688772,112671043,3997730,308.22128,24.859999,97677.25,1.1605673
112909757,112887128,3997730,308.39307,24.859999,97675.24,1.1605434
113120875,113100708,3997730,308.4353,24.859999,97674.75,1.1605376
113281729,113261540,3997730,308.4776,24.859999,97674.25,1.1605316
113492854,113475166,3997730,308.6071,24.859999,97672.75,1.1605139
113714150,113691273,3997730,308.7577,24.859999,97671.0,1.160493
113874894,113852184,3997730,308.9294,24.859999,97669.0,1.1604693
114085940,114065804,3997730,308.7154,24.85,97671.5,1.160499
114297225,114279516,3997730,308.84488,24.859999,97669.99,1.1604811
114478162,114455464,3997730,308.7788,24.859999,97670.74,1.16049
114689202,114669051,3997730,308.7154,24.859999,97671.5,1.160499
114900154,114882542,3997730,308.9294,24.859999,97668.99,1.1604692
115121481,115098710,3997730,308.84488,24.859999,97669.99,1.1604811
115282222,115259527,3997730,309.03778,24.859999,97667.74,1.1604544
115493399,115473270,3997730,308.69427,24.859999,97671.75,1.160502
115704722,115687013,3997730,308.866,24.859999,97669.74,1.1604781
115865680,115848038,3997730,309.0589,24.859999,97667.5,1.1604514
116086865,116064240,3997730,308.9083,24.859999,97669.24,1.1604722
116297938,116277798,3997730,308.99286,24.859999,97668.25,1.1604604
116469350,116444739,3997730,309.01398,24.859999,97668.0,1.1604574
116690115,116667474,3997730,308.8211,24.859999,97670.24,1.1604841
116911303,116887125,3997730,309.34164,24.859999,97664.195,1.1604122
117072266,117054563,3997730,309.0589,24.859999,97667.5,1.1604514
117293364,117270673,3997730,309.42355,24.859999,97663.24,1.1604009
117504486,117484347,3997730,309.5953,24.859999,97661.24,1.1603771
117675346,117651179,3997730,309.52927,24.859999,97662.0,1.1603861
117896679,117873878,3997730,309.65872,24.859999,97660.5,1.1603683
118117709,118093542,3997730,310.026,24.869999,97656.2,1.1603172
118278664,118260933,3997730,310.388,24.859999,97651.99,1.1602672
118499776,118477016,3997730,310.21622,24.869999,97654.0,1.1602911
118711034,118690912,3997730,310.02338,24.869999,97656.25,1.1603178
118922215,118904512,3997730,309.7433,24.869999,97659.5,1.1603564
119083128,119065398,3997730,309.83047,24.869999,97658.5,1.1603445
119304400,119281650,3997730,309.87277,24.869999,97657.99,1.1603385
119515461,119495276,3997730,309.67987,24.869999,97660.25,1.1603653
119676403,119656149,3997730,309.7644,24.869999,97659.24,1.1603533
119887593,119869810,3997730,310.1079,24.869999,97655.25,1.1603059
120108809,120086016,3997730,310.0022,24.869999,97656.5,1.1603208
120319885,120299710,3997730,310.5809,24.869999,97649.75,1.1602405
120481435,120460455,3997730,311.26788,24.869999,97641.74,1.1601454
120711998,120689164,3997730,311.2018,24.869999,97642.5,1.1601545
120923240,120902909,3997730,310.36688,24.869999,97652.25,1.1602702
121084031,121063848,3997730,310.38535,24.869999,97652.0,1.1602674
121295359,121277563,3997730,310.45142,24.869999,97651.25,1.1602584
121516596,121493855,3997730,310.36688,24.869999,97652.25,1.1602702
121677408,121654732,3997730,310.32193,24.88,97652.75,1.1602762
121888751,121868474,3997730,310.0656,24.88,97655.75,1.1603118
122119792,122089541,3997730,310.16342,24.869999,97654.6,1.1602982
122280729,122257998,3997730,310.51483,24.869999,97650.5,1.1602495
122491960,122471808,3997730,310.49368,24.869999,97650.75,1.1602525
122702974,122685341,3997730,310.87946,24.869999,97646.25,1.1601989
122863789,122846153,3997730,310.7315,24.869999,97648.0,1.1602198
123085040,123062380,3997730,310.45142,24.869999,97651.25,1.1602584
123297077,123275923,3997730,310.36688,24.869999,97652.25,1.1602702
123466967,123449238,3997730,310.5809,24.869999,97649.75,1.1602405
123688105,123665449,3997730,310.66544,24.869999,97648.75,1.1602287
123899202,123879035,3997730,310.62314,24.869999,97649.25,1.1602346
124110302,124092677,3997730,310.49368,24.869999,97650.75,1.1602525
124271172,124253488,3997730,310.2374,24.869999,97653.75,1.1602881
124492498,124469654,3997730,310.47253,24.869999,97651.0,1.1602554
124703408,124683232,3997730,310.5386,24.869999,97650.25,1.1602465
124914614,124896904,3997730,310.49368,24.869999,97650.75,1.1602525
125075603,125057823,3997730,310.49368,24.859999,97650.75,1.1602525
125296805,125273997,3997730,310.68658,24.869999,97648.5,1.1602257
125517901,125500255,3997730,310.79492,24.859999,97647.25,1.1602108
125678668,125661040,3997730,310.7077,24.869999,97648.25,1.1602228
125899913,125877204,3997730,310.49368,24.869999,97650.75,1.1602525
126110927,126090703,3997730,310.81604,24.869999,97647.0,1.1602079
126322018,126304267,3997730,310.75262,24.869999,97647.75,1.1602168
126482867,126465206,3997730,310.9006,24.859999,97646.0,1.1601961
126704035,126681353,3997730,310.94553,24.869999,97645.49,1.16019
126915036,126894908,3997730,310.81604,24.869999,97647.0,1.1602079
127085987,127061809,3997730,310.9878,24.869999,97645.0,1.1601841
127307013,127284361,3997730,311.0512,24.869999,97644.24,1.1601751
127518151,127498009,3997730,311.0327,24.859999,97644.49,1.1601781
127679081,127658790,3997730,310.7077,24.869999,97648.25,1.1602228
127890064,127872433,3997730,310.7077,24.869999,97648.25,1.1602228
128111338,128088646,3997730,310.96664,24.869999,97645.24,1.160187
128322411,128302239,3997730,310.79492,24.859999,97647.25,1.1602108
128483372,128463128,3997730,311.3947,24.869999,97640.25,1.1601276
128694527,128676848,3997730,311.24673,24.869999,97641.99,1.1601484
128915540,128892868,3997730,311.0512,24.869999,97644.24,1.1601751
129076576,129053661,3997730,311.13843,24.869999,97643.24,1.1601633
129287616,129267471,3997730,311.26523,24.869999,97641.75,1.1601455
129519058,129488654,3997730,311.2626,24.869999,97641.8,1.1601461
129679735,129657093,3997730,311.2018,24.869999,97642.49,1.1601543
129891775,129870653,3997730,311.223,24.869999,97642.25,1.1601515
130121875,130099218,3997730,310.62314,24.869999,97649.25,1.1602346
130282736,130260084,3997730,310.85834,24.869999,97646.5,1.1602019
130493954,130473779,3997730,311.13843,24.869999,97643.25,1.1601633
130705165,130687478,3997730,311.00894,24.869999,97644.74,1.160181
130866120,130848380,3997730,310.87946,24.869999,97646.25,1.1601989
131087338,131064682,3997730,311.223,24.869999,97642.25,1.1601515
131298367,131278197,3997730,311.1807,24.869999,97642.75,1.1601574
131509637,131491812,3997730,311.0512,24.869999,97644.24,1.1601751
131670519,131652715,3997730,310.92438,24.869999,97645.74,1.160193
131891790,131869168,3997730,310.77377,24.869999,97647.5,1.1602138
132102888,132082750,3997730,311.24673,24.869999,97641.99,1.1601484
132314054,132296424,3997730,311.15955,24.869999,97642.99,1.1601603
132474927,132457225,3997730,310.77377,24.869999,97647.5,1.1602138
132696106,132673450,3997730,311.35245,24.869999,97640.75,1.1601336
132907302,132887078,3997730,311.2018,24.869999,97642.5,1.1601545
133118555,133100939,3997730,311.3736,24.869999,97640.5,1.1601306
133279472,133261702,3997730,311.54532,24.869999,97638.5,1.1601069
133500546,133477851,3997730,311.5242,24.869999,97638.75,1.1601099
133711555,133691343,3997730,311.1807,24.869999,97642.75,1.1601574
133922866,133905164,3997730,311.60873,24.869999,97637.74,1.1600978
134083692,134066063,3997730,311.41583,24.869999,97640.0,1.1601248
134304900,134282094,3997730,311.50305,24.869999,97638.99,1.1601127
134475680,134455539,3997730,311.82275,24.869999,97635.25,1.1600683
134687155,134669341,3997730,311.60873,24.869999,97637.74,1.1600978
134918412,134898234,3997730,311.437,24.869999,97639.75,1.1601218
135079373,135059149,3997730,311.60873,24.88,97637.74,1.1600978
135310531,135287886,3997730,311.73822,24.869999,97636.24,1.1600801
135523067,135501504,3997730,311.78052,24.869999,97635.75,1.1600742
135712680,135689888,3997730,311.97336,24.869999,97633.5,1.1600475
135873405,135850737,3997730,312.31686,24.869999,97629.51,1.1600001
136084634,136064377,3997730,311.95224,24.869999,97633.75,1.1600505
136295686,136278018,3997730,311.73822,24.869999,97636.25,1.1600802
136516923,136494160,3997730,311.75934,24.88,97636.0,1.1600772
136677674,136655041,3997730,311.65366,24.869999,97637.24,1.160092
136898882,136874749,3997730,311.55325,24.869999,97638.4,1.1601057
137119988,137097319,3997730,311.3947,24.869999,97640.25,1.1601276
137280892,137258255,3997730,311.35245,24.869999,97640.75,1.1601336
137492081,137471850,3997730,311.35245,24.869999,97640.75,1.1601336
137703107,137685462,3997730,311.1807,24.869999,97642.75,1.1601574
137863983,137846282,3997730,311.62985,24.869999,97637.5,1.160095
138085220,138062480,3997730,311.60873,24.869999,97637.74,1.1600978
138296346,138276178,3997730,312.55472,24.869999,97626.74,1.1599672
138507572,138489905,3997730,312.19003,24.869999,97630.99,1.1600177
138668449,138650724,3997730,312.55472,24.869999,97626.74,1.1599672
138889599,138866845,3997730,311.75934,24.869999,97636.0,1.1600772
139100636,139080418,3997730,311.90994,24.869999,97634.25,1.1600564
139311946,139294210,3997730,312.23233,24.88,97630.49,1.1600118
139472836,139455088,3997730,312.10284,24.869999,97632.0,1.1600296
139694107,139671371,3997730,312.57584,24.869999,97626.49,1.1599642
139905197,139885016,3997730,312.40405,24.869999,97628.49,1.159988
140076181,140051857,3997730,312.0685,24.869999,97632.39,1.1600343
140297303,140274530,3997730,311.78052,24.869999,97635.75,1.1600742
140518489,140494283,3997730,311.84656,24.869999,97635.0,1.1600653
140679542,140661802,3997730,312.38293,24.869999,97628.75,1.159991
140900414,140877791,3997730,312.31686,24.869999,97629.5,1.16
141111451,141091299,3997730,312.29575,24.869999,97629.75,1.160003
141322578,141304958,3997730,311.54532,24.869999,97638.5,1.1601069
141483527,141465816,3997730,311.60873,24.869999,97637.74,1.1600978
141704790,141682100,3997730,310.94553,24.869999,97645.49,1.16019
141915825,141895712,3997730,310.92438,24.869999,97645.74,1.160193
142076881,142056530,3997730,310.77377,24.869999,97647.5,1.1602138
142307929,142285251,3997730,311.35245,24.869999,97640.75,1.1601336
142518943,142498830,3997730,311.4608,24.869999,97639.5,1.1601188
142679862,142659670,3997730,311.5242,24.869999,97638.74,1.1601098
142890788,142873103,3997730,311.35245,24.869999,97640.75,1.1601336
143111838,143089167,3997730,310.96664,24.869999,97645.24,1.160187
143323055,143302774,3997730,310.79492,24.869999,97647.25,1.1602108
143483822,143463700,3997730,311.13843,24.869999,97643.24,1.1601633
143695145,143677434,3997730,311.4819,24.869999,97639.24,1.1601157
143916311,143893548,3997730,311.11728,24.869999,97643.49,1.1601663
144077069,144054445,3997730,311.30753,24.869999,97641.25,1.1601396
144318633,144295891,3997730,310.7315,24.869999,97648.0,1.1602198
144479452,144456754,3997730,310.60202,24.869999,97649.5,1.1602376
144720787,144698094,3997730,311.35245,24.869999,97640.75,1.1601336
144881581,144858942,3997730,311.13843,24.869999,97643.24,1.1601633
145092582,145072464,3997730,311.437,24.869999,97639.75,1.1601218
145304057,145286246,3997730,311.1807,24.869999,97642.75,1.1601574
145464815,145447188,3997730,310.79492,24.869999,97647.25,1.1602108
145686044,145663400,3997730,310.77377,24.869999,97647.5,1.1602138
145897141,145876970,3997730,310.7077,24.88,97648.25,1.1602228
146108301,146090638,3997730,310.7315,24.88,97648.0,1.1602198
146269311,146251625,3997730,311.0327,24.869999,97644.49,1.1601781
146490274,146467586,3997730,310.96664,24.88,97645.24,1.160187
146701395,146681254,3997730,311.35245,24.869999,97640.75,1.1601336
146912662,146894882,3997730,311.3313,24.869999,97641.0,1.1601366
147073485,147055815,3997730,311.437,24.869999,97639.75,1.1601218
147294738,147271951,3997730,311.0512,24.869999,97644.24,1.1601751
147505707,147485587,3997730,310.8372,24.869999,97646.75,1.1602049
147716814,147699166,3997730,310.9006,24.869999,97646.0,1.1601961
147877609,147859967,3997730,311.075,24.869999,97643.99,1.1601721
148098910,148076125,3997730,310.7315,24.869999,97648.0,1.1602198
148310061,148289868,3997730,310.77377,24.869999,97647.5,1.1602138
148521119,148503468,3997730,310.62314,24.88,97649.25,1.1602346
148682218,148664477,3997730,310.79492,24.88,97647.25,1.1602108
148903440,148880614,3997730,310.87946,24.88,97646.25,1.1601989
149114458,149094311,3997730,310.5386,24.88,97650.25,1.1602465
149275200,149255048,3997730,310.60202,24.88,97649.5,1.1602376
149486185,149468541,3997730,310.81604,24.88,97647.0,1.1602079
149707303,149684610,3997730,310.5386,24.88,97650.25,1.1602465
149918792,149898380,3997730,310.87946,24.88,97646.25,1.1601989
150079435,150059272,3997730,310.49368,24.88,97650.75,1.1602525
150310640,150280484,3997730,310.69714,24.88,97648.4,1.1602246
150521986,150501764,3997730,310.9006,24.88,97646.0,1.1601961
150682634,150662493,3997730,310.75262,24.88,97647.75,1.1602168
150893826,150876186,3997730,310.68658,24.88,97648.5,1.1602257
151115085,151092269,3997730,310.92438,24.88,97645.74,1.160193
151275850,151253113,3997730,310.96664,24.88,97645.24,1.160187
151486989,151466769,3997730,310.66544,24.88,97648.75,1.1602287
151698152,151680426,3997730,310.40912,24.88,97651.74,1.1602643
151919387,151896543,3997730,310.60202,24.88,97649.5,1.1602376
152080221,152057374,3997730,310.85834,24.88,97646.5,1.1602019
152291176,152271005,3997730,310.7077,24.88,97648.25,1.1602228
152502386,152484687,3997730,311.00894,24.88,97644.74,1.160181
152663085,152645478,3997730,311.1807,24.88,97642.75,1.1601574
152884262,152861503,3997730,311.15955,24.88,97642.99,1.1601603
153095251,153075112,3997730,311.7171,24.88,97636.5,1.1600832
153306362,153288722,3997730,311.5242,24.88,97638.74,1.1601098
153467396,153449728,3997730,311.3313,24.88,97640.99,1.1601365
153698575,153678456,3997730,311.3947,24.88,97640.25,1.1601276
153909931,153892204,3997730,311.2018,24.88,97642.5,1.1601545
154070814,154053148,3997730,311.0512,24.88,97644.24,1.1601751
154291961,154269286,3997730,311.2018,24.88,97642.5,1.1601545
154503118,154482924,3997730,311.3736,24.88,97640.5,1.1601306
154714380,154696598,3997730,311.5665,24.88,97638.24,1.1601038
154895225,154872548,3997730,311.58762,24.88,97637.99,1.1601008
155106358,155086197,3997730,311.6748,24.88,97637.0,1.160089
155317426,155299777,3997730,311.80164,24.88,97635.51,1.1600714
155478363,155460709,3997730,311.84656,24.88,97635.0,1.1600653
155709514,155689401,3997730,311.5242,24.88,97638.74,1.1601098
155920646,155903031,3997730,310.94553,24.88,97645.49,1.16019
156081653,156063932,3997730,310.94553,24.88,97645.49,1.16019
156302721,156280080,3997730,311.35245,24.88,97640.75,1.1601336
156513848,156493696,3997730,311.73822,24.88,97636.25,1.1600802
156674703,156654496,3997730,311.5242,24.89,97638.74,1.1601098
156906050,156883407,3997730,311.09613,24.88,97643.75,1.1601692
157117108,157096892,3997730,311.90994,24.88,97634.25,1.1600564
157278124,157257806,3997730,312.12402,24.88,97631.75,1.1600267
157489299,157471526,3997730,311.80164,24.88,97635.5,1.1600713
157720440,157700286,3997730,311.3313,24.88,97640.99,1.1601365
157881181,157861008,3997730,311.15955,24.88,97643.0,1.1601604
158092551,158074792,3997730,310.96664,24.88,97645.24,1.160187
158313609,158290931,3997730,311.00894,24.88,97644.74,1.160181
158524847,158504652,3997730,311.13843,24.88,97643.25,1.1601633
158685835,158665543,3997730,311.075,24.88,97643.99,1.1601721
158896906,158879202,3997730,311.41583,24.88,97640.0,1.1601248
159118102,159095231,3997730,311.41583,24.88,97639.99,1.1601247
159278864,159256204,3997730,312.1874,24.88,97631.0,1.1600177
159490049,159469913,3997730,311.80164,24.88,97635.5,1.1600713
159701167,159683551,3997730,311.35245,24.88,97640.75,1.1601336
159922604,159899814,3997730,311.15955,24.88,97643.0,1.1601604
160083418,160060737,3997730,310.7315,24.88,97648.0,1.1602198
160294496,160274382,3997730,310.64432,24.88,97649.0,1.1602317
160505666,160487995,3997730,310.87946,24.88,97646.25,1.1601989
160666561,160648929,3997730,311.09613,24.89,97643.74,1.1601691
160887814,160865102,3997730,311.2018,24.88,97642.49,1.1601543
161108904,161091266,3997730,311.0512,24.88,97644.24,1.1601751
161269703,161252040,3997730,311.28903,24.88,97641.5,1.1601425
161490677,161468058,3997730,310.51483,24.88,97650.5,1.1602495
161701781,161681657,3997730,310.1951,24.88,97654.25,1.160294
161912930,161895204,3997730,310.75262,24.88,97647.75,1.1602168
162073738,162055993,3997730,310.85834,24.89,97646.5,1.1602019
162294936,162272156,3997730,310.9006,24.88,97646.0,1.1601961
162507388,162485791,3997730,310.68658,24.88,97648.5,1.1602257
162697132,162674290,3997730,310.5386,24.89,97650.25,1.1602465
162908266,162888010,3997730,310.55972,24.88,97649.99,1.1602434
163119336,163101658,3997730,310.45142,24.88,97651.25,1.1602584
163280182,163262541,3997730,310.45142,24.88,97651.25,1.1602584
163501416,163478647,3997730,310.49368,24.88,97650.75,1.1602525
163712589,163692317,3997730,310.5386,24.88,97650.25,1.1602465
163873419,163853267,3997730,310.96664,24.88,97645.24,1.160187
164084595,164066939,3997730,310.49368,24.88,97650.75,1.1602525
164305709,164283079,3997730,310.60202,24.88,97649.5,1.1602376
164516954,164496704,3997730,310.87946,24.88,97646.25,1.1601989
164677696,164657581,3997730,310.85834,24.88,97646.5,1.1602019
164888951,164871329,3997730,310.9878,24.88,97644.99,1.160184
165120388,165100184,3997730,310.55972,24.88,97650.0,1.1602435
165281144,165260995,3997730,310.8372,24.88,97646.75,1.1602049
165492248,165474567,3997730,311.0327,24.88,97644.49,1.1601781
165713375,165690676,3997730,310.36688,24.88,97652.25,1.1602702
165874184,165851477,3997730,310.32193,24.88,97652.75,1.1602762
166085406,166065194,3997730,310.7077,24.88,97648.25,1.1602228
166296691,166279052,3997730,310.51483,24.88,97650.5,1.1602495
166517841,166495170,3997730,310.66544,24.88,97648.75,1.1602287
166678692,166656001,3997730,311.13843,24.88,97643.24,1.1601633
166889801,166869647,3997730,311.4819,24.88,97639.24,1.1601157
167121030,167098371,3997730,311.1807,24.88,97642.75,1.1601574
167282020,167259273,3997730,310.92438,24.88,97645.74,1.160193
167493208,167472998,3997730,310.0868,24.88,97655.5,1.1603088
167704354,167686708,3997730,310.51483,24.88,97650.5,1.1602495
167865219,167847530,3997730,310.66544,24.88,97648.75,1.1602287
168086233,168063508,3997730,310.79492,24.88,97647.25,1.1602108
168297465,168277184,3997730,310.388,24.88,97651.99,1.1602672
168508357,168490728,3997730,310.3008,24.88,97653.0,1.1602792
168689392,168659200,3997730,310.50693,24.869999,97650.6,1.1602507
168900720,168880442,3997730,310.96664,24.88,97645.24,1.160187
169111686,169093990,3997730,311.0512,24.88,97644.24,1.1601751
169272498,169254895,3997730,310.79492,24.88,97647.25,1.1602108
169493608,169470940,3997730,310.40912,24.88,97651.74,1.1602643
169704851,169684738,3997730,310.32193,24.88,97652.75,1.1602762
169916310,169898516,3997730,310.32193,24.88,97652.75,1.1602762
170076998,170059356,3997730,310.388,24.88,97651.99,1.1602672
170298196,170275464,3997730,310.7077,24.88,97648.25,1.1602228
170509251,170489059,3997730,310.43027,24.88,97651.5,1.1602614
170720423,170702787,3997730,310.66544,24.88,97648.75,1.1602287
170881390,170863704,3997730,310.7077,24.88,97648.25,1.1602228
171102548,171079916,3997730,310.79492,24.88,97647.25,1.1602108
171313827,171293694,3997730,310.60202,24.88,97649.5,1.1602376
171474670,171454555,3997730,310.32193,24.88,97652.75,1.1602762
171685748,171668144,3997730,310.79492,24.88,97647.25,1.1602108
171907050,171884333,3997730,310.7077,24.88,97648.25,1.1602228
172118032,172097908,3997730,311.11728,24.88,97643.5,1.1601663
172278929,172258620,3997730,310.81604,24.88,97647.0,1.1602079
172489788,172472147,3997730,310.43027,24.88,97651.49,1.1602613
172710924,172688208,3997730,310.64432,24.88,97649.0,1.1602317
172922185,172901946,3997730,310.7315,24.88,97648.0,1.1602198
173083082,173062836,3997730,310.81604,24.88,97647.0,1.1602079
173294243,173276544,3997730,310.34308,24.869999,97652.5,1.1602732
173515347,173492596,3997730,310.388,24.88,97651.99,1.1602672
173676165,173653541,3997730,311.00894,24.88,97644.75,1.1601812
173887541,173867284,3997730,310.79492,24.88,97647.25,1.1602108
174098710,174080972,3997730,311.11728,24.88,97643.49,1.1601663
174319720,174297030,3997730,311.30753,24.88,97641.25,1.1601396
174490531,174470358,3997730,311.4819,24.88,97639.25,1.1601158
174701708,174684066,3997730,310.94553,24.869999,97645.49,1.16019
174862621,174844952,3997730,310.43027,24.88,97651.5,1.1602614
175083857,175061113,3997730,309.52927,24.88,97662.0,1.1603861
175294885,175274728,3997730,309.63757,24.88,97660.74,1.1603712
175506022,175488396,3997730,308.95056,24.88,97668.74,1.1604662
175686955,175664336,3997730,309.08005,24.869999,97667.25,1.1604486
175898204,175877984,3997730,309.14346,24.869999,97666.5,1.1604396
176109128,176091497,3997730,309.14346,24.88,97666.5,1.1604396
176270095,176252322,3997730,309.46582,24.88,97662.74,1.1603949
176491124,176468487,3997730,308.88718,24.88,97669.49,1.1604751
176702183,176682034,3997730,308.9083,24.88,97669.24,1.1604722
176913423,176895701,3997730,308.84222,24.88,97670.0,1.1604812
177074174,177056518,3997730,308.69427,24.88,97671.75,1.160502
177295445,177272646,3997730,309.0166,24.869999,97667.99,1.1604574
177506476,177486251,3997730,308.69427,24.88,97671.75,1.160502
177668345,177647172,3997730,308.73654,24.88,97671.25,1.160496
177898651,177875989,3997730,308.84488,24.869999,97669.99,1.1604811
178109917,178089754,3997730,308.7577,24.869999,97671.0,1.160493
178321039,178303374,3997730,308.79996,24.88,97670.49,1.160487
178501880,178471721,3997730,309.01398,24.869999,97668.0,1.1604574
178713089,178692948,3997730,308.8211,24.869999,97670.24,1.1604841
178874103,178853916,3997730,309.08005,24.869999,97667.25,1.1604486
179085213,179067595,3997730,308.73654,24.869999,97671.25,1.160496
179306354,179283694,3997730,309.14346,24.869999,97666.5,1.1604396
179517479,179497237,3997730,308.4776,24.869999,97674.25,1.1605316
179679476,179658117,3997730,309.08005,24.869999,97667.25,1.1604486
179909478,179886842,3997730,308.64935,24.869999,97672.25,1.1605079
180120561,180100442,3997730,308.7577,24.869999,97671.0,1.160493
180281634,180261475,3997730,308.8211,24.869999,97670.24,1.1604841
180492607,180474983,3997730,308.88718,24.869999,97669.49,1.1604751
180713754,180691114,3997730,308.79996,24.869999,97670.49,1.160487
180924867,180904633,3997730,308.8211,24.869999,97670.24,1.1604841
181085803,181065580,3997730,308.99286,24.869999,97668.25,1.1604604
181297400,181279239,3997730,308.54367,24.869999,97673.5,1.1605227
181518223,181495592,3997730,308.49872,24.869999,97674.0,1.1605287
181678928,181656246,3997730,308.5648,24.869999,97673.25,1.1605198
181890068,181869891,3997730,308.67047,24.869999,97672.0,1.1605049
182101274,182083513,3997730,308.9083,24.859999,97669.24,1.1604722
182322547,182299787,3997730,308.7788,24.869999,97670.74,1.16049
182483223,182460562,3997730,308.5648,24.869999,97673.25,1.1605198
182694277,182674105,3997730,308.9083,24.869999,97669.24,1.1604722
182905608,182887801,3997730,308.49872,24.869999,97674.0,1.1605287
183066446,183048831,3997730,308.88718,24.869999,97669.49,1.1604751
183287633,183264942,3997730,308.49872,24.869999,97674.0,1.1605287
183498722,183478550,3997730,308.6071,24.869999,97672.75,1.1605139
183709892,183692270,3997730,308.4776,24.869999,97674.25,1.1605316
183870810,183853167,3997730,308.6071,24.869999,97672.75,1.1605139
184091955,184069336,3997730,308.88718,24.869999,97669.49,1.1604751
184303416,184283188,3997730,308.73654,24.869999,97671.25,1.160496
184514380,184496747,3997730,308.9294,24.859999,97668.99,1.1604692
184675221,184657554,3997730,308.49872,24.869999,97674.0,1.1605287
184896327,184873657,3997730,308.5225,24.869999,97673.75,1.1605257
185107383,185087231,3997730,308.2424,24.859999,97677.0,1.1605643
185318643,185300978,3997730,308.39307,24.869999,97675.25,1.1605436
185499534,185476867,3997730,308.39307,24.869999,97675.25,1.1605436
185710568,185690450,3997730,308.30847,24.859999,97676.24,1.1605554
185921725,185904086,3997730,308.54367,24.859999,97673.5,1.1605227
186082728,186065077,3997730,309.1012,24.869999,97666.99,1.1604455
186303868,186281181,3997730,308.88718,24.859999,97669.49,1.1604751
186514987,186494810,3997730,308.6282,24.859999,97672.5,1.1605109
186675778,186655617,3997730,308.39307,24.869999,97675.25,1.1605436
186886939,186869203,3997730,308.6282,24.859999,97672.5,1.1605109
187108121,187085404,3997730,308.5648,24.859999,97673.25,1.1605198
187319246,187299012,3997730,308.4776,24.859999,97674.25,1.1605316
187490095,187465954,3997730,308.60443,24.859999,97672.79,1.1605144
187711326,187688556,3997730,308.54367,24.859999,97673.5,1.1605227
187922519,187902326,3997730,308.54367,24.859999,97673.49,1.1605227
188083450,188063204,3997730,308.50137,24.859999,97673.99,1.1605287
188294525,188276890,3997730,308.35077,24.859999,97675.75,1.1605495
188515596,188492954,3997730,307.92007,24.859999,97680.75,1.1606089
188676786,188653976,3997730,307.83554,24.859999,97681.75,1.1606208
188887848,188867622,3997730,307.70605,24.859999,97683.25,1.1606386
189098995,189081376,3997730,307.60034,24.859999,97684.5,1.1606535
189320264,189297502,3997730,307.94385,24.859999,97680.5,1.1606059
189480995,189458313,3997730,307.64264,24.859999,97684.0,1.1606475
189692100,189671915,3997730,307.70605,24.859999,97683.25,1.1606386
189903222,189885555,3997730,307.85666,24.859999,97681.5,1.1606178
190064248,190046506,3997730,307.66376,24.859999,97683.75,1.1606445
190285410,190262779,3997730,307.51315,24.859999,97685.5,1.1606654
190496428,190476316,3997730,307.44974,24.859999,97686.24,1.1606741
190707711,190689841,3997730,307.29913,24.859999,97688.0,1.1606951
190868316,190850579,3997730,307.5343,24.859999,97685.24,1.1606623
191089472,191066562,3997730,307.12738,24.859999,97690.0,1.1607188
191300647,191280486,3997730,307.12738,24.859999,97690.0,1.1607188
191511856,191494181,3997730,307.21457,24.859999,97688.99,1.1607069
191672782,191655038,3997730,307.06393,24.859999,97690.75,1.1607277
191893982,191871241,3997730,307.49203,24.85,97685.76,1.1606684
192105208,192085054,3997730,307.51315,24.859999,97685.5,1.1606654
192316701,192298481,3997730,307.70605,24.859999,97683.25,1.1606386
192477024,192459279,3997730,307.70605,24.859999,97683.25,1.1606386
192698161,192675472,3997730,308.07068,24.859999,97679.0,1.1605881
192919405,192901749,3997730,308.0918,24.859999,97678.75,1.1605852
193080219,193062608,3997730,308.30847,24.859999,97676.25,1.1605555
193311581,193291382,3997730,308.07068,24.859999,97679.0,1.1605881
193522629,193505011,3997730,308.5648,24.85,97673.25,1.1605198
193683539,193665923,3997730,308.54367,24.859999,97673.5,1.1605227
193904686,193882037,3997730,308.69427,24.859999,97671.75,1.160502
194075716,194055523,3997730,308.6071,24.85,97672.75,1.1605139
194286742,194269084,3997730,309.03513,24.859999,97667.75,1.1604544
194507929,194485237,3997730,309.20688,24.859999,97665.75,1.1604307
194719067,194698811,3997730,308.9717,24.85,97668.5,1.1604633
194879933,194859726,3997730,309.228,24.85,97665.5,1.1604277
195091010,195073391,3997730,309.39978,24.85,97663.5,1.160404
195312174,195289530,3997730,309.42355,24.859999,97663.24,1.1604009
195523225,195503068,3997730,309.46582,24.859999,97662.74,1.1603949
195684025,195663840,3997730,309.39978,24.859999,97663.5,1.160404
195895088,195877401,3997730,309.2518,24.85,97665.25,1.1604247
196116260,196093477,3997730,309.52927,24.85,97661.99,1.160386
196276895,196254275,3997730,309.37863,24.85,97663.74,1.1604068
196498085,196473880,3997730,309.22006,24.859999,97665.59,1.1604288
196719225,196696566,3997730,309.2518,24.85,97665.25,1.1604247
196880222,196857400,3997730,309.14346,24.859999,97666.5,1.1604396
197091355,197071173,3997730,309.52927,24.859999,97662.0,1.1603861
197322475,197292249,3997730,309.1699,24.859999,97666.195,1.1604359
197483389,197460639,3997730,309.01398,24.85,97668.0,1.1604574
197694525,197674253,3997730,308.9717,24.85,97668.5,1.1604633
197905515,197887837,3997730,308.95056,24.85,97668.74,1.1604662
198066613,198048724,3997730,309.1223,24.85,97666.75,1.1604426
198287556,198264899,3997730,309.03513,24.85,97667.75,1.1604544
198498616,198478453,3997730,309.61642,24.85,97661.0,1.1603743
198709887,198692163,3997730,309.80933,24.85,97658.75,1.1603475
198870652,198852981,3997730,309.78552,24.85,97659.0,1.1603504
199091861,199069092,3997730,310.21622,24.85,97654.0,1.1602911
199302834,199282618,3997730,310.388,24.85,97651.99,1.1602672
199513976,199496250,3997730,310.94553,24.85,97645.49,1.16019
199674901,199657195,3997730,311.0512,24.85,97644.24,1.1601751
199896041,199873415,3997730,311.13843,24.85,97643.24,1.1601633
200107284,200087030,3997730,311.00894,24.85,97644.74,1.160181
200278079,200253886,3997730,310.3193,24.85,97652.8,1.1602768
200499180,200476531,3997730,310.12903,24.85,97655.0,1.160303
200710419,200690121,3997730,310.40912,24.85,97651.75,1.1602644
200921503,200903888,3997730,310.5809,24.85,97649.75,1.1602405
201082368,201064692,3997730,310.96664,24.85,97645.24,1.160187
201303454,201280793,3997730,310.0656,24.85,97655.75,1.1603118
201514540,201494387,3997730,309.59268,24.85,97661.25,1.1603773
201675476,201655286,3997730,309.46582,24.85,97662.74,1.1603949
201906741,201884079,3997730,309.03513,24.85,97667.75,1.1604544
202117990,202097852,3997730,309.46582,24.85,97662.74,1.1603949
202278859,202258699,3997730,309.228,24.85,97665.5,1.1604277
202490060,202472357,3997730,309.14346,24.85,97666.5,1.1604396
202711035,202688408,3997730,309.14346,24.85,97666.5,1.1604396
202922171,202902053,3997730,309.48697,24.85,97662.49,1.1603919
203082939,203062761,3997730,309.55038,24.85,97661.74,1.1603831
203293917,203276308,3997730,309.8939,24.85,97657.75,1.1603357
203515228,203492516,3997730,309.95993,24.85,97656.99,1.1603266
203676017,203653391,3997730,309.98108,24.85,97656.75,1.1603237
203887129,203866956,3997730,310.0445,24.85,97656.0,1.1603148
204098139,204080519,3997730,309.80933,24.85,97658.75,1.1603475
204319249,204296621,3997730,309.7644,24.85,97659.25,1.1603534
204480138,204457465,3997730,309.8939,24.859999,97657.75,1.1603357
204691216,204671038,3997730,310.15018,24.859999,97654.75,1.1603
204902351,204884694,3997730,310.12903,24.85,97655.0,1.160303
205123615,205100818,3997730,310.0656,24.85,97655.75,1.1603118
205284357,205261674,3997730,310.3008,24.85,97653.0,1.1602792
205495619,205475354,3997730,310.62314,24.859999,97649.25,1.1602346
205666401,205642260,3997730,310.49103,24.859999,97650.8,1.160253
205887525,205864848,3997730,310.17398,24.85,97654.5,1.160297
206098842,206078605,3997730,310.75262,24.85,97647.75,1.1602168
206309810,206292162,3997730,310.87946,24.85,97646.25,1.1601989
206491003,206468171,3997730,310.34308,24.85,97652.5,1.1602732
206702298,206681885,3997730,310.75262,24.859999,97647.75,1.1602168
206913380,206895746,3997730,311.13843,24.85,97643.24,1.1601633
207074187,207056561,3997730,311.13843,24.859999,97643.24,1.1601633
207295458,207272712,3997730,311.13843,24.85,97643.25,1.1601633
207506424,207486244,3997730,311.35245,24.85,97640.75,1.1601336
207677349,207653134,3997730,311.2441,24.859999,97642.01,1.1601486
207898401,207875770,3997730,311.4608,24.85,97639.49,1.1601187
208109662,208089491,3997730,311.0327,24.85,97644.49,1.1601781
208320946,208303197,3997730,311.4819,24.85,97639.24,1.1601157
208481845,208464068,3997730,311.3947,24.85,97640.25,1.1601276
