timestamp,q[0],q[1],q[2],q[3],delta_q_reset[0],delta_q_reset[1],delta_q_reset[2],delta_q_reset[3],quat_reset_counter
18520697,0.7489348,0.030009253,-0.011905059,-0.66185683,-0.9979229,2.4686646e-09,1.7756754e-09,0.06442057,2
18525660,0.748809,0.03011243,-0.011766198,-0.66199696,-0.9979229,2.4686646e-09,1.7756754e-09,0.06442057,2
18570352,0.7483942,0.029919561,-0.01204676,-0.66246957,-0.9979229,2.4686646e-09,1.7756754e-09,0.06442057,2
18620010,0.74808544,0.030019645,-0.011997138,-0.6628146,-0.9979229,2.4686646e-09,1.7756754e-09,0.06442057,2
18669759,0.7481892,0.029883202,-0.012034836,-0.662703,-0.9979229,2.4686646e-09,1.7756754e-09,0.06442057,2
18724292,0.7478449,0.029852938,-0.012187541,-0.66309,-0.9979229,2.4686646e-09,1.7756754e-09,0.06442057,2
18768984,0.7475866,0.030056931,-0.012048014,-0.66337454,-0.9979229,2.4686646e-09,1.7756754e-09,0.06442057,2
18818644,0.7475193,0.029980803,-0.012179828,-0.66345143,-0.9979229,2.4686646e-09,1.7756754e-09,0.06442057,2
18873297,0.747339,0.030012881,-0.012101158,-0.6636545,-0.9979229,2.4686646e-09,1.7756754e-09,0.06442057,2
18922999,0.74717283,0.029735213,-0.012172264,-0.6638527,-0.9979229,2.4686646e-09,1.7756754e-09,0.06442057,2
18972581,0.74721617,0.029460974,-0.012269751,-0.66381437,-0.9979229,2.4686646e-09,1.7756754e-09,0.06442057,2
19017274,0.7468745,0.03021739,-0.011963036,-0.66417044,-0.9979229,2.4686646e-09,1.7756754e-09,0.06442057,2
19071897,0.7468099,0.029429121,-0.011930675,-0.664279,-0.9979229,2.4686646e-09,1.7756754e-09,0.06442057,2
19121560,0.74699175,0.02907691,-0.010944774,-0.66410697,-0.9979229,2.4686646e-09,1.7756754e-09,0.06442057,2
19171217,0.74757737,0.029076777,-0.011246186,-0.66344273,-0.9979229,2.4686646e-09,1.7756754e-09,0.06442057,2
19221027,0.74683493,0.029572451,-0.01138445,-0.6642541,-0.9979229,2.4686646e-09,1.7756754e-09,0.06442057,2
19270530,0.7472612,0.029274218,-0.010174733,-0.66380733,-0.9979229,2.4686646e-09,1.7756754e-09,0.06442057,2
19320187,0.74719334,0.02940798,-0.010953663,-0.66386557,-0.9979229,2.4686646e-09,1.7756754e-09,0.06442057,2
19369845,0.7472454,0.02928815,-0.011230988,-0.66380763,-0.9979229,2.4686646e-09,1.7756754e-09,0.06442057,2
19419552,0.747154,0.029143305,-0.010444029,-0.6639296,-0.9979229,2.4686646e-09,1.7756754e-09,0.06442057,2
19469226,0.7468754,0.029304795,-0.009891469,-0.66424435,-0.9979229,2.4686646e-09,1.7756754e-09,0.06442057,2
19518820,0.74702257,0.029260278,-0.010004272,-0.6640792,-0.9979229,2.4686646e-09,1.7756754e-09,0.06442057,2
19573445,0.7466724,0.029454151,-0.01039704,-0.6644583,-0.9979229,2.4686646e-09,1.7756754e-09,0.06442057,2
19623101,0.74697566,0.028792728,-0.00955553,-0.664159,-0.9979229,2.4686646e-09,1.7756754e-09,0.06442057,2
19672759,0.74701047,0.029089164,-0.009503764,-0.6641077,-0.9979229,2.4686646e-09,1.7756754e-09,0.06442057,2
19717462,0.74658996,0.028578795,-0.009409346,-0.6646038,-0.9979229,2.4686646e-09,1.7756754e-09,0.06442057,2
19772079,0.7465782,0.029148147,-0.009288257,-0.664594,-0.9979229,2.4686646e-09,1.7756754e-09,0.06442057,2
19821734,0.7466394,0.02890742,-0.009236705,-0.6645366,-0.9979229,2.4686646e-09,1.7756754e-09,0.06442057,2
19871391,0.74665964,0.028954206,-0.0096825715,-0.6645053,-0.9979229,2.4686646e-09,1.7756754e-09,0.06442057,2
19921049,0.7465138,0.029274354,-0.0095978435,-0.66465646,-0.9979229,2.4686646e-09,1.7756754e-09,0.06442057,2
19970707,0.7460171,0.029010024,-0.010214578,-0.66521627,-0.9979229,2.4686646e-09,1.7756754e-09,0.06442057,2
20020537,0.7460956,0.029596029,-0.01101614,-0.6650896,-0.9979229,2.4686646e-09,1.7756754e-09,0.06442057,2
20070025,0.74593043,0.029873805,-0.010326289,-0.6652735,-0.9979229,2.4686646e-09,1.7756754e-09,0.06442057,2
20119718,0.7457721,0.029317288,-0.011020822,-0.6654645,-0.9979229,2.4686646e-09,1.7756754e-09,0.06442057,2
20169339,0.7457106,0.029283654,-0.0098023685,-0.66555405,-0.9979229,2.4686646e-09,1.7756754e-09,0.06442057,2
20219004,0.7458366,0.030471234,-0.0118412115,-0.6653263,-0.9979229,2.4686646e-09,1.7756754e-09,0.06442057,2
20273708,0.7455245,0.029816031,-0.012227287,-0.66569877,-0.9979229,2.4686646e-09,1.7756754e-09,0.06442057,2
20323278,0.7453817,0.029270425,-0.0097184675,-0.66592413,-0.9979229,2.4686646e-09,1.7756754e-09,0.06442057,2
20367973,0.7453937,0.030286023,-0.010678163,-0.66585064,-0.9979229,2.4686646e-09,1.7756754e-09,0.06442057,2
20417629,0.74551153,0.028753757,-0.010385942,-0.6657913,-0.9979229,2.4686646e-09,1.7756754e-09,0.06442057,2
20472289,0.745287,0.02914736,-0.010837188,-0.6660183,-0.9979229,2.4686646e-09,1.7756754e-09,0.06442057,2
20521914,0.7450655,0.028983742,-0.010418229,-0.66627985,-0.9979229,2.4686646e-09,1.7756754e-09,0.06442057,2
20571754,0.74502325,0.029517643,-0.011469668,-0.6662864,-0.9979229,2.4686646e-09,1.7756754e-09,0.06442057,2
20621226,0.74514234,0.029532216,-0.0106399935,-0.6661664,-0.9979229,2.4686646e-09,1.7756754e-09,0.06442057,2
20670884,0.7448899,0.030097319,-0.011439986,-0.6664101,-0.9979229,2.4686646e-09,1.7756754e-09,0.06442057,2
20720542,0.74500096,0.028609509,-0.010216899,-0.66637135,-0.9979229,2.4686646e-09,1.7756754e-09,0.06442057,2
20770202,0.7445995,0.029738188,-0.011189371,-0.66675484,-0.9979229,2.4686646e-09,1.7756754e-09,0.06442057,2
20819941,0.7449084,0.029284477,-0.011207152,-0.6664296,-0.9979229,2.4686646e-09,1.7756754e-09,0.06442057,2
20869516,0.7445883,0.030104488,-0.01080068,-0.66675735,-0.9979229,2.4686646e-09,1.7756754e-09,0.06442057,2
20919174,0.74478674,0.029741723,-0.011568538,-0.66653913,-0.9979229,2.4686646e-09,1.7756754e-09,0.06442057,2
20973798,0.7445361,0.029862056,-0.011525603,-0.6668145,-0.9979229,2.4686646e-09,1.7756754e-09,0.06442057,2
21023468,0.74457383,0.028728014,-0.010311329,-0.666842,-0.9979229,2.4686646e-09,1.7756754e-09,0.06442057,2
21068151,0.74442273,0.029617298,-0.0091523295,-0.66698873,-0.9979229,2.4686646e-09,1.7756754e-09,0.06442057,2
21117806,0.7444321,0.029610306,-0.011910245,-0.66693497,-0.9979229,2.4686646e-09,1.7756754e-09,0.06442057,2
21172443,0.74426854,0.029638248,-0.01004911,-0.667147,-0.9979229,2.4686646e-09,1.7756754e-09,0.06442057,2
21222088,0.74451673,0.030368224,-0.0116844345,-0.66681045,-0.9979229,2.4686646e-09,1.7756754e-09,0.06442057,2
21271787,0.74416953,0.030130675,-0.009841646,-0.6672384,-0.9979229,2.4686646e-09,1.7756754e-09,0.06442057,2
21321404,0.7443351,0.029239386,-0.011092652,-0.66707367,-0.9979229,2.4686646e-09,1.7756754e-09,0.06442057,2
21371210,0.74401826,0.029724399,-0.009871105,-0.66742486,-0.9979229,2.4686646e-09,1.7756754e-09,0.06442057,2
21420720,0.74435914,0.030118108,-0.011262628,-0.6670049,-0.9979229,2.4686646e-09,1.7756754e-09,0.06442057,2
21470379,0.7439207,0.02947095,-0.009556775,-0.6675494,-0.9979229,2.4686646e-09,1.7756754e-09,0.06442057,2
21520036,0.744187,0.030203085,-0.011587633,-0.6671876,-0.9979229,2.4686646e-09,1.7756754e-09,0.06442057,2
21569696,0.74385726,0.030378735,-0.009848917,-0.6675752,-0.9979229,2.4686646e-09,1.7756754e-09,0.06442057,2
21619460,0.74386644,0.029811535,-0.011076643,-0.66757125,-0.9979229,2.4686646e-09,1.7756754e-09,0.06442057,2
21673976,0.7434842,0.029695293,-0.010656438,-0.668009,-0.9979229,2.4686646e-09,1.7756754e-09,0.06442057,2
21723634,0.7435813,0.029144501,-0.010139207,-0.6679331,-0.9979229,2.4686646e-09,1.7756754e-09,0.06442057,2
21768329,0.7433282,0.029509036,-0.009756383,-0.66820455,-0.9979229,2.4686646e-09,1.7756754e-09,0.06442057,2
21817984,0.7432335,0.029173514,-0.010622986,-0.66831136,-0.9979229,2.4686646e-09,1.7756754e-09,0.06442057,2
21872608,0.7428326,0.030125903,-0.010783324,-0.6687122,-0.9979229,2.4686646e-09,1.7756754e-09,0.06442057,2
21922267,0.74275446,0.029137269,-0.009978441,-0.6688553,-0.9979229,2.4686646e-09,1.7756754e-09,0.06442057,2
21971924,0.74278736,0.029139102,-0.009805201,-0.6688212,-0.9979229,2.4686646e-09,1.7756754e-09,0.06442057,2
22021582,0.7425252,0.029770851,-0.010026343,-0.6690811,-0.9979229,2.4686646e-09,1.7756754e-09,0.06442057,2
22071240,0.74227804,0.029300503,-0.010677161,-0.66936594,-0.9979229,2.4686646e-09,1.7756754e-09,0.06442057,2
22120898,0.7418939,0.029035533,-0.0091314735,-0.66982615,-0.9979229,2.4686646e-09,1.7756754e-09,0.06442057,2
22170662,0.741951,0.028783929,-0.009739685,-0.66976523,-0.9979229,2.4686646e-09,1.7756754e-09,0.06442057,2
22220253,0.7417972,0.029107723,-0.009845507,-0.66992,-0.9979229,2.4686646e-09,1.7756754e-09,0.06442057,2
22269873,0.7414367,0.028715864,-0.008660721,-0.67035216,-0.9979229,2.4686646e-09,1.7756754e-09,0.06442057,2
22319530,0.74148345,0.028166724,-0.008204706,-0.6703295,-0.9979229,2.4686646e-09,1.7756754e-09,0.06442057,2
22374153,0.7411649,0.028414445,-0.0075804875,-0.6706786,-0.9979229,2.4686646e-09,1.7756754e-09,0.06442057,2
22418861,0.74074614,0.028428847,-0.0071689324,-0.6711451,-0.9979229,2.4686646e-09,1.7756754e-09,0.06442057,2
22468504,0.74050725,0.027949529,-0.0065118726,-0.6714354,-0.9979229,2.4686646e-09,1.7756754e-09,0.06442057,2
22518162,0.74046004,0.028239274,-0.0067665908,-0.6714728,-0.9979229,2.4686646e-09,1.7756754e-09,0.06442057,2
22572832,0.7401823,0.028054781,-0.0067523606,-0.6717869,-0.9979229,2.4686646e-09,1.7756754e-09,0.06442057,2
22622444,0.7400485,0.028295357,-0.007382324,-0.67191756,-0.9979229,2.4686646e-09,1.7756754e-09,0.06442057,2
22672103,0.7396557,0.02873702,-0.006810617,-0.6723373,-0.9979229,2.4686646e-09,1.7756754e-09,0.06442057,2
22721937,0.739589,0.02830249,-0.0065360703,-0.6724317,-0.9979229,2.4686646e-09,1.7756754e-09,0.06442057,2
22771418,0.739295,0.028244449,-0.006010585,-0.6727623,-0.9979229,2.4686646e-09,1.7756754e-09,0.06442057,2
22821118,0.7393109,0.028237354,-0.0067265676,-0.6727384,-0.9979229,2.4686646e-09,1.7756754e-09,0.06442057,2
22870734,0.73913425,0.02852272,-0.007979633,-0.6729067,-0.9979229,2.4686646e-09,1.7756754e-09,0.06442057,2
22920399,0.73870087,0.028335245,-0.00703349,-0.6734008,-0.9979229,2.4686646e-09,1.7756754e-09,0.06442057,2
22970124,0.73859686,0.02661798,-0.004072592,-0.6736094,-0.9979229,2.4686646e-09,1.7756754e-09,0.06442057,2
23019708,0.7384768,0.024085525,-0.0014743579,-0.67384696,-0.9979229,2.4686646e-09,1.7756754e-09,0.06442057,2
23074332,0.7381117,0.022149444,-0.0006783939,-0.67431456,-0.9979229,2.4686646e-09,1.7756754e-09,0.06442057,2
23119026,0.738309,0.016815588,0.0030027612,-0.6742464,-0.9979229,2.4686646e-09,1.7756754e-09,0.06442057,2
23168682,0.7379191,0.011532513,0.006665475,-0.67475784,-0.9979229,2.4686646e-09,1.7756754e-09,0.06442057,2
23218340,0.737927,0.0040115234,0.010866366,-0.6747812,-0.9979229,2.4686646e-09,1.7756754e-09,0.06442057,2
23272968,0.7374984,-0.0041417847,0.016047824,-0.67514545,-0.9979229,2.4686646e-09,1.7756754e-09,0.06442057,2
23322622,0.7373017,-0.011562299,0.020911109,-0.6751409,-0.9979229,2.4686646e-09,1.7756754e-09,0.06442057,2
23367344,0.73684543,-0.017941933,0.026074808,-0.6753199,-0.9979229,2.4686646e-09,1.7756754e-09,0.06442057,2
23421938,0.7365972,-0.022740118,0.025017673,-0.67548627,-0.9979229,2.4686646e-09,1.7756754e-09,0.06442057,2
23471596,0.7376013,-0.021563733,0.021291392,-0.6745562,-0.9979229,2.4686646e-09,1.7756754e-09,0.06442057,2
23521440,0.740004,-0.01044266,0.01529044,-0.67234755,-0.9979229,2.4686646e-09,1.7756754e-09,0.06442057,2
23570919,0.74336386,0.008134527,0.0032980058,-0.66882974,-0.9979229,2.4686646e-09,1.7756754e-09,0.06442057,2
23620601,0.74627006,0.03220679,-0.014794619,-0.6646991,-0.9979229,2.4686646e-09,1.7756754e-09,0.06442057,2
23670228,0.7479899,0.027849661,-0.012675959,-0.6630044,-0.9979229,2.4686646e-09,1.7756754e-09,0.06442057,2
23719887,0.7470359,0.028028965,-0.0150706135,-0.66402155,-0.9979229,2.4686646e-09,1.7756754e-09,0.06442057,2
23774573,0.74566764,0.030041274,-0.01333795,-0.66550696,-0.9979229,2.4686646e-09,1.7756754e-09,0.06442057,2
23819202,0.7438214,0.029877242,-0.0111317625,-0.66761756,-0.9979229,2.4686646e-09,1.7756754e-09,0.06442057,2
23868860,0.7437954,0.029227689,-0.01118656,-0.6676744,-0.9979229,2.4686646e-09,1.7756754e-09,0.06442057,2
23918524,0.7434665,0.029812388,-0.011972996,-0.6680011,-0.9979229,2.4686646e-09,1.7756754e-09,0.06442057,2
23973142,0.743453,0.029673373,-0.011161196,-0.66803634,-0.9979229,2.4686646e-09,1.7756754e-09,0.06442057,2
24022825,0.74355656,0.02952266,-0.010516343,-0.66793835,-0.9979229,2.4686646e-09,1.7756754e-09,0.06442057,2
24067668,0.74317497,0.02945715,-0.011603112,-0.6683477,-0.9979229,2.4686646e-09,1.7756754e-09,0.06442057,2
24122121,0.7428716,0.029938124,-0.011646744,-0.6686628,-0.9979229,2.4686646e-09,1.7756754e-09,0.06442057,2
24171774,0.7428361,0.029611764,-0.011209057,-0.6687242,-0.9979229,2.4686646e-09,1.7756754e-09,0.06442057,2
24221445,0.7429566,0.029528856,-0.011917049,-0.6685817,-0.9979229,2.4686646e-09,1.7756754e-09,0.06442057,2
24271091,0.7426085,0.029425597,-0.013088287,-0.66895103,-0.9979229,2.4686646e-09,1.7756754e-09,0.06442057,2
24320846,0.74255544,0.029748725,-0.013667227,-0.6689841,-0.9979229,2.4686646e-09,1.7756754e-09,0.06442057,2
24370406,0.74277216,0.029960271,-0.015077796,-0.6687037,-0.9979229,2.4686646e-09,1.7756754e-09,0.06442057,2
24420066,0.7428291,0.029909438,-0.01622104,-0.66861594,-0.9979229,2.4686646e-09,1.7756754e-09,0.06442057,2
24474688,0.7431857,0.03051918,-0.01744277,-0.66816115,-0.9979229,2.4686646e-09,1.7756754e-09,0.06442057,2
24519381,0.74273527,0.030676568,-0.018348573,-0.66863054,-0.9979229,2.4686646e-09,1.7756754e-09,0.06442057,2
24569088,0.74246824,0.03007909,-0.018947251,-0.66893744,-0.9979229,2.4686646e-09,1.7756754e-09,0.06442057,2
24618697,0.7419672,0.030683327,-0.018527776,-0.6694774,-0.9979229,2.4686646e-09,1.7756754e-09,0.06442057,2
24673321,0.7416775,0.03076055,-0.016869258,-0.6698386,-0.9979229,2.4686646e-09,1.7756754e-09,0.06442057,2
24722979,0.7409469,0.030255249,-0.014081253,-0.670734,-0.9979229,2.4686646e-09,1.7756754e-09,0.06442057,2
24767671,0.74041784,0.03042143,-0.0091934325,-0.6713952,-0.9979229,2.4686646e-09,1.7756754e-09,0.06442057,2
24822296,0.7419037,0.030914765,-0.005889872,-0.66976756,-0.9979229,2.4686646e-09,1.7756754e-09,0.06442057,2
24872118,0.74263185,0.031080041,-0.0067496616,-0.66894436,-0.9979229,2.4686646e-09,1.7756754e-09,0.06442057,2
24921611,0.74218243,0.030951893,-0.006079506,-0.6694553,-0.9979229,2.4686646e-09,1.7756754e-09,0.06442057,2
24971269,0.74272734,0.03131692,-0.0047453707,-0.6688444,-0.9979229,2.4686646e-09,1.7756754e-09,0.06442057,2
25020939,0.7429212,0.031663667,-0.0053147795,-0.6686085,-0.9979229,2.4686646e-09,1.7756754e-09,0.06442057,2
25070585,0.7431971,0.031669825,-0.0050927256,-0.6683033,-0.9979229,2.4686646e-09,1.7756754e-09,0.06442057,2
25120306,0.7428139,0.031732656,-0.0059008375,-0.66871953,-0.9979229,2.4686646e-09,1.7756754e-09,0.06442057,2
25169901,0.7429538,0.03158204,-0.005760532,-0.6685724,-0.9979229,2.4686646e-09,1.7756754e-09,0.06442057,2
25219559,0.74311936,0.03180391,-0.006109803,-0.66837484,-0.9979229,2.4686646e-09,1.7756754e-09,0.06442057,2
25269268,0.7427471,0.031955834,-0.006169526,-0.6687806,-0.9979229,2.4686646e-09,1.7756754e-09,0.06442057,2
25318875,0.74279344,0.03191381,-0.0065456596,-0.66872764,-0.9979229,2.4686646e-09,1.7756754e-09,0.06442057,2
25373501,0.7429097,0.031858336,-0.006647476,-0.6686002,-0.9979229,2.4686646e-09,1.7756754e-09,0.06442057,2
25423157,0.74303764,0.031810027,-0.0070828325,-0.6684558,-0.9979229,2.4686646e-09,1.7756754e-09,0.06442057,2
25467850,0.742957,0.031721793,-0.0079501085,-0.6685399,-0.9979229,2.4686646e-09,1.7756754e-09,0.06442057,2
25522473,0.7433939,0.031878818,-0.0073577086,-0.6680533,-0.9979229,2.4686646e-09,1.7756754e-09,0.06442057,2
25572132,0.7441312,0.032049447,-0.00737185,-0.6672236,-0.9979229,2.4686646e-09,1.7756754e-09,0.06442057,2
25621789,0.7452914,0.03203811,-0.007412684,-0.66592747,-0.9979229,2.4686646e-09,1.7756754e-09,0.06442057,2
25671571,0.74576354,0.032356616,-0.0076370602,-0.6653807,-0.9979229,2.4686646e-09,1.7756754e-09,0.06442057,2
25721105,0.7456499,0.032509457,-0.0072140424,-0.66550547,-0.9979229,2.4686646e-09,1.7756754e-09,0.06442057,2
25770763,0.74552417,0.03280641,-0.0076814936,-0.66562635,-0.9979229,2.4686646e-09,1.7756754e-09,0.06442057,2
25820423,0.7449099,0.032803785,-0.008064173,-0.6663094,-0.9979229,2.4686646e-09,1.7756754e-09,0.06442057,2
25870080,0.74481356,0.032642484,-0.007014545,-0.66643685,-0.9979229,2.4686646e-09,1.7756754e-09,0.06442057,2
25919821,0.74494165,0.033107743,-0.006574994,-0.6662752,-0.9979229,2.4686646e-09,1.7756754e-09,0.06442057,2
25969396,0.7449777,0.03362314,-0.007107304,-0.6662037,-0.9979229,2.4686646e-09,1.7756754e-09,0.06442057,2
26019054,0.74533725,0.032102372,-0.008078595,-0.66586536,-0.9979229,2.4686646e-09,1.7756754e-09,0.06442057,2
26073678,0.74628127,0.03320962,-0.006179937,-0.66477317,-0.9979229,2.4686646e-09,1.7756754e-09,0.06442057,2
26118370,0.7471588,0.035719972,-0.0033434154,-0.6636767,-0.9979229,2.4686646e-09,1.7756754e-09,0.06442057,2
26168067,0.74810916,0.036370967,-0.0017486967,-0.66257596,-0.9979229,2.4686646e-09,1.7756754e-09,0.06442057,2
26222895,0.74908346,0.038321942,-0.0039784084,-0.66135436,-0.9979229,2.4686646e-09,1.7756754e-09,0.06442057,2
26272310,0.7498352,0.039293513,-0.0045754514,-0.660441,-0.9979229,2.4686646e-09,1.7756754e-09,0.06442057,2
26321969,0.75060123,0.04046908,-0.0032720058,-0.6595069,-0.9979229,2.4686646e-09,1.7756754e-09,0.06442057,2
26371626,0.75126266,0.042475272,-0.006140728,-0.6586065,-0.9979229,2.4686646e-09,1.7756754e-09,0.06442057,2
26421284,0.75221395,0.04431328,-0.008889258,-0.6573671,-0.9979229,2.4686646e-09,1.7756754e-09,0.06442057,2
26471030,0.7528506,0.04405197,-0.010541045,-0.6566312,-0.9979229,2.4686646e-09,1.7756754e-09,0.06442057,2
26520602,0.75328445,0.04309332,-0.011854714,-0.65617454,-0.9979229,2.4686646e-09,1.7756754e-09,0.06442057,2
26570259,0.7537239,0.042965263,-0.014405364,-0.655627,-0.9979229,2.4686646e-09,1.7756754e-09,0.06442057,2
26619916,0.7543876,0.040314477,-0.018666424,-0.65492415,-0.9979229,2.4686646e-09,1.7756754e-09,0.06442057,2
26669569,0.75497836,0.035470374,-0.02201995,-0.6544194,-0.9979229,2.4686646e-09,1.7756754e-09,0.06442057,2
26719240,0.7554549,0.030290918,-0.023243837,-0.65408725,-0.9979229,2.4686646e-09,1.7756754e-09,0.06442057,2
26773857,0.7551665,0.025579577,-0.023393515,-0.65461606,-0.9979229,2.4686646e-09,1.7756754e-09,0.06442057,2
26818549,0.7543161,0.020468483,-0.020718668,-0.65586513,-0.9979229,2.4686646e-09,1.7756754e-09,0.06442057,2
26868207,0.7531581,0.013661258,-0.018171353,-0.6574467,-0.9979229,2.4686646e-09,1.7756754e-09,0.06442057,2
26922852,0.75145835,0.004380953,-0.02005347,-0.65946114,-0.9979229,2.4686646e-09,1.7756754e-09,0.06442057,2
26972502,0.7491536,-0.0049413536,-0.025392395,-0.661891,-0.9979229,2.4686646e-09,1.7756754e-09,0.06442057,2
27022301,0.7463653,-0.015614175,-0.032754514,-0.66454667,-0.9979229,2.4686646e-09,1.7756754e-09,0.06442057,2
27066839,0.7436993,-0.023800524,-0.036917597,-0.66706973,-0.9979229,2.4686646e-09,1.7756754e-09,0.06442057,2
27121463,0.74023944,-0.03220039,-0.03614927,-0.6705982,-0.9979229,2.4686646e-09,1.7756754e-09,0.06442057,2
27171121,0.73727053,-0.03815728,-0.035132952,-0.6736037,-0.9979229,2.4686646e-09,1.7756754e-09,0.06442057,2
27220781,0.734201,-0.04178627,-0.039622165,-0.6764858,-0.9979229,2.4686646e-09,1.7756754e-09,0.06442057,2
27270490,0.7313187,-0.04496156,-0.043355227,-0.67916995,-0.9979229,2.4686646e-09,1.7756754e-09,0.06442057,2
27320095,0.72829694,-0.04321014,-0.042005528,-0.68260676,-0.9979229,2.4686646e-09,1.7756754e-09,0.06442057,2
27369754,0.7258747,-0.03217357,-0.036993116,-0.6860775,-0.9979229,2.4686646e-09,1.7756754e-09,0.06442057,2
27419414,0.7239747,-0.013785226,-0.03318121,-0.6888902,-0.9979229,2.4686646e-09,1.7756754e-09,0.06442057,2
27474035,0.72242665,0.008715464,-0.03582645,-0.69046384,-0.9979229,2.4686646e-09,1.7756754e-09,0.06442057,2
27518727,0.7213962,0.021071732,-0.04060971,-0.6910097,-0.9979229,2.4686646e-09,1.7756754e-09,0.06442057,2
27568583,0.7203727,0.028872672,-0.04518322,-0.69151145,-0.9979229,2.4686646e-09,1.7756754e-09,0.06442057,2
27623024,0.71961963,0.034491044,-0.04682132,-0.691929,-0.9979229,2.4686646e-09,1.7756754e-09,0.06442057,2
27672668,0.7189471,0.037747048,-0.047288466,-0.6924263,-0.9979229,2.4686646e-09,1.7756754e-09,0.06442057,2
27722326,0.7183721,0.04045365,-0.04803333,-0.69281876,-0.9979229,2.4686646e-09,1.7756754e-09,0.06442057,2
27767018,0.7180291,0.041553117,-0.047281522,-0.69316095,-0.9979229,2.4686646e-09,1.7756754e-09,0.06442057,2
27821755,0.7176025,0.04296677,-0.04719651,-0.6935223,-0.9979229,2.4686646e-09,1.7756754e-09,0.06442057,2
27871300,0.7174479,0.042597014,-0.04586665,-0.69379425,-0.9979229,2.4686646e-09,1.7756754e-09,0.06442057,2
27920958,0.7174452,0.04160171,-0.043619595,-0.6940022,-0.9979229,2.4686646e-09,1.7756754e-09,0.06442057,2
27970619,0.7172195,0.04182629,-0.04218216,-0.6943108,-0.9979229,2.4686646e-09,1.7756754e-09,0.06442057,2
28020275,0.7170135,0.04237141,-0.042664144,-0.6944611,-0.9979229,2.4686646e-09,1.7756754e-09,0.06442057,2
28070010,0.7168844,0.04343109,-0.044620354,-0.694406,-0.9979229,2.4686646e-09,1.7756754e-09,0.06442057,2
28119590,0.7166586,0.0448494,-0.047123063,-0.6943835,-0.9979229,2.4686646e-09,1.7756754e-09,0.06442057,2
28174215,0.71656394,0.04596004,-0.0482208,-0.69433326,-0.9979229,2.4686646e-09,1.7756754e-09,0.06442057,2
28218955,0.7164573,0.045537844,-0.047651112,-0.69451034,-0.9979229,2.4686646e-09,1.7756754e-09,0.06442057,2
28268566,0.7164907,0.04207458,-0.04443704,-0.69490737,-0.9979229,2.4686646e-09,1.7756754e-09,0.06442057,2
28323195,0.7167445,0.03384981,-0.037128728,-0.6955237,-0.9979229,2.4686646e-09,1.7756754e-09,0.06442057,2
28373029,0.7171343,0.023453541,-0.0255462,-0.6960716,-0.9979229,2.4686646e-09,1.7756754e-09,0.06442057,2
28422516,0.71741676,0.014407843,-0.015659926,-0.69631916,-0.9979229,2.4686646e-09,1.7756754e-09,0.06442057,2
28467201,0.7172388,0.008446811,-0.009457436,-0.6967121,-0.9979229,2.4686646e-09,1.7756754e-09,0.06442057,2
28521821,0.71695954,0.0037231517,-0.0054299063,-0.6970837,-0.9979229,2.4686646e-09,1.7756754e-09,0.06442057,2
28571479,0.7168105,-0.0019065742,-0.000777118,-0.69726497,-0.9979229,2.4686646e-09,1.7756754e-09,0.06442057,2
28621223,0.71628475,-0.007155708,0.004863201,-0.69775456,-0.9979229,2.4686646e-09,1.7756754e-09,0.06442057,2
28670831,0.71583176,-0.009363269,0.007965903,-0.6981646,-0.9979229,2.4686646e-09,1.7756754e-09,0.06442057,2
28720455,0.71544665,-0.010013514,0.008693416,-0.6985416,-0.9979229,2.4686646e-09,1.7756754e-09,0.06442057,2
28770111,0.7152263,-0.011118547,0.0094583,-0.69874054,-0.9979229,2.4686646e-09,1.7756754e-09,0.06442057,2
28819769,0.71464306,-0.011893451,0.010333493,-0.6993119,-0.9979229,2.4686646e-09,1.7756754e-09,0.06442057,2
28869446,0.7143339,-0.011734255,0.010009425,-0.6996351,-0.9979229,2.4686646e-09,1.7756754e-09,0.06442057,2
28919122,0.71414423,-0.011631612,0.0098412745,-0.69983274,-0.9979229,2.4686646e-09,1.7756754e-09,0.06442057,2
28968745,0.7139122,-0.011395911,0.010858285,-0.7000584,-0.9979229,2.4686646e-09,1.7756754e-09,0.06442057,2
29023369,0.7136833,-0.011711277,0.010692116,-0.700289,-0.9979229,2.4686646e-09,1.7756754e-09,0.06442057,2
29073027,0.7135185,-0.011493477,0.011014214,-0.70045555,-0.9979229,2.4686646e-09,1.7756754e-09,0.06442057,2
29122685,0.7136903,-0.011347677,0.0115991775,-0.70027345,-0.9979229,2.4686646e-09,1.7756754e-09,0.06442057,2
29167502,0.71352285,-0.010682169,0.010989344,-0.70046437,-0.9979229,2.4686646e-09,1.7756754e-09,0.06442057,2
29222000,0.7134952,-0.009572233,0.0092061935,-0.7005343,-0.9979229,2.4686646e-09,1.7756754e-09,0.06442057,2
29271658,0.7134363,-0.009241986,0.009006946,-0.70060134,-0.9979229,2.4686646e-09,1.7756754e-09,0.06442057,2
29321316,0.7136186,-0.00941542,0.009615111,-0.7004053,-0.9979229,2.4686646e-09,1.7756754e-09,0.06442057,2
29370975,0.71366173,-0.009345738,0.010550586,-0.70034873,-0.9979229,2.4686646e-09,1.7756754e-09,0.06442057,2
29420687,0.71380043,-0.009257515,0.010727624,-0.7002058,-0.9979229,2.4686646e-09,1.7756754e-09,0.06442057,2
29470291,0.71361244,-0.009236047,0.010725978,-0.70039773,-0.9979229,2.4686646e-09,1.7756754e-09,0.06442057,2
29519949,0.7135238,-0.009435382,0.010407763,-0.7004901,-0.9979229,2.4686646e-09,1.7756754e-09,0.06442057,2
29569607,0.7134043,-0.008982321,0.0107417675,-0.7006128,-0.9979229,2.4686646e-09,1.7756754e-09,0.06442057,2
29619265,0.71330994,-0.007174947,0.010347913,-0.7007356,-0.9979229,2.4686646e-09,1.7756754e-09,0.06442057,2
29668930,0.7131114,-0.004293195,0.008154118,-0.7009902,-0.9979229,2.4686646e-09,1.7756754e-09,0.06442057,2
29723547,0.7126975,-6.3047526e-05,0.0041099517,-0.7014596,-0.9979229,2.4686646e-09,1.7756754e-09,0.06442057,2
29773206,0.7124421,0.006245557,-0.0024707965,-0.7016989,-0.9979229,2.4686646e-09,1.7756754e-09,0.06442057,2
29817922,0.7118108,0.015982794,-0.011510975,-0.70209503,-0.9979229,2.4686646e-09,1.7756754e-09,0.06442057,2
29867556,0.7108405,0.029753743,-0.025436176,-0.7022631,-0.9979229,2.4686646e-09,1.7756754e-09,0.06442057,2
29922179,0.70948297,0.044921704,-0.042248648,-0.7020193,-0.9979229,2.4686646e-09,1.7756754e-09,0.06442057,2
29971944,0.7081041,0.058874063,-0.056817356,-0.7013518,-0.9979229,2.4686646e-09,1.7756754e-09,0.06442057,2
30021495,0.70647144,0.07227386,-0.07037498,-0.70051557,-0.9979229,2.4686646e-09,1.7756754e-09,0.06442057,2
30071174,0.70458996,0.086030394,-0.08317449,-0.69945246,-0.9979229,2.4686646e-09,1.7756754e-09,0.06442057,2
30120812,0.7034045,0.09462259,-0.09226446,-0.6983953,-0.9979229,2.4686646e-09,1.7756754e-09,0.06442057,2
30170470,0.7029901,0.097601265,-0.09670654,-0.6978014,-0.9979229,2.4686646e-09,1.7756754e-09,0.06442057,2
30220179,0.7026102,0.0990441,-0.09829992,-0.6977581,-0.9979229,2.4686646e-09,1.7756754e-09,0.06442057,2
30269786,0.7025531,0.10037119,-0.09920277,-0.6974981,-0.9979229,2.4686646e-09,1.7756754e-09,0.06442057,2
30319442,0.70301044,0.0985976,-0.09745693,-0.69753635,-0.9979229,2.4686646e-09,1.7756754e-09,0.06442057,2
30369103,0.703592,0.095779344,-0.09414826,-0.6977971,-0.9979229,2.4686646e-09,1.7756754e-09,0.06442057,2
30423726,0.70447856,0.09093551,-0.08895772,-0.69823146,-0.9979229,2.4686646e-09,1.7756754e-09,0.06442057,2
30473384,0.70561033,0.08261053,-0.08165829,-0.6990147,-0.9979229,2.4686646e-09,1.7756754e-09,0.06442057,2
30518278,0.7065987,0.07480364,-0.07378254,-0.69977057,-0.9979229,2.4686646e-09,1.7756754e-09,0.06442057,2
30567738,0.7075492,0.06807349,-0.065430745,-0.7003278,-0.9979229,2.4686646e-09,1.7756754e-09,0.06442057,2
30622359,0.7083323,0.060067877,-0.058103908,-0.70091456,-0.9979229,2.4686646e-09,1.7756754e-09,0.06442057,2
30672017,0.7086647,0.05315848,-0.052389573,-0.7015867,-0.9979229,2.4686646e-09,1.7756754e-09,0.06442057,2
30721675,0.708839,0.046855237,-0.046528567,-0.7022728,-0.9979229,2.4686646e-09,1.7756754e-09,0.06442057,2
30771514,0.70883286,0.03943775,-0.037246726,-0.70328754,-0.9979229,2.4686646e-09,1.7756754e-09,0.06442057,2
30820991,0.7088294,0.029751694,-0.023408627,-0.70436347,-0.9979229,2.4686646e-09,1.7756754e-09,0.06442057,2
30870650,0.7086648,0.020396085,-0.008489926,-0.7051994,-0.9979229,2.4686646e-09,1.7756754e-09,0.06442057,2
30920311,0.70803934,0.015442582,0.00038897604,-0.7060041,-0.9979229,2.4686646e-09,1.7756754e-09,0.06442057,2
30969966,0.70704657,0.011515365,0.004097604,-0.70706135,-0.9979229,2.4686646e-09,1.7756754e-09,0.06442057,2
31019624,0.70648056,0.0038479483,0.00874089,-0.707668,-0.9979229,2.4686646e-09,1.7756754e-09,0.06442057,2
31069282,0.70569384,-0.0029251815,0.012742427,-0.7083964,-0.9979229,2.4686646e-09,1.7756754e-09,0.06442057,2
31123908,0.70473725,-0.0078050266,0.013149983,-0.7093037,-0.9979229,2.4686646e-09,1.7756754e-09,0.06442057,2
31173566,0.70403755,-0.009580489,0.012150145,-0.7099942,-0.9979229,2.4686646e-09,1.7756754e-09,0.06442057,2
31218257,0.7035267,-0.010765879,0.012511001,-0.7104772,-0.9979229,2.4686646e-09,1.7756754e-09,0.06442057,2
31267916,0.7028798,-0.011716135,0.013213825,-0.71108943,-0.9979229,2.4686646e-09,1.7756754e-09,0.06442057,2
31322672,0.70228976,-0.01227335,0.013523227,-0.7116569,-0.9979229,2.4686646e-09,1.7756754e-09,0.06442057,2
31372201,0.70197046,-0.012847128,0.013577506,-0.7119608,-0.9979229,2.4686646e-09,1.7756754e-09,0.06442057,2
31421855,0.7017951,-0.012890299,0.013783707,-0.71212894,-0.9979229,2.4686646e-09,1.7756754e-09,0.06442057,2
31471520,0.70162624,-0.0123678595,0.013230937,-0.712315,-0.9979229,2.4686646e-09,1.7756754e-09,0.06442057,2
31521170,0.70154256,-0.012030132,0.013027974,-0.712407,-0.9979229,2.4686646e-09,1.7756754e-09,0.06442057,2
31570865,0.7016253,-0.011663667,0.0128584085,-0.71233463,-0.9979229,2.4686646e-09,1.7756754e-09,0.06442057,2
31620487,0.70157456,-0.011108228,0.012272798,-0.71240383,-0.9979229,2.4686646e-09,1.7756754e-09,0.06442057,2
31670145,0.70168185,-0.010576908,0.011615966,-0.7123173,-0.9979229,2.4686646e-09,1.7756754e-09,0.06442057,2
31719803,0.70179266,-0.009881673,0.011152009,-0.7122255,-0.9979229,2.4686646e-09,1.7756754e-09,0.06442057,2
31769461,0.70197004,-0.007127929,0.00825984,-0.7121229,-0.9979229,2.4686646e-09,1.7756754e-09,0.06442057,2
31824086,0.7018981,0.0026184318,-0.0011011193,-0.71227175,-0.9979229,2.4686646e-09,1.7756754e-09,0.06442057,2
31873747,0.7016919,0.013150099,-0.012338264,-0.7122523,-0.9979229,2.4686646e-09,1.7756754e-09,0.06442057,2
31918436,0.7016876,0.020073202,-0.01964884,-0.71193093,-0.9979229,2.4686646e-09,1.7756754e-09,0.06442057,2
31968094,0.7015656,0.025620922,-0.025319993,-0.71169394,-0.9979229,2.4686646e-09,1.7756754e-09,0.06442057,2
32022718,0.70157564,0.032470796,-0.03181217,-0.7111437,-0.9979229,2.4686646e-09,1.7756754e-09,0.06442057,2
32072376,0.70120364,0.041027635,-0.04078092,-0.71061045,-0.9979229,2.4686646e-09,1.7756754e-09,0.06442057,2
32122181,0.7006871,0.050211154,-0.051089752,-0.7098636,-0.9979229,2.4686646e-09,1.7756754e-09,0.06442057,2
32171692,0.7003222,0.056752093,-0.058257658,-0.70917845,-0.9979229,2.4686646e-09,1.7756754e-09,0.06442057,2
32221350,0.70031244,0.058466546,-0.060682576,-0.7088454,-0.9979229,2.4686646e-09,1.7756754e-09,0.06442057,2
32271009,0.7008443,0.05806969,-0.060398977,-0.70837647,-0.9979229,2.4686646e-09,1.7756754e-09,0.06442057,2
32320666,0.70078236,0.05938963,-0.061920874,-0.70819694,-0.9979229,2.4686646e-09,1.7756754e-09,0.06442057,2
32370391,0.6967143,0.061641615,-0.06504495,-0.71172947,0.99998355,-4.352694e-09,-1.3807206e-09,-0.0057367077,3
32419985,0.69657105,0.06553966,-0.06885297,-0.7111629,0.99998355,-4.352694e-09,-1.3807206e-09,-0.0057367077,3
32469641,0.6963549,0.069407135,-0.07232352,-0.71066296,0.99998355,-4.352694e-09,-1.3807206e-09,-0.0057367077,3
32524265,0.69631344,0.07404139,-0.07275524,-0.71019167,0.99998355,-4.352694e-09,-1.3807206e-09,-0.0057367077,3
32568957,0.69646186,0.08049983,-0.07040578,-0.70958,0.99998355,-4.352694e-09,-1.3807206e-09,-0.0057367077,3
32618615,0.6970354,0.08728166,-0.062313776,-0.7089715,0.99998355,-4.352694e-09,-1.3807206e-09,-0.0057367077,3
32668472,0.698134,0.08979771,-0.049512945,-0.7085858,0.99998355,-4.352694e-09,-1.3807206e-09,-0.0057367077,3
32722898,0.69938415,0.08982625,-0.036394253,-0.7081444,0.99998355,-4.352694e-09,-1.3807206e-09,-0.0057367077,3
32772556,0.69957674,0.08985855,-0.031077016,-0.7082035,0.99998355,-4.352694e-09,-1.3807206e-09,-0.0057367077,3
32822214,0.69925785,0.090259634,-0.03247471,-0.70840466,0.99998355,-4.352694e-09,-1.3807206e-09,-0.0057367077,3
32871922,0.69852304,0.09000923,-0.038080566,-0.70888215,0.99998355,-4.352694e-09,-1.3807206e-09,-0.0057367077,3
32921591,0.69760245,0.09028948,-0.045060508,-0.7093435,0.99998355,-4.352694e-09,-1.3807206e-09,-0.0057367077,3
32971189,0.69647056,0.0914763,-0.050635938,-0.70992744,0.99998355,-4.352694e-09,-1.3807206e-09,-0.0057367077,3
33020846,0.6954977,0.092635155,-0.054463558,-0.7104474,0.99998355,-4.352694e-09,-1.3807206e-09,-0.0057367077,3
33070504,0.6947538,0.09184156,-0.05673418,-0.7111003,0.99998355,-4.352694e-09,-1.3807206e-09,-0.0057367077,3
33120163,0.69430965,0.08775271,-0.055769715,-0.712126,0.99998355,-4.352694e-09,-1.3807206e-09,-0.0057367077,3
33169821,0.69395196,0.08114693,-0.052306425,-0.71351945,0.99998355,-4.352694e-09,-1.3807206e-09,-0.0057367077,3
33224445,0.6938733,0.07024702,-0.046995837,-0.7151201,0.99998355,-4.352694e-09,-1.3807206e-09,-0.0057367077,3
33269137,0.69452965,0.055701803,-0.03682531,-0.7163588,0.99998355,-4.352694e-09,-1.3807206e-09,-0.0057367077,3
33318801,0.69473857,0.041926783,-0.019726302,-0.7177683,0.99998355,-4.352694e-09,-1.3807206e-09,-0.0057367077,3
33368463,0.6938954,0.037690528,-3.0531282e-05,-0.7190888,0.9999998,-6.758152e-10,2.1731679e-09,-0.00058526656,4
33423079,0.69279295,0.03922708,0.0188357,-0.71982247,0.9999998,-6.758152e-10,2.1731679e-09,-0.00058526656,4
33472862,0.6924092,0.038248755,0.03130884,-0.7198099,0.9999998,-6.758152e-10,2.1731679e-09,-0.00058526656,4
33517428,0.6922103,0.033812143,0.03948737,-0.71982116,0.9999998,-6.758152e-10,2.1731679e-09,-0.00058526656,4
33572071,0.69201213,0.027426183,0.042541906,-0.7201093,0.9999998,-6.758152e-10,2.1731679e-09,-0.00058526656,4
33621711,0.6918609,0.022153981,0.040903267,-0.7205308,0.9999998,-6.758152e-10,2.1731679e-09,-0.00058526656,4
33671369,0.691561,0.017917806,0.03923885,-0.7210289,0.9999998,-6.758152e-10,2.1731679e-09,-0.00058526656,4
33721068,0.6912393,0.0145136425,0.037458822,-0.72150856,0.9999998,-6.758152e-10,2.1731679e-09,-0.00058526656,4
33770684,0.69081,0.012167537,0.03511513,-0.7220807,0.9999998,-6.758152e-10,2.1731679e-09,-0.00058526656,4
33820343,0.69068205,0.009425874,0.03225037,-0.7223776,0.9999998,-6.758152e-10,2.1731679e-09,-0.00058526656,4
33870001,0.6905008,0.0065076114,0.028660879,-0.7227344,0.9999998,-6.758152e-10,2.1731679e-09,-0.00058526656,4
33924625,0.69027114,0.0054547554,0.025416544,-0.7230838,0.9999998,-6.758152e-10,2.1731679e-09,-0.00058526656,4
33969317,0.69010484,0.0053768763,0.023387754,-0.7233114,0.9999998,-6.758152e-10,2.1731679e-09,-0.00058526656,4
34019198,0.6901268,0.004869395,0.021190902,-0.7233618,0.9999998,-6.758152e-10,2.1731679e-09,-0.00058526656,4
34068633,0.69031334,0.0042488836,0.019041171,-0.72324747,0.9999998,-6.758152e-10,2.1731679e-09,-0.00058526656,4
34123258,0.6903205,0.004335834,0.016974986,-0.72329164,0.9999998,-6.758152e-10,2.1731679e-09,-0.00058526656,4
34172918,0.69060004,0.0062764175,0.014816513,-0.7230579,0.9999998,-6.758152e-10,2.1731679e-09,-0.00058526656,4
34217608,0.6907016,0.0096218875,0.01135531,-0.72298676,0.9999998,-6.758152e-10,2.1731679e-09,-0.00058526656,4
34272370,0.69111526,0.016495299,0.0041592675,-0.72254443,0.9999998,-6.758152e-10,2.1731679e-09,-0.00058526656,4
34321892,0.6912473,0.024701243,-0.005071328,-0.7221783,0.9999998,-6.758152e-10,2.1731679e-09,-0.00058526656,4
34371548,0.69157845,0.03128203,-0.014072524,-0.7214865,0.9999998,-6.758152e-10,2.1731679e-09,-0.00058526656,4
34421209,0.6921442,0.034563057,-0.01926162,-0.72067386,0.9999998,-6.758152e-10,2.1731679e-09,-0.00058526656,4
34470864,0.69291437,0.03546152,-0.02143083,-0.7198285,0.9999998,-6.758152e-10,2.1731679e-09,-0.00058526656,4
34520524,0.69383246,0.034064267,-0.022563826,-0.7189764,0.9999998,-6.758152e-10,2.1731679e-09,-0.00058526656,4
34570181,0.6948593,0.032196272,-0.02414442,-0.7180188,0.9999998,-6.758152e-10,2.1731679e-09,-0.00058526656,4
34619839,0.69572973,0.030978138,-0.02396907,-0.71723497,0.9999998,-6.758152e-10,2.1731679e-09,-0.00058526656,4
34669531,0.69657046,0.032584205,-0.020938883,-0.7164423,0.9999998,-6.758152e-10,2.1731679e-09,-0.00058526656,4
34719155,0.69713503,0.038627446,-0.01550628,-0.7157306,0.9999998,-6.758152e-10,2.1731679e-09,-0.00058526656,4
34768813,0.6973079,0.051295396,-0.008000529,-0.71488917,0.9999998,-6.758152e-10,2.1731679e-09,-0.00058526656,4
34823585,0.6973416,0.06634312,0.00021015441,-0.71366185,0.9999998,-6.758152e-10,2.1731679e-09,-0.00058526656,4
34873097,0.6980523,0.07299895,0.0077687455,-0.7122737,0.9999998,-6.758152e-10,2.1731679e-09,-0.00058526656,4
34917790,0.69868594,0.076442614,0.012395158,-0.711225,0.9999998,-6.758152e-10,2.1731679e-09,-0.00058526656,4
34972428,0.699496,0.08001467,0.016446462,-0.70995253,0.9999998,-6.758152e-10,2.1731679e-09,-0.00058526656,4
35022071,0.70094264,0.076546915,0.020485668,-0.70880204,0.9999998,-6.758152e-10,2.1731679e-09,-0.00058526656,4
35071780,0.7030853,0.06379357,0.021255473,-0.7079193,0.9999998,-6.758152e-10,2.1731679e-09,-0.00058526656,4
35121386,0.7056076,0.04516091,0.017087504,-0.70695585,0.9999998,-6.758152e-10,2.1731679e-09,-0.00058526656,4
35171045,0.7071679,0.028280359,0.009262455,-0.7064192,0.9999998,-6.758152e-10,2.1731679e-09,-0.00058526656,4
35220706,0.70792747,0.018319072,0.0040222183,-0.7060361,0.9999998,-6.758152e-10,2.1731679e-09,-0.00058526656,4
35270361,0.70814824,0.013964574,0.0021981816,-0.70592237,0.9999998,-6.758152e-10,2.1731679e-09,-0.00058526656,4
35320017,0.70840734,0.0116437925,0.00077014876,-0.7057074,0.9999998,-6.758152e-10,2.1731679e-09,-0.00058526656,4
35369881,0.7086136,0.009966423,-0.0016347871,-0.70552456,0.9999998,-6.758152e-10,2.1731679e-09,-0.00058526656,4
35419335,0.7085593,0.0107004205,-0.0062845945,-0.70554227,0.9999998,-6.758152e-10,2.1731679e-09,-0.00058526656,4
35468994,0.7083043,0.016972113,-0.0146797635,-0.70555055,0.9999998,-6.758152e-10,2.1731679e-09,-0.00058526656,4
35523618,0.70799303,0.030262588,-0.028808558,-0.70498234,0.9999998,-6.758152e-10,2.1731679e-09,-0.00058526656,4
35573278,0.70736563,0.041960906,-0.043041117,-0.70428735,0.9999998,-6.758152e-10,2.1731679e-09,-0.00058526656,4
35618116,0.70671433,0.04843722,-0.05205459,-0.7039169,0.9999998,-6.758152e-10,2.1731679e-09,-0.00058526656,4
35672592,0.70638996,0.054325517,-0.058776777,-0.7032832,0.9999998,-6.758152e-10,2.1731679e-09,-0.00058526656,4
35722250,0.7058074,0.060448475,-0.064480975,-0.7028685,0.9999998,-6.758152e-10,2.1731679e-09,-0.00058526656,4
35771910,0.705542,0.06446806,-0.06933373,-0.70231557,0.9999998,-6.758152e-10,2.1731679e-09,-0.00058526656,4
35821566,0.70560265,0.06496671,-0.070925064,-0.70204985,0.9999998,-6.758152e-10,2.1731679e-09,-0.00058526656,4
35871297,0.70606875,0.06293049,-0.06884449,-0.7019738,0.9999998,-6.758152e-10,2.1731679e-09,-0.00058526656,4
35920883,0.7069335,0.059424642,-0.064547814,-0.7018173,0.9999998,-6.758152e-10,2.1731679e-09,-0.00058526656,4
35970541,0.70776904,0.0552375,-0.05970727,-0.7017457,0.9999998,-6.758152e-10,2.1731679e-09,-0.00058526656,4
36020202,0.70892525,0.048249327,-0.05310753,-0.70162433,0.9999998,-6.758152e-10,2.1731679e-09,-0.00058526656,4
36069906,0.71070534,0.030429015,-0.037457578,-0.70183265,0.9999998,-6.758152e-10,2.1731679e-09,-0.00058526656,4
36119518,0.7119447,0.009248003,-0.013981138,-0.70203555,0.9999998,-6.758152e-10,2.1731679e-09,-0.00058526656,4
36169326,0.71248037,-0.000978336,0.00027391137,-0.7016913,0.9999998,-6.758152e-10,2.1731679e-09,-0.00058526656,4
36223798,0.7128002,-0.00458859,0.00376129,-0.70134217,0.9999998,-6.758152e-10,2.1731679e-09,-0.00058526656,4
36268490,0.7134441,-0.006748438,0.005134805,-0.7006609,0.9999998,-6.758152e-10,2.1731679e-09,-0.00058526656,4
36318154,0.71376127,-0.009477981,0.007637727,-0.7002833,0.9999998,-6.758152e-10,2.1731679e-09,-0.00058526656,4
36372772,0.7139657,-0.010838043,0.010114734,-0.7000238,0.9999998,-6.758152e-10,2.1731679e-09,-0.00058526656,4
36422509,0.71420574,-0.010941239,0.011955082,-0.6997483,0.9999998,-6.758152e-10,2.1731679e-09,-0.00058526656,4
36472088,0.71437514,-0.010947619,0.011951757,-0.6995752,0.9999998,-6.758152e-10,2.1731679e-09,-0.00058526656,4
36521746,0.7144329,-0.010114824,0.012460173,-0.69951993,0.9999998,-6.758152e-10,2.1731679e-09,-0.00058526656,4
36571405,0.71446925,-0.010131344,0.0131506035,-0.6994699,0.9999998,-6.758152e-10,2.1731679e-09,-0.00058526656,4
36621063,0.7145037,-0.010278226,0.013475059,-0.6994265,0.9999998,-6.758152e-10,2.1731679e-09,-0.00058526656,4
36670725,0.71461034,-0.010018896,0.012352882,-0.699342,0.9999998,-6.758152e-10,2.1731679e-09,-0.00058526656,4
36720380,0.7144091,-0.008009948,0.0093069235,-0.6996206,0.9999998,-6.758152e-10,2.1731679e-09,-0.00058526656,4
36770040,0.7140899,-0.0045961975,0.0053628096,-0.7000184,0.9999998,-6.758152e-10,2.1731679e-09,-0.00058526656,4
36819739,0.713888,-0.0024391178,0.0027694998,-0.70025027,0.9999998,-6.758152e-10,2.1731679e-09,-0.00058526656,4
36869355,0.7137008,-0.0016421038,0.0018470233,-0.7004464,0.9999998,-6.758152e-10,2.1731679e-09,-0.00058526656,4
36923978,0.71336734,-0.00046915226,0.0025863657,-0.70078546,0.9999998,-6.758152e-10,2.1731679e-09,-0.00058526656,4
36968786,0.7128334,0.0014886898,0.0035951792,-0.7013226,0.9999998,-6.758152e-10,2.1731679e-09,-0.00058526656,4
37018375,0.71247804,0.005556238,0.0005578453,-0.70167226,0.9999998,-6.758152e-10,2.1731679e-09,-0.00058526656,4
37072953,0.7117373,0.013312908,-0.010449724,-0.7022419,0.9999998,-6.758152e-10,2.1731679e-09,-0.00058526656,4
37122611,0.7110027,0.018150559,-0.017276224,-0.70274276,0.9999998,-6.758152e-10,2.1731679e-09,-0.00058526656,4
37172271,0.7103872,0.01809287,-0.015557022,-0.7034066,0.9999998,-6.758152e-10,2.1731679e-09,-0.00058526656,4
37217091,0.7099046,0.016422596,-0.009362626,-0.7040441,0.9999998,-6.758152e-10,2.1731679e-09,-0.00058526656,4
37271604,0.70917696,0.015561255,-0.00029830227,-0.7048587,0.9999998,-6.758152e-10,2.1731679e-09,-0.00058526656,4
37321244,0.70814794,0.01928655,0.00424082,-0.70578796,0.9999998,-6.758152e-10,2.1731679e-09,-0.00058526656,4
37370948,0.70686877,0.030621301,-0.0039242953,-0.70667076,0.9999998,-6.758152e-10,2.1731679e-09,-0.00058526656,4
37420560,0.70491445,0.049936365,-0.025917774,-0.70705754,0.9999998,-6.758152e-10,2.1731679e-09,-0.00058526656,4
37470220,0.70174015,0.07289851,-0.05348065,-0.7066728,0.9999998,-6.758152e-10,2.1731679e-09,-0.00058526656,4
37520062,0.69846284,0.09198691,-0.07545061,-0.7056879,0.9999998,-6.758152e-10,2.1731679e-09,-0.00058526656,4
37569534,0.69573224,0.105778925,-0.09037492,-0.7046985,0.9999998,-6.758152e-10,2.1731679e-09,-0.00058526656,4
37624165,0.69272524,0.118784405,-0.10430855,-0.7036632,0.9999998,-6.758152e-10,2.1731679e-09,-0.00058526656,4
37668851,0.69076395,0.12487265,-0.11352061,-0.70311105,0.9999998,-6.758152e-10,2.1731679e-09,-0.00058526656,4
37718509,0.6894719,0.1267473,-0.11955151,-0.7030441,0.9999998,-6.758152e-10,2.1731679e-09,-0.00058526656,4
37773241,0.6885793,0.1269678,-0.12288828,-0.7033039,0.9999998,-6.758152e-10,2.1731679e-09,-0.00058526656,4
37822791,0.6878807,0.1271783,-0.12529773,-0.7035243,0.9999998,-6.758152e-10,2.1731679e-09,-0.00058526656,4
37872451,0.687204,0.12751873,-0.12862943,-0.70352274,0.9999998,-6.758152e-10,2.1731679e-09,-0.00058526656,4
37917138,0.6867674,0.12756208,-0.1302356,-0.70364565,0.9999998,-6.758152e-10,2.1731679e-09,-0.00058526656,4
37971766,0.6865149,0.12758495,-0.13006821,-0.70391876,0.9999998,-6.758152e-10,2.1731679e-09,-0.00058526656,4
38021437,0.6866392,0.12831733,-0.12938893,-0.70378965,0.9999998,-6.758152e-10,2.1731679e-09,-0.00058526656,4
38071082,0.68665403,0.12897496,-0.12909868,-0.70370823,0.9999998,-6.758152e-10,2.1731679e-09,-0.00058526656,4
38120740,0.686997,0.12846726,-0.12967044,-0.70336115,0.9999998,-6.758152e-10,2.1731679e-09,-0.00058526656,4
38170435,0.68737197,0.12718703,-0.12942933,-0.70327187,0.9999998,-6.758152e-10,2.1731679e-09,-0.00058526656,4
38220057,0.68819195,0.12592587,-0.12825075,-0.7029128,0.9999998,-6.758152e-10,2.1731679e-09,-0.00058526656,4
38269715,0.6891273,0.12406973,-0.12644975,-0.7026527,0.9999998,-6.758152e-10,2.1731679e-09,-0.00058526656,4
38319515,0.6906268,0.11950979,-0.122307464,-0.7027041,0.9999998,-6.758152e-10,2.1731679e-09,-0.00058526656,4
38369032,0.69326514,0.108885124,-0.11223837,-0.70351267,0.9999998,-6.758152e-10,2.1731679e-09,-0.00058526656,4
38418692,0.69655925,0.092290826,-0.095653355,-0.7050803,0.9999998,-6.758152e-10,2.1731679e-09,-0.00058526656,4
38473314,0.70023257,0.07109332,-0.073211096,-0.7065835,0.9999998,-6.758152e-10,2.1731679e-09,-0.00058526656,4
38522972,0.7030861,0.050453506,-0.051026702,-0.7074749,0.9999998,-6.758152e-10,2.1731679e-09,-0.00058526656,4
38572698,0.70499563,0.032012008,-0.031606518,-0.70778346,0.9999998,-6.758152e-10,2.1731679e-09,-0.00058526656,4
38617322,0.70610875,0.019318225,-0.017310215,-0.7076282,0.9999998,-6.758152e-10,2.1731679e-09,-0.00058526656,4
38671946,0.70686036,0.0074527697,-0.0047591403,-0.7072979,0.9999998,-6.758152e-10,2.1731679e-09,-0.00058526656,4
38721604,0.70747024,-0.0010017076,0.0037540575,-0.70673245,0.9999998,-6.758152e-10,2.1731679e-09,-0.00058526656,4
38771263,0.70753014,-0.0054129697,0.007837098,-0.706619,0.9999998,-6.758152e-10,2.1731679e-09,-0.00058526656,4
38820921,0.70793575,-0.007630723,0.010144367,-0.70616275,0.9999998,-6.758152e-10,2.1731679e-09,-0.00058526656,4
38870579,0.7080134,-0.009189278,0.012166726,-0.7060344,0.9999998,-6.758152e-10,2.1731679e-09,-0.00058526656,4
38920237,0.7082743,-0.010147293,0.01403348,-0.70572495,0.9999998,-6.758152e-10,2.1731679e-09,-0.00058526656,4
38969896,0.7085929,-0.009552174,0.012985614,-0.7054335,0.9999998,-6.758152e-10,2.1731679e-09,-0.00058526656,4
39019553,0.7085951,-0.008651913,0.009145542,-0.70550305,0.9999998,-6.758152e-10,2.1731679e-09,-0.00058526656,4
39069212,0.70882094,-0.00904616,0.008370647,-0.70528084,0.9999998,-6.758152e-10,2.1731679e-09,-0.00058526656,4
39119054,0.70862085,-0.012233432,0.013746909,-0.7053495,0.9999998,-6.758152e-10,2.1731679e-09,-0.00058526656,4
39173494,0.70839,-0.012572542,0.016877612,-0.70550746,0.9999998,-6.758152e-10,2.1731679e-09,-0.00058526656,4
39223154,0.70828176,-0.011020512,0.01539994,-0.70567584,0.9999998,-6.758152e-10,2.1731679e-09,-0.00058526656,4
39267845,0.70815253,-0.01008012,0.013938166,-0.70584995,0.9999998,-6.758152e-10,2.1731679e-09,-0.00058526656,4
39317506,0.7079746,-0.010915729,0.014592579,-0.70600283,0.9999998,-6.758152e-10,2.1731679e-09,-0.00058526656,4
39372166,0.7076682,-0.01141765,0.015773462,-0.70627666,0.9999998,-6.758152e-10,2.1731679e-09,-0.00058526656,4
39421785,0.70758814,-0.0101442505,0.015586106,-0.7063804,0.9999998,-6.758152e-10,2.1731679e-09,-0.00058526656,4
39471462,0.70731616,-0.008897304,0.013516271,-0.7067121,0.9999998,-6.758152e-10,2.1731679e-09,-0.00058526656,4
39521102,0.7072789,-0.009005482,0.012954983,-0.7067586,0.9999998,-6.758152e-10,2.1731679e-09,-0.00058526656,4
39570760,0.70692825,-0.008976926,0.012527371,-0.70711744,0.9999998,-6.758152e-10,2.1731679e-09,-0.00058526656,4
39620418,0.70667607,-0.0077632936,0.011754554,-0.70739704,0.9999998,-6.758152e-10,2.1731679e-09,-0.00058526656,4
39670249,0.70652854,-0.005765975,0.009856071,-0.7075925,0.9999998,-6.758152e-10,2.1731679e-09,-0.00058526656,4
39719734,0.7059812,-0.004879553,0.008695117,-0.70816046,0.9999998,-6.758152e-10,2.1731679e-09,-0.00058526656,4
39769393,0.705509,-0.0060551516,0.010397319,-0.7085989,0.9999998,-6.758152e-10,2.1731679e-09,-0.00058526656,4
39819053,0.70494956,-0.007505588,0.011610281,-0.7091227,0.9999998,-6.758152e-10,2.1731679e-09,-0.00058526656,4
39873675,0.70414966,-0.0072831586,0.011926997,-0.7099141,0.9999998,-6.758152e-10,2.1731679e-09,-0.00058526656,4
39923491,0.70323133,-0.007527348,0.012340324,-0.7108142,0.9999998,-6.758152e-10,2.1731679e-09,-0.00058526656,4
39968026,0.7018625,-0.007484279,0.01356726,-0.7121439,0.9999998,-6.758152e-10,2.1731679e-09,-0.00058526656,4
40017683,0.70022124,-0.0068033924,0.015640432,-0.71372217,0.9999998,-6.758152e-10,2.1731679e-09,-0.00058526656,4
40072311,0.69850737,-0.0065650796,0.015113736,-0.71541315,0.9999998,-6.758152e-10,2.1731679e-09,-0.00058526656,4
40121966,0.6968977,-0.0073463786,0.011811987,-0.7170357,0.9999998,-6.758152e-10,2.1731679e-09,-0.00058526656,4
40171630,0.6951979,-0.007986519,0.0092510795,-0.71871454,0.9999998,-6.758152e-10,2.1731679e-09,-0.00058526656,4
40221282,0.69347423,-0.006226262,0.006534885,-0.7204249,0.9999998,-6.758152e-10,2.1731679e-09,-0.00058526656,4
40270940,0.6915977,-0.00049628713,-8.548784e-05,-0.7222828,0.9999998,-6.758152e-10,2.1731679e-09,-0.00058526656,4
40320600,0.6900295,0.009767313,-0.012263005,-0.72361153,0.9999998,-6.758152e-10,2.1731679e-09,-0.00058526656,4
40370257,0.6884988,0.022282038,-0.025977867,-0.7244295,0.9999998,-6.758152e-10,2.1731679e-09,-0.00058526656,4
40419915,0.68743277,0.028157849,-0.033161186,-0.724944,0.9999998,-6.758152e-10,2.1731679e-09,-0.00058526656,4
40469707,0.686184,0.03573573,-0.04078102,-0.7254044,0.9999998,-6.758152e-10,2.1731679e-09,-0.00058526656,4
40519232,0.6843488,0.045385867,-0.0494189,-0.72606105,0.9999998,-6.758152e-10,2.1731679e-09,-0.00058526656,4
40573856,0.68306106,0.051319197,-0.05590762,-0.72640777,0.9999998,-6.758152e-10,2.1731679e-09,-0.00058526656,4
40623514,0.68251455,0.05103012,-0.057316598,-0.726832,0.9999998,-6.758152e-10,2.1731679e-09,-0.00058526656,4
40668206,0.68257445,0.050262567,-0.056638118,-0.7268824,0.9999998,-6.758152e-10,2.1731679e-09,-0.00058526656,4
40717911,0.6827024,0.050744366,-0.05568716,-0.72680223,0.9999998,-6.758152e-10,2.1731679e-09,-0.00058526656,4
40772489,0.6831315,0.05067801,-0.054871995,-0.7264655,0.9999998,-6.758152e-10,2.1731679e-09,-0.00058526656,4
40822148,0.68376046,0.05001724,-0.053483382,-0.726023,0.9999998,-6.758152e-10,2.1731679e-09,-0.00058526656,4
40871805,0.6843543,0.049857985,-0.053285357,-0.72548884,0.9999998,-6.758152e-10,2.1731679e-09,-0.00058526656,4
40921465,0.6849095,0.05098023,-0.053424302,-0.7248764,0.9999998,-6.758152e-10,2.1731679e-09,-0.00058526656,4
40971146,0.6851898,0.054143738,-0.056507964,-0.724148,0.9999998,-6.758152e-10,2.1731679e-09,-0.00058526656,4
41020986,0.6851644,0.059072193,-0.062123887,-0.72332627,0.9999998,-6.758152e-10,2.1731679e-09,-0.00058526656,4
41070438,0.68569785,0.060995083,-0.06588739,-0.72232753,0.9999998,-6.758152e-10,2.1731679e-09,-0.00058526656,4
41120096,0.6866756,0.060804725,-0.06426126,-0.7215608,0.9999998,-6.758152e-10,2.1731679e-09,-0.00058526656,4
41169754,0.687599,0.061334334,-0.06312568,-0.72073644,0.9999998,-6.758152e-10,2.1731679e-09,-0.00058526656,4
41219416,0.688351,0.062473457,-0.06358277,-0.7198801,0.9999998,-6.758152e-10,2.1731679e-09,-0.00058526656,4
41274160,0.6892568,0.061901372,-0.06151107,-0.7192425,0.9999998,-6.758152e-10,2.1731679e-09,-0.00058526656,4
41323695,0.69048005,0.05916801,-0.056203716,-0.7187333,0.9999998,-6.758152e-10,2.1731679e-09,-0.00058526656,4
41368387,0.6917041,0.0563218,-0.049752925,-0.7182604,0.9999998,-6.758152e-10,2.1731679e-09,-0.00058526656,4
41418045,0.6929449,0.05125153,-0.042425822,-0.7179142,0.9999998,-6.758152e-10,2.1731679e-09,-0.00058526656,4
41472686,0.6940815,0.04397607,-0.03754938,-0.7175703,0.9999998,-6.758152e-10,2.1731679e-09,-0.00058526656,4
41522355,0.6950238,0.037597958,-0.03313716,-0.71723795,0.9999998,-6.758152e-10,2.1731679e-09,-0.00058526656,4
41571986,0.6957458,0.031953797,-0.02888474,-0.7169954,0.9999998,-6.758152e-10,2.1731679e-09,-0.00058526656,4
41621644,0.6972113,0.027232552,-0.024332372,-0.71593493,0.9999998,-6.758152e-10,2.1731679e-09,-0.00058526656,4
41671308,0.699045,0.02059013,-0.015297885,-0.7146175,0.9999998,-6.758152e-10,2.1731679e-09,-0.00058526656,4
41720961,0.7004112,0.010779955,-0.0024993066,-0.7136538,0.9999998,-6.758152e-10,2.1731679e-09,-0.00058526656,4
41770619,0.70138973,0.004761924,0.007904241,-0.7127183,0.9999998,-6.758152e-10,2.1731679e-09,-0.00058526656,4
41820436,0.70192486,0.0034758488,0.0115095945,-0.7121496,0.9999998,-6.758152e-10,2.1731679e-09,-0.00058526656,4
41869939,0.7024989,0.003395406,0.010591382,-0.7115979,0.9999998,-6.758152e-10,2.1731679e-09,-0.00058526656,4
41919593,0.7028687,0.003095914,0.009576325,-0.7112484,0.9999998,-6.758152e-10,2.1731679e-09,-0.00058526656,4
41974218,0.7031733,0.004572786,0.009277087,-0.7109434,0.9999998,-6.758152e-10,2.1731679e-09,-0.00058526656,4
42018912,0.7031871,0.0064151925,0.008594272,-0.710924,0.9999998,-6.758152e-10,2.1731679e-09,-0.00058526656,4
42068635,0.70331687,0.008431498,0.0071350173,-0.71079075,0.9999998,-6.758152e-10,2.1731679e-09,-0.00058526656,4
42118235,0.7033203,0.010946547,0.0069671366,-0.71075463,0.9999998,-6.758152e-10,2.1731679e-09,-0.00058526656,4
42172850,0.70323217,0.013667236,0.0063830214,-0.7108003,0.9999998,-6.758152e-10,2.1731679e-09,-0.00058526656,4
42222509,0.70316833,0.015990857,0.004539309,-0.7108292,0.9999998,-6.758152e-10,2.1731679e-09,-0.00058526656,4
42272167,0.7033027,0.017949369,0.002772002,-0.7106585,0.9999998,-6.758152e-10,2.1731679e-09,-0.00058526656,4
42321826,0.7032393,0.019791527,0.001142157,-0.71067685,0.9999998,-6.758152e-10,2.1731679e-09,-0.00058526656,4
42371486,0.7033219,0.022053836,-0.00027584296,-0.7105294,0.9999998,-6.758152e-10,2.1731679e-09,-0.00058526656,4
42421145,0.7034977,0.023902662,-0.005216375,-0.7102763,0.9999998,-6.758152e-10,2.1731679e-09,-0.00058526656,4
42470800,0.7033609,0.026593765,-0.013784045,-0.71020156,0.9999998,-6.758152e-10,2.1731679e-09,-0.00058526656,4
42520458,0.7031964,0.028492438,-0.020523194,-0.71012807,0.9999998,-6.758152e-10,2.1731679e-09,-0.00058526656,4
42570118,0.7031089,0.028764073,-0.023121525,-0.7101239,0.9999998,-6.758152e-10,2.1731679e-09,-0.00058526656,4
42619947,0.7030001,0.02943425,-0.025554929,-0.71012074,0.9999998,-6.758152e-10,2.1731679e-09,-0.00058526656,4
42674398,0.70276886,0.030923966,-0.02864412,-0.7101684,0.9999998,-6.758152e-10,2.1731679e-09,-0.00058526656,4
42719091,0.7027489,0.03144862,-0.030235214,-0.7100992,0.9999998,-6.758152e-10,2.1731679e-09,-0.00058526656,4
42768751,0.7026398,0.032049194,-0.03174689,-0.71011436,0.9999998,-6.758152e-10,2.1731679e-09,-0.00058526656,4
42818415,0.7027053,0.03206297,-0.032760195,-0.7100029,0.9999998,-6.758152e-10,2.1731679e-09,-0.00058526656,4
42873148,0.7030069,0.032616172,-0.033133846,-0.70966166,0.9999998,-6.758152e-10,2.1731679e-09,-0.00058526656,4
42922690,0.7030999,0.033304214,-0.033870496,-0.7095028,0.9999998,-6.758152e-10,2.1731679e-09,-0.00058526656,4
42967382,0.70356226,0.032938894,-0.034509648,-0.7090305,0.9999998,-6.758152e-10,2.1731679e-09,-0.00058526656,4
43022006,0.70400745,0.032808747,-0.036574148,-0.70849097,0.9999998,-6.758152e-10,2.1731679e-09,-0.00058526656,4
43071662,0.70420504,0.0330691,-0.038197927,-0.7081968,0.9999998,-6.758152e-10,2.1731679e-09,-0.00058526656,4
43121324,0.7047279,0.03357882,-0.037213705,-0.7077049,0.9999998,-6.758152e-10,2.1731679e-09,-0.00058526656,4
43171183,0.70522755,0.033455152,-0.03686357,-0.7072312,0.9999998,-6.758152e-10,2.1731679e-09,-0.00058526656,4
43220639,0.7058523,0.031321805,-0.036590643,-0.70671964,0.9999998,-6.758152e-10,2.1731679e-09,-0.00058526656,4
43270298,0.70725673,0.026450885,-0.03309467,-0.70568633,0.9999998,-6.758152e-10,2.1731679e-09,-0.00058526656,4
43320001,0.70829403,0.029505068,-0.035600338,-0.7044017,0.9999998,-6.758152e-10,2.1731679e-09,-0.00058526656,4
43374580,0.70881915,0.040413544,-0.045890257,-0.70273495,0.9999998,-6.758152e-10,2.1731679e-09,-0.00058526656,4
43419374,0.7091285,0.04977978,-0.0552134,-0.7011492,0.9999998,-6.758152e-10,2.1731679e-09,-0.00058526656,4
43468931,0.7091718,0.061868258,-0.06646182,-0.6991642,0.9999998,-6.758152e-10,2.1731679e-09,-0.00058526656,4
43518589,0.7086863,0.07597552,-0.07963326,-0.69688594,0.9999998,-6.758152e-10,2.1731679e-09,-0.00058526656,4
43573254,0.7073035,0.09111481,-0.09586838,-0.69442725,0.9999998,-6.758152e-10,2.1731679e-09,-0.00058526656,4
43622871,0.70578504,0.10486624,-0.109694935,-0.69198096,0.9999998,-6.758152e-10,2.1731679e-09,-0.00058526656,4
43667560,0.7041572,0.116408415,-0.12161032,-0.68979913,0.9999998,-6.758152e-10,2.1731679e-09,-0.00058526656,4
43722188,0.7025998,0.12535803,-0.13036136,-0.68821865,0.9999998,-6.758152e-10,2.1731679e-09,-0.00058526656,4
43771846,0.702976,0.12467905,-0.12916228,-0.68818384,0.9999998,-6.758152e-10,2.1731679e-09,-0.00058526656,4
43821536,0.70418686,0.119080365,-0.12325958,-0.6890195,0.9999998,-6.758152e-10,2.1731679e-09,-0.00058526656,4
43871164,0.7051622,0.1111187,-0.1158432,-0.69063693,0.9999998,-6.758152e-10,2.1731679e-09,-0.00058526656,4
43920820,0.7067604,0.10060568,-0.10538541,-0.69228774,0.9999998,-6.758152e-10,2.1731679e-09,-0.00058526656,4
43970628,0.7083894,0.08800236,-0.09270794,-0.6941508,0.9999998,-6.758152e-10,2.1731679e-09,-0.00058526656,4
44020147,0.7094254,0.07559974,-0.07897472,-0.6962494,0.9999998,-6.758152e-10,2.1731679e-09,-0.00058526656,4
44074761,0.71049607,0.06124845,-0.06374776,-0.69812626,0.9999998,-6.758152e-10,2.1731679e-09,-0.00058526656,4
44119453,0.71086496,0.048716832,-0.051628128,-0.69973725,0.9999998,-6.758152e-10,2.1731679e-09,-0.00058526656,4
44169112,0.71105474,0.034252852,-0.03886991,-0.70122546,0.9999998,-6.758152e-10,2.1731679e-09,-0.00058526656,4
44218836,0.71069354,0.020243391,-0.025166031,-0.70276004,0.9999998,-6.758152e-10,2.1731679e-09,-0.00058526656,4
44273457,0.7100495,0.0052335174,-0.008833632,-0.7040769,0.9999998,-6.758152e-10,2.1731679e-09,-0.00058526656,4
44323052,0.709191,-0.009028811,0.0067570205,-0.70492625,0.9999998,-6.758152e-10,2.1731679e-09,-0.00058526656,4
44367751,0.70797014,-0.022090007,0.020950552,-0.70558584,0.9999998,-6.758152e-10,2.1731679e-09,-0.00058526656,4
44422369,0.70600474,-0.037867587,0.037832662,-0.7061814,0.9999998,-6.758152e-10,2.1731679e-09,-0.00058526656,4
44472030,0.7042125,-0.05174858,0.051502395,-0.70622545,0.9999998,-6.758152e-10,2.1731679e-09,-0.00058526656,4
44521704,0.702188,-0.06564877,0.06415919,-0.70604944,0.9999998,-6.758152e-10,2.1731679e-09,-0.00058526656,4
44571345,0.6997771,-0.07677539,0.07528127,-0.7062226,0.9999998,-6.758152e-10,2.1731679e-09,-0.00058526656,4
44621007,0.6983471,-0.07847161,0.0780458,-0.70715094,0.9999998,-6.758152e-10,2.1731679e-09,-0.00058526656,4
44670660,0.6978577,-0.07360124,0.072570145,-0.7087391,0.9999998,-6.758152e-10,2.1731679e-09,-0.00058526656,4
44720318,0.6976055,-0.065933205,0.06359504,-0.710602,0.9999998,-6.758152e-10,2.1731679e-09,-0.00058526656,4
44770097,0.6974987,-0.055176876,0.052420743,-0.71253306,0.9999998,-6.758152e-10,2.1731679e-09,-0.00058526656,4
44819635,0.69761455,-0.04218573,0.040006083,-0.7141106,0.9999998,-6.758152e-10,2.1731679e-09,-0.00058526656,4
44869295,0.6977559,-0.029181832,0.02629809,-0.71525776,0.9999998,-6.758152e-10,2.1731679e-09,-0.00058526656,4
44918951,0.6974884,-0.014934962,0.011526744,-0.71634775,0.9999998,-6.758152e-10,2.1731679e-09,-0.00058526656,4
44973575,0.6973582,0.0012271127,-0.0051759286,-0.71670306,0.9999998,-6.758152e-10,2.1731679e-09,-0.00058526656,4
45023279,0.69713044,0.013627139,-0.017616322,-0.71659833,0.9999998,-6.758152e-10,2.1731679e-09,-0.00058526656,4
45067928,0.6969668,0.020887287,-0.025098557,-0.7163596,0.9999998,-6.758152e-10,2.1731679e-09,-0.00058526656,4
45122550,0.6970943,0.026493719,-0.028144231,-0.7159369,0.9999998,-6.758152e-10,2.1731679e-09,-0.00058526656,4
45172208,0.6971171,0.02992052,-0.031814855,-0.71562594,0.9999998,-6.758152e-10,2.1731679e-09,-0.00058526656,4
45221862,0.697195,0.031715564,-0.034647025,-0.71534115,0.9999998,-6.758152e-10,2.1731679e-09,-0.00058526656,4
45271527,0.6976485,0.032106202,-0.034941416,-0.7148671,0.9999998,-6.758152e-10,2.1731679e-09,-0.00058526656,4
45321374,0.6979645,0.03234931,-0.034691792,-0.7145598,0.9999998,-6.758152e-10,2.1731679e-09,-0.00058526656,4
45370842,0.6985605,0.032280676,-0.033620946,-0.7140314,0.9999998,-6.758152e-10,2.1731679e-09,-0.00058526656,4
45420500,0.69904923,0.032335687,-0.033692837,-0.71354705,0.9999998,-6.758152e-10,2.1731679e-09,-0.00058526656,4
45470158,0.6993839,0.032636736,-0.033717938,-0.71320415,0.9999998,-6.758152e-10,2.1731679e-09,-0.00058526656,4
45519816,0.6999035,0.032289103,-0.032446884,-0.71276915,0.9999998,-6.758152e-10,2.1731679e-09,-0.00058526656,4
45569556,0.70051956,0.032228466,-0.031425223,-0.7122122,0.9999998,-6.758152e-10,2.1731679e-09,-0.00058526656,4
45619132,0.7012433,0.03212247,-0.030836755,-0.71153015,0.9999998,-6.758152e-10,2.1731679e-09,-0.00058526656,4
45673758,0.7018939,0.032082427,-0.03031248,-0.7109127,0.9999998,-6.758152e-10,2.1731679e-09,-0.00058526656,4
45718450,0.70237803,0.03180864,-0.029530149,-0.7104796,0.9999998,-6.758152e-10,2.1731679e-09,-0.00058526656,4
45768108,0.70324415,0.031226918,-0.029193327,-0.7096621,0.9999998,-6.758152e-10,2.1731679e-09,-0.00058526656,4
45822741,0.7039217,0.03064604,-0.029226422,-0.7090141,0.9999998,-6.758152e-10,2.1731679e-09,-0.00058526656,4
45872390,0.70464694,0.030655306,-0.02884411,-0.7083085,0.9999998,-6.758152e-10,2.1731679e-09,-0.00058526656,4
45922049,0.705155,0.030598642,-0.028633228,-0.70781386,0.9999998,-6.758152e-10,2.1731679e-09,-0.00058526656,4
