timestamp,timestamp_sample,xyz[0],xyz[1],xyz[2]
18520935,18520697,0.007463102,-0.01822966,0.04208346
18522208,18521975,0.010238804,-0.016290028,0.036658127
18542027,18541802,0.009725541,-0.002557796,-0.032818127
18563134,18562906,0.0045010163,-0.008641216,0.008114849
18584251,18584012,-0.01274212,0.009992193,0.093649186
18601619,18601389,0.0045118257,0.012024081,-0.020758672
18622735,18622498,-0.002828297,0.0027266033,-0.0075206556
18643850,18643619,-0.025539745,-0.02732722,0.025623662
18665000,18664768,0.0197076,-0.004488488,0.047448777
18682515,18682287,-0.031335402,-0.0026223767,-0.042061187
18703433,18703197,0.021042012,0.036191285,0.038394436
18724526,18724292,0.01747877,-0.016734961,0.044961
18741896,18741672,-0.015970644,0.03444402,0.013325596
18761763,18761535,0.026759647,-0.00039686018,0.014888314
18782864,18782640,-0.010640849,-0.021153608,0.011587841
18803977,18803745,-0.013973796,-0.005499956,0.019061796
18821356,18821130,0.011318875,0.01890098,0.014995613
18842454,18842230,0.019242939,-0.020359725,0.008787703
18864811,18864579,-0.032672904,-0.033875056,0.02320444
18880946,18880716,0.013836939,0.050797306,0.021687407
18902089,18901867,0.023303915,0.031728588,0.004909404
18923232,18922999,-0.021117901,-0.06268616,0.03444216
18944382,18944152,-0.036002744,-0.077168725,0.036927506
18961637,18961411,0.045950133,0.09991594,-0.018282393
18982746,18982513,0.013444356,0.054751676,0.013191372
19003861,19003637,-0.055280317,-0.091689266,0.06556737
19021227,19020998,0.02641826,0.0034121368,-0.020434706
19042340,19042105,0.041237276,0.12113,-0.00232067
19063444,19063208,-0.054409407,0.089110196,0.06785791
19084546,19084312,-0.009585566,0.008171239,0.08458435
19101920,19101692,0.057196297,-0.040242307,-0.030267788
19123028,19122798,-0.08494877,0.067200296,-0.04257702
19144133,19143901,-0.11034737,0.14256762,-0.023239814
19161507,19161280,-0.06289264,0.12918688,0.02259806
19182617,19182391,0.01976177,0.042445388,-0.06138249
19203814,19203591,-0.06540977,0.06283886,-0.09950534
19225004,19224774,0.14165394,-0.05292335,-0.036351733
19242271,19242036,-0.0041621835,0.08053686,0.030947983
19263307,19263081,0.05578787,0.02023261,0.0036969208
19284448,19284210,0.12913132,0.0034457329,0.049190126
19301802,19301567,0.099351145,0.033010002,0.07797411
19322895,19322670,0.015265781,0.0018374608,-0.000779105
19342758,19342534,0.0102030095,0.021707894,-0.006099988
19363865,19363639,-0.081812896,0.025929485,-0.038729507
19382490,19382260,-0.0515124,0.05831864,-0.0107894065
19402348,19402123,-0.1492597,0.06681756,0.020363221
19423452,19423228,0.0096265,-0.0065377546,0.047434147
19440840,19440608,0.03321383,0.031444415,0.07549747
19462006,19461777,-0.0051077944,-0.036420673,0.045057863
19483163,19482940,-0.088071585,0.04119208,0.05111485
19504156,19503923,-0.123693846,-0.0047374605,-0.019407922
19521537,19521303,-0.061384715,0.023126869,-0.008038168
19542634,19542407,-0.08887665,-0.008357788,-0.042119347
19563743,19563512,0.08738503,-0.005415638,0.05647113
19581121,19580892,-0.0059866994,-0.044109713,0.013466732
19602242,19602017,0.09735381,-0.092048675,0.06066477
19623335,19623101,-0.026217561,-0.00089453405,0.06742952
19644432,19644206,0.04446414,-0.013382357,-0.00582131
19661813,19661586,0.011934334,0.087867156,-0.02527953
19682922,19682690,-0.017307915,-0.012028219,-0.058519106
19704044,19703805,0.046904948,-0.029093316,0.002242732
19721400,19721175,-0.058804076,0.034708116,-0.037673816
19742583,19742354,0.02890577,0.03993427,0.045754354
19763793,19763567,-0.041894954,-0.0036542295,0.06313243
19784715,19784490,-0.05529732,0.011087149,0.0544027
19802098,19801870,-0.093808256,-0.03532988,0.07352868
19823209,19822977,-0.032846726,0.026337992,-0.040158585
19844308,19844080,-0.0760488,0.025775716,-0.07420256
19861692,19861459,0.013529442,0.015077222,-0.030116832
19882789,19882564,-0.011130576,0.0071237925,-0.033599906
19903894,19903669,0.11811399,-0.012127245,0.01700253
19925004,19924775,0.08045235,-0.011140729,0.053221334
19942380,19942153,0.07669649,-0.044391695,0.02236759
19963486,19963259,0.024869254,-0.08466937,0.032510035
19983394,19983169,-0.0020423266,-0.02645195,0.03140782
20000764,20000534,0.05096965,-0.037492536,0.03878171
20021963,20021729,0.12360075,-0.071625866,0.06740725
20042938,20042711,0.14984027,-0.0077408007,0.07626726
20064082,20063857,-0.066760674,0.02286316,0.059415374
20081445,20081209,-0.06650837,-0.07990564,0.043588102
20102524,20102300,-0.107674,-0.04626551,-0.0075289863
20123630,20123405,0.106689036,-0.063034534,-0.039518047
20141015,20140786,0.09101513,-0.08471468,0.040981565
20162114,20161890,0.13430935,-0.06414923,0.05081356
20183223,20182995,0.11922383,-0.010264974,0.037190888
20204331,20204099,0.055846103,0.008911045,-0.010415902
20221722,20221490,0.27135143,-0.07749666,0.05667901
20242810,20242585,0.029173221,-0.028906377,0.05763574
20263920,20263691,-0.19152118,0.0633933,0.038720325
20281374,20281148,-0.047294993,-0.059855305,0.07240778
20302589,20302363,-0.13297167,0.03989957,0.033899806
20323509,20323278,-0.11521901,0.099685706,-0.0012443176
20344609,20344383,-0.15329324,0.09463774,-0.024834132
20362006,20361782,-0.12687,0.011927539,0.029658172
20383100,20382868,-0.27717313,0.003465833,-0.004592187
20404219,20403977,-0.21471375,0.017066827,-0.008258734
20421580,20421353,-0.16971236,-0.0063021905,0.015703173
20442686,20442457,-0.054534134,0.0713889,0.029127087
20463788,20463562,0.04246492,0.09270587,0.023950676
20484899,20484667,0.014024596,0.038123254,0.0068215905
20502278,20502047,-0.10274375,-0.014026197,0.017435838
20523447,20523212,-0.1495386,-0.040660076,-0.049835544
20543289,20543061,-0.15249272,-0.0021682684,-0.024773614
20560745,20560521,-0.2311306,-0.01501106,0.059370864
20582970,20582742,-0.17245781,0.067276224,0.06615809
20602833,20602606,-0.13574614,0.047164135,0.02833596
20621465,20621226,-0.10311258,0.034422662,0.049100537
20641318,20641089,-0.041551307,0.047708295,0.06866258
20662425,20662199,-0.10906828,0.029301213,0.05834571
20683526,20683301,-0.22878946,0.0053524016,0.034558717
20700931,20700698,-0.21813583,-0.10748055,0.0045283423
20722011,20721784,-0.21089855,-0.040453132,0.010627817
20743113,20742888,-0.13381934,0.06305861,0.05179974
20764230,20764001,-0.10736429,0.110333905,0.081601635
20781607,20781374,-0.07230502,-0.019160394,0.10128284
20802762,20802537,-0.07784428,-0.057026837,0.03687462
20823909,20823680,-0.14822914,-0.07849876,-0.0018563623
20841377,20841151,0.086544454,-0.118351616,0.06568074
20862300,20862068,-0.07644872,-0.106187485,0.0676385
20883442,20883216,-0.18415153,-0.04531395,0.06696264
20904510,20904277,-0.16684273,0.030281203,0.043855328
20921881,20921657,0.0970405,-0.08627915,0.049063124
20942993,20942762,0.15441218,-0.03177075,0.08993665
20964097,20963866,0.0880897,-0.009921585,0.06854717
20981473,20981247,0.26604778,-0.15606685,0.072638795
21002579,21002352,0.1537459,-0.17282742,0.05381733
21023698,21023468,0.040807877,-0.15675394,0.027921114
21044785,21044560,-0.056890123,-0.09110841,0.020160975
21062236,21062003,0.20986931,-0.17493995,0.07526284
21083328,21083100,0.069595665,-0.11690421,0.07909741
21103282,21103054,0.07299746,-0.12680057,0.0740136
21121755,21121530,0.120963335,-0.21190163,0.036779914
21142870,21142638,0.14385445,-0.14849776,0.056714073
21163968,21163740,0.12510462,-0.07019489,0.05521698
21183830,21183605,0.22113879,-0.07083663,0.08799579
21202462,21202225,0.410757,-0.10961202,0.10420508
21223560,21223330,0.33894268,-0.10353178,0.08740189
21243441,21243215,0.26365447,-0.12844235,0.077604085
21260798,21260573,0.2768545,-0.15828694,0.057871886
21281906,21281678,0.15714212,-0.20676531,0.049425703
21303009,21302782,0.049342684,-0.23224854,0.03259906
21324113,21323887,-0.055644445,-0.1814204,0.037759647
21341508,21341280,0.17591608,-0.1739808,0.021250624
21362699,21362473,0.12799418,-0.11153721,0.057218544
21383706,21383476,0.10946919,-0.042811096,0.08290489
21401156,21400927,0.16151433,-0.14454772,0.055621684
21422193,21421961,0.1536229,-0.11247273,0.0716904
21443291,21443066,0.12989944,-0.09745459,0.0864053
21464395,21464170,0.03390971,-0.10869175,0.07297319
21481781,21481552,0.26679614,-0.10588334,0.06322719
21502880,21502656,0.19833024,-0.10259164,0.06576905
21523984,21523760,0.06909579,-0.09815211,0.059468806
21541366,21541141,0.1830381,-0.15208744,0.051518615
21562477,21562247,0.047329966,-0.18724354,0.051629514
21583610,21583377,-0.11313135,-0.14879964,0.038757414
21604730,21604502,-0.13549353,-0.049322892,0.06192525
21622115,21621890,0.050986588,-0.119447276,0.05299969
21643334,21643098,0.044924054,-0.045919415,0.082825094
21664273,21664044,0.07387349,0.015515808,0.078574896
21681654,21681425,0.13027057,-0.03209437,0.08623203
21702753,21702529,0.092202164,-0.030254863,0.106007315
21723863,21723634,-0.053741444,-0.0680198,0.068570696
21743727,21743497,-0.119276375,-0.115769595,0.029668195
21762348,21762119,-0.02070079,-0.10937246,0.012615238
21783470,21783229,-0.12585476,-0.06564737,0.022383615
21803321,21803086,-0.111240424,-0.022602296,0.07502199
21821944,21821708,-0.12981227,-0.06647111,0.06660836
21841796,21841572,-0.15405042,-0.074420676,0.078137845
21862907,21862676,-0.13167095,-0.029687691,0.062166076
21884089,21883863,-0.12047146,-0.029366747,0.013452141
21901489,21901265,-0.046690963,0.014541321,0.06633502
21922499,21922267,-0.1559283,-0.007695458,0.06164217
21943596,21943371,-0.16701676,-0.020224502,0.03565874
21960979,21960751,-0.11012054,-0.08183068,-0.010212438
21982097,21981868,0.12935874,-0.094758146,-0.042764127
22003201,22002956,0.15678869,-0.025683185,0.010575586
22024292,22024067,0.010113141,0.09224633,0.049951214
22041678,22041445,-0.06255631,-0.014066498,0.054484125
22062778,22062550,-0.1675675,-0.026854163,-0.079649076
22083879,22083654,0.038349457,0.03882436,-0.07330723
22101270,22101036,0.022317728,0.054433506,-0.026701394
22122372,22122143,-0.17978221,0.1400408,0.016909065
22143471,22143245,-0.068503544,-0.00025927674,-0.0126342
22164700,22164475,0.022405896,0.04294615,0.004674167
22182134,22181902,-0.020734562,0.026047057,-0.022470485
22203058,22202834,0.10676896,0.0037875024,0.028821275
22224166,22223938,0.0519645,0.002385285,0.06604108
22241544,22241319,0.02850483,-0.048091143,-0.00054699904
22262650,22262423,0.054442026,-0.031353,0.054226656
22283808,22283581,-0.010252052,-0.04137043,0.073939055
22304862,22304632,-0.08497129,0.025977336,0.030213352
22322251,22322015,-0.11000392,-0.02109057,-0.039095916
22343348,22343120,-0.13877206,0.063818865,-0.052284703
22364459,22364223,-0.09208544,0.071995705,-0.047366273
22381832,22381602,-0.0929684,0.07405867,-0.026536085
22402959,22402724,-0.028034432,0.023138054,-0.013821944
22422826,22422600,0.06499765,-0.023570051,-0.026569942
22444037,22443801,0.071799405,-0.027404433,0.03714837
22461297,22461073,0.08830638,-0.035664443,0.03937631
22482384,22482160,0.020321935,-0.038591437,0.06347323
22503503,22503269,0.0019528408,-0.0010756967,-0.0026044818
22520877,22520646,-0.054175638,0.010181823,0.0181268
22541978,22541750,-0.04217251,0.050366584,-0.00586723
22563084,22562856,-0.05726241,0.036558867,-0.028421389
22584194,22583960,0.014851455,0.015920458,0.037034024
22601565,22601339,0.020582978,-0.054699577,-0.063978426
22622677,22622444,0.092315406,-0.041740038,0.019749822
22643817,22643592,0.055763226,0.023689501,0.05813907
22661154,22660929,0.020688435,-0.012574092,0.046486344
22682268,22682037,-0.04040383,-0.023739586,0.009469583
22703501,22703273,-0.054648776,-0.034136586,-0.04449299
22724651,22724426,-0.031526648,0.026840499,-0.03168486
22741852,22741623,-0.04394611,0.01917104,-0.026278565
22763005,22762778,-0.031851895,-0.01014315,-0.006465836
22784060,22783833,0.08910931,-0.0526838,0.019882316
22801472,22801242,0.10980417,0.019343471,0.033764094
22822545,22822318,0.049767617,-0.059702918,0.09093896
22843646,22843422,-0.056866575,-0.06679974,0.017592618
22864757,22864531,-0.09928752,0.017016714,-0.0675065
22882136,22881908,-0.070006065,0.027873576,-0.012507429
22903240,22903011,-0.10029011,0.06684885,-0.02722188
22924346,22924118,-0.0029083842,0.023741374,-0.0029045213
22941725,22941499,-0.03451445,0.04355731,-0.04962909
22962870,22962641,-0.057128344,0.0038849402,0.05707414
22982820,22982595,-0.11990662,-0.040407725,0.087528706
23003792,23003569,-0.23908353,-0.011927539,0.010121052
23022435,23022201,-0.14179395,0.0606865,-0.06993824
23042289,23042056,-0.103167824,0.07243616,-0.059468232
23063384,23063158,-0.06263387,-0.02151933,0.054218814
23082014,23081781,-0.19418254,-0.098238036,0.040862303
23101870,23101644,-0.3203537,-0.08226848,0.0064140786
23122973,23122748,-0.27110216,-0.08005421,-0.013683617
23144089,23143853,-0.15105115,0.00023915971,-0.006331743
23161513,23161287,-0.22971754,-0.012397101,0.010981753
23182562,23182338,-0.3575071,-0.036552284,-0.0018783868
23203671,23203443,-0.3096796,-0.1525668,0.015532639
23221048,23220818,-0.34951547,-0.10769212,0.025321506
23242241,23242012,-0.4369993,-0.061004236,0.0006315767
23263451,23263222,-0.2306934,-0.06622694,-0.005224921
23284365,23284137,-0.43170193,-0.029339205,-0.004556984
23301742,23301517,-0.3901338,-0.08354024,0.0062848367
23322852,23322622,-0.3014322,-0.09373742,0.01920605
23343973,23343747,-0.40108272,-0.051767714,-3.622961e-05
23361338,23361108,-0.19790919,-0.10389742,-0.0112915
23382440,23382212,-0.26190612,-0.104798205,-0.010930895
23403547,23403316,-0.033805873,-0.17964712,-0.016174715
23424647,23424421,-0.022301992,-0.14921936,0.013970857
23442031,23441801,0.08458413,-0.12715508,0.030161208
23463148,23462924,0.124992006,-0.034151107,0.05782189
23484239,23484012,0.31384405,0.13909173,0.124990955
23501771,23501531,0.33583382,0.15597807,0.15290338
23522858,23522633,0.6589269,0.14972493,0.18780111
23543825,23543600,0.74348396,0.19631636,0.18621741
23561220,23560983,0.9227204,0.12295434,0.20364463
23582357,23582128,1.1878792,0.03552536,0.219906
23603430,23603194,1.1440624,0.103602506,0.2518934
23623280,23623054,1.2785382,0.121775694,0.22224802
23641923,23641677,0.20604454,0.050877918,0.05320077
23663018,23662780,-0.6292273,-0.3153038,0.067777105
23682908,23682682,-0.3187442,-0.22350647,0.06682446
23703976,23703750,-0.053286083,-0.3496914,-0.01213122
23721356,23721127,0.6500393,0.2589909,-0.12667023
23742460,23742233,0.23082213,0.20979175,-0.2069247
23763569,23763346,-0.25614697,0.051512558,-0.015236772
23781034,23780806,-0.091179356,-0.09401727,0.03009886
23802244,23802015,-0.17242941,0.11353502,-0.091753766
23823154,23822926,0.14892042,0.10879951,-0.17360291
23844266,23844031,0.06701679,0.13220334,-0.022920342
23861635,23861411,-0.14906922,-0.07989005,0.049038257
23882740,23882516,0.025271725,-0.12093877,0.09694182
23903854,23903621,-0.036141243,0.0059912903,-0.02984465
23921232,23921001,0.15681541,0.009097218,-0.05002679
23942338,23942106,-0.11636392,0.06654155,-0.005721528
23963438,23963211,0.0020513341,0.04474945,0.03109789
23984546,23984321,0.025020136,-0.046777423,0.038231555
24001929,24001697,-0.04022491,0.012727608,-0.009768741
24023057,24022825,0.02336249,0.03720869,0.016808162
24044217,24043977,0.081863396,0.038267847,-0.011779736
24061658,24061426,0.013546765,0.032246925,0.006147478
24082624,24082390,-0.025196414,-0.15144357,-0.001561798
24103719,24103494,0.054743096,0.03916053,0.021437148
24124826,24124599,0.12551327,0.048760913,-0.044348612
24142217,24141981,0.07799663,0.056668468,0.021097312
24163309,24163084,-0.1777703,-0.058869418,-0.022414654
24184431,24184196,0.023569096,0.008400231,0.01799796
24201797,24201569,-0.004180039,0.036638428,0.031868353
24222935,24222687,-0.022448072,-0.041047223,0.012056001
24244016,24243778,-0.035290927,-0.023795683,-0.02812654
24263869,24263643,0.035946894,-0.001146189,0.020322533
24281255,24281022,0.06355838,-0.024183035,-0.01426621
24302371,24302145,0.01272978,-0.07040168,-0.024499184
24323679,24323453,-0.009233254,0.019283498,0.014845953
24340847,24340615,0.0337304,-0.065983616,0.031749465
24361945,24361716,0.02232522,0.010110696,0.021536948
24383049,24382821,0.04825873,-0.04485778,0.0026083253
24404152,24403925,0.015183628,-0.01636586,0.025443362
24421535,24421308,0.024928302,-0.06520011,0.0001674788
24442674,24442450,0.061851513,-0.030341651,0.018942311
24463747,24463515,0.05320803,0.0033255029,0.055988383
24481122,24480895,-0.01309466,0.0013295934,0.018990662
24502239,24502004,0.07716889,-0.027555041,-0.015846295
24523389,24523165,0.022584895,-0.025016407,-0.020231662
24544436,24544207,0.00669953,-0.04363899,0.0010389487
24561814,24561590,0.0021770764,-0.014789038,-0.0094271405
24582994,24582768,-0.010806331,-0.02830483,-0.03303631
24604201,24603968,-0.025915964,0.01188385,-0.02939256
24621413,24621179,0.005452582,0.04653657,-0.01722611
24642514,24642286,-0.06639208,0.036878224,-0.0044107023
24663619,24663390,-0.033906978,0.03675953,-0.012373291
24684726,24684493,-0.067178294,0.09239058,-0.04505673
24702099,24701873,-0.09936204,0.081363134,-0.03993838
24723212,24722979,-0.07366279,0.08782103,-0.04811845
24744310,24744085,-0.14672734,0.16986123,-0.035688948
24761696,24761464,-0.113079876,0.17491059,-0.006023642
24782798,24782569,-0.06732658,0.14923297,0.06294728
24803897,24803672,-0.06771489,0.15291089,0.13235731
24823773,24823543,-0.08147985,0.014880299,0.087963246
24842431,24842193,0.009322826,-0.031397577,0.030666063
24862375,24862142,0.05018261,-0.02044601,0.07467584
24883352,24883126,0.00976125,-0.03422418,0.039703697
24901980,24901748,-0.0061350986,0.022667326,-0.038064983
24921842,24921611,-0.08932558,0.07601579,-0.045811515
24942944,24942715,0.03279803,0.024204548,0.016448032
24964045,24963820,-0.070490934,0.053717364,0.067406066
24981434,24981203,-0.033993963,-9.3909126e-05,0.0555627
25002533,25002305,0.008802872,0.0050380165,0.0115489075
25023636,25023409,0.08943541,-0.022639839,0.0115302475
25041044,25040809,0.06829218,-0.0356778,0.029098045
25062133,25061895,-0.0155904,0.04171025,0.0063622077
25083240,25083012,0.036918797,-0.03823646,-0.021031633
25104324,25104100,0.018477075,0.002657754,0.0026879488
25121839,25121613,-0.018152948,-0.027813558,-0.008003116
25142982,25142758,0.042623054,0.0026102865,0.02324319
25163921,25163694,0.042109672,0.009114122,-0.012150144
25181310,25181074,-0.034626704,0.0011913747,0.019383827
25202416,25202180,0.018418403,-0.025642037,-0.005500098
25223511,25223284,0.011239545,0.0016907986,0.012793538
25244621,25244388,0.032995902,0.035863917,0.021947378
25261996,25261769,-0.029729974,0.01721006,0.0021852942
25283100,25282874,0.005679398,0.01748895,0.00817802
25304225,25303980,0.015213668,-0.012594996,0.017368173
25321584,25321358,-0.008253744,0.0005275961,-0.0073595517
25342687,25342463,-0.014329884,-0.0047153276,-0.005907501
25363796,25363568,0.026632838,-0.004800297,0.0041147526
25384978,25384747,-0.024768353,-0.027898036,-0.0012155471
25402404,25402178,-0.008613128,-0.055757742,0.044756368
25423387,25423157,0.027728874,0.0017855165,0.03508396
25444492,25444263,-0.0060097342,0.0043792175,0.010209111
25461922,25461688,0.0013095639,-0.05044098,0.024149893
25482981,25482746,0.013996686,-0.012939667,0.014901537
25502855,25502627,-0.03797723,-0.013919919,0.019728033
25523948,25523715,0.024147129,0.05323211,0.03201155
25541320,25541095,0.0042565893,-0.003996953,0.05251295
25562436,25562203,-0.017821345,-0.02518097,0.074056216
25583532,25583304,-0.016981924,-0.029648356,0.05727158
25600923,25600685,-0.020864083,-0.005055006,0.092650354
25622024,25621789,0.024736742,0.01896459,0.08058067
25643140,25642914,-0.021536887,0.026789537,0.06250712
25664320,25664092,0.0007913329,-0.00984305,0.054498054
25681785,25681556,0.020851757,0.006642481,0.00405095
25702711,25702484,-0.02321016,-0.0003692214,-0.017745722
25723819,25723594,0.00019153745,0.029938187,0.009613766
25741209,25740974,-0.009650196,0.038681593,-0.0018466259
25762304,25762075,0.03699137,-0.030284544,0.0006968967
25783404,25783178,0.016516648,-0.04354788,-0.012791299
25804562,25804337,0.038557038,-0.02385484,-0.05798933
25821890,25821664,-0.03283402,0.0009377872,-0.030887417
25842988,25842764,-0.037798367,0.048093,-0.02297431
25864099,25863872,-0.032318834,0.012611565,-0.015508693
25881479,25881253,0.032021217,0.041426774,0.045165975
25902585,25902359,-0.03938417,0.05758404,0.038428698
25923793,25923569,-0.03048473,0.009508144,0.020640563
25944953,25944712,-0.0034485848,0.03962979,0.030391792
25962185,25961952,0.011300404,-0.022365635,0.01055427
25983283,25983053,0.037796587,-0.051426042,0.031360287
26004390,26004156,-0.06732842,-0.07781636,0.037541505
26021760,26021537,-0.00610431,-0.096429355,0.028895678
26042867,26042642,0.010534786,0.041834563,0.025541281
26063979,26063747,-0.03933066,0.1096758,0.054527137
26083842,26083609,-0.004748606,0.15345015,0.057984143
26102476,26102232,-0.023527091,0.17653416,0.03991306
26122325,26122096,0.0371064,0.15339234,0.08329628
26143432,26143203,-0.03559175,0.1265986,0.05905934
26160807,26160579,-0.055461664,0.04715555,0.06445413
26181914,26181685,0.019925376,0.01793373,0.07295364
26203166,26202937,0.13262884,-0.038366564,0.07877404
26224122,26223896,0.11487158,-0.006063829,0.07122932
26241499,26241273,0.09597564,-0.053885978,0.04105603
26262609,26262378,0.052054342,0.02514095,0.067742914
26283763,26283535,-0.022384446,0.05363486,0.054021847
26301085,26300863,-0.011872212,0.12645139,0.052406516
26322205,26321969,0.005686299,0.035079416,0.056159563
26343311,26343076,0.09189143,-0.05245157,0.05685708
26364421,26364179,0.2148594,-0.043148912,0.037474684
26383036,26382801,0.16017683,-0.02477067,0.06227978
26402896,26402665,0.113180876,-0.0076211253,0.08265467
26424000,26423768,0.099306166,-0.04735346,0.072288536
26441386,26441157,0.050248966,-0.085136674,0.054971874
26462538,26462306,0.026966332,-0.061998334,0.036417283
26483734,26483508,0.007555221,-0.033823304,0.05018812
26504688,26504462,-0.00470006,-0.062030558,0.043149423
26522075,26521842,0.005566496,-0.10377999,0.03499895
26543180,26542948,0.03212534,-0.051526923,0.039278857
26564301,26564072,0.097935975,-0.098376505,0.044859078
26581662,26581432,0.0135019375,-0.15501845,0.06711862
26602762,26602536,0.054501694,-0.19350389,0.063690126
26623870,26623646,0.027352033,-0.23840919,0.07796427
26644981,26644745,-0.05871514,-0.23232993,0.022245778
26662357,26662127,-0.1094491,-0.22486533,0.07035345
26683471,26683234,-0.07057864,-0.19482425,0.034322646
26703323,26703094,-0.12791696,-0.14888504,0.023289032
26722002,26721775,-0.17758839,-0.18110518,0.030947478
26741909,26741682,-0.120199606,-0.12238798,0.02511124
26762916,26762686,-0.14374843,-0.106266096,-0.021291945
26784026,26783788,-0.20417048,-0.104372986,-0.048669443
26801402,26801177,-0.19713342,-0.062767036,-0.059783936
26822497,26822273,-0.2894911,-0.08542029,-0.08404502
26843657,26843428,-0.22857907,-0.073329784,-0.0860424
26860988,26860758,-0.30794862,-0.12306756,-0.059590288
26882095,26881867,-0.2513523,-0.23373905,-0.07985253
26903206,26902969,-0.21643215,-0.28911763,-0.080352515
26924303,26924073,-0.18898042,-0.34090585,-0.097177245
26941680,26941453,-0.15421411,-0.3517936,-0.11104718
26962788,26962558,-0.156855,-0.4212586,-0.11841262
26983887,26983662,-0.093102254,-0.533849,-0.11727708
27001373,27001148,-0.11106565,-0.52696025,-0.16218501
27022531,27022301,-0.14722219,-0.4958039,-0.15815057
27043480,27043252,-0.1715187,-0.45878145,-0.15054028
27064585,27064356,-0.15511712,-0.34047112,-0.15088198
27081963,27081736,-0.2030582,-0.27964386,-0.16600525
27103073,27102842,-0.2630071,-0.18018213,-0.15824243
27124175,27123947,-0.32289562,-0.071683094,-0.17175888
27141561,27141333,-0.28447857,-0.11647684,-0.1543926
27162655,27162431,-0.19325751,-0.16549423,-0.14293566
27183761,27183535,-0.05524612,-0.20532395,-0.1504082
27204863,27204640,0.016529638,-0.2397425,-0.15626219
27222304,27222078,0.042810366,-0.22966719,-0.17465673
27243397,27243169,0.02519854,-0.24485199,-0.17308988
27264480,27264254,-0.020162655,-0.15774915,-0.17605636
27281953,27281719,-0.037448633,-0.040742494,-0.16845755
27302973,27302719,-0.009327892,0.068382174,-0.18017715
27324056,27323825,0.039978914,0.22760665,-0.18010642
27343919,27343683,0.11779074,0.39241445,-0.16711555
27361288,27361063,0.26444843,0.4821808,-0.17238593
27382394,27382169,0.3454135,0.5817614,-0.1556838
27403501,27403273,0.4504941,0.61230034,-0.13675466
27420877,27420653,0.5341212,0.6530435,-0.15122998
27441983,27441757,0.6427513,0.604288,-0.1448335
27463092,27462863,0.69263065,0.47776192,-0.11355159
27484203,27483967,0.6513951,0.35631585,-0.08791985
27501575,27501350,0.5487527,0.23023942,-0.07244151
27522711,27522486,0.47319227,0.13579245,-0.05184532
27545115,27544884,0.35326242,0.09953448,-0.064838514
27561321,27561095,0.26749608,0.10123647,-0.014727079
27582268,27582044,0.2087188,0.09787696,-0.007152298
27603376,27603146,0.14964601,0.07970773,-0.018584557
27624531,27624304,0.15930064,0.06331674,-0.014328565
27641856,27641631,0.16416441,0.023458194,-0.010411778
27662962,27662732,0.11757805,0.054710045,-0.007269677
27684086,27683859,0.12597674,0.06196049,0.0062369257
27701448,27701221,0.10000864,0.05498255,-0.057887997
27722555,27722326,0.107174434,0.02645201,-0.04548342
27743659,27743430,0.06996945,0.04345896,-0.019899122
27764759,27764535,-0.037550528,0.084052056,-0.013631761
27782155,27781924,0.004504384,-0.015013301,-0.021945786
27803276,27803049,0.069262065,0.017496195,-0.011249882
27824487,27824256,0.018171579,0.05813402,-0.01666524
27841732,27841503,-0.003865538,0.05905922,-0.022368018
27862835,27862610,-0.05711361,0.043906163,-0.022456584
27883952,27883714,-0.09393015,0.0030005071,-0.008426119
27903810,27903578,-0.112192966,0.03675618,-0.0072010574
27922469,27922242,-0.09225632,0.04276697,-0.008492606
27942294,27942066,-0.069336586,0.023110172,-0.0075508235
27963395,27963168,-0.028022738,0.05859321,-0.013467028
27980776,27980548,-0.0012191886,0.025874576,-0.017632473
28001878,28001652,0.053147495,-0.007872774,-0.014038806
28022986,28022757,0.046119988,-0.013439307,-0.020429952
28044144,28043920,0.091632925,-0.03460319,-0.008698546
28061468,28061242,0.0891188,-0.027540885,0.00298696
28082648,28082423,0.099548236,-0.028367892,-0.0008981754
28103868,28103636,0.10626234,-0.04635243,0.0039770603
28121063,28120833,0.117879435,-0.018521573,-0.011936488
28142160,28141936,0.09293034,-0.015057138,-0.017973984
28163274,28163042,0.059924588,0.010753952,-0.0149683505
28184381,28184146,-0.0030391032,0.03376341,-0.017792061
28201752,28201526,-0.021265559,-0.012338492,0.00024434118
28222854,28222631,-0.0704612,-0.040143687,0.0039964365
28243968,28243736,-0.14751771,-0.02505162,-0.011328795
28261346,28261118,-0.21976155,-0.016747082,-0.009634879
28282451,28282221,-0.28978777,-0.045581702,-0.007847234
28303557,28303325,-0.40733922,-0.030661568,-0.022985848
28324662,28324431,-0.48112747,-0.012732618,-0.010792846
28342103,28341878,-0.6340884,0.020878656,0.009832598
28363283,28363051,-0.6187853,0.032721188,0.011072291
28384290,28384063,-0.5924515,0.043291077,-0.0032825829
28401623,28401400,-0.5694326,0.056611836,0.0054317275
28422746,28422516,-0.4983521,0.014267446,0.016001789
28443835,28443610,-0.4246101,-0.014685889,-0.004977967
28464948,28464714,-0.3309181,-0.019518863,-0.015959954
28482327,28482096,-0.28016642,-0.011310706,-0.004379519
28503450,28503211,-0.20029142,-0.033562254,0.006357893
28524534,28524304,-0.22296473,-0.038502183,0.0032086438
28541959,28541722,-0.27239785,-0.026918745,0.018854246
28563027,28562790,-0.31753144,-0.012091975,0.0112701235
28582879,28582652,-0.36249912,0.04316341,-0.016176932
28604002,28603767,-0.34923953,0.06997103,-0.002412497
28621459,28621223,-0.27156582,0.007995669,-0.035454545
28642669,28642445,-0.16681702,-0.011219132,-0.034053862
28663576,28663347,-0.08439312,0.005997348,-0.034734778
28680981,28680750,-0.079651676,0.0464119,-0.010242665
28702068,28701842,-0.0378745,0.025083954,-0.017406065
28723166,28722938,-0.030484702,-0.0034426488,-0.02983068
28744269,28744041,-0.032429732,0.005543289,-0.034291945
28761652,28761421,-0.071784124,0.034041554,-0.0041831643
28782751,28782526,-0.0993389,0.0298844,-0.009811081
28803858,28803630,-0.07778804,0.05293553,-0.020397486
28821241,28821011,-0.04344169,-0.010965889,-0.025844783
28842341,28842115,0.008956315,-0.00632614,-0.019816456
28863458,28863229,0.027934568,0.0034414819,-0.014675171
28884634,28884403,0.0005217094,-0.0013514194,-0.0083350325
28902065,28901836,0.0045917328,-0.038152557,-0.0019885644
28923039,28922810,-0.0004214979,-0.047784097,-0.00824994
28944147,28943915,-0.0025374258,-0.0162803,-0.0146880485
28961523,28961295,-0.038889967,0.009794836,0.020933468
28982624,28982400,-0.042635523,0.0032416037,0.011773833
29003733,29003504,-0.037229937,-0.01742484,0.009861228
29024840,29024611,-0.015009336,-0.013805313,0.0065536955
29042219,29041989,-0.019130863,0.0062419022,0.0043755537
29063327,29063095,-0.019648686,0.005335282,0.014014583
29084482,29084249,-0.02365072,0.023587776,0.022443393
29101810,29101583,-0.01326343,0.016019152,0.01705839
29122926,29122685,0.022325275,0.030133463,0.021218656
29142837,29142606,0.037216928,0.023148753,0.0053677093
29163994,29163762,0.062382616,0.008912402,0.00491797
29181446,29181221,0.0778534,-0.029132316,-0.01377848
29202368,29202137,0.10199345,-0.035644524,-0.0075394213
29223472,29223243,0.0640757,-0.03394529,-0.0067986734
29240849,29240622,0.025846282,0.003968333,0.008022208
29261956,29261727,0.01908224,-0.020726679,0.00025034722
29283067,29282833,0.027456285,-0.028044876,-0.014803737
29304162,29303936,-0.01751021,-0.0078756185,-0.006518835
29321543,29321316,-0.054316666,0.024143925,0.02646224
29342646,29342421,-0.04866193,0.035909764,0.017838264
29363752,29363526,-0.03366183,0.011988736,0.01478274
29381139,29380912,-0.020583931,0.02619172,0.017342193
29402255,29402030,-0.00035715132,0.014320339,0.029613035
29423402,29423175,0.013224395,0.0031817213,0.032134484
29444609,29444381,-0.0044636703,0.027111664,0.032493997
29461825,29461600,-0.0012114503,-0.0059298277,-0.0032013946
29482934,29482705,0.018359646,-0.031474818,-0.002712416
29504048,29503810,0.014141097,-0.017318275,-0.0063346257
29521430,29521195,-0.009648103,-0.016095065,-0.013275855
29542531,29542295,-0.018090835,0.017850276,-0.006373595
29563667,29563438,-0.014686707,0.055324487,-0.015808439
29584731,29584504,0.023228342,0.035971235,-0.011406513
29602113,29601885,0.074841596,0.03843054,-0.020033373
29623228,29622991,0.107488036,0.026910467,-0.01828025
29644325,29644094,0.13392852,0.02148381,-0.02407164
29661702,29661475,0.14003229,0.017713234,0.006523765
29682821,29682595,0.17230955,0.01474147,-0.0029034019
29702771,29702546,0.2131925,0.0034198135,-0.003924032
29725022,29724788,0.24045281,0.002666668,-0.014545548
29742395,29742169,0.31966814,-0.0040101926,-0.0066578733
29762258,29762032,0.38013428,-0.008929217,-0.019208713
29783369,29783137,0.48486215,0.012455148,-0.029080115
29800741,29800517,0.5791731,0.018116273,-0.04376227
29821850,29821622,0.7009881,-0.0050888504,-0.035619892
29842969,29842727,0.7507527,-0.016703174,-0.044713266
29864058,29863831,0.8176173,-0.0048661805,-0.03334831
29881438,29881212,0.808258,0.005097962,-0.012318567
29902547,29902316,0.80292284,-0.0579228,-0.02655443
29923650,29923422,0.8194431,-0.050535515,-0.018119564
29941027,29940802,0.81447655,-0.015342839,-0.020795692
29962225,29961990,0.8102476,-0.01637907,-0.0108120665
29983404,29983175,0.7591671,-0.012914009,-0.019676942
30004345,30004119,0.728858,-0.011013676,-0.027145931
30021723,30021495,0.80782384,-0.008377633,-0.01714925
30042829,30042604,0.79827964,-0.019988261,-0.03085186
30063937,30063705,0.77468455,-0.021660224,-0.0298146
30081313,30081086,0.65537685,-0.0015641808,-0.0020567498
30102422,30102194,0.518229,-0.019449012,0.0019713303
30123521,30123295,0.36645564,-0.015032707,-0.0055049686
30144625,30144400,0.24509573,-0.034950405,-0.00034210595
30162008,30161780,0.1471126,-0.017763387,0.020577673
30183112,30182884,0.06889794,-8.505671e-06,0.01589523
30204233,30203999,0.06350932,0.0075576687,0.008227857
30221625,30221393,0.0707035,-0.012167818,0.00077821064
30242815,30242589,0.08028348,0.0037748676,3.965883e-05
30263823,30263597,0.04920005,0.010238406,-0.00401272
30284924,30284684,-0.024505356,-0.013323905,-0.0009983947
30302292,30302064,-0.10949656,-0.006042901,0.011765908
30323399,30323169,-0.180786,0.009952295,0.009879419
30344505,30344273,-0.18363655,-0.0010465761,0.0018377798
30361891,30361662,-0.19416003,0.03285999,0.014513187
30382986,30382759,-0.20704883,0.03825203,0.027048053
30402846,30402623,-0.2637104,0.02286489,-0.009896355
30423962,30423726,-0.34047386,-0.019718355,0.0105682695
30441352,30441125,-0.39273006,-0.011713373,0.01382946
30462438,30462211,-0.49149117,0.036513884,-0.013478399
30483549,30483316,-0.5357008,0.06845508,0.0079387175
30500982,30500758,-0.54310215,-0.008033388,0.014367026
30522193,30521963,-0.5033642,0.017438568,-0.0071381903
30543152,30542908,-0.46593556,0.030382797,-0.016332949
30564239,30564011,-0.42132205,0.047277626,-0.010019858
30581615,30581391,-0.40581313,0.013708948,0.018640405
30602728,30602497,-0.41133034,-0.02684612,0.021849947
30623867,30623643,-0.4179302,-0.051187724,0.0063770683
30641213,30640981,-0.40335965,-0.06448326,0.014278339
30662313,30662085,-0.3711786,-0.05124078,0.026694467
30683425,30683195,-0.36314142,-0.048015017,0.022822442
30704527,30704298,-0.3692178,-0.030856503,0.036332857
30721905,30721675,-0.36752272,0.0365303,-0.045020197
30743023,30742789,-0.46030253,0.11514926,-0.04643212
30764156,30763928,-0.5528221,0.15065818,-0.02834862
30781708,30781477,-0.6133447,0.08575936,-0.041081812
30802596,30802370,-0.65073985,0.0867725,-0.06655881
30823707,30823474,-0.7522587,0.120503895,-0.07939985
30841086,30840855,-0.7501876,0.16798973,-0.022693528
30862198,30861960,-0.68867946,0.1895678,-0.012693987
30883291,30883064,-0.55390894,0.13631509,-0.023645867
30901924,30901688,-0.39549437,0.13006769,-0.03626627
30921785,30921551,-0.28407353,0.080168806,-0.036962297
30942878,30942654,-0.21307574,0.0011848055,-0.036635302
30963994,30963759,-0.23084366,-0.0129152965,-0.030127171
30983848,30983622,-0.32578933,-0.07771872,-0.02920156
31002473,31002245,-0.33524653,-0.097092226,-0.048121054
31022387,31022161,-0.37632555,-0.091105044,-0.048879284
31043529,31043303,-0.34159926,-0.061682858,-0.052423205
31060990,31060763,-0.30794463,-0.073686115,-0.04446331
31081926,31081697,-0.22295724,-0.09693454,-0.042358913
31103029,31102801,-0.1244077,-0.14503677,-0.054265715
31124143,31123908,-0.06111047,-0.13324986,-0.04521107
31141512,31141286,-0.021011194,-0.147151,-0.021521254
31162616,31162391,0.006629581,-0.105190486,-0.035262436
31183723,31183495,-0.0077609443,-0.059937656,-0.055898473
31201103,31200877,-0.049194314,-0.015173874,-0.017249964
31222213,31221982,-0.03873199,-0.024109326,-0.0341895
31243323,31243087,-0.04924019,-0.004653387,-0.043538313
31264424,31264195,-0.026145862,-0.016930703,-0.04557187
31281797,31281574,-0.051041298,0.016589515,-0.022354385
31302993,31302760,-0.0368516,-0.00875187,-0.02588237
31324147,31323921,-0.02441629,-0.006262542,-0.024492696
31341384,31341160,0.012115222,-0.03695205,-0.025695678
31362493,31362266,-0.03835832,-0.024482515,-0.031173745
31383615,31383385,-0.019418426,-0.001204,-0.015451673
31404705,31404474,-0.022804813,-0.003990455,-0.00673219
31422083,31421855,0.015768709,-0.005407602,-0.00992653
31443244,31443014,0.01076649,-0.016423551,-0.001860116
31464293,31464064,0.015633844,-0.011049279,0.009095197
31481690,31481461,0.029583443,-0.011966849,-0.008507261
31502777,31502549,-0.0009880819,0.004134978,0.00092435157
31523881,31523655,0.0024768745,0.0056875977,0.006634945
31544987,31544758,0.0130038345,0.0121252285,0.014389342
31562444,31562210,0.013989953,0.004672796,0.029271776
31582390,31582157,0.006439795,-0.0042715534,0.03097732
31603525,31603298,0.03372311,-0.007840181,0.012731227
31621970,31621728,0.02614217,0.0059363428,0.0123686595
31641818,31641592,0.046418384,0.00031734796,0.011218221
31662926,31662697,0.04662805,0.0015154883,0.0013003999
31684037,31683801,0.041595135,-0.001508907,-0.004518799
31701435,31701210,0.023641407,0.018261258,0.004806048
31722511,31722286,0.06143446,-0.008930089,0.0060279993
31743618,31743392,0.10756906,-0.006121109,0.025439886
31761000,31760771,0.18704876,-0.007976056,0.00083819043
31782103,31781876,0.31966528,0.0062938216,0.017891139
31803213,31802982,0.4930954,0.02084967,0.02299247
31824314,31824086,0.588444,0.022510009,0.011115141
31841786,31841561,0.6347178,0.0060857628,0.013212393
31862941,31862714,0.6170462,-0.02168914,-0.002306894
31883906,31883675,0.54424924,-0.038409814,0.0031830093
31901280,31901056,0.4565982,-0.042417195,0.0045108856
31922387,31922160,0.38884547,-0.009610717,0.00086214195
31943494,31943265,0.29540557,-0.012163197,0.019732025
31964594,31964369,0.28609428,0.02009218,0.030291641
31981977,31981751,0.27928305,0.0034890536,0.022447266
32003090,32002855,0.3365752,-0.0003364761,0.02225549
32024204,32023976,0.3951499,0.016730318,0.016903622
32041565,32041341,0.43428338,-0.016339453,0.011400162
32062675,32062446,0.52356535,-0.011782664,0.022303099
32083818,32083593,0.52131903,-0.012053994,0.011147078
32104898,32104672,0.56489223,-0.025666842,0.028944101
32122422,32122181,0.5464103,-0.036765188,0.0122650685
32143369,32143142,0.45630002,-0.03236115,0.016535921
32164483,32164249,0.31831205,-0.022315409,0.02858609
32181854,32181625,0.22530891,-0.021746892,0.010981006
32202972,32202728,0.12682675,-0.04706467,0.012929496
32222817,32222593,0.034286354,-0.0032050547,0.011865257
32241458,32241216,-0.044435684,-0.011680795,0.020726964
32261309,32261077,-0.03349182,0.00809252,0.045996692
32282412,32282182,0.016839828,-0.018204598,0.011288343
32303511,32303287,0.096091785,-0.039763346,-0.0062675592
32320899,32320666,0.11765824,0.025658058,0.034280658
32342013,32341788,0.14793558,0.006526626,0.02010672
32363103,32362876,0.1795376,-0.007424433,0.02633325
32384322,32384094,0.20140204,0.007074127,0.030914858
32401730,32401506,0.20855482,5.6203175e-05,-0.006337458
32422694,32422466,0.21935043,0.0049396,0.0144669665
32443797,32443572,0.22924303,0.026809422,0.025780074
32461179,32460951,0.1873566,0.046204533,-0.008295282
32482280,32482055,0.12794869,0.07680767,-0.012780108
32503391,32503161,0.1105139,0.14866215,-0.023449605
32525752,32525510,0.11689535,0.1946163,-0.040330753
32541891,32541667,0.12598732,0.26299116,-0.01116096
32562977,32562750,0.11008964,0.31160298,-0.026976068
32584084,32583855,0.057440773,0.360834,-0.029282257
32601468,32601236,-0.04178251,0.4273427,-0.022883235
32622570,32622343,-0.1729164,0.45886922,0.0017106059
32643758,32643528,-0.29789287,0.46656173,-0.0145337
32664949,32664706,-0.39080974,0.44465652,-0.013315932
32682155,32681929,-0.35862458,0.39888236,-0.012943637
32703270,32703035,-0.36095285,0.3412323,-0.011442101
32724402,32724178,-0.32671174,0.29468524,-0.01743822
32741745,32741520,-0.20454426,0.20096125,-0.037436027
32762854,32762624,-0.12757626,0.11596206,-0.042787377
32783975,32783735,-0.0063239117,0.02739096,-0.028806124
32803820,32803592,0.04905246,-0.041808948,-0.019818354
32822449,32822214,0.099966876,-0.10146088,-0.05268231
32842311,32842078,0.17143574,-0.21408993,-0.03420935
32863415,32863182,0.19767845,-0.23570892,-0.042911608
32880787,32880562,0.17765735,-0.20729107,-0.016317772
32901952,32901723,0.22252412,-0.21932104,-0.037512127
32923066,32922838,0.24422511,-0.17491482,-0.041422427
32944277,32944050,0.1935173,-0.14811061,-0.04344715
32961489,32961257,0.21750197,-0.09932083,-0.06406417
32982593,32982361,0.17526081,-0.038137633,-0.05924902
33003692,33003467,0.124896295,-0.049650017,-0.03965736
33021077,33020846,0.14490752,-0.115132466,-0.06283486
33042181,33041953,0.079342164,-0.10092174,-0.058114223
33063325,33063099,0.009152154,-0.1091947,-0.049593475
33084418,33084188,-0.05513356,-0.09151025,-0.037914354
33101766,33101541,-0.13789253,-0.10324295,-0.054803956
33122873,33122647,-0.23267013,-0.07806377,-0.02948821
33143983,33143753,-0.27837637,-0.094645604,-0.02840127
33161361,33161135,-0.29003122,-0.105210155,-0.052377168
33182490,33182263,-0.3016576,-0.11642891,-0.047352694
33203696,33203470,-0.42889798,-0.13330434,-0.025124615
33224673,33224445,-0.56715417,-0.1666739,-0.01878638
33242049,33241825,-0.72069436,-0.17849338,-0.029889166
33263163,33262931,-0.8432996,-0.14327647,-0.030450696
33284271,33284036,-0.88837326,-0.061154384,-0.0386067
33301642,33301415,-0.9142626,0.09951878,-0.047726404
33322794,33322572,-0.8442376,0.24988605,-0.0639236
33343854,33343625,-0.71639365,0.41693887,-0.08107464
33364973,33364729,-0.61755013,0.5098668,-0.10108372
33382343,33382116,-0.5738539,0.59499264,-0.07497407
33403454,33403215,-0.4795856,0.5633219,-0.057384335
33423313,33423079,-0.4288313,0.5144913,-0.06523278
33441934,33441699,-0.4193551,0.4129875,-0.05153732
33461860,33461635,-0.4095895,0.30740082,-0.011637375
33483080,33482844,-0.43168414,0.20536955,-0.02628453
33504008,33503773,-0.3993822,0.10252111,-0.022733916
33521382,33521152,-0.36162558,0.022166591,-0.0002785498
33542500,33542258,-0.2817915,-0.056277096,-0.005991713
33563588,33563362,-0.1917359,-0.1352077,0.002821233
33580991,33580753,-0.12052053,-0.17700504,-0.026486434
33602078,33601850,-0.10938375,-0.17988683,-0.0022743728
33623183,33622955,-0.0878819,-0.1809734,-0.0029896004
33644284,33644057,-0.06337605,-0.19421628,-0.019556057
33661668,33661437,-0.0781995,-0.10890297,-0.013433646
33682768,33682541,-0.083000965,-0.11032454,-0.011917339
33703877,33703651,-0.054962944,-0.11832992,-0.021050747
33721297,33721068,-0.03283335,-0.14738123,-0.0074619143
33742487,33742261,-0.004802232,-0.12871118,-0.016400691
33763463,33763237,-0.0095096575,-0.1501691,-0.022011543
33782090,33781860,-0.0012655682,-0.13010003,0.0016465012
33801962,33801721,-0.003986281,-0.14804377,0.0038387484
33823060,33822827,0.032996085,-0.1562326,0.0039997636
33844159,33843931,0.0052763494,-0.16694877,0.00058645016
33861557,33861330,0.031534664,-0.16846325,0.004452604
33882647,33882416,0.052573174,-0.16543819,-0.002950698
33903743,33903520,0.06484221,-0.13165121,-0.008353342
33924861,33924625,0.056334075,-0.07775095,0.0062225396
33942236,33942006,0.07581776,-0.06221145,-0.0062052775
33963336,33963110,0.06587209,-0.07199062,0.006587573
33984459,33984222,0.06000611,-0.091357395,0.016352896
34001919,34001681,0.061639335,-0.05028962,-0.010652822
34021872,34021645,-0.00591315,-0.03499461,0.012633671
34042794,34042564,0.05575572,-0.08474104,0.008214071
34063898,34063667,0.036751647,-0.0665904,-0.008485099
34081354,34081129,0.022162942,-0.017259393,0.036593724
34102378,34102153,0.022528535,0.004577128,0.032468244
34123490,34123258,0.043382775,-0.023348723,0.015880447
34140865,34140638,0.0916147,-0.007784102,0.04350831
34161971,34161742,0.1119163,0.013680773,0.040097624
34184321,34184090,0.17895629,0.01207441,0.029608846
34204188,34203954,0.20273691,0.05110912,0.03467028
34221559,34221332,0.26050097,0.025550548,0.024336254
34242669,34242437,0.3054291,0.029654725,0.030031651
34263823,34263596,0.4015255,0.019922502,0.040244985
34281283,34281056,0.45912138,0.0154045485,0.02965672
34302254,34302027,0.49095163,-0.017271591,0.022346254
34323363,34323134,0.51599973,-0.0085502295,0.044392228
34344465,34344237,0.4826206,-0.024957655,0.038834296
34361846,34361617,0.42764878,-0.021219214,0.04625913
34382952,34382723,0.3144305,-0.032644976,0.039998617
34404055,34403826,0.25815824,-0.05802499,0.026481079
34421439,34421209,0.16909671,-0.024227295,0.08228634
34442539,34442312,0.093564585,-0.011868939,0.07414105
34463673,34463450,0.0972903,-0.03363112,0.06359682
34481026,34480796,-0.010093852,-0.015317334,0.06225251
34502144,34501912,-0.010351528,-0.061134014,0.074385524
34523290,34523066,-0.025375979,-0.07387537,0.06656587
34544457,34544221,-0.009742845,-0.08482948,0.07041593
34561922,34561684,-0.010091882,-0.09528761,0.07247039
34582827,34582597,-0.026853379,-0.0500169,0.0592324
34603982,34603750,-0.028043853,-0.022768475,0.07827757
34623789,34623563,-0.086882964,0.045578502,0.07986161
34642423,34642185,-0.06101253,0.079303585,0.034217376
34662273,34662048,-0.04155002,0.1601485,0.049691472
34683431,34683207,-0.05353745,0.26339617,0.043767832
34702004,34701775,0.024917198,0.3543783,0.025665043
34721867,34721640,0.05548816,0.41174874,0.01385745
34742968,34742743,0.14269368,0.5295101,0.010112275
34764079,34763847,0.18201134,0.626294,0.0020478922
34781471,34781244,0.18147105,0.6591793,0.011572202
34802615,34802389,0.14709716,0.6219213,0.018451361
34823814,34823585,0.13278626,0.5459703,0.044253197
34841048,34840821,-0.0044490676,0.46661758,0.053337082
34862147,34861923,-0.058303516,0.37401053,0.065902695
34883260,34883030,-0.065756224,0.32838106,0.05213871
34904367,34904134,-0.09111559,0.26989523,0.0443307
34921735,34921512,0.026480505,0.23307884,0.06105108
34942852,34942617,0.01352761,0.22954355,0.053823303
34963993,34963758,-0.05317031,0.19224404,0.039907947
34981336,34981104,-0.09114284,0.10793554,0.05423895
35002437,35002207,-0.22687268,0.057778884,0.048868924
35023546,35023313,-0.3158501,-0.07336516,0.06955654
35044642,35044417,-0.3985767,-0.24421161,0.086322606
35062033,35061805,-0.4042891,-0.40594745,0.069353804
35083234,35083004,-0.4492789,-0.5859951,0.07542483
35104242,35104008,-0.41155925,-0.6906912,0.08025397
35121615,35121386,-0.36990887,-0.7142335,0.089428775
35142722,35142491,-0.30137604,-0.7210347,0.08022219
35163830,35163607,-0.23095095,-0.6943442,0.07771929
35182476,35182247,-0.16543792,-0.5726852,0.033336736
35202311,35202081,-0.14087221,-0.4581493,0.02347657
35223422,35223186,-0.0979953,-0.3072117,0.027610565
35240793,35240566,-0.06427167,-0.21451035,0.00091942074
35261919,35261677,-0.054736163,-0.1387628,-0.008196272
35283009,35282775,-0.028897943,-0.11761941,-0.0027431746
35304103,35303877,-0.015815597,-0.100493334,0.0023218829
35323975,35323744,0.0076929578,-0.1278919,0.0013026915
35341421,35341184,0.04401768,-0.17345434,0.012407165
35362627,35362395,0.053249612,-0.21114646,0.010428994
35383606,35383373,0.07450903,-0.12040301,0.01401483
35400945,35400713,0.14563698,-0.04468496,0.033641282
35422042,35421818,0.1882805,-0.0821739,0.018707898
35443147,35442923,0.37300023,-0.072718464,-0.003495092
35464262,35464029,0.49477425,-0.04584882,-0.014757169
35481673,35481448,0.6356146,-0.020789338,0.002747868
35502735,35502512,0.73389953,-0.020837866,-0.002038203
35523847,35523618,0.79319,-0.020863265,0.011877156
35541276,35541048,0.82178396,-0.082897365,-0.0038435613
35562332,35562103,0.7485402,-0.115577385,-0.014229822
35583443,35583212,0.6360715,-0.09946046,-0.0027385107
35604566,35604341,0.48639145,-0.07461129,0.017455626
35622025,35621801,0.37431887,-0.019589743,0.0028741793
35643029,35642797,0.27651078,0.016516576,0.019258516
35664163,35663924,0.28904986,0.024854602,0.028410502
35681508,35681282,0.34207362,-0.010846569,0.002017111
35702619,35702387,0.3653131,-0.005872996,0.011160342
35723730,35723495,0.33433533,0.024481563,0.011010721
35744823,35744597,0.2998748,-0.007865074,0.015711188
35762211,35761977,0.230583,-0.00042165743,0.025739275
35783314,35783083,0.121453196,-0.011952539,0.007906305
35804427,35804187,0.079770796,-0.030364746,0.008157359
35821798,35821566,-0.0072005116,-0.035526186,0.026087098
35842906,35842676,-0.02794406,-0.040261824,0.0035156591
35864011,35863776,-0.14265446,-0.035282675,0.022655262
35881471,35881227,-0.21136856,0.0049250545,0.009783385
35901410,35901175,-0.21487819,0.044562776,-0.005430507
35922355,35922125,-0.23429295,0.042213306,0.018313317
35943454,35943229,-0.23896652,0.04465043,0.011989188
35960842,35960609,-0.26628873,0.050501715,0.022225142
35981948,35981715,-0.32797337,0.016487973,0.04124438
36003046,36002819,-0.4209454,0.00066260586,0.058991283
36024165,36023938,-0.4679237,-0.025766483,0.053390823
36041537,36041307,-0.7753342,0.023011338,0.06365153
36062635,36062409,-1.1654885,-0.014460802,0.07624593
36083780,36083555,-1.3599137,0.001180582,0.04590824
36101125,36100894,-1.3519151,0.0591381,0.03312626
36122241,36122008,-1.0726864,0.14104384,0.028106201
36143364,36143135,-0.7441643,0.13698083,0.019955013
36164570,36164341,-0.518437,0.053092584,0.003122275
36181816,36181589,-0.29924121,0.08016547,0.03731997
36202920,36202694,-0.16855939,0.01740547,0.039153785
36224040,36223798,-0.07294896,-0.04064115,0.029148854
36241412,36241178,-0.080369025,-0.03802117,0.044968136
36262511,36262283,-0.1195261,-0.043966986,0.042624656
36283615,36283387,-0.10584459,-0.02324279,0.026284896
36304717,36304492,-0.1479123,0.003229525,0.013266379
36322101,36321872,-0.16539392,0.027089791,0.04182077
36343209,36342977,-0.11332903,0.034257278,0.03228012
36364368,36364139,-0.08249336,0.030883769,0.007428527
36381698,36381469,-0.089127,0.10382159,0.02594201
36402797,36402568,-0.076805934,0.07339351,0.025972603
36423984,36423755,-0.037438862,0.038827285,0.021240542
36443943,36443716,0.008777846,0.004954107,0.021850571
36462386,36462157,-0.023588238,0.02465025,0.015470778
36483490,36483262,0.027248707,0.039500363,0.024313567
36503355,36503125,-0.0077831,0.038908366,0.002243908
36521982,36521746,-7.352455e-05,0.058325905,0.0010577237
36541852,36541626,-0.007956587,0.038563848,0.011527851
36562941,36562715,-0.01008746,0.024637291,-0.006825752
36584048,36583819,-0.009473219,0.0013465626,-0.024472462
36601438,36601202,-0.005794508,0.01959521,0.03521137
36622533,36622305,-0.0138048,-0.0021977986,0.012131127
36643629,36643406,0.0020904962,0.009516542,0.0145944115
36661024,36660791,0.048418954,-0.045693044,0.023250714
36682174,36681949,0.10413145,-0.035127256,0.014887339
36703355,36703131,0.14942762,-0.03871526,0.022170717
36724435,36724209,0.17547333,-0.020219635,0.013505734
36741710,36741484,0.21894534,-0.02722246,-0.019628787
36762813,36762585,0.23311353,-0.029962469,-0.003301097
36783921,36783694,0.17695352,-0.02304449,-0.0060281935
36801310,36801081,0.15561216,-0.02754709,-0.021690553
36822410,36822179,0.09636248,0.008041153,-0.017634876
36843510,36843284,0.06272841,-0.0007608316,-0.0059636026
36864618,36864388,0.043282397,-0.012217197,-0.008275193
36881998,36881771,0.015224935,0.09305338,-0.025672676
36903096,36902873,-0.015580347,0.055718616,-0.010850361
36925456,36925223,0.03340508,0.053307362,-0.007298436
36941585,36941361,0.0449858,0.0357461,-0.04048157
36962774,36962550,0.035503622,0.04350152,-0.03448297
36983995,36983756,0.12531063,0.02711391,-0.025647366
37004900,37004672,0.21851653,0.01742685,-0.01961977
37022279,37022053,0.32045463,-0.042899825,0.016603213
37043387,37043158,0.4792961,-0.08503779,0.0066497996
37064492,37064258,0.53056103,-0.12678099,0.0031239123
37081871,37081643,0.5298541,-0.11479448,-0.02799677
37102978,37102747,0.36504233,-0.046953067,-0.037874747
37124082,37123852,0.13667941,0.033353373,-0.045728646
37143946,37143715,0.011302811,0.042419888,-0.042385835
37161327,37161097,-0.11683643,0.06996412,-0.048981227
37182430,37182202,-0.19229522,0.10252674,-0.037136983
37203534,37203306,-0.24089104,0.102764666,-0.041702684
37220947,37220723,-0.2249666,0.1392472,-0.028473174
37242212,37241972,-0.247912,0.18163815,-0.014238016
37263122,37262895,-0.23530208,0.24195248,-0.020773262
37284237,37284006,-0.17124107,0.24864475,-0.04428163
37301611,37301380,-0.049101487,0.23201373,-0.05958757
37322712,37322485,0.15406099,0.20671485,-0.051493853
37343814,37343590,0.42238763,0.116264865,-0.03475758
37361205,37360973,0.67528874,0.04071425,-0.049809165
37382302,37382075,0.9150932,-0.056302015,-0.05742867
37403418,37403187,1.2363187,-0.12509294,-0.052652016
37424521,37424284,1.3889385,-0.14760156,-0.04280573
37441890,37441666,1.473052,-0.14490771,-0.035039783
37463035,37462810,1.4473954,-0.13335223,-0.025206823
37484116,37483891,1.3068459,-0.09044982,-0.03219823
37501622,37501396,1.1899219,-0.093010396,-0.048998415
37522589,37522362,1.007749,-0.07122461,-0.04016353
37543692,37543464,0.86291045,-0.050987493,-0.04118925
37564800,37564569,0.79898137,-0.019616429,-0.035045847
37582175,37581949,0.74447113,-0.01655186,-0.03928331
37603294,37603060,0.7144998,-0.001528135,-0.04552992
37624401,37624165,0.6328226,-0.031196687,-0.034095604
37641763,37641539,0.5493525,-0.083392955,-0.010344739
37662868,37662644,0.4689255,-0.14965975,-0.018524395
37683981,37683749,0.3407134,-0.17271167,-0.009663315
37703842,37703612,0.19184351,-0.113166094,-0.024108252
37722469,37722234,0.14974195,-0.08262988,-0.018553577
37742344,37742118,0.08496225,-0.061998583,-0.03026607
37763493,37763263,0.08436945,-0.078449994,-0.02114334
37780948,37780722,0.03133523,-0.06334477,-0.01662628
37801914,37801687,0.05921493,-0.033930402,-0.016095351
37823021,37822791,0.092517056,-0.05534869,-0.0072409473
37844124,37843896,0.10043127,-0.06043657,-0.008319948
37861501,37861276,0.12552536,-0.09027626,-0.01884564
37882612,37882381,0.09612781,-0.089334756,-0.02248529
37903710,37903486,0.07754049,-0.08544385,-0.02343385
37921096,37920866,0.030371796,-0.04670825,-0.0054680575
37942205,37941971,0.004313066,-0.018915502,-0.012263778
37963307,37963076,-0.00462386,0.0032283287,-0.007400284
37984411,37984180,0.0031431268,0.03388492,-0.0065386416
38001792,38001561,0.0077685807,0.055107955,0.011024296
38022970,38022744,0.005305371,0.06110116,-0.00255367
38044109,38043884,0.01365832,0.04279809,0.0015666413
38061382,38061153,0.0036986764,0.025982747,-0.004895905
38082484,38082255,0.01984501,-0.0059892354,0.0025881154
38103596,38103363,0.016495652,-0.032478128,0.0077456483
38124760,38124522,-0.01132961,-0.0443061,0.016053466
38142078,38141852,-0.039135884,-0.027720064,0.026983028
38163176,38162950,-0.053435393,-0.0017269247,0.0299823
38184281,38184055,-0.07196791,0.0013296398,0.023911577
38201660,38201435,-0.05382103,0.0011483231,0.019458704
38222767,38222541,-0.075086854,0.020342678,0.029970957
38243871,38243645,-0.080681965,0.011722365,0.04073367
38264982,38264749,-0.12455252,0.009606774,0.050839253
38282379,38282154,-0.15701328,0.01826044,0.026248349
38302333,38302106,-0.25715113,-0.0070857946,0.041924916
38323481,38323255,-0.37848356,-0.025623534,0.05716277
38341957,38341720,-0.49841705,-0.032454055,0.035266455
38361862,38361636,-0.6551098,-0.0011071091,0.061519984
38382928,38382688,-0.845855,0.00522006,0.04907459
38404030,38403794,-0.9851231,-0.011502037,0.058985837
38421400,38421173,-1.0271205,0.04158729,0.047270004
38442512,38442277,-1.1066232,0.004263768,0.047521204
38463615,38463382,-1.1381433,0.010101259,0.0372875
38480996,38480763,-1.2469094,0.09870408,0.05663151
38502094,38501867,-1.25819,0.03337671,0.07690903
38523207,38522972,-1.2070067,0.07450861,0.0650597
38544310,38544078,-1.1594313,0.08438242,0.062019367
38561761,38561529,-1.0760798,0.026581446,0.033640087
38582913,38582682,-0.9730134,0.036470197,0.023441937
38603892,38603666,-0.81223166,0.035907295,0.023776589
38621276,38621047,-0.7625202,0.04895115,0.033997778
38642382,38642151,-0.67406243,0.048289992,0.027707284
38663481,38663256,-0.6219835,0.03213758,0.028242856
38684589,38684364,-0.57855844,0.015347667,0.020375736
38701974,38701742,-0.5115464,-0.0046437494,0.02388238
38723091,38722861,-0.38373324,-0.007995239,0.033626392
38744181,38743957,-0.29172856,0.0038677158,0.02140389
38761570,38761340,-0.20588411,-0.01373094,0.0027949433
38782668,38782436,-0.13190556,-0.01121806,0.0054102605
38803766,38803540,-0.1354025,-0.029328933,0.0026525601
38824919,38824685,-0.06820157,-0.026016224,0.025268165
38842323,38842098,-0.10320303,0.01697221,0.026128396
38862277,38862052,-0.11157307,0.012091754,0.007893942
38881986,38881754,-0.0923086,-0.0012622405,-0.0069781994
38901849,38901618,-0.07930411,0.03602218,-0.010550408
38922961,38922722,-0.05477903,-0.0033101325,0.007424843
38942814,38942584,0.0007468745,0.028190883,0.019237667
38961446,38961207,0.06737195,-0.010029465,0.02055455
38981339,38981105,0.15123096,-0.065800354,0.008404842
39002442,39002217,0.16245769,-0.042527504,0.011301276
39023507,39023279,0.1071166,-0.10573502,0.00913687
39040889,39040661,0.103521444,-0.07233294,0.017859599
39061988,39061763,-0.055622634,-0.0058025387,-0.01194831
39083097,39082869,-0.17922586,0.02729319,-0.025049094
39104309,39104078,-0.23870909,0.025656696,-0.015927855
39121709,39121474,-0.26672515,0.10720941,0.0032904865
39142686,39142459,-0.16362493,0.101346225,0.021735977
39163797,39163565,-0.047969252,0.08979199,0.007406807
39181170,39180943,0.016011419,0.0332928,-0.01166464
39202272,39202047,0.087173745,-0.008977431,0.0039149374
39223385,39223154,0.14567319,-0.008451333,-0.0056890016
39244494,39244260,0.14656135,-0.05380462,0.0033705332
39261863,39261639,0.07932359,-0.016035415,0.00938907
39284229,39283986,-0.012872733,-0.03808368,0.011859488
39304084,39303849,-0.04013212,-0.001247922,0.0195204
39321455,39321227,-0.06333262,0.0113192,-0.020320665
39343802,39343575,-0.010515495,0.006942653,-0.01812686
39363673,39363438,-0.036045853,0.054125406,-0.039390054
39384864,39384639,0.022495184,0.033470504,-0.0154374335
39402326,39402099,0.05180811,0.03786326,0.0013205425
39423314,39423086,0.067562304,0.018812165,0.0040706345
39444357,39444132,0.11306447,-0.013463631,0.00020250805
39461741,39461512,0.114082605,-0.036752935,-0.016308393
39482854,39482619,0.04888797,-0.046867013,-0.0043939725
39503964,39503721,0.039864305,-0.007350907,-0.010014612
39522575,39522346,-0.039028145,-0.010570133,0.011540188
39542448,39542210,0.0083680125,-0.017699188,-0.002899599
39562305,39562071,-0.010861959,-0.012897148,-0.010093262
39580929,39580695,0.041022573,0.027116863,-0.036358196
39600783,39600554,0.054781582,0.02613936,-0.016761975
39621899,39621671,0.05456959,0.033524994,-0.015613832
39643029,39642805,0.12758459,0.055054717,-0.019771112
39661807,39661574,0.08833551,0.012150028,-0.0343457
39681482,39681252,0.12206384,0.0054656244,-0.043877322
39702584,39702355,0.066556394,-0.0057706367,-0.033265233
39721223,39720980,0.009457178,-0.024298841,-0.028658377
39741070,39740840,-0.074586034,-0.009016263,-0.015541658
39762172,39761945,-0.1066274,-0.014391617,-0.026116718
39783277,39783050,-0.122725725,0.0053685578,-0.026158953
39804384,39804154,-0.10823053,-0.0034179874,-0.019753484
39821759,39821533,0.00065409305,-0.07127012,-0.039972305
39842863,39842639,-0.0044153645,-0.04728072,-0.041604754
39863974,39863745,-0.004868183,-0.030521827,-0.009620464
39881356,39881126,0.0055948817,0.019162627,-0.022063686
39902470,39902240,-0.026982151,0.019355936,-0.059211787
39923722,39923491,-0.021080518,-0.00039900673,-0.063169844
39944668,39944441,-0.031242426,0.022684323,-0.0549851
39962043,39961818,-0.058139913,0.06022647,-0.09661437
39983152,39982924,-0.005612892,0.09318437,-0.06327898
40004254,40004028,-0.044482224,0.088408835,-0.091392525
40021632,40021408,-0.025192117,0.055458974,-0.093751244
40042743,40042513,0.020663982,-0.0106899515,-0.06393618
40063842,40063617,0.061949648,-0.050081443,-0.115838155
40084958,40084722,0.056763418,-0.09016903,-0.08504267
40102334,40102103,0.07406145,-0.10672133,-0.062429722
40123481,40123248,0.06373124,-0.13417196,-0.10281682
40143298,40143071,0.089466006,-0.086521566,-0.090525046
40161933,40161692,0.0116304625,-0.066926815,-0.10843974
40181876,40181647,0.101896666,-0.040699117,-0.08824146
40203035,40202809,0.11366544,0.019949567,-0.12882121
40224003,40223765,0.13827875,0.06086451,-0.08358235
40241374,40241147,0.281883,-0.0012128956,-0.10000982
40262479,40262250,0.37376264,0.00440907,-0.09811682
40283584,40283355,0.4306613,-0.048681192,-0.09309303
40301000,40300772,0.5357556,-0.04525909,-0.075417474
40322070,40321841,0.906108,-0.02236772,-0.0695537
40343170,40342945,0.7756256,-0.0048082927,-0.07574042
40364277,40364051,0.6786622,0.01701778,-0.030318301
40381654,40381430,0.5194584,-0.060698397,-0.05481272
40402765,40402541,0.39994884,-0.016219359,-0.04543888
40423883,40423658,0.32478267,0.007477184,-0.03307865
40441255,40441026,0.3543135,0.04133689,-0.031824578
40462453,40462228,0.48829195,0.03621937,-0.03618527
40483457,40483232,0.5120724,0.07969794,-0.04454675
40505808,40505578,0.50177443,0.06467344,-0.047077697
40521945,40521717,0.5162231,0.02358168,-0.06331946
40543042,40542819,0.40465686,0.003306919,-0.065477505
40564154,40563925,0.26307258,-0.045311227,-0.030883973
40581530,40581304,0.18421116,-0.051317766,-0.047840644
40602638,40602412,0.049313832,-0.056240648,-0.027290996
40624992,40624758,-0.009499691,-0.023425022,-0.0029322896
40644850,40644622,-0.061424315,0.01575371,-0.0054753465
