timestamp,roll_body,pitch_body,yaw_body,yaw_sp_move_rate,q_d[0],q_d[1],q_d[2],q_d[3],thrust_body[0],thrust_body[1],thrust_body[2],roll_reset_integral,pitch_reset_integral,yaw_reset_integral,fw_control_yaw,apply_flaps
18521280,-0.034741145,-0.0,-1.4465125,0.0,0.7495416,-0.013021275,0.011495775,-0.6617294,0.0,0.0,-0.08,0,0,0,0,0
18526280,-0.034741145,-0.0,-1.4465125,0.0,0.7495416,-0.013021275,0.011495775,-0.6617294,0.0,0.0,-0.08,0,0,0,0,0
18620532,-0.034741145,-0.0,-1.4465125,0.0,0.7495416,-0.013021275,0.011495775,-0.6617294,0.0,0.0,-0.08,0,0,0,0,0
18724901,-0.034741145,-0.0,-1.4465125,0.0,0.7495416,-0.013021275,0.011495775,-0.6617294,0.0,0.0,-0.08,0,0,0,0,0
18819223,-0.034741145,-0.0,-1.4465125,0.0,0.7495416,-0.013021275,0.011495775,-0.6617294,0.0,0.0,-0.08,0,0,0,0,0
18923457,-0.034741145,-0.0,-1.4403316,0.31060943,0.751583,-0.01305674,0.011455478,-0.6594098,0.0,0.0,-0.19195266,0,0,0,0,0
19017859,-0.034741145,-0.0,-1.4387789,0.0,0.7520947,-0.01306563,0.011445338,-0.6588261,0.0,0.0,-0.20620118,0,0,0,0,0
19122063,-0.034741145,-0.0,-1.4387789,0.0,0.7520947,-0.01306563,0.011445338,-0.6588261,0.0,0.0,-0.20620118,0,0,0,0,0
19221587,-0.034741145,-0.0,-1.4387789,0.0,0.7520947,-0.01306563,0.011445338,-0.6588261,0.0,0.0,-0.20620118,0,0,0,0,0
19320695,-0.034741145,-0.0,-1.4387789,0.0,0.7520947,-0.01306563,0.011445338,-0.6588261,0.0,0.0,-0.20620118,0,0,0,0,0
19420021,-0.034741145,-0.0,-1.4387789,0.0,0.7520947,-0.01306563,0.011445338,-0.6588261,0.0,0.0,-0.20620118,0,0,0,0,0
19519488,-0.034741145,-0.0,-1.4387789,0.0,0.7520947,-0.01306563,0.011445338,-0.6588261,0.0,0.0,-0.20620118,0,0,0,0,0
19623566,-0.034741145,-0.0,-1.4387789,0.0,0.7520947,-0.01306563,0.011445338,-0.6588261,0.0,0.0,-0.20620118,0,0,0,0,0
19718015,-0.034741145,-0.0,-1.4387789,0.0,0.7520947,-0.01306563,0.011445338,-0.6588261,0.0,0.0,-0.20620118,0,0,0,0,0
19822323,-0.034741145,-0.0,-1.4387789,0.0,0.7520947,-0.01306563,0.011445338,-0.6588261,0.0,0.0,-0.20620118,0,0,0,0,0
19921563,-0.034741145,-0.0,-1.4387789,0.0,0.7520947,-0.01306563,0.011445338,-0.6588261,0.0,0.0,-0.08,0,0,0,0,0
20021047,-0.034741145,-0.0,-1.4387789,0.0,0.7520947,-0.01306563,0.011445338,-0.6588261,0.0,0.0,-0.08,0,0,0,0,0
20120343,-0.034741145,-0.0,-1.4387789,0.0,0.7520947,-0.01306563,0.011445338,-0.6588261,0.0,0.0,-0.08,0,0,0,0,0
20219626,-0.034741145,-0.0,-1.4387789,0.0,0.7520947,-0.01306563,0.011445338,-0.6588261,0.0,0.0,-0.08,0,0,0,0,0
20323851,-0.034741145,-0.0,-1.4387789,0.0,0.7520947,-0.01306563,0.011445338,-0.6588261,0.0,0.0,-0.08,0,0,0,0,0
20418137,-0.034741145,-0.0,-1.4387789,0.0,0.7520947,-0.01306563,0.011445338,-0.6588261,0.0,0.0,-0.08,0,0,0,0,0
20522517,-0.034741145,-0.0,-1.4387789,0.0,0.7520947,-0.01306563,0.011445338,-0.6588261,0.0,0.0,-0.08,0,0,0,0,0
20621752,-0.034741145,-0.0,-1.4387789,0.0,0.7520947,-0.01306563,0.011445338,-0.6588261,0.0,0.0,-0.08,0,0,0,0,0
20721050,-0.034741145,-0.0,-1.4387789,0.0,0.7520947,-0.01306563,0.011445338,-0.6588261,0.0,0.0,-0.08,0,0,0,0,0
20820505,-0.034741145,-0.0,-1.4387789,0.0,0.7520947,-0.01306563,0.011445338,-0.6588261,0.0,0.0,-0.08,0,0,0,0,0
20919804,-0.034741145,-0.0,-1.4387789,0.0,0.7520947,-0.01306563,0.011445338,-0.6588261,0.0,0.0,-0.08,0,0,0,0,0
21024002,-0.034741145,-0.0,-1.4387789,0.0,0.7520947,-0.01306563,0.011445338,-0.6588261,0.0,0.0,-0.08,0,0,0,0,0
21118486,-0.034741145,-0.0,-1.4387789,0.0,0.7520947,-0.01306563,0.011445338,-0.6588261,0.0,0.0,-0.08,0,0,0,0,0
21222679,-0.034741145,-0.0,-1.4387789,0.0,0.7520947,-0.01306563,0.011445338,-0.6588261,0.0,0.0,-0.08,0,0,0,0,0
21321886,-0.034741145,-0.0,-1.4387789,0.0,0.7520947,-0.01306563,0.011445338,-0.6588261,0.0,0.0,-0.08,0,0,0,0,0
21421330,-0.034741145,-0.0,-1.4387789,0.0,0.7520947,-0.01306563,0.011445338,-0.6588261,0.0,0.0,-0.08,0,0,0,0,0
21520649,-0.034741145,-0.0,-1.4387789,0.0,0.7520947,-0.01306563,0.011445338,-0.6588261,0.0,0.0,-0.08,0,0,0,0,0
21619963,-0.034741145,-0.0,-1.4387789,0.0,0.7520947,-0.01306563,0.011445338,-0.6588261,0.0,0.0,-0.08,0,0,0,0,0
21724245,-0.034741145,-0.0,-1.4387789,0.0,0.7520947,-0.01306563,0.011445338,-0.6588261,0.0,0.0,-0.09221302,0,0,0,0,0
21818495,-0.034741145,-0.0,-1.4387789,0.0,0.7520947,-0.01306563,0.011445338,-0.6588261,0.0,0.0,-0.10544378,0,0,0,0,0
21922821,-0.034741145,-0.0,-1.4387789,0.0,0.7520947,-0.01306563,0.011445338,-0.6588261,0.0,0.0,-0.14818935,0,0,0,0,0
22022155,-0.034741145,-0.0,-1.4387789,0.0,0.7520947,-0.01306563,0.011445338,-0.6588261,0.0,0.0,-0.15836686,0,0,0,0,0
22121439,-0.034741145,-0.0,-1.4387789,0.0,0.7520947,-0.01306563,0.011445338,-0.6588261,0.0,0.0,-0.20721895,0,0,0,0,0
22220821,-0.034741145,-0.0,-1.4387789,0.0,0.7520947,-0.01306563,0.011445338,-0.6588261,0.0,0.0,-0.23062722,0,0,0,0,0
22320038,-0.034741145,-0.0,-1.4387789,0.0,0.7520947,-0.01306563,0.011445338,-0.6588261,0.0,0.0,-0.23164497,0,0,0,0,0
22419425,-0.034741145,-0.0,-1.4387789,0.0,0.7520947,-0.01306563,0.011445338,-0.6588261,0.0,0.0,-0.23164497,0,0,0,0,0
22518699,-0.034741145,-0.0,-1.4387789,0.0,0.7520947,-0.01306563,0.011445338,-0.6588261,0.0,0.0,-0.23062722,0,0,0,0,0
22622993,-0.034741145,-0.0,-1.4387789,0.0,0.7520947,-0.01306563,0.011445338,-0.6588261,0.0,0.0,-0.23062722,0,0,0,0,0
22722503,-0.034741145,-0.0,-1.4387789,0.0,0.7520947,-0.01306563,0.011445338,-0.6588261,0.0,0.0,-0.22960947,0,0,0,0,0
22821618,-0.034741145,-0.0,-1.4387789,0.0,0.7520947,-0.01306563,0.011445338,-0.6588261,0.0,0.0,-0.22960947,0,0,0,0,0
22920994,-0.034741145,-0.0,-1.4387789,0.0,0.7520947,-0.01306563,0.011445338,-0.6588261,0.0,0.0,-0.27235502,0,0,0,0,0
23020289,-0.034741145,-0.0,-1.4387789,0.0,0.7520947,-0.01306563,0.011445338,-0.6588261,0.0,0.0,-0.29372782,0,0,0,0,0
23119703,-0.034741145,-0.0,-1.4387789,0.0,0.7520947,-0.01306563,0.011445338,-0.6588261,0.0,0.0,-0.29474556,0,0,0,0,0
23218797,-0.034741145,-0.0,-1.4387789,0.0,0.7520947,-0.01306563,0.011445338,-0.6588261,0.0,0.0,-0.2957633,0,0,0,0,0
23323275,0.0,0.0,-1.4387789,0.0,0.7522082,0.0,0.0,-0.65892553,0.0,0.0,-0.2957633,0,0,0,0,0
23422400,0.15308431,-0.0,-1.4387789,0.0,0.7500058,0.057519432,-0.050386347,-0.65699625,0.0,0.0,-0.2957633,0,0,0,0,0
23521942,0.1736918,-0.0,-1.4387789,0.0,0.7493733,0.06524411,-0.057153072,-0.6564422,0.0,0.0,-0.2957633,0,0,0,0,0
23621143,0.15308431,-0.0,-1.4387789,0.0,0.7500058,0.057519432,-0.050386347,-0.65699625,0.0,0.0,-0.2957633,0,0,0,0,0
23720412,0.12658894,-0.0,-1.4387789,0.0,0.75070196,0.047578834,-0.041678503,-0.65760607,0.0,0.0,-0.2957633,0,0,0,0,0
23819821,0.11481321,-0.0,-1.4387789,0.0,0.75096905,0.043158002,-0.037805904,-0.6578401,0.0,0.0,-0.2957633,0,0,0,0,0
23918994,0.11481321,-0.0,-1.4388388,-0.006032244,0.7509494,0.04315687,-0.037807196,-0.6578626,0.0,0.0,-0.30390534,0,0,0,0,0
24023330,0.12511697,-0.0,-1.4391677,0.0,0.7506088,0.047018304,-0.04120364,-0.6577825,0.0,0.0,-0.33443788,0,0,0,0,0
24122740,0.12953284,-0.0,-1.4391677,0.0,0.75050324,0.048675485,-0.04265588,-0.6576899,0.0,0.0,-0.33647338,0,0,0,0,0
24221948,0.14130859,-0.0,-1.4391677,0.0,0.7502036,0.053093486,-0.046527516,-0.6574274,0.0,0.0,-0.3486864,0,0,0,0,0
24321417,0.14425252,-0.0,-1.4391677,0.0,0.75012463,0.054197703,-0.04749518,-0.65735817,0.0,0.0,-0.37718344,0,0,0,0,0
24420606,0.13983662,-0.0,-1.4391677,0.0,0.7502425,0.052541334,-0.04604365,-0.6574614,0.0,0.0,-0.3924497,0,0,0,0,0
24519844,0.13247679,-0.0,-1.4391677,0.0,0.7504307,0.049780153,-0.043623935,-0.6576264,0.0,0.0,-0.3965207,0,0,0,0,0
24619362,0.10011395,0.024684224,-1.4379311,0.0,0.75108093,0.045766857,-0.023676163,-0.6581962,0.0,0.0,-0.39346746,0,0,0,0,0
24723488,0.03831216,0.056709334,-1.438081,0.0,0.7516399,0.03307733,0.008716801,-0.6586861,0.0,0.0,-0.3924497,0,0,0,0,0
24822914,0.025062444,0.06835158,-1.4383109,0.0,0.75158197,0.031929404,0.017455656,-0.65863526,0.0,0.0,-0.39753848,0,0,0,0,0
24922179,0.045702077,0.06833497,-1.4380246,0.0,0.751307,0.039676767,0.010657283,-0.65867287,0.0,0.0,-0.40669823,0,0,0,0,0
25021460,0.07075979,0.066848546,-1.43722,0.0,0.75105214,0.048597418,0.0018646452,-0.65844935,0.0,0.0,-0.41280475,0,0,0,0,0
25120913,0.07811119,0.06102448,-1.4372017,0.0,0.75101924,0.049445823,-0.0027467234,-0.65842056,0.0,0.0,-0.44842604,0,0,0,0,0
25220181,0.078081496,0.05085376,-1.4376001,0.0,0.7511264,0.04609355,-0.0065732594,-0.65851444,0.0,0.0,-0.45860356,0,0,0,0,0
25319378,0.07363889,0.04068757,-1.438088,0.0,0.7512769,0.041082025,-0.008945248,-0.65864646,0.0,0.0,-0.46471006,0,0,0,0,0
25423839,0.07363065,0.036328197,-1.4387878,-0.006032244,0.75113106,0.039641943,-0.01059608,-0.6588766,0.0,0.0,-0.47488758,0,0,0,0,0
25523062,0.08098565,0.031962745,-1.4389507,0.0,0.7510128,0.04096702,-0.014663626,-0.65885246,0.0,0.0,-0.47692308,0,0,0,0,0
25622402,0.08245811,0.031961467,-1.4389272,0.0,0.7509902,0.041519683,-0.015148679,-0.65883267,0.0,0.0,-0.47692308,0,0,0,0,0
25721672,0.07951318,0.031964004,-1.4389741,0.0,0.7510349,0.04041433,-0.014178549,-0.6588719,0.0,0.0,-0.48099408,0,0,0,0,0
25820978,0.07509818,0.033420723,-1.4398885,-0.012064488,0.75079405,0.039230004,-0.012194329,-0.65925765,0.0,0.0,-0.49218935,0,0,0,0,0
25920276,0.070682965,0.03487753,-1.4406601,-0.006032244,0.75059813,0.03804808,-0.010206084,-0.65958375,0.0,0.0,-0.4993136,0,0,0,0,0
26019658,0.072155535,0.034876313,-1.4414724,-0.012064488,0.75030196,0.038595982,-0.010707856,-0.6598808,0.0,0.0,-0.5163787,0,0,0,0,0
26118880,0.072155535,0.034876313,-1.442251,-0.006032244,0.750045,0.03859181,-0.01072288,-0.6601729,0.0,0.0,-0.5186982,0,0,0,0,0
26223445,0.07510066,0.034873787,-1.4424391,0.0,0.7499253,0.03969432,-0.011699696,-0.6602269,0.0,0.0,-0.52681655,0,0,0,0,0
26322517,0.08393602,0.034865625,-1.4422851,0.0,0.74979365,0.04300529,-0.014615996,-0.6601109,0.0,0.0,-0.5500118,0,0,0,0,0
26421745,0.08540305,0.031958833,-1.4423836,0.0,0.7497885,0.042596657,-0.016193407,-0.66010636,0.0,0.0,-0.56972784,0,0,0,0,0
26521240,0.07948809,0.008717461,-1.4434026,0.0,0.74996847,0.032704405,-0.022980822,-0.6602648,0.0,0.0,-0.5801657,0,0,0,0,0
26620485,0.070654295,-0.0,-1.4451871,-0.024128975,0.749625,0.026493138,-0.023358125,-0.66091967,0.0,0.0,-0.5790059,0,0,0,0,0
26719812,0.051518753,-0.0,-1.4511474,-0.0965159,0.7478706,0.019268943,-0.017091123,-0.6633446,0.0,0.0,-0.5824852,0,0,0,0,0
26819246,0.035338394,-0.030904822,-1.4675952,-0.1930318,0.7426148,0.002773172,-0.023304217,-0.6693075,0.0,0.0,-0.52797633,0,0,0,0,0
26923386,0.016220905,-0.073594995,-1.4888587,-0.22922528,0.73515475,-0.018964851,-0.032548103,-0.6768518,0.0,0.0,-0.5105798,0,0,0,0,0
27022921,0.0044320403,-0.10450913,-1.5105982,-0.19906403,0.7271504,-0.034193248,-0.03954442,-0.68448484,0.0,0.0,-0.50745565,0,0,0,0,0
27122007,0.0,-0.11922913,-1.5278895,-0.16287059,0.72083,-0.041215464,-0.043022946,-0.6905465,0.0,0.0,-0.5023669,0,0,0,0,0
27221395,0.0,-0.11775714,-1.5439454,-0.1508061,0.71529436,-0.04104703,-0.042164244,-0.6963414,0.0,0.0,-0.50745565,0,0,0,0,0
27320620,0.044183943,-0.041201595,-1.5563917,-0.07238693,0.7121758,0.0012717495,-0.0301708,-0.7013514,0.0,0.0,-0.5152189,0,0,0,0,0
27419994,0.11922912,-0.0,-1.5588065,0.0,0.7100695,0.042380698,-0.041875582,-0.7016065,0.0,0.0,-0.5384142,0,0,0,0,0
27519266,0.13836466,-0.0,-1.5588065,0.0,0.70963144,0.049172435,-0.048586372,-0.7011737,0.0,0.0,-0.54305327,0,0,0,0,0
27623624,0.13394876,-0.0,-1.5588065,0.0,0.7097383,0.04760548,-0.047038097,-0.7012793,0.0,0.0,-0.544213,0,0,0,0,0
27722895,0.12511697,-0.0,-1.5588065,0.0,0.7099416,0.0444709,-0.043940872,-0.70148015,0.0,0.0,-0.56044966,0,0,0,0,0
27822210,0.11334125,-0.0,-1.5588065,0.0,0.7101912,0.040290117,-0.03980992,-0.70172673,0.0,0.0,-0.5732071,0,0,0,0,0
27921496,0.117757134,-0.0,-1.5588065,0.0,0.7101005,0.04185808,-0.041359194,-0.70163715,0.0,0.0,-0.5732071,0,0,0,0,0
28020724,0.13394876,-0.0,-1.5588065,0.0,0.7097383,0.04760548,-0.047038097,-0.7012793,0.0,0.0,-0.57088757,0,0,0,0,0
28120225,0.13689269,-0.0,-1.5589249,-0.006032244,0.709626,0.0486473,-0.04807319,-0.7012513,0.0,0.0,-0.57088757,0,0,0,0,0
28219461,0.089789815,-0.0,-1.5591649,-0.012064488,0.71049047,0.031918854,-0.031549733,-0.70227414,0.0,0.0,-0.52681655,0,0,0,0,0
28323710,0.027967323,-0.0,-1.560932,-0.018096732,0.7105163,0.009936267,-0.009838733,-0.7035419,0.0,0.0,-0.5210178,0,0,0,0,0
28423033,0.0,0.0,-1.5610821,0.0,0.71053296,0.0,0.0,-0.70366395,0.0,0.0,-0.52565676,0,0,0,0,0
28522383,-0.031846054,-0.0,-1.5610821,0.0,0.7104429,-0.011313357,0.011203987,-0.7035747,0.0,0.0,-0.5384142,0,0,0,0,0
28621755,-0.0332936,-0.0,-1.5610821,0.0,0.7104345,-0.011827554,0.011713212,-0.70356643,0.0,0.0,-0.5418935,0,0,0,0,0
28721140,-0.0332936,-0.0,-1.5610821,0.0,0.7104345,-0.011827554,0.011713212,-0.70356643,0.0,0.0,-0.5407337,0,0,0,0,0
28820280,-0.031846054,-0.0,-1.5610821,0.0,0.7104429,-0.011313357,0.011203987,-0.7035747,0.0,0.0,-0.544213,0,0,0,0,0
28919678,-0.031846054,-0.0,-1.5610821,0.0,0.7104429,-0.011313357,0.011203987,-0.7035747,0.0,0.0,-0.5465326,0,0,0,0,0
29023962,-0.031846054,-0.0,-1.5610821,0.0,0.7104429,-0.011313357,0.011203987,-0.7035747,0.0,0.0,-0.5476923,0,0,0,0,0
29123218,-0.028950958,-0.0,-1.5610821,0.0,0.7104585,-0.010284945,0.010185516,-0.7035902,0.0,0.0,-0.5476923,0,0,0,0,0
29222611,-0.028950958,-0.0,-1.5610821,0.0,0.7104585,-0.010284945,0.010185516,-0.7035902,0.0,0.0,-0.5476923,0,0,0,0,0
29321764,-0.031846054,-0.0,-1.5610821,0.0,0.7104429,-0.011313357,0.011203987,-0.7035747,0.0,0.0,-0.5476923,0,0,0,0,0
29421235,-0.0332936,-0.0,-1.5610821,0.0,0.7104345,-0.011827554,0.011713212,-0.70356643,0.0,0.0,-0.5476923,0,0,0,0,0
29520573,-0.02750341,-0.0,-1.5610821,0.0,0.7104658,-0.009770732,0.009676275,-0.7035974,0.0,0.0,-0.5500118,0,0,0,0,0
29619759,0.0,0.0,-1.5610821,0.0,0.71053296,0.0,0.0,-0.70366395,0.0,0.0,-0.548852,0,0,0,0,0
29724114,0.048574824,-0.0,-1.5610821,0.0,0.7103234,0.01725531,-0.017088495,-0.7034564,0.0,0.0,-0.53957397,0,0,0,0,0
29818427,0.16486001,-0.0,-1.5618613,-0.012064488,0.7078471,0.058480356,-0.057960145,-0.7015505,0.0,0.0,-0.5384142,0,0,0,0,0
29922770,0.23404233,-0.0,-1.563119,-0.012064488,0.7049613,0.08287403,-0.08224022,-0.6995698,0.0,0.0,-0.5372544,0,0,0,0,0
30022056,0.29733682,-0.0,-1.5646172,-0.018096732,0.70146406,0.10506071,-0.104413524,-0.69714296,0.0,0.0,-0.5152189,0,0,0,0,0
30121313,0.29439288,-0.0,-1.5657257,0.0,0.70123136,0.10397074,-0.10344488,-0.69768465,0.0,0.0,-0.5152189,0,0,0,0,0
30220638,0.26936948,-0.0,-1.5657257,0.0,0.7024773,0.095189236,-0.094707794,-0.6989243,0.0,0.0,-0.5152189,0,0,0,0,0
30320087,0.25759378,-0.0,-1.5657257,0.0,0.7030256,0.091051534,-0.09059101,-0.6994698,0.0,0.0,-0.5152189,0,0,0,0,0
30424266,0.18105163,-0.0,-1.5657257,0.0,0.70599455,0.064085886,-0.063761756,-0.70242375,0.0,0.0,-0.5163787,0,0,0,0,0
30518793,0.15455629,-0.0,-1.5657257,0.0,0.70678157,0.054727755,-0.054450955,-0.7032068,0.0,0.0,-0.5175385,0,0,0,0,0
30622942,0.11334125,-0.0,-1.5657257,0.0,0.7077592,0.04015215,-0.039949067,-0.7041795,0.0,0.0,-0.5210178,0,0,0,0,0
30722248,0.05004965,0.013084506,-1.5653982,0.0,0.70866007,0.02235278,-0.013008125,-0.70507586,0.0,0.0,-0.53029585,0,0,0,0,0
30821532,0.0,0.027634379,-1.5657257,0.0,0.7088296,0.009745116,0.009794655,-0.7052445,0.0,0.0,-0.5326154,0,0,0,0,0
30920961,-0.021715427,0.017451921,-1.5659152,0.0,0.70882845,-0.0015411652,0.013843144,-0.70524335,0.0,0.0,-0.5372544,0,0,0,0,0
31020249,-0.033293687,0.0029083446,-1.5657741,0.0,0.7087983,-0.010774531,0.012771635,-0.7052133,0.0,0.0,-0.5465326,0,0,0,0,0
31124519,-0.034741145,0.0,-1.5657257,0.0,0.7087903,-0.0123133315,0.012251053,-0.7052054,0.0,0.0,-0.5824852,0,0,0,0,0
31218819,-0.034741145,0.0,-1.5657257,0.0,0.7087903,-0.0123133315,0.012251053,-0.7052054,0.0,0.0,-0.5848047,0,0,0,0,0
31323176,-0.034741145,0.0,-1.5657257,0.0,0.7087903,-0.0123133315,0.012251053,-0.7052054,0.0,0.0,-0.5848047,0,0,0,0,0
31422340,-0.034741145,0.0,-1.5657257,0.0,0.7087903,-0.0123133315,0.012251053,-0.7052054,0.0,0.0,-0.58596444,0,0,0,0,0
31521731,-0.034741145,0.0,-1.5657257,0.0,0.7087903,-0.0123133315,0.012251053,-0.7052054,0.0,0.0,-0.59872186,0,0,0,0,0
31621058,-0.034741145,0.0,-1.5657257,0.0,0.7087903,-0.0123133315,0.012251053,-0.7052054,0.0,0.0,-0.6149586,0,0,0,0,0
31720309,0.014719642,-0.0,-1.5657257,0.0,0.70887804,0.0052173096,-0.0051909215,-0.7052927,0.0,0.0,-0.6195977,0,0,0,0,0
31824651,0.072126254,-0.0,-1.566654,-0.012064488,0.7081091,0.025547706,-0.025442097,-0.7051819,0.0,0.0,-0.6137988,0,0,0,0,0
31919072,0.10450948,-0.0,-1.5677923,-0.012064488,0.7072014,0.036988296,-0.036877353,-0.7050802,0.0,0.0,-0.5813255,0,0,0,0,0
32023222,0.16486001,-0.0,-1.5694102,-0.018096732,0.70519406,0.058261164,-0.058180463,-0.70421726,0.0,0.0,-0.5453728,0,0,0,0,0
32122647,0.17957963,-0.0,-1.5707909,-0.012064488,0.7042602,0.06340588,-0.063405536,-0.70425636,0.0,0.0,-0.46674556,0,0,0,0,0
32222003,0.18399556,-0.0,-1.5709709,0.0,0.70405513,0.06495486,-0.0649662,-0.70417804,0.0,0.0,-0.45860356,0,0,0,0,0
32321263,0.20754698,-0.0,-1.5709709,0.0,0.70324147,0.07324091,-0.073253706,-0.70336425,0.0,0.0,-0.4677633,0,0,0,0,0
32420511,0.21343485,-0.0,-1.5824444,0.0,0.6989774,0.07487753,-0.075754836,-0.70716697,0.0,0.0,-0.46878108,0,0,0,0,0
32524821,0.2136983,0.060623102,-1.5759401,0.0,0.6986502,0.09654407,-0.054315913,-0.70683587,0.0,0.0,-0.5372544,0,0,0,0,0
32619089,0.1653352,0.0926617,-1.5747614,0.0,0.6998292,0.0909118,-0.025868595,-0.7080288,0.0,0.0,-0.56740826,0,0,0,0,0
32723562,0.16668572,0.079624966,-1.5757893,0.0,0.6999853,0.086786926,-0.030987667,-0.7081867,0.0,0.0,-0.5790059,0,0,0,0,0
32822738,0.19599073,0.05780623,-1.5767599,0.0,0.69931453,0.08934418,-0.04908336,-0.707508,0.0,0.0,-0.57784617,0,0,0,0,0
32922205,0.22681567,0.04181824,-1.57852,0.0,0.6980136,0.094438165,-0.06567843,-0.70678484,0.0,0.0,-0.5766864,0,0,0,0,0
33021414,0.21059822,0.038980387,-1.5793122,0.0,0.6986022,0.087751694,-0.06097582,-0.7074861,0.0,0.0,-0.5766864,0,0,0,0,0
33120716,0.16344355,0.031855468,-1.5820513,-0.012064488,0.6997564,0.06867623,-0.04687707,-0.70952594,0.0,0.0,-0.5511716,0,0,0,0,0
33225017,0.052997034,0.018898884,-1.5843995,0.0,0.70182484,0.02533099,-0.0122275045,-0.71179396,0.0,0.0,-0.5476923,0,0,0,0,0
33319296,0.0,0.10471976,-1.5849004,0.0,0.7011405,0.037267163,0.03674522,-0.7110998,0.0,0.0,-0.55581063,0,0,0,0,0
33423678,-0.023279473,0.123616375,-1.5875117,0.0,0.7002987,0.035891995,0.051590674,-0.711078,0.0,0.0,-0.5581302,0,0,0,0,0
33518077,-0.03338412,0.090158634,-1.587577,0.0,0.7008755,0.020435663,0.043481257,-0.71166366,0.0,0.0,-0.5581302,0,0,0,0,0
33622218,-0.031906903,0.075618125,-1.5872779,0.0,0.70109534,0.015765622,0.037868895,-0.7118868,0.0,0.0,-0.5569704,0,0,0,0,0
33721586,-0.031882025,0.0581678,-1.5869985,0.0,0.7013001,0.009550679,0.031750336,-0.7120947,0.0,0.0,-0.50745565,0,0,0,0,0
33820944,-0.027525852,0.049444754,-1.5867516,0.0,0.701405,0.00796614,0.027143814,-0.7122013,0.0,0.0,-0.5013491,0,0,0,0,0
33925206,-0.024626097,0.046537414,-1.586644,0.0,0.7014427,0.007945742,0.02509262,-0.71223956,0.0,0.0,-0.50033134,0,0,0,0,0
34019771,-0.021727009,0.043629803,-1.586545,0.0,0.70147747,0.007925331,0.02304132,-0.71227497,0.0,0.0,-0.50033134,0,0,0,0,0
34123793,0.0,0.040724352,-1.5860709,0.0,0.7015404,0.014506772,0.014286864,-0.71233875,0.0,0.0,-0.5013491,0,0,0,0,0
34218225,0.048594553,0.034892853,-1.5852228,0.0,0.701372,0.029472975,-0.0050569703,-0.71216786,0.0,0.0,-0.5013491,0,0,0,0,0
34322605,0.08834274,0.02905101,-1.5847868,0.0,0.7009276,0.041333497,-0.021249378,-0.71171665,0.0,0.0,-0.5023669,0,0,0,0,0
34421671,0.07950423,0.026152374,-1.5851502,-0.006032244,0.7010291,0.037201557,-0.01912798,-0.7119048,0.0,0.0,-0.5084734,0,0,0,0,0
34521179,0.06771342,0.01162664,-1.5857967,0.0,0.7012293,0.027894096,-0.020036848,-0.71210814,0.0,0.0,-0.5105798,0,0,0,0,0
34620408,0.061859164,0.042151906,-1.5848861,0.0,0.7011521,0.0367069,-0.0072262296,-0.71202964,0.0,0.0,-0.5105798,0,0,0,0,0
34719729,0.0962147,0.12924652,-1.5799593,0.0,0.69937205,0.07959652,0.011313431,-0.710222,0.0,0.0,-0.5128994,0,0,0,0,0
34824054,0.08449779,0.14527208,-1.5800384,0.0,0.69917196,0.08115575,0.021108855,-0.7100189,0.0,0.0,-0.5140591,0,0,0,0,0
34918338,0.0607881,0.1468086,-1.5817189,0.0,0.6994324,0.07342974,0.030002894,-0.7102832,0.0,0.0,-0.53145564,0,0,0,0,0
35022522,0.0162099,0.058175102,-1.5857189,0.0,0.7013234,0.026402969,0.01463926,-0.7122036,0.0,0.0,-0.5326154,0,0,0,0,0
35121900,0.0,0.0,-1.5861905,0.0,0.7016432,0.0,0.0,-0.7125284,0.0,0.0,-0.5326154,0,0,0,0,0
35221291,0.007359822,-0.0,-1.5861905,0.0,0.70163846,0.0025819787,-0.002622035,-0.7125236,0.0,0.0,-0.5326154,0,0,0,0,0
35320533,0.022079466,-0.0,-1.5861905,0.0,0.7016005,0.0077457963,-0.0078659635,-0.712485,0.0,0.0,-0.5326154,0,0,0,0,0
35419955,0.10009358,-0.0,-1.5861905,0.0,0.7007647,0.035100337,-0.035644878,-0.7116363,0.0,0.0,-0.5465326,0,0,0,0,0
35524078,0.17074786,-0.0,-1.5861905,0.0,0.69908774,0.0598293,-0.06075748,-0.7099333,0.0,0.0,-0.5848047,0,0,0,0,0
35618716,0.20165911,-0.0,-1.5865213,-0.006032244,0.69796234,0.0706147,-0.07173394,-0.70902497,0.0,0.0,-0.59408283,0,0,0,0,0
35722787,0.1987152,-0.0,-1.5867001,0.0,0.6980021,0.069580935,-0.07069643,-0.7091922,0.0,0.0,-0.59408283,0,0,0,0,0
35822097,0.16191609,-0.0,-1.5868497,0.0,0.699111,0.056722637,-0.057640616,-0.71042514,0.0,0.0,-0.5929231,0,0,0,0,0
35921512,0.117757134,-0.0,-1.5869994,0.0,0.70013964,0.041270923,-0.041945115,-0.711577,0.0,0.0,-0.5929231,0,0,0,0,0
36020669,-0.08685288,0.0,-1.5869994,0.0,0.7006938,-0.030447775,0.030945165,-0.71214014,0.0,0.0,-0.5929231,0,0,0,0,0
36120107,-0.04921663,0.0,-1.5869994,0.0,0.7011426,-0.017257424,0.017539337,-0.71259636,0.0,0.0,-0.5929231,0,0,0,0,0
36224341,-0.034741145,0.0,-1.5869994,0.0,0.7012492,-0.012182325,0.012381333,-0.71270466,0.0,0.0,-0.5929231,0,0,0,0,0
36318675,-0.034741145,0.0,-1.5869994,0.0,0.7012492,-0.012182325,0.012381333,-0.71270466,0.0,0.0,-0.5929231,0,0,0,0,0
36423082,-0.031846054,0.0,-1.5869994,0.0,0.70126605,-0.011167223,0.011349648,-0.7127218,0.0,0.0,-0.5929231,0,0,0,0,0
36522335,-0.031846054,0.0,-1.587748,-0.012064488,0.70099926,-0.011162974,0.011353828,-0.71298426,0.0,0.0,-0.5824852,0,0,0,0,0
36621688,-0.018818123,0.0,-1.5879277,0.0,0.700993,-0.006595881,0.006709857,-0.71310604,0.0,0.0,-0.5732071,0,0,0,0,0
36720887,0.0,0.0,-1.5879277,0.0,0.70102406,0.0,0.0,-0.7131376,0.0,0.0,-0.5732071,0,0,0,0,0
36820319,0.0,0.0,-1.5879277,0.0,0.70102406,0.0,0.0,-0.7131376,0.0,0.0,-0.5732071,0,0,0,0,0
36924507,0.025023462,0.0029085786,-1.5878913,0.0,0.70096844,0.009807957,-0.007902754,-0.71308106,0.0,0.0,-0.5407337,0,0,0,0,0
37018951,0.07801413,-0.0,-1.5879277,0.0,0.70049083,0.027337957,-0.027810352,-0.71259516,0.0,0.0,-0.52333724,0,0,0,0,0
37123130,0.036801215,0.0130870165,-1.5876869,0.0,0.70089036,0.01756489,-0.008532683,-0.71300167,0.0,0.0,-0.52333724,0,0,0,0,0
37217578,0.0,0.04508767,-1.5879277,0.0,0.70084596,0.016075496,0.015802432,-0.7129564,0.0,0.0,-0.5084734,0,0,0,0,0
37321770,0.13693924,0.031897817,-1.5867566,-0.006032244,0.6989313,0.059323914,-0.037595283,-0.7117319,0.0,0.0,-0.5064379,0,0,0,0,0
37421064,0.29451045,0.034404315,-1.5847092,-0.006032244,0.69267184,0.11512473,-0.092505485,-0.7059709,0.0,0.0,-0.50745565,0,0,0,0,0
37520640,0.38129756,0.021291865,-1.5861835,-0.006032244,0.6874565,0.14039943,-0.12767895,-0.7009919,0.0,0.0,-0.5117396,0,0,0,0,0
37624769,0.3812555,0.011355697,-1.588849,-0.006032244,0.68722415,0.13673988,-0.13127461,-0.701279,0.0,0.0,-0.5117396,0,0,0,0,0
37719108,0.37682393,0.0028405276,-1.5904987,0.0,0.6875262,0.13212548,-0.13276191,-0.7015873,0.0,0.0,-0.5117396,0,0,0,0,0
37823362,0.3768229,-0.0,-1.5910403,0.0,0.68752706,0.13109286,-0.13377392,-0.70158803,0.0,0.0,-0.5117396,0,0,0,0,0
37917596,0.37682393,0.0028405276,-1.5904987,0.0,0.6875262,0.13212548,-0.13276191,-0.7015873,0.0,0.0,-0.5105798,0,0,0,0,0
38022027,0.37682393,0.0028405276,-1.5904987,0.0,0.6875262,0.13212548,-0.13276191,-0.7015873,0.0,0.0,-0.5105798,0,0,0,0,0
38121336,0.37535194,0.0028410566,-1.5910994,-0.006032244,0.6874125,0.13157988,-0.13228483,-0.7018913,0.0,0.0,-0.5105798,0,0,0,0,0
38220723,0.3576883,0.0028472506,-1.5914837,0.0,0.68841225,0.12548168,-0.12610278,-0.703165,0.0,0.0,-0.5105798,0,0,0,0,0
38320027,0.2281545,-0.0,-1.5922687,0.0,0.6949281,0.07962117,-0.08134945,-0.7100124,0.0,0.0,-0.5117396,0,0,0,0,0
38419246,0.09714965,-0.0,-1.5922687,0.0,0.69864947,0.03396349,-0.03470071,-0.71381456,0.0,0.0,-0.5105798,0,0,0,0,0
38523508,0.0,0.0,-1.5922687,0.0,0.6994745,0.0,0.0,-0.7146575,0.0,0.0,-0.52449703,0,0,0,0,0
38617887,-0.0332936,0.0,-1.5922687,0.0,0.6993776,-0.011643475,0.011896211,-0.7145584,0.0,0.0,-0.52681655,0,0,0,0,0
38722160,-0.034741145,0.0,-1.5922687,0.0,0.699369,-0.012149662,0.012413385,-0.71454966,0.0,0.0,-0.52681655,0,0,0,0,0
38821459,-0.034741145,0.0,-1.5922687,0.0,0.699369,-0.012149662,0.012413385,-0.71454966,0.0,0.0,-0.52681655,0,0,0,0,0
38920806,-0.034741145,0.0,-1.5922687,0.0,0.699369,-0.012149662,0.012413385,-0.71454966,0.0,0.0,-0.52681655,0,0,0,0,0
39020013,-0.034741145,0.0,-1.5922687,0.0,0.699369,-0.012149662,0.012413385,-0.71454966,0.0,0.0,-0.52681655,0,0,0,0,0
39119555,-0.034741145,0.0,-1.5922687,0.0,0.699369,-0.012149662,0.012413385,-0.71454966,0.0,0.0,-0.52681655,0,0,0,0,0
39223695,-0.034741145,0.0,-1.5922687,0.0,0.699369,-0.012149662,0.012413385,-0.71454966,0.0,0.0,-0.52681655,0,0,0,0,0
39318066,-0.031846054,0.0,-1.5922687,0.0,0.6993858,-0.011137282,0.01137903,-0.7145669,0.0,0.0,-0.52681655,0,0,0,0,0
39422397,-0.024608318,0.0,-1.5922687,0.0,0.6994216,-0.008606229,0.008793037,-0.71460336,0.0,0.0,-0.52681655,0,0,0,0,0
39521583,-0.024608318,0.0,-1.5922687,0.0,0.6994216,-0.008606229,0.008793037,-0.71460336,0.0,0.0,-0.52681655,0,0,0,0,0
39620972,-0.015923027,0.0,-1.5922687,0.0,0.69945234,-0.0055688173,0.0056896955,-0.71463484,0.0,0.0,-0.52449703,0,0,0,0,0
39720424,-0.031846054,0.0,-1.5922687,0.0,0.6993858,-0.011137282,0.01137903,-0.7145669,0.0,0.0,-0.5801657,0,0,0,0,0
39819518,-0.034741145,0.0,-1.5924183,0.0,0.69931555,-0.012148733,0.012414295,-0.71460205,0.0,0.0,-0.7274556,0,0,0,0,0
39924011,-0.034741145,0.0,-1.5924183,0.0,0.69931555,-0.012148733,0.012414295,-0.71460205,0.0,0.0,-0.72977513,0,0,0,0,0
40018274,-0.0332936,0.0,-1.5924183,0.0,0.69932413,-0.011642585,0.011897083,-0.7146108,0.0,0.0,-0.74137276,0,0,0,0,0
40122565,-0.02750341,0.0,-1.593586,-0.024128975,0.6989376,-0.00961219,0.009833783,-0.71505046,0.0,0.0,-0.73905325,0,0,0,0,0
40221897,0.035327144,-0.0,-1.5969083,-0.054290194,0.6977059,0.012325261,-0.012651375,-0.7161665,0.0,0.0,-0.6219171,0,0,0,0,0
40321197,0.086845905,-0.0,-1.599814,-0.036193464,0.6961166,0.03024645,-0.031137118,-0.71661514,0.0,0.0,-0.5813255,0,0,0,0,0
40420368,0.16191609,-0.0,-1.605805,-0.07841917,0.6923465,0.056173798,-0.058175616,-0.7170191,0.0,0.0,-0.52681655,0,0,0,0,0
40519855,0.16338807,-0.0,-1.6145211,-0.07841917,0.6891738,0.05642698,-0.05894979,-0.7199863,0.0,0.0,-0.50440234,0,0,0,0,0
40624036,0.15897217,-0.0,-1.6179959,0.0,0.68804455,0.054805443,-0.057455264,-0.7213113,0.0,0.0,-0.5064379,0,0,0,0,0
40718529,0.14719644,-0.0,-1.6179959,0.0,0.6883553,0.050753403,-0.053207308,-0.72163707,0.0,0.0,-0.5117396,0,0,0,0,0
40822710,0.14719644,-0.0,-1.6179959,0.0,0.6883553,0.050753403,-0.053207308,-0.72163707,0.0,0.0,-0.5755266,0,0,0,0,0
40922050,0.18399556,-0.0,-1.6179959,0.0,0.68730503,0.06340953,-0.066475354,-0.72053593,0.0,0.0,-0.5871242,0,0,0,0,0
41021538,0.18105163,-0.0,-1.6179959,0.0,0.68739766,0.062397774,-0.06541468,-0.72063303,0.0,0.0,-0.60568047,0,0,0,0,0
41120657,0.1825236,-0.0,-1.6179959,0.0,0.6873515,0.062903665,-0.06594504,-0.7205847,0.0,0.0,-0.60915977,0,0,0,0,0
41219891,0.1545602,0.008691944,-1.6173228,0.0,0.6881574,0.05644011,-0.052853663,-0.7214294,0.0,0.0,-0.6103195,0,0,0,0,0
41324290,0.11777835,0.023217302,-1.616627,0.0,0.6889811,0.049029373,-0.03455242,-0.722293,0.0,0.0,-0.60915977,0,0,0,0,0
41418520,0.085374184,0.0029053497,-1.6178718,0.0,0.6895944,0.030506715,-0.029875142,-0.722936,0.0,0.0,-0.60800004,0,0,0,0,0
41522891,0.06476643,-0.0,-1.6179959,0.0,0.689862,0.022347761,-0.023428267,-0.72321653,0.0,0.0,-0.60800004,0,0,0,0,0
41616678,-0.01799255,0.010778643,-1.6018262,0.0,0.69604796,-0.0023923803,0.010210147,-0.7179187,0.0,0.0,-0.4789744,0,0,0,0,0
41716009,-0.011842427,0.014683914,-1.6018262,0.0,0.69605166,0.001149992,0.009361488,-0.7179298,0.0,0.0,-0.46734077,0,0,0,0,0
41815448,-0.010295484,0.022895303,-1.6018262,0.0,0.6960389,0.00463619,0.011663654,-0.7178944,0.0,0.0,-0.46652603,0,0,0,0,0
41909662,0.004951234,0.021767056,-1.6018262,0.0,0.6959887,0.00953716,0.0057979557,-0.71796596,0.0,0.0,-0.46644878,0,0,0,0,0
42008978,0.015482051,0.02818864,-1.6018262,0.0,0.6958831,0.015506532,0.0042523663,-0.7179751,0.0,0.0,-0.4858542,0,0,0,0,0
42108295,0.017827436,0.031862177,-1.6018262,0.0,0.69583344,0.017640991,0.004688867,-0.7179712,0.0,0.0,-0.52296627,0,0,0,0,0
42207611,0.027870735,0.03245794,-1.6018262,0.0,0.6957298,0.021348767,0.0012907649,-0.71798515,0.0,0.0,-0.54946816,0,0,0,0,0
42316859,0.04695412,0.024108775,-1.6018262,0.0,0.6956059,0.024990913,-0.0084656095,-0.71793896,0.0,0.0,-0.5775695,0,0,0,0,0
42416216,0.08513377,0.012821962,-1.6018262,0.0,0.69521075,0.034218017,-0.026094522,-0.7175167,0.0,0.0,-0.5950177,0,0,0,0,0
42515492,0.08840489,0.0058417567,-1.6018262,0.0,0.6952759,0.03285214,-0.029695436,-0.7173774,0.0,0.0,-0.5822041,0,0,0,0,0
42614912,0.08990208,0.006127588,-1.6018262,0.0,0.69524616,0.03347511,-0.030133069,-0.7173592,0.0,0.0,-0.5760938,0,0,0,0,0
42709159,0.095298514,0.004151484,-1.6018262,0.0,0.6951889,0.034642387,-0.032755584,-0.7172443,0.0,0.0,-0.57272726,0,0,0,0,0
42808476,0.0981103,0.005351426,-1.6018262,0.0,0.6951174,0.036049925,-0.03334677,-0.7172169,0.0,0.0,-0.5696536,0,0,0,0,0
42907793,0.101464495,-0.0025665509,-1.6018262,0.0,0.695202,0.034376882,-0.037301768,-0.7170223,0.0,0.0,-0.564316,0,0,0,0,0
43017040,0.10177228,-0.00036918136,-1.6018262,0.0,0.6951572,0.035271723,-0.036648393,-0.71705604,0.0,0.0,-0.5634258,0,0,0,0,0
43116358,0.10773102,-0.004214944,-1.6018262,0.0,0.69512177,0.035964,-0.040120997,-0.71687007,0.0,0.0,-0.5604978,0,0,0,0,0
43215673,0.0984104,-0.0061543332,-1.5748291,0.0,0.70492935,0.0325313,-0.03701804,-0.7075634,0.0,0.0,-0.5898426,0,0,0,0,0
43314990,0.16994944,-0.009015749,-1.5748291,0.0,0.7033973,0.056709737,-0.06330382,-0.7056975,0.0,0.0,-0.64102036,0,0,0,0,0
43414379,0.26810658,-0.0061150636,-1.5748291,0.0,0.6996347,0.09216824,-0.09683455,-0.7018827,0.0,0.0,-0.5999016,0,0,0,0,0
43513623,0.3527592,-0.010496911,-1.5748291,0.0,0.69537413,0.12016045,-0.12796804,-0.6968791,0.0,0.0,-0.5776135,0,0,0,0,0
43612941,0.41117343,-0.008167324,-1.5748291,0.0,0.6914038,0.14122485,-0.1474605,-0.6930163,0.0,0.0,-0.58716804,0,0,0,0,0
43717222,0.34766138,-0.009807304,-1.5748291,0.0,0.6956371,0.118628435,-0.12595187,-0.6972463,0.0,0.0,-0.5675346,0,0,0,0,0
43816544,0.27022237,-0.005504042,-1.5748291,0.0,0.69950825,0.09312289,-0.097363465,-0.7018096,0.0,0.0,-0.5547993,0,0,0,0,0
43915854,0.19357397,-0.0028677161,-1.5748291,0.0,0.7024743,0.06718276,-0.06947662,-0.7051165,0.0,0.0,-0.5506794,0,0,0,0,0
44010205,0.116561025,-0.0037537087,-1.5748291,0.0,0.70455766,0.039776463,-0.042592317,-0.70724976,0.0,0.0,-0.5528879,0,0,0,0,0
44109524,0.034300823,-0.0034774821,-1.5748291,0.0,0.7055958,0.010870313,-0.0133778015,-0.70840484,0.0,0.0,-0.5558332,0,0,0,0,0
44208856,-0.052384295,-0.0034370709,-1.5748291,0.0,0.7054046,-0.01969834,0.017343484,-0.7083188,0.0,0.0,-0.55883116,0,0,0,0,0
44308155,-0.13692771,-0.0031017251,-1.5748291,0.0,0.7039503,-0.049372006,0.04737898,-0.70694524,0.0,0.0,-0.5638893,0,0,0,0,0
44417403,-0.22588578,-0.0046306564,-1.5748291,0.0,0.7009967,-0.08116196,0.07822985,-0.70419914,0.0,0.0,-0.57155997,0,0,0,0,0
44516919,-0.24501008,0.0015008497,-1.5748291,0.0,0.7004557,-0.08570549,0.087107256,-0.70315623,0.0,0.0,-0.5751784,0,0,0,0,0
44616039,-0.1763013,-0.0031053477,-1.5748291,0.0,0.7028419,-0.06322136,0.061285116,-0.7058757,0.0,0.0,-0.562021,0,0,0,0,0
44715352,-0.0860377,0.00029855873,-1.5748291,0.0,0.7050312,-0.030242488,0.030576041,-0.707871,0.0,0.0,-0.55664086,0,0,0,0,0
44809703,-0.0066775065,0.0013793972,-1.5748291,0.0,0.7056771,-0.0018674148,0.0028523093,-0.7085254,0.0,0.0,-0.559185,0,0,0,0,0
44909038,0.0808151,-0.000855936,-1.5748291,0.0,0.7051157,0.02820404,-0.028923979,-0.7079405,0.0,0.0,-0.56373984,0,0,0,0,0
45008336,0.09337198,0.00024840416,-1.5748291,0.0,0.7049065,0.033021286,-0.03297891,-0.70776325,0.0,0.0,-0.56562275,0,0,0,0,0
45107653,0.09495196,-0.0011557402,-1.5748291,0.0,0.7049037,0.03308126,-0.034032904,-0.70771325,0.0,0.0,-0.5630273,0,0,0,0,0
45216904,0.08894724,0.0019056879,-1.5748291,0.0,0.70495147,0.032048214,-0.030828804,-0.7078601,0.0,0.0,-0.5599262,0,0,0,0,0
45316379,0.08215843,0.0024373503,-1.5748291,0.0,0.70504826,0.029843325,-0.028238427,-0.70796824,0.0,0.0,-0.5593355,0,0,0,0,0
45415536,0.07839006,0.005862191,-1.5748291,0.0,0.70505315,0.029727105,-0.02569685,-0.70806503,0.0,0.0,-0.55977196,0,0,0,0,0
45514850,0.08367007,0.0030408583,-1.5748291,0.0,0.70501626,0.030589812,-0.028560748,-0.7079553,0.0,0.0,-0.55836165,0,0,0,0,0
45614166,0.08104712,0.0103198,-1.5748291,0.0,0.7049427,0.032241378,-0.025065737,-0.70808756,0.0,0.0,-0.5589429,0,0,0,0,0
45713486,0.07570991,0.0018147767,-1.5748291,0.0,0.7051494,0.02734953,-0.026175134,-0.7080475,0.0,0.0,-0.5566719,0,0,0,0,0
45812801,0.07579259,0.0051698596,-1.5748291,0.0,0.70510113,0.028566334,-0.025021367,-0.7080892,0.0,0.0,-0.55684257,0,0,0,0,0
45917083,0.07404607,0.0027830442,-1.5748291,0.0,0.70515877,0.027105667,-0.02524466,-0.7080813,0.0,0.0,-0.5576814,0,0,0,0,0
46016399,0.07679338,0.0062698782,-1.5748291,0.0,0.7050707,0.029308531,-0.02498781,-0.70809036,0.0,0.0,-0.5562964,0,0,0,0,0
46115839,0.0754352,0.003585388,-1.5748291,0.0,0.7051286,0.027879462,-0.025453547,-0.7080738,0.0,0.0,-0.5541985,0,0,0,0,0
46210066,0.073002554,0.0024888949,-1.5748291,0.0,0.7051768,0.026633607,-0.024978934,-0.7080907,0.0,0.0,-0.5545394,0,0,0,0,0
46309383,0.070338264,-0.0005684232,-1.5748291,0.0,0.7052502,0.02461177,-0.025113722,-0.7080859,0.0,0.0,-0.55465424,0,0,0,0,0
46408752,0.07002534,0.00032316148,-1.5748291,0.0,0.70524305,0.02481709,-0.02468854,-0.7081009,0.0,0.0,-0.5544565,0,0,0,0,0
46508019,0.06922946,0.00390828,-1.5748291,0.0,0.7052076,0.025805723,-0.023142498,-0.7081531,0.0,0.0,-0.55551225,0,0,0,0,0
46617277,0.064253725,0.0023493066,-1.5748291,0.0,0.7052882,0.0234992,-0.021930447,-0.70819163,0.0,0.0,-0.5559925,0,0,0,0,0
46716580,0.06593703,0.0026801636,-1.5748291,0.0,0.70526415,0.024209945,-0.022409813,-0.7081766,0.0,0.0,-0.55735016,0,0,0,0,0
46815897,0.059659068,0.00092058966,-1.5748291,0.0,0.7053558,0.021372955,-0.020807339,-0.7082256,0.0,0.0,-0.5572241,0,0,0,0,0
46915298,0.06451497,0.00460071,-1.5748291,0.0,0.705258,0.024388464,-0.021228945,-0.708213,0.0,0.0,-0.5575635,0,0,0,0,0
47009564,0.059940856,0.0017463526,-1.5748291,0.0,0.70534384,0.021764738,-0.020615887,-0.7082311,0.0,0.0,-0.5584264,0,0,0,0,0
47108880,0.060520686,-0.002157196,-1.5748291,0.0,0.7053792,0.020586962,-0.022197908,-0.7081833,0.0,0.0,-0.5588108,0,0,0,0,0
47208253,0.056789603,-0.005084503,-1.5748291,0.0,0.7054439,0.018234337,-0.021909123,-0.70819235,0.0,0.0,-0.56017023,0,0,0,0,0
47307514,0.05767811,-0.002988867,-1.5748291,0.0,0.70541584,0.019289875,-0.021484666,-0.7082052,0.0,0.0,-0.56123304,0,0,0,0,0
47416763,0.05912212,-0.010666826,-1.5748291,0.0,0.7054729,0.01708008,-0.0247036,-0.70810026,0.0,0.0,-0.56109416,0,0,0,0,0
47516079,0.05449363,-0.007952542,-1.5748291,0.0,0.7054888,0.01640873,-0.0221076,-0.70818615,0.0,0.0,-0.5637461,0,0,0,0,0
47615395,0.058661573,-0.014679787,-1.5748291,0.0,0.70550954,0.015496351,-0.025955573,-0.70805544,0.0,0.0,-0.56214947,0,0,0,0,0
47714762,0.05289851,-0.009705273,-1.5748291,0.0,0.7055153,0.015225275,-0.022160912,-0.7081845,0.0,0.0,-0.56318074,0,0,0,0,0
47809062,0.058373522,-0.014190025,-1.5748291,0.0,0.70550793,0.015568205,-0.025680903,-0.70806545,0.0,0.0,-0.5604413,0,0,0,0,0
47908384,0.055169128,-0.008261226,-1.5748291,0.0,0.7054858,0.016537683,-0.022455651,-0.7081751,0.0,0.0,-0.56176555,0,0,0,0,0
48007857,0.055812553,-0.014359319,-1.5748291,0.0,0.70552856,0.014604838,-0.024833914,-0.70809567,0.0,0.0,-0.5605559,0,0,0,0,0
48116955,0.05856622,-0.010885469,-1.5748291,0.0,0.7054795,0.016806556,-0.02458388,-0.7081044,0.0,0.0,-0.56111854,0,0,0,0,0
48216261,0.056550328,-0.012318542,-1.5748291,0.0,0.70550746,0.0155879045,-0.02437549,-0.70811164,0.0,0.0,-0.5614303,0,0,0,0,0
48315577,0.057179626,-0.012073771,-1.5748291,0.0,0.7055006,0.015896581,-0.024511984,-0.7081069,0.0,0.0,-0.5609709,0,0,0,0,0
48414897,0.057711843,-0.010045994,-1.5748291,0.0,0.70547956,0.016802497,-0.02398536,-0.70812494,0.0,0.0,-0.5609188,0,0,0,0,0
48514234,0.054950595,-0.009951065,-1.5748291,0.0,0.7055013,0.015862104,-0.022974206,-0.7081586,0.0,0.0,-0.5594597,0,0,0,0,0
48608561,0.057764344,-0.01060215,-1.5748291,0.0,0.7054838,0.016624046,-0.02420007,-0.70811766,0.0,0.0,-0.56123394,0,0,0,0,0
48707877,0.056412768,-0.007842966,-1.5748291,0.0,0.7054718,0.017124493,-0.022748498,-0.7081657,0.0,0.0,-0.5625473,0,0,0,0,0
48817301,0.052222256,-0.0059351604,-1.5748291,0.0,0.70549077,0.016322011,-0.020591807,-0.7082319,0.0,0.0,-0.5648371,0,0,0,0,0
48916463,0.05618147,-0.0054362114,-1.5748291,0.0,0.7054526,0.017895276,-0.021817822,-0.70819515,0.0,0.0,-0.5644824,0,0,0,0,0
49015759,0.055803947,-0.00668215,-1.5748291,0.0,0.705467,0.017320856,-0.02212355,-0.70818555,0.0,0.0,-0.56320983,0,0,0,0,0
49110112,0.058830366,-0.0017379943,-1.5748291,0.0,0.7053921,0.020139247,-0.02145153,-0.7082063,0.0,0.0,-0.5642379,0,0,0,0,0
49209429,0.059539653,-0.0072605056,-1.5748291,0.0,0.7054388,0.018433714,-0.023650248,-0.70813626,0.0,0.0,-0.56419146,0,0,0,0,0
49308810,0.05954438,-0.005039927,-1.5748291,0.0,0.70541775,0.019221775,-0.022868838,-0.70816195,0.0,0.0,-0.565266,0,0,0,0,0
49408059,0.059297215,-0.0025383746,-1.5748291,0.0,0.70539546,0.02002047,-0.021899113,-0.70819265,0.0,0.0,-0.5652915,0,0,0,0,0
49517308,0.058981005,-0.0030228035,-1.5748291,0.0,0.70540345,0.019737396,-0.021957988,-0.7081908,0.0,0.0,-0.5648534,0,0,0,0,0
49616765,0.06032749,-0.001533937,-1.5748291,0.0,0.7053747,0.02073953,-0.021909693,-0.70819235,0.0,0.0,-0.5643378,0,0,0,0,0
49710975,0.057555612,-0.0013004267,-1.5748291,0.0,0.70540047,0.019844597,-0.020845806,-0.7082244,0.0,0.0,-0.56494606,0,0,0,0,0
49810334,0.060103994,-0.0007219003,-1.5748291,0.0,0.7053685,0.020948255,-0.021544168,-0.7082035,0.0,0.0,-0.56577826,0,0,0,0,0
49909610,0.059926752,-0.001494971,-1.5748291,0.0,0.7053785,0.02061199,-0.021754049,-0.70819706,0.0,0.0,-0.5655333,0,0,0,0,0
50008924,0.06562346,-0.00660298,-1.5748291,0.0,0.7053726,0.020812342,-0.02557237,-0.70806956,0.0,0.0,-0.5652939,0,0,0,0,0
50108241,0.06569281,-0.005015981,-1.5748291,0.0,0.70535505,0.021398768,-0.025037326,-0.7080885,0.0,0.0,-0.5663864,0,0,0,0,0
50207558,0.06897151,-0.006389321,-1.5748291,0.0,0.7053344,0.022068774,-0.026682325,-0.7080285,0.0,0.0,-0.56839406,0,0,0,0,0
50316806,0.07134955,-0.007941794,-1.5748291,0.0,0.70532537,0.022357715,-0.028071519,-0.70797473,0.0,0.0,-0.5678617,0,0,0,0,0
50416227,0.07222998,-0.010612103,-1.5748291,0.0,0.7053452,0.021722678,-0.029324587,-0.70792395,0.0,0.0,-0.5680064,0,0,0,0,0
50515439,0.0747946,-0.011341732,-1.5748291,0.0,0.705325,0.022368781,-0.030489545,-0.7078748,0.0,0.0,-0.5691469,0,0,0,0,0
50614757,0.07365868,-0.009890305,-1.5748291,0.0,0.7053214,0.02248212,-0.029575832,-0.7079135,0.0,0.0,-0.5706161,0,0,0,0,0
50719038,0.07349474,-0.010698313,-1.5748291,0.0,0.7053323,0.022138195,-0.02980265,-0.707904,0.0,0.0,-0.5692443,0,0,0,0,0
50808423,0.0750933,-0.008040687,-1.5748291,0.0,0.70528346,0.023642942,-0.029431572,-0.7079195,0.0,0.0,-0.5682396,0,0,0,0,0
50907740,0.07386224,-0.007315092,-1.5748291,0.0,0.70528936,0.023465727,-0.028740015,-0.70794797,0.0,0.0,-0.56806856,0,0,0,0,0
51016988,0.056144603,-0.049222477,-1.5748291,0.0,0.7056773,0.0023722502,-0.037240516,-0.70755005,0.0,0.0,-0.56811476,0,0,0,0,0
51116305,0.053378936,-0.13250823,-1.5748291,0.0,0.7051323,-0.028101396,-0.06556993,-0.7054781,0.0,0.0,-0.57335275,0,0,0,0,0
51215685,0.054834113,-0.19506656,-1.5748291,0.0,0.7039532,-0.049716637,-0.08802343,-0.70301485,0.0,0.0,-0.5781212,0,0,0,0,0
51314942,0.0695119,-0.18638718,-1.5748291,0.0,0.70448416,-0.04147999,-0.090143874,-0.70274854,0.0,0.0,-0.57286733,0,0,0,0,0
51414254,0.07337268,-0.15347259,-1.5748291,0.0,0.7051217,-0.028473342,-0.0799728,-0.7039865,0.0,0.0,-0.5681277,0,0,0,0,0
51513571,0.07135835,-0.15322952,-1.5748291,0.0,0.7050961,-0.029097453,-0.07917852,-0.70407635,0.0,0.0,-0.56767404,0,0,0,0,0
51612888,0.075461686,-0.092870906,-1.5748291,0.0,0.7056578,-0.0062748604,-0.05943178,-0.7060279,0.0,0.0,-0.5670129,0,0,0,0,0
51712210,0.07230667,-0.025210522,-1.5748291,0.0,0.70548517,0.016579937,-0.03449738,-0.7076904,0.0,0.0,-0.56583166,0,0,0,0,0
51811524,0.07076072,-0.048676226,-1.5748291,0.0,0.70563895,0.0077227764,-0.042217903,-0.7072706,0.0,0.0,-0.57054675,0,0,0,0,0
51910878,0.07588736,-0.050110243,-1.5748291,0.0,0.7056236,0.009023553,-0.044535708,-0.7071284,0.0,0.0,-0.5729129,0,0,0,0,0
52010220,0.06646464,-0.07558441,-1.5748291,0.0,0.7056758,-0.0033254887,-0.05017311,-0.7067484,0.0,0.0,-0.57448,0,0,0,0,0
52114439,0.0668046,0.0046732873,-1.5748291,0.0,0.7052287,0.025221528,-0.0220141,-0.7081891,0.0,0.0,-0.5717938,0,0,0,0,0
52213753,0.06503326,0.004550619,-1.5748291,0.0,0.7052523,0.024553489,-0.021430137,-0.70820695,0.0,0.0,-0.56936777,0,0,0,0,0
52313233,0.06130339,-0.062131595,-1.5748291,0.0,0.7056822,-0.00038075517,-0.043612476,-0.7071849,0.0,0.0,-0.5743914,0,0,0,0,0
52407421,0.06622037,-0.02952548,-1.5748291,0.0,0.7055622,0.012904617,-0.03386443,-0.70772076,0.0,0.0,-0.57393855,0,0,0,0,0
52516669,0.06594535,0.011993024,-1.5748291,0.0,0.7051432,0.027509887,-0.019128222,-0.7082728,0.0,0.0,-0.5703453,0,0,0,0,0
52611022,0.06465039,-0.031454563,-1.5748291,0.0,0.7055838,0.011667447,-0.033988755,-0.7077148,0.0,0.0,-0.5725802,0,0,0,0,0
52710336,0.064365655,0.03720867,-1.5748291,0.0,0.70476794,0.035877082,-0.0096735135,-0.70846415,0.0,0.0,-0.5732203,0,0,0,0,0
52809665,0.06911478,0.088283926,-1.5748291,0.0,0.703491,0.05560498,0.0066651036,-0.7084943,0.0,0.0,-0.5726856,0,0,0,0,0
52908972,0.06340251,0.02150945,-1.5748291,0.0,0.70504266,0.029981973,-0.01487084,-0.7083747,0.0,0.0,-0.57076305,0,0,0,0,0
53008286,0.06636325,-0.06863948,-1.5748291,0.0,0.70568234,-0.00090093893,-0.047692712,-0.7069208,0.0,0.0,-0.54643613,0,0,0,0,0
53107709,0.062331844,-0.16192171,-1.5748291,0.0,0.70481205,-0.03535525,-0.07904844,-0.70408905,0.0,0.0,-0.5348305,0,0,0,0,0
53216851,0.062606044,-0.08180107,-1.5748291,0.0,0.7056507,-0.0068892054,-0.05099749,-0.7066887,0.0,0.0,-0.5622021,0,0,0,0,0
53316168,0.062024556,-0.10691156,-1.5748291,0.0,0.70550656,-0.015988877,-0.059624813,-0.7060097,0.0,0.0,-0.57382405,0,0,0,0,0
53415485,0.065250315,-0.015646765,-1.5748291,0.0,0.70546323,0.017478013,-0.028628942,-0.7079523,0.0,0.0,-0.571185,0,0,0,0,0
53514801,0.06429876,0.06707318,-1.5748291,0.0,0.7041546,0.046415485,0.00088731584,-0.7085274,0.0,0.0,-0.53936976,0,0,0,0,0
53614118,0.060944237,0.12972543,-1.5748291,0.0,0.70246947,0.06735873,0.024177257,-0.7081065,0.0,0.0,-0.5705836,0,0,0,0,0
53708469,0.061912023,0.07159412,-1.5748291,0.0,0.7041047,0.047173306,0.0033280135,-0.70851964,0.0,0.0,-0.5690698,0,0,0,0,0
53807786,0.061780225,0.0011761907,-1.5748291,0.0,0.7053299,0.022211535,-0.021468313,-0.7082059,0.0,0.0,-0.5686932,0,0,0,0,0
53917185,0.06382927,-0.059959624,-1.5748291,0.0,0.70568097,0.001279932,-0.04374072,-0.70717716,0.0,0.0,-0.5703819,0,0,0,0,0
54016352,0.061469533,-0.13511424,-1.5748291,0.0,0.7052071,-0.026171315,-0.06933836,-0.70511705,0.0,0.0,-0.5728861,0,0,0,0,0
54115667,0.06295427,-0.12421374,-1.5748291,0.0,0.7053541,-0.021788303,-0.06603354,-0.7054363,0.0,0.0,-0.5730603,0,0,0,0,0
54214987,0.060418844,-0.05127337,-1.5748291,0.0,0.7056744,0.0031538124,-0.039475076,-0.7074288,0.0,0.0,-0.5663524,0,0,0,0,0
54314300,0.060047656,-0.08583155,-1.5748291,0.0,0.7056246,-0.009219619,-0.05151188,-0.7066509,0.0,0.0,-0.56326634,0,0,0,0,0
54413617,0.060078677,-0.1613927,-1.5748291,0.0,0.70478123,-0.035962086,-0.078069665,-0.70419836,0.0,0.0,-0.5761741,0,0,0,0,0
54512936,0.056626476,-0.21750209,-1.5748291,0.0,0.7034066,-0.057011504,-0.09650115,-0.70189494,0.0,0.0,-0.58364576,0,0,0,0,0
54612252,0.05844377,-0.18306191,-1.5748291,0.0,0.70431775,-0.044202324,-0.08508884,-0.70337945,0.0,0.0,-0.57570916,0,0,0,0,0
54711690,0.061401524,-0.1506319,-1.5748291,0.0,0.70498395,-0.031688053,-0.07476105,-0.7045597,0.0,0.0,-0.5695111,0,0,0,0,0
54815849,0.059121445,-0.116089664,-1.5748291,0.0,0.7053982,-0.020263288,-0.061826542,-0.7058189,0.0,0.0,-0.57079786,0,0,0,0,0
54915167,0.06621953,-0.08103924,-1.5748291,0.0,0.70566404,-0.0053443853,-0.052006137,-0.70661527,0.0,0.0,-0.5715798,0,0,0,0,0
55019451,0.06341017,-0.011150924,-1.5748291,0.0,0.70543915,0.01842115,-0.026392424,-0.70803934,0.0,0.0,-0.5693206,0,0,0,0,0
55108834,0.061606415,-0.023341285,-1.5748291,0.0,0.7055514,0.013467372,-0.030051734,-0.7078932,0.0,0.0,-0.57046443,0,0,0,0,0
55208176,0.060921814,0.03360999,-1.5748291,0.0,0.70488995,0.03339006,-0.009723239,-0.70846355,0.0,0.0,-0.56909835,0,0,0,0,0
55307467,0.060744822,-0.02005064,-1.5748291,0.0,0.70553434,0.01432896,-0.02858669,-0.707954,0.0,0.0,-0.56857973,0,0,0,0,0
55416715,0.06452652,-0.06988533,-1.5748291,0.0,0.7056802,-0.0019903702,-0.04748209,-0.7069349,0.0,0.0,-0.57054335,0,0,0,0,0
55516083,0.06318536,-0.06251012,-1.5748291,0.0,0.70568234,0.00014918164,-0.04441121,-0.70713514,0.0,0.0,-0.5723495,0,0,0,0,0
55610383,0.06280822,0.004273339,-1.5748291,0.0,0.70528245,0.023670698,-0.020740027,-0.7082276,0.0,0.0,-0.56641465,0,0,0,0,0
55709701,0.064189315,0.032718223,-1.5748291,0.0,0.70484984,0.03422608,-0.011195286,-0.708442,0.0,0.0,-0.56453174,0,0,0,0,0
55809173,0.06343324,0.048180968,-1.5748291,0.0,0.70457876,0.039430153,-0.0054719574,-0.70850843,0.0,0.0,-0.5645399,0,0,0,0,0
55908392,0.062837645,-0.022496605,-1.5748291,0.0,0.705537,0.014200899,-0.030189753,-0.70788735,0.0,0.0,-0.56501454,0,0,0,0,0
56007650,0.070792474,-0.021342805,-1.5748291,0.0,0.70546496,0.017415624,-0.032598402,-0.70778054,0.0,0.0,-0.5649234,0,0,0,0,0
56116898,0.06654159,-0.04889904,-1.5748291,0.0,0.70565444,0.006155239,-0.040804263,-0.7073535,0.0,0.0,-0.56394607,0,0,0,0,0
56216215,0.06922045,-0.110486165,-1.5748291,0.0,0.7055348,-0.01471651,-0.06342088,-0.7056782,0.0,0.0,-0.566955,0,0,0,0,0
56315601,0.065450415,-0.07456528,-1.5748291,0.0,0.7056757,-0.003322311,-0.049455993,-0.7067991,0.0,0.0,-0.5668312,0,0,0,0,0
56414848,0.065508045,-0.061629158,-1.5748291,0.0,0.7056811,0.0012808121,-0.04492219,-0.70710295,0.0,0.0,-0.5620896,0,0,0,0,0
56514165,0.06706739,-0.12290478,-1.5748291,0.0,0.7054104,-0.01987412,-0.06702442,-0.70534307,0.0,0.0,-0.568021,0,0,0,0,0
56613629,0.06892566,-0.1022732,-1.5748291,0.0,0.7055865,-0.011911463,-0.060430147,-0.7059419,0.0,0.0,-0.566287,0,0,0,0,0
56712798,0.07130256,-0.13093641,-1.5748291,0.0,0.7053725,-0.021224517,-0.071337834,-0.70491844,0.0,0.0,-0.5671221,0,0,0,0,0
56812117,0.07207449,-0.13338272,-1.5748291,0.0,0.70535487,-0.021818507,-0.07246855,-0.70480263,0.0,0.0,-0.56897724,0,0,0,0,0
56916398,0.06834682,-0.06475856,-1.5748291,0.0,0.70568156,0.0011738217,-0.04702759,-0.7069658,0.0,0.0,-0.5633017,0,0,0,0,0
57015714,0.07098594,-0.06796762,-1.5748291,0.0,0.70568216,0.00096815394,-0.049090043,-0.70682526,0.0,0.0,-0.5636744,0,0,0,0,0
57115032,0.073144585,0.021239199,-1.5748291,0.0,0.7048928,0.03332025,-0.018416487,-0.70829135,0.0,0.0,-0.565899,0,0,0,0,0
57209382,0.07465228,-0.002428089,-1.5748291,0.0,0.70521957,0.025474569,-0.027296698,-0.7080052,0.0,0.0,-0.56370664,0,0,0,0,0
57308698,0.07406309,-0.06531979,-1.5748291,0.0,0.70567626,0.0029919227,-0.04924554,-0.70681465,0.0,0.0,-0.5663978,0,0,0,0,0
57408161,0.07345705,-0.17025122,-1.5748291,0.0,0.7048622,-0.03438179,-0.08588165,-0.7032863,0.0,0.0,-0.5733824,0,0,0,0,0
57517309,0.07204691,-0.10065146,-1.5748291,0.0,0.70561254,-0.010235834,-0.060961727,-0.7058965,0.0,0.0,-0.5673459,0,0,0,0,0
57616584,0.07034699,-0.048948966,-1.5748291,0.0,0.7056416,0.007480188,-0.042167656,-0.7072735,0.0,0.0,-0.56119275,0,0,0,0,0
57710936,0.07191458,-0.1134003,-1.5748291,0.0,0.70553356,-0.014798256,-0.06539529,-0.7054976,0.0,0.0,-0.56451946,0,0,0,0,0
57810248,0.07565418,-0.061873466,-1.5748291,0.0,0.7056661,0.004774203,-0.04859478,-0.70686,0.0,0.0,-0.5651551,0,0,0,0,0
57909614,0.07621674,0.004769026,-1.5748291,0.0,0.70510083,0.028573982,-0.025312876,-0.70807874,0.0,0.0,-0.55828106,0,0,0,0,0
58008881,0.075108,0.098269396,-1.5748291,0.0,0.7030244,0.061237812,0.008065144,-0.7084784,0.0,0.0,-0.56173164,0,0,0,0,0
58108202,0.07893439,0.089492545,-1.5748291,0.0,0.70317364,0.05948496,0.003612923,-0.7085163,0.0,0.0,-0.55942947,0,0,0,0,0
58217556,0.076687954,0.0071487185,-1.5748291,0.0,0.70505923,0.029582435,-0.024640575,-0.7081026,0.0,0.0,-0.5589034,0,0,0,0,0
58311797,0.07487388,-0.034899756,-1.5748291,0.0,0.7055405,0.014053802,-0.038819775,-0.70746607,0.0,0.0,-0.57741433,0,0,0,0,0
58411114,0.077746786,-0.0441105,-1.5748291,0.0,0.7055822,0.01180482,-0.043080296,-0.70721895,0.0,0.0,-0.5619145,0,0,0,0,0
58510430,0.073365,0.030145772,-1.5748291,0.0,0.7047331,0.036549367,-0.015352847,-0.70836407,0.0,0.0,-0.55623364,0,0,0,0,0
58609763,0.07663986,0.021161217,-1.5748291,0.0,0.7048348,0.034524508,-0.019681802,-0.70825744,0.0,0.0,-0.55468667,0,0,0,0,0
58709065,0.07363162,0.011329081,-1.5748291,0.0,0.7050423,0.02998464,-0.022084218,-0.7081868,0.0,0.0,-0.5570008,0,0,0,0,0
58808381,0.07511363,-0.08932835,-1.5748291,0.0,0.7056665,-0.00514271,-0.058063284,-0.70614237,0.0,0.0,-0.56081825,0,0,0,0,0
58907697,0.0747537,-0.16444428,-1.5748291,0.0,0.7049788,-0.031869836,-0.0843037,-0.7034785,0.0,0.0,-0.56876004,0,0,0,0,0
59017060,0.07534145,-0.18154831,-1.5748291,0.0,0.7046945,-0.03771471,-0.09049885,-0.70270425,0.0,0.0,-0.5685591,0,0,0,0,0
59116263,0.076816544,-0.11686242,-1.5748291,0.0,0.7055445,-0.014295239,-0.06834019,-0.7052179,0.0,0.0,-0.5589237,0,0,0,0,0
59215580,0.07936313,-0.020060454,-1.5748291,0.0,0.7053705,0.020892698,-0.03517927,-0.707657,0.0,0.0,-0.55046785,0,0,0,0,0
59314923,0.07561582,-0.030288119,-1.5748291,0.0,0.70549995,0.015948894,-0.03745744,-0.7075396,0.0,0.0,-0.5538552,0,0,0,0,0
59414213,0.07632246,-0.09868172,-1.5748291,0.0,0.7056408,-0.008029615,-0.061778333,-0.70582575,0.0,0.0,-0.5626239,0,0,0,0,0
59513532,0.08148187,-0.17721549,-1.5748291,0.0,0.70488155,-0.034017857,-0.09114008,-0.70262253,0.0,0.0,-0.5680003,0,0,0,0,0
59612846,0.07782353,-0.14231406,-1.5748291,0.0,0.7053206,-0.02295347,-0.077627204,-0.70425135,0.0,0.0,-0.56261474,0,0,0,0,0
59712163,0.079605296,-0.06746395,-1.5748291,0.0,0.70567036,0.0041878256,-0.05195853,-0.70662016,0.0,0.0,-0.5527781,0,0,0,0,0
59811490,0.07462127,0.025057524,-1.5748291,0.0,0.704802,0.035191786,-0.017592631,-0.7083123,0.0,0.0,-0.5513437,0,0,0,0,0
59915765,0.078405656,0.09289683,-1.5748291,0.0,0.70308745,0.06050076,0.005001372,-0.70850736,0.0,0.0,-0.55525,0,0,0,0,0
60015093,0.07487275,0.0153736165,-1.5748291,0.0,0.70496047,0.031853605,-0.021097288,-0.7082168,0.0,0.0,-0.55503434,0,0,0,0,0
60114570,0.07624886,-0.0704177,-1.5748291,0.0,0.7056804,0.0019571541,-0.05181204,-0.7066307,0.0,0.0,-0.5592203,0,0,0,0,0
60213714,0.07466562,-0.010399077,-1.5748291,0.0,0.7053158,0.022657074,-0.030111592,-0.7078909,0.0,0.0,-0.55898386,0,0,0,0,0
60313031,0.077902295,0.010047201,-1.5748291,0.0,0.7049968,0.031036392,-0.024048423,-0.70812273,0.0,0.0,-0.5548297,0,0,0,0,0
60407380,0.072262034,0.072892584,-1.5748291,0.0,0.703818,0.051275205,0.00011954181,-0.7085274,0.0,0.0,-0.55609834,0,0,0,0,0
60516629,0.071280815,-0.007890278,-1.5748291,0.0,0.70532554,0.022351712,-0.02802902,-0.70797646,0.0,0.0,-0.5543388,0,0,0,0,0
60615958,0.06701137,0.059701055,-1.5748291,0.0,0.7042609,0.04476434,-0.0026748492,-0.7085236,0.0,0.0,-0.554452,0,0,0,0,0
60715300,0.07454088,0.037567325,-1.5748291,0.0,0.7045692,0.039589047,-0.013151236,-0.7084081,0.0,0.0,-0.55108243,0,0,0,0,0
60814579,0.08079763,0.04887712,-1.5591066,0.06327095,0.70974135,0.045880005,-0.011017147,-0.7028804,0.0,0.0,-0.55563766,0,0,0,0,0
60914029,0.07897639,0.018115286,-1.5578345,0.19783361,0.71083945,0.034452323,-0.021291494,-0.70218736,0.0,0.0,-0.55547464,0,0,0,0,0
61008249,0.086425275,0.09051924,-1.5489025,0.2099095,0.7120395,0.06245817,0.0021312686,-0.69935274,0.0,0.0,-0.55890554,0,0,0,0,0
61107563,0.08793986,0.0066916635,-1.537511,0.0693479,0.71797544,0.033918094,-0.02815711,-0.6946711,0.0,0.0,-0.5563127,0,0,0,0,0
61216812,0.08804928,-0.08404051,-1.5300279,0.020821868,0.72131795,0.0026556405,-0.06072637,-0.6899317,0.0,0.0,-0.561521,0,0,0,0,0
61316129,0.08497758,-0.17014207,-1.5274806,0.0068516247,0.72148895,-0.02814598,-0.09058478,-0.6858979,0.0,0.0,-0.5671897,0,0,0,0,0
61415512,0.07922038,-0.2110243,-1.5272044,0.0022628321,0.7206531,-0.04432631,-0.10324775,-0.6841302,0.0,0.0,-0.56703126,0,0,0,0,0
61509797,0.06767779,-0.21610184,-1.5276387,0.0007902807,0.72010034,-0.050257858,-0.101102896,-0.68462247,0.0,0.0,-0.56496114,0,0,0,0,0
61609113,0.07796419,-0.21460918,-1.5276387,0.0002611196,0.7203872,-0.046038497,-0.10408937,-0.68416965,0.0,0.0,-0.56014186,0,0,0,0,0
61708499,0.072688796,-0.19078805,-1.5276387,8.609282e-05,0.72083515,-0.039716244,-0.09376271,-0.6855858,0.0,0.0,-0.5630054,0,0,0,0,0
61807753,0.06825767,-0.12331444,-1.5276387,2.8333228e-05,0.7218617,-0.01799931,-0.06803166,-0.6884499,0.0,0.0,-0.55724955,0,0,0,0,0
61916995,0.07499607,-0.02172003,-1.5276387,8.511849e-06,0.72193086,0.01956684,-0.033766646,-0.6908637,0.0,0.0,-0.5549755,0,0,0,0,0
62016312,0.07760968,0.0662317,-1.5276387,2.808984e-06,0.72037166,0.050886735,-0.0029253883,-0.69171286,0.0,0.0,-0.5594351,0,0,0,0,0
62115629,0.084377296,0.050725956,-1.5276387,9.274397e-07,0.720585,0.047975484,-0.010864341,-0.6916195,0.0,0.0,-0.5607145,0,0,0,0,0
62214946,0.07113446,0.08293202,-1.5276387,3.0561566e-07,0.7201028,0.0543142,0.0053442293,-0.6917177,0.0,0.0,-0.56059384,0,0,0,0,0
62314313,0.07751637,0.0052656084,-1.5276387,1.0105669e-07,0.721584,0.029803738,-0.024901658,-0.6912367,0.0,0.0,-0.55693936,0,0,0,0,0
62413579,0.07414596,-0.08111242,-1.5276387,3.3293773e-08,0.72214925,-0.0012792102,-0.054877385,-0.6895558,0.0,0.0,-0.5598386,0,0,0,0,0
62512965,0.0665846,-0.17393194,-1.5276387,1.0996864e-08,0.72107124,-0.036095563,-0.0856294,-0.68660104,0.0,0.0,-0.56447375,0,0,0,0,0
62617178,0.067195,-0.17067611,-1.5276387,3.4593914e-09,0.72114563,-0.034750905,-0.08467155,-0.6867111,0.0,0.0,-0.56223077,0,0,0,0,0
62716495,0.06257418,-0.10183628,-1.5276387,1.1459867e-09,0.7220118,-0.012624307,-0.058348414,-0.6893004,0.0,0.0,-0.55490375,0,0,0,0,0
62815812,0.06732232,-0.013345856,-1.5276387,3.769199e-10,0.72192967,0.019692032,-0.028094422,-0.69111544,0.0,0.0,-0.5481692,0,0,0,0,0
62915133,0.06948813,-0.018861663,-1.5276387,1.2451389e-10,0.72195816,0.018566852,-0.03083277,-0.691,0.0,0.0,-0.5505712,0,0,0,0,0
63014446,0.06708221,-0.089174055,-1.5276387,4.1018088e-11,0.72210985,-0.0066178534,-0.05534443,-0.6895292,0.0,0.0,-0.5559311,0,0,0,0,0
63108797,0.058938548,-0.13619266,-1.5276387,1.4284877e-11,0.72159964,-0.025814075,-0.06945307,-0.68833417,0.0,0.0,-0.56241345,0,0,0,0,0
63208114,0.060573652,-0.13952376,-1.5276387,4.7144836e-12,0.72157246,-0.026375396,-0.07121284,-0.68816155,0.0,0.0,-0.5591691,0,0,0,0,0
63307540,0.058692165,-0.0881112,-1.5276387,1.5500846e-12,0.72208196,-0.009279491,-0.05206858,-0.68978286,0.0,0.0,-0.5550456,0,0,0,0,0
63416679,0.061309442,-0.028791875,-1.5276387,4.661748e-13,0.7220906,0.012180634,-0.03158938,-0.6909695,0.0,0.0,-0.54831517,0,0,0,0,0
63515996,0.061755218,-0.09226459,-1.5276387,1.5379625e-13,0.722072,-0.009609955,-0.05462049,-0.6895914,0.0,0.0,-0.55388486,0,0,0,0,0
63615504,0.053246252,-0.10376203,-1.5276387,5.0690402e-14,0.721927,-0.016657438,-0.05582623,-0.6895124,0.0,0.0,-0.55759317,0,0,0,0,0
63709664,0.064769596,-0.044189114,-1.5276387,1.7615163e-14,0.7221395,0.008105279,-0.038337704,-0.6906368,0.0,0.0,-0.5530334,0,0,0,0,0
63808980,0.059527896,0.032078587,-1.5276387,5.8081252e-15,0.72145665,0.032578316,-0.009003639,-0.6916342,0.0,0.0,-0.55243003,0,0,0,0,0
63908297,0.061537094,-0.014261601,-1.5276387,1.9183365e-15,0.72199106,0.01728707,-0.026425613,-0.6911815,0.0,0.0,-0.5536016,0,0,0,0,0
64007668,0.059968382,-0.08453418,-1.5276387,6.3099677e-16,0.7221064,-0.0075816754,-0.051220447,-0.6898416,0.0,0.0,-0.55966353,0,0,0,0,0
64116876,0.057727918,-0.070039816,-1.5276387,1.8977568e-16,0.72215503,-0.0033778355,-0.045225404,-0.69024307,0.0,0.0,-0.5595936,0,0,0,0,0
64216179,0.062194843,-0.14484881,-1.5276387,6.2666575e-17,0.7215142,-0.027630819,-0.07368365,-0.6879132,0.0,0.0,-0.56397676,0,0,0,0,0
64315498,0.07237151,-0.14702776,-1.5276387,2.0635463e-17,0.7216154,-0.024712326,-0.07796524,-0.6874459,0.0,0.0,-0.565615,0,0,0,0,0
64414955,0.05938845,-0.088272825,-1.5276387,6.819261e-18,0.7220842,-0.0090839965,-0.052366924,-0.68976057,0.0,0.0,-0.55446064,0,0,0,0,0
64514129,0.06328624,0.006994784,-1.5276387,2.2484045e-18,0.72175705,0.025266565,-0.01935873,-0.6914142,0.0,0.0,-0.5541296,0,0,0,0,0
64613449,0.07055585,-0.018893063,-1.5276387,7.4249267e-19,0.7219484,0.01894142,-0.03121299,-0.690983,0.0,0.0,-0.556041,0,0,0,0,0
64707794,0.06341987,-0.026465997,-1.5276387,2.5735763e-19,0.7220634,0.013746861,-0.031479467,-0.6909736,0.0,0.0,-0.5611284,0,0,0,0,0
64817046,0.06935076,-0.04313883,-1.5276387,7.7341594e-20,0.7221147,0.010122587,-0.039540898,-0.6905682,0.0,0.0,-0.55825686,0,0,0,0,0
64916388,0.06412884,-0.033734072,-1.5276387,2.5456593e-20,0.7220996,0.0114895245,-0.034346044,-0.6908405,0.0,0.0,-0.5592812,0,0,0,0,0
65010714,0.06826901,0.017753504,-1.5276387,8.845812e-21,0.7215408,0.030782424,-0.017197836,-0.6914735,0.0,0.0,-0.55522543,0,0,0,0,0
65110031,0.0648771,0.054200623,-1.5276387,2.9199968e-21,0.72094667,0.042147115,-0.002865942,-0.6917018,0.0,0.0,-0.5521806,0,0,0,0,0
65209441,0.06783353,0.088779226,-1.5276387,9.611439e-22,0.72003233,0.055141736,0.008597087,-0.6916927,0.0,0.0,-0.5554311,0,0,0,0,0
65308666,0.071640104,0.0042553144,-1.5276387,3.182176e-22,0.7216819,0.02733436,-0.023235226,-0.6912946,0.0,0.0,-0.55539024,0,0,0,0,0
65408004,0.06931465,-0.07544707,-1.5276387,1.04852186e-22,0.7221562,-0.0010642534,-0.051171195,-0.6898338,0.0,0.0,-0.5592223,0,0,0,0,0
65517237,0.06628655,-0.17926049,-1.5276387,3.150997e-23,0.7209571,-0.03804329,-0.08743728,-0.68638784,0.0,0.0,-0.5695044,0,0,0,0,0
65616546,0.065510996,-0.11233315,-1.5276387,1.0376366e-23,0.7219455,-0.015193837,-0.0631371,-0.6888959,0.0,0.0,-0.56156266,0,0,0,0,0
65715870,0.07126997,-0.1326826,-1.5276387,3.428465e-24,0.721787,-0.020150987,-0.07243488,-0.6880194,0.0,0.0,-0.5573969,0,0,0,0,0
65815180,0.069171354,-0.1928986,-1.5276387,1.1302452e-24,0.72071636,-0.041712586,-0.09331256,-0.68565345,0.0,0.0,-0.5679739,0,0,0,0,0
65914497,0.07038966,-0.22156988,-1.5276387,3.7358776e-25,0.7200185,-0.051167607,-0.10398532,-0.6842093,0.0,0.0,-0.57108146,0,0,0,0,0
66013894,0.07289212,-0.24455431,-1.5276387,1.2298414e-25,0.71940535,-0.058191605,-0.11304552,-0.68285465,0.0,0.0,-0.5699811,0,0,0,0,0
66108166,0.06398858,-0.17637455,-1.5276387,4.266624e-26,0.7209736,-0.037875045,-0.08561394,-0.6866096,0.0,0.0,-0.55662835,0,0,0,0,0
66207482,0.062348615,-0.09209413,-1.5276387,1.4110452e-26,0.7220759,-0.009336765,-0.054763712,-0.6895797,0.0,0.0,-0.54948187,0,0,0,0,0
66321696,0.06540298,0.011578122,-1.5276387,4.032051e-27,0.7216703,0.02761444,-0.018436117,-0.69144017,0.0,0.0,-0.54888463,0,0,0,0,0
66411081,0.06967528,0.088737845,-1.5276387,1.4778278e-27,0.71998245,0.055790503,0.0079451855,-0.6917005,0.0,0.0,-0.5559895,0,0,0,0,0
66510398,0.07137619,0.05738265,-1.5276387,4.867338e-28,0.72073466,0.04558785,-0.003964693,-0.6916991,0.0,0.0,-0.5553428,0,0,0,0,0
66609715,0.06819016,0.008121049,-1.5276387,1.6102754e-28,0.7216781,0.027425436,-0.020647487,-0.6913771,0.0,0.0,-0.5543805,0,0,0,0,0
66709032,0.06805893,0.064435996,-1.5276387,5.2956513e-29,0.72064877,0.04682651,-0.00027057962,-0.69171715,0.0,0.0,-0.5566161,0,0,0,0,0
66808430,0.07088171,-0.013152464,-1.5276387,1.7493703e-29,0.7218916,0.021043668,-0.029254576,-0.6910672,0.0,0.0,-0.5569081,0,0,0,0,0
66907666,0.061577935,-0.09275621,-1.5276387,5.7676415e-30,0.7220682,-0.009843976,-0.05473637,-0.6895829,0.0,0.0,-0.5623991,0,0,0,0,0
67016930,0.0663658,-0.120896906,-1.5276387,1.72912e-30,0.7218699,-0.017846301,-0.06651123,-0.688594,0.0,0.0,-0.56604075,0,0,0,0,0
67116234,0.0647769,-0.15295891,-1.5276387,5.720722e-31,0.72142214,-0.029501943,-0.07748386,-0.68751436,0.0,0.0,-0.56600857,0,0,0,0,0
67215548,0.07031647,-0.061373454,-1.5276387,1.8870253e-31,0.7221594,0.004164978,-0.046446726,-0.69015294,0.0,0.0,-0.5568812,0,0,0,0,0
