timestamp,roll,pitch,yaw,thrust_body[0],thrust_body[1],thrust_body[2]
18521292,-0.6204865,-0.1423774,0.0017195396,0.0,0.0,-0.08
18526292,-0.6202805,-0.14472957,0.0027564638,0.0,0.0,-0.08
18541158,-0.62075627,-0.14360882,0.004812441,0.0,0.0,-0.08
18560962,-0.6205364,-0.14172333,0.006953839,0.0,0.0,-0.08
18580851,-0.62041384,-0.14089173,0.0042638243,0.0,0.0,-0.08
18600625,-0.62048054,-0.14152616,0.0056026974,0.0,0.0,-0.08
18620544,-0.62127,-0.14233692,0.008893547,0.0,0.0,-0.08
18640429,-0.6183969,-0.1415918,0.008393461,0.0,0.0,-0.08
18665242,-0.6225857,-0.1405692,0.007869075,0.0,0.0,-0.08
18680270,-0.6181574,-0.1405557,0.010288999,0.0,0.0,-0.08
18700037,-0.6250844,-0.14112484,0.01070393,0.0,0.0,-0.08
18724914,-0.6212562,-0.13926819,0.010965299,0.0,0.0,-0.08
18739855,-0.62165666,-0.14260972,0.011014619,0.0,0.0,-0.08
18759678,-0.6217688,-0.14099823,0.012428312,0.0,0.0,-0.08
18779461,-0.6217086,-0.14057037,0.013930802,0.0,0.0,-0.08
18804426,-0.62025976,-0.14000142,0.013847693,0.0,0.0,-0.08
18819269,-0.6223921,-0.1407358,0.013680161,0.0,0.0,-0.08
18839088,-0.6211954,-0.13958578,0.015268777,0.0,0.0,-0.08
18863862,-0.6195777,-0.13952956,0.015390029,0.0,0.0,-0.08
18878701,-0.62161976,-0.14418584,0.015167306,0.0,0.0,-0.08
18898563,-0.6220693,-0.1405272,0.015719019,0.0,0.0,-0.109514795
18923468,-0.6266283,-0.12066174,0.33960333,0.0,0.0,-0.19195266
18943482,-0.61938494,-0.1381054,0.0383097,0.0,0.0,-0.20721895
18958483,-0.62283707,-0.14715216,0.038717814,0.0,0.0,-0.20518343
18983172,-0.622054,-0.14648503,0.039161224,0.0,0.0,-0.20620118
19002947,-0.61788535,-0.137912,0.03871598,0.0,0.0,-0.20620118
19022827,-0.6199316,-0.13964526,0.039894376,0.0,0.0,-0.20620118
19042625,-0.6220831,-0.14895868,0.039513715,0.0,0.0,-0.20620118
19062576,-0.61523306,-0.14786035,0.037878577,0.0,0.0,-0.20620118
19082357,-0.61508554,-0.14106661,0.03857589,0.0,0.0,-0.20620118
19102201,-0.6138955,-0.14192933,0.039441675,0.0,0.0,-0.20620118
19122074,-0.60309976,-0.14627217,0.04000616,0.0,0.0,-0.20620118
19141892,-0.60246176,-0.15467304,0.039347228,0.0,0.0,-0.20620118
19161744,-0.6134061,-0.15513024,0.03934597,0.0,0.0,-0.20620118
19181639,-0.6121719,-0.15069968,0.03934621,0.0,0.0,-0.20620118
19201622,-0.60007036,-0.15216286,0.040688347,0.0,0.0,-0.20620118
19221599,-0.61168677,-0.14638153,0.041204147,0.0,0.0,-0.20620118
19241383,-0.610821,-0.15445623,0.036937255,0.0,0.0,-0.20620118
19261171,-0.60811025,-0.15167752,0.03718051,0.0,0.0,-0.20620118
19281039,-0.6128166,-0.1521081,0.03737816,0.0,0.0,-0.20620118
19300932,-0.6092584,-0.15116547,0.036538236,0.0,0.0,-0.20620118
19320707,-0.606428,-0.1488482,0.03822469,0.0,0.0,-0.20620118
19340654,-0.60451305,-0.15064381,0.039431043,0.0,0.0,-0.20620118
19360425,-0.595789,-0.15314251,0.040712386,0.0,0.0,-0.20620118
19380261,-0.5994761,-0.15082803,0.03974901,0.0,0.0,-0.20620118
19400122,-0.5926819,-0.15555622,0.038070682,0.0,0.0,-0.20620118
19420032,-0.59946054,-0.15157768,0.038618933,0.0,0.0,-0.20620118
19444912,-0.60011065,-0.15548344,0.03838126,0.0,0.0,-0.20620118
19459814,-0.60076255,-0.15057987,0.038036965,0.0,0.0,-0.20620118
19479759,-0.59695727,-0.15624207,0.037904195,0.0,0.0,-0.20620118
19504548,-0.594444,-0.15741618,0.03980932,0.0,0.0,-0.20620118
19519500,-0.59679765,-0.15698197,0.03969439,0.0,0.0,-0.20620118
19539311,-0.5921061,-0.15514585,0.042589076,0.0,0.0,-0.20620118
19564203,-0.60015106,-0.15120721,0.03875429,0.0,0.0,-0.20620118
19583868,-0.5966096,-0.15016778,0.0392993,0.0,0.0,-0.20620118
19598787,-0.6034678,-0.15117581,0.04051585,0.0,0.0,-0.20620118
19623577,-0.5883766,-0.15738155,0.040200762,0.0,0.0,-0.20620118
19643547,-0.59372354,-0.15838711,0.040220257,0.0,0.0,-0.20620118
19658426,-0.59682024,-0.1632243,0.040150743,0.0,0.0,-0.20620118
19683245,-0.59678674,-0.15942682,0.042529225,0.0,0.0,-0.20620118
19703093,-0.5969208,-0.15347256,0.04198993,0.0,0.0,-0.20620118
19723027,-0.60235155,-0.15267912,0.0427446,0.0,0.0,-0.20620118
19743011,-0.5980063,-0.15559708,0.04162378,0.0,0.0,-0.20620118
19762879,-0.59159625,-0.15710339,0.04225769,0.0,0.0,-0.20620118
19782625,-0.58832604,-0.16015975,0.041741997,0.0,0.0,-0.20620118
19802454,-0.5826177,-0.15591918,0.04170274,0.0,0.0,-0.20620118
19822335,-0.5866996,-0.16176452,0.04300127,0.0,0.0,-0.20620118
19842094,-0.58361125,-0.1613339,0.046216037,0.0,0.0,-0.20416568
19862008,-0.5920104,-0.16194956,0.044346444,0.0,0.0,-0.17159763
19881887,-0.58992046,-0.15864243,0.04472873,0.0,0.0,-0.10137278
19901752,-0.59894574,-0.16032742,0.04377579,0.0,0.0,-0.08
19921576,-0.59336156,-0.16150798,0.043972176,0.0,0.0,-0.08
19941423,-0.6020724,-0.15532126,0.04491312,0.0,0.0,-0.08
19961361,-0.5993933,-0.15211289,0.045639172,0.0,0.0,-0.08
19981263,-0.59735507,-0.15299703,0.045847256,0.0,0.0,-0.08
20001127,-0.60099727,-0.14838651,0.04844021,0.0,0.0,-0.08
20021058,-0.6086431,-0.15082945,0.047422543,0.0,0.0,-0.08
20040778,-0.6099981,-0.15285194,0.04650154,0.0,0.0,-0.08
20060625,-0.6007866,-0.15511839,0.046509366,0.0,0.0,-0.08
20080553,-0.59287626,-0.15372705,0.047233805,0.0,0.0,-0.08
20100444,-0.59508437,-0.15306407,0.049095504,0.0,0.0,-0.08
20120358,-0.60592616,-0.14867589,0.050212834,0.0,0.0,-0.08
20145108,-0.60554343,-0.1571433,0.051083285,0.0,0.0,-0.08
20160069,-0.6108488,-0.14729986,0.049532086,0.0,0.0,-0.08
20179885,-0.61336935,-0.14809051,0.04981134,0.0,0.0,-0.08
20204793,-0.5939123,-0.16031039,0.051403143,0.0,0.0,-0.08
20219638,-0.62422866,-0.1505479,0.049378887,0.0,0.0,-0.08
20239458,-0.6144373,-0.14834353,0.049171336,0.0,0.0,-0.08
20264213,-0.588519,-0.16340217,0.051433485,0.0,0.0,-0.08
20284114,-0.5910985,-0.16270173,0.051687937,0.0,0.0,-0.08
20299117,-0.6049395,-0.15207335,0.050834097,0.0,0.0,-0.08
20323893,-0.594192,-0.16129059,0.05349787,0.0,0.0,-0.08
20343719,-0.5943005,-0.16153337,0.052964546,0.0,0.0,-0.08
20358696,-0.6008589,-0.153881,0.05065939,0.0,0.0,-0.08
20383382,-0.59072936,-0.16028488,0.053219303,0.0,0.0,-0.08
20403310,-0.5945476,-0.15734828,0.05338607,0.0,0.0,-0.08
20418185,-0.59493786,-0.15024054,0.052540667,0.0,0.0,-0.08
20442970,-0.60964286,-0.15712425,0.054223202,0.0,0.0,-0.08
20462796,-0.61099297,-0.15704034,0.054075878,0.0,0.0,-0.08
20482718,-0.60546654,-0.15477787,0.054257356,0.0,0.0,-0.08
20502573,-0.60157007,-0.15262517,0.05502287,0.0,0.0,-0.08
20522529,-0.5973896,-0.15229464,0.05623207,0.0,0.0,-0.08
20542384,-0.5969457,-0.15469936,0.0558775,0.0,0.0,-0.08
20562406,-0.5997144,-0.15703227,0.054116838,0.0,0.0,-0.08
20582126,-0.60019964,-0.15760237,0.05375904,0.0,0.0,-0.08
20601961,-0.6020928,-0.1559026,0.055253755,0.0,0.0,-0.08
20621763,-0.60464543,-0.15478653,0.055452555,0.0,0.0,-0.08
20641691,-0.60492766,-0.15412223,0.055453263,0.0,0.0,-0.08
20661558,-0.59899145,-0.15354927,0.055588104,0.0,0.0,-0.08
20681367,-0.5918491,-0.15094845,0.05613015,0.0,0.0,-0.08
20701214,-0.58912766,-0.1483187,0.05728294,0.0,0.0,-0.08
20721062,-0.5920061,-0.15109073,0.05686521,0.0,0.0,-0.08
20740983,-0.59785616,-0.15561692,0.055776253,0.0,0.0,-0.08
20760785,-0.60016984,-0.1569314,0.054879252,0.0,0.0,-0.08
20780716,-0.6006886,-0.15359145,0.055119578,0.0,0.0,-0.08
20800578,-0.60430956,-0.15013479,0.056645345,0.0,0.0,-0.08
20820517,-0.60709316,-0.14734574,0.05748084,0.0,0.0,-0.08
20845216,-0.5917753,-0.15586875,0.05962961,0.0,0.0,-0.08
20860120,-0.6043624,-0.14175843,0.057607822,0.0,0.0,-0.08
20879973,-0.60289025,-0.14106195,0.058234602,0.0,0.0,-0.08
20904894,-0.5955821,-0.16102366,0.05834635,0.0,0.0,-0.08
20919815,-0.6146375,-0.14787184,0.05838824,0.0,0.0,-0.08
20939631,-0.6222571,-0.14811233,0.057009593,0.0,0.0,-0.08
20964477,-0.6011301,-0.15692608,0.058867432,0.0,0.0,-0.08
20984302,-0.59676206,-0.15426679,0.05952943,0.0,0.0,-0.08
20999202,-0.6271057,-0.14141889,0.059176523,0.0,0.0,-0.08
21024014,-0.59391177,-0.1515646,0.060422674,0.0,0.0,-0.08
21043847,-0.5972598,-0.15287896,0.060299773,0.0,0.0,-0.08
21058723,-0.62458473,-0.14296593,0.059285805,0.0,0.0,-0.08
21083693,-0.603475,-0.15790017,0.059098456,0.0,0.0,-0.08
21103557,-0.60613775,-0.15822968,0.059118282,0.0,0.0,-0.08
21118498,-0.6162587,-0.14373465,0.0613972,0.0,0.0,-0.08
21143279,-0.6080348,-0.15734072,0.060097963,0.0,0.0,-0.08
21163032,-0.61037004,-0.15764193,0.060368173,0.0,0.0,-0.08
21182945,-0.6155429,-0.15718462,0.059893545,0.0,0.0,-0.08
21202779,-0.62037086,-0.15477546,0.059925027,0.0,0.0,-0.08
21222691,-0.62168837,-0.15237589,0.060495533,0.0,0.0,-0.08
21242516,-0.61772037,-0.15007506,0.061310213,0.0,0.0,-0.08
21262390,-0.6131103,-0.14935744,0.061996408,0.0,0.0,-0.08
21282223,-0.6075236,-0.14784351,0.06215533,0.0,0.0,-0.08
21302012,-0.60481596,-0.14708632,0.0623338,0.0,0.0,-0.08
21321942,-0.60558766,-0.1485782,0.062303707,0.0,0.0,-0.08
21341847,-0.6076561,-0.15142286,0.06249746,0.0,0.0,-0.08
21361740,-0.6111479,-0.15420441,0.062056363,0.0,0.0,-0.08
21381697,-0.61358124,-0.15581816,0.061620586,0.0,0.0,-0.08
21401459,-0.6160558,-0.15538538,0.061718084,0.0,0.0,-0.08
21421342,-0.6155964,-0.15446632,0.061881077,0.0,0.0,-0.08
21441284,-0.6155263,-0.1531996,0.06214667,0.0,0.0,-0.08
21461128,-0.6163636,-0.15080518,0.06254428,0.0,0.0,-0.08
21481001,-0.61996496,-0.1513832,0.06313114,0.0,0.0,-0.08
21500842,-0.62128305,-0.15298018,0.06335078,0.0,0.0,-0.08
21520661,-0.6192013,-0.15219173,0.06330394,0.0,0.0,-0.08
21545347,-0.5945948,-0.16096799,0.06498271,0.0,0.0,-0.08
21560257,-0.6106139,-0.14574014,0.06511192,0.0,0.0,-0.08
21580099,-0.606782,-0.14486101,0.06636732,0.0,0.0,-0.08
21605044,-0.5953087,-0.16433753,0.06521863,0.0,0.0,-0.08
21619975,-0.61094147,-0.1540739,0.066090934,0.0,0.0,-0.08
21639937,-0.6129641,-0.15695724,0.06480103,0.0,0.0,-0.08
21664577,-0.60395885,-0.16481875,0.06636603,0.0,0.0,-0.08
21679501,-0.613852,-0.15837881,0.06636909,0.0,0.0,-0.08
21699439,-0.6133228,-0.15663059,0.06706451,0.0,0.0,-0.08
21724257,-0.5963283,-0.15769006,0.06864147,0.0,0.0,-0.09221302
21744147,-0.59036213,-0.1546202,0.06959511,0.0,0.0,-0.09221302
21758978,-0.6139122,-0.15439358,0.06993516,0.0,0.0,-0.09221302
21783749,-0.58981997,-0.15892002,0.07097301,0.0,0.0,-0.09424852
21803607,-0.59411865,-0.16390228,0.069663495,0.0,0.0,-0.097301774
21818508,-0.6007367,-0.15354481,0.07155078,0.0,0.0,-0.10544378
21838442,-0.5987503,-0.15332747,0.07205087,0.0,0.0,-0.117656805
21863261,-0.59668624,-0.15865225,0.07231275,0.0,0.0,-0.12071006
21883133,-0.59615105,-0.15729594,0.07488877,0.0,0.0,-0.13495858
21898113,-0.6042461,-0.16098192,0.07323293,0.0,0.0,-0.13495858
21922833,-0.5947458,-0.15991068,0.07556496,0.0,0.0,-0.14818935
21942660,-0.59538656,-0.15763213,0.07582933,0.0,0.0,-0.14818935
21962601,-0.6060812,-0.15419726,0.07840225,0.0,0.0,-0.15022485
21982454,-0.61201435,-0.15455818,0.079982735,0.0,0.0,-0.1512426
22002341,-0.60972947,-0.15992333,0.07877601,0.0,0.0,-0.15633136
22022167,-0.6012731,-0.16510819,0.07732372,0.0,0.0,-0.15836686
22041956,-0.5910434,-0.16101243,0.079533495,0.0,0.0,-0.15836686
22061836,-0.58982354,-0.15676261,0.08267275,0.0,0.0,-0.16549112
22081814,-0.60201705,-0.16078742,0.083937876,0.0,0.0,-0.18075739
22101651,-0.59949416,-0.16484958,0.08433656,0.0,0.0,-0.19297041
22121525,-0.5863035,-0.16799945,0.08277401,0.0,0.0,-0.19297041
22141230,-0.58972687,-0.15966815,0.083754204,0.0,0.0,-0.20721895
22161243,-0.5940918,-0.16453421,0.082289375,0.0,0.0,-0.2102722
22181159,-0.5886377,-0.16327257,0.083464146,0.0,0.0,-0.22146747
22200972,-0.59540045,-0.16229002,0.08414676,0.0,0.0,-0.23062722
22220835,-0.5931643,-0.1617786,0.08357273,0.0,0.0,-0.23062722
22240673,-0.58979225,-0.15856992,0.08500587,0.0,0.0,-0.23164497
22260659,-0.58801097,-0.16255231,0.08397877,0.0,0.0,-0.23164497
22280321,-0.58239603,-0.16341381,0.083452515,0.0,0.0,-0.23164497
22305267,-0.572364,-0.17095898,0.08604694,0.0,0.0,-0.23164497
22320050,-0.56979567,-0.16984129,0.086396925,0.0,0.0,-0.23164497
22339938,-0.5632671,-0.17928827,0.08750197,0.0,0.0,-0.23164497
22364738,-0.56552464,-0.18044889,0.08989951,0.0,0.0,-0.23164497
22384602,-0.570949,-0.17858012,0.09044678,0.0,0.0,-0.23164497
22399513,-0.5622045,-0.1820382,0.09225878,0.0,0.0,-0.23164497
22419436,-0.5632481,-0.1827689,0.09245932,0.0,0.0,-0.23164497
22444369,-0.5656141,-0.1802762,0.09134886,0.0,0.0,-0.23164497
22459211,-0.56718075,-0.17935194,0.092253454,0.0,0.0,-0.23164497
22479000,-0.564777,-0.18013604,0.0921871,0.0,0.0,-0.23062722
22503798,-0.55645525,-0.18557021,0.0958931,0.0,0.0,-0.23062722
22518711,-0.5578771,-0.1852692,0.09487886,0.0,0.0,-0.23062722
22538554,-0.5566028,-0.18730204,0.09648626,0.0,0.0,-0.23062722
22563420,-0.56110156,-0.18767755,0.0978439,0.0,0.0,-0.23062722
22583385,-0.56046724,-0.18631256,0.09602138,0.0,0.0,-0.23062722
22598231,-0.5569283,-0.18465663,0.09963541,0.0,0.0,-0.23062722
22623005,-0.56368375,-0.1801333,0.09831136,0.0,0.0,-0.23062722
22642863,-0.56269854,-0.1877786,0.09855027,0.0,0.0,-0.22960947
22662858,-0.55597895,-0.1895704,0.10082965,0.0,0.0,-0.22960947
22682761,-0.5519214,-0.19141795,0.10216759,0.0,0.0,-0.22960947
22702554,-0.5552375,-0.1857878,0.10388753,0.0,0.0,-0.22960947
22722515,-0.556338,-0.18877451,0.1021121,0.0,0.0,-0.22960947
22742214,-0.56268007,-0.18514138,0.10279654,0.0,0.0,-0.22960947
22762069,-0.5571932,-0.18520385,0.10369321,0.0,0.0,-0.22960947
22781919,-0.56296617,-0.18703987,0.10425937,0.0,0.0,-0.22960947
22801789,-0.56078655,-0.19091679,0.10492633,0.0,0.0,-0.22960947
22821630,-0.55730975,-0.1865982,0.10444783,0.0,0.0,-0.22960947
22841526,-0.55579484,-0.18159151,0.10625831,0.0,0.0,-0.23164497
22861415,-0.55698633,-0.18354732,0.10750206,0.0,0.0,-0.23571597
22881228,-0.55936784,-0.18055665,0.10858901,0.0,0.0,-0.26115978
22901102,-0.5565883,-0.18331173,0.10920555,0.0,0.0,-0.26930177
22921005,-0.56081194,-0.18498366,0.10950368,0.0,0.0,-0.27235502
22945835,-0.5515444,-0.18940568,0.108072475,0.0,0.0,-0.28049704
22960613,-0.54186064,-0.19486438,0.107884824,0.0,0.0,-0.28049704
22980677,-0.5169579,-0.19200099,0.10742924,0.0,0.0,-0.2855858
23000435,-0.48728654,-0.19720279,0.10894544,0.0,0.0,-0.2855858
23020300,-0.4714162,-0.20212844,0.11207597,0.0,0.0,-0.29372782
23040202,-0.46587119,-0.20454846,0.11313778,0.0,0.0,-0.29474556
23060010,-0.4584927,-0.19817425,0.113579765,0.0,0.0,-0.29474556
23079840,-0.43555692,-0.19158576,0.11333102,0.0,0.0,-0.29474556
23099771,-0.39647877,-0.18719219,0.1133587,0.0,0.0,-0.29474556
23119717,-0.36220375,-0.18251011,0.11451635,0.0,0.0,-0.29474556
23144483,-0.3212251,-0.18088001,0.11561165,0.0,0.0,-0.29474556
23159334,-0.294549,-0.17635357,0.116660714,0.0,0.0,-0.29474556
23179109,-0.25201023,-0.17017151,0.11877751,0.0,0.0,-0.2957633
23203907,-0.20736116,-0.15406984,0.118711844,0.0,0.0,-0.2957633
23223787,-0.15107927,-0.14835984,0.11990781,0.0,0.0,-0.2957633
23238799,-0.113889866,-0.14379454,0.11969711,0.0,0.0,-0.2957633
23263728,-0.06798281,-0.13101171,0.12067766,0.0,0.0,-0.2957633
23283482,-0.015650092,-0.12674862,0.12236343,0.0,0.0,-0.2957633
23298464,0.028676711,-0.12102288,0.123138495,0.0,0.0,-0.2957633
23323287,0.29355758,-0.10156971,0.12331827,0.0,0.0,-0.2957633
23343145,0.6809732,-0.08624321,0.12584612,0.0,0.0,-0.2957633
23362944,0.715294,-0.077205844,0.12683733,0.0,0.0,-0.2957633
23382730,0.8774679,-0.06734507,0.12747702,0.0,0.0,-0.2957633
23402614,1.1280856,-0.039735343,0.12917414,0.0,0.0,-0.2957633
23422414,1.4288821,-0.0072794794,0.12864266,0.0,0.0,-0.2957633
23442332,1.4809091,0.0112260105,0.1267126,0.0,0.0,-0.2957633
23462182,1.5349686,0.02158226,0.12371588,0.0,0.0,-0.2957633
23482038,1.5157633,0.008314122,0.11811289,0.0,0.0,-0.2957633
23502074,1.4886928,-0.008820795,0.112319216,0.0,0.0,-0.2957633
23521954,1.3597695,-0.024239188,0.10343843,0.0,0.0,-0.2957633
23541773,1.2306182,-0.04765953,0.09483463,0.0,0.0,-0.2957633
23561622,1.1071007,-0.059968885,0.08511398,0.0,0.0,-0.2957633
23581485,0.92083615,-0.076913424,0.073149815,0.0,0.0,-0.2957633
23601342,0.79101634,-0.10221435,0.061698683,0.0,0.0,-0.2957633
23621155,0.5536946,-0.119629025,0.05041875,0.0,0.0,-0.2957633
23640896,0.47561052,-0.13646522,0.041945323,0.0,0.0,-0.2957633
23660773,0.45732972,-0.10705579,0.041433707,0.0,0.0,-0.2957633
23680689,0.5052139,-0.09054898,0.034034178,0.0,0.0,-0.2957633
23700603,0.516773,-0.056871343,0.035347406,0.0,0.0,-0.2957633
23720426,0.4198605,-0.08465143,0.042997748,0.0,0.0,-0.2957633
23740285,0.3557113,-0.10923467,0.054985736,0.0,0.0,-0.2957633
23760307,0.37396982,-0.119421855,0.059225745,0.0,0.0,-0.2957633
23785104,0.3597336,-0.11067073,0.05719261,0.0,0.0,-0.2957633
23800154,0.3846086,-0.120715484,0.06037338,0.0,0.0,-0.2957633
23819832,0.35960495,-0.13509813,0.07108652,0.0,0.0,-0.2957633
23844650,0.34838423,-0.1499956,0.0751342,0.0,0.0,-0.29678106
23859680,0.37295333,-0.14043173,0.07376008,0.0,0.0,-0.2977988
23879441,0.36772576,-0.11702759,0.069082476,0.0,0.0,-0.29881656
23904181,0.36554965,-0.11795817,0.07080855,0.0,0.0,-0.3018698
23919005,0.3531342,-0.12627347,0.067686655,0.0,0.0,-0.30390534
23938921,0.37224013,-0.13502583,0.06622343,0.0,0.0,-0.31102958
23963732,0.37745342,-0.136781,0.07217427,0.0,0.0,-0.32426035
23983589,0.38033292,-0.12925133,0.0724849,0.0,0.0,-0.32629588
23998528,0.37879464,-0.13706428,0.07340229,0.0,0.0,-0.32629588
24023341,0.4163619,-0.13721223,0.066602506,0.0,0.0,-0.33138463
24043237,0.42650452,-0.13404788,0.07292195,0.0,0.0,-0.33443788
24063236,0.43122485,-0.13749643,0.0733683,0.0,0.0,-0.33545563
24083066,0.43722805,-0.11868379,0.07564204,0.0,0.0,-0.33545563
24102912,0.45532012,-0.12798463,0.07493447,0.0,0.0,-0.33647338
24122752,0.45027864,-0.12739192,0.07820395,0.0,0.0,-0.33647338
24142530,0.44702905,-0.12741333,0.07688323,0.0,0.0,-0.33749112
24162393,0.49934506,-0.1200542,0.078740925,0.0,0.0,-0.33749112
24182181,0.4928468,-0.12796275,0.078589395,0.0,0.0,-0.33749112
24202103,0.49740916,-0.12463692,0.07800934,0.0,0.0,-0.33850887
24221960,0.52837783,-0.11966675,0.0776949,0.0,0.0,-0.3486864
24241853,0.5268545,-0.11835904,0.07871963,0.0,0.0,-0.3527574
24261727,0.53884894,-0.113193914,0.07775417,0.0,0.0,-0.36191717
24281586,0.5371989,-0.10399378,0.080554254,0.0,0.0,-0.3720947
24301421,0.5323116,-0.10129189,0.08107524,0.0,0.0,-0.3761657
24321428,0.53025734,-0.10350829,0.08046783,0.0,0.0,-0.37718344
24341246,0.50536144,-0.093839884,0.079265706,0.0,0.0,-0.38227218
24361097,0.49993464,-0.098101474,0.078463,0.0,0.0,-0.38227218
24380939,0.49338445,-0.09064289,0.07890698,0.0,0.0,-0.38736096
24400774,0.49563408,-0.08885764,0.076696016,0.0,0.0,-0.38939646
24420618,0.47792876,-0.08142529,0.077100016,0.0,0.0,-0.3924497
24440535,0.4589208,-0.080793425,0.07590996,0.0,0.0,-0.39753848
24460440,0.4435098,-0.07635915,0.075150914,0.0,0.0,-0.39753848
24485182,0.4430165,-0.06709545,0.07479522,0.0,0.0,-0.39753848
24500029,0.42800042,-0.06722398,0.07522178,0.0,0.0,-0.39753848
24519856,0.40428856,-0.068438426,0.076965734,0.0,0.0,-0.3965207
24544680,0.30580097,-0.0011436011,0.07633907,0.0,0.0,-0.39448524
24559580,0.30294928,0.0023764013,0.07666296,0.0,0.0,-0.39448524
24579600,0.238341,0.06101512,0.0774849,0.0,0.0,-0.39448524
24604533,0.21913332,0.076293804,0.07909007,0.0,0.0,-0.39448524
24619373,0.1886112,0.08993848,0.08036343,0.0,0.0,-0.39346746
24639175,0.0872184,0.1529868,0.079428,0.0,0.0,-0.3924497
24664029,0.035340942,0.1608599,0.08083164,0.0,0.0,-0.3924497
24683935,-0.07305706,0.21204032,0.08207489,0.0,0.0,-0.3924497
24698666,-0.14054438,0.2432145,0.08322618,0.0,0.0,-0.3924497
24723537,-0.17591281,0.24928908,0.08607191,0.0,0.0,-0.3924497
24743366,-0.16692421,0.22831458,0.088424325,0.0,0.0,-0.3924497
24758265,-0.15578298,0.21060333,0.08935287,0.0,0.0,-0.3924497
24783042,-0.13851424,0.19539528,0.089993775,0.0,0.0,-0.3924497
24802895,-0.18127932,0.21970125,0.08276942,0.0,0.0,-0.39448524
24822926,-0.19852525,0.23754992,0.078478344,0.0,0.0,-0.39753848
24842856,-0.18774101,0.23909122,0.07704678,0.0,0.0,-0.39753848
24862786,-0.17526196,0.23478314,0.067399785,0.0,0.0,-0.39957398
24882503,-0.15826516,0.23987488,0.06590769,0.0,0.0,-0.40466273
24902323,-0.15055971,0.24509132,0.066935994,0.0,0.0,-0.40466273
24922195,-0.066265516,0.24194393,0.0758256,0.0,0.0,-0.40669823
24942136,-0.032516584,0.2353958,0.07594894,0.0,0.0,-0.40771598
24961844,-0.026708663,0.22772236,0.07275078,0.0,0.0,-0.40771598
24981747,0.0003440719,0.22919363,0.0707171,0.0,0.0,-0.40669823
25001582,0.055268835,0.2279269,0.07064766,0.0,0.0,-0.40771598
25021472,0.09681304,0.22201128,0.070934474,0.0,0.0,-0.41280475
25041292,0.11352419,0.21567738,0.07059783,0.0,0.0,-0.415858
25061218,0.12377926,0.19320107,0.07004915,0.0,0.0,-0.42603552
25081138,0.13390438,0.19806585,0.07085331,0.0,0.0,-0.43010652
25100989,0.13013236,0.19686435,0.070932746,0.0,0.0,-0.44435504
25120925,0.1395604,0.19041178,0.072425716,0.0,0.0,-0.44842604
25140864,0.13839956,0.1901154,0.071469724,0.0,0.0,-0.44842604
25160551,0.13810013,0.16610162,0.071935296,0.0,0.0,-0.45656803
25180439,0.1427838,0.16127695,0.07129064,0.0,0.0,-0.45860356
25200412,0.13867259,0.1552233,0.07096822,0.0,0.0,-0.45860356
25220198,0.13860029,0.12544845,0.07059806,0.0,0.0,-0.45860356
25244950,0.13623145,0.11705014,0.072302744,0.0,0.0,-0.4596213
25259794,0.1296023,0.0897524,0.073359,0.0,0.0,-0.4596213
25279661,0.11823205,0.07634476,0.07441912,0.0,0.0,-0.46063906
25304510,0.116173446,0.06070723,0.07327497,0.0,0.0,-0.46063906
25319389,0.1158039,0.062484488,0.07386268,0.0,0.0,-0.46063906
25339316,0.11107217,0.06318862,0.07373339,0.0,0.0,-0.46471006
25364144,0.11555571,0.052619357,0.06691244,0.0,0.0,-0.46878108
25384048,0.10815173,0.053511,0.066448346,0.0,0.0,-0.47081658
25399071,0.11065718,0.03768403,0.06538142,0.0,0.0,-0.47285205
25423850,0.10360698,0.039282363,0.064536616,0.0,0.0,-0.47488758
25443629,0.11322166,0.02967019,0.06447171,0.0,0.0,-0.47692308
25458523,0.121060744,0.028201524,0.07056808,0.0,0.0,-0.47692308
25483292,0.11938198,0.01831345,0.06962175,0.0,0.0,-0.47692308
25503131,0.14113665,0.020739159,0.06926729,0.0,0.0,-0.47692308
25523074,0.14890447,0.013945922,0.067737125,0.0,0.0,-0.47692308
25537996,0.15194912,0.010591921,0.065720946,0.0,0.0,-0.47692308
25562760,0.14813979,0.014445001,0.06324639,0.0,0.0,-0.47692308
25582632,0.14928031,0.015044161,0.060078267,0.0,0.0,-0.47692308
25602535,0.16050062,0.014830537,0.055670362,0.0,0.0,-0.47692308
25622414,0.15708455,0.011507225,0.05185851,0.0,0.0,-0.47692308
25642167,0.15648063,0.009650561,0.04969184,0.0,0.0,-0.47692308
25662111,0.13375832,0.010763177,0.04765881,0.0,0.0,-0.47794083
25682053,0.14145839,0.009704771,0.04780329,0.0,0.0,-0.47794083
25701861,0.13286622,0.008711503,0.04875308,0.0,0.0,-0.47794083
25721683,0.135202,0.0048938906,0.048717804,0.0,0.0,-0.48099408
25741548,0.13516797,-7.4466357e-06,0.04868858,0.0,0.0,-0.48099408
25761457,0.12191179,0.0027837316,0.04321756,0.0,0.0,-0.48608282
25781257,0.118212685,0.007957578,0.037721943,0.0,0.0,-0.4911716
25801140,0.1034091,0.020168543,0.039563887,0.0,0.0,-0.4911716
25820990,0.09649645,0.019135242,0.039971665,0.0,0.0,-0.49218935
25840868,0.0935774,0.023174759,0.040439416,0.0,0.0,-0.49626034
25860774,0.097187586,0.011242131,0.046567306,0.0,0.0,-0.49626034
25885498,0.081880935,0.019546302,0.04615621,0.0,0.0,-0.49727812
25900395,0.095562555,0.012192615,0.043909024,0.0,0.0,-0.4993136
25920287,0.096701875,0.011342368,0.043714304,0.0,0.0,-0.4993136
25945235,0.07546381,0.008203636,0.04344901,0.0,0.0,-0.5064379
25960062,0.0737809,0.010106662,0.043130253,0.0,0.0,-0.5064379
25979905,0.066022865,0.0138638,0.041527454,0.0,0.0,-0.50949115
26004790,0.08434336,0.022993756,0.03231192,0.0,0.0,-0.5152189
26024632,0.088871576,0.030180112,0.029460113,0.0,0.0,-0.5163787
26039585,0.08883986,0.02875745,0.029346671,0.0,0.0,-0.5175385
26064317,0.09217487,0.011446035,0.030384284,0.0,0.0,-0.5186982
26084278,0.092330724,-0.0069772103,0.027143398,0.0,0.0,-0.5186982
26099091,0.094886675,-0.025098627,0.025079012,0.0,0.0,-0.5186982
26123847,0.08680523,-0.045226667,0.020953285,0.0,0.0,-0.5186982
26143711,0.090861395,-0.06064366,0.016973058,0.0,0.0,-0.5186982
26158575,0.10544618,-0.06439242,0.013702827,0.0,0.0,-0.519858
26178527,0.105371155,-0.067437835,0.017207526,0.0,0.0,-0.52333724
26203467,0.08502855,-0.0639595,0.012337565,0.0,0.0,-0.52681655
26223457,0.07945155,-0.06270553,0.009473822,0.0,0.0,-0.52681655
26238265,0.08668581,-0.05719573,0.008605414,0.0,0.0,-0.52913606
26263100,0.08768793,-0.062287297,0.003562455,0.0,0.0,-0.53145564
26282930,0.09316292,-0.06950997,0.0016484619,0.0,0.0,-0.53609467
26302757,0.10276741,-0.084677085,-0.00023807994,0.0,0.0,-0.5453728
26322528,0.10324693,-0.08933127,-0.003196445,0.0,0.0,-0.5453728
26342448,0.11246909,-0.084961586,-0.0060528005,0.0,0.0,-0.5500118
26362245,0.089059025,-0.089415714,-0.008411446,0.0,0.0,-0.5523313
26382067,0.078265145,-0.07788326,-0.011340264,0.0,0.0,-0.56044966
26401934,0.061765954,-0.08424294,-0.015277239,0.0,0.0,-0.56740826
26421756,0.04653864,-0.0880467,-0.018569168,0.0,0.0,-0.56972784
26441680,0.03921026,-0.109519094,-0.020660043,0.0,0.0,-0.5743668
26461678,0.016156,-0.12973,-0.02208566,0.0,0.0,-0.5790059
26481567,0.014839381,-0.12511282,-0.024591155,0.0,0.0,-0.5790059
26501365,0.014613401,-0.11667239,-0.026389198,0.0,0.0,-0.5790059
26521251,0.0036313734,-0.17210391,-0.026473437,0.0,0.0,-0.5801657
26541059,-0.011982963,-0.19163166,-0.027318912,0.0,0.0,-0.5801657
26560927,-0.0340356,-0.23467173,-0.028079208,0.0,0.0,-0.5801657
26580697,-0.0656437,-0.22102992,-0.055962674,0.0,0.0,-0.5801657
26600624,-0.09209971,-0.19782308,-0.05992045,0.0,0.0,-0.5790059
26620496,-0.0946933,-0.16957523,-0.06399237,0.0,0.0,-0.5790059
26645261,-0.11149186,-0.12937771,-0.0789833,0.0,0.0,-0.5790059
26660126,-0.12052181,-0.111634046,-0.09638804,0.0,0.0,-0.5790059
26680040,-0.109811194,-0.085242175,-0.100878395,0.0,0.0,-0.5790059
26699887,-0.15004669,-0.067301475,-0.13698061,0.0,0.0,-0.583645
26719824,-0.16021541,-0.04526443,-0.16144748,0.0,0.0,-0.5824852
26739754,-0.17340821,-0.026841344,-0.18599515,0.0,0.0,-0.5766864
26759706,-0.17638531,-0.04423224,-0.2278312,0.0,0.0,-0.5534911
26784418,-0.1691078,-0.088006526,-0.2594891,0.0,0.0,-0.544213
26799368,-0.16160296,-0.12132466,-0.2700726,0.0,0.0,-0.5407337
26819257,-0.15457276,-0.19232349,-0.28743833,0.0,0.0,-0.52797633
26844024,-0.12262057,-0.22947113,-0.29435453,0.0,0.0,-0.5163787
26858783,-0.09295437,-0.21715555,-0.30068246,0.0,0.0,-0.5163787
26878610,-0.064740874,-0.20998366,-0.30601457,0.0,0.0,-0.5152189
26903448,-0.084144466,-0.23354565,-0.3264619,0.0,0.0,-0.5128994
26923398,-0.113584,-0.2953868,-0.350677,0.0,0.0,-0.5105798
26938306,-0.12125157,-0.3008235,-0.36149004,0.0,0.0,-0.5105798
26963115,-0.13584225,-0.31339464,-0.36683598,0.0,0.0,-0.5105798
26982958,-0.14839914,-0.28541693,-0.3723197,0.0,0.0,-0.5105798
27002850,-0.1460923,-0.23853229,-0.36425024,0.0,0.0,-0.5105798
27022933,-0.1509728,-0.2323078,-0.34781346,0.0,0.0,-0.50745565
27042691,-0.16392031,-0.23027577,-0.3369177,0.0,0.0,-0.50440234
27062400,-0.14857408,-0.2036005,-0.32665223,0.0,0.0,-0.50338465
27082270,-0.12634596,-0.16763769,-0.32711455,0.0,0.0,-0.50338465
27102206,-0.09671832,-0.15141979,-0.32747528,0.0,0.0,-0.5023669
27122019,-0.06188898,-0.1449042,-0.31486875,0.0,0.0,-0.5023669
27141873,-0.029507902,-0.14721389,-0.3147736,0.0,0.0,-0.50338465
27161707,-0.009094483,-0.13659364,-0.32163244,0.0,0.0,-0.50440234
27181559,0.00024695578,-0.105128296,-0.3157668,0.0,0.0,-0.5064379
27201496,-0.0013631792,-0.0674947,-0.30926368,0.0,0.0,-0.50745565
27221409,-0.008094323,-0.015716858,-0.30175933,0.0,0.0,-0.50745565
27241219,0.051028524,0.14823258,-0.28992453,0.0,0.0,-0.50745565
27261089,0.04878802,0.17095983,-0.28885266,0.0,0.0,-0.50745565
27281053,0.091392264,0.24607898,-0.2883005,0.0,0.0,-0.50745565
27300774,0.1793485,0.41018534,-0.24314137,0.0,0.0,-0.5105798
27320632,0.296183,0.5042848,-0.21654677,0.0,0.0,-0.5152189
27340555,0.3434401,0.52090335,-0.20536646,0.0,0.0,-0.5163787
27360418,0.5520256,0.602645,-0.17952158,0.0,0.0,-0.5210178
27380334,0.6225253,0.57245916,-0.15572976,0.0,0.0,-0.53145564
27400286,0.6119467,0.49203452,-0.1356003,0.0,0.0,-0.5372544
27425035,0.5842349,0.39107054,-0.115464106,0.0,0.0,-0.5384142
27439831,0.5245171,0.33289337,-0.108813174,0.0,0.0,-0.5384142
27459833,0.4768139,0.26792777,-0.103739955,0.0,0.0,-0.5407337
27484602,0.39548746,0.21010967,-0.09716908,0.0,0.0,-0.5418935
27499495,0.39010894,0.18526661,-0.09517671,0.0,0.0,-0.54305327
27519307,0.33469233,0.16533682,-0.092039056,0.0,0.0,-0.54305327
27544157,0.27040005,0.14870971,-0.08763252,0.0,0.0,-0.54305327
27564060,0.22086655,0.13841362,-0.085239716,0.0,0.0,-0.54305327
27578890,0.17666994,0.13530177,-0.084286064,0.0,0.0,-0.544213
27603768,0.14790097,0.11644584,-0.08131381,0.0,0.0,-0.544213
27623638,0.124270216,0.10467732,-0.079367,0.0,0.0,-0.544213
27638549,0.107986845,0.10002297,-0.07712069,0.0,0.0,-0.544213
27663275,0.07573135,0.08506169,-0.075579144,0.0,0.0,-0.544213
27683155,0.05136346,0.07763813,-0.07417697,0.0,0.0,-0.544213
27702997,0.021061555,0.07079614,-0.07187653,0.0,0.0,-0.5523313
27722920,0.00016358643,0.06458198,-0.069561996,0.0,0.0,-0.56044966
27742776,-0.0072316076,0.05853776,-0.06855788,0.0,0.0,-0.56508875
27762565,-0.02280519,0.051405333,-0.06696392,0.0,0.0,-0.56740826
27782499,-0.042947367,0.050189767,-0.066166155,0.0,0.0,-0.56740826
27802375,-0.070909664,0.044506017,-0.06487999,0.0,0.0,-0.56972784
27822221,-0.092218176,0.036267743,-0.06282421,0.0,0.0,-0.5732071
27842103,-0.082942955,0.031240845,-0.062206447,0.0,0.0,-0.5732071
27862043,-0.07570129,0.027539385,-0.061139975,0.0,0.0,-0.5732071
27881888,-0.061712496,0.02689196,-0.060696125,0.0,0.0,-0.5732071
27901714,-0.04921341,0.022673443,-0.06049536,0.0,0.0,-0.5732071
27921549,-0.01826222,0.01521853,-0.059810683,0.0,0.0,-0.5732071
27941388,-0.00069357874,0.010253862,-0.05894588,0.0,0.0,-0.5732071
27961353,0.030469846,0.0016115201,-0.05791854,0.0,0.0,-0.5732071
27981012,0.040925793,-0.002440203,-0.05706236,0.0,0.0,-0.5732071
28000873,0.06520104,-0.0020652984,-0.05639805,0.0,0.0,-0.57204735
28020737,0.088492006,-0.0018378723,-0.055883236,0.0,0.0,-0.57088757
28040691,0.07924965,0.0015565328,-0.055770043,0.0,0.0,-0.57088757
28060547,0.08676859,0.005499415,-0.055917174,0.0,0.0,-0.57088757
28080513,0.10163416,0.0078578275,-0.05577686,0.0,0.0,-0.57088757
28100454,0.07817941,0.013256532,-0.055485614,0.0,0.0,-0.56972784
28120237,0.043923438,0.016101178,-0.061571438,0.0,0.0,-0.57088757
28140087,-0.0065050195,0.020407192,-0.055391625,0.0,0.0,-0.56160945
28159933,-0.06261522,0.0211149,-0.055190593,0.0,0.0,-0.55581063
28184659,-0.09981854,0.016226625,-0.054977816,0.0,0.0,-0.5534911
28199544,-0.16715698,0.017227815,-0.060787424,0.0,0.0,-0.5407337
28219473,-0.1586289,0.01777343,-0.060710646,0.0,0.0,-0.5407337
28244315,-0.32470593,0.019775465,-0.06706577,0.0,0.0,-0.52333724
28259201,-0.30475095,0.020835748,-0.06675914,0.0,0.0,-0.52333724
28279061,-0.40327087,0.026846498,-0.07972996,0.0,0.0,-0.5210178
28303867,-0.48392037,0.031202031,-0.073325925,0.0,0.0,-0.5210178
28323722,-0.4706091,0.032593187,-0.07439687,0.0,0.0,-0.5210178
28338764,-0.45764074,0.031219512,-0.06382178,0.0,0.0,-0.5210178
28363681,-0.47373646,0.029273141,-0.056541942,0.0,0.0,-0.5221775
28383395,-0.41465098,0.022944631,-0.056012552,0.0,0.0,-0.5221775
28398260,-0.35834098,0.019799128,-0.055365,0.0,0.0,-0.5221775
28423045,-0.27625278,0.014520535,-0.056351677,0.0,0.0,-0.52565676
28442947,-0.22162256,0.01457972,-0.054819573,0.0,0.0,-0.52565676
28462782,-0.17687857,0.014384302,-0.053114396,0.0,0.0,-0.52913606
28482695,-0.2534881,0.01594478,-0.05234584,0.0,0.0,-0.5372544
28502513,-0.30114165,0.018044,-0.05192087,0.0,0.0,-0.5384142
28522395,-0.2909244,0.019601978,-0.051390067,0.0,0.0,-0.5384142
28542297,-0.25749558,0.024643512,-0.05150061,0.0,0.0,-0.53957397
28562008,-0.21899748,0.026685117,-0.050723203,0.0,0.0,-0.53957397
28581872,-0.1737903,0.024158696,-0.0491631,0.0,0.0,-0.5407337
28601736,-0.14009601,0.022503288,-0.047845438,0.0,0.0,-0.5407337
28621767,-0.10570339,0.022839885,-0.046025038,0.0,0.0,-0.5407337
28641712,-0.07929355,0.020468106,-0.04455914,0.0,0.0,-0.5418935
28661441,-0.06286107,0.014716277,-0.04310524,0.0,0.0,-0.5407337
28681283,-0.052548174,0.01068684,-0.04206967,0.0,0.0,-0.5407337
28701235,-0.048099514,0.010225637,-0.04078269,0.0,0.0,-0.5407337
28721151,-0.044324573,0.0130222095,-0.03965886,0.0,0.0,-0.5407337
28741004,-0.029713474,0.015034209,-0.03857095,0.0,0.0,-0.5418935
28760825,-0.0328018,0.014493188,-0.038054474,0.0,0.0,-0.5418935
28780657,-0.013287906,0.01443376,-0.036584303,0.0,0.0,-0.5418935
28800506,-0.007761003,0.013123805,-0.034880444,0.0,0.0,-0.544213
28825220,0.0025313958,0.010861265,-0.033756256,0.0,0.0,-0.544213
28840097,-0.0015449423,0.01642268,-0.03245232,0.0,0.0,-0.544213
28859977,-0.0033141046,0.015947351,-0.031802136,0.0,0.0,-0.54305327
28884927,-0.005441268,0.012632376,-0.030885806,0.0,0.0,-0.5465326
28899868,-0.008789782,0.017295383,-0.030200966,0.0,0.0,-0.5476923
28919690,-0.009471762,0.016615903,-0.029364241,0.0,0.0,-0.5465326
28944554,-0.008761732,0.012245801,-0.027886327,0.0,0.0,-0.5465326
28959443,-0.004052757,0.008283023,-0.02870714,0.0,0.0,-0.5476923
28979357,-0.00070072606,0.0055463286,-0.02792143,0.0,0.0,-0.5476923
29004075,-0.0024652472,0.010539461,-0.025956914,0.0,0.0,-0.5476923
29023974,-0.0009789796,0.009325061,-0.02578303,0.0,0.0,-0.5476923
29038902,-0.00070561067,0.0076145423,-0.025417265,0.0,0.0,-0.5476923
29063638,0.00044608387,0.0077311923,-0.025082367,0.0,0.0,-0.5476923
29083480,0.01141411,0.004317659,-0.025231067,0.0,0.0,-0.5476923
29098369,0.02065111,0.003802132,-0.024165668,0.0,0.0,-0.5476923
29123230,0.022745764,-0.0025279094,-0.025950987,0.0,0.0,-0.5476923
29143118,0.020379156,-0.0049935244,-0.025798168,0.0,0.0,-0.5476923
29163063,0.012617669,-0.004929386,-0.024911415,0.0,0.0,-0.5476923
29178099,0.007706288,-0.0035200103,-0.024435373,0.0,0.0,-0.5476923
29202815,-0.008180799,0.00092290883,-0.023906445,0.0,0.0,-0.5476923
29222622,-0.015532865,0.003376862,-0.024107035,0.0,0.0,-0.5476923
29242491,-0.018215053,0.003022544,-0.024090178,0.0,0.0,-0.5476923
29262279,-0.039644938,0.0047449074,-0.023887217,0.0,0.0,-0.5476923
29282148,-0.04157093,0.0048686285,-0.023626477,0.0,0.0,-0.5476923
29301975,-0.037558656,0.0018497334,-0.024198644,0.0,0.0,-0.5476923
29321776,-0.03207153,-0.0016698985,-0.025140444,0.0,0.0,-0.5476923
29341639,-0.02745644,-0.006803958,-0.0255242,0.0,0.0,-0.5476923
29361519,-0.024156326,-0.008244481,-0.02559149,0.0,0.0,-0.548852
29381487,-0.03310152,-0.011100858,-0.025793439,0.0,0.0,-0.548852
29401347,-0.032600693,-0.012600261,-0.026210425,0.0,0.0,-0.548852
29421247,-0.032794487,-0.013280814,-0.026735066,0.0,0.0,-0.548852
29441198,-0.033036545,-0.014805442,-0.026798278,0.0,0.0,-0.5476923
29460995,-0.03298407,-0.014661434,-0.025799513,0.0,0.0,-0.548852
29480803,-0.0346937,-0.011853512,-0.024904026,0.0,0.0,-0.548852
29500703,-0.02634794,-0.0097439885,-0.024351778,0.0,0.0,-0.548852
29520585,0.0035721343,-0.009053464,-0.02447053,0.0,0.0,-0.5500118
29540374,0.023887284,-0.0131971175,-0.024820903,0.0,0.0,-0.5500118
29560277,0.07168303,-0.017903388,-0.024004245,0.0,0.0,-0.5500118
29584985,0.07645711,-0.022163032,-0.024338625,0.0,0.0,-0.5500118
29599864,0.09718956,-0.025937613,-0.02269185,0.0,0.0,-0.5500118
29619771,0.08559292,-0.029852943,-0.022669312,0.0,0.0,-0.5500118
29644672,0.1862236,-0.03294928,-0.020366963,0.0,0.0,-0.548852
29664525,0.16742563,-0.035521932,-0.01969097,0.0,0.0,-0.548852
29679405,0.2067541,-0.03700585,-0.019891629,0.0,0.0,-0.5476923
29699377,0.31388727,-0.03715428,-0.018459028,0.0,0.0,-0.544213
29724126,0.3537986,-0.03899201,-0.016905501,0.0,0.0,-0.53957397
29739153,0.5137709,-0.037362374,-0.015579987,0.0,0.0,-0.5384142
29763862,0.65651673,-0.038047727,-0.027309626,0.0,0.0,-0.53609467
29783760,0.6811279,-0.039572936,-0.026342167,0.0,0.0,-0.53609467
29803613,0.76774627,-0.041267775,-0.024333984,0.0,0.0,-0.53609467
29818439,0.7035126,-0.043504726,-0.024043806,0.0,0.0,-0.53609467
29843267,0.6972039,-0.042372607,-0.020974735,0.0,0.0,-0.5384142
29863162,0.62968576,-0.04157127,-0.020519959,0.0,0.0,-0.5384142
29878114,0.769171,-0.04300186,-0.020261556,0.0,0.0,-0.5384142
29902916,0.789136,-0.03228379,-0.018916074,0.0,0.0,-0.5372544
29922781,0.71902394,-0.02548383,-0.018769959,0.0,0.0,-0.5372544
29942662,0.68974924,-0.023975197,-0.02478256,0.0,0.0,-0.53609467
29962617,0.8138715,-0.021886285,-0.01876492,0.0,0.0,-0.53029585
29982641,0.8272013,-0.019849554,-0.017700637,0.0,0.0,-0.52565676
30002285,0.7226862,-0.018963926,-0.022758806,0.0,0.0,-0.5163787
30022068,0.61891174,-0.019279737,-0.022929924,0.0,0.0,-0.5163787
30041952,0.51833093,-0.022204291,-0.022379154,0.0,0.0,-0.5152189
30061806,0.41866162,-0.02486405,-0.021731926,0.0,0.0,-0.5152189
30081580,0.32189032,-0.025020039,-0.015940398,0.0,0.0,-0.5152189
30101503,0.2321725,-0.024098428,-0.010617293,0.0,0.0,-0.5152189
30121325,0.19050655,-0.019189922,-0.004606202,0.0,0.0,-0.5152189
30141264,0.15258923,-0.012727091,-0.0051976386,0.0,0.0,-0.5152189
30161142,0.112622105,-0.008783666,-0.0058757733,0.0,0.0,-0.5152189
30180972,0.07916456,-0.0060124747,-0.00558755,0.0,0.0,-0.5152189
30200809,0.06521152,-0.0041623916,-0.0051240316,0.0,0.0,-0.5152189
30220714,0.026562693,-0.0039272076,-0.0049661906,0.0,0.0,-0.5152189
30240577,-0.08032295,-0.0066716615,-0.005536243,0.0,0.0,-0.5152189
30260433,-0.13672553,-0.008045662,-0.0054096333,0.0,0.0,-0.5152189
30285322,-0.13379672,-0.007298207,-0.0057071084,0.0,0.0,-0.5152189
30300112,-0.105947435,-0.007519709,-0.007280739,0.0,0.0,-0.5152189
30320100,-0.13369942,-0.008034462,-0.0072253672,0.0,0.0,-0.5152189
30344907,-0.23078232,-0.007129126,-0.007337868,0.0,0.0,-0.5152189
30359767,-0.3467279,-0.010342153,-0.008446476,0.0,0.0,-0.5152189
30379630,-0.32432765,-0.013137644,-0.008509189,0.0,0.0,-0.5152189
30399428,-0.37127402,-0.015046002,-0.008512318,0.0,0.0,-0.5152189
30424278,-0.4334475,-0.015786368,-0.010041434,0.0,0.0,-0.5152189
30439162,-0.44408953,-0.017135136,-0.010667822,0.0,0.0,-0.5163787
30459052,-0.41125864,-0.017364275,-0.011323349,0.0,0.0,-0.5163787
30483827,-0.37985045,-0.013005231,-0.011903666,0.0,0.0,-0.5163787
30503780,-0.37107036,-0.013675939,-0.012709094,0.0,0.0,-0.5175385
30518805,-0.3637571,-0.007726695,-0.012683817,0.0,0.0,-0.5175385
30543506,-0.40364552,-0.016620925,-0.0139145395,0.0,0.0,-0.5186982
30563445,-0.4086209,-0.021177398,-0.01393339,0.0,0.0,-0.5210178
30578312,-0.36926675,-0.025031159,-0.015299475,0.0,0.0,-0.5210178
30603118,-0.31715328,-0.019088771,-0.014265004,0.0,0.0,-0.5221775
30622953,-0.2647759,-0.017085051,-0.014777569,0.0,0.0,-0.5210178
30642825,-0.30046943,-0.01154187,-0.01455314,0.0,0.0,-0.5210178
30662606,-0.34163085,0.031457413,-0.016204193,0.0,0.0,-0.52449703
30682415,-0.41182148,0.075307794,-0.017233552,0.0,0.0,-0.52913606
30702287,-0.42593223,0.08614484,-0.016754057,0.0,0.0,-0.52913606
30722260,-0.5332728,0.08419034,-0.014241456,0.0,0.0,-0.53029585
30742109,-0.5629551,0.075485066,-0.012068153,0.0,0.0,-0.53029585
30761999,-0.6212292,0.06628525,-0.010757106,0.0,0.0,-0.53029585
30781956,-0.5465863,0.05638093,-0.009005789,0.0,0.0,-0.53029585
30801702,-0.5530813,0.102641255,-0.007732796,0.0,0.0,-0.5326154
30821544,-0.48857355,0.122761175,-0.0064064376,0.0,0.0,-0.5326154
30841441,-0.39324713,0.12952654,-0.005334536,0.0,0.0,-0.53609467
30861302,-0.30424663,0.09767886,-0.003599339,0.0,0.0,-0.53609467
30881125,-0.2502797,0.034536995,-0.00041714415,0.0,0.0,-0.5372544
30901046,-0.27179438,-0.019086348,0.0022547953,0.0,0.0,-0.5372544
30920973,-0.2799555,-0.03203806,0.004935589,0.0,0.0,-0.5372544
30940731,-0.318233,-0.036175735,0.008385335,0.0,0.0,-0.5372544
30960663,-0.29178092,-0.0342607,0.011400152,0.0,0.0,-0.5372544
30980525,-0.25539753,-0.043967184,0.013800169,0.0,0.0,-0.5384142
31000397,-0.21136644,-0.03287566,0.016118895,0.0,0.0,-0.5384142
31020261,-0.17158331,-0.097976275,0.01809382,0.0,0.0,-0.5465326
31040150,-0.13470802,-0.10846762,0.020628538,0.0,0.0,-0.5569704
31065083,-0.08827515,-0.0939169,0.02366376,0.0,0.0,-0.56624854
31079863,-0.06673849,-0.085031174,0.02541068,0.0,0.0,-0.5743668
31099734,-0.045159873,-0.0696627,0.027473979,0.0,0.0,-0.5766864
31124531,-0.033129357,-0.05102873,0.031902105,0.0,0.0,-0.5824852
31139394,-0.02912782,-0.038634013,0.0321122,0.0,0.0,-0.5824852
31159234,-0.027505964,-0.0294526,0.03486889,0.0,0.0,-0.5848047
31184011,-0.025281139,-0.021282919,0.039221104,0.0,0.0,-0.5848047
31203880,-0.019907953,-0.017789323,0.041134637,0.0,0.0,-0.5848047
31218833,-0.011791067,-0.018316671,0.04158806,0.0,0.0,-0.5848047
31243663,-0.00528417,-0.017207379,0.04568123,0.0,0.0,-0.5848047
31263526,0.0005483932,-0.016407818,0.04752933,0.0,0.0,-0.5848047
31278491,0.015808867,-0.017670708,0.04735853,0.0,0.0,-0.5848047
31303280,0.010460012,-0.017806271,0.049837515,0.0,0.0,-0.5848047
31323187,0.011385002,-0.014094478,0.051189873,0.0,0.0,-0.5848047
31338084,0.009445159,-0.011421878,0.05131366,0.0,0.0,-0.5848047
31362888,0.01639843,-0.0092811035,0.053472288,0.0,0.0,-0.58596444
31382755,0.01851999,-0.009213593,0.054105125,0.0,0.0,-0.5848047
31402661,0.021270605,-0.010636318,0.05480342,0.0,0.0,-0.58596444
31422352,0.01944913,-0.010940718,0.055041697,0.0,0.0,-0.58596444
31442266,0.015102401,-0.010221077,0.05587591,0.0,0.0,-0.58596444
31462094,0.011178067,-0.009647337,0.056405753,0.0,0.0,-0.58596444
31481985,0.0068352856,-0.0105309915,0.05656722,0.0,0.0,-0.588284
31501870,0.0060234475,-0.0115318615,0.05707407,0.0,0.0,-0.5964024
31521743,0.0046000457,-0.012034225,0.057135228,0.0,0.0,-0.59872186
31541619,0.0038772856,-0.013087649,0.056622587,0.0,0.0,-0.59872186
31561497,0.00065870053,-0.014051471,0.056469265,0.0,0.0,-0.59988165
31581438,-0.0016656439,-0.013168248,0.05635497,0.0,0.0,-0.59988165
31601358,-0.0068062283,-0.012891048,0.056651205,0.0,0.0,-0.60220116
31621070,-0.010813292,-0.013616083,0.056983836,0.0,0.0,-0.6149586
31640892,-0.0070785605,-0.012564491,0.057001986,0.0,0.0,-0.6195977
31660813,-0.011675817,-0.0122095095,0.056588605,0.0,0.0,-0.6195977
31680574,0.012975931,-0.012063111,0.056048036,0.0,0.0,-0.6195977
31700486,0.08693395,-0.012617589,0.0557786,0.0,0.0,-0.6195977
31720320,0.080500536,-0.012808123,0.0554607,0.0,0.0,-0.6195977
31740257,0.2751943,-0.008189069,0.05500792,0.0,0.0,-0.6195977
31765005,0.42645875,-0.0066667516,0.048185308,0.0,0.0,-0.6161183
31779900,0.4639711,-0.0053895763,0.04140935,0.0,0.0,-0.6149586
31799825,0.49900487,-0.0065899217,0.040592603,0.0,0.0,-0.6161183
31824663,0.43457076,-0.0070370287,0.040961187,0.0,0.0,-0.6137988
31839591,0.42064205,-0.0080234585,0.039740123,0.0,0.0,-0.6137988
31859536,0.3946639,-0.004771871,0.039223984,0.0,0.0,-0.5929231
31884220,0.35298726,0.0016433612,0.03871083,0.0,0.0,-0.59060353
31904075,0.30389887,0.0037600037,0.037338343,0.0,0.0,-0.5848047
31919087,0.2662326,0.0029259734,0.0371037,0.0,0.0,-0.5848047
31943862,0.26283723,0.0047705634,0.035093416,0.0,0.0,-0.5813255
31963833,0.34772244,0.003674532,0.02740437,0.0,0.0,-0.5813255
31978616,0.33575535,0.0043586795,0.03377699,0.0,0.0,-0.5813255
32003370,0.3696097,0.0033022221,0.02497862,0.0,0.0,-0.5743668
32023234,0.48034072,0.0029549557,0.02405144,0.0,0.0,-0.5453728
32038163,0.5136149,0.0049825115,0.029510446,0.0,0.0,-0.53377515
32063032,0.4969343,0.006683848,0.027976844,0.0,0.0,-0.52565676
32082883,0.41916507,0.00736589,0.027079025,0.0,0.0,-0.50440234
32102698,0.33667997,0.01042548,0.019341867,0.0,0.0,-0.4993136
32122659,0.26386335,0.014294406,0.018135097,0.0,0.0,-0.4993136
32142575,0.1742168,0.01670996,0.02283208,0.0,0.0,-0.46674556
32162338,0.09794941,0.020777285,0.03385789,0.0,0.0,-0.4596213
32182206,0.0750503,0.023410827,0.033790056,0.0,0.0,-0.45860356
32202080,0.055990383,0.029542152,0.033244655,0.0,0.0,-0.45860356
32222014,0.09928562,0.027635852,0.03235894,0.0,0.0,-0.45860356
32241907,0.12266565,0.0286724,0.03190572,0.0,0.0,-0.45860356
32261665,0.13402015,0.030158361,0.029305186,0.0,0.0,-0.4616568
32281515,0.13217503,0.030979639,0.028950943,0.0,0.0,-0.4636923
32301453,0.12304254,0.032881707,0.02936116,0.0,0.0,-0.4636923
32321275,0.14632773,0.029998578,0.027768558,0.0,0.0,-0.46572784
32341163,0.21533847,0.028469475,0.027083423,0.0,0.0,-0.4677633
32360906,0.21292602,0.030036127,0.025952112,0.0,0.0,-0.46878108
32380823,0.20720108,0.031428665,0.025812779,0.0,0.0,-0.46878108
32400737,0.19812611,0.032727424,0.025927749,0.0,0.0,-0.46878108
32420524,0.14981708,0.029775947,0.02410375,0.0,0.0,-0.46878108
32440458,0.11895262,0.037598666,0.023205576,0.0,0.0,-0.46878108
32460332,0.16957207,0.21216843,0.015391951,0.0,0.0,-0.47081658
32480202,0.14998524,0.20549653,0.015039711,0.0,0.0,-0.47081658
32500062,0.16993384,0.25089934,0.011811467,0.0,0.0,-0.49626034
32524833,0.13958272,0.2586665,0.011104366,0.0,0.0,-0.5064379
32539693,0.021931164,0.3572541,0.0039600115,0.0,0.0,-0.5372544
32559488,-0.10868478,0.41423717,0.00080343866,0.0,0.0,-0.5534911
32584385,-0.19069521,0.38335583,-0.00038392874,0.0,0.0,-0.5546509
32604200,-0.24178395,0.36527154,-0.0017722727,0.0,0.0,-0.5569704
32619100,-0.3052443,0.36717802,-0.0043080114,0.0,0.0,-0.56740826
32644067,-0.2710687,0.30199668,-0.0050075958,0.0,0.0,-0.5766864
32664012,-0.25431943,0.24668963,-0.004885191,0.0,0.0,-0.57784617
32679020,-0.22443599,0.21160227,-0.003944822,0.0,0.0,-0.57784617
32703687,-0.14573002,0.07882643,-0.0015255169,0.0,0.0,-0.57784617
32723574,-0.10675719,0.040166106,-0.0010783076,0.0,0.0,-0.57784617
32738464,-0.0595625,0.0013696579,0.00136746,0.0,0.0,-0.5790059
32763183,-0.0033098683,-0.032064248,0.0026695891,0.0,0.0,-0.57784617
32783033,0.09471113,-0.12285665,0.0081756115,0.0,0.0,-0.57784617
32802823,0.13785972,-0.16803887,0.010667772,0.0,0.0,-0.57784617
32822752,0.1451521,-0.15814196,0.012296927,0.0,0.0,-0.57784617
32842592,0.1275365,-0.13856846,0.0126002915,0.0,0.0,-0.57784617
32862453,0.23155624,-0.19359538,0.006111503,0.0,0.0,-0.57784617
32882283,0.21799336,-0.16633026,0.0063693216,0.0,0.0,-0.57784617
32902206,0.18982667,-0.14010306,0.0063676857,0.0,0.0,-0.57784617
32922242,0.20073272,-0.12755992,0.013922286,0.0,0.0,-0.57784617
32942116,0.2046338,-0.123827666,0.022895975,0.0,0.0,-0.5766864
32961882,0.16910912,-0.1324577,0.018987503,0.0,0.0,-0.5766864
32981739,0.11876324,-0.12222314,0.026301939,0.0,0.0,-0.57784617
33001587,0.089010894,-0.110174745,0.02749528,0.0,0.0,-0.57784617
33021452,0.014652871,-0.098174386,0.028753018,0.0,0.0,-0.5766864
33041224,-0.061780713,-0.10736362,0.024527712,0.0,0.0,-0.5766864
33061047,-0.16153638,-0.10002833,0.006798151,0.0,0.0,-0.5732071
33081029,-0.19783422,-0.11434749,0.020155283,0.0,0.0,-0.55928993
33100856,-0.17948413,-0.10145275,0.021850247,0.0,0.0,-0.55928993
33120728,-0.2579567,-0.09271142,0.02177956,0.0,0.0,-0.5511716
33140547,-0.22391991,-0.08037612,0.023647863,0.0,0.0,-0.5511716
33160415,-0.4541187,-0.14414845,0.0386232,0.0,0.0,-0.5500118
33180286,-0.57615155,-0.16950935,0.04118349,0.0,0.0,-0.5476923
33200279,-0.67030174,-0.15539634,0.041612383,0.0,0.0,-0.5476923
33225029,-0.73316354,-0.09942395,0.042911604,0.0,0.0,-0.5476923
33239991,-0.7426276,0.037452158,0.039056875,0.0,0.0,-0.548852
33259878,-0.6896777,0.18094978,0.03672931,0.0,0.0,-0.5500118
33284623,-0.6570802,0.3451759,0.03741683,0.0,0.0,-0.5511716
33299532,-0.56760526,0.3352114,0.03878577,0.0,0.0,-0.5511716
33319309,-0.5629231,0.44121417,0.0395341,0.0,0.0,-0.5534911
33344108,-0.45693758,0.41466314,0.04603959,0.0,0.0,-0.55581063
33363953,-0.3758984,0.40642208,0.049713597,0.0,0.0,-0.5569704
33378962,-0.37498343,0.4128388,0.049431376,0.0,0.0,-0.55581063
33403837,-0.3123226,0.3298854,0.055079184,0.0,0.0,-0.55581063
33423690,-0.34412777,0.2643296,0.056635436,0.0,0.0,-0.5581302
33438656,-0.34083727,0.22358361,0.056195613,0.0,0.0,-0.5581302
33458582,-0.31027132,0.11406602,0.05781868,0.0,0.0,-0.5581302
33483533,-0.2464094,0.014692603,0.061030477,0.0,0.0,-0.5581302
33503219,-0.19480523,-0.01992164,0.062647305,0.0,0.0,-0.5569704
33523060,-0.15557271,-0.09084055,0.063695416,0.0,0.0,-0.5581302
33543013,-0.11667036,-0.084414795,0.065098174,0.0,0.0,-0.5581302
33562714,-0.08925512,-0.115212694,0.06560361,0.0,0.0,-0.5569704
33577524,-0.07678957,-0.09775721,0.06770512,0.0,0.0,-0.5569704
33602318,-0.047535654,-0.086391255,0.06871674,0.0,0.0,-0.5569704
33622229,-0.03562197,-0.08982007,0.069666475,0.0,0.0,-0.5569704
33642159,-0.024272783,-0.11364433,0.07078188,0.0,0.0,-0.5534911
33662056,-0.013714946,-0.09664919,0.07239795,0.0,0.0,-0.5384142
33681901,0.012908442,-0.07640093,0.074444935,0.0,0.0,-0.5384142
33701698,0.018056758,-0.07403463,0.075917125,0.0,0.0,-0.5152189
33721597,0.003290899,-0.100947246,0.07651451,0.0,0.0,-0.50745565
33741606,0.0034030082,-0.10282992,0.077998444,0.0,0.0,-0.5064379
33761343,0.0040889783,-0.085000485,0.07959739,0.0,0.0,-0.5064379
33781146,0.00460158,-0.08704331,0.08064636,0.0,0.0,-0.5013491
33801014,0.023622736,-0.0762125,0.08172704,0.0,0.0,-0.5013491
33820956,0.029823713,-0.06254605,0.08274623,0.0,0.0,-0.5013491
33840871,0.048368365,-0.038362168,0.08392907,0.0,0.0,-0.50033134
33860764,0.0449677,-0.013904472,0.08463512,0.0,0.0,-0.50033134
33880494,0.038361114,0.0086419,0.08587205,0.0,0.0,-0.50033134
33900309,0.031218113,0.004647463,0.08654625,0.0,0.0,-0.50033134
33925217,0.020856725,0.01778289,0.08752284,0.0,0.0,-0.50033134
33940063,0.013065593,0.024404328,0.08856713,0.0,0.0,-0.5013491
33959977,0.0046069915,0.035732932,0.08876505,0.0,0.0,-0.5013491
33984744,0.008017696,0.027477264,0.088221654,0.0,0.0,-0.50033134
33999703,-3.4759236e-05,0.033375554,0.089860015,0.0,0.0,-0.50033134
34019807,0.0058331243,0.04297097,0.089142844,0.0,0.0,-0.50033134
34039432,0.016560493,0.045573786,0.089816056,0.0,0.0,-0.50033134
34064377,0.020347048,0.058974825,0.08912265,0.0,0.0,-0.50033134
34079195,0.035768107,0.052455608,0.08772459,0.0,0.0,-0.50033134
34099044,0.08601874,0.060093015,0.08803937,0.0,0.0,-0.50033134
34123805,0.11283403,0.07073002,0.08882348,0.0,0.0,-0.5013491
34138717,0.10480467,0.07059745,0.08664433,0.0,0.0,-0.5013491
34158481,0.13673751,0.083049566,0.08719442,0.0,0.0,-0.5013491
34183324,0.23386872,0.08658746,0.08710138,0.0,0.0,-0.5013491
34203264,0.25780484,0.086102135,0.08625834,0.0,0.0,-0.5013491
34218237,0.32919094,0.042065587,0.087198295,0.0,0.0,-0.5013491
34243010,0.36553338,0.04204323,0.08578398,0.0,0.0,-0.5013491
34262938,0.39037162,0.04453519,0.08484904,0.0,0.0,-0.5013491
34282824,0.3999077,0.02635658,0.083482765,0.0,0.0,-0.5013491
34302595,0.35541674,0.02130302,0.08327162,0.0,0.0,-0.5023669
34322617,0.2987867,0.017374692,0.08141308,0.0,0.0,-0.5023669
34342474,0.23682824,0.0047502806,0.079705,0.0,0.0,-0.50440234
34362199,0.1800366,0.013333539,0.07778209,0.0,0.0,-0.50440234
34382033,0.13608342,0.019180886,0.07534551,0.0,0.0,-0.50949115
34401876,0.08216119,0.028303161,0.07348254,0.0,0.0,-0.50949115
34421682,0.020587267,0.03179934,0.06360839,0.0,0.0,-0.5084734
34441646,-0.021661146,-0.05191817,0.067830935,0.0,0.0,-0.50949115
34461557,-0.044632405,-0.065614365,0.06590898,0.0,0.0,-0.50949115
34481426,-0.044493638,-0.060295295,0.06310616,0.0,0.0,-0.5105798
34501333,-0.06383218,-0.051562816,0.059889738,0.0,0.0,-0.5105798
34521197,-0.08035173,-0.03015592,0.05676631,0.0,0.0,-0.5105798
34541095,-0.07865207,-0.018687503,0.05323809,0.0,0.0,-0.5105798
34561075,-0.07802354,0.013573709,0.04983227,0.0,0.0,-0.5105798
34580693,-0.11594974,0.070604354,0.046227854,0.0,0.0,-0.5105798
34600571,-0.123698615,0.11844233,0.042431712,0.0,0.0,-0.5105798
34625398,-0.10540732,0.20609112,0.037317738,0.0,0.0,-0.5105798
34640297,-0.0730901,0.26652566,0.035727933,0.0,0.0,-0.5105798
34660120,-0.029733077,0.36864895,0.03100343,0.0,0.0,-0.5105798
34680043,0.032565307,0.55412793,0.025731597,0.0,0.0,-0.5117396
34699813,0.10644435,0.65850914,0.02261738,0.0,0.0,-0.5128994
34719741,0.10130292,0.60874164,0.021291066,0.0,0.0,-0.5128994
34739585,0.10641751,0.5612214,0.020300595,0.0,0.0,-0.5128994
34764422,0.042011455,0.48995423,0.018198043,0.0,0.0,-0.5128994
34779395,-0.0038857122,0.4927619,0.016084783,0.0,0.0,-0.5140591
34799226,-0.035966787,0.41692486,0.014185725,0.0,0.0,-0.5140591
34824107,-0.0616833,0.32992774,0.0137939155,0.0,0.0,-0.5140591
34843881,-0.053900246,0.30965132,0.011800145,0.0,0.0,-0.5140591
34858830,-0.03893513,0.31703687,0.007514911,0.0,0.0,-0.5140591
34883610,-0.02856392,0.26373208,0.005776184,0.0,0.0,-0.5140591
34903561,-0.15050414,0.19138616,0.0010195816,0.0,0.0,-0.52797633
34918392,-0.15283689,0.17076164,-0.00077923253,0.0,0.0,-0.52797633
34943219,-0.19142233,0.094836906,-0.005540749,0.0,0.0,-0.53145564
34963037,-0.2171504,0.023356112,-0.006924619,0.0,0.0,-0.53145564
34977913,-0.26927385,-0.07431139,-0.008815551,0.0,0.0,-0.5326154
35002746,-0.30400836,-0.2724642,-0.011886124,0.0,0.0,-0.5326154
35022534,-0.40336537,-0.518156,-0.0150874555,0.0,0.0,-0.5326154
35042473,-0.4044046,-0.576471,-0.019234182,0.0,0.0,-0.5326154
35062319,-0.3815014,-0.6410738,-0.023263166,0.0,0.0,-0.5326154
35082338,-0.32728687,-0.7281871,-0.026051184,0.0,0.0,-0.5326154
35102092,-0.27582338,-0.64641285,-0.031507317,0.0,0.0,-0.5326154
35121921,-0.25597048,-0.57315004,-0.03771392,0.0,0.0,-0.5326154
35141834,-0.2163043,-0.47656238,-0.04170693,0.0,0.0,-0.5326154
35161735,-0.18717314,-0.38535064,-0.045038808,0.0,0.0,-0.5326154
35181666,-0.16313352,-0.30950487,-0.04688572,0.0,0.0,-0.5326154
35201432,-0.13466133,-0.24822725,-0.04897874,0.0,0.0,-0.5326154
35221303,-0.083120935,-0.2063614,-0.05025881,0.0,0.0,-0.5326154
35241107,-0.06304394,-0.1772305,-0.05053076,0.0,0.0,-0.5326154
35260908,-0.054780103,-0.1580551,-0.05100957,0.0,0.0,-0.5326154
35280846,-0.038044874,-0.14227706,-0.052268595,0.0,0.0,-0.5326154
35300688,-0.013995046,-0.13100602,-0.05358038,0.0,0.0,-0.5326154
35320545,-0.013634417,-0.11562815,-0.053462636,0.0,0.0,-0.5326154
35340504,0.038425367,-0.09801162,-0.053628683,0.0,0.0,-0.5326154
35360452,0.14977755,-0.080660015,-0.053922106,0.0,0.0,-0.5326154
35380180,0.2115647,-0.07269141,-0.054908067,0.0,0.0,-0.5326154
35405097,0.3220059,-0.060149282,-0.054103717,0.0,0.0,-0.53609467
35419967,0.4943472,-0.051000003,-0.054077126,0.0,0.0,-0.5465326
35439890,0.6235664,-0.042392176,-0.05275374,0.0,0.0,-0.5534911
35464673,0.68770474,-0.041703843,-0.053763404,0.0,0.0,-0.5743668
35479536,0.7027733,-0.037305173,-0.053320702,0.0,0.0,-0.5766864
35499262,0.6132319,-0.033836555,-0.053013217,0.0,0.0,-0.5766864
35524090,0.566409,-0.031655114,-0.05414148,0.0,0.0,-0.5848047
35539059,0.48641363,-0.023160787,-0.05321271,0.0,0.0,-0.5848047
35558909,0.4462913,-0.014326558,-0.054118358,0.0,0.0,-0.5929231
35583727,0.34807873,-0.004395199,-0.05501529,0.0,0.0,-0.59408283
35603696,0.31151897,0.004368998,-0.06839843,0.0,0.0,-0.59408283
35618727,0.38592842,0.0098773325,-0.06173142,0.0,0.0,-0.59408283
35643358,0.3553924,0.011454928,-0.06389636,0.0,0.0,-0.59408283
35663457,0.32427308,0.0169909,-0.057967305,0.0,0.0,-0.59408283
35678185,0.28609446,0.02092711,-0.055904593,0.0,0.0,-0.59408283
35703017,0.19502755,0.01676335,-0.05724814,0.0,0.0,-0.59408283
35722862,0.15107411,0.013885522,-0.056916095,0.0,0.0,-0.59408283
35742641,0.10219269,0.016981669,-0.05723634,0.0,0.0,-0.59408283
35762463,0.05045616,0.018935096,-0.057620097,0.0,0.0,-0.5929231
35782312,0.0040180134,0.022065248,-0.058277454,0.0,0.0,-0.5929231
35802248,-0.15069643,0.02804779,-0.06549376,0.0,0.0,-0.5929231
35822109,-0.19888297,0.03483955,-0.060174916,0.0,0.0,-0.5929231
35842026,-0.16598858,0.03390587,-0.06692287,0.0,0.0,-0.5929231
35861886,-0.13736922,0.036286823,-0.062683806,0.0,0.0,-0.5929231
35881750,-0.2804553,0.037764404,-0.06372153,0.0,0.0,-0.5929231
35901753,-0.2520314,0.03271825,-0.06452756,0.0,0.0,-0.5929231
35921523,-0.32796738,0.030619819,-0.06634478,0.0,0.0,-0.5929231
35941384,-0.34580308,0.027727082,-0.06729765,0.0,0.0,-0.5929231
35961245,-0.35881296,0.023970779,-0.068859175,0.0,0.0,-0.5929231
35981113,-0.35639244,0.024456775,-0.071050525,0.0,0.0,-0.5929231
36000838,-1.1728858,0.04409268,-0.072495356,0.0,0.0,-0.5929231
36020681,-1.4936265,0.05637373,-0.07339743,0.0,0.0,-0.5929231
36040613,-1.0064524,0.051215596,-0.07738112,0.0,0.0,-0.5929231
36060484,-0.9642206,0.06421056,-0.07999078,0.0,0.0,-0.5929231
36080349,-0.77044594,0.07074551,-0.0812872,0.0,0.0,-0.5929231
36100174,-0.59626424,0.06338085,-0.08250091,0.0,0.0,-0.5929231
36120121,-0.5613583,0.052085362,-0.084088095,0.0,0.0,-0.5929231
36139982,-0.4196058,0.03675729,-0.085808426,0.0,0.0,-0.5929231
36164916,-0.27506286,0.019185064,-0.086437404,0.0,0.0,-0.5929231
36179736,-0.19454294,0.0073386775,-0.088857226,0.0,0.0,-0.5929231
36199614,-0.16611886,0.0058244877,-0.09057895,0.0,0.0,-0.5929231
36224353,-0.14897037,0.013331712,-0.0906644,0.0,0.0,-0.5929231
36244313,-0.13835838,0.01659834,-0.09199757,0.0,0.0,-0.5929231
36259105,-0.12534097,0.019546665,-0.095128484,0.0,0.0,-0.5929231
36283939,-0.108519755,0.02452001,-0.0950192,0.0,0.0,-0.5929231
36303753,-0.08723039,0.024977095,-0.09631816,0.0,0.0,-0.5929231
36318687,-0.06834796,0.022891968,-0.09858494,0.0,0.0,-0.5929231
36343503,-0.050800353,0.018888919,-0.09914732,0.0,0.0,-0.5929231
36363358,-0.03719867,0.014844758,-0.09976884,0.0,0.0,-0.5929231
36383288,-0.029966354,0.0066059744,-0.10081196,0.0,0.0,-0.5929231
36403149,-0.021971943,-0.0003417084,-0.10191726,0.0,0.0,-0.5929231
36423094,0.0035428256,-0.0038597987,-0.10265059,0.0,0.0,-0.5929231
36443074,0.03259488,-0.0054070405,-0.10359185,0.0,0.0,-0.5929231
36462683,0.024083553,-0.005248066,-0.10371221,0.0,0.0,-0.5929231
36482541,0.0018508823,-0.006650602,-0.11075825,0.0,0.0,-0.5917633
36502470,0.0015471269,-0.009045167,-0.12952913,0.0,0.0,-0.59060353
36522348,0.0006028451,-0.015495631,-0.11852451,0.0,0.0,-0.5824852
36542165,0.0022362892,-0.018644817,-0.11942643,0.0,0.0,-0.5824852
36562071,0.0052892193,-0.021025715,-0.10713034,0.0,0.0,-0.5766864
36581861,0.009335222,-0.023986382,-0.10696491,0.0,0.0,-0.5732071
36601729,0.00969177,-0.02442737,-0.10759689,0.0,0.0,-0.5732071
36621700,0.09601064,-0.026272848,-0.10777007,0.0,0.0,-0.5732071
36641523,0.1251099,-0.02673297,-0.108287476,0.0,0.0,-0.5732071
36661365,0.14699829,-0.022302767,-0.108764224,0.0,0.0,-0.5732071
36681264,0.19943689,-0.020132815,-0.108224936,0.0,0.0,-0.5732071
36701229,0.18213722,-0.015214364,-0.107602715,0.0,0.0,-0.5732071
36720900,0.1591488,-0.012375695,-0.10652438,0.0,0.0,-0.5732071
36740768,0.13275614,-0.011091244,-0.10503357,0.0,0.0,-0.5732071
36760685,0.10411689,-0.008348838,-0.10424765,0.0,0.0,-0.5732071
36780630,0.07975054,-0.0056593334,-0.10335682,0.0,0.0,-0.5732071
36800605,0.06077204,-0.0035658306,-0.102632426,0.0,0.0,-0.5732071
36820330,0.04787234,-0.0031499802,-0.10197012,0.0,0.0,-0.5732071
36840210,0.03809003,-0.003614012,-0.1012255,0.0,0.0,-0.5732071
36864967,0.034503937,-0.0028682288,-0.10074845,0.0,0.0,-0.5732071
36879946,0.03545614,0.03628411,-0.09948011,0.0,0.0,-0.5732071
36899735,0.05449008,0.053071942,-0.09822269,0.0,0.0,-0.5732071
36924519,0.049026135,0.046100885,-0.0977139,0.0,0.0,-0.5732071
36939401,0.1858859,-0.0077604717,-0.09528798,0.0,0.0,-0.5407337
36959376,0.25955603,-0.042604838,-0.09413345,0.0,0.0,-0.5349349
36984237,0.47452587,-0.059303418,-0.091688514,0.0,0.0,-0.52333724
37004080,0.45034444,-0.067620985,-0.089777514,0.0,0.0,-0.52333724
37018962,0.46081483,-0.06920371,-0.089735515,0.0,0.0,-0.52333724
37043786,0.2763474,0.02927608,-0.08769881,0.0,0.0,-0.52333724
37063629,0.067606494,0.0940235,-0.08701728,0.0,0.0,-0.52333724
37078509,0.051723406,0.09506835,-0.08470334,0.0,0.0,-0.52333724
37103283,-0.012795769,0.078025945,-0.08340861,0.0,0.0,-0.52333724
37123142,-0.0845882,0.07151576,-0.08147742,0.0,0.0,-0.52333724
37143062,-0.120619625,0.09157131,-0.07962584,0.0,0.0,-0.52333724
37157908,-0.112371415,0.08469516,-0.07917805,0.0,0.0,-0.52333724
37182755,-0.14806998,0.14499527,-0.076051906,0.0,0.0,-0.5210178
37202577,-0.2291653,0.20852616,-0.07490914,0.0,0.0,-0.5105798
37217590,-0.23089254,0.22788465,-0.07344283,0.0,0.0,-0.5084734
37242564,-0.10912919,0.29128012,-0.07775882,0.0,0.0,-0.5064379
37262381,0.13306217,0.23811159,-0.080773115,0.0,0.0,-0.5064379
37282056,0.28152978,0.14946222,-0.07626727,0.0,0.0,-0.5064379
37301902,0.6348498,0.010372427,-0.0706579,0.0,0.0,-0.5064379
37321781,0.7551476,-0.023294855,-0.060475208,0.0,0.0,-0.5064379
37341618,1.141387,-0.041412648,-0.05406796,0.0,0.0,-0.5064379
37361530,1.0587323,-0.048123308,-0.0512587,0.0,0.0,-0.5064379
37381403,1.2231847,-0.05667752,-0.052073065,0.0,0.0,-0.5064379
37401231,1.2930126,-0.04923417,-0.048200015,0.0,0.0,-0.5064379
37421076,1.2178859,-0.019612746,-0.040937547,0.0,0.0,-0.50745565
37440994,1.1551588,-0.012065025,-0.03819767,0.0,0.0,-0.50745565
37460884,1.0141644,-0.021531243,-0.029211108,0.0,0.0,-0.50745565
