timestamp,time_utc_usec,lat,lon,alt,alt_ellipsoid,s_variance_m_s,c_variance_rad,eph,epv,hdop,vdop,noise_per_ms,jamming_indicator,vel_m_s,vel_n_m_s,vel_e_m_s,vel_d_m_s,cog_rad,timestamp_time_relative,heading,heading_offset,fix_type,vel_ned_valid,satellites_used
23319003,1634097314800156,340347453,1087573352,425189,397275,0.24000001,0.7318844,1.296,2.0860002,0.65,0.96999997,113,11,0.19600001,-0.19500001,-0.011000001,-0.08400001,4.514377,0,nan,0.0,3,1,18
23513958,1634097315000156,340347445,1087573353,425157,397243,0.18100001,0.7318912,1.284,2.0700002,0.65,0.96999997,113,11,0.09,-0.09,0.004,0.034,4.514377,0,nan,0.0,3,1,18
24318941,1634097315800156,340347445,1087573356,425165,397251,0.246,0.35951686,1.248,2.009,0.65,0.96999997,113,9,0.037,-0.033,-0.015000001,-0.038000003,6.066828,0,nan,0.0,3,1,18
25318032,1634097316800156,340347444,1087573357,425298,397384,0.15300001,0.35958335,1.207,1.9330001,0.65,0.96999997,114,11,0.031000001,-0.008,0.029000001,0.006,6.066828,0,nan,0.0,3,1,18
26316950,1634097317800157,340347444,1087573357,425435,397521,0.16700001,0.3596586,1.172,1.8640001,0.65,0.96999997,114,9,0.086,0.028,0.081,-0.09,6.066828,0,nan,0.0,3,1,18
27314995,1634097318800157,340347445,1087573375,425743,397829,0.25,0.7080727,1.143,1.8130001,0.65,0.96999997,114,14,0.072000004,-0.067,-0.024,-0.34100002,6.203996,0,nan,0.0,3,1,18
28311217,1634097319800157,340347442,1087573347,426155,398241,0.24100001,0.46442127,1.1110001,1.7670001,0.65,0.96999997,114,13,0.051000003,0.046000004,0.023000002,-0.521,4.5382915,0,nan,0.0,3,1,18
29315960,1634097320800157,340347444,1087573310,426435,398521,0.136,0.31418666,1.0810001,1.7140001,0.65,0.96999997,114,10,0.588,-0.17400001,-0.56100005,-0.21400002,4.324788,0,nan,0.0,3,1,18
30318941,1634097321800158,340347396,1087573260,426728,398814,0.21800001,0.4123911,1.056,1.6650001,0.62,0.89,114,9,0.48900002,-0.17600001,-0.45700002,-0.582,3.9317114,0,nan,0.0,3,1,19
31316942,1634097322800158,340347412,1087573210,426709,398795,0.164,0.34546715,1.0300001,1.618,0.62,0.89,114,9,0.48000002,0.23300001,-0.42000002,-0.006,5.243683,0,nan,0.0,3,1,19
32317074,1634097323800158,340347386,1087573163,427021,399107,0.245,0.28865808,1.01,1.5830001,0.65,0.96999997,114,16,0.70400006,-0.39400002,-0.583,-0.83100003,3.996731,0,nan,0.0,3,1,18
33316156,1634097324800159,340347399,1087573110,427234,399320,0.20700002,0.24843976,0.98700005,1.547,0.65,0.96999997,114,13,0.56100005,0.503,-0.25,-0.66300005,5.585038,0,nan,0.0,3,1,18
34317067,1634097325800159,340347414,1087573116,427381,399467,0.16100001,0.7553666,0.95900005,1.508,0.65,0.96999997,114,16,0.178,-0.08400001,0.157,-0.086,0.22472021,0,nan,0.0,3,1,18
35321184,1634097326800159,340347392,1087573149,426900,398986,0.178,0.3152941,0.934,1.4720001,0.65,0.96999997,114,17,0.47200003,-0.22200002,0.41700003,0.53000003,2.0064735,0,nan,0.0,3,1,18
36320946,1634097327800160,340347371,1087573197,426501,398587,0.186,0.4989685,0.919,1.4440001,0.65,0.96999997,114,11,0.36400002,-0.10700001,0.347,-0.25100002,1.8968632,0,nan,0.0,3,1,18
37319062,1634097328800160,340347319,1087573234,427074,399160,0.22600001,0.15907402,0.90400004,1.4180001,0.71999997,1.16,114,15,0.81600004,-0.73600006,0.35300002,-0.75200003,2.717068,0,nan,0.0,3,1,17
38317998,1634097329800160,340347293,1087573256,427187,399273,0.23700002,0.16953376,0.89500004,1.3970001,0.62,0.89,114,9,0.82000005,0.82000005,-0.010000001,0.32700002,0.115252465,0,nan,0.0,3,1,19
39318216,1634097330800161,340347374,1087573265,426511,398597,0.23700002,0.23651165,0.883,1.373,0.65,0.96999997,114,11,0.532,0.523,0.098000005,0.892,0.082875215,0,nan,0.0,3,1,18
40316954,1634097331800161,340347365,1087573265,425390,397476,0.22100002,0.21359722,0.87100005,1.3560001,0.71999997,1.16,114,12,0.688,-0.68600005,-0.052,-0.098000005,3.792646,0,nan,0.0,3,1,17
41319929,1634097332800161,340347315,1087573249,425505,397591,0.27400002,0.5432545,0.86500007,1.3440001,0.71999997,1.16,114,10,0.31800002,-0.28500003,-0.142,-0.34100002,3.4864068,0,nan,0.0,3,1,17
42316026,1634097333800162,340347312,1087573232,425841,397927,0.21700001,0.76224273,0.86100006,1.3310001,0.65,0.96999997,114,18,0.19600001,-0.193,-0.038000003,0.21100001,3.9374373,0,nan,0.0,3,1,18
43322991,1634097334800162,340347283,1087573236,425771,397857,0.21200001,0.72389793,0.85600007,1.314,0.66999996,0.98999995,114,17,0.171,-0.16900001,0.025,0.024,3.02965,0,nan,0.0,3,1,17
44307945,1634097335800162,340347322,1087573233,426064,398150,0.20600002,0.19576415,0.85200006,1.296,0.66999996,0.98999995,114,19,0.68700004,0.68500006,-0.046000004,-0.16700001,6.222315,0,nan,0.0,3,1,17
45315944,1634097336800162,340347348,1087573231,426235,398321,0.25300002,0.36694324,0.845,1.2820001,0.72999996,1.1999999,114,15,0.374,-0.37300003,-0.020000001,-0.238,5.24115,0,nan,0.0,3,1,16
46318165,1634097337800163,340347341,1087573232,426426,398512,0.201,0.7659578,0.841,1.2700001,0.71999997,1.16,114,11,0.14500001,0.07,-0.127,-0.275,3.915456,0,nan,0.0,3,1,17
47315006,1634097338800163,340347351,1087573234,426670,398756,0.21300001,0.76602006,0.83400005,1.2600001,0.71999997,1.16,114,17,0.10300001,0.097,0.032,-0.317,3.915456,0,nan,0.0,3,1,17
48316857,1634097339800163,340347354,1087573240,426853,398939,0.21200001,0.7660817,0.82400006,1.2470001,0.71999997,1.16,114,12,0.09900001,0.098000005,-0.007,-0.298,3.915456,0,nan,0.0,3,1,17
49315943,1634097340800164,340347359,1087573243,427023,399109,0.22500001,0.7661369,0.81200004,1.2360001,0.65,0.96999997,114,11,0.091000006,0.042000003,-0.080000006,-0.33900002,3.915456,0,nan,0.0,3,1,18
50315942,1634097341800164,340347355,1087573238,427293,399379,0.21300001,0.7661969,0.8,1.223,0.71999997,1.16,114,11,0.030000001,0.015000001,-0.026,-0.39000002,3.915456,0,nan,0.0,3,1,17
51320948,1634097342800164,340347351,1087573235,427568,399654,0.19100001,0.71813774,0.78900003,1.212,0.65,0.96999997,114,13,0.2,-0.054,-0.193,-0.155,4.1937966,0,nan,0.0,3,1,18
52318959,1634097343800165,340347345,1087573173,427837,399923,0.15200001,0.18777299,0.78000003,1.2010001,0.69,1.15,114,13,0.75500005,-0.05,-0.754,-0.27100003,4.656936,0,nan,0.0,3,1,18
53321011,1634097344800165,340347342,1087573086,428060,400146,0.13700001,0.18428111,0.771,1.1930001,0.69,1.15,114,9,0.86100006,-0.019000001,-0.86100006,-0.20400001,4.729146,0,nan,0.0,3,1,18
54323200,1634097345800165,340347347,1087573009,428032,400118,0.13100001,0.2010813,0.76400006,1.1860001,0.69,1.15,114,16,0.8,0.21000001,-0.772,-0.053000003,4.8992248,0,nan,0.0,3,1,18
55319027,1634097346800166,340347352,1087572875,428000,400086,0.143,0.14224084,0.76100004,1.1780001,0.69,1.15,114,10,1.6810001,0.008,-1.6810001,-0.15,4.7545233,0,nan,0.0,3,1,18
56321099,1634097347800166,340347355,1087572710,428130,400216,0.15300001,0.12952873,0.757,1.1730001,0.63,0.96,114,16,1.404,0.09200001,-1.401,-0.102000006,4.7556233,0,nan,0.0,3,1,19
57310018,1634097348800166,340347353,1087572538,428287,400373,0.12200001,0.081148736,0.75200003,1.167,0.61,0.89,113,16,1.886,-0.053000003,-1.886,-0.056,4.7052135,0,nan,0.0,3,1,20
58317948,1634097349800167,340347346,1087572328,428462,400548,0.13000001,0.0741826,0.74500006,1.154,0.61,0.89,113,10,1.9000001,0.033,-1.9000001,-0.26900002,4.7179384,0,nan,0.0,3,1,20
59319038,1634097350800167,340347348,1087572144,428613,400699,0.125,0.0954161,0.73800004,1.143,0.61,0.89,113,10,1.7450001,0.076000005,-1.743,-0.377,4.7533817,0,nan,0.0,3,1,20
60323012,1634097351800167,340347356,1087571934,428745,400830,0.13100001,0.06689759,0.73,1.126,0.61,0.89,113,11,1.9770001,0.142,-1.9720001,-0.22500001,4.7762628,0,nan,0.0,3,1,20
61325944,1634097352800168,340347364,1087571760,428860,400945,0.15100001,0.13674933,0.72800004,1.12,0.61,0.89,89,4,1.3360001,0.071,-1.3340001,-0.085,4.7599387,0,nan,0.0,3,1,20
62312944,1634097353800168,340347378,1087571578,428960,401046,0.143,0.085003994,0.725,1.115,0.61,0.89,89,8,1.9590001,0.296,-1.9360001,-0.22200002,4.8395624,0,nan,0.0,3,1,20
63316947,1634097354800168,340347396,1087571383,429046,401132,0.156,0.091588415,0.72,1.1060001,0.61,0.89,89,7,1.922,0.029000001,-1.922,-0.17400001,4.7794123,0,nan,0.0,3,1,20
64317205,1634097355800168,340347410,1087571171,429015,401100,0.133,0.08685892,0.71500003,1.0940001,0.61,0.89,90,8,1.8210001,0.2,-1.8100001,-0.083000004,4.796376,0,nan,0.0,3,1,20
65315946,1634097356800169,340347427,1087570955,428893,400979,0.128,0.08369534,0.71000004,1.08,0.61,0.89,96,5,1.8340001,0.185,-1.8240001,-0.14500001,4.7850966,0,nan,0.0,3,1,20
66315977,1634097357800169,340347445,1087570751,428783,400869,0.149,0.07217739,0.70600003,1.065,0.61,0.89,96,5,2.273,0.120000005,-2.2700002,-0.21300001,4.7842097,0,nan,0.0,3,1,20
67311995,1634097358800169,340347461,1087570513,428772,400857,0.14,0.07665765,0.70400006,1.0530001,0.61,0.89,96,7,2.0870001,0.216,-2.0760002,-0.2,4.799318,0,nan,0.0,3,1,20
68316126,1634097359800170,340347481,1087570281,428621,400706,0.13700001,0.06333538,0.70000005,1.039,0.61,0.89,96,5,2.2640002,0.156,-2.2580001,-0.09,4.7903166,0,nan,0.0,3,1,20
69314083,1634097360800170,340347493,1087570030,428556,400641,0.13800001,0.05611338,0.697,1.026,0.61,0.89,96,4,2.631,0.120000005,-2.6290002,-0.09900001,4.762525,0,nan,0.0,3,1,20
70316948,1634097361800170,340347506,1087569767,428563,400648,0.14,0.06599945,0.694,1.014,0.61,0.89,103,4,2.331,0.126,-2.328,-0.23,4.7652025,0,nan,0.0,3,1,20
71316954,1634097362800171,340347521,1087569496,428556,400642,0.13800001,0.061329294,0.69100004,1.0040001,0.61,0.89,103,6,2.506,0.119,-2.5040002,-0.149,4.7578225,0,nan,0.0,3,1,20
72316242,1634097363800171,340347540,1087569236,428271,400356,0.148,0.07337015,0.68700004,0.99300003,0.61,0.89,103,5,1.8790001,0.039,-1.8790001,0.37600002,4.7743773,0,nan,0.0,3,1,20
73317982,1634097364800171,340347551,1087569043,428087,400172,0.13900001,0.090592876,0.684,0.98300004,0.61,0.89,103,5,1.5280001,0.15200001,-1.521,-0.289,4.797318,0,nan,0.0,3,1,20
74316030,1634097365800172,340347572,1087568823,428014,400100,0.142,0.057619426,0.68200004,0.97400004,0.61,0.89,103,5,2.4390001,0.289,-2.421,0.105000004,4.8248425,0,nan,0.0,3,1,20
75319073,1634097366800172,340347595,1087568530,427928,400013,0.14,0.055658195,0.68100005,0.96700007,0.61,0.89,103,9,2.663,0.264,-2.65,-0.048,4.8029475,0,nan,0.0,3,1,20
76325946,1634097367800172,340347609,1087568264,427781,399866,0.13800001,0.056433298,0.67800003,0.95900005,0.61,0.89,103,8,2.6090002,0.135,-2.6060002,0.016,4.7649593,0,nan,0.0,3,1,20
77325493,1634097368800173,340347623,1087567978,427646,399731,0.156,0.06234438,0.67700005,0.95300007,0.61,0.89,103,8,2.476,0.282,-2.46,0.018000001,4.7910213,0,nan,0.0,3,1,20
78326237,1634097369800173,340347639,1087567695,427436,399521,0.155,0.057742998,0.679,0.95000005,0.61,0.89,103,5,2.65,0.208,-2.6420002,0.126,4.7786646,0,nan,0.0,3,1,20
79322971,1634097370800173,340347654,1087567398,427202,399287,0.14400001,0.051617585,0.679,0.94500005,0.61,0.89,103,7,2.8720002,0.192,-2.8660002,0.136,4.773661,0,nan,0.0,3,1,20
80322084,1634097371800174,340347668,1087567149,427044,399129,0.15300001,0.083093904,0.67600006,0.94000006,0.61,0.89,110,6,1.848,0.18800001,-1.838,0.067,4.794055,0,nan,0.0,3,1,20
81322122,1634097372800174,340347687,1087566923,426905,398990,0.18,0.075487584,0.67800003,0.938,0.61,0.89,111,6,2.4910002,0.177,-2.4840002,-0.023000002,4.7967257,0,nan,0.0,3,1,20
82323379,1634097373800174,340347703,1087566647,426902,398987,0.17500001,0.07093978,0.68100005,0.93900007,0.61,0.89,110,5,2.684,0.193,-2.677,-0.036000002,4.778972,0,nan,0.0,3,1,20
83322949,1634097374800174,340347718,1087566354,426792,398877,0.171,0.06519852,0.68600005,0.943,0.61,0.89,110,5,2.801,0.113000005,-2.798,-0.047000002,4.7550726,0,nan,0.0,3,1,20
84326033,1634097375800175,340347734,1087566056,426702,398787,0.17300001,0.061509065,0.69000006,0.94500005,0.61,0.89,110,5,2.788,0.20500001,-2.7800002,-0.075,4.779124,0,nan,0.0,3,1,20
85319943,1634097376800175,340347752,1087565756,426633,398717,0.18800001,0.06636946,0.693,0.94500005,0.61,0.89,103,5,2.736,0.256,-2.7240002,0.039,4.7936797,0,nan,0.0,3,1,20
86325978,1634097377800175,340347776,1087565447,426394,398479,0.16000001,0.055518396,0.697,0.947,0.61,0.89,103,5,3.045,0.22000001,-3.0370002,0.291,4.7872453,0,nan,0.0,4,1,20
87323974,1634097378800176,340347798,1087565119,426200,398285,0.14,0.04910815,0.69500005,0.94400007,0.61,0.89,103,5,3.0070002,0.23900001,-2.9970002,0.09200001,4.786269,0,nan,0.0,4,1,20
88321725,1634097379800176,340347810,1087564845,426202,398287,0.21300001,0.08937622,0.69500005,0.94100004,0.61,0.89,103,6,2.3360002,0.109000005,-2.3330002,-0.18900001,4.7618847,0,nan,0.0,4,1,20
89324188,1634097380800176,340347817,1087564561,426115,398200,0.17300001,0.057778947,0.703,0.94600004,0.61,0.89,103,5,2.924,0.040000003,-2.923,0.094000004,4.7277164,0,nan,0.0,4,1,20
90322395,1634097381800177,340347821,1087564233,425960,398044,0.15200001,0.0652994,0.702,0.94400007,0.61,0.89,103,6,2.611,-0.001,-2.611,0.044000003,4.714544,0,nan,0.0,4,1,20
91324255,1634097382800177,340347825,1087563943,425855,397939,0.14600001,0.05876349,0.702,0.94500005,0.61,0.89,103,7,2.9250002,0.022000002,-2.9250002,0.171,4.724284,0,nan,0.0,4,1,20
92322150,1634097383800177,340347825,1087563617,425793,397877,0.172,0.055696595,0.70100003,0.947,0.61,0.89,103,9,3.3630002,-0.136,-3.3600001,0.05,4.692906,0,nan,0.0,4,1,20
93318012,1634097384800178,340347830,1087563237,425742,397826,0.164,0.051804688,0.703,0.95300007,0.61,0.89,103,12,3.417,0.125,-3.4150002,-0.018000001,4.739402,0,nan,0.0,4,1,20
94318969,1634097385800178,340347845,1087562880,425660,397744,0.171,0.05982011,0.703,0.95600003,0.61,0.89,103,12,3.1490002,0.075,-3.1480002,-0.061000004,4.750111,0,nan,0.0,4,1,20
95324166,1634097386800178,340347861,1087562532,425745,397829,0.14500001,0.047815215,0.703,0.95500004,0.61,0.89,103,4,3.6320002,0.179,-3.6280003,-0.006,4.7642236,0,nan,0.0,4,1,20
96322060,1634097387800179,340347876,1087562133,425807,397891,0.17400001,0.0460273,0.702,0.952,0.61,0.89,103,3,3.676,0.135,-3.6740003,-0.056,4.751789,0,nan,0.0,4,1,20
97324553,1634097388800179,340347897,1087561756,425674,397758,0.149,0.05215585,0.70100003,0.95000005,0.61,0.89,103,3,3.15,0.10300001,-3.1480002,0.20300001,4.763238,0,nan,0.0,4,1,20
98325953,1634097389800179,340347917,1087561411,425495,397580,0.22500001,0.08333109,0.70400006,0.95600003,0.61,0.89,103,14,2.9450002,0.101,-2.943,-0.001,4.7718444,0,nan,0.0,4,1,20
99324098,1634097390800180,340347927,1087561240,425358,397442,0.192,0.2227136,0.70500004,0.95900005,0.61,0.89,114,10,0.185,0.052,-0.177,0.16600001,4.770412,0,nan,0.0,4,1,20
100323980,1634097391800180,340347932,1087561187,425248,397332,0.157,0.24690038,0.70600003,0.961,0.61,0.89,114,5,0.77800006,0.006,-0.77800006,-0.067,4.7628064,0,nan,0.0,4,1,20
101330947,1634097392800180,340347932,1087561047,425393,397477,0.18100001,0.13643098,0.70900005,0.966,0.61,0.89,114,14,1.442,0.022000002,-1.442,-0.279,4.7096305,0,nan,0.0,4,1,20
102323958,1634097393800180,340347944,1087560831,425595,397679,0.209,0.09139922,0.71400005,0.9760001,0.61,0.89,114,6,2.4750001,0.22500001,-2.4640002,-0.252,4.7949805,0,nan,0.0,4,1,20
103325944,1634097394800181,340347965,1087560485,425799,397883,0.223,0.062306684,0.725,0.994,0.61,0.89,113,6,4.0600004,0.156,-4.057,-0.18300001,4.7605424,0,nan,0.0,4,1,20
104326985,1634097395800181,340347989,1087560060,426033,398117,0.172,0.058211792,0.73,1.0020001,0.61,0.89,106,5,3.153,0.32200003,-3.1360002,-0.072000004,4.7944746,0,nan,0.0,4,1,20
105324263,1634097396800181,340348010,1087559713,426030,398114,0.18400002,0.05735396,0.731,1.0120001,0.61,0.89,106,12,3.5530002,0.124000005,-3.551,0.006,4.7622266,0,nan,0.0,4,1,20
106329246,1634097397800182,340348000,1087559342,426017,398101,0.178,0.04965322,0.72800004,1.019,0.61,0.89,106,4,3.4510002,-0.48700002,-3.417,-0.008,4.619412,0,nan,0.0,4,1,20
107330953,1634097398800182,340347961,1087559012,426143,398227,0.142,0.085710846,0.725,1.0220001,0.61,0.89,106,4,1.9940001,-0.067,-1.9930001,-0.177,4.6166873,0,nan,0.0,4,1,20
108326103,1634097399800182,340347955,1087558926,426075,398159,0.157,0.55416125,0.725,1.024,0.61,0.89,106,9,0.20400001,0.017,-0.20400001,0.014,4.5519953,0,nan,0.0,4,1,20
109327219,1634097400800183,340347967,1087558901,426121,398205,0.16800001,0.6230438,0.72400004,1.0270001,0.61,0.89,106,7,0.238,0.164,-0.17300001,-0.112,5.376376,0,nan,0.0,4,1,20
110331961,1634097401800183,340347988,1087558895,426184,398268,0.19500001,0.5085268,0.72300005,1.0300001,0.61,0.89,106,8,0.14400001,0.13700001,0.045,-0.155,6.0965643,0,nan,0.0,4,1,20
111331086,1634097402800183,340347982,1087558929,426303,398387,0.17600001,0.3494676,0.71800005,1.031,0.61,0.89,106,11,0.44900003,-0.26200002,0.36400002,-0.132,1.981012,0,nan,0.0,4,1,20
112329941,1634097403800184,340347951,1087558919,426521,398604,0.16100001,0.34383598,0.71400005,1.031,0.61,0.89,106,6,0.44700003,-0.41700003,-0.163,-0.11000001,3.6380067,0,nan,0.0,4,1,20
113330945,1634097404800184,340347930,1087558918,426697,398781,0.164,0.3147033,0.708,1.0300001,0.61,0.89,106,10,0.46100003,-0.397,-0.23500001,-0.14500001,3.5773008,0,nan,0.0,4,1,20
114322307,1634097405800184,340347888,1087558865,426892,398976,0.164,0.37902215,0.708,1.033,0.61,0.89,106,8,0.504,-0.418,-0.282,0.0,3.9299922,0,nan,0.0,4,1,20
115314955,1634097406800185,340347857,1087558852,427145,399229,0.177,0.50435036,0.707,1.0370001,0.61,0.89,99,10,0.358,-0.333,-0.13100001,-0.112,3.5114324,0,nan,0.0,4,1,20
116324073,1634097407800185,340347809,1087558849,427343,399427,0.17400001,0.30582234,0.703,1.039,0.61,0.89,99,8,0.425,-0.41700003,0.081,-0.13800001,3.0215836,0,nan,0.0,4,1,20
117323188,1634097408800185,340347802,1087558860,427482,399566,0.21800001,0.30593875,0.698,1.0380001,0.61,0.89,100,8,0.076000005,-0.076000005,-0.003,-0.321,3.0215836,0,nan,0.0,4,1,20
118324233,1634097409800186,340347771,1087558803,427754,399838,0.13700001,0.1255007,0.694,1.034,0.61,0.89,106,10,1.1500001,-0.46400002,-1.052,-0.19900002,4.2441506,0,nan,0.0,4,1,20
119322994,1634097410800186,340347750,1087558755,427886,399970,0.14,0.5602955,0.689,1.023,0.61,0.89,106,11,0.201,-0.037,-0.19800001,-0.127,4.2359385,0,nan,0.0,4,1,20
120326622,1634097411800186,340347772,1087558689,427988,400072,0.16000001,0.1378112,0.689,1.0220001,0.63,0.96999997,106,12,1.136,0.592,-0.97,-0.17600001,5.185312,0,nan,0.0,4,1,19
121322994,1634097412800186,340347799,1087558624,428131,400215,0.149,0.59400237,0.688,1.0200001,0.63,0.96999997,107,15,0.28100002,0.054,-0.27600002,-0.20400001,5.025954,0,nan,0.0,4,1,19
122323941,1634097413800187,340347846,1087558598,428179,400262,0.18,0.10844621,0.688,1.014,0.63,0.96999997,107,10,1.3080001,1.256,-0.36600003,-0.15,5.9551163,0,nan,0.0,4,1,19
123321012,1634097414800187,340347952,1087558560,428242,400326,0.117000006,0.19622107,0.684,1.0070001,0.63,0.96999997,107,7,0.66700006,0.588,-0.314,-0.120000005,5.902946,0,nan,0.0,4,1,19
124325154,1634097415800187,340347997,1087558551,428353,400437,0.16800001,0.48991254,0.68,1.0020001,0.63,0.96999997,107,8,0.291,0.257,0.13700001,-0.24700001,0.13754486,0,nan,0.0,4,1,19
125325951,1634097416800188,340348015,1087558603,428484,400568,0.147,0.14473177,0.67700005,1.001,0.63,0.96999997,107,9,0.94600004,0.16800001,0.93000007,-0.163,1.3156396,0,nan,0.0,4,1,19
126317092,1634097417800188,340348029,1087558674,428656,400740,0.17300001,0.3952254,0.675,1.0020001,0.63,0.96999997,107,8,0.16600001,0.068,0.15100001,-0.136,1.3106141,0,nan,0.0,4,1,19
127324235,1634097418800188,340348027,1087558698,428882,400966,0.18100001,0.23070599,0.67200005,1.0040001,0.63,0.96999997,107,9,0.595,-0.261,0.535,-0.215,1.9491156,0,nan,0.0,4,1,19
128327941,1634097419800189,340347990,1087558769,428948,401031,0.148,0.36098433,0.671,1.008,0.63,0.96999997,107,8,0.40800002,-0.307,0.26900002,-0.033,2.2237334,0,nan,0.0,4,1,19
129324377,1634097420800189,340347971,1087558779,428980,401064,0.162,0.43343854,0.67,1.008,0.63,0.96999997,107,9,0.30200002,-0.252,0.16700001,0.007,2.693183,0,nan,0.0,4,1,19
130321179,1634097421800189,340347943,1087558897,429116,401200,0.126,0.091118924,0.67,1.0070001,0.63,0.96999997,107,9,1.5020001,-0.263,1.4790001,0.026,1.7863493,0,nan,0.0,4,1,19
131322137,1634097422800190,340347919,1087559013,429267,401351,0.162,0.16114135,0.66800004,1.0070001,0.63,0.96999997,114,7,0.83300006,-0.263,0.79,-0.18100001,1.8409526,0,nan,0.0,4,1,19
132325948,1634097423800190,340347897,1087559115,429334,401418,0.158,0.13851264,0.66700006,1.008,0.63,0.96999997,114,9,0.98100007,-0.287,0.93900007,-0.062000003,1.8562723,0,nan,0.0,4,1,19
133321972,1634097424800190,340347872,1087559162,429347,401431,0.194,0.40573284,0.66700006,1.0090001,0.63,0.96999997,114,9,0.37600002,-0.351,-0.135,-0.379,3.1648402,0,nan,0.0,4,1,19
134321025,1634097425800191,340347844,1087559131,429485,401569,0.14600001,0.29643056,0.665,1.0040001,0.63,0.96999997,114,13,0.54300004,-0.455,-0.29700002,-0.038000003,3.7703986,0,nan,0.0,4,1,19
135324944,1634097426800191,340347797,1087559113,429543,401626,0.165,0.20711489,0.66700006,1.003,0.63,0.96999997,114,11,0.873,-0.59800005,-0.63600004,-0.041,3.726665,0,nan,0.0,4,1,19
136324998,1634097427800191,340347738,1087559038,429546,401629,0.15300001,0.31834683,0.66800004,1.001,0.63,0.96999997,114,6,0.47900003,-0.45000002,-0.164,0.094000004,3.8177392,0,nan,0.0,4,1,19
137319655,1634097428800192,340347708,1087559034,429381,401464,0.18,0.49379972,0.67,0.9990001,0.63,0.96999997,114,5,0.351,-0.266,-0.23,0.26000002,3.4780152,0,nan,0.0,4,1,19
138324074,1634097429800192,340347749,1087558919,429222,401306,0.18800001,0.07954739,0.67200005,1.001,0.63,0.96999997,114,6,2.005,1.036,-1.7160001,0.059000004,5.21952,0,nan,0.0,4,1,19
139322943,1634097430800192,340347844,1087558743,429059,401143,0.179,0.071850665,0.67300004,1.003,0.63,0.96999997,114,7,2.249,1.3390001,-1.807,0.245,5.323183,0,nan,0.0,4,1,19
140326030,1634097431800192,340347954,1087558566,428894,400978,0.172,0.0771165,0.674,1.0020001,0.63,0.96999997,114,8,1.8720001,1.141,-1.485,0.33,5.3639517,0,nan,0.0,4,1,19
141321945,1634097432800193,340348069,1087558397,428529,400613,0.165,0.10075384,0.675,1.001,0.63,0.96999997,114,11,1.376,0.83800006,-1.0910001,0.014,5.4022737,0,nan,0.0,4,1,19
142330999,1634097433800193,340348093,1087558286,428358,400441,0.14600001,0.10402773,0.674,1.001,0.63,0.96999997,114,13,1.6380001,-0.379,-1.593,0.18800001,4.622529,0,nan,0.0,4,1,19
143325946,1634097434800193,340348072,1087558133,428267,400350,0.136,0.12395153,0.67200005,0.99700004,0.63,0.96999997,115,15,1.3000001,-0.14400001,-1.292,0.123,4.5880566,0,nan,0.0,4,1,19
144321797,1634097435800194,340348070,1087557969,428240,400324,0.147,0.1081111,0.67,0.99200004,0.63,0.96999997,115,14,1.4810001,-0.026,-1.48,0.071,4.6895723,0,nan,0.0,4,1,19
145324999,1634097436800194,340348067,1087557783,428180,400264,0.156,0.095846504,0.67,0.989,0.63,0.96999997,115,5,1.4760001,0.020000001,-1.4760001,0.065000005,4.704183,0,nan,0.0,4,1,19
146324334,1634097437800194,340348081,1087557608,428123,400207,0.15100001,0.08266525,0.671,0.98700005,0.63,0.96999997,115,6,2.1160002,0.15300001,-2.1100001,-0.008,4.7958207,0,nan,0.0,4,1,19
147322968,1634097438800195,340348101,1087557380,428158,400242,0.157,0.10340657,0.67,0.98600006,0.63,0.96999997,115,9,1.5370001,0.09200001,-1.534,-0.069000006,4.7947106,0,nan,0.0,4,1,19
148314443,1634097439800195,340348122,1087557197,428206,400289,0.13900001,0.10784913,0.67200005,0.984,0.63,0.96999997,115,6,1.4280001,0.063,-1.4260001,0.025,4.802883,0,nan,0.0,4,1,19
149322972,1634097440800195,340348140,1087557042,428181,400265,0.15300001,0.11145306,0.67200005,0.984,0.63,0.96999997,115,6,1.4840001,0.28500003,-1.457,0.079,4.868963,0,nan,0.0,4,1,19
150318952,1634097441800196,340348162,1087556877,428075,400159,0.14500001,0.09762691,0.67300004,0.984,0.63,0.96999997,115,9,1.69,0.117000006,-1.6860001,0.010000001,4.8148146,0,nan,0.0,4,1,19
151323670,1634097442800196,340348177,1087556684,428141,400225,0.147,0.095507205,0.674,0.984,0.63,0.96999997,115,13,1.5250001,0.128,-1.519,-0.102000006,4.793002,0,nan,0.0,4,1,19
152328053,1634097443800196,340348192,1087556515,428111,400194,0.156,0.08405435,0.67300004,0.98100007,0.65,1.0,115,11,1.9410001,0.156,-1.9350001,-0.055000003,4.813443,0,nan,0.0,4,1,18
153325947,1634097444800197,340348212,1087556247,428128,400212,0.186,0.071087435,0.67700005,0.98600006,0.63,0.96999997,115,10,2.492,0.32900003,-2.4710002,-0.037,4.828349,0,nan,0.0,4,1,19
154327835,1634097445800197,340348240,1087555998,428187,400270,0.179,0.07191437,0.683,0.98800004,0.63,0.96999997,114,11,2.5860002,0.39200002,-2.5560002,0.018000001,4.8566794,0,nan,0.0,4,1,19
155330945,1634097446800197,340348263,1087555738,428204,400287,0.17500001,0.09174131,0.688,0.99100006,0.63,0.96999997,114,14,2.194,0.24100001,-2.18,-0.066,4.8100095,0,nan,0.0,4,1,19
156324533,1634097447800198,340348297,1087555465,428225,400308,0.18100001,0.066353224,0.694,0.99700004,0.63,0.96999997,106,12,3.1290002,0.51100004,-3.0870001,0.036000002,4.8612995,0,nan,0.0,4,1,19
157325954,1634097448800198,340348336,1087555136,428163,400246,0.16000001,0.05820341,0.69900006,1.0020001,0.65,1.0,106,8,2.867,0.393,-2.8400002,0.057000004,4.854149,0,nan,0.0,4,1,18
158329040,1634097449800198,340348370,1087554854,428088,400171,0.16000001,0.063116685,0.70000005,1.006,0.65,1.0,106,9,2.979,0.35700002,-2.9580002,0.094000004,4.8409085,0,nan,0.0,4,1,18
159325989,1634097450800198,340348400,1087554485,428088,400171,0.157,0.04393011,0.70000005,1.008,0.65,1.0,106,11,3.0770001,0.34100002,-3.058,-0.09200001,4.8157372,0,nan,0.0,4,1,18
160322783,1634097451800199,340348407,1087554253,427849,399932,0.17300001,0.07875152,0.698,1.006,0.65,1.0,106,16,2.2080002,0.062000003,-2.207,0.32700002,4.7408047,0,nan,0.0,4,1,18
161326940,1634097452800199,340348397,1087554016,427558,399641,0.157,0.09284854,0.69500005,1.005,0.65,1.0,106,21,1.866,-0.33200002,-1.8360001,0.312,4.602274,0,nan,0.0,4,1,18
162329946,1634097453800199,340348364,1087553785,427280,399363,0.135,0.07785216,0.694,1.005,0.65,1.0,106,24,2.151,-0.30600002,-2.1290002,0.16600001,4.563678,0,nan,0.0,4,1,18
163321096,1634097454800200,340348361,1087553578,427191,399274,0.21200001,0.11373822,0.70000005,1.011,0.65,1.0,119,26,2.118,-0.061000004,-2.117,0.047000002,4.7021527,0,nan,0.0,4,1,18
164319015,1634097455800200,340348358,1087553301,427075,399157,0.162,0.07397717,0.707,1.0170001,0.65,1.0,119,26,2.801,-0.10700001,-2.799,0.034,4.689252,0,nan,0.0,4,1,18
165319943,1634097456800200,340348346,1087552957,427064,399147,0.17600001,0.0730127,0.711,1.021,0.65,1.0,119,30,2.976,-0.05,-2.9750001,-0.029000001,4.6818123,0,nan,0.0,4,1,18
166321023,1634097457800201,340348336,1087552593,426869,398952,0.165,0.05034559,0.717,1.0270001,0.65,1.0,119,15,3.8580003,0.113000005,-3.857,0.22100002,4.7061553,0,nan,0.0,4,1,18
167321004,1634097458800201,340348327,1087552173,426759,398841,0.165,0.053807277,0.71900004,1.0300001,0.65,1.0,119,23,3.657,-0.124000005,-3.6540003,0.17400001,4.6817846,0,nan,0.0,4,1,18
168319978,1634097459800201,340348324,1087551765,426559,398642,0.16900001,0.051639404,0.72200006,1.0300001,0.65,1.0,119,17,3.9020002,-0.006,-3.9020002,0.26000002,4.7072415,0,nan,0.0,4,1,18
169316944,1634097460800202,340348327,1087551357,426480,398563,0.15100001,0.0522665,0.72400004,1.0300001,0.65,1.0,111,11,3.4240003,0.047000002,-3.423,0.017,4.7223053,0,nan,0.0,4,1,18
170322403,1634097461800202,340348329,1087550971,426338,398421,0.149,0.056048978,0.725,1.029,0.65,1.0,111,7,3.657,0.064,-3.6560001,0.086,4.721015,0,nan,0.0,4,1,18
171321165,1634097462800202,340348332,1087550548,426126,398208,0.17400001,0.05118562,0.72800004,1.033,0.65,1.0,111,10,4.249,0.078,-4.249,0.20700002,4.7211437,0,nan,0.0,4,1,18
172316955,1634097463800203,340348335,1087550077,426040,398122,0.149,0.042792328,0.73200005,1.036,0.65,1.0,111,15,4.163,0.078,-4.162,0.155,4.727214,0,nan,0.0,4,1,18
173321945,1634097464800203,340348334,1087549605,425939,398021,0.172,0.044924773,0.734,1.0350001,0.65,1.0,111,13,4.227,0.1,-4.2260003,0.15900001,4.7223916,0,nan,0.0,4,1,18
174322974,1634097465800203,340348322,1087549130,425948,398030,0.162,0.048837803,0.73700005,1.039,0.65,1.0,111,12,4.132,-0.12900001,-4.13,-0.09,4.676836,0,nan,0.0,4,1,18
175323968,1634097466800204,340348324,1087548875,425791,397873,0.19100001,0.27728045,0.73200005,1.0400001,0.65,1.0,111,18,0.57900006,0.16700001,-0.554,0.18300001,4.8089423,0,nan,0.0,4,1,18
176324973,1634097467800204,340348336,1087548843,425595,397677,0.216,0.4260785,0.73,1.0430001,0.65,1.0,111,11,0.134,0.126,-0.046000004,0.147,5.0644693,0,nan,0.0,4,1,18
177321945,1634097468800204,340348357,1087548852,425462,397544,0.19800001,0.6171952,0.72700006,1.0500001,0.65,1.0,111,12,0.273,0.264,0.072000004,0.16800001,0.13276684,0,nan,0.0,4,1,18
178321937,1634097469800204,340348386,1087548883,425400,397482,0.15,0.2698963,0.72800004,1.0580001,0.63,0.96999997,103,13,0.75100005,0.33100003,0.674,0.13000001,1.0162216,0,nan,0.0,4,1,19
179323068,1634097470800205,340348412,1087548905,425421,397503,0.18300001,0.5776109,0.725,1.057,0.63,0.96999997,103,19,0.22500001,0.16600001,-0.15300001,0.052,5.999516,0,nan,0.0,4,1,19
180326066,1634097471800205,340348421,1087548890,425443,397526,0.172,0.67212665,0.72300005,1.057,0.65,1.0,104,11,0.056,0.041,0.038000003,-0.037,5.746127,0,nan,0.0,4,1,18
181328539,1634097472800205,340348406,1087548912,425405,397487,0.16100001,0.74380505,0.72,1.0580001,0.65,1.0,104,4,0.19900002,-0.13000001,0.15100001,0.098000005,2.2331061,0,nan,0.0,4,1,18
182334939,1634097473800206,340348370,1087548923,425327,397409,0.185,0.17786859,0.716,1.059,0.65,1.0,119,12,0.97800004,-0.96800005,-0.14,0.108,3.1809149,0,nan,0.0,4,1,18
183323975,1634097474800206,340348275,1087548906,425260,397343,0.178,0.24853593,0.716,1.062,0.65,1.0,119,9,0.569,-0.509,0.25500003,0.083000004,3.0333726,0,nan,0.0,4,1,18
184324943,1634097475800206,340348216,1087548866,425166,397248,0.15300001,0.1350424,0.71300006,1.064,0.65,1.0,119,6,1.279,-0.91700006,-0.892,0.105000004,3.8626459,0,nan,0.0,4,1,18
185330973,1634097476800207,340348162,1087548804,425034,397116,0.16100001,0.34709674,0.71300006,1.0660001,0.65,1.0,118,13,0.505,-0.347,-0.367,0.14500001,3.9318523,0,nan,0.0,4,1,18
186327856,1634097477800207,340348138,1087548690,424953,397036,0.157,0.13962197,0.71500003,1.067,0.65,1.0,118,11,1.22,-0.187,-1.2060001,0.132,4.518688,0,nan,0.0,4,1,18
187330951,1634097478800207,340348128,1087548582,424689,396772,0.178,0.15061127,0.716,1.0660001,0.65,1.0,118,15,1.251,0.134,-1.2440001,0.372,4.7420597,0,nan,0.0,4,1,18
188331108,1634097479800208,340348133,1087548454,424540,396622,0.141,0.20034285,0.71400005,1.0610001,0.65,1.0,118,23,0.78800005,0.044000003,-0.78700006,0.074,4.7810807,0,nan,0.0,4,1,18
189327172,1634097480800208,340348138,1087548420,424350,396432,0.186,0.641105,0.71300006,1.057,0.65,1.0,118,17,0.21700001,0.15,-0.157,0.117000006,5.244973,0,nan,0.0,4,1,18
190330569,1634097481800208,340348143,1087548408,424164,396246,0.22900002,0.5624302,0.712,1.056,0.63,0.96999997,118,16,0.044000003,-0.038000003,-0.021000002,0.46100003,5.0820193,0,nan,0.0,4,1,19
191325034,1634097482800209,340348147,1087548408,424037,396119,0.224,0.56248504,0.71500003,1.059,0.63,0.96999997,118,10,0.060000002,0.009000001,0.060000002,0.22900002,5.0820193,0,nan,0.0,4,1,19
192321405,1634097483800209,340348143,1087548417,424302,396384,0.21300001,0.73715216,0.72200006,1.0660001,0.63,0.96999997,119,13,0.238,-0.238,0.009000001,-0.439,4.353815,0,nan,0.0,4,1,19
193327981,1634097484800209,340348127,1087548422,424806,396888,0.20400001,0.5572079,0.725,1.0660001,0.63,0.96999997,111,17,0.132,-0.120000005,-0.055000003,-0.47800002,3.3450758,0,nan,0.0,4,1,19
194324946,1634097485800210,340348140,1087548421,425469,397551,0.24100001,0.55658114,0.726,1.07,0.63,0.96999997,111,12,0.18400002,0.134,0.126,-0.66700006,4.6949825,0,nan,0.0,4,1,19
195319965,1634097486800210,340348146,1087548445,426054,398136,0.20600002,0.5631931,0.726,1.0710001,0.65,1.0,111,9,0.162,-0.108,0.12100001,-0.040000003,0.51045626,0,nan,0.0,4,1,18
196323944,1634097487800210,340348148,1087548429,426005,398087,0.186,0.32869643,0.72900003,1.0760001,0.65,1.0,111,7,0.588,0.017,-0.588,0.037,4.8786535,0,nan,0.0,4,1,18
197324194,1634097488800210,340348155,1087548403,425726,397808,0.223,0.468672,0.72800004,1.0760001,0.65,1.0,111,9,0.089,-0.059000004,-0.067,0.367,5.2395735,0,nan,0.0,4,1,18
198318941,1634097489800211,340348160,1087548414,425691,397773,0.158,0.18719459,0.72900003,1.075,0.63,0.96999997,111,11,0.92300004,-0.11100001,0.91700006,0.025,1.5668131,0,nan,0.0,4,1,19
199322003,1634097490800211,340348144,1087548700,425698,397780,0.163,0.04179313,0.726,1.075,0.65,1.0,111,9,3.9620001,-0.303,3.9510002,-0.072000004,1.6450155,0,nan,0.0,4,1,18
200324937,1634097491800211,340348123,1087549103,425691,397773,0.156,0.047359858,0.72400004,1.074,0.65,1.0,111,8,3.5390003,-0.224,3.532,0.080000006,1.6335932,0,nan,0.0,4,1,18
201324938,1634097492800212,340348103,1087549469,425636,397719,0.18100001,0.08014813,0.726,1.077,0.65,1.0,110,14,2.42,-0.12900001,2.417,-0.007,1.6335301,0,nan,0.0,4,1,18
202321944,1634097493800212,340348094,1087549564,425818,397901,0.22700001,0.35066873,0.72900003,1.0830001,0.65,1.0,110,8,0.109000005,0.025,0.106000006,-0.16600001,1.705302,0,nan,0.0,4,1,18
203322979,1634097494800212,340348058,1087549662,426016,398098,0.18400002,0.08894338,0.72900003,1.082,0.65,1.0,110,11,1.9020001,-0.735,1.7540001,-0.177,2.0003326,0,nan,0.0,4,1,18
204319470,1634097495800213,340348040,1087549777,426398,398480,0.21700001,0.5754998,0.73200005,1.082,0.7,1.01,110,7,0.29500002,0.28300002,0.083000004,-0.37800002,1.2096494,0,nan,0.0,4,1,17
205325058,1634097496800213,340348064,1087549749,426726,398809,0.164,0.2568079,0.73200005,1.079,0.7,1.01,110,14,0.763,-0.30200002,-0.70100003,-0.402,4.6758833,0,nan,0.0,4,1,17
206322981,1634097497800213,340348043,1087549679,426994,399077,0.23900001,0.7706014,0.73700005,1.0760001,0.65,1.0,110,14,0.23600002,0.22900002,0.056,-0.648,5.025137,0,nan,0.0,4,1,18
207322208,1634097498800214,340348017,1087549618,427360,399443,0.13700001,0.14733161,0.73800004,1.075,0.65,1.0,110,11,1.299,-0.94000006,-0.897,-0.514,4.007751,0,nan,0.0,4,1,18
208318705,1634097499800214,340347996,1087549570,427664,399747,0.20300001,0.5848008,0.735,1.07,0.65,1.0,110,14,0.14500001,0.14500001,-0.0050000004,-0.256,5.4783306,0,nan,0.0,3,1,18
209315947,1634097500800214,340348006,1087549575,428263,400345,0.23,0.7017758,0.72900003,1.064,0.65,1.0,103,11,0.163,0.041,0.158,-0.689,6.006865,0,nan,0.0,3,1,18
210319942,1634097501800215,340347976,1087549584,428537,400619,0.21200001,0.3458157,0.72700006,1.064,0.65,1.0,103,10,0.483,-0.48200002,0.033,-0.25800002,2.8127148,0,nan,0.0,3,1,18
211319968,1634097502800215,340347950,1087549524,428786,400868,0.136,0.16871154,0.726,1.062,0.65,1.0,103,10,1.031,-0.216,-1.0090001,-0.24700001,4.4632187,0,nan,0.0,3,1,18
212315036,1634097503800215,340347939,1087549421,428973,401055,0.172,0.463302,0.72300005,1.057,0.65,1.0,103,9,0.25800002,-0.21900001,0.136,-0.141,4.254223,0,nan,0.0,3,1,18
213315954,1634097504800216,340347906,1087549596,429077,401159,0.16100001,0.07740657,0.72,1.051,0.65,1.0,103,9,2.273,-0.38900003,2.239,-0.136,1.7788,0,nan,0.0,3,1,18
214318967,1634097505800216,340347881,1087549766,429347,401429,0.16600001,0.10364271,0.721,1.052,0.65,1.0,103,7,1.6270001,-0.30900002,1.598,-0.319,1.7377805,0,nan,0.0,3,1,18
215318748,1634097506800216,340347858,1087549934,429563,401645,0.163,0.106889546,0.72200006,1.052,0.65,1.0,103,4,1.6340001,-0.30200002,1.6060001,-0.257,1.7395597,0,nan,0.0,3,1,18
216318126,1634097507800216,340347830,1087550088,429734,401816,0.17,0.15438013,0.72400004,1.057,0.65,1.0,103,6,1.131,-0.47200003,1.028,-0.080000006,1.8885583,0,nan,0.0,3,1,18
217315944,1634097508800217,340347783,1087550199,430072,402154,0.18,0.13966542,0.726,1.0610001,0.65,1.0,103,7,1.274,-0.12100001,1.268,-0.425,1.8400251,0,nan,0.0,3,1,18
218319108,1634097509800217,340347816,1087550353,430444,402526,0.147,0.10192286,0.72700006,1.0630001,0.65,1.0,103,7,1.82,0.642,1.7030001,-0.245,1.244854,0,nan,0.0,3,1,18
219320124,1634097510800217,340347869,1087550536,430657,402739,0.178,0.09396835,0.725,1.067,0.65,1.0,103,10,1.802,0.59400004,1.702,-0.13800001,1.2338781,0,nan,0.0,3,1,18
220314979,1634097511800218,340347920,1087550726,430904,402987,0.15300001,0.07110192,0.71900004,1.0660001,0.65,1.0,103,11,1.871,0.53000003,1.794,-0.324,1.2695495,0,nan,0.0,3,1,18
221315942,1634097512800218,340347974,1087550925,431147,403229,0.15100001,0.085398436,0.71500003,1.064,0.65,1.0,103,9,1.955,0.688,1.83,-0.049000002,1.2401072,0,nan,0.0,3,1,18
222311436,1634097513800218,340348034,1087551131,431333,403416,0.15300001,0.07721877,0.71000004,1.0630001,0.65,1.0,103,12,2.015,0.75100005,1.8690001,-0.12900001,1.2010128,0,nan,0.0,3,1,18
223315007,1634097514800219,340348099,1087551335,431547,403629,0.15300001,0.07639097,0.707,1.062,0.63,0.96999997,103,11,1.9570001,0.716,1.8210001,-0.20600002,1.1987522,0,nan,0.0,3,1,19
224314975,1634097515800219,340348178,1087551532,431759,403842,0.147,0.074906915,0.702,1.0600001,0.63,0.96999997,103,16,1.978,0.813,1.8030001,-0.21400002,1.1159033,0,nan,0.0,3,1,19
225315944,1634097516800219,340348193,1087551691,431965,404047,0.209,0.19003877,0.70000005,1.0600001,0.63,0.96999997,103,10,0.841,-0.287,0.791,-0.187,1.6851783,0,nan,0.0,3,1,19
226318237,1634097517800220,340348185,1087551718,432154,404236,0.18,0.36431006,0.70000005,1.0610001,0.63,0.96999997,103,13,0.367,-0.156,0.33200002,-0.185,1.9389862,0,nan,0.0,3,1,19
227314997,1634097518800220,340348175,1087551770,432364,404446,0.18100001,0.26089582,0.70000005,1.0600001,0.63,0.96999997,103,11,0.62,-0.045,0.619,-0.185,1.68132,0,nan,0.0,3,1,19
228315973,1634097519800220,340348167,1087551849,432599,404681,0.17300001,0.29843068,0.70000005,1.059,0.65,0.96999997,103,22,0.60800004,-0.016,0.60800004,-0.102000006,1.7052528,0,nan,0.0,3,1,18
229319044,1634097520800221,340348160,1087551919,432728,404811,0.15300001,0.25296783,0.70000005,1.059,0.65,0.96999997,103,19,0.688,-0.059000004,0.68500006,0.17600001,1.6783944,0,nan,0.0,3,1,18
230313963,1634097521800221,340348154,1087551990,432368,404450,0.193,0.23763496,0.70000005,1.059,0.65,0.96999997,103,22,0.76900005,-0.066,0.767,0.83900005,1.6830473,0,nan,0.0,3,1,18
231306987,1634097522800221,340348149,1087552064,431327,403409,0.20400001,0.25714844,0.70100003,1.0610001,0.65,0.96999997,103,22,0.66800004,-0.11000001,0.65900004,1.128,1.710098,0,nan,0.0,3,1,18
232317154,1634097523800222,340348140,1087552137,430267,402349,0.21000001,0.2885228,0.703,1.064,0.65,0.96999997,103,26,0.64900005,-0.132,0.63600004,1.033,1.7538642,0,nan,0.0,3,1,18
233318102,1634097524800222,340348132,1087552207,429228,401311,0.194,0.25995615,0.70400006,1.067,0.66999996,1.01,103,15,0.597,-0.106000006,0.587,1.0320001,1.7203392,0,nan,0.0,3,1,17
234312033,1634097525800222,340348120,1087552292,428432,400515,0.164,0.19996186,0.70500004,1.07,0.66999996,1.01,103,21,0.924,-0.24000001,0.89300007,0.07,1.7727785,0,nan,0.0,3,1,17
235314301,1634097526800222,340348108,1087552392,428393,400475,0.15100001,0.22047295,0.70600003,1.069,0.66999996,1.01,103,23,0.785,-0.105000004,0.77800006,0.08800001,1.7254763,0,nan,0.0,3,1,17
236317944,1634097527800223,340348094,1087552498,428389,400472,0.15900001,0.2662908,0.70900005,1.0680001,0.66999996,1.01,123,18,0.758,-0.053000003,0.757,0.16000001,1.7353145,0,nan,0.0,3,1,17
237321940,1634097528800223,340348090,1087552609,428192,400275,0.15900001,0.16774516,0.71400005,1.0710001,0.66999996,1.01,123,26,1.3000001,-0.015000001,1.3000001,0.187,1.6001244,0,nan,0.0,3,1,17
238320942,1634097529800223,340348086,1087552772,428087,400170,0.186,0.13479544,0.71900004,1.075,0.66999996,1.01,115,37,1.4380001,-0.095000006,1.4350001,0.010000001,1.6269332,0,nan,0.0,4,1,17
239320944,1634097530800224,340348084,1087552920,427975,400058,0.18,0.15620627,0.725,1.077,0.66999996,1.01,114,34,1.281,-0.040000003,1.281,0.11000001,1.5960486,0,nan,0.0,4,1,17
240321411,1634097531800224,340348082,1087553051,427862,399945,0.14500001,0.18677782,0.72700006,1.0760001,0.66999996,1.01,114,34,0.98600006,0.091000006,0.98200005,0.074,1.5669208,0,nan,0.0,4,1,17
241324282,1634097532800224,340348094,1087553196,427844,399927,0.155,0.12346215,0.72800004,1.075,0.66999996,1.01,107,30,1.544,0.13000001,1.539,-0.062000003,1.482613,0,nan,0.0,4,1,17
242319662,1634097533800225,340348113,1087553345,427729,399812,0.136,0.13051154,0.72900003,1.074,0.66999996,1.01,107,26,1.4740001,0.578,1.3570001,0.163,1.2782217,0,nan,0.0,4,1,17
243323124,1634097534800225,340348188,1087553493,427688,399771,0.148,0.116089694,0.72900003,1.072,0.66999996,1.01,107,30,1.6570001,0.78400004,1.46,0.020000001,1.046176,0,nan,0.0,4,1,17
244317939,1634097535800225,340348240,1087553643,427635,399718,0.14500001,0.10811215,0.72700006,1.07,0.66999996,1.01,107,22,1.6290001,0.45900002,1.5630001,0.021000002,1.2418141,0,nan,0.0,4,1,17
245322008,1634097536800226,340348259,1087553814,427502,399585,0.15,0.13362135,0.72400004,1.07,0.66999996,1.01,106,19,1.348,0.246,1.325,0.165,1.4483244,0,nan,0.0,4,1,17
246316986,1634097537800226,340348260,1087553959,427404,399487,0.17,0.1271818,0.72300005,1.069,0.66999996,1.01,110,15,1.432,-0.091000006,1.4300001,0.067,1.6163824,0,nan,0.0,4,1,17
247308925,1634097538800226,340348260,1087554159,427350,399433,0.16900001,0.08685334,0.72300005,1.067,0.66999996,1.01,110,18,2.0310001,0.126,2.0270002,0.115,1.5427119,0,nan,0.0,4,1,17
248316915,1634097539800227,340348272,1087554379,427278,399361,0.15900001,0.081917025,0.72300005,1.064,0.66999996,1.01,110,12,2.0700002,0.071,2.069,0.128,1.5112723,0,nan,0.0,4,1,17
249317028,1634097540800227,340348279,1087554630,427136,399219,0.16700001,0.08178857,0.72200006,1.0630001,0.66999996,1.01,110,10,2.187,-0.022000002,2.187,0.132,1.5651262,0,nan,0.0,4,1,17
250316943,1634097541800227,340348271,1087554828,426836,398920,0.165,0.10275608,0.72200006,1.062,0.66999996,1.01,110,5,1.636,-0.071,1.6340001,1.123,1.617591,0,nan,0.0,4,1,17
251311363,1634097542800228,340348274,1087555022,426195,398278,0.164,0.105899595,0.725,1.064,0.66999996,1.01,110,8,1.9670001,0.10700001,1.9640001,-0.013,1.5467963,0,nan,0.0,4,1,17
252314080,1634097543800228,340348283,1087555221,425684,397767,0.164,0.10311667,0.72900003,1.0680001,0.66999996,1.01,109,9,1.8560001,0.022000002,1.8550001,0.554,1.5373236,0,nan,0.0,4,1,17
253327342,1634097544800228,340348291,1087555410,425597,397680,0.16700001,0.10634779,0.731,1.0760001,0.66999996,1.01,109,9,1.9490001,0.185,1.94,0.087000005,1.5070026,0,nan,0.0,4,1,17
254311941,1634097545800229,340348306,1087555635,425596,397679,0.164,0.105818965,0.734,1.0830001,0.66999996,1.01,109,7,1.8930001,-0.20400001,1.8820001,-0.163,1.5757998,0,nan,0.0,4,1,17
255314333,1634097546800229,340348270,1087555823,425647,397730,0.17600001,0.0925124,0.735,1.093,0.66999996,1.01,109,5,2.012,-0.578,1.9280001,-0.039,1.8704715,0,nan,0.0,4,1,17
256311962,1634097547800229,340348219,1087556023,425613,397697,0.187,0.10259202,0.739,1.102,0.65,0.96999997,109,4,1.863,-0.51100004,1.792,0.003,1.879541,0,nan,0.0,4,1,18
257314947,1634097548800229,340348175,1087556231,425613,397696,0.179,0.089554235,0.74300003,1.1090001,0.65,0.96999997,109,4,2.371,-0.601,2.2930002,0.10300001,1.8213989,0,nan,0.0,4,1,18
258307073,1634097549800230,340348138,1087556468,425582,397666,0.18,0.14574441,0.748,1.1190001,0.65,0.96999997,109,4,1.5630001,-0.141,1.557,0.037,1.7264657,0,nan,0.0,4,1,18
259319977,1634097550800230,340348138,1087556637,425596,397680,0.16100001,0.10634832,0.75200003,1.1240001,0.65,0.96999997,109,9,1.8780001,0.124000005,1.8740001,0.039,1.5247427,0,nan,0.0,4,1,18
260317946,1634097551800230,340348142,1087556851,425656,397740,0.164,0.08464742,0.75200003,1.1270001,0.65,0.96999997,109,14,1.917,-0.031000001,1.917,0.031000001,1.5723128,0,nan,0.0,4,1,18
261318911,1634097552800231,340348127,1087557055,425562,397645,0.155,0.09764995,0.75100005,1.1320001,0.65,0.96999997,109,16,1.797,-0.201,1.7860001,0.147,1.67053,0,nan,0.0,4,1,18
262319943,1634097553800231,340348106,1087557244,425553,397636,0.19100001,0.116128094,0.75000006,1.136,0.65,0.96999997,109,17,1.5970001,-0.156,1.5890001,-0.016,1.7014732,0,nan,0.0,4,1,18
263319170,1634097554800231,340348097,1087557433,425343,397426,0.149,0.09099256,0.748,1.141,0.65,0.96999997,109,7,1.8830001,-0.053000003,1.8830001,0.22200002,1.614777,0,nan,0.0,4,1,18
264321305,1634097555800232,340348089,1087557648,425253,397336,0.165,0.079049625,0.74500006,1.1450001,0.65,0.96999997,109,7,2.1690001,-0.10300001,2.167,0.026,1.6158562,0,nan,0.0,4,1,18
265320166,1634097556800232,340348090,1087557877,425130,397213,0.16900001,0.08590161,0.74500006,1.153,0.65,0.96999997,109,8,2.0900002,-0.038000003,2.0900002,0.116000004,1.5711843,0,nan,0.0,4,1,18
266316118,1634097557800232,340348085,1087558116,425059,397143,0.15,0.08418682,0.74200004,1.1550001,0.65,0.96999997,109,12,2.0740001,0.045,2.0730002,0.079,1.5748315,0,nan,0.0,4,1,18
267315942,1634097558800233,340348083,1087558409,424930,397014,0.155,0.05680261,0.73800004,1.151,0.65,0.96999997,109,13,3.0370002,0.008,3.0370002,-0.010000001,1.5805565,0,nan,0.0,4,1,18
268315984,1634097559800233,340348081,1087558688,424882,396966,0.147,0.06678432,0.73700005,1.153,0.65,0.96999997,109,12,2.6580002,0.078,2.657,0.057000004,1.5619164,0,nan,0.0,4,1,18
269311942,1634097560800233,340348086,1087558954,424965,397049,0.162,0.08481933,0.735,1.153,0.65,0.96999997,108,11,2.1430001,-0.123,2.1390002,0.09,1.5941695,0,nan,0.0,4,1,18
270317938,1634097561800234,340348057,1087559179,424939,397023,0.158,0.080476955,0.735,1.1550001,0.65,0.96999997,108,12,2.2380002,-0.317,2.2150002,0.041,1.72942,0,nan,0.0,4,1,18
271325974,1634097562800234,340348056,1087559389,424887,396971,0.125,0.06507286,0.73200005,1.153,0.65,0.96999997,97,9,2.1130002,0.165,2.1060002,0.16900001,1.5040438,0,nan,0.0,4,1,18
272318563,1634097563800234,340348068,1087559625,424774,396858,0.149,0.085710846,0.72800004,1.154,0.65,0.96999997,97,8,1.7830001,-0.015000001,1.7820001,0.185,1.5424877,0,nan,0.0,4,1,18
273319468,1634097564800235,340348054,1087559805,424713,396797,0.133,0.083568454,0.726,1.156,0.65,0.96999997,97,8,1.797,-0.303,1.771,-0.011000001,1.7173487,0,nan,0.0,4,1,18
274311178,1634097565800235,340348030,1087559992,424729,396813,0.171,0.18580548,0.726,1.161,0.65,0.96999997,97,6,0.96300006,-0.27800003,0.92200005,-0.034,1.7481064,0,nan,0.0,4,1,18
275322298,1634097566800235,340348018,1087560053,424621,396705,0.156,0.16337678,0.725,1.1620001,0.65,0.96999997,97,8,1.103,-0.13100001,1.095,0.18900001,1.7210064,0,nan,0.0,4,1,18
276322949,1634097567800235,340348004,1087560220,424514,396598,0.14600001,0.1010872,0.726,1.164,0.66999996,1.01,97,10,1.8290001,-0.133,1.8240001,0.094000004,1.6400248,0,nan,0.0,4,1,17
277322276,1634097568800236,340347993,1087560434,424384,396468,0.171,0.103557006,0.73300004,1.1730001,0.66999996,1.01,97,10,1.904,-0.09200001,1.9010001,0.067,1.6355463,0,nan,0.0,4,1,17
280329942,1634097571800237,340347929,1087561388,424043,396127,0.148,0.045874055,0.731,1.1800001,0.65,0.96999997,97,4,4.056,-0.409,4.0350003,0.025,1.6604185,0,nan,0.0,4,1,18
283319994,1634097574800238,340347925,1087562733,424392,396477,0.147,0.039640266,0.731,1.1850001,0.65,0.96999997,97,4,4.3700004,-0.024,4.3700004,-0.018000001,1.5271273,0,nan,0.0,4,1,18
284320981,1634097575800238,340347906,1087563211,424341,396425,0.14400001,0.033705972,0.72700006,1.1730001,0.65,0.96999997,97,10,4.229,-0.25,4.221,-0.135,1.6224943,0,nan,0.0,4,1,18
285317975,1634097576800238,340347889,1087563667,424368,396452,0.14500001,0.036241587,0.725,1.172,0.66999996,1.01,97,4,4.2790003,-0.14500001,4.2770004,-0.052,1.6079419,0,nan,0.0,4,1,17
286324289,1634097577800239,340347870,1087564130,424300,396384,0.14500001,0.038944054,0.72,1.1600001,0.65,0.96999997,98,3,4.171,-0.18800001,4.1670003,-0.13000001,1.6214116,0,nan,0.0,4,1,18
287319945,1634097578800239,340347852,1087564574,424290,396374,0.15400001,0.039199047,0.717,1.1500001,0.65,0.96999997,98,5,4.2790003,-0.22500001,4.2730002,-0.11400001,1.6208086,0,nan,0.0,4,1,18
288313942,1634097579800239,340347836,1087565014,424366,396451,0.16700001,0.045442265,0.71800005,1.1450001,0.65,0.96999997,107,4,3.8020003,-0.14600001,3.7990003,-0.079,1.6119765,0,nan,0.0,4,1,18
289320942,1634097580800240,340347823,1087565401,424473,396558,0.14500001,0.043149598,0.717,1.1370001,0.65,0.96999997,107,4,3.2810001,-0.277,3.2700002,-0.15100001,1.6410692,0,nan,0.0,4,1,18
290316117,1634097581800240,340347804,1087565821,424431,396516,0.16100001,0.042153016,0.71300006,1.128,0.65,0.96999997,107,11,4.346,-0.17300001,4.3430004,-0.093,1.6201751,0,nan,0.0,4,1,18
291316789,1634097582800240,340347790,1087566258,424490,396575,0.149,0.035067853,0.71400005,1.1220001,0.65,0.96999997,107,12,3.9310002,-0.086,3.9310002,-0.125,1.6008399,0,nan,0.0,4,1,18
292319942,1634097583800241,340347776,1087566679,424613,396698,0.15400001,0.049058758,0.71300006,1.12,0.65,0.96999997,107,10,3.426,-0.124000005,3.4240003,-0.035,1.6102681,0,nan,0.0,4,1,18
293319063,1634097584800241,340347751,1087567071,424661,396746,0.142,0.04221567,0.71500003,1.12,0.65,0.96999997,107,4,3.6440003,-0.22900002,3.637,-0.109000005,1.6478426,0,nan,0.0,4,1,18
294326965,1634097585800241,340347731,1087567473,424727,396812,0.157,0.05047754,0.71300006,1.1140001,0.65,0.96999997,107,5,3.38,-0.24000001,3.3720002,-0.010000001,1.6370523,0,nan,0.0,4,1,18
295314950,1634097586800242,340347707,1087567861,424770,396856,0.14600001,0.035808746,0.712,1.11,0.65,0.96999997,107,3,3.9210002,-0.31,3.9090002,-0.081,1.6440045,0,nan,0.0,4,1,18
296314973,1634097587800242,340347681,1087568296,424899,396984,0.16800001,0.047177292,0.71000004,1.1040001,0.65,0.96999997,107,11,3.5110002,-0.37100002,3.4910002,-0.066,1.6555922,0,nan,0.0,4,1,18
297318960,1634097588800242,340347652,1087568696,424923,397008,0.15400001,0.041900642,0.70900005,1.097,0.65,0.96999997,107,10,3.676,-0.333,3.6610003,-0.082,1.6548223,0,nan,0.0,4,1,18
298316177,1634097589800242,340347630,1087569079,424978,397063,0.18300001,0.05120569,0.711,1.093,0.65,0.96999997,107,12,3.3990002,-0.07700001,3.3980002,-0.071,1.6159655,0,nan,0.0,4,1,18
299314946,1634097590800243,340347624,1087569447,424927,397012,0.23,0.06389668,0.71300006,1.0890001,0.65,0.96999997,107,4,3.611,-0.08800001,3.6100001,0.093,1.5956634,0,nan,0.0,4,1,18
300320110,1634097591800243,340347613,1087569861,424857,396943,0.15200001,0.04510733,0.71300006,1.0860001,0.65,0.96999997,107,4,3.6350002,-0.185,3.63,0.085,1.6135938,0,nan,0.0,4,1,18
301320949,1634097592800243,340347581,1087570188,424807,396893,0.21000001,0.07114451,0.721,1.09,0.65,0.96999997,107,5,2.7140002,-0.25500003,2.7020001,0.008,1.6913812,0,nan,0.0,4,1,18
302314166,1634097593800244,340347564,1087570341,424925,397011,0.21000001,0.55325556,0.73,1.0960001,0.65,0.96999997,107,3,0.326,-0.062000003,0.32000002,-0.119,1.7646239,0,nan,0.0,4,1,18
303323892,1634097594800244,340347557,1087570421,425034,397120,0.164,0.09645596,0.72700006,1.09,0.65,0.96999997,107,4,1.626,-0.13700001,1.6200001,-0.209,1.6666403,0,nan,0.0,4,1,18
304321945,1634097595800244,340347558,1087570533,425213,397298,0.21000001,0.6813453,0.72900003,1.0890001,0.65,0.96999997,107,10,0.28500003,0.004,0.28500003,-0.192,1.5442252,0,nan,0.0,4,1,18
305318221,1634097596800245,340347564,1087570545,425353,397438,0.20300001,0.6813914,0.73,1.0890001,0.65,0.96999997,107,12,0.076000005,0.074,0.017,-0.124000005,1.5442252,0,nan,0.0,4,1,18
306319940,1634097597800245,340347573,1087570541,425539,397625,0.19900002,0.68143934,0.731,1.0860001,0.65,0.96999997,107,12,0.074,0.036000002,-0.065000005,-0.115,1.5442252,0,nan,0.0,4,1,18
307319939,1634097598800245,340347575,1087570536,425667,397752,0.21000001,0.68148124,0.735,1.0840001,0.65,0.96999997,107,4,0.016,-0.0050000004,-0.015000001,-0.15900001,1.5442252,0,nan,0.0,4,1,18
308322969,1634097599800246,340347575,1087570536,425823,397909,0.19700001,0.68152195,0.735,1.08,0.65,0.96999997,107,3,0.076000005,-0.074,0.015000001,-0.11800001,1.5442252,0,nan,0.0,4,1,18
309322174,1634097600800246,340347573,1087570535,425955,398040,0.19700001,0.6815637,0.739,1.079,0.65,0.96999997,107,3,0.033,-0.020000001,-0.026,-0.09900001,1.5442252,0,nan,0.0,4,1,18
310318996,1634097601800246,340347567,1087570534,425993,398078,0.177,0.68160397,0.74300003,1.079,0.65,0.96999997,107,10,0.087000005,-0.08400001,-0.021000002,-0.034,1.5442252,0,nan,0.0,4,1,18
311316979,1634097602800247,340347567,1087570533,425885,397971,0.21300001,0.68164754,0.748,1.0780001,0.65,0.96999997,107,11,0.019000001,0.019000001,-0.006,0.22100002,1.5442252,0,nan,0.0,4,1,18
312323035,1634097603800247,340347569,1087570525,425507,397593,0.20300001,0.6817156,0.749,1.0760001,0.65,0.96999997,100,4,0.034,-0.013,-0.031000001,0.49,1.5442252,0,nan,0.0,4,1,18
313318971,1634097604800247,340347570,1087570520,425035,397121,0.223,0.5502304,0.748,1.0730001,0.65,0.96999997,110,4,0.13900001,0.13800001,0.021000002,0.505,0.46268922,0,nan,0.0,4,1,18
314331369,1634097605800248,340347571,1087570513,424623,396709,0.305,0.5503304,0.767,1.092,0.65,0.96999997,110,8,0.14400001,-0.142,-0.027,0.321,0.46268922,0,nan,0.0,4,1,18
315332178,1634097606800248,340347565,1087570518,424354,396439,0.19500001,0.2964618,0.77500004,1.102,0.65,0.96999997,110,4,0.124000005,-0.075,0.09900001,-0.029000001,2.0670922,0,nan,0.0,4,1,18
316331951,1634097607800248,340347560,1087570523,424323,396408,0.17400001,0.29654524,0.772,1.0990001,0.65,0.96999997,110,11,0.11800001,-0.10300001,0.058000002,0.007,2.0670922,0,nan,0.0,4,1,18
317324240,1634097608800249,340347560,1087570526,424271,396356,0.17400001,0.29662514,0.76900005,1.0960001,0.65,0.96999997,110,9,0.071,-0.033,0.063,-0.018000001,2.0670922,0,nan,0.0,4,1,18
318328048,1634097609800249,340347562,1087570531,424266,396352,0.171,0.29670545,0.768,1.095,0.65,0.96999997,110,4,0.07700001,0.047000002,0.061000004,-0.043,2.0670922,0,nan,0.0,4,1,18
319323331,1634097610800249,340347569,1087570537,424322,396408,0.171,0.6728014,0.768,1.0940001,0.65,0.96999997,110,4,0.141,0.109000005,0.089,-0.046000004,1.7345922,0,nan,0.0,4,1,18
320322030,1634097611800249,340347542,1087570547,424352,396438,0.19500001,0.30354783,0.76600003,1.09,0.65,0.96999997,110,3,0.513,-0.50200003,0.10300001,-0.085,2.9058056,0,nan,0.0,4,1,18
321323129,1634097612800250,340347547,1087570547,424388,396474,0.17,0.6425285,0.767,1.0910001,0.65,0.96999997,110,4,0.20500001,0.194,0.067,0.036000002,2.9548724,0,nan,0.0,4,1,18
322323981,1634097613800250,340347514,1087570550,424337,396423,0.172,0.28484017,0.76500005,1.09,0.65,0.96999997,110,11,0.50100005,-0.50100005,0.0050000004,0.064,3.1082115,0,nan,0.0,4,1,18
323324944,1634097614800250,340347537,1087570551,424322,396408,0.18300001,0.62480605,0.763,1.087,0.65,0.96999997,110,3,0.23900001,0.23900001,-0.007,0.064,0.35565183,0,nan,0.0,4,1,18
324331944,1634097615800251,340347563,1087570557,424368,396454,0.21300001,0.5705769,0.77300006,1.095,0.65,0.96999997,110,9,0.36900002,0.35500002,0.101,0.053000003,0.28317007,0,nan,0.0,4,1,18
325329943,1634097616800251,340347598,1087570564,424374,396459,0.18200001,0.3027956,0.77800006,1.095,0.65,0.96999997,109,14,0.58400005,0.58400005,0.006,0.021000002,0.1289163,0,nan,0.0,4,1,18
326316523,1634097617800251,340347617,1087570565,424337,396423,0.263,0.74299484,0.78700006,1.102,0.65,0.96999997,109,4,0.22600001,0.192,-0.120000005,0.18300001,0.13349709,0,nan,0.0,4,1,18
327323732,1634097618800252,340347625,1087570563,424153,396239,0.20400001,0.52650243,0.79200006,1.11,0.65,0.96999997,102,14,0.268,-0.21400002,0.162,0.333,1.7043314,0,nan,0.0,4,1,18
328317888,1634097619800252,340347619,1087570555,423547,395633,0.27,0.62819564,0.791,1.113,0.65,0.96999997,102,4,0.125,-0.09900001,-0.076000005,0.56200004,2.108705,0,nan,0.0,4,1,18
329319157,1634097620800252,340347609,1087570553,423277,395363,0.30600002,0.70075095,0.84000003,1.1520001,0.65,0.96999997,102,2,0.094000004,-0.049000002,0.081,0.36,3.0722742,0,nan,0.0,4,1,18
330313044,1634097621800253,340347604,1087570560,423008,395093,0.26200002,0.7008143,0.845,1.1730001,0.65,0.96999997,102,7,0.091000006,-0.009000001,0.09,0.37500003,3.0722742,0,nan,0.0,4,1,18
331316760,1634097622800253,340347613,1087570561,422575,394660,0.335,0.700873,0.83900005,1.174,0.65,0.96999997,102,12,0.148,0.148,0.0,0.257,3.0722742,0,nan,0.0,3,1,18
332315293,1634097623800253,340347623,1087570564,422553,394639,0.208,0.70091754,0.84200007,1.189,0.65,0.96999997,102,6,0.095000006,0.091000006,-0.029000001,-0.031000001,3.0722742,0,nan,0.0,3,1,18
333323978,1634097624800254,340347625,1087570566,422345,394431,0.224,0.7009785,0.85600007,1.2040001,0.65,0.96999997,102,6,0.086,-0.086,-0.002,0.27600002,3.0722742,0,nan,0.0,3,1,18
334323943,1634097625800254,340347615,1087570564,421906,393992,0.23900001,0.7010464,0.855,1.212,0.65,0.96999997,102,9,0.1,-0.048,-0.08800001,0.32700002,3.0722742,0,nan,0.0,3,1,18
335322945,1634097626800254,340347611,1087570563,421299,393384,0.223,0.7011618,0.841,1.202,0.65,0.96999997,102,10,0.096,-0.087000005,0.040000003,0.62,3.0722742,0,nan,0.0,3,1,18
336320962,1634097627800255,340347610,1087570576,420647,392733,0.27400002,0.7013035,0.84000003,1.21,0.65,0.96999997,102,10,0.24300002,0.193,0.148,0.56600004,3.0722742,0,nan,0.0,3,1,18
337323947,1634097628800255,340347603,1087570574,419829,391915,0.31100002,0.5290524,0.83900005,1.217,0.65,0.96999997,102,17,0.231,0.223,-0.062000003,0.91400003,3.4843533,0,nan,0.0,3,1,18
338313061,1634097629800255,340347602,1087570565,419299,391384,0.27,0.52924836,0.83500004,1.217,0.65,0.96999997,109,19,0.095000006,0.007,-0.095000006,0.69900006,3.4843533,0,nan,0.0,3,1,18
339317227,1634097630800256,340347603,1087570569,419223,391309,0.25100002,0.6456823,0.83000004,1.215,0.65,0.96999997,109,10,0.163,-0.019000001,0.162,0.47500002,4.6501117,0,nan,0.0,3,1,18
340314865,1634097631800256,340347612,1087570562,419077,391162,0.17600001,0.5100712,0.82600003,1.22,0.65,0.96999997,110,21,0.101,0.038000003,0.093,-0.001,5.483961,0,nan,0.0,3,1,18
341316082,1634097632800256,340347620,1087570560,419187,391272,0.16100001,0.5101208,0.81900007,1.217,0.65,0.96999997,110,21,0.023000002,0.017,-0.015000001,-0.012,5.483961,0,nan,0.0,3,1,18
342311676,1634097633800256,340347630,1087570557,419371,391457,0.155,0.51017386,0.81100005,1.212,0.65,0.96999997,110,18,0.024,0.012,-0.020000001,0.004,5.483961,0,nan,0.0,3,1,18
343307107,1634097634800257,340347643,1087570554,419557,391642,0.238,0.5102248,0.80500007,1.2080001,0.65,0.96999997,110,11,0.009000001,-0.0050000004,0.008,-0.033,5.483961,0,nan,0.0,3,1,18
344308968,1634097635800257,340347651,1087570555,419674,391760,0.20500001,0.51028156,0.80300003,1.212,0.65,0.96999997,110,19,0.046000004,0.013,0.044000003,-0.009000001,5.483961,0,nan,0.0,3,1,18
345306120,1634097636800257,340347656,1087570550,419696,391781,0.24200001,0.51034766,0.80600005,1.2240001,0.65,0.96999997,92,14,0.054,0.054,-0.007,0.057000004,5.483961,0,nan,0.0,3,1,18
346307162,1634097637800258,340347665,1087570546,419815,391901,0.259,0.51041263,0.80700004,1.2340001,0.65,0.96999997,92,13,0.032,0.014,-0.029000001,0.108,5.483961,0,nan,0.0,3,1,18
