timestamp,yaw_composite,yaw_variance,yaw[0],yaw[1],yaw[2],yaw[3],yaw[4],innov_vn[0],innov_vn[1],innov_vn[2],innov_vn[3],innov_vn[4],innov_ve[0],innov_ve[1],innov_ve[2],innov_ve[3],innov_ve[4],weight[0],weight[1],weight[2],weight[3],weight[4]
23600707,-1.795792,3.8416567,-2.5122497,-1.2560993,0.00037525783,1.2573987,2.514437,-0.016573004,-0.004430361,-0.025804996,-0.05117421,-0.045464873,-0.039546803,-0.013121791,0.0065994957,-0.007637878,-0.036167204,0.2001469,0.2001736,0.19996046,0.19980197,0.19991717
23610639,-1.7951814,3.8414397,-2.5118413,-1.2556903,0.0007840486,1.257807,2.5148451,-0.016573004,-0.004430361,-0.025804996,-0.05117421,-0.045464873,-0.039546803,-0.013121791,0.0065994957,-0.007637878,-0.036167204,0.2001469,0.2001736,0.19996046,0.19980197,0.19991717
23809271,-1.6458975,3.652703,-2.4675426,-1.2239013,0.026348758,1.292026,2.5606482,-0.29489446,-0.2709834,-0.59375,-0.8173034,-0.6325279,-0.26392704,0.08324002,0.2133518,-0.053472415,-0.34852827,0.203817,0.20520389,0.19936284,0.19445644,0.1971598
24007904,-1.6499612,3.6490326,-2.476529,-1.2328181,0.017401358,1.2830093,2.5516074,0.06732719,0.067965046,0.048687153,0.035791855,0.047589198,-0.046510853,-0.026087604,-0.018895257,-0.035259876,-0.052458204,0.20377403,0.20518784,0.19939592,0.19449252,0.19714968
24206536,-1.644714,3.6485808,-2.4730728,-1.2291903,0.02109054,1.2865679,2.5550265,0.07870591,0.06891144,0.018624982,-0.0032791067,0.034481034,-0.0073131276,0.042190783,0.048715167,0.0023599528,-0.03246363,0.2037201,0.20512731,0.1994132,0.1945625,0.19717681
24405167,-1.6513495,3.6560156,-2.4722357,-1.2281876,0.02227109,1.2876923,2.5559444,0.07344532,0.07490179,0.029203197,-0.0012479275,0.026624817,0.006487297,0.05496018,0.07185441,0.0331543,-0.0075598154,0.2036989,0.20503718,0.19938022,0.19463074,0.19725293
24603968,-1.6581216,3.6635196,-2.4702458,-1.2262061,0.024358679,1.2898507,2.558044,0.034936737,0.030152984,-0.022391915,-0.050801236,-0.014762939,0.0004360862,0.05400657,0.066568576,0.019954743,-0.02118594,0.20373239,0.20501263,0.19933227,0.1946254,0.19729722
24807424,-1.6770948,3.6806684,-2.471053,-1.2268715,0.023989331,1.2895166,2.5574412,0.05487987,0.02275109,-0.042113427,-0.050450876,0.010299854,0.044382583,0.10171187,0.08942011,0.023240883,-0.004574701,0.20375189,0.20489642,0.1992433,0.19468482,0.19742355
25006030,-1.6412065,3.6514344,-2.4675324,-1.2234212,0.026998753,1.2923312,2.5605721,0.084420785,0.04819881,-0.01846657,-0.023742795,0.040663265,-0.07025205,-0.012406714,-0.028452888,-0.097514406,-0.12327204,0.20366837,0.20503786,0.1994109,0.19464901,0.19723389
25209627,-1.6392833,3.6536465,-2.4625788,-1.2185066,0.031929936,1.2973115,2.5655658,0.04537134,0.027788833,-0.038631838,-0.06278581,-0.010095959,-0.016759392,0.04710295,0.050744876,-0.011959486,-0.053872593,0.20369141,0.20504491,0.19939224,0.19463067,0.19724074
25408408,-1.6289752,3.6462348,-2.4608753,-1.216805,0.03352148,1.2988383,2.5671618,0.056344137,0.03214147,-0.02524376,-0.036930427,0.014188926,-0.028587306,0.023559028,0.017158294,-0.039990686,-0.06831,0.2036639,0.20507632,0.19943835,0.19462821,0.19719325
25606892,-1.6313058,3.6507666,-2.458476,-1.214313,0.03611991,1.3014089,2.5696099,0.05950492,0.037079293,-0.023582797,-0.03916412,0.01291025,0.006042633,0.062234387,0.058817618,-0.0005487269,-0.03326341,0.20365351,0.20502327,0.19941685,0.19466706,0.19723926
25805524,-1.6297805,3.6571417,-2.4489682,-1.2048575,0.04564504,1.3110298,2.5792193,0.046070892,0.015669212,-0.053577606,-0.066459276,-0.0040456946,-0.0012681196,0.061266277,0.05226784,-0.01707588,-0.050207492,0.20369637,0.20501767,0.19937098,0.19464448,0.19727056
26009124,-1.6396997,3.6661882,-2.448653,-1.2045143,0.04612918,1.3115718,2.5796564,0.04588349,0.010230933,-0.05124675,-0.053851698,0.006937975,0.018594362,0.071199365,0.054030802,-0.010392039,-0.03221323,0.2037231,0.20497261,0.19931744,0.1946558,0.19733101
26207934,-1.6450554,3.6733255,-2.44453,-1.2005625,0.050110858,1.3157457,2.5839162,0.045619354,-0.0071541592,-0.08156653,-0.074900985,0.0046380777,0.0009508785,0.06139415,0.030408435,-0.05073391,-0.068708815,0.20380762,0.20501052,0.19925629,0.19458112,0.19734445
26401424,-1.6237007,3.6584635,-2.429796,-1.1870303,0.06294674,1.3293693,2.598718,0.0984377,-0.02848175,-0.15244068,-0.10156295,0.055142913,-0.028447885,0.059132054,-0.03383291,-0.1818651,-0.17761879,0.20415103,0.20552336,0.19922222,0.19405791,0.1970455
26609987,-1.5652926,3.597554,-2.4143763,-1.1749296,0.0726196,1.3408936,2.6138215,0.16748418,-0.031430528,-0.22631285,-0.1469235,0.09931755,-0.06949284,0.068193406,-0.07724587,-0.30997497,-0.3036351,0.20495926,0.20709291,0.19935352,0.19260684,0.19598743
26808617,-1.3411084,3.4407969,-2.4013627,-1.1655984,0.07513604,1.3428541,2.622355,0.317364,0.08777046,-0.17753041,-0.11183634,0.19887286,-0.14662388,0.05404815,-0.09980455,-0.4037925,-0.4310708,0.20470856,0.21001062,0.2013141,0.19096935,0.19299732
27007338,-1.3552402,3.4145799,-2.400742,-1.169313,0.06839569,1.3386176,2.6227088,0.18533124,-0.029037798,-0.2726978,-0.21099289,0.07828747,-0.088928565,0.093939215,-0.0495622,-0.33089906,-0.3545205,0.20580575,0.21208625,0.20142555,0.1890418,0.19164065
27205882,-1.4686949,3.4440882,-2.422799,-1.1937217,0.04466626,1.3177075,2.6028092,-0.11043769,-0.20885052,-0.32504606,-0.29972285,-0.16357467,-0.035506435,0.052649163,-0.011465482,-0.14477482,-0.15929,0.20729081,0.21263367,0.20026913,0.18782483,0.19198151
27404525,-1.5190711,3.446003,-2.4565623,-1.2286613,0.00938325,1.2834578,2.5695527,0.0075861625,0.07497983,0.1589416,0.14414988,0.0479215,0.06174885,-0.0029854942,0.039550025,0.1347997,0.1480881,0.20774624,0.21304786,0.20005605,0.1873019,0.19184795
27608112,-1.7176509,3.5185387,-2.4830108,-1.2639177,-0.025359513,1.258377,2.5497398,0.08971132,0.28272393,0.50954497,0.45807928,0.19101807,0.09643945,-0.07434607,0.052184157,0.3134126,0.3391016,0.21205418,0.21535806,0.19713865,0.18335128,0.19209783
27806821,-1.6164018,3.3224294,-2.4790378,-1.2762063,-0.05109992,1.2405682,2.5509336,-0.2737893,0.026056897,0.27790087,0.12775244,-0.22383058,0.34193885,0.18519622,0.41845557,0.73920226,0.6842173,0.21536759,0.22372177,0.19847868,0.17640248,0.18602946
28005377,-1.6219343,3.2663996,-2.474997,-1.2806778,-0.06048497,1.2369232,2.5558338,-0.22579564,0.11639251,0.24289325,-0.039088227,-0.33994406,-0.018873006,-0.024090558,0.29983512,0.5301384,0.3170605,0.2179834,0.22766611,0.19801725,0.17255388,0.18377931
28208979,-1.7926137,3.3126655,-2.4740756,-1.2945304,-0.07071976,1.2450169,2.570692,-0.00059357285,0.35615623,0.35400897,-0.03770984,-0.26256374,0.07413232,0.21227206,0.60188526,0.72600913,0.37495524,0.22649604,0.230808,0.19151036,0.16587636,0.18530922
28407607,-1.7415202,3.2639914,-2.471647,-1.2909496,-0.07035117,1.2419674,2.5691056,-0.048341885,0.32176054,0.2158503,-0.27569038,-0.43233773,-0.45769954,-0.20439562,0.24623263,0.2810037,-0.18971384,0.2250631,0.23160361,0.19325866,0.16622785,0.18384682
28606254,-1.7126317,3.0779748,-2.4552753,-1.2979577,-0.09168385,1.2364321,2.5876732,-0.37118572,-0.014900655,-0.13839722,-0.62588,-0.7636409,-0.08662781,0.18050173,0.6216791,0.6372122,0.16428953,0.23246807,0.24322163,0.19188318,0.15543897,0.17698817
28804872,-1.7025487,2.991138,-2.4483387,-1.3022602,-0.1028793,1.2325734,2.5953667,-0.25410956,0.035854384,0.007907733,-0.35020196,-0.5130386,-0.050212055,0.09812929,0.4346034,0.51472455,0.17984925,0.23601893,0.24904227,0.19120362,0.15022595,0.17350918
29008471,-1.7158785,2.9574416,-2.447558,-1.307878,-0.11025557,1.2302668,2.5985007,-0.08165621,0.12618195,0.23698626,0.07592109,-0.13638863,0.123983234,0.09627488,0.28461796,0.4617617,0.34201804,0.23863581,0.25172788,0.18994886,0.14732757,0.17236003
29207102,-1.7054212,2.8550434,-2.4384308,-1.3129228,-0.12343839,1.2255721,2.609717,0.16218288,0.27648103,0.5328348,0.59435284,0.33330074,0.37075186,0.15295884,0.17413795,0.44992277,0.5719702,0.24296212,0.25897837,0.18899211,0.14102952,0.16803789
29405735,-1.5809746,2.693238,-2.416673,-1.3018371,-0.13313563,1.2103579,2.6170247,-0.13631983,-0.08878265,0.2892296,0.5318586,0.21699794,0.6104742,0.23854738,0.12796262,0.4923483,0.8115851,0.24012522,0.26975912,0.19582881,0.13647485,0.15781192
29604372,-1.5138835,2.5586436,-2.3976815,-1.2955337,-0.14425638,1.1995478,2.62776,-0.16577297,-0.17820305,0.29494068,0.7064091,0.35522377,0.49689606,-0.007232368,-0.23711678,0.18847102,0.69507486,0.23978508,0.2803004,0.19997855,0.13073333,0.14920262
29807966,-1.4277945,2.2889807,-2.360478,-1.289023,-0.17547505,1.1730323,2.650419,0.05939302,-0.012215614,0.525295,1.08587,0.71974695,0.71246326,0.10639492,-0.2310122,0.22724754,0.8969277,0.24062183,0.3049207,0.20693411,0.11660583,0.13091749
30006598,-1.3886623,1.9471072,-2.3137183,-1.2902094,-0.22624259,1.1375785,2.6850388,0.38877767,0.30871177,0.8104222,1.400902,1.0554601,0.7422996,0.15532032,-0.19841802,0.21919182,0.9203887,0.24486388,0.340661,0.21103992,0.09544441,0.1079909
30205236,-1.3757154,1.8230077,-2.2982948,-1.2925589,-0.24807435,1.1208628,2.6938224,0.1808486,0.13622499,0.45303372,0.86936337,0.6316306,0.4853772,0.104667306,-0.13713941,0.12648359,0.62036437,0.24510752,0.3549331,0.21300943,0.08783444,0.099115506
30408829,-1.3738589,1.8167983,-2.2987034,-1.2929087,-0.25080842,1.1188405,2.6921117,-0.0033064038,0.019371077,0.07120597,0.10274868,0.04135792,0.26587483,0.21990198,0.20993996,0.26798975,0.31109008,0.24474595,0.35577285,0.21345176,0.08752221,0.098507315
30607462,-1.4172752,1.7741376,-2.2973201,-1.302393,-0.26341334,1.1222953,2.7069016,-0.012548819,0.08000134,-0.15146779,-0.5533651,-0.41895956,0.028649151,0.34719583,0.59391856,0.4328436,-0.031680435,0.25266644,0.35930145,0.2063921,0.082933635,0.0987063
30811061,-1.495578,1.6537328,-2.291601,-1.3237734,-0.2939574,1.1244701,2.7390618,-0.023794234,0.10954985,-0.27560043,-0.92996544,-0.67774737,-0.073711395,0.4444297,0.83893526,0.55591464,-0.1965164,0.26932764,0.36966655,0.19222759,0.072037235,0.09674102
31009692,-1.5529088,1.5171485,-2.2864363,-1.3467764,-0.329973,1.1166167,2.7663321,-0.068982035,0.05050105,-0.33898246,-1.0092667,-0.7120515,-0.14512667,0.36932766,0.76213944,0.45848766,-0.29998204,0.28398657,0.38202304,0.1801719,0.06140248,0.092415944
31208325,-1.6197525,1.4391128,-2.2961054,-1.3750598,-0.36069176,1.1132978,2.7803698,-0.08526832,-0.026710868,-0.3440942,-0.85398626,-0.5596578,0.093004465,0.4871247,0.767153,0.4912897,-0.078383565,0.29892057,0.3866211,0.16768323,0.054506004,0.092269115
31406957,-1.6420923,1.4204702,-2.303503,-1.3870082,-0.37274715,1.1082065,2.7795713,-0.06323281,-0.08105841,-0.26780707,-0.4819017,-0.262438,0.06790176,0.26055604,0.3553301,0.1568824,-0.075568974,0.3030623,0.38730228,0.16428274,0.052859996,0.09249267
31605621,-1.6417433,1.4233803,-2.306424,-1.3887787,-0.3746633,1.1049329,2.7759795,0.021748453,-0.062384166,-0.07865575,0.05416733,0.12763701,0.22221811,0.17843081,0.06760469,0.0009083748,0.1508904,0.3021672,0.38716337,0.16503198,0.053191446,0.09244599
31804229,-1.610825,1.3691572,-2.2909427,-1.3804795,-0.37988892,1.0967848,2.7867439,0.26440623,0.12477288,0.23945941,0.6462469,0.60921323,0.40163094,0.17376807,-0.10061291,-0.06789395,0.38295525,0.29859042,0.39573765,0.16814113,0.050807413,0.08672331
32007823,-1.5583303,1.3482758,-2.2782564,-1.3632293,-0.37492317,1.0851035,2.785235,-0.1620294,-0.3317504,-0.12461881,0.47195178,0.35056317,0.6741524,0.31704208,-0.06437594,0.03789699,0.7026266,0.28826407,0.40170002,0.17687258,0.0514883,0.08167502
32206511,-1.5294507,1.2403495,-2.2529378,-1.3579319,-0.39016497,1.073239,2.8101914,0.23123592,0.06142932,0.2855528,0.9062142,0.77417576,0.46267024,0.08202249,-0.30974948,-0.19864416,0.50206614,0.28573442,0.4174771,0.17843473,0.045724586,0.07262927
32405250,-1.4935317,1.2011698,-2.2370386,-1.3455423,-0.3899823,1.0652102,2.8180223,0.10293585,-0.027787298,0.11317527,0.5669402,0.4973402,0.5310565,0.2661406,-0.021076858,0.025842488,0.5448096,0.27907032,0.42505157,0.18375932,0.044449016,0.06766979
32603718,-1.478145,1.2215548,-2.2371967,-1.3386352,-0.38054997,1.0668428,2.8141985,-0.2646389,-0.35043502,-0.32460624,-0.124379024,-0.08983336,0.55524844,0.45669648,0.3157266,0.2779509,0.51247394,0.27520522,0.42297012,0.18738034,0.046304066,0.068140335
32807316,-1.4787425,1.2259037,-2.2333674,-1.3341601,-0.37421808,1.0750976,2.8208416,0.016253568,-0.06330537,-0.18813862,-0.2322909,-0.02835956,0.19102982,0.27658018,0.25848332,0.082188725,0.038012266,0.27670807,0.42175344,0.18614553,0.046384975,0.06900798
33005949,-1.5080667,1.2004583,-2.234778,-1.3431749,-0.38281298,1.0794904,2.8321629,0.04072374,-0.07837215,-0.39844376,-0.6678522,-0.21086012,0.08448097,0.37079877,0.44582087,0.0562371,-0.24172676,0.28458196,0.42267555,0.17909834,0.04387197,0.069772266
33204712,-1.5619342,1.1120814,-2.2418947,-1.3718482,-0.41991633,1.0659838,2.8460708,0.120420694,-0.059596628,-0.5774613,-1.0371355,-0.29804185,-0.073988944,0.3952815,0.5368424,-0.09025347,-0.5912316,0.29772404,0.43051374,0.1669523,0.03736512,0.06744472
33408181,-1.6074196,0.9815077,-2.241268,-1.4021356,-0.4681714,1.0435485,2.8689997,0.16707993,-0.017604679,-0.63265556,-1.2486632,-0.3573476,-0.21039689,0.36165404,0.5768138,-0.16387391,-0.8163904,0.31112403,0.44480318,0.15366365,0.029041363,0.06136775
33606817,-1.6145402,0.8682159,-2.2310631,-1.4158171,-0.5075931,1.0148587,2.8864317,0.31421944,0.054151624,-0.58020866,-1.1098901,-0.09424093,-0.29974303,0.22654599,0.3640192,-0.4714496,-0.9857528,0.31488332,0.46174666,0.14726892,0.022896308,0.053204816
33810412,-1.636415,0.79664904,-2.22669,-1.4329132,-0.5344413,1.0045421,2.904741,0.27190506,-0.089413986,-0.6513553,-0.87445986,0.14760965,-0.05084329,0.30013534,0.24394155,-0.6139456,-0.7473306,0.32242587,0.47025973,0.13897717,0.0189547,0.04938252
34009159,-1.6712564,0.7377535,-2.2261899,-1.4504384,-0.55840015,1.006782,2.9251044,0.1146023,-0.33608383,-0.81757593,-0.6918244,0.28544107,0.10468393,0.27163744,0.013056019,-0.8553832,-0.56306446,0.33600447,0.47358194,0.12699574,0.015543742,0.047874127
34202753,-1.6689409,0.68346995,-2.2135193,-1.452168,-0.57444996,0.9998678,2.9444587,0.3199107,-0.16100448,-0.5495557,-0.14419505,0.706465,0.20417179,0.21908648,-0.17862874,-0.99690235,-0.3768685,0.33826253,0.48231336,0.12265438,0.013094572,0.043675147
34411272,-1.6668103,0.62461776,-2.196079,-1.4524657,-0.59094095,0.9972964,2.9727962,0.26188332,-0.22142373,-0.52741855,0.061312936,0.78952885,0.21597448,0.12063965,-0.3588223,-1.1118734,-0.2795366,0.34212142,0.49161312,0.11649715,0.010492806,0.03927559
34609908,-1.6643803,0.5761309,-2.1773338,-1.4497001,-0.60125774,1.0019153,3.003631,0.1856615,-0.26850587,-0.5221997,0.12961993,0.7586574,0.24161065,0.09817639,-0.39126617,-1.0857173,-0.17833973,0.347063,0.49859837,0.109978415,0.008452528,0.035907738
34808618,-1.6499512,0.530788,-2.1527612,-1.4410108,-0.60850847,1.0043306,3.0369325,0.2690245,-0.15682769,-0.39850456,0.23494036,0.82710296,0.20726375,0.06569366,-0.39757934,-1.0711272,-0.17815545,0.34805736,0.50791067,0.10546729,0.0067390795,0.031825617
35007173,-1.6520491,0.4872504,-2.1385841,-1.4416807,-0.62566215,1.0036459,3.0648093,0.20397773,-0.23496643,-0.5207752,0.070917144,0.7518093,0.11470604,0.003222108,-0.4424015,-1.196167,-0.31241274,0.35348007,0.5148795,0.098043285,0.0051024896,0.028494712
35210771,-1.6445196,0.44244778,-2.1142745,-1.4366666,-0.63671434,1.007852,3.1048782,0.25175884,-0.24270329,-0.6022856,0.008816168,0.8454801,0.19024444,0.09801522,-0.37458816,-1.2884752,-0.31645617,0.3574083,0.52323276,0.09087855,0.0036899636,0.02479046
35409404,-1.6249999,0.39729297,-2.0802112,-1.4268554,-0.64477,1.0105417,-3.1295497,0.3340056,-0.19079287,-0.5748285,0.10622185,0.99860907,0.25540814,0.14405891,-0.36601526,-1.3696849,-0.26488918,0.3568265,0.5349551,0.08520145,0.002542422,0.020474464
35608188,-1.6210151,0.36226472,-2.065987,-1.4280074,-0.6669454,0.99846494,-3.1021552,0.2861635,-0.19131565,-0.5043466,0.25406122,0.9889866,0.24839872,0.08138049,-0.4347008,-1.344805,-0.15813723,0.35650557,0.5451163,0.07963311,0.0017387869,0.017006306
35801704,-1.6215845,0.34430107,-2.057701,-1.4319488,-0.6758065,0.9957319,-3.0866416,0.14225572,-0.24722652,-0.51111037,0.1299752,0.74339813,0.33475018,0.1909529,-0.23224035,-1.0132766,0.011795878,0.35709444,0.5494493,0.07648232,0.0014237557,0.015550174
36010268,-1.6098386,0.32789162,-2.042336,-1.4282018,-0.68456614,0.9889644,-3.0680802,0.36456835,0.06778449,-0.20336613,0.10248494,0.73412126,-0.07913935,-0.10589728,-0.35050058,-1.0282694,-0.4152162,0.3527458,0.5574367,0.075133994,0.0011450559,0.013538515
36208900,-1.6037159,0.3201393,-2.031084,-1.422795,-0.6821547,0.9955006,-3.0519235,0.1038956,-0.114877224,-0.38411477,-0.35260797,0.2885662,-0.053126365,0.0095615685,-0.08981159,-0.67086995,-0.39704987,0.3536643,0.55932707,0.07309416,0.0010143034,0.012900266
36407545,-1.5943633,0.3150542,-2.0199797,-1.4159102,-0.6785819,1.0003046,-3.0404625,0.1794945,0.009076253,-0.18236984,-0.084834814,0.36524028,-0.07014564,-0.05233693,-0.15670183,-0.59490466,-0.30699787,0.352429,0.5617801,0.07253456,0.0009403776,0.012315908
36606166,-1.5929089,0.30897766,-2.013456,-1.4143142,-0.68096846,1.0038452,-3.030494,0.098423764,-0.056127578,-0.12992093,0.27988645,0.43058807,-0.0005711913,-0.12088539,-0.34237424,-0.64179593,-0.0652456,0.35395953,0.56261027,0.07069984,0.00084618846,0.011884147
36804800,-1.5883965,0.3009144,-2.0067182,-1.4125915,-0.6858418,0.9999874,-3.0204947,-0.0025878847,-0.13962981,-0.10022685,0.61338574,0.46652877,0.27754432,0.02602616,-0.30662236,-0.46927214,0.38290524,0.3523208,0.5661613,0.06968035,0.0007462277,0.011091381
37008402,-1.5922697,0.28413153,-1.9987739,-1.4184108,-0.7061391,0.99062836,-2.9989674,0.11161536,-0.011097133,0.10517573,1.0255291,0.67030156,0.18391047,-0.15580133,-0.5612935,-0.6311024,0.40919524,0.35395494,0.57027954,0.06542806,0.0005410809,0.009796378
37207113,-1.6097419,0.26446876,-1.9982438,-1.4329171,-0.74196106,0.97652704,-2.9735103,0.21614939,0.113591194,0.27206397,1.3029014,0.80153143,0.056445062,-0.32336593,-0.75540876,-0.76232755,0.36263755,0.36117378,0.57186717,0.058140256,0.00032861723,0.0084902225
37405662,-1.6299869,0.24817911,-1.998251,-1.4527699,-0.77065176,0.96812737,-2.95415,-0.054703176,-0.1496982,0.015022695,1.118182,0.5356725,0.099182814,-0.29166588,-0.7364351,-0.7339423,0.44549307,0.36899,0.570605,0.05239313,0.00022124597,0.0077905837
37604334,-1.6407702,0.23907045,-2.0020308,-1.4657385,-0.7926242,0.9523458,-2.9484334,0.0016357303,-0.07624352,0.04062313,0.9390195,0.46990633,0.19299492,-0.11249425,-0.4668504,-0.4853175,0.46848798,0.3695517,0.57303053,0.050137997,0.0001715447,0.0071081156
37807894,-1.6486846,0.23540851,-2.007114,-1.4755322,-0.8076088,0.94046485,-2.9511292,0.22975487,0.17453432,0.19979584,0.65350896,0.48434055,0.07198134,-0.07297908,-0.25175276,-0.3248909,0.18107611,0.3689677,0.5746667,0.04945514,0.0001529652,0.006757333
38006528,-1.6568877,0.2348316,-2.015161,-1.4841571,-0.81691873,0.93100905,-2.9584992,0.106923096,0.102868795,0.016270503,-0.22763482,0.021949247,-0.060024165,0.032310545,0.12980816,0.04013844,-0.18711472,0.36862615,0.5750683,0.04944078,0.00015156201,0.006713181
38205159,-1.6503079,0.22392407,-2.0041423,-1.4852802,-0.83084774,0.9127307,-2.9334192,0.06362569,0.1241889,-0.07322474,-1.0879343,-0.40346056,-0.3535412,-0.0029654503,0.4020342,0.3242375,-0.72942877,0.36275497,0.5829233,0.048440885,0.00011340797,0.0057673985
38408777,-1.6480957,0.1982104,-1.9794563,-1.4927621,-0.87067485,0.88124865,-2.8635287,-0.097952545,0.009839654,-0.26168257,-1.8692667,-0.84074706,-0.3381439,0.19964352,0.8337345,0.7977893,-0.90821123,0.36060417,0.59333533,0.041878756,4.3402575e-05,0.00413851
38607391,-1.6076008,0.16786748,-1.9201288,-1.4784076,-0.9081576,0.8241721,-2.757332,-0.21191216,-0.07512438,-0.35589492,-2.3564692,-1.0777571,-0.6993165,-0.074878275,0.6877564,0.7725869,-1.3913298,0.33586606,0.6233207,0.038673967,1.0529523e-05,0.0021286705
38806024,-1.5878581,0.14607018,-1.8765967,-1.4730796,-0.9454158,0.78491914,-2.6689413,-0.24680781,-0.1342578,-0.36127555,-2.2827196,-1.0033333,-0.465576,0.08855142,0.7813214,1.0042516,-1.1591665,0.32474548,0.6401468,0.033836514,2.4185745e-06,0.0012688461
39009625,-1.58715,0.13660315,-1.8635732,-1.4758692,-0.9651246,0.7743412,-2.6352162,0.054135203,0.143157,0.007973015,-1.4995594,-0.49886096,-0.24146271,0.1598343,0.6845868,0.9954537,-0.78916764,0.32442126,0.64372325,0.030813634,1.1126501e-06,0.0010407232
39213234,-1.581092,0.13216445,-1.8528187,-1.4730253,-0.9712359,0.7701512,-2.6170118,-0.029010177,0.050780535,-0.008776844,-1.0464689,-0.42140353,-0.24441111,0.020511176,0.38918227,0.71327335,-0.60714567,0.321311,0.64783055,0.029944437,7.5510366e-07,0.00091313984
39411854,-1.5768859,0.13078105,-1.848117,-1.4709228,-0.9724509,0.76799136,-2.6128006,-0.08781007,-0.025335938,-0.028772712,-0.5635505,-0.3166972,-0.2434322,-0.11002807,0.097350985,0.36874866,-0.42053097,0.31811026,0.6509071,0.030125752,6.803312e-07,0.00085627416
39610486,-1.5759848,0.13042466,-1.8473533,-1.4711612,-0.9739099,0.7658968,-2.6139812,-0.20903815,-0.15820237,-0.1147947,-0.21630421,-0.30687958,-0.20434713,-0.18008295,-0.10702588,0.11662403,-0.21701884,0.31631482,0.6523909,0.030455703,6.816553e-07,0.00083789264
39809120,-1.5756115,0.12994961,-1.8466722,-1.4716552,-0.9752407,0.7623817,-2.6114702,-0.18227744,-0.14290422,-0.060858592,0.22000165,-0.16161354,0.071888775,0.00054714456,-0.045179933,0.12656164,0.20437658,0.31517184,0.6533805,0.030619944,6.7542584e-07,0.00082709786
40007758,-1.5756036,0.1284762,-1.8459328,-1.4738127,-0.9805667,0.74934566,-2.6051419,-0.16726306,-0.13407981,-0.013732247,0.6032452,-0.048828505,0.22554782,0.07054045,-0.07735413,0.062613994,0.4888507,0.3120396,0.65628856,0.030886278,6.222475e-07,0.00078479294
40206544,-1.5849327,0.12440956,-1.8509693,-1.486743,-1.0033196,0.7131343,-2.5953708,-0.056002647,-0.031967133,0.1358991,1.1902664,0.18946022,0.28333217,0.020272478,-0.26040584,-0.17289619,0.71410793,0.30787727,0.6609795,0.030453388,4.3587755e-07,0.0006893036
40405020,-1.6046972,0.118321225,-1.8619202,-1.5094893,-1.0402899,0.66557455,-2.584545,-0.1069864,-0.08564073,0.116951644,1.4892685,0.21442276,0.20978409,-0.12725009,-0.49844176,-0.45449126,0.7617764,0.30674082,0.6638338,0.02882936,2.3878385e-07,0.00059571984
40603651,-1.6147807,0.112339415,-1.8642776,-1.5240761,-1.0700052,0.6201518,-2.565943,-0.07527286,-0.051063955,0.15058231,1.5508211,0.22978085,0.30146295,-0.0329839,-0.40329516,-0.3796537,0.85751045,0.3022783,0.66943693,0.027790572,1.2642978e-07,0.00049402606
40807250,-1.6166556,0.10876321,-1.8629501,-1.5294777,-1.0837803,0.59375244,-2.5542328,-0.2547,-0.22324866,-0.047382355,1.1287912,-0.03249836,0.2844818,0.012004092,-0.28420663,-0.24183317,0.74981004,0.29728457,0.67451257,0.027765887,9.189558e-08,0.00043683266
41006014,-1.6125174,0.10665619,-1.8556739,-1.5266066,-1.0860808,0.5869429,-2.5392363,-0.10178685,-0.06433338,0.08224994,0.9692246,0.035823673,0.13084058,-0.07027668,-0.28000164,-0.19510885,0.48486686,0.29643965,0.6758603,0.027287258,7.18276e-08,0.00041267474
41209485,-1.6038095,0.1059993,-1.8467264,-1.5187463,-1.079344,0.5907651,-2.5294275,-0.28548467,-0.24219196,-0.12881075,0.4138885,-0.24021651,0.06959217,-0.049687713,-0.15953471,-0.011237815,0.2913262,0.2950152,0.67710745,0.027472805,6.994657e-08,0.00040450887
41408146,-1.594341,0.10574204,-1.8365756,-1.5092293,-1.0704437,0.59986365,-2.5178688,0.052377522,0.09812243,0.17955074,0.40910542,0.022712141,0.013751075,-0.033396468,-0.05597633,0.14240064,0.11573656,0.29544652,0.6768589,0.027290752,6.679606e-08,0.00040379236
41606747,-1.5827323,0.10558414,-1.8249341,-1.498132,-1.0598913,0.60861707,-2.5064054,-0.21194956,-0.16989204,-0.118430994,-0.12042461,-0.2860465,-0.006317362,-0.0010612607,0.036928497,0.24797407,0.0031961352,0.29451606,0.6776639,0.027421342,6.606251e-08,0.0003986178
41805521,-1.5729603,0.105440825,-1.8147402,-1.4884983,-1.0506902,0.6173122,-2.4955657,-0.10124213,-0.07043103,-0.039745998,-0.10985361,-0.16932167,0.10621238,0.12558316,0.17420056,0.34195134,0.08179785,0.29446965,0.6777847,0.027348474,6.4237376e-08,0.0003970926
42008978,-1.5609068,0.10535127,-1.8025982,-1.4768451,-1.0393325,0.62726605,-2.483348,-0.24974698,-0.23209602,-0.20432329,-0.1590845,-0.26755986,0.21249345,0.20391484,0.21148336,0.3023909,0.22467744,0.29378176,0.67838573,0.027437767,6.393803e-08,0.00039461284
42207611,-1.5572494,0.10523333,-1.7987275,-1.4732677,-1.0360287,0.630342,-2.4789972,-0.044217512,-0.044460133,-0.017845243,0.20979542,0.012143478,0.032834575,-0.01957973,-0.07466291,-0.0918268,0.10444359,0.2937498,0.6784425,0.027413972,6.311012e-08,0.0003936642
42406243,-1.5571676,0.106317505,-1.8050557,-1.4705675,-1.0337894,0.63144755,-2.4774618,-0.09985219,-0.119625494,-0.1023968,0.25048858,0.021415234,0.07872167,-0.004763294,-0.10788745,-0.23318209,0.18603994,0.29367387,0.6785733,0.027361117,6.1436126e-08,0.00039153046
42604939,-1.5573562,0.10435166,-1.7970995,-1.4734608,-1.0381694,0.6281493,-2.4739313,-0.061530888,-0.09900281,-0.093346894,0.34584245,0.11249095,0.019512095,-0.08589196,-0.22506335,-0.4453046,0.1485599,0.29448873,0.6780855,0.02703629,5.669987e-08,0.00038939712
42808476,-1.5575837,0.10375931,-1.7963121,-1.4739134,-1.0400885,0.6254733,-2.4708652,-0.039359897,-0.08766976,-0.0974136,0.32102183,0.15044075,0.08118148,-0.020732787,-0.16173802,-0.43161726,0.19485779,0.294564,0.67820996,0.026841944,5.2630234e-08,0.0003840739
43007111,-1.5560392,0.10331245,-1.7942592,-1.4728006,-1.0401684,0.62377524,-2.4671896,0.0030286312,-0.04348296,-0.05916226,0.287977,0.17329311,0.12063013,0.035246238,-0.08530901,-0.33932555,0.20869353,0.29396603,0.67884666,0.026809985,5.0008676e-08,0.00037727662
43205741,-1.5515139,0.10308542,-1.7894367,-1.4684309,-1.036288,0.62713766,-2.4615736,-0.039504573,-0.08251576,-0.105603024,0.13620031,0.10087006,0.09925292,0.038134426,-0.051652476,-0.27621195,0.14975938,0.2938175,0.6790321,0.02677541,4.8872554e-08,0.0003749252
43404398,-1.5439037,0.1029761,-1.7816082,-1.4608349,-1.0288419,0.63463694,-2.4533577,-0.06461498,-0.1004291,-0.1229253,0.046767794,0.045869738,0.07369713,0.02988783,-0.035684913,-0.21735048,0.10213385,0.29391727,0.6789752,0.026732694,4.836366e-08,0.0003747406
43603009,-1.5318242,0.10296049,-1.7693105,-1.448687,-1.0166306,0.64727587,-2.4410126,-0.074055195,-0.10077253,-0.13226077,-0.14569288,-0.020906381,0.058035053,0.056739673,0.04694075,-0.06635138,0.02236309,0.2941939,0.6787528,0.026677297,4.8186795e-08,0.0003759087
43806607,-1.5280516,0.10213234,-1.7623341,-1.4444993,-1.0151033,0.65061605,-2.4293284,-0.30795515,-0.3284887,-0.40080568,-0.8642185,-0.36339688,0.0868491,0.1875319,0.30423304,0.28475863,-0.11910684,0.29673162,0.6770683,0.025825333,3.9844554e-08,0.0003747319
44010205,-1.5223789,0.099790566,-1.75518,-1.4407121,-1.0160522,0.6419958,-2.4176457,0.3726977,0.3613661,0.2348004,-0.8522482,0.16912368,-0.21916103,0.020952001,0.31201324,0.42868844,-0.658679,0.2936001,0.68025994,0.025796017,3.230783e-08,0.0003440026
44208856,-1.5332177,0.093362406,-1.7502457,-1.4541364,-1.0512589,0.5968558,-2.381184,-0.44234312,-0.45005977,-0.61055434,-2.0851684,-0.73216116,-0.100855224,0.2245093,0.6211749,0.8274861,-0.68770665,0.2971119,0.68002474,0.02258139,8.719488e-09,0.0002818892
44407474,-1.544281,0.090926185,-1.763235,-1.4630233,-1.0675691,0.5762004,-2.373907,0.3523605,0.34761477,0.20723265,-1.2440197,0.0869202,-0.12178224,0.18406174,0.5637135,0.83247083,-0.6841441,0.29834947,0.6800418,0.021350443,4.8927777e-09,0.000258359
44606104,-1.5563011,0.087281846,-1.7622709,-1.4798813,-1.0936805,0.5457182,-2.3704364,-0.24063712,-0.24949318,-0.34304112,-1.2826864,-0.39298707,-0.12514687,0.06775035,0.30721304,0.46712923,-0.49202275,0.2982162,0.6809983,0.020549089,2.973861e-09,0.00023644025
44809703,-1.5682943,0.087141044,-1.7736311,-1.4919087,-1.1064512,0.5338619,-2.3809836,-0.13624987,-0.15056407,-0.1845799,-0.40658543,-0.14250314,-0.0003605103,0.040911783,0.0901796,0.072844215,-0.099621594,0.29859602,0.68073094,0.020437004,2.8529292e-09,0.00023598454
45008336,-1.5765594,0.086804196,-1.7816364,-1.5004381,-1.1155585,0.5238695,-2.3884785,-0.29162484,-0.31059837,-0.29232454,0.15184535,-0.16880152,0.14017788,0.044240594,-0.07984028,-0.27206933,0.28692818,0.29823175,0.68105215,0.020480853,2.8545721e-09,0.00023527032
45206969,-1.5774297,0.08593815,-1.7817951,-1.5021447,-1.119179,0.5161232,-2.3865504,-0.2802651,-0.30103725,-0.26425362,0.42051363,-0.11092483,0.19513676,0.04976894,-0.13709119,-0.3942285,0.43101427,0.2968563,0.6823726,0.02054213,2.672678e-09,0.00022885465
45405611,-1.5717808,0.08495314,-1.774461,-1.497441,-1.1179383,0.5109665,-2.3744454,0.07477245,0.055220455,0.08928034,0.73043597,0.23326011,0.13001111,-0.0060027726,-0.18096401,-0.42546478,0.35101354,0.29579824,0.6836238,0.020359678,2.189569e-09,0.00021828811
45604235,-1.5660393,0.08456826,-1.7682781,-1.4918158,-1.1128637,0.51555943,-2.3673682,-0.28026107,-0.29754722,-0.2744595,0.21402241,-0.15444212,0.095754996,-0.008352713,-0.1427145,-0.34505853,0.26165405,0.2958731,0.6835938,0.02031501,2.1420365e-09,0.00021804383
45802868,-1.558618,0.08422091,-1.7601696,-1.4847163,-1.107069,0.5188245,-2.3573728,0.07996866,0.06400326,0.07850413,0.4499293,0.18210214,0.060102865,-0.01979409,-0.123594046,-0.29202384,0.1836193,0.2955856,0.68397367,0.020226398,1.9768478e-09,0.00021432876
46006467,-1.5492896,0.08411613,-1.7508585,-1.4755489,-1.0979303,0.5274802,-2.347942,-0.19120984,-0.20914483,-0.2068688,0.049972095,-0.10513398,0.14337364,0.08625717,0.009821981,-0.14337705,0.22405814,0.29522836,0.68427634,0.020281456,1.9934279e-09,0.00021381365
46210066,-1.5422215,0.08399989,-1.7434491,-1.4685597,-1.0914996,0.5328904,-2.339741,0.11111969,0.09307233,0.089283556,0.27726373,0.18525857,-0.023740966,-0.06690798,-0.12618762,-0.26379976,0.031841204,0.29527023,0.6842993,0.020218043,1.9184287e-09,0.00021247265
46408752,-1.5359017,0.08398187,-1.737265,-1.4623754,-1.0852058,0.5387225,-2.3335853,-0.08677841,-0.10811741,-0.12216659,-0.0083028935,-0.018586878,0.1986664,0.16968283,0.12646164,-0.011723086,0.22581205,0.29487333,0.6846325,0.020282265,1.941605e-09,0.00021192721
46607333,-1.5322479,0.08396989,-1.7334955,-1.4586946,-1.0815879,0.54250365,-2.329686,-0.054315314,-0.07327123,-0.089251965,-0.030614126,-0.0010538474,0.012599893,-0.0045727454,-0.032145787,-0.14421931,0.020712212,0.2950255,0.6845062,0.02025615,1.9319408e-09,0.0002122068
46805965,-1.5295266,0.08397422,-1.7308214,-1.4560142,-1.078878,0.54496473,-2.3270063,0.03167065,0.011052664,-0.011240503,-0.002978539,0.07962145,0.094120085,0.08675014,0.07050511,-0.03870449,0.083210096,0.29489648,0.68461823,0.020273374,1.9355744e-09,0.00021191286
47009564,-1.5283669,0.08397278,-1.7295722,-1.4548196,-1.0777109,0.5463797,-2.3256543,-0.04202164,-0.06335755,-0.08957197,-0.1166818,0.0011874586,0.04303997,0.042673368,0.03469379,-0.07007573,0.019054122,0.2950453,0.6844938,0.020248683,1.927963e-09,0.00021223022
47208253,-1.5282041,0.083970815,-1.7292917,-1.4546027,-1.0775272,0.5469269,-2.3252394,-0.05732447,-0.079298265,-0.10760214,-0.14944331,-0.015413806,0.048295885,0.0507743,0.045912463,-0.059087675,0.01890044,0.295259,0.6843143,0.020214021,1.9178352e-09,0.00021270513
47406831,-1.5318685,0.083959214,-1.7329032,-1.45826,-1.0812784,0.5431796,-2.3287554,0.008693747,-0.01779762,-0.052670337,-0.107914545,0.057943404,0.041940305,0.046003994,0.040934417,-0.085721016,0.0059275366,0.29530856,0.6842788,0.02020004,1.9083293e-09,0.00021265575
47605464,-1.5393165,0.08394315,-1.740321,-1.4657097,-1.0888464,0.53553146,-2.3360841,0.015327208,-0.014380857,-0.051769175,-0.0906395,0.07428939,0.06130635,0.061261117,0.049464613,-0.098998435,0.030258648,0.29531854,0.68427694,0.020192025,1.9003266e-09,0.00021252305
47809062,-1.5463456,0.08392845,-1.7473136,-1.4727192,-1.095934,0.5284964,-2.3429916,-0.0048312396,-0.03550211,-0.07329139,-0.10247304,0.05780895,0.08614348,0.08391282,0.068826646,-0.08752425,0.05854244,0.295384,0.68422467,0.02017872,1.894532e-09,0.00021262479
48007857,-1.5523309,0.083914705,-1.7532829,-1.4787244,-1.1020622,0.5221856,-2.3488743,0.019825216,-0.008182444,-0.041532896,-0.054556698,0.07942167,0.054644026,0.04984635,0.03264527,-0.113436475,0.03443215,0.29534155,0.68426836,0.020177716,1.887091e-09,0.00021234514
48206329,-1.5535703,0.08390192,-1.7544473,-1.4799666,-1.103428,0.52075404,-2.3499012,0.0007223934,-0.022961609,-0.05050209,-0.05458138,0.052437857,0.002809219,-0.0026794076,-0.018886626,-0.14386755,-0.01197806,0.29538476,0.68424106,0.02016198,1.8739812e-09,0.00021220172
48404962,-1.5531653,0.083908,-1.7540238,-1.4795482,-1.1029918,0.521291,-2.349451,-0.03212004,-0.051736712,-0.073689,-0.06788098,0.012438886,0.07959836,0.07316322,0.057521842,-0.04798676,0.07045534,0.29543212,0.6841996,0.02015593,1.8744282e-09,0.00021238411
48608561,-1.5505971,0.083915785,-1.7514182,-1.4769691,-1.100407,0.52396667,-2.3468041,-0.04041553,-0.05480266,-0.06908592,-0.04499909,-0.004078679,0.036487266,0.027712392,0.011423437,-0.070293255,0.036568925,0.29548776,0.68415236,0.02014729,1.8724553e-09,0.00021253007
48807323,-1.5481042,0.08392807,-1.7489322,-1.4744934,-1.0979136,0.5263998,-2.3443084,-0.01729428,-0.028669775,-0.038561776,-0.0040081665,0.014271297,0.06467584,0.054571964,0.037900604,-0.030172534,0.07011822,0.295446,0.6841882,0.020153338,1.8741346e-09,0.00021246127
49005827,-1.5483577,0.0839444,-1.7491909,-1.4747534,-1.0981698,0.5261316,-2.3445625,-0.031392172,-0.03764047,-0.041828666,-0.01111123,-0.011657409,0.048743986,0.040738154,0.028935846,-0.010445565,0.055152237,0.2954285,0.6842025,0.02015655,1.875761e-09,0.00021246095
49209429,-1.5513734,0.083958685,-1.7521895,-1.4777567,-1.1012043,0.52315176,-2.3475442,-0.043907706,-0.049827274,-0.052573513,-0.008749343,-0.022669345,0.0033036862,-0.007251665,-0.022168923,-0.06312809,0.0148681905,0.29546845,0.68416804,0.020150963,1.8747792e-09,0.00021256735
49408059,-1.5544538,0.08396994,-1.7553234,-1.4808923,-1.1043804,0.5196883,-2.350672,-0.007198628,-0.011968749,-0.01177712,0.051364906,0.014849622,0.10263845,0.088488005,0.06952582,0.029943231,0.12200148,0.29529855,0.6843157,0.020173553,1.8776962e-09,0.00021215319
49606785,-1.5579917,0.08398211,-1.7588271,-1.4843975,-1.1079148,0.516297,-2.3541546,-0.062974684,-0.06508801,-0.060821664,0.0138386935,-0.04472928,-0.031692285,-0.047481354,-0.06735305,-0.09543249,-0.006773539,0.2953986,0.6842289,0.020160154,1.8758355e-09,0.00021241349
49810334,-1.5592237,0.083988294,-1.7601596,-1.4857475,-1.1093172,0.5143357,-2.3554866,-0.014282836,-0.015771681,-0.0106528085,0.065806136,0.0028725043,0.17549914,0.15951954,0.13963218,0.11438737,0.20147996,0.29504946,0.68453234,0.020206649,1.8814224e-09,0.00021153814
50008924,-1.5579059,0.0839975,-1.758793,-1.4844042,-1.1079819,0.51579297,-2.3540761,-0.043617498,-0.04612524,-0.04235621,0.03279181,-0.024526622,-0.030330658,-0.0462992,-0.066691205,-0.097294286,-0.005145021,0.29514614,0.6844502,0.020191874,1.8775546e-09,0.00021174974
50207558,-1.5549396,0.083988905,-1.7558825,-1.4815588,-1.105221,0.51795125,-2.3511097,0.04182995,0.034403447,0.03349623,0.12278134,0.07398245,0.11798871,0.09791894,0.0701133,0.009141713,0.14640245,0.29482388,0.6847356,0.020229679,1.8757704e-09,0.00021078608
50406244,-1.5524565,0.08397396,-1.7533956,-1.4791305,-1.1028532,0.5200555,-2.3485508,-0.023475137,-0.036845088,-0.043835156,0.05721446,0.023561984,0.068742976,0.04477678,0.009355588,-0.087012045,0.09908241,0.2946993,0.6848491,0.0202413,1.8716948e-09,0.00021036554
50604824,-1.5466354,0.083956316,-1.7475986,-1.4733843,-1.0971301,0.5254584,-2.342724,-0.023194682,-0.041423496,-0.055036314,0.03599926,0.03259676,0.09838792,0.07520518,0.03851675,-0.081975445,0.123039216,0.2945114,0.6850148,0.020263994,1.8717319e-09,0.00020984214
50808423,-1.5428252,0.08393514,-1.7437937,-1.46967,-1.0935223,0.5285773,-2.3388171,0.04154074,0.022691756,0.0065894052,0.07696807,0.09506172,0.06811617,0.04895064,0.016964965,-0.10192569,0.08495176,0.29428357,0.6852211,0.02028625,1.864415e-09,0.00020903374
51007056,-1.5411404,0.08392568,-1.7421173,-1.4680585,-1.0920038,0.5297084,-2.3370652,0.051195465,0.03243656,0.013940634,0.05473131,0.09936201,0.049463052,0.03629866,0.011823858,-0.09939613,0.05547567,0.2941056,0.68538225,0.020303799,1.8586795e-09,0.00020839302
51205711,-1.5409497,0.08393644,-1.741914,-1.4678468,-1.0917646,0.53007394,-2.3368611,-0.051537313,-0.06786402,-0.08536808,-0.06688633,-0.012539633,0.07186279,0.06383329,0.046848595,-0.0457042,0.07073726,0.2941647,0.68532974,0.020296948,1.8597568e-09,0.0002086118
51404336,-1.5352248,0.085437536,-1.7448009,-1.4586236,-1.0807952,0.5407618,-2.33075,0.06615716,0.08039617,0.102641106,0.16383813,0.046284065,0.12778854,0.11899833,0.11487029,0.17820613,0.15562011,0.2941641,0.68534994,0.020277767,1.8376494e-09,0.00020823715
51612888,-1.5296516,0.08515653,-1.7387937,-1.4533397,-1.0764878,0.5435064,-2.3234951,-0.07704045,-0.007769797,0.08606611,0.22430615,-0.20287322,0.0012265146,-0.008941442,0.010068178,0.35416976,0.08107577,0.2937921,0.6857593,0.02024341,1.7391397e-09,0.00020523087
51811524,-1.5259621,0.08405307,-1.7319839,-1.4495089,-1.0761626,0.5431593,-2.3102198,0.062350795,0.19697332,0.37617034,0.6111179,-0.18895832,0.053281248,0.040777326,0.08626157,0.76367915,0.19597614,0.2961946,0.6840872,0.019515635,1.2958201e-09,0.00020254632
52010220,-1.5139275,0.08106076,-1.7091057,-1.4427092,-1.0764146,0.5332555,-2.2888439,-0.20145941,-0.044740297,0.16165376,0.40949038,-0.5004977,0.05837792,0.050399244,0.1109364,0.9146434,0.21123117,0.29366073,0.68676764,0.019386142,9.4619e-10,0.00018547622
52203821,-1.5012941,0.07953404,-1.692012,-1.4301891,-1.0692976,0.538318,-2.262021,0.056531046,0.21187434,0.41354424,0.63144183,-0.24837542,0.15803665,0.15807837,0.2271344,1.0395765,0.2935987,0.2966561,0.68474406,0.018419407,6.006018e-10,0.00018041239
52407421,-1.4950329,0.0784763,-1.6828914,-1.424013,-1.0666614,0.5396744,-2.2465696,0.03241439,0.16635783,0.33881143,0.5079074,-0.23609962,0.055978537,0.061518908,0.12727422,0.8454872,0.16072083,0.29862887,0.683383,0.017811,4.430795e-10,0.00017719662
52611022,-1.4971406,0.077415116,-1.681641,-1.4264997,-1.073798,0.5297275,-2.237509,0.00994063,0.13125446,0.2862382,0.4228292,-0.23734944,0.31339347,0.32267946,0.38718832,1.0501848,0.39914787,0.3003356,0.68232095,0.017171752,3.049269e-10,0.00017170381
52809665,-1.5027772,0.07678238,-1.6858101,-1.4325494,-1.0823313,0.5186943,-2.237965,-0.053723954,0.046768688,0.17451745,0.27806756,-0.2616662,0.07877666,0.08944881,0.146204,0.70665395,0.14293551,0.3004729,0.68241274,0.016946899,2.5403718e-10,0.00016744144
53008286,-1.5101994,0.0765246,-1.6922672,-1.4399325,-1.0908765,0.5103196,-2.2422948,0.042015728,0.10441144,0.18247443,0.22820592,-0.090562925,0.14170653,0.15226442,0.19240576,0.5489307,0.17352444,0.30136102,0.6817385,0.01673339,2.2883909e-10,0.00016704827
53206921,-1.511981,0.07640243,-1.6933466,-1.441674,-1.0934197,0.50816804,-2.2418683,-0.016961124,0.01683762,0.05558815,0.02983614,-0.09665393,0.30035317,0.31577024,0.34987858,0.5595348,0.2989813,0.302052,0.68119884,0.016582236,2.1328882e-10,0.00016698996
53405553,-1.5135292,0.07763943,-1.7022738,-1.4395151,-1.0902027,0.5131732,-2.2411404,0.08914531,0.11821329,0.15064445,0.11539104,0.018572835,0.3571434,0.37291238,0.40542656,0.5903789,0.35111523,0.30331078,0.6801466,0.016374271,1.9894565e-10,0.0001683388
53604186,-1.5188707,0.077419475,-1.7066851,-1.4449325,-1.0967847,0.5062667,-2.2435124,-0.022221982,0.02653867,0.085651435,0.093542,-0.13029027,0.26991355,0.28364068,0.3218363,0.6118891,0.28404438,0.3038945,0.67973137,0.01620678,1.8017506e-10,0.00016733927
53807786,-1.5263346,0.07733582,-1.7138289,-1.4524624,-1.1046596,0.49828193,-2.2501485,-0.014085025,0.018661134,0.05572287,0.02303844,-0.092517644,0.034030497,0.050498247,0.08537936,0.29287454,0.029634953,0.30401403,0.6796539,0.016165176,1.7530509e-10,0.00016696847
54006419,-1.5231605,0.07733849,-1.7103502,-1.4491061,-1.1013383,0.5028621,-2.2463796,0.03150846,0.030358583,0.022587158,-0.07014329,0.020014927,0.2867867,0.30392155,0.32541543,0.34781826,0.2531199,0.30473423,0.6790169,0.016080508,1.7327373e-10,0.00016839983
54205052,-1.5147178,0.0760742,-1.6941544,-1.4439569,-1.0974799,0.50689995,-2.2384875,0.124675736,0.0980215,0.05727037,-0.07001573,0.16517931,0.23179531,0.24740034,0.25625116,0.13575476,0.1799669,0.30484274,0.678901,0.016087279,1.7595812e-10,0.0001689966
54413617,-1.5097065,0.07733679,-1.6965336,-1.4353431,-1.0874763,0.5188555,-2.232475,-0.11055531,-0.12194624,-0.14327213,-0.2535329,-0.1016954,0.3144349,0.3316384,0.34890097,0.3147836,0.27226713,0.30583492,0.67801976,0.01597423,1.7350646e-10,0.00017104378
54612252,-1.5092316,0.07725145,-1.6953478,-1.4347038,-1.087385,0.5199154,-2.2300375,0.06299852,0.09043369,0.121152714,0.0889789,-0.0032824613,0.32201654,0.33663088,0.36685586,0.54220283,0.31676513,0.3068493,0.67717004,0.015808633,1.6325409e-10,0.00017202873
54805960,-1.5078449,0.07683252,-1.6923149,-1.433352,-1.0880176,0.5187706,-2.2234945,0.027299672,0.098551035,0.18664885,0.22312659,-0.12675266,0.2726373,0.28806192,0.33762574,0.75650275,0.3018806,0.30817187,0.6761614,0.015495756,1.3677483e-10,0.00017095437
55004729,-1.5130905,0.07577707,-1.6946709,-1.439245,-1.0983547,0.50392157,-2.2187347,-0.044247355,0.07628892,0.22988015,0.35640946,-0.29579717,0.2373048,0.25177884,0.32049423,1.0137776,0.30822897,0.30906543,0.6757165,0.015053416,9.5349936e-11,0.00016460069
55208176,-1.514119,0.07415307,-1.6912979,-1.4417027,-1.1083403,0.48443556,-2.2038505,-0.10104875,0.04347779,0.23011194,0.41887337,-0.39945525,0.4162644,0.42843938,0.5035083,1.3345714,0.50958085,0.309375,0.6759938,0.014478671,5.3056833e-11,0.00015258198
55406783,-1.5169668,0.07166908,-1.6823587,-1.4484665,-1.1227372,0.46467015,-2.1925232,0.022452917,0.15438622,0.32541654,0.51089466,-0.2517984,0.40871167,0.42021787,0.48815346,1.2598569,0.49078882,0.3118741,0.6742017,0.013777052,3.0590055e-11,0.00014709169
55610383,-1.5185016,0.07086924,-1.6813321,-1.4506105,-1.1289437,0.4546291,-2.1849878,-0.027360145,0.07331095,0.20428607,0.35121992,-0.23805249,0.3567649,0.3662709,0.41834247,1.0186989,0.4161408,0.31279373,0.6736443,0.013419276,2.172981e-11,0.00014264656
55809173,-1.5239872,0.07038179,-1.6852523,-1.4566875,-1.1378869,0.4422999,-2.1846418,-0.08581416,-0.011288814,0.08572069,0.193705,-0.24307227,0.37679577,0.38482893,0.42428946,0.875762,0.41783142,0.31276625,0.673845,0.013250029,1.744863e-11,0.00013869128
56007650,-1.5294043,0.07126523,-1.6969527,-1.4590315,-1.1401621,0.44026294,-2.1858668,0.0019229949,0.048194285,0.10836065,0.17200013,-0.096858636,0.368922,0.37491632,0.40051436,0.6855123,0.3917998,0.31329226,0.67345625,0.013113686,1.5473395e-11,0.00013768954
56206283,-1.5224658,0.07010115,-1.6823052,-1.4554685,-1.1388016,0.44086504,-2.178051,0.026559021,0.048150364,0.0774696,0.122836545,-0.017855257,0.47152472,0.47164166,0.48003304,0.60924304,0.4867134,0.3134317,0.6733703,0.01306089,1.4654368e-11,0.00013709728
56404916,-1.5177189,0.07010176,-1.6774546,-1.4507829,-1.1342804,0.44579196,-2.1729264,-0.044565704,-0.042667508,-0.03944389,-0.031773448,-0.048440225,0.41022885,0.40962338,0.40946245,0.42142624,0.41189873,0.31338322,0.6734163,0.0130634755,1.4610858e-11,0.00013699483
56603705,-1.5169649,0.07011858,-1.6766561,-1.4500183,-1.1335213,0.44737887,-2.1719952,0.050294075,0.04637544,0.04093842,0.022700652,0.056527648,0.44665027,0.44842386,0.44909698,0.43151653,0.43945634,0.3134717,0.67332995,0.013061104,1.469006e-11,0.00013729674
56802184,-1.5121654,0.07110131,-1.6784936,-1.4422358,-1.1252894,0.45588312,-2.164301,-0.0076640137,0.012518782,0.040336285,0.08996552,-0.04826157,0.5563152,0.5551876,0.56140697,0.67987883,0.572906,0.3133988,0.67343843,0.013026397,1.3912143e-11,0.00013629773
57005820,-1.5134895,0.07092921,-1.6791577,-1.4438193,-1.1280243,0.45186397,-2.1631515,0.0014685709,0.042884536,0.10005362,0.21045732,-0.080425784,0.33020997,0.32646918,0.3374493,0.5761975,0.36777186,0.313373,0.6735313,0.012960953,1.2713485e-11,0.00013479604
57209382,-1.519399,0.06966554,-1.6773734,-1.453242,-1.1400402,0.43698096,-2.1676967,-0.044188485,0.0057625063,0.07469015,0.20950058,-0.14290029,0.26947892,0.26486576,0.2779255,0.5659183,0.3150351,0.31307033,0.67388403,0.012912996,1.1517857e-11,0.00013263315
57408161,-1.5149492,0.0694656,-1.6720135,-1.4491141,-1.1374736,0.4377923,-2.1597955,0.058426302,0.09838405,0.15419549,0.27270007,-0.019494452,0.5440408,0.5386746,0.5468663,0.7744653,0.583457,0.31313252,0.6739228,0.012814011,1.0143977e-11,0.00013081338
57606648,-1.5092874,0.0693132,-1.6656013,-1.4437449,-1.1334302,0.44035715,-2.1512432,0.070238106,0.10200191,0.14673288,0.24642588,0.008685879,0.60712004,0.6020825,0.6075059,0.78763855,0.63968885,0.31310946,0.67402196,0.012739409,9.134541e-12,0.00012922488
57810248,-1.5079067,0.06920023,-1.663633,-1.4425306,-1.1331949,0.43971705,-2.1476917,0.0069224034,0.037774928,0.07931486,0.1453114,-0.05692766,0.43994713,0.44057453,0.45293474,0.6402546,0.46093845,0.31327227,0.67393064,0.012668764,8.42566e-12,0.00012831985
58008881,-1.5033313,0.069938354,-1.6647079,-1.4351976,-1.1267242,0.44497538,-2.1372042,0.019756615,0.0660393,0.12833971,0.23013462,-0.075621136,0.55471957,0.55529153,0.5733535,0.8533982,0.58715796,0.31365386,0.673695,0.012524523,7.169692e-12,0.00012662837
58207570,-1.5070239,0.06885816,-1.6610541,-1.4420755,-1.1354817,0.4347496,-2.140624,0.031299844,0.059028625,0.09639644,0.15652679,-0.026305249,0.43590915,0.43658984,0.44774234,0.6175747,0.4543327,0.31390458,0.6735157,0.012453755,6.661569e-12,0.00012602734
58401182,-1.5077753,0.06985359,-1.6685678,-1.4397771,-1.1320505,0.4399465,-2.1398165,-0.0018947236,-0.013095085,-0.027948262,-0.054826695,0.020518668,0.5313896,0.5316106,0.52761865,0.46200168,0.52221525,0.31392995,0.67347497,0.012468606,6.81631e-12,0.00012644271
58609763,-1.4957556,0.06885277,-1.6504377,-1.4308014,-1.1233575,0.44820222,-2.131387,0.108931884,0.0595491,-0.0063605756,-0.11556729,0.21025735,0.5071244,0.5063404,0.48680687,0.18856251,0.47202098,0.31321445,0.6740795,0.012579849,7.3424765e-12,0.00012624328
58808381,-1.4943454,0.06863197,-1.6491021,-1.4291617,-1.1212623,0.45209482,-2.1305504,0.003139101,-0.07474725,-0.1801239,-0.3730637,0.16050023,0.4728279,0.4752785,0.44927645,-0.013128877,0.41064203,0.31381363,0.67350197,0.012556626,7.575685e-12,0.00012778284
59007081,-1.4928547,0.06837018,-1.647868,-1.4274375,-1.1188343,0.456534,-2.1302342,0.028987635,-0.05753311,-0.17464806,-0.38824832,0.2037685,0.5591519,0.5618788,0.53297865,0.01899302,0.49010885,0.3142259,0.6730764,0.012568292,8.02965e-12,0.00012938639
59205649,-1.4898689,0.06919832,-1.6515563,-1.4211257,-1.1109297,0.46830842,-2.1261556,-0.025213003,-0.09444473,-0.18850538,-0.36473528,0.11375855,0.5691327,0.5723963,0.55061173,0.1419518,0.511673,0.31514263,0.67218333,0.012542026,8.553565e-12,0.00013206259
59404281,-1.4983389,0.06917584,-1.6601174,-1.4294312,-1.118789,0.46196386,-2.135301,-0.016612358,-0.05865571,-0.115789965,-0.22320458,0.06751463,0.41282022,0.41499293,0.40194082,0.15441835,0.37734687,0.31552127,0.6718073,0.012538037,8.862658e-12,0.00013333766
59602914,-1.505089,0.068292886,-1.6607242,-1.4388673,-1.1283699,0.4532672,-2.145381,-0.03673849,-0.059965506,-0.09185172,-0.15736005,0.008875228,0.5308299,0.53311706,0.5272684,0.39311874,0.5089581,0.31587932,0.67144865,0.012537354,9.206305e-12,0.00013463457
59801548,-1.5003976,0.0692224,-1.6622304,-1.4313494,-1.1203039,0.46208832,-2.1379762,-0.03673849,-0.059965506,-0.09185172,-0.15736005,0.008875228,0.5308299,0.53311706,0.5272684,0.39311874,0.5089581,0.31587932,0.67144865,0.012537354,9.206305e-12,0.00013463457
60005147,-1.502352,0.06835107,-1.658121,-1.4360632,-1.1253091,0.4573616,-2.1430712,0.009450572,0.007565042,0.0048573334,-0.0044289585,0.012567038,0.42695355,0.4277966,0.42809498,0.41904795,0.4235716,0.3159301,0.671382,0.012552731,9.445498e-12,0.0001351612
60203781,-1.4999845,0.06927754,-1.6618859,-1.4307686,-1.1192104,0.46565568,-2.138318,-0.13631599,-0.15641646,-0.18294995,-0.22165908,-0.09464613,0.4784993,0.47742975,0.4684099,0.34567165,0.46544528,0.3163111,0.6710089,0.01254359,9.730968e-12,0.00013640398
60407380,-1.48685,0.06838807,-1.6430292,-1.420013,-1.1079373,0.47887164,-2.1296568,-0.07868466,-0.12814033,-0.19426079,-0.29969144,0.022615135,0.5315677,0.5308192,0.51118684,0.21261096,0.49637878,0.31705573,0.67027944,0.012526016,1.0315237e-11,0.0001388265
60606017,-1.4803388,0.06819153,-1.6367115,-1.4133877,-1.1008776,0.48689634,-2.1239653,0.034214485,-0.040785283,-0.14196801,-0.31447467,0.18602704,0.44895208,0.45023525,0.4235878,-0.024110675,0.3910724,0.3171787,0.6701363,0.012545378,1.0715784e-11,0.0001396541
60804647,-1.4773141,0.067804135,-1.6339586,-1.410183,-1.0970448,0.49214384,-2.1220708,0.04516646,-0.056454975,-0.19353366,-0.42559388,0.25092745,0.57308245,0.5746937,0.5384098,-0.06832659,0.49496484,0.3174065,0.6698837,0.012568965,1.13063526e-11,0.0001409127
61008249,-1.4787266,0.06695633,-1.6351825,-1.4119244,-1.0995663,0.48724014,-2.1223612,0.09207183,-0.042439997,-0.22229913,-0.5018427,0.3675884,0.51116693,0.50882304,0.45492303,-0.35721016,0.41629398,0.3166788,0.6705804,0.0126023125,1.083443e-11,0.00013861217
61206880,-1.464405,0.06542566,-1.6182452,-1.3982697,-1.0902184,0.49008125,-2.0986984,0.04440579,-0.12002385,-0.33983868,-0.6826198,0.38164037,0.22630817,0.22319835,0.15715349,-0.83663714,0.111102104,0.31764758,0.66996866,0.012249846,7.2344583e-12,0.00013385879
61405517,-1.4490498,0.063801505,-1.601089,-1.3833177,-1.0781682,0.49795216,-2.0769904,0.05585905,-0.12557429,-0.3688724,-0.7657838,0.42843497,0.4985904,0.495871,0.42478073,-0.6793606,0.37193412,0.3185042,0.66936755,0.011997421,5.4161727e-12,0.00013083039
61609113,-1.4385026,0.06346394,-1.594751,-1.3701292,-1.0668261,0.50856614,-2.0572224,0.014581695,-0.142467,-0.3541214,-0.71911526,0.3361086,0.449499,0.4493063,0.3910784,-0.565434,0.33677864,0.3201584,0.6679816,0.011729693,4.3116357e-12,0.00013035303
61807753,-1.4383055,0.06307694,-1.5941764,-1.3696011,-1.0662171,0.5109954,-2.056352,-0.020674564,-0.122051634,-0.25977585,-0.5148716,0.18518347,0.44976246,0.45229328,0.41833103,-0.1962781,0.37231433,0.32153252,0.66672623,0.011608932,4.171756e-12,0.00013235556
62006380,-1.4384224,0.063108236,-1.5943174,-1.3693995,-1.065471,0.5136207,-2.0570498,-0.025126085,-0.055365704,-0.099493824,-0.22735691,0.030084297,0.43801355,0.44748402,0.448601,0.2847538,0.39795446,0.32241517,0.66588956,0.0115609085,4.2765336e-12,0.00013435657
62205017,-1.446705,0.06232551,-1.596976,-1.3801836,-1.0762597,0.5024812,-2.069871,-0.11894853,-0.11788613,-0.11992294,-0.17670965,-0.12816823,0.26224267,0.27218735,0.28538287,0.31424677,0.24356997,0.32283387,0.6655103,0.0115209315,4.208294e-12,0.0001348867
62403648,-1.4425553,0.062363897,-1.592728,-1.3756896,-1.0713959,0.5091997,-2.0658631,-0.16665503,-0.18707538,-0.21758834,-0.31572765,-0.13085453,0.37055302,0.37897933,0.38234913,0.27621174,0.33956516,0.323953,0.66447055,0.011439454,4.205876e-12,0.00013700344
62607289,-1.4397115,0.06231053,-1.5898482,-1.372505,-1.0677534,0.5148452,-2.0634007,-0.053546697,-0.10750659,-0.18216242,-0.3387794,0.053148597,0.37222302,0.37732637,0.36408222,0.04475832,0.32382178,0.3249901,0.6634981,0.011372636,4.258184e-12,0.00013917848
62806051,-1.4356893,0.063009724,-1.5909834,-1.3656675,-1.0605699,0.524704,-2.0542321,-0.05825232,-0.114745095,-0.19197546,-0.33933377,0.055298164,0.3958584,0.39850092,0.38109684,0.040530086,0.35037422,0.32597905,0.6625659,0.011313741,4.340874e-12,0.00014140444
63004514,-1.4415892,0.062953874,-1.5967448,-1.3714758,-1.0663671,0.51944274,-2.0598927,-0.028402537,-0.071540736,-0.130485,-0.24189211,0.058340132,0.18296325,0.1848625,0.17136157,-0.0891037,0.14837348,0.32640162,0.6621793,0.011277081,4.294275e-12,0.00014205911
63208114,-1.4402121,0.06221662,-1.5903099,-1.3723068,-1.0666977,0.5197043,-2.064641,-0.08213732,-0.11557981,-0.1614718,-0.25100136,-0.015267655,0.27964222,0.28164196,0.27183485,0.07094419,0.25177145,0.3270513,0.66156924,0.011235857,4.330266e-12,0.00014348824
63406747,-1.4320993,0.06294334,-1.5875365,-1.3618459,-1.0560693,0.53093433,-2.051584,0.12861377,0.089281246,0.035233706,-0.07097946,0.20706482,0.394122,0.3966918,0.38547122,0.1497333,0.36100662,0.326487,0.66205966,0.011310167,4.564442e-12,0.00014316851
63605520,-1.4295446,0.062981196,-1.5851532,-1.3590707,-1.0527248,0.5357097,-2.0499396,0.0044905543,-0.025012538,-0.0665161,-0.16239971,0.061360493,0.48397398,0.48866558,0.48381472,0.31336427,0.4537505,0.32691473,0.66163373,0.011306847,4.763674e-12,0.00014469448
63808980,-1.4260046,0.06301443,-1.5816711,-1.3554177,-1.0487866,0.5403902,-2.0467858,0.07270273,0.056202643,0.031442218,-0.047988325,0.10137745,0.3697567,0.37675142,0.3796748,0.29400265,0.34435928,0.32717246,0.6613797,0.011302354,4.8646083e-12,0.00014553129
64007668,-1.429692,0.06230001,-1.5805204,-1.3613969,-1.0544114,0.5344017,-2.0570316,0.01754114,-0.00691019,-0.04197465,-0.13221508,0.06327166,0.1540116,0.15979922,0.15822577,0.021254063,0.12529182,0.3273041,0.66125506,0.011295036,4.877837e-12,0.00014582885
64206247,-1.4307642,0.062317703,-1.581787,-1.3623049,-1.0548624,0.5349703,-2.058937,0.013065428,-0.021165662,-0.068564884,-0.166516,0.0804712,0.3910619,0.39440572,0.3860526,0.18384731,0.36009288,0.32754526,0.6610072,0.0113006355,5.0555163e-12,0.00014688684
64405027,-1.4346824,0.062266428,-1.5855902,-1.3660564,-1.0585145,0.53220075,-2.0626926,-0.055143937,-0.1004022,-0.16155177,-0.26533878,0.036973804,0.2186774,0.21884465,0.2022779,-0.07425356,0.1859374,0.32816023,0.66044,0.011251761,5.0163515e-12,0.000148009
64603515,-1.4318297,0.0629789,-1.5875311,-1.3607749,-1.0532155,0.53908247,-2.0536318,-0.032631293,-0.06372515,-0.106025174,-0.18191971,0.030096546,0.33697355,0.337865,0.3274597,0.13901854,0.31293833,0.3284671,0.6601383,0.011245517,5.143262e-12,0.00014905457
64807115,-1.4397453,0.06230757,-1.5908363,-1.3708224,-1.0627139,0.52964157,-2.068666,-0.09115888,-0.11401639,-0.14410047,-0.18279791,-0.042988926,0.23147488,0.22925949,0.21782422,0.07292354,0.2192328,0.3287848,0.65983653,0.011228812,5.1947023e-12,0.00014989423
65010714,-1.439063,0.062339198,-1.5905551,-1.3700647,-1.061357,0.53169656,-2.069375,-0.015852079,-0.049030803,-0.09206334,-0.13759543,0.055286348,0.5014266,0.49646747,0.4776516,0.2636584,0.48711324,0.32852548,0.6600379,0.0112861665,5.531859e-12,0.00015044148
65209441,-1.4360687,0.06233102,-1.5882235,-1.3671966,-1.0578903,0.53481734,-2.0683181,0.07344437,0.028142828,-0.030130874,-0.08432619,0.17143644,0.51244366,0.50442433,0.4771304,0.18277991,0.49532437,0.32738176,0.6610462,0.011422433,6.026608e-12,0.00014952128
65408004,-1.441629,0.0628109,-1.5980114,-1.3704226,-1.0616024,0.5325111,-2.066112,-0.07360855,-0.1434506,-0.2330492,-0.313212,0.07778117,0.26943707,0.256621,0.21399093,-0.23954964,0.24392152,0.32813016,0.6603697,0.011349484,5.8585563e-12,0.00015060071
65606615,-1.4316647,0.061762106,-1.5834842,-1.3626813,-1.0537171,0.5392224,-2.0629895,-0.00471437,-0.1014551,-0.22690946,-0.35986656,0.20221646,0.39457572,0.38056862,0.32647085,-0.29396737,0.3522358,0.32808062,0.66043204,0.011337374,5.719246e-12,0.00015002702
65805249,-1.4264432,0.062048674,-1.5825694,-1.3556806,-1.0477041,0.5438032,-2.0494096,0.049676515,-0.039612256,-0.15469646,-0.2658557,0.24216312,0.31176984,0.29681468,0.24425817,-0.33311033,0.2766161,0.3271939,0.66127926,0.011379405,5.5203884e-12,0.00014752366
66003913,-1.42798,0.06193108,-1.5838675,-1.3570954,-1.0492129,0.542882,-2.0503902,-0.07584857,-0.13143177,-0.20204149,-0.25449142,0.04621093,0.19792545,0.18563747,0.14901781,-0.21725047,0.18170929,0.32780933,0.6607237,0.011318575,5.3841267e-12,0.00014838087
66207482,-1.4238983,0.061948296,-1.579899,-1.3530905,-1.0451341,0.546679,-2.0465531,-0.11860566,-0.123455435,-0.12648037,-0.07830517,-0.101423845,0.24862158,0.23855901,0.2234832,0.1712693,0.26416266,0.32746938,0.6610304,0.011352178,5.4667716e-12,0.00014797747
66411081,-1.425894,0.06177836,-1.5813059,-1.3552908,-1.0483494,0.5417734,-2.0463653,-0.008659646,0.039362594,0.104589835,0.22120196,-0.105199724,0.18156672,0.17996693,0.19536567,0.48416197,0.21843052,0.32757196,0.6609992,0.011282376,4.94204e-12,0.00014649387
66609715,-1.4278312,0.060935207,-1.5781077,-1.359345,-1.0534542,0.53427476,-2.05323,0.046460412,0.10140134,0.17491812,0.29036403,-0.06640625,0.2943647,0.29576683,0.31757498,0.6558199,0.3302858,0.32841897,0.6603173,0.011118285,4.168948e-12,0.00014541368
66808430,-1.4291137,0.06149264,-1.5831438,-1.3587508,-1.0537144,0.5342237,-2.0449615,0.014894985,0.033548065,0.05862347,0.10021978,-0.023202121,0.24818397,0.24832559,0.25521064,0.36959422,0.26087427,0.32851508,0.6602489,0.011091004,4.028468e-12,0.00014505531
67006985,-1.4252591,0.06147727,-1.5793118,-1.3548133,-1.0495967,0.53890246,-2.0412836,-0.06869005,-0.1029427,-0.14643879,-0.17883681,0.006725177,0.23372006,0.2259525,0.20328915,-0.024320602,0.22450006,0.3287249,0.660047,0.011082531,4.075494e-12,0.0001456784
67205617,-1.4166534,0.060854215,-1.5670769,-1.3480216,-1.0419147,0.54650205,-2.0427341,-0.037026703,-0.08784357,-0.15300287,-0.21175234,0.07351245,0.37294567,0.36326563,0.33208466,-0.0012881756,0.35578513,0.32864356,0.6600995,0.011110841,4.2382456e-12,0.0001461521
67404250,-1.419997,0.061372705,-1.5742112,-1.3493437,-1.043472,0.5467014,-2.0369003,-0.10050801,-0.14529109,-0.2022028,-0.245308,-0.002087593,0.29008508,0.2801441,0.25079668,-0.04594159,0.27761674,0.32913652,0.6596323,0.011083717,4.301072e-12,0.00014741556
67602884,-1.4244232,0.060802106,-1.5748932,-1.3554746,-1.048839,0.5414824,-2.0510254,-0.08957416,-0.12583402,-0.1720134,-0.20829484,-0.010093451,0.2543893,0.24660623,0.22316849,-0.016488075,0.24375379,0.32949927,0.659287,0.011065276,4.358178e-12,0.00014839187
67806514,-1.4207815,0.060811896,-1.5713612,-1.3516831,-1.0447301,0.546523,-2.0479696,-0.095976636,-0.12783435,-0.16852853,-0.20225437,-0.026398763,0.3055328,0.29903018,0.27886307,0.069073915,0.29552782,0.32979506,0.658997,0.0110585345,4.467115e-12,0.00014943087
68005140,-1.4137975,0.06138318,-1.5682421,-1.3428721,-1.0361472,0.5561945,-2.0319257,-0.059572905,-0.08092666,-0.10757635,-0.119459584,-0.011643335,0.36451042,0.35836148,0.3424697,0.1978352,0.36118078,0.32965094,0.6591105,0.011088944,4.6238018e-12,0.00014973253
68203751,-1.4182389,0.06086814,-1.5691241,-1.3490479,-1.0416973,0.5501362,-2.0464864,-0.025866985,-0.041282788,-0.0613688,-0.083921514,0.0070327967,0.1633724,0.16128922,0.15287757,0.053775072,0.15642428,0.32968342,0.6590756,0.011091084,4.6584516e-12,0.00014992732
68412316,-1.4160515,0.06089095,-1.5671171,-1.346841,-1.0392557,0.5528229,-2.0449104,0.0036898106,-0.018579349,-0.04751704,-0.079064906,0.051308975,0.30917692,0.30602133,0.29371738,0.15034962,0.29948723,0.3295236,0.6592073,0.011119091,4.790011e-12,0.00015006342
68605984,-1.4133291,0.060845103,-1.5645113,-1.3441918,-1.0366036,0.5550952,-2.0424786,0.031632796,-0.007926375,-0.058963254,-0.1093346,0.116849706,0.21067345,0.2041719,0.18119812,-0.07516551,0.19525778,0.32917222,0.6595279,0.011150339,4.841875e-12,0.0001494946
68809585,-1.4100611,0.061288517,-1.565175,-1.339536,-1.0323933,0.5585037,-2.029808,0.09923799,0.05224601,-0.0069806483,-0.043832168,0.20327675,0.3224566,0.31086886,0.27854133,-0.034465313,0.3115623,0.3277681,0.660808,0.011276729,5.0557145e-12,0.0001472937
69008218,-1.4068218,0.061302476,-1.5620795,-1.3364253,-1.0291748,0.5613324,-2.0268703,-0.01522395,-0.024515793,-0.03410077,-0.0057169795,0.009780124,0.34278846,0.33444333,0.3200624,0.24454546,0.35211205,0.3272526,0.66127294,0.011327782,5.175227e-12,0.00014666066
69206852,-1.4107977,0.061091762,-1.5654728,-1.3407924,-1.0348662,0.552847,-2.0284047,-0.05275549,-0.002783075,0.0660304,0.20400281,-0.15120195,0.22850704,0.22408009,0.23635483,0.5306008,0.2719071,0.32681656,0.66175234,0.011287271,4.603337e-12,0.00014385107
69410469,-1.4154757,0.060309164,-1.5659547,-1.3473632,-1.0425776,0.5415892,-2.040575,-0.0133963525,0.050597444,0.13756505,0.29612488,-0.14204854,0.19773197,0.19541645,0.21545076,0.6004369,0.24676275,0.3269957,0.661696,0.011166927,3.8567166e-12,0.00014135058
