timestamp,timestamp_sample,device_id,x,y,z,temperature,error_count,clip_counter[0],clip_counter[1],clip_counter[2]
143355268,143355077,3932170,0.5856218,-0.3050213,-10.390357,21.817625,0,0,0,0
143356509,143356320,3932170,0.52863973,-0.2743755,-10.234255,21.817625,0,0,0,0
144357818,144357629,3932170,0.6584055,0.19967642,-10.414299,21.768665,0,0,0,0
145359164,145358979,3932170,0.10821792,0.73406225,-10.6747875,21.621786,0,0,0,0
146356686,146356497,3932170,2.9319394,10.827538,-12.72997,21.621786,0,0,0,0
147358059,147357895,3932170,2.5516205,4.305373,-8.931569,21.817625,0,0,0,0
148358053,148357863,3932170,0.19488803,-3.2249897,-6.5625067,21.670746,0,0,0,0
149355617,149355430,3932170,4.5801077,-2.5277982,-8.338526,21.523869,0,0,0,0
150356926,150356738,3932170,-5.8389792,0.9232042,-8.6574335,21.768665,0,0,0,0
151358549,151358325,3932170,1.0757947,-2.6256413,-10.83097,21.621786,0,0,0,0
152359544,152359360,3932170,5.5650826,9.410649,-10.569922,21.768665,0,0,0,0
153357109,153356919,3932170,0.060812723,0.034476507,-14.65443,21.817625,0,0,0,0
154357268,154357079,3932170,1.2861652,-5.5148044,-11.077014,21.817625,0,0,0,0
155358485,155358288,3932170,-0.15753847,7.252516,-11.586021,21.817625,0,0,0,0
156356055,156355862,3932170,3.5826836,2.5440786,-12.413458,21.670746,0,0,0,0
157357352,157357163,3932170,-2.2184675,-8.542512,-8.022491,21.866585,0,0,0,0
158358959,158358771,3932170,-3.1440659,3.5170822,-11.55298,21.768665,0,0,0,0
159358729,159358534,3932170,1.745373,2.2428882,-5.8437676,21.817625,0,0,0,0
160356291,160356101,3932170,0.8202535,9.529402,-13.00291,21.768665,0,0,0,0
161357702,161357511,3932170,1.4743494,0.21499932,-10.9257,21.768665,0,0,0,0
162356416,162356226,3932170,2.598188,-5.4932566,-13.538253,21.964504,0,0,0,0
163356475,163356288,3932170,-3.3767822,-1.9594147,-1.4939818,21.670746,0,0,0,0
164357785,164357597,3932170,1.910573,-0.5477933,-15.507724,21.621786,0,0,0,0
165358101,165357911,3932170,-1.3364434,-3.1670501,-11.390175,21.621786,0,0,0,0
166359155,166358969,3932170,-0.78242517,11.9025345,-13.202585,21.866585,0,0,0,0
167356722,167356538,3932170,-0.81163436,-8.401254,-6.8943434,21.768665,0,0,0,0
168359312,168359155,3932170,-1.8938135,-9.54209,-5.907094,21.670746,0,0,0,0
169358096,169357912,3932170,3.2474952,-4.4766784,-10.680533,21.670746,0,0,0,0
170355665,170355480,3932170,3.4347217,-3.547249,-13.266751,21.866585,0,0,0,0
171356988,171356800,3932170,1.5227122,9.119036,-9.863153,21.866585,0,0,0,0
172358537,172358344,3932170,-2.36595,1.6218323,-5.0766654,21.964504,0,0,0,0
173359604,173359412,3932170,2.1222205,11.318829,-7.762002,21.670746,0,0,0,0
174357178,174356986,3932170,4.034709,3.3485305,-17.997694,21.964504,0,0,0,0
175357300,175357109,3932170,2.0298042,-10.681013,-9.53419,22.160343,0,0,0,0
176358542,176358356,3932170,2.4492683,4.1218576,-9.497798,22.013464,0,0,0,0
177356112,177355926,3932170,3.655946,-0.12641385,-9.094136,22.013464,0,0,0,0
178357431,178357239,3932170,-1.4690822,-0.98497456,-8.7733135,21.866585,0,0,0,0
179357722,179357533,3932170,2.6585217,-7.469909,-8.1015,21.964504,0,0,0,0
180358802,180358612,3932170,-1.5255853,15.643236,-11.94994,21.866585,0,0,0,0
181356375,181356183,3932170,-2.7547684,-4.265989,-5.2452173,22.062424,0,0,0,0
182357740,182357544,3932170,4.531745,5.6378665,-16.494614,22.013464,0,0,0,0
183358993,183358806,3932170,1.2296621,5.9543796,-11.0631275,21.964504,0,0,0,0
184356565,184356377,3932170,3.58412,-1.3292608,-11.457692,21.964504,0,0,0,0
185357879,185357692,3932170,1.0390835,2.8874073,-11.291056,21.866585,0,0,0,0
186358179,186357985,3932170,1.3460202,11.466311,-10.687239,21.768665,0,0,0,0
187359253,187359068,3932170,4.006936,-1.5073894,-11.48307,22.013464,0,0,0,0
188356826,188356639,3932170,-0.61530983,-0.09624691,-9.1784115,22.160343,0,0,0,0
189358152,189357993,3932170,2.267309,1.5867572,-12.406754,21.866585,0,0,0,0
190358240,190358048,3932170,-0.031124622,-0.97491896,-7.0379953,21.964504,0,0,0,0
191357024,191356833,3932170,2.4425645,-4.1022253,-11.480197,21.866585,0,0,0,0
192357092,192356901,3932170,3.022919,-2.048,-8.112992,22.062424,0,0,0,0
193358659,193358473,3932170,0.38498765,-8.286332,-7.4067025,21.964504,0,0,0,0
194359713,194359529,3932170,0.41706994,0.8207324,-14.078863,21.817625,0,0,0,0
195357284,195357097,3932170,0.6933608,9.415916,-13.000515,21.964504,0,0,0,0
196357388,196357199,3932170,2.9175742,-1.0409989,-5.865794,21.866585,0,0,0,0
197358662,197358475,3932170,-1.9891027,3.5534744,-6.716694,22.062424,0,0,0,0
198356243,198356056,3932170,-3.9365466,-5.136521,-5.242823,21.817625,0,0,0,0
199357562,199357374,3932170,-0.7211336,-6.0027423,-7.2233067,21.866585,0,0,0,0
200357810,200357622,3932170,-1.0093955,8.287291,-7.393295,22.062424,0,0,0,0
201358927,201358741,3932170,-1.6117766,-7.651869,-10.774387,22.013464,0,0,0,0
202356511,202356315,3932170,-0.17525558,-6.946537,-14.257471,22.013464,0,0,0,0
203357959,203357742,3932170,3.6567442,2.6252422,-13.732742,21.817625,0,0,0,0
204359137,204358948,3932170,1.4590266,-1.7755401,-9.126697,22.062424,0,0,0,0
205356706,205356513,3932170,1.892856,-11.172782,-11.060734,21.964504,0,0,0,0
206356768,206356583,3932170,4.535097,8.868602,-15.171099,21.964504,0,0,0,0
207358327,207358142,3932170,-1.9484013,0.64451915,-7.773973,21.964504,0,0,0,0
208359406,208359209,3932170,-1.9211075,-0.3677494,-7.8323917,22.160343,0,0,0,0
209357007,209356815,3932170,1.8368316,1.2842499,-10.86393,22.013464,0,0,0,0
210358284,210358098,3932170,-4.4843397,5.077144,-7.2620926,22.062424,0,0,0,0
211358359,211358167,3932170,-2.2831109,-0.98976296,-10.718841,21.670746,0,0,0,0
212358424,212358231,3932170,0.4343082,-2.396596,-9.636662,21.964504,0,0,0,0
213357243,213357051,3932170,1.0362105,11.405977,-10.61206,21.964504,0,0,0,0
214358729,214358543,3932170,0.7216124,-4.630386,-9.617029,22.209303,0,0,0,0
215358619,215358433,3932170,1.0132262,-3.038721,-9.565314,21.964504,0,0,0,0
216356198,216356006,3932170,0.7661445,7.7011895,-11.702858,22.013464,0,0,0,0
217357572,217357381,3932170,1.1089942,6.6989765,-8.9931,22.062424,0,0,0,0
218358821,218358634,3932170,-1.3479356,-4.216668,-8.369172,22.013464,0,0,0,0
219356401,219356211,3932170,0.13072342,1.0362105,-8.214985,22.013464,0,0,0,0
220357713,220357523,3932170,-1.751598,-4.786967,-7.5383835,22.160343,0,0,0,0
221357971,221357774,3932170,4.874116,6.125805,-13.283031,22.013464,0,0,0,0
222356597,222356411,3932170,-0.4496311,4.4852977,-9.840649,21.964504,0,0,0,0
223356665,223356479,3932170,1.532768,5.026866,-11.152191,22.013464,0,0,0,0
224357983,224357795,3932170,1.4097059,4.4254427,-9.80282,21.964504,0,0,0,0
225358073,225357884,3932170,-1.0697293,1.5222334,-8.132146,22.013464,0,0,0,0
226356875,226356684,3932170,3.194344,0.5616797,-10.73608,21.670746,0,0,0,0
227356938,227356751,3932170,4.3818684,-4.3344626,-11.551065,22.013464,0,0,0,0
228358443,228358250,3932170,-3.048298,1.7559075,-13.685737,22.062424,0,0,0,0
229357074,229356886,3932170,0.39504328,-6.9292984,-6.211996,22.209303,0,0,0,0
230357140,230356954,3932170,4.184586,-0.70293766,-12.279383,21.768665,0,0,0,0
231357225,231357026,3932170,0.9083601,6.671683,-11.255142,22.160343,0,0,0,0
232358524,232358338,3932170,1.592623,-1.7659633,-13.467864,22.013464,0,0,0,0
233356116,233355917,3932170,1.3163321,-6.17321,-7.729441,21.964504,0,0,0,0
234357413,234357227,3932170,-0.6004658,7.1873937,-11.422736,21.964504,0,0,0,0
235358887,235358693,3932170,1.3158534,6.388209,-11.577402,21.866585,0,0,0,0
236358794,236358609,3932170,-2.0638018,-7.237193,-9.646238,21.964504,0,0,0,0
237356373,237356184,3932170,0.3557784,5.7992353,-13.538733,21.964504,0,0,0,0
238357689,238357501,3932170,0.093373865,-3.9145198,-8.116822,21.866585,0,0,0,0
239359003,239358814,3932170,3.3514037,-0.08619126,-14.876133,21.817625,0,0,0,0
240356584,240356389,3932170,1.5394717,-4.172615,-8.5525675,22.209303,0,0,0,0
241356646,241356459,3932170,5.5104947,-7.776846,-12.598768,21.964504,0,0,0,0
242358160,242357963,3932170,-0.13263878,1.5121778,-12.752476,22.013464,0,0,0,0
243359277,243359087,3932170,3.1474175,-3.9422925,-9.788455,21.964504,0,0,0,0
244356850,244356662,3932170,0.73406225,3.2513258,-9.966583,22.160343,0,0,0,0
245358185,245357997,3932170,4.54611,-9.817664,-12.5279,22.209303,0,0,0,0
246358252,246358064,3932170,-1.694616,6.065471,-8.447701,22.013464,0,0,0,0
247355813,247355620,3932170,1.4690822,0.41371807,-11.849862,22.013464,0,0,0,0
248357132,248356940,3932170,3.101449,-5.014416,-9.040027,22.062424,0,0,0,0
249358620,249358431,3932170,4.3416452,-8.643068,-8.772834,22.013464,0,0,0,0
250358507,250358320,3932170,-0.44388503,-1.283771,-9.819578,21.964504,0,0,0,0
251356084,251355895,3932170,0.15610196,1.0146627,-11.16943,22.013464,0,0,0,0
252357402,252357211,3932170,1.0065224,10.509109,-11.300632,22.013464,0,0,0,0
253358715,253358526,3932170,3.7938519,8.271009,-12.343547,21.866585,0,0,0,0
254356285,254356100,3932170,-2.9017725,-3.20009,-5.6766524,22.013464,0,0,0,0
255357604,255357417,3932170,0.7599196,-1.6697164,-10.573752,22.013464,0,0,0,0
256357755,256357590,3932170,-2.135628,4.0156746,-10.209475,21.866585,0,0,0,0
257358991,257358800,3932170,2.36595,-2.4799142,-11.282915,22.062424,0,0,0,0
258356563,258356376,3932170,-2.2385786,7.026982,-7.813717,22.160343,0,0,0,0
259357915,259357725,3932170,-1.0261549,-2.0326772,-5.992208,22.013464,0,0,0,0
260357960,260357767,3932170,2.059971,2.9357703,-14.263697,22.013464,0,0,0,0
261355525,261355335,3932170,-4.768292,-4.6514554,-5.6507945,21.964504,0,0,0,0
262358100,262357905,3932170,0.48554412,6.2833433,-14.178462,22.013464,0,0,0,0
263358225,263358064,3932170,1.4652514,2.0847511,-10.668563,22.013464,0,0,0,0
264359472,264359282,3932170,-5.5971646,-9.638577,-3.1119835,22.013464,0,0,0,0
265357044,265356857,3932170,-1.8430564,0.5626374,-11.797189,22.013464,0,0,0,0
266358386,266358198,3932170,2.9467835,1.4384364,-13.770011,22.062424,0,0,0,0
267358739,267358522,3932170,-1.9548657,6.9348054,-7.571663,22.209303,0,0,0,0
268356032,268355836,3932170,-0.14652514,-0.19297266,-5.074271,21.964504,0,0,0,0
269357327,269357134,3932170,-2.8682537,-3.7919369,-10.517728,22.160343,0,0,0,0
270358726,270358532,3932170,-3.128743,-0.21212627,-7.150523,22.013464,0,0,0,0
271358706,271358517,3932170,1.5184027,-6.8277845,-9.027577,22.013464,0,0,0,0
272357540,272357355,3932170,-0.37780502,1.715685,-9.704658,22.062424,0,0,0,0
273357600,273357413,3932170,-0.27341783,-2.5895686,-10.163386,22.160343,0,0,0,0
274359173,274358979,3932170,-0.14987703,4.704128,-10.842382,22.062424,0,0,0,0
275356498,275356302,3932170,1.5547947,-3.434243,-12.478101,21.964504,0,0,0,0
276357806,276357617,3932170,-0.15370776,11.939884,-8.656476,22.013464,0,0,0,0
277357954,277357767,3932170,4.196557,6.0353036,-12.415373,22.013464,0,0,0,0
278359198,278359000,3932170,1.3900735,-0.66175735,-10.054211,22.062424,0,0,0,0
279356770,279356577,3932170,-2.7006595,-9.073545,-9.732908,21.817625,0,0,0,0
280358094,280357893,3932170,7.908048,6.4638658,-12.53604,21.964504,0,0,0,0
281358403,281358214,3932170,1.9258959,7.2424603,-11.020989,22.013464,0,0,0,0
282355723,282355535,3932170,-3.1603463,-3.1364043,-7.681557,21.817625,0,0,0,0
283357047,283356853,3932170,1.9742588,1.9737799,-11.513716,22.062424,0,0,0,0
284358423,284358233,3932170,0.5295974,-3.137362,-5.758055,22.013464,0,0,0,0
285358422,285358235,3932170,1.0759542,-11.938927,-6.0415287,21.964504,0,0,0,0
286355999,286355810,3932170,2.8629866,2.1547816,-11.836933,21.964504,0,0,0,0
287357317,287357127,3932170,-4.246356,-6.09037,-9.706573,22.160343,0,0,0,0
288358870,288358677,3932170,-0.5995081,3.9336734,-7.5120473,22.062424,0,0,0,0
289357460,289357264,3932170,0.15993269,-3.0257921,-9.459012,21.964504,0,0,0,0
290357531,290357338,3932170,-2.2965183,7.285556,-10.672394,22.013464,0,0,0,0
291358947,291358757,3932170,1.5471332,-9.528444,-9.516952,22.160343,0,0,0,0
292358906,292358717,3932170,0.04405331,0.54683566,-10.605356,22.062424,0,0,0,0
293356484,293356294,3932170,-1.9421765,-13.074736,-8.170453,22.062424,0,0,0,0
294357794,294357609,3932170,-1.0046071,1.0093955,-7.947792,21.964504,0,0,0,0
295359391,295359205,3932170,-1.3010093,4.519774,-8.491755,22.160343,0,0,0,0
296356813,296356624,3932170,-1.3503298,-9.209058,-8.230786,21.964504,0,0,0,0
297356892,297356693,3932170,0.398874,-4.06727,-10.342952,22.160343,0,0,0,0
298358205,298358010,3932170,1.0141839,3.767037,-11.841722,22.160343,0,0,0,0
299355773,299355587,3932170,-2.0570982,0.8327034,-10.836157,22.013464,0,0,0,0
300357085,300356899,3932170,0.09289502,6.739199,-10.985555,21.866585,0,0,0,0
301357156,301356968,3932170,-2.3549368,-1.3781025,-9.239703,22.013464,0,0,0,0
302358564,302358374,3932170,2.1490355,2.82851,-11.59033,22.160343,0,0,0,0
303356067,303355881,3932170,1.8722657,-8.995495,-8.69191,21.964504,0,0,0,0
304357365,304357174,3932170,-0.6205771,7.3133287,-11.277169,22.013464,0,0,0,0
305358682,305358491,3932170,-0.5674258,3.1431081,-8.985918,22.160343,0,0,0,0
306359004,306358816,3932170,1.3623008,3.9073372,-11.876198,22.160343,0,0,0,0
307356318,307356133,3932170,-3.5644877,-2.4128764,-8.607155,22.209303,0,0,0,0
308357658,308357472,3932170,-1.1511322,7.4569807,-6.437051,22.209303,0,0,0,0
309355373,309355179,3932170,2.150951,8.600451,-16.312654,21.964504,0,0,0,0
310356533,310356339,3932170,1.4887146,9.803778,-13.05223,22.013464,0,0,0,0
311356596,311356408,3932170,2.5000255,-8.199183,-11.683227,21.964504,0,0,0,0
312357916,312357725,3932170,-1.7640477,9.63762,-10.346303,22.160343,0,0,0,0
313359476,313359283,3932170,-2.91518,-9.3733,-5.9491124,22.013464,0,0,0,0
314356858,314356668,3932170,-0.8169016,7.731356,-13.290693,21.866585,0,0,0,0
315358139,315357935,3932170,1.2334927,-6.302497,-8.112034,22.209303,0,0,0,0
316355773,316355584,3932170,1.4949396,-5.747042,-9.775525,22.062424,0,0,0,0
317355758,317355572,3932170,-0.35146883,0.11444284,-7.536468,22.062424,0,0,0,0
318357084,318356887,3932170,4.1017466,6.0980315,-18.000088,22.160343,0,0,0,0
319358400,319358204,3932170,2.150951,-6.0525417,-10.144233,22.062424,0,0,0,0
320358699,320358511,3932170,0.13311762,-6.1952367,-6.3805475,21.964504,0,0,0,0
321356043,321355845,3932170,1.1659763,1.1693281,-11.538615,21.964504,0,0,0,0
322358610,322358408,3932170,1.0831368,4.218105,-11.529997,22.062424,0,0,0,0
323358713,323358524,3932170,-2.1763294,-1.0175357,-6.4619503,21.964504,0,0,0,0
324356235,324356050,3932170,0.7733272,-8.737879,-7.9233713,21.817625,0,0,0,0
325357550,325357365,3932170,1.874181,-1.4417883,-14.179899,22.062424,0,0,0,0
326358870,326358682,3932170,1.5351622,4.640442,-12.105563,22.160343,0,0,0,0
327359125,327358966,3932170,1.9285295,-2.553416,-8.961497,22.062424,0,0,0,0
328356510,328356322,3932170,1.4322115,-3.3815706,-5.7867856,22.013464,0,0,0,0
329357827,329357639,3932170,2.1519084,2.858677,-13.03595,21.964504,0,0,0,0
330359177,330358990,3932170,1.9857509,-0.18243818,-13.600982,21.964504,0,0,0,0
331356747,331356563,3932170,-0.09241619,-4.65768,-11.402625,21.964504,0,0,0,0
332356783,332356595,3932170,-0.116358206,-3.676536,-8.818323,22.013464,0,0,0,0
333358102,333357911,3932170,0.6253655,2.0403388,-10.191639,22.062424,0,0,0,0
334359699,334359484,3932170,1.7852764,0.5825891,-9.082404,21.964504,0,0,0,0
335356991,335356798,3932170,-1.2789825,-0.74124485,-8.913135,21.964504,0,0,0,0
336357101,336356915,3932170,0.54444146,0.020111296,-8.613859,21.866585,0,0,0,0
337358403,337358216,3932170,0.93804824,-9.498756,-9.675447,22.013464,0,0,0,0
338355939,338355754,3932170,0.36870706,-3.9279273,-8.939949,22.013464,0,0,0,0
339357262,339357075,3932170,0.431914,-8.591832,-7.968861,21.768665,0,0,0,0
340358579,340358387,3932170,2.1054611,-0.8034941,-11.508927,22.160343,0,0,0,0
341358843,341358650,3932170,0.51235914,-0.91697925,-9.155427,22.013464,0,0,0,0
342357490,342357298,3932170,0.0272939,2.2941241,-10.55412,21.817625,0,0,0,0
343357538,343357343,3932170,-2.0594923,-0.95193464,-10.7116585,22.013464,0,0,0,0
344358871,344358680,3932170,2.1825542,4.87651,-11.273818,22.160343,0,0,0,0
345356420,345356228,3932170,-0.0043095634,2.9707255,-10.278308,21.817625,0,0,0,0
346357735,346357549,3932170,-0.32896334,-2.6671407,-10.2735195,22.013464,0,0,0,0
347357802,347357610,3932170,1.0673351,2.933376,-8.024406,21.817625,0,0,0,0
348359302,348359109,3932170,1.436521,0.107260235,-8.706754,22.062424,0,0,0,0
349356694,349356502,3932170,-2.9247568,-3.9839516,-9.543767,22.062424,0,0,0,0
350358001,350357814,3932170,0.68761474,6.736326,-9.090784,22.013464,0,0,0,0
351359327,351359141,3932170,3.209188,6.233065,-10.160992,21.817625,0,0,0,0
352355642,352355454,3932170,-0.60094464,0.9792285,-8.880095,22.013464,0,0,0,0
353356963,353356767,3932170,1.4580688,5.227021,-16.017689,22.013464,0,0,0,0
354358269,354358082,3932170,-1.8770541,-7.7399755,-8.244194,22.013464,0,0,0,0
355359754,355359565,3932170,1.3326128,5.0153737,-14.423629,21.964504,0,0,0,0
356357161,356356971,3932170,4.0418916,-6.3001027,-12.594937,22.160343,0,0,0,0
357357228,357357036,3932170,3.1838095,-7.562804,-9.355583,21.817625,0,0,0,0
358358579,358358392,3932170,3.8393419,-5.577054,-11.305421,22.013464,0,0,0,0
359357364,359357172,3932170,2.7820623,9.815269,-14.723863,22.160343,0,0,0,0
360357430,360357238,3932170,-0.7216124,1.0462662,-11.870452,21.964504,0,0,0,0
361358747,361358552,3932170,1.5710752,-0.8652645,-11.73494,22.013464,0,0,0,0
362356509,362356317,3932170,1.7209522,11.464874,-13.311283,22.013464,0,0,0,0
363356384,363356197,3932170,-0.18818425,-1.2162545,-9.073545,22.062424,0,0,0,0
364357697,364357507,3932170,2.7672184,2.3549368,-10.646537,22.160343,0,0,0,0
365359005,365358817,3932170,2.4305935,-4.4943957,-8.104852,22.013464,0,0,0,0
366356582,366356393,3932170,2.4349031,-5.5349154,-12.238202,21.866585,0,0,0,0
367356654,367356461,3932170,1.700841,1.4671668,-12.811374,21.866585,0,0,0,0
368357970,368357775,3932170,-4.603571,0.47548848,-6.4887652,21.866585,0,0,0,0
369355756,369355569,3932170,0.5626374,-1.9369092,-13.297875,21.866585,0,0,0,0
370356850,370356661,3932170,0.39791632,0.7129933,-8.320809,21.817625,0,0,0,0
371358186,371357997,3932170,4.288494,13.192531,-12.813767,22.062424,0,0,0,0
372359479,372359291,3932170,-1.6807296,8.470686,-8.692867,22.013464,0,0,0,0
373355808,373355615,3932170,-1.1765107,3.338475,-6.7861257,22.062424,0,0,0,0
374357119,374356929,3932170,-3.499365,5.8557386,-7.2534738,21.866585,0,0,0,0
375358473,375358278,3932170,-0.8528147,4.6054864,-8.9040365,22.013464,0,0,0,0
376356216,376356017,3932170,-0.8255208,-1.7477672,-4.033751,22.062424,0,0,0,0
377356066,377355880,3932170,3.7684734,5.368758,-15.614506,22.013464,0,0,0,0
378357430,378357244,3932170,-3.5434184,-4.178361,-9.342654,21.866585,0,0,0,0
379356210,379356018,3932170,-1.7415423,10.614453,-9.545682,21.817625,0,0,0,0
380356274,380356083,3932170,1.5969325,-0.12545617,-10.675267,22.160343,0,0,0,0
381357589,381357401,3932170,-0.28634652,-4.366545,-8.712978,21.866585,0,0,0,0
382358924,382358737,3932170,-2.684379,-0.8470686,-4.5044513,22.209303,0,0,0,0
383359099,383358904,3932170,-1.9177556,-9.326374,-5.4985237,21.964504,0,0,0,0
384356543,384356351,3932170,2.1959617,5.8389792,-9.312009,21.964504,0,0,0,0
385357851,385357664,3932170,-1.4537593,10.312784,-8.222647,21.964504,0,0,0,0
386356675,386356484,3932170,-0.80636716,-7.94444,-3.1426291,21.964504,0,0,0,0
387355491,387355303,3932170,3.7435737,-11.697592,-11.891521,21.817625,0,0,0,0
388356819,388356617,3932170,0.6234501,-4.268862,-8.931809,22.013464,0,0,0,0
389358122,389357932,3932170,3.5707126,-8.210675,-10.061393,22.160343,0,0,0,0
390359576,390359393,3932170,1.592623,-1.5878346,-9.475772,22.062424,0,0,0,0
391357001,391356817,3932170,1.7640477,-3.9600096,-8.37779,21.964504,0,0,0,0
392358318,392358131,3932170,6.5275517,5.0273447,-13.57656,22.013464,0,0,0,0
393355916,393355726,3932170,2.681985,5.2184024,-13.822684,22.013464,0,0,0,0
394355998,394355811,3932170,1.829649,-4.7070007,-9.21624,21.817625,0,0,0,0
395357269,395357084,3932170,0.6919243,7.092104,-10.460267,21.866585,0,0,0,0
396358592,396358399,3932170,5.011064,-0.16759412,-9.336908,21.964504,0,0,0,0
397356266,397356076,3932170,2.3410504,2.939601,-12.566207,22.013464,0,0,0,0
398356239,398356045,3932170,4.129519,-0.79295963,-10.427228,21.964504,0,0,0,0
399358815,399358628,3932170,-0.58226985,0.025378538,-9.079771,21.866585,0,0,0,0
400358858,400358667,3932170,2.0489578,-3.9355888,-10.381738,21.866585,0,0,0,0
401356426,401356239,3932170,-2.8040893,0.82169,-7.852024,22.013464,0,0,0,0
402357739,402357549,3932170,1.0812215,-4.901889,-5.8212624,21.768665,0,0,0,0
403357823,403357636,3932170,5.0843267,-1.1319786,-12.405796,22.013464,0,0,0,0
404359276,404359090,3932170,-0.23175873,3.9633615,-13.732663,21.866585,0,0,0,0
405356694,405356501,3932170,0.60477537,3.8503554,-7.7342296,22.013464,0,0,0,0
406358013,406357816,3932170,2.387977,-1.4738706,-11.591767,21.964504,0,0,0,0
407359378,407359185,3932170,-0.7297527,-4.8966217,-5.4966083,21.964504,0,0,0,0
408355943,408355726,3932170,-4.313154,9.620701,-12.241553,21.964504,0,0,0,0
409356958,409356770,3932170,-0.00047884035,4.630865,-10.718841,21.866585,0,0,0,0
410358269,410358079,3932170,0.7058107,0.25234887,-10.110714,22.062424,0,0,0,0
411359674,411359481,3932170,-0.89543146,0.8034941,-6.972394,21.866585,0,0,0,0
412357157,412356964,3932170,1.2708422,-4.927267,-10.038888,22.160343,0,0,0,0
413357226,413357030,3932170,1.130542,9.120472,-10.771513,21.964504,0,0,0,0
414358535,414358344,3932170,2.8696902,3.2901123,-11.679873,21.964504,0,0,0,0
415356372,415356175,3932170,-0.85137814,5.779603,-7.8678255,21.670746,0,0,0,0
416357417,416357229,3932170,3.224511,5.657977,-14.430333,22.013464,0,0,0,0
417358728,417358540,3932170,-0.5037401,3.700478,-12.18122,21.768665,0,0,0,0
418358869,418358675,3932170,0.35099,2.6867733,-8.1862545,21.964504,0,0,0,0
419356382,419356178,3932170,6.912539,6.646304,-14.648206,21.964504,0,0,0,0
420357677,420357490,3932170,-0.3620033,2.3065739,-9.390538,21.866585,0,0,0,0
421358989,421358804,3932170,1.283292,-2.354458,-9.083601,21.866585,0,0,0,0
422356809,422356622,3932170,2.1940465,-1.1506534,-14.077906,21.866585,0,0,0,0
423356630,423356440,3932170,3.2977734,-1.8167202,-10.2826185,21.817625,0,0,0,0
424357940,424357754,3932170,2.0029893,1.2464215,-10.467929,22.013464,0,0,0,0
425359377,425359185,3932170,-0.3371036,1.5701175,-8.049306,21.817625,0,0,0,0
426356821,426356636,3932170,-0.22266077,6.5907583,-8.367256,21.817625,0,0,0,0
427358135,427357949,3932170,-1.3627796,-3.8833952,-8.300219,22.062424,0,0,0,0
428359451,428359261,3932170,0.32609028,-5.3165646,-9.746795,21.866585,0,0,0,0
429356049,429355832,3932170,-0.08259996,-0.32441434,-13.32892,21.768665,0,0,0,0
430357082,430356897,3932170,1.9814414,4.0821137,-12.592544,22.209303,0,0,0,0
431358395,431358210,3932170,2.8625076,-2.0293255,-8.123048,21.964504,0,0,0,0
432359797,432359606,3932170,-2.2395363,5.1824894,-10.704955,21.817625,0,0,0,0
433356036,433355847,3932170,-0.34715924,4.5513773,-11.365275,21.866585,0,0,0,0
434357345,434357158,3932170,-4.510676,-11.824484,-10.185413,21.964504,0,0,0,0
435358671,435358471,3932170,2.2682667,1.0764331,-12.517365,21.964504,0,0,0,0
436356538,436356320,3932170,-0.0019951682,5.89652,-10.998165,22.013464,0,0,0,0
437357588,437357399,3932170,-1.6907853,-2.47752,-8.070854,21.670746,0,0,0,0
438357607,438357418,3932170,-2.2993913,0.16711529,-11.525208,22.062424,0,0,0,0
439358944,439358754,3932170,1.3220782,2.1973982,-12.498691,21.768665,0,0,0,0
440356490,440356301,3932170,-1.2808979,1.9172767,-13.483187,21.964504,0,0,0,0
441357803,441357613,3932170,1.6132131,-6.4887652,-7.2185183,21.964504,0,0,0,0
442359161,442358975,3932170,3.4773386,3.0497344,-15.658559,21.670746,0,0,0,0
443356896,443356707,3932170,0.16950949,-1.7731459,-11.492168,21.768665,0,0,0,0
444356795,444356607,3932170,-1.8871098,-3.2676065,-7.2774158,21.964504,0,0,0,0
445358068,445357871,3932170,3.7919369,1.9148825,-10.366415,21.964504,0,0,0,0
446359387,446359199,3932170,-0.25474307,-0.21787235,-6.215348,21.964504,0,0,0,0
447356939,447356754,3932170,0.2006341,-5.6440916,-10.85148,22.062424,0,0,0,0
448357003,448356818,3932170,-0.170946,-1.5744271,-10.517728,21.964504,0,0,0,0
449359582,449359397,3932170,-1.4834474,-2.450705,-8.866208,22.062424,0,0,0,0
450356058,450355893,3932170,-0.6596026,-2.4534583,-9.123704,21.768665,0,0,0,0
451357211,451357015,3932170,0.36822823,4.826232,-10.493308,21.866585,0,0,0,0
452358511,452358324,3932170,0.68761474,4.097437,-8.761342,21.964504,0,0,0,0
453358585,453358393,3932170,0.7182605,3.4208355,-10.829931,21.670746,0,0,0,0
454356147,454355958,3932170,-0.018674774,-5.1997275,-9.726684,21.964504,0,0,0,0
455357459,455357271,3932170,2.022143,11.082281,-11.445721,22.013464,0,0,0,0
456358770,456358582,3932170,1.5629349,0.13503298,-10.898886,21.817625,0,0,0,0
457356487,457356329,3932170,-1.3461399,8.891466,-8.067862,21.817625,0,0,0,0
458357648,458357462,3932170,1.4762648,-2.3266852,-9.372342,21.817625,0,0,0,0
459358964,459358774,3932170,-0.6670246,0.21212627,-8.374918,21.768665,0,0,0,0
460359029,460358840,3932170,-0.8987833,-6.296272,-5.974491,21.817625,0,0,0,0
461356595,461356408,3932170,-1.7736245,3.0813377,-10.870155,21.670746,0,0,0,0
462357918,462357728,3932170,-0.19919759,-1.3402741,-9.223902,21.817625,0,0,0,0
463357977,463357784,3932170,-0.5477933,1.0323797,-8.885362,21.866585,0,0,0,0
464355713,464355525,3932170,0.89782566,-1.733402,-8.260474,22.062424,0,0,0,0
465356894,465356709,3932170,1.9680338,5.4458513,-11.405977,21.817625,0,0,0,0
466358164,466357976,3932170,3.4624946,-8.416577,-13.996503,22.013464,0,0,0,0
467359480,467359288,3932170,1.2761095,-5.296932,-8.763737,21.768665,0,0,0,0
468357047,468356857,3932170,1.1865664,-2.5938783,-11.220666,22.013464,0,0,0,0
469357106,469356921,3932170,2.003468,4.644751,-11.385866,21.964504,0,0,0,0
470355926,470355738,3932170,-1.5380353,-1.022803,-6.0970745,22.062424,0,0,0,0
471356186,471355996,3932170,-2.7375302,-1.5643715,-9.612241,22.013464,0,0,0,0
472357303,472357113,3932170,4.2506657,-7.522103,-10.0489435,21.768665,0,0,0,0
473358620,473358428,3932170,2.5124753,-5.9577317,-9.578722,21.768665,0,0,0,0
474359930,474359741,3932170,2.1092918,-4.136223,-6.229713,21.964504,0,0,0,0
475356244,475356058,3932170,-2.9697678,-10.431059,-9.906729,22.013464,0,0,0,0
476357612,476357421,3932170,-1.1362882,16.573622,-9.379525,22.013464,0,0,0,0
477358867,477358680,3932170,1.0702082,8.779058,-15.122735,21.768665,0,0,0,0
478356632,478356441,3932170,-0.2624045,-6.046317,-8.274839,21.817625,0,0,0,0
479357746,479357561,3932170,-2.5866957,7.9832263,-11.020989,21.768665,0,0,0,0
480357818,480357625,3932170,-0.048841715,7.708851,-9.015127,21.866585,0,0,0,0
481359124,481358938,3932170,1.8152838,-4.648582,-9.24497,21.866585,0,0,0,0
482356693,482356505,3932170,1.502601,8.118738,-8.653603,21.866585,0,0,0,0
483358004,483357816,3932170,-3.1565156,-1.5849615,-6.1650696,21.621786,0,0,0,0
484358076,484357881,3932170,0.7331046,5.4453726,-10.564176,21.964504,0,0,0,0
485355826,485355634,3932170,1.3833697,7.3880277,-12.9756155,22.062424,0,0,0,0
486356954,486356761,3932170,-0.4333505,1.1884817,-10.528742,22.062424,0,0,0,0
487358266,487358072,3932170,-0.5544971,9.404903,-11.529518,21.817625,0,0,0,0
488359570,488359383,3932170,0.39217025,-3.0731971,-10.944375,21.768665,0,0,0,0
489355911,489355708,3932170,2.2002714,-1.2727578,-10.66138,21.964504,0,0,0,0
490357222,490357035,3932170,-0.3643975,8.870996,-7.9257655,21.768665,0,0,0,0
491358519,491358326,3932170,-0.18004398,-10.159077,-7.699753,21.866585,0,0,0,0
492356209,492356017,3932170,-1.0773908,9.38144,-8.045476,21.964504,0,0,0,0
493357399,493357207,3932170,-1.0836157,-9.383355,-10.864409,21.964504,0,0,0,0
494358711,494358517,3932170,-0.6349423,2.4679432,-11.876198,21.866585,0,0,0,0
495358777,495358581,3932170,-0.5707777,-7.2362356,-6.6242776,22.160343,0,0,0,0
496356341,496356150,3932170,2.512954,0.15370776,-11.638214,21.817625,0,0,0,0
497357660,497357473,3932170,-2.975035,-0.98210156,-8.967243,21.768665,0,0,0,0
498358966,498358771,3932170,0.96103257,-0.23989902,-12.54035,21.866585,0,0,0,0
499356639,499356447,3932170,-0.9323021,-5.503312,-7.9382153,21.866585,0,0,0,0
500356594,500356404,3932170,-7.0930624,-9.16692,-8.883447,22.013464,0,0,0,0
501357901,501357715,3932170,1.280419,1.3939042,-2.6618736,21.768665,0,0,0,0
502359247,502359056,3932170,2.566584,7.091625,-16.286318,22.013464,0,0,0,0
503357098,503356872,3932170,0.34556314,-0.008379706,-10.752359,22.062424,0,0,0,0
504358108,504357913,3932170,-0.4568137,-11.872847,-10.886914,21.768665,0,0,0,0
505358154,505357968,3932170,-2.31232,-3.3389537,-10.945333,21.817625,0,0,0,0
506355822,506355634,3932170,0.36008796,2.86155,-12.326308,21.670746,0,0,0,0
507357044,507356849,3932170,0.5554548,-6.1123967,-9.8961935,21.817625,0,0,0,0
508358346,508358160,3932170,4.274129,-3.3729515,-15.5671,22.013464,0,0,0,0
509359665,509359477,3932170,-1.5394717,6.2617955,-6.6563597,21.866585,0,0,0,0
510356272,510356067,3932170,-0.9303868,14.829685,-11.506055,21.768665,0,0,0,0
511357295,511357103,3932170,-2.8323407,-2.8869286,-12.362221,21.768665,0,0,0,0
512358606,512358414,3932170,1.8780118,-6.646304,-13.470258,21.768665,0,0,0,0
513356269,513356079,3932170,0.49607858,-4.229118,-8.381143,21.964504,0,0,0,0
514357478,514357294,3932170,-3.4170048,-8.769003,-4.8942275,21.817625,0,0,0,0
515357567,515357362,3932170,2.9127858,-3.2738314,-15.791197,21.817625,0,0,0,0
516356365,516356175,3932170,0.25426424,-5.2303734,-6.910624,21.768665,0,0,0,0
517356680,517356490,3932170,-0.64978635,-1.9000386,-9.054392,21.523869,0,0,0,0
518357743,518357548,3932170,-0.61770403,-5.330451,-9.045773,21.964504,0,0,0,0
519359050,519358858,3932170,2.4056938,13.296918,-15.334862,21.670746,0,0,0,0
520356735,520356550,3932170,0.7422025,-0.147004,-9.746795,21.866585,0,0,0,0
521357934,521357737,3932170,0.6363789,-3.7263355,-11.599907,21.768665,0,0,0,0
522357996,522357804,3932170,2.0149603,-1.9800048,-10.465055,21.768665,0,0,0,0
523359325,523359137,3932170,-1.2382811,-5.6790466,-12.111788,21.768665,0,0,0,0
524357074,524356913,3932170,2.429516,-3.2800562,-5.9501896,21.670746,0,0,0,0
525358185,525357992,3932170,-1.7108966,1.0342951,-10.775345,21.768665,0,0,0,0
526358244,526358056,3932170,2.153345,3.7301662,-17.736725,21.670746,0,0,0,0
527355875,527355685,3932170,-1.1382035,0.8327034,-11.52425,21.866585,0,0,0,0
528357117,528356933,3932170,2.6944346,-7.3645644,-5.5406613,21.964504,0,0,0,0
529358435,529358244,3932170,3.2202013,-6.732974,-11.967177,21.768665,0,0,0,0
530358499,530358307,3932170,0.82599956,-6.3537326,-8.231265,21.866585,0,0,0,0
531356290,531356100,3932170,0.2954445,9.148724,-8.541076,21.817625,0,0,0,0
532357386,532357196,3932170,-1.6984468,-3.8278499,-5.047935,21.768665,0,0,0,0
533358700,533358507,3932170,0.1733402,-6.019981,-5.845683,21.817625,0,0,0,0
534356302,534356111,3932170,1.6280571,3.860411,-10.117418,21.670746,0,0,0,0
535357561,535357375,3932170,-1.7429788,1.6270995,-8.038293,21.621786,0,0,0,0
536357632,536357439,3932170,3.5161245,-5.162857,-10.035057,21.866585,0,0,0,0
537356443,537356255,3932170,-0.085233584,5.731719,-16.451038,21.670746,0,0,0,0
538356729,538356536,3932170,-2.6106377,-6.5577183,-6.2287555,21.768665,0,0,0,0
539357816,539357631,3932170,2.927151,-5.992208,-11.303026,21.817625,0,0,0,0
540359135,540358940,3932170,-4.0529046,5.801151,-9.210973,21.964504,0,0,0,0
541356837,541356638,3932170,0.29017726,6.209602,-10.455958,21.964504,0,0,0,0
542356761,542356570,3932170,1.217691,-11.864227,-7.953538,22.013464,0,0,0,0
543358068,543357880,3932170,-2.6192567,3.809654,-9.370906,22.062424,0,0,0,0
544359384,544359199,3932170,-2.0676327,6.840713,-7.792169,21.817625,0,0,0,0
545357153,545356966,3932170,0.104866035,3.8307228,-9.24497,21.670746,0,0,0,0
546358254,546358068,3932170,1.4571112,-6.8373613,-12.240116,21.670746,0,0,0,0
547358319,547358131,3932170,1.5658079,2.0958843,-11.821132,21.621786,0,0,0,0
548355919,548355728,3932170,2.5598807,-4.0778046,-11.614272,21.768665,0,0,0,0
549357201,549357009,3932170,0.65888435,-3.0459037,-10.12891,21.768665,0,0,0,0
550358513,550358324,3932170,-4.6145844,1.8478448,-5.526296,21.866585,0,0,0,0
551356084,551355890,3932170,5.2265425,-0.58897364,-13.384067,21.670746,0,0,0,0
552356334,552356147,3932170,5.858133,-4.814261,-16.359581,21.768665,0,0,0,0
553358692,553358507,3932170,3.3940203,0.9763555,-10.4502125,21.817625,0,0,0,0
554358760,554358569,3932170,5.998912,-5.255273,-15.040854,21.866585,0,0,0,0
555356385,555356198,3932170,-0.9931149,17.071136,-10.267774,21.866585,0,0,0,0
556357642,556357451,3932170,-3.5051112,-11.90014,-3.2901123,22.013464,0,0,0,0
557357697,557357509,3932170,2.5392902,-4.681622,-12.3129015,21.670746,0,0,0,0
558359007,558358819,3932170,-0.92416185,-3.6669593,-9.408256,21.768665,0,0,0,0
559356720,559356562,3932170,-0.110133275,-10.5680065,-8.401853,21.768665,0,0,0,0
560359202,560359006,3932170,0.7891289,0.5521029,-9.819578,22.062424,0,0,0,0
561359197,561359006,3932170,6.2378535,-4.9981356,-9.737218,21.670746,0,0,0,0
562356761,562356575,3932170,3.2786198,-2.2845473,-14.669753,21.866585,0,0,0,0
563358069,563357883,3932170,1.3024458,0.51427454,-9.709925,21.817625,0,0,0,0
564358150,564357955,3932170,1.4235924,-1.7415423,-7.9913664,21.768665,0,0,0,0
565359492,565359306,3932170,14.583082,-9.41879,-28.901846,21.768665,0,0,0,0
566357220,566357032,3932170,-0.79439616,2.755726,-11.409328,21.768665,0,0,0,0
567357076,567356884,3932170,3.3514037,1.8229452,-9.942641,21.866585,0,0,0,0
568358388,568358198,3932170,4.1223364,4.5987825,-10.485646,21.866585,0,0,0,0
569355953,569355762,3932170,-0.21643583,1.164061,-10.26107,22.013464,0,0,0,0
570357256,570357070,3932170,1.4025233,-0.5449203,-9.342654,21.866585,0,0,0,0
571358575,571358386,3932170,0.6488287,0.3122039,-10.183497,21.768665,0,0,0,0
