timestamp,timestamp_sample,device_id,x,y,z,temperature,error_count,clip_counter[0],clip_counter[1],clip_counter[2]
143356250,143355980,3670026,0.3653552,-0.16807297,-9.999623,22.880049,0,0,0,0
143357491,143357221,3670026,0.62728083,-0.4175488,-9.982863,22.880049,0,0,0,0
144358096,144357821,3670026,0.52385134,0.45154646,-9.945993,22.919216,0,0,0,0
145359586,145359321,3670026,-0.43143514,1.1947067,-10.340079,22.880049,0,0,0,0
146356268,146355985,3670026,-4.5753193,15.049474,-7.350199,22.977968,0,0,0,0
147357892,147357628,3670026,0.2681506,5.610573,-5.1848836,22.924112,0,0,0,0
148358329,148358057,3670026,1.4437037,-3.5098996,-8.129272,22.968176,0,0,0,0
149356243,149355972,3670026,4.768292,-6.0530205,-11.099519,22.943697,0,0,0,0
150356661,150356386,3670026,-3.4385526,-0.578918,-13.808319,22.9388,0,0,0,0
151358317,151358044,3670026,1.0635045,-2.7040114,-10.117418,22.929008,0,0,0,0
152358724,152358453,3670026,-2.930503,16.765636,-3.9839516,22.968176,0,0,0,0
153356657,153356385,3670026,-0.78625584,-1.4350846,-12.378981,22.96328,0,0,0,0
154357071,154356799,3670026,-1.7381904,-3.2216377,-10.956824,22.95349,0,0,0,0
155358807,155358538,3670026,-1.5974114,8.372523,-8.87339,23.066095,0,0,0,0
156356658,156356386,3670026,-0.6694188,8.3739605,-6.921637,23.031824,0,0,0,0
157357067,157356800,3670026,1.1080366,-10.408552,-12.108436,22.98776,0,0,0,0
158358764,158358493,3670026,-4.7194505,4.5413218,-10.275435,23.007343,0,0,0,0
159359143,159358871,3670026,4.2070913,-6.6419945,-10.600568,23.022032,0,0,0,0
160357117,160356851,3670026,3.0712821,8.4567995,-7.240066,22.997551,0,0,0,0
161357503,161357221,3670026,-1.703714,3.3198,-7.992324,23.007343,0,0,0,0
162355512,162355240,3670026,1.5442601,-5.1796165,-14.9819565,23.051407,0,0,0,0
163355835,163355565,3670026,-0.34380737,6.7985754,-8.078515,23.007343,0,0,0,0
164357489,164357223,3670026,-3.8460457,1.5638926,-8.983045,23.002447,0,0,0,0
165357907,165357637,3670026,-0.21691467,-3.5544317,-11.927913,22.997551,0,0,0,0
166359569,166359294,3670026,-3.3901896,15.829984,-8.314584,23.022032,0,0,0,0
167356275,167355993,3670026,2.7614722,-8.817367,-10.857226,23.031824,0,0,0,0
168359151,168358884,3670026,0.9624691,-10.691068,-11.714351,23.090576,0,0,0,0
169358365,169358100,3670026,-0.70006454,1.0022129,-9.654379,23.0612,0,0,0,0
170356262,170355992,3670026,-2.186864,2.2955606,-10.9755,23.017136,0,0,0,0
171357924,171357651,3670026,5.230852,-5.7963624,-10.179667,23.041616,0,0,0,0
172358339,172358066,3670026,0.6766014,0.4098873,-8.171411,23.002447,0,0,0,0
173358749,173358482,3670026,-1.5720329,20.190783,-3.652594,23.041616,0,0,0,0
174356681,174356416,3670026,-3.2676065,5.3472104,-11.554418,23.14443,0,0,0,0
175357105,175356833,3670026,1.9172767,-10.918039,-11.48738,23.017136,0,0,0,0
176358813,176358546,3670026,4.558081,-1.7343597,-9.771215,23.100367,0,0,0,0
177356697,177356426,3670026,1.3125014,-2.1758504,-10.6858015,23.0612,0,0,0,0
178357126,178356846,3670026,2.5067291,-3.6209908,-10.315178,23.105263,0,0,0,0
179358774,179358501,3670026,-0.7963115,2.2050598,-10.571837,23.075888,0,0,0,0
180359187,180358918,3670026,0.827915,11.532392,-5.2011642,23.115055,0,0,0,0
181357116,181356853,3670026,1.9412187,-9.449435,-11.865186,23.075888,0,0,0,0
182357541,182357270,3670026,-0.647871,8.7374,-9.905292,23.090576,0,0,0,0
183358033,183357757,3670026,1.1200076,5.2179236,-10.047028,23.0612,0,0,0,0
184355894,184355624,3670026,-0.23654714,-0.42042184,-10.406637,23.119951,0,0,0,0
185357550,185357282,3670026,-1.2516886,3.7028723,-9.674011,23.066095,0,0,0,0
186357981,186357708,3670026,-1.2196063,13.939042,-7.055712,23.124847,0,0,0,0
187359624,187359359,3670026,-0.02873042,3.394978,-8.164706,23.129744,0,0,0,0
188356327,188356053,3670026,-3.1546001,2.6618736,-8.112992,23.115055,0,0,0,0
189357990,189357719,3670026,0.76566577,2.693956,-10.831848,23.159119,0,0,0,0
190358510,190358244,3670026,0.6196194,-2.0551827,-8.248504,23.154222,0,0,0,0
191356335,191356067,3670026,0.9572019,-6.985323,-10.758585,23.168911,0,0,0,0
192356758,192356485,3670026,2.4286783,-0.33039984,-8.414661,23.1836,0,0,0,0
193358418,193358148,3670026,4.0035844,-11.176133,-12.613612,23.188494,0,0,0,0
194358836,194358564,3670026,-1.1554418,-5.4420204,-13.860034,23.14443,0,0,0,0
195358005,195357741,3670026,0.47979805,4.084987,-10.181582,23.13464,0,0,0,0
196357195,196356920,3670026,5.1140146,-1.5667657,-7.1256227,23.212975,0,0,0,0
197358931,197358666,3670026,2.9822176,-4.0505104,-9.4489565,23.203182,0,0,0,0
198356782,198356515,3670026,2.6743233,-13.451104,-13.6254015,23.208078,0,0,0,0
199357208,199356934,3670026,2.519179,-8.623915,-11.682267,23.178703,0,0,0,0
200357618,200357354,3670026,-2.7332206,11.618583,-5.8480773,23.21787,0,0,0,0
201359290,201359014,3670026,-0.87053174,-6.396828,-14.187082,23.203182,0,0,0,0
202357224,202356951,3670026,-1.5969325,5.7992353,-7.186436,23.232557,0,0,0,0
203357687,203357418,3670026,-3.5424607,6.2661047,-7.6748533,23.203182,0,0,0,0
204358219,204357945,3670026,-0.7187394,-1.226789,-9.828677,23.198286,0,0,0,0
205355996,205355728,3670026,2.6398468,-14.421234,-12.15249,23.159119,0,0,0,0
206357659,206357389,3670026,2.4985888,5.621107,-8.5046835,23.222767,0,0,0,0
207358082,207357809,3670026,0.500867,0.2978387,-7.6106887,23.24235,0,0,0,0
208359747,208359476,3670026,2.3501484,-7.616914,-12.289917,23.232557,0,0,0,0
209356481,209356211,3670026,-1.2512099,3.6956897,-7.8022246,23.212975,0,0,0,0
210358095,210357827,3670026,-1.517445,3.1536427,-9.612241,23.252142,0,0,0,0
211358635,211358363,3670026,-0.8106767,-1.4528016,-11.981543,23.237453,0,0,0,0
212357689,212357426,3670026,0.81019783,-1.0788273,-10.62403,23.26683,0,0,0,0
213356876,213356608,3670026,0.91171205,12.819513,-7.426335,23.188494,0,0,0,0
214358535,214358267,3670026,1.5337257,-4.400064,-11.70238,23.173807,0,0,0,0
215358964,215358687,3670026,2.1677103,-3.0147789,-10.303207,23.1836,0,0,0,0
216356896,216356625,3670026,2.318545,3.6813245,-8.191043,23.1836,0,0,0,0
217357322,217357051,3670026,0.09768343,8.865251,-5.207389,23.271727,0,0,0,0
218359103,218358825,3670026,3.350446,-8.787199,-11.94132,23.227663,0,0,0,0
219355670,219355403,3670026,1.3532028,4.160165,-8.269572,23.222767,0,0,0,0
220357333,220357064,3670026,1.6232687,-6.4557257,-10.086293,23.281517,0,0,0,0
221357771,221357488,3670026,0.66893995,8.606197,-8.001422,23.257038,0,0,0,0
222356934,222356669,3670026,2.091096,1.2722788,-9.586863,23.24235,0,0,0,0
223356124,223355849,3670026,2.024058,5.0431466,-9.743922,23.212975,0,0,0,0
224357768,224357505,3670026,0.35769376,5.2059526,-7.695443,23.21787,0,0,0,0
225358345,225358077,3670026,2.279759,-2.7983432,-9.458055,23.212975,0,0,0,0
226356135,226355864,3670026,0.07852981,1.4954184,-9.215282,23.237453,0,0,0,0
227357798,227357532,3670026,1.4729129,3.335123,-6.364267,23.208078,0,0,0,0
228358246,228357953,3670026,-2.7040114,-0.37445316,-14.347973,23.222767,0,0,0,0
229356160,229355886,3670026,5.2931013,-2.405215,-9.321106,23.247246,0,0,0,0
230356571,230356305,3670026,-1.8042705,2.216552,-9.404425,23.26683,0,0,0,0
231358240,231357967,3670026,3.4974499,-0.1661576,-11.964784,23.29131,0,0,0,0
232358802,232358528,3670026,-2.0839133,3.4773386,-12.82526,23.296206,0,0,0,0
233356604,233356326,3670026,2.1341915,-6.8186865,-12.105083,23.198286,0,0,0,0
234357011,234356746,3670026,-1.1908759,6.498342,-7.5881834,23.305998,0,0,0,0
235358681,235358408,3670026,0.5501875,6.3752804,-8.765172,23.271727,0,0,0,0
236359119,236358844,3670026,-1.6539145,-5.598602,-13.764745,23.301102,0,0,0,0
237357032,237356767,3670026,-1.856464,9.0429,-7.0810914,23.29131,0,0,0,0
238357463,238357188,3670026,3.1306581,-5.912242,-11.359051,23.261934,0,0,0,0
239359280,239359007,3670026,-0.44388503,5.020162,-11.127771,23.281517,0,0,0,0
240355820,240355551,3670026,2.4784777,-1.9876662,-7.1490865,23.286413,0,0,0,0
241357494,241357224,3670026,-3.314533,7.798873,-8.950005,23.198286,0,0,0,0
242357908,242357632,3670026,-0.48889598,-0.70485294,-11.618103,23.261934,0,0,0,0
243359564,243359296,3670026,3.0904357,-4.375643,-12.356475,23.310894,0,0,0,0
244356263,244355990,3670026,-2.0949266,5.3500834,-8.234617,23.286413,0,0,0,0
245357994,245357722,3670026,1.2880806,-9.135316,-12.726619,23.305998,0,0,0,0
246358521,246358256,3670026,1.0769119,2.5024197,-9.502108,23.305998,0,0,0,0
247356283,247356013,3670026,0.69767034,0.8858546,-8.752723,23.286413,0,0,0,0
248356705,248356435,3670026,3.6774938,-5.4616528,-9.283757,23.296206,0,0,0,0
249358379,249358105,3670026,4.1223364,-8.225519,-12.201331,23.31579,0,0,0,0
250358785,250358515,3670026,0.016759412,-1.7669208,-10.657071,23.32558,0,0,0,0
251356722,251356457,3670026,-1.9503168,6.4791884,-7.613083,23.208078,0,0,0,0
252357161,252356889,3670026,-3.6071043,14.872781,-6.397307,23.247246,0,0,0,0
253358988,253358718,3670026,-0.059376206,10.890745,-6.6429524,23.232557,0,0,0,0
254356746,254356479,3670026,3.1627405,-12.200374,-12.202768,23.296206,0,0,0,0
255357225,255356948,3670026,1.5452179,-3.9149988,-11.82592,23.232557,0,0,0,0
256357586,256357323,3670026,-4.6983814,6.253176,-8.568848,23.257038,0,0,0,0
257359263,257358997,3670026,-0.38929722,0.27581206,-9.854534,23.24235,0,0,0,0
258357195,258356924,3670026,4.339251,-4.879383,-10.394667,23.261934,0,0,0,0
259357619,259357346,3670026,2.873521,-2.924278,-10.412383,23.26683,0,0,0,0
260359480,260359210,3670026,0.8576031,13.507129,-6.075048,23.227663,0,0,0,0
261355980,261355712,3670026,0.9672575,-12.974179,-13.557406,23.305998,0,0,0,0
262357644,262357370,3670026,-5.5286903,8.1034155,-8.063192,23.286413,0,0,0,0
263358060,263357791,3670026,-1.6697164,3.7378278,-6.7238765,23.237453,0,0,0,0
264358515,264358236,3670026,2.7188554,1.7961302,-7.604463,23.198286,0,0,0,0
265357661,265357393,3670026,-0.8911219,1.463815,-9.605537,23.286413,0,0,0,0
266358088,266357814,3670026,-4.8257527,5.5349154,-8.2801075,23.296206,0,0,0,0
267358514,267358239,3670026,-0.4879383,5.9888563,-8.214985,23.252142,0,0,0,0
268356453,268356181,3670026,7.1883516,-11.888648,-12.096464,23.227663,0,0,0,0
269356863,269356596,3670026,-0.8446744,-5.1049166,-12.97801,23.252142,0,0,0,0
270358529,270358259,3670026,1.7338809,-3.8996758,-11.460566,23.257038,0,0,0,0
271358989,271358715,3670026,-0.2671929,-4.2243295,-11.599907,23.26683,0,0,0,0
272356914,272356623,3670026,0.51427454,1.3498509,-11.143094,23.257038,0,0,0,0
273357314,273357041,3670026,-0.96869403,-2.7451916,-11.4213,23.261934,0,0,0,0
274358972,274358704,3670026,1.2933478,3.461058,-10.38461,23.27662,0,0,0,0
275355679,275355403,3670026,-1.463815,-4.032315,-11.933181,23.247246,0,0,0,0
276357339,276357065,3670026,1.0931925,15.440686,-5.091031,23.252142,0,0,0,0
277357759,277357486,3670026,-0.7723695,10.63696,-6.012319,23.296206,0,0,0,0
278359527,278359253,3670026,-1.5682021,2.381273,-8.636844,23.26683,0,0,0,0
279356123,279355847,3670026,2.6202145,-13.041696,-15.255854,23.208078,0,0,0,0
280357777,280357510,3670026,2.5957937,10.505757,-6.370492,23.27662,0,0,0,0
281358210,281357931,3670026,1.5126566,8.191522,-7.31285,23.32558,0,0,0,0
282356138,282355870,3670026,0.6196194,-8.232702,-17.926346,23.29131,0,0,0,0
283357806,283357533,3670026,-1.331655,3.7234626,-8.422802,23.257038,0,0,0,0
284358226,284357954,3670026,1.7851169,-3.8479612,-8.958145,23.261934,0,0,0,0
285358697,285358425,3670026,2.1696255,-11.802457,-13.157096,23.227663,0,0,0,0
286356590,286356315,3670026,2.0705056,7.1371155,-9.583989,23.271727,0,0,0,0
287358249,287357978,3670026,-2.6728868,-3.6655228,-15.15386,23.24235,0,0,0,0
288359910,288359642,3670026,3.7181952,-13.285905,-11.738293,23.310894,0,0,0,0
289356624,289356345,3670026,-1.0788273,-2.0671537,-9.768343,23.27662,0,0,0,0
290357030,290356760,3670026,-4.2185836,7.7122025,-10.8385515,23.34027,0,0,0,0
291358691,291358423,3670026,3.8230615,-11.820174,-13.970167,23.310894,0,0,0,0
292359240,292358966,3670026,-2.2103271,4.3416452,-9.817664,23.27662,0,0,0,0
293357053,293356785,3670026,-1.8315643,-8.674671,-16.055038,23.354958,0,0,0,0
294357471,294357205,3670026,1.0232818,-0.0009576807,-9.565314,23.31579,0,0,0,0
295359145,295358868,3670026,1.1669339,2.5550923,-9.771695,23.301102,0,0,0,0
296355963,296355691,3670026,5.295017,-4.0318356,-9.4010725,23.29131,0,0,0,0
297357500,297357229,3670026,-1.8310854,0.15179239,-10.538797,23.212975,0,0,0,0
298357929,298357650,3670026,0.8911219,3.4749444,-6.1368175,23.227663,0,0,0,0
299356057,299355784,3670026,-0.5956774,-0.48554412,-12.9148035,23.34027,0,0,0,0
300356288,300356012,3670026,-3.152206,5.354393,-6.380069,23.26683,0,0,0,0
301357943,301357673,3670026,0.6464345,-7.556579,-11.75553,23.26683,0,0,0,0
302358370,302358095,3670026,2.8778305,2.5680206,-6.411672,23.24235,0,0,0,0
303356385,303356118,3670026,1.5318102,-8.293993,-11.824484,23.301102,0,0,0,0
304357966,304357696,3670026,1.7085024,2.6111164,-7.8501086,23.301102,0,0,0,0
305358387,305358117,3670026,1.2698846,2.8491,-7.4095755,23.281517,0,0,0,0
306358812,306358539,3670026,1.7501614,2.4123976,-10.597216,23.227663,0,0,0,0
307356750,307356481,3670026,-0.8911219,-3.3221943,-11.7148285,23.310894,0,0,0,0
308357171,308356899,3670026,-3.182373,14.984351,-3.1536427,23.281517,0,0,0,0
309356346,309356079,3670026,1.0850523,9.809524,-6.163154,23.178703,0,0,0,0
310355556,310355286,3670026,0.40222588,5.575617,-12.420161,23.271727,0,0,0,0
311357194,311356922,3670026,-1.3632585,1.1947067,-8.984003,23.296206,0,0,0,0
312357613,312357344,3670026,-0.03878607,10.233775,-6.97,23.286413,0,0,0,0
313359278,313359005,3670026,2.300349,-12.150574,-13.3050585,23.24235,0,0,0,0
314357218,314356945,3670026,-2.0757728,11.973403,-8.438125,23.232557,0,0,0,0
315357675,315357403,3670026,3.0032866,-6.8967376,-10.179188,23.222767,0,0,0,0
316356820,316356545,3670026,-0.69719154,-2.3290794,-10.648452,23.24235,0,0,0,0
317356031,317355762,3670026,4.028005,-5.7192693,-12.071087,23.320686,0,0,0,0
318357661,318357393,3670026,-0.8844181,17.430267,-6.635291,23.26683,0,0,0,0
319358082,319357808,3670026,-0.85856074,-5.0077124,-11.474931,23.271727,0,0,0,0
320359740,320359470,3670026,0.056982003,-14.170322,-14.365689,23.227663,0,0,0,0
321356432,321356167,3670026,-0.5746084,2.2625206,-9.532275,23.305998,0,0,0,0
322358119,322357833,3670026,-3.9940073,7.547482,-7.644686,23.198286,0,0,0,0
323358521,323358250,3670026,1.3254302,-2.3376987,-9.755893,23.222767,0,0,0,0
324356504,324356239,3670026,2.3491907,-10.295547,-11.466789,23.271727,0,0,0,0
325358116,325357851,3670026,-3.4974499,10.2605915,-8.554004,23.301102,0,0,0,0
326358576,326358308,3670026,3.1512485,2.3908498,-8.439082,23.173807,0,0,0,0
327358957,327358692,3670026,0.8724471,-0.8336611,-9.195171,23.247246,0,0,0,0
328356895,328356630,3670026,4.1036615,-7.078697,-9.981427,23.271727,0,0,0,0
329357324,329357051,3670026,-3.2106245,1.6936584,-10.147584,23.26683,0,0,0,0
330358987,330358715,3670026,-4.475721,3.7416584,-9.883265,23.252142,0,0,0,0
331357016,331356751,3670026,-0.2183512,-3.7895427,-14.580211,23.271727,0,0,0,0
332357342,332357071,3670026,0.9648633,-5.8562174,-12.549927,23.24235,0,0,0,0
333357764,333357492,3670026,0.32417494,2.7188554,-6.9144545,23.237453,0,0,0,0
334359423,334359153,3670026,2.7289112,0.77907324,-9.192298,23.227663,0,0,0,0
335357375,335357110,3670026,1.5849615,-4.243483,-12.257834,23.26683,0,0,0,0
336357781,336357514,3670026,2.273055,-4.870764,-10.068576,23.227663,0,0,0,0
337359453,337359175,3670026,-2.2835896,2.1911733,-10.274957,23.178703,0,0,0,0
338356210,338355943,3670026,2.5881321,-6.679344,-12.093113,23.227663,0,0,0,0
339357802,339357532,3670026,0.38738185,-7.384676,-12.554236,23.198286,0,0,0,0
340358221,340357952,3670026,0.6818687,-0.48985368,-10.623552,23.203182,0,0,0,0
341358647,341358373,3670026,-0.5592855,0.060812723,-9.081207,23.281517,0,0,0,0
342356596,342356319,3670026,1.3910311,-1.9158403,-10.845734,23.247246,0,0,0,0
343358246,343357972,3670026,0.23032221,-1.196622,-12.23485,23.164015,0,0,0,0
344358672,344358398,3670026,1.6089035,4.9981356,-10.215581,23.188494,0,0,0,0
345356745,345356480,3670026,1.403481,2.0776882,-10.763373,23.222767,0,0,0,0
346357016,346356748,3670026,0.8303092,-3.8920143,-10.631213,23.24235,0,0,0,0
347358679,347358411,3670026,3.9849093,-8.662701,-10.400413,23.188494,0,0,0,0
348359106,348358831,3670026,2.0939689,-0.5114015,-9.868422,23.208078,0,0,0,0
349357046,349356770,3670026,-1.0726024,-6.28047,-15.603012,23.247246,0,0,0,0
350357477,350357204,3670026,3.2393548,7.694007,-8.790072,23.198286,0,0,0,0
351359133,351358850,3670026,4.2482715,5.6924543,-5.396052,23.208078,0,0,0,0
352355920,352355646,3670026,0.69048774,-0.025378538,-10.041761,23.208078,0,0,0,0
353357480,353357209,3670026,-1.8349162,13.252386,-8.253292,23.261934,0,0,0,0
354357894,354357627,3670026,1.7314867,-9.977118,-11.0190735,23.188494,0,0,0,0
355359562,355359289,3670026,-4.0476375,9.265081,-9.134837,23.1836,0,0,0,0
356356261,356355984,3670026,0.61100024,-10.616369,-14.12579,23.227663,0,0,0,0
357357925,357357646,3670026,-0.87053174,-2.3582888,-10.88021,23.154222,0,0,0,0
358358334,358358065,3670026,0.068953015,-3.044946,-10.681971,23.208078,0,0,0,0
359356398,359356120,3670026,0.7038953,0.07805098,-9.762597,23.208078,0,0,0,0
360356738,360356467,3670026,-2.003468,0.17429788,-10.127953,23.139534,0,0,0,0
361358351,361358083,3670026,-0.53342813,-2.843833,-12.038526,23.301102,0,0,0,0
362356308,362356034,3670026,-1.9163191,13.932339,-7.5867467,23.198286,0,0,0,0
363356711,363356442,3670026,2.562275,-3.1177297,-11.069831,23.247246,0,0,0,0
364357157,364356884,3670026,-2.3338678,5.8159947,-7.788817,23.178703,0,0,0,0
365360040,365359767,3670026,0.50278234,-7.8079705,-11.576445,23.21787,0,0,0,0
366356856,366356586,3670026,-0.43526587,-2.687252,-12.045229,23.222767,0,0,0,0
367357146,367356878,3670026,-3.5855565,9.751583,-6.1621966,23.232557,0,0,0,0
368358804,368358538,3670026,2.858677,-13.280159,-15.59583,23.1836,0,0,0,0
369355510,369355234,3670026,-4.4196963,1.2516886,-10.280702,23.178703,0,0,0,0
370357174,370356905,3670026,2.7016172,-2.6613946,-8.19631,23.188494,0,0,0,0
371357579,371357314,3670026,-1.6950948,20.2741,-4.973715,23.212975,0,0,0,0
372359253,372358975,3670026,-1.5437813,10.613018,-7.0834856,23.198286,0,0,0,0
373356080,373355812,3670026,3.2891545,-1.0031705,-10.086772,23.14443,0,0,0,0
374357602,374357331,3670026,-0.14604631,0.2087744,-9.021831,23.159119,0,0,0,0
375358028,375357751,3670026,1.4355634,3.4744656,-8.789593,23.198286,0,0,0,0
376355963,376355689,3670026,2.8668172,-3.2187648,-7.607337,23.178703,0,0,0,0
377356378,377356107,3670026,-2.695871,12.445539,-9.734345,23.168911,0,0,0,0
378358032,378357768,3670026,-0.44675806,-6.1655483,-12.51928,23.21787,0,0,0,0
379355984,379355708,3670026,-1.96133,12.5279,-6.037698,23.310894,0,0,0,0
380356552,380356278,3670026,-1.0692505,2.4789565,-9.086953,23.173807,0,0,0,0
381356815,381356544,3670026,3.3877954,-2.6494236,-9.803778,23.159119,0,0,0,0
382358480,382358207,3670026,1.292869,-0.110133275,-9.675447,23.159119,0,0,0,0
383358900,383358623,3670026,5.5962076,-15.082513,-12.54035,23.21787,0,0,0,0
384356932,384356661,3670026,0.16280572,6.3063273,-6.7502127,23.212975,0,0,0,0
385357268,385356981,3670026,-2.20075,15.977466,-2.9621065,23.24235,0,0,0,0
386356459,386356189,3670026,3.8632839,-7.130891,-8.222167,23.237453,0,0,0,0
387355765,387355495,3670026,-2.0465636,-6.155014,-12.70555,23.19339,0,0,0,0
388357273,388357001,3670026,1.9608512,-5.5229445,-13.239457,23.222767,0,0,0,0
389357685,389357416,3670026,-1.6673222,-7.762002,-12.18505,23.212975,0,0,0,0
390359342,390359077,3670026,-1.1334151,0.8963891,-9.006508,23.164015,0,0,0,0
391357285,391357019,3670026,4.276523,-6.7693663,-11.176613,23.208078,0,0,0,0
392358949,392358674,3670026,1.0864887,8.383537,-3.2436645,23.237453,0,0,0,0
393356886,393356616,3670026,-0.8025364,9.993877,-8.136456,23.203182,0,0,0,0
394356276,394356002,3670026,0.1766921,-3.1258698,-10.626425,23.173807,0,0,0,0
395357718,395357449,3670026,3.1546001,3.581247,-7.543172,23.173807,0,0,0,0
396358138,396357869,3670026,0.2777274,5.6258955,-8.124005,23.19339,0,0,0,0
397356072,397355805,3670026,1.3680469,3.8762126,-7.1088634,23.149326,0,0,0,0
398356509,398356243,3670026,1.4551958,2.9894001,-6.8814144,23.21787,0,0,0,0
399358161,399357886,3670026,1.2109872,-0.7383718,-8.765651,23.168911,0,0,0,0
400358574,400358304,3670026,1.4628572,-2.7456706,-9.086953,23.188494,0,0,0,0
401356695,401356429,3670026,3.8968027,-5.3515196,-10.77343,23.051407,0,0,0,0
402356931,402356660,3670026,2.6862943,1.8555063,-6.5979414,23.19339,0,0,0,0
403358591,403358319,3670026,-0.6100426,6.807194,-6.8756685,23.164015,0,0,0,0
404359018,404358738,3670026,-1.5801731,3.568797,-11.959038,23.198286,0,0,0,0
405356966,405356698,3670026,4.6830587,-1.0505757,-9.259814,23.178703,0,0,0,0
406357371,406357094,3670026,0.61435217,-2.7748797,-13.183432,23.14443,0,0,0,0
407359025,407358755,3670026,0.6488287,-3.8709455,-8.067502,23.178703,0,0,0,0
408355718,408355452,3670026,-4.984249,10.441113,-13.619177,23.188494,0,0,0,0
409357381,409357109,3670026,1.4829686,1.4944607,-10.987949,23.188494,0,0,0,0
410357792,410357527,3670026,1.2976574,-0.40414125,-11.017638,23.164015,0,0,0,0
411359472,411359198,3670026,3.271916,-0.35625723,-8.8820095,23.164015,0,0,0,0
412357423,412357160,3670026,-0.4616021,-2.7753587,-10.142796,23.149326,0,0,0,0
413357818,413357541,3670026,4.0035844,2.9008148,-6.9273834,23.154222,0,0,0,0
414358238,414357966,3670026,1.1683705,5.407544,-9.153991,23.149326,0,0,0,0
415356167,415355896,3670026,1.1085154,5.5827994,-5.411854,23.227663,0,0,0,0
416356591,416356319,3670026,-0.5449203,-0.040222593,-11.532869,23.164015,0,0,0,0
417358255,417357976,3670026,1.9503168,-0.82121116,-11.187627,23.129744,0,0,0,0
418358672,418358396,3670026,1.7731459,2.2036233,-9.011296,23.115055,0,0,0,0
419356709,419356438,3670026,4.427837,7.5019917,-7.0169263,23.09547,0,0,0,0
420358302,420358030,3670026,-0.63206923,2.9865272,-8.305964,23.168911,0,0,0,0
421358679,421358406,3670026,2.2845473,-3.96815,-9.416395,23.09547,0,0,0,0
422356613,422356341,3670026,-2.3175871,0.89543146,-13.067075,23.090576,0,0,0,0
423357029,423356759,3670026,2.3458388,-1.1291056,-11.449552,23.159119,0,0,0,0
424358686,424358418,3670026,0.9452309,2.8720844,-8.069897,23.222767,0,0,0,0
425359126,425358840,3670026,2.2692244,0.076614454,-8.7733135,23.090576,0,0,0,0
426357144,426356873,3670026,3.1751904,2.2826319,-7.7466793,23.080784,0,0,0,0
427357466,427357196,3670026,1.430775,-3.4265816,-9.4709835,23.119951,0,0,0,0
428359118,428358847,3670026,3.0152576,-9.189904,-10.88069,23.090576,0,0,0,0
429357047,429356784,3670026,0.68330514,10.811737,-8.577946,23.100367,0,0,0,0
430357471,430357203,3670026,0.099119954,6.8608246,-8.912177,23.154222,0,0,0,0
431357887,431357620,3670026,4.793192,-1.7942148,-8.642111,23.090576,0,0,0,0
432359554,432359279,3670026,1.364695,3.2225955,-11.006624,23.232557,0,0,0,0
433356376,433356104,3670026,-0.5851429,4.82288,-10.498574,23.149326,0,0,0,0
434357901,434357632,3670026,-2.7150247,-7.536468,-17.654366,23.19339,0,0,0,0
435358324,435358052,3670026,-0.3620033,0.61530983,-8.610028,23.09547,0,0,0,0
436356317,436356047,3670026,-2.033635,7.8113227,-9.159737,23.164015,0,0,0,0
437356672,437356405,3670026,4.2578483,0.69240314,-10.393709,23.070992,0,0,0,0
438358329,438358060,3670026,-1.0524911,4.320576,-10.9692745,23.075888,0,0,0,0
439358750,439358479,3670026,-1.0299855,2.6254816,-8.956709,23.14443,0,0,0,0
440356813,440356544,3670026,-3.4170048,5.0306964,-11.688015,23.129744,0,0,0,0
441358338,441358071,3670026,2.9764717,-9.4470415,-10.3343315,23.070992,0,0,0,0
442358757,442358489,3670026,-3.0540435,3.5075054,-10.838073,23.13464,0,0,0,0
443356703,443356428,3670026,-0.42664674,-1.5696387,-8.829337,23.139534,0,0,0,0
444357118,444356841,3670026,0.41611227,-7.0250664,-12.445061,23.115055,0,0,0,0
445358764,445358499,3670026,2.670014,4.636611,-6.6285872,23.0612,0,0,0,0
446359190,446358916,3670026,3.1124623,-0.8317457,-9.809045,23.124847,0,0,0,0
447357218,447356943,3670026,-1.4676456,-4.2272024,-15.159607,23.154222,0,0,0,0
448357536,448357268,3670026,0.12354081,-1.4767436,-12.110829,23.110159,0,0,0,0
449359201,449358927,3670026,0.40557778,-3.052607,-9.452309,23.075888,0,0,0,0
450355889,450355620,3670026,1.5035586,-4.2401314,-10.243352,23.164015,0,0,0,0
451357560,451357285,3670026,-0.65409595,5.742254,-7.6537843,23.08568,0,0,0,0
452357974,452357697,3670026,1.8473661,6.4858923,-6.129156,23.056303,0,0,0,0
453359671,453359402,3670026,3.0190883,0.4544195,-6.8450227,23.173807,0,0,0,0
454356420,454356151,3670026,-2.2682667,-2.8457482,-11.235511,23.090576,0,0,0,0
455357979,455357705,3670026,1.844493,9.287108,-7.321469,23.119951,0,0,0,0
456358389,456358122,3670026,-1.164061,1.1573571,-9.561963,23.080784,0,0,0,0
457356325,457356056,3670026,1.7434577,8.667489,-7.2300105,23.075888,0,0,0,0
458358025,458357759,3670026,0.079966344,-1.2397176,-8.026801,23.066095,0,0,0,0
459359643,459359372,3670026,2.3506272,-5.091988,-9.516952,23.115055,0,0,0,0
460358815,460358548,3670026,3.2647333,-7.6255326,-11.38012,23.198286,0,0,0,0
461356867,461356599,3670026,-1.3005304,2.729869,-10.023086,23.110159,0,0,0,0
462358406,462358140,3670026,-1.6050729,1.0419567,-8.683769,23.105263,0,0,0,0
463358857,463358587,3670026,1.7362751,-1.0127473,-7.9951973,23.08568,0,0,0,0
464356761,464356492,3670026,1.0836157,-3.0401573,-10.04607,23.149326,0,0,0,0
465357179,465356914,3670026,-0.5717354,7.85777,-6.0779204,23.100367,0,0,0,0
466357600,466357331,3670026,2.6211722,-15.379395,-12.729492,23.080784,0,0,0,0
467359254,467358983,3670026,0.29352912,-5.6603713,-11.042058,23.031824,0,0,0,0
468356069,468355802,3670026,0.5588067,-3.946602,-13.637852,23.090576,0,0,0,0
469357607,469357333,3670026,3.6042314,3.2187648,-9.856929,23.105263,0,0,0,0
470356773,470356509,3670026,2.6489449,-5.3941364,-9.121908,23.100367,0,0,0,0
471355993,471355722,3670026,-1.0745177,-3.092351,-11.83023,23.031824,0,0,0,0
472357609,472357343,3670026,2.4794352,-4.7285485,-8.214985,23.154222,0,0,0,0
473358053,473357782,3670026,5.3223104,-7.1246657,-10.583329,22.982864,0,0,0,0
474359685,474359417,3670026,0.671813,-1.8679562,-7.885543,23.149326,0,0,0,0
475356511,475356248,3670026,1.5059528,-14.412616,-18.876366,23.080784,0,0,0,0
476358038,476357768,3670026,2.8083985,10.123164,-5.663724,23.124847,0,0,0,0
477358458,477358183,3670026,-2.4598029,5.944324,-11.496957,23.110159,0,0,0,0
478356388,478356118,3670026,2.1222205,-7.7605658,-13.317029,23.149326,0,0,0,0
479356814,479356540,3670026,-1.1870452,3.7785294,-10.358274,23.129744,0,0,0,0
480358465,480358197,3670026,2.420538,3.20009,-7.2802887,23.115055,0,0,0,0
481358877,481358609,3670026,2.3740904,-4.348828,-10.115981,23.031824,0,0,0,0
482356973,482356697,3670026,3.4917037,6.16076,-7.303273,23.100367,0,0,0,0
483357239,483356958,3670026,2.0140026,6.096596,-8.393114,22.982864,0,0,0,0
484358897,484358619,3670026,1.379539,3.224032,-7.056191,23.105263,0,0,0,0
485356819,485356550,3670026,2.2452824,0.43287167,-8.941865,23.051407,0,0,0,0
486357331,486357058,3670026,1.7228676,-0.98258036,-10.179667,23.09547,0,0,0,0
487357656,487357383,3670026,-3.28676,5.195418,-9.108022,23.090576,0,0,0,0
488359339,488359076,3670026,3.4170048,-3.1062374,-9.921094,23.04651,0,0,0,0
489357488,489357210,3670026,-0.3122039,1.0740389,-9.949824,23.022032,0,0,0,0
490357660,490357391,3670026,1.7118542,3.5659242,-6.986759,23.0612,0,0,0,0
491359317,491359049,3670026,-1.6740259,-6.2301917,-11.534307,23.04651,0,0,0,0
492356007,492355740,3670026,0.76566577,9.614635,-6.543353,23.105263,0,0,0,0
493357731,493357457,3670026,-2.6657043,-6.172731,-15.068627,23.09547,0,0,0,0
494358086,494357814,3670026,-2.0226216,-0.69000894,-12.020329,23.070992,0,0,0,0
495359744,495359471,3670026,1.9680338,-8.516175,-10.521559,23.056303,0,0,0,0
496356614,496356345,3670026,2.1021092,0.5856218,-10.737994,23.080784,0,0,0,0
497358095,497357821,3670026,1.5452179,-4.81043,-13.218388,23.007343,0,0,0,0
498358547,498358279,3670026,-0.65457475,-2.7360938,-11.305421,23.056303,0,0,0,0
499356439,499356171,3670026,2.2328327,-6.876626,-11.09473,23.041616,0,0,0,0
500356923,500356651,3670026,-3.1038432,-12.51928,-18.8122,23.09547,0,0,0,0
501358510,501358244,3670026,7.8386164,-11.595598,-10.999442,23.03672,0,0,0,0
502358942,502358661,3670026,-3.356192,6.4882865,-7.7217793,23.075888,0,0,0,0
503356868,503356598,3670026,-2.5076869,1.9077,-8.919359,23.056303,0,0,0,0
504357292,504357012,3670026,2.021664,-14.486357,-14.2234745,23.056303,0,0,0,0
505358933,505358667,3670026,-2.3673866,-3.727772,-12.835794,23.04651,0,0,0,0
506355631,506355360,3670026,-0.46447513,3.0870838,-7.446925,23.056303,0,0,0,0
507357318,507357048,3670026,-2.6566062,-2.9673736,-11.106223,23.13464,0,0,0,0
508357704,508357434,3670026,-0.6440403,-10.279265,-10.759542,23.115055,0,0,0,0
509360600,509360333,3670026,3.8101327,-8.81976,-12.602599,23.0612,0,0,0,0
510356064,510355784,3670026,-3.84844,16.965313,-6.925468,23.066095,0,0,0,0
511357706,511357441,3670026,-4.3167458,-0.81115556,-11.084676,23.01224,0,0,0,0
512358127,512357857,3670026,-0.9131485,-7.2778945,-12.604994,23.115055,0,0,0,0
513357298,513357032,3670026,0.09624691,-1.8363527,-9.292855,23.0612,0,0,0,0
514357749,514357482,3670026,2.8146234,-15.24101,-13.088143,23.080784,0,0,0,0
515358136,515357864,3670026,-1.8430564,7.65139,-10.867761,23.105263,0,0,0,0
516356066,516355799,3670026,4.8779464,-6.456683,-10.064266,23.119951,0,0,0,0
517356487,517356214,3670026,1.517445,-4.8506527,-10.61206,23.08568,0,0,0,0
518358134,518357871,3670026,-1.3532028,-4.376122,-12.985672,23.051407,0,0,0,0
519358557,519358287,3670026,-0.53486466,11.833102,-10.85148,23.022032,0,0,0,0
520356494,520356220,3670026,-1.1362882,0.9232042,-9.219113,23.03672,0,0,0,0
521357002,521356734,3670026,-0.11827357,-4.8511314,-13.090537,23.051407,0,0,0,0
522358576,522358301,3670026,3.0444667,-0.38450882,-10.041761,23.080784,0,0,0,0
523358976,523358709,3670026,3.3600228,-6.985323,-10.041761,22.96328,0,0,0,0
524356909,524356642,3670026,3.2158918,-2.966416,-4.807557,23.041616,0,0,0,0
525357325,525357058,3670026,-2.9779081,-1.3618219,-9.547119,23.007343,0,0,0,0
526359045,526358766,3670026,-4.4556093,15.0279255,-8.236053,23.08568,0,0,0,0
527355681,527355407,3670026,0.4098873,-0.19488803,-13.06899,23.017136,0,0,0,0
528357388,528357120,3670026,4.5633483,-9.440337,-7.4670362,23.066095,0,0,0,0
529357758,529357481,3670026,3.2053573,-9.817184,-11.76367,23.03672,0,0,0,0
530359407,530359137,3670026,4.9971776,-10.220369,-11.420342,23.090576,0,0,0,0
531356097,531355829,3670026,0.85856074,8.541554,-6.6735983,23.066095,0,0,0,0
532357778,532357515,3670026,5.759013,-13.143689,-10.839509,23.080784,0,0,0,0
533358177,533357906,3670026,0.5497087,-1.4494498,-9.0237465,23.03672,0,0,0,0
534356107,534355835,3670026,2.8026524,3.335602,-10.998485,23.01224,0,0,0,0
535356643,535356376,3670026,1.2464215,10.472239,-2.4253263,22.982864,0,0,0,0
536358183,536357909,3670026,0.96869403,1.5916653,-7.996155,22.992657,0,0,0,0
537356109,537355841,3670026,-3.074155,6.848375,-13.2001915,23.066095,0,0,0,0
538356533,538356265,3670026,1.9388245,-10.536881,-12.191754,23.041616,0,0,0,0
539358176,539357914,3670026,-0.3701436,-0.8939949,-12.235807,23.017136,0,0,0,0
540358600,540358329,3670026,-1.9680338,9.199481,-10.204567,22.948593,0,0,0,0
541356535,541356262,3670026,2.8807037,4.6265554,-4.8032475,23.026928,0,0,0,0
542357032,542356765,3670026,0.13551182,-10.535924,-13.436739,23.041616,0,0,0,0
543358605,543358334,3670026,2.2989125,-2.5024197,-11.835976,23.017136,0,0,0,0
544359023,544358749,3670026,1.0673351,7.3075824,-3.2527623,22.98776,0,0,0,0
545356963,545356695,3670026,-0.3854665,5.2356405,-8.624872,23.017136,0,0,0,0
546358604,546358339,3670026,0.96294796,-3.9710228,-14.142072,22.992657,0,0,0,0
547359047,547358771,3670026,-1.5073894,7.3698316,-9.263645,23.031824,0,0,0,0
548355724,548355447,3670026,0.7671022,-3.7325604,-7.495288,23.03672,0,0,0,0
549357470,549357204,3670026,-1.037647,-1.0539277,-10.956824,23.04651,0,0,0,0
550357800,550357532,3670026,0.21164744,9.560047,-4.399106,23.017136,0,0,0,0
551355719,551355451,3670026,3.2738314,-2.3343468,-9.858845,22.96328,0,0,0,0
552356132,552355866,3670026,0.40462008,-1.3670892,-8.376833,22.9388,0,0,0,0
553359035,553358763,3670026,1.8784907,2.963543,-7.237193,23.026928,0,0,0,0
554358219,554357940,3670026,0.581791,-12.342589,-13.295959,23.026928,0,0,0,0
555356140,555355870,3670026,-1.2239159,19.895817,-6.8162923,22.992657,0,0,0,0
556356667,556356396,3670026,1.7348386,2.9405587,-3.9068584,23.022032,0,0,0,0
557358218,557357944,3670026,1.3225571,-1.0352528,-12.863567,23.100367,0,0,0,0
558358631,558358356,3670026,4.1817126,-5.613924,-8.516654,23.01224,0,0,0,0
559356555,559356288,3670026,3.1258698,-13.058455,-12.585361,23.129744,0,0,0,0
560359478,560359206,3670026,0.16998832,0.30597898,-8.499895,23.031824,0,0,0,0
561358644,561358376,3670026,4.142448,-4.579629,-9.999144,23.017136,0,0,0,0
562356555,562356291,3670026,0.48362875,-2.103067,-12.674904,22.973072,0,0,0,0
563357113,563356838,3670026,1.706587,-0.54204726,-11.728716,23.066095,0,0,0,0
564358640,564358363,3670026,3.8853106,-6.378632,-9.8042555,23.070992,0,0,0,0
565359055,565358777,3670026,15.254416,-8.685206,-27.597485,22.98776,0,0,0,0
566356975,566356709,3670026,-1.2856863,3.8527496,-12.650962,22.98776,0,0,0,0
567357405,567357134,3670026,0.4333505,4.4101195,-6.5668163,22.98776,0,0,0,0
568359052,568358780,3670026,4.019386,4.354095,-6.3221292,22.997551,0,0,0,0
569355738,569355471,3670026,-0.3347094,1.184651,-9.904813,22.982864,0,0,0,0
570357526,570357260,3670026,1.8167202,-0.9950302,-8.9279785,22.98776,0,0,0,0
571357825,571357540,3670026,0.6794745,0.20015526,-9.812396,22.948593,0,0,0,0
