timestamp,timestamp_sample,baro_device_id,baro_alt_meter,baro_temp_celcius,baro_pressure_pa,rho
143335357,143312663,3997730,370.19955,18.01,96956.75,1.1520066
143385580,143365442,3997730,370.26562,18.01,96956.0,1.1519977
143546584,143526381,3997730,370.32904,18.01,96955.25,1.1519887
143757743,143740072,3997730,370.19955,18.01,96956.75,1.1520066
143918636,143900906,3997730,370.37128,18.01,96954.75,1.1519828
144139865,144117207,3997730,370.28674,18.01,96955.75,1.1519947
144350975,144330755,3997730,370.26562,18.02,96955.99,1.1519976
144562057,144544442,3997730,370.19955,18.02,96956.75,1.1520066
144722848,144705135,3997730,370.37128,18.02,96954.75,1.1519828
144954087,144933895,3997730,370.26562,18.02,96956.0,1.1519977
145165197,145147551,3997730,370.22067,18.02,96956.5,1.1520036
145326142,145308419,3997730,370.58795,18.02,96952.25,1.1519531
145547187,145524475,3997730,370.50342,18.02,96953.25,1.151965
145758320,145738050,3997730,370.30786,18.029999,96955.5,1.1519917
145919189,145899005,3997730,370.28674,18.02,96955.75,1.1519947
146130237,146112604,3997730,370.50342,18.02,96953.25,1.151965
146351485,146328734,3997730,370.35016,18.029999,96955.0,1.1519858
146562770,146542568,3997730,370.30786,18.02,96955.5,1.1519917
146723687,146703433,3997730,370.32904,18.029999,96955.25,1.1519887
146934803,146917070,3997730,370.13614,18.029999,96957.5,1.1520154
147155882,147133210,3997730,370.37128,18.029999,96954.75,1.1519828
147316724,147294018,3997730,370.22067,18.029999,96956.5,1.1520036
147527790,147507656,3997730,370.32904,18.029999,96955.25,1.1519887
147739105,147721353,3997730,370.58795,18.029999,96952.25,1.1519531
147960233,147937527,3997730,370.15726,18.039999,96957.25,1.1520125
148121109,148098363,3997730,370.28674,18.039999,96955.75,1.1519947
148332380,148312151,3997730,370.24445,18.039999,96956.25,1.1520007
148563691,148541023,3997730,370.26562,18.039999,96955.99,1.1519976
148724557,148701765,3997730,370.43735,18.039999,96954.0,1.151974
148935606,148915348,3997730,370.15726,18.039999,96957.25,1.1520125
149146772,149129151,3997730,370.11234,18.039999,96957.75,1.1520184
149307712,149289894,3997730,370.50342,18.039999,96953.25,1.151965
149528674,149506039,3997730,370.13614,18.05,96957.49,1.1520154
149739831,149719683,3997730,370.35016,18.05,96955.0,1.1519858
149950887,149933213,3997730,370.28674,18.05,96955.75,1.1519947
150111676,150094061,3997730,370.45847,18.05,96953.75,1.151971
150332907,150310272,3997730,370.39243,18.05,96954.5,1.1519798
150544090,150523912,3997730,370.32904,18.05,96955.25,1.1519887
150755305,150737627,3997730,370.43735,18.05,96954.0,1.151974
150936380,150906008,3997730,370.71478,18.05,96950.8,1.1519358
151147450,151127189,3997730,370.63287,18.05,96951.75,1.1519471
151358487,151340867,3997730,370.61176,18.05,96951.99,1.15195
151519465,151501784,3997730,370.78348,18.06,96950.0,1.1519264
151740511,151717888,3997730,370.82578,18.06,96949.5,1.1519204
151951962,151931630,3997730,371.03983,18.06,96947.0,1.1518908
152122739,152098494,3997730,371.0081,18.06,96947.4,1.1518955
152344041,152321312,3997730,370.9341,18.06,96948.25,1.1519055
152555248,152535027,3997730,371.10587,18.06,96946.25,1.1518818
152766410,152748777,3997730,370.84692,18.06,96949.25,1.1519175
152927397,152909642,3997730,370.99753,18.06,96947.5,1.1518967
153148562,153125871,3997730,370.95523,18.07,96948.0,1.1519026
153359888,153339738,3997730,371.40707,18.07,96942.75,1.1518402
153520818,153500527,3997730,371.28024,18.07,96944.24,1.151858
153751933,153729280,3997730,371.5154,18.07,96941.5,1.1518254
153962928,153942775,3997730,371.38596,18.07,96943.0,1.1518432
154123889,154103648,3997730,371.55768,18.07,96941.0,1.1518195
154334915,154317202,3997730,371.86154,18.07,96937.5,1.1517779
154556115,154533438,3997730,371.7955,18.07,96938.24,1.1517867
154717069,154694344,3997730,372.03333,18.07,96935.5,1.1517541
154928217,154907998,3997730,371.92496,18.07,96936.76,1.151769
155139387,155121644,3997730,371.88272,18.07,96937.24,1.1517748
155360397,155337745,3997730,372.1628,18.08,96934.0,1.1517363
155521238,155498590,3997730,372.18393,18.07,96933.75,1.1517333
155732508,155712226,3997730,372.31342,18.08,96932.25,1.1517155
155943615,155925849,3997730,371.9461,18.08,96936.5,1.151766
156124755,156094376,3997730,372.0941,18.08,96934.8,1.1517458
156335664,156315462,3997730,372.09937,18.08,96934.74,1.1517451
156546910,156529239,3997730,372.31604,18.08,96932.24,1.1517154
156767916,156745199,3997730,372.09937,18.09,96934.75,1.1517452
156928743,156906051,3997730,371.90384,18.08,96937.0,1.1517719
157139953,157119685,3997730,372.29224,18.08,96932.49,1.1517184
157351155,157333407,3997730,372.07556,18.09,96935.0,1.1517482
157511897,157494254,3997730,372.01215,18.09,96935.76,1.1517571
157732999,157710315,3997730,372.09937,18.09,96934.75,1.1517452
157944002,157923874,3997730,372.1205,18.09,96934.5,1.1517422
158155351,158137576,3997730,372.46402,18.09,96930.5,1.1516947
158316221,158298575,3997730,372.44287,18.09,96930.75,1.1516976
158537539,158514725,3997730,372.42172,18.09,96930.99,1.1517005
158748615,158728265,3997730,372.44287,18.1,96930.75,1.1516976
158959792,158942007,3997730,372.33453,18.09,96932.0,1.1517125
159120443,159102826,3997730,372.42172,18.09,96931.0,1.1517006
159341606,159318951,3997730,372.72293,18.09,96927.5,1.151659
159552837,159532650,3997730,372.59613,18.1,96929.0,1.1516769
159763915,159746206,3997730,372.46402,18.1,96930.5,1.1516947
159924741,159907104,3997730,372.72293,18.1,96927.5,1.151659
160145867,160123198,3997730,372.81015,18.1,96926.49,1.1516471
160357209,160336893,3997730,372.76788,18.1,96927.0,1.151653
160517959,160497842,3997730,372.96075,18.1,96924.75,1.1516263
160729301,160711627,3997730,372.59613,18.1,96929.0,1.1516769
160950714,160928004,3997730,372.89734,18.1,96925.5,1.1516353
161162044,161141785,3997730,372.61462,18.109999,96928.75,1.1516739
161322884,161302747,3997730,372.85504,18.109999,96925.99,1.1516411
161534027,161516400,3997730,372.6384,18.1,96928.5,1.1516709
161765306,161745154,3997730,372.3583,18.109999,96931.74,1.1517094
161926181,161905941,3997730,372.42172,18.109999,96931.0,1.1517006
162157342,162134650,3997730,372.25,18.109999,96932.99,1.1517243
162318079,162295435,3997730,372.4878,18.109999,96930.25,1.1516917
162529373,162509189,3997730,372.20505,18.109999,96933.5,1.1517303
162740663,162723018,3997730,372.42172,18.109999,96931.0,1.1517006
162921617,162891309,3997730,371.888,18.119999,96937.195,1.1517743
163132674,163112505,3997730,371.71094,18.109999,96939.24,1.1517986
163364070,163341367,3997730,371.47314,18.109999,96941.99,1.1518313
163524902,163502115,3997730,371.32254,18.109999,96943.75,1.1518521
163736025,163715741,3997730,371.10587,18.119999,96946.25,1.1518818
163946970,163929314,3997730,371.06357,18.119999,96946.75,1.1518878
164127716,164097543,3997730,371.14548,18.119999,96945.8,1.1518764
164339058,164318792,3997730,371.3648,18.119999,96943.25,1.1518462
164550019,164532395,3997730,371.21417,18.119999,96944.99,1.1518669
164710800,164693142,3997730,371.25647,18.119999,96944.5,1.1518611
164931988,164909355,3997730,371.3648,18.119999,96943.25,1.1518462
165143285,165123001,3997730,371.88272,18.119999,96937.24,1.1517748
165354339,165336696,3997730,371.90384,18.119999,96937.0,1.1517719
165515211,165497589,3997730,372.1205,18.119999,96934.5,1.1517422
165736362,165713683,3997730,372.14163,18.119999,96934.24,1.1517391
165947514,165927254,3997730,372.27112,18.119999,96932.75,1.1517215
166158746,166140971,3997730,372.65955,18.119999,96928.25,1.151668
166319502,166301807,3997730,372.4006,18.13,96931.25,1.1517036
166540666,166518011,3997730,372.61462,18.13,96928.75,1.1516739
166751823,166731579,3997730,372.59613,18.13,96929.0,1.1516769
166962789,166945099,3997730,372.57233,18.13,96929.25,1.1516799
167123593,167105944,3997730,372.65955,18.13,96928.25,1.151668
167344981,167322089,3997730,372.76788,18.13,96927.0,1.151653
167555840,167535704,3997730,373.1563,18.13,96922.5,1.1515996
167716973,167696510,3997730,372.81015,18.13,96926.49,1.1516471
167947948,167925231,3997730,372.8313,18.13,96926.25,1.1516442
168159007,168138864,3997730,372.81015,18.14,96926.49,1.1516471
168319976,168299797,3997730,373.04794,18.13,96923.75,1.1516144
168531166,168513479,3997730,373.373,18.14,96919.99,1.1515698
168752414,168729674,3997730,372.7018,18.13,96927.75,1.151662
168963468,168943321,3997730,372.6807,18.14,96928.0,1.151665
169124448,169104286,3997730,372.8313,18.14,96926.25,1.1516442
169336549,169317925,3997730,372.89734,18.14,96925.49,1.1516352
169556936,169534150,3997730,372.4006,18.14,96931.25,1.1517036
169718808,169695029,3997730,372.5089,18.14,96930.0,1.1516887
169938852,169921236,3997730,372.74673,18.15,96927.25,1.151656
170160282,170137566,3997730,372.61462,18.15,96928.75,1.1516739
170321086,170298460,3997730,372.6384,18.14,96928.5,1.1516709
170543039,170518015,3997730,372.76788,18.15,96926.99,1.151653
170763464,170740753,3997730,372.76788,18.15,96926.99,1.151653
170924375,170901610,3997730,372.85242,18.15,96926.0,1.1516412
171135415,171115284,3997730,373.02682,18.15,96924.0,1.1516174
171296598,171276038,3997730,373.00302,18.15,96924.25,1.1516204
171527365,171504689,3997730,373.13513,18.15,96922.75,1.1516026
171738506,171718377,3997730,373.28574,18.15,96921.0,1.1515818
171949825,171932220,3997730,373.30692,18.15,96920.74,1.1515788
172110774,172093128,3997730,373.45752,18.15,96918.99,1.1515579
172332006,172309331,3997730,373.41522,18.15,96919.49,1.1515639
172553363,172529068,3997730,373.07706,18.15,96923.4,1.1516103
172714155,172696486,3997730,373.45752,18.15,96918.99,1.1515579
172935188,172912516,3997730,372.789,18.15,96926.75,1.1516501
173146528,173126327,3997730,372.9819,18.16,96924.5,1.1516234
173357745,173340061,3997730,372.81015,18.16,96926.5,1.1516472
173518485,173500868,3997730,372.44287,18.16,96930.75,1.1516976
173739609,173716931,3997730,372.61462,18.16,96928.75,1.1516739
173950704,173930543,3997730,372.3372,18.16,96931.99,1.1517124
174161705,174144045,3997730,372.1628,18.16,96934.0,1.1517363
174322643,174304984,3997730,372.25,18.16,96932.99,1.1517243
174543884,174521159,3997730,372.20505,18.16,96933.5,1.1517303
174755098,174734954,3997730,372.22882,18.17,96933.25,1.1517273
174966275,174948529,3997730,372.22882,18.17,96933.24,1.1517273
175127106,175109443,3997730,372.18393,18.16,96933.75,1.1517333
175348130,175325495,3997730,371.71094,18.16,96939.25,1.1517986
175559545,175539284,3997730,371.99103,18.17,96936.0,1.15176
175720412,175700163,3997730,372.1628,18.17,96934.0,1.1517363
175931585,175913977,3997730,371.3648,18.17,96943.24,1.151846
176152863,176130116,3997730,371.15076,18.17,96945.74,1.1518757
176364024,176343768,3997730,370.13614,18.17,96957.5,1.1520154
176524886,176504739,3997730,370.69632,18.18,96950.99,1.1519382
176736157,176718501,3997730,370.88916,18.17,96948.75,1.1519115
176957396,176934672,3997730,371.01865,18.17,96947.25,1.1518937
177118096,177095396,3997730,371.06357,18.17,96946.75,1.1518878
177339223,177315047,3997730,371.61053,18.18,96940.4,1.1518123
177560688,177537860,3997730,371.86154,18.18,96937.5,1.1517779
177721394,177698675,3997730,371.99103,18.18,96935.99,1.15176
177932675,177912398,3997730,372.4006,18.18,96931.25,1.1517036
178143777,178126055,3997730,372.27112,18.18,96932.74,1.1517214
178364850,178342170,3997730,372.6807,18.18,96928.0,1.151665
178525766,178503050,3997730,372.8313,18.18,96926.25,1.1516442
178737090,178716827,3997730,372.96075,18.18,96924.75,1.1516263
178948206,178930529,3997730,373.30692,18.18,96920.74,1.1515788
179109094,179091453,3997730,373.32803,18.18,96920.49,1.1515758
179330239,179307570,3997730,373.19858,18.18,96922.0,1.1515937
179541503,179521356,3997730,373.373,18.18,96919.99,1.1515698
179712406,179688242,3997730,373.1114,18.19,96923.0,1.1516056
179933778,179910995,3997730,373.24084,18.18,96921.5,1.1515877
180144886,180124636,3997730,373.09024,18.19,96923.25,1.1516086
180355894,180338245,3997730,373.09024,18.19,96923.25,1.1516086
180536787,180506571,3997730,372.80225,18.19,96926.6,1.1516484
180747967,180727720,3997730,372.44287,18.19,96930.75,1.1516976
180959136,180941398,3997730,372.18655,18.19,96933.74,1.1517332
181119897,181102286,3997730,371.8193,18.19,96938.0,1.1517838
181341093,181318408,3997730,371.86154,18.19,96937.49,1.1517777
181552124,181531925,3997730,371.64487,18.19,96940.0,1.1518075
181763346,181745533,3997730,371.60263,18.19,96940.5,1.1518135
181924131,181906430,3997730,371.73206,18.19,96939.0,1.1517956
182145144,182122519,3997730,371.25647,18.19,96944.5,1.1518611
182356463,182336181,3997730,371.38596,18.19,96943.0,1.1518432
182517428,182497168,3997730,371.452,18.199999,96942.24,1.1518342
182728500,182710888,3997730,371.30136,18.19,96943.99,1.151855
182949791,182926967,3997730,371.40707,18.19,96942.75,1.1518402
183161066,183140751,3997730,371.49426,18.199999,96941.75,1.1518284
183321809,183301669,3997730,371.55768,18.199999,96941.0,1.1518195
183533048,183515285,3997730,371.53656,18.199999,96941.25,1.1518224
183754056,183731229,3997730,372.14163,18.199999,96934.24,1.1517391
183965101,183944843,3997730,372.05444,18.199999,96935.24,1.151751
184136046,184111897,3997730,372.42172,18.199999,96930.99,1.1517005
184357258,184334512,3997730,372.46402,18.199999,96930.5,1.1516947
184517982,184495325,3997730,372.5512,18.199999,96929.5,1.1516829
184729290,184709089,3997730,372.57233,18.199999,96929.25,1.1516799
184940311,184922621,3997730,372.9185,18.199999,96925.25,1.1516323
185161602,185138906,3997730,373.1114,18.199999,96923.0,1.1516056
185323330,185299869,3997730,373.1114,18.199999,96923.0,1.1516056
185543626,185525992,3997730,373.19858,18.21,96922.0,1.1515937
185764890,185742133,3997730,373.32803,18.21,96920.49,1.1515758
185925534,185902914,3997730,373.4364,18.21,96919.24,1.1515609
186136808,186116647,3997730,373.373,18.21,96919.99,1.1515698
186348142,186330430,3997730,373.34918,18.21,96920.24,1.1515728
186508997,186491369,3997730,373.04794,18.21,96923.75,1.1516144
186730139,186707512,3997730,373.28574,18.21,96921.0,1.1515818
186941467,186921211,3997730,373.3941,18.21,96919.74,1.1515669
187152679,187134868,3997730,373.30692,18.21,96920.74,1.1515788
187313409,187295777,3997730,373.49982,18.21,96918.5,1.1515521
187534549,187511932,3997730,373.02682,18.21,96924.0,1.1516174
187745814,187725520,3997730,372.96075,18.21,96924.75,1.1516263
187956922,187939152,3997730,372.4878,18.21,96930.25,1.1516917
188117789,188100131,3997730,373.19858,18.21,96922.0,1.1515937
188339041,188316238,3997730,372.6807,18.21,96928.0,1.151665
188560129,188535885,3997730,373.06116,18.21,96923.59,1.1516126
188721055,188703386,3997730,372.93964,18.21,96925.0,1.1516293
188942376,188919658,3997730,372.93964,18.22,96925.0,1.1516293
189153313,189133131,3997730,373.30692,18.21,96920.74,1.1515788
189324289,189300075,3997730,373.37033,18.21,96920.0,1.15157
189545420,189522703,3997730,373.262,18.21,96921.25,1.1515847
189756663,189736462,3997730,373.21973,18.22,96921.75,1.1515907
189917411,189897257,3997730,373.3941,18.22,96919.74,1.1515669
190128528,190110860,3997730,373.41522,18.22,96919.49,1.1515639
190349607,190326930,3997730,373.78253,18.22,96915.25,1.1515135
190560917,190540615,3997730,373.8248,18.22,96914.75,1.1515075
190721541,190701428,3997730,373.8248,18.22,96914.75,1.1515075
190932888,190914982,3997730,373.80368,18.22,96915.0,1.1515105
191153938,191131300,3997730,373.95428,18.22,96913.24,1.1514896
191365215,191345058,3997730,373.7165,18.22,96916.0,1.1515224
191526054,191505853,3997730,373.86972,18.22,96914.24,1.1515015
191737235,191719549,3997730,373.7165,18.22,96916.0,1.1515224
191958540,191935809,3997730,373.587,18.23,96917.49,1.1515402
192119451,192096697,3997730,373.45752,18.23,96918.99,1.1515579
192330526,192310411,3997730,373.5236,18.22,96918.24,1.1515491
192541825,192524078,3997730,373.13513,18.22,96922.75,1.1516026
192763184,192740513,3997730,373.19858,18.23,96922.0,1.1515937
192924102,192901394,3997730,373.19858,18.23,96922.0,1.1515937
193135269,193115056,3997730,372.789,18.23,96926.75,1.1516501
193346333,193328570,3997730,372.6384,18.23,96928.5,1.1516709
193507055,193489384,3997730,372.33453,18.23,96932.0,1.1517125
193728211,193705561,3997730,372.46402,18.23,96930.5,1.1516947
193939493,193919351,3997730,372.44287,18.23,96930.75,1.1516976
194150693,194132937,3997730,372.25,18.23,96932.99,1.1517243
194311473,194293855,3997730,372.4878,18.24,96930.25,1.1516917
194532763,194509937,3997730,372.14163,18.24,96934.25,1.1517392
194743922,194723619,3997730,372.27112,18.23,96932.75,1.1517215
194955030,194937339,3997730,371.8193,18.24,96938.0,1.1517838
195115815,195098105,3997730,371.73206,18.24,96938.99,1.1517956
195337068,195314307,3997730,372.09937,18.24,96934.75,1.1517452
195548196,195527960,3997730,372.07556,18.24,96935.0,1.1517482
195759378,195741462,3997730,371.84042,18.24,96937.74,1.1517807
195920068,195902401,3997730,372.09937,18.24,96934.75,1.1517452
196141104,196118440,3997730,371.9276,18.24,96936.74,1.1517688
196352358,196332121,3997730,371.9461,18.24,96936.5,1.151766
196563571,196545861,3997730,372.05444,18.24,96935.24,1.151751
196724437,196706734,3997730,372.22882,18.24,96933.25,1.1517273
196945779,196922937,3997730,372.31342,18.24,96932.25,1.1517155
197156890,197136686,3997730,372.20505,18.24,96933.5,1.1517303
197317696,197297540,3997730,372.789,18.24,96926.74,1.1516501
197528970,197511284,3997730,372.5089,18.24,96930.0,1.1516887
197750379,197727606,3997730,372.7018,18.24,96927.75,1.151662
197961544,197941333,3997730,372.46402,18.25,96930.5,1.1516947
198122435,198102235,3997730,372.5512,18.25,96929.5,1.1516829
198333555,198315863,3997730,372.6384,18.25,96928.5,1.1516709
198554771,198532068,3997730,372.81015,18.25,96926.5,1.1516472
198765785,198745644,3997730,372.9185,18.25,96925.25,1.1516323
198926784,198906569,3997730,372.7018,18.25,96927.75,1.151662
199137941,199120277,3997730,373.02682,18.25,96924.0,1.1516174
199359200,199336524,3997730,372.74673,18.25,96927.25,1.151656
199520070,199497262,3997730,372.76788,18.25,96926.99,1.151653
199731314,199711114,3997730,372.96075,18.25,96924.75,1.1516263
199942543,199924830,3997730,372.87357,18.25,96925.75,1.1516383
200163702,200141067,3997730,372.96075,18.25,96924.75,1.1516263
200324654,200301980,3997730,373.02682,18.26,96924.0,1.1516174
200535825,200515667,3997730,372.9185,18.26,96925.25,1.1516323
200746896,200729287,3997730,372.789,18.26,96926.75,1.1516501
200927946,200897711,3997730,373.07706,18.26,96923.4,1.1516103
201138971,201118849,3997730,373.09024,18.26,96923.25,1.1516086
201350098,201332472,3997730,372.93964,18.26,96925.0,1.1516293
201511077,201493387,3997730,373.04794,18.26,96923.75,1.1516144
201742305,201722135,3997730,372.8313,18.26,96926.25,1.1516442
201953383,201935716,3997730,373.28574,18.27,96921.0,1.1515818
202134435,202104233,3997730,373.14838,18.26,96922.59,1.1516007
202345557,202325414,3997730,373.45752,18.26,96919.0,1.151558
202556611,202538957,3997730,373.373,18.26,96919.99,1.1515698
202717505,202699860,3997730,373.04794,18.26,96923.75,1.1516144
202948835,202928620,3997730,373.34918,18.27,96920.24,1.1515728
203159866,203142229,3997730,373.3941,18.27,96919.74,1.1515669
203320926,203303228,3997730,373.17743,18.27,96922.25,1.1515967
203542246,203519494,3997730,373.4364,18.27,96919.24,1.1515609
203723257,203699088,3997730,373.16425,18.27,96922.4,1.1515985
203944364,203921660,3997730,373.41522,18.27,96919.5,1.151564
204155547,204135362,3997730,373.45752,18.27,96919.0,1.151558
204366644,204348976,3997730,373.21973,18.27,96921.75,1.1515907
204527524,204509852,3997730,373.3941,18.27,96919.74,1.1515669
204748657,204725977,3997730,373.32803,18.27,96920.49,1.1515758
204959838,204939658,3997730,373.1114,18.27,96923.0,1.1516056
205120796,205100616,3997730,373.13513,18.27,96922.75,1.1516026
205332047,205314423,3997730,373.00302,18.27,96924.25,1.1516204
205553249,205530602,3997730,372.74673,18.27,96927.25,1.151656
205764438,205744270,3997730,372.65955,18.279999,96928.25,1.151668
205925404,205905145,3997730,372.29224,18.27,96932.49,1.1517184
206136425,206118804,3997730,372.65955,18.279999,96928.25,1.151668
206357496,206334835,3997730,372.29224,18.279999,96932.5,1.1517185
206528522,206508410,3997730,372.42172,18.279999,96931.0,1.1517006
206739486,206721851,3997730,372.72293,18.279999,96927.5,1.151659
206960698,206938063,3997730,372.7018,18.279999,96927.75,1.151662
207121646,207098961,3997730,372.74673,18.279999,96927.25,1.151656
207332737,207312577,3997730,372.76788,18.279999,96927.0,1.151653
207543808,207526144,3997730,372.76788,18.279999,96926.99,1.151653
207765009,207742339,3997730,372.4878,18.279999,96930.25,1.1516917
207925882,207903204,3997730,372.89734,18.279999,96925.5,1.1516353
208137007,208116848,3997730,372.7018,18.279999,96927.75,1.151662
208348229,208330571,3997730,372.87357,18.279999,96925.75,1.1516383
208509305,208491659,3997730,373.02682,18.279999,96924.0,1.1516174
208730515,208707892,3997730,373.28574,18.279999,96921.0,1.1515818
208951784,208934090,3997730,373.41522,18.279999,96919.49,1.1515639
209112817,209095112,3997730,373.13513,18.279999,96922.75,1.1516026
209344053,209323810,3997730,373.24084,18.279999,96921.5,1.1515877
209555175,209537425,3997730,373.4364,18.279999,96919.24,1.1515609
209736481,209713641,3997730,373.3941,18.279999,96919.74,1.1515669
209947428,209927247,3997730,373.02682,18.279999,96924.0,1.1516174
210158613,210140946,3997730,373.4364,18.279999,96919.24,1.1515609
210319456,210301766,3997730,373.19858,18.289999,96922.0,1.1515937
210540552,210517892,3997730,373.1563,18.279999,96922.5,1.1515996
210751835,210731506,3997730,373.1114,18.279999,96923.0,1.1516056
210922655,210898469,3997730,373.14838,18.289999,96922.59,1.1516007
211143828,211121078,3997730,372.789,18.279999,96926.74,1.1516501
211354691,211334545,3997730,372.65955,18.279999,96928.25,1.151668
211565842,211548096,3997730,372.76788,18.279999,96926.99,1.151653
211746771,211716565,3997730,372.7309,18.289999,96927.41,1.1516579
211958266,211937878,3997730,372.61462,18.279999,96928.75,1.1516739
212119141,212098916,3997730,372.5089,18.279999,96930.0,1.1516887
212330185,212312533,3997730,372.4878,18.279999,96930.25,1.1516917
212551490,212528829,3997730,372.789,18.279999,96926.74,1.1516501
212764123,212742494,3997730,372.6807,18.289999,96928.0,1.151665
212953687,212930934,3997730,372.53006,18.289999,96929.75,1.1516858
213164721,213144534,3997730,372.6807,18.279999,96928.0,1.151665
213335486,213311334,3997730,372.7309,18.289999,96927.41,1.1516579
213556610,213533934,3997730,372.76788,18.289999,96927.0,1.151653
213717532,213694855,3997730,372.6807,18.289999,96928.0,1.151665
213928891,213908763,3997730,372.8313,18.289999,96926.25,1.1516442
214160403,214137609,3997730,372.8313,18.279999,96926.25,1.1516442
214321221,214298551,3997730,372.81015,18.289999,96926.5,1.1516472
214562623,214539867,3997730,372.789,18.289999,96926.75,1.1516501
214723591,214700806,3997730,372.76788,18.289999,96926.99,1.151653
214934659,214914516,3997730,372.83392,18.279999,96926.24,1.1516441
215145721,215128029,3997730,372.9185,18.289999,96925.25,1.1516323
215366936,215344309,3997730,373.17743,18.289999,96922.25,1.1515967
215527826,215505061,3997730,373.45752,18.289999,96918.99,1.1515579
215738989,215718712,3997730,373.4364,18.289999,96919.24,1.1515609
215950243,215932514,3997730,373.6742,18.289999,96916.5,1.1515284
216111164,216093448,3997730,373.45752,18.289999,96919.0,1.151558
216332833,216309694,3997730,373.32803,18.289999,96920.49,1.1515758
216553526,216535913,3997730,373.47864,18.289999,96918.74,1.151555
216714580,216696827,3997730,373.28574,18.289999,96921.0,1.1515818
216935896,216913165,3997730,373.41522,18.289999,96919.49,1.1515639
217147023,217126845,3997730,373.17743,18.289999,96922.25,1.1515967
217358088,217340470,3997730,373.24084,18.289999,96921.5,1.1515877
217518877,217501236,3997730,373.02682,18.289999,96924.0,1.1516174
217740091,217717438,3997730,372.87357,18.289999,96925.75,1.1516383
217951477,217931309,3997730,373.09024,18.289999,96923.25,1.1516086
218162678,218145031,3997730,372.93964,18.289999,96925.0,1.1516293
218323682,218305902,3997730,372.83392,18.289999,96926.24,1.1516441
218544511,218521881,3997730,372.85242,18.3,96926.0,1.1516412
218755837,218735557,3997730,373.1114,18.289999,96923.0,1.1516056
218916410,218896254,3997730,372.85242,18.289999,96926.0,1.1516412
219128049,219110105,3997730,372.87357,18.289999,96925.75,1.1516383
219349071,219326352,3997730,372.89734,18.289999,96925.5,1.1516353
219560143,219539990,3997730,372.8313,18.3,96926.25,1.1516442
219721106,219700916,3997730,373.02682,18.289999,96924.0,1.1516174
219932402,219914631,3997730,373.04794,18.3,96923.75,1.1516144
220153533,220130886,3997730,372.7018,18.3,96927.75,1.151662
220364835,220344591,3997730,372.81015,18.3,96926.5,1.1516472
220525816,220505671,3997730,372.6384,18.3,96928.5,1.1516709
220736941,220719310,3997730,372.96075,18.289999,96924.75,1.1516263
220958215,220935507,3997730,372.4878,18.289999,96930.25,1.1516917
221119135,221096495,3997730,372.57233,18.289999,96929.25,1.1516799
221330273,221310075,3997730,372.01215,18.3,96935.74,1.151757
221541302,221523660,3997730,372.37946,18.3,96931.49,1.1517065
221762698,221739957,3997730,371.77435,18.3,96938.5,1.1517898
221923552,221900896,3997730,371.60263,18.3,96940.5,1.1518135
222134712,222114563,3997730,371.64487,18.3,96940.0,1.1518075
222296158,222275637,3997730,371.60263,18.3,96940.5,1.1518135
222527009,222504271,3997730,371.58145,18.3,96940.75,1.1518165
222738074,222717871,3997730,371.38596,18.3,96943.0,1.1518432
222949349,222931583,3997730,371.58145,18.3,96940.75,1.1518165
223130286,223100095,3997730,371.7136,18.3,96939.195,1.151798
223341436,223321234,3997730,371.66602,18.3,96939.75,1.1518046
223512184,223488055,3997730,371.66336,18.3,96939.8,1.1518052
223733574,223710828,3997730,371.7955,18.3,96938.25,1.1517868
223944829,223924608,3997730,371.75323,18.3,96938.74,1.1517926
224155959,224138271,3997730,371.9461,18.3,96936.5,1.151766
224316875,224299116,3997730,371.90384,18.3,96936.99,1.1517718
224537985,224515292,3997730,371.55768,18.3,96941.0,1.1518195
224748942,224728812,3997730,372.05444,18.3,96935.24,1.151751
224960167,224942476,3997730,372.1205,18.3,96934.5,1.1517422
225121011,225103381,3997730,372.20505,18.3,96933.5,1.1517303
225342299,225319546,3997730,372.27112,18.3,96932.75,1.1517215
225553433,225533210,3997730,372.5089,18.3,96930.0,1.1516887
225764639,225746894,3997730,372.74673,18.3,96927.25,1.151656
225945590,225915222,3997730,372.69916,18.3,96927.8,1.1516626
226156646,226136456,3997730,372.9185,18.3,96925.25,1.1516323
226327668,226303364,3997730,373.06116,18.3,96923.59,1.1516126
226548682,226526019,3997730,373.02682,18.3,96923.99,1.1516174
226759928,226739685,3997730,373.34918,18.3,96920.24,1.1515728
226920690,226900513,3997730,373.04794,18.3,96923.75,1.1516144
227131942,227114194,3997730,373.41522,18.3,96919.49,1.1515639
227353237,227330412,3997730,373.34918,18.3,96920.24,1.1515728
227564454,227544143,3997730,373.587,18.3,96917.49,1.1515402
227725281,227705055,3997730,373.24084,18.3,96921.5,1.1515877
227936431,227918670,3997730,373.60812,18.3,96917.25,1.1515373
228157581,228134894,3997730,373.17743,18.31,96922.25,1.1515967
228318417,228295701,3997730,373.21973,18.3,96921.75,1.1515907
228529614,228509398,3997730,373.02682,18.3,96924.0,1.1516174
228740757,228723000,3997730,373.02682,18.31,96924.0,1.1516174
228961971,228939231,3997730,373.0691,18.3,96923.5,1.1516116
229123012,229100171,3997730,372.76788,18.3,96926.99,1.151653
229334079,229313903,3997730,373.02682,18.3,96924.0,1.1516174
229565361,229542589,3997730,372.93964,18.3,96925.0,1.1516293
229726269,229703516,3997730,372.81015,18.31,96926.5,1.1516472
229937414,229917236,3997730,372.89734,18.3,96925.5,1.1516353
230148357,230130723,3997730,372.76788,18.31,96927.0,1.151653
230309230,230291506,3997730,372.44287,18.31,96930.75,1.1516976
230530764,230507977,3997730,372.46402,18.31,96930.5,1.1516947
230741876,230721627,3997730,372.31342,18.31,96932.25,1.1517155
230952922,230935286,3997730,372.18655,18.31,96933.74,1.1517332
231113614,231095984,3997730,372.1205,18.31,96934.5,1.1517422
231334787,231312073,3997730,372.27112,18.3,96932.74,1.1517214
231546020,231525645,3997730,372.07556,18.31,96935.0,1.1517482
231757157,231739460,3997730,372.3583,18.3,96931.74,1.1517094
231918068,231900308,3997730,372.03333,18.31,96935.5,1.1517541
232139412,232116618,3997730,372.18393,18.31,96933.75,1.1517333
232350481,232330311,3997730,371.90384,18.3,96936.99,1.1517718
232561523,232543859,3997730,372.27112,18.31,96932.75,1.1517215
232722533,232704847,3997730,372.20505,18.31,96933.5,1.1517303
232943684,232920974,3997730,372.29224,18.3,96932.49,1.1517184
233154722,233134534,3997730,372.3583,18.31,96931.75,1.1517096
233315655,233295439,3997730,372.31342,18.31,96932.25,1.1517155
233526491,233508805,3997730,372.5089,18.31,96930.0,1.1516887
233747762,233725063,3997730,372.4006,18.3,96931.25,1.1517036
233958935,233938748,3997730,372.85242,18.31,96926.0,1.1516412
234119716,234099573,3997730,372.76788,18.31,96927.0,1.151653
234331089,234313256,3997730,372.85242,18.31,96926.0,1.1516412
234552340,234529616,3997730,372.96075,18.3,96924.75,1.1516263
234763591,234743446,3997730,372.789,18.31,96926.74,1.1516501
234924461,234904257,3997730,373.00302,18.31,96924.25,1.1516204
235135682,235117928,3997730,372.85242,18.31,96926.0,1.1516412
235356616,235333964,3997730,372.87357,18.31,96925.75,1.1516383
235517642,235494870,3997730,372.9819,18.31,96924.5,1.1516234
235728674,235708440,3997730,372.789,18.31,96926.74,1.1516501
235960188,235937514,3997730,372.74673,18.31,96927.25,1.151656
236121052,236098335,3997730,372.89734,18.31,96925.5,1.1516353
236332241,236312055,3997730,372.9819,18.31,96924.5,1.1516234
236543529,236525735,3997730,372.6384,18.31,96928.5,1.1516709
236724374,236694128,3997730,372.6622,18.31,96928.2,1.1516674
236935405,236915173,3997730,372.61462,18.31,96928.75,1.1516739
237106126,237081981,3997730,372.63046,18.31,96928.59,1.151672
237327347,237304565,3997730,372.61462,18.31,96928.75,1.1516739
237538322,237518072,3997730,372.4006,18.31,96931.25,1.1517036
237749337,237731704,3997730,372.37946,18.31,96931.5,1.1517066
237910304,237892635,3997730,372.25,18.31,96932.99,1.1517243
238131458,238108768,3997730,372.27112,18.31,96932.74,1.1517214
238342673,238322464,3997730,372.1205,18.31,96934.5,1.1517422
238553847,238536117,3997730,372.18655,18.31,96933.74,1.1517332
238734866,238704585,3997730,372.19714,18.31,96933.61,1.1517316
238945994,238925765,3997730,372.14163,18.31,96934.25,1.1517392
239157228,239139531,3997730,372.14163,18.31,96934.25,1.1517392
239317994,239300352,3997730,372.01215,18.31,96935.76,1.1517571
239539363,239516595,3997730,371.9699,18.31,96936.24,1.151763
239750348,239730139,3997730,371.99103,18.31,96936.0,1.15176
239961545,239943804,3997730,371.77435,18.31,96938.49,1.1517897
240122339,240104655,3997730,371.9276,18.31,96936.74,1.1517688
240343625,240320874,3997730,372.14163,18.31,96934.25,1.1517392
240554803,240534613,3997730,372.25,18.31,96932.99,1.1517243
240725800,240701601,3997730,372.07822,18.31,96934.99,1.1517481
240946954,240924273,3997730,372.07556,18.32,96935.0,1.1517482
241157973,241137801,3997730,372.01215,18.32,96935.75,1.1517571
241318796,241298573,3997730,372.1628,18.32,96934.0,1.1517363
241530086,241512316,3997730,372.01215,18.31,96935.74,1.151757
241751330,241728605,3997730,371.77435,18.32,96938.49,1.1517897
241962367,241942216,3997730,371.86154,18.31,96937.5,1.1517779
242123161,242103044,3997730,371.73206,18.32,96939.0,1.1517956
242334407,242316689,3997730,371.71094,18.32,96939.24,1.1517986
242555554,242532889,3997730,371.75323,18.32,96938.74,1.1517926
242716502,242693755,3997730,371.94876,18.32,96936.49,1.151766
242927511,242907372,3997730,371.86154,18.32,96937.5,1.1517779
243138716,243121017,3997730,371.71094,18.32,96939.24,1.1517986
243359768,243337096,3997730,371.77435,18.32,96938.49,1.1517897
243520553,243497890,3997730,371.53656,18.32,96941.25,1.1518224
243731436,243711300,3997730,371.47314,18.32,96942.0,1.1518313
243962621,243932465,3997730,371.80078,18.32,96938.195,1.1517861
244123425,244100726,3997730,371.452,18.32,96942.25,1.1518342
244334706,244314354,3997730,371.7955,18.32,96938.24,1.1517867
244545682,244528047,3997730,371.60263,18.32,96940.5,1.1518135
244706725,244688969,3997730,371.77435,18.32,96938.5,1.1517898
244927694,244905075,3997730,371.5154,18.32,96941.5,1.1518254
245138999,245118791,3997730,371.77435,18.32,96938.5,1.1517898
245350102,245332495,3997730,371.7955,18.32,96938.24,1.1517867
245511660,245493249,3997730,371.71094,18.32,96939.24,1.1517986
245731977,245709243,3997730,371.99103,18.32,96936.0,1.15176
245943361,245923020,3997730,372.01215,18.32,96935.75,1.1517571
246154366,246136670,3997730,371.9461,18.32,96936.5,1.151766
246315936,246297595,3997730,371.99103,18.32,96936.0,1.15176
246536492,246513829,3997730,372.03333,18.32,96935.5,1.1517541
246747621,246727433,3997730,372.31342,18.32,96932.25,1.1517155
246958684,246941007,3997730,372.37946,18.32,96931.5,1.1517066
247120314,247101905,3997730,372.3583,18.33,96931.75,1.1517096
247340706,247318031,3997730,372.5512,18.32,96929.5,1.1516829
247551896,247531692,3997730,372.59613,18.32,96929.0,1.1516769
247763077,247745469,3997730,372.57233,18.32,96929.25,1.1516799
247924531,247906377,3997730,372.85242,18.32,96926.0,1.1516412
248145252,248122605,3997730,372.72293,18.32,96927.5,1.151659
248356303,248336131,3997730,372.789,18.32,96926.75,1.1516501
248517243,248497021,3997730,372.93964,18.33,96925.0,1.1516293
248728864,248710772,3997730,372.81015,18.33,96926.5,1.1516472
248949657,248926966,3997730,372.87622,18.33,96925.74,1.1516382
249160901,249140694,3997730,372.72293,18.33,96927.5,1.151659
249321898,249301770,3997730,372.89734,18.33,96925.5,1.1516353
249533053,249515364,3997730,373.0691,18.33,96923.5,1.1516116
249754543,249731733,3997730,372.81015,18.33,96926.49,1.1516471
249965679,249945481,3997730,372.87622,18.33,96925.74,1.1516382
250126617,250106437,3997730,372.44287,18.33,96930.75,1.1516976
250337591,250319952,3997730,372.81015,18.33,96926.5,1.1516472
250558687,250536031,3997730,372.76788,18.33,96927.0,1.151653
250719742,250697006,3997730,372.76788,18.33,96927.0,1.151653
250930757,250910617,3997730,372.57233,18.33,96929.25,1.1516799
251162073,251131834,3997730,372.71503,18.33,96927.6,1.1516602
251322824,251300201,3997730,372.65955,18.33,96928.25,1.151668
251533806,251513585,3997730,372.87357,18.33,96925.75,1.1516383
251744926,251727322,3997730,372.42172,18.33,96931.0,1.1517006
251966268,251943488,3997730,372.29224,18.33,96932.49,1.1517184
252127111,252104435,3997730,372.29224,18.33,96932.5,1.1517185
252338305,252318094,3997730,372.44287,18.33,96930.75,1.1516976
252549388,252531764,3997730,372.53006,18.33,96929.75,1.1516858
252710409,252692654,3997730,372.22882,18.33,96933.25,1.1517273
252931588,252908915,3997730,372.4006,18.33,96931.25,1.1517036
253142621,253122443,3997730,372.42172,18.33,96930.99,1.1517005
253353832,253336119,3997730,372.18393,18.33,96933.75,1.1517333
253514969,253497056,3997730,372.3583,18.33,96931.74,1.1517094
253736211,253713505,3997730,372.4878,18.33,96930.25,1.1516917
253947239,253927044,3997730,372.5512,18.33,96929.5,1.1516829
254158609,254140958,3997730,372.9819,18.33,96924.5,1.1516234
254319352,254301723,3997730,373.02682,18.33,96924.0,1.1516174
254540516,254517832,3997730,372.6807,18.33,96928.0,1.151665
254751808,254731483,3997730,372.65955,18.33,96928.25,1.151668
254962909,254945240,3997730,373.00302,18.34,96924.25,1.1516204
255123732,255106085,3997730,372.9185,18.33,96925.25,1.1516323
255345102,255322385,3997730,372.789,18.34,96926.74,1.1516501
255556337,255536188,3997730,372.9185,18.33,96925.25,1.1516323
255717259,255697005,3997730,373.04794,18.33,96923.75,1.1516144
255948309,255925645,3997730,372.9819,18.33,96924.5,1.1516234
256159469,256139306,3997730,373.02682,18.33,96924.0,1.1516174
256320299,256300089,3997730,373.04794,18.33,96923.75,1.1516144
256531589,256513821,3997730,373.02682,18.33,96924.0,1.1516174
256752806,256730067,3997730,373.17743,18.33,96922.25,1.1515967
256964076,256943927,3997730,372.5512,18.33,96929.51,1.1516829
257124994,257104649,3997730,372.89734,18.33,96925.5,1.1516353
257336004,257318349,3997730,372.9185,18.33,96925.25,1.1516323
257557100,257534377,3997730,373.02682,18.33,96924.0,1.1516174
257717915,257695267,3997730,372.83392,18.33,96926.24,1.1516441
257929388,257909167,3997730,372.93964,18.33,96925.0,1.1516293
258140504,258122879,3997730,372.8313,18.33,96926.25,1.1516442
258321420,258291210,3997730,372.3874,18.33,96931.4,1.1517054
258532547,258512320,3997730,372.4878,18.33,96930.25,1.1516917
258763637,258740993,3997730,372.57233,18.33,96929.25,1.1516799
258924610,258901847,3997730,372.42172,18.33,96931.0,1.1517006
259135676,259115465,3997730,372.4878,18.33,96930.25,1.1516917
259346836,259329126,3997730,371.96725,18.33,96936.26,1.1517631
259507635,259489953,3997730,371.9276,18.34,96936.74,1.1517688
259728808,259706083,3997730,371.9461,18.34,96936.5,1.151766
259939817,259919644,3997730,372.09937,18.33,96934.75,1.1517452
260150848,260133196,3997730,372.3583,18.33,96931.75,1.1517096
260331867,260301611,3997730,372.5089,18.33,96930.0,1.1516887
260543140,260522880,3997730,372.42172,18.34,96931.0,1.1517006
260754154,260736510,3997730,372.29224,18.33,96932.49,1.1517184
260914980,260897344,3997730,372.5089,18.33,96930.0,1.1516887
261136113,261113400,3997730,372.4006,18.33,96931.25,1.1517036
261347453,261327211,3997730,372.6807,18.33,96928.0,1.151665
261558580,261540838,3997730,372.65955,18.34,96928.25,1.151668
261719400,261701757,3997730,372.789,18.33,96926.75,1.1516501
261940549,261917840,3997730,372.76788,18.34,96927.0,1.151653
262151863,262131648,3997730,372.81015,18.33,96926.5,1.1516472
262362924,262345260,3997730,372.93964,18.33,96925.0,1.1516293
262523802,262506125,3997730,372.76788,18.33,96927.0,1.151653
262745038,262722268,3997730,372.93964,18.34,96925.0,1.1516293
262956079,262935933,3997730,372.87622,18.33,96925.74,1.1516382
263167082,263149369,3997730,372.76788,18.33,96926.99,1.151653
263327753,263310138,3997730,372.93964,18.33,96925.0,1.1516293
263549027,263526377,3997730,372.83392,18.34,96926.24,1.1516441
263760129,263739988,3997730,372.8313,18.33,96926.25,1.1516442
263921148,263900957,3997730,372.83392,18.33,96926.24,1.1516441
264132331,264114666,3997730,372.81015,18.34,96926.5,1.1516472
264353760,264330914,3997730,372.81015,18.33,96926.5,1.1516472
264564604,264544433,3997730,372.789,18.34,96926.75,1.1516501
264725427,264705226,3997730,372.3583,18.34,96931.75,1.1517096
264936538,264918932,3997730,372.4878,18.34,96930.25,1.1516917
265157730,265135071,3997730,371.66602,18.34,96939.75,1.1518046
265318670,265296041,3997730,372.1205,18.33,96934.5,1.1517422
265529985,265509839,3997730,372.1628,18.33,96934.0,1.1517363
265741006,265723372,3997730,372.03333,18.34,96935.5,1.1517541
265962310,265939520,3997730,371.43085,18.34,96942.5,1.1518372
266123084,266100461,3997730,372.05444,18.33,96935.25,1.1517512
266344333,266320109,3997730,371.61053,18.34,96940.4,1.1518123
266565680,266542817,3997730,372.03333,18.33,96935.5,1.1517541
266726514,266703749,3997730,371.88272,18.33,96937.25,1.1517749
266937517,266917362,3997730,371.71094,18.33,96939.24,1.1517986
267148620,267130982,3997730,372.1205,18.33,96934.5,1.1517422
267309510,267291841,3997730,372.01215,18.33,96935.76,1.1517571
267530857,267507927,3997730,372.25,18.33,96933.0,1.1517243
267741876,267721745,3997730,371.9461,18.34,96936.5,1.151766
267952892,267935276,3997730,372.14163,18.33,96934.25,1.1517392
268113799,268096134,3997730,372.20505,18.33,96933.5,1.1517303
268335144,268312182,3997730,372.37946,18.34,96931.49,1.1517065
268545927,268525803,3997730,372.29224,18.33,96932.5,1.1517185
268757407,268739401,3997730,372.33453,18.33,96932.0,1.1517125
268918090,268900418,3997730,372.44287,18.33,96930.75,1.1516976
269139140,269116431,3997730,372.53006,18.33,96929.75,1.1516858
269350072,269329957,3997730,372.59613,18.33,96929.0,1.1516769
269561522,269543559,3997730,372.87357,18.33,96925.75,1.1516383
269722109,269704467,3997730,372.72293,18.33,96927.5,1.151659
269943485,269920496,3997730,372.9185,18.33,96925.25,1.1516323
270164424,270146733,3997730,373.28574,18.33,96921.0,1.1515818
270325150,270307510,3997730,373.32803,18.34,96920.49,1.1515758
270546520,270523881,3997730,373.32803,18.33,96920.49,1.1515758
270757594,270737407,3997730,373.47864,18.34,96918.74,1.151555
270918522,270898300,3997730,373.4364,18.33,96919.24,1.1515609
271129598,271111889,3997730,373.6742,18.33,96916.5,1.1515284
271350728,271328025,3997730,373.56583,18.33,96917.75,1.1515431
271561730,271541560,3997730,373.5236,18.33,96918.24,1.1515491
271722743,271702516,3997730,373.32803,18.33,96920.49,1.1515758
271933956,271916164,3997730,373.5236,18.33,96918.25,1.1515491
272155051,272132345,3997730,373.50244,18.33,96918.49,1.151552
272366397,272345939,3997730,373.262,18.33,96921.25,1.1515847
272537185,272519428,3997730,373.4364,18.33,96919.25,1.151561
272758450,272735689,3997730,373.21973,18.33,96921.75,1.1515907
272919344,272896633,3997730,373.41522,18.33,96919.5,1.151564
273130539,273110197,3997730,373.24084,18.33,96921.5,1.1515877
273341374,273323731,3997730,373.13513,18.33,96922.75,1.1516026
273562627,273539931,3997730,373.0691,18.33,96923.5,1.1516116
273723377,273700689,3997730,372.8313,18.33,96926.25,1.1516442
273934594,273914333,3997730,372.93964,18.33,96925.0,1.1516293
274145608,274127909,3997730,372.81015,18.33,96926.49,1.1516471
274366613,274343952,3997730,373.24084,18.33,96921.5,1.1515877
274537606,274517462,3997730,373.09024,18.33,96923.25,1.1516086
274748745,274731012,3997730,373.04794,18.33,96923.75,1.1516144
274909535,274891929,3997730,372.98453,18.34,96924.49,1.1516232
275130739,275108002,3997730,372.89734,18.33,96925.5,1.1516353
275341785,275321608,3997730,372.9185,18.33,96925.25,1.1516323
275553142,275535390,3997730,373.1114,18.33,96923.0,1.1516056
275714006,275696367,3997730,373.17743,18.33,96922.25,1.1515967
275935021,275912393,3997730,373.17743,18.33,96922.25,1.1515967
276156169,276138518,3997730,373.19858,18.33,96922.0,1.1515937
276316943,276299314,3997730,373.21973,18.33,96921.75,1.1515907
276538329,276515655,3997730,373.373,18.33,96919.99,1.1515698
276749819,276729425,3997730,373.04794,18.34,96923.75,1.1516144
276960794,276943117,3997730,373.6953,18.33,96916.25,1.1515254
277121442,277103829,3997730,373.95428,18.33,96913.25,1.1514897
277342512,277319875,3997730,373.78253,18.33,96915.25,1.1515135
277553693,277533513,3997730,374.06262,18.33,96912.0,1.1514748
277765013,277747223,3997730,374.126,18.33,96911.25,1.151466
277925745,277908117,3997730,374.0177,18.34,96912.5,1.1514808
278156921,278136808,3997730,374.23438,18.33,96910.0,1.1514511
278367979,278350316,3997730,374.27664,18.33,96909.5,1.1514452
278528733,278511110,3997730,374.2555,18.34,96909.74,1.151448
278749908,278727255,3997730,373.9754,18.33,96912.99,1.1514866
278911038,278888021,3997730,374.17093,18.33,96910.75,1.15146
279131974,279114321,3997730,374.1049,18.33,96911.5,1.151469
279353120,279330400,3997730,373.80368,18.33,96915.0,1.1515105
279564346,279544178,3997730,373.47864,18.33,96918.75,1.1515551
279735527,279711056,3997730,373.44168,18.33,96919.2,1.1515604
279956455,279933788,3997730,372.87357,18.33,96925.75,1.1516383
280167493,280147269,3997730,373.19858,18.33,96922.0,1.1515937
280328290,280308042,3997730,372.96075,18.33,96924.75,1.1516263
280539473,280521769,3997730,372.85242,18.33,96926.0,1.1516412
280760701,280738005,3997730,373.19858,18.33,96922.0,1.1515937
280921598,280898781,3997730,372.93964,18.33,96925.0,1.1516293
281132747,281112574,3997730,372.98453,18.33,96924.49,1.1516232
281363886,281341267,3997730,372.42172,18.33,96930.99,1.1517005
281524837,281502075,3997730,372.7018,18.33,96927.75,1.151662
281745982,281721725,3997730,372.40588,18.34,96931.19,1.1517029
281906902,281889199,3997730,372.18393,18.33,96933.75,1.1517333
282128035,282105384,3997730,372.05444,18.34,96935.25,1.1517512
282339153,282318940,3997730,372.03333,18.33,96935.5,1.1517541
282550529,282532888,3997730,371.58145,18.34,96940.75,1.1518165
282711468,282693717,3997730,372.20505,18.34,96933.5,1.1517303
282952813,282928639,3997730,371.90384,18.34,96936.99,1.1517718
283113909,283096209,3997730,371.99103,18.33,96935.99,1.15176
283345144,283324897,3997730,372.22882,18.34,96933.25,1.1517273
283556209,283538579,3997730,372.29224,18.34,96932.49,1.1517184
283737239,283707033,3997730,372.30286,18.34,96932.39,1.1517172
283948423,283928246,3997730,372.7018,18.33,96927.75,1.151662
284119300,284095066,3997730,372.6463,18.33,96928.4,1.1516697
284340507,284317845,3997730,372.8313,18.34,96926.25,1.1516442
284551572,284531435,3997730,372.59613,18.34,96929.0,1.1516769
284762669,284745029,3997730,372.85242,18.34,96926.0,1.1516412
284943658,284921006,3997730,372.81015,18.34,96926.49,1.1516471
285154891,285134721,3997730,372.81015,18.34,96926.49,1.1516471
285366319,285348498,3997730,372.65955,18.34,96928.25,1.151668
285527120,285509495,3997730,372.81015,18.34,96926.5,1.1516472
285748183,285725515,3997730,372.44287,18.34,96930.75,1.1516976
285959243,285939120,3997730,372.42172,18.34,96931.0,1.1517006
286120247,286100074,3997730,372.29224,18.34,96932.49,1.1517184
286331438,286313811,3997730,372.1628,18.34,96934.0,1.1517363
286562720,286542456,3997730,372.07556,18.34,96935.0,1.1517482
286723580,286703436,3997730,372.03333,18.34,96935.5,1.1517541
286934753,286916986,3997730,371.9276,18.34,96936.74,1.1517688
287155828,287133195,3997730,371.77435,18.33,96938.5,1.1517898
287326809,287306629,3997730,371.9699,18.34,96936.24,1.151763
287537769,287520162,3997730,371.99103,18.34,96935.99,1.15176
287718797,287696105,3997730,372.31604,18.34,96932.24,1.1517154
287929914,287909793,3997730,372.1205,18.34,96934.5,1.1517422
288141058,288123406,3997730,372.3372,18.34,96931.99,1.1517124
288362207,288339576,3997730,372.5089,18.34,96930.0,1.1516887
288523122,288500482,3997730,372.6384,18.34,96928.5,1.1516709
288734425,288714269,3997730,372.3583,18.33,96931.75,1.1517096
288945588,288927980,3997730,372.7018,18.34,96927.75,1.151662
289106530,289088903,3997730,372.7018,18.33,96927.75,1.151662
289327652,289304978,3997730,372.72293,18.33,96927.5,1.151659
289538620,289518490,3997730,372.5512,18.34,96929.5,1.1516829
289749864,289732180,3997730,372.4878,18.34,96930.25,1.1516917
289910881,289893256,3997730,372.61462,18.34,96928.75,1.1516739
290132072,290109362,3997730,372.4006,18.34,96931.24,1.1517035
290343081,290322965,3997730,372.37946,18.33,96931.49,1.1517065
290554166,290536528,3997730,372.44287,18.34,96930.75,1.1516976
290715018,290697370,3997730,372.46402,18.34,96930.5,1.1516947
290946272,290926119,3997730,372.25,18.34,96932.99,1.1517243
291157425,291139788,3997730,372.31342,18.33,96932.25,1.1517155
291318367,291300677,3997730,372.1628,18.33,96934.0,1.1517363
291539537,291516889,3997730,372.27112,18.34,96932.75,1.1517215
291720412,291696254,3997730,372.44022,18.34,96930.8,1.1516982
291941472,291918848,3997730,372.4006,18.34,96931.25,1.1517036
292152837,292132677,3997730,372.31342,18.34,96932.25,1.1517155
292364073,292346405,3997730,372.29224,18.34,96932.49,1.1517184
292525026,292507378,3997730,372.29224,18.34,96932.5,1.1517185
292746185,292723567,3997730,372.14163,18.33,96934.25,1.1517392
292917163,292897010,3997730,372.29224,18.33,96932.49,1.1517184
293128534,293110778,3997730,372.20505,18.33,96933.5,1.1517303
293349814,293326977,3997730,372.09937,18.34,96934.74,1.1517451
293560955,293540740,3997730,371.9461,18.33,96936.5,1.151766
293721779,293701628,3997730,371.64487,18.33,96940.0,1.1518075
293933167,293915394,3997730,371.83777,18.34,96937.76,1.151781
294154403,294131694,3997730,371.84042,18.34,96937.75,1.1517808
294365525,294345372,3997730,371.88272,18.33,96937.25,1.1517749
294526302,294506137,3997730,371.8193,18.33,96938.0,1.1517838
294737553,294719837,3997730,372.09937,18.33,96934.74,1.1517451
294958737,294935956,3997730,372.27112,18.34,96932.74,1.1517214
295119721,295096990,3997730,372.1205,18.33,96934.5,1.1517422
295330882,295310608,3997730,372.18655,18.34,96933.74,1.1517332
295542544,295524272,3997730,372.27112,18.33,96932.74,1.1517214
295763017,295740392,3997730,372.33453,18.33,96932.0,1.1517125
295923907,295901177,3997730,372.3372,18.33,96931.99,1.1517124
296135170,296114940,3997730,372.53006,18.33,96929.75,1.1516858
296346088,296328319,3997730,372.42172,18.34,96931.0,1.1517006
296506827,296489203,3997730,372.5512,18.33,96929.5,1.1516829
296728381,296705558,3997730,372.42172,18.34,96931.0,1.1517006
296939604,296919425,3997730,372.89734,18.34,96925.5,1.1516353
297150633,297132996,3997730,372.7018,18.33,96927.75,1.151662
297311463,297293836,3997730,373.02682,18.33,96924.0,1.1516174
297533019,297510119,3997730,372.8313,18.34,96926.25,1.1516442
297744077,297723824,3997730,372.74673,18.33,96927.25,1.151656
297955290,297937480,3997730,372.76788,18.33,96927.0,1.151653
298116041,298098277,3997730,372.87357,18.33,96925.75,1.1516383
298337252,298314451,3997730,372.61462,18.33,96928.75,1.1516739
298548545,298528341,3997730,372.53006,18.33,96929.75,1.1516858
298759678,298742058,3997730,372.42172,18.33,96931.0,1.1517006
298920643,298902887,3997730,372.33453,18.33,96932.0,1.1517125
299142179,299118925,3997730,372.37946,18.33,96931.5,1.1517066
299362782,299345147,3997730,371.99103,18.33,96936.01,1.1517601
299524280,299505985,3997730,372.44287,18.33,96930.75,1.1516976
299744943,299722233,3997730,372.61462,18.33,96928.75,1.1516739
299956319,299935757,3997730,372.29224,18.33,96932.49,1.1517184
300116973,300096780,3997730,372.20505,18.33,96933.5,1.1517303
300328022,300310286,3997730,372.27112,18.33,96932.75,1.1517215
300549072,300526414,3997730,372.14163,18.33,96934.25,1.1517392
300760205,300740009,3997730,372.14163,18.33,96934.25,1.1517392
300921266,300901034,3997730,371.86154,18.33,96937.5,1.1517779
301132996,301114819,3997730,372.05444,18.33,96935.25,1.1517512
301353745,301331120,3997730,372.03333,18.33,96935.5,1.1517541
301515292,301492142,3997730,371.86154,18.33,96937.5,1.1517779
301736011,301718370,3997730,371.71094,18.33,96939.24,1.1517986
301957165,301934461,3997730,371.7955,18.33,96938.24,1.1517867
302118067,302095364,3997730,371.7955,18.33,96938.24,1.1517867
302329368,302309170,3997730,371.94876,18.33,96936.49,1.151766
302540369,302522696,3997730,371.9276,18.33,96936.74,1.1517688
302761565,302738878,3997730,372.1628,18.33,96934.0,1.1517363
302922685,302899966,3997730,372.31342,18.33,96932.25,1.1517155
303133695,303113460,3997730,372.18393,18.33,96933.75,1.1517333
303344950,303327317,3997730,372.5512,18.33,96929.5,1.1516829
303506240,303488150,3997730,372.7018,18.33,96927.75,1.151662
303726983,303704362,3997730,372.83392,18.33,96926.24,1.1516441
303938248,303918100,3997730,373.02682,18.33,96924.0,1.1516174
304149505,304131781,3997730,373.262,18.33,96921.25,1.1515847
304310413,304292750,3997730,373.17743,18.33,96922.25,1.1515967
304531521,304508875,3997730,373.28574,18.33,96921.0,1.1515818
304752780,304728538,3997730,373.21707,18.33,96921.8,1.1515913
304913726,304896056,3997730,373.19858,18.33,96922.0,1.1515937
305134738,305112090,3997730,373.1114,18.33,96923.0,1.1516056
305345985,305325750,3997730,373.1114,18.33,96923.0,1.1516056
305557125,305539407,3997730,373.21973,18.33,96921.75,1.1515907
305717942,305700312,3997730,373.04794,18.33,96923.75,1.1516144
305939065,305916405,3997730,373.04794,18.33,96923.75,1.1516144
306150325,306130034,3997730,372.72293,18.33,96927.5,1.151659
306361424,306343774,3997730,372.93964,18.33,96925.0,1.1516293
306522365,306504667,3997730,373.04794,18.33,96923.74,1.1516144
306743483,306720793,3997730,372.789,18.33,96926.75,1.1516501
306954686,306934504,3997730,372.85504,18.33,96925.99,1.1516411
307165695,307148028,3997730,372.31342,18.33,96932.25,1.1517155
307326511,307308904,3997730,372.57233,18.33,96929.25,1.1516799
307547702,307524915,3997730,372.789,18.33,96926.75,1.1516501
307758712,307738575,3997730,372.4006,18.33,96931.24,1.1517035
307919730,307899397,3997730,372.65955,18.33,96928.25,1.151668
308130694,308113082,3997730,372.3372,18.33,96931.99,1.1517124
308352062,308329350,3997730,372.4006,18.32,96931.25,1.1517036
308563280,308543028,3997730,372.37946,18.33,96931.5,1.1517066
308724124,308703964,3997730,372.27112,18.33,96932.75,1.1517215
308935364,308917690,3997730,372.1205,18.33,96934.5,1.1517422
309156688,309133983,3997730,371.99103,18.32,96936.0,1.15176
309317541,309294892,3997730,371.7955,18.33,96938.24,1.1517867
309528692,309508495,3997730,371.55768,18.32,96941.0,1.1518195
309739997,309722312,3997730,371.71094,18.33,96939.24,1.1517986
309961405,309938729,3997730,371.88272,18.33,96937.25,1.1517749
310122241,310099542,3997730,371.9461,18.33,96936.5,1.151766
310333521,310313313,3997730,371.88272,18.32,96937.24,1.1517748
310544494,310526864,3997730,371.99103,18.32,96935.99,1.15176
310705435,310687742,3997730,371.86154,18.32,96937.5,1.1517779
310926581,310903909,3997730,371.71094,18.32,96939.24,1.1517986
311137621,311117370,3997730,371.7955,18.32,96938.24,1.1517867
311348787,311331041,3997730,371.66602,18.32,96939.75,1.1518046
311509612,311491972,3997730,371.90384,18.32,96937.0,1.1517719
311730684,311708064,3997730,371.68716,18.32,96939.5,1.1518016
311941885,311921706,3997730,371.75323,18.32,96938.74,1.1517926
312152921,312135253,3997730,371.7955,18.33,96938.24,1.1517867
312313688,312296078,3997730,371.75323,18.32,96938.74,1.1517926
312534932,312512266,3997730,371.62375,18.32,96940.25,1.1518105
312756166,312731914,3997730,371.66336,18.32,96939.8,1.1518052
312916923,312899311,3997730,371.8193,18.32,96938.0,1.1517838
313138053,313115383,3997730,372.1628,18.32,96934.0,1.1517363
313349103,313328928,3997730,372.3583,18.32,96931.75,1.1517096
313560428,313542714,3997730,372.29224,18.32,96932.49,1.1517184
313721227,313703615,3997730,372.3372,18.32,96931.99,1.1517124
313942754,313920053,3997730,372.46402,18.32,96930.5,1.1516947
314154026,314133730,3997730,372.61462,18.32,96928.75,1.1516739
314325076,314300690,3997730,372.93964,18.32,96925.0,1.1516293
314546045,314523372,3997730,372.6807,18.32,96928.0,1.151665
314757237,314737034,3997730,372.96075,18.32,96924.75,1.1516263
314918047,314897869,3997730,372.76788,18.32,96926.99,1.151653
315129426,315111746,3997730,372.87357,18.32,96925.75,1.1516383
315350534,315327788,3997730,373.04794,18.32,96923.75,1.1516144
315561783,315541620,3997730,373.1563,18.32,96922.5,1.1515996
315722668,315702439,3997730,373.00302,18.32,96924.25,1.1516204
315933649,315915892,3997730,373.09024,18.32,96923.25,1.1516086
316154663,316131926,3997730,373.02682,18.32,96924.0,1.1516174
316315676,316292915,3997730,373.13513,18.32,96922.75,1.1516026
316526702,316506466,3997730,373.00302,18.32,96924.25,1.1516204
316737649,316719963,3997730,373.0691,18.32,96923.49,1.1516114
316958883,316936120,3997730,373.04794,18.32,96923.75,1.1516144
317119611,317096990,3997730,372.93964,18.32,96925.0,1.1516293
317330953,317310683,3997730,372.74673,18.32,96927.25,1.151656
317562305,317531988,3997730,372.88678,18.32,96925.6,1.1516365
317723206,317700580,3997730,373.04794,18.32,96923.75,1.1516144
317934530,317914230,3997730,372.6807,18.32,96928.0,1.151665
318145589,318127959,3997730,372.76788,18.31,96927.0,1.151653
318326670,318296348,3997730,372.44022,18.32,96930.8,1.1516982
318537956,318517676,3997730,372.27112,18.32,96932.75,1.1517215
318748902,318731210,3997730,372.57233,18.31,96929.26,1.1516799
318909784,318892090,3997730,372.3583,18.31,96931.75,1.1517096
319131165,319108413,3997730,372.20505,18.32,96933.5,1.1517303
319342444,319322255,3997730,372.5089,18.31,96930.0,1.1516887
319513407,319489137,3997730,372.5089,18.32,96930.0,1.1516887
319734343,319711688,3997730,372.42172,18.31,96930.99,1.1517005
319945556,319925303,3997730,372.65955,18.31,96928.25,1.151668
320156657,320138973,3997730,372.46402,18.31,96930.5,1.1516947
320317483,320299852,3997730,372.09937,18.32,96934.75,1.1517452
320538727,320516005,3997730,372.59613,18.31,96929.0,1.1516769
320749761,320729593,3997730,372.37946,18.32,96931.49,1.1517065
320960974,320943288,3997730,372.20505,18.31,96933.5,1.1517303
321121771,321104135,3997730,372.42172,18.31,96930.99,1.1517005
321342959,321320260,3997730,372.27112,18.31,96932.74,1.1517214
321554199,321533964,3997730,372.5089,18.31,96930.0,1.1516887
321714989,321694845,3997730,372.42172,18.31,96930.99,1.1517005
321926316,321908569,3997730,372.53006,18.31,96929.75,1.1516858
322147445,322124738,3997730,372.61462,18.31,96928.75,1.1516739
322358492,322338292,3997730,372.65955,18.31,96928.25,1.151668
322519269,322499075,3997730,372.89734,18.31,96925.49,1.1516352
322730399,322712748,3997730,372.65955,18.31,96928.25,1.151668
322951511,322928831,3997730,372.59613,18.31,96929.0,1.1516769
323162640,323142461,3997730,372.6807,18.31,96928.0,1.151665
323323454,323303272,3997730,372.89734,18.31,96925.5,1.1516353
323554597,323524353,3997730,372.76788,18.31,96927.0,1.151653
323765732,323745541,3997730,372.76788,18.31,96927.0,1.151653
323926678,323906545,3997730,372.5512,18.31,96929.51,1.1516829
324137765,324120110,3997730,372.6807,18.31,96928.0,1.151665
324358824,324336126,3997730,372.5512,18.31,96929.5,1.1516829
324519766,324497139,3997730,372.65955,18.31,96928.25,1.151668
324730811,324710690,3997730,372.81015,18.31,96926.49,1.1516471
324942078,324924373,3997730,372.6384,18.31,96928.5,1.1516709
325163428,325140685,3997730,372.6384,18.31,96928.5,1.1516709
325324168,325301486,3997730,372.9185,18.31,96925.25,1.1516323
325545337,325521129,3997730,372.81808,18.31,96926.4,1.1516459
325706093,325688442,3997730,372.6807,18.31,96928.0,1.151665
325927122,325904490,3997730,372.61462,18.31,96928.75,1.1516739
326138332,326118160,3997730,372.29224,18.31,96932.49,1.1517184
326349611,326331832,3997730,372.5512,18.31,96929.5,1.1516829
326510497,326492882,3997730,372.7018,18.3,96927.75,1.151662
326731575,326708919,3997730,372.25,18.31,96932.99,1.1517243
326942624,326922511,3997730,372.53006,18.31,96929.75,1.1516858
327104219,327083308,3997730,372.20505,18.31,96933.5,1.1517303
327334880,327312263,3997730,372.59613,18.31,96929.0,1.1516769
327545926,327525777,3997730,372.61462,18.31,96928.75,1.1516739
327757110,327739476,3997730,372.46402,18.31,96930.5,1.1516947
327918359,327900178,3997730,372.72293,18.31,96927.5,1.151659
328139076,328116339,3997730,372.42172,18.3,96931.0,1.1517006
328350002,328329871,3997730,372.4878,18.3,96930.25,1.1516917
328561228,328543540,3997730,372.6384,18.31,96928.5,1.1516709
328722379,328704518,3997730,372.76788,18.31,96927.0,1.151653
328943421,328920674,3997730,372.72293,18.3,96927.5,1.151659
329154706,329134221,3997730,372.6384,18.3,96928.5,1.1516709
329325477,329307746,3997730,372.85504,18.3,96925.99,1.1516411
329546450,329523760,3997730,372.44287,18.31,96930.75,1.1516976
329757684,329737548,3997730,372.44287,18.3,96930.75,1.1516976
329918825,329898453,3997730,372.31342,18.31,96932.25,1.1517155
330129650,330112029,3997730,371.9699,18.3,96936.25,1.151763
330351073,330328177,3997730,372.22882,18.31,96933.24,1.1517273
330521861,330501616,3997730,371.86154,18.3,96937.49,1.1517777
330733455,330715229,3997730,372.05444,18.3,96935.25,1.1517512
330954062,330931335,3997730,371.90384,18.3,96937.0,1.1517719
331165372,331145124,3997730,371.9461,18.31,96936.5,1.151766
331326365,331306131,3997730,372.07556,18.3,96935.0,1.1517482
