timestamp,timestamp_sample,accel_device_id,gyro_device_id,delta_angle[0],delta_angle[1],delta_angle[2],delta_velocity[0],delta_velocity[1],delta_velocity[2],delta_angle_dt,delta_velocity_dt,delta_velocity_clipping
143362860,143362560,3932170,3932170,-6.157263e-05,0.00013240523,-9.504303e-05,-0.00036523442,-0.0027991047,-0.048675437,4993,4993,0
143367807,143367555,3932170,3932170,-6.53093e-05,-0.00011406713,3.1472668e-05,9.850751e-05,-0.0018735627,-0.048304357,4995,4995,0
143866781,143866454,3932170,3932170,-0.00010647987,3.5592206e-05,-0.0002256929,-0.0023543842,-0.005309639,-0.048403874,4970,4970,0
144365660,144365366,3932170,3932170,0.0003199971,0.0004328719,3.0912983e-05,0.0049827546,-0.0027764896,-0.047653712,4964,4964,0
144864497,144863891,3932170,3932170,0.00038829533,0.0003128133,0.00021148137,0.0018037626,0.0013236295,-0.049219698,4990,4990,0
145367953,145367660,3932170,3932170,-0.00026124495,0.00023197194,0.00050911197,0.0029686699,0.00048127823,-0.04902997,4988,4988,0
145861702,145861455,3932170,3932170,-0.0007053723,-5.382162e-05,0.00028281275,0.013298625,-0.015342739,-0.054819077,4985,4985,0
146365469,146365225,3932170,3932170,-0.000874668,0.00055286416,-0.0003229084,-0.007956125,-0.003133757,-0.04575803,4986,4986,0
146864957,146864010,3932170,3932170,1.3583797e-05,-0.0006832678,-0.0011370151,0.009965389,-0.0010747203,-0.045121472,4989,4989,0
147363084,147362866,3932170,3932170,-0.0004268207,3.9398015e-05,-0.00052968954,-0.001762194,0.0040803757,-0.04483522,4971,4971,0
147867291,147866846,3932170,3932170,0.00035557753,-0.0005567403,-0.00056071015,0.01455514,0.005074429,-0.045341916,5003,5003,0
148365621,148365366,3932170,3932170,0.00024199545,-0.00037034875,0.0006882385,0.00951137,0.0014747813,-0.05245151,4995,4995,0
148864373,148864128,3932170,3932170,-0.0005539738,0.00082401116,0.00030694332,0.0011691665,-0.0036851526,-0.051666416,4987,4987,0
149363207,149362912,3932170,3932170,-4.6523117e-05,0.00081071776,0.00019589976,-0.009250952,0.012549298,-0.04770263,4988,4988,0
149862034,149861698,3932170,3932170,-0.0003464484,0.00027689475,0.0001263007,-0.0014884734,0.008002148,-0.04776774,4991,4991,0
150365805,150365466,3932170,3932170,-0.00055431284,-0.00020635629,-0.0012067637,0.00050553103,-0.0067155166,-0.04607973,4984,4984,0
150864641,150864369,3932170,3932170,8.805075e-05,0.00013362996,-0.0006150619,0.0010735473,-0.005444667,-0.053777564,4971,4971,0
151363596,151363300,3932170,3932170,0.00013885154,-0.00038694552,-0.00039428985,0.0009750217,-0.0051015583,-0.04484997,4975,4975,0
151867079,151866803,3932170,3932170,-0.0005931453,-0.0013713754,0.0010191862,-0.004282907,0.0004789994,-0.04690668,4987,4987,0
152365974,152365590,3932170,3932170,-0.00076348975,0.0015222215,0.00062616053,0.0007183745,0.014557942,-0.05626467,4990,4990,0
152864651,152864370,3932170,3932170,0.00014532795,-0.0007143843,-0.00048684457,-0.0011868862,-0.016978964,-0.046078153,4985,4985,0
153363682,153363156,3932170,3932170,9.0500784e-05,-8.337816e-05,-0.00015945347,-0.0048183403,-0.009021972,-0.048277132,4989,4989,0
153862240,153861940,3932170,3932170,5.5648652e-05,-1.0283847e-05,-0.00070552365,8.2620914e-05,0.0042338166,-0.045924567,4990,4990,0
154366210,154365761,3932170,3932170,0.00024209851,-0.00017644647,-0.0008256915,-0.00045801658,0.005719933,-0.04717092,4962,4962,0
154865036,154864744,3932170,3932170,-0.00019846727,-0.0004382844,0.00018368183,-0.0016326349,-0.013802319,-0.047425702,4977,4977,0
155363577,155363275,3932170,3932170,0.0003550053,3.482762e-05,-0.00038938576,-0.0048328224,-0.0058734035,-0.044308197,4987,4987,0
155867333,155867047,3932170,3932170,0.00019015274,-0.0009892879,-0.000600099,-0.0018981213,0.007780783,-0.044950597,4988,4988,0
156361148,156360844,3932170,3932170,-0.00011543163,-2.6664733e-05,-0.00039293765,-0.0049796132,-0.0026884563,-0.04498771,4982,4982,0
156864861,156864614,3932170,3932170,-0.00027823454,-0.00039866328,6.402047e-05,-0.0031521623,-0.004119111,-0.054759506,4988,4988,0
157363649,157363401,3932170,3932170,-0.0008187827,0.000300683,0.0007895733,-0.001980486,0.0021520513,-0.05354736,4991,4991,0
157862532,157862267,3932170,3932170,-0.00015147311,0.0015942621,-0.00044667468,0.0013509807,-0.0033467487,-0.047369286,4972,4972,0
158366551,158366182,3932170,3932170,0.0006383452,0.0003426583,0.00016739442,-0.0053366176,0.0025560954,-0.050759662,4968,4968,0
158865009,158864748,3932170,3932170,-0.00014676382,-0.0010289263,-0.00068694615,-0.003792353,-0.0060912804,-0.047349576,4997,4997,0
159363768,159363521,3932170,3932170,-0.000469851,0.00077375124,0.00046160282,-0.0032893617,-0.0029068696,-0.0550448,4987,4987,0
159862779,159862309,3932170,3932170,-0.00048934884,-0.00030909356,-0.00019998064,-0.0017741629,-0.004600006,-0.043546602,4991,4991,0
160361333,160361089,3932170,3932170,-0.00021365777,-0.00037957105,0.00011169123,-0.0042075487,0.010652329,-0.047602147,4988,4988,0
160865784,160864863,3932170,3932170,2.1564849e-05,0.00097428553,0.00077810395,-0.0011862281,-0.0052269786,-0.050965402,4989,4989,0
161364038,161363700,3932170,3932170,-0.0017065143,0.002292507,0.0008025749,-0.002044791,0.012098644,-0.05628244,4906,4906,0
161863072,161862658,3932170,3932170,0.002125454,2.9704526e-07,5.3029516e-06,0.0014816839,-0.0026548537,-0.047552675,4956,4956,0
162361468,162361213,3932170,3932170,0.00020680546,0.00019306586,0.0005299818,-0.0006690734,0.008317213,-0.053034615,4987,4987,0
162865236,162864985,3932170,3932170,0.00089089386,9.7856675e-05,0.00017179611,-0.0019792395,-0.004460741,-0.05282046,4988,4988,0
163364051,163363769,3932170,3932170,-0.00017947514,0.00025454714,-7.3371724e-05,-0.002504389,0.00026303905,-0.050834935,4987,4987,0
163862819,163862554,3932170,3932170,-0.00088240753,0.0010074009,0.0008008778,-0.0048572444,0.00073109067,-0.053528614,4985,4985,0
164366648,164366330,3932170,3932170,0.00033186027,0.0020652818,0.0005137912,-0.0010736929,-0.00014793256,-0.0510873,4987,4987,0
164865452,164865206,3932170,3932170,0.00064849143,-0.00194555,-0.00048815235,-0.0022492989,-0.002097269,-0.049628105,4999,4999,0
165364453,165364122,3932170,3932170,-0.00046023214,-0.00017536824,-0.00036845007,-0.0020234368,-0.0010403459,-0.046934273,4962,4962,0
165862937,165862678,3932170,3932170,0.0057129567,0.0005815587,0.0005390626,0.0016287706,-0.0011010289,-0.05097264,4987,4987,0
166366831,166366451,3932170,3932170,0.00018819462,-0.00027250272,-0.0008774131,0.0023691922,-0.015669791,-0.04322115,4985,4985,0
166865493,166865236,3932170,3932170,0.0001731216,0.0006490575,0.0010288215,-0.0025965911,0.0068706623,-0.050623205,4989,4989,0
167364647,167364023,3932170,3932170,7.475338e-05,0.00031510866,0.0001229568,-0.00020638417,0.003975279,-0.04408352,4981,4981,0
167863063,167862807,3932170,3932170,-0.00032795727,-0.00021990211,0.00065648666,-0.0076029818,-0.0030250128,-0.04733,4990,4990,0
168367472,168366670,3932170,3932170,0.0001465941,0.00070166634,0.0007950332,-0.010139517,0.019536318,-0.054581553,5032,5032,0
168865861,168865572,3932170,3932170,-7.8569195e-05,0.0002236596,-0.0016419073,-0.003504329,-0.004712874,-0.04600177,4960,4960,0
169364407,169364146,3932170,3932170,-0.0008795967,0.0001917883,3.6630776e-05,-0.0052718474,0.0038982276,-0.055488605,4988,4988,0
169868246,169867968,3932170,3932170,8.753456e-05,-0.0007982134,0.0009009021,-0.0033484718,0.0038219152,-0.05455266,5038,5038,0
170361978,170361724,3932170,3932170,-0.0003057568,0.000807902,0.0008248126,-3.7300462e-05,0.011073141,-0.048273355,4997,4997,0
170865769,170865518,3932170,3932170,-0.0016326999,0.0010822623,0.0006117999,-0.007941342,0.01061705,-0.055371944,5016,5016,0
171364579,171364272,3932170,3932170,-7.2845396e-05,-0.0006609947,-0.0005045185,-0.0014101957,-0.0011905845,-0.04834565,4986,4986,0
171868634,171868131,3932170,3932170,-9.0995054e-05,0.00010768134,6.9672344e-05,-0.006676047,0.0140065625,-0.044353154,4980,4980,0
172367447,172367028,3932170,3932170,8.673226e-05,-0.00013388075,-0.000839626,0.002106876,-0.0031183395,-0.037620872,4970,4970,0
172865870,172865614,3932170,3932170,0.0009019974,-9.446416e-05,9.51411e-05,-0.007144406,0.011708257,-0.050552856,4984,4984,0
173364733,173364399,3932170,3932170,-0.0005934263,0.0003284681,-0.000463554,-0.0010741177,-0.008608108,-0.045658354,4987,4987,0
173864043,173863187,3932170,3932170,-0.00041075583,2.6594475e-05,0.0003924009,-0.00064076704,-0.0028135404,-0.049316157,4983,4983,0
174362270,174361969,3932170,3932170,-0.00044220217,0.0011635403,0.0007179634,-0.0074118604,0.00584277,-0.049073033,4983,4983,0
174866434,174865776,3932170,3932170,-0.00020637507,0.0022091225,0.00024227682,0.0010047599,0.008711313,-0.052376106,5022,5022,0
175364829,175364611,3932170,3932170,-0.00011232774,0.0008608284,-0.0007299158,-0.0032208425,0.002412067,-0.038288336,4978,4978,0
175864842,175863517,3932170,3932170,-0.00012460852,0.00021501057,0.00052533345,-0.002582529,0.009930676,-0.06053959,4963,4963,0
176367342,176367085,3932170,3932170,-0.000599848,-0.00031995415,0.0008891268,-0.0051453225,0.01372434,-0.06418555,4983,4983,0
176866185,176865870,3932170,3932170,0.00027592966,0.0026447063,3.8264548e-06,-0.004590325,0.012981617,-0.05593296,4989,4989,0
177364901,177364655,3932170,3932170,0.00013960757,-0.00043849627,0.00042854887,-0.003068501,0.0088829305,-0.05405368,4988,4988,0
177863731,177863440,3932170,3932170,0.0048863706,-0.0016448885,-0.0004188323,0.0037945413,-0.00322009,-0.047187146,4988,4988,0
178362617,178362228,3932170,3932170,-0.0008890185,0.00027400177,0.000100338686,-0.00059668854,-0.008184965,-0.043242466,4989,4989,0
178866315,178866066,3932170,3932170,0.00012042015,0.0005712582,-0.00033448462,-0.0075631705,0.008024148,-0.041558858,4965,4965,0
179365292,179364994,3932170,3932170,-0.00045861633,0.00023134743,-0.0009887492,-0.009453189,0.005429076,-0.040856976,4971,4971,0
179863825,179863568,3932170,3932170,5.9777925e-05,-0.00014062195,-0.00056957966,-0.006578942,0.00031167705,-0.04173765,4988,4988,0
180367586,180367342,3932170,3932170,-0.00038153993,8.644912e-05,0.00024491994,-0.00065968337,-0.011555237,-0.04369092,4973,4973,0
180861382,180861138,3932170,3932170,-0.00018371636,0.00016248222,0.00017991348,-0.0038261672,0.0055370294,-0.053740602,4988,4988,0
181365475,181364915,3932170,3932170,-0.00033904624,0.00045732775,0.0007923921,-0.006582049,-0.0024910779,-0.055492867,4989,4989,0
181863979,181863697,3932170,3932170,-0.0002379914,0.0005016055,0.0006269691,-0.0030195722,0.025855577,-0.060334638,4988,4988,0
182363264,182362509,3932170,3932170,0.00012539206,0.0011466051,0.00050696934,-4.3959353e-05,0.0154564725,-0.053483136,4965,4965,0
182866742,182866438,3932170,3932170,-0.0007512286,1.5918788e-05,-9.264328e-05,-0.0007909685,0.017854907,-0.05119948,4950,4950,0
183365306,183365042,3932170,3932170,0.00038351543,-0.00089700875,-0.0013311906,-0.00061385334,-0.011011284,-0.04871231,4989,4989,0
183864159,183863827,3932170,3932170,-0.0009942788,0.00024104676,0.0010120653,-0.0008733266,0.0021203805,-0.051076733,4990,4990,0
184362958,184362615,3932170,3932170,-0.000365935,0.0006663432,2.728356e-05,0.0028008556,0.0008858015,-0.047613803,4991,4991,0
184861696,184861398,3932170,3932170,0.00022054878,-0.0005365746,-0.0010579006,-0.0004697382,0.0028216427,-0.04307278,4989,4989,0
185365465,185365171,3932170,3932170,0.00022542063,-0.0008351148,-0.0007264591,-3.0136078e-05,-0.012408486,-0.043226194,4988,4988,0
185864659,185864089,3932170,3932170,-0.00042548045,0.0002072593,-0.00013625559,0.0006076823,-0.011110716,-0.046107065,4965,4965,0
186363240,186362938,3932170,3932170,0.0005448255,0.00029733957,-5.988034e-05,-0.0019208696,-0.001358491,-0.045755014,4953,4953,0
186867857,186866518,3932170,3932170,-8.637465e-05,-0.00032679757,-0.00053989585,-0.0031227982,0.0070864926,-0.048443083,4990,4990,0
187365618,187365301,3932170,3932170,8.9113564e-05,0.0009443445,-0.00025346907,-0.0022973206,0.006654965,-0.0539085,4987,4987,0
187864974,187864088,3932170,3932170,0.001065092,-0.0003030401,-0.0005256983,0.002171492,-0.0036385586,-0.04728438,4961,4961,0
188363157,188362872,3932170,3932170,-0.0009492822,0.0010779656,0.00051304133,-0.0028949862,0.015968263,-0.05900052,4987,4987,0
188862331,188861660,3932170,3932170,0.0010340344,-0.0010390156,-0.0008119623,-0.0020897975,-0.0035569472,-0.049215484,4988,4988,0
189365762,189365430,3932170,3932170,-0.0036388151,-0.0002852249,4.829633e-05,0.0009344827,-0.014340361,-0.04547499,4956,4956,0
189866019,189864404,3932170,3932170,-0.0005293709,0.0035836655,0.00046877662,-0.0023319158,0.01650936,-0.054892834,4968,4968,0
190363298,190363031,3932170,3932170,-0.00024069853,0.0001412626,0.00030985897,0.00033264357,0.006115313,-0.047658376,4983,4983,0
190867051,190866778,3932170,3932170,-0.00023892359,-0.000509416,-0.00042835588,0.0022088361,-0.015108375,-0.042103853,4988,4988,0
191365840,191365568,3932170,3932170,-0.0002348037,0.00011462881,0.00013391917,-0.0042303093,0.00077307527,-0.048220843,4994,4994,0
191864594,191864348,3932170,3932170,-0.0003954253,-0.00023518858,0.000777326,-0.0038181792,-0.0059203138,-0.044542313,4988,4988,0
192363386,192363136,3932170,3932170,-0.00035268534,0.00079676416,0.0008587693,-9.2370414e-05,-0.0005622252,-0.04713892,4989,4989,0
192862196,192861935,3932170,3932170,-0.0006152051,0.000113961985,5.5920596e-06,-0.00016592472,-0.008386886,-0.048471503,4958,4958,0
193366177,193365877,3932170,3932170,0.00033702125,-5.6786568e-05,-0.00077490706,0.000964109,-0.0039583053,-0.049626064,4966,4966,0
193864735,193864479,3932170,3932170,0.00054842286,0.00010316728,1.3868378e-06,-0.0056723976,0.008192845,-0.04831695,4988,4988,0
194368629,194368265,3932170,3932170,0.0006275309,-0.0005155297,0.00018687516,-0.003237854,0.0020488424,-0.051067714,4995,4995,0
194862348,194862051,3932170,3932170,0.0015551791,-0.0010869509,-0.00039343126,-0.0031580653,-0.014193069,-0.0467298,4988,4988,0
195366358,195365833,3932170,3932170,-0.0005962761,-4.3534466e-05,-0.00033484612,0.0010189012,-0.0143166,-0.04958275,4995,4995,0
195864867,195864611,3932170,3932170,-0.0005957576,-0.00018485868,0.00047208392,0.003480032,-0.016423987,-0.048635717,4986,4986,0
196363754,196363460,3932170,3932170,-0.00022017726,-0.00042160702,0.00049468386,-0.0032152808,-0.0007001474,-0.049116362,4974,4974,0
196867595,196867338,3932170,3932170,-0.00026436517,0.00092789024,0.0009031825,-0.00056132104,0.008974781,-0.048818983,4944,4944,0
197366262,197365957,3932170,3932170,-0.00027016606,8.818009e-05,0.00092942704,-0.0031300946,-0.0078147845,-0.048569236,4985,4985,0
197865105,197864747,3932170,3932170,-0.00017525071,-5.124041e-05,-0.000531668,-0.0009277317,-0.0075721066,-0.044391047,4992,4992,0
198363775,198363529,3932170,3932170,3.5637044e-05,0.0004754931,0.0005627799,-7.177368e-05,0.00896556,-0.049544588,4987,4987,0
198867607,198867307,3932170,3932170,-4.1213025e-05,-0.00016934412,0.00054263236,-0.0013420726,-0.0048923064,-0.05087564,4990,4990,0
199366404,199366090,3932170,3932170,-0.0020458207,0.001268829,-0.0005336874,-0.0044111963,-0.0018861158,-0.048337325,4988,4988,0
199865165,199864916,3932170,3932170,-0.0007662542,0.00060164055,0.0012105348,-0.0032717923,0.006355278,-0.04954134,4939,4939,0
200364136,200363886,3932170,3932170,0.00018128456,0.00023021451,5.3567524e-05,0.00021404435,0.0040134043,-0.05030659,5024,5024,0
200867707,200867440,3932170,3932170,-0.003487736,-0.00024856205,-0.00011532551,-0.0015642638,-0.0068947803,-0.049493533,4992,4992,0
201366495,201366222,3932170,3932170,-0.00022554117,0.00054600573,-9.412896e-05,-0.00046443613,-0.0024661294,-0.05021374,4931,4931,0
201865875,201865012,3932170,3932170,0.00023847002,0.00011117978,0.00022662617,0.0023910024,0.0063522714,-0.052905805,4990,4990,0
202364082,202363796,3932170,3932170,-0.000457308,0.00044652482,-0.00027578833,-0.0012445671,-0.0070152637,-0.048559245,4954,4954,0
202862924,202862583,3932170,3932170,0.00025214624,-0.0007065683,-0.00025174252,0.0019293079,0.0066666584,-0.055209327,4981,4981,0
203366725,203366432,3932170,3932170,0.00054584164,0.0012761314,0.00018723513,-0.0001337581,0.010148038,-0.050484255,4964,4964,0
203866959,203865351,3932170,3932170,-0.00030544502,2.2603606e-05,0.00031011744,-0.0048633576,0.0019580547,-0.045622908,4993,4993,0
204364188,204363930,3932170,3932170,-0.00013874628,0.00076529867,0.00033449568,0.0023260384,0.0008598005,-0.04882667,4982,4982,0
204867982,204867704,3932170,3932170,0.0005680527,-6.303349e-05,-0.0006840839,-0.0011655104,0.006447884,-0.047071766,4989,4989,0
205361810,205361501,3932170,3932170,-0.00045313386,-0.0003174804,0.0005750837,-0.0006794921,-0.011889964,-0.04615856,4988,4988,0
205865571,205865276,3932170,3932170,0.0003740381,4.7672667e-05,0.00019511109,-0.003707948,-0.00798963,-0.04985391,4983,4983,0
206364307,206364063,3932170,3932170,9.110802e-05,0.00016512981,-0.00036684933,-0.0023575318,0.0018708311,-0.050307933,4987,4987,0
206863179,206862852,3932170,3932170,0.00048801722,-0.00021741091,-0.00083998975,-0.0013417895,0.002271546,-0.05077034,4979,4979,0
207367124,207366782,3932170,3932170,-0.00030981158,0.0010940002,0.00052881654,-0.0012235997,0.0013630759,-0.048223525,4958,4958,0
207865717,207865418,3932170,3932170,0.00071173627,-0.0004733428,-0.0009402963,0.00022151331,-0.021804191,-0.046866786,4996,4996,0
208364523,208364210,3932170,3932170,0.0002654069,-0.00024127473,-2.6100102e-05,-0.0015193248,-0.011711864,-0.04794467,5001,5001,0
208863238,208862985,3932170,3932170,-0.00040276276,-0.00018280736,0.00013837178,-0.0019854603,-0.014062116,-0.042088535,4990,4990,0
209362027,209361771,3932170,3932170,-0.00015050868,-0.00055439014,-0.0008430265,-0.0024940544,-0.00996784,-0.045533102,4956,4956,0
209865880,209865544,3932170,3932170,0.00024226104,-0.0004395512,-0.0031145937,-0.0035564422,0.0036554683,-0.050781664,4987,4987,0
210365178,210364388,3932170,3932170,-0.00026914067,-0.00018173056,-0.003387535,0.002059077,0.0013450361,-0.044927422,5032,5032,0
210863544,210863289,3932170,3932170,-0.0013157966,0.0014193841,9.3984425e-05,-0.0053446386,0.018982815,-0.0589721,4979,4979,0
211367147,211366892,3932170,3932170,0.0006163907,-0.00067018735,-0.0016940056,-0.001631548,-0.007908773,-0.04776584,4985,4985,0
211860964,211860691,3932170,3932170,5.739832e-05,0.00032629783,-0.00068313663,-0.0013674656,-0.001981852,-0.04663469,4988,4988,0
212364770,212364465,3932170,3932170,0.00014490883,2.5413228e-05,0.0006340064,-0.0028638712,0.0048522404,-0.054817013,4988,4988,0
212863514,212863254,3932170,3932170,-0.00053132663,0.000418179,-0.0012590307,-0.007493386,0.009822365,-0.05300263,4984,4984,0
213362361,213362042,3932170,3932170,0.0007246984,-3.1073276e-05,-0.0010816065,-0.002655721,-0.011048957,-0.049138654,4991,4991,0
213866173,213865819,3932170,3932170,0.00072499,-0.00015233662,-0.00028129888,0.00047873976,-0.004045076,-0.04868179,4988,4988,0
214365055,214364744,3932170,3932170,9.230699e-06,0.00075719296,0.00033180165,0.0009895687,0.013336145,-0.048341043,4965,4965,0
214864776,214863390,3932170,3932170,8.8482906e-05,-7.696811e-05,-0.00045741283,-0.0004971305,-0.0017358907,-0.05097384,4991,4991,0
215367463,215367161,3932170,3932170,3.9855106e-05,0.00036123616,-0.0001668198,0.00088105496,-0.008231708,-0.047010753,4988,4988,0
215866752,215865957,3932170,3932170,0.00016147527,-0.0002931208,-0.00045593208,-0.0016066995,0.0033469293,-0.044378866,4997,4997,0
216365011,216364765,3932170,3932170,-0.0006514669,0.00022987528,-0.00023743942,-0.005128061,-0.0031197798,-0.045884285,4983,4983,0
216865035,216863526,3932170,3932170,-0.00085022213,-0.00010801858,0.0002465746,0.0034382713,-0.01920876,-0.044068705,4991,4991,0
217362601,217362354,3932170,3932170,0.00016572446,-0.0010013571,-0.000464359,-0.0008370166,-0.015966805,-0.043910746,4973,4973,0
217867240,217866226,3932170,3932170,4.844767e-05,0.00019356165,-0.00033069175,-0.0038027014,0.0027484403,-0.05060805,4970,4970,0
218365131,218364869,3932170,3932170,0.0005900228,-0.00026683704,-0.0009118168,0.00044461145,-0.0067774286,-0.04628108,4987,4987,0
218863963,218863656,3932170,3932170,1.1477803e-05,-0.00019351319,-0.0010603217,-0.0041033123,-0.0024836566,-0.04427874,4987,4987,0
219362694,219362444,3932170,3932170,0.00035330976,0.00016232654,0.0005242463,-0.0015810614,0.008260483,-0.05786599,4988,4988,0
219861496,219861233,3932170,3932170,-2.893089e-05,0.00025903957,-0.0003311697,-0.008566062,0.014608992,-0.0501864,4990,4990,0
220365332,220365037,3932170,3932170,-0.0005587227,0.00019802027,0.00023647529,-0.001892646,0.0027945964,-0.04826075,5020,5020,0
220864103,220863805,3932170,3932170,0.00013578509,-0.0008843335,-0.0004793268,-0.0038339414,-0.008538679,-0.043999873,4968,4968,0
221363029,221362776,3932170,3932170,-0.0005212321,0.00030360973,-0.0002050725,-0.0011978293,0.008368179,-0.047494624,5002,5002,0
221866614,221866354,3932170,3932170,0.00022692364,-8.894726e-05,-7.020646e-05,-0.0024309626,0.0034193436,-0.050040316,4989,4989,0
222365412,222365147,3932170,3932170,-0.0005528845,0.00024106637,0.0008287447,0.0021047383,-0.016437005,-0.051922146,4994,4994,0
222864239,222863927,3932170,3932170,-0.00012584253,-0.00070063275,-0.0007760794,0.0015715363,-0.021613168,-0.047637865,4981,4981,0
223363076,223362713,3932170,3932170,0.00039254568,-0.0003958395,-0.0006125491,-0.0032147358,-0.011319542,-0.0447701,4987,4987,0
223861850,223861501,3932170,3932170,-0.00011184295,-0.00069903146,-0.00050925044,-0.0046349955,-0.008865048,-0.0473305,4988,4988,0
224366054,224365342,3932170,3932170,7.401312e-06,-0.00063068623,-0.00013778506,0.0011333196,-0.010756641,-0.05163171,4966,4966,0
224864546,224864252,3932170,3932170,-0.0034992103,0.00038026218,0.0006490587,-0.0022679802,-0.011238952,-0.046155278,4998,4998,0
225363104,225362850,3932170,3932170,0.000744137,0.0003363759,-0.0003372876,0.002808515,-0.016145611,-0.04523166,4966,4966,0
225862030,225861637,3932170,3932170,0.00060658855,0.00019386518,0.001093842,-0.00049510074,0.010190294,-0.05395508,4989,4989,0
226365717,226365413,3932170,3932170,-0.00039133467,1.8977528e-06,-0.00018353232,-0.013855695,0.014667535,-0.04725758,4976,4976,0
226864509,226864221,3932170,3932170,0.00043458046,-0.00036554583,0.00024450012,0.0019980676,-0.00871221,-0.043175954,4997,4997,0
227363295,227362987,3932170,3932170,-0.00046501157,-0.00013353079,7.515719e-05,0.0016557559,-0.0059184013,-0.04783861,4990,4990,0
227867242,227866773,3932170,3932170,0.0005981394,-0.0006192721,-0.00030654273,0.006052856,-0.012053235,-0.04073343,4979,4979,0
228365963,228365713,3932170,3932170,0.00025588617,-0.00034354368,-0.00050890865,0.0020217285,-0.016675046,-0.045076165,4961,4961,0
228864607,228864337,3932170,3932170,-2.1881135e-05,-0.00068980677,-8.231384e-05,-0.010059126,0.006315109,-0.04937281,4991,4991,0
229363396,229363123,3932170,3932170,0.000265523,-0.0010443628,-0.00054835685,0.0012815387,0.02082166,-0.048557907,4987,4987,0
229862751,229861913,3932170,3932170,0.0006988692,-0.000116510186,-0.0012049364,0.0017662332,-0.0001943807,-0.04404117,4986,4986,0
230365937,230365683,3932170,3932170,0.00033619118,0.00093856326,-0.00049133,0.0019675512,0.008013053,-0.04878922,4988,4988,0
230865778,230864478,3932170,3932170,-0.0009490825,-0.00024413376,0.0011320754,-0.0012903583,0.004180493,-0.047917318,4993,4993,0
231363565,231363271,3932170,3932170,0.0007498577,3.576553e-05,-0.00028157816,-0.001784855,0.0005704802,-0.053137418,4970,4970,0
231867581,231867145,3932170,3932170,7.1866176e-05,-0.0005389614,-0.00030366614,-0.0043746997,-0.008203487,-0.04941775,4967,4967,0
232366071,232365815,3932170,3932170,0.00075669715,-6.96419e-05,-0.00062434626,-0.0025419488,-0.0045621535,-0.050284285,4942,4942,0
232864870,232864606,3932170,3932170,5.4238164e-05,-0.00045382176,0.00021649565,0.001222298,-0.017768012,-0.046131987,4988,4988,0
233363639,233363393,3932170,3932170,0.00023869726,-0.00012521511,-0.00035510163,-0.0016381282,-0.0047511403,-0.04532179,4966,4966,0
233862477,233862184,3932170,3932170,-0.00021498396,1.6525313e-05,9.003229e-05,0.0010759054,-0.016195072,-0.04367149,4987,4987,0
234366208,234365955,3932170,3932170,5.306243e-05,0.0004050075,0.0005550685,-0.0035021873,-0.0054448782,-0.049079932,4985,4985,0
234864996,234864743,3932170,3932170,0.0004715235,-0.00047075978,-0.00064058794,-0.0017975236,-0.009671157,-0.04591679,4987,4987,0
235364014,235363654,3932170,3932170,0.0010661747,0.00068223535,-0.001005576,-0.0030960916,0.007449272,-0.048011303,4961,4961,0
235867565,235867307,3932170,3932170,0.00062063197,1.8243369e-05,-0.00050068495,-0.0038712919,0.00090060633,-0.044760536,4991,4991,0
236366355,236366092,3932170,3932170,0.00045613403,-0.0009895514,-0.00075495295,-0.0010096773,-0.011139563,-0.044157878,4988,4988,0
236865168,236864880,3932170,3932170,-0.00054773444,-0.000318622,-0.00011074009,-0.0034075957,0.0013673594,-0.044789318,4990,4990,0
237364368,237363669,3932170,3932170,7.396211e-05,0.00065964856,-0.000118274154,-0.002161478,-0.007071094,-0.049258396,4991,4991,0
237862820,237862453,3932170,3932170,0.0057810135,-0.0015318266,2.462493e-05,0.0005946341,0.007839214,-0.051198356,4988,4988,0
238366672,238366228,3932170,3932170,0.0004583738,0.0002760768,-0.00079805095,-0.00017646988,-0.014976059,-0.04328032,4977,4977,0
238865395,238865125,3932170,3932170,-0.0011237327,0.00062774203,0.00035766102,-0.0007238437,-0.0029828902,-0.052340586,4968,4968,0
239364061,239363802,3932170,3932170,0.00065223355,8.448242e-05,9.314175e-05,-0.0011346407,0.0044609355,-0.04985777,4988,4988,0
239867838,239867584,3932170,3932170,0.00012368296,-0.0004507647,-0.0002608208,-0.005642874,-0.012623199,-0.049229264,4986,4986,0
240361615,240361372,3932170,3932170,0.00040926746,-0.0017702178,-0.00021573615,-0.0022342526,-0.011648313,-0.04423552,4983,4983,0
240865442,240865151,3932170,3932170,0.00060601364,0.0011296291,-0.0009067961,0.001563943,0.0032539146,-0.044764787,4988,4988,0
241364230,241363938,3932170,3932170,-0.000482864,-0.0008909077,0.00028229356,-0.0022989996,0.0024884627,-0.048226997,4980,4980,0
241863085,241862728,3932170,3932170,0.00023277754,0.00024527905,-8.071429e-05,-0.00041430292,0.008929316,-0.04909168,4975,4975,0
242366967,242366640,3932170,3932170,0.0019716376,-0.000494579,0.0008218312,0.00059817085,-0.01935878,-0.048130225,4963,4963,0
242865633,242865292,3932170,3932170,-0.0037871432,0.0014997638,0.00029938985,-0.0038205609,0.00079157297,-0.044810258,4979,4979,0
243364380,243364075,3932170,3932170,0.0010293432,2.8792801e-05,0.00022613196,-0.0032242008,0.018165937,-0.05284246,4988,4988,0
243863699,243862867,3932170,3932170,0.0031718852,-0.0003166098,-4.239896e-05,0.003283086,-0.014244762,-0.04843193,4992,4992,0
244361917,244361650,3932170,3932170,-0.00029943555,-0.00013807302,-0.00034712433,-0.0028941117,-0.005171107,-0.04782124,4988,4988,0
244865679,244865430,3932170,3932170,8.528046e-05,-0.0008145377,-0.00055736233,-0.0035297466,-0.016576434,-0.045962337,4991,4991,0
245364459,245364212,3932170,3932170,7.76662e-05,-0.0022141773,0.0010584699,-0.0045647556,-0.00017115798,-0.04965857,4986,4986,0
245864698,245863099,3932170,3932170,0.00037859852,0.0009377683,0.00044672404,0.00040389353,0.018953703,-0.050796375,4964,4964,0
246367373,246367040,3932170,3932170,-0.00014119224,-0.00015962073,6.974897e-05,-0.00073550676,-0.011082199,-0.049185313,5253,5253,0
246865875,246865561,3932170,3932170,-0.002293613,-0.00067769527,-0.0005136208,0.0008574778,-0.011311335,-0.04646474,4987,4987,0
247364725,247364349,3932170,3932170,-0.00033013592,0.000176998,0.00057123054,-0.00422019,0.0138266,-0.052361738,4988,4988,0
247863379,247863137,3932170,3932170,0.00015000654,9.922451e-05,0.0002592558,0.0010204548,-0.0079069445,-0.04484862,4988,4988,0
248362186,248361924,3932170,3932170,-0.0001838181,-0.00096319267,-0.00078435283,-0.0029762317,-0.005006703,-0.045126896,4984,4984,0
248865989,248865700,3932170,3932170,0.00034080347,-0.00012236476,-0.00079007377,-0.0009807153,-0.012906443,-0.045642555,4987,4987,0
249364795,249364576,3932170,3932170,-0.00019077359,0.00062879606,0.0014138473,-0.0040369094,0.0024323438,-0.0488031,4955,4955,0
249863915,249863552,3932170,3932170,0.0037817177,-0.0012444585,-0.0006581635,-0.004087255,0.01149497,-0.052897263,5267,5267,0
250367309,250367049,3932170,3932170,-0.00047987475,-0.0005906822,-0.00055129745,-0.002541419,0.0026286219,-0.04764933,4986,4986,0
250861088,250860848,3932170,3932170,0.000862093,-0.00084083737,-0.0006214648,-0.0009597567,-0.0043225833,-0.048073404,4987,4987,0
251365268,251364627,3932170,3932170,0.00024552556,0.0016713634,0.00046915928,-0.0029155498,-0.003025126,-0.05077658,4991,4991,0
251863657,251863411,3932170,3932170,-0.0003581952,0.00036227787,0.00022718341,-0.0018321896,-0.007118396,-0.05349988,4988,4988,0
252367953,252367188,3932170,3932170,0.000121890655,-0.00018493735,-0.00071984634,-0.0016482723,-0.0061988086,-0.046071675,4983,4983,0
252866381,252866107,3932170,3932170,-0.0003267069,-0.00046838602,0.0003984051,-0.0026420578,0.0045733703,-0.048408415,4921,4921,0
253365784,253365023,3932170,3932170,0.0010249767,-0.0004250256,0.000103384955,-0.0011787188,-0.0021905797,-0.050844003,5250,5250,0
253863817,253863558,3932170,3932170,0.0001980113,0.001383235,0.00010813632,-0.0048128753,0.0034023584,-0.050116815,4998,4998,0
254362625,254362336,3932170,3932170,-0.00034659237,-0.00061767834,-0.0001810038,-0.0038277053,-0.011252331,-0.04774523,4989,4989,0
254861411,254861123,3932170,3932170,0.000102633705,0.00043445663,-0.00048489732,6.153867e-05,0.013676044,-0.047090102,4988,4988,0
255365272,255364980,3932170,3932170,0.00085585087,-0.00026105053,-0.0008362543,-0.0017635288,-0.0026362338,-0.04555763,5039,5039,0
255863999,255863687,3932170,3932170,-8.353551e-05,-3.0192557e-05,-0.0007063185,0.00046526905,0.0010751099,-0.04475715,4993,4993,0
256362870,256362559,3932170,3932170,-0.00041629613,7.2704795e-05,0.00060004945,-0.00423216,-0.010327497,-0.04798029,4969,4969,0
256866934,256866502,3932170,3932170,-3.6037167e-05,-0.0020441762,0.00019373358,0.0029205256,-0.005842517,-0.04795462,4963,4963,0
257365339,257365042,3932170,3932170,-4.3970656e-05,0.00095844205,0.0006124357,-0.001865649,0.005731944,-0.049532697,4994,4994,0
257864072,257863823,3932170,3932170,-0.0004846616,0.00016352817,0.0003344201,-0.0017206537,-0.008913838,-0.04517741,4986,4986,0
258362857,258362610,3932170,3932170,-0.0027658069,0.0016782434,-6.245079e-05,0.0024889505,0.0036238427,-0.048714142,4988,4988,0
258866890,258866444,3932170,3932170,9.1890586e-05,-0.00033311406,1.1579399e-05,-0.0017897032,-0.007197533,-0.04908337,5046,5046,0
259365515,259365173,3932170,3932170,-0.00029564853,-0.00087585533,-4.5576817e-05,-0.00198752,0.003582582,-0.048163075,4987,4987,0
259865714,259864042,3932170,3932170,-0.0012471696,0.0006185432,0.0002930033,-0.004053436,0.004772203,-0.048249904,4960,4960,0
260363390,260363011,3932170,3932170,0.000547681,-0.0030769086,-3.9276947e-05,0.0035215807,-7.389161e-05,-0.04823381,5244,5244,0
260866784,260866523,3932170,3932170,0.00031166387,0.002503496,-0.0005964611,-0.00024476,0.0056661353,-0.04972307,4988,4988,0
261365563,261365313,3932170,3932170,-0.00027197343,0.00022787269,0.00016894157,0.0013692148,0.011702383,-0.04999243,4985,4985,0
261864402,261864098,3932170,3932170,0.00044943934,1.5651434e-05,-0.00029949093,-0.0019055536,-0.0045117075,-0.049940582,4987,4987,0
262363231,262362886,3932170,3932170,-0.00072963204,-0.00037110047,8.550984e-05,-0.004997106,-0.0049627777,-0.04937982,4981,4981,0
262867056,262866673,3932170,3932170,-0.00046703807,1.933416e-05,0.0007877496,0.0019412899,-0.015932405,-0.04296574,5000,5000,0
263365900,263365575,3932170,3932170,-0.00015207056,0.00043957334,0.0006871777,-0.0021642486,0.0017857198,-0.050042804,4972,4972,0
263864772,263864480,3932170,3932170,-0.00014227619,0.0004900391,5.3093427e-06,-0.0052341567,0.004833206,-0.046110194,4958,4958,0
264368284,264368011,3932170,3932170,-0.00036862923,0.00085481163,0.00030380994,-0.0021538637,0.008204209,-0.051463906,4985,4985,0
264862208,264861812,3932170,3932170,0.00036587322,0.00026438085,0.00082040136,0.0024828145,0.0166696,-0.056758188,4989,4989,0
265366374,265365589,3932170,3932170,-0.00053411635,0.0011118677,0.0003181691,-0.0014876958,-0.0013796487,-0.051507276,4991,4991,0
265864619,265864378,3932170,3932170,0.00047988613,-0.00065678044,-0.00048106717,0.0012911917,-0.007614319,-0.04825712,4971,4971,0
266363421,266363156,3932170,3932170,-0.0013217055,7.6452816e-05,0.0008146823,-0.003929767,0.004835523,-0.05002485,4958,4958,0
266867288,266867027,3932170,3932170,-0.00025093523,-0.00052145665,-0.0011301278,-0.002137732,-0.009985397,-0.044728223,4977,4977,0
267366347,267365957,3932170,3932170,0.00027104805,0.00075841363,0.001275585,-0.001593664,0.011110763,-0.048078008,4951,4951,0
267864775,267864515,3932170,3932170,-0.00011575014,0.0006360463,-0.000108686334,-0.0006066314,-0.0020611126,-0.046888907,4991,4991,0
268363542,268363299,3932170,3932170,0.003297405,-0.0008807064,-0.0013199641,-0.0008048481,-0.0125572495,-0.046517484,4985,4985,0
268862335,268862083,3932170,3932170,0.0001280799,-0.0023328054,-0.00035765907,0.0005810841,-0.014813428,-0.047632225,4983,4983,0
269366102,269365861,3932170,3932170,0.00028507673,0.0010005642,-0.0007595567,-0.00523447,0.003970477,-0.05000903,4987,4987,0
269864970,269864655,3932170,3932170,0.00082605693,7.950618e-05,1.1407197e-05,-0.0028949634,-0.0071206638,-0.047850423,4994,4994,0
270363841,270363497,3932170,3932170,0.0007628447,-0.0003309142,-0.00025292413,-0.0034304091,0.005250258,-0.052461475,4965,4965,0
270867798,270867448,3932170,3932170,0.00015080112,0.0006010928,0.00018554402,-0.0014554926,0.001237313,-0.04290758,4975,4975,0
271366262,271366004,3932170,3932170,0.0001327551,0.0004137539,-0.00024360252,-0.00086168444,-0.005276019,-0.045767594,4991,4991,0
271865187,271864788,3932170,3932170,0.00016388048,4.2797787e-05,-0.0003026153,-0.0029545233,0.0034947568,-0.047750443,4963,4963,0
272363869,272363574,3932170,3932170,-0.00011403989,-0.0008129549,-0.0001464754,-0.00030442866,-0.0048134536,-0.048390087,4988,4988,0
272863498,272862363,3932170,3932170,0.0010032223,-0.0014402441,-0.0010168955,-0.0055283383,-0.006455264,-0.045107696,4968,4968,0
273366442,273366149,3932170,3932170,3.0416475e-05,0.00032349286,-0.003233043,-0.004567213,0.01002811,-0.052314922,4996,4996,0
273865918,273865033,3932170,3932170,-0.00026863496,7.583661e-05,-1.837014e-05,-0.0047899545,0.0036130403,-0.05495734,4974,4974,0
274364258,274363939,3932170,3932170,-0.00077341433,6.702897e-05,-0.003221467,-0.009589933,0.011076025,-0.0580199,4960,4960,0
274862753,274862499,3932170,3932170,-0.0001128008,-0.000517337,-0.0012453782,0.00040180841,0.002967594,-0.05157854,4987,4987,0
275361538,275361288,3932170,3932170,-0.00027644515,0.00053382205,0.0011955331,-0.0020771872,0.001892664,-0.04860338,4986,4986,0
275865309,275865062,3932170,3932170,0.00066251535,-0.00069383625,-0.0007763925,-0.0014083873,-0.0054681483,-0.05116163,4987,4987,0
276364184,276363853,3932170,3932170,0.0009736417,-0.002727944,-0.0002695379,0.00031348082,-0.018784039,-0.044804204,4991,4991,0
276862933,276862638,3932170,3932170,-0.0006984202,0.00055124174,0.0014647733,-0.005239612,-0.0019171528,-0.050251238,4988,4988,0
277366813,277366458,3932170,3932170,-0.00018626387,0.0015532039,-7.926353e-05,-0.003906698,0.0007894655,-0.046628717,4973,4973,0
277865747,277865417,3932170,3932170,0.0009747843,-0.00013641447,-0.00086330547,-0.0038850936,0.007802164,-0.0499594,4967,4967,0
278364300,278363989,3932170,3932170,0.00011705464,0.00036018057,1.3432602e-05,-0.00738615,-0.006758123,-0.043246694,4989,4989,0
278863029,278862784,3932170,3932170,0.0008024971,-1.6046164e-05,-0.0016219711,-0.0010579308,-0.0018556156,-0.04750257,5000,5000,0
279367956,279366551,3932170,3932170,0.0032781377,-0.0015019035,-0.00089301984,-0.005317075,-0.014969149,-0.047303922,4988,4988,0
279865591,279865339,3932170,3932170,-0.00039659187,-0.00030774326,-0.0013573637,-0.006021481,0.0038443706,-0.058611218,4988,4988,0
280364726,280364126,3932170,3932170,-0.00025771483,6.3965505e-05,-0.003103769,-0.008348558,0.011191656,-0.055438712,4989,4989,0
280863189,280862966,3932170,3932170,-0.00060286425,0.0003063376,-0.0040868367,-0.004835568,-0.0023462563,-0.0429628,4958,4958,0
281367367,281366896,3932170,3932170,-0.00022848141,-0.00040494103,-0.00016554339,-0.0037488192,-0.013384011,-0.04485741,4957,4957,0
281865748,281865476,3932170,3932170,0.003051314,0.00010469769,-0.00046286805,-0.00017273077,0.010581253,-0.052351497,4988,4988,0
282364585,282364264,3932170,3932170,0.00087544287,-0.0005417285,-0.0010890067,0.004158906,-0.019483522,-0.04844443,4989,4989,0
282863419,282863054,3932170,3932170,0.0035314427,0.00025366878,-0.00019924919,0.0024327368,-0.0066855955,-0.04882722,4991,4991,0
283362175,283361838,3932170,3932170,-0.0012391628,0.00031863604,-0.00013787312,-0.0009925695,-0.0075996155,-0.049306016,4985,4985,0
283865946,283865614,3932170,3932170,-0.00017874989,-0.0008935921,-0.0014643596,0.0024798599,-0.012214184,-0.04286347,4988,4988,0
284364855,284364537,3932170,3932170,-0.00052350614,0.00046735787,-0.00037482724,-0.00445756,0.0028499758,-0.048417725,4951,4951,0
284863751,284863408,3932170,3932170,2.4344785e-05,-9.833088e-05,-5.366559e-05,0.0036352566,0.0091961045,-0.04519042,4969,4969,0
285367225,285366964,3932170,3932170,0.00042155545,0.0005221784,-0.00016750117,0.0063667577,0.0042689373,-0.04743704,4986,4986,0
285862276,285860766,3932170,3932170,-0.0003229572,0.00013038107,2.6322688e-05,-3.3077285e-05,0.011635045,-0.046633825,4990,4990,0
286364791,286364539,3932170,3932170,0.00036577374,3.0994866e-05,-0.0008534002,0.0017922168,-0.02349399,-0.046549983,4988,4988,0
286863606,286863328,3932170,3932170,-0.0007012186,-0.00097173423,-5.5371187e-05,-0.0034320531,-0.013423284,-0.050829075,4987,4987,0
287362359,287362114,3932170,3932170,-0.00023173947,0.00039537527,0.0012172697,-0.008423406,-0.0008241237,-0.0584296,4987,4987,0
287867386,287865970,3932170,3932170,-0.0019200329,0.00014973438,-5.942449e-06,0.0018927596,0.010015043,-0.04416103,5019,5019,0
288365232,288364886,3932170,3932170,-0.00055163854,0.000559456,0.0009200295,-0.001954083,0.0076803765,-0.051785722,4968,4968,0
288863799,288863507,3932170,3932170,0.00030237666,0.0003411199,0.0005431337,-0.0036587606,0.019262668,-0.05010087,5019,5019,0
289362589,289362252,3932170,3932170,-0.00095046434,0.0003242701,0.00022863352,0.0007177244,-0.0050576464,-0.048183836,4988,4988,0
289861328,289861082,3932170,3932170,0.00332113,-0.0009257888,-0.0007999289,0.0008751039,0.012068362,-0.048651453,5031,5031,0
290365126,290364815,3932170,3932170,0.00042658683,-0.00047996125,-0.000909547,-0.0017672095,0.0016626811,-0.0475818,4988,4988,0
290863941,290863603,3932170,3932170,0.0016138881,-0.00078447367,-0.00064009166,0.00070258457,-0.015282983,-0.047251575,4989,4989,0
291367742,291367397,3932170,3932170,-0.00039405964,0.00060039025,-0.00038357143,-0.00012255693,-0.0023823166,-0.04861284,4963,4963,0
291866700,291866403,3932170,3932170,8.5496176e-05,-0.0010598587,0.00010092871,0.00045176526,0.004218913,-0.04465443,4937,4937,0
292365233,292364955,3932170,3932170,0.0012024023,0.0014666163,-0.00029082596,0.0024559137,0.00855752,-0.047955472,4988,4988,0
292864075,292863740,3932170,3932170,7.310717e-05,-0.00011805436,-2.2930935e-05,-0.0020339254,0.0126162,-0.05011883,4988,4988,0
293362822,293362529,3932170,3932170,-0.00017017034,6.375719e-05,0.000839701,-5.1494888e-05,0.01896529,-0.053584527,4989,4989,0
293861652,293861315,3932170,3932170,-0.002060154,0.0011056411,-0.0005330567,-0.0020068274,-0.0070426776,-0.048090015,4988,4988,0
294365439,294365107,3932170,3932170,4.319862e-05,0.00021824117,-0.00044515127,0.00079454744,-0.004341853,-0.047209937,4989,4989,0
294864292,294864014,3932170,3932170,0.00030836035,0.00018741557,-2.015953e-05,0.00038571222,-0.010905009,-0.046182424,5022,5022,0
295368230,295367839,3932170,3932170,0.00041180695,-0.0005470069,-0.00080674345,-9.627979e-05,-0.019098353,-0.047169145,4972,4972,0
295867013,295866796,3932170,3932170,-0.00087620004,0.00077009696,0.00026173002,0.0008832224,-0.0023164542,-0.04713116,4949,4949,0
296365666,296365359,3932170,3932170,0.003147925,-0.000549246,-0.00014312149,0.0010275985,-0.005406487,-0.049764745,4952,4952,0
296864407,296864156,3932170,3932170,-0.00094718504,0.0005665763,0.0002608279,-0.000912768,0.007706695,-0.048797533,5003,5003,0
297363234,297362930,3932170,3932170,0.0002471339,7.273103e-05,-0.00021145651,-0.0013270796,0.013118479,-0.045893293,4990,4990,0
297866977,297866710,3932170,3932170,-0.00043819033,-0.00064797583,0.0004708247,0.0014228687,0.00471018,-0.048462257,4995,4995,0
298365738,298365492,3932170,3932170,-0.001167488,0.00043105095,0.00067625125,-0.0021633494,-0.012485667,-0.050835866,4989,4989,0
298864617,298864358,3932170,3932170,0.0003760248,-0.00020922173,-0.0011735436,-0.00029840146,-0.009158227,-0.0464857,4980,4980,0
299363651,299363310,3932170,3932170,0.0017232676,0.000112058035,-0.0013585702,0.0045239246,0.004128091,-0.046216793,4954,4954,0
299862118,299861855,3932170,3932170,-0.0042513334,0.0017246855,0.0015726498,-0.0046442803,0.0013368604,-0.052666795,4990,4990,0
300365929,300365628,3932170,3932170,-0.00038315437,0.00047601943,0.0012520851,-0.0023783061,0.016226616,-0.050451685,4988,4988,0
300864870,300864419,3932170,3932170,0.00037836022,-0.00017646297,0.00041342105,-0.001333865,-0.0054372028,-0.049860436,4989,4989,0
301363560,301363269,3932170,3932170,-8.412231e-05,-0.0004428695,-0.00024492593,-0.0018819576,-0.008535937,-0.04872203,5008,5008,0
301867307,301866979,3932170,3932170,0.00050720235,-0.00015701985,0.0010735354,-0.001628313,0.0070027406,-0.052359886,4980,4980,0
302366220,302365929,3932170,3932170,0.00067447015,0.0010198327,0.0003687811,-0.0007684818,-0.013102176,-0.050955374,4970,4970,0
302865053,302864787,3932170,3932170,-0.0017729322,3.5468533e-05,0.0007519025,-0.0031211602,-0.01714326,-0.04767279,4964,4964,0
303363595,303363340,3932170,3932170,-4.886526e-05,0.00053553056,-0.00044615514,-0.0023266606,-0.00022412649,-0.04872521,4981,4981,0
303862377,303862127,3932170,3932170,0.0009947348,-0.00016386743,-0.00012598747,-0.0012419597,0.014110547,-0.0509785,4987,4987,0
304366154,304365906,3932170,3932170,-0.0007501303,0.00029929078,0.0011836375,-0.0012862985,-0.00363401,-0.048570015,4991,4991,0
304864944,304864696,3932170,3932170,0.00068244763,-0.00050004345,-0.0011193265,-0.004224008,0.0055878917,-0.042493187,4994,4994,0
305363732,305363479,3932170,3932170,0.00026320908,-0.00049246824,-0.001043138,0.000794061,-0.012251905,-0.044940427,4988,4988,0
305867539,305867292,3932170,3932170,0.004921532,-0.0002936365,-0.0012491505,0.0020251756,-0.02498416,-0.045088764,4967,4967,0
306366492,306366271,3932170,3932170,0.00062377803,-0.0008850556,-0.00093811285,-0.0006989248,-0.014158348,-0.045683667,4966,4966,0
306865082,306864828,3932170,3932170,-0.00031180406,0.00082438835,0.00034413708,0.0021812294,0.008207077,-0.05027663,4988,4988,0
307363897,307363617,3932170,3932170,0.003981528,-0.00078823435,-0.00012120694,-0.0013954455,-0.02184604,-0.039317403,4990,4990,0
307862653,307862404,3932170,3932170,-0.001482187,-2.7618154e-05,0.00021428047,0.005096421,-0.01658199,-0.0489561,4989,4989,0
308366520,308366178,3932170,3932170,0.0013149725,0.00043053913,-2.1001555e-05,0.00090434705,0.016627757,-0.045864258,4980,4980,0
308865260,308864966,3932170,3932170,0.0010531731,-0.0009437924,-0.001071677,0.00029929297,-0.007411585,-0.04375502,4981,4981,0
309364805,309363804,3932170,3932170,-0.00025059027,-0.00011211897,-0.00057624764,-0.0009904107,-0.012740615,-0.05192602,4964,4964,0
309868021,309867733,3932170,3932170,0.0018720315,-0.00062535994,-0.00085470616,0.0014240255,0.009788997,-0.046270445,4966,4966,0
310361626,310361327,3932170,3932170,0.00043669032,0.00026434456,-0.00055061624,0.0005162145,-0.0010364533,-0.048618924,4988,4988,0
310865360,310865104,3932170,3932170,-0.0003456527,5.0756345e-05,0.00054445287,-0.004099855,0.0028368267,-0.050881945,4990,4990,0
311364136,311363889,3932170,3932170,-3.469566e-05,0.0007235765,4.9319362e-05,-0.0037185657,-0.008086894,-0.047334895,4988,4988,0
311867927,311867669,3932170,3932170,0.00065672374,0.0002531284,0.00085918204,-0.003955125,-0.0026403237,-0.058926184,4981,4981,0
312366713,312366452,3932170,3932170,-0.0022030512,0.00021026596,0.0005435088,-0.0033151868,-0.011973988,-0.047369417,4987,4987,0
312865652,312865289,3932170,3932170,-0.0037189487,0.00078785623,0.0007072381,-0.0026379027,0.023237374,-0.055292208,4969,4969,0
313364580,313364244,3932170,3932170,-0.00074665435,0.00011132625,0.00076086697,0.0009854529,-0.0074186954,-0.049973905,4961,4961,0
313863133,313862818,3932170,3932170,-0.0002676941,0.0005828915,0.0007382527,0.0025585818,-0.004671415,-0.048374154,4992,4992,0
314361966,314361647,3932170,3932170,0.0008380748,8.72932e-05,-0.0009471693,-0.0036472208,0.0074503617,-0.047604933,4979,4979,0
314865735,314865378,3932170,3932170,0.000709594,-0.00092392054,-0.00022496929,-0.00019542241,-4.2484633e-05,-0.045975573,4994,4994,0
315364454,315364164,3932170,3932170,0.00031563197,0.0008290206,-0.0008082641,-0.00082391157,0.0014596699,-0.043569636,4989,4989,0
315863295,315862952,3932170,3932170,-0.00069466827,0.0004952828,0.0008840994,-0.0021534488,0.0024976376,-0.050925795,4988,4988,0
316362131,316361796,3932170,3932170,-0.00052720244,0.00022568353,0.0005652924,-0.0036259033,-0.0059284703,-0.046967693,4967,4967,0
316865988,316865717,3932170,3932170,5.038625e-05,-0.000120893594,0.00014184784,-0.001498651,-4.64861e-05,-0.04714303,4966,4966,0
317364577,317364321,3932170,3932170,-0.00071988715,7.3290794e-05,0.00032382633,-0.0029559804,-0.006824254,-0.04710225,5005,5005,0
317863332,317863087,3932170,3932170,0.00079099333,-0.00024107282,0.0001751137,-0.00288181,0.0032414699,-0.05055202,4988,4988,0
318362201,318361909,3932170,3932170,0.002545455,-0.00018037803,2.1149806e-05,0.0034646962,0.009025338,-0.051385976,5022,5022,0
318865985,318865650,3932170,3932170,0.0006531422,-0.00027432098,-0.0008979547,-0.0016888015,-0.01650513,-0.045687452,4988,4988,0
319364769,319364438,3932170,3932170,-0.0004032905,0.0003711651,0.0009120603,-0.001400409,0.020028008,-0.05383755,4961,4961,0
319863558,319863311,3932170,3932170,0.00045321698,-6.718635e-05,0.00041918564,0.0028052249,-0.00183063,-0.04865417,4938,4938,0
320367501,320367201,3932170,3932170,0.0023093354,-0.0007434356,0.00041861672,-0.0064163697,0.007881097,-0.0533572,4965,4965,0
320861054,320860799,3932170,3932170,0.0007650672,-0.00074000034,-0.0009755091,-0.003197396,-0.0019764004,-0.048445966,4988,4988,0
321364895,321364574,3932170,3932170,0.00040414522,-0.00012604924,-8.143849e-05,0.0017337856,0.011994703,-0.051762115,4983,4983,0
321863608,321863361,3932170,3932170,0.0009161013,0.00034742113,0.00032983828,-0.004990169,0.008866734,-0.048715968,4987,4987,0
322367550,322367143,3932170,3932170,0.0009771261,2.7115106e-05,-3.4301895e-05,-0.0023050164,0.017478766,-0.050603308,4990,4990,0
322866170,322865923,3932170,3932170,0.00013947711,-0.00033293606,-0.00041777067,-0.00068194355,-0.005844195,-0.04510411,4986,4986,0
323365768,323364783,3932170,3932170,-0.00027981243,6.659865e-05,0.00018274157,0.00063574006,-0.0061950036,-0.04578592,5016,5016,0
323863962,323863701,3932170,3932170,0.00053002266,0.0008672347,0.0006648555,-0.00076761906,0.01483423,-0.052803755,4965,4965,0
324362584,324362285,3932170,3932170,-0.0004003744,-0.00072343356,-0.00021360967,-0.0047393166,0.0035125006,-0.04575618,4977,4977,0
324861419,324861100,3932170,3932170,-0.00087263365,-0.00021006909,0.0005191961,-2.7289674e-05,0.005847408,-0.050685525,4986,4986,0
325365185,325364847,3932170,3932170,0.00018718983,0.0020091543,-0.0008441382,-0.0032298332,0.01014351,-0.048609592,4989,4989,0
325863882,325863635,3932170,3932170,-0.0003457361,0.0003232009,-0.00023682076,0.00043388212,-0.0066836723,-0.0467971,4982,4982,0
326367666,326367410,3932170,3932170,-0.00082853646,0.00042902437,0.00094817014,-0.0035611638,-0.009970079,-0.0525007,4989,4989,0
326866516,326866266,3932170,3932170,-9.205377e-05,-0.0015244944,-0.00024156383,-0.0027988048,-0.015818592,-0.049885787,5018,5018,0
327365538,327365181,3932170,3932170,-0.0011533737,0.002511022,0.00060613133,0.0014766706,-0.0045609414,-0.049542796,4921,4921,0
327864096,327863775,3932170,3932170,0.00059228815,-0.00021145187,-0.0008140087,0.0014961873,0.0056364667,-0.048255622,4992,4992,0
328362801,328362557,3932170,3932170,-1.137736e-06,0.00021933003,0.0006106595,-0.005047471,-0.0038998355,-0.045791943,4983,4983,0
328867219,328866334,3932170,3932170,0.00013052905,-0.00019798207,0.0003541066,-0.0020787234,-0.0077574267,-0.048357453,4989,4989,0
329365405,329365119,3932170,3932170,-0.0005591533,0.00041798892,0.0009367958,0.0009843383,0.006633959,-0.05220884,4985,4985,0
329864614,329863912,3932170,3932170,-0.00066298095,0.0005075861,-6.650676e-05,-0.0049582496,0.0023180828,-0.046295337,4992,4992,0
330367997,330367739,3932170,3932170,0.0012393474,0.00077670446,-0.00013916499,0.004576908,0.021052266,-0.05454807,4975,4975,0
330867364,330866641,3932170,3932170,0.00040202006,0.00020764509,-0.00040809077,-0.002487194,0.004590295,-0.056223515,4951,4951,0
331365530,331365263,3932170,3932170,0.0004059884,-0.00069202244,-0.00063989835,0.0006699427,-0.014081433,-0.04852569,4996,4996,0
331864399,331864042,3932170,3932170,0.0024832136,-0.0005283579,-0.00076549844,-0.0018507593,0.007059578,-0.04950194,4987,4987,0
332363171,332362835,3932170,3932170,-5.3775882e-05,0.00011472085,0.0003184672,-0.0026496514,0.006195934,-0.05238766,4994,4994,0
332866857,332866609,3932170,3932170,0.0003505683,-0.0002820768,-0.0007998826,-0.0020464552,-0.0013762792,-0.044382453,4937,4937,0
333365641,333365392,3932170,3932170,-0.0001084935,-0.00012093468,0.00040742298,-0.00016798596,-0.006464396,-0.04716148,4979,4979,0
333864499,333864253,3932170,3932170,5.19218e-05,8.889353e-05,-0.00013393955,-0.0049910517,0.009719671,-0.047289,4985,4985,0
334368418,334368123,3932170,3932170,-0.00058162207,8.923794e-05,0.00046882205,-0.0058241272,0.0065169516,-0.049895734,4970,4970,0
334862018,334861754,3932170,3932170,-3.2693515e-05,-0.00015563797,0.000106990796,0.00036354514,-0.006516755,-0.047715202,4990,4990,0
335365878,335365531,3932170,3932170,0.00034635884,-3.9091443e-05,-0.0011608917,-0.002663038,-0.004358342,-0.045738623,4992,4992,0
335864557,335864314,3932170,3932170,0.0008883218,0.0004678235,0.00062446296,-0.0027016297,0.013371771,-0.049457744,4985,4985,0
336363691,336363103,3932170,3932170,-0.0009970029,0.0006243346,0.0008239586,0.00016896822,0.002298925,-0.052264556,4988,4988,0
336867185,336866876,3932170,3932170,-0.00039029206,0.00016021609,-0.00037632973,0.0029107775,-0.016616745,-0.04503339,4988,4988,0
337366558,337365667,3932170,3932170,-0.00021434082,-0.00055281114,7.205012e-05,-0.004029444,0.014402809,-0.050439335,4979,4979,0
337864874,337864621,3932170,3932170,-0.00020939371,6.008792e-06,0.00010771784,0.0063972855,0.005060787,-0.049182184,4950,4950,0
338363538,338363240,3932170,3932170,0.0021657068,1.4828027e-05,7.2601746e-05,-0.0034761282,0.004982737,-0.055334516,4985,4985,0
338862317,338862025,3932170,3932170,0.00042815355,-0.0003672913,-0.0010061312,0.0016128456,-0.017361447,-0.048918575,4988,4988,0
339366120,339365823,3932170,3932170,0.00039595552,-0.00037585638,-0.00042958016,-0.0016721204,0.00972969,-0.04715036,5013,5013,0
339864914,339864591,3932170,3932170,0.0005645373,-0.0007815237,-0.0010383376,0.00086122076,-0.014727,-0.044103827,4994,4994,0
340363708,340363376,3932170,3932170,-0.00012559615,-0.0009596025,0.00027650257,-0.0021555128,0.009555355,-0.049653158,4989,4989,0
340867489,340867241,3932170,3932170,0.00047893892,0.0003724945,-0.0008112801,0.00038060697,-0.0016655979,-0.0476087,4976,4976,0
341366343,341366093,3932170,3932170,-0.0002968191,0.00019012684,0.0011130072,-0.001950942,0.002692724,-0.048204005,4968,4968,0
341865781,341864722,3932170,3932170,0.000380217,1.66196e-05,-0.0001624705,-0.0015387231,-0.00039294464,-0.04783534,4990,4990,0
342363809,342363507,3932170,3932170,0.0016658432,0.00010444966,-0.00040603607,-0.0017989079,0.010854981,-0.051058263,4987,4987,0
342862677,342862296,3932170,3932170,-0.0008506225,0.00013214123,7.217306e-05,-0.0020270918,0.0022811997,-0.049760114,4973,4973,0
343366313,343366069,3932170,3932170,0.0005502568,-0.00060892926,-0.0011288289,-0.0021263817,-0.011171011,-0.050740834,4985,4985,0
343866019,343864858,3932170,3932170,0.00064233784,0.00025089204,-0.00023914255,0.0044267783,0.017892158,-0.0530662,4988,4988,0
344363985,344363647,3932170,3932170,0.0002981365,0.00028032067,-0.000605244,-0.001733168,0.0067380937,-0.049770433,4967,4967,0
344867946,344867565,3932170,3932170,0.0014650833,-0.00048066195,-0.003070547,-0.0028758354,0.008789197,-0.049736034,4947,4947,0
345361513,345361216,3932170,3932170,0.00018433576,0.001176801,-0.0037660757,-0.011739475,0.0049585085,-0.04530362,4988,4988,0
345865285,345865005,3932170,3932170,0.00070766336,-0.00024748468,-0.002921018,0.002238061,0.0013052549,-0.04331851,5000,5000,0
346364023,346363777,3932170,3932170,9.606439e-06,-0.00026062486,-0.0035612078,0.007952686,-0.011954494,-0.047073275,4987,4987,0
346862813,346862564,3932170,3932170,-0.0006509224,0.0002677857,-0.00072727853,-0.0044109696,0.004897491,-0.058181964,4988,4988,0
347366749,347366340,3932170,3932170,-0.00029188354,1.8511075e-05,0.00084281294,-0.005319672,0.0052884957,-0.059082065,4989,4989,0
347865395,347865148,3932170,3932170,0.0010906205,-0.0002827397,-0.0009912393,-0.0029236944,-0.0024698565,-0.048216686,4952,4952,0
348364325,348364079,3932170,3932170,-5.143727e-05,0.0005862357,-0.0005074496,-0.002305938,0.011836075,-0.048898138,4970,4970,0
348862954,348862699,3932170,3932170,0.00052900985,-0.00082227774,-0.0002120604,-0.00058727263,0.002017629,-0.046996124,4937,4937,0
349366788,349366478,3932170,3932170,0.00040043567,-0.00076942204,-0.0011500287,0.0014806621,-0.018893912,-0.052280594,4992,4992,0
349865566,349865266,3932170,3932170,-4.812379e-05,0.0006090787,0.000172823,-0.0069608595,0.015637504,-0.046826612,4993,4993,0
350364577,350364051,3932170,3932170,0.00052962516,-0.0005714853,-0.0006496371,-0.0023653826,-0.017057732,-0.04544703,4990,4990,0
350863167,350862880,3932170,3932170,-0.00025179936,-0.00010289736,-8.066288e-05,0.002944824,-0.0046632187,-0.048442736,4988,4988,0
351367004,351366668,3932170,3932170,-0.00045618374,-0.00043375258,0.0003796318,-0.0042974567,-0.015639823,-0.050047822,4956,4956,0
351865791,351865540,3932170,3932170,-0.00093103107,-0.0005336289,0.0002888663,-5.6282857e-05,-0.007716831,-0.045181114,4967,4967,0
352364439,352364181,3932170,3932170,0.00039479323,-0.0005645904,-0.0009600177,-0.0028151304,-0.008792387,-0.04571496,4982,4982,0
352863286,352862971,3932170,3932170,0.00023475057,-0.00046518218,-0.0003498719,-0.00445641,-0.0004094033,-0.045439214,4990,4990,0
353362056,353361767,3932170,3932170,0.0005244443,0.00067204126,-0.00019780453,0.0010125178,0.011708167,-0.051102098,5000,5000,0
353865779,353865530,3932170,3932170,-0.00027062892,0.00012418191,5.7552745e-05,0.0005647128,-0.02144626,-0.049407434,4988,4988,0
354364612,354364317,3932170,3932170,-0.00043754186,5.061574e-06,4.8013557e-05,0.004991513,0.0034948648,-0.045227163,4988,4988,0
354863394,354863143,3932170,3932170,0.0003225852,1.5418853e-05,-0.0005127716,0.00030058363,-0.009422913,-0.041473594,4970,4970,0
355367319,355367013,3932170,3932170,-0.00027654332,-0.00014874768,7.536293e-05,-0.0011048806,-0.004064189,-0.04706932,4964,4964,0
355865934,355865669,3932170,3932170,-0.00056592777,0.0001983939,0.00015588955,-0.00139658,-0.011530289,-0.05020049,4992,4992,0
356364722,356364452,3932170,3932170,-2.7911057e-05,0.00011807492,-0.00052335026,-0.006258727,0.010517454,-0.06004068,4989,4989,0
356863539,356863240,3932170,3932170,-0.00022035399,1.2154377e-05,0.0006169219,-0.0011534697,-0.00043036457,-0.057269372,4990,4990,0
357362364,357362025,3932170,3932170,-0.00033062036,0.00024170111,0.0005359166,0.0007959269,-0.0066543585,-0.048458148,4989,4989,0
357866139,357865801,3932170,3932170,-0.00052410975,-0.0014484279,-0.0004546152,-0.0032118007,0.0073654437,-0.047094516,4988,4988,0
358364955,358364587,3932170,3932170,-0.00070068595,0.00083003845,0.0005558468,-0.0029553457,-0.0010581113,-0.047310263,4988,4988,0
358863885,358863572,3932170,3932170,0.00065623684,-0.0003277589,-0.0004277119,-0.0036418273,0.0030454742,-0.044068743,4967,4967,0
359362413,359362159,3932170,3932170,0.0011789064,-0.00041433837,-0.00048000185,-0.0046940623,0.010138165,-0.045997005,4987,4987,0
359861224,359860945,3932170,3932170,-0.00020734743,0.0004899728,0.00047377945,-0.0048922687,-0.0058400957,-0.05737894,4988,4988,0
360364970,360364720,3932170,3932170,0.00038318275,-0.0010894027,0.0011129732,-0.003723896,0.009413987,-0.05503888,4988,4988,0
360863801,360863508,3932170,3932170,-0.00039780527,0.0014303715,0.00020264767,-0.0064723673,0.009135931,-0.04784752,4984,4984,0
361367535,361367283,3932170,3932170,0.00019332697,0.0016288398,0.00028276868,-0.0024525018,-0.00774101,-0.04815697,4989,4989,0
361866322,361866072,3932170,3932170,0.0010878339,-0.00018122111,-0.00040869732,-0.00018806868,-0.008790705,-0.051278267,4959,4959,0
362365358,362365059,3932170,3932170,-1.1854914e-05,-0.00090758334,-0.0002751057,-0.0035011913,-0.006027978,-0.04587507,5039,5039,0
362863902,362863641,3932170,3932170,3.3889602e-05,-0.0010865919,0.00077189266,0.001124653,0.00726717,-0.050837014,4988,4988,0
363362789,363362430,3932170,3932170,0.00025072644,3.1323612e-05,4.1263345e-05,0.0011699714,0.0016650113,-0.044950217,4990,4990,0
363866499,363866206,3932170,3932170,0.000398705,-0.0014673166,0.00030231275,0.00041026212,-0.006390866,-0.049090527,4988,4988,0
364365239,364364988,3932170,3932170,0.0012536406,-0.00012482167,0.000288931,-0.003994936,0.028258782,-0.056909416,4986,4986,0
364864067,364863777,3932170,3932170,0.0010106789,3.8969963e-05,0.00094284484,-0.0040965467,0.0054062535,-0.050756607,4990,4990,0
365368484,365367583,3932170,3932170,-0.0009947836,0.0007921747,0.00091155176,-0.0027853646,-0.0016543829,-0.053164903,4963,4963,0
365861788,365861491,3932170,3932170,0.00014560409,-0.00078913814,-0.00021842864,-0.003284019,-0.013648051,-0.04760626,4968,4968,0
366365386,366365122,3932170,3932170,-0.00016755062,-0.0003758797,-0.0001962686,0.00039481756,0.0059213275,-0.049405854,4983,4983,0
366864173,366863913,3932170,3932170,0.0002971602,-0.00039628052,0.00014461143,-0.0008872612,-0.0034982555,-0.049178097,4991,4991,0
367363003,367362744,3932170,3932170,-0.00014415833,3.5249137e-05,-0.0009521076,0.0028413222,-0.0023487965,-0.04611974,5037,5037,0
367866828,367866470,3932170,3932170,-0.00016154256,0.0003276189,-0.0005522485,0.0024336253,-0.008933924,-0.050046213,4988,4988,0
368365551,368365256,3932170,3932170,0.0038172323,-0.0012344295,-0.00056264823,-0.0020183607,-0.014113054,-0.04967675,4982,4982,0
368864310,368864050,3932170,3932170,0.0003922125,-0.00016611809,-0.000115521056,-0.004653359,-0.012186319,-0.043911394,4965,4965,0
369363215,369362957,3932170,3932170,-0.00012181455,0.00020903362,-0.0004483504,0.002589101,0.0030969393,-0.047369134,4959,4959,0
369862001,369861669,3932170,3932170,0.0013104083,-0.00034909244,-0.00027004295,-0.003971834,-0.0024974137,-0.049001534,5041,5041,0
370365660,370365390,3932170,3932170,-0.00078281283,0.00010271599,0.00037654568,-0.0052520526,0.005151794,-0.050142143,4988,4988,0
370864516,370864176,3932170,3932170,0.00056924834,-6.9866204e-05,-0.0001556376,-0.003846515,-0.01692152,-0.047179397,4985,4985,0
371363269,371362965,3932170,3932170,-0.00056647154,-2.207391e-05,3.1016687e-06,0.0006491702,-0.015538726,-0.04710912,4968,4968,0
371867220,371866770,3932170,3932170,-0.0009054328,0.0012087426,0.0008855051,-0.0029055302,0.0055600805,-0.054526318,4980,4980,0
372365828,372365582,3932170,3932170,0.00011478802,0.0006246117,-0.0002543605,-0.0012953028,-0.007974821,-0.0484157,5033,5033,0
