timestamp,roll,pitch,yaw,thrust_body[0],thrust_body[1],thrust_body[2]
143364049,-0.12875599,0.039387982,-0.00048924034,0.0,0.0,-0.0
143369025,-0.12822677,0.040418662,-0.0010100293,0.0,0.0,-0.0
143383842,-0.12556343,0.040061895,-0.0014924898,0.0,0.0,-0.0
143408642,-0.1320549,0.03964199,0.00037979963,0.0,0.0,-0.0
143423610,-0.12289691,0.03779197,-0.0009811445,0.0,0.0,-0.0
143443449,-0.13314794,0.039325535,-0.00050705107,0.0,0.0,-0.0
143463309,-0.121876225,0.03890597,-0.0009290721,0.0,0.0,-0.0
143483120,-0.1332759,0.039993398,-2.6900963e-05,0.0,0.0,-0.0
143502924,-0.12496014,0.039982174,-0.0004258024,0.0,0.0,-0.0
143522880,-0.12693381,0.03960443,-0.0024749383,0.0,0.0,-0.0
143547812,-0.12647614,0.041389197,-0.001169094,0.0,0.0,-0.0
143562582,-0.1300356,0.04068807,0.00074812345,0.0,0.0,-0.0
143582469,-0.12547763,0.039539393,-0.0027610906,0.0,0.0,-0.0
143607335,-0.12517294,0.039784558,-0.0025121463,0.0,0.0,-0.0
143622234,-0.1314888,0.039325133,0.0013984133,0.0,0.0,-0.0
143642105,-0.12720776,0.039466094,-0.0018887947,0.0,0.0,-0.0
143666845,-0.1257431,0.039452456,-0.0030874338,0.0,0.0,-0.0
143686686,-0.12640569,0.039696682,-0.000149038,0.0,0.0,-0.0
143701557,-0.13118428,0.039188016,-0.00049472146,0.0,0.0,-0.0
143726374,-0.12886932,0.038927812,-0.00203514,0.0,0.0,-0.0
143746178,-0.1252289,0.038811292,-0.0024841316,0.0,0.0,-0.0
143761096,-0.13016368,0.039010894,0.0011678251,0.0,0.0,-0.0
143786061,-0.13048363,0.039217062,0.00038273534,0.0,0.0,-0.0
143805971,-0.12922518,0.03834113,-0.002401886,0.0,0.0,-0.0
143825764,-0.12544267,0.037872054,-0.0014411226,0.0,0.0,-0.0
143845590,-0.12700188,0.038355947,0.00083266106,0.0,0.0,-0.0
143865457,-0.13049343,0.038878012,-0.0009433491,0.0,0.0,-0.0
143885429,-0.1297788,0.039088406,-0.001739316,0.0,0.0,-0.0
143905209,-0.1253032,0.038131952,-0.00038815476,0.0,0.0,-0.0
143924970,-0.12582111,0.03906354,0.00013103758,0.0,0.0,-0.0
143944782,-0.13128574,0.03850303,-0.0015455976,0.0,0.0,-0.0
143964640,-0.13016912,0.038318884,-0.0011770048,0.0,0.0,-0.0
143984552,-0.12504141,0.037380457,-0.00068817404,0.0,0.0,-0.0
144004359,-0.12573558,0.03758944,-0.00049301627,0.0,0.0,-0.0
144024316,-0.13130061,0.037874926,-0.0008783225,0.0,0.0,-0.0
144044231,-0.13047199,0.03857766,-0.0003089088,0.0,0.0,-0.0
144064232,-0.1243474,0.03750447,-0.0010699966,0.0,0.0,-0.0
144084119,-0.12398721,0.036143146,-0.0013395442,0.0,0.0,-0.0
144103814,-0.13237227,0.03657482,-0.00045911194,0.0,0.0,-0.0
144123669,-0.13048863,0.037648495,0.0001941597,0.0,0.0,-0.0
144143538,-0.12321836,0.03713673,-0.0013668186,0.0,0.0,-0.0
144163306,-0.1245278,0.035468213,-0.0014689959,0.0,0.0,-0.0
144183123,-0.13239299,0.035605267,-0.00015473433,0.0,0.0,-0.0
144203054,-0.12998486,0.037428126,-5.8204074e-05,0.0,0.0,-0.0
144222858,-0.123197936,0.03716155,-0.0016703801,0.0,0.0,-0.0
144247676,-0.12386581,0.036422014,-0.0016193037,0.0,0.0,-0.0
144262573,-0.13078444,0.035826582,1.0699656e-05,0.0,0.0,-0.0
144282517,-0.12792714,0.038553976,-0.00033365318,0.0,0.0,-0.0
144307311,-0.12641907,0.039018426,-0.0004898831,0.0,0.0,-0.0
144322231,-0.12815765,0.033881757,-0.0008685124,0.0,0.0,-0.0
144342129,-0.12903112,0.035322227,-0.0005837228,0.0,0.0,-0.0
144366949,-0.12840962,0.035668425,-0.00092342234,0.0,0.0,-0.0
144386717,-0.12532905,0.038715035,-0.0013846857,0.0,0.0,-0.0
144401612,-0.12903091,0.033914436,3.6161397e-05,0.0,0.0,-0.0
144426493,-0.12905204,0.034159526,0.00017488195,0.0,0.0,-0.0
144446320,-0.12630667,0.036020603,-0.0014898848,0.0,0.0,-0.0
144461203,-0.12781572,0.03736066,-0.0001475103,0.0,0.0,-0.0
144485986,-0.12870668,0.035586573,8.2750186e-05,0.0,0.0,-0.0
144505837,-0.13027684,0.033657093,0.00038616345,0.0,0.0,-0.0
144525764,-0.12508135,0.035380397,-0.0021131039,0.0,0.0,-0.0
144545617,-0.1243715,0.036891147,-0.0016267737,0.0,0.0,-0.0
144565440,-0.1295774,0.035470795,0.0008645643,0.0,0.0,-0.0
144585310,-0.13019742,0.033584926,0.00036215415,0.0,0.0,-0.0
144605314,-0.12471595,0.034285966,-0.002814091,0.0,0.0,-0.0
144625243,-0.12404428,0.036452428,-0.0013511037,0.0,0.0,-0.0
144645022,-0.12947357,0.035470482,0.0014937004,0.0,0.0,-0.0
144664740,-0.13018449,0.03375575,0.00023665398,0.0,0.0,-0.0
144684598,-0.12520823,0.033148956,-0.0032362875,0.0,0.0,-0.0
144704560,-0.12346532,0.035430744,-0.0013032177,0.0,0.0,-0.0
144724462,-0.12856944,0.03606776,0.0014424623,0.0,0.0,-0.0
144744164,-0.1294226,0.035502866,2.1252912e-05,0.0,0.0,-0.0
144764024,-0.12630022,0.03282748,-0.002810736,0.0,0.0,-0.0
144783972,-0.12461355,0.033382356,-0.001306453,0.0,0.0,-0.0
144803811,-0.12549835,0.035267886,0.0009849691,0.0,0.0,-0.0
144823712,-0.1286438,0.035785574,-0.00028661886,0.0,0.0,-0.0
144843420,-0.12927088,0.033558644,-0.0020360684,0.0,0.0,-0.0
144863299,-0.1246411,0.033152662,-0.0009528762,0.0,0.0,-0.0
144883305,-0.12331039,0.035237174,0.00025137604,0.0,0.0,-0.0
144903156,-0.12789966,0.034931872,-0.0006410841,0.0,0.0,-0.0
144922969,-0.13083276,0.03366906,-0.0011722607,0.0,0.0,-0.0
144947876,-0.13083011,0.033224568,-0.0010210894,0.0,0.0,-0.0
144962725,-0.12179282,0.034072924,-0.00057159655,0.0,0.0,-0.0
144982600,-0.12627038,0.034086764,-0.00077244395,0.0,0.0,-0.0
145007399,-0.12779841,0.033681646,-0.00029788644,0.0,0.0,-0.0
145022217,-0.12723033,0.034410745,-0.0005106415,0.0,0.0,-0.0
145042022,-0.12012078,0.03386558,-0.0014006231,0.0,0.0,-0.0
145066881,-0.12020734,0.033636503,-0.0013784005,0.0,0.0,-0.0
145086742,-0.12791042,0.032901295,-0.00049443886,0.0,0.0,-0.0
145101606,-0.12684481,0.03551641,-0.00045293762,0.0,0.0,-0.0
145126481,-0.124678075,0.03537299,-0.00075348216,0.0,0.0,-0.0
145146469,-0.12078963,0.03256831,-0.0016069821,0.0,0.0,-0.0
145161423,-0.13033362,0.03388646,-1.9749965e-05,0.0,0.0,-0.0
145186159,-0.12958072,0.035019755,-0.000343774,0.0,0.0,-0.0
145206000,-0.124446765,0.03676733,-0.00095977564,0.0,0.0,-0.0
145225865,-0.123955,0.03199163,-0.000933682,0.0,0.0,-0.0
145245728,-0.12711741,0.030031312,-1.6154874e-05,0.0,0.0,-0.0
145265464,-0.12611915,0.03381919,-0.0008485384,0.0,0.0,-0.0
145285352,-0.124845676,0.03710634,-0.0016798477,0.0,0.0,-0.0
145305205,-0.1259281,0.033377737,-0.0005279168,0.0,0.0,-0.0
145325037,-0.12727664,0.030415177,0.0004022956,0.0,0.0,-0.0
145344854,-0.124235265,0.032709286,-0.0012327727,0.0,0.0,-0.0
145364777,-0.12365584,0.03450879,-0.0016370713,0.0,0.0,-0.0
145384720,-0.12702705,0.03310389,0.00016361343,0.0,0.0,-0.0
145404565,-0.12867945,0.030904217,0.00039478682,0.0,0.0,-0.0
145424513,-0.12251864,0.031930048,-0.0019438317,0.0,0.0,-0.0
145444271,-0.12202825,0.033464987,-0.0015541727,0.0,0.0,-0.0
145464180,-0.12838455,0.032087483,0.0006294322,0.0,0.0,-0.0
145484081,-0.13006505,0.03105825,0.00041960302,0.0,0.0,-0.0
145503833,-0.12265902,0.031484894,-0.002779942,0.0,0.0,-0.0
145523637,-0.12131255,0.032838672,-0.0014831186,0.0,0.0,-0.01747858
145543471,-0.12761766,0.03159165,0.0014226956,0.0,0.0,-0.031211749
145563422,-0.12960202,0.030516017,0.0004841398,0.0,0.0,-0.03995104
145583218,-0.123418055,0.029251851,-0.0029136494,0.0,0.0,-0.04244798
145603108,-0.12017083,0.029680967,-0.002095623,0.0,0.0,-0.04494492
145622938,-0.12505701,0.030830242,0.00095998304,0.0,0.0,-0.04494492
145647891,-0.12466955,0.030672263,0.0011738803,0.0,0.0,-0.04744186
145662760,-0.12729827,0.031151406,-0.0011361352,0.0,0.0,-0.06492044
145682656,-0.12150225,0.02919595,-0.0035001799,0.0,0.0,-0.06492044
145707451,-0.12192029,0.030021984,-0.0047613564,0.0,0.0,-0.1905263
145722341,-0.12403728,0.028211761,-0.00071147474,0.0,0.0,-0.1905263
145742281,-0.12797505,0.03106887,-0.0012401951,0.0,0.0,-0.19789474
145766981,-0.12288961,0.025373751,-0.002262211,0.0,0.0,-0.21052632
145786797,-0.12213698,0.029132107,-0.0032240693,0.0,0.0,-0.21052632
145801659,-0.12897734,0.04083904,-0.003121283,0.0,0.0,-0.21157895
145826592,-0.113965996,0.032509588,-0.006131939,0.0,0.0,-0.21157895
145846403,-0.11973904,0.035025503,-0.006406857,0.0,0.0,-0.21157895
145861283,-0.11677438,0.025732182,-0.00364857,0.0,0.0,-0.21157895
145886078,-0.12597923,0.028126061,-0.0038444297,0.0,0.0,-0.21157895
145905943,-0.11975645,0.023148973,-0.0031251325,0.0,0.0,-0.21157895
145925851,-0.11738794,0.028764185,-0.0018309037,0.0,0.0,-0.21157895
145945789,-0.12662366,0.03573366,-0.0027199134,0.0,0.0,-0.21157895
145965788,-0.12925082,0.031544417,-0.004843542,0.0,0.0,-0.21157895
145985382,-0.118071966,0.025059797,-0.0022865513,0.0,0.0,-0.21157895
146005289,-0.116133906,0.024749158,-0.0016706149,0.0,0.0,-0.21157895
146025170,-0.118070595,0.028323293,-0.0022126066,0.0,0.0,-0.21157895
146045063,-0.121776454,0.031606544,-0.0017374483,0.0,0.0,-0.21157895
146064930,-0.12508038,0.030598346,-0.0008157617,0.0,0.0,-0.21157895
146084696,-0.12256774,0.025851397,-0.00020813968,0.0,0.0,-0.21157895
146104589,-0.11618564,0.02644828,0.0027862196,0.0,0.0,-0.21157895
146124454,-0.120501444,0.030889397,0.0045283823,0.0,0.0,-0.21157895
146144370,-0.124696866,0.024618119,0.001829643,0.0,0.0,-0.21052632
146164056,-0.120505475,0.02384699,8.2362225e-05,0.0,0.0,-0.21052632
146183922,-0.121450104,0.031039285,0.00084547687,0.0,0.0,-0.20947368
146203853,-0.12131183,0.030884055,0.00042947027,0.0,0.0,-0.20947368
146223783,-0.12111965,0.027655596,-0.00070753146,0.0,0.0,-0.20947368
146243745,-0.12606452,0.028481312,-0.0006959058,0.0,0.0,-0.20947368
146263420,-0.12587531,0.027013618,-0.00121469,0.0,0.0,-0.20947368
146283417,-0.1182934,0.025879001,-0.001590058,0.0,0.0,-0.20947368
146303285,-0.11550747,0.026613094,-0.0013753327,0.0,0.0,-0.20947368
146323185,-0.12518826,0.03137265,-0.0020778365,0.0,0.0,-0.20947368
146347907,-0.12161296,0.028169932,-0.002220184,0.0,0.0,-0.21157895
146362709,-0.12129037,0.029107222,-0.0013179667,0.0,0.0,-0.21263158
146382643,-0.11697397,0.027046885,-0.0003468073,0.0,0.0,-0.21157895
146407379,-0.12634692,0.029748494,-0.0013128591,0.0,0.0,-0.21157895
146422286,-0.12234532,0.02609069,-0.00065169693,0.0,0.0,-0.2136842
146442138,-0.12610182,0.022778118,-0.0012172539,0.0,0.0,-0.2136842
146467022,-0.11742682,0.022420464,0.0014709177,0.0,0.0,-0.2136842
146486939,-0.12391141,0.025056642,-0.001059796,0.0,0.0,-0.2136842
146501954,-0.12340963,0.027463052,-0.001701075,0.0,0.0,-0.2136842
146526607,-0.12429855,0.033596296,-0.0024357408,0.0,0.0,-0.2136842
146546506,-0.12043109,0.026384838,-0.002272179,0.0,0.0,-0.2136842
146561406,-0.123438664,0.026782392,-0.0026285474,0.0,0.0,-0.2136842
146586263,-0.12050778,0.029178312,-0.0032058293,0.0,0.0,-0.2136842
146605971,-0.12459527,0.031088963,-0.0039471327,0.0,0.0,-0.2136842
146625790,-0.12080219,0.026444886,-0.0033097875,0.0,0.0,-0.2136842
146645648,-0.11834365,0.025697194,-0.0026363563,0.0,0.0,-0.2136842
146665559,-0.11957171,0.023199985,-0.0020618793,0.0,0.0,-0.2136842
146685416,-0.12023081,0.029783875,-0.0011827555,0.0,0.0,-0.2136842
146705232,-0.12133076,0.027846718,-0.00048115663,0.0,0.0,-0.22
146725177,-0.12126509,0.021356894,-0.00024552582,0.0,0.0,-0.22526316
146745068,-0.11598461,0.024680296,0.0006287317,0.0,0.0,-0.23473684
146765013,-0.11554892,0.022218095,0.0007425559,0.0,0.0,-0.2368421
146784834,-0.113584734,0.023401046,-0.000594169,0.0,0.0,-0.2368421
146804744,-0.12025303,0.025664534,-0.00026621335,0.0,0.0,-0.23578948
146824568,-0.12755866,0.02810474,0.0005547672,0.0,0.0,-0.23578948
146844505,-0.118586704,0.021448309,0.00018569465,0.0,0.0,-0.23578948
146864223,-0.117659375,0.023121271,0.0028556222,0.0,0.0,-0.23578948
146884008,-0.12552084,0.024342608,0.0026094092,0.0,0.0,-0.23578948
146903824,-0.12468902,0.024289899,0.0014110788,0.0,0.0,-0.23578948
146923750,-0.12102571,0.02593356,0.0023574827,0.0,0.0,-0.23473684
146943620,-0.11225935,0.021311723,0.0012493927,0.0,0.0,-0.23368421
146963496,-0.11822486,0.026129702,8.197892e-05,0.0,0.0,-0.23263158
146983353,-0.12637801,0.029169332,-0.0011417835,0.0,0.0,-0.23263158
147003182,-0.11887803,0.029530244,0.0004308414,0.0,0.0,-0.23263158
147023119,-0.11905193,0.027067931,0.001495256,0.0,0.0,-0.23263158
147048088,-0.12520336,0.026679674,0.0011736817,0.0,0.0,-0.23368421
147062848,-0.12436372,0.027702479,0.0015531277,0.0,0.0,-0.23368421
147082735,-0.12182165,0.022082638,0.0002322149,0.0,0.0,-0.23368421
147107491,-0.12405126,0.03233325,-0.000502088,0.0,0.0,-0.23368421
147122400,-0.12380508,0.030441567,-0.0010849566,0.0,0.0,-0.23263158
147142223,-0.11981815,0.026506342,-0.0020763853,0.0,0.0,-0.23368421
147166992,-0.12366938,0.02262307,-2.1264686e-05,0.0,0.0,-0.23368421
147186877,-0.11678523,0.02440027,-0.00062412146,0.0,0.0,-0.23368421
147201704,-0.11593485,0.024977854,-0.00018950552,0.0,0.0,-0.23368421
147226559,-0.11890275,0.019979086,-0.00059838896,0.0,0.0,-0.23263158
147246503,-0.1200238,0.023334688,0.0018154858,0.0,0.0,-0.23263158
147261369,-0.12024224,0.025206873,0.00085465057,0.0,0.0,-0.23263158
147286245,-0.12099906,0.026566263,0.0004778715,0.0,0.0,-0.23263158
147306164,-0.12646323,0.026307648,0.0022150544,0.0,0.0,-0.23263158
147325978,-0.119764395,0.018209642,0.001358371,0.0,0.0,-0.23263158
147345838,-0.11986236,0.021741698,0.0037422513,0.0,0.0,-0.23263158
147365695,-0.11619698,0.020478351,0.0026743598,0.0,0.0,-0.23368421
147385570,-0.11737473,0.021142002,0.0013209814,0.0,0.0,-0.23368421
147405298,-0.12683111,0.03016489,0.00012396745,0.0,0.0,-0.23473684
147425203,-0.117468216,0.020493422,-0.00074651913,0.0,0.0,-0.23789474
147445024,-0.119394034,0.021437576,0.0014725332,0.0,0.0,-0.26
147464925,-0.124838725,0.020254945,0.0023620534,0.0,0.0,-0.26
147484801,-0.122948244,0.030833255,0.0024413043,0.0,0.0,-0.29578948
147504653,-0.12551886,0.02365702,-2.1668006e-05,0.0,0.0,-0.3042105
147524516,-0.120537475,0.022034759,0.00029275462,0.0,0.0,-0.3031579
147544375,-0.121655814,0.021247301,0.00083484367,0.0,0.0,-0.3031579
147564389,-0.119072005,0.022363357,0.0015396774,0.0,0.0,-0.3031579
147584301,-0.11760734,0.014279989,0.0018159088,0.0,0.0,-0.3031579
147603976,-0.116307884,0.016212156,0.0033869697,0.0,0.0,-0.3031579
147623843,-0.12209231,0.019947978,0.0033004682,0.0,0.0,-0.3031579
147643843,-0.119820826,0.016748175,0.003194878,0.0,0.0,-0.3031579
147663590,-0.12206726,0.023728779,0.004321631,0.0,0.0,-0.3031579
147683375,-0.12450565,0.024531245,0.00680834,0.0,0.0,-0.3031579
147703155,-0.11347765,0.018968966,0.00826798,0.0,0.0,-0.3031579
147723053,-0.12076071,0.019871354,0.009871287,0.0,0.0,-0.3031579
147747938,-0.11916324,0.020735774,0.009725354,0.0,0.0,-0.3031579
147762830,-0.115318514,0.0189305,0.008439443,0.0,0.0,-0.3031579
147782659,-0.12481503,0.025448734,0.009588825,0.0,0.0,-0.3031579
147807473,-0.114611134,0.016459575,0.011380261,0.0,0.0,-0.3031579
147822514,-0.11706437,0.016656885,0.012722364,0.0,0.0,-0.3031579
147842435,-0.12733531,0.023962842,0.013784541,0.0,0.0,-0.3031579
147867098,-0.11779333,0.021708284,0.01343998,0.0,0.0,-0.3031579
147886910,-0.12115438,0.023492508,0.013720142,0.0,0.0,-0.3031579
147902013,-0.11773229,0.02669797,0.015115801,0.0,0.0,-0.3031579
147926690,-0.12159224,0.02396338,0.017785924,0.0,0.0,-0.3031579
147946607,-0.12415762,0.025460193,0.016186351,0.0,0.0,-0.3031579
147961450,-0.12038791,0.022270652,0.016658342,0.0,0.0,-0.3031579
147986202,-0.117293864,0.017650088,0.018457785,0.0,0.0,-0.3031579
148006122,-0.1229574,0.017993802,0.019326365,0.0,0.0,-0.31157896
148025961,-0.11132396,0.01488684,0.018931078,0.0,0.0,-0.32526317
148045870,-0.11858083,0.019847102,0.017592862,0.0,0.0,-0.32526317
148065580,-0.11563728,0.019590355,0.017045457,0.0,0.0,-0.3431579
148085444,-0.113318056,0.013866034,0.019618077,0.0,0.0,-0.3568421
148105462,-0.118506804,0.015096801,0.019203447,0.0,0.0,-0.36
148125516,-0.10675048,0.009303522,0.01974746,0.0,0.0,-0.36105263
148145182,-0.10312244,0.003606022,0.018958196,0.0,0.0,-0.36105263
148164989,-0.10818624,0.0045510316,0.018866625,0.0,0.0,-0.36105263
148184916,-0.10397948,-0.0003407806,0.015752643,0.0,0.0,-0.36105263
148204796,-0.098632604,0.002317844,0.010964697,0.0,0.0,-0.36
148224554,-0.094486065,0.002704095,0.008646725,0.0,0.0,-0.36
148244323,-0.09701643,0.008062357,0.007883419,0.0,0.0,-0.36
148264180,-0.0956906,0.0010624405,0.0067798705,0.0,0.0,-0.36
148284128,-0.10051684,-0.0029342722,0.0030313092,0.0,0.0,-0.36
148304011,-0.09223851,-0.008384728,0.0039335457,0.0,0.0,-0.36
148323825,-0.08916815,-0.0042463266,0.003287978,0.0,0.0,-0.36
148343685,-0.094697416,-0.0020238042,-1.1916491e-06,0.0,0.0,-0.36105263
148363624,-0.090601355,0.0009340346,-0.00257712,0.0,0.0,-0.36421052
148383565,-0.10071553,0.000245291,-0.004607266,0.0,0.0,-0.36421052
148403366,-0.0909785,-0.0040822076,-0.008186463,0.0,0.0,-0.36421052
148423136,-0.09740438,0.0029491547,-0.01024745,0.0,0.0,-0.36421052
148447943,-0.102570474,0.0071732323,-0.014803907,0.0,0.0,-0.36526316
148462914,-0.10655956,0.0065597645,-0.017187996,0.0,0.0,-0.36526316
148482768,-0.109128155,0.008767227,-0.018667335,0.0,0.0,-0.3663158
148507552,-0.10183049,0.01624823,-0.021016754,0.0,0.0,-0.3663158
148522451,-0.101697385,0.007423515,-0.022166228,0.0,0.0,-0.36842105
148542374,-0.10545523,0.00016759972,-0.024055911,0.0,0.0,-0.3705263
148567167,-0.1027837,-0.0008958621,-0.02513109,0.0,0.0,-0.37473685
148587047,-0.094245315,0.004562696,-0.027230643,0.0,0.0,-0.39157897
148601908,-0.09563323,0.0044166325,-0.030283019,0.0,0.0,-0.39157897
148626733,-0.0927102,-0.01080296,-0.031007834,0.0,0.0,-0.3936842
148646677,-0.08947829,-0.016933637,-0.03483783,0.0,0.0,-0.3936842
148661738,-0.07712588,-0.012138119,-0.036848977,0.0,0.0,-0.3936842
148686321,-0.067805335,0.0013593485,-0.04290137,0.0,0.0,-0.39473686
148706219,-0.06412835,0.0064872634,-0.047387343,0.0,0.0,-0.39473686
148726075,-0.060235824,-0.0005941326,-0.052191738,0.0,0.0,-0.39473686
148745887,-0.062269405,-0.010549132,-0.056537587,0.0,0.0,-0.39578947
148765697,-0.058094636,-0.026683468,-0.061509278,0.0,0.0,-0.40105262
148785637,-0.056821723,-0.028001696,-0.066971265,0.0,0.0,-0.4031579
148805453,-0.06452071,-0.023009853,-0.06728956,0.0,0.0,-0.4052632
148825288,-0.06226228,-0.018828835,-0.06852582,0.0,0.0,-0.40736842
148845188,-0.06564484,-0.018404253,-0.0749569,0.0,0.0,-0.40736842
148864942,-0.059020486,-0.02745857,-0.07598258,0.0,0.0,-0.40842104
148884857,-0.063044526,-0.027589845,-0.07660618,0.0,0.0,-0.40736842
148904749,-0.065187335,-0.024861485,-0.07723203,0.0,0.0,-0.40736842
148924650,-0.0699867,-0.020762777,-0.08130306,0.0,0.0,-0.40736842
148944431,-0.07275921,-0.022680433,-0.081227615,0.0,0.0,-0.40736842
148964386,-0.08125651,-0.019306794,-0.08331413,0.0,0.0,-0.40736842
148984253,-0.0803452,-0.020812757,-0.08637548,0.0,0.0,-0.40736842
149004099,-0.07909815,-0.024041321,-0.09281277,0.0,0.0,-0.40842104
149023878,-0.06355802,-0.029127322,-0.09533996,0.0,0.0,-0.40842104
149043772,-0.05479174,-0.03417506,-0.096453756,0.0,0.0,-0.40842104
149063687,-0.044146337,-0.029013557,-0.09881237,0.0,0.0,-0.41157895
149083507,-0.04373084,-0.027339157,-0.10343962,0.0,0.0,-0.41368422
149103249,-0.035563555,-0.023718135,-0.10536303,0.0,0.0,-0.41368422
149123090,-0.03247175,-0.0265212,-0.10994689,0.0,0.0,-0.41368422
149147980,-0.03388271,-0.019753285,-0.11383883,0.0,0.0,-0.41368422
149162922,-0.029474169,-0.020241385,-0.117304504,0.0,0.0,-0.41368422
149182853,-0.02491204,-0.018982165,-0.11854289,0.0,0.0,-0.41368422
149207606,-0.022785285,-0.01965468,-0.12252927,0.0,0.0,-0.41368422
149222565,-0.023649631,-0.02515172,-0.123781905,0.0,0.0,-0.41473684
149242439,-0.02683079,-0.025611375,-0.12275153,0.0,0.0,-0.41473684
149267234,-0.025127726,-0.02277997,-0.12509249,0.0,0.0,-0.41578946
149286991,-0.021489186,-0.020953601,-0.123124495,0.0,0.0,-0.41578946
149301866,-0.018930119,-0.026235567,-0.12353526,0.0,0.0,-0.41578946
149326740,-0.028235234,-0.032943908,-0.12442134,0.0,0.0,-0.41578946
149346556,-0.027899304,-0.03444047,-0.122725256,0.0,0.0,-0.4168421
149361452,-0.023796126,-0.036957823,-0.12471767,0.0,0.0,-0.41578946
149386241,-0.02421213,-0.037571114,-0.12401772,0.0,0.0,-0.41578946
149406092,-0.019650443,-0.0388301,-0.12473291,0.0,0.0,-0.41578946
149426042,-0.03000718,-0.032681655,-0.12765889,0.0,0.0,-0.4168421
149445976,-0.020012524,-0.03767556,-0.1271193,0.0,0.0,-0.41578946
149465875,-0.021326935,-0.032720674,-0.12979539,0.0,0.0,-0.4168421
149485693,-0.017618619,-0.034749754,-0.12939215,0.0,0.0,-0.4168421
149505460,-0.024380507,-0.027415592,-0.13039863,0.0,0.0,-0.41894737
149525344,-0.028478695,-0.028215932,-0.13187128,0.0,0.0,-0.42631578
149545300,-0.028191082,-0.025332192,-0.13474932,0.0,0.0,-0.43263158
149565140,-0.020405289,-0.024487767,-0.13507475,0.0,0.0,-0.4463158
149584967,-0.020251658,-0.020427844,-0.13576773,0.0,0.0,-0.44842106
149604742,-0.012203343,-0.026039252,-0.13643898,0.0,0.0,-0.45473683
149624625,0.005961915,-0.021744605,-0.13685144,0.0,0.0,-0.45789474
149644574,0.021421826,-0.018535845,-0.1371709,0.0,0.0,-0.4589474
149664318,0.026039843,-0.021284051,-0.13681181,0.0,0.0,-0.46421054
149684128,0.03471327,-0.031214375,-0.13606822,0.0,0.0,-0.46421054
149704025,0.054508578,-0.039615043,-0.13387616,0.0,0.0,-0.46421054
149724070,0.059775606,-0.032553677,-0.13276981,0.0,0.0,-0.4663158
149743856,0.06378023,-0.030002031,-0.13235843,0.0,0.0,-0.4663158
149763750,0.080663905,-0.029696874,-0.13371369,0.0,0.0,-0.46842104
149783618,0.10060372,-0.02712394,-0.13236879,0.0,0.0,-0.46842104
149803489,0.10501741,-0.025231095,-0.13068855,0.0,0.0,-0.46842104
149823331,0.10963062,-0.026541565,-0.12903216,0.0,0.0,-0.46842104
149848063,0.10195492,-0.028256306,-0.13011879,0.0,0.0,-0.46842104
149863001,0.09592593,-0.029410282,-0.1290482,0.0,0.0,-0.46842104
149882756,0.09154961,-0.028805647,-0.1265194,0.0,0.0,-0.46842104
149907562,0.08168901,-0.026148992,-0.12548886,0.0,0.0,-0.4694737
149922460,0.07657154,-0.024939494,-0.12386066,0.0,0.0,-0.4694737
149942293,0.06981129,-0.02312832,-0.124270186,0.0,0.0,-0.47368422
149967219,0.07483089,-0.024713594,-0.12269606,0.0,0.0,-0.47578946
149987152,0.0739955,-0.029024705,-0.12413434,0.0,0.0,-0.4768421
150002110,0.07855711,-0.032915626,-0.12263191,0.0,0.0,-0.4768421
150026825,0.0961733,-0.038144954,-0.12184629,0.0,0.0,-0.4768421
150046729,0.10724025,-0.03224206,-0.12173795,0.0,0.0,-0.4768421
150061702,0.12159642,-0.03220185,-0.12307879,0.0,0.0,-0.4768421
150086455,0.16339359,-0.02644076,-0.12247874,0.0,0.0,-0.4768421
150106165,0.17847551,-0.029372677,-0.1189999,0.0,0.0,-0.4768421
150126005,0.1926628,-0.03997418,-0.11482703,0.0,0.0,-0.47789475
150145929,0.18980838,-0.04713928,-0.11263873,0.0,0.0,-0.48000002
150165753,0.1741739,-0.05958714,-0.11061773,0.0,0.0,-0.48210526
150185605,0.16215105,-0.06702964,-0.10607509,0.0,0.0,-0.48526317
150205503,0.14696243,-0.0729327,-0.10189159,0.0,0.0,-0.49894738
150225408,0.14297354,-0.07287826,-0.09767959,0.0,0.0,-0.5094737
150245272,0.13181978,-0.06722706,-0.096104585,0.0,0.0,-0.5105998
150265220,0.12063999,-0.059971306,-0.094116576,0.0,0.0,-0.5117993
150284973,0.11620138,-0.059097197,-0.09164299,0.0,0.0,-0.5117993
150304908,0.11595632,-0.056121364,-0.089285165,0.0,0.0,-0.5117993
150324766,0.11337629,-0.061774895,-0.08567112,0.0,0.0,-0.5117993
150344548,0.12581432,-0.07806608,-0.081073314,0.0,0.0,-0.5117993
150364341,0.13920605,-0.09133884,-0.07923276,0.0,0.0,-0.5117993
150384229,0.14393528,-0.09936047,-0.07869801,0.0,0.0,-0.5117993
150404101,0.14332761,-0.09634785,-0.075046696,0.0,0.0,-0.5117993
150423997,0.13120876,-0.078977965,-0.07232093,0.0,0.0,-0.5117993
150443846,0.109596714,-0.059685044,-0.07076001,0.0,0.0,-0.5117993
150463642,0.089564495,-0.060344268,-0.06829554,0.0,0.0,-0.5117993
150483541,0.08991782,-0.070517816,-0.065997705,0.0,0.0,-0.5117993
150503440,0.0985421,-0.08131642,-0.06514103,0.0,0.0,-0.5117993
150523360,0.10960652,-0.08961998,-0.064940594,0.0,0.0,-0.5117993
150548331,0.11566484,-0.09633628,-0.062581845,0.0,0.0,-0.5117993
150563012,0.116006516,-0.10169873,-0.061864257,0.0,0.0,-0.5117993
150582892,0.10786365,-0.08941506,-0.060170457,0.0,0.0,-0.5117993
150607698,0.08393662,-0.07584651,-0.058981188,0.0,0.0,-0.5117993
150622582,0.067191824,-0.06513611,-0.055310108,0.0,0.0,-0.5117993
150642383,0.059821196,-0.058542553,-0.054850742,0.0,0.0,-0.5117993
150667205,0.07386679,-0.056146696,-0.052628007,0.0,0.0,-0.5117993
150687133,0.09291534,-0.06327474,-0.048983518,0.0,0.0,-0.5117993
150702017,0.104883455,-0.0724135,-0.050040677,0.0,0.0,-0.5117993
150726809,0.0905572,-0.08450389,-0.04843891,0.0,0.0,-0.5117993
150746668,0.08086428,-0.07941781,-0.046492975,0.0,0.0,-0.5117993
150761485,0.08532194,-0.06878478,-0.042618454,0.0,0.0,-0.5117993
150786510,0.073803656,-0.04478307,-0.039352767,0.0,0.0,-0.5117993
150806357,0.06388333,-0.029325103,-0.036925793,0.0,0.0,-0.5117993
150826095,0.05433778,-0.018086638,-0.034937598,0.0,0.0,-0.5094737
150845987,0.05042729,-0.014458115,-0.03186158,0.0,0.0,-0.5010526
150865913,0.052616864,-0.014792993,-0.02961203,0.0,0.0,-0.49894738
150885769,0.052629232,-0.01477019,-0.027437015,0.0,0.0,-0.48526317
150905665,0.068037584,-0.020573162,-0.025965659,0.0,0.0,-0.48526317
150925412,0.086158745,-0.022859022,-0.021816663,0.0,0.0,-0.47473684
150945288,0.09122472,-0.019854655,-0.019602288,0.0,0.0,-0.47157896
150965117,0.08892353,-0.015826,-0.017861083,0.0,0.0,-0.4663158
150984963,0.08481334,-0.01639589,-0.016456015,0.0,0.0,-0.4663158
151004825,0.064306855,-0.014070284,-0.016692866,0.0,0.0,-0.4663158
151024674,0.043071758,-0.009135779,-0.014114956,0.0,0.0,-0.4663158
151044586,0.033585858,-0.006683413,-0.009894665,0.0,0.0,-0.46736842
151064457,0.020978872,-0.003639774,-0.010404925,0.0,0.0,-0.46842104
151084510,0.0140698105,-0.009286658,-0.008967881,0.0,0.0,-0.46842104
151104318,0.019963812,-0.014166976,-0.006886868,0.0,0.0,-0.46736842
151124164,0.026932374,-0.019830903,-0.008459039,0.0,0.0,-0.46736842
151144047,0.042958237,-0.026246343,-0.004227578,0.0,0.0,-0.46736842
151163929,0.05010912,-0.025267173,-0.0038131797,0.0,0.0,-0.46736842
151183746,0.054181907,-0.033519663,-0.0033555585,0.0,0.0,-0.46736842
151203500,0.05673173,-0.035931643,-0.0029040163,0.0,0.0,-0.46736842
151223231,0.04938987,-0.03692398,-0.0013845165,0.0,0.0,-0.46736842
151248070,0.06048444,-0.039863136,0.00015469211,0.0,0.0,-0.46736842
151262943,0.069290645,-0.035295263,0.0020590804,0.0,0.0,-0.46736842
151282852,0.06944661,-0.03534374,0.0023603528,0.0,0.0,-0.46736842
151307680,0.078243665,-0.02806689,0.004975927,0.0,0.0,-0.4694737
151322678,0.0740489,-0.02686147,0.0066034975,0.0,0.0,-0.4694737
151342604,0.07110016,-0.022634147,0.00918695,0.0,0.0,-0.4694737
151367419,0.06625608,-0.019693935,0.009903567,0.0,0.0,-0.4694737
151387239,0.06667326,-0.016389973,0.0131302355,0.0,0.0,-0.4694737
151402094,0.06550433,-0.012932716,0.012864895,0.0,0.0,-0.4694737
151426901,0.06372596,-0.010214379,0.015522164,0.0,0.0,-0.4694737
151446675,0.06477393,-0.005049567,0.016059091,0.0,0.0,-0.4694737
151461622,0.049304955,0.0013561297,0.018004874,0.0,0.0,-0.47263157
151486415,0.04218221,0.010017359,0.020766607,0.0,0.0,-0.47263157
151506210,0.057358176,0.012118357,0.020346794,0.0,0.0,-0.47263157
151526067,0.06377062,0.010277613,0.019765878,0.0,0.0,-0.47263157
151546061,0.06485584,0.012719359,0.020659417,0.0,0.0,-0.47263157
151565888,0.06474007,0.011787666,0.021761997,0.0,0.0,-0.47368422
151585780,0.081073016,0.008855439,0.024700595,0.0,0.0,-0.47368422
151600660,0.08346858,-0.00279397,0.022321895,0.0,0.0,-0.47263157
151625645,0.092492096,-0.038274832,0.022711629,0.0,0.0,-0.47368422
151645405,0.08796621,-0.070617095,0.023294777,0.0,0.0,-0.47368422
151665262,0.08161664,-0.12962733,0.024272144,0.0,0.0,-0.47263157
151685009,0.07687296,-0.26804268,0.025203014,0.0,0.0,-0.47263157
151704836,0.07147372,-0.2556619,0.02429834,0.0,0.0,-0.47263157
151724814,0.074156225,-0.38766998,0.022638503,0.0,0.0,-0.47263157
151744581,0.09653141,-0.5545873,0.023891896,0.0,0.0,-0.47157896
151764449,0.059363555,-0.55008125,0.021938121,0.0,0.0,-0.4694737
151784316,0.039736368,-0.50382346,0.021632383,0.0,0.0,-0.46842104
151804152,0.01887627,-0.42542756,0.019147081,0.0,0.0,-0.4663158
151824082,0.013170757,-0.34643114,0.017000558,0.0,0.0,-0.4663158
151843925,0.00708747,-0.27008018,0.01491596,0.0,0.0,-0.4663158
151863830,-0.0038345668,-0.19699551,0.013547342,0.0,0.0,-0.46526316
151883737,-0.0046592304,-0.14910117,0.014269995,0.0,0.0,-0.46526316
151903591,-0.0037466406,-0.10485567,0.009228358,0.0,0.0,-0.4663158
151923366,-0.0033282486,-0.09312931,0.006820682,0.0,0.0,-0.4663158
151948230,0.011169629,-0.080467656,0.009044049,0.0,0.0,-0.4663158
151963101,0.014678822,-0.07172665,0.005366097,0.0,0.0,-0.4663158
151982984,0.0032628549,-0.04831589,0.004377234,0.0,0.0,-0.4663158
152007751,0.004655804,-0.04103332,0.0024410149,0.0,0.0,-0.4663158
152022633,0.000771199,-0.02296164,-0.00011457759,0.0,0.0,-0.4663158
152042572,-0.00544503,0.01839381,0.00089428626,0.0,0.0,-0.4663158
152067367,0.0019899837,0.06586341,-0.0043425607,0.0,0.0,-0.4694737
152087209,-0.007512045,0.089208074,-0.0032808061,0.0,0.0,-0.47157896
152102156,-0.004761546,0.08852094,-0.0043688645,0.0,0.0,-0.47157896
152126899,-0.0037453887,0.11324087,-0.0057718162,0.0,0.0,-0.47263157
152146815,-0.0014814402,0.1448091,-0.006404634,0.0,0.0,-0.47263157
152161894,0.004534314,0.15194541,-0.0038786875,0.0,0.0,-0.47263157
152186519,0.000800891,0.14800407,-0.005624292,0.0,0.0,-0.47578946
152206370,0.007264967,0.12637462,-0.0048493976,0.0,0.0,-0.48105264
152226348,0.012151491,0.114304766,-0.004157517,0.0,0.0,-0.48842105
152246147,0.0030900426,0.102392204,-0.0058863135,0.0,0.0,-0.49578947
152265963,0.0016139878,0.08295931,-0.0035532205,0.0,0.0,-0.49894738
152285881,-0.0034470377,0.088679716,-0.003705847,0.0,0.0,-0.5
152305762,-0.006493377,0.0817265,-0.0029479722,0.0,0.0,-0.5
152325529,0.0010614978,0.083354086,-0.00026609146,0.0,0.0,-0.50421053
152345279,0.004501502,0.06474992,-0.0023729575,0.0,0.0,-0.50631577
152365214,0.014364339,0.035266645,0.00075045216,0.0,0.0,-0.50631577
152385069,0.02690475,0.021099895,0.005851102,0.0,0.0,-0.50631577
152404975,0.02901445,0.011785863,0.007445626,0.0,0.0,-0.50736845
152424859,0.028734868,0.0009176858,0.009297137,0.0,0.0,-0.50736845
152444794,0.033893503,-0.011658145,0.0121717565,0.0,0.0,-0.50736845
152464605,0.035407368,-0.017925367,0.013645634,0.0,0.0,-0.50736845
152484461,0.028737323,-0.017716847,0.014975557,0.0,0.0,-0.50842106
152504307,0.024357682,-0.017277595,0.018655628,0.0,0.0,-0.50842106
152524100,0.02446162,-0.022169933,0.023715373,0.0,0.0,-0.50842106
152544000,0.02345552,-0.038041424,0.02697007,0.0,0.0,-0.50842106
152563942,0.020094536,-0.060860224,0.03077428,0.0,0.0,-0.5094737
152583649,0.021310925,-0.07556643,0.03445402,0.0,0.0,-0.5094737
152603443,0.023108454,-0.08767682,0.03656804,0.0,0.0,-0.5094737
152623303,0.021248613,-0.08702767,0.03861927,0.0,0.0,-0.5094737
152648185,0.027700996,-0.079696335,0.045584686,0.0,0.0,-0.5094737
152663141,0.028406385,-0.062426414,0.04443685,0.0,0.0,-0.5094737
152683087,0.029021068,-0.04749375,0.046399355,0.0,0.0,-0.5094737
152707812,0.032488983,-0.031810794,0.052109934,0.0,0.0,-0.5094737
152722760,0.03152793,-0.021447835,0.05442128,0.0,0.0,-0.5094737
152742653,0.024765309,-0.020172155,0.056822754,0.0,0.0,-0.5094737
152767421,0.021707673,-0.023970405,0.05801804,0.0,0.0,-0.5094737
152787345,0.020219786,-0.030418288,0.06027359,0.0,0.0,-0.5094737
152802070,0.020350482,-0.040632617,0.06347584,0.0,0.0,-0.5094737
152827014,0.02163913,-0.037113898,0.066152595,0.0,0.0,-0.5094737
152846758,0.014650198,-0.016223535,0.065347925,0.0,0.0,-0.5094737
152861618,0.011141283,-0.016683057,0.06770429,0.0,0.0,-0.5094737
152886463,0.015461458,-0.0147902155,0.07036894,0.0,0.0,-0.50842106
152906412,0.014388853,-0.021681579,0.07071849,0.0,0.0,-0.50842106
152926257,0.021210924,-0.022196438,0.07249791,0.0,0.0,-0.5094737
152941184,0.026934378,-0.03631978,0.07012234,0.0,0.0,-0.5094737
152966085,0.021117968,-0.036321785,0.066988155,0.0,0.0,-0.50842106
152985915,0.018718293,-0.027370835,0.06652471,0.0,0.0,-0.50736845
153005712,0.008246031,-0.014311942,0.06591279,0.0,0.0,-0.50631577
153025516,-0.0039018646,0.0056603095,0.06647174,0.0,0.0,-0.50631577
153045445,-0.0140700145,0.03706775,0.06670772,0.0,0.0,-0.50631577
153065262,-0.022277763,0.06308311,0.063996285,0.0,0.0,-0.50526315
153085053,-0.024158835,0.05436564,0.06062011,0.0,0.0,-0.50526315
153104885,-0.021849483,0.071125254,0.058221336,0.0,0.0,-0.50526315
153124871,-0.017343959,0.066778824,0.055538714,0.0,0.0,-0.50526315
153144710,-0.013904706,0.049939282,0.05280226,0.0,0.0,-0.50421053
153164568,-0.004724509,0.043678865,0.049457837,0.0,0.0,-0.50421053
153184395,0.0052918997,0.04855343,0.045541584,0.0,0.0,-0.50421053
153204268,0.011544118,0.044436224,0.04241332,0.0,0.0,-0.50421053
153224271,0.017861966,0.03516777,0.03999108,0.0,0.0,-0.50421053
153244011,0.02258734,0.026466416,0.036910504,0.0,0.0,-0.50421053
153263967,0.022313574,0.018911589,0.033490695,0.0,0.0,-0.50421053
153283734,0.02484677,0.013608386,0.029531516,0.0,0.0,-0.50421053
153303677,0.026584834,0.01142226,0.02579046,0.0,0.0,-0.50421053
153323577,0.022783276,0.010632608,0.021837823,0.0,0.0,-0.50421053
153348260,0.013014646,-0.008956187,0.017997937,0.0,0.0,-0.50421053
153363061,0.010748705,-0.012520418,0.016745439,0.0,0.0,-0.50421053
153382931,0.008476159,-0.027960058,0.012940077,0.0,0.0,-0.50421053
153407808,0.0022284607,-0.03172297,0.007604135,0.0,0.0,-0.50421053
153422693,0.012503852,-0.050520644,0.0055872356,0.0,0.0,-0.5031579
153442580,0.015129394,-0.045589846,0.0029156008,0.0,0.0,-0.5031579
153467455,0.018677516,-0.07504232,-0.004945677,0.0,0.0,-0.5031579
153487475,0.019184861,-0.06634348,-0.0067188037,0.0,0.0,-0.5031579
153502424,0.017466826,-0.107744224,-0.0106694605,0.0,0.0,-0.5031579
153526969,0.017744567,-0.114104375,-0.011109417,0.0,0.0,-0.50421053
153546861,0.020672657,-0.10157108,-0.017997835,0.0,0.0,-0.50421053
153561798,0.023768656,-0.08875689,-0.01951092,0.0,0.0,-0.5031579
153586686,0.0338249,-0.06377034,-0.02269746,0.0,0.0,-0.50421053
153606459,0.031700145,-0.0072003077,-0.026118565,0.0,0.0,-0.5031579
153626437,0.033193707,0.031045614,-0.029314019,0.0,0.0,-0.5031579
153646258,0.025090847,0.133603,-0.03554882,0.0,0.0,-0.5031579
153666014,0.020533143,0.13260554,-0.03585946,0.0,0.0,-0.5031579
153685776,0.016459752,0.24205418,-0.03607314,0.0,0.0,-0.5021053
153700726,0.019330258,0.24942555,-0.039960988,0.0,0.0,-0.5021053
153725556,0.015665362,0.21780066,-0.03869508,0.0,0.0,-0.5010526
153745540,0.015484412,0.17844793,-0.04124139,0.0,0.0,-0.5010526
153765453,0.0119324,0.14290372,-0.043358892,0.0,0.0,-0.49894738
153785189,0.015633345,0.10744183,-0.042953126,0.0,0.0,-0.48736843
153805144,0.022665989,0.08337218,-0.0434859,0.0,0.0,-0.48736843
153824962,0.02939998,0.06582131,-0.04485844,0.0,0.0,-0.47157896
153844791,0.035032738,0.053154327,-0.045751538,0.0,0.0,-0.47157896
153864588,0.043154255,0.043408245,-0.044711556,0.0,0.0,-0.4663158
153884468,0.05370435,0.038725495,-0.04238653,0.0,0.0,-0.4589474
153904377,0.060111094,0.033108715,-0.043595914,0.0,0.0,-0.4589474
153924142,0.075261906,0.027087472,-0.04337583,0.0,0.0,-0.4589474
153944020,0.06586229,0.0185225,-0.040506363,0.0,0.0,-0.4589474
153963801,0.076808274,0.009741696,-0.039285522,0.0,0.0,-0.4589474
153983701,0.075258315,0.0017069476,-0.038252752,0.0,0.0,-0.4589474
154003628,0.060512528,-0.0013527925,-0.036385875,0.0,0.0,-0.4589474
154023585,0.056149136,-0.0064939726,-0.034037724,0.0,0.0,-0.4589474
154048455,0.062603295,-0.012864385,-0.031475004,0.0,0.0,-0.46
154063220,0.062147424,-0.016725797,-0.032130517,0.0,0.0,-0.46
154083130,0.060051274,-0.025726974,-0.028334774,0.0,0.0,-0.46105263
154107956,0.057690237,-0.026505984,-0.028371124,0.0,0.0,-0.46210527
154122842,0.059778336,-0.03685118,-0.027132185,0.0,0.0,-0.46421054
154142562,0.055713054,-0.02530328,-0.025264086,0.0,0.0,-0.46421054
154167372,0.051578183,-0.02565772,-0.02280454,0.0,0.0,-0.46421054
154187303,0.033088326,-0.032474007,-0.01965776,0.0,0.0,-0.46421054
154202160,0.031984553,-0.025825655,-0.020354848,0.0,0.0,-0.4631579
154226996,0.029293848,-0.03478692,-0.016073732,0.0,0.0,-0.46210527
154246850,0.024761023,-0.023292169,-0.016165413,0.0,0.0,-0.46210527
154261751,0.022923954,-0.024231523,-0.012156099,0.0,0.0,-0.46210527
154286675,0.014882099,-0.021886129,-0.0092872195,0.0,0.0,-0.46210527
154306612,0.012840785,-0.028533416,-0.0076365056,0.0,0.0,-0.46210527
154326351,0.007896105,-0.02812599,-0.0058060703,0.0,0.0,-0.46210527
154341270,0.011179651,-0.031065851,-0.0029626328,0.0,0.0,-0.46210527
154366121,0.010063142,-0.027887864,3.0143385e-05,0.0,0.0,-0.46210527
154385953,0.01181015,-0.026434613,0.0020479297,0.0,0.0,-0.46210527
154400832,0.006636144,-0.02252453,0.0038817292,0.0,0.0,-0.46210527
154425645,0.0014028971,-0.02398975,0.008179756,0.0,0.0,-0.46210527
154445440,-0.009128804,-0.028058693,0.0090730535,0.0,0.0,-0.46210527
154465311,-0.013235354,-0.03128422,0.011486559,0.0,0.0,-0.4631579
154485164,-0.02071827,-0.032348298,0.012376893,0.0,0.0,-0.4631579
154505081,-0.021139374,-0.03207495,0.016979456,0.0,0.0,-0.4631579
154524930,-0.02317405,-0.0273155,0.018170793,0.0,0.0,-0.4631579
154544799,-0.019234864,-0.020662997,0.019792564,0.0,0.0,-0.4631579
154564703,-0.021058045,-0.01284055,0.019992655,0.0,0.0,-0.4631579
154584716,-0.013891441,-0.0066142045,0.024164,0.0,0.0,-0.46421054
154604322,-0.01535105,-0.0007783541,0.024712073,0.0,0.0,-0.46526316
154624188,-0.010879751,-0.00051189825,0.027400259,0.0,0.0,-0.4663158
154644111,-0.00950913,-0.0049987817,0.027141409,0.0,0.0,-0.4663158
154663966,-0.0053993845,-0.031052962,0.029039621,0.0,0.0,-0.4663158
154683909,-0.0068717115,-0.06548502,0.031030273,0.0,0.0,-0.4663158
154703702,-0.00920432,-0.1158009,0.033107176,0.0,0.0,-0.4663158
154723612,-0.009844383,-0.18389167,0.03358397,0.0,0.0,-0.4663158
154748409,-0.014994788,-0.18067276,0.034502905,0.0,0.0,-0.4663158
154763299,-0.0008439605,-0.20650072,0.034798987,0.0,0.0,-0.4663158
154783077,-0.01447893,-0.2060492,0.0358065,0.0,0.0,-0.4663158
154807852,-0.010879519,-0.17175677,0.03637599,0.0,0.0,-0.4663158
154822823,-0.013327291,-0.13788004,0.033917807,0.0,0.0,-0.4663158
154842756,-0.01728283,-0.10767962,0.03557467,0.0,0.0,-0.4663158
154867535,-0.024677122,0.022371674,0.03343135,0.0,0.0,-0.4663158
154887394,-0.033615954,0.14417003,0.035867114,0.0,0.0,-0.4631579
154902317,-0.03214464,0.14968829,0.036274265,0.0,0.0,-0.4631579
154927095,-0.03926826,0.17556424,0.03712797,0.0,0.0,-0.46210527
154946924,-0.03158123,0.15175886,0.03823476,0.0,0.0,-0.4631579
154961889,-0.031330373,0.14238337,0.03872451,0.0,0.0,-0.4631579
154986725,-0.027224096,0.098999776,0.039727423,0.0,0.0,-0.4631579
155006482,-0.03321792,0.06629724,0.03961773,0.0,0.0,-0.4631579
155026282,-0.015486609,0.03514583,0.04047496,0.0,0.0,-0.4631579
155041181,-0.010335876,0.0192617,0.040613323,0.0,0.0,-0.4631579
155066057,-0.004675926,0.003617234,0.040012628,0.0,0.0,-0.4631579
155085921,-0.00039127536,0.0016689507,0.039346248,0.0,0.0,-0.4631579
155100887,-0.0016332583,0.0047456985,0.038953647,0.0,0.0,-0.4631579
155125841,-0.0037960187,0.010822453,0.03838411,0.0,0.0,-0.4631579
155145624,-0.0042316644,0.013272511,0.037893035,0.0,0.0,-0.46210527
155165484,-0.0012859753,0.014193687,0.036393397,0.0,0.0,-0.4631579
155185284,-0.008944178,0.012003115,0.035975084,0.0,0.0,-0.4631579
155205142,0.0076542515,0.009199266,0.035785668,0.0,0.0,-0.4631579
155225007,0.013310288,0.0015827059,0.033625204,0.0,0.0,-0.4631579
155244895,0.020623785,-0.0025854195,0.03256714,0.0,0.0,-0.4631579
155264646,0.023671428,-0.004813815,0.03172598,0.0,0.0,-0.4631579
155284458,0.026038622,-0.006045234,0.03203362,0.0,0.0,-0.46421054
155304312,0.023020517,-0.008237225,0.029486936,0.0,0.0,-0.4631579
155324275,0.021508027,-0.008434656,0.029694725,0.0,0.0,-0.4631579
155344126,0.013150465,-0.009731807,0.028442763,0.0,0.0,-0.46210527
155364036,0.006208981,-0.013788478,0.028807916,0.0,0.0,-0.46210527
155383930,0.012279554,-0.017633192,0.026341872,0.0,0.0,-0.46210527
155403882,0.009291599,-0.028182756,0.026516736,0.0,0.0,-0.46105263
155423645,0.0045222924,-0.0153854415,0.026277235,0.0,0.0,-0.46105263
155448573,0.0077482876,-0.027791414,0.025863018,0.0,0.0,-0.46105263
155463313,0.005881117,-0.02780493,0.02350548,0.0,0.0,-0.46105263
155483082,0.010732874,-0.02610464,0.024518218,0.0,0.0,-0.46105263
155507974,0.011770995,-0.027044628,0.02215745,0.0,0.0,-0.46105263
155522857,0.016500084,-0.021890145,0.024922155,0.0,0.0,-0.46105263
155542660,0.01835271,-0.023728587,0.021789465,0.0,0.0,-0.46105263
155567556,0.025820144,-0.029475994,0.02336876,0.0,0.0,-0.46210527
155587405,0.042966112,-0.04104793,0.020634416,0.0,0.0,-0.46210527
155602268,0.04710943,-0.05787859,0.023077529,0.0,0.0,-0.4631579
155627148,0.050034337,-0.14269535,0.022396313,0.0,0.0,-0.46421054
155647087,0.043057993,-0.1908262,0.022790566,0.0,0.0,-0.46421054
155662120,0.040146858,-0.1875607,0.021957947,0.0,0.0,-0.46421054
155681797,0.043485492,-0.24218962,0.023130622,0.0,0.0,-0.46421054
155706607,0.039998878,-0.22927743,0.020742549,0.0,0.0,-0.46421054
155726533,0.045417022,-0.22035436,0.021976303,0.0,0.0,-0.46421054
155741254,0.047298655,-0.23068213,0.020691127,0.0,0.0,-0.46421054
155766124,0.0433579,-0.24259228,0.0213988,0.0,0.0,-0.46421054
155785915,0.04762068,-0.24190831,0.01930022,0.0,0.0,-0.46421054
155800791,0.050411865,-0.2157677,0.021779357,0.0,0.0,-0.46421054
155825783,0.051408492,-0.22116345,0.02047185,0.0,0.0,-0.46421054
155845618,0.05478671,-0.19189917,0.021236395,0.0,0.0,-0.46421054
155865492,0.055049114,-0.19154307,0.01800914,0.0,0.0,-0.4663158
155885348,0.04370714,-0.21509528,0.018676598,0.0,0.0,-0.47473684
155905298,0.0013286879,-0.20498966,0.02031615,0.0,0.0,-0.47263157
155925282,-0.014334944,-0.18368985,0.020775437,0.0,0.0,-0.47368422
155944872,-0.009884186,-0.15778296,0.018182695,0.0,0.0,-0.47368422
155964698,-0.0044451104,-0.14160943,0.016729293,0.0,0.0,-0.47263157
155984592,0.019316591,-0.11453734,0.018244743,0.0,0.0,-0.47263157
156004486,0.049907316,-0.084776744,0.015794683,0.0,0.0,-0.47157896
156024380,0.059420556,-0.073978744,0.014874831,0.0,0.0,-0.47157896
156044328,0.039363906,-0.05613838,0.014463696,0.0,0.0,-0.47157896
156063986,-0.03183626,-0.030416276,0.013674049,0.0,0.0,-0.47052634
156083837,-0.040805668,0.002565489,0.014142126,0.0,0.0,-0.4694737
156103768,-0.058776174,-0.02005232,0.012279433,0.0,0.0,-0.46842104
156123608,-0.07120295,-0.058546755,0.012175693,0.0,0.0,-0.46736842
156148339,-0.03304054,-0.0928483,0.009858224,0.0,0.0,-0.46736842
156163284,-0.024795974,-0.11614965,0.008074049,0.0,0.0,-0.46842104
156183280,-0.004327004,-0.15425289,0.007552602,0.0,0.0,-0.46842104
156208075,0.008975218,-0.12780376,0.0042551807,0.0,0.0,-0.46842104
156222911,0.011686889,-0.1162513,0.004193924,0.0,0.0,-0.46842104
156242802,0.012941818,-0.09869436,0.00092421565,0.0,0.0,-0.46842104
156267644,0.0047281953,-0.09397492,-0.00046983335,0.0,0.0,-0.46842104
156287553,-0.0017346888,-0.08577627,-0.00482545,0.0,0.0,-0.46736842
156302374,-0.010662638,-0.060595382,-0.0058847433,0.0,0.0,-0.46736842
156322294,-0.009952846,-0.013191334,-0.006867469,0.0,0.0,-0.46736842
156346975,-0.014931535,-0.004757561,-0.011602193,0.0,0.0,-0.46736842
156362036,-0.011515755,-0.0015002141,-0.011010797,0.0,0.0,-0.46842104
156381827,-0.014353039,-0.004312668,-0.014698469,0.0,0.0,-0.46842104
156406595,-0.021721497,-0.02235956,-0.017141545,0.0,0.0,-0.4694737
156426403,-0.02066268,-0.035533346,-0.019289138,0.0,0.0,-0.4694737
156441322,-0.025179062,-0.038718592,-0.021282276,0.0,0.0,-0.47157896
156466309,-0.02022685,-0.037205275,-0.022558518,0.0,0.0,-0.47368422
156486118,-0.018639464,0.031604704,-0.027997945,0.0,0.0,-0.48105264
156501029,-0.012252818,0.030599436,-0.028967688,0.0,0.0,-0.48210526
156525763,-0.0028717474,0.032336567,-0.03294556,0.0,0.0,-0.48210526
156545745,-0.008608962,0.012615269,-0.033797424,0.0,0.0,-0.48105264
156565576,-0.015954621,0.00036329153,-0.034884963,0.0,0.0,-0.48105264
156585396,-0.021640478,-0.014622755,-0.03754344,0.0,0.0,-0.48105264
156605092,-0.03594888,-0.038046207,-0.04073418,0.0,0.0,-0.48105264
156624960,-0.034397803,-0.04093454,-0.03862222,0.0,0.0,-0.48105264
156644884,-0.038046636,-0.057438426,-0.041936073,0.0,0.0,-0.48210526
156664735,-0.043636847,-0.08457873,-0.044912662,0.0,0.0,-0.4831579
156684595,-0.04334747,-0.09717728,-0.044544004,0.0,0.0,-0.4831579
156704520,-0.041817594,-0.08988326,-0.045931157,0.0,0.0,-0.4831579
156724538,-0.042426586,-0.09795334,-0.049483787,0.0,0.0,-0.4831579
156744236,-0.032082796,-0.10361835,-0.050210297,0.0,0.0,-0.4831579
156764098,-0.03770851,-0.10903159,-0.054236125,0.0,0.0,-0.4831579
156784000,-0.032162074,-0.1284297,-0.05148153,0.0,0.0,-0.49052632
156803844,-0.03223568,-0.14254856,-0.053801678,0.0,0.0,-0.49894738
156823748,-0.041550916,-0.12697789,-0.05817093,0.0,0.0,-0.49894738
156848468,-0.051525526,-0.119078994,-0.05721539,0.0,0.0,-0.5010526
156863283,-0.049329568,-0.10845184,-0.056729443,0.0,0.0,-0.5010526
156883198,-0.065641604,-0.091999605,-0.061082292,0.0,0.0,-0.5010526
156908003,-0.069256745,-0.08374757,-0.05984375,0.0,0.0,-0.5010526
156922873,-0.07202106,-0.076841936,-0.06118335,0.0,0.0,-0.5010526
156942817,-0.065240756,-0.06463829,-0.06185393,0.0,0.0,-0.5010526
156967686,-0.007813835,-0.07390048,-0.06579258,0.0,0.0,-0.5010526
156987632,0.024623677,-0.08940107,-0.06334523,0.0,0.0,-0.49894738
157002589,0.026315715,-0.089949146,-0.065419436,0.0,0.0,-0.49894738
157022263,0.022387438,-0.08959687,-0.06712183,0.0,0.0,-0.49894738
157047147,-0.014133734,-0.059193008,-0.06309648,0.0,0.0,-0.5
157062051,-0.01677332,-0.052122667,-0.0625738,0.0,0.0,-0.5
157081885,-0.0069712093,-0.023769643,-0.06164422,0.0,0.0,-0.5
157106578,0.008467198,0.024493787,-0.06374588,0.0,0.0,-0.49894738
157126417,0.00081864453,0.022903847,-0.059843067,0.0,0.0,-0.49894738
157141321,-0.024029704,0.05611893,-0.058997016,0.0,0.0,-0.49894738
157166228,-0.02930963,0.08725586,-0.059375506,0.0,0.0,-0.49894738
157186081,-0.01158651,0.07545407,-0.057364553,0.0,0.0,-0.49894738
157200934,-0.0067008063,0.06633885,-0.05424887,0.0,0.0,-0.49894738
157225763,0.025712177,0.060420666,-0.05352317,0.0,0.0,-0.49789476
157245713,0.03436882,0.03699304,-0.053562783,0.0,0.0,-0.49789476
157265659,0.016470408,0.014574204,-0.05516775,0.0,0.0,-0.49789476
157285349,-0.00809355,0.005962184,-0.04963476,0.0,0.0,-0.49894738
157305216,-0.031943467,0.026803846,-0.04987888,0.0,0.0,-0.49894738
157325131,-0.040719293,0.03201715,-0.04999496,0.0,0.0,-0.49894738
157344984,-0.024890076,0.047048308,-0.050425455,0.0,0.0,-0.49894738
157364785,-0.025014887,0.08654222,-0.051255204,0.0,0.0,-0.49894738
157384677,-0.02164909,0.091897726,-0.048964664,0.0,0.0,-0.49894738
157404482,-0.014479395,0.09411244,-0.04835867,0.0,0.0,-0.49894738
157424406,-0.00394343,0.07446501,-0.04471561,0.0,0.0,-0.49894738
157444257,-0.0049491185,0.05828163,-0.048806276,0.0,0.0,-0.49894738
157464111,-0.0003340691,0.03163078,-0.04798509,0.0,0.0,-0.49894738
157483946,-0.0034135683,0.009391971,-0.044431306,0.0,0.0,-0.49894738
157503734,-0.007735084,-0.0068751667,-0.044535074,0.0,0.0,-0.49894738
157523726,-0.00048676622,-0.028581697,-0.04319816,0.0,0.0,-0.49894738
157548529,0.0029743644,-0.045408797,-0.043226887,0.0,0.0,-0.49894738
157563379,0.010538533,-0.09100934,-0.042724244,0.0,0.0,-0.49894738
157583273,0.008876382,-0.07898622,-0.04302243,0.0,0.0,-0.49894738
157608153,0.033300508,-0.123400666,-0.04181683,0.0,0.0,-0.49894738
157623043,0.019141229,-0.109148614,-0.042314816,0.0,0.0,-0.49894738
157642933,0.0151956715,-0.12575845,-0.04252287,0.0,0.0,-0.49894738
157667616,0.011173656,-0.09203624,-0.04210244,0.0,0.0,-0.49894738
157687493,0.009489603,-0.05771404,-0.03938657,0.0,0.0,-0.49894738
157702449,0.0034039067,-0.0250179,-0.0392459,0.0,0.0,-0.49894738
157722294,-0.0003806061,0.0012258033,-0.040125407,0.0,0.0,-0.49894738
157747010,0.010544542,0.11360317,-0.03589841,0.0,0.0,-0.49894738
157761929,0.022886612,0.21709655,-0.03693793,0.0,0.0,-0.49894738
157781883,0.03208488,0.20923029,-0.035407588,0.0,0.0,-0.49894738
157806771,0.021465808,0.24290502,-0.034842506,0.0,0.0,-0.49789476
157826578,0.019288257,0.21361355,-0.031768322,0.0,0.0,-0.49789476
157841486,0.027656471,0.28356814,-0.02971052,0.0,0.0,-0.49789476
157866310,0.018010924,0.2674819,-0.030863479,0.0,0.0,-0.49789476
157886132,0.022316428,0.2673566,-0.027298383,0.0,0.0,-0.49789476
157901049,0.024495166,0.2364208,-0.026836894,0.0,0.0,-0.49789476
157925873,0.031331547,0.19129851,-0.024409868,0.0,0.0,-0.49789476
157945707,0.01770182,0.15666279,-0.025157161,0.0,0.0,-0.49578947
157965602,0.019952353,0.12394898,-0.022061411,0.0,0.0,-0.49473685
157985342,0.020651476,0.101565525,-0.021090312,0.0,0.0,-0.49473685
158005198,0.014060425,0.07622436,-0.021968653,0.0,0.0,-0.49473685
158025101,0.036928177,0.052566886,-0.020977793,0.0,0.0,-0.48526317
158045011,0.04183622,0.025989525,-0.022324162,0.0,0.0,-0.48000002
158065050,0.0559397,0.013791939,-0.021353185,0.0,0.0,-0.48000002
158084992,0.053577326,-0.01055552,-0.020975798,0.0,0.0,-0.47789475
158104674,0.043605275,-0.020897957,-0.023573594,0.0,0.0,-0.47789475
158124493,0.03276658,-0.018509695,-0.021502934,0.0,0.0,-0.47789475
158144398,0.022672,-0.020976847,-0.01999862,0.0,0.0,-0.47789475
158164098,-0.0020803,-0.011228929,-0.022205664,0.0,0.0,-0.47789475
158184003,-0.006056354,-0.00983123,-0.02316795,0.0,0.0,-0.47789475
158203839,-0.008016346,-0.003756402,-0.02374863,0.0,0.0,-0.47789475
158223688,-0.013979578,0.0024621098,-0.023333972,0.0,0.0,-0.47789475
158248475,-0.004279968,-0.016678397,-0.022071349,0.0,0.0,-0.47789475
158263372,-0.004197428,-0.03824886,-0.025413154,0.0,0.0,-0.47894737
158283363,0.010805024,-0.049313046,-0.022879336,0.0,0.0,-0.48000002
158308137,0.01482118,-0.06540385,-0.026207415,0.0,0.0,-0.48000002
158323068,0.017505843,-0.08482679,-0.02321391,0.0,0.0,-0.48000002
158342995,0.019855736,-0.022725133,-0.024453182,0.0,0.0,-0.48000002
158367813,0.00877822,-0.011103899,-0.024648577,0.0,0.0,-0.48000002
158387615,0.006289096,0.019004893,-0.02341909,0.0,0.0,-0.48105264
158402447,0.0071463906,0.025005993,-0.024235737,0.0,0.0,-0.48105264
158422383,0.002590925,0.017927554,-0.024989622,0.0,0.0,-0.48105264
158447215,0.017256772,0.007308022,-0.02285505,0.0,0.0,-0.48105264
158462035,0.022043321,0.004971424,-0.022034954,0.0,0.0,-0.48105264
158481814,0.023745604,-0.020064922,-0.02264474,0.0,0.0,-0.48105264
158506677,0.029729456,-0.018421872,-0.020382453,0.0,0.0,-0.48105264
158526587,0.021103961,-0.027938614,-0.02185992,0.0,0.0,-0.48105264
158541528,0.020091325,-0.040565595,-0.01935337,0.0,0.0,-0.48210526
158566268,0.010589974,-0.0382386,-0.019984141,0.0,0.0,-0.48105264
158586243,0.0080975,-0.07815322,-0.018512676,0.0,0.0,-0.48105264
158601173,0.009814192,-0.07666618,-0.01837632,0.0,0.0,-0.48105264
158625934,-0.004492491,-0.14751446,-0.01812313,0.0,0.0,-0.48210526
158645757,-8.97923e-05,-0.15237963,-0.017139079,0.0,0.0,-0.48210526
158665636,-0.058835447,-0.1741983,-0.01791164,0.0,0.0,-0.48105264
158685440,-0.052926295,-0.15383132,-0.01459412,0.0,0.0,-0.48210526
158705263,-0.049418204,-0.13985361,-0.01500718,0.0,0.0,-0.48210526
158725236,-0.041532096,-0.1111173,-0.01743091,0.0,0.0,-0.48210526
158745076,-0.040285956,-0.09456159,-0.01707826,0.0,0.0,-0.48210526
158764858,-0.016731951,-0.06855641,-0.01627644,0.0,0.0,-0.48210526
158784729,0.011930924,-0.057516947,-0.014358388,0.0,0.0,-0.48210526
158804643,0.009812502,-0.043244224,-0.017327609,0.0,0.0,-0.48210526
158824494,0.009324264,-0.03691175,-0.016201932,0.0,0.0,-0.48210526
158844333,0.0154431565,-0.0055615385,-0.013396434,0.0,0.0,-0.48210526
158864149,0.017446432,0.018901525,-0.014522723,0.0,0.0,-0.4831579
158884225,0.01389794,0.035531584,-0.013058307,0.0,0.0,-0.4831579
158903957,0.0073024584,0.105644196,-0.01086054,0.0,0.0,-0.4831579
158923790,0.040615827,0.13443394,-0.009924893,0.0,0.0,-0.4831579
158948615,0.06673925,0.13040328,-0.008215225,0.0,0.0,-0.4831579
158963514,0.036243472,0.12009714,-0.007944762,0.0,0.0,-0.4831579
158983474,0.022500535,0.09975551,-0.00602233,0.0,0.0,-0.4831579
159003252,-0.0016481816,0.0931271,-0.0009953307,0.0,0.0,-0.4831579
159023073,-0.01895623,0.0759547,-0.0012293728,0.0,0.0,-0.4831579
159042894,-0.025095116,0.05280696,0.000106345164,0.0,0.0,-0.4831579
159062797,-0.03428277,0.038421348,0.00013917057,0.0,0.0,-0.4831579
159087516,-0.03349204,0.019934207,0.0042968304,0.0,0.0,-0.4831579
159102426,-0.041256424,0.022400344,0.0068329982,0.0,0.0,-0.4831579
159122341,-0.035599817,0.011159646,0.007603291,0.0,0.0,-0.48421055
159147264,-0.041911304,0.014998635,0.008332165,0.0,0.0,-0.48421055
159162235,-0.03555895,0.008218341,0.009261904,0.0,0.0,-0.48421055
159182036,-0.03704686,0.0101811625,0.012783393,0.0,0.0,-0.48421055
159206883,-0.032016244,-0.0016981447,0.01354286,0.0,0.0,-0.48421055
159226738,-0.033506475,0.0016698377,0.015612641,0.0,0.0,-0.48421055
159241618,-0.032629296,-0.0065643303,0.012071055,0.0,0.0,-0.4831579
159266332,-0.021596108,-0.008751376,0.015341209,0.0,0.0,-0.4831579
159286200,-0.023034662,-0.0077428385,0.015109336,0.0,0.0,-0.4831579
159301095,-0.01559075,-0.0068971766,0.019222267,0.0,0.0,-0.4831579
159325881,-0.028944029,-0.0056331772,0.019974614,0.0,0.0,-0.4831579
159345725,-0.031136956,0.0016446164,0.020804323,0.0,0.0,-0.4831579
159365549,-0.037303012,0.0051050214,0.018246839,0.0,0.0,-0.4831579
159385582,-0.034470327,0.0022242463,0.02218216,0.0,0.0,-0.4831579
159405438,-0.030868705,0.005441779,0.023972806,0.0,0.0,-0.4831579
159425430,-0.025257563,0.0015473512,0.022525094,0.0,0.0,-0.4831579
159445134,-0.011537277,-0.01185861,0.022371195,0.0,0.0,-0.4831579
159465055,0.002114541,-0.002844633,0.020058153,0.0,0.0,-0.4831579
159484853,-0.001380141,-0.0108324895,0.02452033,0.0,0.0,-0.4831579
159504690,-0.0067124413,0.005431301,0.0228634,0.0,0.0,-0.4831579
159524459,-0.008647511,0.0037747773,0.023197846,0.0,0.0,-0.48210526
159544380,-0.010818833,-0.0023930108,0.022355303,0.0,0.0,-0.48210526
159564202,-0.01095809,-0.0022284056,0.023633635,0.0,0.0,-0.48210526
159584018,-0.0042442884,0.0049136113,0.026642604,0.0,0.0,-0.48210526
159603867,0.019120418,-0.011422064,0.026723346,0.0,0.0,-0.47473684
159623811,0.043849915,-0.020479394,0.026335645,0.0,0.0,-0.46421054
159648641,0.04894023,-0.025392212,0.027684664,0.0,0.0,-0.45473683
159663631,0.034311693,-0.030094013,0.027452253,0.0,0.0,-0.45157897
159683508,0.03191431,-0.03223342,0.029497746,0.0,0.0,-0.4526316
159703295,0.014479067,-0.025209889,0.026765717,0.0,0.0,-0.45157897
159723172,0.002763801,-0.018932948,0.030413073,0.0,0.0,-0.45157897
159743045,-0.013071061,-0.013381336,0.02852944,0.0,0.0,-0.45157897
159762816,-0.015992582,-0.0077906083,0.02751784,0.0,0.0,-0.45157897
159787599,-0.011325705,-0.0072182845,0.028318271,0.0,0.0,-0.4526316
159802503,-0.007667374,0.005585832,0.02673351,0.0,0.0,-0.45157897
159822451,-0.0026077873,-0.004760775,0.025251467,0.0,0.0,-0.45157897
159847189,0.0021747123,-0.0058338866,0.023200084,0.0,0.0,-0.4526316
159862103,0.008697436,-0.005201779,0.024094628,0.0,0.0,-0.4536842
159881937,0.006688174,-0.0076583824,0.020227024,0.0,0.0,-0.4536842
159906817,0.012465872,-0.010554944,0.020257432,0.0,0.0,-0.45473683
159926652,0.007972937,-0.015439696,0.0170648,0.0,0.0,-0.45473683
159941625,0.007147301,-0.019875657,0.016580202,0.0,0.0,-0.45473683
159966563,-0.00016264805,-0.02538114,0.014802688,0.0,0.0,-0.45578948
159986333,0.01092875,-0.030415654,0.012592815,0.0,0.0,-0.4568421
160001255,0.007430755,-0.07526832,0.011351641,0.0,0.0,-0.45578948
160026014,0.010882525,-0.11731047,0.010530652,0.0,0.0,-0.45578948
160045913,0.023467448,-0.20410466,0.0073615843,0.0,0.0,-0.4568421
160065683,0.016605008,-0.20007895,0.0033411428,0.0,0.0,-0.4568421
160085598,0.018931126,-0.21820739,0.0033525059,0.0,0.0,-0.4568421
160105358,0.018331785,-0.25888002,0.0016052022,0.0,0.0,-0.45789474
160125199,-0.017225955,-0.25531402,-0.002325321,0.0,0.0,-0.4589474
160145027,-0.026980294,-0.2131639,-0.0026499878,0.0,0.0,-0.4589474
160164884,-0.04920637,-0.17306562,-0.002286256,0.0,0.0,-0.46
160184911,-0.06861367,-0.13684593,-0.0068938653,0.0,0.0,-0.46105263
160204666,-0.05589905,-0.10358831,-0.007386853,0.0,0.0,-0.46105263
160224674,-0.054306895,-0.077424705,-0.009069824,0.0,0.0,-0.46210527
160244476,-0.033245727,-0.09191651,-0.009665252,0.0,0.0,-0.4631579
160264330,-0.008307171,-0.10845659,-0.010278334,0.0,0.0,-0.4631579
160284143,0.012260313,-0.17769012,-0.01111421,0.0,0.0,-0.46421054
160304066,0.014870109,-0.20498024,-0.010238091,0.0,0.0,-0.46421054
160323965,0.014820098,-0.19479164,-0.013174356,0.0,0.0,-0.46421054
160348666,-0.019153493,-0.22560227,-0.011883799,0.0,0.0,-0.46421054
160363495,-0.023728149,-0.20622723,-0.01129541,0.0,0.0,-0.46421054
160383360,-0.038581163,-0.22423753,-0.011912237,0.0,0.0,-0.4631579
160403270,-0.0578528,-0.22038227,-0.009971554,0.0,0.0,-0.4631579
160423214,-0.09390464,-0.18693836,-0.008919437,0.0,0.0,-0.4631579
160443066,-0.08974422,-0.14520226,-0.009725376,0.0,0.0,-0.4631579
160462901,-0.084039904,-0.10884605,-0.012350589,0.0,0.0,-0.4631579
160487909,-0.079906136,-0.07248788,-0.011490319,0.0,0.0,-0.4631579
160502805,-0.073692545,-0.05789966,-0.008982222,0.0,0.0,-0.4631579
160522519,-0.05651113,-0.06646516,-0.008126772,0.0,0.0,-0.4631579
160547243,-0.042894885,-0.07506938,-0.0072564576,0.0,0.0,-0.46210527
160562138,-0.030090153,-0.073767066,-0.0052009257,0.0,0.0,-0.46210527
160582088,-0.020513788,-0.07640086,-0.0056643323,0.0,0.0,-0.46210527
160606829,-0.01184545,-0.086225435,-0.003486005,0.0,0.0,-0.46210527
160626657,-0.012186434,-0.1077817,-0.0037161396,0.0,0.0,-0.46105263
160641561,-0.019663773,-0.12413953,-0.0020573777,0.0,0.0,-0.46105263
160666379,-0.032025255,-0.12345428,-0.0005171927,0.0,0.0,-0.46105263
160686300,-0.03471037,-0.12343929,0.0025037522,0.0,0.0,-0.46105263
160701186,-0.046636127,-0.10181336,0.0027477308,0.0,0.0,-0.46105263
160725980,-0.05082756,-0.105668485,0.004721959,0.0,0.0,-0.46105263
160745874,-0.05445191,-0.08413019,0.0041428013,0.0,0.0,-0.46105263
160765890,-0.0405785,-0.052858673,0.007178028,0.0,0.0,-0.46105263
160785624,-0.044353742,-0.029221756,0.004451139,0.0,0.0,-0.46105263
160805462,-0.036266297,0.009329381,0.009428537,0.0,0.0,-0.46105263
160825322,-0.03654623,0.020939237,0.009063263,0.0,0.0,-0.46
160845147,-0.024051629,0.021987995,0.01033188,0.0,0.0,-0.46
160865018,-0.02951772,0.03606268,0.008997127,0.0,0.0,-0.46
160884909,-0.027657755,0.03075291,0.013773363,0.0,0.0,-0.46
160904744,-0.030684525,0.009958749,0.013039459,0.0,0.0,-0.46
160924554,-0.025842242,-0.0009815635,0.013322902,0.0,0.0,-0.46
160944436,-0.028133389,-0.019397536,0.014023011,0.0,0.0,-0.46105263
160964355,-0.02539182,-0.019514764,0.017352676,0.0,0.0,-0.46105263
160984268,-0.02418001,-0.02992551,0.016149102,0.0,0.0,-0.46210527
161003989,-0.02952371,-0.03183798,0.014345073,0.0,0.0,-0.4631579
161023895,-0.030864405,-0.031375296,0.01908379,0.0,0.0,-0.46421054
161043895,-0.04271117,-0.012244896,0.018630758,0.0,0.0,-0.46421054
161063627,-0.043426152,-0.028245874,0.020358488,0.0,0.0,-0.46421054
161083539,-0.05630737,-0.037167624,0.018148046,0.0,0.0,-0.46736842
161103350,-0.05191765,-0.03219892,0.024077248,0.0,0.0,-0.46736842
161123337,-0.056992184,-0.033876974,0.02246276,0.0,0.0,-0.47052634
161143097,-0.043138698,-0.03043374,0.024012078,0.0,0.0,-0.47473684
161163003,-0.037610456,-0.026962837,0.022472443,0.0,0.0,-0.47473684
161187720,-0.018725198,-0.020010777,0.026563507,0.0,0.0,-0.47473684
161202578,-0.013741223,-0.0062493384,0.028374158,0.0,0.0,-0.47473684
161222478,0.007417712,-0.011394059,0.031751048,0.0,0.0,-0.47368422
161247299,0.01393159,-0.018495476,0.034483973,0.0,0.0,-0.47263157
161262181,0.0018190258,0.012753316,0.037399627,0.0,0.0,-0.47263157
161282130,-0.011669177,0.009164274,0.037795644,0.0,0.0,-0.47263157
