timestamp,timestamp_sample,xyz[0],xyz[1],xyz[2]
143363660,143363429,0.0006853793,0.016280172,-0.023178412
143364902,143364670,-0.002388381,0.015834536,-0.02088899
143387259,143387009,-0.013474496,-0.0023094802,0.05674463
143404629,143404390,0.057600427,0.028612649,-0.03370211
143425732,143425499,-0.09468611,0.013408375,0.00045056138
143445573,143445347,0.10764422,0.02094806,0.0027198081
143466672,143466446,-0.0982357,0.008140129,0.02859664
143485299,143485064,0.07945868,0.010871573,-0.056185164
143505150,143504923,-0.03311583,-0.0045253434,0.012315878
143526353,143526106,-0.026786758,0.018928474,0.08388621
143547531,143547301,-0.031269856,-0.023844654,-0.06365039
143564730,143564503,0.050267078,0.003643216,-0.015122625
143585831,143585608,-0.03090831,0.018073734,0.10240747
143606935,143606703,-0.054572217,-0.0059844754,-0.020038271
143624305,143624079,0.05981183,0.0023719277,-0.053535134
143645405,143645180,0.021533597,0.009955755,0.07575533
143666510,143666280,-0.05671515,0.0024762743,0.06411921
143683890,143683660,0.009382491,0.0045578047,-0.090909764
143704984,143704757,0.05825206,-0.006809416,0.020297235
143726089,143725858,0.008783634,0.01394092,0.10657742
143747196,143746959,-0.06069592,0.0067644557,-0.008562595
143764578,143764354,0.021704879,0.007979744,-0.06607259
143785746,143785515,0.05118607,-0.009044481,0.05673936
143806891,143806665,0.025459465,0.003027658,0.073648244
143827863,143827637,-0.052711606,0.008362222,-0.03476981
143845245,143845014,-0.0005281056,-0.0038426828,-0.033540912
143866348,143866115,0.047532763,-0.0030343255,0.056589127
143887439,143887215,0.0429507,-0.012431964,0.034043275
143904823,143904592,-0.06460471,0.0075040082,-0.047247637
143925927,143925692,-0.0393268,-0.009652903,-0.0080381455
143947026,143946793,0.052184924,-0.00022050689,0.038569704
143964399,143964169,0.02068372,0.003328021,-0.012804029
143985512,143985278,-0.059901092,0.005986645,-0.012022817
144006598,144006371,-0.05559557,-0.0036295864,0.0062748305
144024002,144023774,0.07086128,-0.004126463,0.0009582309
144045189,144044962,0.053695217,-0.008514066,-0.014171634
144066262,144066029,-0.05472307,-0.0012889514,0.016566513
144086225,144085994,-0.08701551,0.013222768,0.016039303
144104665,144104427,0.091976546,0.0023631002,-0.02627758
144125758,144125526,0.075508215,-0.014253125,-0.016568279
144145615,144145387,-0.0642219,-0.0132638365,0.039479338
144166711,144166486,-0.10426695,0.018119652,0.017489064
144185340,144185105,0.08414814,0.024126746,-0.04076967
144205189,144204963,0.058012206,-0.020270469,-0.0047860034
144226295,144226067,-0.046458364,-0.037331674,0.041481677
144247395,144247164,-0.070138395,0.012433133,0.019364255
144264772,144264544,0.0573743,0.02652259,-0.037269894
144285870,144285643,0.044970267,-0.017723305,-0.00014351287
144306982,144306744,-0.03685621,-0.052174013,0.019155271
144324412,144324183,-0.0035194785,0.033813406,-0.011117359
144345581,144345355,0.035178963,0.043310683,-0.008301313
144366551,144366320,0.016958661,-0.008405037,0.017832378
144387653,144387422,-0.045557708,-0.051369805,0.0054948316
144405024,144404800,0.022853354,0.01855468,-0.022917138
144426127,144425898,0.032894503,0.043783035,0.017819503
144447233,144447000,-0.016351536,0.00685764,0.04413725
144464604,144464376,-0.023680227,-0.039453287,-0.039405648
144485705,144485476,0.043430656,0.0051432746,-0.048648793
144506801,144506576,0.05644963,0.029703178,0.02229513
144527904,144527677,-0.020986002,0.009647931,0.073527604
144545286,144545054,-0.040668704,-0.035533775,-0.054745965
144566388,144566157,0.04408979,-0.0073226364,-0.077718675
144587550,144587322,0.07169542,0.02532893,0.017661432
144604944,144604714,-0.06476663,-0.0014141417,0.06479551
144626151,144625926,-0.06043769,-0.03175384,-0.057615824
144647061,144646833,0.030440647,-0.013257352,-0.09467939
144665683,144665452,0.06158119,0.02081899,0.06174169
144685540,144685311,-0.042373806,0.015894545,0.08337566
144706635,144706411,-0.07103426,-0.0055931695,-0.04278502
144724022,144723788,0.053581692,-0.018734561,-0.04883668
144745119,144744886,0.04909187,-0.0052509625,0.06931303
144766221,144765989,0.0062457607,0.020756695,0.08277813
144787323,144787091,-0.037058394,0.016649043,-0.013859049
144804736,144804500,-0.01749087,-0.018483136,-0.052760378
144825796,144825567,0.03846283,-0.019919699,0.032296445
144845652,144845427,0.05671547,0.01739683,0.053172864
144866854,144866628,-0.0025495486,0.023332393,-0.01151749
144884266,144884037,-0.06118577,-0.02136201,-0.030434445
144905234,144905004,0.007669834,-0.010653546,0.01730896
144926330,144926105,0.080416076,0.005969205,0.018185519
144947443,144947205,0.06377272,0.010079029,-0.00039786016
144964820,144964595,-0.09202176,-0.009907248,-0.0014935776
144985907,144985682,-0.058142956,-0.004878794,-4.91005e-05
145007020,145006787,0.05958175,0.0049779722,-0.017278261
145024395,145024164,0.052050374,-0.010444211,0.00826103
145045483,145045260,-0.09327721,-0.008073444,0.031631254
145066590,145066361,-0.10053611,0.012560355,0.0026405547
145083967,145083738,0.11469913,0.005885298,-0.028406307
145105070,145104844,0.07307278,-0.021980198,0.01419858
145126243,145126001,-0.0556954,-0.02859297,0.039849512
145147367,145147141,-0.09856134,0.014426617,0.008314072
145164827,145164602,0.06869808,0.016989194,-0.028333938
145185749,145185517,0.06323824,-0.031456646,0.007903424
145206894,145206667,-0.03218433,-0.04988738,0.02420651
145227944,145227718,-0.04569758,0.003120353,-0.0033267355
145245322,145245095,0.031931464,0.049248416,-0.014702954
145266429,145266200,0.013540084,-0.010326697,0.023779128
145287520,145287295,-0.022564108,-0.057974853,0.02300406
145304919,145304675,0.008695161,0.029660393,-0.02868319
145326006,145325773,0.03291805,0.05908695,-0.0052850964
145347102,145346873,-0.015845258,0.01728154,0.042087484
145364526,145364299,-0.02999627,-0.04513164,-0.022129878
145385609,145385372,0.031247735,-0.0038380004,-0.052074976
145406753,145406505,0.07232453,0.0390021,-0.0035139928
145426680,145426455,-0.04038784,0.018501097,0.06972962
145445160,145444930,-0.06451587,-0.034297463,-0.02260573
145466276,145466044,0.028092684,-0.020418601,-0.07810616
145486156,145485930,0.10287396,0.010987633,0.011679781
145504745,145504508,-0.05972253,0.01629426,0.0859804
145524596,145524366,-0.07437617,-0.016270429,-0.04861981
145545695,145545467,0.02004119,-0.008283583,-0.10006735
145566794,145566567,0.095315866,-0.0032407665,-0.009472598
145584171,145583944,-0.03765545,0.018579213,0.09770616
145605274,145605045,-0.09672954,0.012948796,-0.0032705446
145626378,145626155,-0.046166167,-0.00013446546,-0.08942502
145647483,145647247,0.03777453,-0.010370793,-0.086439855
145664936,145664706,0.06380071,-0.016282111,0.080515265
145686048,145685822,-0.015789367,-0.0042648376,0.103292845
145707061,145706823,-0.06722399,0.022331951,0.04188738
145724430,145724204,-0.022970458,0.044569306,-0.0978588
145745526,145745301,0.030635832,0.03435783,-0.08906169
145766629,145766401,0.042507343,0.0021307734,-0.07438182
145787737,145787507,0.0009614294,-0.02615401,-0.050988022
145805150,145804927,0.0236968,-0.15303504,-0.030336468
145826215,145825982,-0.10574906,-0.049506094,-0.008162984
145847312,145847081,-0.09265061,-0.040927347,0.02956407
145864683,145864456,-0.050105665,0.04259069,-0.000330138
145887036,145886801,0.08195099,0.01863406,-0.0074443393
145906891,145906661,0.004555099,0.0895035,-0.037116323
145924260,145924030,-0.11679844,0.037161764,-0.03292483
145945430,145945201,-0.0075712297,-0.027564157,0.018087558
145966635,145966402,0.068981275,-0.00414724,0.038489033
145987566,145987336,-0.06984372,0.027573282,-0.0016228005
146004941,146004712,-0.05578093,0.004619889,-0.03230635
146026043,146025814,-0.04237662,0.008805978,-0.0038811832
146047149,146046919,0.029036712,-0.05090016,0.018655911
146065769,146065534,0.05640132,-0.026972283,-0.01729284
146085627,146085391,0.060590595,0.052539095,-0.02256855
146106720,146106488,-0.051741265,0.006589815,-0.04619674
146124100,146123869,-0.030937362,-0.03984886,-0.061708357
146145205,146144971,0.0821055,0.00476752,0.023352403
146166305,146166070,0.008513053,-2.0233721e-05,0.04827971
146186162,146185932,0.006828613,-0.035654552,-0.0376552
146204802,146204571,0.0017918932,0.017634412,-0.053595725
146224787,146224559,-0.01991258,0.028875828,-0.0043912283
146245737,146245507,0.06667573,-0.0005080323,0.02687727
146266838,146266612,0.044424366,0.015897484,-0.00061773794
146284217,146283984,-0.0041720183,0.03217913,0.0066892835
146305310,146305085,-0.09037764,0.0240419,0.014334472
146326418,146326186,0.05589691,-0.018366368,0.017553391
146347516,146347286,-0.007212482,0.011299768,-0.008268159
146364888,146364663,-0.05060078,-0.025497576,-0.016566997
146385986,146385763,-0.06883466,0.050176065,0.00046556667
146407092,146406864,-0.014553323,0.0030480002,-0.0007745359
146424467,146424241,0.022060234,-0.013477612,-0.008551039
146445585,146445361,0.056089573,0.023121117,0.012819256
146467922,146467684,-0.039256133,0.0049284203,-0.03603299
146487854,146487625,0.039956555,-0.023997402,0.012567865
146505301,146505076,0.040136334,-0.012208929,0.025025435
146526249,146526019,0.04928903,-0.062413126,0.024199214
146547382,146547151,-0.014166451,0.032019828,-0.016162341
146564720,146564497,-0.023954373,0.04720041,0.013616726
146585831,146585597,-0.065333486,0.018505838,0.021647008
146606934,146606699,0.06483883,-0.06614718,0.005993138
146624352,146624128,0.074006885,-0.040641975,-0.0056336788
146645404,146645175,-0.030057158,-0.012720417,0.021388559
146666513,146666277,0.031950522,0.05429798,-0.020870872
146687602,146687377,3.8930073e-05,-0.02145274,-0.076704
146704982,146704754,-0.04650458,-0.008831243,-0.043172814
146726086,146725849,0.05162206,0.014958658,0.021506835
146747270,146747037,-0.055437442,0.007069571,0.002762449
146764675,146764446,-0.053310923,-0.007454271,-0.015672652
146785670,146785434,-0.058733344,-0.02581958,-0.00984001
146806776,146806535,0.06393202,-0.049722712,-0.027245028
146824151,146823916,0.108227305,-0.06842822,-0.05066104
146845254,146845015,-0.0020023503,0.06339736,-0.006044077
146866340,146866111,-0.023335341,-0.0021446531,-0.07125383
146883723,146883487,0.09549412,-0.043286104,-0.046945017
146907298,146907071,-0.0007251124,-0.0057566166,0.010277644
146924688,146924453,0.047885653,-0.061092354,0.0072814473
146945775,146945547,-0.0645458,0.031220714,0.010394059
146966880,146966651,0.0112288045,-0.032078218,0.023062762
146984260,146984027,0.085217215,-0.047548622,0.030471396
147005391,147005165,-0.08460937,-0.014396342,-0.0129987495
147026532,147026303,-0.00041878785,0.012654064,-0.017039094
147047742,147047510,0.04890541,-0.022770036,0.0013099647
147064930,147064703,0.017810823,-0.04373168,-0.0074808057
147086029,147085804,-0.049347963,0.055610172,0.026823534
147107136,147106909,-0.030045474,-0.042511836,0.006303046
147124508,147124282,0.042514946,-0.04529784,0.0025707067
147145607,147145382,-0.03215196,0.01029639,0.026884165
147166710,147166483,0.07113328,0.033183478,-0.011920932
147187813,147187583,-0.08032768,0.025099706,-0.0081111435
147205197,147204961,-0.024731478,-0.015934812,0.010547069
147226289,147226060,-0.008963492,0.009948172,0.031148331
147247387,147247161,-0.045478895,0.008515398,-0.026908442
147264761,147264538,-0.024823524,-0.0154003315,-0.0089445375
147285948,147285719,-0.016301036,0.011229526,-0.0051162667
147307106,147306880,0.061797522,-0.03852823,-0.042153634
147328114,147327889,-0.006245419,0.09526853,0.014076374
147345446,147345216,-0.0323954,0.04323196,-0.0019537485
147366545,147366317,-0.06162571,-0.0038743753,-0.016868243
147387657,147387431,0.02735846,-0.028390748,0.026452927
147405023,147404794,0.07151319,-0.09251261,0.027220149
147426126,147425895,-0.014004225,0.045708634,0.033083245
147447229,147446995,0.0058439607,0.0067311823,-0.039195534
147464600,147464372,0.0027209893,0.04309273,-0.0033747854
147485703,147485473,0.01368631,-0.08166854,0.011474168
147506802,147506573,0.05703873,0.03045726,0.047311828
147527906,147527674,-0.014186352,0.004573549,-0.02601227
147545321,147545093,0.0056946166,0.02633953,-0.015949205
147565225,147564994,0.002273806,-0.012075336,0.019742778
147586419,147586187,-0.020553319,0.082452424,0.012677916
147607337,147607111,0.050325423,-0.07612322,-0.0073550404
147624720,147624489,0.096778795,-0.0419679,0.00014226553
147645862,147645636,0.015264153,0.022901021,-0.016270341
147664441,147664209,0.031234175,-0.007709008,-0.028136255
147684301,147684069,0.022878772,-0.021034911,-0.05323305
147705393,147705166,-0.060076803,0.0642178,-0.018007414
147726496,147726267,-0.0015156713,-0.01653819,-0.0060893227
147747601,147747368,0.013877013,-0.0046379864,0.021037871
147764972,147764744,-0.063388824,0.03770617,0.032224145
147786071,147785847,0.09993054,-0.013061334,-0.015483684
147807177,147806946,-0.09325263,0.06774844,-0.045920763
147824633,147824410,-0.014630728,0.01732736,-0.027897803
147845776,147845551,0.05099359,-0.026233373,-0.016849069
147866751,147866523,-0.08964611,0.03447366,0.017679373
147887851,147887624,-0.012714401,-0.027180707,-0.016974567
147905230,147905001,0.037671857,-0.037127294,-0.021132795
147926329,147926101,0.003928149,-0.0009013749,-0.0065167374
147947428,147947203,-0.02648736,-0.027368069,0.021892076
147964805,147964578,-0.033290192,0.036622614,-4.4659613e-05
147985912,147985679,-0.07464287,0.048159417,-0.029181505
148007029,148006803,0.054904573,0.012775521,0.0067252503
148024382,148024157,-0.06614601,0.035051953,0.040876295
148045499,148045258,-0.0006643642,-0.023042595,0.013648883
148066585,148066358,0.026145516,-0.028154284,-0.00010275823
148087692,148087468,0.0008382261,0.03150387,-0.051877394
148105158,148104929,-0.0029179137,-0.019607848,-0.015827708
148125107,148124878,-0.021790443,0.04102324,0.018902311
148147270,148147036,-0.025818001,0.05939871,-0.00079546135
148164641,148164413,0.07213199,-0.0012989986,0.0030302533
148185758,148185514,-0.0062008994,0.062527224,0.03990101
148205605,148205373,-0.035828944,-0.012627341,0.08094791
148224224,148223991,0.005726787,-0.03713484,0.027013874
148245324,148245092,0.008085723,-0.014149091,0.007813906
148265187,148264953,-0.007214023,0.0386712,0.03793894
148286278,148286051,0.012897494,0.04995718,0.0728457
148304904,148304670,-0.050772607,-0.002392067,-0.0017421684
148324767,148324530,-0.0606551,-0.016760115,0.007969686
148345868,148345630,0.016174637,-0.040096454,0.069002785
148367003,148366780,0.021497793,-0.03132589,0.063548885
148384479,148384248,0.09673146,-0.025056846,0.024191754
148405486,148405262,-0.0560807,0.04313364,0.039343316
148426533,148426308,0.07817526,-0.03376709,0.061437633
148447641,148447408,-0.004364965,0.011240255,0.031097712
148465020,148464785,0.03164136,-0.0030856268,0.039379627
148486116,148485885,-0.06288859,0.010009116,0.0098896725
148507273,148507044,-0.044496264,-0.03148329,0.042628534
148524591,148524363,0.016179878,0.09093974,0.043080755
148545690,148545463,0.0068745753,0.16075526,0.029240573
148566796,148566564,-0.051292982,0.08075964,0.023820665
148584165,148583941,-0.124864414,-0.04469922,0.051659483
148605269,148605042,-0.0138729485,0.057454973,0.076214135
148626380,148626152,-0.06605708,0.060072776,0.061944146
148647578,148647349,-0.05160034,0.0035732198,0.074539214
148665051,148664824,-0.13315237,-0.12284242,0.077381365
148685950,148685720,-0.012853493,-0.07697363,0.11076861
148707106,148706877,-0.006056612,-0.10426044,0.07877923
148724429,148724202,0.0050247232,0.033738147,0.07828635
148745526,148745298,-0.0038950746,0.14150506,0.05338025
148766629,148766400,-0.0130998725,0.12653176,0.07782961
148787731,148787499,-0.0023408679,0.016319636,0.07306781
148805106,148804876,0.068842724,-0.094410226,0.013404124
148826211,148825977,-0.05987173,-0.034627542,0.028999263
148847322,148847091,-0.02001444,-0.0026326296,0.0848741
148864683,148864454,-0.0459098,0.08940712,0.017813608
148885798,148885563,0.016318608,-0.0014394318,-0.0024659557
148905726,148905496,0.0057046176,-0.030231806,0.016283512
148926906,148926679,0.0126463715,-0.06722208,0.03426974
148944121,148943891,0.05237768,0.0075838002,0.009379369
148965232,148964995,0.026550716,0.0035958467,0.027316228
148986321,148986092,-0.043532353,0.027483154,0.047614824
149007433,149007197,-0.07333092,-0.028095594,0.05986666
149024800,149024571,-0.106264,-0.008871943,0.060722265
149045896,149045670,-0.032538738,0.033049215,0.022577398
149066993,149066771,-0.0118716685,-0.03070485,0.0102294665
149084384,149084150,0.002831125,-0.01973625,0.081285916
149105476,149105249,-0.060734924,-0.0011889605,0.048480466
149126603,149126369,-0.037895624,0.04479421,0.062683776
149147672,149147444,0.054097764,-0.03134133,0.08200488
149165065,149164840,-0.030738844,0.0021046614,0.0728699
149186262,149186033,0.0064354874,-0.052329153,0.03413825
149207262,149207027,-0.045748886,0.00812003,0.009219867
149224630,149224404,0.014963544,0.061468147,0.014817348
149245733,149245505,-0.009771571,0.04437355,-0.0066747474
149268076,149267847,0.02143316,-0.0818734,0.028472997
149287948,149287716,-0.011031094,-0.028335648,-0.020578893
149305310,149305083,0.0078806,0.04676314,-0.009564859
149326420,149326183,0.07512004,0.074120276,-0.011958981
149347512,149347284,-0.0027374197,0.0060294336,-0.0233521
149364888,149364661,-0.031850867,0.03253386,0.00023052232
149385990,149385761,0.00848602,0.04724645,0.024679514
149407090,149406861,-0.02888487,0.025092406,0.009991818
149428230,149428002,0.04906323,-0.020709435,0.0396543
149445630,149445401,-0.057795938,-0.0047237524,0.030604994
149465581,149465352,0.0051453025,-0.03544167,0.030810164
149487772,149487540,-0.024773184,0.023195669,0.0009364549
149505147,149504919,0.018293632,-0.031180883,0.012653263
149526262,149526020,0.055720467,0.0049465746,0.016548794
149546119,149545882,-0.026835868,-0.055260696,0.05619003
149564732,149564495,-0.024860604,-0.02261314,0.026387073
149584587,149584355,-0.034183864,-0.007264153,-0.0033411973
149605684,149605455,-0.036337987,0.05092422,0.0113104535
149624311,149624074,-0.15999828,-0.025076786,0.0055203396
149644165,149643934,-0.11470673,-0.05293309,0.009261826
149665266,149665037,-0.015368324,-0.0241857,-0.001801451
149686363,149686133,-0.06536778,-0.004113462,-0.021653002
149703781,149703552,-0.13073803,0.041716956,-0.027184691
149724961,149724726,-0.021417791,-0.031080607,-0.054021917
149745951,149745711,0.010498881,-0.03600477,-0.056179103
149767044,149766812,-0.13596183,-0.0076609743,-0.02364347
149784421,149784191,-0.14151612,-0.030928073,-0.0012894734
149805514,149805289,0.0013036552,-0.014043105,-0.016205605
149826614,149826389,0.0009624196,0.0062395358,-0.027969388
149847723,149847490,0.06841648,0.06622375,-0.029445544
149865099,149864870,0.055695377,-0.022121133,-0.005767524
149886195,149885967,0.0577781,-0.0006116373,0.016211387
149907331,149907102,0.09515033,-0.039867852,-0.014993736
149924690,149924447,0.051257897,0.006659908,-0.047622193
149945772,149945546,0.024921043,0.015559648,-0.035736058
149966920,149966686,-0.037241127,0.062292546,-0.0060905516
149988089,149987862,-0.011380994,0.042072833,0.010783932
150005515,150005288,-0.031234585,0.009191623,-0.0011489188
150026457,150026224,-0.095459975,0.007438255,-0.026796663
150047559,150047327,-0.11481017,-0.032501895,-0.020473154
150064928,150064701,-0.18738742,-0.0011418303,0.027969012
150086044,150085805,-0.27112582,-0.10337102,-0.0074089193
150107136,150106905,-0.09157224,0.016105043,-0.032626636
150128234,150128003,-0.077971146,0.08150515,-0.07341671
150145611,150145380,0.054712474,0.05076922,-0.04201892
150166723,150166483,0.097811975,0.07199947,-0.041269153
150187813,150187581,0.10205851,0.036393836,-0.042117856
150205202,150204960,0.11860673,0.05234026,-0.070828505
150226311,150226065,0.029041307,-0.0017201971,-0.08397248
150246296,150246062,0.08725561,-0.07447641,-0.055814102
150267373,150267147,0.09372366,-0.08328658,-0.038839135
150284623,150284395,0.06564076,-0.024072485,-0.024885725
150305732,150305499,-0.04665088,-0.015732028,-0.051935494
150326840,150326602,-0.042025816,0.018089956,-0.056789763
150344205,150343973,-0.06723186,0.119267724,-0.06388019
150365305,150365075,-0.10023531,0.10202486,-0.059458144
150386418,150386177,-0.030594436,0.07267251,-0.029437663
150407500,150407275,0.034772746,-0.030838685,-0.025722032
150424944,150424705,0.12368641,-0.1271353,-0.06523943
150445990,150445757,0.16807616,-0.16093929,-0.047711108
150467078,150466853,0.16326416,-0.02747877,-0.047004964
150484469,150484234,-0.022737542,0.11048601,-0.056954302
150505672,150505443,-0.11383387,0.14586203,-0.04706347
150526738,150526514,-0.120920144,0.06286591,-0.03611204
150547947,150547717,0.0045373356,0.006836189,-0.023738567
150565137,150564909,0.0090294555,0.023652036,-0.023708746
150586265,150586037,0.06940141,-0.095639594,-0.019751798
150607344,150607109,0.15331012,-0.08351833,-0.014591163
150624712,150624486,0.15553866,-0.10165227,-0.056679722
150645815,150645587,0.03710956,-0.06524092,-0.06971525
150666918,150666687,-0.100529395,0.00772981,-0.0675362
150688037,150687811,-0.1168798,0.030794067,-0.060368445
150705391,150705165,-0.038495656,0.09858694,0.013064324
150726495,150726265,0.082007736,0.103372164,-0.0062332456
150747610,150747367,0.084879175,-0.03804396,-0.01413437
150765026,150764801,0.08134258,-0.11971922,-0.06257241
150786121,150785882,0.08630189,-0.1836332,-0.07334308
150807322,150807089,0.09154417,-0.107072234,-0.062501386
150824548,150824322,0.08555847,-0.067263074,-0.047199007
150845648,150845421,0.04001354,-0.003705478,-0.05243548
150866767,150866525,-0.041592494,0.01248725,-0.05355618
150886611,150886383,-0.082204014,0.0009283062,-0.040556334
150905252,150905012,-0.11904527,0.029517401,-0.04568453
150925090,150924858,-0.1350335,0.006043117,-0.074388206
150946201,150945959,-0.059852082,-0.0076276297,-0.057600096
150964809,150964577,0.0049957274,-0.04769569,-0.031739388
150984665,150984437,0.059287418,-0.007828718,-0.00076794834
151005768,151005538,0.14577529,-0.00269545,-0.0009980359
151026867,151026637,0.12319666,-0.025401872,-0.009145288
151045508,151045271,0.093597494,-0.021903353,-0.053508457
151065447,151065218,0.0707384,-0.01637743,-0.020020062
151086644,151086420,0.04365419,0.030600203,-0.014735729
151107546,151107316,-0.031232543,0.03471983,-0.022236865
151124924,151124693,-0.093370065,0.062370494,0.008188989
151146021,151145793,-0.1119441,0.08073419,-0.011048646
151167125,151166894,-0.07598978,0.02650535,-0.035311267
151184512,151184273,-0.016985979,0.032128703,-0.00800169
151205613,151205389,-0.008667269,0.029036403,-0.00022273435
151226694,151226472,0.021045934,0.054064725,-0.004115288
151247800,151247573,0.006613043,0.014960491,-0.017060766
151265224,151264993,0.009155886,-0.031670526,-0.0410807
151286275,151286050,0.017575271,-0.030915339,-0.022242716
151307397,151307165,0.015011793,-0.027051957,-0.004313345
151324798,151324566,0.036398377,-0.025990468,-0.038176462
151345997,151345771,0.032721985,-0.05639747,-0.047075268
151366964,151366730,0.023971243,-0.023283169,-0.04436204
151384333,151384108,0.017929723,-0.023553062,-0.025166439
151405432,151405206,0.0032754848,-0.018824844,-0.025501475
151426535,151426306,-0.010613934,-0.0035571666,-0.020828733
151447635,151447407,-0.017164886,-0.02237081,-0.008008757
151465008,151464785,-0.008633559,-0.08318211,-0.050485075
151486119,151485886,-0.01778298,-0.071041025,-0.034513574
151507216,151506985,-0.027979713,-0.025646253,-0.017136762
151528316,151528086,-0.02054248,0.004987419,0.005851628
151545692,151545463,1.98716e-05,-0.015213492,-0.012066677
151566818,151566581,-0.016187036,-0.0046357377,-0.019846711
151586717,151586489,-0.004395745,0.009885944,-0.039378062
151604106,151603883,-0.024820022,0.042145863,0.0112690395
151625317,151625086,0.02771637,0.03986228,0.0028715697
151646242,151646000,0.044624396,0.036795437,-0.004131326
151667331,151667101,0.057504356,0.0049597407,-0.008103867
151684705,151684478,0.06343513,-0.04768999,-0.011909848
151705808,151705579,0.0681598,-0.09952471,0.0019245477
151726905,151726679,0.07612429,-0.18993688,0.019781685
151744287,151744055,0.06348622,-0.2836046,0.010756855
151765397,151765157,0.08946717,-0.42518714,0.018871618
151786486,151786256,0.08029002,-0.5524997,0.024052879
151803863,151803633,0.06555783,-0.60534865,0.046512805
151824969,151824740,0.049478605,-0.6130032,0.045191683
151846073,151845849,0.034184426,-0.54202116,0.044292983
151867234,151867004,0.010770971,-0.43493417,0.043793444
151884694,151884466,0.020618843,-0.36440915,-0.00054275314
151905637,151905413,-0.017077003,-0.23851512,0.025680058
151926789,151926563,-0.022698062,-0.07880777,0.029730203
151947842,151947614,-0.06852082,-0.017653849,0.02455281
151965221,151964990,-0.06504876,0.024597254,0.026121555
151986323,151986092,-0.0149965845,0.01664921,0.030752456
152007426,152007196,0.049123418,0.008667279,0.022532642
152024793,152024569,-0.0007877202,0.008980999,0.027867235
152045900,152045670,-0.017549157,-0.039871417,0.055840246
152067003,152066770,-0.017114822,-0.060120616,0.05585637
152088097,152087870,-0.0042503956,-0.062950626,0.029557062
152105472,152105247,-0.012040633,0.028838504,0.01975264
152126599,152126368,-0.026949247,0.08734896,0.039370053
152147787,152147558,-0.007902467,0.13922079,0.021722956
152165292,152165060,0.018353239,0.160041,-0.010443384
152186159,152185927,0.0059988196,0.21451627,-0.010437016
152207264,152207026,-0.034132168,0.2329282,-0.012639359
152224632,152224403,0.013974311,0.17884468,0.0110271685
152246978,152246747,0.050002657,0.16497694,0.0029560316
152265596,152265363,0.030876732,0.11947941,-0.020353982
152286695,152286464,0.029384349,0.03841051,-0.008402712
152306568,152306335,0.013388643,0.037522614,-0.013660096
152326435,152326188,-0.04367022,0.045701325,-0.03185905
152346277,152346045,-0.065582484,0.09185953,0.005788095
152367370,152367142,-0.06268271,0.1372965,0.009733965
152386032,152385800,-0.07583634,0.12077373,-0.058510564
152405917,152405688,-0.041347638,0.08491304,-0.064111814
152427104,152426876,-0.0077776816,0.040042423,-0.07341737
152445570,152445339,-0.014209821,0.050459836,-0.049561292
152465445,152465215,-0.005147352,0.04905556,-0.025435323
152486528,152486302,0.027496533,0.02928596,-0.030446783
152503910,152503675,0.024219006,-0.010584583,-0.07475756
152525013,152524782,-0.0018976232,0.062005892,-0.07648461
152546159,152545932,-0.0012993639,0.08064289,-0.07340554
152567205,152566977,0.032658156,0.09110509,-0.069868036
152584591,152584357,-0.011642922,0.08108483,-0.08126378
152605691,152605462,-0.0033835587,0.0088341115,-0.071551606
152626782,152626555,-0.009931263,-0.045695204,-0.07716533
152647887,152647660,-0.022607395,-0.12492422,-0.07200646
152665277,152665052,-0.041561957,-0.08085894,-0.03805373
152686474,152686247,-0.03248275,-0.087999955,-0.03526776
152707462,152707233,0.008433614,-0.07983507,-0.028011618
152724835,152724610,0.009478762,-0.07085117,-0.05089836
152745943,152745711,0.014618301,-0.025294652,-0.03760035
152767057,152766829,0.020643285,0.0042660143,-0.028861076
152784422,152784196,0.0018265751,0.03951073,-0.057462215
152805513,152805289,-0.009500022,0.05970131,-0.04773964
152826623,152826389,0.012753947,0.031127593,-0.034073256
152847730,152847491,0.017363532,-0.010207679,-0.010868188
152865096,152864868,0.021340095,-0.034341235,-0.041908473
152886209,152885977,0.012744085,0.009434759,-0.04276663
152907306,152907067,-0.010971513,0.0551454,-0.040281817
152924683,152924445,-0.034206364,0.064942725,0.043789003
152944602,152944374,-0.025692593,0.070972234,0.05920177
152965792,152965563,-0.022191929,0.065751836,0.06398423
152986740,152986505,0.015285717,0.021356663,0.07505083
153004107,153003882,0.09216757,-0.034648284,-0.0102721695
153025216,153024982,0.0900252,-0.028945995,-0.0130145075
153046323,153046086,0.083456166,-0.00923552,-0.016237093
153067413,153067183,0.038526732,0.02812916,-0.0018801299
153084808,153084580,-0.0016994444,0.056683734,0.038411558
153105890,153105662,-0.018746631,0.08524803,0.04270627
153126993,153126765,-0.051608495,0.11283727,0.050403625
153144370,153144140,-0.044169955,0.14021182,0.054507125
153165479,153165252,-0.06668454,0.13197859,0.050802343
153186568,153186342,-0.07336765,0.1096961,0.04878892
153207745,153207520,-0.052027237,0.08784325,0.06390519
153225168,153224940,-0.05503656,0.071065605,0.059506968
153246150,153245918,-0.058420416,0.07006382,0.05593975
153264774,153264538,-0.008057743,0.053942703,0.052822694
153284666,153284437,-0.009557232,0.046128772,0.06685807
153305721,153305495,0.009838186,0.023378424,0.068022214
153326824,153326596,0.039464973,0.03365338,0.06803768
153347929,153347696,0.051699743,0.07885032,0.06196034
153365300,153365073,0.046527516,0.056270912,0.05224641
153386410,153386182,0.034745544,0.03650712,0.04910329
153407503,153407275,0.0072771134,0.01815335,0.047589235
153424879,153424651,-0.03714163,0.032786388,0.08797765
153445980,153445752,-0.020368341,-0.010861987,0.086943366
153467106,153466877,-0.02506484,-0.053648874,0.07152613
153488334,153488099,0.014516737,-0.06615996,0.04826247
153505733,153505501,0.02120524,-0.062463347,0.042601272
153526661,153526430,0.0010380012,-0.08063236,0.063849114
153547770,153547533,-0.037694138,-0.09797814,0.09322277
153565140,153564912,-0.0709975,-0.12148621,0.04036012
153586283,153586042,-0.035315845,-0.1317278,0.04453055
153607338,153607109,0.005735376,-0.14753117,0.039741173
153624708,153624485,0.019851472,-0.06932634,0.08229124
153644570,153644345,0.037700098,-0.03441942,0.026299527
153665675,153665445,0.045861594,-0.007952643,0.006693089
153686772,153686546,0.029467203,0.047935307,-0.0040038396
153704159,153703925,-0.010481883,0.16423957,0.04430702
153725251,153725023,0.01278274,0.25037852,0.042695038
153746441,153746215,-0.008677369,0.3286313,0.023367925
153763844,153763621,-0.0037822183,0.30040032,0.0022445503
153784836,153784602,-0.01563565,0.27238032,0.003525431
153805937,153805705,-0.054005053,0.17422839,0.001134765
153827032,153826803,-0.04192712,0.09649345,0.015571363
153845691,153845459,-0.05633272,0.08914772,0.014380557
153865510,153865281,-0.0589912,0.05879881,-0.012459545
153886611,153886381,-0.051945318,0.042242397,-0.043944042
153903986,153903758,-0.062230743,0.048228364,0.0013453385
153925092,153924862,0.00043749073,0.042696297,0.0013369893
153946186,153945959,0.0041070427,0.062074438,-0.020557221
153967286,153967060,0.010122479,0.069135346,-0.0392528
153984683,153984438,0.01892187,0.051692512,-0.022531245
154005809,154005583,0.015878217,0.045552794,-0.035993937
154026955,154026728,0.055129096,0.034418385,-0.052719098
154044429,154044199,0.019164208,0.06104797,-0.00989433
154065344,154065115,0.005001506,0.03134085,-0.01191738
154086438,154086215,0.015744694,-0.010740764,-0.02674601
154107545,154107316,0.021740736,-0.019398801,-0.04941594
154124957,154124732,0.011364207,-0.010778822,-0.0008535044
154146018,154145793,0.004736865,0.020692794,-0.011496865
154167123,154166894,0.04469793,-0.009491438,-0.04049054
154188234,154187995,0.051815167,-0.0007757374,-0.0627156
154205597,154205372,0.019537356,0.016848287,-0.028164186
154226747,154226512,0.018813865,0.00074293575,-0.0019539648
154247801,154247573,0.021464713,-0.012641057,-0.01573794
154265180,154264956,0.05466444,-0.015910568,-0.054887675
154286331,154286098,0.041513156,0.031470913,-0.02767879
154306279,154306049,0.03190903,0.04925633,-0.024570355
154324760,154324527,0.027827257,0.008847724,-0.073223226
154344613,154344389,-0.0033308694,0.0063764076,-0.05587343
154365719,154365488,-0.011929508,0.015900537,-0.036749195
154386826,154386598,0.014428765,0.001617598,-0.029935403
154404219,154403988,0.025144069,-0.022285923,-0.067205876
154425301,154425065,0.048880216,-0.00022015643,-0.066157915
154446395,154446166,0.06486317,0.030463897,-0.041643772
154463784,154463544,0.053335197,0.020047445,-0.01185431
154484874,154484644,0.048566744,0.0019651642,-0.028819203
154505969,154505744,0.02093394,-0.013485336,-0.052243453
154527069,154526845,-0.013194298,-0.061803058,-0.03528318
154544502,154544274,-0.0037786134,-0.07317334,0.0011376633
154565647,154565422,-0.0019734327,-0.061200343,-0.0013148857
154586846,154586618,-0.03626999,-0.04255055,-0.015998118
154607747,154607523,-0.040590726,-0.0146455625,-0.023378259
154625125,154624900,-0.021873005,0.00035440162,-0.02101706
154646229,154646000,-0.008234823,0.03784337,-0.006691402
154667332,154667102,-0.014504696,0.064666264,0.005419787
154684703,154684478,0.00816086,0.0460438,-0.013973402
154705807,154705578,0.0017402167,0.017466493,-0.022264967
154726905,154726679,0.0076481393,-0.021684762,-0.004362529
154744329,154744104,0.0071821813,-0.06361908,0.037873574
154765389,154765159,0.008280376,-0.16903822,0.030547908
154786483,154786257,-0.027330995,-0.22676167,0.003942367
154807585,154807357,-0.0027561558,-0.29225057,-0.016481843
154825063,154824838,-0.010152424,-0.23713867,0.035241485
154846257,154846021,0.013918759,-0.22059996,0.053576805
154868419,154868181,0.031514015,-0.1827351,0.042287193
154884539,154884314,0.071441114,-0.1591975,-0.0146723995
154905644,154905413,0.025314141,-0.034227293,0.0034154817
154926750,154926513,-0.009028524,0.076835304,0.014648824
154947845,154947615,-0.040766656,0.18692233,0.016471846
154965230,154964998,-0.027327806,0.24021403,-0.002532237
154986327,154986093,-0.03683301,0.24485216,-0.015350262
155006179,155005951,-0.056585744,0.23914197,0.012417213
155027286,155027055,-0.043562878,0.21813652,0.0028790385
155044658,155044432,-0.041932244,0.15197709,0.017875386
155065758,155065529,-0.055095945,0.07762117,0.021429954
155086902,155086672,-0.03159355,0.011453285,0.029454822
155104338,155104111,0.004250552,-0.026455928,0.011797691
155125535,155125305,0.035039406,-0.0375568,0.013862562
155146442,155146208,0.009412343,-0.024352932,0.011301885
155163819,155163589,-0.010147849,-0.0039360216,0.021336745
155184940,155184709,-0.040147047,0.009196002,0.0059638596
155206016,155205787,-0.02831214,0.02552649,0.006720772
155227116,155226890,-0.035324868,0.03661882,0.016853768
155245741,155245506,-0.05052034,0.03663018,0.030606836
155265591,155265363,-0.038577437,0.017721612,0.019356526
155286691,155286464,-0.012042779,0.008504916,0.010912778
155304072,155303841,0.020166162,0.009310642,0.029756736
155325179,155324951,0.031413514,0.006892231,0.013536428
155346266,155346042,0.054709993,0.0075771343,0.004569307
155363753,155363526,0.06685443,0.034220472,0.009413483
155384900,155384669,0.039523,0.031768546,0.034912944
155405844,155405620,0.038973577,0.023406647,0.035238087
155426951,155426721,0.0060597337,-0.005961523,0.008078808
155448050,155447821,0.011452936,-0.030565392,-0.003365708
155465478,155465256,-0.013201917,-0.0017939779,0.024329877
155486521,155486298,-0.010939221,0.022663966,0.0481343
155507628,155507399,-0.02033971,0.010089132,0.02312495
155525001,155524776,-0.013465109,-0.050315384,0.002782088
155546102,155545876,-0.036453623,-0.0061160563,0.006360216
155568459,155568224,-0.053583533,0.06711739,0.005510959
155588311,155588080,-0.05996159,0.089181505,0.036804922
155605680,155605454,-0.023151314,0.0618737,-0.013582359
155626811,155626577,-0.022980822,0.06951731,-0.0041932184
155648018,155647783,-0.020152804,0.059077065,0.002386929
155665264,155665035,-0.014769798,-0.0009941426,-0.013642292
155685121,155684892,0.037209593,-0.102251776,0.0048920624
155706232,155705992,0.008404237,-0.118152715,0.010323686
155727326,155727094,-0.0076677934,-0.16531518,0.008635334
155744735,155744512,-0.04231549,-0.18538553,-0.0018808014
155765801,155765570,-0.043568544,-0.22487536,0.019072661
155786905,155786672,-0.03229919,-0.2286001,0.034471802
155804272,155804048,-0.0009768102,-0.2559699,-0.0046440214
155825383,155825151,0.008635079,-0.26093453,-0.030452041
155846497,155846267,0.0050096377,-0.2312554,-0.016336497
155867577,155867351,0.0032185896,-0.21696691,0.018044643
155884992,155884764,0.013469238,-0.21098506,-0.013878617
155906137,155905905,0.037661567,-0.19793935,-0.023999548
155927322,155927095,0.03694632,-0.21163267,-0.006280521
155944532,155944304,-0.020249974,-0.18577532,0.050129868
155965641,155965409,-0.05941639,-0.19885844,0.029114705
155986731,155986507,-0.064772084,-0.18983647,0.00027967917
156004111,156003882,-0.059619535,-0.13335307,0.027016822
156025238,156024993,-0.041747984,-0.09801384,0.025385814
156046311,156046083,0.012726949,-0.019702459,0.023583964
156067414,156067185,0.07538932,0.017366877,0.011834723
156084810,156084583,0.07900562,0.02380365,0.010305361
156105886,156105662,0.02300348,0.027424946,0.017502926
156126989,156126762,-0.013616977,0.053679112,0.028901234
156148089,156147859,-0.10418666,0.057647344,0.029209498
156165488,156165263,-0.12085054,0.021594496,0.041439876
156186734,156186500,-0.1227545,0.0005380929,0.04958885
156207680,156207441,-0.07048908,-0.074314356,0.04617076
156225045,156224818,-0.017736265,-0.11815522,0.013648847
156246150,156245919,0.011021181,-0.15937969,0.027734945
156267263,156267020,0.040965546,-0.158513,0.040276542
156288350,156288121,0.045709927,-0.12032167,0.06274174
156305731,156305496,0.041132636,-0.08884463,0.0046100295
156325584,156325356,0.034162607,-0.044355772,0.045878902
156346684,156346456,0.017104309,-0.0061450894,0.040938478
156365302,156365075,0.01125685,-0.005803096,0.03264831
156385161,156384933,0.032500803,0.055038907,0.021419873
156406267,156406035,0.029733336,0.06890752,0.037082963
156427360,156427135,0.0055753137,0.09075047,0.046286058
156444887,156444648,-0.00804328,0.06822257,0.011743441
156466012,156465780,-0.019636638,0.022400513,0.0208263
156486960,156486730,-0.043996405,-0.00052302587,0.060072824
156504315,156504090,-0.058736313,-0.0064027812,0.050711032
156525424,156525196,-0.023241166,-0.012792947,0.025261939
156546533,156546300,0.040684644,0.012043842,0.0072845872
156567619,156567391,0.088902935,0.053080488,0.014706312
156584998,156584768,0.07288212,0.05743247,0.055465974
156606101,156605871,0.0733551,0.030838149,0.04414103
156627202,156626969,0.015644168,-0.0036074931,0.022789573
156644574,156644346,0.0110010505,-0.00067387114,0.04256799
156665681,156665451,0.047485754,-1.386357e-05,0.04278699
156686777,156686549,0.015179558,-0.015916526,0.023146806
156704283,156704054,-0.007669374,-0.10925373,0.017966237
156725382,156725153,-0.008645164,-0.05608223,0.04460602
156746351,156746125,-0.051030252,-0.017749373,0.050542127
156767452,156767227,-0.038729068,-0.055028275,0.04384319
156784839,156784604,-0.013078226,-0.08757317,-0.013717595
156805928,156805703,0.020952825,-0.12295458,-0.0044545806
156827030,156826804,0.1021755,-0.092429884,0.00034556314
156848141,156847907,0.04161969,-0.046422273,0.0077402405
156865511,156865282,0.030979775,-0.081738725,0.0077165854
156886612,156886383,0.045012675,-0.109816276,-0.013603119
156907721,156907484,0.039217327,-0.07874991,0.0049548787
156925091,156924859,0.008041395,-0.063445866,0.00011203943
156946187,156945961,0.052884042,-0.06569889,0.0113814445
156967292,156967057,-0.00034708998,-0.07178789,0.0062848357
156984751,156984517,-0.0028249607,-0.09364194,0.020097844
157004696,157004471,-0.029300427,-0.04390298,0.0010503414
157025624,157025397,-0.0349085,0.022868218,-0.005027561
157046726,157046498,0.017517751,-0.033832308,0.004975367
157065351,157065117,0.022747437,-0.076952375,-0.0059109065
157085225,157084981,0.04924296,-0.08828633,-0.020428352
157106305,157106076,0.049555603,-0.10871926,-0.02625731
157127403,157127177,0.0777151,0.0026204996,-0.03972215
157144778,157144555,0.04708841,0.07203845,0.0010592344
157165896,157165654,-0.0066335276,0.075404316,0.008439098
157186985,157186755,-0.031600647,0.0929852,-0.010746626
157204358,157204131,-0.026740776,0.068433814,-0.03066807
157225463,157225234,-0.04019215,0.11495949,-0.025550062
157246607,157246381,-0.04535929,0.18698263,-0.017500702
157267844,157267619,0.021129305,0.16643137,0.023889827
157285043,157284811,0.053334974,0.103925064,-0.04967386
157306145,157305919,0.07456384,-0.0058408882,-0.0323424
157327279,157327050,0.06940212,-0.016939932,-0.014968118
157344624,157344393,-0.025333779,0.004413676,0.028127743
157365713,157365488,-0.01793325,0.010062888,0.025151564
157386819,157386591,-0.044865295,0.08784604,-0.0011975729
157404199,157403966,0.0008401957,0.071199894,-0.056543313
157425329,157425103,-0.043610916,0.12778257,-0.054499876
157446393,157446167,-0.007843235,0.15211055,-0.019934196
157467500,157467269,-0.039858755,0.22362445,-0.0035473644
157484872,157484644,-0.046266757,0.15920195,-0.028499478
157505988,157505754,0.00048659675,0.117167324,-0.033914015
157527198,157526970,-0.04110567,0.06733172,-0.035346515
157544626,157544401,-0.034454357,0.09139679,0.021660572
157565552,157565324,-0.017968217,0.035831407,0.019526014
157586650,157586424,-0.027124355,-0.006059646,-0.012852364
157607809,157607575,0.01629249,-0.08108654,-0.032884378
157625133,157624901,0.16079126,-0.11008328,-0.0056642583
157646242,157646002,0.11936047,-0.07878076,-0.0006933859
157667333,157667102,0.05463991,-0.13411643,-0.0034435394
157684723,157684487,0.09154896,-0.15295598,-0.00087260414
157705812,157705581,0.03959162,-0.0853071,-0.017980263
157725670,157725444,0.00014911297,-0.050257213,-0.021080546
157746768,157746540,-0.042407934,0.014285146,-0.018979037
157764159,157763928,-0.11294491,0.064124994,-0.011835865
157785293,157785064,-0.080468304,0.08747872,-0.024685208
157806488,157806258,-0.042459346,0.1876213,-0.021973621
157827443,157827218,0.04714487,0.2317151,-0.028778208
157844822,157844596,0.09191373,0.30056116,-0.018535102
157865929,157865696,-0.00966984,0.36873665,-0.03333039
157887066,157886840,-0.020041905,0.35497737,-0.028863585
157904398,157904174,-0.027821276,0.3279077,-0.021836529
157925508,157925276,-0.03357618,0.27826375,-0.010875688
157946621,157946392,-0.006983808,0.25870106,-0.0014246753
157963973,157963751,0.027390711,0.24073057,-0.030144047
157985088,157984852,0.004004349,0.21026373,-0.016665038
158006180,158005954,0.031954326,0.17573708,-0.003696466
158027291,158027062,-0.04383847,0.20331506,-0.0020433723
158044721,158044493,-0.061762538,0.1556056,-0.0066148243
158065852,158065626,0.0014589211,0.08639858,-0.022115646
158086857,158086634,0.06139306,0.07794501,-0.016071755
158104249,158104009,0.09508531,0.095677845,0.034614883
158125338,158125109,0.09940598,0.04579402,-0.01706164
158146433,158146209,0.0762428,-0.006039401,-0.031043973
158163815,158163586,0.06378734,-0.0015957103,0.027965754
158184927,158184690,0.06677265,-0.014786263,0.03376557
158206015,158205787,-0.019489432,-0.012176961,0.017814476
158227116,158226891,-0.033315018,-0.05634878,-0.013715442
158248227,158247994,0.00055678637,-0.04612325,-0.016007135
158265591,158265365,-0.08017164,0.018440774,0.01347662
158286691,158286466,-0.0724112,0.015493824,0.052343395
158307797,158307566,-0.07311214,0.007554661,0.027416384
158325219,158324992,0.007499951,-0.005085661,0.0006457818
158346436,158346207,0.015876118,-0.043675445,-0.0037738718
158367378,158367144,0.08243302,-0.049341183,0.009772852
158384766,158384531,0.043974955,-0.047613736,-0.005539522
158404611,158404381,-0.015902719,-0.007967001,-0.020497777
158425705,158425481,-0.023643432,0.0731459,0.0027750672
158446816,158446582,-0.09323009,0.06300541,-0.00045280688
158464185,158463960,-0.07185567,0.022346709,-0.01159281
158485286,158485059,-0.008902506,0.04809411,-0.012673391
158506443,158506210,0.008396264,0.009271949,0.001628802
158527485,158527260,0.039915197,-0.0024095941,0.004623701
158544863,158544638,0.068832375,-0.004647333,0.011220321
158565977,158565746,0.04854477,0.0075217565,-0.0062160334
158587088,158586861,0.017420849,0.01614668,-0.014835676
158604550,158604321,-0.0015352049,-0.01082037,-0.010283009
158625548,158625318,-0.012022319,-0.034239117,-0.00027911225
158646646,158646416,-0.0040419856,0.011730674,0.00899118
158664026,158663799,-0.051801108,-0.05237428,-0.035350088
158685126,158684894,-0.04772152,-0.11491083,-0.0380329
158706230,158705996,-0.02353063,-0.09306909,-0.016033351
158727325,158727095,-0.05639697,-0.15700486,0.010048795
158745950,158745716,5.4115804e-05,-0.18927938,0.008061655
158765805,158765575,-0.013590138,-0.202902,-0.02631919
158786905,158786674,0.03640753,-0.15765372,-0.015412492
158804280,158804050,0.034021195,-0.07200096,0.02851055
158825380,158825152,0.031748872,-0.05102829,-0.010197802
158846486,158846251,-0.027412156,-0.08760321,-0.034672245
158867752,158867516,-0.051454548,-0.09375507,-0.041317083
158885115,158884888,-0.024500968,-0.0025057767,-0.004102837
158906052,158905829,0.0044793305,0.021795828,-0.005491775
158927164,158926931,-0.0056407927,0.06278447,-0.04063442
158944545,158944310,0.027370512,0.1149141,-0.03254297
158965635,158965407,0.047106497,0.15045913,-0.028669009
158986741,158986507,0.08573464,0.15087973,0.0058676368
159006590,159006367,0.124192044,0.16293596,-0.021415258
159025218,159024985,0.11729465,0.13314447,-0.06052232
159046323,159046086,0.087390415,0.1457057,-0.04428573
159066172,159065945,0.020095726,0.14482531,-0.00578107
159084794,159084563,0.0121698035,0.080591545,-0.03386595
159104650,159104423,0.03247773,0.027319448,-0.06636608
159125766,159125543,0.006860119,0.002075297,-0.037978455
159146970,159146740,-0.0005751662,-0.00814687,-0.01203254
159164235,159164003,-0.016266275,0.0016467888,-0.0012057495
159185364,159185138,-0.023513166,0.020594183,-0.04023903
159206436,159206203,-0.040648498,0.014882813,-0.06308431
159227546,159227318,-0.006143247,-0.01084877,-0.05741131
159244907,159244681,-0.037152734,0.036350567,0.013602069
159266009,159265780,-0.045312174,0.05099338,0.021301368
159287114,159286881,-0.004690699,-0.0023464456,0.0021505158
159304483,159304257,0.024129806,-0.050793502,-0.032882467
159325590,159325359,0.05942461,-0.038514215,-0.017458256
159346694,159346461,0.038276315,-0.004797223,0.00011826084
159364067,159363836,0.022279836,-0.01424129,-0.020845188
159386418,159386182,-0.016331453,-0.002565539,-0.023791987
159406348,159406119,-0.039111108,-0.011908801,-0.049762115
159427549,159427319,-0.051871054,-0.02253374,-0.019471137
159445983,159445752,-0.07726346,0.03657618,0.009498665
159465841,159465614,-0.035310756,0.027415114,0.022128433
159486942,159486717,-0.043289147,0.0083006155,-0.0054053655
159504322,159504092,0.014173694,-0.017113931,0.0111372145
159525444,159525199,0.038748864,0.002716502,0.00027731384
159546518,159546293,0.007445322,0.010237611,-0.0010027675
159565153,159564916,-0.024635017,-0.008755785,-0.008439869
159585005,159584772,-0.05180275,0.021505466,-0.03565098
159606098,159605871,-0.09546282,0.052572224,-0.027342454
159627209,159626972,-0.059113234,0.051148117,-0.015657505
159648311,159648075,-0.03444628,0.032516476,-0.00029554876
159665704,159665478,0.020381797,0.020190364,-0.004281666
159685652,159685427,0.056856662,0.012720034,-0.018053586
159706632,159706409,0.1165878,-0.02803152,-0.006511468
159725263,159725029,0.116893284,-0.05911306,-0.016059712
159745120,159744887,0.099110775,-0.07233669,0.003802731
159766216,159765987,0.03921818,-0.037897866,0.011145571
159787317,159787087,-0.047438234,-0.018006619,0.017671462
159804728,159804502,-0.06469629,0.0061038495,0.0014267405
159825792,159825565,-0.051759202,0.005028205,0.017924123
159846911,159846681,-0.03351242,0.01571346,0.023107586
159864269,159864044,-0.015180071,0.0002863691,0.016634598
159885368,159885143,-0.05559327,0.020904789,0.010092949
159906477,159906244,0.0038461504,0.014581,0.02868712
159927625,159927398,0.036493197,0.02967985,0.045894746
159945021,159944797,0.013594547,0.02500397,0.01848334
159966227,159965995,0.037570637,0.05370263,0.02539994
159987156,159986923,0.006236797,0.05807425,0.047155447
160004524,160004300,0.0016742038,-0.04013899,0.00018514218
160025630,160025401,-0.015994962,-0.03166634,0.038314022
160046730,160046503,-0.09447469,-0.029795129,0.05595404
160064105,160063877,-0.054557145,-0.09547013,0.01625069
160085212,160084978,-0.0079478435,-0.16269554,0.014649806
160106305,160106080,0.02672801,-0.2127754,0.039794147
160127411,160127179,0.09207277,-0.2359412,0.0669573
160144781,160144556,0.09538319,-0.29140598,0.0155763645
160165886,160165656,0.08116129,-0.27025703,0.0075334767
160186994,160186768,0.054173242,-0.2556263,0.039857566
160204390,160204161,-3.0400588e-05,-0.25803772,0.018311758
160225653,160225428,-0.038428668,-0.17383933,0.024736047
160246560,160246335,-0.05661292,-0.11818166,0.027476583
160263966,160263736,-0.09573639,-0.07238503,0.010921831
160285054,160284814,-0.09704775,-0.02277292,0.0012308152
160306145,160305913,-0.07472376,-0.031758454,0.012155123
160327240,160327014,-0.04493169,-0.048896063,0.029271984
160347100,160346876,0.016424144,-0.14597149,0.010972203
160365731,160365491,0.016864732,-0.20228422,-0.025109543
160386819,160386592,0.033929132,-0.2718142,-0.0028839249
160406680,160406451,0.052083217,-0.31844935,0.03539789
160425306,160425070,0.05653826,-0.34029052,-0.013588963
160445154,160444929,-0.023597049,-0.3143867,-0.014507403
160466254,160466029,-0.076947756,-0.25548905,0.03561909
160483716,160483489,-0.1041767,-0.25929573,-0.03388223
160504916,160504691,-0.07603054,-0.15666802,-0.025514845
160525832,160525607,-0.10707627,-0.0008938272,-0.023744823
160546939,160546708,-0.11955241,0.039054397,-0.017652277
160564327,160564091,-0.106775485,0.005139629,-0.030261735
160585421,160585195,-0.086598545,0.007635327,-0.042896125
160606516,160606286,-0.041995108,0.02022135,-0.026202904
160627611,160627387,0.0024550534,-0.043763794,-0.00423881
160644988,160644763,0.05768973,-0.12515375,-0.045051742
160666094,160665864,0.07772084,-0.1382153,-0.029456828
160687227,160686988,0.053190377,-0.123865314,-0.02895763
160704567,160704341,0.073739685,-0.1634542,-0.03868811
160725680,160725451,0.045980815,-0.18401559,-0.04341323
160746816,160746591,-0.0031788575,-0.15854472,-0.019861352
160764273,160764047,-0.0175688,-0.13288686,0.014210278
160785253,160785023,-0.010110132,-0.08223826,-0.018044122
160806352,160806123,-0.036085106,-0.05551824,-0.0487739
160827451,160827221,-0.017499417,-0.023853585,-0.035781525
160844826,160844598,-0.06027734,0.05787404,0.017051617
160865940,160865705,0.013327401,0.04639455,0.0018686884
160887025,160886801,0.027611941,0.057708178,-0.032957956
160904409,160904179,0.0021997087,0.08924261,-0.0046898504
160925512,160925278,-0.026123473,0.0906752,0.0031084858
160946602,160946377,-0.011269756,0.065169364,0.0032873817
160963984,160963754,0.009276134,0.020358976,-0.025750954
160985092,160984856,-0.0068575116,0.049414016,-0.0022056485
161006187,161005961,0.016550522,0.033674642,0.008282379
161026135,161025911,0.048885245,-0.0016419943,-0.0060440814
161047141,161046918,0.049807664,-0.03136514,-0.044596802
161065772,161065533,0.04677462,0.016562153,-0.012651987
161085618,161085393,0.038788144,0.0067038974,0.015700683
161106720,161106493,0.025178567,-0.005378278,0.010680819
161125339,161125111,0.008564624,-0.06809006,-0.038249254
161145208,161144973,-0.08487599,-0.029311217,-0.036390338
161166299,161166071,-0.10078692,-0.014492912,-0.012411768
161187406,161187172,-0.08001816,-0.012642352,0.0072896397
161204783,161204549,-0.08204606,-0.03865927,-0.05049537
161225875,161225649,-0.068685256,0.01980131,-0.05003856
161246985,161246755,-0.0766492,0.08605642,-0.04830562
161264356,161264128,-0.048468832,0.07015779,-0.034263115
161285500,161285275,0.024355771,0.0691979,-0.058199335
161306752,161306524,0.063635185,0.09961444,-0.06180363
161327659,161327429,0.032239597,0.1315272,-0.058547862
161345064,161344837,-0.09209604,0.203023,-0.03825477
161366136,161365905,-0.2980014,0.24870378,0.00027381582
161387249,161387009,-0.51035863,0.30763474,0.027280524
161404612,161404384,-0.6540246,0.29483843,-0.044720046
161426966,161426728,-0.7183228,0.303595,-0.036827806
161446823,161446590,-0.6723302,0.32798052,-0.019204943
161467915,161467685,-0.59951854,0.21620095,0.0018814388
161485291,161485062,-0.45446178,0.15408213,0.018151578
161506396,161506164,-0.32940513,0.0908002,-0.0016004376
161527493,161527267,-0.11185786,0.026710324,-0.007180445
161544928,161544698,0.009022538,0.0050388006,-0.003250742
161566075,161565848,0.058381636,-0.022280723,-0.040074255
161587079,161586841,0.15237331,-0.036349222,-0.04770276
161604446,161604218,0.08541062,-0.024489373,0.040602356
161625552,161625322,0.13392033,-0.084514774,0.050990555
161646643,161646419,0.19763522,-0.09485582,0.014293969
161665283,161665046,0.27327418,-0.12786372,-0.032334313
161685142,161684899,0.30954424,-0.15433332,0.0036684247
161706228,161705997,0.28052372,-0.12341441,0.00926978
161727326,161727098,0.20814417,-0.07625768,0.014263153
161744710,161744479,0.14601246,-0.0036672943,-0.022278318
161765820,161765576,0.12502618,0.089608036,-0.016664369
161785664,161785438,0.16072376,0.15973961,-0.026640158
161806786,161806562,0.21564834,0.16029146,-0.03201496
161824208,161823970,0.23146349,0.11537516,-0.025919156
161845393,161845162,0.29906124,0.061859887,-0.052554883
161866339,161866113,0.34081435,0.0005393918,-0.05139682
161887442,161887214,0.3018992,-0.081636466,-0.027028669
161904817,161904591,0.22719823,-0.10353812,-0.05756805
161925919,161925692,0.12602814,-0.026692502,-0.033551473
161947021,161946792,0.026169619,0.037365668,-0.0046772603
161964403,161964177,0.013510907,0.033839557,-0.0764991
161985498,161985270,-0.08165556,0.09963081,-0.04576741
162007850,162007615,-0.050611157,0.102762945,-0.020009216
162027709,162027473,-0.030406937,0.107716836,-0.0142910965
162045076,162044851,-0.03634106,0.038384933,-0.041832816
162066176,162065948,0.060315784,-0.010274718,-0.04245566
162087376,162087139,0.08673604,0.003276473,-0.046536144
162104753,162104528,0.10807302,-0.008623256,-0.0009768676
162125758,162125526,0.15412721,-0.077262655,-0.033337474
162146873,162146641,0.14911875,-0.08980179,-0.039588057
162167958,162167728,0.15212874,-0.048777297,-0.019084403
162186585,162186348,0.13495477,-0.0784191,-0.025388587
162206442,162206206,0.06370554,0.0083270725,-0.019162273
162227534,162227305,-0.027443845,-0.027394596,-0.04502512
162246157,162245926,-0.05910485,-0.074426,-0.031061554
162266024,162265797,-0.06651202,0.008967725,-0.01060716
162287112,162286884,-0.059376094,-0.08798966,-0.03337733
162304494,162304265,-0.0011869881,-0.07290532,-0.031125171
162325596,162325366,0.06676591,-0.09827478,-0.050269738
162346728,162346496,0.047321834,-0.100594275,-0.054396108
162364133,162363901,0.086310655,-0.019654782,-0.031492688
162385348,162385110,-0.033346135,-0.051310755,-0.015331955
162406275,162406040,0.008889434,-0.015110582,-0.030542742
162426186,162425961,-0.057142448,-0.04971495,-0.0025634114
162444761,162444518,-0.025490148,0.021660365,-0.045312926
162464608,162464377,0.0673103,-0.05492752,-0.087350816
162485705,162485477,0.07528773,-0.0067117093,-0.08876042
162506802,162506578,0.064639896,-0.01876564,-0.07016127
162524188,162523956,0.15548547,-0.10755774,-0.03509519
162545295,162545060,0.09187614,-0.02824823,-0.04427093
162566389,162566156,0.04902425,-0.028286397,-0.02404274
162587490,162587256,-0.05434019,-0.005857114,-0.019015554
162604857,162604633,-0.111080036,0.05507006,0.029560829
162625986,162625762,-0.017975373,-0.0022701793,0.018222097
162647194,162646962,-0.06012414,0.11311384,0.022217626
162664440,162664211,-0.035087563,0.120871246,0.05153648
162685535,162685312,0.009678495,0.034175556,0.059365317
162706669,162706438,0.061172716,0.09766777,0.042425893
162727740,162727513,0.030437391,0.009274314,0.04252311
162745118,162744890,-0.037261587,0.017400734,0.03981715
162766234,162765992,-0.019936385,-0.04723116,0.053838346
162787324,162787092,-0.105607554,-0.043148637,0.048078217
162804692,162804468,-0.10929319,0.016885877,0.052143384
162825799,162825569,-0.065749496,0.025512805,0.05305657
162846898,162846669,-0.042024773,0.015044289,0.05543024
162868007,162867781,0.045320053,-0.0063087437,0.059929986
162885378,162885150,0.015483945,-0.005851922,0.07300667
162906549,162906325,-0.006410447,0.04504435,0.066579215
162927762,162927530,-0.00101559,-0.018327232,0.05678252
162944954,162944725,0.017451715,-0.050412398,0.06100246
162966057,162965827,0.025167735,-0.0528873,0.06896955
162987158,162986927,-0.006858829,-0.02988233,0.088725924
163004532,163004303,-0.047715057,0.017701505,0.11517639
163025634,163025406,0.06533709,-9.903746e-05,0.109707244
163046742,163046504,0.109417275,0.0017236529,0.107161835
163065360,163065127,0.09270853,-0.013838036,0.08027549
163085222,163084986,0.057396974,0.028813658,0.05901821
163105074,163104844,-0.008220614,0.07420411,0.066060916
163124941,163124707,-0.037865117,0.07676434,0.09874923
163144813,163144579,-0.09902465,0.060332622,0.09779554
163164688,163164457,-0.06763795,0.039090987,0.120271854
163185873,163185644,-0.0056726253,0.058840267,0.116501845
163206844,163206620,0.03274225,0.018256089,0.10117379
163224232,163223998,-0.019251332,0.0002711728,0.043942515
163245330,163245099,-0.038480606,0.012185053,0.04126645
163266428,163266203,-0.046944227,0.027193146,0.038070086
163287528,163287298,-0.009732982,0.0844155,0.04931236
163304938,163304710,0.028891219,0.1140148,0.064854704
163326003,163325776,0.045810252,0.08444127,0.07392643
163347108,163346877,0.0036688636,0.058551367,0.06486352
163364481,163364254,-0.012420919,0.06433112,0.060840774
163385615,163385387,-0.04079788,0.036703337,0.06917117
163406683,163406455,-0.036348272,-0.0041725175,0.06530824
163427830,163427604,-0.0034519704,-0.018876474,0.06934384
163445242,163445012,0.08862711,-0.034960356,0.07886842
163466451,163466221,0.12475396,-0.036678363,0.06586638
163487361,163487133,0.1411322,-0.006398842,0.04857527
163504737,163504511,0.069803685,0.024553787,0.06345808
163525842,163525611,-0.0059941034,0.02986872,0.057244435
163546943,163546712,-0.046494324,0.0577094,0.037931744
163564319,163564095,-0.042854108,0.07253849,0.041799635
163585432,163585189,-0.048213582,0.05394424,0.035140686
163606513,163606286,-0.0241696,0.015147804,0.02922729
163627616,163627391,0.019253466,0.018146867,0.028914245
163645000,163644768,0.091257244,-0.015106164,0.02209517
163666092,163665868,0.09415634,0.042698026,0.020646138
163687204,163686970,0.075101405,0.05575498,0.01600181
163704610,163704382,0.10333672,0.06490793,0.05708158
163724585,163724347,0.069568515,0.10094296,0.020980785
163746773,163746546,0.056626562,0.12672867,0.04467237
163764177,163763944,0.005304098,0.07468065,0.011118132
163785272,163785030,-0.0068499,0.015691355,0.023764076
163806357,163806128,-0.005900158,0.032027777,0.0071673966
163826216,163825983,-0.053508237,0.049593806,0.011973493
163844837,163844604,0.027756866,0.07091093,0.072982065
163864696,163864465,0.024347499,0.08433559,0.053722456
163885787,163885562,0.040050626,0.059813395,0.047439456
163906892,163906662,0.07711187,0.03210903,0.034259368
163924306,163924075,0.12482566,-0.022825873,0.017074367
163945366,163945140,0.12837578,-0.042374212,0.010553313
163966470,163966244,0.10333738,0.009416373,0.0037020212
163987674,163987446,0.039897688,0.11237382,0.0025589745
164005171,164004946,-0.021814398,0.17528193,0.07484006
164026047,164025822,-0.06865153,0.2546851,0.06304475
164047151,164046921,-0.10737669,0.24439543,0.050950345
164064522,164064296,-0.01907358,0.15651904,0.0072788303
164085631,164085403,0.048315458,0.17371286,0.011335916
164107976,164107741,0.0067046704,0.09921339,0.0041123214
