timestamp,timestamp_sample,accel_device_id,gyro_device_id,delta_angle[0],delta_angle[1],delta_angle[2],delta_velocity[0],delta_velocity[1],delta_velocity[2],delta_angle_dt,delta_velocity_dt,delta_velocity_clipping
25342350,25341618,4259850,4325386,0.00015134549,0.00023788765,0.00038528032,8.632253e-05,-0.0018474106,-0.0570152,4962,5913,0
25346790,25346591,4259850,4325386,5.4110173e-05,6.963749e-05,-0.00030575498,0.0032997373,-0.0016055991,-0.03931829,4973,3942,0
25840308,25840184,4259850,4325386,-0.0003450661,-0.0008622349,-7.3859705e-06,0.0043164864,-0.0014302947,-0.047369186,4982,4927,0
26343981,26343861,4259850,4325386,-0.00028151023,3.8413134e-05,-0.000432972,-0.005660526,-0.0011649576,-0.04943856,4960,4928,0
26842667,26842552,4259850,4325386,0.00014934962,0.0006728697,-0.00059630914,-0.003585006,-0.00399558,-0.04787296,4978,4928,0
27341536,27341403,4259850,4325386,0.00024056692,0.0012083638,0.00059261365,0.0037700958,0.0024531279,-0.043799557,4959,4776,0
27845297,27844921,4259850,4325386,0.00062988617,0.00084420823,0.00066285796,0.0036227652,0.00043789114,-0.043654762,4989,4939,0
28343742,28343611,4259850,4325386,-0.00040114354,-0.0010085098,0.00010215927,0.00089467055,-0.0029727477,-0.052452922,4980,4927,0
28843186,28842523,4259850,4325386,-0.00029515603,-0.0006916749,-0.00030241668,0.0057204203,-0.0031515663,-0.045643598,4942,4929,0
29341137,29340992,4259850,4325386,-0.00055630284,0.0004460359,0.00015634805,-0.005138759,0.0006734268,-0.048787557,4984,4929,0
29843815,29843670,4259850,4325386,2.1934595e-05,0.0025198793,0.0010468626,-0.009071435,0.00054790976,-0.044909526,4987,4924,0
30343541,30343360,4259850,4325386,0.00057158835,-0.00013759517,0.0008550662,0.0014118195,-0.010792031,-0.062192824,4981,5914,0
30842446,30842306,4259850,4325386,-0.001750352,0.00031605194,0.00047676673,-0.010207348,-0.000499448,-0.04999765,4963,4987,0
31345526,31345295,4259850,4325386,0.0017849811,-0.0017265514,2.0065431e-06,-0.00050260004,-0.0011480952,-0.05002477,5004,4893,0
31839386,31839241,4259850,4325386,-0.0009645951,0.00069900305,0.00036703912,0.01002148,0.0031032348,-0.04887555,5009,4904,0
32342765,32342656,4259850,4325386,0.0010341859,-0.00059605384,-0.0001315217,-0.007436129,0.00031065758,-0.050749835,4982,4932,0
32841169,32841043,4259850,4325386,0.0005134201,-0.0008464191,-0.0004667369,0.010148511,-0.0035963608,-0.03385171,4962,3885,0
33344589,33344477,4259850,4325386,-0.00036047355,0.000752664,5.8915793e-06,-0.008221876,0.0089786565,-0.04576166,4986,4989,0
33843040,33842893,4259850,4325386,-6.5542095e-05,0.00058800343,0.00017544054,-0.0060322187,-0.0009844912,-0.045699313,4966,4986,0
34345966,34345848,4259850,4325386,0.0011387826,3.7711827e-05,0.0005665226,0.0017224662,0.0045874277,-0.049438715,4987,4959,0
34844893,34844756,4259850,4325386,-0.000844875,0.0005390827,0.0002354437,0.004115841,0.009164667,-0.053964548,4967,4927,0
35343323,35342917,4259850,4325386,-0.0003419386,-0.00068838045,-0.00020577713,-0.00089539326,0.00046032775,-0.038621947,4986,3871,0
35841805,35841635,4259850,4325386,0.00058380514,-0.0016993135,-0.00061886257,0.001991107,-0.0032657662,-0.047643747,4968,4969,0
36340295,36340112,4259850,4325386,0.001081716,0.000873154,-0.0004248354,0.007708401,0.008302032,-0.05202938,4986,5522,0
36843908,36843791,4259850,4325386,-0.00082309125,9.0745365e-05,0.00016035777,-0.0005313955,0.0018897492,-0.050304513,4987,4978,0
37342699,37342562,4259850,4325386,-0.0015815421,-0.0005550162,0.0004588915,-0.0006392919,-0.008918667,-0.058209598,4973,4980,0
37845818,37845708,4259850,4325386,0.00022497932,-4.8269292e-05,-7.866334e-05,0.005552724,-0.0011784313,-0.03369201,4974,4968,0
38344537,38344420,4259850,4325386,0.00057594606,-0.00023228713,-0.0006574337,0.0044107446,0.0015995229,-0.043276094,4974,4930,0
38843279,38843090,4259850,4325386,0.00036236667,-0.00019601076,-0.0003479764,-0.00013519201,0.0008028285,-0.052839473,4988,4956,0
39341949,39341780,4259850,4325386,0.0002597591,-0.00029369976,-0.0002848519,-0.00029818976,-0.008035126,-0.056657225,4987,5919,0
39840031,39839924,4259850,4325386,0.00047855146,-0.000819337,-0.00014158558,-0.0084941005,-0.009966449,-0.04875792,4985,4928,0
40344142,40343606,4259850,4325386,-9.122578e-05,-0.00019124261,-0.0001616628,-0.000804035,-0.0075472896,-0.045482747,4991,4942,0
40842053,40841858,4259850,4325386,0.000506535,-0.0006726075,-0.0006616849,-0.0026285956,-0.0130142905,-0.045399804,4992,5007,0
41346160,41346021,4259850,4325386,0.00077678164,-0.00036475423,0.00041690835,-0.0019157067,-0.005358398,-0.05948843,5037,5869,0
41844796,41844682,4259850,4325386,-0.00017506162,-2.3138673e-05,0.00029278506,0.0020977473,-0.012300327,-0.04565802,5005,4891,0
42343614,42343500,4259850,4325386,-9.9080935e-05,-0.00029593878,0.00023226123,-0.0055141267,-0.0016557429,-0.051585704,4990,4927,0
42842340,42842212,4259850,4325386,0.00075700966,-0.0006732279,-0.0009532737,0.005965889,0.00077341887,-0.046376977,4961,4925,0
43340846,43340735,4259850,4325386,-0.00019377538,-0.00024562757,-0.00057089224,0.001187117,0.0035396896,-0.04773478,4986,4992,0
43845034,43844415,4259850,4325386,0.00076833507,-0.0012517988,-0.00022226479,-0.0031175117,-0.008139726,-0.049466927,4987,4947,0
44343251,44343126,4259850,4325386,-0.0018021663,0.0045590424,0.0006896729,-0.011372185,-0.008489213,-0.048087023,4970,4936,0
44841405,44841296,4259850,4325386,0.0004077221,0.0005180679,-0.00028730155,-0.0067010503,-0.0050111027,-0.05039247,4986,4921,0
45345158,45345048,4259850,4325386,-0.00030181048,-0.0033963355,0.00044836625,0.005200205,0.0066930717,-0.05425971,4977,4968,0
45838820,45838678,4259850,4325386,-0.0006095335,0.0029446585,-0.00029370326,0.0038523194,0.0086143315,-0.044353623,4986,4975,0
46342473,46342360,4259850,4325386,0.0008060355,-0.003357018,0.004140164,-0.009832608,-0.017681932,-0.05304593,4986,4952,0
46841226,46841107,4259850,4325386,-0.0009356927,0.0027616038,7.885119e-05,-0.0027152116,-0.0072712903,-0.055269055,4950,4927,0
47345281,47345130,4259850,4325386,0.00021100332,-0.0013134832,-0.0005095312,0.011730578,0.011021054,-0.047609974,4964,4777,0
47843558,47843417,4259850,4325386,-0.00011283241,-0.0014088296,0.00046384774,7.811677e-05,0.010399625,-0.041370537,4989,4925,0
48342235,48342109,4259850,4325386,0.00046050173,-0.0037167808,7.293187e-06,0.006647587,0.004553988,-0.048925854,4988,4927,0
48846056,48845881,4259850,4325386,-0.00030492787,0.0044125244,8.664853e-05,-0.005538292,0.0047361357,-0.06161207,4954,5740,0
49339599,49339491,4259850,4325386,0.00017585591,0.00029102882,-0.00039691446,-0.0020661023,-0.008354228,-0.04743002,4988,4933,0
49842937,49842770,4259850,4325386,-0.0006227391,0.003172211,0.00010894483,0.0028951669,0.004143902,-0.04746617,4963,4920,0
50341475,50341361,4259850,4325386,0.00097285555,-0.0035597477,-0.0005745754,0.00022663515,-0.0047569615,-0.043986745,4987,4948,0
50840171,50840052,4259850,4325386,-0.0001568548,0.0026685104,-0.00025625364,-0.005357418,-0.00015231861,-0.048129678,4985,4991,0
51343841,51343731,4259850,4325386,0.00019883276,-0.0038576347,-0.00022685846,0.005614795,-0.006033034,-0.04764151,4977,4961,0
51842033,51841924,4259850,4325386,0.00010465611,0.0017357647,0.00065065676,-0.0067773843,-0.0033542446,-0.051161185,4988,4969,0
52345745,52345608,4259850,4325386,-0.00037878877,-0.0020598378,0.00031281364,0.0016619238,-0.0019896512,-0.043710936,4990,4884,0
52838970,52838857,4259850,4325386,-0.0002589146,0.00023057299,-0.00022705924,0.00024920507,-0.004251356,-0.048407268,4987,4965,0
53342100,53341987,4259850,4325386,-9.586545e-05,0.002609001,-0.00012377198,-0.005764063,-0.011521989,-0.050549414,4986,4959,0
53842109,53840680,4259850,4325386,-0.002563852,-0.0027413717,-0.0033095751,-0.010687788,-0.0039446037,-0.04481004,4988,4776,0
54344568,54344456,4259850,4325386,0.0017734852,0.0031025033,0.00082757603,-0.020748788,-0.017093567,-0.06079869,4991,4931,0
54843241,54843120,4259850,4325386,0.00033197668,-0.0019914575,0.007852148,0.004099082,0.007997756,-0.044421144,4999,4998,0
55341875,55341741,4259850,4325386,-0.0027175231,-0.002376818,0.0019902328,0.0036751595,0.01112996,-0.052562285,4989,4957,0
55840581,55840430,4259850,4325386,-0.0007398092,0.0060375617,-0.002340496,-0.0075938557,-0.00077861914,-0.050396916,4986,4928,0
56339433,56339319,4259850,4325386,-0.0020273675,-0.0023053314,-0.0017018754,0.011506237,0.0065566315,-0.045841973,4974,4928,0
56842454,56842345,4259850,4325386,0.0009298803,-0.004184176,-0.00021843969,-0.0011914936,-0.014681354,-0.044754244,4937,4954,0
57341358,57341183,4259850,4325386,-0.0007444793,0.0035931699,0.0002012665,-0.008764764,-7.572461e-05,-0.052187223,4963,4927,0
57844956,57844675,4259850,4325386,-0.00058636995,-0.0018821144,-3.133314e-05,-0.006885092,-0.0024543386,-0.052120708,4991,4924,0
58343480,58343367,4259850,4325386,0.00060076616,0.0047128093,-0.00010206356,-0.0064053545,-0.0055826935,-0.04828448,4987,4928,0
58842222,58842103,4259850,4325386,0.0002701744,-0.0046202345,-0.00017715119,-0.0013046666,-0.0065038395,-0.051872853,4969,4930,0
59345873,59345733,4259850,4325386,-0.0009030257,-0.0019366794,0.00033674456,0.0012187985,0.007626829,-0.05417664,4987,4925,0
59839978,59839457,4259850,4325386,-6.687078e-05,-0.0001473144,0.00060802343,-0.0022278382,-0.009932751,-0.045896396,4990,4797,0
60343379,60343268,4259850,4325386,-5.2527426e-05,0.0011370357,0.00017356599,-0.0005960775,0.0023653936,-0.056058507,4973,4973,0
60841938,60841811,4259850,4325386,-0.00029306844,0.0030575753,-0.0015034965,0.0036005718,0.0025912349,-0.04840768,4991,4959,0
61345199,61345082,4259850,4325386,0.000792179,-0.004797763,0.00017636598,-0.0065472773,-0.021428557,-0.054946832,5004,4933,0
61844342,61844178,4259850,4325386,0.00017195553,0.001079924,-0.00020344357,0.0068987682,0.001833872,-0.04711886,4987,4956,0
62343211,62343025,4259850,4325386,0.00024909884,0.0033246423,0.00013046635,-0.0022188826,-0.00067568675,-0.05864872,4982,5907,0
62846662,62846550,4259850,4325386,-0.0005943843,0.0005795777,0.000610374,-0.004069121,0.0088405125,-0.05354247,4989,4962,0
63341032,63340755,4259850,4325386,4.0267627e-05,0.0010660453,-7.489967e-05,0.00039529728,0.009295604,-0.041173648,4989,4771,0
63839550,63839443,4259850,4325386,0.00021860372,-7.8103113e-07,0.00022325896,0.002731701,-0.002382116,-0.048869517,4982,4924,0
64343779,64343668,4259850,4325386,5.9477952e-05,0.0023902142,0.00018022105,-0.00087081874,-0.002060357,-0.049352217,4983,4972,0
64842469,64842360,4259850,4325386,-0.0010265784,-0.0006073439,-0.0005301531,-3.184667e-05,0.01157793,-0.047445837,4987,4929,0
65341369,65341201,4259850,4325386,0.0037737426,-0.001367957,0.00020784138,-0.010208248,-0.018523706,-0.0493401,4973,4969,0
65844924,65844739,4259850,4325386,0.0019155582,0.002618259,0.0010326387,-0.0076866257,-0.008042903,-0.051206645,4992,4926,0
66344011,66343872,4259850,4325386,0.00087824714,0.003790861,-0.00054421235,-0.00065316504,-0.0038808899,-0.047650408,4987,4928,0
66842676,66842566,4259850,4325386,-0.00053686893,-0.004240471,-0.00018933634,0.0057334835,0.006527477,-0.046010762,4987,4967,0
67341644,67341403,4259850,4325386,-7.949975e-05,-0.003392373,0.000106447354,0.00041864865,0.0027668627,-0.063483015,4999,5908,0
67845805,67845166,4259850,4325386,0.00046995227,0.0036193696,-0.00032268296,-0.0052452716,-0.010021086,-0.05744212,4975,6208,0
68342765,68342628,4259850,4325386,0.0005609413,-0.0012629514,0.00023357518,0.0018641086,-0.01445008,-0.041619264,4986,4928,0
68841444,68841321,4259850,4325386,-0.00088749063,-0.0038434288,-0.00014620059,0.001319508,-0.0017716087,-0.05286905,4982,4928,0
69345111,69345000,4259850,4325386,0.00035616913,0.0043162773,-0.00037144698,0.001460844,-0.004161304,-0.048550565,4987,4980,0
69843451,69843301,4259850,4325386,0.000107288,-0.0029187007,-0.0014542089,-0.006149866,0.0021586516,-0.04703055,4988,4987,0
70341570,70341387,4259850,4325386,0.0015079969,0.002434007,-0.00020789131,-0.0032787141,0.003237816,-0.06033897,4986,5879,0
70845289,70845074,4259850,4325386,0.00047428708,0.0024703967,-0.0014679213,-0.0037143838,-0.0031872035,-0.043131128,4997,4941,0
71343932,71343780,4259850,4325386,0.0019540673,0.0021877543,-0.001057035,-0.002652006,-0.0035641666,-0.040455345,4968,4927,0
71843151,71842855,4259850,4325386,-0.0005308846,0.002630882,-0.005832854,0.018082071,0.0054010497,-0.03775429,4962,4931,0
72341264,72341141,4259850,4325386,0.0009187769,-0.0045466605,-0.0013154956,0.01241447,0.019031905,-0.045767307,4986,4926,0
72845943,72845817,4259850,4325386,-9.397263e-05,0.00015715756,0.0021141036,-0.0028710735,-0.004040264,-0.046306185,4987,4926,0
73344636,73344509,4259850,4325386,0.0004711468,-0.00011322392,0.001983868,0.008785497,-0.002444941,-0.04288159,4982,4931,0
73843416,73843208,4259850,4325386,0.00056861236,-0.00048359472,0.0014418653,0.00018473472,-0.017722014,-0.04644883,4994,4931,0
74342126,74342016,4259850,4325386,-0.000110128094,-0.0033916254,0.0005553108,-0.0021568972,-0.007883576,-0.05233879,4989,4966,0
74840998,74840779,4259850,4325386,0.00023364958,0.0031583472,-0.0007573254,0.0017498395,-0.007383031,-0.05393761,4964,6011,0
75344419,75344264,4259850,4325386,0.00019780177,-0.0005937177,-0.00040671477,0.0060397545,0.0065659215,-0.051873546,4988,5502,0
75843137,75842957,4259850,4325386,-0.00020406695,0.0008606487,-0.00027612573,-0.012393055,-0.010646263,-0.049456265,4987,5915,0
76342558,76341706,4259850,4325386,0.00022161464,0.0011946409,-0.00087676395,0.0016889998,0.00059906696,-0.04517773,4965,4999,0
76845515,76845327,4259850,4325386,0.00035749236,0.00047336682,-0.0006130989,-0.0042290045,-0.0077936393,-0.04730709,4987,4978,0
77345352,77344062,4259850,4325386,0.00021832509,-0.00020031545,-0.00044918075,-0.008384004,-0.0023261574,-0.048730977,4990,4928,0
77842847,77842711,4259850,4325386,2.8342634e-05,-0.0016029027,0.0002649351,-0.0027324962,0.014004037,-0.052883703,4992,4924,0
78340811,78340652,4259850,4325386,0.001460703,-0.003176753,-0.00049469736,-0.00018023018,-0.0061509684,-0.038161274,4969,4970,0
78844590,78844092,4259850,4325386,0.0004188969,0.0029193123,-0.0010120707,-0.00082178944,0.0015105424,-0.0491921,4994,4929,0
79341989,79341827,4259850,4325386,5.7986956e-05,-0.0023341447,0.00062903354,-0.0025477426,0.006925614,-0.044278983,4987,4919,0
79845615,79845506,4259850,4325386,0.00046967447,0.0040865713,-0.00051209587,-0.011422532,-0.0041741976,-0.049854193,4969,4929,0
80344369,80344259,4259850,4325386,-0.00025752097,-0.0043296437,7.7456774e-05,-0.004675458,-0.0011281046,-0.059525207,4990,4988,0
80843027,80842890,4259850,4325386,0.00023443747,-0.0011460229,-8.13409e-06,0.0059721675,0.012342547,-0.04243862,4986,4791,0
81342171,81341586,4259850,4325386,0.00013586669,0.00075083645,-0.00032878766,0.003572801,0.00071278936,-0.054624733,4982,5832,0
81840431,81840322,4259850,4325386,-0.00097086147,0.0005972658,-0.0013809948,0.0018641654,-0.007817106,-0.04384676,4967,4926,0
82344658,82344414,4259850,4325386,-0.00012682936,0.000513328,0.00080801616,0.0013790044,0.0027193713,-0.049062233,4961,4962,0
82843459,82843346,4259850,4325386,-5.0673316e-05,-0.0024760177,0.0028794506,0.00025291825,-0.004196715,-0.043327313,4989,4989,0
83342505,83342360,4259850,4325386,-0.00015069317,-0.0035317373,0.000890772,-0.0013130299,-0.003395496,-0.050241888,4971,4972,0
83846121,83845968,4259850,4325386,-9.456646e-06,0.004434994,-0.0007212891,-0.0007547078,-0.008409922,-0.044965524,4987,4941,0
84339809,84339697,4259850,4325386,-0.0011348918,-0.0037093742,-0.0019089194,0.0049359156,-0.0031636239,-0.038885072,4993,4630,0
84842998,84842854,4259850,4325386,-0.0013922314,0.0029512336,-0.0014521244,0.005336552,0.012793075,-0.05400542,4988,4928,0
85341652,85341545,4259850,4325386,0.0014584464,-0.0048988545,-0.0004621756,-0.0054036556,-0.018364249,-0.0548244,4986,4970,0
85844921,85844774,4259850,4325386,-0.00017931548,0.0037017716,-0.0006381537,0.005299103,0.0037435899,-0.039365306,4988,4928,0
86343576,86343465,4259850,4325386,0.00049588823,-6.4732754e-05,5.9550246e-05,-0.0041724825,0.011677322,-0.03549624,4983,4969,0
86841749,86841607,4259850,4325386,0.00028414055,0.0022023928,-0.00052135385,0.0052606477,0.0060941456,-0.046026446,4983,4923,0
87345593,87345486,4259850,4325386,-0.00060520903,-0.00077457004,0.0006582477,0.0012913999,-0.0023383778,-0.041802827,4980,4011,0
87839107,87838996,4259850,4325386,4.042452e-05,-0.0019066278,0.00097329105,0.0006883766,-0.00058881677,-0.05042826,4986,4927,0
88343047,88342901,4259850,4325386,-0.0002421457,-0.0016844106,0.00079812773,-0.0059863753,-0.007099848,-0.048608687,4965,4926,0
88841482,88841368,4259850,4325386,-0.00039380376,0.0006481302,4.8462744e-06,0.010244207,0.003984338,-0.05633672,4985,4977,0
89345235,89345050,4259850,4325386,0.0009265077,-0.004010763,-0.00052572525,0.0021673476,-0.007990041,-0.054143537,4990,5914,0
89844238,89843958,4259850,4325386,-0.00086952734,0.0045369957,0.00011183095,0.0028661133,0.018701669,-0.049337316,5004,5010,0
90342691,90342549,4259850,4325386,-0.00013008108,-0.0024328267,-1.351313e-05,-0.0006316277,-0.0042922446,-0.054619636,4992,4929,0
90846273,90846118,4259850,4325386,0.001676166,-0.00089445605,0.0006315171,0.008214373,0.0068815164,-0.042473365,4990,4967,0
91339999,91339817,4259850,4325386,-0.00066994823,-0.0023170258,0.0031742866,-0.0055550793,0.0026814442,-0.055298008,4984,5829,0
91843107,91842998,4259850,4325386,-0.00043133768,-0.002787017,0.0038419175,-0.008688449,-0.0003744047,-0.06131971,4985,4965,0
92342190,92341862,4259850,4325386,0.001706458,-0.00049677026,0.00013730046,-0.0022325595,-0.010648206,-0.046297822,4974,4962,0
92840555,92840383,4259850,4325386,-0.00048446827,0.0054955473,-0.00053013104,0.004931807,-0.011038634,-0.047091935,4988,4974,0
93345058,93344946,4259850,4325386,0.00083153957,0.0013483625,-0.0036572407,-0.009779576,-0.0021853894,-0.045365863,5013,5000,0
93843379,93843253,4259850,4325386,0.0029088038,-0.005534701,-0.0025778417,-0.008293047,0.0020772878,-0.048711304,4987,4928,0
94347050,94346935,4259850,4325386,-0.00036136707,0.0005555641,-0.0009604999,-0.008625026,-0.0017635875,-0.053619303,4989,4938,0
94840836,94840724,4259850,4325386,-0.0003454421,0.00010325933,-0.0007019149,0.0002623536,0.0007636579,-0.051578283,4966,4928,0
95339452,95339330,4259850,4325386,-0.00027389286,0.00023316623,-1.30076005e-05,-0.00822939,0.0021899366,-0.046978217,4987,4927,0
95843114,95843009,4259850,4325386,0.000449174,-0.00022782704,-0.00053250615,-0.0015396946,-0.0031491276,-0.029733388,4983,3939,0
96342061,96341857,4259850,4325386,4.1281484e-05,-0.0005409448,0.00015728289,-0.0027880538,7.716965e-05,-0.050007712,4985,4982,0
96845693,96845542,4259850,4325386,-0.0012283789,0.001132618,0.0016079599,-0.008418048,-0.00019808825,-0.043210678,4987,3709,0
97344290,97344086,4259850,4325386,0.00039207123,-0.0005700572,-0.00032127503,0.0022552626,0.0036915785,-0.04670929,5000,5900,0
97843571,97842769,4259850,4325386,-7.361542e-05,-6.1248743e-06,0.00049184373,-0.006755458,-0.015116976,-0.049742382,4988,4972,0
98341791,98341681,4259850,4325386,-4.86682e-05,-0.00025487115,0.0004154559,0.00029334443,0.0014882381,-0.052784365,5006,4900,0
98839953,98839839,4259850,4325386,-0.00049649976,7.1726254e-06,6.9063404e-05,-0.010992994,0.016137064,-0.055145472,4988,4927,0
99343634,99343502,4259850,4325386,-1.8267758e-05,0.0034017914,-0.0017608362,0.00682256,-0.0064692427,-0.035462707,4969,4926,0
99842137,99842027,4259850,4325386,-0.00013610357,-0.004106018,-0.0006737816,-0.00060858985,-0.0119430935,-0.048316058,4988,4994,0
100345828,100345705,4259850,4325386,-0.00066534645,0.0038039198,-0.00081177754,0.0029492257,0.00061753776,-0.03502337,4983,3939,0
100839585,100839474,4259850,4325386,-0.00029682647,-0.0026832302,-0.0016897722,0.0046860203,0.008546854,-0.0439897,4970,4963,0
101343247,101343097,4259850,4325386,-0.0001281456,0.0037839958,0.0021184264,-0.0016311491,0.006013201,-0.046409775,4994,4927,0
101841820,101841328,4259850,4325386,2.5525867e-05,-0.0019417112,0.002522721,0.0016534033,-0.00043097686,-0.05344275,4970,4928,0
102340089,102339976,4259850,4325386,0.00021757594,0.0028480943,8.7268585e-05,-0.0071276384,-0.007308837,-0.050316557,4948,4929,0
102843362,102843188,4259850,4325386,-0.00023147056,-0.0013833612,-0.00031119175,0.006413797,0.0006319289,-0.04554766,4963,4928,0
103347576,103347440,4259850,4325386,-5.523516e-05,0.00013553652,-0.00026883167,0.0057406807,0.006323403,-0.04817079,4999,4936,0
103841303,103841178,4259850,4325386,-0.0007213337,0.00131323,0.00036749843,-0.00033906227,-0.0011423848,-0.048636556,4989,4928,0
104344831,104344722,4259850,4325386,0.000121984674,-0.00045048454,0.00079505355,-0.003924968,-0.014227816,-0.04567274,4988,4933,0
104844576,104844429,4259850,4325386,0.0010021856,-0.0036670174,-7.020274e-05,0.00035169578,-0.017571377,-0.051601265,4946,4927,0
105343305,105343106,4259850,4325386,-0.00074505986,0.0024904895,0.00062384905,-0.0020351408,-0.0010687999,-0.06121834,4989,5872,0
105841982,105841797,4259850,4325386,9.776702e-05,0.0036438883,-7.2064526e-05,0.0013488933,0.0034148751,-0.05357458,4987,5913,0
106345785,106345673,4259850,4325386,0.0006115978,-2.4790232e-05,-0.00088859664,-0.0062218197,-0.011661011,-0.044187065,5014,5013,0
106844575,106844419,4259850,4325386,-0.0007753486,0.0016092572,0.0004282178,-0.0013216845,-0.005440976,-0.049913775,4948,4917,0
107342566,107342414,4259850,4325386,0.00011058887,-0.00010867924,0.00051730283,-0.00168304,-0.00049763103,-0.055100568,4981,4928,0
107841468,107841352,4259850,4325386,-8.441428e-05,-0.0027091072,0.0007962329,-0.0065209055,0.0001614812,-0.05470377,5000,4989,0
108345555,108345346,4259850,4325386,-0.00022020805,0.002929258,-1.8162021e-06,0.00233452,0.0049683447,-0.05692597,4962,5915,0
108843552,108843437,4259850,4325386,-0.0007609898,0.00081780605,-0.00021511018,-0.0032402074,-0.016660001,-0.046067167,4994,4929,0
109342443,109342249,4259850,4325386,0.00092191674,-0.0021019292,-0.00090031547,-0.0023964432,-0.010881758,-0.049320187,4965,4927,0
109840961,109840816,4259850,4325386,-0.0005603766,-0.002042345,-5.5908353e-05,-0.0036253647,0.009975065,-0.050543677,4986,4960,0
110344484,110344290,4259850,4325386,-0.00049626833,-0.003882452,-0.00013951932,0.0020104414,-0.003908766,-0.042970683,4955,4954,0
110842806,110842689,4259850,4325386,-0.0007588204,0.0014321908,0.0006190032,-0.0025716147,-0.002962384,-0.059540603,4987,4930,0
111345767,111345421,4259850,4325386,-0.0007740419,-0.0038538242,0.00077276054,0.0039734724,0.013756295,-0.05303419,4976,4930,0
111844224,111844112,4259850,4325386,-1.08066115e-05,0.0007723071,0.0001735578,-0.0019433915,-0.015944565,-0.049035314,4974,4929,0
112343008,112342861,4259850,4325386,0.00021056023,-0.00054394227,-0.0003015883,0.0008598063,-0.0060463003,-0.049475443,4969,4942,0
112841608,112841499,4259850,4325386,0.00019417482,-0.0005578477,0.00014145802,0.004935345,0.004433817,-0.046490397,4987,4781,0
113340310,113340192,4259850,4325386,-0.00014935488,0.0010776989,0.00019029515,0.0031263565,0.0019288161,-0.04575767,4986,4969,0
113844445,113844322,4259850,4325386,-0.0006749045,0.004480212,0.000114958006,0.0028424032,0.012133762,-0.045276165,4987,4923,0
114342700,114342565,4259850,4325386,0.00018895962,-0.004526144,-0.000581667,-0.0010487728,0.00867182,-0.04941942,4984,4965,0
114841428,114841262,4259850,4325386,-0.00030733822,0.0035259027,-0.0003463099,-0.003957069,-0.0015711113,-0.043477494,4990,4927,0
115340203,115339951,4259850,4325386,0.00068351097,-0.004149191,-0.0003612846,-0.0048266263,-0.017231198,-0.063744515,4987,5791,0
115839012,115838822,4259850,4325386,-2.4539679e-05,0.003013158,6.4599124e-05,-0.0049141576,-0.0022064885,-0.04979426,4959,4954,0
116342454,116342337,4259850,4325386,0.00010953631,-0.0035635233,0.0005781877,-0.00079598086,0.0061138677,-0.04531636,4994,4874,0
116841134,116841018,4259850,4325386,1.6452836e-05,0.0030611705,1.2156646e-05,0.0046979887,0.011360819,-0.046040546,4987,4972,0
117345125,117344977,4259850,4325386,-0.0006303466,-0.0032719416,-0.00042827634,-0.0014540898,-0.008671617,-0.049855586,4970,4972,0
117843536,117843391,4259850,4325386,0.00060646306,0.0017554287,-0.00088301045,0.003570261,-0.009801387,-0.04487666,4984,4928,0
118342633,118342087,4259850,4325386,0.0012412993,0.0025278335,-0.000526028,0.005961006,-0.003660622,-0.0704866,4988,5872,0
118845342,118845232,4259850,4325386,-0.00045772723,-0.0034845097,0.00020634876,-0.0043315706,-0.004765363,-0.043561485,4988,4929,0
119339055,119338923,4259850,4325386,0.0002936191,0.0004425751,0.00016651124,-0.008135539,-0.0065814536,-0.03370296,4985,4936,0
119842708,119842597,4259850,4325386,-0.0010644735,0.000761779,0.00069620693,0.005295982,0.0077933064,-0.05092865,4956,4953,0
120341417,120341297,4259850,4325386,-6.491726e-05,0.0027074406,-0.000102457954,-0.0067841434,-0.0015116734,-0.050856218,4987,4921,0
120845134,120844605,4259850,4325386,-0.00049697567,-0.0016050733,1.6374386e-05,-0.0036964074,-0.004552186,-0.04835785,4960,4956,0
121343305,121343172,4259850,4325386,0.00023059713,0.0028992544,-0.00059151126,-0.0015859237,-0.005606001,-0.046351954,4988,4973,0
121841984,121841864,4259850,4325386,-0.00044961926,-0.0025997767,9.855078e-05,0.0072675883,0.01142027,-0.039358042,4985,4928,0
122345725,122345545,4259850,4325386,0.0006797287,0.0010178253,-0.0003272846,0.0059754103,-0.0015221104,-0.061409213,4985,5913,0
122839589,122839456,4259850,4325386,-0.00044537245,-0.0038092951,-0.00012942169,-0.0002912386,0.010365863,-0.04521266,4979,4928,0
123343184,123342941,4259850,4325386,-0.00048815628,0.003979386,0.00030730857,-0.0060801604,-0.005209686,-0.05003019,4997,4794,0
123841731,123841624,4259850,4325386,9.204268e-06,0.00036191207,-0.000599884,0.005536259,-0.0068434435,-0.041293304,4986,4965,0
124340727,124340574,4259850,4325386,-7.940234e-05,-0.0003739703,-0.00053739006,0.0060250927,-0.0068595544,-0.044048995,4971,4931,0
124844107,124843998,4259850,4325386,0.0002762973,-0.0038958732,-0.0017527128,-0.010365515,0.0024077662,-0.046761956,4979,4927,0
125342802,125342691,4259850,4325386,0.0005689863,0.0018333045,-0.0007281451,-0.0048151356,0.0076049305,-0.054618653,4986,4993,0
125846504,125846391,4259850,4325386,0.000113709575,-0.003264168,0.00018468773,-0.007779874,-0.0048092045,-0.04417751,5006,4993,0
126340219,126340082,4259850,4325386,0.00024290588,0.0033826507,-8.211893e-05,-0.0008839416,-0.0025249058,-0.044436425,4989,4928,0
126844062,126843759,4259850,4325386,-0.0034570585,-0.004115832,0.00031774203,-0.005175084,0.001035526,-0.041748304,4987,4986,0
127342685,127342544,4259850,4325386,-2.6909573e-05,0.0041682245,-0.00076815754,-0.0052082147,-0.007020081,-0.044100866,4978,4959,0
127841483,127841308,4259850,4325386,0.00043931435,0.000114519135,-7.1094415e-05,-0.010663528,-0.0098889815,-0.043084804,4967,4927,0
128344935,128344825,4259850,4325386,0.00021742343,0.003689316,-0.0002679052,-0.0072300993,-0.010562626,-0.046763223,4984,4925,0
128843639,128843520,4259850,4325386,0.00021025201,0.00041212374,0.00032620024,0.0043304996,-0.011757972,-0.03336693,4988,4929,0
129342686,129342252,4259850,4325386,0.00078548666,-0.003327,-0.0005755759,-0.005346448,-0.0045353416,-0.060404114,4962,5916,0
129841021,129840908,4259850,4325386,1.4068558e-05,-0.0041636843,0.00042158063,0.0014671062,0.001491906,-0.05217738,4985,4990,0
130339961,130339628,4259850,4325386,-0.0006460944,0.0032627622,-0.0007406692,-0.0017024467,0.0004057979,-0.057671737,4995,5914,0
130843411,130843280,4259850,4325386,5.4107524e-05,0.00046716002,0.0005498674,0.005646108,-0.005307785,-0.047863677,4987,4655,0
131342427,131342253,4259850,4325386,-0.00044004654,-0.0039080945,-0.00048970117,0.0020172612,0.0015005323,-0.045862075,5267,4929,0
131840777,131840667,4259850,4325386,-0.0004121637,0.0036265047,-0.0001808265,-0.009071467,-0.008610179,-0.051745433,4987,4975,0
132344460,132344348,4259850,4325386,-0.00023683581,0.0040077562,-0.0003710276,-0.0055866665,-0.0063297693,-0.04392168,4985,4963,0
132842680,132842544,4259850,4325386,-0.0007359833,-0.004015377,-0.00030952672,-0.0030470192,0.010169883,-0.0467866,4989,4687,0
133341343,133341237,4259850,4325386,-0.00036399794,0.0014189346,0.0005962135,-0.0073619927,0.0018107685,-0.052604355,4976,4959,0
133839559,133839430,4259850,4325386,0.00078171666,-0.0004297942,-0.00015126161,0.005779407,-0.0006689003,-0.044682186,4987,4732,0
134343770,134343609,4259850,4325386,0.0002743806,0.00032581654,-0.0001969603,-0.00057384674,-0.005676897,-0.047192257,4986,4936,0
134842469,134842311,4259850,4325386,-0.0013286517,-0.002901398,6.565625e-05,0.005527826,-0.010296726,-0.0432768,4991,4989,0
135341293,135341175,4259850,4325386,-0.000141852,0.0031077098,0.0003241442,0.0034202687,0.005083825,-0.04739579,4931,4930,0
135844970,135844851,4259850,4325386,-0.0006586284,-0.0022409246,0.0010990512,-0.005445721,-0.0015341124,-0.045925196,4988,4928,0
136343488,136343373,4259850,4325386,0.00021876236,0.0038667119,-0.0016643654,0.0029871622,0.0054224636,-0.042713083,4987,4927,0
136841705,136841566,4259850,4325386,0.0008115235,-0.0032074405,0.0013362806,0.006345123,0.007048387,-0.046932656,4985,4976,0
137340511,137340288,4259850,4325386,-0.001897473,0.0031321724,0.0014694089,-8.9949885e-05,-0.008598251,-0.057432923,5001,5915,0
137844081,137843951,4259850,4325386,0.0008293871,-0.0018389547,0.0023964136,-0.00027635435,0.00991347,-0.044913452,4998,4924,0
138343033,138342873,4259850,4325386,-0.0013139108,-0.0026840975,0.00048347493,0.0009493868,0.009615324,-0.05411606,4965,4928,0
138842457,138841327,4259850,4325386,-0.00023788009,0.002966065,0.0004357403,0.004909789,0.0095626125,-0.047573444,4922,4923,0
139340141,139340021,4259850,4325386,0.0017335739,0.0035881016,-0.0005330404,0.0014450199,-0.0042695496,-0.0511748,4974,4928,0
139844043,139843853,4259850,4325386,0.00030655426,-0.0017754604,-0.00164896,-0.008386973,-0.016016854,-0.04615319,4966,4967,0
140342519,140342400,4259850,4325386,-0.0016372481,-0.003687762,0.00010455389,-5.786188e-05,-0.006217694,-0.05500168,4995,4992,0
140841343,140841229,4259850,4325386,-0.0008628565,0.0040958677,0.0009118804,-0.0038584953,-0.00433627,-0.053090625,4997,4929,0
141345299,141344795,4259850,4325386,0.0015306552,-0.0028327424,-9.412203e-05,0.009903886,-0.01385341,-0.049198672,4971,4977,0
141843603,141843463,4259850,4325386,-0.0012339546,-0.004379892,0.0002969461,-0.0068138028,0.0012851391,-0.049142994,4986,4927,0
142342403,142342161,4259850,4325386,0.0010469618,0.0038481166,-3.543736e-05,-0.0062471707,-0.010489143,-0.052923813,4991,4964,0
142845961,142845838,4259850,4325386,0.0002107462,-0.0017950146,-0.0009323432,0.006601365,-0.0012793894,-0.044263337,4987,4927,0
143344192,143344082,4259850,4325386,0.0009594349,0.0039007997,-0.00080833,-0.0046799383,-0.008227419,-0.049440566,4988,4969,0
143842951,143842775,4259850,4325386,0.0022827946,-0.004836417,0.0018113006,-0.0061672484,-0.0017831827,-0.04247252,4987,4986,0
144341821,144341643,4259850,4325386,0.00021237954,0.00030349972,0.001988828,0.0015980871,-0.014889998,-0.045559574,4966,4967,0
144841535,144840163,4259850,4325386,-7.069187e-05,0.00029723818,-0.0023478628,0.0014031953,0.005742109,-0.043947287,4987,4946,0
145343953,145343844,4259850,4325386,-0.000371919,-0.00023275567,-0.0033707847,-0.0025172776,0.0065437104,-0.048947312,4984,4878,0
145844312,145842774,4259850,4325386,0.00012653529,-0.00023995995,-0.003139527,-0.0021669597,0.0011396252,-0.057037696,4974,5915,0
146346363,146346220,4259850,4325386,-0.0015133384,-0.0034411708,5.5201952e-05,0.0008161145,0.0093950685,-0.0515312,4990,4937,0
146844578,146844443,4259850,4325386,-0.0008508914,0.0032777074,0.0007300033,-0.0005635198,-0.0033689626,-0.05114145,4962,4922,0
147344182,147343061,4259850,4325386,-0.00038632218,0.00354499,-0.00044010245,0.002522627,-0.002123364,-0.057940453,4988,6069,0
147842036,147841891,4259850,4325386,0.0005117792,-0.0018581803,8.3880506e-05,0.0075178677,0.011791889,-0.049979225,4988,4929,0
148340627,148340456,4259850,4325386,-0.0008066782,-0.000632718,-0.0015078794,-0.0017363797,-0.0040484616,-0.05076299,4961,4960,0
148844253,148844127,4259850,4325386,0.000110124805,1.7166e-05,-8.0718055e-05,0.005223816,0.008189843,-0.04618745,4987,4927,0
149342017,149341824,4259850,4325386,0.0002619359,0.00047843644,0.0058443197,-0.0017509591,-0.008880451,-0.047802284,4987,4954,0
149845613,149845504,4259850,4325386,0.000525029,-0.0035013931,0.0018720154,0.0076990337,0.0004281339,-0.048818447,4940,4926,0
150344315,150344206,4259850,4325386,-0.0008653717,0.0046979897,0.00038534,-0.0016052373,0.0039097737,-0.04966858,4977,4964,0
150843024,150842892,4259850,4325386,0.00044658175,-0.0030059959,7.664058e-06,-0.0033118967,-0.0020010148,-0.048959814,4986,4963,0
151341703,151341592,4259850,4325386,0.00036535686,-0.0033123712,-0.00028357137,-0.001382786,-0.0092939865,-0.04933928,4986,4928,0
151840421,151840284,4259850,4325386,0.00035576682,-0.00076686684,0.0019132877,0.004941876,-0.0049348166,-0.050262123,4987,4928,0
152344274,152344141,4259850,4325386,-0.00097595854,0.00021217675,0.0014825694,-0.0051369667,-0.005294766,-0.050582126,4966,4933,0
152842369,152842228,4259850,4325386,0.0011016923,-0.00030475043,0.00032229087,0.0013019491,-0.00556527,-0.051825583,4982,4975,0
153346425,153346167,4259850,4325386,0.00091512734,0.003782039,-0.00011105781,-0.004928614,-0.013733187,-0.05440459,5010,5915,0
153839687,153839545,4259850,4325386,-0.0006386977,-0.0047503994,-0.0011674943,0.0013547699,-0.011020999,-0.04588398,4987,4928,0
154343344,154343227,4259850,4325386,-0.00069245906,0.0041593635,-0.0010336575,-0.002895111,-0.008454369,-0.04766662,4988,4968,0
154842108,154841983,4259850,4325386,0.00028884993,-0.0031958472,-0.0026042203,-0.0027888056,-0.0029046615,-0.047130957,4974,4931,0
155340339,155340191,4259850,4325386,0.0009666389,8.73449e-05,-0.0037343681,0.0022350342,-0.010288585,-0.051713724,4971,4962,0
155844042,155843887,4259850,4325386,0.00013762208,0.0023895304,0.00016056703,0.0017969208,0.0043561202,-0.04992293,4956,4961,0
156342693,156342538,4259850,4325386,-7.962165e-06,-0.0015095322,0.0012333862,-0.007433427,0.0014430073,-0.044690385,4986,5006,0
156841343,156841233,4259850,4325386,9.3738265e-05,-0.003343934,0.00045283968,-0.0027800242,0.0015648399,-0.048116956,4981,4925,0
157345032,157344920,4259850,4325386,-0.00029910542,0.0031061461,0.00015340606,0.0027382374,0.006120154,-0.052026615,4994,4969,0
157839057,157838876,4259850,4325386,5.3621484e-06,0.0008239265,-3.3561864e-05,-0.005921263,-0.011114152,-0.045456313,4953,4948,0
158343045,158342923,4259850,4325386,-0.0001300425,0.001969469,8.0372534e-05,-0.0027920646,0.0014177286,-0.04842415,4978,4924,0
158841324,158841153,4259850,4325386,-0.00040820285,0.0031596557,0.00026724537,0.0063391603,0.012606061,-0.049928416,4986,4991,0
159344944,159344773,4259850,4325386,0.0003788934,-0.0042900736,-0.00020572137,0.0053192284,0.016615076,-0.03785886,4967,4930,0
159843517,159843372,4259850,4325386,-0.0011697568,0.0046483516,-0.00015297846,0.0032839626,0.0029483146,-0.048390534,4987,5003,0
160345732,160345621,4259850,4325386,4.7566682e-05,-0.0039556003,0.0031211234,0.005986536,0.012355528,-0.046535548,4981,4982,0
160844623,160844476,4259850,4325386,-0.00028072213,-0.0010216195,-8.412505e-05,-0.0026142988,-0.007857439,-0.04738402,5261,4927,0
161343236,161343079,4259850,4325386,0.0005057917,-0.00026593887,0.00041086125,-0.0007155649,0.0068008774,-0.050535087,4986,4986,0
161841834,161841591,4259850,4325386,0.000290406,0.00040913603,-0.00092710723,-0.0109673245,-0.00838519,-0.053166717,4987,5917,0
162341062,162340445,4259850,4325386,0.00043018113,0.0015004658,-0.00016224993,-0.0017200506,-0.00011078734,-0.06699387,4963,5924,0
162844123,162843965,4259850,4325386,-0.00013600364,-0.0002578946,-0.00019802313,-0.0023364534,0.0053529404,-0.04434743,4984,4931,0
163343379,163342663,4259850,4325386,-3.704001e-05,-0.0011582314,0.00065750605,-0.009554046,0.0027871751,-0.058935482,4988,5921,0
163841744,163841559,4259850,4325386,-0.0018700284,-0.0037546456,-0.0016688076,0.0012727784,0.007893731,-0.042256746,5008,5011,0
164345351,164345155,4259850,4325386,0.00068501383,-0.0030643763,-0.000572359,0.010188514,-0.0077046985,-0.04600698,4999,4933,0
164839631,164839514,4259850,4325386,8.657949e-05,0.00023011853,0.00065440824,-0.0072947885,-0.0060621905,-0.05423467,5259,4928,0
165343077,165342930,4259850,4325386,-1.3006891e-05,-0.0017713064,0.00026918508,0.00969376,0.0053872983,-0.04522761,4988,4919,0
165841501,165841389,4259850,4325386,-7.954072e-05,-0.003309299,-0.0003445022,0.006115714,0.011563063,-0.04345294,5253,4931,0
166344949,166344799,4259850,4325386,-0.00034324464,0.0035231016,0.00017630286,-0.0063150316,-0.004682297,-0.05189193,4987,4987,0
166843688,166843550,4259850,4325386,-0.0002974803,0.0016879152,0.0002238497,-0.008971989,-0.006628583,-0.052972395,5041,4926,0
167342728,167342502,4259850,4325386,1.9190524e-05,0.003005936,0.00036221897,-0.0043204688,-0.0031120006,-0.064802766,4994,5914,0
167846001,167845869,4259850,4325386,-9.643677e-05,0.002740036,-0.0005266431,-0.003864111,-0.01349189,-0.046098568,4987,4929,0
168339686,168339576,4259850,4325386,0.00041716555,-0.00197413,1.4952531e-05,-0.0073888274,0.0012295698,-0.04809985,4949,4927,0
168844001,168843884,4259850,4325386,0.0002073451,0.0018801324,-0.0007019325,-0.0013428389,-0.012248433,-0.045419108,4961,4926,0
169343069,169342955,4259850,4325386,0.0007147363,-0.0006738678,-0.00060397066,-0.0011080096,-0.015287281,-0.05297136,4991,4947,0
169841818,169841707,4259850,4325386,0.0012359688,-0.0028993168,0.0034207753,-0.004709208,-0.005718084,-0.04300833,4975,4785,0
177845454,177845311,4259850,4325386,-0.00012686045,0.0003132189,6.977933e-05,-0.003751492,-0.0031914585,-0.04886917,4931,4928,0
178344150,178343996,4259850,4325386,0.00016877952,8.7137305e-05,8.293825e-05,0.0016884353,-0.0008563157,-0.05779333,4988,5660,0
178842726,178842580,4259850,4325386,0.0007124207,-0.00027000395,-0.000236444,0.00010480354,-0.006115911,-0.045085605,4988,4927,0
179341387,179341274,4259850,4325386,-0.00032171214,1.851594e-05,-0.00032572763,0.005512795,-0.007003939,-0.034576125,4986,4950,0
179840298,179840182,4259850,4325386,-0.000656773,-5.9832437e-05,0.0004982639,0.0026621742,-0.006126486,-0.062100764,4954,4931,0
180343759,180343649,4259850,4325386,9.626665e-05,-0.0005714133,-0.00041580442,-0.0047989143,-0.012115368,-0.0417331,4987,4929,0
180842868,180842346,4259850,4325386,0.0020402751,-0.0038902666,-0.00028508686,0.002973001,-0.010662181,-0.05529989,4988,5918,0
181346498,181346303,4259850,4325386,-0.00015416142,0.0038695962,0.00026070257,-0.0110326,-0.0051955064,-0.051090326,4979,4982,0
181845394,181845242,4259850,4325386,-0.00040935897,-0.0028481008,-0.00020821918,-0.000991561,-0.0046031564,-0.045080893,4985,4926,0
182339054,182338926,4259850,4325386,-7.6160584e-05,0.0018386237,0.0007786807,0.0021640528,-0.004871561,-0.05174625,4987,4982,0
182842839,182842730,4259850,4325386,-0.00043410354,-0.0006486721,0.0010438465,-0.00080908835,-0.0049796905,-0.05063816,4989,4926,0
183341415,183341304,4259850,4325386,-0.00023415335,0.0025023248,0.0001834089,-0.0012821669,0.008792757,-0.051041193,4986,4925,0
183840416,183840219,4259850,4325386,0.00031691484,8.052623e-06,0.00089588267,-0.008695027,-0.011808022,-0.05726816,4968,4966,0
184343403,184343209,4259850,4325386,-0.00046489562,0.0025937897,0.0037007253,-0.008090034,0.004861252,-0.05426855,4979,4919,0
184842504,184842391,4259850,4325386,-0.0003599161,-0.004802629,0.0015396702,-0.0061942306,-0.020117821,-0.055751096,5005,4953,0
185346389,185346190,4259850,4325386,-0.0007598764,0.004750654,-0.0006908522,-0.0013129896,-0.005304088,-0.04689997,4991,4995,0
185840012,185839827,4259850,4325386,0.0008762007,-0.00090108166,0.0001030629,-0.0026452434,-0.012320622,-0.05115802,4994,4993,0
186343594,186343467,4259850,4325386,-0.0023194265,-0.00083762995,-0.002283506,-0.0041158083,0.004367519,-0.041603256,5011,4891,0
186842520,186842135,4259850,4325386,-0.0014810165,-0.0015908572,0.00015262836,-0.008623828,-0.0026040978,-0.041889973,4935,4943,0
187340963,187340833,4259850,4325386,0.0008684098,0.0037634387,-0.0006197165,-0.004005772,-0.0017926769,-0.045038663,4978,4929,0
187845668,187844143,4259850,4325386,0.0006243249,-0.001144566,-0.0002161944,-0.00038122706,0.0026832887,-0.05898042,4960,5916,0
188347839,188347705,4259850,4325386,-0.00019749765,-0.0002625102,0.0001170808,-0.0023727934,0.0018201801,-0.051000148,4995,4930,0
188846534,188846394,4259850,4325386,0.0002034228,0.0033770383,0.000151583,-0.008678846,-0.01955608,-0.04784325,4989,4937,0
189340255,189340107,4259850,4325386,0.0005284045,-0.001032709,-0.00032896842,-0.00079562183,-0.008846966,-0.048316628,4995,4926,0
189844151,189843958,4259850,4325386,0.00044293472,-0.0012832338,0.00014442929,-0.018542727,-0.0056333076,-0.04853095,4969,4929,0
190342586,190341980,4259850,4325386,0.00024958287,0.002057077,-0.00036277587,-0.009763195,-0.013218331,-0.04958092,4987,4964,0
190844894,190844710,4259850,4325386,0.00038380126,-0.0033558155,0.00010603886,0.0041709556,-0.012954773,-0.052241746,4987,4975,0
191343848,191343649,4259850,4325386,-0.00049981347,0.0019547478,0.00070139836,-0.0077191894,0.019617865,-0.05016551,4953,4946,0
191842252,191841671,4259850,4325386,-0.0006874563,0.002041286,-0.00030722542,0.0031343948,-0.0021828455,-0.049115222,4970,4935,0
192340481,192340359,4259850,4325386,-0.0002871221,0.0032800857,-0.00018602407,-0.012084469,-0.007786212,-0.044886105,4997,4927,0
192839094,192838943,4259850,4325386,0.000636062,0.0032698505,-0.000241192,-0.008480572,-0.017882138,-0.048487242,4989,4933,0
193342256,193342124,4259850,4325386,-0.00014984909,-0.0028194948,0.0003651956,0.0014585136,-0.016409181,-0.04910191,4986,4728,0
193840983,193840820,4259850,4325386,0.00074466754,-0.0040037357,0.0014961059,-0.0055155507,-0.009100204,-0.041621428,4987,4955,0
194345028,194344707,4259850,4325386,0.00024989585,0.00045998767,0.0073086987,-0.0074666007,-0.0020168854,-0.056146123,5042,4934,0
194843490,194843357,4259850,4325386,0.0008317435,-3.0837622e-05,0.008771405,0.002092702,0.0021982908,-0.0424635,4969,4929,0
195341026,195340892,4259850,4325386,0.0002824551,0.00079040794,0.011273609,-0.016762836,-0.010365945,-0.06216765,4986,4928,0
195844816,195844576,4259850,4325386,0.00078445085,-9.571259e-05,0.002853022,0.012940397,-0.017399918,-0.04206119,4993,4932,0
196343392,196343269,4259850,4325386,-0.004019869,0.0017047852,0.00015931814,0.0031673363,0.005938165,-0.046357073,4987,4928,0
196842333,196842181,4259850,4325386,-0.0007080026,-2.0441191e-06,-0.0018673897,-0.0017302231,0.01470068,-0.04841367,4943,4666,0
197340349,197340208,4259850,4325386,-0.0010801872,-0.0019246798,-0.0005935877,-0.0036549345,-0.0067303157,-0.051817745,4988,4929,0
197844124,197843988,4259850,4325386,0.0019762963,0.0015146406,-0.0007142876,0.007158788,0.010672015,-0.045916837,4925,4927,0
198342702,198342586,4259850,4325386,-0.00019325624,-0.00020241296,0.00057888165,-0.0011089531,-0.0120295845,-0.049793366,4989,4990,0
198841393,198841278,4259850,4325386,-0.0018621036,0.0005388952,-0.0015259029,-0.0012595272,0.00089523674,-0.050682563,4987,4664,0
199345276,199345094,4259850,4325386,0.0001936229,-0.0010904344,0.00020266703,-0.0011526993,-0.0029013434,-0.050974283,4985,4985,0
199838819,199838699,4259850,4325386,-0.00059079885,0.0032598898,0.00016016544,-0.004446118,-0.0059286235,-0.048572943,4949,4762,0
200342479,200342349,4259850,4325386,1.3134987e-05,0.0002727096,-0.00045397345,-0.0024486915,-0.0083606085,-0.04885947,4987,4927,0
200841410,200841045,4259850,4325386,0.0001397619,-5.0147937e-05,-0.00052706926,-0.00022472945,0.0033515857,-0.04385057,4988,4984,0
201344356,201344179,4259850,4325386,6.3406565e-05,-0.0004674349,-0.00044926343,-0.0017161149,-0.0010944111,-0.059169624,4987,5914,0
201843708,201843019,4259850,4325386,0.00036299278,0.00050163356,-0.0006648996,-0.0042447574,-0.013825971,-0.047721107,5031,4924,0
202341963,202341828,4259850,4325386,0.0009787227,-0.0024326465,-0.00057510415,0.0072315903,-0.0041793794,-0.04524203,5236,4927,0
202845360,202845250,4259850,4325386,-0.00070583,0.00085884606,0.00037383544,-0.002714112,0.0048660045,-0.04823603,4987,4984,0
203339073,203338958,4259850,4325386,0.0002037,0.0002862352,-0.00033851695,0.0005794914,0.008874915,-0.043346006,4988,4927,0
203842470,203842276,4259850,4325386,-0.0013255007,0.0005581499,-0.0013583474,-1.0771596e-05,-0.005888428,-0.04534228,4984,4930,0
204341416,204340838,4259850,4325386,-2.0014197e-05,0.0019411272,-0.00044440202,-0.00029886427,-0.005533371,-0.04575162,4987,4967,0
204844741,204844627,4259850,4325386,-0.0020172733,-0.0027633386,0.0004092739,-0.0014219931,-0.009950145,-0.050440103,4968,4933,0
205343386,205343211,4259850,4325386,0.00026339354,-0.0033945963,-0.0036340076,-0.005500252,0.00012952443,-0.059278592,4986,5760,0
205842019,205841908,4259850,4325386,0.0010444691,0.0047115083,-0.0013338539,-0.0058630263,-0.0074531906,-0.044145014,4986,4985,0
206345898,206345771,4259850,4325386,0.0024495795,-0.0010431578,0.0012481468,-0.0008633444,-0.0066374834,-0.045407053,4987,4988,0
206844516,206844348,4259850,4325386,-0.0010680837,-0.0013738769,0.0090221595,-0.0006806476,-0.006688032,-0.044327524,4999,4927,0
207343896,207343709,4259850,4325386,0.001870952,-0.001600915,0.0040362263,-0.006696094,0.014696414,-0.05246625,4965,4926,0
207842325,207842182,4259850,4325386,0.00013328515,-0.0005555277,-0.0030997295,0.0009973962,-0.00042827002,-0.051816866,4983,4987,0
208341114,208341004,4259850,4325386,0.00014880503,-0.0039379587,-0.00040239634,0.006849436,-0.002559822,-0.04642867,4986,4955,0
208844872,208844651,4259850,4325386,-0.0003064745,0.0051555,-0.00048830325,0.0025320107,0.0075396514,-0.059331182,4973,5966,0
209342854,209342743,4259850,4325386,0.00074115384,0.002336238,0.0019506288,-0.012934949,-0.014344943,-0.04711415,4970,4767,0
209841827,209841693,4259850,4325386,0.0009742047,-0.005594447,-0.0020467448,-0.00059758575,-0.002308843,-0.052472845,4976,4927,0
210341056,210340632,4259850,4325386,0.00026935068,0.00023005794,-0.003240591,0.0021218392,-0.011066775,-0.053519875,4977,5913,0
210839494,210839325,4259850,4325386,0.0007677341,5.1439114e-05,-0.0030608722,0.0046006017,0.0025940866,-0.042763192,4986,4959,0
211343249,211343137,4259850,4325386,0.0010773509,-0.0041075014,-0.0009555334,-0.00070344197,-0.010591819,-0.0409461,5032,4922,0
211841862,211841702,4259850,4325386,-0.0011564266,0.0038997473,-0.00092950795,-0.0059095942,-0.008643514,-0.04645853,4985,4880,0
212345769,212345600,4259850,4325386,3.7154416e-05,-0.00218311,0.00048071047,-0.00074586977,-0.0096315695,-0.05113289,4971,4922,0
212844131,212843619,4259850,4325386,-0.0003436219,0.0009402103,-4.52812e-05,0.006938447,0.014394354,-0.059458368,4971,5921,0
213342799,213342665,4259850,4325386,0.00054666935,-0.0013729557,-0.00061137904,0.012321817,-0.000812223,-0.04462158,4949,4921,0
213841161,213840972,4259850,4325386,0.0015501465,-0.00036693958,-0.0010734493,0.0034128497,-0.011972713,-0.04552458,4990,4930,0
214339512,214339390,4259850,4325386,-0.0011601221,-0.0017643706,0.0004642099,0.008964275,0.0052339807,-0.04982263,4966,4927,0
214842965,214842849,4259850,4325386,-0.0001054194,-0.0013185239,0.00096864667,-0.009375707,-0.0051486352,-0.0488376,4985,4950,0
215341866,215341690,4259850,4325386,0.00045362802,-0.0018186376,0.000772139,0.008054145,-0.009899835,-0.04405077,4989,4925,0
215845537,215845354,4259850,4325386,-0.00089315407,0.0036220315,0.00058565283,-0.0031500442,0.006819083,-0.04749053,4972,4970,0
216342536,216342424,4259850,4325386,0.00027312993,0.0042477744,-6.098912e-05,0.0058724727,0.009136409,-0.044568732,4977,4927,0
216846279,216846154,4259850,4325386,-0.0009514083,-0.0036498187,-1.0815979e-05,0.0025479607,0.005011377,-0.05209158,5018,4924,0
217340169,217340030,4259850,4325386,0.0002785525,-0.0016308842,-0.00020408815,0.0034265553,0.012537703,-0.048375163,4970,4928,0
217843761,217843633,4259850,4325386,-0.00012662643,0.0026700357,-0.0006421309,0.0037762155,-0.0048544984,-0.04914063,5005,4929,0
218342380,218342191,4259850,4325386,0.0005829558,-0.0020732903,-0.0048177913,0.012759038,0.0036836122,-0.038992815,4985,4977,0
218841198,218840967,4259850,4325386,0.0010705306,-0.004119743,-0.0009858852,-0.0041857692,-0.013431052,-0.052856617,4968,4974,0
219344672,219344564,4259850,4325386,-0.00091459113,0.002860114,0.00087221706,0.009743779,0.008100076,-0.04893372,4987,4933,0
219843190,219843030,4259850,4325386,-0.0008529239,4.278983e-05,-4.1753017e-05,-0.00913786,-0.00010140988,-0.047352888,4974,4973,0
220346635,220346448,4259850,4325386,0.00014111912,-0.002398392,0.0008387188,0.006021601,0.0102488445,-0.047164887,4990,4978,0
220840388,220840150,4259850,4325386,0.00064926135,0.0037228877,-0.00016548295,0.004386038,0.0046194843,-0.056101207,4987,5808,0
221343532,221343348,4259850,4325386,0.00026582158,0.00052474765,-0.0006833547,0.0022799245,-0.010071477,-0.046308033,4994,4971,0
221842159,221842031,4259850,4325386,0.000393129,-0.0003144844,-8.249355e-06,0.005595977,-0.0044099223,-0.045591198,4988,4916,0
222340840,222340725,4259850,4325386,0.00031924565,-0.0016132687,1.065578e-05,-0.008603579,-0.005419358,-0.04717306,4989,4927,0
222843650,222843468,4259850,4325386,0.00024612204,0.0011122001,0.00048565216,-0.0068415264,0.007201882,-0.05000614,4932,4928,0
223342295,223342149,4259850,4325386,0.0004383334,-0.00083242025,0.0034159704,0.002758749,0.00073145906,-0.05041218,4987,4928,0
223840957,223840844,4259850,4325386,-0.0009691803,0.0028991255,0.0008216454,0.0017073286,-0.0115638105,-0.04602193,4987,5026,0
224339681,224339538,4259850,4325386,-0.0015907676,0.0011485708,-0.0017947636,0.0011202119,-0.01289585,-0.04758601,4986,4932,0
224843706,224843478,4259850,4325386,0.00034877664,0.0007572398,-0.00033439122,0.0074264333,0.015406467,-0.056494355,4974,5428,0
225342694,225342586,4259850,4325386,0.001077222,-0.0006938413,1.6663294e-05,0.0020024036,0.004406802,-0.05057466,4953,4960,0
225841216,225841103,4259850,4325386,-1.6526204e-05,0.0007282275,0.0002620394,-0.003428997,-0.0033759344,-0.054051816,5029,4910,0
226345291,226344744,4259850,4325386,0.003665786,-0.004046849,0.0019303384,-0.0021977865,-0.007090672,-0.04709116,4978,4964,0
226843879,226843688,4259850,4325386,-0.0027315973,0.0017241368,0.00057678926,0.0081660375,0.008838092,-0.051161412,4990,4997,0
227342244,227342132,4259850,4325386,0.00013380659,0.0029395926,0.00032975004,-0.0117404135,0.00052673114,-0.055294644,4984,4927,0
227840990,227840829,4259850,4325386,0.0006103809,0.0011720798,-0.0012941634,-0.006317855,-0.0076164356,-0.04478606,4990,4932,0
228344209,228344061,4259850,4325386,-0.0011772307,-0.002507978,0.0013901037,-0.005607048,-0.008178007,-0.06114166,4991,4928,0
228843053,228842908,4259850,4325386,0.00033549438,-0.00086359424,0.00038418532,-0.007038851,-0.004361493,-0.052232523,4991,4932,0
229342050,229341898,4259850,4325386,-0.00021644696,0.0001682125,0.00044060513,0.0007609799,0.008625426,-0.038660556,4984,4947,0
229845837,229845727,4259850,4325386,0.00047967088,-9.173491e-05,9.205663e-05,-0.002968315,-0.009215552,-0.06327631,5044,4937,0
230344885,230344773,4259850,4325386,-0.0025554867,0.00028164193,-8.864886e-05,-0.0049153,-0.01250278,-0.04906622,4987,4951,0
230844445,230843710,4259850,4325386,-0.0018928146,0.0033304316,4.6893187e-05,0.00089847064,0.0032943124,-0.05028923,4930,4932,0
231342469,231342341,4259850,4325386,-0.0010072736,0.004528211,0.0005544529,-0.010232309,0.0008496462,-0.053965874,4990,4925,0
231840639,231840467,4259850,4325386,1.3456125e-06,-0.0033449582,-0.00033927974,-0.00453867,0.0066632777,-0.04494831,4987,4986,0
232345015,232343592,4259850,4325386,-0.00029711492,0.0001219073,-0.00015699553,0.0008037921,0.008140264,-0.050990246,4990,4928,0
232842419,232842310,4259850,4325386,-0.0008832115,0.0004993944,0.0023507213,-0.00018185197,0.0055157663,-0.049984083,4967,4967,0
233341117,233340978,4259850,4325386,0.0008625505,-0.0038124344,-1.4462167e-05,0.0074219424,0.011746387,-0.048078053,4986,4991,0
233844829,233844665,4259850,4325386,-0.0003797957,0.00061216136,0.00012351207,0.00082306424,-0.005341737,-0.04771014,4992,4966,0
234343486,234343371,4259850,4325386,0.000103601385,0.00020986737,-0.00019810608,0.008687149,0.0029507626,-0.04800617,4948,4929,0
234842778,234842348,4259850,4325386,-0.0009082164,-0.0009728369,0.00043260722,-0.0034268717,0.0063860654,-0.0530112,5008,4986,0
235339894,235339753,4259850,4325386,0.00038883026,0.00044128086,-0.00085920887,-0.008398575,-0.017394518,-0.04635804,4994,4993,0
235843509,235843384,4259850,4325386,-0.00012749052,0.0023349598,0.00040301753,0.008420964,0.0010389994,-0.05137864,4987,4933,0
236342191,236342077,4259850,4325386,0.00018712004,-9.1491966e-05,0.00054996746,-0.010258354,-0.0067687556,-0.052240424,4972,4978,0
236841260,236841033,4259850,4325386,-0.0004147745,0.0041786577,5.500708e-05,0.00059684657,0.0055726822,-0.058677897,5247,5907,0
237344745,237344456,4259850,4325386,0.0011482219,0.001649595,-0.0009034592,-0.0036234397,-0.009620211,-0.045438215,4991,4952,0
237843291,237843147,4259850,4325386,0.00042478944,-0.0020659408,-4.7170157e-05,-0.0018135102,-0.008294548,-0.048030686,4988,5006,0
238342238,238342089,4259850,4325386,-0.00010224479,-0.0040013148,0.0026408602,0.0040446087,-0.0024798305,-0.046160147,4975,4983,0
238840836,238840670,4259850,4325386,-0.0003868565,-0.003421514,0.00053741975,0.0033807072,0.009833501,-0.048570335,5001,4971,0
239344329,239344219,4259850,4325386,0.0014167132,0.0029951762,0.00020209006,-0.0015978633,-0.002231512,-0.051895134,4987,4928,0
239843069,239842957,4259850,4325386,-0.00048211825,0.0017863503,-0.0007952525,-0.0013001467,-0.011118446,-0.046746418,4954,4677,0
240341744,240341607,4259850,4325386,-0.0007944976,-0.004006197,0.0001224161,-0.007545397,0.007684856,-0.052852068,4987,4921,0
240845473,240845295,4259850,4325386,-0.00065420865,0.0030575353,-0.0044761943,-0.005892216,-0.008394085,-0.051087197,4990,4926,0
241344257,241344038,4259850,4325386,-0.0012976021,0.0015085835,-0.0034114874,0.006359014,0.014320412,-0.048602544,4976,4957,0
241843158,241843010,4259850,4325386,0.0030729058,-0.0011822995,1.7040398e-05,0.009070745,0.0017150561,-0.04978767,4991,4927,0
242341009,242340875,4259850,4325386,0.0003505598,-0.0029912246,-0.00014674771,-0.0003410781,0.013915575,-0.038350597,4988,4683,0
242840034,242839815,4259850,4325386,0.0018512176,0.0004499132,0.0015256003,0.0005477155,-0.007874517,-0.050275993,4960,4973,0
243343463,243343253,4259850,4325386,-0.001728113,0.003944357,0.0023969596,-0.0073790303,0.00065507996,-0.05232404,4989,4928,0
243842186,243842032,4259850,4325386,-0.000323425,-0.0037977416,0.00013811623,-0.005249183,-0.0042811735,-0.04403228,4984,4986,0
244345241,244345128,4259850,4325386,-0.00026753687,0.0019631109,-8.355203e-05,0.00643161,0.0063472204,-0.04612697,4938,4921,0
244843889,244843738,4259850,4325386,-0.0007370152,0.0016306253,0.00037777843,-0.00026823825,-0.0010644471,-0.048433643,4969,4967,0
245342184,245342068,4259850,4325386,0.0012453541,-7.0484435e-05,0.00059811625,0.0025594851,-0.008797937,-0.047266904,4988,4988,0
245842229,245840768,4259850,4325386,0.0017686238,0.00058480544,0.0023343777,-0.00074875396,-0.013589752,-0.054027528,4991,5869,0
246344637,246344481,4259850,4325386,-0.0019696197,0.0028365294,-0.00026196093,0.0025118506,-0.016764503,-0.041721698,4961,4959,0
246843328,246843138,4259850,4325386,-0.0010504883,-0.0036138252,8.9011264e-05,-0.009499994,0.010459353,-0.043637644,4986,4936,0
247341974,247341835,4259850,4325386,0.0010198208,0.0021906914,-2.8558943e-05,-0.0030207108,-0.0017950181,-0.05130504,4989,4955,0
247845737,247845625,4259850,4325386,-0.00011919236,0.000694893,7.166681e-05,-0.009853586,-0.0050051995,-0.05807232,4976,4927,0
248344405,248344217,4259850,4325386,-0.00031516745,-0.0004387693,-0.000625534,0.00059434713,0.010056478,-0.046480495,4995,4924,0
248843016,248842904,4259850,4325386,0.0007081525,-0.0012227263,0.0002736082,0.009763355,0.005152669,-0.044343136,4982,4994,0
249341217,249341053,4259850,4325386,-0.0022132834,-0.0016165166,0.0011911684,-0.0074449917,0.009056908,-0.054274697,4988,4928,0
249840100,249839950,4259850,4325386,0.0005853004,0.0028294802,-0.0005404833,0.0005078676,0.0048004184,-0.05078832,4989,4952,0
250343537,250343428,4259850,4325386,-0.00040466484,-0.0028963347,-0.00562711,0.004235989,-0.0037993274,-0.04616403,4971,4928,0
250842449,250842332,4259850,4325386,0.00077536405,-0.0008219476,-0.0012892917,-0.0036836897,-0.009063389,-0.051147632,4971,4925,0
251345943,251345809,4259850,4325386,-0.00012831498,0.0013851105,-0.00095325045,-0.006475783,-0.01425545,-0.046843123,4991,4927,0
251844612,251844501,4259850,4325386,-0.00069939194,0.003553572,0.00021713007,0.0046484307,-0.0013057409,-0.03381728,4986,3938,0
252343579,252343396,4259850,4325386,0.0009140144,-0.003544932,0.000989159,0.0038936036,0.0010772937,-0.054797225,5004,5928,0
252842148,252842008,4259850,4325386,0.00045992422,-0.0039252527,0.00057296467,-0.00077241065,0.007764692,-0.049506545,4989,4960,0
253340694,253340584,4259850,4325386,0.0005030359,0.0047014873,-0.0005344532,-0.003556001,0.0038049938,-0.05125409,4987,4919,0
253844442,253844267,4259850,4325386,0.0005410173,-0.0017899736,-4.098776e-05,0.0025077194,-0.003966506,-0.049061976,4987,4981,0
254342885,254342463,4259850,4325386,-0.00027714792,0.0012630195,-0.00073441456,0.006233947,0.010897366,-0.056422956,4988,5915,0
254841419,254841309,4259850,4325386,0.00053601403,-0.0023733943,7.629306e-05,0.0047812867,-0.009641266,-0.048815086,4966,4929,0
255344965,255344838,4259850,4325386,-0.00074617355,0.0007313887,0.00014950814,-0.001960266,-0.002731028,-0.048914053,4987,4922,0
255843651,255843536,4259850,4325386,-0.0006180275,0.0022391367,-0.0005783553,0.0012889691,0.0055972287,-0.046444453,4990,4927,0
256342437,256342229,4259850,4325386,0.00049713044,-0.0032526848,0.00024262525,-0.00370877,0.009100029,-0.059960864,4987,5909,0
256841552,256841121,4259850,4325386,0.0014934213,-0.0016898642,0.0005268492,-0.0049425187,-0.0136458995,-0.04625662,4970,4964,0
257344742,257344634,4259850,4325386,0.0022244274,0.00054851914,0.001848249,0.0024029575,-0.012082302,-0.052333303,5016,4911,0
257842019,257841863,4259850,4325386,-0.000647063,0.00045875087,-0.000689796,-0.0024786384,0.004041635,-0.046135318,4998,4884,0
258345907,258345764,4259850,4325386,0.0006089192,-0.0040798974,-0.00014213227,-0.008775665,-0.010777793,-0.0480304,4962,4928,0
258844337,258844228,4259850,4325386,1.8204295e-05,0.0049210866,0.0009804934,-0.004093023,0.0007600004,-0.045839686,4987,4928,0
259343070,259342926,4259850,4325386,-0.00022242317,-0.0035017952,0.00055057084,-0.006595981,0.0028529833,-0.052910034,4987,4976,0
259841850,259841735,4259850,4325386,0.00016415,0.0008072236,0.00041130584,-0.0028713278,-0.010357,-0.051535405,4966,4935,0
260344873,260344755,4259850,4325386,-0.0005590437,-0.0004745644,0.00017528671,-0.0055794884,-0.0042319796,-0.0509041,4990,4933,0
260843711,260843599,4259850,4325386,-0.00080742233,0.004897716,0.000691371,0.0016323476,-0.0016384596,-0.047162954,4962,4925,0
261342259,261342143,4259850,4325386,0.00016882805,-0.0038056257,-0.00026827247,-0.0050168713,-0.006466647,-0.044221375,4988,4977,0
261846285,261845826,4259850,4325386,0.00034629635,0.003300422,0.00025112636,0.009686144,0.008126864,-0.056787077,4989,5917,0
262344881,262344730,4259850,4325386,-0.0005464081,-0.0030257392,0.0007905138,-0.005542388,0.0050289724,-0.04805961,4941,4929,0
262842834,262842715,4259850,4325386,-0.00038201152,0.004255035,0.0006794493,-0.00385037,-0.00754536,-0.0486216,4987,4926,0
263341623,263341509,4259850,4325386,-5.09664e-05,-0.0037926093,0.000516068,-0.0044779866,-0.0008522318,-0.050624613,5013,5005,0
263840217,263840104,4259850,4325386,0.0009733825,0.0023511152,-0.0004940979,-0.002802109,-0.013993781,-0.044607352,4986,4927,0
264344762,264344561,4259850,4325386,-6.2547864e-05,-0.0026094557,-0.00013220616,0.006737392,-0.0030525173,-0.052141365,5263,6220,0
264843108,264843000,4259850,4325386,-0.0004633651,0.00342137,0.0023845565,0.006427963,0.0029748366,-0.04360354,4998,4882,0
265342278,265341766,4259850,4325386,-0.00040372202,-0.0035571426,0.0010291365,-0.010312891,-0.009701323,-0.05153254,4999,4987,0
265840645,265840517,4259850,4325386,-0.0015750312,0.004930814,0.00033253545,-0.005395454,-0.009060997,-0.04738778,4961,4922,0
