timestamp,time_utc_usec,lat,lon,alt,alt_ellipsoid,s_variance_m_s,c_variance_rad,eph,epv,hdop,vdop,noise_per_ms,jamming_indicator,vel_m_s,vel_n_m_s,vel_e_m_s,vel_d_m_s,cog_rad,timestamp_time_relative,heading,heading_offset,fix_type,vel_ned_valid,satellites_used
25207998,1634096592599981,340347412,1087571679,427807,399893,0.22700001,0.46340203,1.1500001,1.5300001,0.63,0.91999996,110,11,0.027,-0.027,0.001,-0.061000004,2.743097,0,nan,0.0,3,1,19
25406651,1634096592799981,340347410,1087571679,427827,399913,0.23500001,0.46341595,1.1450001,1.5220001,0.63,0.91999996,110,11,0.025,-0.024,0.007,-0.011000001,2.743097,0,nan,0.0,3,1,19
26209942,1634096593599981,340347403,1087571675,427854,399940,0.223,0.46347007,1.125,1.493,0.63,0.91999996,109,7,0.010000001,-0.0050000004,0.008,-0.032,2.743097,0,nan,0.0,3,1,19
27210944,1634096594599982,340347399,1087571673,427913,399999,0.22000001,0.46353638,1.1060001,1.4640001,0.63,0.91999996,109,10,0.017,-0.007,0.015000001,-0.044000003,2.743097,0,nan,0.0,3,1,19
28212476,1634096595599982,340347390,1087571668,427952,400038,0.224,0.4636001,1.082,1.4360001,0.63,0.91999996,110,8,0.012,-0.012,0.0,-0.052,2.743097,0,nan,0.0,3,1,19
29210915,1634096596599982,340347379,1087571663,427980,400066,0.21400002,0.4636605,1.0580001,1.4100001,0.63,0.91999996,110,19,0.024,-0.011000001,0.021000002,0.068,2.743097,0,nan,0.0,3,1,19
30212056,1634096597599982,340347373,1087571658,427975,400060,0.22000001,0.46372315,1.0370001,1.3870001,0.63,0.91999996,110,9,0.012,-0.011000001,0.002,0.25800002,2.743097,0,nan,0.0,3,1,19
31208945,1634096598599983,340347368,1087571656,427942,400028,0.21800001,0.46378756,1.0200001,1.3670001,0.63,0.91999996,110,8,0.022000002,-0.007,-0.021000002,-0.047000002,2.743097,0,nan,0.0,3,1,19
32208291,1634096599599983,340347365,1087571654,427962,400048,0.187,0.46385178,1.0040001,1.348,0.63,0.91999996,110,8,0.024,0.011000001,-0.021000002,-0.015000001,2.743097,0,nan,0.0,3,1,19
33210029,1634096600599983,340347363,1087571653,427925,400011,0.22200002,0.46391615,0.99100006,1.3330001,0.63,0.91999996,110,8,0.017,-0.016,0.0050000004,-0.008,2.743097,0,nan,0.0,3,1,19
34209952,1634096601599984,340347361,1087571649,427901,399987,0.19600001,0.46397498,0.9760001,1.317,0.63,0.91999996,110,10,0.11000001,-0.108,-0.020000001,0.045,2.743097,0,nan,0.0,3,1,19
35202999,1634096602599984,340347363,1087571649,427956,400042,0.201,0.46404082,0.96400005,1.304,0.63,0.91999996,110,7,0.201,0.15200001,0.13100001,-0.24300002,2.743097,0,nan,0.0,3,1,19
36208055,1634096603599984,340347365,1087571659,428584,400670,0.23900001,0.6778508,0.95100003,1.2980001,0.63,0.91999996,110,21,0.208,-0.083000004,-0.19100001,-0.93700004,1.2747126,0,nan,0.0,3,1,19
37210766,1634096604599985,340347348,1087571612,429509,401594,0.208,0.4025546,0.938,1.2870001,0.65999997,0.91999996,110,10,0.476,-0.081,-0.469,-1.2190001,4.5246854,0,nan,0.0,3,1,18
38212048,1634096605599985,340347325,1087571576,430245,402331,0.14600001,0.5490673,0.92100006,1.2720001,0.63,0.91999996,110,17,0.27,-0.20500001,-0.17500001,0.034,3.992224,0,nan,0.0,3,1,19
39213941,1634096606599985,340347312,1087571582,429753,401839,0.21100001,0.6274073,0.90300006,1.2540001,0.63,0.91999996,111,13,0.045,0.024,0.038000003,0.136,3.7983916,0,nan,0.0,3,1,19
40219532,1634096607599986,340347325,1087571597,429291,401377,0.18800001,0.4662392,0.887,1.24,0.63,0.91999996,111,9,0.317,0.31,0.063,0.09200001,6.067741,0,nan,0.0,3,1,19
41216945,1634096608599986,340347346,1087571605,429055,401141,0.165,0.6925637,0.873,1.223,0.59999996,0.84999996,111,19,0.119,0.087000005,0.081,0.038000003,6.262657,0,nan,0.0,3,1,20
42209968,1634096609599986,340347355,1087571616,428781,400866,0.20600002,0.6925981,0.86,1.2110001,0.63,0.91999996,111,24,0.042000003,0.001,0.042000003,0.082,6.262657,0,nan,0.0,3,1,19
43211057,1634096610599986,340347355,1087571620,428704,400790,0.18,0.7284988,0.84800005,1.202,0.63,0.91999996,111,9,0.063,-0.060000002,0.021000002,-0.0050000004,5.078472,0,nan,0.0,3,1,19
44214223,1634096611599987,340347347,1087571598,428590,400676,0.13000001,0.16747168,0.841,1.1960001,0.63,0.91999996,111,9,1.0020001,-0.179,-0.98600006,-0.123,4.491028,0,nan,0.0,3,1,19
45213037,1634096612599987,340347335,1087571532,428488,400574,0.15300001,0.5003771,0.83000004,1.187,0.63,0.91999996,111,14,0.33,-0.13700001,-0.3,-0.05,4.3795133,0,nan,0.0,3,1,19
46209136,1634096613599987,340347319,1087571470,428398,400484,0.143,0.18081628,0.822,1.1810001,0.63,0.91999996,111,33,0.994,-0.34600002,-0.93200004,-0.08400001,4.3503337,0,nan,0.0,3,1,19
47208969,1634096614599988,340347309,1087571401,428302,400388,0.16900001,0.26298988,0.81500006,1.171,0.63,0.91999996,111,10,0.62600005,-0.14400001,-0.61,-0.558,4.4739456,0,nan,0.0,3,1,19
48203941,1634096615599988,340347299,1087571369,429001,401087,0.158,0.6474054,0.80600005,1.1620001,0.59999996,0.84999996,111,9,0.26200002,-0.18900001,-0.18,0.12900001,4.2001195,0,nan,0.0,3,1,20
49206267,1634096616599988,340347290,1087571281,428856,400942,0.141,0.1470974,0.79800004,1.156,0.63,0.93,111,10,1.0,-0.125,-0.99200004,0.062000003,4.5912085,0,nan,0.0,3,1,19
50209132,1634096617599989,340347287,1087571182,428724,400809,0.142,0.16507044,0.79300004,1.153,0.63,0.93,111,24,1.042,-0.18,-1.026,-0.115,4.597154,0,nan,0.0,3,1,19
51217939,1634096618599989,340347287,1087571043,428676,400761,0.13000001,0.10713006,0.78700006,1.1500001,0.63,0.93,111,9,1.5460001,-0.105000004,-1.5430001,-0.12100001,4.6899543,0,nan,0.0,3,1,19
52205946,1634096619599989,340347283,1087570822,428549,400634,0.136,0.07493518,0.781,1.144,0.63,0.93,112,8,2.653,-0.193,-2.6460001,0.065000005,4.6412187,0,nan,0.0,3,1,19
53208166,1634096620599990,340347286,1087570555,428403,400489,0.141,0.07637962,0.77800006,1.1370001,0.62,0.84999996,112,9,2.5760002,-0.20600002,-2.568,-0.042000003,4.6657176,0,nan,0.0,3,1,19
54208246,1634096621599990,340347271,1087570304,428192,400277,0.141,0.08692542,0.77000004,1.121,0.59999996,0.84999996,112,12,1.9430001,-0.26500002,-1.9250001,0.106000006,4.577792,0,nan,0.0,3,1,20
55207947,1634096622599990,340347247,1087570141,427956,400042,0.11400001,0.18155438,0.76400006,1.105,0.62,0.84999996,112,9,1.054,-0.035,-1.0530001,-0.035,4.589508,0,nan,0.0,3,1,19
56210173,1634096623599990,340347319,1087569951,427736,399822,0.16600001,0.084066056,0.762,1.092,0.65,0.84999996,112,10,2.1060002,1.0380001,-1.8330001,-0.177,5.1769977,0,nan,0.0,3,1,18
57208046,1634096624599991,340347347,1087569837,427430,399515,0.15900001,0.19059013,0.76000005,1.0810001,0.62,0.84999996,111,9,1.008,0.096,-1.003,-0.108,4.8192234,0,nan,0.0,3,1,19
58207944,1634096625599991,340347366,1087569669,427173,399258,0.155,0.094224565,0.758,1.0730001,0.59999996,0.84999996,112,16,2.217,0.34100002,-2.19,0.051000003,4.848934,0,nan,0.0,3,1,20
59213979,1634096626599991,340347381,1087569434,426991,399077,0.141,0.08471915,0.75500005,1.0660001,0.59999996,0.84999996,112,16,2.1560001,0.102000006,-2.154,0.07,4.762403,0,nan,0.0,3,1,20
60218042,1634096627599992,340347401,1087569200,426849,398934,0.141,0.08121994,0.75200003,1.0550001,0.59999996,0.84999996,112,17,2.127,0.32000002,-2.1030002,0.012,4.816183,0,nan,0.0,3,1,20
61207952,1634096628599992,340347422,1087568962,426669,398755,0.163,0.108722135,0.75000006,1.046,0.59999996,0.84999996,99,7,1.843,0.19100001,-1.8330001,0.009000001,4.808079,0,nan,0.0,3,1,20
62199943,1634096629599992,340347431,1087568751,426475,398560,0.178,0.09463157,0.754,1.049,0.59999996,0.84999996,93,9,2.3590002,0.095000006,-2.357,0.026,4.7377462,0,nan,0.0,3,1,20
63204947,1634096630599993,340347438,1087568489,426258,398344,0.13800001,0.077291206,0.75000006,1.0380001,0.59999996,0.84999996,93,7,2.3820002,-0.031000001,-2.3820002,-0.319,4.7220016,0,nan,0.0,3,1,20
64204977,1634096631599993,340347449,1087568217,426427,398513,0.14500001,0.07483151,0.749,1.0350001,0.59999996,0.84999996,93,10,2.5210001,-0.09200001,-2.519,-0.56700003,4.721961,0,nan,0.0,3,1,20
65207944,1634096632599993,340347459,1087567974,426803,398888,0.155,0.10746899,0.74700004,1.0270001,0.59999996,0.84999996,93,12,1.7880001,-0.019000001,-1.7880001,-0.54700005,4.7034287,0,nan,0.0,3,1,20
66204964,1634096633599994,340347456,1087567774,427323,399409,0.15100001,0.10738243,0.744,1.019,0.59999996,0.84999996,93,12,1.8040001,0.007,-1.8040001,-0.73700005,4.6957245,0,nan,0.0,3,1,20
67205940,1634096634599994,340347458,1087567666,427843,399928,0.192,0.47514334,0.73800004,1.0090001,0.59999996,0.84999996,99,4,0.36,0.117000006,-0.34,-0.657,4.842651,0,nan,0.0,3,1,20
68207944,1634096635599994,340347476,1087567536,428458,400543,0.136,0.08764904,0.73600006,1.0,0.59999996,0.84999996,99,6,1.8870001,0.165,-1.8800001,-0.582,4.8267617,0,nan,0.0,3,1,20
69207943,1634096636599994,340347508,1087567353,429032,401117,0.157,0.09835157,0.73300004,0.99100006,0.59999996,0.84999996,99,7,1.8620001,0.20700002,-1.8510001,-0.799,4.87553,0,nan,0.0,3,1,20
70205995,1634096637599995,340347530,1087567174,429733,401818,0.155,0.12291551,0.72900003,0.98300004,0.59999996,0.84999996,100,5,1.4050001,0.112,-1.401,-0.777,4.814268,0,nan,0.0,3,1,20
71208949,1634096638599995,340347523,1087567041,430087,402172,0.141,0.09416469,0.72200006,0.97400004,0.59999996,0.84999996,100,4,1.5500001,-0.37,-1.5050001,-0.36,4.5324516,0,nan,0.0,3,1,20
72204396,1634096639599995,340347497,1087566914,430453,402538,0.12900001,0.26790872,0.716,0.96800005,0.59999996,0.84999996,100,13,0.536,-0.19800001,-0.49800003,-0.11400001,4.4538035,0,nan,0.0,3,1,20
73200041,1634096640599996,340347502,1087566905,430580,402665,0.2,0.70524037,0.71000004,0.96300006,0.59999996,0.84999996,100,11,0.008,0.006,-0.006,-0.24100001,4.6019926,0,nan,0.0,3,1,20
74207943,1634096641599996,340347497,1087566896,430755,402840,0.136,0.58453953,0.70500004,0.95600003,0.59999996,0.84999996,100,10,0.294,-0.112,-0.272,-0.24100001,4.4362693,0,nan,0.0,3,1,20
75207944,1634096642599996,340347496,1087566757,430996,403081,0.132,0.085066475,0.70400006,0.95000005,0.59999996,0.84999996,100,7,1.7490001,0.055000003,-1.748,-0.28800002,4.715987,0,nan,0.0,3,1,20
76206944,1634096643599997,340347495,1087566599,431022,403107,0.134,0.10655706,0.70000005,0.943,0.59999996,0.84999996,100,4,1.5220001,-0.08800001,-1.519,-0.002,4.6635766,0,nan,0.0,3,1,20
77207980,1634096644599997,340347498,1087566466,430927,403012,0.16100001,0.13043928,0.69600004,0.93700004,0.59999996,0.84999996,100,4,1.153,0.074,-1.151,0.18300001,4.754109,0,nan,0.0,3,1,20
78209005,1634096645599997,340347502,1087566330,430440,402525,0.156,0.15221523,0.69200003,0.93200004,0.59999996,0.84999996,100,3,1.044,0.006,-1.044,0.48900002,4.7272305,0,nan,0.0,3,1,20
79207366,1634096646599997,340347502,1087566194,430003,402088,0.156,0.11239327,0.69000006,0.92700005,0.59999996,0.84999996,106,3,1.5180001,-0.060000002,-1.516,0.47900003,4.7031317,0,nan,0.0,3,1,20
80205225,1634096647599998,340347497,1087566088,429099,401184,0.208,0.67061114,0.688,0.92200005,0.59999996,0.84999996,106,4,0.22800002,-0.036000002,-0.22500001,0.90500003,4.622238,0,nan,0.0,3,1,20
81205029,1634096648599998,340347494,1087566077,428686,400771,0.148,0.40623358,0.68600005,0.919,0.59999996,0.84999996,106,4,0.43500003,0.028,-0.43400002,0.002,4.735624,0,nan,0.0,3,1,20
82217952,1634096649599998,340347495,1087566015,428725,400810,0.143,0.37260598,0.68600005,0.91700006,0.59999996,0.84999996,92,4,0.49,-0.07,-0.485,-0.024,4.592839,0,nan,0.0,3,1,20
83207113,1634096650599999,340347497,1087565967,428747,400832,0.15100001,0.31912977,0.684,0.91300005,0.59999996,0.84999996,92,4,0.57600003,0.13700001,-0.56,-0.201,4.8201375,0,nan,0.0,3,1,20
84210946,1634096651599999,340347532,1087565841,428800,400884,0.15900001,0.1323703,0.68500006,0.91300005,0.59999996,0.84999996,93,10,1.3230001,0.44900003,-1.245,-0.11100001,5.0470557,0,nan,0.0,3,1,20
85209033,1634096652599999,340347554,1087565744,428771,400856,0.12900001,0.16296051,0.683,0.90800005,0.59999996,0.84999996,93,3,0.80500007,0.049000002,-0.804,-0.027,4.850168,0,nan,0.0,3,1,20
86214051,1634096653600000,340347554,1087565610,428860,400944,0.13100001,0.103464685,0.679,0.90500003,0.59999996,0.84999996,93,8,1.3590001,-0.108,-1.3540001,-0.17,4.673319,0,nan,0.0,3,1,20
87209997,1634096654600000,340347555,1087565498,428420,400505,0.164,0.19231819,0.675,0.90000004,0.59999996,0.84999996,93,8,0.822,-0.079,-0.81900007,0.51500005,4.6869473,0,nan,0.0,3,1,20
88210275,1634096655600000,340347547,1087565398,427872,399957,0.149,0.13831368,0.67300004,0.897,0.59999996,0.84999996,99,4,1.2140001,-0.098000005,-1.21,0.47800002,4.642252,0,nan,0.0,3,1,20
89213286,1634096656600001,340347537,1087565292,427524,399609,0.14600001,0.2181159,0.67200005,0.89500004,0.59999996,0.84999996,99,11,0.77500004,-0.098000005,-0.76900005,0.002,4.5790267,0,nan,0.0,3,1,20
90220981,1634096657600001,340347518,1087565151,427548,399632,0.132,0.106293865,0.67300004,0.89500004,0.59999996,0.84999996,99,7,1.531,-0.264,-1.508,-0.17600001,4.546789,0,nan,0.0,3,1,20
91209482,1634096658600001,340347496,1087565019,427786,399871,0.147,0.1412453,0.67,0.896,0.59999996,0.84999996,99,5,1.2620001,-0.13900001,-1.2550001,-0.284,4.5430274,0,nan,0.0,3,1,20
92208946,1634096659600001,340347507,1087564886,428173,400258,0.16600001,0.10685743,0.67200005,0.896,0.59999996,0.84999996,99,5,1.5740001,0.54200006,-1.4770001,-0.67800003,4.9985676,0,nan,0.0,3,1,20
93208012,1634096660600002,340347601,1087564649,428788,400873,0.171,0.0664295,0.675,0.901,0.59999996,0.84999996,106,4,2.381,1.1400001,-2.0900002,-0.813,5.194445,0,nan,0.0,3,1,20
94205186,1634096661600002,340347640,1087564541,429192,401277,0.178,0.69593936,0.67600006,0.90300006,0.59999996,0.84999996,105,4,0.24700001,0.049000002,-0.24200001,-0.307,5.0501266,0,nan,0.0,3,1,20
95207130,1634096662600002,340347639,1087564523,429278,401363,0.21000001,0.69598716,0.67700005,0.901,0.59999996,0.84999996,105,5,0.013,-0.001,-0.013,0.097,5.0501266,0,nan,0.0,3,1,20
96199347,1634096663600003,340347643,1087564525,428755,400839,0.19800001,0.69610155,0.67600006,0.901,0.59999996,0.84999996,105,4,0.128,-0.020000001,0.126,0.90800005,5.0501266,0,nan,0.0,3,1,20
97203031,1634096664600003,340347642,1087564542,427768,399852,0.215,0.56272364,0.67600006,0.90200007,0.59999996,0.84999996,105,4,0.19100001,-0.13100001,0.14,0.93200004,2.3194537,0,nan,0.0,3,1,20
98203992,1634096665600003,340347639,1087564543,426604,398688,0.20500001,0.56299657,0.67600006,0.906,0.59999996,0.84999996,105,9,0.039,-0.011000001,0.037,1.0710001,2.3194537,0,nan,0.0,3,1,20
99205943,1634096666600004,340347629,1087564548,426437,398522,0.177,0.71551114,0.67800003,0.906,0.59999996,0.84999996,105,12,0.27,-0.11000001,-0.24700001,-0.42900002,3.0855653,0,nan,0.0,3,1,20
100207947,1634096667600004,340347620,1087564533,426315,398400,0.157,0.4156102,0.68,0.90700006,0.59999996,0.84999996,105,11,0.43500003,-0.07700001,-0.42900002,0.17,4.333765,0,nan,0.0,3,1,20
101207951,1634096668600004,340347614,1087564495,426104,398188,0.21200001,0.7279208,0.68,0.90800005,0.59999996,0.84999996,105,3,0.075,-0.019000001,-0.07300001,0.192,4.488644,0,nan,0.0,3,1,20
102204945,1634096669600005,340347612,1087564482,425891,397975,0.16800001,0.347782,0.68200004,0.915,0.59999996,0.84999996,105,5,0.564,-0.067,-0.56,0.08400001,4.5914326,0,nan,0.0,3,1,20
103202376,1634096670600005,340347614,1087564360,425731,397816,0.155,0.14081857,0.684,0.91600007,0.59999996,0.84999996,105,4,1.24,0.09200001,-1.2370001,0.08400001,4.7519727,0,nan,0.0,3,1,20
104208000,1634096671600005,340347619,1087564212,425603,397688,0.16600001,0.114989266,0.68700004,0.91800004,0.59,0.84999996,105,3,1.623,0.09,-1.621,0.024,4.74971,0,nan,0.0,3,1,21
105210947,1634096672600005,340347628,1087564049,425413,397498,0.163,0.124943055,0.69000006,0.919,0.59,0.84999996,105,3,1.5300001,0.079,-1.5280001,0.11800001,4.7914286,0,nan,0.0,3,1,21
106211124,1634096673600006,340347639,1087563859,425264,397349,0.148,0.099670164,0.69200003,0.91800004,0.59,0.84999996,105,4,1.8330001,0.072000004,-1.8310001,0.141,4.7729516,0,nan,0.0,3,1,21
107205942,1634096674600006,340347650,1087563668,425032,397116,0.164,0.099871576,0.69500005,0.91600007,0.59,0.84999996,105,4,1.9590001,0.080000006,-1.9580001,0.16700001,4.7552624,0,nan,0.0,3,1,21
108208944,1634096675600006,340347662,1087563465,424858,396943,0.171,0.10140729,0.69900006,0.91600007,0.59,0.84999996,105,4,1.9470001,0.26500002,-1.9290001,0.115,4.8125157,0,nan,0.0,3,1,21
109210413,1634096676600007,340347680,1087563253,424690,396774,0.15900001,0.103295386,0.703,0.919,0.59,0.84999996,105,11,1.9810001,0.27400002,-1.9620001,0.157,4.8275566,0,nan,0.0,3,1,21
110205993,1634096677600007,340347694,1087563005,424600,396684,0.16700001,0.090574205,0.707,0.92700005,0.59,0.84999996,104,12,2.253,0.11400001,-2.25,-0.007,4.7676287,0,nan,0.0,3,1,21
111207948,1634096678600007,340347703,1087562779,424365,396449,0.155,0.13342866,0.711,0.93500006,0.59,0.84999996,104,12,1.5400001,0.18400002,-1.529,0.156,4.7719326,0,nan,0.0,3,1,21
112209257,1634096679600008,340347712,1087562589,424340,396424,0.17400001,0.09303285,0.71400005,0.938,0.59,0.84999996,104,4,2.072,0.186,-2.0640001,0.022000002,4.780768,0,nan,0.0,3,1,21
113215070,1634096680600008,340347729,1087562353,424257,396341,0.171,0.087318815,0.716,0.94400007,0.59,0.84999996,111,4,2.2350001,0.149,-2.23,0.1,4.7854233,0,nan,0.0,3,1,21
114211366,1634096681600008,340347745,1087562077,424270,396354,0.13700001,0.06635096,0.71800005,0.94500005,0.59,0.84999996,111,4,2.611,0.037,-2.611,-0.123,4.7511654,0,nan,0.0,3,1,21
115212129,1634096682600009,340347760,1087561796,424228,396312,0.14500001,0.070536956,0.717,0.947,0.59,0.84999996,111,4,2.513,0.30200002,-2.4950001,0.057000004,4.803791,0,nan,0.0,3,1,21
116211048,1634096683600009,340347781,1087561514,424222,396306,0.147,0.0679303,0.717,0.94600004,0.59,0.84999996,111,4,2.6520002,0.30200002,-2.6350002,-0.033,4.807017,0,nan,0.0,3,1,21
117210000,1634096684600009,340347801,1087561214,424143,396227,0.15,0.06777236,0.71900004,0.95100003,0.59,0.84999996,111,14,2.8690002,0.179,-2.864,0.082,4.7863054,0,nan,0.0,3,1,21
118214103,1634096685600009,340347813,1087560927,424066,396150,0.17,0.085629165,0.71900004,0.95100003,0.59,0.84999996,111,13,2.217,0.14,-2.213,-0.014,4.764166,0,nan,0.0,3,1,21
119212745,1634096686600010,340347815,1087560848,424819,396903,0.20300001,0.1650207,0.71900004,0.9480001,0.59,0.84999996,111,5,0.09900001,-0.008,-0.09900001,-0.84200007,4.78092,0,nan,0.0,3,1,21
120220422,1634096687600010,340347816,1087560810,424877,396961,0.15300001,0.17823091,0.72,0.94600004,0.59,0.84999996,111,5,1.0580001,0.043,-1.057,-0.062000003,4.773976,0,nan,0.0,3,1,21
121212949,1634096688600010,340347827,1087560639,424898,396982,0.162,0.101461396,0.721,0.947,0.59,0.84999996,111,5,1.766,0.21000001,-1.7540001,-0.156,4.8114934,0,nan,0.0,3,1,21
122222954,1634096689600011,340347850,1087560450,424937,397021,0.21800001,0.13878892,0.726,0.95300007,0.59,0.84999996,111,16,1.605,0.15200001,-1.598,-0.045,4.817927,0,nan,0.0,3,1,21
123215953,1634096690600011,340347871,1087560253,424968,397052,0.18300001,0.08484516,0.74,0.96500003,0.59,0.84999996,103,8,2.217,0.312,-2.1950002,-0.056,4.8379874,0,nan,0.0,3,1,21
124210152,1634096691600011,340347897,1087559974,424968,397052,0.163,0.07781219,0.74300003,0.96300006,0.59,0.84999996,103,6,2.424,0.275,-2.4080002,-0.024,4.824558,0,nan,0.0,3,1,21
125211980,1634096692600012,340347916,1087559735,424867,396951,0.164,0.09614355,0.74200004,0.96000004,0.59,0.84999996,103,10,1.843,0.117000006,-1.8390001,0.083000004,4.7911463,0,nan,0.0,3,1,21
126211962,1634096693600012,340347905,1087559514,424698,396782,0.16900001,0.08323352,0.73700005,0.961,0.59,0.84999996,103,6,2.423,-0.25300002,-2.41,0.061000004,4.6088257,0,nan,0.0,3,1,21
127207057,1634096694600012,340347889,1087559234,424581,396665,0.16000001,0.07258929,0.73700005,0.96400005,0.59,0.84999996,103,7,2.71,0.066,-2.709,0.064,4.691519,0,nan,0.0,3,1,21
128216041,1634096695600013,340347887,1087558946,424461,396545,0.149,0.067444585,0.73200005,0.96400005,0.59,0.84999996,103,11,2.42,-0.08800001,-2.4180002,-0.55,4.691911,0,nan,0.0,3,1,21
129214757,1634096696600013,340347879,1087558783,424676,396760,0.14500001,0.27722338,0.72700006,0.96300006,0.59,0.84999996,103,13,0.52900004,-0.18400002,-0.49600002,0.16000001,4.550452,0,nan,0.0,3,1,21
130214056,1634096697600013,340347868,1087558721,424713,396797,0.15300001,0.13451007,0.725,0.96300006,0.59,0.84999996,103,8,1.437,-0.19700001,-1.424,-0.16600001,4.556154,0,nan,0.0,3,1,21
131207961,1634096698600013,340347859,1087558521,424914,396998,0.142,0.09783251,0.72300005,0.96400005,0.59,0.84999996,103,8,1.7570001,-0.17300001,-1.748,-0.21700001,4.6378045,0,nan,0.0,3,1,21
132213942,1634096699600014,340347853,1087558277,424971,397054,0.14600001,0.06851045,0.72300005,0.966,0.59,0.84999996,103,10,2.3160002,-0.042000003,-2.3160002,0.004,4.6753616,0,nan,0.0,3,1,21
133209944,1634096700600014,340347845,1087558165,424890,396973,0.19900002,0.7225148,0.71900004,0.96300006,0.59,0.84999996,103,14,0.12900001,-0.123,-0.039,0.19800001,4.579391,0,nan,0.0,3,1,21
134203458,1634096701600014,340347840,1087558156,424868,396952,0.17,0.7225474,0.717,0.96300006,0.59,0.84999996,103,11,0.102000006,-0.044000003,-0.09200001,-0.089,4.579391,0,nan,0.0,3,1,21
135209944,1634096702600015,340347842,1087558139,424978,397062,0.141,0.41068906,0.71500003,0.96000004,0.59,0.84999996,103,9,0.384,-0.085,-0.37500003,-0.067,4.5118504,0,nan,0.0,3,1,21
136210499,1634096703600015,340347844,1087558040,425146,397230,0.143,0.17256558,0.71400005,0.95800006,0.59,0.84999996,103,8,0.994,-0.11800001,-0.98700005,-0.024,4.6658506,0,nan,0.0,3,1,21
137208060,1634096704600015,340347839,1087557962,425256,397340,0.15100001,0.419237,0.71000004,0.95500004,0.59,0.84999996,103,12,0.441,-0.13700001,-0.41900003,-0.15400001,4.521786,0,nan,0.0,3,1,21
138206977,1634096705600016,340347830,1087557914,425293,397377,0.143,0.5258855,0.71000004,0.95500004,0.59,0.84999996,103,10,0.38300002,-0.104,-0.36900002,-0.096,4.460803,0,nan,0.0,3,1,21
139208953,1634096706600016,340347854,1087557843,425306,397390,0.178,0.15275593,0.71500003,0.957,0.59,0.84999996,103,16,1.1120001,0.49500003,-0.99600005,0.022000002,5.1618214,0,nan,0.0,3,1,21
140208945,1634096707600016,340347873,1087557794,425223,397306,0.18200001,0.47644362,0.71400005,0.95600003,0.59,0.84999996,103,9,0.33800003,0.15900001,-0.298,0.10300001,5.1511297,0,nan,0.0,3,1,21
141205871,1634096708600017,340347905,1087557671,425184,397267,0.157,0.11693601,0.716,0.95900005,0.59,0.84999996,103,13,1.5530001,0.33600003,-1.516,-0.09,4.954504,0,nan,0.0,3,1,21
142212071,1634096709600017,340347930,1087557558,425191,397275,0.178,0.14777283,0.717,0.95900005,0.59,0.84999996,103,11,1.246,0.33900002,-1.199,-0.075,4.9832664,0,nan,0.0,3,1,21
143207550,1634096710600017,340347972,1087557405,425184,397268,0.17500001,0.10224138,0.71800005,0.96000004,0.59,0.84999996,103,9,1.6400001,0.549,-1.5460001,-0.15200001,5.044649,0,nan,0.0,3,1,21
144207966,1634096711600018,340347992,1087557330,425093,397177,0.19600001,0.7733641,0.716,0.95900005,0.59,0.84999996,103,11,0.046000004,0.046000004,-0.006,0.026,5.0614085,0,nan,0.0,3,1,21
145202910,1634096712600018,340348004,1087557306,425077,397161,0.192,0.7276263,0.717,0.95900005,0.59,0.84999996,103,13,0.245,0.11800001,-0.215,0.119,5.256494,0,nan,0.0,3,1,21
146206033,1634096713600018,340348006,1087557301,425078,397161,0.147,0.7276571,0.716,0.95900005,0.59,0.84999996,103,13,0.14400001,-0.062000003,0.13000001,-0.011000001,5.256494,0,nan,0.0,3,1,21
147208946,1634096714600018,340347995,1087557234,425106,397189,0.15400001,0.12144733,0.71400005,0.96000004,0.59,0.84999996,103,6,1.5600001,-0.178,-1.5500001,-0.085,4.5725837,0,nan,0.0,3,1,21
148206238,1634096715600019,340347986,1087557128,425078,397162,0.19100001,0.45673418,0.712,0.961,0.59,0.84999996,103,9,0.116000004,-0.094000004,-0.068,0.147,4.588871,0,nan,0.0,3,1,21
149209074,1634096716600019,340347982,1087557136,425040,397124,0.17,0.45678127,0.707,0.961,0.59,0.84999996,103,5,0.082,-0.059000004,0.057000004,-0.023000002,4.588871,0,nan,0.0,3,1,21
150210949,1634096717600019,340347974,1087557129,425002,397085,0.15300001,0.33226722,0.707,0.96300006,0.59,0.84999996,103,12,0.60700005,-0.054,-0.605,0.024,4.6113935,0,nan,0.0,3,1,21
151207976,1634096718600020,340347981,1087557018,424907,396990,0.165,0.17564051,0.70900005,0.96700007,0.59,0.84999996,103,13,1.0200001,0.177,-1.0040001,0.17300001,4.812438,0,nan,0.0,3,1,21
152207953,1634096719600020,340347997,1087556903,424825,396909,0.15400001,0.21091832,0.712,0.97,0.61,0.84999996,103,15,0.845,0.19900002,-0.822,0.045,4.939414,0,nan,0.0,3,1,20
153218943,1634096720600020,340348027,1087556800,424726,396809,0.18400002,0.11684665,0.71400005,0.97400004,0.59,0.84999996,103,9,1.552,0.63100004,-1.4180001,0.008,5.110001,0,nan,0.0,3,1,21
154206429,1634096721600021,340348076,1087556667,424576,396659,0.171,0.1344694,0.716,0.97700006,0.59,0.84999996,103,4,1.44,0.60700005,-1.3050001,0.16700001,5.1524897,0,nan,0.0,3,1,21
155205419,1634096722600021,340348124,1087556525,424398,396481,0.19000001,0.17794679,0.721,0.984,0.59,0.84999996,103,9,1.286,0.35500002,-1.2360001,0.312,5.060216,0,nan,0.0,3,1,21
156204947,1634096723600021,340348143,1087556389,424294,396377,0.177,0.17467761,0.726,0.989,0.59,0.84999996,103,10,1.3340001,-0.040000003,-1.3330001,0.22700001,4.712226,0,nan,0.0,3,1,21
157207971,1634096724600022,340348138,1087556248,424084,396168,0.15300001,0.15138514,0.73300004,0.994,0.59,0.84999996,103,9,1.593,0.141,-1.5870001,0.165,4.746632,0,nan,0.0,3,1,21
158207963,1634096725600022,340348139,1087556067,424052,396136,0.17500001,0.15081477,0.744,1.003,0.59,0.84999996,103,13,1.6370001,-0.24400002,-1.6190001,0.20500001,4.65026,0,nan,0.0,3,1,21
159205031,1634096726600022,340348132,1087555895,423951,396034,0.20500001,0.18466963,0.757,1.0150001,0.65999997,0.95,103,16,1.588,0.14,-1.582,-0.001,4.724218,0,nan,0.0,3,1,19
160201045,1634096727600022,340348135,1087555737,423996,396079,0.17,0.15927961,0.76900005,1.0250001,0.68,0.95,103,11,1.468,0.135,-1.462,0.019000001,4.768775,0,nan,0.0,3,1,18
161197564,1634096728600023,340348138,1087555602,423981,396064,0.15900001,0.1324457,0.77500004,1.0250001,0.69,0.95,103,6,1.5480001,0.23,-1.531,-0.14500001,4.833215,0,nan,0.0,3,1,18
162199206,1634096729600023,340348143,1087555400,423896,395979,0.15100001,0.09643363,0.777,1.023,0.69,0.95,103,8,2.068,0.022000002,-2.068,0.16100001,4.755464,0,nan,0.0,3,1,18
163207971,1634096730600023,340348169,1087555190,423955,396038,0.15300001,0.08539739,0.77900004,1.0220001,0.72999996,0.96,103,5,2.3660002,0.35200003,-2.3390002,-0.148,4.865034,0,nan,0.0,3,1,17
164200947,1634096731600024,340348193,1087554965,423936,396019,0.17600001,0.11037514,0.78200006,1.0220001,0.72999996,0.96,103,11,1.9030001,0.142,-1.8980001,0.097,4.8159637,0,nan,0.0,3,1,17
165198959,1634096732600024,340348196,1087554773,424003,396086,0.15400001,0.15076433,0.78700006,1.026,0.72999996,0.96,103,12,1.593,-0.032,-1.5920001,-0.15300001,4.703829,0,nan,0.0,3,1,17
166201998,1634096733600024,340348197,1087554567,424135,396218,0.156,0.09854652,0.79200006,1.0320001,0.72999996,0.96,103,9,2.348,0.022000002,-2.348,-0.25,4.7378917,0,nan,0.0,3,1,17
167196464,1634096734600025,340348178,1087554293,424164,396247,0.17600001,0.085774034,0.8,1.039,0.83,1.03,103,11,2.592,-0.11400001,-2.5890002,-0.030000001,4.6484566,0,nan,0.0,3,1,16
168206013,1634096735600025,340348173,1087553993,424258,396341,0.15400001,0.07506172,0.80300003,1.044,0.72999996,0.96,103,24,2.8600001,-0.034,-2.8600001,-0.094000004,4.7043195,0,nan,0.0,3,1,17
169196942,1634096736600025,340348163,1087553721,424345,396428,0.14400001,0.083144166,0.804,1.049,0.72999996,0.96,103,24,2.5500002,-0.061000004,-2.549,-0.026,4.691618,0,nan,0.0,3,1,17
178212942,1634096745600028,340348254,1087552322,427112,399195,0.2,0.55559224,0.80100006,1.021,0.61,0.84999996,96,16,0.074,0.061000004,0.042000003,0.23900001,3.3981926,0,nan,0.0,3,1,20
179213028,1634096746600028,340348282,1087552314,426930,399013,0.201,0.61407924,0.80100006,1.0170001,0.61,0.84999996,96,29,0.215,0.164,-0.14,0.596,4.3786325,0,nan,0.0,3,1,20
180215969,1634096747600029,340348298,1087552310,426431,398514,0.208,0.52350277,0.79700005,1.0090001,0.64,0.84999996,96,23,0.11800001,-0.108,0.049000002,-0.008,5.0628343,0,nan,0.0,3,1,19
181207954,1634096748600029,340348289,1087552309,426404,398487,0.16000001,0.4242726,0.799,1.006,0.64,0.84999996,96,12,0.485,0.078,-0.47900003,-0.001,4.7223783,0,nan,0.0,3,1,19
182210951,1634096749600029,340348287,1087552218,426507,398589,0.158,0.21456343,0.80100006,1.006,0.78,0.89,106,24,1.0250001,-0.032,-1.0250001,-0.11000001,4.640429,0,nan,0.0,4,1,17
183213940,1634096750600030,340348277,1087552079,426585,398667,0.15400001,0.16871575,0.80200005,1.005,0.78,0.89,106,15,1.4580001,-0.277,-1.432,-0.017,4.556776,0,nan,0.0,4,1,17
184206950,1634096751600030,340348260,1087551899,426470,398553,0.17300001,0.14497961,0.80600005,1.0090001,0.78,0.89,106,19,1.588,-0.19100001,-1.577,0.23500001,4.5890756,0,nan,0.0,4,1,17
185201964,1634096752600030,340348274,1087551742,426276,398359,0.17300001,0.09714241,0.80600005,1.006,0.78,0.89,106,16,1.9820001,0.71000004,-1.8500001,0.223,4.989042,0,nan,0.0,4,1,17
186206947,1634096753600030,340348330,1087551541,426283,398365,0.194,0.15688956,0.80700004,1.006,0.78,0.89,106,16,1.572,0.441,-1.5090001,0.024,5.0224195,0,nan,0.0,4,1,17
187206028,1634096754600031,340348364,1087551366,426277,398360,0.16600001,0.09518816,0.81100005,1.0070001,0.78,0.89,106,13,2.368,0.49,-2.3170002,0.101,4.891839,0,nan,0.0,4,1,17
188208981,1634096755600031,340348396,1087551122,426194,398277,0.148,0.10244174,0.81500006,1.006,0.78,0.89,106,11,1.9530001,0.12100001,-1.9490001,0.19000001,4.8117623,0,nan,0.0,4,1,17
189212189,1634096756600031,340348407,1087550879,426076,398158,0.16600001,0.092195444,0.81600004,1.0040001,0.78,0.89,106,9,2.2240002,0.010000001,-2.2240002,0.079,4.7337623,0,nan,0.0,4,1,17
190209964,1634096757600032,340348411,1087550629,425944,398027,0.16000001,0.087069936,0.81600004,1.0,0.78,0.89,106,7,2.391,0.036000002,-2.391,0.115,4.726449,0,nan,0.0,4,1,17
191206957,1634096758600032,340348413,1087550375,425874,397956,0.18800001,0.081140175,0.81500006,0.99700004,0.78,0.89,106,11,2.653,0.164,-2.6480002,0.31800002,4.741847,0,nan,0.0,4,1,17
192204339,1634096759600032,340348410,1087550057,425877,397960,0.157,0.06980532,0.818,0.9990001,0.68,0.88,106,8,3.13,-0.010000001,-3.13,0.009000001,4.6970863,0,nan,0.0,4,1,18
193212373,1634096760600033,340348410,1087549757,425917,397999,0.15100001,0.10444643,0.81900007,0.9990001,0.68,0.88,105,12,2.039,0.072000004,-2.038,0.023000002,4.734558,0,nan,0.0,4,1,18
194210104,1634096761600033,340348413,1087549685,425840,397923,0.201,0.52751493,0.818,0.99500006,0.78,0.89,105,11,0.026,0.017,-0.019000001,0.132,4.754181,0,nan,0.0,4,1,17
195206955,1634096762600033,340348411,1087549669,425857,397939,0.165,0.52756137,0.81600004,0.99000007,0.78,0.89,105,11,0.09,0.002,-0.09,-0.082,4.754181,0,nan,0.0,4,1,17
196197955,1634096763600034,340348425,1087549670,426018,398100,0.187,0.5919499,0.81700003,0.99100006,0.78,0.89,105,13,0.351,0.287,0.202,-0.215,0.1510989,0,nan,0.0,4,1,17
197205176,1634096764600034,340348451,1087549688,426181,398263,0.18800001,0.66066265,0.814,0.989,0.78,0.89,105,13,0.27800003,0.23200001,0.15200001,-0.101,0.45387545,0,nan,0.0,4,1,17
198205589,1634096765600034,340348461,1087549740,426424,398506,0.155,0.15900175,0.813,0.98700005,0.78,0.89,105,13,1.25,0.046000004,1.2490001,-0.21700001,1.4586052,0,nan,0.0,4,1,17
199202853,1634096766600034,340348464,1087549879,426584,398666,0.162,0.17578816,0.813,0.98700005,0.78,0.89,105,16,1.258,-0.057000004,1.2570001,-0.098000005,1.5554302,0,nan,0.0,4,1,17
200211282,1634096767600035,340348459,1087550036,426759,398842,0.16000001,0.14438759,0.814,0.98700005,0.69,0.89,105,15,1.7300001,-0.051000003,1.7290001,-0.17500001,1.60481,0,nan,0.0,4,1,18
201211126,1634096768600035,340348454,1087550218,426805,398887,0.14,0.1255335,0.813,0.98700005,0.69,0.89,105,13,1.6680001,-0.163,1.6600001,0.033,1.6194617,0,nan,0.0,4,1,18
202213072,1634096769600035,340348445,1087550400,426801,398883,0.14600001,0.11981423,0.813,0.98700005,0.69,0.89,105,16,1.7060001,-0.036000002,1.705,-0.013,1.6135236,0,nan,0.0,4,1,18
203208946,1634096770600036,340348445,1087550602,426951,399033,0.163,0.11414156,0.81100005,0.9850001,0.64,0.88,105,20,1.8470001,0.078,1.845,-0.095000006,1.5466603,0,nan,0.0,4,1,19
204209053,1634096771600036,340348451,1087550785,427007,399090,0.16600001,0.16422483,0.81100005,0.989,0.64,0.88,105,16,1.3750001,0.11100001,1.371,-0.10700001,1.526816,0,nan,0.0,4,1,19
205209003,1634096772600036,340348456,1087550869,427040,399123,0.19000001,0.36755762,0.81100005,0.99200004,0.64,0.88,105,22,0.087000005,0.017,0.086,0.1,1.533158,0,nan,0.0,4,1,19
206210135,1634096773600037,340348482,1087550944,427126,399208,0.148,0.24126402,0.81100005,0.99300003,0.64,0.88,105,15,0.91600007,0.503,0.76600003,-0.093,1.1405443,0,nan,0.0,4,1,19
207210084,1634096774600037,340348481,1087550960,427143,399226,0.202,0.6187246,0.809,0.99500006,0.64,0.88,105,14,0.157,-0.15300001,-0.034,0.105000004,2.1604412,0,nan,0.0,4,1,19
208212064,1634096775600037,340348467,1087550990,427162,399245,0.2,0.6080891,0.814,1.003,0.64,0.88,105,11,0.381,-0.141,0.354,-0.018000001,1.9904578,0,nan,0.0,4,1,19
209213281,1634096776600038,340348417,1087551075,427023,399106,0.193,0.120780624,0.81500006,1.01,0.64,0.88,105,9,1.478,-0.83000004,1.223,0.16100001,2.1833444,0,nan,0.0,4,1,19
210209952,1634096777600038,340348363,1087551159,427000,399082,0.22500001,0.30888328,0.81600004,1.016,0.64,0.88,105,12,0.568,-0.38000003,0.423,-0.19700001,2.3480074,0,nan,0.0,4,1,19
211210501,1634096778600038,340348328,1087551179,426868,398950,0.21000001,0.5093352,0.813,1.0150001,0.64,0.88,105,18,0.26500002,-0.26500002,0.0050000004,0.16600001,2.9506774,0,nan,0.0,4,1,19
212215001,1634096779600039,340348290,1087551228,426738,398821,0.19500001,0.20013516,0.81200004,1.0150001,0.64,0.88,105,24,0.9110001,-0.47500002,0.777,0.15,2.1868734,0,nan,0.0,4,1,19
213221972,1634096780600039,340348254,1087551308,426632,398715,0.23200001,0.1883156,0.81200004,1.0170001,0.64,0.88,105,19,0.998,-0.57500005,0.81500006,0.17,2.123455,0,nan,0.0,4,1,19
214209942,1634096781600039,340348212,1087551396,426452,398534,0.18900001,0.1750574,0.813,1.019,0.68,0.88,105,22,1.1810001,-0.551,1.044,0.157,2.0735695,0,nan,0.0,4,1,18
215208991,1634096782600039,340348168,1087551543,426414,398497,0.14500001,0.18275167,0.814,1.0170001,0.68,0.88,105,22,1.3290001,-0.31300002,1.292,0.13700001,1.8576885,0,nan,0.0,4,1,18
216211961,1634096783600040,340348142,1087551744,426363,398446,0.16100001,0.10077618,0.818,1.0150001,0.68,0.88,105,18,2.352,-0.377,2.322,0.187,1.7379453,0,nan,0.0,4,1,18
217209945,1634096784600040,340348117,1087551864,426245,398327,0.24900001,0.745436,0.82400006,1.023,0.68,0.88,105,21,0.193,-0.19000001,-0.030000001,0.16800001,2.3978386,0,nan,0.0,4,1,18
218210949,1634096785600040,340348100,1087551882,426224,398307,0.24900001,0.7344335,0.83100003,1.0300001,0.68,0.88,105,26,0.215,-0.208,0.056,0.16000001,2.644647,0,nan,0.0,4,1,18
219211040,1634096786600041,340348094,1087551898,426197,398280,0.148,0.4910248,0.83800006,1.033,0.68,0.88,105,24,0.503,0.126,0.48700002,0.12100001,1.7269704,0,nan,0.0,4,1,18
220207960,1634096787600041,340348108,1087551980,425979,398062,0.14400001,0.25409028,0.845,1.036,0.68,0.88,105,29,1.0,0.25100002,0.96800005,0.317,1.3437828,0,nan,0.0,4,1,18
221201192,1634096788600041,340348144,1087552118,425681,397763,0.15400001,0.14851198,0.85400003,1.0400001,0.68,0.88,105,24,1.7520001,0.583,1.6520001,0.38000003,1.2654437,0,nan,0.0,4,1,18
222210951,1634096789600042,340348188,1087552295,425508,397591,0.15900001,0.14631164,0.86,1.0430001,0.78,0.89,105,19,1.7310001,0.492,1.6600001,0.112,1.2993288,0,nan,0.0,4,1,17
223207355,1634096790600042,340348235,1087552502,425304,397386,0.15100001,0.1234412,0.86500007,1.0450001,0.78,0.89,105,31,2.079,0.577,1.9980001,0.31800002,1.2884839,0,nan,0.0,4,1,17
224207199,1634096791600042,340348254,1087552711,425111,397194,0.164,0.11445607,0.87200004,1.056,0.78,0.89,105,44,2.22,0.019000001,2.22,0.25300002,1.5272545,0,nan,0.0,4,1,17
225209487,1634096792600043,340348255,1087552945,424851,396934,0.142,0.11976728,0.873,1.056,0.78,0.89,105,21,1.996,0.45000002,1.945,0.29000002,1.4359136,0,nan,0.0,4,1,17
226209945,1634096793600043,340348303,1087553176,424679,396762,0.15,0.1230005,0.87600005,1.062,0.78,0.89,105,24,2.075,0.47900003,2.019,0.18100001,1.336852,0,nan,0.0,4,1,17
227207978,1634096794600043,340348330,1087553415,424604,396686,0.147,0.093060076,0.87500006,1.069,0.78,0.89,105,20,2.375,-0.18400002,2.368,0.016,1.5768383,0,nan,0.0,4,1,17
228207172,1634096795600043,340348336,1087553690,424424,396507,0.15400001,0.09427186,0.87600005,1.0780001,0.78,0.89,105,24,2.4720001,0.263,2.4580002,0.15400001,1.5054767,0,nan,0.0,4,1,17
229215157,1634096796600044,340348337,1087553976,424844,396927,0.17600001,0.07996522,0.874,1.085,0.68,0.88,111,21,2.8360002,-0.165,2.832,-0.467,1.6023935,0,nan,0.0,4,1,18
230211000,1634096797600044,340348329,1087554252,424921,397004,0.18300001,0.10084285,0.87200004,1.093,0.79999995,0.96999997,111,7,2.2220001,-0.104,2.22,-0.49500003,1.5957451,0,nan,0.0,3,1,16
231208976,1634096798600044,340348327,1087554506,425257,397340,0.2,0.089292265,0.87100005,1.097,0.68,0.88,111,9,2.4770002,-0.259,2.4640002,-0.646,1.6056484,0,nan,0.0,3,1,18
232212014,1634096799600045,340348318,1087554625,425373,397456,0.26000002,0.3915297,0.87200004,1.11,0.68,0.88,111,12,0.53000003,-0.439,0.29700002,-0.102000006,2.1769447,0,nan,0.0,3,1,18
233214948,1634096800600045,340348294,1087554649,425576,397659,0.231,0.60665005,0.87900007,1.12,0.68,0.88,104,5,0.25,-0.22600001,0.10700001,-0.24400002,2.483777,0,nan,0.0,3,1,18
234212543,1634096801600045,340348282,1087554732,425839,397922,0.16700001,0.14322713,0.878,1.121,0.78,0.89,103,4,1.5740001,-0.081,1.572,-0.33400002,1.6583906,0,nan,0.0,3,1,17
235209429,1634096802600046,340348272,1087554893,426178,398261,0.16700001,0.17421247,0.874,1.115,0.78,0.89,104,5,1.363,0.172,1.3520001,-0.266,1.5858654,0,nan,0.0,3,1,17
236213944,1634096803600046,340348269,1087555105,426424,398507,0.15,0.11180736,0.87000006,1.11,0.78,0.89,104,10,1.9060001,0.003,1.9060001,-0.25100002,1.5705163,0,nan,0.0,3,1,17
237216073,1634096804600046,340348276,1087555337,426581,398664,0.13700001,0.08994118,0.86700004,1.1090001,0.78,0.89,104,8,2.3730001,0.148,2.368,0.014,1.5174829,0,nan,0.0,3,1,17
238214944,1634096805600047,340348277,1087555563,426424,398507,0.13700001,0.10599174,0.86300004,1.103,0.78,0.89,104,6,1.9650002,-0.097,1.963,0.029000001,1.5809594,0,nan,0.0,3,1,17
239213132,1634096806600047,340348244,1087555786,426459,398542,0.16800001,0.07659272,0.859,1.0990001,0.64,0.87,96,5,2.5180001,-0.84800005,2.3700001,-0.071,1.8525581,0,nan,0.0,3,1,19
240206691,1634096807600047,340348165,1087556033,426459,398542,0.15,0.09526636,0.85300004,1.0910001,0.64,0.87,97,4,2.2350001,-0.89000005,2.0500002,-0.037,1.9435488,0,nan,0.0,3,1,19
241210009,1634096808600047,340348085,1087556296,426502,398586,0.15,0.07315722,0.84800005,1.0830001,0.64,0.87,97,4,2.5200002,-0.57500005,2.453,-0.074,1.8523173,0,nan,0.0,3,1,19
242211706,1634096809600048,340348105,1087556486,426455,398538,0.17300001,0.12112881,0.84200007,1.0760001,0.61,0.87,97,10,1.3080001,0.30900002,1.271,-0.344,1.347377,0,nan,0.0,3,1,20
243210942,1634096810600048,340348130,1087556626,426613,398697,0.156,0.10968434,0.83300006,1.0680001,0.61,0.87,97,8,1.381,0.22900002,1.3610001,-0.26200002,1.3971907,0,nan,0.0,3,1,20
244207009,1634096811600048,340348125,1087556804,426815,398898,0.171,0.066177994,0.82000005,1.057,0.59,0.84999996,97,11,2.1000001,-0.040000003,2.0990002,-0.37600002,1.5750889,0,nan,0.0,3,1,21
245210131,1634096812600049,340348130,1087557043,426973,399057,0.15100001,0.065271474,0.808,1.047,0.59,0.84999996,97,9,2.2810001,0.259,2.266,-0.34,1.4911853,0,nan,0.0,3,1,21
246213878,1634096813600049,340348115,1087557258,427200,399283,0.155,0.0695114,0.79700005,1.042,0.59,0.84999996,97,17,2.135,-0.49400002,2.0770001,-0.24700001,1.7630763,0,nan,0.0,3,1,21
247207944,1634096814600049,340348048,1087557473,427000,399083,0.13800001,0.06516902,0.78700006,1.0370001,0.59,0.84999996,97,12,2.2970002,-0.83000004,2.1420002,0.257,1.9248859,0,nan,0.0,3,1,21
248210947,1634096815600050,340347971,1087557696,426664,398747,0.14600001,0.06625008,0.776,1.031,0.59,0.84999996,97,9,2.249,-0.98700005,2.0210001,0.48700002,1.9941267,0,nan,0.0,3,1,21
249213972,1634096816600050,340347899,1087557912,425825,397909,0.14400001,0.080801584,0.767,1.0270001,0.59,0.84999996,97,7,2.015,-0.78800005,1.8540001,0.89100003,1.9608463,0,nan,0.0,3,1,21
250212144,1634096817600050,340347833,1087558070,425349,397433,0.16700001,0.1601837,0.75900006,1.023,0.59,0.84999996,97,12,0.9760001,-0.59000003,0.77800006,0.08800001,2.1008806,0,nan,0.0,3,1,21
251206997,1634096818600051,340347809,1087558106,425102,397186,0.14,0.3011623,0.754,1.0220001,0.59,0.84999996,97,9,0.48000002,-0.041,0.47900003,0.294,1.9102083,0,nan,0.0,3,1,21
252208963,1634096819600051,340347825,1087558224,424879,396963,0.15300001,0.19611672,0.748,1.018,0.59,0.84999996,97,9,0.906,0.37600002,0.82400006,0.0,1.3298564,0,nan,0.0,3,1,21
253212062,1634096820600051,340347855,1087558326,424744,396828,0.141,0.09784263,0.74500006,1.0170001,0.59,0.84999996,97,13,1.72,0.365,1.6810001,0.086,1.3297212,0,nan,0.0,3,1,21
254207942,1634096821600052,340347884,1087558515,424520,396604,0.14,0.1067185,0.74100006,1.0150001,0.59,0.84999996,97,9,1.6330001,0.35200003,1.5940001,0.254,1.3704462,0,nan,0.0,3,1,21
255210099,1634096822600052,340347916,1087558698,424317,396401,0.141,0.098191,0.739,1.0150001,0.59,0.84999996,97,11,1.7360001,0.35000002,1.7,0.132,1.3659283,0,nan,0.0,3,1,21
256209956,1634096823600052,340347946,1087558876,424132,396216,0.13100001,0.08399223,0.735,1.014,0.59,0.84999996,97,9,1.659,0.32200003,1.6270001,0.22500001,1.3702233,0,nan,0.0,3,1,21
257210944,1634096824600052,340347979,1087559054,423918,396002,0.13700001,0.080201544,0.731,1.0090001,0.59,0.84999996,97,11,1.6810001,0.324,1.6500001,0.125,1.396943,0,nan,0.0,3,1,21
258209951,1634096825600053,340347997,1087559253,423671,395755,0.14500001,0.081678964,0.72800004,1.01,0.59,0.84999996,97,9,1.9900001,0.14400001,1.9850001,0.19700001,1.4921323,0,nan,0.0,3,1,21
259208981,1634096826600053,340348009,1087559480,423403,395487,0.12200001,0.07926587,0.726,1.01,0.59,0.84999996,97,9,2.0270002,0.16600001,2.02,0.19500001,1.4985737,0,nan,0.0,3,1,21
260208267,1634096827600053,340348012,1087559701,423253,395337,0.13700001,0.07792668,0.725,1.014,0.59,0.84999996,97,11,2.2940001,-0.115,2.2910001,0.089,1.5869254,0,nan,0.0,3,1,21
261210974,1634096828600054,340348011,1087559993,423122,395206,0.163,0.06632443,0.725,1.016,0.59,0.84999996,97,5,2.8790002,-0.009000001,2.8790002,0.112,1.5766989,0,nan,0.0,3,1,21
262208359,1634096829600054,340348006,1087560282,423076,395160,0.141,0.06305473,0.72400004,1.0170001,0.59,0.84999996,97,4,2.6580002,-0.075,2.657,-0.075,1.5846418,0,nan,0.0,3,1,21
263212727,1634096830600054,340347998,1087560554,423083,395167,0.165,0.07490744,0.72200006,1.0150001,0.59,0.84999996,97,5,2.4720001,0.040000003,2.4720001,-0.036000002,1.5852153,0,nan,0.0,3,1,21
264213154,1634096831600055,340347996,1087560809,423164,395248,0.15,0.058200274,0.72,1.0150001,0.59,0.84999996,97,4,2.529,-0.011000001,2.529,-0.149,1.5803094,0,nan,0.0,3,1,21
265204987,1634096832600055,340347989,1087561070,423249,395333,0.13900001,0.074085034,0.716,1.0120001,0.59,0.84999996,97,5,2.21,-0.13700001,2.206,-0.066,1.6281139,0,nan,0.0,3,1,21
266209946,1634096833600055,340347936,1087561340,423350,395434,0.156,0.057930965,0.712,1.011,0.59,0.84999996,97,5,2.6450002,-0.772,2.5300002,-0.147,1.8552965,0,nan,0.0,3,1,21
267210953,1634096834600056,340347869,1087561588,423422,395506,0.119,0.062255718,0.708,1.006,0.59,0.84999996,97,11,2.413,-0.609,2.335,-0.003,1.8519288,0,nan,0.0,3,1,21
268217095,1634096835600056,340347839,1087561833,423361,395445,0.128,0.059503857,0.70400006,0.9990001,0.62,0.93,97,10,2.528,-0.277,2.513,0.081,1.6837976,0,nan,0.0,3,1,20
269217139,1634096836600056,340347810,1087562116,423350,395434,0.143,0.06339001,0.70100003,0.99600005,0.59,0.84999996,117,11,2.496,-0.38000003,2.467,-0.020000001,1.7102362,0,nan,0.0,3,1,21
270215369,1634096837600056,340347793,1087562365,423417,395501,0.15400001,0.07856879,0.70100003,0.99600005,0.59,0.84999996,117,5,2.13,-0.179,2.1230001,-0.11400001,1.6365217,0,nan,0.0,3,1,21
271217947,1634096838600057,340347784,1087562610,423463,395547,0.15400001,0.083689235,0.702,0.998,0.59,0.84999996,117,4,2.368,-0.11000001,2.365,-0.066,1.6007907,0,nan,0.0,3,1,21
272213259,1634096839600057,340347779,1087562848,423479,395563,0.148,0.10098981,0.70400006,1.001,0.59,0.84999996,117,5,1.891,-0.009000001,1.891,0.012,1.5858351,0,nan,0.0,3,1,21
273218956,1634096840600057,340347774,1087563069,423530,395615,0.13100001,0.08339951,0.70500004,1.0040001,0.59,0.84999996,117,4,2.102,0.040000003,2.102,0.12900001,1.5725473,0,nan,0.0,3,1,21
274218076,1634096841600058,340347776,1087563298,423486,395570,0.13100001,0.08995706,0.70600003,1.0040001,0.59,0.84999996,117,3,2.1660001,0.044000003,2.1660001,0.045,1.5611814,0,nan,0.0,3,1,21
275216062,1634096842600058,340347777,1087563518,423542,395627,0.13700001,0.083965175,0.707,1.003,0.59,0.84999996,117,3,2.14,0.045,2.1390002,-0.067,1.5603198,0,nan,0.0,3,1,21
276214950,1634096843600058,340347778,1087563734,423492,395577,0.13800001,0.10633819,0.70600003,1.0020001,0.59,0.84999996,117,4,1.5920001,-0.042000003,1.5910001,0.063,1.5784156,0,nan,0.0,3,1,21
277211541,1634096844600059,340347780,1087563936,423517,395601,0.148,0.082167126,0.70600003,1.003,0.59,0.84999996,117,4,2.052,0.021000002,2.052,0.026,1.5621138,0,nan,0.0,3,1,21
278218352,1634096845600059,340347787,1087564135,423525,395610,0.162,0.08860426,0.70500004,1.0020001,0.59,0.84999996,117,4,1.9360001,0.060000002,1.9350001,-0.098000005,1.527799,0,nan,0.0,3,1,21
279210946,1634096846600059,340347796,1087564370,423500,395584,0.15,0.073252685,0.707,1.0020001,0.59,0.84999996,109,4,2.4580002,0.149,2.453,0.039,1.516707,0,nan,0.0,3,1,21
280204987,1634096847600060,340347788,1087564589,423477,395562,0.177,0.074674085,0.708,1.005,0.59999996,0.84999996,109,3,2.256,-0.564,2.184,0.033,1.7528791,0,nan,0.0,3,1,20
281210132,1634096848600060,340347712,1087564822,423496,395581,0.165,0.07125498,0.708,1.0070001,0.59999996,0.84999996,109,4,2.193,-0.82400006,2.032,0.018000001,1.9553329,0,nan,0.0,3,1,20
282207069,1634096849600060,340347672,1087565056,423461,395546,0.163,0.07816876,0.708,1.006,0.59999996,0.84999996,109,10,2.2610002,-0.18200001,2.253,-0.11400001,1.687408,0,nan,0.0,3,1,20
283210280,1634096850600061,340347685,1087565263,423572,395657,0.142,0.0841795,0.70600003,1.001,0.59999996,0.84999996,109,12,1.853,0.35700002,1.8190001,-0.056,1.403957,0,nan,0.0,3,1,20
284218158,1634096851600061,340347693,1087565467,423587,395672,0.143,0.07252995,0.70400006,0.998,0.59999996,0.84999996,102,5,2.1680002,-0.004,2.1680002,0.045,1.5714687,0,nan,0.0,3,1,20
285204125,1634096852600061,340347694,1087565693,423469,395553,0.14,0.06554305,0.702,0.99600005,0.59999996,0.84999996,102,4,2.3930001,-0.060000002,2.3920002,0.156,1.5763032,0,nan,0.0,3,1,20
286207947,1634096853600061,340347688,1087565945,423485,395570,0.13700001,0.061254248,0.69900006,0.99100006,0.59999996,0.84999996,102,4,2.3890002,-0.020000001,2.3890002,-0.093,1.5937971,0,nan,0.0,3,1,20
287210121,1634096854600062,340347677,1087566201,423404,395489,0.141,0.0681963,0.69600004,0.98800004,0.59999996,0.84999996,102,4,2.3260002,-0.171,2.3200002,0.075,1.6382335,0,nan,0.0,3,1,20
288210727,1634096855600062,340347666,1087566463,423364,395449,0.149,0.06197594,0.69500005,0.99300003,0.59999996,0.84999996,109,4,2.5740001,-0.08400001,2.5730002,0.006,1.6043841,0,nan,0.0,3,1,20
289209945,1634096856600062,340347663,1087566738,423337,395422,0.15100001,0.0640103,0.697,0.998,0.59999996,0.84999996,109,4,2.8430002,-0.125,2.841,0.083000004,1.6060171,0,nan,0.0,3,1,20
290210062,1634096857600063,340347657,1087567035,423199,395284,0.142,0.054322846,0.697,0.9990001,0.59999996,0.84999996,109,4,2.9210002,-0.07300001,2.92,-0.012,1.599372,0,nan,0.0,3,1,20
291211049,1634096858600063,340347650,1087567406,423191,395276,0.13900001,0.036266893,0.697,1.0,0.59999996,0.84999996,109,9,4.202,-0.11400001,4.2000003,0.0050000004,1.5969347,0,nan,0.0,3,1,20
292207942,1634096859600063,340347638,1087567823,422998,395083,0.134,0.051241644,0.694,0.998,0.59999996,0.84999996,109,8,3.2370002,-0.125,3.2350001,0.397,1.6115144,0,nan,0.0,3,1,20
293211118,1634096860600064,340347625,1087568175,422678,394763,0.135,0.047045,0.693,0.99500006,0.59999996,0.84999996,109,7,3.3360002,-0.05,3.3360002,0.261,1.6056428,0,nan,0.0,3,1,20
294207960,1634096861600064,340347603,1087568455,422691,394776,0.15,0.15234838,0.69100004,0.99100006,0.59999996,0.84999996,109,4,1.2030001,-0.18300001,1.189,0.028,1.6915214,0,nan,0.0,3,1,20
295208948,1634096862600064,340347579,1087568501,422598,394683,0.158,0.40920952,0.689,0.98800004,0.59999996,0.84999996,109,4,0.3,-0.18900001,0.23300001,-0.067,2.2225375,0,nan,0.0,3,1,20
296203946,1634096863600065,340347555,1087568586,422672,394757,0.119,0.11178869,0.68600005,0.98300004,0.59999996,0.84999996,109,4,1.3590001,-0.27100003,1.332,-0.019000001,1.8240813,0,nan,0.0,3,1,20
297207943,1634096864600065,340347532,1087568708,422804,394890,0.15100001,0.123508744,0.684,0.98100007,0.59999996,0.84999996,109,4,1.235,-0.17300001,1.222,-0.083000004,1.7499545,0,nan,0.0,3,1,20
298209960,1634096865600065,340347519,1087568858,422907,394992,0.13900001,0.092164375,0.684,0.98100007,0.59999996,0.84999996,110,4,1.6330001,-0.156,1.6250001,-0.038000003,1.6577629,0,nan,0.0,3,1,20
299214216,1634096866600065,340347508,1087569022,422999,395084,0.16600001,0.11839894,0.68600005,0.9850001,0.59999996,0.84999996,110,12,1.58,-0.086,1.5780001,-0.11800001,1.6306494,0,nan,0.0,3,1,20
300213657,1634096867600066,340347493,1087569209,423096,395181,0.164,0.10033409,0.689,0.98800004,0.59999996,0.84999996,110,10,1.7950001,-0.15200001,1.789,-0.041,1.6646194,0,nan,0.0,3,1,20
301216020,1634096868600066,340347478,1087569402,422989,395074,0.141,0.08414407,0.69000006,0.98700005,0.59999996,0.84999996,109,4,2.01,-0.0050000004,2.01,0.2,1.6229359,0,nan,0.0,3,1,20
302215006,1634096869600066,340347483,1087569585,422895,394980,0.14400001,0.09899699,0.69200003,0.98800004,0.59999996,0.84999996,102,8,1.6400001,0.127,1.6350001,0.043,1.5117258,0,nan,0.0,3,1,20
303215149,1634096870600067,340347484,1087569767,422933,395019,0.13800001,0.13439366,0.69500005,0.994,0.59999996,0.84999996,102,5,1.4020001,0.032,1.4020001,0.0050000004,1.5594532,0,nan,0.0,3,1,20
304215427,1634096871600067,340347488,1087569947,422878,394964,0.128,0.11033186,0.69600004,0.99600005,0.59999996,0.84999996,102,6,1.659,-0.034,1.659,0.12200001,1.5668513,0,nan,0.0,3,1,20
305206960,1634096872600067,340347484,1087570125,422946,395031,0.22000001,0.16333139,0.69900006,0.99600005,0.59999996,0.84999996,102,7,1.8190001,-0.061000004,1.8180001,0.008,1.6098034,0,nan,0.0,3,1,20
306212348,1634096873600068,340347484,1087570306,422919,395005,0.15300001,0.1045693,0.703,1.0,0.59999996,0.84999996,102,3,1.8850001,0.043,1.8850001,0.123,1.5565373,0,nan,0.0,3,1,20
307210452,1634096874600068,340347493,1087570528,422888,394974,0.14,0.11745071,0.70600003,1.0040001,0.59999996,0.84999996,102,7,1.567,-0.017,1.567,-0.032,1.5212781,0,nan,0.0,3,1,20
308207466,1634096875600068,340347489,1087570587,422839,394925,0.17500001,0.35251722,0.707,1.0090001,0.59999996,0.84999996,102,6,0.13800001,-0.098000005,0.097,0.038000003,1.5513083,0,nan,0.0,3,1,20
309207206,1634096876600069,340347483,1087570599,422549,394634,0.23,0.7138096,0.708,1.013,0.59999996,0.84999996,102,4,0.093,0.081,0.046000004,0.33200002,1.7625376,0,nan,0.0,4,1,20
310207983,1634096877600069,340347487,1087570599,422162,394248,0.22900002,0.71389776,0.712,1.019,0.59999996,0.84999996,102,6,0.1,-0.033,-0.094000004,0.957,1.7625376,0,nan,0.0,4,1,20
311208954,1634096878600069,340347498,1087570587,421376,393462,0.18800001,0.45474258,0.71500003,1.0250001,0.59999996,0.84999996,102,14,0.13700001,0.104,-0.09,-0.022000002,6.091667,0,nan,0.0,4,1,20
312207094,1634096879600070,340347492,1087570594,420993,393079,0.252,0.5820151,0.734,1.047,0.59999996,0.84999996,102,8,0.13900001,-0.091000006,0.105000004,0.78700006,0.9189637,0,nan,0.0,4,1,20
313208947,1634096880600070,340347493,1087570595,420310,392396,0.31500003,0.72390425,0.753,1.069,0.59999996,0.84999996,102,13,0.25800002,0.21200001,-0.14600001,0.21700001,0.32131493,0,nan,0.0,4,1,20
314211156,1634096881600070,340347504,1087570588,419746,391832,0.245,0.77092975,0.76100004,1.08,0.62,0.87,102,4,0.21400002,-0.21100001,0.039,0.731,0.9177271,0,nan,0.0,4,1,19
315207206,1634096882600070,340347506,1087570589,419423,391509,0.256,0.6002084,0.77000004,1.088,0.62,0.87,102,4,0.277,0.27600002,0.031000001,0.56700003,0.41556183,0,nan,0.0,4,1,19
316208106,1634096883600071,340347505,1087570579,418959,391044,0.256,0.6003276,0.78800005,1.1110001,0.62,0.87,102,4,0.171,-0.149,-0.083000004,0.257,0.41556183,0,nan,0.0,4,1,19
317212024,1634096884600071,340347504,1087570567,418843,390928,0.26000002,0.7288631,0.809,1.1350001,0.59999996,0.84999996,102,3,0.26500002,0.104,-0.24300002,0.115,1.5516481,0,nan,0.0,4,1,20
318212184,1634096885600071,340347509,1087570573,419091,391176,0.21000001,0.7289057,0.81100005,1.1350001,0.62,0.87,102,4,0.041,-0.012,0.039,-0.028,1.5516481,0,nan,0.0,4,1,19
319208985,1634096886600072,340347513,1087570580,419291,391377,0.22500001,0.72894543,0.809,1.133,0.62,0.87,102,11,0.054,0.053000003,0.012,0.001,1.5516481,0,nan,0.0,4,1,19
320206080,1634096887600072,340347528,1087570587,419426,391512,0.19100001,0.52226114,0.81700003,1.136,0.62,0.87,102,10,0.051000003,0.017,-0.049000002,-0.081,0.7940605,0,nan,0.0,4,1,19
321243259,1634096888600072,340347531,1087570589,419573,391659,0.186,0.52231455,0.81900007,1.139,0.62,0.87,102,10,0.041,0.009000001,-0.040000003,0.011000001,0.7940605,0,nan,0.0,4,1,19
322239943,1634096889600073,340347537,1087570587,419661,391747,0.16000001,0.5223702,0.82100004,1.141,0.62,0.87,102,4,0.055000003,0.006,-0.055000003,-0.0050000004,0.7940605,0,nan,0.0,4,1,19
323216959,1634096890600073,340347542,1087570587,419675,391760,0.23400001,0.5224412,0.83800006,1.1500001,0.59999996,0.84999996,122,9,0.024,0.004,0.023000002,-0.067,0.7940605,0,nan,0.0,4,1,20
324213084,1634096891600073,340347548,1087570592,419840,391926,0.25300002,0.5225003,0.84200007,1.1520001,0.65,0.95,122,8,0.036000002,0.028,-0.022000002,-0.047000002,0.7940605,0,nan,0.0,4,1,18
325212942,1634096892600074,340347554,1087570595,419925,392011,0.23300001,0.5225629,0.85,1.1550001,0.65,0.95,114,11,0.065000005,0.063,0.017,-0.081,0.7940605,0,nan,0.0,4,1,18
