timestamp,roll,pitch,yaw,thrust_body[0],thrust_body[1],thrust_body[2]
25341725,-0.5715854,-0.09843223,-0.0005499154,0.0,0.0,-0.0
25346698,-0.5715403,-0.098871924,0.0013305654,0.0,0.0,-0.0
25361625,-0.57255626,-0.09970601,0.001073253,0.0,0.0,-0.0
25381392,-0.5700042,-0.0984417,-0.000451461,0.0,0.0,-0.0
25401325,-0.5693226,-0.09670502,0.0012518751,0.0,0.0,-0.0
25421141,-0.57053035,-0.09374478,-0.00010491437,0.0,0.0,-0.0
25440981,-0.56853974,-0.094898656,-0.00054458,0.0,0.0,-0.0
25465773,-0.56965303,-0.097463496,0.00061355607,0.0,0.0,-0.0
25480676,-0.5677308,-0.10138737,0.00085437787,0.0,0.0,-0.0
25500595,-0.5672099,-0.09922634,0.0007363524,0.0,0.0,-0.0
25525453,-0.56484985,-0.095149405,0.0014521062,0.0,0.0,-0.0
25540404,-0.5705312,-0.094739646,-9.306592e-05,0.0,0.0,-0.0
25560363,-0.56133944,-0.0966732,0.0012838183,0.0,0.0,-0.0
25585044,-0.56178194,-0.09988485,0.0007427051,0.0,0.0,-0.0
25604929,-0.5671659,-0.10128687,-0.00023859578,0.0,0.0,-0.0
25619828,-0.5631705,-0.09830981,0.00030071256,0.0,0.0,-0.0
25644572,-0.5609674,-0.09667617,0.0013475484,0.0,0.0,-0.0
25664498,-0.5648256,-0.098354064,0.0003390582,0.0,0.0,-0.0
25679420,-0.5622081,-0.09815568,-0.0003649116,0.0,0.0,-0.0
25704168,-0.5604907,-0.1001197,7.13121e-05,0.0,0.0,-0.0
25724056,-0.562199,-0.10186377,0.0006812709,0.0,0.0,-0.0
25743884,-0.5640165,-0.10049546,0.00036142126,0.0,0.0,-0.0
25763746,-0.56036276,-0.09580537,-0.0006463957,0.0,0.0,-0.0
25783672,-0.56117874,-0.099725984,0.0005771396,0.0,0.0,-0.0
25803580,-0.5621443,-0.105068065,0.0015824581,0.0,0.0,-0.0
25823566,-0.56122303,-0.10165895,-0.00035459283,0.0,0.0,-0.0
25843287,-0.5588352,-0.097185686,-0.00062052236,0.0,0.0,-0.0
25863083,-0.562705,-0.10266256,0.0010168201,0.0,0.0,-0.0
25882958,-0.5627799,-0.107384175,0.0015041175,0.0,0.0,-0.0
25902918,-0.5606413,-0.099160224,-0.00096803135,0.0,0.0,-0.0
25922700,-0.5580205,-0.09495161,-0.0005884109,0.0,0.0,-0.0
25942563,-0.56315887,-0.10576112,0.001557183,0.0,0.0,-0.0
25962487,-0.5626103,-0.110120736,0.0008911281,0.0,0.0,-0.0
25982258,-0.559197,-0.09760351,-0.0014091382,0.0,0.0,-0.0
26002154,-0.559246,-0.09417358,0.00033142878,0.0,0.0,-0.0
26022059,-0.56387544,-0.10534091,0.0018243258,0.0,0.0,-0.0
26041925,-0.56323767,-0.108774185,0.00024699053,0.0,0.0,-0.0
26061732,-0.5592483,-0.09854453,-0.0014344836,0.0,0.0,-0.0
26081750,-0.55860096,-0.095612876,0.0007812893,0.0,0.0,-0.0
26101653,-0.56256664,-0.10424305,0.0018444306,0.0,0.0,-0.0
26121366,-0.56363773,-0.10642706,-6.138735e-05,0.0,0.0,-0.0
26141224,-0.5599218,-0.09898336,-0.0012419842,0.0,0.0,-0.0
26165996,-0.5578605,-0.09860971,-0.0008266861,0.0,0.0,-0.0
26181022,-0.5599425,-0.104509,0.0013213934,0.0,0.0,-0.0
26200937,-0.56350726,-0.10344328,-0.0003916408,0.0,0.0,-0.0
26225709,-0.56237656,-0.101199776,-0.0008926233,0.0,0.0,-0.0
26240540,-0.5565226,-0.100227244,0.0015732511,0.0,0.0,-0.0
26260438,-0.5585647,-0.10516781,0.0010992547,0.0,0.0,-0.0
26285224,-0.55953175,-0.1056676,0.00087345694,0.0,0.0,-0.0
26305093,-0.5604413,-0.09909993,-0.00087530306,0.0,0.0,-0.0
26319885,-0.55582786,-0.10222193,0.0011134436,0.0,0.0,-0.0
26344820,-0.55544454,-0.10444647,0.0014484309,0.0,0.0,-0.0
26364750,-0.5579685,-0.105168074,0.00084342476,0.0,0.0,-0.0
26379594,-0.5573629,-0.09497875,-0.00036779113,0.0,0.0,-0.0
26404490,-0.556033,-0.09565355,5.8726266e-05,0.0,0.0,-0.0
26424262,-0.5559675,-0.10624746,0.0016045503,0.0,0.0,-0.0
26444180,-0.5581769,-0.10794327,0.000679285,0.0,0.0,-0.0
26464113,-0.5569734,-0.0966566,-0.0010993639,0.0,0.0,-0.0
26484029,-0.55273914,-0.09340607,-2.9898241e-05,0.0,0.0,-0.0
26503792,-0.55426526,-0.10408665,0.0017688752,0.0,0.0,-0.0
26523638,-0.55867344,-0.109110124,0.0009581383,0.0,0.0,-0.0
26543439,-0.55635154,-0.10008318,-0.0009326434,0.0,0.0,-0.0
26563216,-0.5496621,-0.09433417,-0.0004638628,0.0,0.0,-0.0
26583089,-0.55303025,-0.10194171,0.0015504928,0.0,0.0,-0.0
26603078,-0.55897456,-0.10771834,0.0013602054,0.0,0.0,-0.0
26622971,-0.55569696,-0.101929314,-0.00068312424,0.0,0.0,-0.0
26642903,-0.5477746,-0.09644648,-0.0010806727,0.0,0.0,-0.0
26662696,-0.550955,-0.09931472,0.0012097107,0.0,0.0,-0.0
26682496,-0.55785805,-0.10384871,0.0019325905,0.0,0.0,-0.0
26702358,-0.5550776,-0.10227609,2.8493067e-05,0.0,0.0,-0.0
26722305,-0.54710996,-0.10002353,-0.00096397114,0.0,0.0,-0.0
26742127,-0.5490108,-0.10124342,0.0007720694,0.0,0.0,-0.0
26762059,-0.55568963,-0.103082135,0.0016636733,0.0,0.0,-0.0
26781808,-0.55315435,-0.099989116,-0.00013848842,0.0,0.0,-0.0
26801593,-0.5467938,-0.10006464,-0.000627795,0.0,0.0,-0.0
26821446,-0.54972464,-0.10492063,0.001228975,0.0,0.0,-0.0
26841363,-0.55372393,-0.1044395,0.0016345693,0.0,0.0,-0.0
26866212,-0.5531182,-0.10295059,0.0010745183,0.0,0.0,-0.0
26881164,-0.54615897,-0.09727106,-0.0008550567,0.0,0.0,-0.0
26901121,-0.55179644,-0.106128186,0.001518541,0.0,0.0,-0.0
26925860,-0.55304873,-0.107532844,0.0020437303,0.0,0.0,-0.0
26940704,-0.5465515,-0.097515054,-0.0013896109,0.0,0.0,-0.0
26960576,-0.54389024,-0.09342549,-0.0007129971,0.0,0.0,-0.0
26985450,-0.5452423,-0.094526336,1.1602378e-05,0.0,0.0,-0.0
27005404,-0.5529144,-0.105629764,0.0030227634,0.0,0.0,-0.0
27020208,-0.5463243,-0.10056059,-0.0019407986,0.0,0.0,-0.0
27044976,-0.54416835,-0.098431945,-0.0023628967,0.0,0.0,-0.0
27064801,-0.5443416,-0.09404038,-0.00040308601,0.0,0.0,-0.0
27079650,-0.5542397,-0.107564844,0.0020085534,0.0,0.0,-0.0
27104489,-0.5535987,-0.107319444,0.001085115,0.0,0.0,-0.0
27124458,-0.5454849,-0.101125136,-0.0020029452,0.0,0.0,-0.0
27144358,-0.54507,-0.096851915,-0.00033439795,0.0,0.0,-0.0
27164269,-0.55190665,-0.10077752,0.0023241197,0.0,0.0,-0.0
27184174,-0.55386466,-0.102076486,0.0010028271,0.0,0.0,-0.0
27203917,-0.54811275,-0.09868449,-0.0016965608,0.0,0.0,-0.0
27223828,-0.54798836,-0.10039988,7.8645964e-05,0.0,0.0,-0.0
27243747,-0.551943,-0.10546907,0.0026618433,0.0,0.0,-0.0
27263424,-0.5509408,-0.10044509,-7.99509e-05,0.0,0.0,-0.0
27283293,-0.54856694,-0.09276587,-0.001920375,0.0,0.0,-0.0
27303117,-0.5513352,-0.098505914,0.0009297728,0.0,0.0,-0.0
27323051,-0.554148,-0.10842782,0.002698619,0.0,0.0,-0.0
27342892,-0.5506424,-0.10412665,-0.000536956,0.0,0.0,-0.0
27362758,-0.54708385,-0.09407061,-0.0019039428,0.0,0.0,-0.0
27382608,-0.55082494,-0.09763242,0.0014958755,0.0,0.0,-0.0
27402500,-0.5551843,-0.10835288,0.0026007518,0.0,0.0,-0.0
27422526,-0.5519502,-0.105508454,-0.000832372,0.0,0.0,-0.0
27442397,-0.5474378,-0.095271945,-0.0020423203,0.0,0.0,-0.0
27462178,-0.5497145,-0.097308405,0.0013664259,0.0,0.0,-0.0
27482051,-0.55419946,-0.10640162,0.002737132,0.0,0.0,-0.0
27501940,-0.5537038,-0.105583906,-0.0003623782,0.0,0.0,-0.0
27521686,-0.5490694,-0.098309845,-0.0016159491,0.0,0.0,-0.0
27541511,-0.54830116,-0.098937504,0.0010354285,0.0,0.0,-0.0
27566414,-0.54963636,-0.10253691,0.0015261146,0.0,0.0,-0.0
27581268,-0.553736,-0.10214012,-0.00019039142,0.0,0.0,-0.0
27601192,-0.55068237,-0.09832962,-0.0010075072,0.0,0.0,-0.0
27626045,-0.55061024,-0.0979441,-0.00045574876,0.0,0.0,-0.0
27640879,-0.5516389,-0.10816642,0.0018601551,0.0,0.0,-0.0
27660749,-0.5514965,-0.09895156,-0.0012033397,0.0,0.0,-0.0
27685675,-0.5504155,-0.09741122,-0.0015830433,0.0,0.0,-0.0
27705607,-0.5498251,-0.09566352,-2.7797993e-05,0.0,0.0,-0.0
27720477,-0.55330473,-0.1115928,0.0015088811,0.0,0.0,-0.0
27745133,-0.55372703,-0.11086701,0.0007898706,0.0,0.0,-0.0
27765044,-0.55082023,-0.09990441,-0.0020265856,0.0,0.0,-0.0
27779987,-0.55085856,-0.1013421,0.0022765822,0.0,0.0,-0.0
27804810,-0.55197054,-0.10462522,0.0026318482,0.0,0.0,-0.0
27824628,-0.5558495,-0.11057979,0.001516107,0.0,0.0,-0.0
27844438,-0.55231285,-0.104226254,-0.0015865295,0.0,0.0,-0.0
27859338,-0.54935884,-0.10215664,0.0013115106,0.0,0.0,-0.0
27884227,-0.5504201,-0.104023054,0.0016421331,0.0,0.0,-0.0
27904081,-0.55497926,-0.10544351,0.0012057979,0.0,0.0,-0.0
27918970,-0.5488287,-0.10314226,-0.0007981287,0.0,0.0,-0.0
27943802,-0.54906595,-0.105194055,-0.00048182765,0.0,0.0,-0.0
27963701,-0.5492404,-0.11013864,0.0018213625,0.0,0.0,-0.0
27983726,-0.5516397,-0.10326373,0.00043651066,0.0,0.0,-0.0
28003531,-0.5498852,-0.09562357,-0.0009608437,0.0,0.0,-0.0
28023262,-0.54906434,-0.10129256,0.0005468956,0.0,0.0,-0.0
28043144,-0.5513063,-0.11163024,0.002248239,0.0,0.0,-0.0
28063001,-0.5523151,-0.10901041,-4.0223837e-05,0.0,0.0,-0.0
28082917,-0.54748756,-0.09894388,-0.0014742905,0.0,0.0,-0.0
28102695,-0.5455776,-0.09873939,0.00013609264,0.0,0.0,-0.0
28122519,-0.55109054,-0.10601105,0.0027324418,0.0,0.0,-0.0
28142456,-0.5536408,-0.107420675,0.00079491053,0.0,0.0,-0.0
28162324,-0.547211,-0.10398008,-0.0011931233,0.0,0.0,-0.0
28182233,-0.54388964,-0.10254274,-0.0005065389,0.0,0.0,-0.0
28201945,-0.54889745,-0.10266338,0.0017810797,0.0,0.0,-0.0
28221820,-0.55263406,-0.101854354,0.0007256706,0.0,0.0,-0.0
28241953,-0.5487362,-0.104396395,-0.00030375822,0.0,0.0,-0.0
28266555,-0.54781145,-0.10460633,-0.00028409003,0.0,0.0,-0.0
28281440,-0.54855573,-0.10689117,0.0014871376,0.0,0.0,-0.0
28301352,-0.5488389,-0.10018921,-0.00018737739,0.0,0.0,-0.0
28326233,-0.5471588,-0.099712364,-0.0005579443,0.0,0.0,-0.0
28341142,-0.54805297,-0.105574995,0.0012273969,0.0,0.0,-0.0
28361064,-0.55098116,-0.108722135,0.0017410163,0.0,0.0,-0.0
28385824,-0.55154777,-0.107417926,0.001511082,0.0,0.0,-0.0
28405711,-0.5469946,-0.10436664,-0.0007861554,0.0,0.0,-0.0
28420547,-0.5459643,-0.10191956,0.0011139668,0.0,0.0,-0.0
28440344,-0.55192864,-0.10600288,0.0021744024,0.0,0.0,-0.0
28465111,-0.5517632,-0.10446246,0.001794968,0.0,0.0,-0.0
28480025,-0.5430207,-0.10518812,-0.0010127906,0.0,0.0,-0.0
28499936,-0.5439589,-0.10104526,0.000452546,0.0,0.0,-0.0
28524915,-0.54418504,-0.10191427,0.0008172127,0.0,0.0,-0.0
28544711,-0.5470774,-0.10143471,0.0011415912,0.0,0.0,-0.0
28559608,-0.5437732,-0.10869036,-0.0006977593,0.0,0.0,-0.0
28584464,-0.5437916,-0.10885624,-0.0003213325,0.0,0.0,-0.0
28604292,-0.5440526,-0.10688066,0.0013565854,0.0,0.0,-0.0
28619154,-0.5430429,-0.10201355,9.947631e-05,0.0,0.0,-0.0
28644053,-0.54149866,-0.10285204,-0.00060531497,0.0,0.0,-0.0
28663952,-0.5426075,-0.10466859,0.00023594743,0.0,0.0,-0.0
28683644,-0.54518014,-0.106169164,0.0019582044,0.0,0.0,-0.0
28703511,-0.5435058,-0.107205205,0.0008700001,0.0,0.0,-0.0
28723336,-0.5384897,-0.105152756,-0.0010977848,0.0,0.0,-0.0
28743225,-0.5391365,-0.10089853,-8.648552e-06,0.0,0.0,-0.0
28763256,-0.54273707,-0.10155499,0.0023173043,0.0,0.0,-0.0
28783191,-0.5429341,-0.10852606,0.001761443,0.0,0.0,-0.0
28802960,-0.539889,-0.1103905,-0.0012348535,0.0,0.0,-0.0
28822811,-0.53838634,-0.102806404,-0.0005944604,0.0,0.0,-0.0
28842681,-0.54003596,-0.09791771,0.0013275903,0.0,0.0,-0.0
28862510,-0.5416144,-0.10388642,0.0016046758,0.0,0.0,-0.0
28882277,-0.5411354,-0.10985081,-0.0005493063,0.0,0.0,-0.0
28902208,-0.538962,-0.105143785,-0.00024612556,0.0,0.0,-0.0
28922041,-0.5378576,-0.09937259,0.0011387764,0.0,0.0,-0.0
28941887,-0.5377217,-0.101671934,0.0008072371,0.0,0.0,-0.0
28966689,-0.53660125,-0.10337718,0.00038059818,0.0,0.0,-0.0
28981554,-0.53989434,-0.10267117,-7.077117e-05,0.0,0.0,-0.0
29001459,-0.53887284,-0.10256976,0.0013832244,0.0,0.0,-0.0
29021340,-0.53575194,-0.1041486,0.00056507846,0.0,0.0,-0.0
29041325,-0.5355294,-0.100627355,-0.00083817536,0.0,0.0,-0.0
29061274,-0.53752255,-0.09663083,0.00043548344,0.0,0.0,-0.0
29081026,-0.53743774,-0.101390034,0.0025877086,0.0,0.0,-0.0
29105798,-0.53753626,-0.10227929,0.0024063091,0.0,0.0,-0.0
29120756,-0.5358274,-0.10308103,-0.001339842,0.0,0.0,-0.0
29140569,-0.53587294,-0.09308095,-0.0003376247,0.0,0.0,-0.0
29165425,-0.5354613,-0.093270406,0.00026451336,0.0,0.0,-0.0
29180297,-0.53750294,-0.108192414,0.00090690283,0.0,0.0,-0.0
29200164,-0.5375639,-0.10765766,-0.00089515024,0.0,0.0,-0.0
29224889,-0.5380293,-0.104963124,-0.0008507733,0.0,0.0,-0.0
29244766,-0.53484285,-0.0972077,0.00060565607,0.0,0.0,-0.0
29259692,-0.53704035,-0.10340516,0.0007087878,0.0,0.0,-0.0
29284582,-0.5379792,-0.10446359,0.00035157628,0.0,0.0,-0.0
29304473,-0.53987485,-0.101964734,-0.00058309507,0.0,0.0,-0.0
29319439,-0.5336525,-0.10364847,0.0017395625,0.0,0.0,-0.0
29344263,-0.53400165,-0.10526115,0.001299709,0.0,0.0,-0.0
29364032,-0.53632617,-0.1040556,-0.000542296,0.0,0.0,-0.0
29383857,-0.5381502,-0.09737194,-0.00063273613,0.0,0.0,-0.0
29403805,-0.5374525,-0.09917714,0.0017982124,0.0,0.0,-0.0
29423644,-0.5360108,-0.10948992,0.0010464513,0.0,0.0,-0.0
29443472,-0.53788334,-0.109799325,-0.0005809826,0.0,0.0,-0.0
29463282,-0.5370056,-0.09804317,-0.0010292085,0.0,0.0,-0.0
29483155,-0.5353635,-0.09625214,0.0015727667,0.0,0.0,-0.0
29503016,-0.5371206,-0.10812549,0.00199578,0.0,0.0,-0.014485207
29522888,-0.5403777,-0.11179648,-4.4559012e-05,0.0,0.0,-0.014485207
29542771,-0.5376778,-0.10194668,-0.0010559757,0.0,0.0,-0.02172781
29562678,-0.5335249,-0.09739871,0.00043869665,0.0,0.0,-0.030177515
29582578,-0.5350971,-0.105322205,0.0012794826,0.0,0.0,-0.047076922
29602659,-0.54173106,-0.109310135,0.00064540433,0.0,0.0,-0.047076922
29622220,-0.5416128,-0.10439246,-0.00032839229,0.0,0.0,-0.048284024
29642080,-0.5367749,-0.101285286,-0.0005553914,0.0,0.0,-0.049491122
29661985,-0.53308976,-0.10557671,0.0009407545,0.0,0.0,-0.053112425
29681940,-0.5338174,-0.10905538,0.0009818916,0.0,0.0,-0.054319523
29701717,-0.5372541,-0.10417576,0.0006182149,0.0,0.0,-0.054319523
29721596,-0.53960437,-0.09645401,0.0002777933,0.0,0.0,-0.054319523
29741386,-0.5413136,-0.09613888,0.0016021102,0.0,0.0,-0.053112425
29761246,-0.5432368,-0.10554778,0.002658904,0.0,0.0,-0.054319523
29781128,-0.5433085,-0.116428375,0.0004727248,0.0,0.0,-0.055526625
29806022,-0.5462374,-0.11304575,0.0019316991,0.0,0.0,-0.05794083
29820909,-0.5342794,-0.11147449,-0.0031201032,0.0,0.0,-0.059147928
29840800,-0.53218293,-0.10053173,-0.0013978041,0.0,0.0,-0.08087574
29865737,-0.5331462,-0.10804084,-0.0026619197,0.0,0.0,-0.098982245
29880441,-0.5430762,-0.09874487,0.0033925455,0.0,0.0,-0.17566864
29900302,-0.54529864,-0.104381174,0.0017894885,0.0,0.0,-0.17566864
29925183,-0.5460237,-0.10553045,0.0026438567,0.0,0.0,-0.2082367
29945066,-0.5476204,-0.11307026,0.0011780511,0.0,0.0,-0.2082367
29960028,-0.5420257,-0.101124965,0.0020293365,0.0,0.0,-0.2082367
29984774,-0.53648525,-0.11293708,0.0029352114,0.0,0.0,-0.22960947
30004629,-0.52661234,-0.11186719,0.0030569865,0.0,0.0,-0.23164497
30019459,-0.52785075,-0.10650994,-0.0003252013,0.0,0.0,-0.23266272
30044313,-0.5392297,-0.11152889,0.004084796,0.0,0.0,-0.23266272
30064225,-0.5330819,-0.11650111,0.0036427719,0.0,0.0,-0.23266272
30084153,-0.5368839,-0.10937174,0.0035956162,0.0,0.0,-0.23266272
30103897,-0.5366925,-0.11221131,0.00044494888,0.0,0.0,-0.23266272
30123845,-0.53121096,-0.1089795,0.004147515,0.0,0.0,-0.23266272
30143716,-0.5370952,-0.1130937,0.0053525646,0.0,0.0,-0.23266272
30163546,-0.5290185,-0.11218816,0.005759249,0.0,0.0,-0.23266272
30183457,-0.53472817,-0.112377785,0.006033124,0.0,0.0,-0.23266272
30203272,-0.5325051,-0.11389611,0.0052935467,0.0,0.0,-0.23164497
30223133,-0.5328233,-0.11130296,0.0045414614,0.0,0.0,-0.23164497
30242969,-0.5305109,-0.1110156,0.0030044322,0.0,0.0,-0.23164497
30263045,-0.5250067,-0.108987,0.003925652,0.0,0.0,-0.23164497
30282710,-0.527708,-0.11101672,0.0057298793,0.0,0.0,-0.23164497
30302574,-0.5259355,-0.114102826,0.005673865,0.0,0.0,-0.23164497
30322340,-0.5255061,-0.11389927,0.0049119843,0.0,0.0,-0.23164497
30342212,-0.5277108,-0.11268641,0.0030060231,0.0,0.0,-0.23164497
30362112,-0.53104013,-0.111327015,0.003197614,0.0,0.0,-0.23062722
30382044,-0.5219008,-0.11398253,0.0039752,0.0,0.0,-0.23062722
30401990,-0.52465737,-0.11219201,0.0040539983,0.0,0.0,-0.23062722
30421790,-0.5276099,-0.11879635,0.00441892,0.0,0.0,-0.22960947
30441680,-0.5334174,-0.11715556,0.0049958383,0.0,0.0,-0.22960947
30461485,-0.5290964,-0.11694284,0.002933331,0.0,0.0,-0.22960947
30481339,-0.527323,-0.11449468,0.002381995,0.0,0.0,-0.22960947
30506156,-0.5313506,-0.1156291,0.004740163,0.0,0.0,-0.23266272
30521112,-0.5222793,-0.11848722,0.0019120628,0.0,0.0,-0.23266272
30540946,-0.5166808,-0.12091768,0.0026167915,0.0,0.0,-0.23266272
30565713,-0.52720314,-0.11627378,0.0009778416,0.0,0.0,-0.23368047
30580547,-0.5261684,-0.120904386,0.0032913578,0.0,0.0,-0.24996449
30600430,-0.5276618,-0.11516173,0.0017746406,0.0,0.0,-0.25912425
30625242,-0.51895154,-0.11360997,0.00025081396,0.0,0.0,-0.26726627
30645267,-0.51774675,-0.1176715,0.0018732691,0.0,0.0,-0.27337277
30660199,-0.5175653,-0.11990224,0.0010176306,0.0,0.0,-0.27235502
30685035,-0.5174459,-0.11722791,0.0021468885,0.0,0.0,-0.27235502
30704879,-0.51770616,-0.117831215,-0.0021822718,0.0,0.0,-0.27235502
30719767,-0.5178907,-0.12344831,-0.0012859454,0.0,0.0,-0.27235502
30744598,-0.5039835,-0.12603723,-0.0034827017,0.0,0.0,-0.27235502
30764351,-0.50205123,-0.13155536,-0.0012134241,0.0,0.0,-0.27337277
30784146,-0.5006931,-0.13251545,-0.00063465786,0.0,0.0,-0.27337277
30804033,-0.50219434,-0.13252516,-0.004108689,0.0,0.0,-0.27337277
30823876,-0.50108427,-0.12664863,-0.0037185363,0.0,0.0,-0.27337277
30843921,-0.4914583,-0.13238364,-0.0037245194,0.0,0.0,-0.27337277
30863662,-0.49102885,-0.14049508,-0.0039166156,0.0,0.0,-0.27337277
30883514,-0.4934,-0.1397197,-0.0036775554,0.0,0.0,-0.27337277
30903423,-0.49937487,-0.14152338,-0.0045514824,0.0,0.0,-0.27337277
30923325,-0.50065106,-0.13869049,-0.0050203525,0.0,0.0,-0.27337277
30943353,-0.490407,-0.1390127,-0.004782407,0.0,0.0,-0.27337277
30963031,-0.48752284,-0.13610071,-0.0043415003,0.0,0.0,-0.27235502
30982895,-0.49510974,-0.13506033,-0.0039706584,0.0,0.0,-0.27235502
31002776,-0.5036148,-0.13902432,-0.0070882123,0.0,0.0,-0.27235502
31022710,-0.4998095,-0.13337642,-0.007310092,0.0,0.0,-0.27235502
31042454,-0.48433524,-0.13720798,-0.0069079055,0.0,0.0,-0.27235502
31062322,-0.47062036,-0.14021893,-0.006500171,0.0,0.0,-0.27235502
31082230,-0.45218924,-0.1384139,-0.0054054796,0.0,0.0,-0.27235502
31102083,-0.45280176,-0.13905177,-0.008317718,0.0,0.0,-0.27235502
31121938,-0.4146879,-0.13357794,-0.010156243,0.0,0.0,-0.27235502
31141734,-0.312197,-0.13528183,-0.00848419,0.0,0.0,-0.27235502
31161563,-0.26503393,-0.13556391,-0.0074877255,0.0,0.0,-0.27235502
31181435,-0.27183592,-0.13222063,-0.007363542,0.0,0.0,-0.27235502
31206476,-0.27089036,-0.13709581,-0.008767278,0.0,0.0,-0.27235502
31221251,-0.26994234,-0.130098,-0.00966799,0.0,0.0,-0.27235502
31241210,-0.20882851,-0.13327251,-0.009840948,0.0,0.0,-0.27235502
31266028,-0.12706415,-0.13552128,-0.010125486,0.0,0.0,-0.27235502
31280881,-0.089354575,-0.13446885,-0.008121119,0.0,0.0,-0.27337277
31300759,-0.082366996,-0.13665724,-0.0107997,0.0,0.0,-0.27337277
31325585,-0.0022966817,-0.13934444,-0.00880001,0.0,0.0,-0.27337277
31345435,-0.017256724,-0.12091074,-0.0090445755,0.0,0.0,-0.27337277
31360318,-0.020434814,-0.12292121,-0.010484926,0.0,0.0,-0.27337277
31385070,-0.030503284,-0.11254611,-0.012492668,0.0,0.0,-0.27337277
31404901,-0.028510658,-0.10969679,-0.010345726,0.0,0.0,-0.27235502
31419769,-0.038794607,-0.11135259,-0.008814608,0.0,0.0,-0.27235502
31444646,-0.043387283,-0.115308985,-0.010561459,0.0,0.0,-0.27235502
31464668,-0.008019323,-0.12692276,-0.011904383,0.0,0.0,-0.27235502
31484600,-0.004444508,-0.11718779,-0.012354839,0.0,0.0,-0.27235502
31504361,0.027385935,-0.11387847,-0.01402534,0.0,0.0,-0.2713373
31524200,0.044887833,-0.11467769,-0.012494186,0.0,0.0,-0.27031952
31544021,0.042814646,-0.11499812,-0.012708362,0.0,0.0,-0.27031952
31559034,0.040825058,-0.11915045,-0.012358456,0.0,0.0,-0.27031952
31583738,0.042896006,-0.11724151,-0.014183426,0.0,0.0,-0.27031952
31603675,0.074669085,-0.11358554,-0.013493923,0.0,0.0,-0.27031952
31623426,0.08611395,-0.12161591,-0.013434869,0.0,0.0,-0.2713373
31643279,0.082203425,-0.12030949,-0.01163943,0.0,0.0,-0.2713373
31663105,0.096178606,-0.1193354,-0.011649072,0.0,0.0,-0.2713373
31682980,0.121683516,-0.104586706,-0.011328324,0.0,0.0,-0.2713373
31702814,0.11440788,-0.10660626,-0.012140343,0.0,0.0,-0.2713373
31722823,0.11628299,-0.10642318,-0.010329034,0.0,0.0,-0.2713373
31742788,0.10050648,-0.10774864,-0.010118238,0.0,0.0,-0.2713373
31762574,0.11621274,-0.11020357,-0.010707913,0.0,0.0,-0.2713373
31782445,0.12536445,-0.11266216,-0.010291671,0.0,0.0,-0.2713373
31802279,0.12682441,-0.10807768,-0.009496899,0.0,0.0,-0.2713373
31822129,0.09306486,-0.10660349,-0.010863107,0.0,0.0,-0.2713373
31841909,0.110984415,-0.10391377,-0.009975748,0.0,0.0,-0.2713373
31861801,0.09149391,-0.10240929,-0.008918532,0.0,0.0,-0.2713373
31881596,0.08749356,-0.112545416,-0.010232573,0.0,0.0,-0.2713373
31906462,0.0845186,-0.109837115,-0.011401125,0.0,0.0,-0.27031952
31921391,0.085761815,-0.11252416,-0.012837202,0.0,0.0,-0.27031952
31941306,0.08850108,-0.105360575,-0.0095468545,0.0,0.0,-0.27031952
31966106,0.08198257,-0.10285971,-0.009958028,0.0,0.0,-0.27031952
31981009,0.08120699,-0.10018884,-0.009604159,0.0,0.0,-0.26930177
32000924,0.08360061,-0.11069496,-0.01072399,0.0,0.0,-0.26930177
32025742,0.113484524,-0.110798724,-0.01097229,0.0,0.0,-0.2713373
32045631,0.13960761,-0.11355683,-0.0108756805,0.0,0.0,-0.27235502
32060522,0.1384031,-0.11602645,-0.009553259,0.0,0.0,-0.27337277
32085478,0.14470798,-0.10217214,-0.010947216,0.0,0.0,-0.2774438
32105095,0.16204967,-0.1059465,-0.009329474,0.0,0.0,-0.29271007
32119999,0.16369368,-0.09931137,-0.0073128203,0.0,0.0,-0.29271007
32139823,0.166163,-0.10513629,-0.007317177,0.0,0.0,-0.2957633
32164647,0.17076285,-0.11082697,-0.007930647,0.0,0.0,-0.2957633
32184660,0.17386003,-0.10617538,-0.0093637705,0.0,0.0,-0.2957633
32199518,0.18859282,-0.104896806,-0.008780586,0.0,0.0,-0.2957633
32224321,0.18696745,-0.105859086,-0.007083821,0.0,0.0,-0.29678106
32244161,0.18477717,-0.09935029,-0.007904245,0.0,0.0,-0.2977988
32259063,0.18670994,-0.0971006,-0.007641655,0.0,0.0,-0.29881656
32284065,0.1851767,-0.09901394,-0.005890719,0.0,0.0,-0.29881656
32303801,0.18164332,-0.10248408,-0.006654231,0.0,0.0,-0.29881656
32323630,0.17717956,-0.099994004,-0.0078872265,0.0,0.0,-0.29881656
32343679,0.17430742,-0.09703165,-0.006538838,0.0,0.0,-0.29881656
32363476,0.18607669,-0.104868114,-0.0071959635,0.0,0.0,-0.29983434
32383230,0.17216803,-0.09732761,-0.006082568,0.0,0.0,-0.29983434
32403115,0.17503405,-0.104903966,-0.0077661006,0.0,0.0,-0.29983434
32423039,0.17569312,-0.10051987,-0.006958431,0.0,0.0,-0.29983434
32442879,0.1643486,-0.106251456,-0.006066664,0.0,0.0,-0.29983434
32462687,0.15517306,-0.10650297,-0.005695487,0.0,0.0,-0.29983434
32482642,0.15164207,-0.10562955,-0.0077951974,0.0,0.0,-0.29983434
32502488,0.16788638,-0.10248747,-0.007379554,0.0,0.0,-0.30085206
32522329,0.15920202,-0.10304043,-0.0050280904,0.0,0.0,-0.30085206
32542349,0.16887514,-0.10326072,-0.004035481,0.0,0.0,-0.3018698
32562178,0.16060013,-0.09263882,-0.006355435,0.0,0.0,-0.31102958
32581829,0.16334957,-0.10057519,-0.0072030695,0.0,0.0,-0.31611836
32606733,0.16195178,-0.10449937,-0.0054479404,0.0,0.0,-0.32222486
32621689,0.16624798,-0.10635999,-0.005311934,0.0,0.0,-0.3232426
32641496,0.16680932,-0.0946909,-0.0046147127,0.0,0.0,-0.32426035
32666446,0.15389949,-0.09689081,-0.0058246977,0.0,0.0,-0.32629588
32681149,0.1516661,-0.10138015,-0.0051045516,0.0,0.0,-0.32629588
32701061,0.15432864,-0.100485586,-0.0047698463,0.0,0.0,-0.32629588
32720861,0.1224212,-0.092427365,-0.004827056,0.0,0.0,-0.32629588
32745846,0.11570188,-0.097059466,-0.0059711887,0.0,0.0,-0.32833135
32760666,0.102208674,-0.0985738,-0.004650509,0.0,0.0,-0.3273136
32780523,0.0640318,-0.10662662,-0.0056210742,0.0,0.0,-0.32833135
32805420,0.016970295,-0.10132544,-0.0045269947,0.0,0.0,-0.33138463
32820281,0.019001601,-0.09604794,-0.005511124,0.0,0.0,-0.3334201
32840100,0.04141376,-0.09154156,-0.005793436,0.0,0.0,-0.33443788
32864980,0.047329117,-0.091927916,-0.0046439134,0.0,0.0,-0.33647338
32884838,0.04629672,-0.09713897,-0.004709923,0.0,0.0,-0.35886392
32899747,0.04941389,-0.09804691,-0.0037866116,0.0,0.0,-0.3670059
32924650,0.03696837,-0.09493336,-0.004949633,0.0,0.0,-0.3720947
32944275,0.027435921,-0.09525426,-0.005743262,0.0,0.0,-0.37514794
32959185,0.028179768,-0.083046764,-0.0054703937,0.0,0.0,-0.37514794
32984003,0.022225227,-0.09051383,-0.0037880256,0.0,0.0,-0.37514794
33004001,0.019252686,-0.092162624,-0.0043740496,0.0,0.0,-0.37514794
33023870,0.0039094435,-0.09180348,-0.0059682247,0.0,0.0,-0.37514794
33043697,-0.014509876,-0.09545716,-0.006985036,0.0,0.0,-0.3761657
33063570,-0.038668767,-0.093071654,-0.007171072,0.0,0.0,-0.37514794
33083484,-0.09563237,-0.09494747,-0.006537444,0.0,0.0,-0.3761657
33103420,-0.07618962,-0.09734857,-0.006402083,0.0,0.0,-0.3802367
33123203,-0.063939095,-0.09505411,-0.0063874037,0.0,0.0,-0.3843077
33143021,-0.06580652,-0.09628707,-0.0062172385,0.0,0.0,-0.3843077
33162886,-0.06656464,-0.096078426,-0.007600028,0.0,0.0,-0.38634318
33182775,-0.07827496,-0.09705278,-0.0063891164,0.0,0.0,-0.38736096
33202556,-0.063982174,-0.09743318,-0.0063433275,0.0,0.0,-0.38736096
33222378,-0.06812491,-0.09915936,-0.008014838,0.0,0.0,-0.3883787
33242325,-0.06804354,-0.09325556,-0.00714379,0.0,0.0,-0.3904142
33262209,-0.07172857,-0.097336516,-0.008074991,0.0,0.0,-0.3904142
33282114,-0.06251716,-0.09524921,-0.008653273,0.0,0.0,-0.3904142
33301912,-0.06338225,-0.08762145,-0.009023608,0.0,0.0,-0.3904142
33321751,-0.05531794,-0.08840124,-0.009024585,0.0,0.0,-0.3904142
33341685,-0.06058369,-0.08812252,-0.009547535,0.0,0.0,-0.39143196
33361693,-0.041485913,-0.09027136,-0.008532766,0.0,0.0,-0.3924497
33381461,-0.03323022,-0.09790295,-0.008555923,0.0,0.0,-0.40059173
33401315,-0.03451213,-0.09944667,-0.010303108,0.0,0.0,-0.40059173
33421145,-0.01736912,-0.096767664,-0.009458254,0.0,0.0,-0.40059173
33445862,-0.01800663,-0.09387192,-0.009470161,0.0,0.0,-0.40059173
33460860,-0.012974111,-0.09470834,-0.009504227,0.0,0.0,-0.40059173
33480582,-0.023496177,-0.089665666,-0.008116894,0.0,0.0,-0.40059173
33505541,-0.026062593,-0.096795,-0.0075924797,0.0,0.0,-0.40059173
33520387,-0.0102664875,-0.09705688,-0.0093599325,0.0,0.0,-0.40059173
33540242,-0.01601123,-0.09714869,-0.009242163,0.0,0.0,-0.40262723
33565052,-0.017218072,-0.099245586,-0.009811897,0.0,0.0,-0.40669823
33584924,-0.004029906,-0.099357046,-0.00975239,0.0,0.0,-0.40771598
33599827,0.00453245,-0.097845264,-0.0100096585,0.0,0.0,-0.40771598
33624810,0.031167563,-0.0902689,-0.009884735,0.0,0.0,-0.40771598
33644611,0.027472354,-0.09088544,-0.011187773,0.0,0.0,-0.41076925
33659506,0.016620519,-0.084466815,-0.012075681,0.0,0.0,-0.41076925
33684400,0.023016913,-0.0886671,-0.011086773,0.0,0.0,-0.41076925
33704174,0.046613317,-0.09141472,-0.009813979,0.0,0.0,-0.41178697
33723939,0.042486213,-0.095083036,-0.009738595,0.0,0.0,-0.41178697
33743773,0.042406075,-0.0977384,-0.010343798,0.0,0.0,-0.41484022
33763708,0.03593378,-0.0933072,-0.010411977,0.0,0.0,-0.42501774
33783603,0.03332465,-0.09460601,-0.009787468,0.0,0.0,-0.43824852
33803429,0.030117849,-0.09404194,-0.010713319,0.0,0.0,-0.44435504
33823289,0.031306475,-0.092833884,-0.010176466,0.0,0.0,-0.4555503
33843181,0.035045937,-0.08998267,-0.010795397,0.0,0.0,-0.46674556
33863102,0.044233344,-0.08500743,-0.012052023,0.0,0.0,-0.4677633
33883036,0.045662984,-0.08416728,-0.009882821,0.0,0.0,-0.47081658
33902988,0.047515456,-0.08062786,-0.011527677,0.0,0.0,-0.47081658
33922711,0.04670977,-0.08348289,-0.011068899,0.0,0.0,-0.47081658
33942573,0.053405903,-0.09151887,-0.01247126,0.0,0.0,-0.47183433
33962477,0.06263833,-0.09306811,-0.010938048,0.0,0.0,-0.47590533
33982222,0.07061089,-0.09176614,-0.011365277,0.0,0.0,-0.48099408
34002046,0.0759541,-0.09058786,-0.0122097805,0.0,0.0,-0.48099408
34021972,0.08505403,-0.08932635,-0.014917309,0.0,0.0,-0.48608282
34041849,0.12021453,-0.087084055,-0.015553602,0.0,0.0,-0.48608282
34061663,0.13040315,-0.07840427,-0.015543258,0.0,0.0,-0.48608282
34081505,0.129434,-0.0733592,-0.016056152,0.0,0.0,-0.4871006
34101364,0.12486513,-0.06304291,-0.016446669,0.0,0.0,-0.4871006
34121240,0.14385822,-0.051302645,-0.020094143,0.0,0.0,-0.4871006
34146171,0.18073079,-0.037183054,-0.022836642,0.0,0.0,-0.4871006
34161126,0.1936564,-0.029738884,-0.02555908,0.0,0.0,-0.4871006
34180864,0.20248647,-0.025383689,-0.028584043,0.0,0.0,-0.4871006
34205761,0.23331654,-0.013148708,-0.03250969,0.0,0.0,-0.48608282
34220699,0.26717386,-0.008644387,-0.03561825,0.0,0.0,-0.4871006
34240508,0.27129373,0.0016918979,-0.037739247,0.0,0.0,-0.4871006
34265416,0.3185528,0.0072347336,-0.041152604,0.0,0.0,-0.48608282
34285040,0.37155,0.008568411,-0.044046707,0.0,0.0,-0.48608282
34299956,0.3664167,0.0057619447,-0.04609142,0.0,0.0,-0.48608282
34324773,0.36583346,-0.0051442278,-0.04932399,0.0,0.0,-0.4871006
34344707,0.33247626,-0.005610495,-0.05222798,0.0,0.0,-0.4871006
34359590,0.30816302,-0.00075554,-0.052892867,0.0,0.0,-0.48608282
34384416,0.26034045,0.014480644,-0.05613722,0.0,0.0,-0.48608282
34404341,0.2568554,-0.0020645836,-0.05994291,0.0,0.0,-0.48608282
34424233,0.2577406,-0.004684835,-0.066181414,0.0,0.0,-0.48608282
34444304,0.2697127,-0.016514998,-0.06927635,0.0,0.0,-0.48608282
34463967,0.27541047,0.005056129,-0.07172408,0.0,0.0,-0.48608282
34483835,0.2566477,0.043329023,-0.07580743,0.0,0.0,-0.49015385
34503703,0.23733532,0.058823217,-0.07735293,0.0,0.0,-0.49015385
34523571,0.22799353,0.071013406,-0.075679585,0.0,0.0,-0.49218935
34543331,0.18359667,0.08837231,-0.07240994,0.0,0.0,-0.49727812
34563136,0.14282563,0.08123378,-0.068559825,0.0,0.0,-0.49829587
34582998,0.14052747,0.10447692,-0.0642719,0.0,0.0,-0.4993136
34602935,0.12110901,0.16477367,-0.063660465,0.0,0.0,-0.4993136
34622779,0.108905315,0.1858038,-0.06201486,0.0,0.0,-0.50033134
34642628,0.107905135,0.19851197,-0.059339643,0.0,0.0,-0.5013491
34662492,0.08963034,0.21298781,-0.057471782,0.0,0.0,-0.5023669
34682404,0.1046772,0.19030103,-0.053441618,0.0,0.0,-0.5023669
34702416,0.10324827,0.16631891,-0.0491355,0.0,0.0,-0.5023669
34722246,0.106552735,0.13980743,-0.044341683,0.0,0.0,-0.50440234
34742077,0.0898455,0.13558483,-0.040845465,0.0,0.0,-0.50745565
34761926,0.064647,0.122952215,-0.038782418,0.0,0.0,-0.50949115
34781770,0.048763845,0.11341044,-0.036470667,0.0,0.0,-0.50949115
34801555,0.029404072,0.10558941,-0.034620855,0.0,0.0,-0.5128994
34821355,0.021689737,0.09973541,-0.03348195,0.0,0.0,-0.5186982
34846353,0.029493878,0.10114874,-0.030472906,0.0,0.0,-0.519858
34861146,0.03680838,0.09987429,-0.02939343,0.0,0.0,-0.519858
34881020,0.054316085,0.08447279,-0.027417757,0.0,0.0,-0.519858
34905840,0.064803235,0.08301316,-0.026225157,0.0,0.0,-0.5210178
34920729,0.064615786,0.09006745,-0.023892991,0.0,0.0,-0.52449703
34940576,0.056724615,0.0950238,-0.022869255,0.0,0.0,-0.52913606
34965579,0.06134224,0.0987778,-0.020571701,0.0,0.0,-0.5326154
34985389,0.0739996,0.10012235,-0.018796096,0.0,0.0,-0.5349349
35000277,0.058644243,0.090269625,-0.019450735,0.0,0.0,-0.53957397
35025176,0.04955001,0.08127473,-0.017041428,0.0,0.0,-0.544213
35044893,0.041087065,0.057083778,-0.015237825,0.0,0.0,-0.544213
35059751,0.048804592,0.05395594,-0.015554311,0.0,0.0,-0.544213
35084602,0.027698359,0.014909786,-0.014111666,0.0,0.0,-0.544213
35104484,0.0016800953,-0.010006658,-0.01269038,0.0,0.0,-0.544213
35124525,0.004280194,-0.017370857,-0.011667413,0.0,0.0,-0.5453728
35144282,-0.0014041798,-0.059902675,-0.010524746,0.0,0.0,-0.5453728
35164105,-0.0028489379,-0.10787947,-0.009144992,0.0,0.0,-0.5453728
35183963,-0.0078320075,-0.113750905,-0.008908631,0.0,0.0,-0.5465326
35198924,-0.015978271,-0.173386,-0.00698663,0.0,0.0,-0.5500118
35223799,-0.020202054,-0.16851583,-0.0062866188,0.0,0.0,-0.5511716
35243745,-0.04610499,-0.14927016,-0.0065380405,0.0,0.0,-0.5534911
35263473,-0.036232356,-0.12068358,-0.0059570293,0.0,0.0,-0.5534911
35283354,-0.06586129,-0.08971528,-0.0056370473,0.0,0.0,-0.5546509
35303328,-0.066706195,-0.06921953,-0.004706673,0.0,0.0,-0.55581063
35323035,-0.059381038,-0.053298596,-0.0044104364,0.0,0.0,-0.55581063
35342800,-0.06934195,-0.04565163,-0.0047505097,0.0,0.0,-0.55581063
35362635,-0.09524103,-0.042426743,-0.0036859927,0.0,0.0,-0.55581063
35382572,-0.08934695,-0.03568274,-0.009381202,0.0,0.0,-0.55581063
35402377,-0.09000958,-0.03115391,-0.0038807546,0.0,0.0,-0.55581063
35422285,-0.07482556,-0.025966773,-0.0043481737,0.0,0.0,-0.55581063
35442146,-0.056813516,-0.013891959,-0.005746882,0.0,0.0,-0.55581063
35462041,-0.046822894,-0.013283828,-0.005608114,0.0,0.0,-0.55581063
35481971,-0.053537693,-0.083915204,-0.012761272,0.0,0.0,-0.5534911
35501808,-0.063736975,-0.14598425,-0.01356015,0.0,0.0,-0.5523313
35521835,-0.055132266,-0.1476176,-0.015002149,0.0,0.0,-0.5511716
35546534,-0.017796004,-0.1477744,-0.017573467,0.0,0.0,-0.5500118
35561548,-0.0046658707,-0.1281632,-0.018851621,0.0,0.0,-0.5500118
35581276,-0.0010436357,-0.16416581,-0.026966738,0.0,0.0,-0.5465326
35606225,0.010077205,-0.1767539,-0.029894188,0.0,0.0,-0.5465326
35620891,0.013552603,-0.15699618,-0.03212883,0.0,0.0,-0.5465326
35640772,-0.0096980175,-0.15030724,-0.03484862,0.0,0.0,-0.5465326
35665555,-0.054114647,-0.22508726,-0.029241141,0.0,0.0,-0.5465326
35685530,-0.05630637,-0.25117177,-0.030692007,0.0,0.0,-0.5465326
35700375,-0.054522388,-0.2476992,-0.032118794,0.0,0.0,-0.544213
35725239,-0.03299355,-0.2471681,-0.03442222,0.0,0.0,-0.5418935
35745064,-0.01501421,-0.25275788,-0.037062783,0.0,0.0,-0.5418935
35759985,-0.004895524,-0.24505083,-0.03850852,0.0,0.0,-0.5418935
35780002,0.008289448,-0.22733489,-0.03401971,0.0,0.0,-0.5418935
35804707,0.019248892,-0.17996982,-0.036333334,0.0,0.0,-0.5418935
35824567,0.019119313,-0.13603953,-0.03595653,0.0,0.0,-0.5418935
35839409,0.02574185,-0.106188186,-0.03630536,0.0,0.0,-0.5418935
35864425,0.035854127,-0.065062195,-0.035331048,0.0,0.0,-0.5418935
35884132,0.04269403,-0.05791698,-0.034997657,0.0,0.0,-0.5418935
35899023,0.0499777,-0.044753302,-0.03517811,0.0,0.0,-0.5418935
35923835,0.046820495,-0.022016361,-0.032168448,0.0,0.0,-0.5418935
35943676,0.04353639,-0.03986817,-0.030522104,0.0,0.0,-0.5418935
35963544,0.038381506,-0.056002624,-0.02951983,0.0,0.0,-0.5407337
35983404,0.033639014,-0.05344485,-0.028069934,0.0,0.0,-0.5407337
36003422,0.034250468,-0.043777015,-0.02722646,0.0,0.0,-0.5384142
36023224,0.03189627,-0.027408576,-0.026184794,0.0,0.0,-0.5384142
36043248,0.029454166,-0.012289091,-0.02422585,0.0,0.0,-0.5384142
36062872,0.02720157,0.0029512518,-0.022329874,0.0,0.0,-0.5384142
36082739,0.023906669,0.016961938,-0.020578356,0.0,0.0,-0.5384142
36102604,0.021418989,0.023799276,-0.018328225,0.0,0.0,-0.5384142
36122531,0.01824188,0.02083629,-0.015717233,0.0,0.0,-0.5384142
36142454,0.013855685,0.023428524,-0.0128147565,0.0,0.0,-0.5384142
36162220,0.013649791,0.035023056,-0.010203567,0.0,0.0,-0.5384142
36182127,0.013322726,0.04803677,-0.008201021,0.0,0.0,-0.5384142
36201928,0.017924791,0.047435597,-0.0054151677,0.0,0.0,-0.5384142
36221778,0.022056775,0.07133448,-0.0030270005,0.0,0.0,-0.5384142
36246679,0.06329145,0.16068262,-0.0018888314,0.0,0.0,-0.5384142
36261552,0.06690779,0.16165748,0.0014052386,0.0,0.0,-0.5384142
36281427,0.09645816,0.19471216,0.0026249248,0.0,0.0,-0.5384142
36301362,0.13286094,0.24308126,0.005474001,0.0,0.0,-0.5384142
36321348,0.1410887,0.26757315,0.00862689,0.0,0.0,-0.5384142
36340965,0.1589384,0.32707518,0.010191693,0.0,0.0,-0.5384142
36360831,0.23242044,0.3580299,0.010563395,0.0,0.0,-0.5384142
36385698,0.23185802,0.49003527,0.0119096385,0.0,0.0,-0.5384142
36400686,0.2573148,0.5635264,0.01357244,0.0,0.0,-0.5384142
36420569,0.27728668,0.56778777,0.014807338,0.0,0.0,-0.5384142
36445401,0.27758038,0.48787627,0.016912043,0.0,0.0,-0.5384142
36460185,0.253477,0.4312975,0.018840726,0.0,0.0,-0.5384142
36480051,0.31696075,0.35701096,0.02109249,0.0,0.0,-0.5384142
36504893,0.28676608,0.2779452,0.024027424,0.0,0.0,-0.5384142
36524696,0.24232787,0.22665066,0.026084293,0.0,0.0,-0.5384142
36539530,0.22275043,0.19491863,0.024790294,0.0,0.0,-0.5384142
36564385,0.20288408,0.16372246,0.026562631,0.0,0.0,-0.5384142
36584385,0.21432254,0.1514454,0.0270108,0.0,0.0,-0.5384142
36599238,0.23290429,0.14247176,0.024302926,0.0,0.0,-0.5384142
36624055,0.2623091,0.13416982,0.025353912,0.0,0.0,-0.5384142
36643916,0.2462218,0.12014202,0.025404992,0.0,0.0,-0.53957397
36663774,0.34817845,0.10731353,0.025529254,0.0,0.0,-0.53957397
36683618,0.31977782,0.09319585,0.025768844,0.0,0.0,-0.53957397
36703540,0.28779206,0.07954626,0.025623564,0.0,0.0,-0.53957397
36723467,0.29285505,0.0636674,0.025572626,0.0,0.0,-0.5407337
36743230,0.20351577,0.0509819,0.026825204,0.0,0.0,-0.5407337
36763094,0.07417409,0.042165898,0.026718074,0.0,0.0,-0.5407337
36782854,-0.017591318,0.036716186,0.026355151,0.0,0.0,-0.5407337
36802781,-0.11437143,0.034036096,0.02646022,0.0,0.0,-0.5407337
36822574,-0.14358811,0.033400096,0.026698442,0.0,0.0,-0.5407337
36842574,-0.19788407,0.029459018,0.02680464,0.0,0.0,-0.5407337
36862545,-0.17020258,0.026108587,0.02559408,0.0,0.0,-0.5407337
36882330,-0.24463575,0.019806469,0.025600346,0.0,0.0,-0.5407337
36902204,-0.26268232,0.01444602,0.0247592,0.0,0.0,-0.5407337
36922009,-0.2207593,0.0099550625,0.024350252,0.0,0.0,-0.5407337
36946948,-0.25029972,0.0042220475,0.024258731,0.0,0.0,-0.5407337
36961725,-0.22479954,-0.0010804746,0.023712777,0.0,0.0,-0.5407337
36981750,-0.17534208,-0.0023186693,0.023197396,0.0,0.0,-0.5407337
37001472,-0.11118241,-0.0040706396,0.023073614,0.0,0.0,-0.53957397
37021258,-0.10818535,-0.0050640204,0.021559367,0.0,0.0,-0.53957397
37041095,-0.08949962,-0.0038191893,0.022047048,0.0,0.0,-0.53957397
37060949,-0.17255569,-0.0012290046,0.02133742,0.0,0.0,-0.5407337
37085768,-0.24592398,-0.0013375793,0.020202016,0.0,0.0,-0.5407337
37100809,-0.28016484,-0.0021116973,0.019059721,0.0,0.0,-0.5407337
37120743,-0.28295526,0.002046691,0.018148666,0.0,0.0,-0.53957397
37145498,-0.25501597,0.0075621824,0.016393015,0.0,0.0,-0.53957397
37160436,-0.21670517,0.010018732,0.016718073,0.0,0.0,-0.5407337
37180236,-0.18465774,0.010332722,0.01473402,0.0,0.0,-0.5407337
37205184,-0.17230083,0.009164479,0.014276671,0.0,0.0,-0.5407337
37224895,-0.26617283,0.0069588004,0.01384118,0.0,0.0,-0.5407337
37239858,-0.2468143,0.004083158,0.013072103,0.0,0.0,-0.5407337
37264597,-0.25372243,0.007894173,0.013507717,0.0,0.0,-0.5407337
37284404,-0.22675231,0.011181947,0.013464227,0.0,0.0,-0.5407337
37299303,-0.19651403,0.01450988,0.012896567,0.0,0.0,-0.5407337
37324124,-0.14068386,0.01721806,0.011587305,0.0,0.0,-0.53957397
37344027,0.10778252,0.032419812,-0.66308457,0.0,0.0,-0.48061326
37363955,0.20323677,0.06354183,0.12571616,0.0,0.0,-0.47251064
37383943,0.28438976,0.081449434,0.13268428,0.0,0.0,-0.46627066
37403865,0.25102243,0.11779251,0.13567904,0.0,0.0,-0.4592186
37423484,0.27316406,0.18022898,0.13588172,0.0,0.0,-0.45452142
37443373,0.23848769,0.22531413,0.13585666,0.0,0.0,-0.4511735
37463238,0.19527803,0.29299855,0.13470827,0.0,0.0,-0.44824386
37483234,0.19757406,0.26870042,0.13311596,0.0,0.0,-0.4459455
37503012,0.19081326,0.26364252,0.1327868,0.0,0.0,-0.441855
37522821,0.17536336,0.21804179,0.13024561,0.0,0.0,-0.4395639
37542665,0.20833868,0.18629222,0.12772685,0.0,0.0,-0.436801
37562552,0.18815544,0.19095415,0.1258708,0.0,0.0,-0.43617967
37582383,0.22643745,0.15611768,0.1236906,0.0,0.0,-0.43407214
37602255,0.19359134,0.1490698,0.12203944,0.0,0.0,-0.43250144
37622142,0.18489972,0.13781384,0.11790925,0.0,0.0,-0.43110934
37642078,0.17300348,0.13938509,0.114969075,0.0,0.0,-0.43011454
37662066,0.15718812,0.14819628,0.11270771,0.0,0.0,-0.42928475
37681764,0.1475797,0.11524865,0.10953247,0.0,0.0,-0.42541286
37701718,0.1385379,0.1443742,0.10434035,0.0,0.0,-0.42256522
37721584,0.12333362,0.123442896,0.10110064,0.0,0.0,-0.41858548
37741497,0.13222998,0.12195204,0.09870888,0.0,0.0,-0.41523695
37761273,0.1198395,0.14267984,0.093296036,0.0,0.0,-0.41283527
37786140,0.121350765,0.100645974,0.08954989,0.0,0.0,-0.40797764
37800992,0.12342015,0.11087673,0.08657193,0.0,0.0,-0.40656406
37820756,0.12204828,0.11275021,0.083120085,0.0,0.0,-0.40525365
37845572,0.098436385,0.12743208,0.07806921,0.0,0.0,-0.40380827
37860485,0.11455269,0.08202842,0.07621377,0.0,0.0,-0.4018348
37880282,0.10699642,0.12830703,0.07042731,0.0,0.0,-0.40104362
37905175,0.109311864,0.07700753,0.067329004,0.0,0.0,-0.39792037
37925184,0.10517707,0.10547397,0.063284285,0.0,0.0,-0.39694217
37940147,0.12232359,0.07469581,0.061772715,0.0,0.0,-0.39566377
37964911,0.118949845,0.08100821,0.05755015,0.0,0.0,-0.40433374
37984721,0.11591628,0.11139578,0.05341627,0.0,0.0,-0.40790045
37999592,0.12038691,0.08733334,0.051407333,0.0,0.0,-0.41432735
38024389,0.11621034,0.10332193,0.04820567,0.0,0.0,-0.42270088
38044420,0.12004943,0.08444518,0.046383556,0.0,0.0,-0.42940181
38064212,0.09459636,0.11474807,0.043817624,0.0,0.0,-0.43770337
38083940,0.121676214,0.06447014,0.042562507,0.0,0.0,-0.44435975
38103790,0.1033817,0.082204886,0.039358426,0.0,0.0,-0.45077965
38123634,0.14150341,0.06684654,0.038923647,0.0,0.0,-0.4564958
38143507,0.14447369,0.071143575,0.036271386,0.0,0.0,-0.46114227
38163348,0.13539152,0.039952658,0.03521985,0.0,0.0,-0.4639485
38183358,0.15511578,0.037489504,0.03343369,0.0,0.0,-0.46541414
38203317,0.15391627,0.05251902,0.032438625,0.0,0.0,-0.46878892
38223113,0.15397918,0.036034632,0.03229173,0.0,0.0,-0.4713199
38242939,0.13337056,0.051270775,0.029764185,0.0,0.0,-0.47454822
38262770,0.12042981,0.018604305,0.030182503,0.0,0.0,-0.47653258
38282549,0.157579,0.023007952,0.030055258,0.0,0.0,-0.4804548
38302421,0.1427927,0.03367865,0.029399524,0.0,0.0,-0.48418096
38322380,0.14660579,0.025405768,0.029953139,0.0,0.0,-0.4868595
38342171,0.12008546,0.0047398224,0.029790774,0.0,0.0,-0.48891857
38362026,0.13376667,-0.011066917,0.03003709,0.0,0.0,-0.49152488
38381896,0.15394293,-0.008814255,0.03130802,0.0,0.0,-0.49418256
38401770,0.15713274,0.0055771586,0.03244572,0.0,0.0,-0.49784514
38421603,0.13149178,0.01767335,0.0330472,0.0,0.0,-0.5022113
38441520,0.12653172,-0.038091864,0.036558814,0.0,0.0,-0.5045703
38461471,0.08935797,-0.07206873,0.03875032,0.0,0.0,-0.5079312
38486267,0.08500793,-0.12760237,0.043917514,0.0,0.0,-0.5104068
38501205,0.1201106,-0.16830596,0.04623413,0.0,0.0,-0.51467717
38520975,0.104609296,-0.18424626,0.049000286,0.0,0.0,-0.51567566
38545893,0.1160527,-0.19649535,0.05153953,0.0,0.0,-0.51798093
38560643,0.10295636,-0.21379544,0.05514364,0.0,0.0,-0.5204103
38580598,0.09485975,-0.23320659,0.0577785,0.0,0.0,-0.52338505
38605362,0.06619992,-0.26368663,0.061862476,0.0,0.0,-0.5256999
38625262,0.044981875,-0.26204923,0.06478379,0.0,0.0,-0.52883595
38640142,0.04706941,-0.24800327,0.06569213,0.0,0.0,-0.5325162
38664937,0.053743243,-0.1888681,0.06937873,0.0,0.0,-0.5359957
38684785,0.033931635,-0.13322312,0.07001538,0.0,0.0,-0.53976834
38699686,0.032442573,-0.1308992,0.0705274,0.0,0.0,-0.54242754
38724689,0.019400604,-0.100639105,0.07431446,0.0,0.0,-0.5443287
38744582,0.036661394,-0.10058204,0.07819063,0.0,0.0,-0.5469493
38764355,0.041344125,-0.05829382,0.0798782,0.0,0.0,-0.54856503
38784131,0.043426026,-0.06997202,0.08352241,0.0,0.0,-0.55108863
38804053,0.02756362,-0.036342364,0.084377795,0.0,0.0,-0.54842275
38823826,0.005702411,-0.05290807,0.08879984,0.0,0.0,-0.5441699
38843696,0.020378707,-0.025371661,0.0914385,0.0,0.0,-0.5406651
38863552,0.0057423827,-0.018980838,0.094397604,0.0,0.0,-0.5359792
38883480,0.017824218,0.01787696,0.09555115,0.0,0.0,-0.53369755
38903524,0.009393332,0.017770996,0.09968932,0.0,0.0,-0.5287309
38923246,0.03683314,0.013691473,0.1029065,0.0,0.0,-0.5253475
38943117,-0.0063168784,0.0034164628,0.10550653,0.0,0.0,-0.5212604
38963010,-0.001410425,0.022968117,0.10679561,0.0,0.0,-0.51832235
38982958,0.0121402405,0.016650131,0.110899515,0.0,0.0,-0.51315844
39002755,-0.017128596,0.03939603,0.11180201,0.0,0.0,-0.51007074
39022495,-0.011606345,0.04037653,0.1137594,0.0,0.0,-0.51234055
39042417,0.012818178,0.021148778,0.11743069,0.0,0.0,-0.5084447
39062275,-0.010611209,0.07790287,0.116821,0.0,0.0,-0.5081076
39082169,-0.009593895,0.08380221,0.11855692,0.0,0.0,-0.5074074
39101956,-0.016176127,0.07045698,0.12153498,0.0,0.0,-0.5066237
39121816,-0.026203923,0.06267896,0.122718066,0.0,0.0,-0.5059138
39141652,-0.021290375,0.09437019,0.12277652,0.0,0.0,-0.50619245
39161623,-0.007382905,0.100805,0.12397534,0.0,0.0,-0.5061233
39186400,-0.013201776,0.085655354,0.12666707,0.0,0.0,-0.5065479
39201301,-0.0020039156,0.07303838,0.12660094,0.0,0.0,-0.5080056
39221178,-0.001397223,0.04917424,0.12839887,0.0,0.0,-0.5076078
39245933,-0.012195335,0.030557083,0.13035373,0.0,0.0,-0.50939703
39261008,0.011277676,0.03687118,0.12935509,0.0,0.0,-0.5104665
39280958,-0.0039720624,0.039764646,0.12979761,0.0,0.0,-0.5105809
39305634,-0.018273124,0.034049768,0.12959234,0.0,0.0,-0.51264155
39325439,-0.0056522437,0.029834107,0.12911786,0.0,0.0,-0.5126456
39340411,-0.016104734,0.03369239,0.13036348,0.0,0.0,-0.5131969
39365189,-0.013283622,0.024381403,0.12913366,0.0,0.0,-0.51447177
39385010,0.0046524904,0.018870238,0.12829487,0.0,0.0,-0.5143235
39399924,-0.015956122,0.027138915,0.12844682,0.0,0.0,-0.5156173
39424774,-0.021332718,0.019010946,0.12626725,0.0,0.0,-0.51679575
39444616,-0.0056732805,0.00046299558,0.12560153,0.0,0.0,-0.5159536
39464502,-0.016543888,0.007627143,0.124873936,0.0,0.0,-0.5174765
39479332,-0.019606642,-0.000595572,0.12353234,0.0,0.0,-0.517401
39504113,-0.011770716,-0.025753045,0.12302118,0.0,0.0,-0.5164687
39523998,-0.014977174,0.016513135,0.121230766,0.0,0.0,-0.5173784
39539033,-0.021098072,-0.00093064987,0.11850113,0.0,0.0,-0.5163687
39563843,-0.020821624,-0.011597733,0.118491754,0.0,0.0,-0.51681155
39583706,-0.024285793,0.014985778,0.11653879,0.0,0.0,-0.51677746
39603602,-0.028000785,0.008744388,0.11457879,0.0,0.0,-0.5171469
39623393,-0.008135913,-0.022846468,0.11327343,0.0,0.0,-0.5171444
39643243,-0.015406103,0.033314902,0.109891936,0.0,0.0,-0.51752985
39663309,-0.022459352,0.023723483,0.107014716,0.0,0.0,-0.5181297
39683044,-0.022104027,-0.0009819799,0.10500285,0.0,0.0,-0.51841706
39702847,-0.036709182,-0.0059037195,0.10214596,0.0,0.0,-0.5184149
39722654,-0.045789875,-0.0040274994,0.09973301,0.0,0.0,-0.51903766
39742482,-0.038335953,-0.02563401,0.097272694,0.0,0.0,-0.51888555
39762337,-0.03912032,-0.023372859,0.09440066,0.0,0.0,-0.51895297
39782229,-0.040430788,-0.019323703,0.09218815,0.0,0.0,-0.5196515
39802261,-0.026789736,-0.03501748,0.08964892,0.0,0.0,-0.51868033
39822247,-0.016545946,-0.005774157,0.08549632,0.0,0.0,-0.51962936
39842033,-0.016897848,-0.024057997,0.08301508,0.0,0.0,-0.51741815
39861747,-0.042950276,-0.0344113,0.079679556,0.0,0.0,-0.5177822
39886587,-0.025161305,-0.038631853,0.076381445,0.0,0.0,-0.5187738
39901421,-0.023751616,-0.03732594,0.073442586,0.0,0.0,-0.5175576
39921331,-0.027564496,-0.024414187,0.06983129,0.0,0.0,-0.5176254
39946221,-0.030262444,0.001201615,0.06362518,0.0,0.0,-0.5175455
39961051,-0.03831631,-0.025363214,0.06291486,0.0,0.0,-0.51750284
39980921,-0.026967311,0.011921879,0.058388233,0.0,0.0,-0.51724994
40005778,-0.042258862,-0.0015500961,0.05207423,0.0,0.0,-0.5173342
40025624,-0.052637048,0.016652985,0.047817048,0.0,0.0,-0.5167704
40040548,-0.021629618,-0.012645769,0.046901472,0.0,0.0,-0.51672035
40060420,-0.041348178,0.04158594,0.04137348,0.0,0.0,-0.5159947
40085255,-0.03940983,0.0124233095,0.038696595,0.0,0.0,-0.5153144
40100119,-0.025860302,-0.0035430854,0.035150085,0.0,0.0,-0.51455915
40119991,-0.034682382,0.026928214,0.03098613,0.0,0.0,-0.5163874
40144857,-0.019846799,0.0150248865,0.029000364,0.0,0.0,-0.5153451
40164676,-0.014000986,0.020786615,0.024979578,0.0,0.0,-0.5141932
40179671,-0.034153517,0.0048376992,0.022986352,0.0,0.0,-0.5144473
40204422,-0.026061263,-0.0026588996,0.018979162,0.0,0.0,-0.51412624
40224266,-0.018395614,-0.026439684,0.016864756,0.0,0.0,-0.51395
40239146,-0.017585775,-0.00016601397,0.015305806,0.0,0.0,-0.5135011
40263983,-0.021568246,-4.107251e-05,0.010862962,0.0,0.0,-0.514338
40283845,-0.03197244,-0.008818075,0.009442111,0.0,0.0,-0.5146799
40303652,-0.026166642,-0.0027827786,0.0073271277,0.0,0.0,-0.51497084
40323572,-0.04637839,0.0402244,0.0043791546,0.0,0.0,-0.51498264
40343425,-0.057049084,0.044774957,0.0018507106,0.0,0.0,-0.5154059
40363464,-0.035870846,0.017729728,0.00068548357,0.0,0.0,-0.51503223
40383169,-0.040581234,0.015281565,-0.0015245172,0.0,0.0,-0.5153258
40403095,-0.056210995,0.0044167684,-0.0039578257,0.0,0.0,-0.515072
40422978,-0.0667594,-0.014786276,-0.0049394625,0.0,0.0,-0.51492417
40442795,-0.073172905,0.0030357095,-0.006785876,0.0,0.0,-0.5125011
40462593,-0.08240743,0.0066585396,-0.008472923,0.0,0.0,-0.5142801
40482448,-0.0697836,-0.0010720355,-0.009581704,0.0,0.0,-0.5160729
40502472,-0.038571052,0.008945001,-0.010283666,0.0,0.0,-0.5136258
40522224,-0.034385957,0.018533599,-0.011409913,0.0,0.0,-0.51219255
40542017,-0.045096625,0.02540632,-0.012625312,0.0,0.0,-0.5153785
40561887,-0.055962045,-0.0063823243,-0.011898983,0.0,0.0,-0.51435566
40581754,-0.05068307,0.0043985457,-0.013589585,0.0,0.0,-0.51352584
40601710,-0.10195158,0.015715038,-0.015015216,0.0,0.0,-0.51407355
40621694,-0.09029934,-0.0012560263,-0.015420103,0.0,0.0,-0.51345384
40641418,-0.0677811,0.0063365656,-0.015672425,0.0,0.0,-0.51366496
40661218,-0.10029379,0.02212851,-0.017773032,0.0,0.0,-0.5131574
40681091,-0.07303826,0.021471458,-0.018996663,0.0,0.0,-0.5132043
40700992,-0.05733414,-0.0058867596,-0.018285323,0.0,0.0,-0.51226276
40725796,-0.01406526,-0.030113565,-0.015989117,0.0,0.0,-0.51183784
40740685,-0.020403361,-0.032977816,-0.018851042,0.0,0.0,-0.5119573
40760562,-0.02493387,-0.00068532093,-0.018686334,0.0,0.0,-0.5122539
40785327,-0.033630602,0.0036302004,-0.021144724,0.0,0.0,-0.5129404
40800245,-0.051691342,0.026620982,-0.019120507,0.0,0.0,-0.5144155
40820095,-0.079236984,0.0076206075,-0.020083066,0.0,0.0,-0.51517665
40844990,-0.058104068,0.018732697,-0.022372533,0.0,0.0,-0.5155184
40864851,-0.07072711,0.016466323,-0.021708857,0.0,0.0,-0.51594335
40879829,-0.049248032,-0.0034032867,-0.023048207,0.0,0.0,-0.51562
40904578,-0.020218566,-0.017467527,-0.022597194,0.0,0.0,-0.5152975
40924389,-0.019469038,-0.0055437707,-0.023155786,0.0,0.0,-0.5151672
40939294,-0.009257288,-0.0025770618,-0.025024422,0.0,0.0,-0.51694304
40964180,-0.042920664,0.0052835327,-0.02506087,0.0,0.0,-0.5172161
40984074,-0.056689568,0.005157575,-0.026537918,0.0,0.0,-0.51506555
41003926,-0.063338764,-0.013439289,-0.026108442,0.0,0.0,-0.5158098
41023743,-0.05250353,-0.0025174837,-0.027698297,0.0,0.0,-0.51504964
41043569,-0.07005276,-0.0072201006,-0.028607704,0.0,0.0,-0.5155872
41063438,-0.038833164,-0.015841989,-0.029404856,0.0,0.0,-0.5152811
41083476,-0.024996417,0.009522791,-0.03129919,0.0,0.0,-0.5155637
41103222,-0.016275244,0.0017987279,-0.031804077,0.0,0.0,-0.5148551
41123016,5.4528395e-05,-0.00067644974,-0.03353708,0.0,0.0,-0.5151385
41142944,-0.010135171,-0.02191617,-0.03400968,0.0,0.0,-0.51419467
41162943,0.0010506398,0.015098114,-0.036140904,0.0,0.0,-0.5141771
41182705,-0.037456546,-0.01365241,-0.038479805,0.0,0.0,-0.514304
41202576,-0.03556776,0.007010121,-0.04108396,0.0,0.0,-0.51185244
41222408,-0.009759406,0.029305344,-0.044275735,0.0,0.0,-0.51318395
41242277,-0.021821719,0.011177069,-0.04667688,0.0,0.0,-0.51339614
41262059,0.0003228655,-0.0033381595,-0.04923725,0.0,0.0,-0.51256186
41281870,0.028305613,-0.005593176,-0.050305717,0.0,0.0,-0.51192045
41301789,0.018947309,-0.012272571,-0.052324545,0.0,0.0,-0.51178217
41321703,0.020031586,0.0146321785,-0.054353505,0.0,0.0,-0.51232725
41346530,-0.024301244,0.0188738,-0.060167886,0.0,0.0,-0.51212025
41361419,-0.02515009,0.012706683,-0.061086014,0.0,0.0,-0.51171863
41381285,-0.025275154,0.032321107,-0.06516444,0.0,0.0,-0.51084816
41401246,-0.03008288,0.012321162,-0.067899965,0.0,0.0,-0.51098233
41426136,-0.010771256,-0.010478544,-0.07076979,0.0,0.0,-0.5099425
41440979,0.016479436,-0.014742157,-0.072591744,0.0,0.0,-0.5102802
41460790,0.018881759,0.012806467,-0.07668975,0.0,0.0,-0.5106289
41485570,0.009078906,0.0056060366,-0.081270985,0.0,0.0,-0.510135
41500443,-0.010584114,-0.0024524427,-0.08452381,0.0,0.0,-0.5103061
41520285,-0.0027613894,-0.027909638,-0.086662315,0.0,0.0,-0.5087411
41545138,-0.014989778,-0.0017874918,-0.09180571,0.0,0.0,-0.50856674
41564976,-0.023398565,-0.009228253,-0.09438894,0.0,0.0,-0.50890595
41579912,0.0024838587,0.022139017,-0.09767172,0.0,0.0,-0.5094767
41604720,0.020734517,0.006050187,-0.10166852,0.0,0.0,-0.5095541
41624548,0.016527547,0.007112855,-0.10562802,0.0,0.0,-0.50939214
41639458,-0.002948009,0.0010980559,-0.10724701,0.0,0.0,-0.5098603
41664451,-0.0105803255,0.012191666,-0.11130573,0.0,0.0,-0.5101755
41684279,0.020576246,-0.0007248192,-0.11424188,0.0,0.0,-0.5107008
41704248,0.030035444,0.0069674226,-0.11846891,0.0,0.0,-0.51113725
41724117,-0.013167313,-0.021019848,-0.12094001,0.0,0.0,-0.5109404
41743765,0.021635719,-0.026796546,-0.123632826,0.0,0.0,-0.51233506
41763627,0.023200603,-0.0065971883,-0.12800393,0.0,0.0,-0.5116779
41783458,0.005162804,-0.021653911,-0.13144307,0.0,0.0,-0.5111336
41803433,0.0035249665,-0.015064801,-0.13576677,0.0,0.0,-0.5126624
41823282,0.024819508,-0.02079151,-0.13858093,0.0,0.0,-0.5128499
41843160,0.0671305,-0.021368504,-0.14224233,0.0,0.0,-0.5132426
41862917,0.040038273,-0.01853826,-0.14595163,0.0,0.0,-0.513457
41882786,0.005052075,-0.04090278,-0.1489664,0.0,0.0,-0.5135038
41902673,0.020617,-0.01652386,-0.15305868,0.0,0.0,-0.5132385
41922623,0.03700471,-0.024689281,-0.15594529,0.0,0.0,-0.51421034
41942405,0.054544996,-0.03441448,-0.1587309,0.0,0.0,-0.5146228
41962348,0.025929326,-0.015196872,-0.16213731,0.0,0.0,-0.5127305
41982169,0.02749382,-0.03161432,-0.16418079,0.0,0.0,-0.51391596
42002008,0.047321577,0.00065160275,-0.16764463,0.0,0.0,-0.5134663
42021850,0.038618643,-0.027899183,-0.17012262,0.0,0.0,-0.51415247
42041783,0.03888939,-0.037481215,-0.17195274,0.0,0.0,-0.5129484
42061628,0.039387938,-0.025380744,-0.1730716,0.0,0.0,-0.5134389
42081516,0.038984623,-0.012745922,-0.17475455,0.0,0.0,-0.512815
42101335,0.035078302,-0.021887343,-0.17650129,0.0,0.0,-0.5136092
42126124,0.027271288,-0.010437824,-0.17839427,0.0,0.0,-0.5117875
42141020,0.021036824,-0.026381096,-0.18015294,0.0,0.0,-0.51216567
42160860,0.039939106,-0.031062946,-0.17974056,0.0,0.0,-0.51168376
42185706,0.037807804,0.0033946822,-0.18290508,0.0,0.0,-0.5116523
42200670,0.02156021,-0.0005114514,-0.18318781,0.0,0.0,-0.51166195
42220510,0.0076283794,-0.017767634,-0.18335706,0.0,0.0,-0.510377
42245488,0.010552668,-0.0046072304,-0.1839597,0.0,0.0,-0.51157767
42265159,0.008101956,-0.015701063,0.000726609,0.0,0.0,-0.510094
42280144,-0.0071718544,-0.05685323,-0.019853132,0.0,0.0,-0.5155467
42304997,-0.015509836,-0.1520445,-0.08345912,0.0,0.0,-0.51913327
42324854,-0.10358523,-0.04717343,-0.17698313,0.0,0.0,-0.529966
42339660,-0.18371877,0.06560705,-0.40386412,0.0,0.0,-0.5384255
42364578,-0.30352026,0.14907627,-0.63929397,0.0,0.0,-0.550083
42384406,-0.39357007,0.14126052,-0.90221286,0.0,0.0,-0.56017774
42404279,-0.48801252,0.16357116,-1.1486593,0.0,0.0,-0.57165366
42424122,-0.41616428,0.14940944,-1.3745042,0.0,0.0,-0.5693509
42443869,-0.3166509,0.111376934,-1.5892352,0.0,0.0,-0.5587899
42463736,-0.096773386,0.13506077,-1.7573528,0.0,0.0,-0.54910505
42483765,0.07894465,0.082322516,-1.8853508,0.0,0.0,-0.53597945
42503733,0.18887255,-0.0068827346,-1.9562691,0.0,0.0,-0.5213327
42523527,0.3845298,-0.07387674,-1.9072491,0.0,0.0,-0.509335
42543397,0.41113412,-0.16703317,-1.8230975,0.0,0.0,-0.49028245
42563213,0.3993309,-0.26499525,-1.7569846,0.0,0.0,-0.47568333
42583072,0.41222453,-0.257677,-1.4977851,0.0,0.0,-0.46242633
42603046,0.31270257,-0.26187664,-1.268878,0.0,0.0,-0.44953498
42622775,0.29125872,-0.22017525,-1.0053113,0.0,0.0,-0.44833168
42642601,0.22766253,-0.18362479,-0.802724,0.0,0.0,-0.4463329
42662430,0.13450636,-0.1120579,-0.63739824,0.0,0.0,-0.45795393
42682309,0.07687251,-0.109377496,-0.5068375,0.0,0.0,-0.46733153
42702095,0.056296438,-0.08957336,-0.40415108,0.0,0.0,-0.47981843
42721966,0.07288785,-0.052843,-0.32539,0.0,0.0,-0.4920184
42741909,0.0395711,-0.0645347,-0.25883293,0.0,0.0,-0.5054977
42761859,0.049086843,-0.059350356,-0.20427154,0.0,0.0,-0.50056857
42781869,0.07191911,-0.06813665,-0.16180709,0.0,0.0,-0.49510515
42801566,0.059449174,-0.05651242,-0.12993887,0.0,0.0,-0.49307737
42826421,0.03492756,-0.041600004,-0.09872164,0.0,0.0,-0.50387293
42841261,-0.0034526666,-0.03472656,-0.08106305,0.0,0.0,-0.50352705
42861227,-0.016374717,-0.007926184,-0.06332277,0.0,0.0,-0.5044524
42885946,-0.036265742,0.010005352,-0.04822087,0.0,0.0,-0.5067434
42900770,-0.034332905,-0.019868087,-0.037152756,0.0,0.0,-0.50741625
42920638,-0.009207273,-0.0056618135,-0.03140123,0.0,0.0,-0.5089537
42945434,-0.012514856,0.012005395,-0.022690821,0.0,0.0,-0.5107906
42965292,-0.005526091,0.017309092,-0.016672969,0.0,0.0,-0.51472795
42980226,0.006604638,0.0037299083,-0.016768577,0.0,0.0,-0.5141678
43005184,-0.018114066,0.012056798,-0.010269516,0.0,0.0,-0.5147971
43025010,-0.02776385,-0.007222224,-0.007807355,0.0,0.0,-0.5156435
43040044,-0.01937065,-0.019068114,-0.0048951847,0.0,0.0,-0.5137596
43064740,-0.04097847,-0.012557466,-0.0035850643,0.0,0.0,-0.51168275
43084622,-0.03486537,0.0019027267,-0.004011356,0.0,0.0,-0.50710666
43104432,-0.035975784,0.0028390347,-0.0017934961,0.0,0.0,-0.5135796
43124325,-0.008887953,0.0013797943,-0.0020502247,0.0,0.0,-0.5170698
43144153,-0.03137992,-0.016588094,-0.07182209,0.0,0.0,-0.51235485
43164006,-0.045094058,-0.020627536,-0.14838196,0.0,0.0,-0.5131129
43178851,-0.053843617,-0.04750742,-0.22494076,0.0,0.0,-0.51825583
43203656,-0.017589305,-0.03790801,-0.30984607,0.0,0.0,-0.51796955
43223551,-0.024302421,-0.032202434,-0.36692098,0.0,0.0,-0.5192326
43243438,-0.014061811,-0.041826498,-0.3779185,0.0,0.0,-0.51885444
43263404,-0.053998902,-0.038706325,-0.33210596,0.0,0.0,-0.52508146
43283202,-0.05255983,-0.0749056,-0.2950985,0.0,0.0,-0.5262527
43303147,-0.021598112,-0.033652302,-0.23592499,0.0,0.0,-0.5194728
43323052,-0.016534092,-0.04221273,-0.18844712,0.0,0.0,-0.52099013
43342850,-0.064366095,-0.047701668,-0.14919375,0.0,0.0,-0.51067483
43362807,-0.07197549,-0.04128374,-0.11114401,0.0,0.0,-0.52151215
43382531,-0.105802156,-0.08893575,-0.09423302,0.0,0.0,-0.5178372
43402417,-0.17304431,-0.24847247,-0.07120869,0.0,0.0,-0.5192127
43422234,-0.23793511,-0.3782073,-0.056308582,0.0,0.0,-0.5187461
43442068,-0.2595094,-0.46370915,-0.042264987,0.0,0.0,-0.51908547
43461931,-0.19949043,-0.5711709,-0.028834239,0.0,0.0,-0.5212382
43481824,-0.13058904,-0.6245156,-0.019504141,0.0,0.0,-0.52304476
43501685,-0.11361801,-0.6501697,-0.014984575,0.0,0.0,-0.52382773
43526480,-0.07526921,-0.65901506,-0.008848455,0.0,0.0,-0.5248069
43541444,-0.06754802,-0.7390318,-0.005729926,0.0,0.0,-0.52656144
43561295,-0.014163767,-0.747171,-0.0015825146,0.0,0.0,-0.5276753
43586333,-0.051357955,-0.7471844,-0.0019212498,0.0,0.0,-0.5301464
43601019,-0.028239455,-0.7761878,0.00442507,0.0,0.0,-0.531694
43620935,0.017613547,-0.7760692,0.00547009,0.0,0.0,-0.53243536
43645675,0.035339948,-0.74125105,0.00959126,0.0,0.0,-0.53470594
43665555,0.06353147,-0.74369663,0.0091122,0.0,0.0,-0.53689283
43680410,0.07793598,-0.75676066,0.012603123,0.0,0.0,-0.53760034
43705383,0.11468477,-0.74355143,0.014372253,0.0,0.0,-0.5403362
43725200,0.13963412,-0.73030436,0.015217395,0.0,0.0,-0.54085183
43740093,0.13123877,-0.76736623,0.016787011,0.0,0.0,-0.54405034
43759948,0.08929458,-0.5858346,0.01237404,0.0,0.0,-0.5405111
43784760,0.008705748,-0.32696816,0.007714457,0.0,0.0,-0.53776664
43804596,-0.04774829,-0.18363918,0.0045942147,0.0,0.0,-0.5352744
43819405,-0.06910647,-0.04323266,0.0037963542,0.0,0.0,-0.5313707
43844504,-0.08039517,0.08942747,0.0032634088,0.0,0.0,-0.5274105
43864203,-0.12106143,0.19936904,0.003008916,0.0,0.0,-0.5234279
43879104,-0.1478373,0.24580844,0.0020830252,0.0,0.0,-0.52073234
43903952,-0.14239267,0.33851874,0.002359708,0.0,0.0,-0.5164152
43923832,-0.14121701,0.36965543,0.0014700614,0.0,0.0,-0.51515704
43943745,-0.08404622,0.46500877,-0.000116483985,0.0,0.0,-0.51133895
43963491,0.013380914,0.5009898,-0.0005475504,0.0,0.0,-0.5106719
43983326,0.10317722,0.619043,-0.0052869837,0.0,0.0,-0.5089976
44003235,0.15339948,0.66629153,-0.007534932,0.0,0.0,-0.5095891
44023192,0.1289223,0.70392907,-0.009169566,0.0,0.0,-0.5096129
44042985,0.05276635,0.68713623,-0.00828606,0.0,0.0,-0.50858974
44062783,-0.013445198,0.74986047,-0.00888967,0.0,0.0,-0.5090523
44082656,-0.053109717,0.77465224,-0.009947551,0.0,0.0,-0.50939304
44102629,-0.08832468,0.7866721,-0.012203155,0.0,0.0,-0.51060814
44122506,-0.10899246,0.7555889,-0.011863126,0.0,0.0,-0.51074696
44142247,-0.11487771,0.7223857,-0.011733527,0.0,0.0,-0.51159084
44162200,-0.15433386,0.72984445,-0.012178171,0.0,0.0,-0.51150227
