timestamp,timestamp_sample,xyz[0],xyz[1],xyz[2]
25342629,25342394,0.0065665827,0.009950328,0.0296318
25343874,25343634,0.010984808,0.015744336,0.02627783
25363773,25363539,0.023591053,0.020862062,-0.044833846
25384826,25384600,0.010376597,0.00979347,0.038374547
25403465,25403222,-0.017212888,0.0044223894,-0.07849843
25423315,25423085,0.02656217,-0.019618046,-0.017025629
25444430,25444191,-0.04526212,0.023183065,0.05075911
25465524,25465295,0.025364578,-0.0028573158,-0.050785873
25482907,25482675,-0.028221505,0.035683252,-0.026016343
25504008,25503780,0.028376471,-0.01981843,-0.050130934
25525110,25524880,-0.04507405,-0.0064571854,0.0047937916
25542556,25542332,0.063168846,0.008276962,-0.016584797
25563761,25563538,-0.06013838,0.027445592,-0.061688475
25584704,25584474,-0.05610459,0.033519354,0.007942181
25605809,25605579,0.06769163,0.018041398,0.00567114
25623185,25622961,-0.029588958,-0.019090986,-0.037985366
25644297,25644064,-0.04622509,-0.018594194,-0.05349137
25665403,25665175,0.019757107,0.021059493,0.006813993
25682773,25682549,0.019102203,0.003033034,-0.010812502
25703932,25703701,-0.048314266,0.0038945812,-0.045716442
25724986,25724758,0.010613068,0.024952762,-0.025583308
25746090,25745864,0.031115102,0.02122805,-0.00498731
25763472,25763243,-0.029573433,-0.06570971,-0.037038703
25784618,25784392,-0.021567535,0.00073943456,-0.045837168
25805741,25805518,0.02703879,0.08450501,-0.031387817
25823186,25822955,-0.010648242,-0.026015041,0.020032387
25844177,25843941,-0.03758688,-0.10539663,-0.019325787
25865271,25865043,0.0021815603,-0.02179974,-0.06516467
25886382,25886148,0.052756317,0.12260608,-0.044400483
25903757,25903527,-0.020493207,-0.033106685,0.035866007
25924858,25924632,-0.06361289,-0.14694896,-0.016528185
25945970,25945738,0.01742955,-0.028970417,-0.077576175
25963343,25963117,0.031097945,0.14100282,0.015113303
25984457,25984223,-0.02575439,-0.04084468,0.042606223
26004316,26004088,-0.044400204,-0.15910746,-0.053786222
26025419,26025189,0.028403526,-0.012564292,-0.07252077
26042802,26042570,0.032098547,0.13694401,0.03571805
26063950,26063723,-0.023858704,-0.032745585,0.03055506
26085095,26084870,-0.062578365,-0.14616215,-0.04733339
26102563,26102336,0.035462834,0.05729908,-0.042907592
26123491,26123265,0.063412555,0.11736444,0.026309736
26144600,26144370,0.025405608,0.004887552,0.032116722
26165702,26165474,-0.057098553,-0.08383698,-0.043136317
26183080,26182854,-0.0077841417,0.032968447,-0.03628839
26204191,26203961,0.059756275,0.064516746,0.023571888
26225296,26225063,0.05146387,-0.016970685,0.024620444
26242669,26242445,-0.045870047,-0.037948214,-0.068922974
26263774,26263549,-0.040047467,0.05916279,-0.03542098
26284918,26284688,0.040106095,0.06494757,0.023630362
26305983,26305758,0.04517281,-0.051381838,0.024780378
26323425,26323201,-0.025461335,-0.04454312,-0.060589116
26344521,26344292,-0.035695452,0.086857095,-0.054693267
26365714,26365490,0.018784983,0.08828221,0.01488883
26382954,26382728,0.014442334,-0.1315813,0.0047915145
26404068,26403837,-0.011664232,-0.07596047,-0.06053954
26425176,26424939,-0.011679535,0.10052528,-0.06993305
26446273,26446042,0.037237193,0.15567334,0.003053278
26463651,26463422,-0.00074784394,-0.12488821,0.01975548
26484774,26484549,-0.05392051,-0.15094215,-0.05040805
26505863,26505632,-0.039674625,0.006691209,-0.07147544
26523247,26523012,0.07872671,0.1284905,0.02139774
26544346,26544117,0.030464906,-0.030034332,0.030989274
26565452,26565223,-0.07563283,-0.13765122,-0.01776168
26582832,26582603,0.010872983,0.04517254,-0.064108424
26603959,26603726,0.099516466,0.120271415,-0.008875393
26623893,26623668,0.034664992,0.012688541,0.046373397
26644900,26644677,-0.08903331,-0.080975406,0.005703751
26663533,26663300,-0.03750147,-0.0335119,-0.08133037
26683393,26683162,0.106341735,0.058736306,-0.031265505
26704493,26704264,0.08170695,0.037776425,0.03407538
26725595,26725369,-0.051199917,-0.010381459,0.027204476
26742982,26742750,-0.052223075,-0.008844942,-0.06595806
26764081,26763856,0.073691845,0.02517816,-0.04236618
26785192,26784964,0.07685484,-0.004646314,0.024458753
26802574,26802340,-0.07897715,-0.031352103,-0.018758172
26823671,26823443,-0.03860891,0.0358303,-0.07660432
26844772,26844548,0.061709538,0.07372739,-0.049865153
26865898,26865669,0.048914902,-0.0035250047,0.042038877
26883320,26883095,-0.07313316,-0.0971884,-0.0068771816
26904516,26904283,-0.004445691,0.021326138,-0.08907515
26925518,26925286,0.088981986,0.14144528,-0.066246256
26942850,26942623,-0.027712008,-0.027697045,0.06524115
26963965,26963730,-0.10759327,-0.15638982,0.0034345381
26985063,26984832,-0.03616284,-0.101005495,-0.10013057
27006177,27005939,0.08670865,0.07894537,-0.09359928
27023550,27023318,0.02262754,0.07582582,0.08544594
27045903,27045666,-0.0935748,-0.055594973,0.064824946
27065761,27065530,-0.07950975,-0.13751225,-0.081996866
27083137,27082911,0.119810775,0.09831463,-0.048278414
27104245,27104011,0.06538765,0.10574066,0.06714368
27125348,27125117,-0.07086107,-0.012203378,0.057898305
27146482,27146251,-0.093315616,-0.088143274,-0.049858123
27163940,27163705,0.07230403,0.020081237,-0.066049576
27184940,27184708,0.079705104,0.048233654,0.036929492
27204802,27204570,-0.04061149,-0.02731374,0.039517626
27223432,27223191,-0.032729268,0.004475127,-0.08996678
27243336,27243097,0.037712187,0.076732464,-0.03803947
27264392,27264162,0.009826851,-0.002637152,0.06686226
27285490,27285264,-0.04054725,-0.1299775,0.04818709
27302871,27302644,0.026560811,0.02136686,-0.12161542
27323981,27323750,0.06388309,0.15832722,-0.047285713
27345080,27344854,0.008123348,0.10088611,0.06844744
27362480,27362245,-0.06598796,-0.16192594,-0.022581501
27383565,27383339,0.0055662976,-0.07769625,-0.11628086
27404674,27404445,0.070564896,0.11219436,-0.063167684
27425851,27425626,0.04731217,0.1531195,0.06549279
27443316,27443088,-0.07037036,-0.123939805,2.7655875e-05
27464265,27464035,-0.04249196,-0.12256866,-0.10962017
27485360,27485137,0.03519868,0.015143966,-0.08981811
27502753,27502518,0.046459846,0.07873357,0.0765176
27523850,27523623,-0.029336441,-0.038178466,0.027782895
27544980,27544757,-0.06498068,-0.06790604,-0.06887018
27566064,27565832,-0.012933898,0.019640286,-0.077195264
27583439,27583213,0.046499025,0.022944432,0.0454994
27604555,27604317,0.009968988,-0.08074732,0.02944016
27625697,27625467,-0.022631306,-0.055713635,-0.06858915
27643027,27642802,0.0051648733,0.122107245,-0.030749742
27664133,27663909,0.006080668,0.035399556,0.06447314
27685271,27685041,-0.020291923,-0.12491657,0.041210666
27705230,27704997,-0.017008513,-0.10310721,-0.07619902
27723747,27723522,0.037332635,0.14924417,-0.03578307
27744828,27744601,0.0389467,0.12659441,0.05702753
27765946,27765707,-0.015042128,-0.055397373,0.053041622
27783382,27783144,-0.043698896,-0.112271495,-0.103651755
27805671,27805435,0.017708631,0.023450851,-0.09301499
27825544,27825299,0.08170104,0.12797835,0.025542319
27842909,27842676,-0.040612683,-0.06755801,0.025724616
27862762,27862539,-0.07293153,-0.076894246,-0.076341026
27883875,27883644,0.0029481882,0.02040337,-0.07480671
27904987,27904750,0.0709349,0.03529071,0.006580584
27922354,27922129,-0.010818727,-0.040541437,0.022002887
27943500,27943272,-0.044144083,0.021310112,-0.0484277
27964648,27964420,-0.028591717,0.09328951,-0.068393335
27985844,27985619,0.022432383,0.0286296,0.014289339
28003057,28002823,-0.010956918,-0.13979343,0.00587765
28024159,28023929,-0.017192239,-0.036923572,-0.06481628
28045259,28045034,0.016504157,0.12218034,-0.066520914
28062642,28062413,0.037488826,0.04546023,0.05656522
28083747,28083518,-0.03914468,-0.10570685,0.023010215
28104853,28104623,-0.077887915,-0.115992986,-0.06715714
28125958,28125727,-0.005274494,-0.0062437835,-0.09840957
28143346,28143108,0.085762784,0.07690957,0.044927623
28164437,28164212,-0.0050582164,0.009148767,0.04681192
28183079,28182837,-0.090756506,-0.029783584,-0.056523073
28202934,28202700,0.010149884,-0.01595545,-0.061177433
28224062,28223836,0.080149904,-0.027447008,0.011168956
28245308,28245083,0.03764502,-0.01859163,0.022714483
28266248,28266012,-0.03225737,0.033338036,-0.01940735
28283617,28283392,-0.008137523,0.066509664,-0.04798657
28304725,28304496,0.020126576,-0.023438537,0.021389773
28325831,28325601,-0.021730829,-0.10594356,0.026604105
28343209,28342981,-0.006600368,0.00058018224,-0.069776244
28364310,28364086,0.047738798,0.07943615,-0.057874728
28385434,28385191,0.064810805,0.07006734,0.01799399
28405289,28405054,-0.040311705,-0.016298316,0.04558657
28423911,28423676,-0.06336136,-0.06529973,-0.057577386
28443764,28443539,0.0580481,-0.011633954,-0.06852562
28464873,28464644,0.08770539,0.032569163,0.0006249749
28482253,28482024,-0.06022801,0.038732525,0.024115266
28503441,28503216,-0.071972705,-0.010805527,-0.03302658
28524641,28524411,-0.013627214,-0.058271628,-0.064714074
28545567,28545341,0.042576212,-0.05697551,-0.023544751
28562946,28562718,-0.0032055797,0.052106816,0.021111788
28584074,28583844,-0.015964566,0.0689659,-0.030923098
28605158,28604930,-0.002616776,0.023815313,-0.048900384
28622534,28622308,-0.001958182,-0.053565517,0.017316505
28643642,28643413,-0.027239705,-0.04227104,0.013634407
28664746,28664518,0.0013245268,-0.0125635555,-0.04469181
28685851,28685622,0.047934834,0.0076793055,-0.06597557
28703238,28703003,0.011023968,0.036694426,0.030534497
28724335,28724108,-0.05875345,0.013693487,0.031034732
28745440,28745212,-0.047990665,-0.054282926,-0.035390273
28762912,28762682,0.04885362,-0.038727872,-0.060103204
28784055,28783830,0.044984013,0.06330482,0.018199021
28805037,28804807,-0.0014361638,0.116885364,0.055227336
28822417,28822182,-0.032555837,-0.070653,-0.050182857
28843522,28843288,0.0024722032,-0.12311177,-0.06418337
28864617,28864391,0.029229978,-0.038163356,-0.017636228
28885720,28885496,0.030252116,0.0809899,0.023576459
28903117,28902881,-0.0077282633,0.018401887,-0.025628507
28924212,28923981,-0.017800268,-0.06910323,-0.048407003
28945314,28945090,-0.025859399,-0.04684272,-0.016801015
28966450,28966217,-0.017103452,0.015975337,0.017879136
28983798,28983571,0.038495358,-0.008105155,-0.02483272
29004921,29004677,0.03587067,-0.018366177,-0.0608727
29024776,29024552,-0.012062916,0.05059794,-0.0002443817
29042284,29042047,-0.028229836,-0.006857181,0.011433345
29063440,29063216,0.0044404427,-0.09524263,-0.055989474
29084352,29084128,0.017784793,-0.0845687,-0.087313056
29105462,29105233,0.019527799,0.054392185,-0.009462829
29122848,29122625,-0.012938845,0.08209755,0.044649225
29143943,29143718,-0.018659677,-0.08899389,-0.02510168
29165054,29164823,-0.015674515,-0.15776876,-0.0855392
29182436,29182206,0.018305173,0.09936623,0.012969417
29203538,29203309,0.038534693,0.14382999,0.039948504
29224652,29224423,0.012148618,0.019075496,-0.0049523283
29245743,29245518,-0.036107074,-0.09319265,-0.053665567
29263124,29262898,-0.027719669,0.0073702596,-0.0012211241
29284243,29284005,0.045745354,0.058937527,0.016474197
29305447,29305223,0.061900858,-0.006229625,-0.011823703
29322848,29322622,-0.032823935,-0.010483315,-0.051071636
29345072,29344836,-0.056990284,0.052319456,-0.004945056
29364934,29364698,-0.011975102,0.042934023,0.031100927
29386037,29385802,0.028740864,-0.064694226,-0.00996963
29403413,29403182,0.0022888405,-0.03178443,-0.05729875
29424520,29424288,-0.020883558,0.11718205,0.0029219834
29445619,29445392,0.013632369,0.13533758,0.039783582
29463000,29462771,-0.0054938216,-0.15920468,-0.03348594
29484108,29483878,-0.029943712,-0.15526024,-0.08070551
29505210,29504981,-0.019108756,0.036485303,-0.04744851
29523838,29523606,0.063420594,0.16261564,0.04326801
29543738,29543512,0.007596465,-0.043316726,0.013317328
29564881,29564647,-0.07016564,-0.13614513,-0.040478397
29582270,29582041,-0.008353698,0.048185408,-0.033270203
29602250,29602007,0.10032963,0.096127175,0.021369614
29624398,29624161,0.08440798,0.022774009,0.018023867
29644254,29644024,0.005211554,-0.06573414,-0.008317024
29665357,29665129,-0.059761025,-0.02344017,-0.036795396
29682739,29682510,-0.05672669,0.06927518,-0.028266514
29703842,29703614,-0.023495933,0.008564913,-0.011522829
29724949,29724723,-0.0019075036,-0.11066455,-0.009324156
29742336,29742105,0.060529232,-0.13699083,-0.05152641
29763432,29763206,0.08496663,-0.029196016,-0.04655965
29784534,29784308,0.09271583,0.11205598,0.018050954
29805648,29805413,0.10348693,0.22726946,0.0841002
29823087,29822858,-0.07159538,0.15039782,0.046980705
29844178,29843955,-0.117163025,0.03175148,-0.009834011
29865445,29865218,-0.12809557,-0.053519752,-0.046434864
29882610,29882383,0.040751696,-0.14030644,-0.113728546
29903712,29903488,0.08621772,-0.06703261,-0.074278705
29924820,29924592,0.12478008,0.0052512307,-0.040395074
29945933,29945701,0.17543197,0.12665918,0.019754194
29963314,29963077,0.17319055,0.05232811,0.020821175
29984412,29984182,0.10388246,0.025339702,-0.009676687
30005539,30005309,-0.1227196,0.059391785,0.0005686093
30022932,30022709,-0.15286268,0.033968836,0.011798495
30044003,30043772,0.055174954,0.082875356,-0.096671894
30065111,30064877,-0.032818507,0.13492022,-0.0123337945
30086211,30085982,0.090002395,-0.0074176355,0.02299584
30103611,30103383,0.08197138,0.024667075,0.03792872
30124818,30124589,-0.004767772,-0.013344767,-0.028273486
30145794,30145571,0.055544846,0.051882528,-0.028625261
30163183,30162953,-0.010087216,0.04284587,0.016473593
30184293,30184060,0.024352549,-0.015702784,-0.093937635
30205398,30205161,0.052509833,-0.026267461,-0.044744547
30222771,30222542,-0.014030713,-0.031476863,-0.02769846
30243921,30243681,0.053749003,-0.038805034,0.046538785
30263752,30263516,-0.077725835,-0.044009246,-0.0023829984
30283619,30283383,0.0069128512,-0.009505067,-0.009664772
30302228,30301994,-0.102351405,0.01230491,-0.035014194
30323332,30323101,-0.060783003,0.03804826,-0.025950352
30344439,30344209,0.014647339,-0.010675053,0.031697936
30365586,30365360,-0.03692377,-0.0046307067,0.0063357153
30382982,30382754,-0.10027317,-0.010095553,0.018956544
30404185,30403959,-0.057116717,0.030341681,-0.016957974
30425124,30424898,0.07006943,0.08626144,-0.054771427
30442512,30442281,-0.02905012,0.049743496,-0.08384473
30463611,30463383,0.06382133,0.045762032,-0.0048028957
30484715,30484488,0.001407063,-0.008862411,0.017608572
30505822,30505593,0.079972155,-0.013219137,-0.07979643
30523204,30522974,-0.09192903,0.0031465013,-0.015654454
30544305,30544080,0.008968246,-0.0050875167,-0.04891937
30565422,30565186,0.09401109,0.026835166,-0.044623177
30582787,30582563,0.047924507,0.03336142,-0.09548611
30603903,30603679,0.037906334,0.02459568,0.030914845
30625004,30624776,0.0075968397,-0.062315997,0.033559106
30646146,30645913,-0.050373994,0.015587169,-0.036179252
30663602,30663379,-0.09860834,0.0029519238,-0.064408004
30684591,30684362,-0.048614465,0.032708567,-0.053167164
30705700,30705474,0.07282545,-0.057001527,0.044597123
30723074,30722847,0.06805354,-0.06341567,0.008404065
30744188,30743956,-0.06271238,-0.008371235,0.022805186
30765292,30765059,-0.08904346,0.053437788,-0.04470559
30786396,30786161,0.018096816,0.026272925,-0.0655253
30803775,30803541,-0.011687317,-0.0378222,-0.007454357
30824888,30824647,-0.016730273,-0.12134311,-0.0023055188
30845979,30845751,-0.12122419,-0.021463,0.0027083345
30863379,30863135,-0.048023283,0.048316427,0.0151901655
30883234,30883000,-0.05276939,0.07441483,-0.021554127
30904374,30904146,0.10061228,0.06397756,-0.021121707
30925509,30925284,0.063303396,0.028975196,0.014018781
30943003,30942770,-0.027628018,0.0056814724,0.014317022
30963921,30963689,-0.042565696,0.023101127,-0.013058037
30985018,30984793,0.04096806,0.026920464,-0.063754894
31002419,31002184,0.08550667,0.08010119,-0.015582611
31023513,31023281,0.044916462,-0.037569806,-0.0073365592
31044613,31044387,-0.10357898,0.0057527735,-0.007152441
31065711,31065488,-0.0617873,0.034597605,-0.06926485
31083107,31082873,-0.007873155,-0.0012311372,-0.074194536
31104203,31103973,-0.025688361,-0.050308842,0.020813014
31125302,31125078,-0.0756627,-0.049182743,0.06271549
31142691,31142460,-0.044116218,-0.042240553,-0.017916547
31163789,31163564,-0.011909518,-0.013769396,-0.026905334
31185027,31184802,0.09601583,-0.028911386,-0.020593492
31206152,31205912,-0.0038789208,-0.052627675,0.011019039
31223378,31223153,-0.01383223,-0.034022726,0.04791909
31244482,31244258,-0.027896097,0.08693825,-0.016811915
31265593,31265362,0.052872747,0.046128254,-0.013101851
31282968,31282742,0.08754036,0.005047906,-0.06226939
31304072,31303850,-0.035433874,0.032330662,0.013368727
31325181,31324952,-0.02152048,0.0916829,-0.015477137
31346287,31346056,0.113551676,-0.0958739,-0.04054885
31363662,31363437,0.13663757,0.005871159,0.013385603
31384771,31384542,0.011364922,-0.108704016,0.0024208056
31405885,31405648,-0.11020194,-0.034382798,-0.043056544
31423300,31423078,-0.037284553,-0.050828516,-0.067482464
31444413,31444179,0.0028199537,-0.0029386173,0.0074850046
31464366,31464138,-0.08829743,0.111979954,0.029070912
31485513,31485287,-0.002718558,-0.005495846,0.004033781
31503960,31503721,0.09904498,-0.043697897,-0.005143769
31523813,31523584,-0.0059685074,0.030310368,-0.013100199
31544923,31544690,-0.016465364,0.022553176,-0.014308914
31562331,31562101,-0.024985876,0.046351083,-0.031841405
31583406,31583174,0.062595576,-0.029484332,0.03196293
31604518,31604281,-0.08983391,-0.023524566,0.018968927
31625619,31625384,0.007406427,0.015080439,-0.005744326
31642993,31642764,0.06273924,-0.00872872,-0.012406891
31664100,31663869,-0.01614215,0.047596645,-0.010852788
31685202,31684973,0.04823355,-0.105563864,-0.025891457
31702578,31702350,0.13249794,-0.05081106,0.0068725236
31723726,31723498,0.0024521262,-0.0049967705,-0.022810912
31744926,31744700,0.06785162,-0.00492689,0.0032889314
31765891,31765668,0.050916635,0.033441547,0.001029168
31783283,31783052,-0.03365498,0.032306865,-0.048837874
31804387,31804153,0.0024708235,-0.024378171,-0.048120175
31825482,31825258,0.05685148,0.028386874,0.011584876
31842870,31842639,-0.06853236,-0.004495834,-0.01435423
31863967,31863744,0.07595634,-0.057650767,-0.018621748
31885123,31884898,-0.059057042,0.06740559,0.023563666
31906187,31905953,-0.0010654748,0.00986116,-0.0038401538
31923555,31923332,0.042985253,0.03980054,0.043759614
31944667,31944438,-0.06861895,-0.049500506,-0.08569051
31965774,31965542,0.08555144,-0.013343757,0.0039527724
31983162,31982937,0.017430313,-0.07636971,-0.01738521
32004353,32004127,-0.05356269,0.056422945,-0.0029509307
32025374,32025136,-0.08750147,-0.035163812,0.010928174
32046471,32046236,-0.06270524,0.022122981,0.028176539
32063843,32063617,-0.075532265,0.043782163,-0.026002256
32084956,32084721,0.08855554,-0.032651853,-0.01277655
32104827,32104597,0.033065666,0.08696315,0.0008317141
32123434,32123206,-0.08374602,-0.049763314,-0.06845184
32143300,32143070,0.03804023,-0.0032590483,-0.004959354
32164403,32164174,-0.0064111836,0.03584991,-0.0021216744
32185506,32185280,0.066458315,0.0011264912,-0.008037134
32202889,32202660,-0.00140618,-0.03656064,-0.035222065
32223996,32223764,0.02036058,-0.012888858,-0.030211065
32245145,32244919,-0.0027189339,-0.06800578,0.021258794
32262567,32262341,-0.0029006514,-0.023279773,-0.017566238
32283725,32283497,0.0034851565,0.0075020404,-0.053173963
32304688,32304459,0.03588787,-0.01794929,-0.011576391
32325793,32325564,-0.0018712201,-0.019279955,0.015793893
32343189,32342951,0.012248859,-0.06704881,-0.0217914
32364287,32364051,0.0060572294,0.07438621,0.014183088
32385383,32385153,0.04819539,-0.008759876,-0.016548479
32402788,32402555,0.034350883,0.0342151,0.0208997
32423872,32423639,-0.04619765,-0.056245346,-0.0064589633
32444971,32444743,0.02343311,0.009859785,-0.002299491
32462357,32462124,-0.02640427,0.05830496,-0.005410479
32483467,32483230,0.0702494,-0.013560964,0.01779096
32504591,32504365,-0.018248672,-0.018264197,-0.00863616
32525680,32525457,0.050668124,0.064267494,-0.04563971
32543153,32542923,-0.06316318,0.037287015,-0.024782611
32564155,32563926,0.062062,-0.05155103,0.0477276
32585312,32585081,-0.050059136,0.03301243,0.028032333
32606372,32606132,0.07226558,0.036309127,-0.047983028
32623737,32623512,-0.020295685,0.104497686,-0.0010848738
32644851,32644619,-0.003734188,-0.054610375,0.008359589
32665961,32665722,-0.037323058,-0.032494098,-0.0030145273
32683326,32683102,-0.0066148723,0.016614232,-0.051199853
32704438,32704207,-0.037491888,0.062344,0.015211866
32724296,32724071,0.0666478,-0.066082455,0.00963444
32745411,32745175,-0.03555124,0.026817225,0.02044979
32762787,32762562,0.036886618,0.011764765,-0.04268365
32783918,32783692,-0.02077286,0.0954813,-0.017931951
32805136,32804897,0.0074012005,-0.040341195,0.010714426
32822519,32822293,-0.03220006,-0.049326688,0.025602443
32843472,32843250,0.023615003,-0.053521577,-0.035084218
32864587,32864355,-0.014335739,0.0330517,-0.02643009
32885694,32885462,-0.0754383,-0.013079291,-0.006543977
32903064,32902839,-0.07239416,0.020417478,-0.011201984
32924173,32923944,0.08500136,-0.019145764,-0.023879105
32945282,32945050,-0.013518956,0.011741682,-0.025716748
32962688,32962461,-0.024990413,-0.13273796,-0.021043923
32983764,32983536,-0.07351264,-0.028307233,-0.02312321
33004872,33004639,0.016361792,-0.026583808,0.006705155
33025971,33025744,0.045984156,0.016792728,0.007815082
33043362,33043131,-0.07721092,0.062194917,0.021028064
33064535,33064308,0.0028035769,-0.0039746854,0.0011744786
33085678,33085453,0.033875436,0.0037519943,-0.0087313885
33102951,33102714,0.008963255,0.0070183882,-0.029939078
33124060,33123821,-0.024821399,-0.027545549,-0.02470623
33145149,33144923,0.011253708,0.012502323,-0.035576988
33162532,33162303,-0.0021515244,0.012338666,0.028378606
33183643,33183413,0.032805014,0.011465675,-0.0027113142
33204744,33204513,-0.03474926,-0.00028304633,-0.0061700456
33225843,33225617,-0.009558842,0.021081,0.03602522
33243231,33242998,-0.019993572,-0.035024263,-0.015484764
33264333,33264103,-0.023727693,-0.004933716,-0.01438673
33285436,33285207,-0.05674012,-0.020075187,0.0004813802
33305296,33305071,-0.0016722276,-0.045574013,0.0202253
33323954,33323723,-0.05247398,0.01373327,0.006721288
33343907,33343681,0.033335667,0.052130867,-0.008857689
33365055,33364831,-0.018611282,0.020501092,-0.017474076
33382272,33382041,-0.0258241,0.0022162995,0.0014861665
33403372,33403145,0.021382578,0.01581078,0.019105535
33424477,33424251,-0.027826784,-0.042033624,-0.0058219773
33445592,33445364,0.07418359,-0.013543096,-0.016774742
33462960,33462735,-0.04014258,-0.00021564671,-0.015728619
33484068,33483840,0.008912355,-0.012510105,-0.023672426
33505179,33504947,0.027051635,0.024469549,-0.03021398
33522551,33522325,-0.07250671,-0.020454878,0.01562801
33543654,33543430,0.014892082,0.0074017458,-0.004499963
33564765,33564538,0.01830858,0.009401137,-0.008874299
33585873,33585641,-0.010193388,-0.015623359,-0.014114721
33603320,33603093,0.043906454,-0.0135239065,0.0064856806
33624475,33624247,0.010092456,-0.048433375,-0.025748516
33645476,33645249,0.05646599,0.010694916,0.009937926
33662833,33662609,-0.01635776,-0.05720877,0.025642497
33683955,33683714,0.05048328,-0.01919279,-0.041117996
33705053,33704818,-0.0020326697,0.028049357,-0.0461796
33726153,33725923,0.020350806,0.037905246,-0.025645597
33743534,33743304,-0.0019147269,-0.0006014377,-0.013697443
33764644,33764409,-0.010579921,-0.032093894,0.0030809254
33785738,33785513,0.019300867,-0.008160948,-0.026427353
33803130,33802895,0.027715743,-0.003695657,0.0029335285
33824228,33823998,-0.016781969,0.006326351,-0.012636864
33845329,33845103,-0.01276305,-0.024648543,-0.011624332
33862713,33862483,0.02843242,-0.04255889,0.010878107
33883907,33883673,-0.006953523,-0.03602878,-0.054570157
33903854,33903628,0.005424468,-0.04186284,0.0073317103
33922307,33922074,-0.012195174,0.010652499,-0.019611014
33943417,33943178,-0.063170634,0.065194726,0.012687075
33963278,33963046,-0.08023104,-0.010695465,-0.025686858
33984377,33984146,-0.061535813,-0.02907495,-0.004368854
34005518,34005295,-0.04896776,-0.039013147,0.005598391
34022866,34022632,-0.072332196,-0.014456949,0.02620851
34043962,34043737,-0.1342224,-0.024123697,0.011691938
34065066,34064840,-0.0068659554,-0.05680196,-0.0037498001
34082456,34082223,0.035963736,-0.04401417,-0.01762658
34103550,34103325,0.024484647,-0.09879162,0.0069554416
34124661,34124437,-0.06968576,-0.08782123,0.026243638
34145812,34145583,-0.13131915,-0.056532275,0.041179404
34163323,34163098,-0.029089717,-0.07018884,0.034388628
34184252,34184026,0.032256633,-0.073789425,0.036449727
34205356,34205126,-0.022864716,-0.07349146,0.050254986
34222733,34222505,-0.0299196,-0.068393834,0.05847874
34243834,34243609,0.05181501,-0.058770187,0.031151496
34264951,34264714,0.0032034107,-0.059886403,0.03751035
34286048,34285820,0.029222978,-0.00045597623,0.04391014
34303440,34303216,0.052164894,0.012390107,0.034201596
34324532,34324305,0.1691826,0.042280894,0.06323458
34345636,34345409,0.28018752,-0.028105471,0.040817596
34363018,34362790,0.26403722,-0.095086664,0.01803256
34384126,34383896,0.31886682,-0.07730568,0.044579644
34405241,34405007,0.17218378,0.12305899,0.061391704
34426435,34426208,0.037773002,0.16522174,0.10826666
34443903,34443666,-0.12766021,0.114002384,0.05969715
34464879,34464644,-0.006862264,0.025574092,0.029023038
34485929,34485694,0.096678026,-0.0073678805,0.060229596
34503303,34503074,0.15283108,-0.10593132,0.012586771
34524416,34524178,0.06486727,0.008888105,-0.06135963
34544272,34544042,0.13522412,0.097483374,-0.09499052
34562898,34562663,0.102446906,0.12327593,-0.09981663
34582758,34582527,0.0071858787,0.015621969,-0.08758158
34603856,34603631,0.0891863,-0.10911507,-0.045778256
34624963,34624737,0.024554227,-0.031244423,-0.056041636
34642349,34642121,-0.0776246,-0.03484851,-0.05533555
34663449,34663223,-0.07815128,0.05581939,-0.044610158
34684605,34684381,-0.10907281,0.16648632,-0.07322458
34705799,34705576,-0.029086325,0.22722146,-0.047344636
34723042,34722812,-0.029628485,0.20680198,-0.10004252
34744147,34743920,0.12084342,0.15216944,-0.081570305
34765250,34765021,0.1374524,0.1467277,-0.08087025
34782641,34782411,0.10101985,0.06507233,-0.04952016
34803735,34803506,0.082204774,0.02678969,-0.042177767
34824870,34824645,-0.03365522,0.060731776,-0.037088264
34845946,34845715,-0.15684223,0.07316414,-0.011857104
34863322,34863096,-0.0809977,0.014537352,-0.029179003
34884435,34884205,-0.12529524,0.052682217,-0.039003275
34905553,34905326,-0.051650256,-0.0064261495,-0.02059945
34922916,34922685,0.0025536965,0.03186138,-0.054000042
34944082,34943858,-0.014721686,0.02839869,-0.055225343
34965231,34964996,-0.02202445,-0.016366944,-0.056242507
34986235,34986001,-0.11225254,-0.0098259235,-0.0696356
35003606,35003382,-0.017151212,-0.032285467,-0.020701818
35024717,35024484,-0.051956274,-0.0032594337,-0.032279346
35045832,35045596,0.00086203957,0.058391377,-0.05460771
35063204,35062973,-0.040946156,0.04318405,0.0022972522
35084311,35084076,-0.019602505,0.10019604,-0.0131730195
35105417,35105180,-0.012457577,0.07030182,-0.023256
35125284,35125045,-0.043025263,-0.05170395,-0.014030345
35143903,35143664,-0.10395558,-0.06634342,-0.017944494
35163772,35163543,-0.13178335,-0.07926658,-0.024687603
35184864,35184632,-0.10584305,-0.117958635,-0.0006240791
35202259,35202030,-0.13587524,-0.109928496,-0.02480361
35223401,35223172,-0.06208551,-0.15946405,-0.015699329
35244615,35244387,-0.09881721,-0.1442101,-0.01946544
35265555,35265327,-0.092095785,-0.243444,-0.001170169
35284180,35283947,0.05476216,-0.2667157,-0.021187922
35304052,35303816,-0.055358287,-0.17640036,-0.054618668
35325146,35324916,-0.05304399,-0.14449954,-0.03163482
35342525,35342297,-0.057888605,-0.036008675,-0.0077193794
35363633,35363402,-0.092996396,-0.021162158,-0.030372549
35384735,35384506,-0.12184704,-0.0684579,-0.027963074
35403371,35403132,-0.099830076,-0.051710382,-0.016852494
35423230,35422994,-0.18654634,-0.032434978,-0.014571834
35444322,35444096,-0.12577054,-0.091446385,0.0138618555
35465433,35465205,-0.09014984,-0.08902228,0.0018291712
35482850,35482611,-0.09506422,-0.11595671,0.0078042974
35504024,35503794,-0.051864475,-0.11043352,-0.010782582
35525018,35524790,-0.031880323,-0.16820174,-0.0018670954
35546133,35545895,-0.07748745,-0.2037973,0.018756827
35563502,35563276,-0.14850928,-0.20496249,0.014385054
35584606,35584381,-0.15141727,-0.25493923,0.018135563
35606966,35606731,-0.071660034,-0.22625683,0.016360756
35623091,35622866,-0.02183587,-0.20689517,0.026706731
35644202,35643970,0.09455484,-0.22410311,0.031053387
35665303,35665075,0.09120345,-0.21112531,0.021746285
35686419,35686180,0.018943202,-0.20422998,0.018805569
35703788,35703560,-0.011207269,-0.27924535,0.039301958
35724904,35724665,-0.104054175,-0.3112343,0.023579739
35744781,35744551,-0.111719556,-0.382114,0.031815156
35763444,35763215,-0.07032232,-0.38377008,0.02874344
35783389,35783166,-0.089779325,-0.32037595,0.004261597
35804349,35804118,-0.04595235,-0.33035398,0.008197253
35825455,35825224,-0.013739766,-0.311583,-0.0047593866
35842827,35842603,-0.03506618,-0.31059176,-0.018002942
35865188,35864950,-0.060975686,-0.24104947,-0.02300755
35885044,35884813,-0.04548656,-0.20014781,-0.029688036
35902425,35902198,-0.03414004,-0.18224855,-0.03261137
35923548,35923318,0.032218974,-0.13598804,-0.03646058
35944632,35944403,0.0074622,-0.057372805,-0.048834767
35965732,35965507,0.05012886,-0.06547075,-0.05006407
35983118,35982887,0.009882783,-0.08547934,-0.01887025
36004244,36003997,-0.020843115,-0.08100608,-0.02014046
36025405,36025182,-0.008516676,-0.102507316,-0.004986898
36042825,36042595,-0.006580579,-0.12228114,-0.029107893
36063815,36063582,0.015359421,-0.12973808,-0.024319883
36084913,36084687,0.027862392,-0.10888188,-0.027002912
36106014,36105788,0.016009271,-0.0622719,-0.038048156
36123406,36123172,0.018952016,-0.047257584,-0.036059316
36144510,36144277,0.006406047,0.002836416,-0.052126486
36165610,36165383,-0.009548144,-0.028910013,-0.049401682
36182998,36182764,0.003639482,-0.034547027,-0.047529582
36204096,36203870,-0.045932375,-0.02523597,-0.0472016
36225197,36224971,-0.04444733,-0.029423011,-0.030115772
36246305,36246076,-0.066795304,-0.006227764,-0.032884542
36263682,36263456,-0.063743696,0.014709949,-0.07524266
36284785,36284561,0.006881327,0.058444645,-0.038202863
36304732,36304499,0.023369344,0.14209509,-0.06493527
36323452,36323215,0.09587182,0.19087367,-0.09295796
36344397,36344165,0.1841123,0.20023732,-0.061307468
36364242,36364014,0.18185619,0.25421187,-0.077545136
36385352,36385121,0.19955425,0.28945783,-0.05531108
36402728,36402499,0.21867914,0.33326438,-0.068496294
36423829,36423604,0.23445742,0.4054678,-0.07887521
36444975,36444746,0.26157245,0.48717004,-0.068625405
36462314,36462089,0.25093612,0.56806535,-0.05437345
36483417,36483193,0.25118265,0.5856283,-0.068101175
36504527,36504298,0.29364917,0.5024548,-0.063783
36525633,36525403,0.3437586,0.39640042,-0.05787648
36543057,36542825,0.32448387,0.29832232,-0.013211964
36564147,36563920,0.3092612,0.20304583,-0.014890123
36585357,36585131,0.27804577,0.08629723,-0.031209439
36602598,36602373,0.20744234,0.08602391,0.025757734
36623706,36623478,0.13349265,0.103227146,0.0027292927
36644813,36644583,0.12509274,0.12414655,-0.0066778134
36665914,36665687,0.1660565,0.11984465,-0.029282475
36683294,36683067,0.208447,0.13334544,-0.00092672027
36704450,36704225,0.24827267,0.12758671,0.0051460513
36725507,36725277,0.3226321,0.13964118,0.0047320626
36742888,36742657,0.31417444,0.09908903,-0.015561322
36763999,36763762,0.324858,0.05602727,0.013880675
36785093,36784867,0.2338872,0.042574763,0.013931518
36806221,36805991,0.10324197,0.014405781,0.010644322
36823582,36823354,0.049749896,-0.0067404793,0.0069469833
36844794,36844566,-0.13392799,0.020741377,0.006969015
36864733,36864506,-0.23576118,0.026719961,0.028216276
36883176,36882944,-0.25106743,0.03794862,0.006712264
36904274,36904047,-0.3082908,0.019275399,0.011697562
36925430,36925188,-0.31030712,0.00828088,0.013485709
36946491,36946256,-0.30810988,0.02255884,0.019305518
36963874,36963641,-0.3393991,0.050270863,0.012440235
36983725,36983501,-0.29729658,-0.027970532,-0.0002619862
37004829,37004604,-0.24349259,0.006673887,-0.0017404748
37023456,37023226,-0.20712636,-0.02882828,0.015412751
37043317,37043092,-0.11068348,-0.05494906,0.0028473837
37064426,37064199,-0.08881977,-0.06638979,-0.003390146
37085531,37085303,-0.076803975,-0.0962555,0.0060705952
37103011,37102779,-0.14782542,-0.011219229,0.013392071
37124148,37123924,-0.29464605,-0.0382354,0.037002582
37145119,37144889,-0.2932031,-0.038476367,0.018152028
37162493,37162269,-0.3721884,-0.048357204,0.0020763425
37183635,37183411,-0.35763338,-0.02360816,-0.00075168314
37204713,37204479,-0.28868857,-0.0027989969,0.02242211
37225812,37225583,-0.19426668,-0.0010316528,0.0047785933
37243188,37242964,-0.16616067,0.013206399,0.01750825
37264301,37264068,-0.13910688,-0.014608281,0.009549633
37285400,37285173,-0.20796956,-0.043336846,0.008583556
37302790,37302553,-0.32545012,-0.02778902,0.055964928
37323889,37323660,-0.3647003,0.0019207966,0.03842844
37344994,37344764,-0.33791804,-0.03468641,0.030864134
37366152,37365919,-0.2423339,0.04006685,-0.06476698
37383574,37383345,-0.19388227,0.063411936,-0.07980388
37404776,37404546,0.029830212,0.0338071,-0.012968454
37425687,37425459,0.1856941,0.06759547,0.012128757
37443066,37442837,0.27990243,0.06594703,0.042476617
37464168,37463942,0.3617215,0.09841821,0.05288836
37485271,37485047,0.3105626,0.17455627,0.059217166
37502659,37502428,0.26427525,0.19538876,0.03154994
37523781,37523552,0.21694295,0.23814628,0.06662755
37544860,37544637,0.105829,0.25089926,0.06879191
37564724,37564500,0.10762507,0.22064841,0.06913725
37583358,37583122,0.03804469,0.20842507,0.069248326
37604472,37604244,0.081150524,0.15670855,0.056761045
37624337,37624112,0.09051511,0.14280766,0.082239866
37645522,37645298,0.14354828,0.13986702,0.08836489
37662945,37662718,0.14977145,0.053478688,0.048631757
37683909,37683680,0.15952316,0.07309139,0.057190564
37705011,37704785,0.11778532,0.057283897,0.07198994
37722402,37722168,0.10688139,0.039096527,0.07630415
37743495,37743270,0.107903965,0.058172125,0.04538592
37764632,37764407,0.06454057,0.07823265,0.06157413
37785709,37785479,0.07679544,0.096874796,0.0606646
37803104,37802876,0.04492162,0.09299307,0.059067067
37824191,37823964,0.06561896,0.049559,0.030177131
37845303,37845070,0.06964763,0.071778074,0.050024282
37862682,37862452,0.06350785,0.048213523,0.037263136
37883788,37883559,0.07473296,0.060544048,0.04527652
37904955,37904727,0.08572417,0.06539064,0.057945985
37926101,37925875,0.073281355,0.021861255,0.05347606
37943375,37943148,0.08684485,0.028651971,0.020901278
37964485,37964249,0.056917973,0.016986573,0.045146994
37985630,37985400,0.047335606,0.023093265,0.026308307
38002962,38002734,0.051653497,0.037338834,0.019783724
38024069,38023840,0.031635653,0.010808142,0.021449227
38045192,38044948,0.065675564,0.0020532554,0.021189775
38066275,38066048,0.08335718,0.03884445,0.010662231
38084915,38084674,0.08663099,0.07454683,0.00889809
38104765,38104537,0.061011583,0.06564464,0.010959372
38125872,38125638,0.043865047,0.028873913,-0.009377855
38144503,38144268,0.03321888,0.07944707,0.0049392083
38164355,38164123,0.04704167,0.09098232,0.001554372
38184285,38184052,0.045364983,0.07227369,0.008811936
38205481,38205253,0.06892983,0.07513203,-0.010898937
38222710,38222473,0.056360546,0.04268808,-0.008601601
38243817,38243581,0.06860516,0.057476643,0.0041464763
38262440,38262203,0.08119885,0.054485306,-0.015474743
38282292,38282061,0.07567574,-0.0025997385,-0.013192518
38303397,38303167,0.085823506,0.0061136233,-0.025371006
38324496,38324271,0.06461822,0.0060512223,-0.037819058
38345632,38345405,0.041947734,0.006749285,-0.016729722
38362989,38362760,0.035297465,0.044516392,-0.0016794825
38384085,38383860,0.061098,0.011826566,-0.011172957
38405203,38404967,0.054707777,-0.02490854,-0.018604152
38422577,38422347,0.09195356,-0.015865184,-0.037061676
38443709,38443483,0.10136865,-0.05146063,-0.03846691
38464918,38464680,0.10996609,-0.056303937,-0.039818555
38485891,38485660,0.0848475,-0.05742449,-0.03969347
38503266,38503040,0.038525973,-0.071011096,-0.020757413
38524373,38524145,0.046402838,-0.13140385,-0.018406127
38546736,38546495,0.004485797,-0.17638426,-0.01706576
38562859,38562632,0.031524234,-0.25311133,-0.040155884
38583960,38583735,0.058384605,-0.27685907,-0.0383794
38606330,38606088,0.066913076,-0.29283947,-0.034664962
38626178,38625946,0.041379046,-0.3010035,-0.028659841
38643558,38643328,0.015255914,-0.3233205,-0.04229376
38665914,38665674,0.048477445,-0.36818758,-0.0557946
38685768,38685536,0.05858249,-0.37288302,-0.04686442
38703148,38702924,-0.023045018,-0.30048323,-0.020277623
38725588,38725355,0.011769682,-0.22230911,-0.042502068
38744275,38744045,-0.039153617,-0.20346093,-0.03809044
38766461,38766229,0.0037119535,-0.1538783,-0.06927744
38783836,38783609,-0.049787726,-0.10873246,-0.039399132
38804965,38804727,0.021826591,-0.0865625,-0.033859834
38824818,38824581,0.048701867,-0.08173686,-0.05139556
38844680,38844445,0.07319391,-0.08619066,-0.05040797
38863334,38863104,-0.014447499,-0.08086461,-0.027641645
38884406,38884171,0.025188651,-0.122974314,-0.028576326
38905508,38905272,-0.011062846,-0.12403757,-0.06415644
38922884,38922652,-0.010256527,0.0019479505,-0.050908178
38943994,38943759,-0.048452966,0.011295576,-0.05456478
38965089,38964863,-0.0077821338,0.003873247,-0.03969079
38982545,38982315,-0.042258587,-0.002090571,-0.060548835
39003717,39003475,0.0074320217,-0.050039284,-0.03482899
39024676,39024451,0.015238503,-0.0319736,-0.034711525
39042066,39041832,-0.05477622,0.03188255,-0.041408036
39063216,39062981,-0.037144206,0.001342108,-0.016828706
39084266,39084041,-0.041359633,0.009807842,-0.03279736
39105375,39105146,-0.011250874,0.044990346,-0.052181307
39122755,39122527,-0.0029883285,0.057409205,-0.016880913
39143855,39143631,-0.02129871,0.055802014,-0.01614363
39164959,39164736,-0.038308427,0.07121527,-0.014558775
39186069,39185841,-0.008704266,0.06752488,-0.027129171
39203449,39203221,-0.07491763,0.1040036,-0.008991052
39224556,39224327,-0.038244717,0.07955853,-0.004778158
39245706,39245479,-0.009687739,0.04995361,-0.017236924
39263112,39262886,-0.06683433,0.061583366,-0.001993324
39284363,39284136,-0.016261738,0.06481083,0.011301359
39305258,39305023,-0.015638648,0.03212876,0.009962104
39326346,39326121,-0.026100704,0.019979808,0.025915945
39343734,39343505,0.017899502,0.016832603,-0.009459123
39364840,39364610,-0.022632744,-0.004124802,0.0045314166
39385946,39385715,-0.05833207,0.02089787,0.01662914
39403319,39403095,-0.015813066,0.013716212,0.0077060964
39424437,39424206,-0.04369459,0.011836292,0.013946171
39444295,39444063,-0.062232636,0.0428212,0.01206877
39465396,39465168,-0.028837351,0.01991491,0.020635067
39482777,39482548,-0.04602907,0.007429539,0.0023039172
39503883,39503654,-0.034688268,0.008000104,0.013973488
39525023,39524797,-0.023922674,-0.05324144,0.017554356
39542491,39542265,-0.0100451885,-0.023891404,0.036764245
39563473,39563243,-0.009399545,-0.021430079,0.03743972
39584578,39584352,-0.019264573,-0.048952084,0.018092457
39605679,39605452,0.009250161,-0.02616915,0.017641855
39623060,39622832,-0.06987059,0.012655835,0.04563225
39644176,39643940,-0.03360614,-0.0088556465,0.015029804
39665270,39665044,-0.020383546,0.009769598,0.013577621
39682652,39682423,-0.016343256,0.03065121,0.057811663
39703759,39703528,-0.016624816,0.044374812,0.05702141
39724856,39724632,-0.003428934,0.016430436,0.0401652
39746006,39745781,-0.0070486246,0.02818466,0.04003011
39763352,39763118,-0.03946856,0.043785967,0.07044034
39784449,39784225,-0.06035275,-0.026197273,0.05714119
39805647,39805424,-0.020857457,-0.043423694,0.06521722
39823120,39822893,-0.026514117,-0.055297993,0.064810984
39844039,39843812,-0.044089805,-0.04685577,0.07283349
39865142,39864916,-0.019355332,-0.02325484,0.07570808
39886249,39886021,-0.034693602,-0.008376648,0.07831283
39903632,39903402,-0.027296405,0.0040923757,0.072285116
39924734,39924506,-0.022078354,-0.029871339,0.075428754
39945841,39945611,-0.034934495,-0.038445093,0.087048575
39963221,39962991,-0.001424221,-0.04805175,0.062483937
39984328,39984096,-0.01208441,-0.04538483,0.05578345
40005440,40005208,-0.0041295253,-0.055498302,0.065148145
40025303,40025064,-0.0061694584,-0.05246937,0.06783639
40043934,40043686,-0.009138523,-0.054260734,0.043123264
40063815,40063592,0.0063250745,-0.055476792,0.04775461
40085024,40084794,-0.008183544,-0.027769811,0.042275347
40102262,40102034,-0.04196499,-0.0036002584,0.07093028
40123366,40123141,-0.021278208,-0.0005397034,0.07077039
40145724,40145488,-0.036797237,-0.019680744,0.04217503
40165589,40165351,-0.019888746,0.008461517,0.05930018
40182954,40182730,-0.05055095,0.005629525,0.075404994
40204064,40203835,-0.029066775,0.02850501,0.053139877
40225213,40224981,-0.028529558,0.018476183,0.055976603
40242547,40242319,-0.042719547,-0.0069788788,0.048716426
40263652,40263423,-0.00942303,-0.0100426525,0.04061452
40284801,40284567,0.009083093,-0.015784923,0.038073447
40305860,40305633,0.008275567,-0.0127550885,0.028299246
40324507,40324274,0.014864115,-0.029351221,0.030796988
40344466,40344236,-0.0014438838,-0.022898812,0.028220564
40365454,40365226,-0.023767184,0.0041346527,0.014549237
40384087,40383848,-0.023155352,0.015551426,0.031834252
40403951,40403711,-0.048391756,0.022879712,0.041603483
40425041,40424813,-0.026788028,0.027926238,0.02997989
40442433,40442198,-0.007066142,0.004624046,0.03560815
40463578,40463346,-0.01750241,0.017594544,0.039152596
40484630,40484402,-0.057568986,0.008339475,0.03247945
40505731,40505507,-0.05236493,0.0066537894,0.029050205
40523127,40522892,-0.07297638,-0.0043163956,0.0076974872
40544222,40543992,-0.017191108,-0.0022547408,0.014501658
40565320,40565097,0.009485692,0.029867433,0.008697395
40585188,40584964,-0.0012849935,0.031075124,0.0048493934
40603872,40603637,0.052174285,0.00693554,0.014848286
40623824,40623598,-0.026064621,0.0061824466,-2.5114263e-05
40644776,40644550,0.0046755695,-0.029441716,-0.019792171
40663408,40663172,0.006855917,-0.029264389,0.015275421
40683270,40683036,-0.04795867,0.0025899357,0.016647434
40704370,40704140,-0.058587153,0.020001732,0.017160494
40725475,40725245,-0.12444665,0.0428876,-0.0076300516
40742851,40742625,-0.08089042,0.024534829,0.032688096
40763953,40763730,-0.048862953,0.01092018,0.0341006
40785064,40784835,0.012258137,-0.012385665,0.036610305
40802451,40802216,0.022409026,-0.039937384,-0.00988613
40823546,40823320,0.057201095,-0.032632474,0.0011806202
40844655,40844425,0.012991349,-0.04893326,-0.0072253356
40865833,40865608,-0.017092254,0.0028489185,-0.0046338295
40883241,40883010,-0.042310804,0.0068288264,0.0070043714
40904251,40904011,-0.048231408,0.03293847,0.012106237
40925361,40925123,-0.04209554,0.022122566,-0.0035081755
40942726,40942500,-0.015614931,-0.0044457885,0.023074524
40963832,40963604,0.019421684,-0.012206994,0.024986502
40984948,40984715,0.0280883,-0.0059831357,0.02020637
41006041,41005814,0.022331566,-0.0030951765,0.0012446592
41023432,41023199,-0.0005042796,-0.04754543,0.024915125
41044541,41044315,-0.02952792,0.022886612,0.01776376
41065629,41065403,-0.042475212,-0.011531724,0.028482169
41084261,41084028,-0.018010926,-0.01683669,0.02630878
41104126,41103892,-0.05613823,-0.0100992685,0.012534408
41125225,41124994,-0.020344222,0.026777372,0.036211785
41143932,41143698,-0.017627826,0.0074288463,0.010040596
41163893,41163649,-0.0033856367,0.044583194,0.01386019
41184809,41184583,-0.011193563,0.020971552,0.02556241
41205928,41205688,0.02384089,0.016846607,0.030529847
41223306,41223069,-0.0060229925,-0.017870773,0.053450517
41244413,41244178,-0.009329349,-0.032632876,0.06411286
41264267,41264037,-0.019242093,-0.003961516,0.07040291
41285412,41285184,-0.05066337,0.037457243,0.072192065
41302754,41302523,-0.0065494357,0.05863616,0.022212021
41323853,41323627,-0.018369101,0.028638216,0.011935298
41344957,41344731,0.08816498,-0.015595578,0.027680237
41362343,41362113,0.05921123,0.024460778,0.034585673
41383444,41383216,0.067242935,0.042896427,0.05246594
41404580,41404352,0.012835937,0.04977413,0.059090775
41425776,41425547,-0.045651074,0.0529332,0.0553989
41443040,41442807,-0.058222473,0.027300065,0.0513117
41464137,41463912,-0.06000202,0.018673683,0.043841843
41485250,41485015,-0.007870656,0.016578808,0.050069176
41502623,41502396,0.034209114,0.012475135,0.075675
41523726,41523500,0.05609667,0.039092172,0.06896947
41544832,41544605,0.056183364,-0.004322085,0.06826929
41565943,41565710,0.04694096,-0.00978648,0.059239995
41583316,41583091,-0.00927488,-0.047248285,0.05218309
41604444,41604213,-0.023256423,-0.03612444,0.06564598
41625533,41625306,-0.052215,-0.007927929,0.059322014
41642909,41642681,-0.017930744,-0.011015438,0.051182013
41664022,41663787,0.024248807,0.016471528,0.048274327
41685214,41684984,0.009769391,0.016927142,0.053382292
41706407,41706176,0.038440343,0.035847846,0.062256776
41723604,41723375,0.046533592,0.037504636,0.045117855
41744716,41744484,0.028419048,0.030199977,0.045928016
41765813,41765584,-0.0053579938,0.015358275,0.058768928
41784446,41784210,-0.03362376,0.01581644,0.067869864
41804308,41804070,-0.036204528,-0.007314699,0.06704966
41825407,41825174,-0.03722937,0.008051541,0.067615025
41844030,41843799,-0.008392694,-0.0054378416,0.058803488
41863919,41863679,-0.012145383,0.00075249845,0.06178173
41883753,41883523,0.030650718,0.0071525336,0.058975216
41902383,41902145,0.02532513,0.009350201,0.06430285
41923491,41923251,0.011075753,-0.0028763844,0.05767596
41943392,41943164,-0.017363127,-0.010330803,0.05292467
41964571,41964346,-0.0109380055,-0.014106927,0.04610493
41985575,41985348,-0.016625794,-0.009529871,0.04318665
42002938,42002703,-0.013766758,-0.0112417275,0.04141473
42024039,42023807,0.015019612,0.002900104,0.04098882
42045154,42044914,0.021456502,0.012998427,0.04107902
42062528,42062295,0.029860463,-7.467469e-05,0.01991216
42083626,42083397,0.04588373,-0.0050621177,0.0032977439
42104728,42104502,0.050557684,-0.010509314,0.003204837
42125835,42125607,0.044530816,-0.01838911,0.019658444
42143222,42142987,0.028982138,-0.02261848,0.030586809
42164317,42164092,0.033478606,-0.0149595905,0.016490353
42185432,42185201,0.040357597,-0.046114583,0.0051125865
42202830,42202600,0.045452423,-0.022434123,0.011172675
42224054,42223826,0.051239803,-0.007196653,0.010132162
42245215,42244980,0.022404201,0.009801837,0.0039479644
42266136,42265896,0.012636598,0.014324942,-0.016613783
42283496,42283272,-0.012702436,0.009301799,0.029967947
42304610,42304378,-0.008582893,0.027120313,0.06693632
42325711,42325482,-0.024152823,-0.021971239,0.06312343
42343086,42342861,-0.038487125,-0.0888565,0.021855792
42364199,42363966,-0.04882097,-0.09102403,-0.05849559
42385304,42385072,-0.08611649,-0.07422063,-0.15355831
42406414,42406177,-0.17709914,0.012917917,-0.26153246
42425039,42424801,-0.29880407,0.06610581,-0.3722507
42444907,42444665,-0.38218468,0.08463512,-0.49620953
42464758,42464528,-0.42057636,0.1496602,-0.62996364
42484667,42484436,-0.38847902,0.26862526,-0.728644
42504632,42504404,-0.34742594,0.3685619,-0.8444592
42524368,42524138,-0.20978911,0.4735089,-0.89986765
42542969,42542736,-0.1612259,0.4634758,-0.9562614
42562829,42562599,0.06303628,0.42420894,-0.97981507
42583934,42583703,0.1622482,0.2786553,-1.0025442
42605032,42604808,0.35258248,-0.049007155,-0.96692127
42622425,42622189,0.4834771,-0.21819249,-0.8999783
42643523,42643294,0.4942135,-0.32216737,-0.7943158
42664625,42664398,0.5099079,-0.40509155,-0.71189296
42685733,42685506,0.45467943,-0.3639943,-0.6535784
42703115,42702883,0.32212916,-0.2723025,-0.5394279
42724225,42723991,0.1727683,-0.1943467,-0.4537582
42745327,42745102,0.09644424,-0.16129836,-0.40472308
42762787,42762563,-0.041781615,-0.07705147,-0.42870855
42783990,42783763,-0.024309386,-0.063554116,-0.36227506
42804914,42804683,-0.020382594,-0.012109785,-0.3112323
42827269,42827034,0.04833411,-0.030571014,-0.29163015
42843399,42843170,0.103819504,-0.05488697,-0.2429492
42864499,42864273,0.14104854,-0.089944854,-0.22099283
42886854,42886622,0.11342462,-0.05787455,-0.17470767
42902991,42902758,0.07351506,-0.03301706,-0.19130619
42924101,42923877,0.007679808,-0.053136885,-0.16290969
42945205,42944971,-0.0106224725,-0.009005247,-0.15145579
42966304,42966073,-0.029286211,0.041888133,-0.15559529
42983680,42983453,-0.058114287,0.05129248,-0.09975006
43007307,43007077,-0.012420222,0.034286942,-0.10306709
43026008,43025781,0.0016117631,0.03945059,-0.08515386
43043423,43043186,0.013763438,0.023871822,-0.09576092
43066867,43066634,0.052529283,0.0020506976,-0.06879702
43085487,43085254,0.0327361,-0.014157275,-0.042626515
43105354,43105116,0.03382587,-0.0030167045,-0.054852687
43123969,43123737,-0.01945625,-0.005436778,-0.040796526
43143830,43143600,-0.014683024,0.0057086577,-0.014763111
43164938,43164706,-0.025314258,0.018730665,-0.034798577
43182317,43182086,-0.006093586,0.007325265,-0.072768204
43204666,43204436,-0.019741438,0.010776325,-0.11209278
43224524,43224297,-0.018123232,0.017937304,-0.13958946
43245630,43245400,0.006115527,0.0031156603,-0.17108846
43263013,43262780,0.01113356,0.022034297,-0.19094901
43284199,43283965,0.0037120902,0.00949437,-0.19025022
43305333,43305106,0.0020190028,-0.0062145945,-0.18023792
43322787,43322556,0.008437379,0.0048584933,-0.14581476
43343709,43343478,-0.028998515,-0.012510438,-0.13646556
43364816,43364581,0.0030107736,-0.03446087,-0.11563688
43383443,43383208,-0.012663319,-0.016323805,-0.10428115
43403301,43403067,-0.005292757,-0.0008448554,-0.09463688
43424399,43424170,-0.047552686,-0.059130564,-0.06549072
43445504,43445275,-0.10497438,-0.18622015,-0.03684332
43462887,43462655,-0.14794208,-0.31053323,-0.02155947
43483985,43483759,-0.24449699,-0.44897252,-0.03654229
43505092,43504864,-0.23031995,-0.5942415,-0.018285023
43526210,43525971,-0.17983815,-0.6757121,-0.007798799
43543593,43543360,-0.10907962,-0.6650029,0.026325554
43564748,43564519,-0.03857521,-0.7086506,0.025682067
43585955,43585720,0.07261457,-0.718723,0.0035133318
43603167,43602939,0.08915323,-0.75960386,-0.034715295
43624267,43624044,0.07283926,-0.76570946,-0.009558567
43645384,43645148,0.017635854,-0.7996508,-0.0024213428
43666491,43666257,-0.05169375,-0.7821066,0.0035373329
43683862,43683633,0.002201985,-0.85839844,0.011861015
43703719,43703497,0.043297045,-0.82057285,-0.007505122
43726072,43725844,0.10854698,-0.8449369,0.014681939
43743460,43743228,0.16278556,-0.800907,-0.0020545423
43763310,43763087,0.17067,-0.7812145,0.0027253742
43785663,43785434,0.22348769,-0.7374535,-0.0073454133
43805531,43805297,0.18713386,-0.6327267,-0.00038025345
43822975,43822752,0.12296352,-0.47259325,-0.016628686
43845390,43845157,0.079498515,-0.2594421,-0.029348427
43865131,43864889,0.0017115711,-0.03237139,-0.041816596
43882495,43882267,-0.11504193,0.15172426,-0.009413031
43904858,43904617,-0.18160865,0.3582127,-0.029318571
43924765,43924533,-0.16655962,0.4326514,-0.0015575148
43945810,43945581,-0.20033646,0.49204192,-0.00959363
43964437,43964207,-0.12047157,0.5244351,-0.033232026
43984336,43984109,-0.04462986,0.5803652,-0.02224635
44005407,44005173,0.036299083,0.6144601,-0.021601178
44022783,44022553,0.12189617,0.69801664,-0.011559916
44043895,44043658,0.18682219,0.73834926,-0.023901565
44064986,44064760,0.24403593,0.7951646,-0.03122111
44082384,44082144,0.21930493,0.792657,-0.048473716
44103558,44103328,0.16240107,0.8045871,-0.011356398
44124762,44124527,0.06907745,0.78180844,-0.026431784
44143213,44142975,-0.009295822,0.7807438,-0.0346618
44163065,44162837,-0.12613392,0.8152366,-0.011737419
44184175,44183944,-0.15262751,0.8300594,0.004092919
44205271,44205045,-0.20505324,0.82807136,-0.014889
44226387,44226150,-0.17052332,0.8467459,-0.01380847
44243755,44243530,-0.14360374,0.8007312,-0.034871917
44264859,44264636,-0.12962395,0.80323654,-0.035763863
44285973,44285740,-0.11197771,0.8191175,-0.022536136
44303356,44303122,-0.14507994,0.79052526,-0.00017557504
44324451,44324225,-0.20009695,0.81567836,0.0059246146
44344316,44344088,-0.27238497,0.78384537,-0.0055778166
44365560,44365332,-0.28251955,0.81861264,-0.0032772832
44382917,44382690,-0.2900591,0.82260585,-0.030592186
44403912,44403681,-0.21757986,0.8051276,-0.0073721823
44426261,44426029,-0.16888994,0.6221934,-0.019024739
44442389,44442163,-0.14939685,0.49632418,-0.011216425
44463495,44463268,-0.04139119,0.17860398,-0.022266757
44485847,44485616,0.00053016155,-0.047604993,-0.017015304
44505709,44505479,0.0329456,-0.25171483,0.009993214
44523083,44522858,0.083293416,-0.31526428,-0.005012003
44545439,44545207,0.14984895,-0.4274235,-0.004455355
44565305,44565076,0.11371475,-0.49241722,-0.043391183
44582677,44582448,0.1607112,-0.52231276,-0.044058442
44605032,44604799,0.09888568,-0.5277841,-0.037720308
44624899,44624667,-0.0029265115,-0.5564923,-0.025201572
44646071,44645847,-0.096354134,-0.5805938,-0.010251777
44664806,44664569,-0.041753817,-0.7007115,-0.04005389
44684488,44684255,0.009346256,-0.71926206,-0.08812448
44705585,44705355,0.051796738,-0.7130588,-0.06770393
44724209,44723976,0.061998963,-0.7321555,-0.06898213
44744069,44743839,0.20173125,-0.7457208,-0.056841325
44765175,44764944,0.17682248,-0.5909129,-0.0939137
44783800,44783566,0.18587762,-0.47634217,-0.05535204
44803689,44803456,0.15151843,-0.2898836,-0.07669235
44824756,44824531,0.0938262,-0.030859545,-0.07690116
44842144,44841914,0.08518872,0.098033264,-0.09111422
44863256,44863017,-0.017094566,0.290792,-0.0823041
44884356,44884126,-0.073448956,0.43728104,-0.07838124
44903006,44902778,-0.09787337,0.54210025,-0.08847517
44922964,44922735,-0.11424825,0.6117907,-0.07411897
44943942,44943711,-0.066980615,0.64013976,-0.07224287
44963799,44963574,-0.057377484,0.67467207,-0.10055498
44984911,44984679,-0.050258208,0.641804,-0.08880943
45002295,45002064,-0.07209626,0.7160731,-0.067114964
45023388,45023164,-0.106758915,0.6991356,-0.079891644
45044495,45044269,-0.10438493,0.7286903,-0.07460055
45065603,45065374,-0.058389988,0.6483532,-0.057798456
45082980,45082754,-0.025598394,0.56408125,-0.05590719
45104082,45103859,0.20836805,0.38209555,-0.025729286
45125200,45124964,0.28081894,0.1851985,-0.034992494
45142577,45142344,0.28651312,0.02424557,-0.062013514
45163728,45163503,0.19710045,-0.18249688,-0.024750654
45184874,45184644,-0.03604005,-0.34776348,-0.032907333
45206085,45205859,-0.2551102,-0.4657779,-0.006465452
45223267,45223041,-0.35350922,-0.5896496,0.016777156
45244373,45244143,-0.35344744,-0.66323864,-0.017453076
45265479,45265255,-0.25001773,-0.70448834,0.0057726786
45282855,45282629,-0.1622017,-0.72195256,0.002919711
45303964,45303734,-0.0595522,-0.7547798,0.013746426
45325067,45324838,0.056365557,-0.7520245,0.024361113
45346170,45345943,0.041124083,-0.7804282,-0.0035633072
45363558,45363323,0.03759841,-0.7376884,-0.032281578
45384654,45384428,0.041441806,-0.7976457,-0.01749735
45405762,45405536,0.026604429,-0.80876905,-0.0036223847
45423198,45422965,0.09843143,-0.82177645,-0.029852955
45444292,45444062,0.09155007,-0.83473706,-0.006248994
45464249,45464018,0.19271731,-0.8240795,0.004375231
45483980,45483748,0.18845366,-0.86484677,0.011414541
45503855,45503626,0.24415559,-0.8631114,0.009932007
45524950,45524714,0.25933832,-0.8347224,0.0020506466
45542322,45542093,0.21571556,-0.81984746,0.03235703
45563439,45563203,0.22441094,-0.7654389,0.018447
45583293,45583063,0.17805687,-0.78658473,0.028663192
45604396,45604166,0.17018303,-0.8004374,0.024321163
45625502,45625271,0.2091746,-0.70792687,0.035969548
45642887,45642654,0.18706071,-0.61008704,-0.0019876978
45663984,45663757,0.104867436,-0.40559354,0.009315414
45685128,45684897,0.003932332,-0.15477677,0.019451188
45702518,45702286,-0.07245737,0.035986003,0.0010851441
45723715,45723488,-0.12686907,0.20697004,0.012476095
45744679,45744454,-0.1376211,0.30273345,0.014330602
45765788,45765555,-0.16458423,0.48263326,-0.002546494
45783162,45782935,-0.16099976,0.52837014,-0.00062858703
45804267,45804042,-0.13302235,0.58602154,-0.0014123669
45825374,45825146,-0.15486939,0.6295977,-0.0013908122
45842753,45842526,-0.1224106,0.60179543,-0.018538637
45863891,45863667,-0.109394215,0.642474,-0.014019375
45884961,45884735,-0.055016223,0.6803788,-0.017963292
45906066,45905841,0.07686775,0.7761644,-0.02887312
45923447,45923221,0.09914662,0.80022246,-0.032174457
45944569,45944327,0.13787465,0.8601423,-0.048413347
45965725,45965500,0.07236722,0.8741401,-0.07319585
45983086,45982858,-0.027346026,0.92816526,-0.049853407
46004301,46004066,-0.11216981,0.9273074,-0.02696024
46025258,46025023,-0.1635271,0.9231176,-0.0033248744
46046376,46046140,-0.13553672,0.84638363,0.0055564577
46063745,46063510,-0.16463883,0.89025766,0.012820559
46084840,46084611,-0.14292288,0.86794436,0.09466299
46105945,46105714,-0.16309959,0.8473005,0.17937335
46123342,46123096,-0.15938967,0.87052435,0.20554568
46144444,46144209,-0.19289458,0.8842001,0.33586937
46164298,46164066,-0.1694319,0.92478776,0.41447228
46184160,46183927,-0.17017262,0.89094245,0.4833724
46204130,46203897,-0.05925338,0.6946216,0.59475416
46223883,46223653,0.06030627,0.61643785,0.660901
46245083,46244854,0.07169782,0.46144179,0.77370024
46263719,46263491,0.1285219,0.28625846,0.85096925
46283481,46283249,0.1273115,0.18789609,0.8988504
46304581,46304355,0.056615725,-0.050120674,0.90816414
46325688,46325461,0.005240939,-0.27392238,0.92597806
46343060,46342832,0.022314917,-0.5157225,0.8663393
46364161,46363938,0.033695154,-0.64421767,0.8519816
46385271,46385041,0.08549034,-0.7267246,0.754377
46402653,46402425,0.12307232,-0.81105226,0.6480601
46423750,46423527,0.31254464,-0.81043154,0.5677615
46444856,46444633,0.4395493,-0.77103263,0.48411855
46468457,46468222,0.5240187,-0.7896326,0.44672844
46483343,46483117,0.4913496,-0.80203366,0.41795287
46504449,46504222,0.37491247,-0.73907405,0.3619164
46526894,46526659,0.17054608,-0.580937,0.3206634
46543095,46542864,-0.013052177,-0.47209945,0.2515928
46564046,46563823,-0.06173668,-0.18858926,0.21010306
46585143,46584916,-0.26047248,-0.004604643,0.15001126
46606256,46606024,-0.32883438,0.07293969,0.14462636
46623633,46623401,-0.45247155,0.014310166,0.14829542
46645977,46645749,-0.433871,-0.14888807,0.1574964
46665840,46665613,-0.3490403,-0.33292153,0.1215836
46683225,46682991,-0.33454794,-0.5001984,0.11298442
46704328,46704096,-0.18039055,-0.6168919,0.10711071
46725446,46725213,-0.047424234,-0.62115973,0.076233916
46745299,46745065,0.034986455,-0.4922674,0.08123908
46763929,46763686,0.043740053,-0.3090657,0.0480697
46783800,46783571,0.020225417,0.004427172,0.022826383
46805015,46804780,-0.095090665,0.24701495,0.005509365
46822267,46822040,-0.16904308,0.4629783,-0.030055279
46844613,46844382,-0.26252604,0.589719,-0.045682374
46864476,46864245,-0.18816587,0.61377317,-0.037080154
46885573,46885349,-0.049992427,0.63580555,-0.047100045
46902964,46902729,0.015186349,0.6413154,-0.046365187
46924126,46923895,0.0886431,0.6981338,-0.035331257
46945211,46944982,0.021812396,0.7429213,-0.070199445
46962554,46962319,0.034738798,0.7707316,-0.052133262
46983657,46983427,-0.032155305,0.80612075,-0.063387856
47004763,47004531,0.0027493995,0.8012713,-0.07357862
47023382,47023151,0.037770752,0.6568564,-0.09039347
47043280,47043053,0.09121164,0.45850453,-0.0708265
47064422,47064192,0.028086076,0.18773563,-0.037973136
47085632,47085405,0.011751614,-0.06640096,-0.036770858
47102828,47102603,0.025207052,-0.2332475,-0.011742217
47123932,47123708,-0.012146517,-0.37901065,-0.025759924
47145043,47144814,-0.015109261,-0.41988215,-0.031997405
47167396,47167163,-0.037765477,-0.48750228,0.007025519
47183524,47183298,0.03923764,-0.5756706,-0.06527615
47204626,47204403,0.06657788,-0.61046815,-0.067006655
47226995,47226754,0.0740217,-0.6613275,-0.061843626
47243122,47242888,0.046181526,-0.609241,-0.021116257
47264219,47263989,0.021389859,-0.46180865,-0.09383669
47286575,47286342,-0.12645493,-0.23429726,-0.06487556
47306451,47306221,-0.11512665,-0.11402533,-0.05614792
47323834,47323610,-0.1620724,-0.111475974,-0.050192192
47343799,47343573,-0.096114516,-0.17754802,-0.032122
47366022,47365793,0.025476297,-0.3742663,-0.05195239
47383406,47383172,0.06074805,-0.46326444,-0.010929824
47403268,47403036,0.08196525,-0.45512834,-0.025734698
