timestamp,timestamp_sample,baro_device_id,baro_alt_meter,baro_temp_celcius,baro_pressure_pa,rho
26071893,26051687,3997730,268.31168,22.25,98143.49,1.166107
26122131,26104457,3997730,268.4174,22.25,98142.24,1.1660922
26283235,26265443,3997730,268.6103,22.25,98140.0,1.1660656
26504370,26481526,3997730,268.39624,22.26,98142.49,1.1660951
26715316,26695139,3997730,268.43854,22.26,98142.0,1.1660893
26876254,26856015,3997730,268.35397,22.26,98142.99,1.1661011
27087134,27069517,3997730,268.37512,22.26,98142.74,1.1660981
27308358,27285588,3997730,268.33282,22.26,98143.25,1.1661042
27468976,27446353,3997730,268.33282,22.26,98143.24,1.1661041
27680098,27659983,3997730,268.4597,22.269999,98141.75,1.1660863
27891201,27873559,3997730,268.4174,22.269999,98142.24,1.1660922
28072303,28049606,3997730,268.39624,22.269999,98142.5,1.1660953
28283456,28263286,3997730,268.2245,22.269999,98144.5,1.166119
28494573,28476947,3997730,268.33282,22.269999,98143.24,1.1661041
28715870,28693074,3997730,268.35397,22.269999,98143.0,1.1661012
28876740,28854117,3997730,268.29056,22.279999,98143.74,1.16611
29087904,29067726,3997730,268.35397,22.279999,98143.0,1.1661012
29299042,29281413,3997730,268.4174,22.279999,98142.25,1.1660923
29459892,29442266,3997730,268.2694,22.289999,98143.99,1.166113
29680994,29658363,3997730,268.39624,22.279999,98142.49,1.1660951
29892163,29872038,3997730,268.2694,22.289999,98143.99,1.166113
30103326,30085670,3997730,268.54422,22.289999,98140.75,1.1660745
30264183,30246570,3997730,268.54422,22.289999,98140.75,1.1660745
30495447,30475302,3997730,268.54422,22.289999,98140.75,1.1660745
30706513,30688902,3997730,268.568,22.289999,98140.5,1.1660715
30867550,30849859,3997730,268.33282,22.289999,98143.25,1.1661042
31088738,31066081,3997730,268.6103,22.3,98140.0,1.1660656
31299901,31279765,3997730,268.69482,22.3,98138.99,1.1660535
31511038,31493393,3997730,268.7609,22.3,98138.24,1.1660447
31691964,31669310,3997730,268.8243,22.31,98137.5,1.1660359
31903034,31882918,3997730,268.9934,22.3,98135.5,1.166012
32114302,32096617,3997730,269.40033,22.31,98130.75,1.1659557
32275147,32257520,3997730,269.46375,22.31,98130.0,1.1659467
32496220,32473450,3997730,269.61435,22.31,98128.25,1.165926
32707388,32687140,3997730,269.89178,22.31,98125.0,1.1658874
32868213,32847937,3997730,269.76233,22.31,98126.5,1.1659051
33079242,33061545,3997730,270.0847,22.32,98122.75,1.1658605
33300604,33277870,3997730,269.95523,22.32,98124.25,1.1658784
33511675,33491545,3997730,270.27493,22.32,98120.49,1.1658337
33682737,33658488,3997730,270.1983,22.32,98121.4,1.1658446
33903898,33881180,3997730,270.12698,22.32,98122.25,1.1658547
34114935,34094780,3997730,270.1481,22.32,98122.0,1.1658517
34275739,34255605,3997730,270.0398,22.33,98123.25,1.1658665
34486700,34469093,3997730,270.23267,22.32,98121.0,1.1658398
34707980,34685223,3997730,270.38327,22.33,98119.24,1.1658189
34919273,34898966,3997730,270.12698,22.33,98122.25,1.1658547
35080127,35059935,3997730,270.12698,22.33,98122.25,1.1658547
35291350,35273560,3997730,270.01865,22.33,98123.5,1.1658695
35512464,35489736,3997730,269.91293,22.33,98124.75,1.1658844
35673573,35650589,3997730,269.67776,22.33,98127.5,1.165917
35884378,35864199,3997730,269.3792,22.34,98130.99,1.1659585
36115460,36085295,3997730,269.48224,22.34,98129.8,1.1659443
36276497,36253844,3997730,269.3369,22.34,98131.49,1.1659645
36487519,36467323,3997730,269.22858,22.34,98132.75,1.1659794
36698460,36680832,3997730,269.27087,22.34,98132.25,1.1659734
36859361,36841668,3997730,269.01456,22.34,98135.25,1.1660091
37080522,37057869,3997730,269.27087,22.34,98132.25,1.1659734
37291974,37271405,3997730,269.59323,22.34,98128.5,1.165929
37462594,37444905,3997730,269.61435,22.35,98128.25,1.165926
37683874,37661091,3997730,269.72003,22.35,98126.99,1.165911
37894924,37874741,3997730,269.506,22.35,98129.5,1.1659408
38105956,38088258,3997730,269.52716,22.35,98129.25,1.1659378
38266675,38249056,3997730,269.67776,22.35,98127.5,1.165917
38487679,38465058,3997730,269.72003,22.35,98127.0,1.1659111
38698952,38678739,3997730,269.84952,22.35,98125.5,1.1658933
38910825,38892741,3997730,269.74118,22.359999,98126.74,1.165908
39071433,39053711,3997730,269.80725,22.359999,98125.99,1.1658992
39293295,39269944,3997730,269.57208,22.359999,98128.75,1.1659318
39513715,39496091,3997730,269.7861,22.359999,98126.25,1.1659021
39674497,39656889,3997730,269.8046,22.359999,98126.0,1.1658992
39895807,39873067,3997730,269.74118,22.359999,98126.75,1.1659081
40107366,40086786,3997730,269.61435,22.369999,98128.25,1.165926
40277951,40260267,3997730,269.52716,22.369999,98129.25,1.1659378
40499218,40476418,3997730,269.42148,22.369999,98130.5,1.1659527
40710224,40690051,3997730,269.61435,22.369999,98128.25,1.165926
40871070,40850925,3997730,269.5483,22.369999,98129.0,1.1659348
41082594,41064780,3997730,269.65665,22.369999,98127.75,1.16592
41303669,41280932,3997730,269.42148,22.369999,98130.49,1.1659526
41514812,41494604,3997730,269.6989,22.369999,98127.25,1.165914
41675498,41655366,3997730,269.8284,22.369999,98125.75,1.1658962
41886659,41868972,3997730,269.52716,22.369999,98129.26,1.1659379
42107878,42085168,3997730,269.93408,22.38,98124.5,1.1658814
44088530,44068408,3997730,269.89178,22.39,98125.0,1.1658874
44299698,44282000,3997730,269.76233,22.39,98126.5,1.1659051
44460504,44442835,3997730,269.74118,22.39,98126.75,1.1659081
46069414,46051757,3997730,270.06354,22.4,98123.0,1.1658635
46300522,46280393,3997730,270.06354,22.4,98123.0,1.1658635
46511504,46493884,3997730,269.8284,22.4,98125.75,1.1658962
46692491,46662210,3997730,269.80725,22.4,98125.99,1.1658992
46903438,46883279,3997730,269.6355,22.4,98128.0,1.165923
47114725,47097047,3997730,269.506,22.41,98129.5,1.1659408
47275569,47257936,3997730,269.93408,22.4,98124.5,1.1658814
47496704,47473938,3997730,269.59323,22.41,98128.5,1.165929
47707851,47687586,3997730,269.67776,22.41,98127.5,1.165917
47918785,47901118,3997730,269.89178,22.41,98125.0,1.1658874
48079588,48061908,3997730,269.5483,22.41,98129.0,1.1659348
48300785,48278133,3997730,269.65665,22.41,98127.75,1.16592
48512086,48491821,3997730,269.72003,22.42,98127.0,1.1659111
48673080,48652722,3997730,269.5483,22.42,98129.0,1.1659348
48883899,48866287,3997730,269.93408,22.42,98124.5,1.1658814
49105251,49082348,3997730,269.8046,22.42,98126.0,1.1658992
49316122,49295983,3997730,269.95523,22.42,98124.25,1.1658784
49477135,49456970,3997730,270.1481,22.42,98122.0,1.1658517
49688369,49670742,3997730,270.0398,22.42,98123.25,1.1658665
49909635,49886942,3997730,270.21152,22.42,98121.25,1.1658428
50070501,50047853,3997730,270.31985,22.42,98119.99,1.1658279
50281782,50261470,3997730,270.5101,22.42,98117.75,1.1658012
50492867,50475190,3997730,270.61844,22.42,98116.5,1.1657864
50713988,50691245,3997730,270.68185,22.43,98115.75,1.1657774
50874830,50852140,3997730,270.76642,22.42,98114.75,1.1657655
51086273,51065785,3997730,271.19446,22.42,98109.74,1.165706
51317147,51294485,3997730,271.3662,22.43,98107.74,1.1656823
51478186,51455400,3997730,271.0016,22.43,98112.0,1.1657329
51689223,51669075,3997730,271.2156,22.43,98109.5,1.1657032
51900343,51882687,3997730,271.49304,22.43,98106.25,1.1656646
52061316,52043588,3997730,271.4719,22.43,98106.5,1.1656675
52282911,52259854,3997730,271.62253,22.43,98104.75,1.1656467
52503783,52486092,3997730,271.53534,22.43,98105.75,1.1656586
52664555,52646815,3997730,271.8154,22.43,98102.5,1.16562
52885641,52862992,3997730,271.89996,22.43,98101.5,1.165608
53096762,53076585,3997730,271.6648,22.439999,98104.25,1.1656408
53307758,53290089,3997730,271.9211,22.439999,98101.24,1.1656051
53468633,53450955,3997730,272.07172,22.439999,98099.5,1.1655843
53699856,53679565,3997730,272.3703,22.439999,98096.0,1.1655427
53910948,53893286,3997730,272.26196,22.439999,98097.25,1.1655576
54071681,54054064,3997730,272.1774,22.439999,98098.25,1.1655695
54292767,54270096,3997730,272.15628,22.439999,98098.5,1.1655724
54503826,54483654,3997730,271.5776,22.449999,98105.25,1.1656526
54714841,54697228,3997730,271.87885,22.449999,98101.75,1.165611
54895834,54865647,3997730,271.70444,22.449999,98103.8,1.1656353
55106871,55086751,3997730,271.74936,22.449999,98103.25,1.1656289
55317923,55300288,3997730,271.62253,22.449999,98104.75,1.1656467
55478938,55461269,3997730,271.7071,22.449999,98103.75,1.1656349
55710251,55690068,3997730,271.98453,22.449999,98100.5,1.1655962
55871134,55850898,3997730,271.89996,22.46,98101.49,1.165608
56102340,56079685,3997730,271.8577,22.449999,98101.99,1.165614
56313609,56293439,3997730,272.19855,22.449999,98098.0,1.1655666
56474540,56454341,3997730,272.19855,22.449999,98098.0,1.1655666
56685749,56668025,3997730,272.0902,22.46,98099.25,1.1655813
56906793,56884174,3997730,271.96338,22.46,98100.75,1.1655992
57117777,57097627,3997730,272.15628,22.46,98098.5,1.1655724
57278727,57258443,3997730,272.2831,22.46,98097.0,1.1655546
57489707,57472057,3997730,272.07172,22.46,98099.5,1.1655843
57711045,57688304,3997730,272.39142,22.46,98095.74,1.1655397
57871917,57849276,3997730,272.30426,22.46,98096.75,1.1655517
58083245,58062962,3997730,272.26196,22.46,98097.25,1.1655576
58294372,58276596,3997730,272.30426,22.47,98096.75,1.1655517
58515532,58492910,3997730,272.19855,22.46,98098.0,1.1655666
58676593,58653794,3997730,272.2408,22.47,98097.5,1.1655606
58887896,58867617,3997730,272.476,22.47,98094.74,1.1655278
59099040,59081327,3997730,272.26196,22.47,98097.25,1.1655576
59280018,59249724,3997730,272.31744,22.47,98096.6,1.1655499
59491148,59470975,3997730,272.3703,22.47,98096.0,1.1655427
59702302,59684635,3997730,272.34915,22.47,98096.25,1.1655457
59863040,59845426,3997730,272.32538,22.47,98096.5,1.1655487
60084060,60061414,3997730,272.41257,22.47,98095.49,1.1655368
60295271,60275054,3997730,272.0268,22.48,98100.0,1.1655903
60506584,60488855,3997730,272.19855,22.48,98098.0,1.1655666
60667387,60649715,3997730,272.07172,22.47,98099.5,1.1655843
60888736,60865952,3997730,272.07172,22.48,98099.5,1.1655843
61099733,61079430,3997730,271.94226,22.48,98101.0,1.1656022
61310823,61293091,3997730,272.0902,22.48,98099.25,1.1655813
61471591,61453952,3997730,271.79428,22.48,98102.75,1.165623
61692831,61670060,3997730,271.7705,22.48,98103.0,1.1656259
61903845,61883727,3997730,271.8154,22.48,98102.5,1.16562
62114877,62097250,3997730,271.64365,22.49,98104.5,1.1656437
62275760,62258107,3997730,271.32394,22.48,98108.24,1.1656882
62497069,62474193,3997730,271.32394,22.48,98108.24,1.1656882
62708044,62687849,3997730,271.13107,22.49,98110.5,1.1657151
62919252,62901533,3997730,271.23676,22.49,98109.25,1.1657002
63080215,63062521,3997730,271.2156,22.49,98109.5,1.1657032
63301516,63278596,3997730,271.0465,22.49,98111.49,1.1657268
63512483,63492338,3997730,270.87476,22.49,98113.49,1.1657506
63673445,63653091,3997730,270.93817,22.5,98112.74,1.1657417
63884440,63866733,3997730,271.23676,22.49,98109.25,1.1657002
64105632,64082945,3997730,270.74527,22.5,98115.0,1.1657685
64316990,64296838,3997730,271.08612,22.49,98111.0,1.1657209
64477897,64457708,3997730,270.74527,22.5,98115.0,1.1657685
64689125,64671453,3997730,270.74527,22.49,98115.0,1.1657685
64910564,64887730,3997730,271.10727,22.5,98110.76,1.1657181
65071372,65048648,3997730,270.89325,22.5,98113.26,1.1657478
65282605,65262379,3997730,270.8536,22.5,98113.74,1.1657536
65493628,65475965,3997730,270.95932,22.5,98112.5,1.1657388
65714858,65692210,3997730,270.6607,22.5,98116.0,1.1657804
65875774,65853071,3997730,270.76642,22.51,98114.75,1.1657655
66086898,66066779,3997730,270.6607,22.5,98116.0,1.1657804
66298127,66280429,3997730,271.0227,22.5,98111.76,1.16573
66459135,66441342,3997730,271.04385,22.51,98111.5,1.1657269
66680220,66657557,3997730,271.23676,22.5,98109.25,1.1657002
66891630,66871084,3997730,270.8536,22.51,98113.75,1.1657536
67062091,67044328,3997730,270.72412,22.51,98115.25,1.1657715
67283885,67260480,3997730,270.83246,22.51,98113.99,1.1657566
67504501,67486846,3997730,270.8536,22.51,98113.74,1.1657536
67665203,67647542,3997730,270.8536,22.519999,98113.74,1.1657536
67886413,67863701,3997730,270.57617,22.519999,98116.99,1.1657922
68097492,68077243,3997730,271.0016,22.51,98111.99,1.1657327
68308526,68290893,3997730,271.2156,22.51,98109.5,1.1657032
68469301,68451663,3997730,271.49304,22.519999,98106.25,1.1656646
68690522,68667897,3997730,271.53534,22.519999,98105.75,1.1656586
68901526,68881381,3997730,271.2156,22.519999,98109.5,1.1657032
69112645,69095019,3997730,271.2156,22.519999,98109.5,1.1657032
69273599,69255897,3997730,271.06763,22.519999,98111.24,1.1657238
69494802,69472107,3997730,270.89587,22.519999,98113.24,1.1657476
69705909,69685752,3997730,270.98044,22.519999,98112.24,1.1657357
69916990,69899357,3997730,271.25787,22.519999,98109.0,1.1656972
70077875,70060251,3997730,271.5142,22.519999,98106.0,1.1656616
70299114,70276353,3997730,271.94226,22.519999,98100.99,1.1656021
70510274,70490069,3997730,272.00565,22.529999,98100.25,1.1655933
70671218,70651011,3997730,271.40848,22.529999,98107.25,1.1656765
70882425,70864749,3997730,271.3451,22.529999,98108.0,1.1656853
71063617,71033201,3997730,270.814,22.529999,98114.195,1.165759
71284601,71266976,3997730,270.72412,22.529999,98115.25,1.1657715
71505776,71483122,3997730,270.91702,22.529999,98113.0,1.1657448
71716960,71696761,3997730,270.76642,22.529999,98114.75,1.1657655
71878012,71857813,3997730,270.53125,22.529999,98117.5,1.1657982
72089098,72071403,3997730,270.5101,22.529999,98117.75,1.1658012
72310357,72287661,3997730,270.38327,22.529999,98119.24,1.1658189
72471182,72448492,3997730,270.703,22.529999,98115.49,1.1657743
72682167,72662005,3997730,271.25787,22.529999,98109.0,1.1656972
72893271,72875565,3997730,271.25787,22.529999,98109.0,1.1656972
73074211,73043892,3997730,271.10464,22.539999,98110.805,1.1657187
73285222,73264983,3997730,271.2156,22.539999,98109.5,1.1657032
73496436,73478633,3997730,271.3662,22.539999,98107.75,1.1656823
73657301,73639638,3997730,271.5776,22.539999,98105.25,1.1656526
73878726,73855956,3997730,271.5168,22.539999,98105.99,1.1656615
74089806,74069516,3997730,271.5565,22.539999,98105.5,1.1656556
74300692,74283057,3997730,271.5565,22.539999,98105.5,1.1656556
74461512,74443865,3997730,271.5142,22.539999,98106.0,1.1656616
74682906,74659963,3997730,271.74936,22.539999,98103.25,1.1656289
74893796,74873657,3997730,271.79428,22.55,98102.75,1.165623
75105108,75087225,3997730,271.5776,22.539999,98105.25,1.1656526
75265775,75248120,3997730,271.62253,22.539999,98104.75,1.1656467
75486861,75464200,3997730,271.8154,22.539999,98102.5,1.16562
75697980,75677837,3997730,271.83655,22.55,98102.25,1.165617
75909175,75891537,3997730,271.7282,22.55,98103.5,1.1656319
76070116,76052456,3997730,271.7282,22.55,98103.5,1.1656319
76291727,76268794,3997730,271.79428,22.55,98102.75,1.165623
76502646,76482520,3997730,271.94226,22.56,98101.0,1.1656022
76713813,76696063,3997730,271.89996,22.55,98101.5,1.165608
76874548,76856892,3997730,271.74936,22.55,98103.25,1.1656289
77095886,77073070,3997730,271.62253,22.55,98104.75,1.1656467
77306808,77286642,3997730,272.0902,22.55,98099.25,1.1655813
77517845,77500213,3997730,272.21967,22.55,98097.75,1.1655636
77678803,77661148,3997730,272.19855,22.56,98098.0,1.1655666
77900243,77877381,3997730,272.26196,22.56,98097.25,1.1655576
78111125,78090990,3997730,271.98453,22.56,98100.5,1.1655962
78272714,78251853,3997730,271.98453,22.56,98100.5,1.1655962
78503229,78480603,3997730,272.04794,22.56,98099.75,1.1655873
78714442,78694274,3997730,272.43372,22.56,98095.24,1.1655338
78875360,78855180,3997730,272.56055,22.56,98093.75,1.165516
79086592,79068844,3997730,272.62662,22.56,98092.99,1.165507
79307686,79285063,3997730,272.8195,22.57,98090.75,1.1654804
79518861,79498535,3997730,272.34915,22.56,98096.25,1.1655457
79679752,79659434,3997730,272.8195,22.57,98090.75,1.1654804
79891357,79873052,3997730,272.77457,22.57,98091.25,1.1654863
80111966,80089277,3997730,272.8195,22.57,98090.75,1.1654804
80272681,80250062,3997730,273.1815,22.57,98086.5,1.1654298
80484030,80463732,3997730,273.11807,22.56,98087.24,1.1654387
80695294,80677362,3997730,272.94632,22.57,98089.24,1.1654625
80916328,80893610,3997730,273.24756,22.56,98085.74,1.1654209
81077060,81054433,3997730,273.30832,22.57,98085.0,1.1654121
81288316,81268072,3997730,272.99124,22.57,98088.74,1.1654565
81499455,81481713,3997730,272.96747,22.57,98088.99,1.1654595
81660199,81642537,3997730,272.94632,22.57,98089.24,1.1654625
81881332,81858672,3997730,273.26605,22.57,98085.5,1.165418
82102441,82084782,3997730,272.96747,22.58,98089.0,1.1654596
82263331,82245709,3997730,272.8195,22.58,98090.75,1.1654804
82484557,82461791,3997730,272.79837,22.57,98090.99,1.1654832
82695615,82675414,3997730,272.58432,22.58,98093.5,1.165513
82906689,82889085,3997730,272.5209,22.58,98094.24,1.1655219
83067501,83049847,3997730,272.60547,22.58,98093.25,1.16551
83288600,83265908,3997730,272.43372,22.58,98095.24,1.1655338
83499841,83479672,3997730,272.476,22.58,98094.74,1.1655278
83711094,83693427,3997730,272.8829,22.58,98090.0,1.1654714
83872126,83854419,3997730,273.09692,22.59,98087.5,1.1654418
84103581,84083320,3997730,273.30832,22.59,98085.0,1.1654121
84314494,84296888,3997730,273.0758,22.58,98087.74,1.1654446
84475335,84457632,3997730,272.99124,22.58,98088.74,1.1654565
84696545,84673890,3997730,273.0758,22.59,98087.74,1.1654446
84907736,84887589,3997730,272.71115,22.59,98092.0,1.1654953
85118722,85101087,3997730,272.58432,22.59,98093.49,1.1655129
85279713,85261909,3997730,272.60547,22.59,98093.24,1.1655099
85500849,85478071,3997730,272.60547,22.59,98093.25,1.16551
85711859,85691739,3997730,272.71115,22.59,98092.0,1.1654953
85872769,85852527,3997730,272.5209,22.59,98094.24,1.1655219
86084327,86066179,3997730,272.60547,22.59,98093.24,1.1655099
86305124,86282365,3997730,272.4575,22.59,98094.99,1.1655308
86516305,86496087,3997730,272.64777,22.59,98092.75,1.1655041
86677163,86656910,3997730,272.8829,22.59,98090.0,1.1654714
86888358,86870572,3997730,273.35324,22.59,98084.5,1.1654061
87109359,87086712,3997730,273.28983,22.59,98085.24,1.1654149
87270212,87247455,3997730,273.41666,22.6,98083.74,1.1653972
87481153,87461036,3997730,273.09692,22.59,98087.5,1.1654418
87692310,87674679,3997730,272.94632,22.6,98089.24,1.1654625
87913489,87890783,3997730,272.90405,22.6,98089.75,1.1654685
88074749,88051822,3997730,272.90405,22.6,98089.75,1.1654685
88295562,88277948,3997730,272.96747,22.6,98088.99,1.1654595
88516733,88494103,3997730,272.94632,22.6,98089.24,1.1654625
88677651,88655032,3997730,273.03354,22.6,98088.24,1.1654506
88888836,88868566,3997730,272.8618,22.6,98090.25,1.1654744
89099937,89082288,3997730,272.96747,22.6,98088.99,1.1654595
89321079,89298310,3997730,272.8829,22.6,98090.0,1.1654714
89481766,89459095,3997730,272.79572,22.6,98091.0,1.1654834
89693063,89672896,3997730,273.0124,22.6,98088.5,1.1654537
89904302,89886652,3997730,272.99124,22.6,98088.74,1.1654565
90065304,90047564,3997730,272.8195,22.609999,98090.75,1.1654804
90286397,90263771,3997730,272.77722,22.609999,98091.24,1.1654862
90497742,90477528,3997730,272.8195,22.609999,98090.75,1.1654804
90708798,90691189,3997730,273.03354,22.609999,98088.24,1.1654506
90869675,90851982,3997730,273.24756,22.609999,98085.74,1.1654209
91090855,91068208,3997730,273.16034,22.609999,98086.74,1.1654328
91301939,91281784,3997730,273.0124,22.609999,98088.5,1.1654537
91513037,91495418,3997730,273.20264,22.609999,98086.24,1.1654269
91673762,91656145,3997730,273.45895,22.609999,98083.25,1.1653912
91894937,91872199,3997730,273.63068,22.609999,98081.25,1.1653675
92106575,92086008,3997730,273.3744,22.609999,98084.25,1.1654031
92277145,92259431,3997730,273.4378,22.619999,98083.5,1.1653942
92498676,92475902,3997730,273.50122,22.609999,98082.75,1.1653854
92709870,92689703,3997730,273.24756,22.619999,98085.74,1.1654209
92870746,92850460,3997730,273.0124,22.619999,98088.5,1.1654537
93081612,93063920,3997730,273.0124,22.619999,98088.49,1.1654536
93303484,93280119,3997730,272.90405,22.619999,98089.75,1.1654685
93473899,93453669,3997730,273.03088,22.619999,98088.25,1.1654507
93684992,93667230,3997730,272.73492,22.619999,98091.74,1.1654922
93906206,93883402,3997730,272.94632,22.619999,98089.24,1.1654625
94117413,94097198,3997730,273.31094,22.619999,98084.99,1.165412
94278247,94258059,3997730,272.96747,22.619999,98088.99,1.1654595
94489243,94471531,3997730,273.20264,22.619999,98086.26,1.165427
94710356,94687640,3997730,272.8195,22.63,98090.75,1.1654804
94871194,94848474,3997730,272.79572,22.63,98091.0,1.1654834
95092378,95074743,3997730,273.0124,22.619999,98088.5,1.1654537
95313612,95290876,3997730,272.96747,22.63,98089.0,1.1654596
95474490,95451813,3997730,272.79572,22.619999,98091.0,1.1654834
95685468,95665341,3997730,272.77457,22.63,98091.25,1.1654863
95896828,95879141,3997730,272.94632,22.63,98089.24,1.1654625
96057673,96040029,3997730,272.8618,22.63,98090.25,1.1654744
96278896,96256274,3997730,273.03354,22.63,98088.24,1.1654506
96490020,96469853,3997730,272.60547,22.63,98093.25,1.16551
96701174,96683531,3997730,272.26196,22.63,98097.25,1.1655576
96861906,96844269,3997730,272.0268,22.63,98100.0,1.1655903
97083094,97060370,3997730,271.9211,22.63,98101.25,1.1656052
97294090,97273969,3997730,272.15628,22.63,98098.5,1.1655724
97505414,97487593,3997730,272.0902,22.63,98099.25,1.1655813
97666135,97648378,3997730,272.2831,22.63,98097.0,1.1655546
97887811,97864663,3997730,272.34915,22.64,98096.25,1.1655457
98108766,98091101,3997730,272.69003,22.64,98092.25,1.1654983
98269801,98252048,3997730,272.62662,22.63,98093.0,1.1655071
98491037,98468392,3997730,272.64777,22.63,98092.74,1.1655041
98662117,98641793,3997730,272.54205,22.64,98093.99,1.1655189
98892988,98870346,3997730,272.60547,22.64,98093.24,1.1655099
99104237,99084110,3997730,273.0124,22.64,98088.49,1.1654536
99315397,99297782,3997730,273.24756,22.64,98085.74,1.1654209
99476338,99458684,3997730,273.0124,22.64,98088.5,1.1654537
99697470,99674776,3997730,273.05466,22.64,98088.0,1.1654477
99908454,99888300,3997730,272.8618,22.64,98090.25,1.1654744
100069163,100049040,3997730,272.41257,22.65,98095.49,1.1655368
100280547,100262787,3997730,272.11398,22.64,98099.0,1.1655784
100501590,100478884,3997730,272.13513,22.65,98098.75,1.1655754
100712812,100692578,3997730,272.51828,22.64,98094.25,1.165522
100873776,100853555,3997730,272.476,22.64,98094.74,1.1655278
101085117,101067444,3997730,272.54205,22.65,98093.99,1.1655189
101306340,101283605,3997730,272.3703,22.65,98096.0,1.1655427
101467657,101444395,3997730,272.476,22.65,98094.74,1.1655278
101688524,101670824,3997730,272.64777,22.65,98092.75,1.1655041
101909840,101887148,3997730,272.5209,22.65,98094.24,1.1655219
102070651,102047995,3997730,272.54205,22.65,98093.99,1.1655189
102282211,102261736,3997730,272.77457,22.65,98091.25,1.1654863
102513110,102490399,3997730,272.54205,22.65,98093.99,1.1655189
102673907,102651120,3997730,272.43372,22.65,98095.24,1.1655338
102884904,102864755,3997730,272.2408,22.65,98097.5,1.1655606
103095967,103078313,3997730,272.5209,22.66,98094.24,1.1655219
103317215,103294505,3997730,272.69003,22.65,98092.25,1.1654983
103478022,103455377,3997730,272.51828,22.65,98094.25,1.165522
103689390,103669182,3997730,272.476,22.65,98094.74,1.1655278
103900767,103883131,3997730,272.60547,22.65,98093.24,1.1655099
104061653,104044011,3997730,272.43372,22.65,98095.24,1.1655338
104282757,104260056,3997730,272.476,22.66,98094.74,1.1655278
104493896,104473736,3997730,272.79572,22.65,98091.0,1.1654834
104664958,104640664,3997730,272.6768,22.66,98092.4,1.1654999
104886052,104863308,3997730,272.64777,22.66,98092.74,1.1655041
105097405,105077105,3997730,272.8195,22.66,98090.75,1.1654804
105308341,105290702,3997730,273.24756,22.66,98085.74,1.1654209
105489572,105459195,3997730,273.36118,22.66,98084.39,1.1654048
105700661,105680469,3997730,273.0758,22.66,98087.75,1.1654447
105911948,105894269,3997730,273.0758,22.66,98087.75,1.1654447
106072816,106055155,3997730,272.94632,22.66,98089.24,1.1654625
106294052,106271375,3997730,272.71115,22.66,98092.0,1.1654953
106505237,106485022,3997730,272.69003,22.66,98092.25,1.1654983
106716391,106698712,3997730,272.77457,22.67,98091.25,1.1654863
106877306,106859574,3997730,272.77457,22.67,98091.25,1.1654863
107098577,107075875,3997730,272.64777,22.67,98092.75,1.1655041
107309735,107289566,3997730,272.96747,22.66,98089.0,1.1654596
107480650,107456412,3997730,273.25812,22.67,98085.61,1.1654193
107701783,107679082,3997730,273.4378,22.67,98083.5,1.1653942
107913006,107892814,3997730,273.48007,22.67,98082.99,1.1653882
108073698,108053571,3997730,273.4378,22.67,98083.5,1.1653942
108284938,108267144,3997730,273.2238,22.67,98086.0,1.165424
108505932,108483256,3997730,272.00565,22.67,98100.25,1.1655933
108716997,108696826,3997730,272.19855,22.67,98098.0,1.1655666
108877823,108857654,3997730,272.11398,22.67,98099.0,1.1655784
109088926,109071305,3997730,272.49976,22.67,98094.49,1.1655248
109310085,109287442,3997730,272.58432,22.67,98093.5,1.165513
109471075,109448214,3997730,272.34915,22.68,98096.25,1.1655457
109681987,109661832,3997730,272.5209,22.68,98094.24,1.1655219
109893671,109875373,3997730,272.77722,22.68,98091.24,1.1654862
110114245,110091558,3997730,272.83798,22.68,98090.5,1.1654774
110275218,110252496,3997730,273.35324,22.67,98084.5,1.1654061
110486345,110466201,3997730,272.99124,22.68,98088.74,1.1654565
110697411,110679709,3997730,272.75345,22.68,98091.5,1.1654893
110918654,110895992,3997730,272.94632,22.68,98089.24,1.1654625
111079928,111056795,3997730,272.8618,22.68,98090.25,1.1654744
111300620,111283013,3997730,273.09692,22.68,98087.5,1.1654418
111461350,111443697,3997730,272.8829,22.68,98090.0,1.1654714
111692622,111672295,3997730,272.79572,22.68,98091.0,1.1654834
111903569,111885856,3997730,272.34915,22.68,98096.25,1.1655457
112064371,112046719,3997730,272.5209,22.68,98094.24,1.1655219
112285614,112262978,3997730,272.62662,22.68,98092.99,1.165507
112496926,112476662,3997730,272.79572,22.689999,98091.0,1.1654834
112708193,112690401,3997730,272.8618,22.68,98090.25,1.1654744
112869066,112851438,3997730,272.71115,22.689999,98092.0,1.1654953
113090291,113067517,3997730,272.94632,22.68,98089.24,1.1654625
113301319,113281132,3997730,273.0124,22.689999,98088.49,1.1654536
113512389,113494545,3997730,272.83798,22.689999,98090.5,1.1654774
113673044,113655355,3997730,273.30832,22.689999,98085.0,1.1654121
113894051,113871325,3997730,273.52234,22.689999,98082.5,1.1653824
114105128,114084984,3997730,273.41666,22.689999,98083.75,1.1653972
114316339,114298683,3997730,273.35324,22.689999,98084.5,1.1654061
114477248,114459618,3997730,273.48007,22.689999,98083.0,1.1653883
114698492,114675777,3997730,273.1815,22.689999,98086.5,1.1654298
114909551,114889402,3997730,273.26605,22.689999,98085.5,1.165418
115070433,115050176,3997730,273.2449,22.699999,98085.76,1.165421
115281551,115263821,3997730,273.09692,22.689999,98087.5,1.1654418
115502698,115480019,3997730,273.45895,22.699999,98083.25,1.1653912
115713955,115693786,3997730,273.54614,22.699999,98082.25,1.1653794
115874810,115854560,3997730,273.6941,22.699999,98080.5,1.1653585
116085964,116068252,3997730,273.67297,22.689999,98080.75,1.1653615
116307073,116284393,3997730,273.77866,22.699999,98079.5,1.1653467
116518326,116498145,3997730,273.92926,22.699999,98077.75,1.1653259
116679276,116658978,3997730,274.03497,22.699999,98076.5,1.1653111
116890396,116872720,3997730,273.84473,22.689999,98078.75,1.1653378
117111496,117088770,3997730,273.71524,22.699999,98080.26,1.1653557
117272362,117249691,3997730,273.9504,22.699999,98077.5,1.1653229
117483487,117463361,3997730,274.18558,22.699999,98074.75,1.1652902
117694801,117677090,3997730,274.50528,22.699999,98071.0,1.1652458
117915965,117893262,3997730,274.89108,22.699999,98066.5,1.1651922
118076787,118054152,3997730,274.74045,22.699999,98068.25,1.165213
118287827,118267694,3997730,274.249,22.699999,98074.0,1.1652814
118498996,118481284,3997730,274.101,22.71,98075.75,1.1653022
118720004,118697187,3997730,273.9504,22.71,98077.5,1.1653229
118880771,118858151,3997730,273.77866,22.699999,98079.5,1.1653467
119091841,119071650,3997730,274.6559,22.699999,98069.24,1.1652248
119253486,119232578,3997730,274.72195,22.699999,98068.49,1.165216
119483962,119461266,3997730,274.86993,22.699999,98066.74,1.1651951
119695237,119674981,3997730,274.89108,22.71,98066.49,1.1651921
119906364,119888711,3997730,274.42075,22.71,98072.0,1.1652576
120067201,120049514,3997730,274.22784,22.71,98074.25,1.1652843
120288490,120265852,3997730,273.92926,22.71,98077.75,1.1653259
120499630,120479484,3997730,274.22784,22.71,98074.25,1.1652843
120710829,120693177,3997730,273.67297,22.71,98080.75,1.1653615
120872008,120853909,3997730,273.6941,22.71,98080.49,1.1653585
121092716,121069994,3997730,274.12216,22.71,98075.5,1.1652992
121304205,121283418,3997730,274.05875,22.71,98076.25,1.1653081
121474423,121456799,3997730,274.18558,22.71,98074.75,1.1652902
121695716,121672922,3997730,274.20673,22.71,98074.5,1.1652873
121907095,121886869,3997730,274.249,22.71,98074.0,1.1652814
122118151,122100465,3997730,274.03497,22.72,98076.5,1.1653111
122278822,122261218,3997730,274.07986,22.71,98075.99,1.165305
122499906,122477217,3997730,273.92926,22.72,98077.75,1.1653259
122711074,122690892,3997730,274.31506,22.71,98073.25,1.1652725
122871797,122851649,3997730,274.27014,22.72,98073.75,1.1652784
123082901,123065280,3997730,274.1433,22.72,98075.25,1.1652962
123303972,123281331,3997730,274.18558,22.71,98074.75,1.1652902
123515072,123494886,3997730,274.35733,22.71,98072.75,1.1652665
123675870,123655721,3997730,274.22784,22.72,98074.25,1.1652843
123886828,123869166,3997730,274.44186,22.72,98071.75,1.1652546
124108069,124085369,3997730,274.463,22.72,98071.5,1.1652516
124319367,124299191,3997730,274.463,22.72,98071.5,1.1652516
124480306,124460136,3997730,274.6559,22.72,98069.24,1.1652248
124691443,124673738,3997730,274.69818,22.72,98068.74,1.1652188
124912449,124889748,3997730,274.50528,22.72,98071.0,1.1652458
125073068,125050412,3997730,274.463,22.72,98071.5,1.1652516
125284057,125263928,3997730,274.74045,22.72,98068.25,1.165213
125515350,125485002,3997730,274.7801,22.72,98067.79,1.1652075
125676141,125653486,3997730,275.02054,22.72,98065.0,1.1651744
125887367,125867230,3997730,275.298,22.72,98061.74,1.1651357
126098346,126080718,3997730,275.18967,22.73,98063.0,1.1651506
126259708,126241575,3997730,275.4037,22.72,98060.5,1.165121
126480444,126457703,3997730,274.9122,22.73,98066.25,1.1651893
126691729,126671505,3997730,274.9994,22.73,98065.25,1.1651773
126902830,126885189,3997730,275.34027,22.73,98061.26,1.16513
127064215,127045980,3997730,275.2108,22.73,98062.75,1.1651477
127294808,127274631,3997730,275.12625,22.73,98063.74,1.1651595
127506357,127488090,3997730,275.2557,22.73,98062.24,1.1651417
127666671,127648941,3997730,275.0417,22.73,98064.75,1.1651715
127888048,127865203,3997730,274.86993,22.73,98066.74,1.1651951
128099082,128078906,3997730,275.23193,22.73,98062.5,1.1651447
128310240,128292601,3997730,275.18967,22.73,98063.0,1.1651506
128471191,128453495,3997730,275.1474,22.73,98063.49,1.1651565
128692328,128669541,3997730,274.97565,22.73,98065.5,1.1651803
128903471,128883224,3997730,274.9994,22.73,98065.25,1.1651773
129114616,129096881,3997730,275.21344,22.74,98062.74,1.1651475
129275391,129257715,3997730,275.23193,22.73,98062.5,1.1651447
129496570,129473861,3997730,275.31912,22.73,98061.5,1.1651329
129707646,129687425,3997730,275.12625,22.74,98063.74,1.1651595
129918905,129901060,3997730,275.65997,22.74,98057.5,1.1650853
130079621,130061939,3997730,275.63885,22.74,98057.75,1.1650883
130300791,130278155,3997730,275.23193,22.74,98062.5,1.1651447
130512067,130491829,3997730,274.55023,22.74,98070.49,1.1652397
130672771,130652655,3997730,274.2939,22.74,98073.5,1.1652755
130904027,130881225,3997730,274.16443,22.74,98075.0,1.1652932
131115000,131094859,3997730,274.18558,22.74,98074.75,1.1652902
131275763,131255625,3997730,274.3996,22.74,98072.25,1.1652606
131486829,131469207,3997730,274.01645,22.74,98076.75,1.1653141
131707929,131685266,3997730,274.463,22.74,98071.5,1.1652516
131868832,131846181,3997730,274.55023,22.74,98070.49,1.1652397
132080376,132059635,3997730,274.63477,22.74,98069.5,1.1652279
132311230,132288456,3997730,274.61362,22.74,98069.74,1.1652308
132472839,132449502,3997730,274.89108,22.74,98066.5,1.1651922
132693676,132675994,3997730,275.02054,22.74,98065.0,1.1651744
132914806,132892120,3997730,275.08395,22.74,98064.24,1.1651654
133075659,133053011,3997730,274.93335,22.74,98066.0,1.1651863
133287015,133266827,3997730,274.97565,22.74,98065.5,1.1651803
133498172,133480557,3997730,275.1051,22.75,98064.0,1.1651626
133658883,133641266,3997730,275.46976,22.75,98059.75,1.165112
133880042,133857286,3997730,275.49088,22.75,98059.5,1.165109
134091138,134070971,3997730,275.44595,22.75,98060.0,1.165115
134302155,134284459,3997730,275.31912,22.75,98061.5,1.1651329
134462928,134445306,3997730,275.38254,22.75,98060.75,1.1651239
134684319,134661508,3997730,275.51202,22.75,98059.25,1.165106
134895380,134875101,3997730,275.31912,22.75,98061.5,1.1651329
135106763,135089048,3997730,275.49088,22.75,98059.5,1.165109
135267520,135249893,3997730,276.06693,22.75,98052.75,1.1650289
135488564,135465917,3997730,276.04578,22.75,98053.0,1.1650318
135699810,135679499,3997730,275.63885,22.75,98057.75,1.1650883
135911061,135893395,3997730,275.63885,22.75,98057.75,1.1650883
136092108,136061809,3997730,276.1488,22.75,98051.8,1.1650176
136303347,136283171,3997730,276.02463,22.75,98053.25,1.1650348
136514500,136496836,3997730,275.5543,22.75,98058.75,1.1651002
136675302,136657657,3997730,275.7683,22.75,98056.25,1.1650704
136897049,136873900,3997730,275.44595,22.75,98060.0,1.165115
137117699,137100032,3997730,275.4037,22.75,98060.5,1.165121
137278543,137260882,3997730,275.59656,22.75,98058.25,1.1650943
137499839,137477121,3997730,275.34027,22.75,98061.26,1.16513
137710889,137690730,3997730,275.5543,22.75,98058.75,1.1651002
137871855,137851706,3997730,275.59656,22.75,98058.25,1.1650943
138103749,138072915,3997730,275.78946,22.76,98055.99,1.1650674
138274058,138253924,3997730,275.65997,22.75,98057.49,1.1650852
138485256,138467553,3997730,275.68112,22.76,98057.25,1.1650823
138706212,138683517,3997730,275.57544,22.76,98058.5,1.1650972
138917578,138897273,3997730,275.38254,22.76,98060.75,1.1651239
139078355,139058178,3997730,275.44595,22.76,98060.0,1.165115
139289410,139271756,3997730,275.5543,22.76,98058.75,1.1651002
139510672,139488000,3997730,275.40634,22.76,98060.49,1.1651208
139671472,139648816,3997730,275.40634,22.76,98060.49,1.1651208
139882454,139862327,3997730,275.31912,22.76,98061.5,1.1651329
140094145,140075978,3997730,275.38254,22.76,98060.76,1.165124
140314791,140292105,3997730,275.2557,22.76,98062.24,1.1651417
140475706,140452989,3997730,275.12625,22.76,98063.74,1.1651595
140686773,140666559,3997730,275.31912,22.76,98061.5,1.1651329
140897804,140880073,3997730,275.2557,22.769999,98062.24,1.1651417
141118886,141096250,3997730,275.36142,22.769999,98060.99,1.1651268
141279967,141257170,3997730,275.1051,22.76,98064.0,1.1651626
141491207,141470842,3997730,275.1051,22.769999,98064.0,1.1651626
141702946,141684505,3997730,274.9545,22.76,98065.75,1.1651833
141863015,141845379,3997730,274.86993,22.769999,98066.75,1.1651952
142084426,142061637,3997730,274.78275,22.769999,98067.75,1.1652071
142295647,142275411,3997730,274.42075,22.769999,98072.0,1.1652576
142506702,142489062,3997730,274.63477,22.769999,98069.49,1.1652278
142667677,142649944,3997730,274.33618,22.769999,98073.0,1.1652695
142888834,142866096,3997730,274.5925,22.769999,98069.99,1.1652337
143100019,143079750,3997730,274.33618,22.769999,98073.0,1.1652695
143312499,143293470,3997730,274.78275,22.769999,98067.75,1.1652071
143471769,143454161,3997730,274.9122,22.769999,98066.25,1.1651893
143692759,143670137,3997730,275.38254,22.769999,98060.74,1.1651238
143914057,143896277,3997730,275.87402,22.769999,98055.0,1.1650556
144074795,144057157,3997730,275.9797,22.769999,98053.75,1.1650407
144296162,144273487,3997730,275.51202,22.779999,98059.25,1.165106
144507589,144487243,3997730,274.7616,22.769999,98068.0,1.1652101
144668238,144648085,3997730,274.9545,22.769999,98065.75,1.1651833
144879418,144861737,3997730,274.7431,22.769999,98068.24,1.165213
145110663,145090543,3997730,274.69818,22.769999,98068.74,1.1652188
145271591,145251444,3997730,274.80652,22.779999,98067.49,1.165204
145482877,145464980,3997730,274.50528,22.779999,98071.0,1.1652458
145703770,145681110,3997730,274.52908,22.779999,98070.74,1.1652427
145864955,145842036,3997730,274.6559,22.779999,98069.24,1.1652248
146085824,146068178,3997730,274.93335,22.779999,98066.0,1.1651863
146306928,146284300,3997730,274.9545,22.779999,98065.75,1.1651833
146467864,146445196,3997730,274.3996,22.779999,98072.25,1.1652606
146678921,146658758,3997730,274.2939,22.779999,98073.5,1.1652755
146890212,146872566,3997730,274.2939,22.779999,98073.5,1.1652755
147111449,147088683,3997730,274.18558,22.779999,98074.75,1.1652902
147272360,147249671,3997730,274.01645,22.779999,98076.74,1.165314
147483654,147463475,3997730,274.27014,22.779999,98073.75,1.1652784
147694805,147677125,3997730,274.16443,22.779999,98075.0,1.1652932
147915908,147893267,3997730,274.3996,22.779999,98072.25,1.1652606
148076917,148054119,3997730,274.1433,22.779999,98075.25,1.1652962
148287978,148267840,3997730,274.3996,22.779999,98072.25,1.1652606
148499035,148481402,3997730,274.16443,22.789999,98075.0,1.1652932
148659985,148642261,3997730,274.12216,22.779999,98075.5,1.1652992
148881130,148858455,3997730,273.86584,22.789999,98078.5,1.1653348
149092397,149072165,3997730,274.05875,22.789999,98076.25,1.1653081
149303417,149285710,3997730,274.05875,22.789999,98076.25,1.1653081
149484332,149454020,3997730,273.94247,22.789999,98077.6,1.1653241
149695404,149675141,3997730,273.84473,22.789999,98078.75,1.1653378
149906658,149888929,3997730,273.73904,22.789999,98079.99,1.1653526
150067556,150049840,3997730,273.9504,22.779999,98077.5,1.1653229
150288685,150265964,3997730,273.80243,22.789999,98079.25,1.1653438
150499744,150479497,3997730,273.77866,22.789999,98079.5,1.1653467
150710891,150693193,3997730,273.6941,22.789999,98080.5,1.1653585
150871807,150854088,3997730,273.28983,22.789999,98085.24,1.1654149
151093074,151070373,3997730,273.52234,22.789999,98082.5,1.1653824
151304103,151283933,3997730,273.4378,22.789999,98083.5,1.1653942
151515280,151497501,3997730,272.99124,22.8,98088.74,1.1654565
151676191,151658530,3997730,273.3321,22.789999,98084.75,1.1654091
151897370,151874701,3997730,272.7323,22.789999,98091.75,1.1654923
152108541,152088270,3997730,272.96747,22.789999,98088.99,1.1654595
152319395,152301770,3997730,272.7323,22.789999,98091.75,1.1654923
152480335,152462701,3997730,272.56317,22.8,98093.74,1.1655159
152701995,152678968,3997730,272.21967,22.8,98097.75,1.1655636
152872562,152852430,3997730,272.21967,22.8,98097.75,1.1655636
153083612,153065956,3997730,272.2831,22.8,98097.0,1.1655546
153304649,153282028,3997730,272.32538,22.8,98096.5,1.1655487
153515972,153495739,3997730,272.2408,22.8,98097.5,1.1655606
153676944,153656754,3997730,271.7705,22.8,98103.0,1.1656259
153888044,153870402,3997730,271.74936,22.8,98103.25,1.1656289
154109030,154086398,3997730,271.3662,22.8,98107.75,1.1656823
154269967,154247232,3997730,271.5565,22.8,98105.5,1.1656556
154480967,154460800,3997730,271.1284,22.8,98110.51,1.1657151
154692728,154674467,3997730,270.78757,22.8,98114.5,1.1657625
154913302,154890571,3997730,271.1522,22.8,98110.25,1.1657121
155074194,155051431,3997730,270.93817,22.8,98112.74,1.1657417
155295374,155277646,3997730,270.91702,22.8,98113.0,1.1657448
155516543,155493735,3997730,270.98044,22.81,98112.24,1.1657357
155677355,155654662,3997730,271.06763,22.8,98111.25,1.1657239
155888659,155868414,3997730,270.95932,22.8,98112.5,1.1657388
156099688,156081983,3997730,270.8536,22.8,98113.74,1.1657536
156260575,156242942,3997730,270.95932,22.8,98112.5,1.1657388
156481738,156459064,3997730,270.8113,22.8,98114.24,1.1657594
156692837,156672722,3997730,270.91702,22.8,98113.0,1.1657448
156903876,156886234,3997730,270.89587,22.81,98113.24,1.1657476
157064681,157047065,3997730,271.06763,22.8,98111.24,1.1657238
157285898,157263176,3997730,271.3662,22.81,98107.75,1.1656823
157496998,157476823,3997730,271.2156,22.81,98109.5,1.1657032
157707891,157690247,3997730,271.23676,22.8,98109.25,1.1657002
157868884,157851200,3997730,271.32394,22.81,98108.24,1.1656882
158090045,158067362,3997730,271.64102,22.81,98104.51,1.1656438
158301219,158280990,3997730,271.89996,22.81,98101.5,1.165608
158512407,158494750,3997730,272.1774,22.81,98098.25,1.1655695
158673334,158655658,3997730,271.83655,22.81,98102.25,1.165617
158904663,158884503,3997730,272.19855,22.81,98098.0,1.1655666
159115755,159098136,3997730,271.7282,22.81,98103.5,1.1656319
159276607,159258937,3997730,271.5776,22.81,98105.25,1.1656526
159497796,159475154,3997730,271.8154,22.81,98102.5,1.16562
159708741,159688573,3997730,271.96338,22.81,98100.75,1.1655992
159869555,159849405,3997730,272.00565,22.81,98100.25,1.1655933
160101248,160070661,3997730,271.22354,22.81,98109.39,1.1657019
160271789,160251657,3997730,270.93817,22.82,98112.74,1.1657417
160503346,160472859,3997730,271.07028,22.82,98111.195,1.1657233
160714146,160693957,3997730,271.0227,22.82,98111.74,1.1657298
160874967,160854805,3997730,271.3662,22.82,98107.75,1.1656823
161086167,161068465,3997730,271.19446,22.82,98109.74,1.165706
161307317,161284571,3997730,271.53534,22.82,98105.75,1.1656586
161468108,161445462,3997730,271.64365,22.82,98104.5,1.1656437
161679245,161659096,3997730,271.3662,22.82,98107.74,1.1656823
161890330,161872675,3997730,271.30014,22.82,98108.5,1.1656913
162111702,162088989,3997730,271.2156,22.82,98109.5,1.1657032
162272593,162249896,3997730,271.2156,22.82,98109.49,1.165703
162483519,162463390,3997730,271.0227,22.82,98111.74,1.1657298
162694625,162676959,3997730,270.6607,22.82,98116.0,1.1657804
162915872,162893231,3997730,270.6607,22.82,98116.0,1.1657804
163076868,163054201,3997730,270.61844,22.82,98116.5,1.1657864
163288006,163267833,3997730,270.95932,22.82,98112.5,1.1657388
163499036,163481425,3997730,271.06763,22.82,98111.25,1.1657239
163659885,163642218,3997730,271.13107,22.82,98110.5,1.1657151
163881023,163858374,3997730,270.89587,22.82,98113.24,1.1657476
164092489,164072048,3997730,270.82983,22.82,98114.0,1.1657566
164263246,164245510,3997730,270.68185,22.82,98115.75,1.1657774
164484548,164461836,3997730,270.82983,22.82,98114.0,1.1657566
164695764,164675626,3997730,270.89587,22.82,98113.24,1.1657476
164906924,164889292,3997730,270.95932,22.83,98112.49,1.1657387
165067804,165050171,3997730,270.98044,22.82,98112.24,1.1657357
165289214,165266251,3997730,271.10992,22.82,98110.75,1.165718
165510136,165492503,3997730,271.10992,22.82,98110.74,1.165718
165671004,165653340,3997730,271.53534,22.82,98105.75,1.1656586
165892092,165869440,3997730,272.2408,22.83,98097.5,1.1655606
166103261,166083088,3997730,272.21967,22.83,98097.75,1.1655636
166314573,166296922,3997730,271.60138,22.83,98105.0,1.1656497
166475619,166457899,3997730,271.74936,22.83,98103.25,1.1656289
166696688,166673986,3997730,272.19855,22.83,98098.0,1.1655666
166907623,166887502,3997730,272.13513,22.83,98098.75,1.1655754
167068645,167048421,3997730,271.8154,22.83,98102.5,1.16562
167279914,167262151,3997730,271.94226,22.83,98101.0,1.1656022
167500920,167478272,3997730,271.89996,22.83,98101.5,1.165608
167712514,167691845,3997730,271.45078,22.83,98106.75,1.1656705
167883012,167865297,3997730,271.87885,22.83,98101.75,1.165611
168104031,168081284,3997730,271.96338,22.83,98100.75,1.1655992
168315176,168295010,3997730,271.89996,22.83,98101.5,1.165608
168475855,168455742,3997730,272.3703,22.83,98096.0,1.1655427
168686994,168669384,3997730,272.32538,22.83,98096.5,1.1655487
168908093,168885438,3997730,272.2831,22.83,98097.0,1.1655546
169119375,169099102,3997730,272.43372,22.83,98095.24,1.1655338
169280136,169259984,3997730,272.8618,22.83,98090.25,1.1654744
169491299,169473625,3997730,272.94632,22.83,98089.24,1.1654625
169712224,169689591,3997730,273.39554,22.83,98084.0,1.1654001
169873231,169850482,3997730,272.92517,22.83,98089.49,1.1654655
170084392,170064237,3997730,273.20264,22.83,98086.24,1.1654269
170295473,170277821,3997730,273.0758,22.83,98087.74,1.1654446
170516558,170493829,3997730,272.69003,22.84,98092.25,1.1654983
170677380,170654641,3997730,273.11807,22.83,98087.24,1.1654387
170888665,170868432,3997730,273.54614,22.83,98082.25,1.1653794
171099778,171082079,3997730,273.30832,22.83,98085.0,1.1654121
171260624,171243017,3997730,273.92926,22.83,98077.75,1.1653259
171481775,171459003,3997730,273.4378,22.83,98083.5,1.1653942
171692837,171672553,3997730,273.11807,22.84,98087.24,1.1654387
171904355,171886207,3997730,273.16034,22.84,98086.75,1.1654328
172064808,172047197,3997730,272.8829,22.84,98090.0,1.1654714
172286017,172263330,3997730,272.8195,22.84,98090.75,1.1654804
172497330,172477065,3997730,272.8618,22.84,98090.25,1.1654744
172659105,172637911,3997730,272.79837,22.84,98090.99,1.1654832
172889262,172866495,3997730,273.20264,22.84,98086.24,1.1654269
173111073,173086143,3997730,272.6953,22.84,98092.2,1.1654977
173271273,173253516,3997730,272.54205,22.84,98093.99,1.1655189
173492474,173469741,3997730,272.32538,22.84,98096.5,1.1655487
173703545,173683308,3997730,272.56055,22.84,98093.75,1.165516
173865726,173844222,3997730,272.8829,22.84,98090.0,1.1654714
174105785,174085648,3997730,272.94632,22.84,98089.24,1.1654625
174316849,174299210,3997730,272.71115,22.84,98091.99,1.1654952
174477716,174460096,3997730,272.58432,22.84,98093.49,1.1655129
174699045,174676265,3997730,272.43372,22.84,98095.24,1.1655338
174910247,174890057,3997730,272.62662,22.84,98093.0,1.1655071
175071531,175051080,3997730,272.71115,22.84,98091.99,1.1654952
175282493,175264758,3997730,273.16034,22.84,98086.74,1.1654328
175503624,175480984,3997730,272.7323,22.84,98091.75,1.1654923
175714882,175694612,3997730,272.75345,22.84,98091.5,1.1654893
175875618,175855498,3997730,272.32538,22.84,98096.5,1.1655487
176086869,176069242,3997730,272.43372,22.84,98095.24,1.1655338
176307958,176285335,3997730,272.83798,22.84,98090.5,1.1654774
176519136,176498956,3997730,272.8618,22.84,98090.25,1.1654744
176679940,176659779,3997730,273.0124,22.85,98088.5,1.1654537
176891044,176873357,3997730,272.8195,22.84,98090.74,1.1654803
177112382,177089542,3997730,272.75345,22.85,98091.5,1.1654893
177273028,177250400,3997730,273.0758,22.84,98087.74,1.1654446
177484196,177463976,3997730,273.09692,22.85,98087.5,1.1654418
177695166,177677534,3997730,273.48007,22.84,98083.0,1.1653883
177916435,177893769,3997730,273.20264,22.85,98086.24,1.1654269
178077358,178054602,3997730,273.80243,22.85,98079.25,1.1653438
178288517,178268288,3997730,273.48007,22.85,98082.99,1.1653882
178499836,178482141,3997730,273.3744,22.85,98084.25,1.1654031
178660593,178642987,3997730,273.28983,22.85,98085.24,1.1654149
178891820,178871629,3997730,273.65182,22.85,98081.0,1.1653645
179102971,179085300,3997730,273.99268,22.85,98077.0,1.165317
179263650,179246046,3997730,273.63068,22.85,98081.25,1.1653675
179484876,179462227,3997730,273.45895,22.85,98083.24,1.1653912
179695838,179675716,3997730,273.92926,22.85,98077.75,1.1653259
179907149,179889377,3997730,274.463,22.85,98071.5,1.1652516
180067912,180050263,3997730,274.48682,22.85,98071.25,1.1652486
180289022,180266395,3997730,273.9081,22.85,98078.0,1.1653289
180510176,180492525,3997730,274.05875,22.85,98076.25,1.1653081
180671116,180653457,3997730,274.07986,22.85,98076.0,1.1653051
180892325,180869659,3997730,274.101,22.85,98075.75,1.1653022
181103372,181083182,3997730,274.463,22.85,98071.5,1.1652516
181314486,181296857,3997730,274.48682,22.85,98071.25,1.1652486
181475389,181457741,3997730,274.35733,22.85,98072.75,1.1652665
181696555,181673917,3997730,273.4378,22.85,98083.5,1.1653942
181907536,181887375,3997730,272.8829,22.85,98090.0,1.1654714
182118778,182101158,3997730,272.8195,22.85,98090.75,1.1654804
182279771,182262057,3997730,273.05466,22.85,98088.0,1.1654477
182501010,182478318,3997730,273.13922,22.85,98087.0,1.1654358
182712171,182692013,3997730,273.2238,22.85,98086.0,1.165424
182873329,182852903,3997730,273.11807,22.85,98087.24,1.1654387
183084231,183066540,3997730,273.09692,22.85,98087.49,1.1654416
183265614,183235029,3997730,273.15506,22.85,98086.8,1.1654334
183486471,183468827,3997730,273.03088,22.85,98088.26,1.1654508
183707612,183684882,3997730,273.1815,22.85,98086.5,1.1654298
183868561,183845787,3997730,273.3321,22.85,98084.75,1.1654091
184080087,184059591,3997730,273.35324,22.85,98084.5,1.1654061
184291021,184273360,3997730,273.71524,22.85,98080.25,1.1653556
184512276,184489571,3997730,273.35324,22.85,98084.5,1.1654061
184673137,184650410,3997730,273.4378,22.85,98083.5,1.1653942
184884330,184864072,3997730,273.50122,22.85,98082.75,1.1653854
185095365,185077684,3997730,273.48007,22.85,98082.99,1.1653882
185276504,185246223,3997730,273.60162,22.85,98081.6,1.1653717
185487557,185467404,3997730,273.6941,22.85,98080.5,1.1653585
185698920,185681262,3997730,273.65182,22.85,98081.0,1.1653645
185920194,185897545,3997730,273.45895,22.85,98083.25,1.1653912
186081266,186058537,3997730,273.45895,22.85,98083.25,1.1653912
186292232,186272055,3997730,273.52234,22.85,98082.5,1.1653824
186503399,186485782,3997730,273.63068,22.85,98081.25,1.1653675
186664337,186646684,3997730,273.5884,22.85,98081.75,1.1653734
186885367,186862711,3997730,273.9081,22.85,98078.0,1.1653289
187096569,187076361,3997730,273.92926,22.85,98077.75,1.1653259
187267393,187243121,3997730,274.01117,22.859999,98076.8,1.1653146
187488685,187465938,3997730,273.6941,22.85,98080.5,1.1653585
187699863,187679583,3997730,274.0376,22.85,98076.49,1.165311
187911009,187893339,3997730,274.48682,22.85,98071.25,1.1652486
188091775,188061566,3997730,274.7114,22.85,98068.59,1.1652172
188302848,188282652,3997730,274.97565,22.85,98065.5,1.1651803
188464465,188443479,3997730,275.16852,22.85,98063.24,1.1651535
188694807,188672167,3997730,275.08395,22.85,98064.25,1.1651655
188906100,188885882,3997730,274.67703,22.85,98068.99,1.1652218
189117346,189099526,3997730,274.55023,22.85,98070.5,1.1652398
189278083,189260454,3997730,274.42075,22.85,98072.0,1.1652576
189499239,189476552,3997730,274.18558,22.85,98074.75,1.1652902
189710526,189690177,3997730,274.2939,22.85,98073.5,1.1652755
189871302,189851081,3997730,274.35733,22.85,98072.75,1.1652665
190082341,190064648,3997730,274.1433,22.85,98075.25,1.1652962
190303578,190280882,3997730,274.33618,22.85,98073.0,1.1652695
190514910,190494618,3997730,274.2939,22.84,98073.5,1.1652755
190675718,190655601,3997730,274.35733,22.85,98072.75,1.1652665
190886993,190869281,3997730,274.20673,22.85,98074.5,1.1652873
191108424,191085650,3997730,274.44186,22.85,98071.75,1.1652546
191269216,191246579,3997730,274.249,22.85,98074.0,1.1652814
191480455,191460238,3997730,274.35733,22.85,98072.75,1.1652665
191691846,191674090,3997730,274.31506,22.85,98073.25,1.1652725
191913040,191890320,3997730,274.8488,22.85,98067.0,1.1651982
192074083,192051314,3997730,274.69818,22.85,98068.75,1.165219
192285355,192265180,3997730,274.78537,22.85,98067.74,1.165207
192516598,192493838,3997730,274.61362,22.85,98069.74,1.1652308
192677384,192654654,3997730,274.76425,22.85,98067.99,1.16521
192888636,192868394,3997730,274.463,22.85,98071.5,1.1652516
193099692,193082060,3997730,274.44186,22.85,98071.75,1.1652546
193260578,193242893,3997730,274.35733,22.85,98072.75,1.1652665
193481798,193459131,3997730,274.20673,22.85,98074.5,1.1652873
193692842,193672559,3997730,274.07986,22.85,98076.0,1.1653051
193903982,193886238,3997730,273.99533,22.85,98076.99,1.1653169
194064803,194047118,3997730,273.82358,22.85,98079.0,1.1653408
194285795,194263168,3997730,273.7813,22.85,98079.49,1.1653466
194496858,194476701,3997730,273.4378,22.85,98083.5,1.1653942
194708016,194690328,3997730,273.3744,22.85,98084.25,1.1654031
194868914,194851180,3997730,273.39554,22.85,98084.0,1.1654001
195089968,195067344,3997730,273.525,22.85,98082.49,1.1653823
195301386,195280960,3997730,273.13922,22.85,98087.0,1.1654358
195512563,195494822,3997730,273.35324,22.85,98084.5,1.1654061
195673700,195655766,3997730,273.20264,22.85,98086.26,1.165427
195894501,195871872,3997730,273.48007,22.85,98083.0,1.1653883
196105678,196085540,3997730,273.39554,22.85,98084.0,1.1654001
196316849,196299171,3997730,273.41666,22.85,98083.75,1.1653972
196477990,196460113,3997730,273.50122,22.85,98082.75,1.1653854
196698970,196676309,3997730,273.4378,22.85,98083.5,1.1653942
196910030,196889884,3997730,273.48007,22.85,98083.0,1.1653883
197070919,197050730,3997730,273.41666,22.85,98083.75,1.1653972
197282440,197264395,3997730,273.54614,22.85,98082.25,1.1653794
197503357,197480639,3997730,273.28983,22.85,98085.25,1.165415
197664670,197641564,3997730,273.07315,22.85,98087.76,1.1654449
197885369,197867739,3997730,273.41666,22.85,98083.74,1.1653972
198106765,198084086,3997730,273.16034,22.85,98086.76,1.1654329
198267714,198245004,3997730,273.1815,22.85,98086.49,1.1654298
198478774,198458613,3997730,273.35324,22.85,98084.5,1.1654061
198690004,198672365,3997730,273.20264,22.85,98086.24,1.1654269
198911362,198888614,3997730,273.50122,22.85,98082.75,1.1653854
199072237,199049492,3997730,273.28983,22.85,98085.24,1.1654149
199283483,199263357,3997730,273.16034,22.85,98086.74,1.1654328
199494636,199476981,3997730,273.24756,22.85,98085.74,1.1654209
199715827,199693150,3997730,273.1815,22.85,98086.5,1.1654298
199876868,199854236,3997730,273.35324,22.85,98084.5,1.1654061
200088094,200067922,3997730,273.30832,22.85,98085.0,1.1654121
200299084,200281457,3997730,273.20264,22.85,98086.24,1.1654269
200460064,200442310,3997730,273.35324,22.85,98084.5,1.1654061
200681179,200658554,3997730,273.13922,22.85,98087.0,1.1654358
200892525,200872235,3997730,273.13922,22.85,98087.0,1.1654358
201103618,201086014,3997730,273.11807,22.85,98087.24,1.1654387
201264996,201246741,3997730,273.26605,22.85,98085.5,1.165418
201495619,201475483,3997730,273.09692,22.85,98087.5,1.1654418
201706893,201689246,3997730,273.2238,22.85,98086.0,1.165424
201867687,201850036,3997730,273.20264,22.85,98086.24,1.1654269
202089084,202066258,3997730,273.3321,22.85,98084.75,1.1654091
202300068,202279927,3997730,273.26605,22.85,98085.5,1.165418
202462354,202440786,3997730,273.24756,22.85,98085.74,1.1654209
202702322,202682187,3997730,272.99124,22.85,98088.74,1.1654565
202864693,202843001,3997730,273.45895,22.85,98083.24,1.1653912
203104523,203084365,3997730,273.4378,22.85,98083.5,1.1653942
203266821,203245213,3997730,273.4378,22.85,98083.5,1.1653942
203506720,203486585,3997730,273.4378,22.85,98083.5,1.1653942
203717757,203700107,3997730,273.35324,22.85,98084.5,1.1654061
203878693,203860901,3997730,273.13922,22.85,98087.0,1.1654358
204100154,204077010,3997730,273.5884,22.85,98081.75,1.1653734
204270540,204250384,3997730,273.3321,22.85,98084.74,1.165409
204481564,204463952,3997730,273.26605,22.85,98085.5,1.165418
204712812,204692667,3997730,273.50122,22.85,98082.75,1.1653854
204873702,204853513,3997730,273.5673,22.859999,98082.0,1.1653764
205105152,205082308,3997730,273.16034,22.85,98086.74,1.1654328
205316284,205296034,3997730,273.26605,22.85,98085.5,1.165418
205476941,205456792,3997730,273.26605,22.85,98085.5,1.165418
205687985,205670305,3997730,273.3744,22.85,98084.25,1.1654031
205909162,205886491,3997730,273.45895,22.85,98083.25,1.1653912
206070113,206047462,3997730,273.26868,22.85,98085.49,1.1654179
206281267,206261123,3997730,273.39554,22.85,98084.0,1.1654001
206492505,206474713,3997730,273.16034,22.85,98086.76,1.1654329
206673507,206650876,3997730,273.24756,22.85,98085.74,1.1654209
206884879,206864691,3997730,273.16034,22.85,98086.76,1.1654329
207116040,207093362,3997730,273.2238,22.85,98086.0,1.165424
207276950,207254260,3997730,273.39554,22.85,98084.0,1.1654001
207487998,207467883,3997730,273.30832,22.85,98085.0,1.1654121
207699165,207681517,3997730,273.2238,22.85,98086.0,1.165424
207880030,207857409,3997730,272.96747,22.85,98089.0,1.1654596
208091060,208070913,3997730,272.49976,22.85,98094.49,1.1655248
208252317,208231758,3997730,272.69003,22.85,98092.24,1.1654981
208483224,208460465,3997730,272.90405,22.85,98089.75,1.1654685
208694335,208674198,3997730,273.3744,22.85,98084.25,1.1654031
208905604,208887915,3997730,273.52234,22.85,98082.5,1.1653824
209066612,209048807,3997730,273.92926,22.85,98077.75,1.1653259
209287647,209265017,3997730,273.35324,22.85,98084.5,1.1654061
209498838,209478678,3997730,273.09692,22.85,98087.5,1.1654418
209710053,209692319,3997730,272.83798,22.85,98090.5,1.1654774
209890933,209868281,3997730,272.32538,22.859999,98096.5,1.1655487
210101877,210081720,3997730,272.51828,22.85,98094.25,1.165522
210272783,210248608,3997730,272.52356,22.85,98094.2,1.1655214
210494124,210471445,3997730,272.30426,22.85,98096.75,1.1655517
210705301,210685100,3997730,272.5209,22.85,98094.24,1.1655219
210916313,210898597,3997730,272.56317,22.85,98093.74,1.1655159
211076956,211059309,3997730,272.04794,22.85,98099.75,1.1655873
211298155,211275467,3997730,271.8154,22.85,98102.5,1.16562
211509465,211489182,3997730,272.2831,22.85,98097.0,1.1655546
211670209,211650071,3997730,272.2408,22.85,98097.5,1.1655606
211901632,211871341,3997730,272.33597,22.85,98096.4,1.1655475
212112712,212092451,3997730,272.0902,22.85,98099.25,1.1655813
212273712,212253289,3997730,272.0902,22.85,98099.25,1.1655813
212484472,212466869,3997730,271.60138,22.85,98105.0,1.1656497
212705625,212682909,3997730,271.45078,22.85,98106.74,1.1656704
212916816,212896578,3997730,271.68594,22.85,98104.0,1.1656379
213077632,213057453,3997730,271.3662,22.85,98107.75,1.1656823
213288862,213271228,3997730,271.53534,22.85,98105.75,1.1656586
213510285,213487308,3997730,271.60138,22.85,98105.0,1.1656497
213670922,213648211,3997730,271.25787,22.85,98109.0,1.1656972
213882351,213861831,3997730,271.42963,22.85,98106.99,1.1656734
214113143,214090479,3997730,271.10992,22.85,98110.74,1.165718
214273981,214251211,3997730,271.23938,22.85,98109.24,1.1657001
214485035,214464854,3997730,270.8113,22.859999,98114.24,1.1657594
214696321,214678510,3997730,271.5565,22.85,98105.5,1.1656556
214917330,214894609,3997730,270.98044,22.85,98112.24,1.1657357
215078125,215055476,3997730,271.3451,22.85,98107.99,1.1656853
215289197,215269065,3997730,271.2156,22.85,98109.5,1.1657032
215500538,215482837,3997730,270.93817,22.85,98112.74,1.1657417
215661449,215643779,3997730,270.87476,22.85,98113.5,1.1657507
215882578,215859889,3997730,271.0227,22.85,98111.74,1.1657298
216103551,216085947,3997730,270.91702,22.85,98113.0,1.1657448
216264441,216246790,3997730,271.32394,22.85,98108.25,1.1656883
216485720,216463023,3997730,271.23676,22.85,98109.25,1.1657002
216696955,216676838,3997730,271.25787,22.85,98109.0,1.1656972
216907953,216890314,3997730,271.53534,22.85,98105.75,1.1656586
217068870,217051260,3997730,271.1284,22.85,98110.51,1.1657151
217290136,217267453,3997730,271.3662,22.85,98107.74,1.1656823
217501324,217481137,3997730,271.49304,22.85,98106.25,1.1656646
217672237,217648016,3997730,271.70444,22.85,98103.8,1.1656353
217893518,217870837,3997730,271.87885,22.85,98101.75,1.165611
218104647,218084505,3997730,271.96338,22.85,98100.75,1.1655992
218316121,218298279,3997730,271.89996,22.85,98101.49,1.165608
218476881,218459272,3997730,272.19855,22.85,98098.0,1.1655666
218698089,218675377,3997730,272.3703,22.85,98096.0,1.1655427
218909484,218889225,3997730,272.26196,22.85,98097.25,1.1655576
219070249,219050136,3997730,272.30426,22.85,98096.75,1.1655517
219281459,219263750,3997730,272.5209,22.85,98094.24,1.1655219
219502482,219479841,3997730,272.49976,22.85,98094.49,1.1655248
219713801,219693535,3997730,272.62662,22.85,98093.0,1.1655071
219874576,219854384,3997730,272.21967,22.85,98097.75,1.1655636
220085675,220068014,3997730,272.4575,22.85,98094.99,1.1655308
220306701,220284078,3997730,272.43372,22.85,98095.24,1.1655338
220517832,220497594,3997730,272.45486,22.85,98095.0,1.1655309
220678566,220658418,3997730,272.43372,22.85,98095.24,1.1655338
220889678,220871973,3997730,272.0902,22.85,98099.25,1.1655813
221110825,221088188,3997730,272.41257,22.85,98095.49,1.1655368
221271820,221249063,3997730,272.3703,22.85,98096.0,1.1655427
221482925,221462740,3997730,272.30426,22.85,98096.75,1.1655517
