timestamp,time_utc_usec,lat,lon,alt,alt_ellipsoid,s_variance_m_s,c_variance_rad,eph,epv,hdop,vdop,noise_per_ms,jamming_indicator,vel_m_s,vel_n_m_s,vel_e_m_s,vel_d_m_s,cog_rad,timestamp_time_relative,heading,heading_offset,fix_type,vel_ned_valid,satellites_used
25955234,1634178218799917,340347193,1087571690,424582,396668,0.22800002,0.6834507,0.808,1.462,0.78,1.0699999,108,7,0.012,-0.009000001,-0.009000001,0.008,2.2691617,0,nan,0.0,3,1,16
26159941,1634178218999918,340347195,1087571692,424620,396706,0.24400002,0.6834605,0.80500007,1.4590001,0.78,1.0699999,109,8,0.0050000004,-0.004,0.003,0.022000002,2.2691617,0,nan,0.0,3,1,16
26958938,1634178219799917,340347207,1087571699,424816,396902,0.25500003,0.68349904,0.79800004,1.452,0.78,1.0699999,109,8,0.056,0.054,0.016,-0.059000004,2.2691617,0,nan,0.0,3,1,16
27958001,1634178220799917,340347220,1087571707,425022,397108,0.238,0.68354946,0.79200006,1.4460001,0.78,1.0699999,108,9,0.020000001,0.019000001,-0.006,-0.025,2.2691617,0,nan,0.0,3,1,16
28962951,1634178221799918,340347229,1087571711,425255,397341,0.25300002,0.68359953,0.781,1.437,0.78,1.0699999,108,21,0.029000001,0.021000002,0.021000002,-0.055000003,2.2691617,0,nan,0.0,3,1,16
29954942,1634178222799918,340347239,1087571714,425416,397502,0.21700001,0.6836463,0.77000004,1.4300001,0.78,1.0699999,108,7,0.028,-0.021000002,-0.018000001,-0.018000001,2.2691617,0,nan,0.0,3,1,16
30959950,1634178223799918,340347250,1087571718,425563,397649,0.25500003,0.6836954,0.76400006,1.4300001,0.78,1.0699999,109,7,0.142,0.062000003,0.127,-0.21200001,2.2691617,0,nan,0.0,3,1,16
31959944,1634178224799918,340347253,1087571734,426128,398213,0.23600002,0.57514864,0.75100005,1.4130001,0.78,1.0699999,109,9,0.25800002,-0.25500003,-0.038000003,-0.791,2.6905322,0,nan,0.0,3,1,16
32958941,1634178225799919,340347254,1087571743,427376,399462,0.23900001,0.6743252,0.734,1.376,0.78,1.0699999,108,26,0.23500001,0.216,0.09,-0.577,1.1104536,0,nan,0.0,3,1,16
33957948,1634178226799919,340347243,1087571761,427728,399814,0.19100001,0.38630262,0.717,1.35,0.78,1.0699999,108,9,0.407,-0.32900003,0.23900001,0.20300001,2.4155283,0,nan,0.0,3,1,16
34959942,1634178227799919,340347228,1087571785,428213,400298,0.22700001,0.7739173,0.791,1.478,0.74,0.94,108,15,0.058000002,0.055000003,0.019000001,0.13800001,2.587011,0,nan,0.0,3,1,17
35956125,1634178228799920,340347241,1087571782,428145,400231,0.17500001,0.34031618,0.69000006,1.2870001,0.78,1.0699999,109,16,0.46800002,0.33,-0.33200002,0.42200002,5.810483,0,nan,0.0,3,1,16
36958031,1634178229799920,340347248,1087571734,427764,399850,0.17300001,0.4411276,0.67700005,1.2540001,0.78,1.0699999,109,17,0.377,-0.097,-0.365,-0.15400001,4.631871,0,nan,0.0,3,1,16
37956991,1634178230799920,340347234,1087571701,427977,400062,0.202,0.7226311,0.666,1.2240001,0.78,1.0699999,109,29,0.21700001,-0.071,-0.20500001,-0.194,4.2169924,0,nan,0.0,3,1,16
38960949,1634178231799920,340347259,1087571690,428228,400314,0.20400001,0.63199174,0.657,1.2040001,0.78,1.0699999,109,10,0.163,0.15200001,0.060000002,-0.124000005,6.0071893,0,nan,0.0,3,1,16
39960942,1634178232799921,340347249,1087571694,428388,400474,0.19100001,0.5619349,0.647,1.182,0.78,1.0699999,109,10,0.091000006,-0.079,0.045,-0.082,1.3614308,0,nan,0.0,3,1,16
40966151,1634178233799921,340347249,1087571689,428363,400448,0.20700002,0.561986,0.64500004,1.176,0.78,1.0699999,109,9,0.081,0.07,0.041,-0.036000002,1.3614308,0,nan,0.0,3,1,16
43960961,1634178236799922,340347248,1087571689,428485,400571,0.13800001,0.5621227,0.628,1.1420001,0.78,1.0699999,109,9,0.12200001,-0.046000004,0.112,-0.031000001,1.3614308,0,nan,0.0,3,1,16
45960164,1634178238799922,340347252,1087571696,428509,400595,0.17500001,0.5622119,0.619,1.1220001,0.78,1.0699999,110,22,0.046000004,-0.039,-0.025,0.007,1.3614308,0,nan,0.0,3,1,16
46955940,1634178239799923,340347254,1087571705,428662,400748,0.163,0.5622536,0.614,1.1120001,0.81,1.2099999,117,11,0.07700001,-0.018000001,0.075,0.025,1.3614308,0,nan,0.0,3,1,15
47956101,1634178240799923,340347249,1087571707,428740,400826,0.19800001,0.56229883,0.61200005,1.108,0.78,1.0699999,117,26,0.047000002,-0.022000002,-0.042000003,-0.037,1.3614308,0,nan,0.0,3,1,16
48957973,1634178241799923,340347243,1087571691,428795,400880,0.178,0.5623428,0.611,1.1,0.78,1.0699999,117,25,0.096,-0.010000001,-0.096,-0.025,1.3614308,0,nan,0.0,3,1,16
49961934,1634178242799923,340347236,1087571674,429584,401670,0.22500001,0.5382745,0.60800004,1.0910001,0.78,1.0699999,117,12,0.08800001,0.041,-0.07700001,-0.61300004,2.7755256,0,nan,0.0,3,1,16
50965048,1634178243799924,340347255,1087571677,429949,402034,0.20700002,0.5470516,0.606,1.082,0.78,1.0699999,117,17,0.13100001,-0.076000005,0.10700001,-0.30800003,0.48991042,0,nan,0.0,3,1,16
51958123,1634178244799924,340347261,1087571681,430300,402385,0.22600001,0.4416503,0.60400003,1.072,0.78,1.0699999,116,18,0.33800003,0.33100003,-0.068,-0.735,0.06980602,0,nan,0.0,3,1,16
52960943,1634178245799924,340347268,1087571679,430389,402474,0.23900001,0.7075873,0.60300004,1.0680001,0.78,1.0699999,116,15,0.007,-0.006,-0.004,-0.136,6.192942,0,nan,0.0,3,1,16
53961941,1634178246799925,340347266,1087571680,430417,402503,0.216,0.7076272,0.60300004,1.0630001,0.78,1.0699999,109,10,0.055000003,-0.047000002,-0.030000001,0.052,6.192942,0,nan,0.0,3,1,16
54961086,1634178247799925,340347261,1087571679,430593,402678,0.238,0.7076706,0.609,1.074,0.78,1.0699999,109,8,0.07300001,-0.039,-0.062000003,-0.11800001,6.192942,0,nan,0.0,3,1,16
55953008,1634178248799925,340347257,1087571652,430745,402831,0.163,0.23124896,0.609,1.064,0.74,0.94,108,20,0.762,-0.07,-0.758,-0.24100001,4.6748085,0,nan,0.0,3,1,17
56957088,1634178249799925,340347248,1087571574,430679,402764,0.148,0.2034251,0.605,1.0480001,0.74,0.94,108,22,0.818,-0.091000006,-0.81200004,-0.048,4.55648,0,nan,0.0,3,1,17
57957982,1634178250799926,340347253,1087571467,430827,402912,0.13800001,0.16291408,0.59800005,1.023,0.74,0.94,109,19,0.9480001,0.12900001,-0.94000006,-0.24900001,4.7973557,0,nan,0.0,3,1,17
58962282,1634178251799926,340347257,1087571417,431030,403116,0.163,0.72195476,0.59400004,1.003,0.74,0.94,109,24,0.086,0.059000004,-0.063,-0.036000002,4.772364,0,nan,0.0,3,1,17
59959896,1634178252799926,340347264,1087571408,430836,402922,0.185,0.721984,0.59000003,0.98300004,0.74,0.94,109,9,0.089,-0.014,-0.08800001,0.13000001,4.772364,0,nan,0.0,3,1,17
60960969,1634178253799927,340347271,1087571405,430494,402580,0.289,0.7220343,0.59300005,0.98,0.74,0.94,109,23,0.086,-0.083000004,-0.024,0.18300001,4.772364,0,nan,0.0,3,1,17
61951518,1634178254799927,340347268,1087571405,430148,402233,0.316,0.72211546,0.638,1.0090001,0.78,1.0699999,85,11,0.20600002,-0.19700001,0.057000004,0.38300002,4.772364,0,nan,0.0,3,1,16
62954940,1634178255799927,340347259,1087571406,429566,401652,0.22800002,0.38835248,0.64400005,1.0090001,0.78,1.0699999,74,9,0.38200003,-0.35900003,-0.13100001,0.54200006,3.7782462,0,nan,0.0,3,1,16
63957947,1634178256799927,340347250,1087571408,429104,401190,0.22500001,0.38847694,0.642,1.0120001,0.78,1.0699999,74,10,0.16600001,0.021000002,0.164,0.35200003,3.7782462,0,nan,0.0,3,1,16
64954950,1634178257799928,340347245,1087571350,428881,400966,0.209,0.25718963,0.643,1.0150001,0.78,1.0699999,74,10,0.99500006,0.1,-0.99000007,0.13900001,4.7124605,0,nan,0.0,3,1,16
65956950,1634178258799928,340347240,1087571246,428795,400880,0.185,0.26817036,0.65400004,1.0350001,0.78,1.0699999,74,4,0.79200006,0.081,-0.78700006,0.046000004,4.730693,0,nan,0.0,3,1,16
66954949,1634178259799928,340347241,1087571117,428636,400722,0.18800001,0.2192938,0.65900004,1.047,0.78,1.0699999,74,4,0.961,0.010000001,-0.961,0.147,4.7461176,0,nan,0.0,3,1,16
67955937,1634178260799928,340347236,1087571001,428682,400768,0.18300001,0.1453627,0.656,1.057,0.78,1.0699999,74,8,1.485,-0.063,-1.4840001,-0.108,4.6659985,0,nan,0.0,3,1,16
68952501,1634178261799929,340347254,1087570834,428634,400720,0.157,0.13834369,0.65400004,1.0580001,0.78,1.0699999,74,10,1.2830001,0.582,-1.143,-0.12100001,5.0482326,0,nan,0.0,3,1,16
69952967,1634178262799929,340347292,1087570675,428550,400636,0.18,0.083437026,0.652,1.062,0.78,1.0699999,74,4,2.512,0.052,-2.512,0.11000001,4.795678,0,nan,0.0,3,1,16
70954102,1634178263799929,340347299,1087570448,428793,400879,0.165,0.1740856,0.64900005,1.0710001,0.74,0.94,79,4,1.1010001,0.116000004,-1.095,-0.05,4.777928,0,nan,0.0,3,1,17
71952938,1634178264799930,340347309,1087570330,429162,401248,0.25800002,0.25267252,0.82600003,1.378,0.74,0.94,79,4,1.107,0.143,-1.098,-0.381,4.8268967,0,nan,0.0,3,1,17
72958000,1634178265799930,340347325,1087570186,429775,401861,0.20300001,0.14637484,0.85800004,1.417,0.74,0.94,79,4,1.6910001,0.006,-1.6910001,-0.28,4.756482,0,nan,0.0,3,1,17
73960939,1634178266799930,340347334,1087570001,430120,402206,0.18900001,0.15552594,0.68100005,1.121,0.78,1.0699999,79,5,1.32,0.15100001,-1.3110001,-0.404,4.796405,0,nan,0.0,3,1,16
74955158,1634178267799930,340347333,1087569874,430301,402386,0.23900001,0.28958434,0.68600005,1.1290001,0.78,1.0699999,79,5,1.0070001,0.081,-1.0040001,-0.045,4.751294,0,nan,0.0,3,1,16
75959938,1634178268799931,340347337,1087569730,430100,402185,0.193,0.16975142,0.697,1.1270001,0.78,1.0699999,78,13,1.3690001,-0.034,-1.3690001,0.0050000004,4.722184,0,nan,0.0,3,1,16
76959988,1634178269799931,340347334,1087569584,429870,401955,0.16600001,0.12557451,0.693,1.11,0.78,1.0699999,73,4,1.3410001,-0.068,-1.3390001,-0.07700001,4.673098,0,nan,0.0,3,1,16
77958060,1634178270799931,340347344,1087569468,429742,401827,0.17400001,0.23654185,0.69100004,1.098,0.74,0.94,73,4,0.9250001,0.224,-0.89800006,-0.119,4.885046,0,nan,0.0,3,1,17
78958939,1634178271799932,340347369,1087569332,429709,401795,0.171,0.11358707,0.69200003,1.0890001,0.74,0.94,73,4,1.8210001,0.33,-1.7910001,-0.21100001,4.8942347,0,nan,0.0,3,1,17
79964118,1634178272799932,340347380,1087569112,430027,402113,0.186,0.108780086,0.69900006,1.087,0.74,0.94,73,7,1.8390001,0.21300001,-1.8270001,-0.555,4.78729,0,nan,0.0,3,1,17
80960939,1634178273799932,340347391,1087568903,430048,402133,0.23300001,0.14175197,0.716,1.087,0.74,0.94,73,4,1.7530001,0.105000004,-1.7500001,-0.10700001,4.7438025,0,nan,0.0,3,1,17
81956939,1634178274799932,340347395,1087568717,430072,402157,0.259,0.19442792,0.735,1.0990001,0.74,0.94,68,4,1.4490001,0.075,-1.447,0.1,4.721068,0,nan,0.0,3,1,17
82961946,1634178275799933,340347420,1087568614,430066,402151,0.21900001,0.34821972,0.753,1.1170001,0.74,0.94,63,14,0.80700004,0.15400001,-0.79200006,-0.15900001,4.9446697,0,nan,0.0,3,1,17
83953250,1634178276799933,340347420,1087568452,429986,402071,0.21900001,0.122062035,0.75100005,1.118,0.74,0.94,59,12,1.9640001,0.001,-1.9640001,0.079,4.703066,0,nan,0.0,3,1,17
84954942,1634178277799933,340347410,1087568295,429799,401884,0.171,0.20957232,0.74,1.1220001,0.78,1.0699999,59,4,0.87900007,0.027,-0.87900007,-0.054,4.7047668,0,nan,0.0,3,1,16
85957935,1634178278799933,340347403,1087568183,429719,401804,0.18400002,0.20166615,0.73,1.115,0.74,0.94,59,4,0.9710001,-0.002,-0.9710001,-0.08400001,4.7212615,0,nan,0.0,3,1,17
86959080,1634178279799934,340347405,1087568011,429642,401727,0.24900001,0.12846862,0.731,1.116,0.74,0.94,59,6,2.242,0.16000001,-2.236,-0.009000001,4.7528872,0,nan,0.0,3,1,17
87955946,1634178280799934,340347414,1087567829,429609,401695,0.172,0.14353605,0.74300003,1.133,0.74,0.94,59,5,1.3030001,0.025,-1.3030001,-0.010000001,4.762331,0,nan,0.0,3,1,17
88958028,1634178281799934,340347418,1087567717,429500,401585,0.24400002,0.2210374,0.73300004,1.1320001,0.74,0.95,59,4,1.3790001,0.41900003,-1.314,-0.096,4.872384,0,nan,0.0,3,1,17
89962019,1634178282799935,340347476,1087567595,429411,401496,0.26000002,0.26854455,0.753,1.1550001,0.74,0.95,59,5,1.1320001,0.254,-1.103,-0.171,5.105188,0,nan,0.0,3,1,17
90961969,1634178283799935,340347488,1087567469,429534,401619,0.24000001,0.2587742,0.76600003,1.172,0.74,0.95,59,4,1.069,0.094000004,-1.065,0.16700001,4.814048,0,nan,0.0,3,1,17
91959938,1634178284799935,340347509,1087567303,429506,401591,0.23,0.16785249,0.78400004,1.1910001,0.74,0.95,59,5,1.7580001,0.21400002,-1.7450001,0.149,4.840406,0,nan,0.0,3,1,17
92961212,1634178285799935,340347527,1087567121,429396,401481,0.209,0.1949908,0.79300004,1.215,0.74,0.95,59,4,1.5280001,0.395,-1.4760001,0.109000005,4.8827844,0,nan,0.0,3,1,17
93959938,1634178286799936,340347545,1087566944,429262,401347,0.21200001,0.17083369,0.79200006,1.233,0.74,0.95,59,13,1.8060001,0.13800001,-1.8010001,0.047000002,4.8360734,0,nan,0.0,3,1,17
94962089,1634178287799936,340347562,1087566769,429124,401209,0.20600002,0.13464795,0.786,1.2210001,0.74,0.95,55,11,1.6290001,0.24000001,-1.6110001,-0.056,4.85723,0,nan,0.0,3,1,17
95965972,1634178288799936,340347578,1087566602,428889,400974,0.171,0.118199274,0.777,1.2060001,0.74,0.95,55,4,1.6530001,0.072000004,-1.651,0.07700001,4.790909,0,nan,0.0,3,1,17
96957981,1634178289799937,340347584,1087566513,428591,400676,0.15100001,0.33726096,0.75500005,1.1750001,0.78,1.0799999,55,4,0.142,0.036000002,-0.13700001,0.108,4.8050423,0,nan,0.0,3,1,16
97958950,1634178290799937,340347578,1087566422,428543,400628,0.13900001,0.12730029,0.744,1.149,0.74,0.95,55,5,1.424,0.040000003,-1.424,-0.115,4.716045,0,nan,0.0,3,1,17
98959084,1634178291799937,340347591,1087566237,428628,400713,0.245,0.13552673,0.748,1.1470001,0.74,0.95,55,13,2.0370002,0.293,-2.016,-0.238,4.8336625,0,nan,0.0,3,1,17
99962382,1634178292799937,340347605,1087566064,428541,400626,0.28300002,0.46152335,0.762,1.154,0.74,0.95,55,12,0.48800004,-0.08400001,-0.48100004,-0.094000004,4.7527685,0,nan,0.0,3,1,17
100962952,1634178293799938,340347612,1087566051,428472,400557,0.19500001,0.46159506,0.767,1.1450001,0.78,1.0799999,55,8,0.134,0.025,-0.132,-0.115,4.7527685,0,nan,0.0,3,1,16
101965973,1634178294799938,340347616,1087566039,428575,400659,0.21000001,0.4616886,0.777,1.1290001,0.78,1.0799999,76,5,0.046000004,-0.018000001,-0.042000003,0.147,4.7527685,0,nan,0.0,3,1,16
102968947,1634178295799938,340347631,1087566002,428636,400721,0.15100001,0.16555966,0.753,1.1,0.74,0.95,89,9,1.024,-0.038000003,-1.024,0.033,4.710228,0,nan,0.0,3,1,17
103964973,1634178296799938,340347639,1087565897,428540,400625,0.148,0.20763029,0.73300004,1.0730001,0.74,0.95,89,24,0.80200005,0.11400001,-0.794,-0.049000002,4.82643,0,nan,0.0,3,1,17
104963062,1634178297799939,340347646,1087565782,428596,400681,0.15100001,0.10737981,0.71900004,1.057,0.74,0.95,95,22,1.6710001,0.17300001,-1.6620001,-0.116000004,4.811114,0,nan,0.0,3,1,17
105961942,1634178298799939,340347654,1087565593,428439,400524,0.158,0.121981405,0.70900005,1.042,0.74,0.95,95,7,1.3670001,0.12100001,-1.3610001,0.25,4.758671,0,nan,0.0,3,1,17
106965966,1634178299799939,340347667,1087565451,428445,400530,0.14600001,0.09531819,0.698,1.0250001,0.74,0.95,101,9,1.6800001,0.15,-1.6730001,-0.11100001,4.7864995,0,nan,0.0,3,1,17
107957939,1634178300799940,340347685,1087565231,428408,400492,0.143,0.08325464,0.689,1.013,0.74,0.95,102,15,1.9120001,0.165,-1.9050001,0.061000004,4.7972593,0,nan,0.0,3,1,17
108959380,1634178301799940,340347675,1087565123,428351,400435,0.17400001,0.16140455,0.68200004,1.01,0.78,1.0799999,102,10,1.0090001,-0.595,-0.81500006,0.19500001,4.183088,0,nan,0.0,3,1,16
109962874,1634178302799940,340347662,1087564984,428353,400438,0.148,0.09180937,0.67800003,1.006,0.78,1.0799999,102,9,1.922,0.307,-1.8970001,-0.052,4.7961264,0,nan,0.0,3,1,16
110965311,1634178303799940,340347682,1087564777,428195,400279,0.15100001,0.08660097,0.67,0.994,0.78,1.0799999,102,10,2.0180001,0.149,-2.012,-0.078,4.7963243,0,nan,0.0,3,1,16
111957938,1634178304799941,340347690,1087564603,428135,400219,0.275,0.2734725,0.666,0.98700005,0.78,1.0799999,102,26,1.2750001,0.115,-1.2700001,-0.22100002,4.7958455,0,nan,0.0,3,1,16
112952937,1634178305799941,340347703,1087564448,428364,400449,0.29200003,0.24539521,0.711,1.019,0.78,1.0799999,85,14,1.304,0.057000004,-1.302,-0.29700002,4.7868824,0,nan,0.0,3,1,16
113956999,1634178306799941,340347720,1087564250,428488,400572,0.33600003,0.16252121,0.74600005,1.047,0.78,1.0799999,79,10,2.0730002,0.127,-2.069,-0.11800001,4.776425,0,nan,0.0,3,1,16
114957939,1634178307799942,340347745,1087564069,428702,400786,0.31300002,0.22339097,0.77500004,1.0810001,0.78,1.0799999,79,10,1.5450001,0.101,-1.542,-0.16100001,4.8295956,0,nan,0.0,3,1,16
115957939,1634178308799942,340347757,1087563875,429107,401191,0.256,0.14900468,0.8,1.121,0.78,1.0799999,74,4,2.039,0.0050000004,-2.039,-0.40600002,4.7376933,0,nan,0.0,3,1,16
116959207,1634178309799942,340347765,1087563685,429595,401680,0.21400002,0.17950816,0.81200004,1.1600001,0.78,1.0799999,69,4,1.6500001,0.12100001,-1.6450001,-0.22100002,4.7766004,0,nan,0.0,3,1,16
117956134,1634178310799942,340347794,1087563461,430066,402150,0.25800002,0.13918652,0.81900007,1.1780001,0.78,1.0799999,69,3,2.051,0.16900001,-2.0440001,-0.25,4.8118167,0,nan,0.0,3,1,16
118953958,1634178311799943,340347803,1087563250,430095,402180,0.246,0.12990119,0.83300006,1.1800001,0.78,1.0799999,64,12,2.105,0.172,-2.098,-0.004,4.756296,0,nan,0.0,3,1,16
119955946,1634178312799943,340347825,1087563042,430217,402301,0.263,0.17774992,0.845,1.1930001,0.78,1.0799999,64,9,1.649,0.16700001,-1.641,-0.22800002,4.7886744,0,nan,0.0,3,1,16
120962088,1634178313799943,340347850,1087562892,430111,402196,0.21700001,0.17839567,0.85200006,1.187,0.78,1.0799999,64,5,1.3820001,0.13000001,-1.376,-0.072000004,4.8184586,0,nan,0.0,3,1,16
121965392,1634178314799943,340347863,1087562753,429984,402069,0.25800002,0.28461152,0.85400003,1.179,0.78,1.0799999,60,3,0.94900006,0.035,-0.94900006,0.027,4.7772675,0,nan,0.0,3,1,16
122959962,1634178315799944,340347869,1087562653,429951,402036,0.22700001,0.26851803,0.86100006,1.1780001,0.78,1.0799999,60,4,0.88100004,0.033,-0.88100004,0.001,4.7540126,0,nan,0.0,3,1,16
123961098,1634178316799944,340347875,1087562559,430020,402105,0.24400002,0.2359282,0.86100006,1.1780001,0.74,0.95,59,5,1.069,-0.083000004,-1.0660001,-0.021000002,4.6607947,0,nan,0.0,3,1,17
124959960,1634178317799944,340347890,1087562429,430063,402147,0.254,0.19175601,0.869,1.1800001,0.74,0.95,55,4,1.3790001,0.08400001,-1.376,-0.048,4.753392,0,nan,0.0,3,1,17
125956564,1634178318799945,340347906,1087562220,430058,402142,0.21000001,0.11212955,0.87200004,1.1800001,0.78,1.0799999,55,4,2.2970002,0.16100001,-2.2910001,0.0,4.7735367,0,nan,0.0,3,1,16
126956938,1634178319799945,340347914,1087562003,430063,402148,0.21100001,0.12513295,0.85400003,1.1620001,0.74,0.95,55,10,1.8840001,0.14500001,-1.8790001,-0.202,4.7716722,0,nan,0.0,3,1,17
127963109,1634178320799945,340347936,1087561792,429984,402069,0.19800001,0.10510564,0.85,1.1520001,0.74,0.95,55,13,2.2220001,0.18200001,-2.214,0.029000001,4.800343,0,nan,0.0,3,1,17
128959973,1634178321799945,340347940,1087561564,429849,401933,0.18800001,0.108277254,0.83100003,1.133,0.74,0.95,55,10,2.026,-0.101,-2.0240002,0.25100002,4.689441,0,nan,0.0,3,1,17
129962236,1634178322799946,340347953,1087561355,429917,402001,0.256,0.17313036,0.83500004,1.1450001,0.74,0.95,55,6,1.8050001,0.30600002,-1.779,-0.076000005,4.8241434,0,nan,0.0,3,1,17
130957937,1634178323799946,340347956,1087561260,429891,401975,0.15300001,0.5026419,0.83100003,1.141,0.74,0.95,55,4,0.11100001,0.072000004,-0.085,0.047000002,4.798962,0,nan,0.0,3,1,17
131956960,1634178324799946,340347958,1087561192,429923,402007,0.22900002,0.17133129,0.822,1.1290001,0.78,1.0799999,55,10,1.4760001,-0.09,-1.473,-0.21800001,4.6515584,0,nan,0.0,3,1,16
132961940,1634178325799947,340347910,1087560992,430053,402137,0.24300002,0.09706247,0.82500005,1.136,0.78,1.0799999,55,15,2.1690001,-0.84000003,-1.9990001,-0.335,4.3315988,0,nan,0.0,3,1,16
133963142,1634178326799947,340347893,1087560738,430251,402335,0.2,0.10002534,0.82100004,1.1350001,0.78,1.0799999,55,11,2.46,0.374,-2.4310002,-0.24200001,4.767723,0,nan,0.0,3,1,16
134960947,1634178327799947,340347907,1087560435,430261,402345,0.18100001,0.06613227,0.813,1.13,0.74,0.95,55,7,3.2660003,0.13000001,-3.2630002,-0.157,4.759628,0,nan,0.0,3,1,17
135963088,1634178328799947,340347913,1087560106,430470,402554,0.27600002,0.11635638,0.80200005,1.118,0.74,0.95,55,6,2.5140002,0.185,-2.5070002,-0.287,4.7475557,0,nan,0.0,3,1,17
136961105,1634178329799948,340347911,1087559914,430578,402662,0.21700001,0.22600076,0.80100006,1.1190001,0.74,0.95,55,6,1.133,0.098000005,-1.1290001,0.080000006,4.778777,0,nan,0.0,3,1,17
137959052,1634178330799948,340347927,1087559764,430605,402689,0.22100002,0.2379744,0.80500007,1.131,0.69,0.93,55,11,1.176,0.16800001,-1.164,-0.064,4.8628607,0,nan,0.0,3,1,19
138961977,1634178331799948,340347933,1087559700,430655,402739,0.27100003,0.7305732,0.81000006,1.141,0.69,0.93,55,11,0.25500003,-0.187,-0.17400001,-0.044000003,4.45875,0,nan,0.0,3,1,19
139965037,1634178332799949,340347926,1087559690,430538,402622,0.266,0.73063165,0.81100005,1.153,0.69,0.93,55,12,0.082,0.081,-0.012,0.40800002,4.45875,0,nan,0.0,3,1,19
140963633,1634178333799949,340347931,1087559688,430181,402265,0.25300002,0.730696,0.804,1.156,0.71,1.02,55,10,0.108,0.042000003,0.1,0.37300003,4.45875,0,nan,0.0,3,1,18
141962964,1634178334799949,340347935,1087559686,429649,401733,0.25,0.7307784,0.80600005,1.161,0.71,1.02,55,13,0.17300001,0.172,-0.018000001,0.582,4.45875,0,nan,0.0,3,1,18
142962942,1634178335799949,340347942,1087559663,429392,401476,0.24100001,0.270585,0.809,1.1680001,0.71,1.02,55,10,1.1400001,0.059000004,-1.138,-0.032,4.7305207,0,nan,0.0,3,1,18
143960978,1634178336799950,340347942,1087559392,429514,401598,0.187,0.06947964,0.808,1.1680001,0.7,1.02,55,10,2.8960001,0.038000003,-2.8950002,-0.165,4.732671,0,nan,0.0,3,1,18
144968055,1634178337799950,340347947,1087559186,429540,401624,0.24000001,0.1883273,0.80600005,1.1700001,0.7,1.02,55,10,1.404,0.086,-1.401,0.07,4.7534394,0,nan,0.0,3,1,18
145968014,1634178338799950,340347943,1087559005,429293,401377,0.192,0.11322073,0.80100006,1.1650001,0.7,1.02,55,9,1.8420001,0.086,-1.84,0.094000004,4.7531414,0,nan,0.0,3,1,18
146966940,1634178339799950,340347946,1087558880,429164,401248,0.30200002,0.50459456,0.8,1.161,0.7,1.02,55,9,0.21400002,-0.112,-0.18200001,0.164,4.747182,0,nan,0.0,3,1,18
147966464,1634178340799951,340347936,1087558864,429032,401116,0.208,0.50464886,0.78800005,1.136,0.7,1.02,55,7,0.09200001,0.017,-0.09,0.19000001,4.747182,0,nan,0.0,3,1,18
148967960,1634178341799951,340347935,1087558848,428641,400725,0.20400001,0.5152153,0.77900004,1.1220001,0.69,0.93,55,13,0.47200003,0.048,-0.469,0.11400001,4.780384,0,nan,0.0,3,1,19
149959072,1634178342799951,340347938,1087558794,428508,400592,0.21300001,0.52936846,0.78400004,1.115,0.7,1.02,55,15,0.128,0.104,-0.076000005,0.33200002,4.8053617,0,nan,0.0,3,1,18
150961941,1634178343799952,340347941,1087558775,428262,400346,0.22200002,0.75854343,0.78200006,1.1140001,0.7,1.02,55,8,0.20700002,0.18100001,0.101,0.397,5.456991,0,nan,0.0,3,1,18
151961291,1634178344799952,340347931,1087558757,427420,399503,0.245,0.29861885,0.77300006,1.102,0.7,1.02,55,6,0.11400001,0.022000002,-0.112,0.799,4.1672554,0,nan,0.0,3,1,18
152964043,1634178345799952,340347937,1087558755,426768,398852,0.257,0.62301844,0.776,1.103,0.7,1.02,55,7,0.381,0.157,0.347,0.40800002,6.020917,0,nan,0.0,3,1,18
153962902,1634178346799952,340347945,1087558776,425979,398063,0.291,0.67404056,0.78400004,1.1240001,0.7,1.02,55,10,0.305,-0.30400002,-0.023000002,0.989,1.8929771,0,nan,0.0,3,1,18
154965943,1634178347799953,340347894,1087558773,425360,397444,0.291,0.48430637,0.786,1.1570001,0.7,1.02,55,12,0.067,0.038000003,-0.055000003,0.16600001,3.0413227,0,nan,0.0,3,1,18
155969940,1634178348799953,340347899,1087558743,425294,397378,0.162,0.18559638,0.763,1.138,0.7,1.02,55,9,0.9990001,0.303,-0.952,0.15900001,4.938892,0,nan,0.0,3,1,18
156970033,1634178349799953,340347895,1087558608,425280,397364,0.21700001,0.13507853,0.75000006,1.1340001,0.7,1.02,64,9,1.8360001,0.085,-1.8340001,-0.044000003,4.7298455,0,nan,0.0,3,1,18
157969938,1634178350799954,340347885,1087558366,425355,397439,0.15200001,0.06315421,0.74100006,1.121,0.7,1.02,69,9,3.117,0.14500001,-3.1130002,-0.120000005,4.729302,0,nan,0.0,3,1,18
158961979,1634178351799954,340347901,1087558027,425512,397596,0.28,0.12744272,0.76000005,1.146,0.7,1.02,69,13,2.7270002,0.15,-2.723,-0.061000004,4.7692776,0,nan,0.0,3,1,18
159962937,1634178352799954,340347918,1087557774,425476,397560,0.23200001,0.14815786,0.77500004,1.177,0.74,1.0699999,69,15,1.7900001,0.186,-1.7800001,0.15100001,4.8162217,0,nan,0.0,3,1,17
160955022,1634178353799954,340347930,1087557593,425327,397411,0.21900001,0.1301389,0.77800006,1.1880001,0.71,0.95,64,15,2.246,0.11400001,-2.243,0.29900002,4.7634063,0,nan,0.0,3,1,18
161955949,1634178354799955,340347944,1087557332,425415,397498,0.202,0.10851567,0.77000004,1.2080001,0.71,0.95,60,8,2.105,0.030000001,-2.105,0.098000005,4.754331,0,nan,0.0,3,1,18
162954961,1634178355799955,340347947,1087557122,425462,397545,0.194,0.112910405,0.76100004,1.222,0.71,0.95,60,17,1.9460001,0.25500003,-1.9290001,-0.36600003,4.778495,0,nan,0.0,3,1,18
163961997,1634178356799955,340347959,1087556900,425633,397716,0.187,0.09579711,0.76100004,1.2370001,0.71,0.95,60,16,2.039,0.16100001,-2.033,-0.064,4.822778,0,nan,0.0,3,1,18
164963949,1634178357799955,340347973,1087556650,425963,398046,0.22200002,0.096022256,0.75500005,1.2620001,0.71,0.95,64,18,2.759,-0.202,-2.7510002,-0.21900001,4.714453,0,nan,0.0,3,1,18
165965951,1634178358799956,340347970,1087556304,426107,398190,0.19900002,0.07443707,0.75900006,1.273,0.69,0.93,68,11,3.2280002,0.245,-3.219,-0.24200001,4.7650914,0,nan,0.0,3,1,19
166963108,1634178359799956,340347992,1087555978,425869,397952,0.19100001,0.09637934,0.767,1.279,0.71,0.95,68,11,2.584,0.49300003,-2.536,0.032,4.8554645,0,nan,0.0,3,1,18
167956976,1634178360799956,340348004,1087555687,426320,398403,0.202,0.09741887,0.776,1.273,0.71,0.95,73,4,3.1740003,0.15,-3.17,-0.407,4.727524,0,nan,0.0,3,1,18
168954031,1634178361799957,340348035,1087555329,426955,399038,0.23400001,0.09290632,0.786,1.2850001,0.71,0.95,73,4,3.4110003,0.568,-3.364,-0.564,4.863748,0,nan,0.0,3,1,18
169960042,1634178362799957,340348062,1087554983,427211,399294,0.19000001,0.083601974,0.78400004,1.281,0.74,0.95,73,4,3.15,0.272,-3.1380002,0.085,4.811104,0,nan,0.0,3,1,17
170959377,1634178363799957,340348084,1087554608,427385,399468,0.19000001,0.063023135,0.776,1.2900001,0.71,0.95,78,5,3.509,0.13000001,-3.5070002,-0.22800002,4.778227,0,nan,0.0,3,1,18
171961937,1634178364799957,340348051,1087554308,427669,399752,0.22700001,0.086323634,0.776,1.304,0.71,0.95,78,8,2.66,-1.1350001,-2.4060001,0.033,4.3853526,0,nan,0.0,3,1,18
172956079,1634178365799958,340348010,1087553982,427896,399979,0.23700002,0.08959543,0.79,1.32,0.71,0.95,78,7,3.311,0.545,-3.2660003,-0.072000004,4.7739415,0,nan,0.0,3,1,18
173963011,1634178366799958,340348033,1087553587,427830,399913,0.155,0.050812993,0.78400004,1.2930001,0.69,0.93,78,19,4.151,0.45000002,-4.1270003,0.063,4.802561,0,nan,0.0,3,1,19
174958937,1634178367799958,340348053,1087553135,427647,399729,0.17,0.057487655,0.77400005,1.2700001,0.69,0.93,67,28,4.005,0.257,-3.9960003,0.108,4.77953,0,nan,0.0,3,1,19
175962937,1634178368799959,340348060,1087552791,427757,399840,0.177,0.061460722,0.76600003,1.263,0.76,1.12,72,15,3.232,-0.089,-3.2310002,-0.49100003,4.7161427,0,nan,0.0,3,1,18
176961942,1634178369799959,340348076,1087552414,428023,400106,0.20500001,0.057588533,0.77000004,1.266,0.69,0.93,77,33,4.1070004,0.317,-4.0950003,-0.1,4.7905817,0,nan,0.0,3,1,19
177962182,1634178370799959,340348109,1087551907,428413,400496,0.185,0.049789876,0.76900005,1.264,0.69,0.93,77,21,5.017,0.147,-5.0150003,-0.39000002,4.764002,0,nan,0.0,3,1,19
178965937,1634178371799959,340348148,1087551389,428904,400987,0.15900001,0.04256003,0.78000003,1.269,0.69,0.93,76,24,4.656,0.535,-4.625,-0.386,4.823934,0,nan,0.0,3,1,19
179967149,1634178372799960,340348192,1087550890,429015,401098,0.165,0.044547956,0.762,1.2270001,0.69,0.93,71,9,4.281,0.36,-4.2650003,-0.148,4.8121414,0,nan,0.0,3,1,19
180967985,1634178373799960,340348197,1087550505,429142,401225,0.15100001,0.058966994,0.74200004,1.194,0.69,0.93,76,16,3.0110002,0.068,-3.0100002,-0.268,4.721403,0,nan,0.0,3,1,19
181969059,1634178374799960,340348215,1087550331,429242,401324,0.18200001,0.65011066,0.72700006,1.176,0.69,0.93,82,10,0.30100003,0.028,-0.29900002,-0.032,4.832928,0,nan,0.0,3,1,19
182966942,1634178375799960,340348213,1087550293,429345,401427,0.321,0.6361381,0.739,1.1810001,0.69,0.93,87,10,0.386,-0.069000006,-0.38000003,-0.13100001,4.476681,0,nan,0.0,3,1,19
183963996,1634178376799961,340348217,1087550261,429480,401562,0.22800002,0.614957,0.73700005,1.1730001,0.69,0.93,87,8,0.13100001,-0.119,-0.055000003,-0.19000001,4.6533647,0,nan,0.0,3,1,19
184968048,1634178377799961,340348219,1087550264,429584,401666,0.22700001,0.72993577,0.72300005,1.149,0.69,0.93,87,8,0.038000003,0.026,0.028,-0.31,4.211224,0,nan,0.0,3,1,19
185963965,1634178378799961,340348222,1087550278,429639,401722,0.17400001,0.72998554,0.708,1.1170001,0.69,0.93,87,11,0.105000004,-0.035,0.09900001,-0.004,4.211224,0,nan,0.0,3,1,19
186963939,1634178379799962,340348225,1087550286,429709,401791,0.24000001,0.7300283,0.698,1.0990001,0.69,0.93,87,10,0.051000003,-0.0050000004,0.051000003,-0.209,4.211224,0,nan,0.0,3,1,19
187956977,1634178380799962,340348232,1087550215,430073,402155,0.21400002,0.14861007,0.69500005,1.085,0.69,0.93,87,9,1.8840001,0.18900001,-1.8750001,-0.611,4.788268,0,nan,0.0,3,1,19
188957944,1634178381799962,340348258,1087550049,430210,402292,0.21200001,0.4283914,0.69600004,1.0760001,0.69,0.93,87,12,0.51900005,0.069000006,-0.51500005,0.0,4.8400135,0,nan,0.0,3,1,19
189959547,1634178382799962,340348269,1087550034,430130,402212,0.21900001,0.7482081,0.694,1.065,0.69,0.93,73,13,0.215,0.116000004,-0.18100001,0.003,4.9721003,0,nan,0.0,3,1,19
190967939,1634178383799963,340348273,1087550016,430141,402224,0.187,0.74824256,0.69200003,1.056,0.69,0.93,73,11,0.040000003,0.014,-0.038000003,-0.012,4.9721003,0,nan,0.0,3,1,19
191959005,1634178384799963,340348276,1087550023,430288,402371,0.17300001,0.748276,0.689,1.0450001,0.69,0.93,73,12,0.12100001,-0.022000002,0.119,-0.067,4.9721003,0,nan,0.0,3,1,19
192958946,1634178385799963,340348273,1087550036,430102,402185,0.23300001,0.74833465,0.689,1.0350001,0.69,0.93,73,12,0.185,-0.032,0.18200001,0.40800002,4.9721003,0,nan,0.0,3,1,19
193961939,1634178386799964,340348268,1087550040,429491,401574,0.208,0.6487954,0.693,1.024,0.69,0.93,73,11,0.194,-0.194,-0.001,0.67300004,3.604731,0,nan,0.0,3,1,19
194958111,1634178387799964,340348253,1087550037,428841,400923,0.21800001,0.5273034,0.68100005,1.005,0.69,0.93,73,11,0.058000002,0.017,0.056,0.24100001,3.913847,0,nan,0.0,3,1,19
195959999,1634178388799964,340348246,1087550032,428678,400760,0.17500001,0.5273699,0.67300004,1.001,0.69,0.93,73,9,0.07700001,-0.009000001,-0.07700001,0.013,3.913847,0,nan,0.0,3,1,19
196959942,1634178389799964,340348245,1087550026,428627,400709,0.18800001,0.52741665,0.666,0.99500006,0.69,0.94,74,12,0.031000001,0.021000002,-0.023000002,0.064,3.913847,0,nan,0.0,3,1,19
197957948,1634178390799965,340348240,1087550018,428561,400644,0.142,0.5274636,0.66200006,0.99100006,0.69,0.94,74,12,0.080000006,0.065000005,-0.047000002,0.038000003,3.913847,0,nan,0.0,3,1,19
198956942,1634178391799965,340348239,1087550009,428550,400633,0.192,0.5275123,0.66,0.99300003,0.69,0.94,74,11,0.033,0.033,-0.002,0.003,3.913847,0,nan,0.0,3,1,19
199956110,1634178392799965,340348234,1087550008,428557,400639,0.19800001,0.52756834,0.656,0.99700004,0.69,0.94,73,10,0.038000003,0.028,0.025,-0.015000001,3.913847,0,nan,0.0,3,1,19
200966955,1634178393799966,340348234,1087550015,428509,400591,0.163,0.5276139,0.651,0.99700004,0.69,0.94,73,10,0.09900001,0.038000003,0.09200001,0.014,3.913847,0,nan,0.0,3,1,19
201966939,1634178394799966,340348237,1087550019,428409,400491,0.16900001,0.5276638,0.64400005,0.98600006,0.69,0.94,88,15,0.20500001,0.028,0.20300001,-0.019000001,3.913847,0,nan,0.0,3,1,19
202961941,1634178395799966,340348264,1087549979,428327,400410,0.147,0.16730306,0.64100003,0.975,0.69,0.94,94,12,1.029,0.66,-0.79,-0.048,5.3423905,0,nan,0.0,3,1,19
203962371,1634178396799966,340348291,1087549941,428205,400287,0.156,0.6413781,0.642,0.96500003,0.69,0.94,94,10,0.23600002,0.23500001,-0.027,0.086,5.4660554,0,nan,0.0,3,1,19
204961980,1634178397799967,340348307,1087549936,427986,400069,0.15900001,0.64142317,0.643,0.95500004,0.69,0.94,93,7,0.15900001,0.15400001,-0.041,0.135,5.4660554,0,nan,0.0,3,1,19
205964938,1634178398799967,340348328,1087549938,427942,400024,0.20700002,0.51487505,0.646,0.9620001,0.69,0.94,93,9,0.34600002,0.33800003,0.07300001,-0.015000001,6.2537313,0,nan,0.0,3,1,19
206957338,1634178399799967,340348383,1087549989,427921,400004,0.238,0.11331392,0.646,0.9710001,0.69,0.94,87,14,1.899,1.235,1.442,0.062000003,0.7775654,0,nan,0.0,3,1,19
207964949,1634178400799967,340348480,1087550178,427656,399739,0.18800001,0.1529404,0.647,0.98,0.69,0.94,87,18,1.169,0.27600002,1.136,0.377,1.1192052,0,nan,0.0,3,1,19
208963978,1634178401799968,340348433,1087550121,427368,399451,0.172,0.10990914,0.642,0.975,0.69,0.94,87,9,1.5500001,-1.056,-1.1340001,0.48800004,3.9186447,0,nan,0.0,3,1,19
209959951,1634178402799968,340348389,1087550078,427114,399197,0.21700001,0.4097328,0.63900006,0.98200005,0.71,0.95,94,16,0.45800003,-0.33600003,0.312,0.32200003,3.6372352,0,nan,0.0,3,1,18
210964118,1634178403799968,340348344,1087550076,426723,398805,0.22800002,0.30059576,0.63600004,0.98800004,0.71,0.95,94,12,0.53400004,-0.527,0.086,0.39900002,3.0751703,0,nan,0.0,3,1,18
211957044,1634178404799969,340348278,1087550066,426492,398575,0.21200001,0.15089907,0.63500005,0.99600005,0.69,0.94,94,13,1.1170001,-1.054,-0.36800003,0.485,3.406923,0,nan,0.0,3,1,19
212956957,1634178405799969,340348260,1087550053,426388,398470,0.293,0.48209414,0.63900006,1.005,0.72999996,0.97999996,94,6,0.10300001,-0.095000006,-0.039,0.344,3.360212,0,nan,0.0,3,1,18
213958945,1634178406799969,340348282,1087550041,426446,398528,0.18900001,0.2303105,0.64100003,1.01,0.69,0.94,94,8,0.71500003,0.71500003,-0.004,0.13000001,6.1554613,0,nan,0.0,3,1,19
214958053,1634178407799969,340348296,1087550029,426410,398492,0.224,0.26028025,0.643,1.0320001,0.69,0.94,94,12,0.67300004,-0.666,-0.093,0.257,3.604217,0,nan,0.0,3,1,19
215961049,1634178408799970,340348274,1087550014,426509,398592,0.261,0.5705083,0.646,1.047,0.69,0.94,94,12,0.177,0.061000004,-0.16600001,-0.559,3.558209,0,nan,0.0,3,1,19
216959973,1634178409799970,340348271,1087550003,426852,398934,0.24100001,0.7708091,0.647,1.047,0.69,0.94,94,15,0.086,-0.024,-0.083000004,-0.3,3.767638,0,nan,0.0,3,1,19
217959293,1634178410799970,340348265,1087550008,427544,399627,0.238,0.52024424,0.647,1.0450001,0.69,0.94,94,9,0.11400001,-0.105000004,0.045,-0.61300004,3.2745795,0,nan,0.0,3,1,19
218957027,1634178411799971,340348260,1087550010,428286,400369,0.24100001,0.7623434,0.652,1.0550001,0.69,0.94,94,13,0.186,-0.186,0.013,-0.67700005,3.2356634,0,nan,0.0,3,1,19
219963938,1634178412799971,340348273,1087550013,428369,400451,0.18,0.7620688,0.647,1.0430001,0.69,0.94,94,11,0.20700002,0.20500001,0.021000002,0.051000003,1.6679882,0,nan,0.0,3,1,19
220960200,1634178413799971,340348286,1087550017,428312,400395,0.215,0.7621057,0.64400005,1.041,0.69,0.94,94,10,0.058000002,0.033,0.047000002,0.09900001,1.6679882,0,nan,0.0,3,1,19
221952893,1634178414799971,340348294,1087550029,428353,400435,0.185,0.7621422,0.642,1.047,0.74,0.96,94,15,0.24000001,0.033,0.238,0.030000001,1.6679882,0,nan,0.0,3,1,17
222962058,1634178415799972,340348291,1087550064,428308,400390,0.18,0.36241463,0.647,1.0600001,0.77,1.01,94,11,0.546,-0.11100001,0.535,0.0050000004,1.652782,0,nan,0.0,3,1,16
223955937,1634178416799972,340348268,1087550211,428097,400179,0.186,0.13594404,0.652,1.077,0.74,0.96,94,14,1.853,-0.573,1.7620001,0.22100002,1.8190138,0,nan,0.0,3,1,17
224960936,1634178417799972,340348213,1087550465,427955,400038,0.202,0.090261616,0.661,1.1040001,0.74,0.96,94,15,2.7400002,-0.83500004,2.6090002,0.17,1.8637375,0,nan,0.0,3,1,17
225963938,1634178418799972,340348140,1087550691,427892,399974,0.245,0.1734325,0.67200005,1.126,0.74,0.96,94,13,1.396,-0.53900003,1.2870001,0.11400001,2.0139444,0,nan,0.0,3,1,17
226957026,1634178419799973,340348133,1087550813,427994,400076,0.18800001,0.19530669,0.689,1.1420001,0.74,0.96,88,9,1.235,-0.104,1.2310001,0.164,1.6232864,0,nan,0.0,3,1,17
227956942,1634178420799973,340348080,1087550976,427861,399943,0.21700001,0.11571742,0.69500005,1.159,0.74,0.96,87,14,2.022,-0.89300007,1.8140001,0.177,2.021411,0,nan,0.0,3,1,17
228961940,1634178421799973,340348065,1087551117,428040,400122,0.18800001,0.21980502,0.702,1.1630001,0.74,0.96,87,10,1.064,0.446,0.966,-0.106000006,1.3421334,0,nan,0.0,3,1,17
229957943,1634178422799974,340348165,1087551219,427995,400078,0.209,0.09984487,0.69900006,1.161,0.74,0.96,81,14,1.9110001,1.6420001,0.97700006,0.132,0.5774823,0,nan,0.0,3,1,17
230957946,1634178423799974,340348222,1087551324,428116,400199,0.18900001,0.13528727,0.70500004,1.176,0.74,0.96,82,23,1.3280001,-0.90700006,0.96900004,-0.08400001,2.0532823,0,nan,0.0,3,1,17
231956940,1634178424799974,340348138,1087551504,427562,399645,0.201,0.085824646,0.71000004,1.195,0.74,0.96,81,21,2.8230002,-1.0780001,2.6090002,0.49600002,1.9858837,0,nan,0.0,3,1,17
232964937,1634178425799974,340348050,1087551752,427492,399574,0.18200001,0.126188,0.71300006,1.2090001,0.74,0.96,81,21,1.6700001,-0.52400005,1.5860001,0.076000005,1.9540831,0,nan,0.0,3,1,17
233958021,1634178426799975,340348088,1087551835,427599,399682,0.231,0.21793035,0.707,1.1960001,0.74,0.96,81,10,0.90200007,0.634,0.64100003,-0.126,0.75838584,0,nan,0.0,3,1,17
234954940,1634178427799975,340348050,1087551990,427572,399655,0.22100002,0.15278316,0.71900004,1.21,0.74,0.96,81,19,1.988,-0.9990001,1.7190001,0.21400002,2.0003083,0,nan,0.0,3,1,17
235955980,1634178428799975,340347994,1087552063,427423,399505,0.284,0.4626646,0.72,1.228,0.74,0.96,81,26,0.24200001,-0.224,-0.091000006,0.26900002,2.5394883,0,nan,0.0,3,1,17
236957397,1634178429799976,340347972,1087552061,427352,399435,0.24400002,0.7600031,0.725,1.24,0.74,0.96,81,22,0.11400001,-0.106000006,0.043,0.080000006,2.752609,0,nan,0.0,3,1,17
237956980,1634178430799976,340347964,1087552074,427835,399918,0.185,0.76004094,0.71400005,1.2010001,0.74,0.96,81,11,0.060000002,0.035,-0.048,-0.032,2.752609,0,nan,0.0,3,1,17
238953770,1634178431799976,340347954,1087552127,428077,400160,0.177,0.2552333,0.708,1.1810001,0.74,0.96,82,10,0.94200003,-0.16800001,0.92600006,0.11400001,1.753058,0,nan,0.0,3,1,17
239952044,1634178432799976,340347938,1087552167,428044,400127,0.24300002,0.50926435,0.711,1.19,0.74,0.96,82,14,0.11100001,0.105000004,-0.038000003,0.120000005,1.8677368,0,nan,0.0,3,1,17
240948942,1634178433799977,340348025,1087552146,427929,400012,0.22200002,0.114653125,0.717,1.1880001,0.74,0.96,82,16,1.4000001,1.388,-0.18200001,0.294,6.1475544,0,nan,0.0,3,1,17
241956945,1634178434799977,340348081,1087552178,427806,399889,0.16000001,0.27845594,0.71800005,1.1910001,0.74,0.96,82,21,0.77900004,0.017,0.77900004,0.268,1.3005619,0,nan,0.0,3,1,17
242955943,1634178435799977,340348069,1087552292,427710,399793,0.19500001,0.21895278,0.71500003,1.1910001,0.74,0.96,82,13,1.1060001,-0.16700001,1.093,0.22000001,1.6620933,0,nan,0.0,3,1,17
250958955,1634178443799979,340348029,1087553177,427608,399691,0.187,0.20262888,0.73700005,1.205,0.72999996,0.96,88,31,1.238,-0.09200001,1.235,0.071,1.5887538,0,nan,0.0,3,1,17
251959404,1634178444799980,340348020,1087553322,427648,399731,0.17,0.15887715,0.735,1.1980001,0.72999996,0.96,88,36,1.3800001,-0.011000001,1.3800001,-0.12200001,1.6537212,0,nan,0.0,3,1,17
252963942,1634178445799980,340348037,1087553456,427739,399822,0.187,0.19114968,0.73200005,1.197,0.72999996,0.96,88,29,1.1910001,0.13700001,1.1830001,0.010000001,1.4074423,0,nan,0.0,3,1,17
253960030,1634178446799980,340348013,1087553636,427749,399832,0.171,0.11809281,0.73,1.1980001,0.72999996,0.96,88,14,1.886,-0.36,1.8510001,0.07,1.7531378,0,nan,0.0,3,1,17
254958940,1634178447799981,340348026,1087553810,427706,399789,0.20600002,0.19836365,0.73300004,1.189,0.72999996,0.96,88,20,1.2750001,0.46100003,1.189,0.326,1.3088297,0,nan,0.0,3,1,17
255954941,1634178448799981,340348026,1087553948,427282,399365,0.25,0.24803187,0.75000006,1.2,0.72999996,0.96,88,17,1.2470001,-0.35700002,1.195,0.437,1.7570529,0,nan,0.0,3,1,17
256965946,1634178449799981,340347999,1087554128,426933,399016,0.16600001,0.12914231,0.76400006,1.1960001,0.72999996,0.96,87,13,1.9050001,-0.31,1.8790001,0.54200006,1.7278756,0,nan,0.0,3,1,17
257960997,1634178450799981,340347986,1087554314,426821,398904,0.20300001,0.1721666,0.76600003,1.192,0.72999996,0.96,88,9,1.7550001,0.374,1.715,0.071,1.4971453,0,nan,0.0,3,1,17
258958940,1634178451799982,340348018,1087554530,426596,398680,0.22000001,0.09880396,0.77400005,1.1960001,0.72999996,0.96,88,10,2.5140002,0.05,2.513,0.11100001,1.5132707,0,nan,0.0,3,1,17
259956974,1634178452799982,340348001,1087554829,426353,398436,0.23200001,0.14609522,0.785,1.207,0.72999996,0.96,88,7,2.489,-0.085,2.4870002,0.305,1.6101847,0,nan,0.0,3,1,17
260957242,1634178453799982,340347992,1087554995,426146,398229,0.32500002,0.4352926,0.81100005,1.243,0.72999996,0.96,87,10,0.32200003,-0.087000005,0.31,0.49800003,1.6632727,0,nan,0.0,3,1,17
261962946,1634178454799983,340347979,1087555025,425945,398029,0.319,0.54177517,0.85800004,1.297,0.72999996,0.96,87,11,0.541,-0.36900002,0.39600003,-0.36800003,1.9211961,0,nan,0.0,3,1,17
262960934,1634178455799983,340347967,1087555147,426141,398224,0.20300001,0.15760462,0.87700003,1.3030001,0.77,1.01,81,5,1.9430001,-0.17300001,1.9350001,-0.17600001,1.6993728,0,nan,0.0,3,1,16
263957943,1634178456799983,340347947,1087555378,426272,398355,0.19500001,0.2097081,0.8880001,1.317,0.77,1.01,82,9,1.4230001,-0.19000001,1.4100001,0.080000006,1.7159958,0,nan,0.0,3,1,16
264953147,1634178457799983,340347968,1087555526,426358,398441,0.21100001,0.1652715,0.8880001,1.3340001,0.72999996,0.96,82,10,1.343,0.462,1.261,0.042000003,1.2576759,0,nan,0.0,3,1,17
265957138,1634178458799984,340348001,1087555669,426421,398504,0.22800002,0.18192509,0.88600004,1.3520001,0.72999996,0.96,82,11,1.7780001,0.259,1.7590001,0.27600002,1.3906429,0,nan,0.0,3,1,17
266959630,1634178459799984,340347976,1087555916,426241,398324,0.238,0.12321169,0.892,1.3850001,0.72999996,0.96,82,9,2.3470001,-0.23900001,2.335,0.12200001,1.696515,0,nan,0.0,3,1,17
267957944,1634178460799984,340347942,1087556208,425832,397915,0.22800002,0.16262087,0.90800005,1.4280001,0.72999996,0.96,87,5,2.802,-0.39000002,2.7740002,0.46300003,1.7022527,0,nan,0.0,3,1,17
268956957,1634178461799984,340347925,1087556460,426005,398089,0.286,0.17429242,0.92,1.457,0.72999996,0.96,87,7,1.838,-0.040000003,1.8370001,0.18200001,1.6181117,0,nan,0.0,3,1,17
269957940,1634178462799985,340347889,1087556660,426136,398219,0.20300001,0.15706061,0.90700006,1.44,0.72999996,0.96,87,11,1.6290001,-0.245,1.6110001,-0.064,1.7319217,0,nan,0.0,3,1,17
270959024,1634178463799985,340347878,1087556832,426405,398488,0.21100001,0.15707491,0.883,1.4210001,0.72999996,0.96,87,15,1.296,0.358,1.245,-0.165,1.4069601,0,nan,0.0,3,1,17
271956945,1634178464799985,340347894,1087556959,426492,398575,0.28500003,0.2997109,0.87700003,1.422,0.72999996,0.96,87,11,0.80500007,0.055000003,0.80300003,-0.23200001,1.45233,0,nan,0.0,3,1,17
272953939,1634178465799986,340347887,1087556987,426657,398740,0.34800002,0.555355,0.89000005,1.4430001,0.72999996,0.96,87,7,0.432,-0.40500003,0.15100001,-0.34100002,1.8135786,0,nan,0.0,3,1,17
273962003,1634178466799986,340347868,1087557101,427214,399298,0.223,0.13546251,0.90400004,1.4540001,0.72999996,0.96,81,8,1.6910001,-0.010000001,1.6910001,-0.503,1.6198679,0,nan,0.0,3,1,17
274961944,1634178467799986,340347852,1087557252,427667,399750,0.296,0.3134887,0.90800005,1.4640001,0.72999996,0.96,81,9,1.056,0.004,1.056,-0.28100002,1.6538857,0,nan,0.0,3,1,17
275960956,1634178468799986,340347852,1087557372,427813,399896,0.26200002,0.19981454,0.915,1.475,0.72999996,0.96,75,12,1.4670001,-0.065000005,1.4660001,-0.016,1.6086909,0,nan,0.0,3,1,17
276960385,1634178469799987,340347844,1087557553,427994,400078,0.23700002,0.13788171,0.92,1.485,0.72999996,0.96,70,18,1.8830001,-0.39200002,1.8420001,0.032,1.7450056,0,nan,0.0,3,1,17
277964949,1634178470799987,340347824,1087557755,428148,400232,0.208,0.31756178,0.9250001,1.488,0.72999996,0.96,66,9,0.9760001,-0.293,0.93100005,0.13900001,1.7732904,0,nan,0.0,3,1,17
278963047,1634178471799987,340347812,1087557782,427881,399965,0.30900002,0.45837948,0.91800004,1.4740001,0.72999996,0.96,61,8,0.135,-0.132,0.031000001,0.26000002,1.7810243,0,nan,0.0,3,1,17
279961981,1634178472799988,340347855,1087557793,427796,399880,0.31500003,0.3274379,0.92100006,1.47,0.72999996,0.96,61,9,0.776,0.76900005,0.104,0.023000002,0.22296423,0,nan,0.0,3,1,17
280963369,1634178473799988,340347860,1087557888,427663,399746,0.21800001,0.19102576,0.92300004,1.4690001,0.72999996,0.96,57,7,1.6660001,-0.076000005,1.664,0.22100002,1.6419657,0,nan,0.0,3,1,17
281956302,1634178474799988,340347839,1087558115,427721,399804,0.24000001,0.12284482,0.91700006,1.4560001,0.72999996,0.96,57,14,2.4280002,-0.43100002,2.39,-0.119,1.6918972,0,nan,0.0,3,1,17
282957116,1634178475799988,340347816,1087558366,427890,399973,0.16600001,0.09623937,0.90200007,1.4280001,0.72999996,0.96,57,9,2.163,-0.15,2.158,0.155,1.6593994,0,nan,0.0,3,1,17
283959958,1634178476799989,340347822,1087558576,427559,399643,0.215,0.16213165,0.896,1.429,0.72999996,0.96,57,8,1.253,0.179,1.24,0.23200001,1.4646629,0,nan,0.0,3,1,17
284959936,1634178477799989,340347835,1087558682,427406,399490,0.21300001,0.2039152,0.88900006,1.432,0.72999996,0.96,57,6,1.291,0.11100001,1.2870001,-0.045,1.4772999,0,nan,0.0,3,1,17
285957951,1634178478799989,340347827,1087558914,427518,399602,0.22100002,0.08597683,0.882,1.4410001,0.72999996,0.96,57,11,3.032,-0.33800003,3.0130002,-0.038000003,1.6516606,0,nan,0.0,3,1,17
286962481,1634178479799989,340347812,1087559189,427498,399582,0.22500001,0.10158497,0.874,1.439,0.72999996,0.96,57,11,2.1420002,0.231,2.1290002,-0.006,1.5475886,0,nan,0.0,3,1,17
287961940,1634178480799990,340347836,1087559408,427565,399649,0.23700002,0.11648136,0.869,1.429,0.72999996,0.96,57,11,2.3830001,-0.25,2.3700001,-0.21400002,1.5731664,0,nan,0.0,3,1,17
288962253,1634178481799990,340347818,1087559647,427818,399902,0.202,0.1282529,0.85200006,1.396,0.72999996,0.96,57,9,2.0540001,-0.30600002,2.0310001,-0.19900002,1.7012414,0,nan,0.0,3,1,17
289962023,1634178482799990,340347815,1087559879,427999,400083,0.19600001,0.09363569,0.83900005,1.3610001,0.72999996,0.96,57,8,2.1890001,-0.132,2.1850002,-0.136,1.6028451,0,nan,0.0,3,1,17
290958941,1634178483799991,340347808,1087560090,428134,400218,0.20700002,0.11548686,0.83000004,1.3410001,0.72999996,0.96,57,13,1.9050001,0.018000001,1.9050001,-0.216,1.5877187,0,nan,0.0,3,1,17
291952048,1634178484799991,340347807,1087560243,428174,400258,0.20300001,0.262431,0.82600003,1.3360001,0.72999996,0.96,57,16,0.84200007,-0.083000004,0.83800006,-0.043,1.6303831,0,nan,0.0,3,1,17
292959551,1634178485799991,340347803,1087560343,428225,400309,0.179,0.16726169,0.80700004,1.312,0.72999996,0.96,57,13,1.166,0.16100001,1.154,-0.12900001,1.4868618,0,nan,0.0,3,1,17
293955936,1634178486799991,340347881,1087560448,428297,400381,0.26700002,0.16576822,0.795,1.2870001,0.72999996,0.96,57,12,1.241,0.901,0.85400003,-0.18,0.71775234,0,nan,0.0,3,1,17
294957940,1634178487799992,340347891,1087560551,428499,400583,0.23600002,0.28311807,0.79600006,1.291,0.72999996,0.96,57,6,0.80100006,-0.171,0.78300005,-0.1,1.6738635,0,nan,0.0,3,1,17
295958938,1634178488799992,340347878,1087560682,428442,400526,0.21900001,0.14169298,0.79200006,1.2850001,0.72999996,0.96,57,7,1.5450001,-0.29900002,1.516,0.14400001,1.7300984,0,nan,0.0,3,1,17
296956458,1634178489799992,340347856,1087560830,428166,400250,0.21800001,0.17138715,0.79200006,1.284,0.72999996,0.96,57,4,1.241,-0.26700002,1.212,0.164,1.7587581,0,nan,0.0,3,1,17
297960374,1634178490799993,340347842,1087560972,427927,400011,0.216,0.19240004,0.79700005,1.292,0.72999996,0.96,57,8,1.34,-0.098000005,1.3360001,0.30600002,1.6955359,0,nan,0.0,3,1,17
298953946,1634178491799993,340347826,1087561118,427524,399608,0.22000001,0.14014715,0.79700005,1.3010001,0.72999996,0.96,57,6,1.672,-0.209,1.659,0.062000003,1.7298884,0,nan,0.0,3,1,17
299954974,1634178492799993,340347809,1087561421,427622,399706,0.171,0.06540674,0.78700006,1.294,0.72999996,0.96,57,5,3.2770002,-0.38200003,3.255,0.041,1.6522454,0,nan,0.0,3,1,17
300959288,1634178493799993,340347770,1087561713,427516,399600,0.185,0.0967984,0.77400005,1.281,0.72999996,0.96,57,3,1.8770001,-0.093,1.8750001,0.018000001,1.7106817,0,nan,0.0,3,1,17
301960941,1634178494799994,340347772,1087561894,427295,399379,0.16100001,0.085565805,0.768,1.263,0.72999996,0.96,57,5,2.1090002,-0.194,2.1000001,0.085,1.630497,0,nan,0.0,3,1,17
302961958,1634178495799994,340347763,1087562152,427230,399315,0.22600001,0.11019258,0.76900005,1.268,0.72999996,0.96,57,4,2.1990001,0.148,2.194,0.16000001,1.5367565,0,nan,0.0,3,1,17
303960975,1634178496799994,340347760,1087562384,427332,399417,0.15200001,0.07819686,0.758,1.2520001,0.72999996,0.96,57,8,2.223,-0.028,2.2220001,-0.124000005,1.6005505,0,nan,0.0,3,1,17
304963938,1634178497799994,340347739,1087562697,427439,399523,0.266,0.0951817,0.75900006,1.2470001,0.69,0.94,61,15,3.137,-0.163,3.1330001,-0.112,1.6417803,0,nan,0.0,3,1,19
305959036,1634178498799995,340347726,1087563043,427439,399524,0.17600001,0.061580624,0.772,1.2550001,0.69,0.94,65,9,3.0170002,-0.24000001,3.0080001,0.117000006,1.6400877,0,nan,0.0,3,1,19
306963936,1634178499799995,340347700,1087563371,427113,399198,0.22200002,0.091602206,0.781,1.268,0.69,0.94,65,6,3.0430002,-0.19900002,3.0370002,0.215,1.6650981,0,nan,0.0,3,1,19
307964946,1634178500799995,340347716,1087563607,426698,398783,0.31800002,0.15892461,0.79,1.2700001,0.7,1.03,65,10,1.3110001,0.86700004,0.98300004,0.453,1.1161879,0,nan,0.0,3,1,18
308962003,1634178501799996,340347766,1087563710,426577,398662,0.17400001,0.22343163,0.785,1.276,0.7,1.03,65,5,0.92600006,-0.34600002,0.859,0.069000006,1.6145722,0,nan,0.0,3,1,18
309963938,1634178502799996,340347736,1087563829,426687,398771,0.172,0.13125399,0.78800005,1.279,0.69,0.94,65,5,1.4360001,-0.287,1.4070001,-0.17500001,1.7781582,0,nan,0.0,3,1,19
310965972,1634178503799996,340347717,1087564029,427126,399211,0.25800002,0.12849706,0.77900004,1.2650001,0.69,0.94,65,7,2.532,-0.41500002,2.4980001,-0.328,1.7077022,0,nan,0.0,3,1,19
311967978,1634178504799996,340347685,1087564305,427277,399361,0.238,0.11314602,0.80700004,1.276,0.69,0.94,70,9,2.6230001,-0.358,2.5990002,-0.053000003,1.7165459,0,nan,0.0,3,1,19
312966939,1634178505799997,340347651,1087564656,427379,399464,0.24900001,0.08061536,0.82400006,1.294,0.69,0.94,65,4,3.6390002,-0.43800002,3.6130002,0.008,1.6903417,0,nan,0.0,3,1,19
313970941,1634178506799997,340347633,1087565013,427571,399655,0.22200002,0.10634639,0.83300006,1.309,0.69,0.94,65,6,2.4740002,0.155,2.469,0.018000001,1.563307,0,nan,0.0,3,1,19
314966946,1634178507799997,340347612,1087565339,427317,399401,0.26000002,0.07205626,0.83500004,1.327,0.69,0.94,65,7,3.7960002,-0.53900003,3.7580001,0.128,1.6922307,0,nan,0.0,3,1,19
315966941,1634178508799998,340347584,1087565685,427205,399290,0.24700001,0.07498179,0.82600003,1.3230001,0.69,0.94,60,11,3.0430002,0.049000002,3.042,0.010000001,1.6004207,0,nan,0.0,3,1,19
316963961,1634178509799998,340347584,1087565995,427124,399209,0.22200002,0.087433144,0.82400006,1.309,0.69,0.94,60,5,2.7770002,0.27800003,2.7630002,-0.14600001,1.5289122,0,nan,0.0,3,1,19
317966984,1634178510799998,340347593,1087566300,427231,399316,0.21800001,0.090918034,0.82400006,1.2980001,0.69,0.94,60,11,2.9900002,-0.062000003,2.989,-0.17500001,1.5696002,0,nan,0.0,3,1,19
318966162,1634178511799998,340347562,1087566583,427377,399462,0.158,0.12064501,0.808,1.284,0.69,0.94,60,13,1.508,-0.33900002,1.47,-0.18200001,1.7279406,0,nan,0.0,3,1,19
319963923,1634178512799999,340347569,1087566677,427445,399530,0.14400001,0.14748764,0.78300005,1.2440001,0.69,0.94,61,5,1.149,0.48400003,1.042,0.049000002,1.1478115,0,nan,0.0,3,1,19
320971939,1634178513799999,340347563,1087566746,427411,399496,0.194,0.49767834,0.768,1.223,0.71999997,0.95,69,4,0.25500003,-0.12100001,0.22500001,0.082,1.8976101,0,nan,0.0,3,1,18
321964103,1634178514799999,340347565,1087566756,427384,399469,0.28,0.49775705,0.78800005,1.2310001,0.71999997,0.95,74,4,0.13000001,0.13000001,0.006,0.003,1.8976101,0,nan,0.0,3,1,18
322967066,1634178515800000,340347581,1087566752,427386,399471,0.22800002,0.49782515,0.80200005,1.2440001,0.69,0.94,69,4,0.19800001,0.13800001,-0.142,0.07,1.8976101,0,nan,0.0,3,1,19
323965322,1634178516800000,340347596,1087566746,427429,399514,0.22800002,0.4978946,0.80500007,1.253,0.69,0.94,69,4,0.20300001,0.065000005,0.192,-0.123,1.8976101,0,nan,0.0,3,1,19
324963939,1634178517800000,340347603,1087566807,427619,399704,0.26700002,0.48244932,0.80100006,1.243,0.69,0.94,64,13,0.342,0.045,0.33900002,0.027,1.5551589,0,nan,0.0,3,1,19
325960943,1634178518800000,340347605,1087566902,427721,399806,0.22900002,0.1209178,0.804,1.248,0.69,0.94,64,4,2.1650002,-0.074,2.164,0.035,1.5975212,0,nan,0.0,3,1,19
326964151,1634178519800001,340347591,1087567205,427907,399992,0.16800001,0.08764014,0.78900003,1.2360001,0.69,0.94,64,8,2.403,-0.19700001,2.3950002,-0.055000003,1.6256211,0,nan,0.0,3,1,19
327963169,1634178520800001,340347577,1087567325,427782,399867,0.272,0.48851013,0.79,1.2440001,0.69,0.94,64,5,0.60700005,-0.22900002,0.56200004,0.28300002,1.8682415,0,nan,0.0,3,1,19
328963023,1634178521800001,340347567,1087567357,427630,399715,0.23700002,0.6504533,0.79600006,1.2390001,0.69,0.94,64,10,0.22200002,-0.18200001,0.127,-0.035,1.7718776,0,nan,0.0,3,1,19
329961938,1634178522800001,340347555,1087567366,427633,399718,0.23200001,0.65049934,0.79300004,1.225,0.69,0.94,60,12,0.043,-0.039,-0.019000001,-0.13700001,1.7718776,0,nan,0.0,3,1,19
330964938,1634178523800002,340347552,1087567370,427634,399719,0.21200001,0.6505535,0.79700005,1.2190001,0.69,0.94,60,10,0.29000002,-0.115,0.266,-0.19500001,1.7718776,0,nan,0.0,4,1,19
331965049,1634178524800002,340347542,1087567392,427330,399415,0.23900001,0.72132355,0.79200006,1.205,0.69,0.94,60,4,0.215,-0.102000006,0.19000001,0.367,1.622583,0,nan,0.0,4,1,19
332957005,1634178525800002,340347534,1087567393,427025,399110,0.27800003,0.72138786,0.799,1.2090001,0.71,0.96,60,3,0.16700001,-0.127,0.10700001,0.441,1.622583,0,nan,0.0,4,1,18
333958999,1634178526800003,340347548,1087567396,426802,398887,0.23200001,0.6734091,0.81900007,1.2290001,0.69,0.94,60,4,0.38500002,0.011000001,0.384,-0.025,1.1511221,0,nan,0.0,4,1,19
334963672,1634178527800003,340347543,1087567579,426494,398579,0.28,0.109478734,0.822,1.233,0.69,0.94,60,4,2.831,-0.29900002,2.8160002,0.064,1.6290715,0,nan,0.0,4,1,19
335967063,1634178528800003,340347519,1087567825,426368,398453,0.252,0.17068465,0.832,1.25,0.69,0.94,60,4,1.6790001,-0.231,1.6630001,0.24300002,1.7021568,0,nan,0.0,4,1,19
336961974,1634178529800003,340347496,1087568032,426171,398256,0.29000002,0.18176556,0.83800006,1.258,0.69,0.94,60,4,1.58,-0.053000003,1.5790001,0.28100002,1.6526967,0,nan,0.0,4,1,19
337963345,1634178530800004,340347501,1087568190,425853,397938,0.224,0.1705684,0.84400004,1.274,0.69,0.94,60,5,1.468,0.245,1.447,0.216,1.4422736,0,nan,0.0,4,1,19
338960868,1634178531800004,340347503,1087568365,425709,397794,0.16700001,0.09388108,0.82500005,1.2670001,0.69,0.94,60,4,1.9740001,-0.16900001,1.9670001,0.007,1.5979114,0,nan,0.0,4,1,19
339959105,1634178532800004,340347475,1087568672,425677,397763,0.272,0.11061861,0.818,1.268,0.69,0.94,60,7,2.8950002,-0.19900002,2.8880002,0.053000003,1.659685,0,nan,0.0,4,1,19
340961980,1634178533800005,340347452,1087568997,425679,397764,0.16800001,0.06928835,0.83100003,1.2770001,0.69,0.94,64,9,2.7220001,-0.048,2.7220001,0.012,1.6153984,0,nan,0.0,4,1,19
341959936,1634178534800005,340347487,1087569309,425556,397641,0.17,0.055582102,0.80600005,1.2570001,0.69,0.94,64,7,3.3490002,0.201,3.3430002,0.025,1.4530206,0,nan,0.0,4,1,19
342961020,1634178535800005,340347438,1087569743,425635,397720,0.157,0.03696363,0.78000003,1.2260001,0.69,0.94,68,13,4.7790003,-0.76500005,4.7180004,0.096,1.7236143,0,nan,0.0,4,1,19
343962341,1634178536800005,340347365,1087570273,425651,397736,0.24900001,0.056465764,0.77800006,1.217,0.69,0.94,74,11,4.6480002,-0.47200003,4.624,0.064,1.7115024,0,nan,0.0,4,1,19
344958968,1634178537800006,340347330,1087570714,425647,397733,0.16100001,0.04504136,0.76600003,1.2140001,0.69,0.94,74,4,4.013,-0.367,3.9960003,0.12900001,1.6580223,0,nan,0.0,4,1,19
345962938,1634178538800006,340347294,1087571145,425366,397452,0.162,0.058390163,0.748,1.194,0.69,0.94,79,4,3.039,-0.277,3.0260003,0.029000001,1.643918,0,nan,0.0,4,1,19
346964936,1634178539800006,340347256,1087571305,425188,397274,0.202,0.32800198,0.731,1.177,0.69,0.94,79,15,0.527,-0.372,0.374,0.33200002,2.0969408,0,nan,0.0,4,1,19
347960940,1634178540800006,340347265,1087571372,425015,397101,0.172,0.21108726,0.72200006,1.1750001,0.7,1.03,84,6,0.89300007,0.42600003,0.785,0.20700002,1.0917286,0,nan,0.0,4,1,18
348961755,1634178541800007,340347260,1087571408,424870,396955,0.194,0.7096756,0.71300006,1.1650001,0.7,1.03,84,5,0.266,-0.163,0.21000001,0.172,2.1811285,0,nan,0.0,3,1,18
349963088,1634178542800007,340347257,1087571423,424738,396823,0.18900001,0.7097251,0.70600003,1.1550001,0.69,0.94,98,5,0.17600001,-0.066,0.163,0.123,2.1811285,0,nan,0.0,3,1,19
350960934,1634178543800007,340347273,1087571437,424787,396872,0.19900002,0.4196808,0.69900006,1.146,0.78,1.1,98,8,0.41900003,0.38500002,0.165,-0.023000002,0.5513778,0,nan,0.0,3,1,16
351955448,1634178544800008,340347320,1087571452,424759,396845,0.19900002,0.38683006,0.698,1.1450001,0.78,1.1,98,7,0.44400004,0.395,0.201,0.093,0.33677644,0,nan,0.0,3,1,16
352960937,1634178545800008,340347333,1087571461,424828,396914,0.223,0.4475059,0.69100004,1.1500001,0.78,1.1,98,9,0.12900001,0.12900001,0.011000001,0.11000001,0.21468753,0,nan,0.0,3,1,16
353962465,1634178546800008,340347355,1087571465,424720,396806,0.18200001,0.2676169,0.68700004,1.153,0.78,1.1,99,5,0.615,0.614,0.042000003,0.135,0.11139144,0,nan,0.0,3,1,16
354953941,1634178547800008,340347377,1087571477,424741,396827,0.20600002,0.5498209,0.68100005,1.139,0.78,1.1,99,7,0.093,0.079,0.05,0.074,0.22607493,0,nan,0.0,3,1,16
355960004,1634178548800009,340347400,1087571486,424730,396816,0.26900002,0.5559385,0.68500006,1.1400001,0.78,1.1,105,7,0.16000001,0.15,0.054,0.093,0.29317027,0,nan,0.0,3,1,16
356961208,1634178549800009,340347420,1087571494,424686,396771,0.22900002,0.41044748,0.693,1.1470001,0.78,1.1,105,8,0.50200003,0.497,0.065000005,0.19000001,0.17940849,0,nan,0.0,3,1,16
357959937,1634178550800009,340347433,1087571507,424699,396785,0.231,0.73521364,0.70100003,1.1650001,0.72999996,0.96999997,98,5,0.071,-0.023000002,0.067,0.072000004,0.20611481,0,nan,0.0,3,1,17
358956939,1634178551800010,340347431,1087571508,424663,396749,0.26200002,0.7352667,0.71900004,1.19,0.72999996,0.96999997,98,6,0.082,-0.043,0.069000006,0.083000004,0.20611481,0,nan,0.0,3,1,17
359949970,1634178552800010,340347432,1087571507,424552,396637,0.273,0.73532355,0.72800004,1.2030001,0.72999996,0.96999997,87,7,0.11400001,-0.112,-0.017,0.41400003,0.20611481,0,nan,0.0,3,1,17
360951948,1634178553800010,340347435,1087571506,424398,396484,0.254,0.7269881,0.73,1.2160001,0.72999996,0.96999997,87,8,0.279,0.264,-0.09200001,0.32900003,6.1786323,0,nan,0.0,3,1,17
361953941,1634178554800010,340347444,1087571492,423549,395635,0.26900002,0.4381715,0.72900003,1.2260001,0.72999996,0.96999997,87,8,0.245,-0.141,-0.2,0.75500005,5.6727123,0,nan,0.0,3,1,17
362952942,1634178555800011,340347436,1087571474,423050,395136,0.24800001,0.6889593,0.734,1.245,0.72999996,0.96999997,87,6,0.36100003,0.057000004,-0.35700002,-0.558,4.7391014,0,nan,0.0,3,1,17
363957150,1634178556800011,340347441,1087571464,423192,395278,0.254,0.6546587,0.74,1.2540001,0.72999996,0.96999997,87,8,0.091000006,0.047000002,0.078,-0.05,5.0600576,0,nan,0.0,3,1,17
364952941,1634178557800011,340347445,1087571457,423213,395299,0.28300002,0.65471345,0.754,1.268,0.72999996,0.96999997,87,8,0.009000001,0.007,-0.006,-0.008,5.0600576,0,nan,0.0,3,1,17
365958461,1634178558800011,340347450,1087571449,423229,395314,0.23900001,0.6547644,0.76000005,1.273,0.78,1.11,87,12,0.051000003,-0.051000003,0.0050000004,-0.022000002,5.0600576,0,nan,0.0,3,1,16
