timestamp,yaw_composite,yaw_variance,yaw[0],yaw[1],yaw[2],yaw[3],yaw[4],innov_vn[0],innov_vn[1],innov_vn[2],innov_vn[3],innov_vn[4],innov_ve[0],innov_ve[1],innov_ve[2],innov_ve[3],innov_ve[4],weight[0],weight[1],weight[2],weight[3],weight[4]
27930872,2.1304083,3.6966984,-2.512391,-1.2553155,0.0019364108,1.2585148,2.5145009,0.10970224,0.124937326,0.03799636,-0.030976325,0.013340439,-0.013669677,0.08269798,0.12696841,0.05796282,-0.028959535,0.19998315,0.19973993,0.19985607,0.20017111,0.20024972
27940804,2.130514,3.6965363,-2.5124972,-1.2554215,0.0018311559,1.2584099,2.5143957,0.10970224,0.124937326,0.03799636,-0.030976325,0.013340439,-0.013669677,0.08269798,0.12696841,0.05796282,-0.028959535,0.19998315,0.19973993,0.19985607,0.20017111,0.20024972
28129502,2.196874,3.6514926,-2.5110781,-1.2541704,0.0028782366,1.2594988,2.5157146,0.047308832,0.10257642,-0.0014279,-0.12086417,-0.09073537,-0.10623832,0.021018349,0.112874046,0.042338237,-0.09300682,0.20000161,0.19983953,0.19989932,0.2000981,0.2001614
28333080,1.2372749,3.5476146,-2.5114267,-1.2540983,0.0027589458,1.2588406,2.514915,0.09454017,0.15212168,0.0154845165,-0.12646832,-0.07760075,-0.13983582,0.022500694,0.1274088,0.029870156,-0.13524437,0.19976792,0.19977921,0.20009576,0.20027989,0.20007715
28531700,1.5931665,3.6488807,-2.5119817,-1.2534826,0.0043546297,1.2598712,2.5146167,0.13710111,0.21841282,0.055359196,-0.12657782,-0.07615261,-0.15005739,0.04780961,0.18618858,0.0739566,-0.1337894,0.19952063,0.19920124,0.19998488,0.20079051,0.20050281
28730320,1.8308948,3.8510134,-2.513998,-1.2543277,0.0051041218,1.2604345,2.5134718,0.15256558,0.24598122,0.055711478,-0.15461788,-0.09498147,-0.15948969,0.07077463,0.23043579,0.09900585,-0.14161205,0.1994365,0.19845115,0.1996022,0.20130654,0.20120358
28928941,1.6799487,3.6989627,-2.5136251,-1.2537568,0.005260644,1.260138,2.5133092,0.115703516,0.22120245,0.019779943,-0.20878676,-0.1497403,-0.20779845,0.03778253,0.2134205,0.076334015,-0.18314989,0.19923572,0.19850391,0.19983606,0.20139869,0.20102568
29127645,1.1093667,3.5475318,-2.5126595,-1.2536902,0.003376389,1.2579503,2.5128794,0.11804788,0.22065797,-0.023055185,-0.27471983,-0.18798417,-0.24271733,0.04649922,0.23270178,0.058857974,-0.23410158,0.19909754,0.19928259,0.20045921,0.2010022,0.20015848
29336113,1.6423486,3.6745894,-2.513211,-1.255352,0.0021417534,1.2580864,2.5134382,0.13009764,0.26201177,0.013052511,-0.27186424,-0.20011917,-0.22091205,0.08376713,0.30278316,0.13419251,-0.18909974,0.19971265,0.19947585,0.19996312,0.20050174,0.2003466
29529771,2.6058817,3.5326245,-2.5134633,-1.2565575,0.0009182927,1.2578026,2.5137541,0.14068887,0.2812749,0.013921867,-0.29127076,-0.21309994,-0.24862657,0.078002855,0.3123468,0.13064335,-0.21570617,0.20014767,0.19975556,0.19970141,0.20005968,0.20033568
29728388,-0.58622,3.8562,-2.5124466,-1.2560791,-0.0008016711,1.255266,2.5129058,0.15746996,0.28929022,-0.008015229,-0.32328847,-0.22088872,-0.2982466,0.05695682,0.2920613,0.081850715,-0.2827487,0.19977458,0.20055279,0.20056698,0.19979726,0.1993084
29931974,-0.096310854,3.5117514,-2.5085695,-1.2512853,0.003377132,1.2581505,2.5156038,0.17133862,0.32178786,0.0379992,-0.28847048,-0.20628425,-0.298285,0.049456205,0.30008912,0.10782586,-0.26246798,0.19916235,0.20048241,0.20113741,0.20021823,0.1989996
30130609,0.7354376,3.7744899,-2.5091867,-1.2509404,0.0054469057,1.2603245,2.5161188,0.21968073,0.35995018,0.033011384,-0.3099013,-0.19525968,-0.27537143,0.114795774,0.36857706,0.13667728,-0.2619166,0.19920585,0.19969708,0.20060791,0.20067835,0.19981082
30334182,1.5616491,3.5860076,-2.509868,-1.251994,0.0053935614,1.2612603,2.5166678,0.19108851,0.34916604,0.026424335,-0.33061197,-0.22950968,-0.2854078,0.105573624,0.37621984,0.15347284,-0.25531995,0.19968803,0.19950797,0.20000768,0.2004972,0.20029917
30532848,0.3300972,3.5914218,-2.5043561,-1.2468458,0.009231905,1.2646528,2.5210936,0.19586655,0.3445538,0.00039445143,-0.3602753,-0.23974232,-0.32317358,0.08687886,0.35462382,0.11027918,-0.30824244,0.19946663,0.20002721,0.2005509,0.2003127,0.19964252
30731422,-1.098568,3.4720864,-2.5014071,-1.248661,0.0029778667,1.2604141,2.5225396,0.15939666,0.3114754,-0.07421568,-0.46463883,-0.32078266,-0.35285038,0.10248847,0.38754857,0.109266,-0.34847575,0.20050028,0.20298453,0.20132782,0.19784679,0.1973406
30930043,-0.92987245,3.4938476,-2.5045629,-1.2554101,-0.011448709,1.2448294,2.513922,0.221431,0.3365283,-0.1057502,-0.4987573,-0.29588974,-0.4115282,0.09255103,0.35961848,0.020948693,-0.4583954,0.1998755,0.20679674,0.20424733,0.19585717,0.19322327
31128857,-0.77685815,3.5485888,-2.5122008,-1.2651415,-0.030944968,1.2213607,2.4977958,0.27730206,0.36243442,-0.11534961,-0.5067681,-0.2632371,-0.44902983,0.08551817,0.33569664,-0.04212994,-0.53398854,0.19763567,0.211031,0.20901631,0.19452962,0.1877874
31332253,-0.8453389,3.5216758,-2.524579,-1.2761945,-0.036682088,1.2176067,2.4899185,0.37371555,0.39789107,-0.08901482,-0.4321546,-0.14543441,-0.21711443,0.31062588,0.5029475,0.09868194,-0.3578529,0.19874741,0.20897038,0.20667374,0.19517042,0.19043806
31530870,-0.37988263,3.3381183,-2.5181317,-1.2625849,-0.037168194,1.2011195,2.4777632,0.44552046,0.43666553,-0.011552133,-0.29247206,-0.008499473,-0.50358874,-0.030309588,0.11244592,-0.27098686,-0.6595355,0.1895302,0.2114797,0.21772166,0.19895697,0.18231153
31734456,-0.27062532,3.177924,-2.5083346,-1.2484956,-0.034284543,1.1927438,2.4737325,0.3684713,0.35003114,-0.01581984,-0.23995155,-0.0054923072,-0.44403613,-0.05530104,0.05104348,-0.26140147,-0.57912403,0.18281825,0.21387987,0.22637056,0.20118351,0.17574778
31933259,-0.22341853,3.0922039,-2.500572,-1.2376688,-0.03086794,1.1886969,2.4723856,0.2075926,0.26351678,0.00027821213,-0.23183939,-0.111306764,-0.42564356,-0.11853427,0.029898822,-0.16806594,-0.46086913,0.17825724,0.21538463,0.2323082,0.20269322,0.17135674
32131704,-0.06583909,3.108897,-2.5110931,-1.2416928,-0.02412456,1.1954762,2.4688022,0.35634547,0.5042661,0.31469315,0.042651296,0.055561006,-0.12980738,0.13073185,0.3472756,0.24480361,-0.058630176,0.17840625,0.2092146,0.22845541,0.2068348,0.17708893
32330319,0.081806935,3.1368651,-2.5187924,-1.244288,-0.019858409,1.1990039,2.4650753,0.24861827,0.46367517,0.24709323,-0.10280657,-0.11750066,-0.27759027,0.03254585,0.3248962,0.22250873,-0.15556356,0.17786984,0.20480233,0.22632757,0.2101575,0.18084273
32528940,0.023235014,3.1770983,-2.5274231,-1.2578666,-0.02875595,1.1977546,2.4641738,0.15953276,0.4102293,0.08036951,-0.37365627,-0.3444681,-0.277103,0.16624181,0.5310259,0.3467597,-0.15881322,0.18219812,0.20513824,0.22177963,0.20740801,0.183476
32727722,0.21477595,3.1788285,-2.535614,-1.2574027,-0.026936902,1.1920776,2.4521265,0.36988732,0.62740034,0.14776942,-0.41149667,-0.29382667,-0.53872114,0.06692774,0.49044165,0.1818617,-0.4642882,0.17725588,0.20097113,0.22458915,0.21313229,0.18405159
32931147,-0.3035332,3.1020422,-2.5084574,-1.2495458,-0.038735192,1.1864038,2.4704862,0.06501342,0.2944898,-0.2451038,-0.80952877,-0.64272,-0.582165,0.07976401,0.48993564,0.12457329,-0.54707146,0.1803971,0.21723635,0.23102431,0.20022433,0.1711179
33124804,-0.59461534,3.2326362,-2.4858117,-1.2431424,-0.043303777,1.1905875,2.4916136,0.1038893,0.27162588,-0.23454273,-0.7418973,-0.5514634,-0.4540771,0.15927455,0.5077412,0.1496509,-0.46849284,0.18563347,0.23004238,0.2322473,0.18876836,0.16330853
33333353,-0.41132292,3.0732906,-2.4763148,-1.2239712,-0.024014503,1.2006422,2.4955359,0.43252912,0.5116762,0.10449461,-0.26171753,-0.06671476,-0.38046035,0.09553379,0.32594615,0.016279876,-0.44619954,0.17950943,0.22582564,0.23682499,0.19480257,0.16303732
33532071,-0.31603515,3.0044982,-2.4662874,-1.2090163,-0.009241827,1.210501,2.5024877,0.33711135,0.35060912,0.04849776,-0.17608945,-0.0038625598,-0.24448943,0.0935318,0.2158353,-0.028508283,-0.33101243,0.17609608,0.22383755,0.23961532,0.19794403,0.16250701
33730594,-0.24946694,2.9388268,-2.4593906,-1.1983054,-0.000990788,1.2134608,2.5047553,0.3357026,0.29411978,0.08444946,-0.021432236,0.13166909,-0.22848119,-0.011498198,0.020756274,-0.16665807,-0.3331544,0.17223985,0.22327024,0.243756,0.2003264,0.16040754
33934181,-0.21121055,2.8909135,-2.4542274,-1.190572,0.0039237635,1.2137408,2.5056067,0.3796628,0.2798908,0.14619224,0.14854936,0.29576066,-0.077587046,0.03536524,-0.018422708,-0.16423237,-0.20960957,0.16920556,0.22329155,0.24733272,0.20185575,0.15831433
34132802,-0.23169214,2.8634274,-2.4423428,-1.1801934,0.009451362,1.2172732,2.5137784,0.36026472,0.22911963,0.17081988,0.25496373,0.37954602,-0.071876794,-0.053616077,-0.16557278,-0.26126903,-0.20820275,0.16796398,0.22619379,0.25041807,0.20039533,0.15502873
34331487,-0.2590611,2.8386354,-2.4410765,-1.1803886,0.004827942,1.210886,2.5118425,0.39079127,0.28876203,0.24581754,0.31249976,0.4086295,-0.11985955,-0.108508736,-0.19616935,-0.26892436,-0.22541241,0.16689593,0.22896345,0.25320175,0.19892512,0.15201378
34530043,-0.22964182,2.8111718,-2.4527035,-1.1887934,-0.0036317296,1.1992958,2.4983625,0.2551297,0.26209402,0.117119774,0.006545976,0.08660331,-0.16492164,0.0004698336,0.060001582,-0.05469644,-0.20473514,0.16477281,0.22745106,0.2549431,0.20104975,0.15178335
34728665,-0.19513243,2.8239121,-2.4672697,-1.2002176,-0.010040388,1.1931847,2.4872737,0.27110368,0.42576146,0.13688931,-0.21597365,-0.15622538,-0.24625522,0.13469893,0.39433655,0.21921885,-0.19751236,0.16501297,0.22401069,0.252752,0.20343338,0.15479097
34927284,-0.23843366,2.8228266,-2.468126,-1.2038473,-0.015303336,1.1893644,2.4862607,0.16902643,0.3929777,0.023420818,-0.44882497,-0.38984925,-0.40015656,0.09433377,0.45106316,0.23568778,-0.31408495,0.16582118,0.22644423,0.25313273,0.20125851,0.1533433
35135940,-0.37710914,2.8880234,-2.4625518,-1.2080697,-0.021390617,1.1911744,2.495772,0.074708,0.31703666,-0.065020025,-0.56589884,-0.51201904,-0.33079347,0.18497676,0.5660037,0.34738332,-0.23279926,0.17134237,0.2329987,0.25004712,0.19386758,0.15174419
35329566,-0.5504333,2.9664054,-2.4541185,-1.2124879,-0.03142042,1.1893879,2.5059316,-0.047710627,0.19372983,-0.16734128,-0.65937114,-0.6136606,-0.3293445,0.162885,0.539801,0.33641532,-0.22898412,0.17721589,0.24320382,0.24823958,0.18393469,0.14740606
35533079,-0.64950824,3.0058157,-2.452814,-1.2180587,-0.0379975,1.1885502,2.5103636,0.05637279,0.3291485,0.0055669434,-0.50011396,-0.4958729,-0.31888634,0.14534165,0.5461967,0.38480833,-0.18167831,0.18165286,0.24816203,0.24543707,0.1784813,0.14626676
35731702,-0.7370783,2.905844,-2.451675,-1.223109,-0.045066312,1.1862001,2.513483,0.025221474,0.3490974,0.07067502,-0.45736587,-0.5140091,-0.33917144,0.09451916,0.5338524,0.42826486,-0.14320377,0.18570924,0.25302008,0.24298868,0.17335449,0.14492749
35930316,-0.903132,2.6927335,-2.4518142,-1.2391895,-0.06904104,1.1716744,2.5145464,-0.16223028,0.21452163,-0.0106837,-0.55709255,-0.68176085,-0.30646235,0.08919759,0.56565565,0.5239073,-0.046828315,0.19305782,0.26739386,0.24057594,0.16067536,0.13829704
36133907,-1.1539551,2.3560312,-2.441056,-1.2642701,-0.11022041,1.1528008,2.5302985,-0.38441432,0.09580448,-0.024969786,-0.61142653,-0.8741001,-0.096511066,0.22954825,0.7797816,0.8670713,0.2898826,0.21058653,0.29947308,0.23178819,0.13368317,0.12446908
36332528,-1.3218236,2.2103975,-2.4436214,-1.2883263,-0.13594306,1.1465926,2.5406377,-0.15728688,0.40754232,0.4137058,-0.19441655,-0.6034027,-0.19889566,0.03766519,0.64113796,0.8766955,0.3060457,0.22832602,0.31577873,0.21748053,0.117579296,0.12083538
36536113,-1.444575,2.0320673,-2.4378605,-1.3077471,-0.16012576,1.1427875,2.5582514,-0.22644281,0.33191347,0.42534527,-0.12609208,-0.5881763,-0.08215779,0.06371072,0.63393646,0.9440329,0.44577956,0.24685091,0.33643353,0.20298444,0.09989194,0.11383905
36734782,-1.4973923,1.8829627,-2.4263048,-1.3156309,-0.174444,1.1421192,2.5756855,-0.24200597,0.23270437,0.34179038,-0.12287608,-0.53859967,-0.044022262,0.057530403,0.53955835,0.8332151,0.41335905,0.25925758,0.35397005,0.19318835,0.08704167,0.10654228
36933355,-1.5796149,1.7933351,-2.426789,-1.3315217,-0.18810345,1.1444194,2.5879004,-0.038992085,0.33256707,0.3941531,-0.0033050627,-0.3133816,0.06535593,0.17738572,0.57246023,0.78411937,0.41111866,0.27587745,0.36234054,0.17906736,0.07759852,0.10511617
37131989,-1.6285893,1.7541682,-2.430687,-1.3424948,-0.19647692,1.1442884,2.591369,0.02449926,0.295092,0.3352921,0.031998195,-0.1888203,0.032252282,0.121576756,0.4173038,0.56670296,0.27854574,0.28589225,0.36474484,0.17072836,0.07320481,0.10542978
37330596,-1.6605171,1.7511271,-2.4331243,-1.3466471,-0.1962612,1.1485221,2.5953286,0.1622476,0.3377195,0.4011054,0.23448326,0.06261645,0.006333053,0.02523242,0.2014021,0.3307438,0.18185538,0.29208502,0.36310852,0.16563834,0.07180225,0.10736589
37529218,-1.6619807,1.727177,-2.4250503,-1.3421572,-0.19107547,1.1558025,2.6066988,0.1313562,0.21309555,0.3182839,0.30706513,0.1669502,0.15988055,0.08875233,0.13549101,0.26279086,0.2760768,0.29478034,0.36550033,0.16345318,0.069907814,0.10635838
37727838,-1.6528112,1.7044779,-2.4122424,-1.3322184,-0.1819314,1.1658192,2.6213603,0.19580309,0.2283949,0.3177806,0.35508123,0.26038447,0.16276422,0.08466597,0.081341535,0.17366073,0.23096913,0.29625958,0.36809283,0.1622315,0.068353094,0.105062924
37931425,-1.6408638,1.7046486,-2.3984394,-1.3190114,-0.16795264,1.1798203,2.6351595,-0.013571985,-0.010880731,-0.02671865,-0.045299437,-0.03637315,0.115231514,0.13355061,0.14636607,0.13037589,0.109265596,0.29658386,0.3679629,0.16195984,0.06831094,0.10518247
38130081,-1.6408392,1.7097554,-2.3878999,-1.3082461,-0.15491049,1.1939337,2.6475632,0.19640115,0.21322978,-0.010088563,-0.23278937,-0.06841748,-0.06564832,0.1780639,0.30912217,0.110667996,-0.1579279,0.2986955,0.36633632,0.16029201,0.06827169,0.10640444
38328670,-1.6425382,1.6053966,-2.3726177,-1.305605,-0.15942228,1.1998644,2.6664834,0.07125342,0.09504515,-0.30761254,-0.69825387,-0.39580697,-0.24931271,0.18561918,0.41202837,0.053176478,-0.4202566,0.30620462,0.3777278,0.15428977,0.061292443,0.10048526
38532253,-1.6403615,1.4445442,-2.3558762,-1.3084531,-0.17550024,1.1981606,2.6872845,0.09220716,0.10598725,-0.40112802,-0.8843826,-0.4829397,-0.3428668,0.19720803,0.4694286,0.006945811,-0.5779002,0.31508723,0.39721978,0.14631662,0.051259305,0.090117
38730874,-1.6580634,1.2486086,-2.3317266,-1.3127476,-0.19311805,1.2059742,2.7234216,-0.01789397,-0.038663328,-0.5730778,-1.0570357,-0.59487337,-0.2779857,0.27450588,0.5303852,0.02129113,-0.56551826,0.33269334,0.4188226,0.13056344,0.03892056,0.079000086
38929669,-1.6471207,1.1746922,-2.3208804,-1.3114396,-0.20003504,1.2047648,2.734726,0.19977841,0.11647758,-0.33092093,-0.6631508,-0.21289638,-0.26498428,0.15963942,0.3045783,-0.16289377,-0.57077926,0.33456215,0.43006063,0.1272816,0.03492441,0.07317123
39133081,-1.6488526,1.1394606,-2.3203075,-1.3159399,-0.20888019,1.2000922,2.7361667,0.13242418,-0.03816922,-0.30393463,-0.33085287,0.020276368,-0.1219097,0.06311242,0.0019259416,-0.33626342,-0.4013685,0.33605924,0.43518528,0.1252139,0.032987814,0.07055381
39331702,-1.6591436,1.1112165,-2.3258824,-1.3262026,-0.22274937,1.1908354,2.7329388,0.12948368,-0.11921588,-0.20254791,0.07508111,0.31407833,0.088544324,0.036198016,-0.22550243,-0.42800525,-0.15185331,0.33805248,0.4386482,0.12306239,0.03144504,0.0687919
39535372,-1.6602023,1.0580099,-2.325129,-1.3339455,-0.23848379,1.181144,2.7364812,0.17757829,-0.09718752,-0.08126919,0.3426234,0.50770247,0.16754901,-0.005866036,-0.357903,-0.47876778,-0.03682856,0.33920726,0.44702876,0.12035648,0.028714862,0.06469253
39734070,-1.6570592,0.9965497,-2.3190627,-1.338079,-0.2522317,1.1747631,2.746013,0.22536111,-0.029726177,0.00014562905,0.4162303,0.554761,0.11278644,-0.0669352,-0.40424633,-0.5045522,-0.066248775,0.34057114,0.45711777,0.116852306,0.025571788,0.059886962
39932530,-1.6562201,0.9683284,-2.3150969,-1.3392292,-0.25768605,1.17349,2.7521398,0.11284585,-0.10164222,-0.089030266,0.25365824,0.38098776,0.13194227,-0.008633964,-0.28641254,-0.38591796,-0.02358574,0.3417155,0.46142182,0.11486641,0.024146363,0.05784986
40126193,-1.6568762,0.95345634,-2.312896,-1.3399243,-0.26044396,1.173436,2.7558498,0.065651104,-0.12029316,-0.12694481,0.153225,0.28002277,0.12353301,0.019291334,-0.21156514,-0.31626248,-0.020716857,0.3427584,0.46337798,0.11357151,0.0233921,0.056899916
40324807,-1.6534655,0.9429861,-2.309325,-1.33823,-0.26065317,1.1745007,2.759946,0.09602657,-0.051098034,-0.07346217,0.12988879,0.24640207,0.0843865,0.019795954,-0.1523869,-0.25290245,-0.039639965,0.3427487,0.46527374,0.11304627,0.022891121,0.056040216
40533480,-1.6512928,0.9358936,-2.3053753,-1.3357016,-0.25908208,1.1775918,2.7647295,0.05805955,-0.067862645,-0.10327481,0.052659284,0.1682641,0.03988192,0.0017502755,-0.13557692,-0.23812212,-0.075903215,0.34342182,0.46612534,0.11231941,0.022520892,0.055612553
40731980,-1.6489922,0.93357366,-2.3016462,-1.3325548,-0.25603363,1.1814412,2.7689605,0.021576684,-0.07778659,-0.11716797,-0.0070472835,0.095164366,0.05308151,0.03517455,-0.065844506,-0.158614,-0.045175817,0.3439762,0.46616474,0.11191098,0.022389617,0.05555843
40930600,-1.6445441,0.9318694,-2.2959816,-1.3273423,-0.25085405,1.1872756,2.7750325,0.015088089,-0.0692143,-0.1062109,-0.01683897,0.07325235,0.040321343,0.02896577,-0.054369234,-0.13688533,-0.04522927,0.344452,0.46614996,0.111574955,0.022289997,0.055533133
41129222,-1.6438587,0.9301314,-2.2923706,-1.3243687,-0.24752791,1.1919072,2.7794993,-0.056227557,-0.12636209,-0.16474974,-0.09913352,-0.016839147,-0.0037522502,-0.005040504,-0.06948972,-0.14590856,-0.079556555,0.34563282,0.46568915,0.11086144,0.022156334,0.055660307
41327913,-1.6437557,0.9301615,-2.291185,-1.3233368,-0.24623112,1.1936038,2.7809691,-0.028789623,-0.08575605,-0.1021751,-0.03192569,0.020110913,0.042824335,0.026058689,-0.035088334,-0.083030954,-0.00992997,0.34605998,0.46538198,0.11064511,0.022142999,0.055769935
41526464,-1.6467597,0.9302241,-2.2930436,-1.3253465,-0.24798582,1.1923139,2.7793915,-0.05696312,-0.094426565,-0.09917152,-0.046300206,-0.018409824,0.0040303133,-0.013283456,-0.056563772,-0.08287369,-0.027227864,0.3465173,0.46505493,0.11041471,0.022128219,0.0558849
41730052,-1.647235,0.9290399,-2.2941418,-1.3266087,-0.24962057,1.1905773,2.7782047,0.047930833,0.00971166,0.01822678,0.08759411,0.102922454,0.05810806,0.02614702,-0.02640495,-0.03988804,0.034325544,0.34624812,0.4654496,0.110493526,0.022083124,0.05572554
41933638,-1.6484615,0.9309971,-2.2951686,-1.3274137,-0.24999647,1.1900607,2.7770941,-0.08706772,-0.1267159,-0.10597646,-0.020254388,-0.015997551,0.08103378,0.035108414,-0.02691999,-0.028987877,0.06360815,0.34630242,0.46500808,0.11058452,0.022183247,0.05592172
44128401,-1.7131406,0.9026235,-2.3323288,-1.3717077,-0.29330787,1.160075,2.750094,-0.030978851,-0.11030471,-0.053468935,0.13919257,0.13189226,0.03854829,-0.07045382,-0.20800921,-0.19281131,0.015011728,0.35773635,0.46212792,0.10327626,0.020471437,0.056388054
44327020,-1.715315,0.9022534,-2.3303294,-1.3700151,-0.2907452,1.1641932,2.7534628,-0.09189115,-0.16274738,-0.11778749,0.048020437,0.04697723,0.026643395,-0.06458317,-0.18403113,-0.17614634,0.0022864267,0.35952595,0.46089512,0.10237246,0.020396931,0.056809507
44525641,-1.719287,0.90065473,-2.3322096,-1.3723092,-0.29285088,1.1630294,2.7523432,-0.04582371,-0.0917642,-0.03960956,0.094316736,0.0701824,0.024472408,-0.05893293,-0.15036483,-0.12246141,0.022619255,0.36042938,0.46053812,0.10184292,0.020293618,0.05689611
46129509,-1.7562388,0.8984344,-2.3787622,-1.4186097,-0.34145483,1.1111696,2.7025702,-0.11393693,-0.0854183,0.06971456,0.20205584,0.027920961,0.09911947,-0.047650725,-0.105512045,0.06269895,0.21385376,0.3562058,0.4635429,0.103954636,0.020435138,0.055861637
46333147,-1.7614739,0.8988885,-2.3851676,-1.4248177,-0.3477996,1.104347,2.6957483,-0.14773968,-0.14544101,-0.0149411075,0.13178281,-0.001231296,0.08425172,-0.052693807,-0.12982528,0.0005965177,0.16518614,0.35569283,0.46373934,0.10426086,0.020492768,0.055814218
46531715,-1.7635697,0.8968495,-2.3867493,-1.426759,-0.34991387,1.1026107,2.6944122,-0.10758922,-0.13743971,-0.01478743,0.17477985,0.0700823,0.09655136,-0.051992316,-0.16627815,-0.060066894,0.14936164,0.35590726,0.46391225,0.104058266,0.020405145,0.055717103
46730497,-1.7517437,0.89136773,-2.371734,-1.4128997,-0.3361853,1.118021,2.7106905,-0.07977532,-0.14959182,-0.035977338,0.20783412,0.13740313,0.09906306,-0.06463364,-0.22562227,-0.14870398,0.11744005,0.35727876,0.46393344,0.10308115,0.02011528,0.05559136
46928958,-1.729573,0.88883275,-2.3465834,-1.3883295,-0.3112755,1.1442118,2.736889,-0.12022416,-0.19644618,-0.075644426,0.18733317,0.113219485,0.120018095,-0.055267744,-0.22932021,-0.14831233,0.13840601,0.35856038,0.46340886,0.10232864,0.019976873,0.055725206
47127578,-1.714481,0.8860396,-2.3279595,-1.3703327,-0.2928483,1.1641244,2.7567475,-0.13777661,-0.2074637,-0.06667011,0.2090075,0.11024606,0.11852217,-0.07382162,-0.2518003,-0.14732268,0.15397032,0.36009327,0.46273655,0.101445116,0.01982182,0.055903267
47331166,-1.6975163,0.8794929,-2.3092554,-1.352886,-0.27599967,1.1822495,2.7762806,-0.10424023,-0.14603731,0.0077053905,0.2532121,0.12349491,0.11634952,-0.072296605,-0.22186387,-0.089996785,0.17996731,0.36085987,0.46336743,0.10072395,0.019512005,0.05553679
47529915,-1.6811349,0.8741939,-2.2900686,-1.3347913,-0.2580768,1.201697,2.7965903,-0.111140735,-0.1318959,0.026035298,0.2427116,0.09514139,0.079233795,-0.10081433,-0.22565244,-0.078729436,0.16085398,0.36210072,0.46343023,0.09983759,0.019242292,0.055389136
47728411,-1.6692045,0.86872375,-2.277851,-1.3235611,-0.2476076,1.2128276,2.8091207,-0.1218079,-0.1214055,0.047879852,0.24351771,0.07078939,0.10061792,-0.07822251,-0.1824986,-0.0132023115,0.20459595,0.36223245,0.46432355,0.09948265,0.019003343,0.054958016
47931994,-1.6590858,0.8616069,-2.2711987,-1.318007,-0.24392122,1.2160356,2.8149323,-0.14407247,-0.11865655,0.068843834,0.24521226,0.03801526,0.14239238,-0.04018307,-0.12311526,0.077269636,0.27571788,0.360682,0.46674454,0.099845454,0.018745834,0.053982135
48130618,-1.6477957,0.8585662,-2.2644057,-1.311467,-0.2387889,1.2198699,2.8203506,-0.18809775,-0.15737177,0.028785186,0.19582206,-0.013695566,0.13207422,-0.045993827,-0.121491544,0.080199435,0.2687641,0.3586548,0.46867836,0.10068534,0.018697096,0.05328436
48329374,-1.6346059,0.85144305,-2.255228,-1.3033621,-0.23268136,1.2252977,2.8284986,-0.15163332,-0.11695227,0.071837336,0.23612756,0.021377087,0.14283909,-0.03580339,-0.10799219,0.09815475,0.2842155,0.35681176,0.4713026,0.10117897,0.018447654,0.05225909
48532823,-1.6199112,0.84427696,-2.2457988,-1.2949578,-0.22657743,1.2302767,2.8364768,-0.14508088,-0.11248018,0.06537322,0.22118579,0.018546559,0.16396755,-0.0046096668,-0.07308116,0.120991394,0.2974804,0.3543673,0.47436175,0.10195398,0.018213492,0.051103525
48731445,-1.6068176,0.8371091,-2.2365866,-1.2868588,-0.22049981,1.2357136,2.844688,-0.12909278,-0.09302693,0.07726689,0.21950772,0.022074755,0.14384875,-0.014797345,-0.07437755,0.11381534,0.27556646,0.35251632,0.4770168,0.10242322,0.017955745,0.05008791
48935031,-1.5922906,0.83250356,-2.2285304,-1.2792647,-0.21505134,1.239313,2.8507674,-0.16975172,-0.1290659,0.03196534,0.15650402,-0.03473816,0.16417457,0.018116154,-0.029907525,0.15143369,0.29380405,0.34948945,0.4799477,0.103643574,0.017858177,0.049061105
49133723,-1.5722666,0.8308584,-2.2132518,-1.2639728,-0.20099585,1.2518284,2.864516,-0.17422779,-0.14389765,0.007010172,0.1373382,-0.037055895,0.12894738,-0.0131694,-0.06873278,0.09686724,0.24511608,0.34728727,0.4816957,0.104660645,0.01787282,0.04848357
49332274,-1.5545233,0.8234538,-2.1964927,-1.2485894,-0.18710737,1.2661178,2.881208,-0.050294586,-0.037750773,0.09722058,0.23810908,0.091532335,0.11859906,-0.01797232,-0.08696424,0.053217955,0.2121158,0.34667853,0.48357844,0.10446342,0.017552884,0.047726616
49530895,-1.5275021,0.82058966,-2.1773863,-1.2295356,-0.17022322,1.280436,2.8977385,-0.10447132,-0.112357356,-0.00095999613,0.1458076,0.036275793,0.2475174,0.12308224,0.041950896,0.14794886,0.31180137,0.3429588,0.48658136,0.106160626,0.017558511,0.046740703
49729516,-1.5049031,0.81229204,-2.1610062,-1.2144097,-0.15794797,1.2912772,2.9122763,0.02448085,0.011990666,0.107291244,0.24272081,0.15289928,0.25093725,0.14053938,0.063454315,0.15072966,0.30188972,0.33984116,0.49030903,0.1071535,0.01727885,0.045417454
49928225,-1.4941583,0.81041855,-2.1548538,-1.2083054,-0.15313362,1.2946042,2.9169288,-0.05177182,-0.07607873,0.0023980439,0.13758661,0.07272267,0.19582546,0.09566287,0.01354292,0.07760517,0.22786817,0.33765435,0.49207452,0.108151644,0.017274499,0.044844877
50126759,-1.4980844,0.81454754,-2.1592836,-1.211829,-0.15592672,1.29124,2.9122252,-0.15403345,-0.19186157,-0.13647754,-0.0069900826,-0.03908139,0.097326964,0.013233952,-0.07188572,-0.03804937,0.104999214,0.33756804,0.4912346,0.108520836,0.017483471,0.045192994
50330372,-1.5130895,0.82643557,-2.1694689,-1.2198985,-0.16070984,1.2870613,2.9033365,-0.3749318,-0.42709684,-0.39792597,-0.27701795,-0.27266046,0.034239046,-0.030721564,-0.117767476,-0.11742825,0.014857117,0.34015253,0.4870692,0.10806871,0.017970636,0.046738926
50528967,-1.5369818,0.8348488,-2.1801033,-1.229617,-0.16606425,1.2855799,2.8968625,-0.3694805,-0.4597652,-0.46581188,-0.32553965,-0.26031882,-0.00583636,-0.056951597,-0.17136776,-0.22582567,-0.07510607,0.34640893,0.48120078,0.10545578,0.018157143,0.048777442
50727588,-1.5561754,0.8378584,-2.1865423,-1.236129,-0.16928963,1.2865018,2.8945298,-0.24529748,-0.3556654,-0.37608036,-0.21990392,-0.12788118,0.0086577535,-0.03950392,-0.17134419,-0.2500467,-0.0838176,0.3522756,0.4765854,0.10271465,0.018104285,0.05032002
50931175,-1.5645562,0.8336931,-2.1904526,-1.2410307,-0.17390046,1.2838447,2.892261,-0.021636933,-0.14976363,-0.17141,0.013039283,0.116684236,0.06660664,0.008695103,-0.14603099,-0.23477092,-0.038977645,0.35427484,0.4760074,0.10146324,0.017851382,0.05040315
51134762,-1.5669168,0.81767005,-2.1907456,-1.2445211,-0.17967825,1.2804369,2.893344,0.10029151,-0.046021715,-0.051080316,0.18351853,0.2812776,0.04904762,-0.03813959,-0.22750932,-0.30920333,-0.05896285,0.35503423,0.47870806,0.100029744,0.017087894,0.049140096
51333385,-1.5743973,0.80578285,-2.194458,-1.2495718,-0.18740574,1.2749462,2.890446,0.025674248,-0.12433056,-0.108914815,0.15773708,0.23642695,0.083618484,-0.028318226,-0.23611051,-0.29978564,-0.013645537,0.35701498,0.4797748,0.09825232,0.016474996,0.048482887
51532044,-1.5996032,0.8053495,-2.207977,-1.2647407,-0.19843912,1.2683532,2.8817837,-0.14327373,-0.29958224,-0.26729214,0.031609654,0.0960688,0.11407767,-0.020261966,-0.24775827,-0.2980307,0.023614965,0.36217207,0.47598678,0.095849596,0.016347088,0.049644504
51735591,-1.6067288,0.795421,-2.2187295,-1.2762624,-0.21389727,1.2523375,2.869169,0.050821055,-0.055459335,0.00628867,0.25749612,0.25891167,0.17014875,0.036761068,-0.14344606,-0.13710712,0.13402396,0.3606689,0.47911867,0.09586851,0.01593886,0.048405074
51934213,-1.6219181,0.80273664,-2.2371569,-1.2930678,-0.22995849,1.234237,2.8492582,-0.26370275,-0.24440359,-0.1130074,0.012885645,-0.13670619,0.054106776,-0.07341608,-0.1317319,0.010357676,0.15087119,0.3591958,0.47856006,0.097100504,0.01633644,0.04880722
52132834,-1.6075195,0.81074506,-2.2422035,-1.2955216,-0.2348391,1.221511,2.8375387,-0.47324687,-0.3542691,-0.1751892,-0.15850674,-0.41954696,0.007264819,-0.107471034,-0.06392032,0.17818736,0.20439452,0.35013908,0.48304573,0.102092996,0.017025966,0.047696147
52331455,-1.5913337,0.8128299,-2.232533,-1.2850872,-0.22525324,1.2285709,2.8450623,-0.24362497,-0.19659676,-0.0774763,-0.011931971,-0.16514578,0.093911655,-0.0035418794,-0.017368078,0.12598011,0.20254913,0.34713125,0.48459226,0.103755385,0.017236387,0.04728484
52525112,-1.5891398,0.80677855,-2.231787,-1.2854705,-0.22695582,1.2269675,2.8455524,0.059972122,0.01458329,0.07067574,0.21275954,0.18407643,0.11051926,0.021463092,-0.07385695,-0.04250377,0.11324409,0.34630767,0.48638508,0.10373341,0.01698163,0.04659225
52733696,-1.5993632,0.808327,-2.2400908,-1.2935209,-0.2342462,1.2201577,2.8378117,-0.1158845,-0.185846,-0.11877925,0.07743746,0.05315818,0.09763892,-0.019008894,-0.15384196,-0.12485716,0.089839116,0.34724596,0.4853704,0.10339929,0.01703777,0.04694663
52932285,-1.6009842,0.80769,-2.239519,-1.2931154,-0.23340628,1.2217889,2.839111,-0.121950835,-0.17486714,-0.06541905,0.15368973,0.07457602,0.09255549,-0.05849954,-0.19793753,-0.11767571,0.12371229,0.34826562,0.48473462,0.102873206,0.016992249,0.047134288
53130907,-1.5951856,0.80071974,-2.2324748,-1.2873894,-0.22855023,1.2277405,2.8468237,-0.10802596,-0.14543022,0.013893444,0.26752853,0.12673014,0.12696664,-0.06748972,-0.2183722,-0.08017473,0.20075639,0.34871402,0.48577547,0.1021804,0.016674183,0.04665605
53329527,-1.5930382,0.79464597,-2.2289302,-1.284903,-0.22622265,1.2314949,2.852331,-0.15186296,-0.18935221,-0.003934104,0.28210923,0.11378894,0.13972217,-0.08280287,-0.25082144,-0.08663741,0.23032764,0.34926373,0.4865307,0.10151074,0.016403887,0.046290994
53528148,-1.5916542,0.78203905,-2.2248182,-1.2832797,-0.22612782,1.2337722,2.85783,-0.11466733,-0.16256821,0.03268817,0.34856215,0.17614236,0.1512854,-0.088488854,-0.27685738,-0.10832458,0.24104965,0.35028973,0.4883278,0.10011893,0.015819704,0.04544385
53726932,-1.590165,0.7718918,-2.2264886,-1.2866274,-0.23183757,1.2279125,2.855518,-0.12885982,-0.17205417,0.01954299,0.32476825,0.15196946,0.20568055,-0.027315568,-0.20781949,-0.040153433,0.29724735,0.34852985,0.49152744,0.100241005,0.015437,0.044264697
53930358,-1.5988183,0.76588154,-2.2330928,-1.2943963,-0.24012889,1.2209022,2.8498209,-0.13244809,-0.17917103,-0.0114194825,0.2720627,0.12602179,0.13205563,-0.07811678,-0.24848048,-0.10676247,0.20646025,0.3493827,0.49210206,0.09940157,0.015161813,0.04395191
54133944,-1.5983322,0.75825846,-2.2329874,-1.2957075,-0.24283236,1.2188121,2.850101,-0.09352854,-0.12253471,0.03487304,0.2766369,0.12963133,0.14192554,-0.04570519,-0.18615842,-0.044990554,0.22252893,0.34898952,0.4939162,0.09901213,0.014842379,0.043239765
54332565,-1.594849,0.75047415,-2.2280521,-1.2923423,-0.24050064,1.2224278,2.8558235,-0.08488676,-0.13128005,0.016815882,0.27716792,0.15060228,0.12832025,-0.06079115,-0.21863921,-0.09622716,0.19104947,0.34947705,0.49516824,0.09818002,0.014492466,0.04268227
54531326,-1.5983005,0.74092764,-2.2280676,-1.294416,-0.2435383,1.2215838,2.8573458,-0.06383475,-0.120981075,0.021013815,0.292796,0.17894429,0.10933074,-0.08035398,-0.24889556,-0.13835146,0.16096424,0.35089245,0.4961755,0.09675626,0.014038855,0.04213696
54729811,-1.6012412,0.73526007,-2.2303407,-1.2977723,-0.24770756,1.2181966,2.8555236,-0.100875095,-0.15999301,-0.020361919,0.2529148,0.14196345,0.14525943,-0.043265007,-0.21336989,-0.10605978,0.19452175,0.35106274,0.49719203,0.096238755,0.013799844,0.04170661
54933395,-1.601062,0.7301585,-2.2300484,-1.2984368,-0.24921598,1.2172219,2.8560584,-0.10728015,-0.14640312,0.00027628988,0.24910225,0.11759855,0.13538583,-0.047722906,-0.19605525,-0.07072982,0.20350856,0.35096484,0.49828678,0.0958843,0.013591825,0.04127229
55132016,-1.5938873,0.7265497,-2.226303,-1.2951355,-0.2472321,1.2182938,2.8587968,-0.117356926,-0.16071528,-0.019933652,0.22929747,0.10645443,0.1875358,0.007872358,-0.1424768,-0.025381323,0.24911094,0.34912208,0.50025904,0.09646443,0.013497624,0.040656798
55330742,-1.5955321,0.72541535,-2.2221348,-1.2914186,-0.24236292,1.2253368,2.864937,-0.13801341,-0.17845859,-0.04833749,0.18312433,0.06986295,0.03074406,-0.13579252,-0.27541327,-0.1676417,0.08754425,0.35205197,0.49840096,0.09504062,0.013386518,0.04111988
55529259,-1.585731,0.72070277,-2.2132835,-1.2835525,-0.23588496,1.2315416,2.872386,-0.12127103,-0.11339201,0.04789389,0.23594518,0.05841265,0.11377786,-0.054198146,-0.14973968,0.016205238,0.22463298,0.3513786,0.49982914,0.09497197,0.013209742,0.04061056
55727880,-1.5577161,0.691399,-2.1907353,-1.2670261,-0.22625032,1.2423038,2.8944373,-0.23193814,-0.041148946,0.26026136,0.3129117,-0.13065962,0.15855297,-0.03963685,0.016719729,0.42379144,0.48867053,0.3472218,0.50909895,0.09425863,0.012049529,0.037370984
55931467,-1.5244361,0.6099533,-2.1630821,-1.2579365,-0.23656416,1.2386394,2.9238458,-0.43964252,0.007992577,0.4879644,0.33080792,-0.47405025,0.08775306,-0.1313937,0.14839596,0.88040286,0.7162347,0.33836138,0.53373504,0.08970561,0.008893877,0.029304214
56130157,-1.5160297,0.4839323,-2.1355515,-1.2689182,-0.28012198,1.2188404,2.9647822,-0.43900442,0.14607851,0.70099545,0.4079467,-0.59099877,0.19428241,-0.0045066476,0.4054258,1.308536,0.9738053,0.33273572,0.5695055,0.07453074,0.0044677383,0.018760411
56333687,-1.5035857,0.39498037,-2.1102386,-1.2797832,-0.3257566,1.1931711,3.001533,-0.45367455,0.09213977,0.6146488,0.34003863,-0.63775694,0.2692901,0.10040003,0.47814384,1.3628689,1.0041261,0.31914404,0.60458124,0.062758245,0.002145714,0.011370722
56532299,-1.5103319,0.3573902,-2.1052852,-1.2959436,-0.35796416,1.1728632,3.0113208,-0.28584695,0.100328796,0.5059583,0.3651877,-0.40469432,0.20759535,0.0639568,0.3004599,0.9903782,0.7610367,0.3132313,0.6203639,0.05632851,0.001403551,0.00867282
56730920,-1.501923,0.3456475,-2.0964465,-1.2940856,-0.36252457,1.1705434,3.0196335,-0.16844732,0.013543822,0.26848444,0.30733293,-0.15118882,0.21907505,0.08523512,0.14242461,0.5390892,0.5363527,0.30805463,0.62791073,0.055077396,0.00121572,0.0077415747
56929621,-1.487412,0.33807597,-2.0806937,-1.2836728,-0.35578895,1.1789043,3.0352356,-0.038713425,0.06435795,0.25593916,0.35953164,0.031707495,0.2367731,0.109461665,0.100604415,0.37390316,0.45929986,0.30491516,0.6326364,0.054161184,0.0011027484,0.0071844743
57133127,-1.4639511,0.32140625,-2.0583503,-1.2721514,-0.35610557,1.1802503,3.0560756,-0.22731812,-0.01746764,0.2662124,0.29857248,-0.22438778,0.35312793,0.21197504,0.28507054,0.73701173,0.71371573,0.29467726,0.64562374,0.052903537,0.00088109635,0.005914364
57331795,-1.4370458,0.2934976,-2.0344787,-1.2666776,-0.373459,1.1632931,3.07807,-0.45242566,-0.09224148,0.31655598,0.24408527,-0.55714595,0.28484714,0.13202578,0.32256585,1.0281618,0.83883667,0.27459112,0.6697729,0.05100463,0.0005781533,0.0040531377
57530371,-1.4235752,0.2643792,-2.012617,-1.2666103,-0.400818,1.1450713,3.1080418,-0.3893074,0.02254678,0.4519812,0.31342974,-0.5760607,0.27730393,0.15174109,0.39722508,1.1828204,0.88395095,0.26031467,0.691002,0.045724176,0.00031891634,0.0026403025
57728987,-1.4148958,0.24624719,-1.9983604,-1.2685671,-0.42066246,1.1297535,3.1250463,-0.35876966,-0.007418788,0.36746663,0.27003503,-0.5286165,0.19615752,0.08861673,0.28673142,0.9854596,0.7264712,0.24881333,0.7062758,0.042784125,0.0002089854,0.0019176677
57932580,-1.4104961,0.23852952,-1.9934111,-1.2725147,-0.43084398,1.1182477,3.1249185,-0.31647062,-0.1053098,0.13650872,0.11383054,-0.4041967,0.16771048,0.089134336,0.1890837,0.63225186,0.5064155,0.24033779,0.715179,0.042672865,0.00017843816,0.0016318581
58131200,-1.3948393,0.2368773,-1.9848199,-1.2620987,-0.4281833,1.1186193,3.130027,-0.285741,-0.22118376,-0.106128976,-0.0253838,-0.25239053,0.3682024,0.29859984,0.2851066,0.4585722,0.5178905,0.23384023,0.7206069,0.043868817,0.00017418872,0.001509737
58329822,-1.3960121,0.23620853,-1.9871552,-1.2651129,-0.43230322,1.1134305,3.1260338,0.008556262,-0.019001886,0.013989486,0.15282361,0.117124915,0.20548564,0.1434893,0.062146306,0.06138593,0.23227593,0.2319757,0.72206795,0.044301335,0.00017410812,0.0014807796
58528443,-1.3986498,0.23561873,-1.9886174,-1.2702032,-0.43439144,1.1099795,3.1191647,-0.057348065,-0.13892217,-0.15415183,0.017508982,0.09489291,0.29095963,0.23346427,0.112999916,0.009860158,0.24478382,0.23056519,0.7226765,0.045094095,0.0001800685,0.0014840637
58732031,-1.4159693,0.23131339,-1.9885527,-1.2768426,-0.44345573,1.1158376,3.1341295,-0.12415458,-0.3859241,-0.5593871,-0.27653453,0.17478636,0.027163967,-0.016606405,-0.26954818,-0.7114824,-0.26126796,0.24206571,0.7160447,0.040240396,0.00014699089,0.0015021254
58930651,-1.4140959,0.22048545,-1.9744259,-1.2714753,-0.4534705,1.1167195,-3.1173813,0.17453265,-0.26877266,-0.60168916,-0.19249572,0.62952536,0.26439148,0.23059389,-0.15998247,-0.95198876,-0.25776064,0.24502908,0.7176471,0.035927586,0.00010204493,0.0012943847
59129273,-1.4335814,0.20677184,-1.9665879,-1.2859069,-0.4756713,1.1124151,-3.091868,0.12122162,-0.32936734,-0.6797519,-0.2771069,0.58585215,0.16901359,0.14122745,-0.24806625,-1.0827714,-0.36518255,0.25340715,0.7153974,0.03003091,6.115585e-05,0.0011033547
59327894,-1.4516715,0.1988895,-1.9666328,-1.2979988,-0.4956644,1.1075081,-3.0754037,0.050905354,-0.31672233,-0.5912151,-0.2154104,0.46910965,0.11817235,0.07329771,-0.26356557,-0.95309466,-0.29026377,0.2619836,0.71106726,0.025906308,4.1192794e-05,0.0010016068
59531481,-1.4692861,0.19422215,-1.9729348,-1.308915,-0.5174098,1.0991575,-3.0637503,0.020204261,-0.29158175,-0.5184646,-0.16935061,0.39723435,0.04226566,-0.008390758,-0.30591518,-0.8968686,-0.28669435,0.27006778,0.70630586,0.022670997,2.896312e-05,0.0009263691
59730103,-1.4838583,0.19011122,-1.9771218,-1.3200341,-0.53293294,1.0927587,-3.0582771,0.019722935,-0.25875506,-0.44971344,-0.093642876,0.3847674,0.10569152,0.041509233,-0.2418306,-0.7670219,-0.164575,0.27571702,0.70273423,0.02064901,2.254991e-05,0.0008771684
59928731,-1.4976106,0.1867557,-1.9819033,-1.3306898,-0.5472206,1.0865515,-3.0547204,0.0070796274,-0.24765976,-0.41556352,-0.06219973,0.3579733,0.10061027,0.030542642,-0.23935819,-0.7186201,-0.13211164,0.28094232,0.6991965,0.019003743,1.8103461e-05,0.0008392534
60127346,-1.5065547,0.18385895,-1.9846002,-1.3381721,-0.55810934,1.0811356,-3.0514696,0.027619703,-0.20474075,-0.34919465,0.0048125945,0.36610612,0.119951315,0.042851232,-0.21585512,-0.6485661,-0.07614828,0.28390995,0.6973945,0.017880382,1.51197655e-05,0.00080001337
60330933,-1.5196303,0.18112358,-1.9882643,-1.3475199,-0.5705072,1.077828,-3.0463054,-0.026003253,-0.24155648,-0.3637399,0.0032103695,0.31020987,0.015505109,-0.07271785,-0.32823807,-0.7210798,-0.14716254,0.29031214,0.6925618,0.0163396,1.2092791e-05,0.0007743325
60534520,-1.5382915,0.17922702,-1.9954039,-1.3597289,-0.5841014,1.0760897,-3.0432572,-0.113351285,-0.3139623,-0.41218597,-0.018958658,0.22730343,-0.019118335,-0.12276378,-0.3812163,-0.7343301,-0.14499794,0.30059496,0.6839522,0.014663433,9.747067e-06,0.00077969447
60733142,-1.543708,0.17651689,-1.9964963,-1.3654575,-0.593752,1.0703263,-3.0396526,0.05844735,-0.12779215,-0.21202381,0.18193251,0.3877794,0.08263604,-0.023923915,-0.27473366,-0.5972829,-0.02018769,0.30145782,0.6838427,0.013959796,8.158793e-06,0.00073155476
60931770,-1.5569261,0.17511564,-2.0015302,-1.3741337,-0.60347986,1.0691926,-3.0375056,-0.09893414,-0.26973966,-0.33669877,0.059550904,0.22213459,0.014626406,-0.09760618,-0.34152442,-0.62953854,-0.062539786,0.30901444,0.6773568,0.012887112,6.9429652e-06,0.00073479087
61125419,-1.5623257,0.17348272,-2.0033088,-1.3787766,-0.6102338,1.0659956,-3.0357547,-0.019205935,-0.17531982,-0.22466347,0.17769718,0.29349154,0.11055498,-0.007866386,-0.24671073,-0.49846816,0.059289835,0.31099996,0.67590106,0.012379637,6.1563705e-06,0.0007131927
61333972,-1.5686176,0.1714227,-2.0055475,-1.3850582,-0.6197636,1.0605453,-3.0335686,0.058707587,-0.07537466,-0.104267985,0.28378034,0.3490644,0.020738233,-0.098575406,-0.32100493,-0.5242477,-0.0027385764,0.3123333,0.675173,0.011810507,5.2435516e-06,0.00067795324
61532758,-1.5804012,0.17055075,-2.0122185,-1.3940666,-0.6294737,1.0563705,-3.0357616,-0.08157432,-0.20085596,-0.22043623,0.1474491,0.18802337,-0.00068419427,-0.11552122,-0.3222308,-0.49824837,-0.010607783,0.31718144,0.670922,0.011212295,4.7139906e-06,0.0006795203
61731215,-1.5885413,0.16924389,-2.0176978,-1.4021019,-0.63955003,1.049047,-3.038398,0.021721944,-0.0842752,-0.0923724,0.26500982,0.2756942,0.044793244,-0.06930702,-0.26519793,-0.4119266,0.05045714,0.31822887,0.6702439,0.010864344,4.243335e-06,0.00065862405
61929838,-1.6003225,0.16901486,-2.0252733,-1.410749,-0.64773566,1.0455363,-3.0426807,-0.14839469,-0.24288836,-0.24424347,0.09448915,0.08785516,-0.0037314147,-0.11334659,-0.29594815,-0.42130828,0.010957837,0.32324663,0.6656478,0.010428069,4.001721e-06,0.0006734312
62128459,-1.6039253,0.1679345,-2.0265317,-1.4142767,-0.6530589,1.0427257,-3.0413654,0.043403238,-0.04314822,-0.04274854,0.2739155,0.26195562,0.00877545,-0.09371012,-0.2633862,-0.37604237,0.025108717,0.32419893,0.66500324,0.010138794,3.644618e-06,0.00065541005
62327240,-1.6071627,0.16743122,-2.0262456,-1.4156517,-0.65491253,1.0448354,-3.0379086,-0.033048205,-0.103402875,-0.09793184,0.17675018,0.15295242,-0.08864069,-0.17863297,-0.3235737,-0.41009784,-0.06699721,0.32761073,0.66195536,0.009773577,3.3818862e-06,0.0006568116
62525701,-1.607678,0.16704196,-2.0245066,-1.4150255,-0.6546845,1.0475883,-3.0341358,-0.03840883,-0.102033675,-0.094707474,0.16237105,0.13344625,-0.028291605,-0.1127973,-0.24724647,-0.3228895,-0.0046805963,0.32975182,0.66004676,0.009541574,3.2129471e-06,0.0006565701
62729289,-1.6053847,0.1666926,-2.0213866,-1.4126216,-0.6528371,1.0503426,-3.0301652,-0.0077201575,-0.055221766,-0.040305153,0.1806581,0.13466579,0.029851872,-0.044981115,-0.15738906,-0.20355481,0.06144645,0.3301968,0.6597027,0.009445907,3.1135773e-06,0.0006513679
62927932,-1.6090136,0.16689225,-2.0221217,-1.413654,-0.65289754,1.0535951,-3.0287437,-0.15432869,-0.19007191,-0.16989401,0.023615867,-0.033791713,-0.16949499,-0.23694383,-0.33283415,-0.35786405,-0.13260013,0.3342211,0.65591276,0.00919355,3.0456954e-06,0.0006694506
63126667,-1.6084746,0.1660615,-2.0221496,-1.4150546,-0.6563313,1.0495284,-3.0286708,0.19870654,0.17828238,0.21348059,0.3950277,0.30231833,0.15427566,0.08644797,0.002216354,0.0141137615,0.20934352,0.33185184,0.6583007,0.009200933,2.9004354e-06,0.00064360996
63330122,-1.6139035,0.16605918,-2.0267558,-1.4197978,-0.66086495,1.0459461,-3.0326908,-0.082138464,-0.09229258,-0.04880327,0.1202481,0.008186042,-0.034272786,-0.10043592,-0.17487687,-0.14072105,0.030890748,0.33294135,0.6572804,0.009127609,2.8758625e-06,0.00064778316
63533706,-1.619887,0.16658317,-2.0318174,-1.4240079,-0.66348714,1.0443451,-3.0374367,-0.28095832,-0.27692956,-0.22866654,-0.09842851,-0.21968445,-0.2044373,-0.25947675,-0.31184298,-0.25361645,-0.13551997,0.33526805,0.65498734,0.009073276,2.9571559e-06,0.000668326
63732328,-1.6194464,0.16661386,-2.0310802,-1.4232606,-0.6625943,1.0455865,-3.0364974,-0.07079223,-0.06716396,-0.026538715,0.08164346,-0.020062856,-0.03137641,-0.07722852,-0.12076229,-0.07127455,0.026394106,0.335725,0.6545536,0.009047762,2.953657e-06,0.0006707392
63931059,-1.6163486,0.16662289,-2.0274942,-1.4197779,-0.6590197,1.0497558,-3.0325422,-0.02348636,-0.015093371,0.026067443,0.11799437,0.01594378,-0.05840099,-0.09922497,-0.1339849,-0.07763241,-0.0009280555,0.33634803,0.6539706,0.009005246,2.9381833e-06,0.0006731274
64129571,-1.6125875,0.16687992,-2.0232203,-1.41512,-0.6536008,1.0557535,-3.028031,-0.16246232,-0.15407959,-0.1154052,-0.03090445,-0.12670742,-0.17342465,-0.21118417,-0.24284667,-0.18920799,-0.11955651,0.33753985,0.6528004,0.008973203,2.974725e-06,0.000683472
64333158,-1.607624,0.1652708,-2.0144992,-1.4122223,-0.6467776,1.0631067,-3.022502,-0.07522012,-0.036158502,0.03679349,0.1089983,-0.06658174,0.0018585995,-0.041929714,-0.055270262,0.07626991,0.09797394,0.33729124,0.65305424,0.008971169,2.956591e-06,0.00068045635
64531780,-1.6009754,0.16380529,-2.0055642,-1.4062979,-0.64347374,1.0690715,-3.010735,-0.06061414,0.078177266,0.26782814,0.3167171,-0.13206506,0.048500866,-0.021521837,0.017826304,0.40833554,0.28992027,0.33746174,0.6531692,0.008713877,2.6316343e-06,0.00065245095
64730423,-1.5755146,0.15383899,-1.9771141,-1.3947892,-0.6526952,1.0623721,-2.969235,-0.38317114,0.006682314,0.4710633,0.40378678,-0.68766534,0.104177,-0.0066598654,0.18849176,1.2147828,0.68303496,0.32271817,0.66886455,0.007974248,1.2967621e-06,0.00044159486
64929023,-1.5304186,0.13670374,-1.9294213,-1.3763367,-0.6715799,1.0410914,-2.9014413,-0.6043243,-0.05273603,0.58121234,0.43278143,-1.0973825,0.05012262,-0.06979418,0.23092479,1.6962047,0.8315507,0.29066426,0.7020258,0.0071063135,3.5011394e-07,0.00020343106
65127644,-1.4909813,0.12230808,-1.886835,-1.3587787,-0.6861982,1.0222261,-2.8422413,-0.6071218,-0.0499248,0.5771645,0.42153886,-1.1769959,-0.08974069,-0.179578,0.13260126,1.669641,0.6731498,0.2619198,0.73151314,0.006470241,9.988078e-08,9.666092e-05
65326270,-1.4641552,0.11418789,-1.8527347,-1.3424575,-0.6910842,1.0212045,-2.7938962,-0.39073148,0.022047423,0.48819903,0.40663067,-0.8463019,0.09135425,0.032612205,0.25494325,1.4436977,0.65573585,0.24920802,0.7449436,0.0057885484,3.779985e-08,5.9867118e-05
65524889,-1.4470816,0.109977275,-1.8299531,-1.3305452,-0.69139296,1.0255808,-2.762837,-0.25042802,0.035443317,0.3609266,0.32031164,-0.58357334,0.17949826,0.14251131,0.29073662,1.1441176,0.5703155,0.24350175,0.75108296,0.005369628,2.0735888e-08,4.5634537e-05
65728476,-1.4538298,0.109965004,-1.8368045,-1.3347409,-0.7051949,1.0195537,-2.7556427,-0.00735873,0.21074535,0.46881816,0.4798507,-0.2566043,0.08098537,0.0430184,0.14044952,0.8133036,0.39552352,0.24676001,0.7482771,0.0049206954,1.4297262e-08,4.2127645e-05
65932062,-1.4541639,0.10855084,-1.8353225,-1.3368526,-0.7114422,1.0154148,-2.751525,-0.14699656,0.025239326,0.23305044,0.2521833,-0.34458137,0.09164256,0.059283137,0.13131642,0.6734796,0.34399372,0.24472946,0.7504386,0.0047938223,1.14856835e-08,3.8205955e-05
66135650,-1.4536182,0.105411544,-1.8286628,-1.3418525,-0.7154883,1.0104748,-2.7522252,-0.29772884,-0.13935791,0.055690214,0.091224134,-0.47532842,0.067632854,0.033055305,0.09292245,0.59810007,0.30717397,0.23902692,0.7560911,0.0048481063,9.980959e-09,3.385175e-05
66334271,-1.4639837,0.10226906,-1.8346753,-1.3566437,-0.74072236,0.9870508,-2.7511077,-0.2264895,0.011271531,0.29648352,0.32602376,-0.501899,0.2617203,0.2175585,0.31859398,1.0724272,0.6085645,0.23361564,0.7617564,0.004601279,5.9999574e-09,2.672503e-05
66532893,-1.4635329,0.09928484,-1.8385963,-1.3614314,-0.76461506,0.9581587,-2.7391863,-0.37873805,-0.0648084,0.3036921,0.3125665,-0.76461726,0.12556589,0.08050609,0.22670746,1.2317405,0.56424105,0.22273128,0.7728352,0.004414973,3.067263e-09,1.857327e-05
66731517,-1.4606116,0.09388605,-1.8238398,-1.3661702,-0.77611244,0.9468546,-2.7243297,-0.32994336,-0.028817499,0.3273544,0.36194003,-0.70794106,0.07569921,0.031444907,0.1648606,1.1492693,0.5008101,0.21476658,0.780998,0.004221648,1.6767256e-09,1.3689348e-05
66920403,-1.4472097,0.09182678,-1.8091753,-1.356554,-0.7734401,0.94705504,-2.7070413,-0.29546165,-0.09803143,0.14312737,0.20860058,-0.5402038,0.16834807,0.13148713,0.20439273,0.86591846,0.4625355,0.20860806,0.78718746,0.0041931984,1.2246333e-09,1.1287294e-05
67133726,-1.4223739,0.0929887,-1.7928654,-1.3305967,-0.7541068,0.96400714,-2.683065,-0.14740454,-0.07954555,0.018794462,0.11945137,-0.21070495,0.15993011,0.12742788,0.12415677,0.36302745,0.29652727,0.20687218,0.7889021,0.00421484,1.1655164e-09,1.0799242e-05
67332345,-1.410086,0.09129063,-1.7723166,-1.320887,-0.7397478,0.98022014,-2.6726427,-0.20997736,-0.21960892,-0.20705846,-0.09047307,-0.16261512,0.28885555,0.25888765,0.21148956,0.19378906,0.33021462,0.205983,0.78973734,0.0042688996,1.2012857e-09,1.0714435e-05
67530967,-1.4046295,0.091060236,-1.766733,-1.3160675,-0.73570263,0.9840858,-2.667647,0.0011712015,0.007949904,0.03660582,0.14036946,0.022571132,0.28152883,0.2535717,0.21908712,0.25434816,0.33872473,0.20493542,0.7907525,0.0043017277,1.1929626e-09,1.0499073e-05
67729646,-1.3985044,0.09249046,-1.7695205,-1.3082691,-0.734401,0.98316985,-2.6618593,-0.04167606,-0.01235345,0.04270329,0.15129632,-0.048583597,0.18866092,0.15702993,0.13270605,0.24311239,0.27775794,0.20406158,0.7916116,0.0043165707,1.1663217e-09,1.0270788e-05
67928212,-1.3951252,0.09049296,-1.7565931,-1.3077614,-0.7291646,0.990419,-2.6575444,-0.07411967,-0.012063764,0.08289448,0.2063657,-0.119810954,0.1376664,0.09851861,0.08620381,0.30691218,0.27664334,0.20306532,0.7926101,0.0043146773,1.1082986e-09,9.942829e-06
68126832,-1.3946546,0.08873949,-1.7522198,-1.3096528,-0.7382884,0.98157865,-2.6470358,-0.14219636,0.036520056,0.25737184,0.3454682,-0.35985455,0.3434192,0.30433762,0.3631308,0.9701451,0.6201392,0.2002141,0.7956257,0.0041517727,7.4771705e-10,8.405833e-06
68330420,-1.3920685,0.08509248,-1.7449874,-1.3124071,-0.75367624,0.9610148,-2.630072,-0.35702544,-0.049565352,0.31199765,0.37384754,-0.7692725,0.10148001,0.062017918,0.19603479,1.2426745,0.5312576,0.19196777,0.80404305,0.0039832136,3.8100437e-10,5.979559e-06
68529243,-1.3930972,0.08346064,-1.7471541,-1.3136504,-0.7736735,0.9414383,-2.6067379,-0.19919826,0.13311899,0.51759875,0.56484544,-0.66944605,0.095347404,0.06526387,0.21977115,1.3684216,0.5405152,0.19043492,0.8060097,0.003550939,1.5806889e-10,4.4957173e-06
68732629,-1.378416,0.08122877,-1.7306228,-1.3030646,-0.7713896,0.9378979,-2.585589,-0.38625813,-0.16590893,0.0722819,0.0019657016,-0.74690676,0.12797964,0.14121127,0.27586496,1.0542489,0.3700322,0.18328658,0.8131764,0.0035335864,1.035856e-10,3.4933587e-06
68931250,-1.3846667,0.080864444,-1.7326652,-1.3085184,-0.78094673,0.93351185,-2.582597,-0.2605185,-0.22517714,-0.25763264,-0.7050699,-0.4709616,0.1970861,0.32169652,0.47659832,0.5924213,0.04079151,0.18630493,0.8103661,0.003325552,7.7650816e-11,3.3871513e-06
69129908,-1.4028555,0.080497704,-1.7423244,-1.3230293,-0.7993936,0.92831045,-2.5817523,0.022828698,-0.08771399,-0.3337652,-1.0998145,-0.064848304,0.25586742,0.4688295,0.6433048,0.22753698,-0.21785533,0.19663219,0.8004576,0.0029065628,5.0050956e-11,3.597725e-06
69328622,-1.4125024,0.07980472,-1.7415869,-1.3285073,-0.8100562,0.9322276,-2.566904,-0.008269846,-0.18910986,-0.5129011,-1.2847347,0.019290209,0.24888086,0.46107018,0.5976443,-0.08233273,-0.30605948,0.20900315,0.7885343,0.0024588394,2.7550727e-11,3.7766881e-06
69532082,-1.4348568,0.077911764,-1.7491745,-1.3513514,-0.8322214,0.92044824,-2.5803385,-0.060766757,-0.19381589,-0.40468365,-0.81121075,0.015072048,0.20309544,0.31403416,0.36306226,-0.14101487,-0.12866849,0.21526866,0.782442,0.0022854574,2.189275e-11,3.9354704e-06
69725738,-1.4382228,0.07771459,-1.7527343,-1.3554331,-0.83702886,0.9145818,-2.5846002,-0.18433133,-0.16261455,-0.12079623,-0.026527911,-0.19667062,0.31831157,0.29537964,0.27550137,0.3644302,0.3857299,0.21376933,0.7839152,0.0023116558,2.1759266e-11,3.825613e-06
69924359,-1.4040362,0.073957816,-1.7175486,-1.3298995,-0.8254337,0.90822107,-2.5407913,-0.4805084,-0.22747031,0.12967078,0.56858224,-0.75096864,0.4193145,0.30258274,0.30124342,1.2716779,0.9060569,0.19661547,0.8009852,0.0023968394,1.07410565e-11,2.3700545e-06
70133030,-1.4030863,0.06761246,-1.7037846,-1.3386964,-0.862574,0.8540836,-2.4975202,-0.41380095,-0.001399871,0.54209715,1.0707874,-0.9360655,0.41738796,0.28804326,0.35231948,1.9362217,1.1115612,0.18115328,0.81669736,0.0021482827,1.5702515e-12,1.0885254e-06
70331534,-1.4041889,0.063454084,-1.7030357,-1.3450361,-0.8970122,0.80243754,-2.455163,-0.3978127,0.026565678,0.57256955,1.1095483,-0.99962604,0.30288935,0.19904447,0.28343344,1.9716663,0.96774125,0.16950016,0.82860804,0.0018911782,2.0399417e-13,5.2376544e-07
70530178,-1.4088397,0.058720443,-1.6877341,-1.3574042,-0.92502415,0.76508784,-2.4359198,-0.37385815,-0.062283754,0.34446457,0.8466571,-0.8360867,0.32905316,0.24872184,0.29137278,1.5751817,0.8267292,0.15966299,0.83852315,0.0018135626,5.813296e-14,3.135255e-07
70728777,-1.417133,0.057980314,-1.6945555,-1.3673195,-0.93911177,0.74824864,-2.4406097,-0.148711,-0.045781914,0.11450807,0.5229794,-0.26129246,0.344885,0.2731583,0.22284997,0.6307539,0.6026082,0.1561598,0.8420076,0.0018322946,4.5903026e-14,2.724936e-07
70927451,-1.4155829,0.057615846,-1.6929916,-1.3662658,-0.9390569,0.74635965,-2.4396367,-0.1348982,-0.23485196,-0.3100605,-0.002860263,0.12173215,0.43194532,0.35769296,0.21231711,-0.2668475,0.47574437,0.15491146,0.84322083,0.0018674377,4.8141358e-14,2.6603945e-07
71131037,-1.418977,0.056608964,-1.6917737,-1.3691795,-0.94645995,0.7385236,-2.4295886,-0.10510259,-0.3438004,-0.57820934,-0.331761,0.41036618,0.3133052,0.23374712,0.020379901,-1.0685434,0.21623719,0.15815802,0.84009576,0.0017460133,3.117313e-14,2.6009502e-07
71329611,-1.4142387,0.055706464,-1.6822608,-1.3637738,-0.94521976,0.74066895,-2.4114087,-0.12804228,-0.41158396,-0.698834,-0.4800061,0.47099674,0.33091074,0.24993968,0.015829742,-1.2850637,0.191055,0.16206378,0.8363167,0.0016192594,1.9558724e-14,2.5667006e-07
71528231,-1.4055308,0.05480035,-1.6730243,-1.3564006,-0.9403373,0.7391529,-2.400146,0.12763186,-0.10983337,-0.34606555,-0.11769482,0.63946337,0.59583884,0.5181261,0.30917472,-0.8003087,0.5019152,0.15879703,0.8395486,0.0016541987,1.7808558e-14,2.3286407e-07
71726868,-1.4028016,0.05584001,-1.6826801,-1.3511546,-0.9374188,0.73822695,-2.3946595,-0.057231754,-0.2333985,-0.40040207,-0.15563987,0.33966023,0.25024706,0.17659718,0.00045657158,-0.8374306,0.21397686,0.15942162,0.8389553,0.0016228759,1.5156543e-14,2.281253e-07
71930491,-1.396343,0.05572131,-1.6755954,-1.3442277,-0.9308303,0.7461229,-2.3872118,-0.26345155,-0.41599655,-0.5570845,-0.31057826,0.0875359,0.43502653,0.36406362,0.202039,-0.532107,0.4190296,0.16088782,0.837509,0.0016030776,1.4873356e-14,2.3427093e-07
72134028,-1.395716,0.05549868,-1.6733589,-1.3431015,-0.9309062,0.74707365,-2.3821917,-0.17321196,-0.34113097,-0.49875396,-0.24829933,0.21009731,0.21668214,0.14239222,-0.029879928,-0.8360095,0.1907754,0.1628673,0.83557695,0.0015555767,1.2710328e-14,2.3682468e-07
72332648,-1.3959556,0.05374251,-1.6589099,-1.3461176,-0.9340587,0.7459463,-2.3786051,-0.07868336,-0.2279764,-0.3637617,-0.09755517,0.2714695,0.34746653,0.27240264,0.10774267,-0.6185374,0.34309393,0.16280854,0.83564216,0.001549122,1.18854215e-14,2.327866e-07
72531276,-1.4029756,0.0535927,-1.6658978,-1.3533305,-0.9417301,0.73734826,-2.3857055,-0.1185247,-0.20818326,-0.27599114,0.015206188,0.11880866,0.33435285,0.26273656,0.12864876,-0.32844162,0.38578606,0.16231368,0.836128,0.0015581409,1.1909929e-14,2.2982698e-07
72734859,-1.4025717,0.055056475,-1.6798977,-1.3501997,-0.93928105,0.73674166,-2.38761,-0.24700917,-0.28179276,-0.28641236,0.033865377,-0.11217618,0.14479423,0.075163245,-0.03225696,-0.24129498,0.24961793,0.1623968,0.836044,0.0015590749,1.1989996e-14,2.3030755e-07
72933480,-1.3908716,0.05500822,-1.6685156,-1.3385983,-0.9278534,0.7476803,-2.3769152,-0.27039593,-0.30685806,-0.31253493,0.015503719,-0.12962356,0.2595166,0.18772745,0.077441454,-0.1407435,0.36654818,0.16200446,0.8364254,0.0015699872,1.2326324e-14,2.2910167e-07
73132103,-1.3796147,0.05334207,-1.6430274,-1.3305961,-0.9191459,0.7575908,-2.3643167,-0.10728385,-0.13989937,-0.1400541,0.2006528,0.029593844,0.422513,0.3483566,0.23733413,0.034651518,0.5379952,0.16042086,0.8379816,0.0015973878,1.26448035e-14,2.2152933e-07
73330737,-1.3712151,0.053294238,-1.634857,-1.3223505,-0.9108236,0.7653456,-2.3565652,-0.28446224,-0.27483207,-0.22872621,0.11251566,-0.23166503,0.11567998,0.047734857,-0.03710735,-0.04584229,0.2632115,0.15990202,0.8384905,0.0016073445,1.283746e-14,2.1935841e-07
73529345,-1.3713207,0.053003717,-1.6351264,-1.3233954,-0.9132387,0.75927514,-2.3569107,-0.24530178,-0.18485914,-0.081058696,0.28078046,-0.2892965,0.34044766,0.27581692,0.21726358,0.43899667,0.5346111,0.15730178,0.8410586,0.0016394467,1.2281098e-14,2.0381948e-07
73732936,-1.3738781,0.052672673,-1.6367705,-1.3267442,-0.91870946,0.75106275,-2.3569062,-0.0052598417,0.059291653,0.165438,0.509755,-0.061562747,0.35263658,0.29247093,0.24141777,0.48374426,0.54264534,0.15558095,0.84277385,0.001645041,1.0603796e-14,1.8909839e-07
73931555,-1.3813026,0.052636314,-1.6441357,-1.3341192,-0.92607397,0.74394375,-2.364648,-0.2419076,-0.27029145,-0.27145314,0.018107861,-0.12271164,0.11636078,0.052979708,-0.041315675,-0.2203995,0.21555436,0.1557463,0.8426082,0.0016452941,1.0710021e-14,1.8999845e-07
74130179,-1.3835865,0.05242291,-1.6449716,-1.3358387,-0.92854965,0.74337375,-2.3634937,-0.20914415,-0.35191587,-0.48256218,-0.24043156,0.13185795,0.2719996,0.19983733,0.04672396,-0.65359545,0.26844287,0.15794972,0.84045076,0.0015993612,9.505256e-15,1.9461345e-07
74333764,-1.3786563,0.051496003,-1.6393263,-1.3325499,-0.9283157,0.7356412,-2.355049,0.18137337,-0.015260413,-0.2078338,0.005133286,0.6251844,0.4016593,0.3268363,0.14800656,-0.7995539,0.3474006,0.15379274,0.8445753,0.00163192,7.8781425e-15,1.6885653e-07
74532386,-1.3890574,0.052719057,-1.6628376,-1.3392347,-0.9383279,0.72489995,-2.3609598,-0.17419538,-0.35412353,-0.52661574,-0.29804945,0.24253032,0.16191518,0.08505249,-0.08822918,-0.96679664,0.13002837,0.15739994,0.8410617,0.0015382675,5.679241e-15,1.7157542e-07
74731008,-1.3852701,0.052176744,-1.658388,-1.336124,-0.93710244,0.7226662,-2.3544455,0.045831174,-0.115710564,-0.2697484,-0.05125729,0.42278904,0.32926232,0.25757152,0.09864211,-0.69895923,0.30753523,0.15592255,0.84253776,0.0015395732,4.901891e-15,1.6019656e-07
74929631,-1.3882146,0.051991705,-1.6588756,-1.3380611,-0.9403328,0.72264826,-2.3511324,-0.21756968,-0.37833142,-0.53336173,-0.33383372,0.15495165,0.16565663,0.09736425,-0.056501627,-0.8506297,0.13851613,0.15965745,0.83888245,0.0014600536,3.8117927e-15,1.6587263e-07
75133218,-1.3942536,0.050157707,-1.6464951,-1.3464801,-0.94941777,0.7188994,-2.347481,-0.14938241,-0.29562485,-0.43587542,-0.24224418,0.19183734,0.09816706,0.033736706,-0.10914922,-0.8380861,0.079133034,0.16241091,0.83619165,0.00139725,2.9800675e-15,1.6802873e-07
75331839,-1.3933192,0.04995018,-1.6446035,-1.3455706,-0.94962776,0.7181807,-2.3435712,-0.026181716,-0.13584514,-0.23607375,-0.037677553,0.2408774,0.10945755,0.050481796,-0.07034552,-0.63007116,0.11763281,0.16281803,0.83580494,0.001376868,2.5994772e-15,1.6487365e-07
75530665,-1.387891,0.04984563,-1.6393864,-1.3404552,-0.94468075,0.7217136,-2.3385854,-0.068126835,-0.10834441,-0.12767646,0.12435783,0.068127066,0.26115572,0.2033751,0.11291754,-0.12694001,0.33788335,0.16183965,0.83676964,0.0013905936,2.6231221e-15,1.6116944e-07
75734049,-1.389919,0.051511772,-1.6579072,-1.3392471,-0.9440801,0.7195512,-2.34499,-0.25825685,-0.25051165,-0.21557695,0.05645205,-0.21615696,-0.08678043,-0.14022231,-0.20535004,-0.21996629,0.029939532,0.16224171,0.83637124,0.0013868458,2.6516258e-15,1.631416e-07
75932673,-1.3874874,0.051446717,-1.6557393,-1.3370569,-0.9421121,0.7204724,-2.3430161,-0.172661,-0.1580674,-0.11581624,0.15438296,-0.144787,0.12716079,0.07520437,0.0149412155,0.03353715,0.24768698,0.16148163,0.8371215,0.0013967382,2.6596356e-15,1.6024904e-07
76131294,-1.3875616,0.051411763,-1.6557647,-1.3371859,-0.942426,0.71989447,-2.3428326,-0.08540163,-0.08906203,-0.06726549,0.19730315,-0.020716555,0.055534244,0.00134933,-0.06892109,-0.13676548,0.1619637,0.16135919,0.83724433,0.0013963183,2.612645e-15,1.591837e-07
76330069,-1.3816756,0.051302634,-1.6501863,-1.3317043,-0.93737125,0.72322744,-2.3375263,-0.10377555,-0.104841016,-0.07880154,0.20044428,-0.040841907,0.24639869,0.18957973,0.11733091,0.058873177,0.36071444,0.16015056,0.8384372,0.0014121253,2.6196546e-15,1.5456315e-07
76528538,-1.378647,0.051389653,-1.6466134,-1.3281251,-0.93367696,0.7290546,-2.3333383,-0.2389527,-0.26089305,-0.25941175,0.0011201724,-0.13671802,-0.17829728,-0.23515177,-0.31579816,-0.47081232,-0.085109115,0.16185184,0.836761,0.0013870613,2.5223648e-15,1.5983046e-07
76732136,-1.3746321,0.051343396,-1.6425039,-1.324117,-0.929905,0.73266417,-2.32906,-0.112496376,-0.15465073,-0.17700188,0.06530011,0.027398836,0.12288618,0.066173196,-0.022484064,-0.27042556,0.19515967,0.1618777,0.83673686,0.0013852653,2.477273e-15,1.5920074e-07
76925780,-1.3751377,0.051278833,-1.6427687,-1.324664,-0.9308176,0.73143053,-2.3287377,-0.03456434,-0.08147073,-0.110845745,0.112594746,0.11106242,0.07710457,0.023360133,-0.06345749,-0.33067572,0.13855565,0.16187975,0.83673954,0.0013806281,2.3740273e-15,1.577638e-07
77134462,-1.3751178,0.051218584,-1.6427834,-1.3247969,-0.93113744,0.7304102,-2.328597,-0.020832375,-0.0639379,-0.09348369,0.08594501,0.10705164,0.15712106,0.11307752,0.039839506,-0.20102572,0.20290887,0.16146071,0.83715445,0.0013847279,2.3480202e-15,1.5574184e-07
77332957,-1.375459,0.05117751,-1.6428782,-1.3251188,-0.9317044,0.72980756,-2.328273,-0.04429982,-0.10264299,-0.15452628,-0.03421352,0.10188261,0.09402168,0.059304237,-0.008594632,-0.31109798,0.1055516,0.1616264,0.83699405,0.0013793384,2.2746966e-15,1.5526932e-07
