timestamp,voltage_v,voltage_filtered_v,current_a,current_filtered_a,average_current_a,discharged_mah,remaining,scale,temperature,cell_count,voltage_cell_v[0],voltage_cell_v[1],voltage_cell_v[2],voltage_cell_v[3],voltage_cell_v[4],voltage_cell_v[5],voltage_cell_v[6],voltage_cell_v[7],voltage_cell_v[8],voltage_cell_v[9],max_cell_voltage_delta,capacity,cycle_count,run_time_to_empty,average_time_to_empty,serial_number,state_of_health,max_error,connected,source,priority,id,is_powering_off,warning
43201716,12.526384,12.56371,4.9517,0.26316208,0.0,0.3069004,1.0,1.0,nan,0,0.0,0.0,0.0,0.0,0.0,0.0,0.0,0.0,0.0,0.0,0.0,0,0,0,0,0,0,0,1,0,0,1,0,0
43211808,12.147239,12.559587,6.9733996,0.39473537,0.0,0.3264492,1.0,1.0,nan,0,0.0,0.0,0.0,0.0,0.0,0.0,0.0,0.0,0.0,0.0,0.0,0,0,0,0,0,0,0,1,0,0,1,0,0
43501715,12.584714,12.522318,2.7835,2.1158984,0.0,0.69073355,1.0,1.0,nan,0,0.0,0.0,0.0,0.0,0.0,0.0,0.0,0.0,0.0,0.0,0.0,0,0,0,0,0,0,0,1,0,0,1,0,0
43801718,12.526384,12.5042715,5.274,2.7277317,0.0,0.9665146,1.0,1.0,nan,0,0.0,0.0,0.0,0.0,0.0,0.0,0.0,0.0,0.0,0.0,0.0,0,0,0,0,0,0,0,1,0,0,1,0,0
44101715,12.468055,12.480489,4.688,3.6309156,0.0,1.3636264,1.0,1.0,nan,0,0.0,0.0,0.0,0.0,0.0,0.0,0.0,0.0,0.0,0.0,0.0,0,0,0,0,0,0,0,1,0,0,1,0,0
44401720,12.453472,12.461885,4.6294,4.016567,0.0,1.7376627,1.0,1.0,nan,0,0.0,0.0,0.0,0.0,0.0,0.0,0.0,0.0,0.0,0.0,0.0,0,0,0,0,0,0,0,1,0,0,1,0,0
44701715,12.540967,12.452652,4.4242997,4.1573663,0.0,2.0993779,1.0,1.0,nan,0,0.0,0.0,0.0,0.0,0.0,0.0,0.0,0.0,0.0,0.0,0.0,0,0,0,0,0,0,0,1,0,0,1,0,0
45001747,12.584714,12.443897,4.395,4.238239,0.0,2.4609532,1.0,1.0,nan,0,0.0,0.0,0.0,0.0,0.0,0.0,0.0,0.0,0.0,0.0,0.0,0,0,0,0,0,0,0,1,0,0,1,0,0
45301715,12.55555,12.436375,4.4242997,4.2634172,0.0,2.818809,1.0,1.0,nan,0,0.0,0.0,0.0,0.0,0.0,0.0,0.0,0.0,0.0,0.0,0.0,0,0,0,0,0,0,0,1,0,0,1,0,0
45601715,12.526384,12.431922,4.4536,4.3082886,0.0,3.1818993,1.0,1.0,nan,0,0.0,0.0,0.0,0.0,0.0,0.0,0.0,0.0,0.0,0.0,0.0,0,0,0,0,0,0,0,1,0,0,1,0,0
45901788,12.424306,12.406415,12.774799,5.6700926,0.0,3.752973,1.0,1.0,nan,0,0.0,0.0,0.0,0.0,0.0,0.0,0.0,0.0,0.0,0.0,0.0,0,0,0,0,0,0,0,1,0,0,1,0,0
46201715,12.453472,12.37593,8.8193,7.391562,0.0,4.5554395,1.0,1.0,nan,0,0.0,0.0,0.0,0.0,0.0,0.0,0.0,0.0,0.0,0.0,0.0,0,0,0,0,0,0,0,1,0,0,1,0,0
46501715,12.395142,12.356169,9.844799,8.156302,0.0,5.308043,1.0,1.0,nan,0,0.0,0.0,0.0,0.0,0.0,0.0,0.0,0.0,0.0,0.0,0.0,0,0,0,0,0,0,0,1,0,0,1,0,0
46801715,12.336812,12.325576,10.6945,9.384356,0.0,6.2103395,1.0,1.0,nan,0,0.0,0.0,0.0,0.0,0.0,0.0,0.0,0.0,0.0,0.0,0.0,0,0,0,0,0,0,0,1,0,0,1,0,0
47101749,12.395142,12.307453,10.928901,9.807808,0.0,7.070941,1.0,1.0,nan,0,0.0,0.0,0.0,0.0,0.0,0.0,0.0,0.0,0.0,0.0,0.0,0,0,0,0,0,0,0,1,0,0,1,0,0
47401767,12.190987,12.260766,15.9978,11.746462,0.0,8.227772,1.0,1.0,nan,0,0.0,0.0,0.0,0.0,0.0,0.0,0.0,0.0,0.0,0.0,0.0,0,0,0,0,0,0,0,1,0,0,1,0,0
47701716,12.161821,12.204138,16.5838,14.108007,0.0,9.651681,1.0,1.0,nan,0,0.0,0.0,0.0,0.0,0.0,0.0,0.0,0.0,0.0,0.0,0.0,0,0,0,0,0,0,0,1,0,0,1,0,0
48001735,11.884753,12.132504,23.44,17.036354,0.0,11.346972,1.0,1.0,nan,0,0.0,0.0,0.0,0.0,0.0,0.0,0.0,0.0,0.0,0.0,0.0,0,0,0,0,0,0,0,1,0,0,1,0,0
48301839,11.9139185,12.053801,24.963598,20.254608,0.0,13.362449,1.0,1.0,nan,0,0.0,0.0,0.0,0.0,0.0,0.0,0.0,0.0,0.0,0.0,0.0,0,0,0,0,0,0,0,1,0,0,1,0,0
48601740,11.899337,11.985999,25.5789,22.35377,0.0,15.44258,1.0,1.0,nan,0,0.0,0.0,0.0,0.0,0.0,0.0,0.0,0.0,0.0,0.0,0.0,0,0,0,0,0,0,0,1,0,0,1,0,0
48901815,11.782676,11.907789,29.007,24.897804,0.0,17.765121,1.0,1.0,nan,0,0.0,0.0,0.0,0.0,0.0,0.0,0.0,0.0,0.0,0.0,0.0,0,0,0,0,0,0,0,1,0,0,1,0,0
49201820,11.709763,11.841376,28.8312,26.754595,0.0,20.186731,1.0,1.0,nan,0,0.0,0.0,0.0,0.0,0.0,0.0,0.0,0.0,0.0,0.0,0.0,0,0,0,0,0,0,0,1,0,0,1,0,0
49501717,11.826424,11.800463,28.1866,27.388554,0.0,22.539251,1.0,1.0,nan,0,0.0,0.0,0.0,0.0,0.0,0.0,0.0,0.0,0.0,0.0,0.0,0,0,0,0,0,0,0,1,0,0,1,0,0
49801717,11.768093,11.764058,28.4503,27.640438,0.0,24.867754,1.0,1.0,nan,0,0.0,0.0,0.0,0.0,0.0,0.0,0.0,0.0,0.0,0.0,0.0,0,0,0,0,0,0,0,1,0,0,1,0,0
50101727,11.709763,11.7366295,28.743301,27.95956,0.0,27.227116,1.0,1.0,nan,0,0.0,0.0,0.0,0.0,0.0,0.0,0.0,0.0,0.0,0.0,0.0,0,0,0,0,0,0,0,1,0,0,1,0,0
50401715,11.782676,11.717539,28.479599,28.254654,0.0,29.610956,1.0,1.0,nan,0,0.0,0.0,0.0,0.0,0.0,0.0,0.0,0.0,0.0,0.0,0.0,0,0,0,0,0,0,0,1,0,0,1,0,0
50701715,11.724346,11.689795,28.772598,28.437843,0.0,32.00007,1.0,1.0,nan,0,0.0,0.0,0.0,0.0,0.0,0.0,0.0,0.0,0.0,0.0,0.0,0,0,0,0,0,0,0,1,0,0,1,0,0
51001760,11.724346,11.676065,28.8312,28.49842,0.0,34.380547,1.0,1.0,nan,0,0.0,0.0,0.0,0.0,0.0,0.0,0.0,0.0,0.0,0.0,0.0,0,0,0,0,0,0,0,1,0,0,1,0,0
51301717,11.709763,11.666235,28.714,28.537855,0.0,36.761364,1.0,1.0,nan,0,0.0,0.0,0.0,0.0,0.0,0.0,0.0,0.0,0.0,0.0,0.0,0,0,0,0,0,0,0,1,0,0,1,0,0
51601717,11.768093,11.661052,28.948399,28.693977,0.0,39.169518,1.0,1.0,nan,0,0.0,0.0,0.0,0.0,0.0,0.0,0.0,0.0,0.0,0.0,0.0,0,0,0,0,0,0,0,1,0,0,1,0,0
51901830,11.899337,11.654945,23.6158,28.034504,0.0,41.461426,1.0,1.0,nan,0,0.0,0.0,0.0,0.0,0.0,0.0,0.0,0.0,0.0,0.0,0.0,0,0,0,0,0,0,0,1,0,0,1,0,0
52201841,11.972249,11.688083,19.338,25.09836,0.0,43.27127,1.0,1.0,nan,0,0.0,0.0,0.0,0.0,0.0,0.0,0.0,0.0,0.0,0.0,0.0,0,0,0,0,0,0,0,1,0,0,1,0,0
52501795,11.811841,11.711353,28.3038,24.244196,0.0,45.160492,1.0,1.0,nan,0,0.0,0.0,0.0,0.0,0.0,0.0,0.0,0.0,0.0,0.0,0.0,0,0,0,0,0,0,0,1,0,0,1,0,0
52801730,11.63685,11.671405,30.8529,26.762356,0.0,47.6399,1.0,1.0,nan,0,0.0,0.0,0.0,0.0,0.0,0.0,0.0,0.0,0.0,0.0,0.0,0,0,0,0,0,0,0,1,0,0,1,0,0
53101716,11.811841,11.669899,26.0184,26.927114,0.0,49.916897,1.0,1.0,nan,0,0.0,0.0,0.0,0.0,0.0,0.0,0.0,0.0,0.0,0.0,0.0,0,0,0,0,0,0,0,1,0,0,1,0,0
53401745,11.782676,11.663127,26.8388,26.677776,0.0,52.112946,1.0,1.0,nan,0,0.0,0.0,0.0,0.0,0.0,0.0,0.0,0.0,0.0,0.0,0.0,0,0,0,0,0,0,0,1,0,0,1,0,0
53701872,11.753511,11.657873,26.7802,26.625801,0.0,54.3267,1.0,1.0,nan,0,0.0,0.0,0.0,0.0,0.0,0.0,0.0,0.0,0.0,0.0,0.0,0,0,0,0,0,0,0,1,0,0,1,0,0
54001715,11.709763,11.652271,27.3955,26.85601,0.0,56.585045,1.0,1.0,nan,0,0.0,0.0,0.0,0.0,0.0,0.0,0.0,0.0,0.0,0.0,0.0,0,0,0,0,0,0,0,1,0,0,1,0,0
54301844,11.709763,11.651567,28.2745,27.29042,0.0,58.901695,1.0,1.0,nan,0,0.0,0.0,0.0,0.0,0.0,0.0,0.0,0.0,0.0,0.0,0.0,0,0,0,0,0,0,0,1,0,0,1,0,0
54601726,11.753511,11.63459,28.215899,27.675516,0.0,61.246975,1.0,1.0,nan,0,0.0,0.0,0.0,0.0,0.0,0.0,0.0,0.0,0.0,0.0,0.0,0,0,0,0,0,0,0,1,0,0,1,0,0
54901737,11.738929,11.622578,27.3955,27.70176,0.0,63.560196,1.0,1.0,nan,0,0.0,0.0,0.0,0.0,0.0,0.0,0.0,0.0,0.0,0.0,0.0,0,0,0,0,0,0,0,1,0,0,1,0,0
55201812,11.69518,11.624229,27.542,27.616028,0.0,65.85245,1.0,1.0,nan,0,0.0,0.0,0.0,0.0,0.0,0.0,0.0,0.0,0.0,0.0,0.0,0,0,0,0,0,0,0,1,0,0,1,0,0
55501715,11.724346,11.614376,27.9229,27.56996,0.0,68.14671,1.0,1.0,nan,0,0.0,0.0,0.0,0.0,0.0,0.0,0.0,0.0,0.0,0.0,0.0,0,0,0,0,0,0,0,1,0,0,1,0,0
55801718,11.768093,11.61185,26.8681,27.29406,0.0,70.39576,1.0,1.0,nan,0,0.0,0.0,0.0,0.0,0.0,0.0,0.0,0.0,0.0,0.0,0.0,0,0,0,0,0,0,0,1,0,0,1,0,0
56101848,11.738929,11.607555,27.3955,27.136698,0.0,72.63942,1.0,1.0,nan,0,0.0,0.0,0.0,0.0,0.0,0.0,0.0,0.0,0.0,0.0,0.0,0,0,0,0,0,0,0,1,0,0,1,0,0
56401721,11.607686,11.607874,29.9153,27.265133,0.0,74.915596,1.0,1.0,nan,0,0.0,0.0,0.0,0.0,0.0,0.0,0.0,0.0,0.0,0.0,0.0,0,0,0,0,0,0,0,1,0,0,1,0,0
56701834,11.593103,11.594305,30.6478,28.011547,0.0,77.31539,1.0,1.0,nan,0,0.0,0.0,0.0,0.0,0.0,0.0,0.0,0.0,0.0,0.0,0.0,0,0,0,0,0,0,0,1,0,0,1,0,0
57001715,11.680598,11.604235,26.4872,28.075926,0.0,79.68489,1.0,1.0,nan,0,0.0,0.0,0.0,0.0,0.0,0.0,0.0,0.0,0.0,0.0,0.0,0,0,0,0,0,0,0,1,0,0,1,0,0
57301717,11.69518,11.599305,28.215899,27.892668,0.0,81.98315,1.0,1.0,nan,0,0.0,0.0,0.0,0.0,0.0,0.0,0.0,0.0,0.0,0.0,0.0,0,0,0,0,0,0,0,1,0,0,1,0,0
57601715,11.563938,11.575992,30.2962,28.443811,0.0,84.401855,1.0,1.0,nan,0,0.0,0.0,0.0,0.0,0.0,0.0,0.0,0.0,0.0,0.0,0.0,0,0,0,0,0,0,0,1,0,0,1,0,0
57901717,11.680598,11.572309,27.249,28.627348,0.0,86.82521,1.0,1.0,nan,0,0.0,0.0,0.0,0.0,0.0,0.0,0.0,0.0,0.0,0.0,0.0,0,0,0,0,0,0,0,1,0,0,1,0,0
58201999,11.666016,11.571419,28.0987,27.942999,0.0,89.08707,1.0,1.0,nan,0,0.0,0.0,0.0,0.0,0.0,0.0,0.0,0.0,0.0,0.0,0.0,0,0,0,0,0,0,0,1,0,0,1,0,0
58501715,11.69518,11.584278,27.2197,27.726036,0.0,91.37658,1.0,1.0,nan,0,0.0,0.0,0.0,0.0,0.0,0.0,0.0,0.0,0.0,0.0,0.0,0,0,0,0,0,0,0,1,0,0,1,0,0
58801715,11.666016,11.558926,28.3331,28.571716,0.0,93.84584,1.0,1.0,nan,0,0.0,0.0,0.0,0.0,0.0,0.0,0.0,0.0,0.0,0.0,0.0,0,0,0,0,0,0,0,1,0,0,1,0,0
59101715,11.593103,11.546526,28.9191,28.694136,0.0,96.266365,1.0,1.0,nan,0,0.0,0.0,0.0,0.0,0.0,0.0,0.0,0.0,0.0,0.0,0.0,0,0,0,0,0,0,0,1,0,0,1,0,0
59401780,11.447278,11.48147,35.3358,31.977251,0.0,99.23591,1.0,1.0,nan,0,0.0,0.0,0.0,0.0,0.0,0.0,0.0,0.0,0.0,0.0,0.0,0,0,0,0,0,0,0,1,0,0,1,0,0
59701785,11.811841,11.501909,22.854,30.451445,0.0,101.67103,1.0,1.0,nan,0,0.0,0.0,0.0,0.0,0.0,0.0,0.0,0.0,0.0,0.0,0.0,0,0,0,0,0,0,0,1,0,0,1,0,0
60001768,11.40353,11.496917,36.7129,30.236874,0.0,104.11127,1.0,1.0,nan,0,0.0,0.0,0.0,0.0,0.0,0.0,0.0,0.0,0.0,0.0,0.0,0,0,0,0,0,0,0,1,0,0,1,0,0
60301715,11.330617,11.404338,39.027603,35.517044,0.0,107.5992,1.0,1.0,nan,0,0.0,0.0,0.0,0.0,0.0,0.0,0.0,0.0,0.0,0.0,0.0,0,0,0,0,0,0,0,1,0,0,1,0,0
60601715,11.63685,11.401617,28.128,34.20052,0.0,110.35819,1.0,1.0,nan,0,0.0,0.0,0.0,0.0,0.0,0.0,0.0,0.0,0.0,0.0,0.0,0,0,0,0,0,0,0,1,0,0,1,0,0
60901939,11.957666,11.478285,17.8437,28.868523,0.0,112.256386,1.0,1.0,nan,0,0.0,0.0,0.0,0.0,0.0,0.0,0.0,0.0,0.0,0.0,0.0,0,0,0,0,0,0,0,1,0,0,1,0,0
61201719,12.045161,11.600516,15.0016,22.641623,0.0,113.51672,1.0,1.0,nan,0,0.0,0.0,0.0,0.0,0.0,0.0,0.0,0.0,0.0,0.0,0.0,0,0,0,0,0,0,0,1,0,0,1,0,0
61501717,11.651433,11.626113,27.161098,22.28176,0.0,115.28697,1.0,1.0,nan,0,0.0,0.0,0.0,0.0,0.0,0.0,0.0,0.0,0.0,0.0,0.0,0,0,0,0,0,0,0,1,0,0,1,0,0
61801718,11.5493555,11.579318,30.1204,26.01014,0.0,117.83067,1.0,1.0,nan,0,0.0,0.0,0.0,0.0,0.0,0.0,0.0,0.0,0.0,0.0,0.0,0,0,0,0,0,0,0,1,0,0,1,0,0
62101762,11.52019,11.550372,30.765001,27.857094,0.0,120.340164,1.0,1.0,nan,0,0.0,0.0,0.0,0.0,0.0,0.0,0.0,0.0,0.0,0.0,0.0,0,0,0,0,0,0,0,1,0,0,1,0,0
62401808,11.899337,11.560444,20.9202,27.426752,0.0,122.62625,1.0,1.0,nan,0,0.0,0.0,0.0,0.0,0.0,0.0,0.0,0.0,0.0,0.0,0.0,0,0,0,0,0,0,0,1,0,0,1,0,0
62701827,11.461861,11.563292,34.3396,27.129446,0.0,124.77889,1.0,1.0,nan,0,0.0,0.0,0.0,0.0,0.0,0.0,0.0,0.0,0.0,0.0,0.0,0,0,0,0,0,0,0,1,0,0,1,0,0
63001714,11.63685,11.54458,27.014599,27.79379,0.0,127.19015,1.0,1.0,nan,0,0.0,0.0,0.0,0.0,0.0,0.0,0.0,0.0,0.0,0.0,0.0,0,0,0,0,0,0,0,1,0,0,1,0,0
63301717,11.651433,11.537546,27.249,27.831812,0.0,129.51033,1.0,1.0,nan,0,0.0,0.0,0.0,0.0,0.0,0.0,0.0,0.0,0.0,0.0,0.0,0,0,0,0,0,0,0,1,0,0,1,0,0
63601761,11.578521,11.543498,28.5382,27.56085,0.0,131.77559,1.0,1.0,nan,0,0.0,0.0,0.0,0.0,0.0,0.0,0.0,0.0,0.0,0.0,0.0,0,0,0,0,0,0,0,1,0,0,1,0,0
63901814,11.680598,11.549068,27.3662,27.282768,0.0,134.02611,1.0,1.0,nan,0,0.0,0.0,0.0,0.0,0.0,0.0,0.0,0.0,0.0,0.0,0.0,0,0,0,0,0,0,0,1,0,0,1,0,0
64201801,11.666016,11.547398,27.6885,27.16995,0.0,136.27667,1.0,1.0,nan,0,0.0,0.0,0.0,0.0,0.0,0.0,0.0,0.0,0.0,0.0,0.0,0,0,0,0,0,0,0,1,0,0,1,0,0
64501715,11.607686,11.538182,27.3662,27.26299,0.0,138.56375,1.0,1.0,nan,0,0.0,0.0,0.0,0.0,0.0,0.0,0.0,0.0,0.0,0.0,0.0,0,0,0,0,0,0,0,1,0,0,1,0,0
64801720,11.593103,11.533516,27.6592,27.387606,0.0,140.85449,1.0,1.0,nan,0,0.0,0.0,0.0,0.0,0.0,0.0,0.0,0.0,0.0,0.0,0.0,0,0,0,0,0,0,0,1,0,0,1,0,0
65101740,11.69518,11.541521,26.1356,27.152452,0.0,143.10385,1.0,1.0,nan,0,0.0,0.0,0.0,0.0,0.0,0.0,0.0,0.0,0.0,0.0,0.0,0,0,0,0,0,0,0,1,0,0,1,0,0
65401749,11.593103,11.540123,27.6299,27.226557,0.0,145.37634,1.0,1.0,nan,0,0.0,0.0,0.0,0.0,0.0,0.0,0.0,0.0,0.0,0.0,0.0,0,0,0,0,0,0,0,1,0,0,1,0,0
65701810,11.578521,11.53887,27.6885,27.248075,0.0,147.64937,1.0,1.0,nan,0,0.0,0.0,0.0,0.0,0.0,0.0,0.0,0.0,0.0,0.0,0.0,0,0,0,0,0,0,0,1,0,0,1,0,0
66001715,11.607686,11.535882,28.948399,27.54157,0.0,149.96645,1.0,1.0,nan,0,0.0,0.0,0.0,0.0,0.0,0.0,0.0,0.0,0.0,0.0,0.0,0,0,0,0,0,0,0,1,0,0,1,0,0
66301715,11.63685,11.533835,27.747099,27.370129,0.0,152.23112,1.0,1.0,nan,0,0.0,0.0,0.0,0.0,0.0,0.0,0.0,0.0,0.0,0.0,0.0,0,0,0,0,0,0,0,1,0,0,1,0,0
66601747,11.709763,11.524182,25.4031,27.40028,0.0,154.52403,1.0,1.0,nan,0,0.0,0.0,0.0,0.0,0.0,0.0,0.0,0.0,0.0,0.0,0.0,0,0,0,0,0,0,0,1,0,0,1,0,0
66901730,11.651433,11.532886,27.6299,27.141508,0.0,156.74289,1.0,1.0,nan,0,0.0,0.0,0.0,0.0,0.0,0.0,0.0,0.0,0.0,0.0,0.0,0,0,0,0,0,0,0,1,0,0,1,0,0
67201776,11.578521,11.505511,29.3879,28.333729,0.0,159.21745,1.0,1.0,nan,0,0.0,0.0,0.0,0.0,0.0,0.0,0.0,0.0,0.0,0.0,0.0,0,0,0,0,0,0,0,1,0,0,1,0,0
67501717,11.63685,11.509713,27.161098,28.076834,0.0,161.54185,1.0,1.0,nan,0,0.0,0.0,0.0,0.0,0.0,0.0,0.0,0.0,0.0,0.0,0.0,0,0,0,0,0,0,0,1,0,0,1,0,0
67801716,11.5493555,11.516721,28.3917,27.984531,0.0,163.85762,1.0,1.0,nan,0,0.0,0.0,0.0,0.0,0.0,0.0,0.0,0.0,0.0,0.0,0.0,0,0,0,0,0,0,0,1,0,0,1,0,0
68101736,11.578521,11.512607,27.835001,28.108778,0.0,166.21812,1.0,1.0,nan,0,0.0,0.0,0.0,0.0,0.0,0.0,0.0,0.0,0.0,0.0,0.0,0,0,0,0,0,0,0,1,0,0,1,0,0
68403009,11.69518,11.507829,27.336899,28.178541,0.0,168.5861,1.0,1.0,nan,0,0.0,0.0,0.0,0.0,0.0,0.0,0.0,0.0,0.0,0.0,0.0,0,0,0,0,0,0,0,1,0,0,1,0,0
68701783,11.491025,11.502154,28.772598,28.18577,0.0,170.91974,1.0,1.0,nan,0,0.0,0.0,0.0,0.0,0.0,0.0,0.0,0.0,0.0,0.0,0.0,0,0,0,0,0,0,0,1,0,0,1,0,0
69001715,11.491025,11.481221,31.1752,29.596798,0.0,173.51949,1.0,1.0,nan,0,0.0,0.0,0.0,0.0,0.0,0.0,0.0,0.0,0.0,0.0,0.0,0,0,0,0,0,0,0,1,0,0,1,0,0
69301889,11.607686,11.498088,27.3662,28.139738,0.0,175.74046,1.0,1.0,nan,0,0.0,0.0,0.0,0.0,0.0,0.0,0.0,0.0,0.0,0.0,0.0,0,0,0,0,0,0,0,1,0,0,1,0,0
69601756,11.578521,11.502202,27.1904,27.953585,0.0,178.04807,1.0,1.0,nan,0,0.0,0.0,0.0,0.0,0.0,0.0,0.0,0.0,0.0,0.0,0.0,0,0,0,0,0,0,0,1,0,0,1,0,0
69901772,11.578521,11.497626,27.4248,27.963797,0.0,180.37967,1.0,1.0,nan,0,0.0,0.0,0.0,0.0,0.0,0.0,0.0,0.0,0.0,0.0,0.0,0,0,0,0,0,0,0,1,0,0,1,0,0
70201749,11.52019,11.4972925,28.3038,27.51112,0.0,182.61906,1.0,1.0,nan,0,0.0,0.0,0.0,0.0,0.0,0.0,0.0,0.0,0.0,0.0,0.0,0,0,0,0,0,0,0,1,0,0,1,0,0
70501715,11.593103,11.497259,27.307598,27.701813,0.0,184.95126,1.0,1.0,nan,0,0.0,0.0,0.0,0.0,0.0,0.0,0.0,0.0,0.0,0.0,0.0,0,0,0,0,0,0,0,1,0,0,1,0,0
70801715,11.578521,11.501757,27.278301,27.687918,0.0,187.25548,1.0,1.0,nan,0,0.0,0.0,0.0,0.0,0.0,0.0,0.0,0.0,0.0,0.0,0.0,0,0,0,0,0,0,0,1,0,0,1,0,0
71101729,11.578521,11.50369,27.7764,27.710588,0.0,189.56667,1.0,1.0,nan,0,0.0,0.0,0.0,0.0,0.0,0.0,0.0,0.0,0.0,0.0,0.0,0,0,0,0,0,0,0,1,0,0,1,0,0
71401715,11.491025,11.500881,28.567501,27.626091,0.0,191.8596,1.0,1.0,nan,0,0.0,0.0,0.0,0.0,0.0,0.0,0.0,0.0,0.0,0.0,0.0,0,0,0,0,0,0,0,1,0,0,1,0,0
71701752,11.52019,11.50235,27.6592,27.685461,0.0,194.17517,1.0,1.0,nan,0,0.0,0.0,0.0,0.0,0.0,0.0,0.0,0.0,0.0,0.0,0.0,0,0,0,0,0,0,0,1,0,0,1,0,0
72001717,11.607686,11.496536,28.1573,27.743736,0.0,196.49103,1.0,1.0,nan,0,0.0,0.0,0.0,0.0,0.0,0.0,0.0,0.0,0.0,0.0,0.0,0,0,0,0,0,0,0,1,0,0,1,0,0
72301743,11.593103,11.498514,27.8057,27.776005,0.0,198.81277,1.0,1.0,nan,0,0.0,0.0,0.0,0.0,0.0,0.0,0.0,0.0,0.0,0.0,0.0,0,0,0,0,0,0,0,1,0,0,1,0,0
72601725,11.63685,11.494254,27.1025,27.807344,0.0,201.13765,1.0,1.0,nan,0,0.0,0.0,0.0,0.0,0.0,0.0,0.0,0.0,0.0,0.0,0.0,0,0,0,0,0,0,0,1,0,0,1,0,0
72902114,11.593103,11.4959755,27.5127,27.575205,0.0,203.40752,1.0,1.0,nan,0,0.0,0.0,0.0,0.0,0.0,0.0,0.0,0.0,0.0,0.0,0.0,0,0,0,0,0,0,0,1,0,0,1,0,0
73201831,11.593103,11.504685,27.835001,27.767843,0.0,205.73642,1.0,1.0,nan,0,0.0,0.0,0.0,0.0,0.0,0.0,0.0,0.0,0.0,0.0,0.0,0,0,0,0,0,0,0,1,0,0,1,0,0
73501714,11.52019,11.513243,28.2452,27.919912,0.0,208.0771,1.0,1.0,nan,0,0.0,0.0,0.0,0.0,0.0,0.0,0.0,0.0,0.0,0.0,0.0,0,0,0,0,0,0,0,1,0,0,1,0,0
73801718,11.52019,11.504153,28.2745,28.13748,0.0,210.44662,1.0,1.0,nan,0,0.0,0.0,0.0,0.0,0.0,0.0,0.0,0.0,0.0,0.0,0.0,0,0,0,0,0,0,0,1,0,0,1,0,0
74101715,11.593103,11.499215,27.864302,28.233574,0.0,212.81454,1.0,1.0,nan,0,0.0,0.0,0.0,0.0,0.0,0.0,0.0,0.0,0.0,0.0,0.0,0,0,0,0,0,0,0,1,0,0,1,0,0
74401719,11.491025,11.501978,29.9153,28.546604,0.0,215.21753,1.0,1.0,nan,0,0.0,0.0,0.0,0.0,0.0,0.0,0.0,0.0,0.0,0.0,0.0,0,0,0,0,0,0,0,1,0,0,1,0,0
74701809,11.563938,11.491673,27.4248,28.619226,0.0,217.62135,1.0,1.0,nan,0,0.0,0.0,0.0,0.0,0.0,0.0,0.0,0.0,0.0,0.0,0.0,0,0,0,0,0,0,0,1,0,0,1,0,0
75001725,11.534774,11.503974,28.9191,28.172018,0.0,219.91824,1.0,1.0,nan,0,0.0,0.0,0.0,0.0,0.0,0.0,0.0,0.0,0.0,0.0,0.0,0,0,0,0,0,0,0,1,0,0,1,0,0
75301734,11.563938,11.494318,27.9815,28.163153,0.0,222.26816,1.0,1.0,nan,0,0.0,0.0,0.0,0.0,0.0,0.0,0.0,0.0,0.0,0.0,0.0,0,0,0,0,0,0,0,1,0,0,1,0,0
75601718,11.563938,11.483764,27.6885,27.985722,0.0,224.58052,1.0,1.0,nan,0,0.0,0.0,0.0,0.0,0.0,0.0,0.0,0.0,0.0,0.0,0.0,0,0,0,0,0,0,0,1,0,0,1,0,0
75901889,11.63685,11.481922,26.8974,27.620655,0.0,226.84752,1.0,1.0,nan,0,0.0,0.0,0.0,0.0,0.0,0.0,0.0,0.0,0.0,0.0,0.0,0,0,0,0,0,0,0,1,0,0,1,0,0
76201790,11.563938,11.501131,26.428598,27.29333,0.0,229.09271,1.0,1.0,nan,0,0.0,0.0,0.0,0.0,0.0,0.0,0.0,0.0,0.0,0.0,0.0,0,0,0,0,0,0,0,1,0,0,1,0,0
76501714,11.666016,11.513977,25.725399,27.105742,0.0,231.33723,1.0,1.0,nan,0,0.0,0.0,0.0,0.0,0.0,0.0,0.0,0.0,0.0,0.0,0.0,0,0,0,0,0,0,0,1,0,0,1,0,0
76801792,11.578521,11.513755,26.9853,27.16582,0.0,233.60117,1.0,1.0,nan,0,0.0,0.0,0.0,0.0,0.0,0.0,0.0,0.0,0.0,0.0,0.0,0,0,0,0,0,0,0,1,0,0,1,0,0
77101715,11.563938,11.517664,28.3038,27.543894,0.0,235.92883,1.0,1.0,nan,0,0.0,0.0,0.0,0.0,0.0,0.0,0.0,0.0,0.0,0.0,0.0,0,0,0,0,0,0,0,1,0,0,1,0,0
77401716,11.5493555,11.498035,29.0949,28.348207,0.0,238.36775,1.0,1.0,nan,0,0.0,0.0,0.0,0.0,0.0,0.0,0.0,0.0,0.0,0.0,0.0,0,0,0,0,0,0,0,1,0,0,1,0,0
77701757,11.505608,11.482169,30.0618,28.664696,0.0,240.78075,1.0,1.0,nan,0,0.0,0.0,0.0,0.0,0.0,0.0,0.0,0.0,0.0,0.0,0.0,0,0,0,0,0,0,0,1,0,0,1,0,0
78001715,11.461861,11.4661255,30.765001,29.322536,0.0,243.2888,1.0,1.0,nan,0,0.0,0.0,0.0,0.0,0.0,0.0,0.0,0.0,0.0,0.0,0.0,0,0,0,0,0,0,0,1,0,0,1,0,0
78301717,11.563938,11.446158,27.864302,29.716156,0.0,245.81804,1.0,1.0,nan,0,0.0,0.0,0.0,0.0,0.0,0.0,0.0,0.0,0.0,0.0,0.0,0,0,0,0,0,0,0,1,0,0,1,0,0
78601719,11.461861,11.451609,30.7943,29.364323,0.0,248.21776,1.0,1.0,nan,0,0.0,0.0,0.0,0.0,0.0,0.0,0.0,0.0,0.0,0.0,0.0,0,0,0,0,0,0,0,1,0,0,1,0,0
78901715,11.534774,11.459414,26.8681,28.937454,0.0,250.60385,1.0,1.0,nan,0,0.0,0.0,0.0,0.0,0.0,0.0,0.0,0.0,0.0,0.0,0.0,0,0,0,0,0,0,0,1,0,0,1,0,0
79201905,11.607686,11.474073,27.3662,28.454823,0.0,252.92197,1.0,1.0,nan,0,0.0,0.0,0.0,0.0,0.0,0.0,0.0,0.0,0.0,0.0,0.0,0,0,0,0,0,0,0,1,0,0,1,0,0
79501715,11.593103,11.467297,27.3955,28.12069,0.0,255.22852,1.0,1.0,nan,0,0.0,0.0,0.0,0.0,0.0,0.0,0.0,0.0,0.0,0.0,0.0,0,0,0,0,0,0,0,1,0,0,1,0,0
79801731,11.593103,11.4773,28.040098,28.060152,0.0,257.56006,1.0,1.0,nan,0,0.0,0.0,0.0,0.0,0.0,0.0,0.0,0.0,0.0,0.0,0.0,0,0,0,0,0,0,0,1,0,0,1,0,0
80101715,11.578521,11.466999,28.010801,28.349537,0.0,259.95056,1.0,1.0,nan,0,0.0,0.0,0.0,0.0,0.0,0.0,0.0,0.0,0.0,0.0,0.0,0,0,0,0,0,0,0,1,0,0,1,0,0
80401721,11.534774,11.484698,28.5089,28.089968,0.0,262.26096,1.0,1.0,nan,0,0.0,0.0,0.0,0.0,0.0,0.0,0.0,0.0,0.0,0.0,0.0,0,0,0,0,0,0,0,1,0,0,1,0,0
80701715,11.666016,11.49269,27.131802,27.816181,0.0,264.54947,1.0,1.0,nan,0,0.0,0.0,0.0,0.0,0.0,0.0,0.0,0.0,0.0,0.0,0.0,0,0,0,0,0,0,0,1,0,0,1,0,0
81001716,11.69518,11.487958,25.4031,27.311218,0.0,266.77908,1.0,1.0,nan,0,0.0,0.0,0.0,0.0,0.0,0.0,0.0,0.0,0.0,0.0,0.0,0,0,0,0,0,0,0,1,0,0,1,0,0
81301715,11.607686,11.487989,26.663,26.681986,0.0,268.9334,1.0,1.0,nan,0,0.0,0.0,0.0,0.0,0.0,0.0,0.0,0.0,0.0,0.0,0.0,0,0,0,0,0,0,0,1,0,0,1,0,0
81601760,11.666016,11.507442,24.670599,26.414291,0.0,271.12112,1.0,1.0,nan,0,0.0,0.0,0.0,0.0,0.0,0.0,0.0,0.0,0.0,0.0,0.0,0,0,0,0,0,0,0,1,0,0,1,0,0
81901746,11.651433,11.52927,26.077,25.982212,0.0,273.23395,1.0,1.0,nan,0,0.0,0.0,0.0,0.0,0.0,0.0,0.0,0.0,0.0,0.0,0.0,0,0,0,0,0,0,0,1,0,0,1,0,0
82201768,11.52019,11.528102,27.4834,26.235056,0.0,275.43927,1.0,1.0,nan,0,0.0,0.0,0.0,0.0,0.0,0.0,0.0,0.0,0.0,0.0,0.0,0,0,0,0,0,0,0,1,0,0,1,0,0
82501812,11.63685,11.529115,27.014599,27.266384,0.0,277.82025,1.0,1.0,nan,0,0.0,0.0,0.0,0.0,0.0,0.0,0.0,0.0,0.0,0.0,0.0,0,0,0,0,0,0,0,1,0,0,1,0,0
82801720,11.505608,11.52171,28.743301,27.22163,0.0,280.07425,1.0,1.0,nan,0,0.0,0.0,0.0,0.0,0.0,0.0,0.0,0.0,0.0,0.0,0.0,0,0,0,0,0,0,0,1,0,0,1,0,0
83101715,11.28687,11.463788,31.937,29.305115,0.0,282.70428,1.0,1.0,nan,0,0.0,0.0,0.0,0.0,0.0,0.0,0.0,0.0,0.0,0.0,0.0,0,0,0,0,0,0,0,1,0,0,1,0,0
83402262,11.418113,11.474782,32.1714,28.469255,0.0,284.9833,1.0,1.0,nan,0,0.0,0.0,0.0,0.0,0.0,0.0,0.0,0.0,0.0,0.0,0.0,0,0,0,0,0,0,0,1,0,0,1,0,0
83701748,11.578521,11.451187,26.9853,28.574392,0.0,287.41443,1.0,1.0,nan,0,0.0,0.0,0.0,0.0,0.0,0.0,0.0,0.0,0.0,0.0,0.0,0,0,0,0,0,0,0,1,0,0,1,0,0
84001716,11.52019,11.46486,29.1828,28.21158,0.0,289.72153,1.0,1.0,nan,0,0.0,0.0,0.0,0.0,0.0,0.0,0.0,0.0,0.0,0.0,0.0,0,0,0,0,0,0,0,1,0,0,1,0,0
84301715,11.563938,11.46785,26.9853,28.454256,0.0,292.13208,1.0,1.0,nan,0,0.0,0.0,0.0,0.0,0.0,0.0,0.0,0.0,0.0,0.0,0.0,0,0,0,0,0,0,0,1,0,0,1,0,0
84601715,11.432695,11.480592,29.8274,28.298391,0.0,294.46414,1.0,1.0,nan,0,0.0,0.0,0.0,0.0,0.0,0.0,0.0,0.0,0.0,0.0,0.0,0,0,0,0,0,0,0,1,0,0,1,0,0
84901742,11.5493555,11.472736,27.6299,28.225168,0.0,296.81564,1.0,1.0,nan,0,0.0,0.0,0.0,0.0,0.0,0.0,0.0,0.0,0.0,0.0,0.0,0,0,0,0,0,0,0,1,0,0,1,0,0
85201746,11.563938,11.479538,26.223501,27.8317,0.0,299.09543,1.0,1.0,nan,0,0.0,0.0,0.0,0.0,0.0,0.0,0.0,0.0,0.0,0.0,0.0,0,0,0,0,0,0,0,1,0,0,1,0,0
85501721,11.505608,11.474892,27.6006,27.751755,0.0,301.4051,1.0,1.0,nan,0,0.0,0.0,0.0,0.0,0.0,0.0,0.0,0.0,0.0,0.0,0.0,0,0,0,0,0,0,0,1,0,0,1,0,0
85801750,11.476442,11.4614315,27.893599,27.806942,0.0,303.7301,1.0,1.0,nan,0,0.0,0.0,0.0,0.0,0.0,0.0,0.0,0.0,0.0,0.0,0.0,0,0,0,0,0,0,0,1,0,0,1,0,0
86101717,11.505608,11.469363,28.3624,27.889826,0.0,306.06458,1.0,1.0,nan,0,0.0,0.0,0.0,0.0,0.0,0.0,0.0,0.0,0.0,0.0,0.0,0,0,0,0,0,0,0,1,0,0,1,0,0
86401715,11.5493555,11.452275,26.7216,27.940825,0.0,308.3994,1.0,1.0,nan,0,0.0,0.0,0.0,0.0,0.0,0.0,0.0,0.0,0.0,0.0,0.0,0,0,0,0,0,0,0,1,0,0,1,0,0
86701725,11.593103,11.44524,26.6337,27.850616,0.0,310.71606,1.0,1.0,nan,0,0.0,0.0,0.0,0.0,0.0,0.0,0.0,0.0,0.0,0.0,0.0,0,0,0,0,0,0,0,1,0,0,1,0,0
87001715,11.52019,11.444435,26.4872,27.805702,0.0,313.03998,1.0,1.0,nan,0,0.0,0.0,0.0,0.0,0.0,0.0,0.0,0.0,0.0,0.0,0.0,0,0,0,0,0,0,0,1,0,0,1,0,0
87301752,11.505608,11.4605255,27.7764,27.994387,0.0,315.39783,1.0,1.0,nan,0,0.0,0.0,0.0,0.0,0.0,0.0,0.0,0.0,0.0,0.0,0.0,0,0,0,0,0,0,0,1,0,0,1,0,0
87601718,11.257705,11.468716,28.9777,27.737274,0.0,317.67065,1.0,1.0,nan,0,0.0,0.0,0.0,0.0,0.0,0.0,0.0,0.0,0.0,0.0,0.0,0,0,0,0,0,0,0,1,0,0,1,0,0
87902149,11.593103,11.462137,27.278301,27.89733,0.0,320.02084,1.0,1.0,nan,0,0.0,0.0,0.0,0.0,0.0,0.0,0.0,0.0,0.0,0.0,0.0,0,0,0,0,0,0,0,1,0,0,1,0,0
88201717,11.52019,11.455743,29.300001,28.61164,0.0,322.4697,1.0,1.0,nan,0,0.0,0.0,0.0,0.0,0.0,0.0,0.0,0.0,0.0,0.0,0.0,0,0,0,0,0,0,0,1,0,0,1,0,0
88501715,11.607686,11.458781,25.080801,27.95936,0.0,324.74292,1.0,1.0,nan,0,0.0,0.0,0.0,0.0,0.0,0.0,0.0,0.0,0.0,0.0,0.0,0,0,0,0,0,0,0,1,0,0,1,0,0
88801812,11.563938,11.4726715,24.934301,26.955273,0.0,326.9065,1.0,1.0,nan,0,0.0,0.0,0.0,0.0,0.0,0.0,0.0,0.0,0.0,0.0,0.0,0,0,0,0,0,0,0,1,0,0,1,0,0
89101715,11.330617,11.449877,27.6299,27.613024,0.0,329.2802,1.0,1.0,nan,0,0.0,0.0,0.0,0.0,0.0,0.0,0.0,0.0,0.0,0.0,0.0,0,0,0,0,0,0,0,1,0,0,1,0,0
89401715,11.461861,11.452664,29.0656,27.726973,0.0,331.58884,1.0,1.0,nan,0,0.0,0.0,0.0,0.0,0.0,0.0,0.0,0.0,0.0,0.0,0.0,0,0,0,0,0,0,0,1,0,0,1,0,0
89701847,11.578521,11.449085,26.077,27.804407,0.0,333.93338,1.0,1.0,nan,0,0.0,0.0,0.0,0.0,0.0,0.0,0.0,0.0,0.0,0.0,0.0,0,0,0,0,0,0,0,1,0,0,1,0,0
90001716,11.52019,11.451645,27.542,27.596272,0.0,336.20297,1.0,1.0,nan,0,0.0,0.0,0.0,0.0,0.0,0.0,0.0,0.0,0.0,0.0,0.0,0,0,0,0,0,0,0,1,0,0,1,0,0
90301722,11.534774,11.45587,27.161098,27.908243,0.0,338.5661,1.0,1.0,nan,0,0.0,0.0,0.0,0.0,0.0,0.0,0.0,0.0,0.0,0.0,0.0,0,0,0,0,0,0,0,1,0,0,1,0,0
90601716,11.3452,11.44605,27.747099,27.667135,0.0,340.83792,1.0,1.0,nan,0,0.0,0.0,0.0,0.0,0.0,0.0,0.0,0.0,0.0,0.0,0.0,0,0,0,0,0,0,0,1,0,0,1,0,0
90901719,11.374366,11.444452,27.7764,27.649857,0.0,343.13428,1.0,1.0,nan,0,0.0,0.0,0.0,0.0,0.0,0.0,0.0,0.0,0.0,0.0,0.0,0,0,0,0,0,0,0,1,0,0,1,0,0
91201715,11.374366,11.421122,26.399302,27.493347,0.0,345.41544,1.0,1.0,nan,0,0.0,0.0,0.0,0.0,0.0,0.0,0.0,0.0,0.0,0.0,0.0,0,0,0,0,0,0,0,1,0,0,1,0,0
91501741,11.330617,11.410236,29.593,28.018932,0.0,347.78952,1.0,1.0,nan,0,0.0,0.0,0.0,0.0,0.0,0.0,0.0,0.0,0.0,0.0,0.0,0,0,0,0,0,0,0,1,0,0,1,0,0
91801715,11.272287,11.376127,29.5637,28.583712,0.0,350.23172,1.0,1.0,nan,0,0.0,0.0,0.0,0.0,0.0,0.0,0.0,0.0,0.0,0.0,0.0,0,0,0,0,0,0,0,1,0,0,1,0,0
92101734,11.243123,11.3491,28.3038,28.537418,0.0,352.6066,1.0,1.0,nan,0,0.0,0.0,0.0,0.0,0.0,0.0,0.0,0.0,0.0,0.0,0.0,0,0,0,0,0,0,0,1,0,0,1,0,0
92401717,11.316035,11.332869,26.399302,28.461145,0.0,354.97852,1.0,1.0,nan,0,0.0,0.0,0.0,0.0,0.0,0.0,0.0,0.0,0.0,0.0,0.0,0,0,0,0,0,0,0,1,0,0,1,0,0
92701719,11.272287,11.339971,27.161098,28.275423,0.0,357.31732,1.0,1.0,nan,0,0.0,0.0,0.0,0.0,0.0,0.0,0.0,0.0,0.0,0.0,0.0,0,0,0,0,0,0,0,1,0,0,1,0,0
93001715,11.40353,11.348748,25.0222,27.928953,0.0,359.6142,1.0,1.0,nan,0,0.0,0.0,0.0,0.0,0.0,0.0,0.0,0.0,0.0,0.0,0.0,0,0,0,0,0,0,0,1,0,0,1,0,0
93301809,11.301453,11.346721,26.1063,27.89121,0.0,361.94028,1.0,1.0,nan,0,0.0,0.0,0.0,0.0,0.0,0.0,0.0,0.0,0.0,0.0,0.0,0,0,0,0,0,0,0,1,0,0,1,0,0
93601718,11.257705,11.352277,28.040098,27.49659,0.0,364.18015,1.0,1.0,nan,0,0.0,0.0,0.0,0.0,0.0,0.0,0.0,0.0,0.0,0.0,0.0,0,0,0,0,0,0,0,1,0,0,1,0,0
93901715,11.22854,11.348004,26.3114,27.247055,0.0,366.42706,1.0,1.0,nan,0,0.0,0.0,0.0,0.0,0.0,0.0,0.0,0.0,0.0,0.0,0.0,0,0,0,0,0,0,0,1,0,0,1,0,0
94201748,11.170211,11.3511,27.9815,27.394262,0.0,368.72427,1.0,1.0,nan,0,0.0,0.0,0.0,0.0,0.0,0.0,0.0,0.0,0.0,0.0,0.0,0,0,0,0,0,0,0,1,0,0,1,0,0
94501715,11.213958,11.32609,27.9815,27.862812,0.0,371.11295,1.0,1.0,nan,0,0.0,0.0,0.0,0.0,0.0,0.0,0.0,0.0,0.0,0.0,0.0,0,0,0,0,0,0,0,1,0,0,1,0,0
94801715,11.28687,11.305871,27.7178,28.062166,0.0,373.47275,1.0,1.0,nan,0,0.0,0.0,0.0,0.0,0.0,0.0,0.0,0.0,0.0,0.0,0.0,0,0,0,0,0,0,0,1,0,0,1,0,0
95101715,11.359783,11.312948,26.077,27.755333,0.0,375.76025,1.0,1.0,nan,0,0.0,0.0,0.0,0.0,0.0,0.0,0.0,0.0,0.0,0.0,0.0,0,0,0,0,0,0,0,1,0,0,1,0,0
95401715,11.155627,11.315155,27.864302,27.851156,0.0,378.08197,1.0,1.0,nan,0,0.0,0.0,0.0,0.0,0.0,0.0,0.0,0.0,0.0,0.0,0.0,0,0,0,0,0,0,0,1,0,0,1,0,0
95701754,11.243123,11.320591,27.4248,28.079582,0.0,380.44177,1.0,1.0,nan,0,0.0,0.0,0.0,0.0,0.0,0.0,0.0,0.0,0.0,0.0,0.0,0,0,0,0,0,0,0,1,0,0,1,0,0
96001717,11.22854,11.304638,27.835001,28.014547,0.0,382.76843,1.0,1.0,nan,0,0.0,0.0,0.0,0.0,0.0,0.0,0.0,0.0,0.0,0.0,0.0,0,0,0,0,0,0,0,1,0,0,1,0,0
96301748,11.272287,11.316651,27.7178,28.123484,0.0,385.12122,1.0,1.0,nan,0,0.0,0.0,0.0,0.0,0.0,0.0,0.0,0.0,0.0,0.0,0.0,0,0,0,0,0,0,0,1,0,0,1,0,0
96601715,11.28687,11.318339,28.4503,27.43672,0.0,387.3468,1.0,1.0,nan,0,0.0,0.0,0.0,0.0,0.0,0.0,0.0,0.0,0.0,0.0,0.0,0,0,0,0,0,0,0,1,0,0,1,0,0
96901861,11.141045,11.326485,28.3331,27.729029,0.0,389.69403,1.0,1.0,nan,0,0.0,0.0,0.0,0.0,0.0,0.0,0.0,0.0,0.0,0.0,0.0,0,0,0,0,0,0,0,1,0,0,1,0,0
97201716,11.199375,11.322748,28.3624,27.710962,0.0,392.00162,1.0,1.0,nan,0,0.0,0.0,0.0,0.0,0.0,0.0,0.0,0.0,0.0,0.0,0.0,0,0,0,0,0,0,0,1,0,0,1,0,0
97501715,11.243123,11.301553,27.9522,27.678772,0.0,394.30453,1.0,1.0,nan,0,0.0,0.0,0.0,0.0,0.0,0.0,0.0,0.0,0.0,0.0,0.0,0,0,0,0,0,0,0,1,0,0,1,0,0
97801720,11.22854,11.29329,27.5713,27.813744,0.0,396.63858,1.0,1.0,nan,0,0.0,0.0,0.0,0.0,0.0,0.0,0.0,0.0,0.0,0.0,0.0,0,0,0,0,0,0,0,1,0,0,1,0,0
98101715,11.243123,11.302982,27.6592,27.875568,0.0,398.96405,1.0,1.0,nan,0,0.0,0.0,0.0,0.0,0.0,0.0,0.0,0.0,0.0,0.0,0.0,0,0,0,0,0,0,0,1,0,0,1,0,0
98401719,11.213958,11.307898,27.4834,28.067158,0.0,401.32306,1.0,1.0,nan,0,0.0,0.0,0.0,0.0,0.0,0.0,0.0,0.0,0.0,0.0,0.0,0,0,0,0,0,0,0,1,0,0,1,0,0
98701715,11.22854,11.297778,27.6006,28.12163,0.0,403.6755,1.0,1.0,nan,0,0.0,0.0,0.0,0.0,0.0,0.0,0.0,0.0,0.0,0.0,0.0,0,0,0,0,0,0,0,1,0,0,1,0,0
99001722,11.199375,11.326345,27.161098,26.919565,0.0,405.8106,1.0,1.0,nan,0,0.0,0.0,0.0,0.0,0.0,0.0,0.0,0.0,0.0,0.0,0.0,0,0,0,0,0,0,0,1,0,0,1,0,0
99301736,11.1847925,11.303463,28.1866,27.792799,0.0,408.2252,1.0,1.0,nan,0,0.0,0.0,0.0,0.0,0.0,0.0,0.0,0.0,0.0,0.0,0.0,0,0,0,0,0,0,0,1,0,0,1,0,0
99601717,11.40353,11.307902,28.128,27.866081,0.0,410.55396,1.0,1.0,nan,0,0.0,0.0,0.0,0.0,0.0,0.0,0.0,0.0,0.0,0.0,0.0,0,0,0,0,0,0,0,1,0,0,1,0,0
99901716,11.199375,11.306868,27.747099,27.96466,0.0,412.89407,1.0,1.0,nan,0,0.0,0.0,0.0,0.0,0.0,0.0,0.0,0.0,0.0,0.0,0.0,0,0,0,0,0,0,0,1,0,0,1,0,0
100201717,11.243123,11.287709,26.1649,28.005564,0.0,415.237,1.0,1.0,nan,0,0.0,0.0,0.0,0.0,0.0,0.0,0.0,0.0,0.0,0.0,0.0,0,0,0,0,0,0,0,1,0,0,1,0,0
100501716,11.199375,11.297778,27.835001,27.909994,0.0,417.53677,1.0,1.0,nan,0,0.0,0.0,0.0,0.0,0.0,0.0,0.0,0.0,0.0,0.0,0.0,0,0,0,0,0,0,0,1,0,0,1,0,0
100801717,11.111879,11.288557,31.7612,28.919058,0.0,420.0368,1.0,1.0,nan,0,0.0,0.0,0.0,0.0,0.0,0.0,0.0,0.0,0.0,0.0,0.0,0,0,0,0,0,0,0,1,0,0,1,0,0
101101717,11.199375,11.311473,29.2707,27.78423,0.0,422.23468,1.0,1.0,nan,0,0.0,0.0,0.0,0.0,0.0,0.0,0.0,0.0,0.0,0.0,0.0,0,0,0,0,0,0,0,1,0,0,1,0,0
101401775,11.141045,11.31245,29.1535,27.500462,0.0,424.48065,1.0,1.0,nan,0,0.0,0.0,0.0,0.0,0.0,0.0,0.0,0.0,0.0,0.0,0.0,0,0,0,0,0,0,0,1,0,0,1,0,0
101701715,11.22854,11.304605,27.1904,28.183342,0.0,426.9093,1.0,1.0,nan,0,0.0,0.0,0.0,0.0,0.0,0.0,0.0,0.0,0.0,0.0,0.0,0,0,0,0,0,0,0,1,0,0,1,0,0
102001722,11.28687,11.313296,27.2197,27.839165,0.0,429.19598,1.0,1.0,nan,0,0.0,0.0,0.0,0.0,0.0,0.0,0.0,0.0,0.0,0.0,0.0,0,0,0,0,0,0,0,1,0,0,1,0,0
102301716,11.199375,11.316882,30.179,28.18902,0.0,431.5685,1.0,1.0,nan,0,0.0,0.0,0.0,0.0,0.0,0.0,0.0,0.0,0.0,0.0,0.0,0,0,0,0,0,0,0,1,0,0,1,0,0
102601758,11.213958,11.300071,27.6885,28.962267,0.0,434.07587,1.0,1.0,nan,0,0.0,0.0,0.0,0.0,0.0,0.0,0.0,0.0,0.0,0.0,0.0,0,0,0,0,0,0,0,1,0,0,1,0,0
102901715,11.199375,11.284585,27.9815,28.383827,0.0,436.37808,1.0,1.0,nan,0,0.0,0.0,0.0,0.0,0.0,0.0,0.0,0.0,0.0,0.0,0.0,0,0,0,0,0,0,0,1,0,0,1,0,0
103201717,11.170211,11.258621,28.215899,28.545298,0.0,438.76996,1.0,1.0,nan,0,0.0,0.0,0.0,0.0,0.0,0.0,0.0,0.0,0.0,0.0,0.0,0,0,0,0,0,0,0,1,0,0,1,0,0
103501718,11.22854,11.263032,27.307598,28.158583,0.0,441.07938,1.0,1.0,nan,0,0.0,0.0,0.0,0.0,0.0,0.0,0.0,0.0,0.0,0.0,0.0,0,0,0,0,0,0,0,1,0,0,1,0,0
103801915,11.170211,11.277648,26.8681,27.96313,0.0,443.39438,1.0,1.0,nan,0,0.0,0.0,0.0,0.0,0.0,0.0,0.0,0.0,0.0,0.0,0.0,0,0,0,0,0,0,0,1,0,0,1,0,0
104101714,11.170211,11.289736,28.889801,28.013231,0.0,445.72565,1.0,1.0,nan,0,0.0,0.0,0.0,0.0,0.0,0.0,0.0,0.0,0.0,0.0,0.0,0,0,0,0,0,0,0,1,0,0,1,0,0
104401716,11.243123,11.293383,26.4579,27.703175,0.0,448.01642,1.0,1.0,nan,0,0.0,0.0,0.0,0.0,0.0,0.0,0.0,0.0,0.0,0.0,0.0,0,0,0,0,0,0,0,1,0,0,1,0,0
104701715,11.22854,11.294896,27.9815,27.864855,0.0,450.34952,1.0,1.0,nan,0,0.0,0.0,0.0,0.0,0.0,0.0,0.0,0.0,0.0,0.0,0.0,0,0,0,0,0,0,0,1,0,0,1,0,0
105001715,11.22854,11.293227,27.542,27.765427,0.0,452.65298,1.0,1.0,nan,0,0.0,0.0,0.0,0.0,0.0,0.0,0.0,0.0,0.0,0.0,0.0,0,0,0,0,0,0,0,1,0,0,1,0,0
105301997,11.213958,11.287428,28.2452,27.815344,0.0,454.97757,1.0,1.0,nan,0,0.0,0.0,0.0,0.0,0.0,0.0,0.0,0.0,0.0,0.0,0.0,0,0,0,0,0,0,0,1,0,0,1,0,0
105601715,11.22854,11.2634,27.542,28.288572,0.0,457.38553,1.0,1.0,nan,0,0.0,0.0,0.0,0.0,0.0,0.0,0.0,0.0,0.0,0.0,0.0,0,0,0,0,0,0,0,1,0,0,1,0,0
105901716,11.213958,11.274085,27.3955,27.79151,0.0,459.64938,1.0,1.0,nan,0,0.0,0.0,0.0,0.0,0.0,0.0,0.0,0.0,0.0,0.0,0.0,0,0,0,0,0,0,0,1,0,0,1,0,0
106201760,11.1847925,11.288873,27.747099,27.833588,0.0,461.97412,1.0,1.0,nan,0,0.0,0.0,0.0,0.0,0.0,0.0,0.0,0.0,0.0,0.0,0.0,0,0,0,0,0,0,0,1,0,0,1,0,0
106501758,11.097298,11.279687,29.475801,28.585241,0.0,464.42126,1.0,1.0,nan,0,0.0,0.0,0.0,0.0,0.0,0.0,0.0,0.0,0.0,0.0,0.0,0,0,0,0,0,0,0,1,0,0,1,0,0
106801715,11.257705,11.280753,28.128,28.529108,0.0,466.7999,1.0,1.0,nan,0,0.0,0.0,0.0,0.0,0.0,0.0,0.0,0.0,0.0,0.0,0.0,0,0,0,0,0,0,0,1,0,0,1,0,0
107101716,11.155627,11.2732935,28.6554,28.376387,0.0,469.1463,1.0,1.0,nan,0,0.0,0.0,0.0,0.0,0.0,0.0,0.0,0.0,0.0,0.0,0.0,0,0,0,0,0,0,0,1,0,0,1,0,0
107402842,11.097298,11.278579,29.622301,28.903503,0.0,471.61365,1.0,1.0,nan,0,0.0,0.0,0.0,0.0,0.0,0.0,0.0,0.0,0.0,0.0,0.0,0,0,0,0,0,0,0,1,0,0,1,0,0
107701715,11.170211,11.282409,26.7802,28.88639,0.0,474.02618,1.0,1.0,nan,0,0.0,0.0,0.0,0.0,0.0,0.0,0.0,0.0,0.0,0.0,0.0,0,0,0,0,0,0,0,1,0,0,1,0,0
108001718,11.28687,11.305181,25.813301,27.56084,0.0,476.19,1.0,1.0,nan,0,0.0,0.0,0.0,0.0,0.0,0.0,0.0,0.0,0.0,0.0,0.0,0,0,0,0,0,0,0,1,0,0,1,0,0
108301898,11.213958,11.29798,27.278301,27.038208,0.0,478.38257,1.0,1.0,nan,0,0.0,0.0,0.0,0.0,0.0,0.0,0.0,0.0,0.0,0.0,0.0,0,0,0,0,0,0,0,1,0,0,1,0,0
108601722,11.272287,11.283453,26.9853,27.081345,0.0,480.6468,1.0,1.0,nan,0,0.0,0.0,0.0,0.0,0.0,0.0,0.0,0.0,0.0,0.0,0.0,0,0,0,0,0,0,0,1,0,0,1,0,0
108901729,11.272287,11.284566,26.399302,27.208298,0.0,482.93027,1.0,1.0,nan,0,0.0,0.0,0.0,0.0,0.0,0.0,0.0,0.0,0.0,0.0,0.0,0,0,0,0,0,0,0,1,0,0,1,0,0
109201715,11.22854,11.301523,26.1649,26.831512,0.0,485.1244,1.0,1.0,nan,0,0.0,0.0,0.0,0.0,0.0,0.0,0.0,0.0,0.0,0.0,0.0,0,0,0,0,0,0,0,1,0,0,1,0,0
109501740,11.213958,11.309949,27.3955,27.091562,0.0,487.40424,1.0,1.0,nan,0,0.0,0.0,0.0,0.0,0.0,0.0,0.0,0.0,0.0,0.0,0.0,0,0,0,0,0,0,0,1,0,0,1,0,0
109801715,11.213958,11.303801,27.4541,27.590788,0.0,489.75378,1.0,1.0,nan,0,0.0,0.0,0.0,0.0,0.0,0.0,0.0,0.0,0.0,0.0,0.0,0,0,0,0,0,0,0,1,0,0,1,0,0
110101861,11.199375,11.314461,27.893599,27.476416,0.0,492.0276,1.0,1.0,nan,0,0.0,0.0,0.0,0.0,0.0,0.0,0.0,0.0,0.0,0.0,0.0,0,0,0,0,0,0,0,1,0,0,1,0,0
110401721,11.141045,11.309024,27.4541,27.656528,0.0,494.35062,1.0,1.0,nan,0,0.0,0.0,0.0,0.0,0.0,0.0,0.0,0.0,0.0,0.0,0.0,0,0,0,0,0,0,0,1,0,0,1,0,0
110701771,11.141045,11.30586,28.010801,27.834398,0.0,496.6865,1.0,1.0,nan,0,0.0,0.0,0.0,0.0,0.0,0.0,0.0,0.0,0.0,0.0,0.0,0,0,0,0,0,0,0,1,0,0,1,0,0
111001715,11.22854,11.29607,27.9229,28.004839,0.0,499.03952,1.0,1.0,nan,0,0.0,0.0,0.0,0.0,0.0,0.0,0.0,0.0,0.0,0.0,0.0,0,0,0,0,0,0,0,1,0,0,1,0,0
111301720,11.213958,11.283523,28.4503,27.975986,0.0,501.36588,1.0,1.0,nan,0,0.0,0.0,0.0,0.0,0.0,0.0,0.0,0.0,0.0,0.0,0.0,0,0,0,0,0,0,0,1,0,0,1,0,0
111601715,11.213958,11.2938175,28.5968,28.276371,0.0,503.75253,1.0,1.0,nan,0,0.0,0.0,0.0,0.0,0.0,0.0,0.0,0.0,0.0,0.0,0.0,0,0,0,0,0,0,0,1,0,0,1,0,0
111901715,11.170211,11.27995,31.4682,29.39163,0.0,506.304,1.0,1.0,nan,0,0.0,0.0,0.0,0.0,0.0,0.0,0.0,0.0,0.0,0.0,0.0,0,0,0,0,0,0,0,1,0,0,1,0,0
112201715,11.126462,11.276456,29.7688,29.54392,0.0,508.7878,1.0,1.0,nan,0,0.0,0.0,0.0,0.0,0.0,0.0,0.0,0.0,0.0,0.0,0.0,0,0,0,0,0,0,0,1,0,0,1,0,0
112501716,11.170211,11.259825,29.1828,30.282722,0.0,511.3943,1.0,1.0,nan,0,0.0,0.0,0.0,0.0,0.0,0.0,0.0,0.0,0.0,0.0,0.0,0,0,0,0,0,0,0,1,0,0,1,0,0
112801724,11.40353,11.283474,26.6337,28.768473,0.0,513.6479,1.0,1.0,nan,0,0.0,0.0,0.0,0.0,0.0,0.0,0.0,0.0,0.0,0.0,0.0,0,0,0,0,0,0,0,1,0,0,1,0,0
113101724,11.170211,11.297103,28.1866,28.141304,0.0,515.9236,1.0,1.0,nan,0,0.0,0.0,0.0,0.0,0.0,0.0,0.0,0.0,0.0,0.0,0.0,0,0,0,0,0,0,0,1,0,0,1,0,0
113401742,11.432695,11.319164,25.6082,27.589891,0.0,518.17975,1.0,1.0,nan,0,0.0,0.0,0.0,0.0,0.0,0.0,0.0,0.0,0.0,0.0,0.0,0,0,0,0,0,0,0,1,0,0,1,0,0
113701937,11.170211,11.325858,26.956,26.958788,0.0,520.3551,1.0,1.0,nan,0,0.0,0.0,0.0,0.0,0.0,0.0,0.0,0.0,0.0,0.0,0.0,0,0,0,0,0,0,0,1,0,0,1,0,0
114001716,11.068132,11.30278,29.2707,27.961987,0.0,522.77484,1.0,1.0,nan,0,0.0,0.0,0.0,0.0,0.0,0.0,0.0,0.0,0.0,0.0,0.0,0,0,0,0,0,0,0,1,0,0,1,0,0
114301715,11.199375,11.297585,28.5089,28.168459,0.0,525.1435,1.0,1.0,nan,0,0.0,0.0,0.0,0.0,0.0,0.0,0.0,0.0,0.0,0.0,0.0,0,0,0,0,0,0,0,1,0,0,1,0,0
114602009,11.155627,11.288105,29.4172,28.779285,0.0,527.6054,1.0,1.0,nan,0,0.0,0.0,0.0,0.0,0.0,0.0,0.0,0.0,0.0,0.0,0.0,0,0,0,0,0,0,0,1,0,0,1,0,0
114901715,11.097298,11.279215,30.4427,29.347902,0.0,530.10223,1.0,1.0,nan,0,0.0,0.0,0.0,0.0,0.0,0.0,0.0,0.0,0.0,0.0,0.0,0,0,0,0,0,0,0,1,0,0,1,0,0
115201715,11.05355,11.269888,29.5637,29.839594,0.0,532.649,1.0,1.0,nan,0,0.0,0.0,0.0,0.0,0.0,0.0,0.0,0.0,0.0,0.0,0.0,0,0,0,0,0,0,0,1,0,0,1,0,0
115501715,11.038967,11.26293,30.3255,30.016548,0.0,535.16583,1.0,1.0,nan,0,0.0,0.0,0.0,0.0,0.0,0.0,0.0,0.0,0.0,0.0,0.0,0,0,0,0,0,0,0,1,0,0,1,0,0
115801762,11.068132,11.267366,31.3217,30.0278,0.0,537.641,1.0,1.0,nan,0,0.0,0.0,0.0,0.0,0.0,0.0,0.0,0.0,0.0,0.0,0.0,0,0,0,0,0,0,0,1,0,0,1,0,0
116101969,11.432695,11.267436,28.1573,29.73815,0.0,540.1055,1.0,1.0,nan,0,0.0,0.0,0.0,0.0,0.0,0.0,0.0,0.0,0.0,0.0,0.0,0,0,0,0,0,0,0,1,0,0,1,0,0
116401715,11.111879,11.267998,28.772598,29.54178,0.0,542.5394,1.0,1.0,nan,0,0.0,0.0,0.0,0.0,0.0,0.0,0.0,0.0,0.0,0.0,0.0,0,0,0,0,0,0,0,1,0,0,1,0,0
116701748,11.141045,11.26716,29.505098,29.27311,0.0,544.9458,1.0,1.0,nan,0,0.0,0.0,0.0,0.0,0.0,0.0,0.0,0.0,0.0,0.0,0.0,0,0,0,0,0,0,0,1,0,0,1,0,0
117001791,11.082715,11.267773,31.087301,29.293238,0.0,547.3916,1.0,1.0,nan,0,0.0,0.0,0.0,0.0,0.0,0.0,0.0,0.0,0.0,0.0,0.0,0,0,0,0,0,0,0,1,0,0,1,0,0
117301715,11.126462,11.278498,27.864302,29.129189,0.0,549.81726,1.0,1.0,nan,0,0.0,0.0,0.0,0.0,0.0,0.0,0.0,0.0,0.0,0.0,0.0,0,0,0,0,0,0,0,1,0,0,1,0,0
117601910,11.199375,11.283173,28.9777,29.181366,0.0,552.24945,1.0,1.0,nan,0,0.0,0.0,0.0,0.0,0.0,0.0,0.0,0.0,0.0,0.0,0.0,0,0,0,0,0,0,0,1,0,0,1,0,0
117901741,11.126462,11.283441,28.801899,29.09521,0.0,554.6621,1.0,1.0,nan,0,0.0,0.0,0.0,0.0,0.0,0.0,0.0,0.0,0.0,0.0,0.0,0,0,0,0,0,0,0,1,0,0,1,0,0
118201772,11.097298,11.276905,30.1204,29.36473,0.0,557.1305,1.0,1.0,nan,0,0.0,0.0,0.0,0.0,0.0,0.0,0.0,0.0,0.0,0.0,0.0,0,0,0,0,0,0,0,1,0,0,1,0,0
118501716,11.068132,11.260966,31.3217,30.32803,0.0,559.7558,1.0,1.0,nan,0,0.0,0.0,0.0,0.0,0.0,0.0,0.0,0.0,0.0,0.0,0.0,0,0,0,0,0,0,0,1,0,0,1,0,0
118801715,11.155627,11.257301,28.479599,29.993702,0.0,562.23816,1.0,1.0,nan,0,0.0,0.0,0.0,0.0,0.0,0.0,0.0,0.0,0.0,0.0,0.0,0,0,0,0,0,0,0,1,0,0,1,0,0
119101902,11.068132,11.26868,28.743301,29.47105,0.0,564.6415,1.0,1.0,nan,0,0.0,0.0,0.0,0.0,0.0,0.0,0.0,0.0,0.0,0.0,0.0,0,0,0,0,0,0,0,1,0,0,1,0,0
119401716,10.980637,11.257684,32.991802,29.771433,0.0,567.129,1.0,1.0,nan,0,0.0,0.0,0.0,0.0,0.0,0.0,0.0,0.0,0.0,0.0,0.0,0,0,0,0,0,0,0,1,0,0,1,0,0
119701715,11.097298,11.244078,29.3293,30.284101,0.0,569.7125,1.0,1.0,nan,0,0.0,0.0,0.0,0.0,0.0,0.0,0.0,0.0,0.0,0.0,0.0,0,0,0,0,0,0,0,1,0,0,1,0,0
120001715,11.418113,11.263135,28.069399,29.373018,0.0,572.0738,1.0,1.0,nan,0,0.0,0.0,0.0,0.0,0.0,0.0,0.0,0.0,0.0,0.0,0.0,0,0,0,0,0,0,0,1,0,0,1,0,0
120301773,11.097298,11.270985,28.743301,28.915043,0.0,574.4321,1.0,1.0,nan,0,0.0,0.0,0.0,0.0,0.0,0.0,0.0,0.0,0.0,0.0,0.0,0,0,0,0,0,0,0,1,0,0,1,0,0
120601719,11.213958,11.278527,27.307598,28.71363,0.0,576.81384,1.0,1.0,nan,0,0.0,0.0,0.0,0.0,0.0,0.0,0.0,0.0,0.0,0.0,0.0,0,0,0,0,0,0,0,1,0,0,1,0,0
120901715,11.068132,11.27281,28.567501,28.87014,0.0,579.2546,1.0,1.0,nan,0,0.0,0.0,0.0,0.0,0.0,0.0,0.0,0.0,0.0,0.0,0.0,0,0,0,0,0,0,0,1,0,0,1,0,0
121201715,11.141045,11.285855,27.3662,28.460848,0.0,581.58813,1.0,1.0,nan,0,0.0,0.0,0.0,0.0,0.0,0.0,0.0,0.0,0.0,0.0,0.0,0,0,0,0,0,0,0,1,0,0,1,0,0
121501766,11.170211,11.287585,27.4541,28.148567,0.0,583.903,1.0,1.0,nan,0,0.0,0.0,0.0,0.0,0.0,0.0,0.0,0.0,0.0,0.0,0.0,0,0,0,0,0,0,0,1,0,0,1,0,0
121801715,11.111879,11.294667,28.2452,27.978127,0.0,586.2085,1.0,1.0,nan,0,0.0,0.0,0.0,0.0,0.0,0.0,0.0,0.0,0.0,0.0,0.0,0,0,0,0,0,0,0,1,0,0,1,0,0
122101875,11.155627,11.293615,27.747099,27.781616,0.0,588.5059,1.0,1.0,nan,0,0.0,0.0,0.0,0.0,0.0,0.0,0.0,0.0,0.0,0.0,0.0,0,0,0,0,0,0,0,1,0,0,1,0,0
122401715,11.447278,11.294584,27.307598,28.067322,0.0,590.87683,1.0,1.0,nan,0,0.0,0.0,0.0,0.0,0.0,0.0,0.0,0.0,0.0,0.0,0.0,0,0,0,0,0,0,0,1,0,0,1,0,0
122701774,11.126462,11.286435,27.835001,28.168383,0.0,593.2299,1.0,1.0,nan,0,0.0,0.0,0.0,0.0,0.0,0.0,0.0,0.0,0.0,0.0,0.0,0,0,0,0,0,0,0,1,0,0,1,0,0
123001715,11.199375,11.288327,26.545801,27.961159,0.0,595.54376,1.0,1.0,nan,0,0.0,0.0,0.0,0.0,0.0,0.0,0.0,0.0,0.0,0.0,0.0,0,0,0,0,0,0,0,1,0,0,1,0,0
123301744,11.155627,11.289157,27.6885,27.770933,0.0,597.833,1.0,1.0,nan,0,0.0,0.0,0.0,0.0,0.0,0.0,0.0,0.0,0.0,0.0,0.0,0,0,0,0,0,0,0,1,0,0,1,0,0
123601860,11.213958,11.288382,26.7802,27.671284,0.0,600.13385,1.0,1.0,nan,0,0.0,0.0,0.0,0.0,0.0,0.0,0.0,0.0,0.0,0.0,0.0,0,0,0,0,0,0,0,1,0,0,1,0,0
123901715,11.126462,11.290533,27.4834,28.062683,0.0,602.50244,1.0,1.0,nan,0,0.0,0.0,0.0,0.0,0.0,0.0,0.0,0.0,0.0,0.0,0.0,0,0,0,0,0,0,0,1,0,0,1,0,0
124201739,11.199375,11.296291,24.758501,27.633556,0.0,604.77075,1.0,1.0,nan,0,0.0,0.0,0.0,0.0,0.0,0.0,0.0,0.0,0.0,0.0,0.0,0,0,0,0,0,0,0,1,0,0,1,0,0
124501716,11.141045,11.309911,28.3331,27.527325,0.0,607.0357,1.0,1.0,nan,0,0.0,0.0,0.0,0.0,0.0,0.0,0.0,0.0,0.0,0.0,0.0,0,0,0,0,0,0,0,1,0,0,1,0,0
124801717,11.126462,11.304899,27.1025,27.490551,0.0,609.3256,1.0,1.0,nan,0,0.0,0.0,0.0,0.0,0.0,0.0,0.0,0.0,0.0,0.0,0.0,0,0,0,0,0,0,0,1,0,0,1,0,0
125101822,11.199375,11.301245,27.6592,27.558914,0.0,611.62933,1.0,1.0,nan,0,0.0,0.0,0.0,0.0,0.0,0.0,0.0,0.0,0.0,0.0,0.0,0,0,0,0,0,0,0,1,0,0,1,0,0
125401715,11.082715,11.294674,30.237598,27.974897,0.0,613.9887,1.0,1.0,nan,0,0.0,0.0,0.0,0.0,0.0,0.0,0.0,0.0,0.0,0.0,0.0,0,0,0,0,0,0,0,1,0,0,1,0,0
125701715,11.082715,11.296976,27.2197,28.194773,0.0,616.36926,1.0,1.0,nan,0,0.0,0.0,0.0,0.0,0.0,0.0,0.0,0.0,0.0,0.0,0.0,0,0,0,0,0,0,0,1,0,0,1,0,0
126001720,11.432695,11.306809,27.4834,27.812712,0.0,618.6465,1.0,1.0,nan,0,0.0,0.0,0.0,0.0,0.0,0.0,0.0,0.0,0.0,0.0,0.0,0,0,0,0,0,0,0,1,0,0,1,0,0
126301715,11.141045,11.30635,27.835001,28.022635,0.0,621.0012,1.0,1.0,nan,0,0.0,0.0,0.0,0.0,0.0,0.0,0.0,0.0,0.0,0.0,0.0,0,0,0,0,0,0,0,1,0,0,1,0,0
126601844,11.141045,11.318351,27.1025,27.570673,0.0,623.2545,1.0,1.0,nan,0,0.0,0.0,0.0,0.0,0.0,0.0,0.0,0.0,0.0,0.0,0.0,0,0,0,0,0,0,0,1,0,0,1,0,0
126901714,11.155627,11.310155,27.1025,27.620565,0.0,625.5574,1.0,1.0,nan,0,0.0,0.0,0.0,0.0,0.0,0.0,0.0,0.0,0.0,0.0,0.0,0,0,0,0,0,0,0,1,0,0,1,0,0
127201715,11.155627,11.313392,26.282099,27.665913,0.0,627.8743,1.0,1.0,nan,0,0.0,0.0,0.0,0.0,0.0,0.0,0.0,0.0,0.0,0.0,0.0,0,0,0,0,0,0,0,1,0,0,1,0,0
127501715,11.155627,11.306297,28.5089,27.539053,0.0,630.145,1.0,1.0,nan,0,0.0,0.0,0.0,0.0,0.0,0.0,0.0,0.0,0.0,0.0,0.0,0,0,0,0,0,0,0,1,0,0,1,0,0
127801719,11.199375,11.295502,27.1025,27.897976,0.0,632.51733,1.0,1.0,nan,0,0.0,0.0,0.0,0.0,0.0,0.0,0.0,0.0,0.0,0.0,0.0,0,0,0,0,0,0,0,1,0,0,1,0,0
128102016,11.126462,11.294988,29.2707,28.031116,0.0,634.85803,1.0,1.0,nan,0,0.0,0.0,0.0,0.0,0.0,0.0,0.0,0.0,0.0,0.0,0.0,0,0,0,0,0,0,0,1,0,0,1,0,0
128401715,11.418113,11.294536,27.6592,28.74507,0.0,637.3311,1.0,1.0,nan,0,0.0,0.0,0.0,0.0,0.0,0.0,0.0,0.0,0.0,0.0,0.0,0,0,0,0,0,0,0,1,0,0,1,0,0
128701767,11.22854,11.304188,23.4107,27.777075,0.0,639.5589,1.0,1.0,nan,0,0.0,0.0,0.0,0.0,0.0,0.0,0.0,0.0,0.0,0.0,0.0,0,0,0,0,0,0,0,1,0,0,1,0,0
129001748,11.111879,11.301662,27.9522,27.720821,0.0,641.82764,1.0,1.0,nan,0,0.0,0.0,0.0,0.0,0.0,0.0,0.0,0.0,0.0,0.0,0.0,0,0,0,0,0,0,0,1,0,0,1,0,0
129301715,11.359783,11.303121,28.3331,27.7303,0.0,644.1391,1.0,1.0,nan,0,0.0,0.0,0.0,0.0,0.0,0.0,0.0,0.0,0.0,0.0,0.0,0,0,0,0,0,0,0,1,0,0,1,0,0
129601823,11.199375,11.296675,27.4834,27.690865,0.0,646.44116,1.0,1.0,nan,0,0.0,0.0,0.0,0.0,0.0,0.0,0.0,0.0,0.0,0.0,0.0,0,0,0,0,0,0,0,1,0,0,1,0,0
129901715,11.316035,11.293176,30.0032,28.472532,0.0,648.8809,1.0,1.0,nan,0,0.0,0.0,0.0,0.0,0.0,0.0,0.0,0.0,0.0,0.0,0.0,0,0,0,0,0,0,0,1,0,0,1,0,0
130201718,11.170211,11.291433,27.3662,27.905273,0.0,651.15314,1.0,1.0,nan,0,0.0,0.0,0.0,0.0,0.0,0.0,0.0,0.0,0.0,0.0,0.0,0,0,0,0,0,0,0,1,0,0,1,0,0
130501742,11.155627,11.2918415,27.4834,27.614782,0.0,653.4198,1.0,1.0,nan,0,0.0,0.0,0.0,0.0,0.0,0.0,0.0,0.0,0.0,0.0,0.0,0,0,0,0,0,0,0,1,0,0,1,0,0
130801749,11.213958,11.298251,27.161098,27.261066,0.0,655.6561,1.0,1.0,nan,0,0.0,0.0,0.0,0.0,0.0,0.0,0.0,0.0,0.0,0.0,0.0,0,0,0,0,0,0,0,1,0,0,1,0,0
131101715,11.213958,11.315262,25.8426,26.913467,0.0,657.87146,1.0,1.0,nan,0,0.0,0.0,0.0,0.0,0.0,0.0,0.0,0.0,0.0,0.0,0.0,0,0,0,0,0,0,0,1,0,0,1,0,0
131401777,11.155627,11.319244,25.9891,26.766743,0.0,660.0906,1.0,1.0,nan,0,0.0,0.0,0.0,0.0,0.0,0.0,0.0,0.0,0.0,0.0,0.0,0,0,0,0,0,0,0,1,0,0,1,0,0
131701830,11.170211,11.324846,26.8681,26.613384,0.0,662.28766,1.0,1.0,nan,0,0.0,0.0,0.0,0.0,0.0,0.0,0.0,0.0,0.0,0.0,0.0,0,0,0,0,0,0,0,1,0,0,1,0,0
132001741,11.141045,11.323157,27.4541,26.755068,0.0,664.52625,1.0,1.0,nan,0,0.0,0.0,0.0,0.0,0.0,0.0,0.0,0.0,0.0,0.0,0.0,0,0,0,0,0,0,0,1,0,0,1,0,0
132301772,11.199375,11.32267,26.399302,26.939266,0.0,666.7982,1.0,1.0,nan,0,0.0,0.0,0.0,0.0,0.0,0.0,0.0,0.0,0.0,0.0,0.0,0,0,0,0,0,0,0,1,0,0,1,0,0
132601818,11.476442,11.321723,26.9267,26.958841,0.0,669.0457,1.0,1.0,nan,0,0.0,0.0,0.0,0.0,0.0,0.0,0.0,0.0,0.0,0.0,0.0,0,0,0,0,0,0,0,1,0,0,1,0,0
132901743,11.141045,11.311766,27.2197,27.211903,0.0,671.3371,1.0,1.0,nan,0,0.0,0.0,0.0,0.0,0.0,0.0,0.0,0.0,0.0,0.0,0.0,0,0,0,0,0,0,0,1,0,0,1,0,0
133201719,11.170211,11.302412,28.567501,27.462742,0.0,673.6478,1.0,1.0,nan,0,0.0,0.0,0.0,0.0,0.0,0.0,0.0,0.0,0.0,0.0,0.0,0,0,0,0,0,0,0,1,0,0,1,0,0
133501896,11.155627,11.298379,28.215899,27.43056,0.0,675.9335,1.0,1.0,nan,0,0.0,0.0,0.0,0.0,0.0,0.0,0.0,0.0,0.0,0.0,0.0,0,0,0,0,0,0,0,1,0,0,1,0,0
133801749,11.126462,11.310831,26.545801,27.237024,0.0,678.1833,1.0,1.0,nan,0,0.0,0.0,0.0,0.0,0.0,0.0,0.0,0.0,0.0,0.0,0.0,0,0,0,0,0,0,0,1,0,0,1,0,0
134101832,11.359783,11.313914,27.835001,27.17414,0.0,680.446,1.0,1.0,nan,0,0.0,0.0,0.0,0.0,0.0,0.0,0.0,0.0,0.0,0.0,0.0,0,0,0,0,0,0,0,1,0,0,1,0,0
134401716,11.213958,11.309101,26.0184,27.100231,0.0,682.7011,1.0,1.0,nan,0,0.0,0.0,0.0,0.0,0.0,0.0,0.0,0.0,0.0,0.0,0.0,0,0,0,0,0,0,0,1,0,0,1,0,0
134701716,11.155627,11.310784,26.1063,26.809378,0.0,684.9063,1.0,1.0,nan,0,0.0,0.0,0.0,0.0,0.0,0.0,0.0,0.0,0.0,0.0,0.0,0,0,0,0,0,0,0,1,0,0,1,0,0
135001741,11.22854,11.320967,26.2528,26.442875,0.0,687.0704,1.0,1.0,nan,0,0.0,0.0,0.0,0.0,0.0,0.0,0.0,0.0,0.0,0.0,0.0,0,0,0,0,0,0,0,1,0,0,1,0,0
135301716,11.213958,11.320933,26.4872,26.494673,0.0,689.28687,1.0,1.0,nan,0,0.0,0.0,0.0,0.0,0.0,0.0,0.0,0.0,0.0,0.0,0.0,0,0,0,0,0,0,0,1,0,0,1,0,0
135601846,11.170211,11.323972,26.7216,26.736032,0.0,691.541,1.0,1.0,nan,0,0.0,0.0,0.0,0.0,0.0,0.0,0.0,0.0,0.0,0.0,0.0,0,0,0,0,0,0,0,1,0,0,1,0,0
135901760,11.1847925,11.31231,27.2197,26.969118,0.0,693.81244,1.0,1.0,nan,0,0.0,0.0,0.0,0.0,0.0,0.0,0.0,0.0,0.0,0.0,0.0,0,0,0,0,0,0,0,1,0,0,1,0,0
136201717,11.141045,11.304333,28.040098,27.216864,0.0,696.10406,1.0,1.0,nan,0,0.0,0.0,0.0,0.0,0.0,0.0,0.0,0.0,0.0,0.0,0.0,0,0,0,0,0,0,0,1,0,0,1,0,0
136501749,11.418113,11.308174,26.8974,27.450796,0.0,698.42505,1.0,1.0,nan,0,0.0,0.0,0.0,0.0,0.0,0.0,0.0,0.0,0.0,0.0,0.0,0,0,0,0,0,0,0,1,0,0,1,0,0
136801715,11.05355,11.296119,29.1242,27.844027,0.0,700.77423,1.0,1.0,nan,0,0.0,0.0,0.0,0.0,0.0,0.0,0.0,0.0,0.0,0.0,0.0,0,0,0,0,0,0,0,1,0,0,1,0,0
137101868,11.213958,11.290613,26.0184,28.084051,0.0,703.159,1.0,1.0,nan,0,0.0,0.0,0.0,0.0,0.0,0.0,0.0,0.0,0.0,0.0,0.0,0,0,0,0,0,0,0,1,0,0,1,0,0
137401716,11.374366,11.296096,27.2197,27.57082,0.0,705.39667,1.0,1.0,nan,0,0.0,0.0,0.0,0.0,0.0,0.0,0.0,0.0,0.0,0.0,0.0,0,0,0,0,0,0,0,1,0,0,1,0,0
137701716,11.111879,11.295918,27.2197,27.64146,0.0,707.70746,1.0,1.0,nan,0,0.0,0.0,0.0,0.0,0.0,0.0,0.0,0.0,0.0,0.0,0.0,0,0,0,0,0,0,0,1,0,0,1,0,0
138001742,11.097298,11.287805,28.4503,27.715578,0.0,710.01996,1.0,1.0,nan,0,0.0,0.0,0.0,0.0,0.0,0.0,0.0,0.0,0.0,0.0,0.0,0,0,0,0,0,0,0,1,0,0,1,0,0
138301715,11.097298,11.278444,28.567501,28.393415,0.0,712.4605,1.0,1.0,nan,0,0.0,0.0,0.0,0.0,0.0,0.0,0.0,0.0,0.0,0.0,0.0,0,0,0,0,0,0,0,1,0,0,1,0,0
138601852,11.155627,11.268352,27.9229,28.3595,0.0,714.82587,1.0,1.0,nan,0,0.0,0.0,0.0,0.0,0.0,0.0,0.0,0.0,0.0,0.0,0.0,0,0,0,0,0,0,0,1,0,0,1,0,0
138901715,11.082715,11.269064,29.3293,28.577934,0.0,717.2247,1.0,1.0,nan,0,0.0,0.0,0.0,0.0,0.0,0.0,0.0,0.0,0.0,0.0,0.0,0,0,0,0,0,0,0,1,0,0,1,0,0
139201759,11.505608,11.273247,26.428598,28.465523,0.0,719.59576,1.0,1.0,nan,0,0.0,0.0,0.0,0.0,0.0,0.0,0.0,0.0,0.0,0.0,0.0,0,0,0,0,0,0,0,1,0,0,1,0,0
139501739,11.068132,11.301875,29.7102,27.081087,0.0,721.6838,1.0,1.0,nan,0,0.0,0.0,0.0,0.0,0.0,0.0,0.0,0.0,0.0,0.0,0.0,0,0,0,0,0,0,0,1,0,0,1,0,0
139801747,11.213958,11.293711,27.3662,27.652866,0.0,724.0532,1.0,1.0,nan,0,0.0,0.0,0.0,0.0,0.0,0.0,0.0,0.0,0.0,0.0,0.0,0,0,0,0,0,0,0,1,0,0,1,0,0
140101904,11.097298,11.284312,28.5968,28.067068,0.0,726.4302,1.0,1.0,nan,0,0.0,0.0,0.0,0.0,0.0,0.0,0.0,0.0,0.0,0.0,0.0,0,0,0,0,0,0,0,1,0,0,1,0,0
140401717,11.05355,11.28449,29.9446,28.276808,0.0,728.8021,1.0,1.0,nan,0,0.0,0.0,0.0,0.0,0.0,0.0,0.0,0.0,0.0,0.0,0.0,0,0,0,0,0,0,0,1,0,0,1,0,0
140701715,11.126462,11.261593,34.867,29.083326,0.0,731.296,1.0,1.0,nan,0,0.0,0.0,0.0,0.0,0.0,0.0,0.0,0.0,0.0,0.0,0.0,0,0,0,0,0,0,0,1,0,0,1,0,0
141001752,10.980637,11.212349,31.673302,32.031467,0.0,734.2862,1.0,1.0,nan,0,0.0,0.0,0.0,0.0,0.0,0.0,0.0,0.0,0.0,0.0,0.0,0,0,0,0,0,0,0,1,0,0,1,0,0
141301736,11.097298,11.221974,29.7688,30.522413,0.0,736.6716,1.0,1.0,nan,0,0.0,0.0,0.0,0.0,0.0,0.0,0.0,0.0,0.0,0.0,0.0,0,0,0,0,0,0,0,1,0,0,1,0,0
141601716,10.99522,11.25262,30.3841,28.120457,0.0,738.7529,1.0,1.0,nan,0,0.0,0.0,0.0,0.0,0.0,0.0,0.0,0.0,0.0,0.0,0.0,0,0,0,0,0,0,0,1,0,0,1,0,0
141901923,11.22854,11.216951,31.937,30.00582,0.0,741.4622,1.0,1.0,nan,0,0.0,0.0,0.0,0.0,0.0,0.0,0.0,0.0,0.0,0.0,0.0,0,0,0,0,0,0,0,1,0,0,1,0,0
142201788,10.966054,11.206382,30.970098,31.241892,0.0,744.1909,1.0,1.0,nan,0,0.0,0.0,0.0,0.0,0.0,0.0,0.0,0.0,0.0,0.0,0.0,0,0,0,0,0,0,0,1,0,0,1,0,0
142501741,11.359783,11.214832,28.6847,30.397528,0.0,746.6454,1.0,1.0,nan,0,0.0,0.0,0.0,0.0,0.0,0.0,0.0,0.0,0.0,0.0,0.0,0,0,0,0,0,0,0,1,0,0,1,0,0
142801914,10.980637,11.214893,30.7943,30.14035,0.0,749.1278,1.0,1.0,nan,0,0.0,0.0,0.0,0.0,0.0,0.0,0.0,0.0,0.0,0.0,0.0,0,0,0,0,0,0,0,1,0,0,1,0,0
143101829,11.388948,11.2202,28.743301,30.247553,0.0,751.6713,1.0,1.0,nan,0,0.0,0.0,0.0,0.0,0.0,0.0,0.0,0.0,0.0,0.0,0.0,0,0,0,0,0,0,0,1,0,0,1,0,0
143401803,10.951472,11.200695,31.4096,30.568888,0.0,754.2472,1.0,1.0,nan,0,0.0,0.0,0.0,0.0,0.0,0.0,0.0,0.0,0.0,0.0,0.0,0,0,0,0,0,0,0,1,0,0,1,0,0
143701715,11.05355,11.203747,28.479599,30.524187,0.0,756.78784,1.0,1.0,nan,0,0.0,0.0,0.0,0.0,0.0,0.0,0.0,0.0,0.0,0.0,0.0,0,0,0,0,0,0,0,1,0,0,1,0,0
144001717,11.068132,11.224742,29.9153,28.570667,0.0,758.96924,1.0,1.0,nan,0,0.0,0.0,0.0,0.0,0.0,0.0,0.0,0.0,0.0,0.0,0.0,0,0,0,0,0,0,0,1,0,0,1,0,0
144301716,11.038967,11.210498,31.1752,29.645378,0.0,761.5566,1.0,1.0,nan,0,0.0,0.0,0.0,0.0,0.0,0.0,0.0,0.0,0.0,0.0,0.0,0,0,0,0,0,0,0,1,0,0,1,0,0
144601823,11.257705,11.215176,31.556099,30.083355,0.0,764.1117,1.0,1.0,nan,0,0.0,0.0,0.0,0.0,0.0,0.0,0.0,0.0,0.0,0.0,0.0,0,0,0,0,0,0,0,1,0,0,1,0,0
144901716,11.316035,11.2373705,28.1573,29.474752,0.0,766.5049,1.0,1.0,nan,0,0.0,0.0,0.0,0.0,0.0,0.0,0.0,0.0,0.0,0.0,0.0,0,0,0,0,0,0,0,1,0,0,1,0,0
145201715,11.009803,11.235865,29.4465,29.574888,0.0,768.975,1.0,1.0,nan,0,0.0,0.0,0.0,0.0,0.0,0.0,0.0,0.0,0.0,0.0,0.0,0,0,0,0,0,0,0,1,0,0,1,0,0
145501738,10.922307,11.221712,33.0211,30.115707,0.0,771.5188,1.0,1.0,nan,0,0.0,0.0,0.0,0.0,0.0,0.0,0.0,0.0,0.0,0.0,0.0,0,0,0,0,0,0,0,1,0,0,1,0,0
145801719,11.359783,11.239222,28.6554,29.426798,0.0,773.9189,1.0,1.0,nan,0,0.0,0.0,0.0,0.0,0.0,0.0,0.0,0.0,0.0,0.0,0.0,0,0,0,0,0,0,0,1,0,0,1,0,0
146101795,10.863977,11.188659,44.0672,32.312813,0.0,776.8352,1.0,1.0,nan,0,0.0,0.0,0.0,0.0,0.0,0.0,0.0,0.0,0.0,0.0,0.0,0,0,0,0,0,0,0,1,0,0,1,0,0
146401769,11.52019,11.183063,23.6744,32.83858,0.0,779.711,1.0,1.0,nan,0,0.0,0.0,0.0,0.0,0.0,0.0,0.0,0.0,0.0,0.0,0.0,0,0,0,0,0,0,0,1,0,0,1,0,0
146701732,11.213958,11.255159,24.963598,27.96241,0.0,781.5278,1.0,1.0,nan,0,0.0,0.0,0.0,0.0,0.0,0.0,0.0,0.0,0.0,0.0,0.0,0,0,0,0,0,0,0,1,0,0,1,0,0
147001735,11.038967,11.225331,30.0032,29.240082,0.0,784.092,1.0,1.0,nan,0,0.0,0.0,0.0,0.0,0.0,0.0,0.0,0.0,0.0,0.0,0.0,0,0,0,0,0,0,0,1,0,0,1,0,0
147301715,11.024385,11.24523,30.032501,27.651424,0.0,786.24097,1.0,1.0,nan,0,0.0,0.0,0.0,0.0,0.0,0.0,0.0,0.0,0.0,0.0,0.0,0,0,0,0,0,0,0,1,0,0,1,0,0
147601838,11.3452,11.242341,28.743301,28.890097,0.0,788.7969,1.0,1.0,nan,0,0.0,0.0,0.0,0.0,0.0,0.0,0.0,0.0,0.0,0.0,0.0,0,0,0,0,0,0,0,1,0,0,1,0,0
147901742,10.99522,11.244903,30.7357,29.20293,0.0,791.25366,1.0,1.0,nan,0,0.0,0.0,0.0,0.0,0.0,0.0,0.0,0.0,0.0,0.0,0.0,0,0,0,0,0,0,0,1,0,0,1,0,0
148201719,11.301453,11.254101,28.421,28.74407,0.0,793.61456,1.0,1.0,nan,0,0.0,0.0,0.0,0.0,0.0,0.0,0.0,0.0,0.0,0.0,0.0,0,0,0,0,0,0,0,1,0,0,1,0,0
148501735,11.3452,11.256636,29.886,29.189363,0.0,796.08246,1.0,1.0,nan,0,0.0,0.0,0.0,0.0,0.0,0.0,0.0,0.0,0.0,0.0,0.0,0,0,0,0,0,0,0,1,0,0,1,0,0
148801715,11.22854,11.25443,23.938099,28.97647,0.0,798.5022,1.0,1.0,nan,0,0.0,0.0,0.0,0.0,0.0,0.0,0.0,0.0,0.0,0.0,0.0,0,0,0,0,0,0,0,1,0,0,1,0,0
149101836,11.316035,11.2598,28.8605,28.46493,0.0,800.79663,1.0,1.0,nan,0,0.0,0.0,0.0,0.0,0.0,0.0,0.0,0.0,0.0,0.0,0.0,0,0,0,0,0,0,0,1,0,0,1,0,0
149401819,10.99522,11.2552185,30.2669,29.116508,0.0,803.27856,1.0,1.0,nan,0,0.0,0.0,0.0,0.0,0.0,0.0,0.0,0.0,0.0,0.0,0.0,0,0,0,0,0,0,0,1,0,0,1,0,0
149701885,11.126462,11.244465,27.0439,28.845787,0.0,805.682,1.0,1.0,nan,0,0.0,0.0,0.0,0.0,0.0,0.0,0.0,0.0,0.0,0.0,0.0,0,0,0,0,0,0,0,1,0,0,1,0,0
150001735,11.111879,11.254094,27.864302,28.59018,0.0,808.0338,1.0,1.0,nan,0,0.0,0.0,0.0,0.0,0.0,0.0,0.0,0.0,0.0,0.0,0.0,0,0,0,0,0,0,0,1,0,0,1,0,0
150301717,11.05355,11.265356,28.2745,28.31592,0.0,810.36786,1.0,1.0,nan,0,0.0,0.0,0.0,0.0,0.0,0.0,0.0,0.0,0.0,0.0,0.0,0,0,0,0,0,0,0,1,0,0,1,0,0
150601847,11.316035,11.27289,28.2452,28.367214,0.0,812.7352,1.0,1.0,nan,0,0.0,0.0,0.0,0.0,0.0,0.0,0.0,0.0,0.0,0.0,0.0,0,0,0,0,0,0,0,1,0,0,1,0,0
150901715,11.038967,11.259646,30.1204,28.66891,0.0,815.1448,1.0,1.0,nan,0,0.0,0.0,0.0,0.0,0.0,0.0,0.0,0.0,0.0,0.0,0.0,0,0,0,0,0,0,0,1,0,0,1,0,0
151201715,11.359783,11.268812,29.4172,28.667706,0.0,817.54755,1.0,1.0,nan,0,0.0,0.0,0.0,0.0,0.0,0.0,0.0,0.0,0.0,0.0,0.0,0,0,0,0,0,0,0,1,0,0,1,0,0
151501732,11.068132,11.267552,28.479599,28.637207,0.0,819.9332,1.0,1.0,nan,0,0.0,0.0,0.0,0.0,0.0,0.0,0.0,0.0,0.0,0.0,0.0,0,0,0,0,0,0,0,1,0,0,1,0,0
151801777,11.40353,11.265014,27.4248,28.788721,0.0,822.34595,1.0,1.0,nan,0,0.0,0.0,0.0,0.0,0.0,0.0,0.0,0.0,0.0,0.0,0.0,0,0,0,0,0,0,0,1,0,0,1,0,0
152101808,10.93689,11.263423,31.2045,29.119562,0.0,824.79266,1.0,1.0,nan,0,0.0,0.0,0.0,0.0,0.0,0.0,0.0,0.0,0.0,0.0,0.0,0,0,0,0,0,0,0,1,0,0,1,0,0
152401715,11.068132,11.242121,29.007,29.223547,0.0,827.2493,1.0,1.0,nan,0,0.0,0.0,0.0,0.0,0.0,0.0,0.0,0.0,0.0,0.0,0.0,0,0,0,0,0,0,0,1,0,0,1,0,0
152701781,11.009803,11.229686,30.8529,29.132313,0.0,829.65704,1.0,1.0,nan,0,0.0,0.0,0.0,0.0,0.0,0.0,0.0,0.0,0.0,0.0,0.0,0,0,0,0,0,0,0,1,0,0,1,0,0
153001730,11.272287,11.2395,29.3293,28.876514,0.0,832.0412,1.0,1.0,nan,0,0.0,0.0,0.0,0.0,0.0,0.0,0.0,0.0,0.0,0.0,0.0,0,0,0,0,0,0,0,1,0,0,1,0,0
153301813,11.1847925,11.238389,29.534399,29.528584,0.0,834.5663,1.0,1.0,nan,0,0.0,0.0,0.0,0.0,0.0,0.0,0.0,0.0,0.0,0.0,0.0,0,0,0,0,0,0,0,1,0,0,1,0,0
153601821,11.009803,11.235402,30.091099,29.670767,0.0,837.05414,1.0,1.0,nan,0,0.0,0.0,0.0,0.0,0.0,0.0,0.0,0.0,0.0,0.0,0.0,0,0,0,0,0,0,0,1,0,0,1,0,0
153901715,11.199375,11.243235,31.2338,29.838419,0.0,839.54834,1.0,1.0,nan,0,0.0,0.0,0.0,0.0,0.0,0.0,0.0,0.0,0.0,0.0,0.0,0,0,0,0,0,0,0,1,0,0,1,0,0
154201716,11.024385,11.2340145,29.5637,30.13525,0.0,842.10345,1.0,1.0,nan,0,0.0,0.0,0.0,0.0,0.0,0.0,0.0,0.0,0.0,0.0,0.0,0,0,0,0,0,0,0,1,0,0,1,0,0
154501715,11.097298,11.234743,29.8274,29.558184,0.0,844.5106,1.0,1.0,nan,0,0.0,0.0,0.0,0.0,0.0,0.0,0.0,0.0,0.0,0.0,0.0,0,0,0,0,0,0,0,1,0,0,1,0,0
154801717,11.272287,11.23921,30.0618,29.339098,0.0,846.9274,1.0,1.0,nan,0,0.0,0.0,0.0,0.0,0.0,0.0,0.0,0.0,0.0,0.0,0.0,0,0,0,0,0,0,0,1,0,0,1,0,0
155101820,11.05355,11.222126,29.475801,29.363302,0.0,849.38586,1.0,1.0,nan,0,0.0,0.0,0.0,0.0,0.0,0.0,0.0,0.0,0.0,0.0,0.0,0,0,0,0,0,0,0,1,0,0,1,0,0
155401878,11.316035,11.223234,28.772598,29.518673,0.0,851.86383,1.0,1.0,nan,0,0.0,0.0,0.0,0.0,0.0,0.0,0.0,0.0,0.0,0.0,0.0,0,0,0,0,0,0,0,1,0,0,1,0,0
155701734,11.330617,11.244427,28.772598,29.022665,0.0,854.2333,1.0,1.0,nan,0,0.0,0.0,0.0,0.0,0.0,0.0,0.0,0.0,0.0,0.0,0.0,0,0,0,0,0,0,0,1,0,0,1,0,0
156001741,11.097298,11.254905,28.9777,29.053394,0.0,856.6589,1.0,1.0,nan,0,0.0,0.0,0.0,0.0,0.0,0.0,0.0,0.0,0.0,0.0,0.0,0,0,0,0,0,0,0,1,0,0,1,0,0
156301715,11.082715,11.255525,28.2452,28.73012,0.0,859.0095,1.0,1.0,nan,0,0.0,0.0,0.0,0.0,0.0,0.0,0.0,0.0,0.0,0.0,0.0,0,0,0,0,0,0,0,1,0,0,1,0,0
156601793,11.28687,11.261439,28.772598,28.595352,0.0,861.3825,1.0,1.0,nan,0,0.0,0.0,0.0,0.0,0.0,0.0,0.0,0.0,0.0,0.0,0.0,0,0,0,0,0,0,0,1,0,0,1,0,0
156901715,11.038967,11.264876,27.0439,28.386194,0.0,863.7261,1.0,1.0,nan,0,0.0,0.0,0.0,0.0,0.0,0.0,0.0,0.0,0.0,0.0,0.0,0,0,0,0,0,0,0,1,0,0,1,0,0
157201886,11.257705,11.258279,30.8529,28.478373,0.0,866.0871,1.0,1.0,nan,0,0.0,0.0,0.0,0.0,0.0,0.0,0.0,0.0,0.0,0.0,0.0,0,0,0,0,0,0,0,1,0,0,1,0,0
157501731,11.418113,11.271873,27.1025,28.459661,0.0,868.4577,1.0,1.0,nan,0,0.0,0.0,0.0,0.0,0.0,0.0,0.0,0.0,0.0,0.0,0.0,0,0,0,0,0,0,0,1,0,0,1,0,0
157801740,11.05355,11.262688,28.714,28.374338,0.0,870.8113,1.0,1.0,nan,0,0.0,0.0,0.0,0.0,0.0,0.0,0.0,0.0,0.0,0.0,0.0,0,0,0,0,0,0,0,1,0,0,1,0,0
158101789,11.082715,11.248976,27.5127,28.16461,0.0,873.1429,1.0,1.0,nan,0,0.0,0.0,0.0,0.0,0.0,0.0,0.0,0.0,0.0,0.0,0.0,0,0,0,0,0,0,0,1,0,0,1,0,0
158401717,11.3452,11.260929,28.010801,28.155102,0.0,875.48486,1.0,1.0,nan,0,0.0,0.0,0.0,0.0,0.0,0.0,0.0,0.0,0.0,0.0,0.0,0,0,0,0,0,0,0,1,0,0,1,0,0
158701715,11.05355,11.272808,28.421,28.040577,0.0,877.8128,1.0,1.0,nan,0,0.0,0.0,0.0,0.0,0.0,0.0,0.0,0.0,0.0,0.0,0.0,0,0,0,0,0,0,0,1,0,0,1,0,0
159001736,11.359783,11.276426,27.131802,27.988195,0.0,880.14087,1.0,1.0,nan,0,0.0,0.0,0.0,0.0,0.0,0.0,0.0,0.0,0.0,0.0,0.0,0,0,0,0,0,0,0,1,0,0,1,0,0
159301715,11.141045,11.281989,27.131802,27.816444,0.0,882.4385,1.0,1.0,nan,0,0.0,0.0,0.0,0.0,0.0,0.0,0.0,0.0,0.0,0.0,0.0,0,0,0,0,0,0,0,1,0,0,1,0,0
159601715,11.097298,11.293588,28.010801,27.598413,0.0,884.7155,1.0,1.0,nan,0,0.0,0.0,0.0,0.0,0.0,0.0,0.0,0.0,0.0,0.0,0.0,0,0,0,0,0,0,0,1,0,0,1,0,0
159901716,11.038967,11.272295,27.7178,27.80305,0.0,887.0543,1.0,1.0,nan,0,0.0,0.0,0.0,0.0,0.0,0.0,0.0,0.0,0.0,0.0,0.0,0,0,0,0,0,0,0,1,0,0,1,0,0
160201716,11.024385,11.265996,28.2452,28.10025,0.0,889.42456,1.0,1.0,nan,0,0.0,0.0,0.0,0.0,0.0,0.0,0.0,0.0,0.0,0.0,0.0,0,0,0,0,0,0,0,1,0,0,1,0,0
160501735,11.082715,11.2566,28.2745,28.231754,0.0,891.7876,1.0,1.0,nan,0,0.0,0.0,0.0,0.0,0.0,0.0,0.0,0.0,0.0,0.0,0.0,0,0,0,0,0,0,0,1,0,0,1,0,0
160801715,11.22854,11.242692,29.007,28.661907,0.0,894.21545,1.0,1.0,nan,0,0.0,0.0,0.0,0.0,0.0,0.0,0.0,0.0,0.0,0.0,0.0,0,0,0,0,0,0,0,1,0,0,1,0,0
161101837,11.28687,11.2518635,28.567501,28.585968,0.0,896.58954,1.0,1.0,nan,0,0.0,0.0,0.0,0.0,0.0,0.0,0.0,0.0,0.0,0.0,0.0,0,0,0,0,0,0,0,1,0,0,1,0,0
161401717,11.330617,11.255855,27.864302,28.632265,0.0,898.9855,1.0,1.0,nan,0,0.0,0.0,0.0,0.0,0.0,0.0,0.0,0.0,0.0,0.0,0.0,0,0,0,0,0,0,0,1,0,0,1,0,0
161701739,11.009803,11.25693,29.1828,28.682758,0.0,901.3695,1.0,1.0,nan,0,0.0,0.0,0.0,0.0,0.0,0.0,0.0,0.0,0.0,0.0,0.0,0,0,0,0,0,0,0,1,0,0,1,0,0
162001756,11.068132,11.23078,28.010801,28.426098,0.0,903.71234,1.0,1.0,nan,0,0.0,0.0,0.0,0.0,0.0,0.0,0.0,0.0,0.0,0.0,0.0,0,0,0,0,0,0,0,1,0,0,1,0,0
162301718,11.330617,11.248944,28.3038,28.372675,0.0,906.07513,1.0,1.0,nan,0,0.0,0.0,0.0,0.0,0.0,0.0,0.0,0.0,0.0,0.0,0.0,0,0,0,0,0,0,0,1,0,0,1,0,0
162601874,11.097298,11.241432,27.6885,28.087473,0.0,908.39886,1.0,1.0,nan,0,0.0,0.0,0.0,0.0,0.0,0.0,0.0,0.0,0.0,0.0,0.0,0,0,0,0,0,0,0,1,0,0,1,0,0
162902008,11.3452,11.255739,27.6885,28.081676,0.0,910.74225,1.0,1.0,nan,0,0.0,0.0,0.0,0.0,0.0,0.0,0.0,0.0,0.0,0.0,0.0,0,0,0,0,0,0,0,1,0,0,1,0,0
163201715,11.05355,11.242677,28.215899,28.24963,0.0,913.1033,1.0,1.0,nan,0,0.0,0.0,0.0,0.0,0.0,0.0,0.0,0.0,0.0,0.0,0.0,0,0,0,0,0,0,0,1,0,0,1,0,0
163501739,11.05355,11.222205,29.007,27.790922,0.0,915.3701,1.0,1.0,nan,0,0.0,0.0,0.0,0.0,0.0,0.0,0.0,0.0,0.0,0.0,0.0,0,0,0,0,0,0,0,1,0,0,1,0,0
163801717,11.316035,11.209192,28.2745,27.904678,0.0,917.7117,1.0,1.0,nan,0,0.0,0.0,0.0,0.0,0.0,0.0,0.0,0.0,0.0,0.0,0.0,0,0,0,0,0,0,0,1,0,0,1,0,0
164101795,11.505608,11.231247,21.389,26.68896,0.0,919.84766,1.0,1.0,nan,0,0.0,0.0,0.0,0.0,0.0,0.0,0.0,0.0,0.0,0.0,0.0,0,0,0,0,0,0,0,1,0,0,1,0,0
164401715,11.024385,11.234676,28.3624,26.525866,0.0,922.0003,1.0,1.0,nan,0,0.0,0.0,0.0,0.0,0.0,0.0,0.0,0.0,0.0,0.0,0.0,0,0,0,0,0,0,0,1,0,0,1,0,0
164701760,11.330617,11.221701,28.421,27.181952,0.0,924.33954,1.0,1.0,nan,0,0.0,0.0,0.0,0.0,0.0,0.0,0.0,0.0,0.0,0.0,0.0,0,0,0,0,0,0,0,1,0,0,1,0,0
165001729,11.3452,11.213354,26.7216,27.510586,0.0,926.6782,1.0,1.0,nan,0,0.0,0.0,0.0,0.0,0.0,0.0,0.0,0.0,0.0,0.0,0.0,0,0,0,0,0,0,0,1,0,0,1,0,0
165301742,11.257705,11.176805,31.4096,28.284107,0.0,929.0931,1.0,1.0,nan,0,0.0,0.0,0.0,0.0,0.0,0.0,0.0,0.0,0.0,0.0,0.0,0,0,0,0,0,0,0,1,0,0,1,0,0
165601837,11.272287,11.150667,29.6516,28.707403,0.0,931.5316,1.0,1.0,nan,0,0.0,0.0,0.0,0.0,0.0,0.0,0.0,0.0,0.0,0.0,0.0,0,0,0,0,0,0,0,1,0,0,1,0,0
