timestamp,ref_timestamp,ref_lat,ref_lon,x,y,z,delta_xy[0],delta_xy[1],delta_z,vx,vy,vz,z_deriv,delta_vxy[0],delta_vxy[1],delta_vz,ax,ay,az,heading,delta_heading,ref_alt,dist_bottom,eph,epv,evh,evv,vxy_max,vz_max,hagl_min,hagl_max,xy_valid,z_valid,v_xy_valid,v_z_valid,xy_reset_counter,z_reset_counter,vxy_reset_counter,vz_reset_counter,heading_reset_counter,xy_global,z_global,dist_bottom_valid
43194118,0,0.0,0.0,0.0,0.0,-1.3533735,-4.473132e-07,4.0472244e-07,0.0,0.16803665,0.06687824,-0.4711982,-0.015319963,-9.001171e-05,8.144128e-05,0.0,0.19951952,-0.065401025,-0.12254464,-2.8666465,-0.37228525,0.0,0.18909001,0.31465977,0.4864655,0.1808686,0.112937026,inf,inf,inf,inf,0,1,0,1,1,0,1,0,2,0,0,1
43204051,0,0.0,0.0,0.0,0.0,-1.3537285,-4.473132e-07,4.0472244e-07,0.0,0.16741768,0.06629076,-0.47014916,-0.014630821,-9.001171e-05,8.144128e-05,0.0,-0.14486532,-0.017434722,0.056755427,-2.8666215,-0.37228525,0.0,0.18944502,0.31612423,0.48731557,0.18159994,0.11304287,inf,inf,inf,inf,0,1,0,1,1,0,1,0,2,0,0,1
43303384,0,0.0,0.0,0.0,0.0,-1.3519781,-4.473132e-07,4.0472244e-07,0.0,0.16312249,0.058935914,-0.4680889,-0.0109083345,-9.001171e-05,8.144128e-05,0.0,-0.7467129,-0.88254005,0.074061625,-2.8665028,-0.37228525,0.0,0.1918844,0.3310598,0.4865197,0.19043487,0.11290847,inf,inf,inf,inf,0,1,0,1,1,0,1,0,2,0,0,1
43402722,0,0.0,0.0,0.0,0.0,-1.3515502,-4.473132e-07,4.0472244e-07,0.0,0.17645434,0.061832517,-0.46730793,-0.009948833,-9.001171e-05,8.144128e-05,0.0,1.4606409,1.7145755,0.4882109,-2.866314,-0.37228525,0.0,0.19145656,0.3468074,0.48570636,0.20185435,0.112771526,inf,inf,inf,inf,0,1,0,1,1,0,1,0,2,0,0,1
43497095,0,0.0,0.0,0.0,0.0,-1.3544259,-4.473132e-07,4.0472244e-07,0.0,0.1766865,0.066414624,-0.46680948,-0.010361989,-9.001171e-05,8.144128e-05,0.0,-0.45206636,-0.28179702,-0.480837,-2.8660789,-0.37228525,0.0,0.19433224,0.36155722,0.48404434,0.21393995,0.11253427,inf,inf,inf,inf,0,1,0,1,1,0,1,0,2,0,0,1
43596429,0,0.0,0.0,0.0,0.0,-1.3556879,-4.473132e-07,4.0472244e-07,0.0,0.18088311,0.07090562,-0.4584466,-0.0035970395,-9.001171e-05,8.144128e-05,0.0,-0.691097,0.57340074,0.30260676,-2.8667643,-0.37228525,0.0,0.19559419,0.3789425,0.48323843,0.22912906,0.11242391,inf,inf,inf,inf,0,1,0,1,1,0,1,0,2,0,0,1
43695792,0,0.0,0.0,0.0,0.0,-1.3559855,-4.473132e-07,4.0472244e-07,0.0,0.19349597,0.06873261,-0.46430844,-0.010963808,-9.001171e-05,8.144128e-05,0.0,0.44188416,0.29703203,0.88134634,-2.8657017,-0.37228525,0.0,0.19589186,0.39722854,0.48244876,0.24593048,0.11232218,inf,inf,inf,inf,0,1,0,1,1,0,1,0,2,0,0,1
43795111,0,0.0,0.0,0.0,0.0,-1.3580121,-4.473132e-07,4.0472244e-07,0.0,0.20242105,0.069232136,-0.4644551,-0.014325937,-9.001171e-05,8.144128e-05,0.0,0.86475515,-0.35347688,0.3728995,-2.8656948,-0.37228525,0.0,0.19791842,0.41685894,0.48631194,0.26378423,0.11286241,inf,inf,inf,inf,0,1,0,1,1,0,1,0,2,0,0,1
43894441,0,0.0,0.0,0.0,0.0,-1.3578193,-4.473132e-07,4.0472244e-07,0.0,0.20308262,0.081736915,-0.4644131,-0.014895319,-9.001171e-05,8.144128e-05,0.0,0.23966363,2.7351441,-1.9097236,-2.8659072,-0.37228525,0.0,0.19772565,0.43761656,0.4855252,0.28255266,0.11277866,inf,inf,inf,inf,0,1,0,1,1,0,1,0,2,0,0,1
44003713,0,0.0,0.0,0.0,0.0,-1.3576814,-4.473132e-07,4.0472244e-07,0.0,0.21805045,0.08798167,-0.4658182,-0.01686038,-9.001171e-05,8.144128e-05,0.0,0.95030636,3.9371,-3.0120316,-2.8656762,-0.37228525,0.0,0.19758773,0.46239325,0.48559305,0.30419555,0.112823606,inf,inf,inf,inf,0,1,0,1,1,0,1,0,2,0,0,1
44093116,0,0.0,0.0,0.0,0.0,-1.3580539,-4.473132e-07,4.0472244e-07,0.0,0.22583155,0.07799426,-0.45122564,-0.0031797043,-9.001171e-05,8.144128e-05,0.0,-0.9685176,-1.767831,3.3289638,-2.866079,-0.37228525,0.0,0.19796026,0.4841398,0.48395535,0.32249728,0.11264194,inf,inf,inf,inf,0,1,0,1,1,0,1,0,2,0,0,1
44202392,0,0.0,0.0,0.0,0.0,-1.3604473,-4.473132e-07,4.0472244e-07,0.0,0.2331734,0.07884399,-0.45262364,-0.0076968316,-9.001171e-05,8.144128e-05,0.0,1.2962117,2.5991278,-2.86883,-2.8659794,-0.37228525,0.0,0.20035362,0.5123775,0.4840118,0.3452919,0.11271024,inf,inf,inf,inf,0,1,0,1,1,0,1,0,2,0,0,1
44296760,0,0.0,0.0,0.0,0.0,-1.3639884,-4.473132e-07,4.0472244e-07,0.0,0.2318138,0.074103974,-0.4432769,-2.461232e-05,-9.001171e-05,8.144128e-05,0.0,-0.8853285,-3.1368337,1.6170292,-2.8655734,-0.37228525,0.0,0.20389473,0.5374305,0.48702094,0.3645098,0.113167696,inf,inf,inf,inf,0,1,0,1,1,0,1,0,2,0,0,1
44396114,0,0.0,0.0,0.0,0.0,-1.3641714,-4.473132e-07,4.0472244e-07,0.0,0.25056535,0.07541815,-0.4437672,-0.0010987388,-9.001171e-05,8.144128e-05,0.0,-0.12412055,-0.8381596,1.7685517,-2.8652701,-0.37228525,0.0,0.20407772,0.5667754,0.48620024,0.38600427,0.11311583,inf,inf,inf,inf,0,1,0,1,1,0,1,0,2,0,0,1
44495485,0,0.0,0.0,0.0,0.0,-1.3643869,-4.473132e-07,4.0472244e-07,0.0,0.26294437,0.07701516,-0.44276366,-0.0014629038,-9.001171e-05,8.144128e-05,0.0,-0.07866576,-0.8507409,1.8793868,-2.8647332,-0.37228525,0.0,0.20429325,0.5986479,0.4853794,0.40820894,0.11307824,inf,inf,inf,inf,0,1,0,1,1,0,1,0,2,0,0,1
44594769,0,0.0,0.0,0.0,0.0,-1.3612076,-4.473132e-07,4.0472244e-07,0.0,0.26364648,0.08434528,-0.4432863,-0.00022457179,-9.001171e-05,8.144128e-05,0.0,-0.9905075,-0.9127743,1.1083105,-2.86453,-0.37228525,0.0,0.20111394,0.6321684,0.48460433,0.43022493,0.11305859,inf,inf,inf,inf,0,1,0,1,1,0,1,0,2,0,0,1
44704048,0,0.0,0.0,0.0,0.0,-1.358525,-4.473132e-07,4.0472244e-07,0.0,0.27826068,0.083998114,-0.4397798,0.004354396,-9.001171e-05,8.144128e-05,0.0,0.7440768,-0.8696603,-0.51292735,-2.8654418,-0.37228525,0.0,0.19843137,0.67229855,0.48467225,0.45494843,0.11316262,inf,inf,inf,inf,0,1,0,1,1,0,1,0,2,0,0,1
44793574,0,0.0,0.0,0.0,0.0,-1.3557013,-4.473132e-07,4.0472244e-07,0.0,0.2923997,0.09023445,-0.44755977,-0.0020003638,-9.001171e-05,8.144128e-05,0.0,1.2597226,0.32491437,-0.60371876,-2.8640435,-0.37228525,0.0,0.19560766,0.70643634,0.48305675,0.47502998,0.11303391,inf,inf,inf,inf,0,1,0,1,1,0,1,0,2,0,0,1
44897749,0,0.0,0.0,0.0,0.0,-1.3560858,-4.473132e-07,4.0472244e-07,0.0,0.29908141,0.092625305,-0.44112286,0.004317885,-9.001171e-05,8.144128e-05,0.0,-0.48877126,-0.475981,1.1151652,-2.8648422,-0.37228525,0.0,0.19599211,0.7475316,0.4822978,0.49788988,0.113035806,inf,inf,inf,inf,0,1,0,1,1,0,1,0,2,0,0,1
44997086,0,0.0,0.0,0.0,0.0,-1.3536342,-4.473132e-07,4.0472244e-07,0.0,0.31406447,0.09184348,-0.43688062,0.008729366,-9.001171e-05,8.144128e-05,0.0,0.42302808,0.76055646,1.5898573,-2.8650212,-0.37228525,0.0,0.19354057,0.78993297,0.4815424,0.52055395,0.113040216,inf,inf,inf,inf,0,1,0,1,1,0,1,0,2,0,0,1
45096430,0,0.0,0.0,0.0,0.0,-1.3497953,-4.473132e-07,4.0472244e-07,0.0,0.31297788,0.09723282,-0.43529192,0.010797062,-9.001171e-05,8.144128e-05,0.0,-1.379854,0.38195536,1.1414533,-2.864443,-0.37228525,0.0,0.18970168,0.8359418,0.48543558,0.54370296,0.113680206,inf,inf,inf,inf,0,1,0,1,1,0,1,0,2,0,0,1
45195761,0,0.0,0.0,0.0,0.0,-1.3470756,-4.473132e-07,4.0472244e-07,0.0,0.33167112,0.087711975,-0.4358914,0.0097223325,-9.001171e-05,8.144128e-05,0.0,1.6054825,-0.6220561,-0.03591282,-2.8643494,-0.37228525,0.0,0.18698192,0.8828281,0.48469225,0.56617546,0.113693394,inf,inf,inf,inf,0,1,0,1,1,0,1,0,2,0,0,1
45295138,0,0.0,0.0,0.0,0.0,-1.3439317,-4.473132e-07,4.0472244e-07,0.0,0.3388476,0.09795033,-0.4366725,0.009006107,-9.001171e-05,8.144128e-05,0.0,0.018299794,1.6653721,-1.5908505,-2.8638613,-0.37228525,0.0,0.18383801,0.9338059,0.4839635,0.5895427,0.113724165,inf,inf,inf,inf,0,1,0,1,1,0,1,0,2,0,0,1
45394435,0,0.0,0.0,0.0,0.0,-1.3397363,-4.473132e-07,4.0472244e-07,0.0,0.35297588,0.09115303,-0.43550518,0.0111762835,-9.001171e-05,8.144128e-05,0.0,1.9232745,1.8443538,-2.9237666,-2.864052,-0.37228525,0.0,0.1799035,0.9850155,0.48323798,0.6118379,0.113747135,inf,inf,inf,inf,0,1,0,1,1,0,1,0,2,0,0,1
45503707,0,0.0,0.0,0.0,0.0,-1.3370055,-4.473132e-07,4.0472244e-07,0.0,0.35524526,0.08880468,-0.4233776,0.022434639,-9.001171e-05,8.144128e-05,0.0,-0.0030243997,-2.9263463,1.761199,-2.8648088,-0.37228525,0.0,0.17717266,1.046725,0.48337194,0.63779384,0.11391483,inf,inf,inf,inf,0,1,0,1,1,0,1,0,2,0,0,1
45603191,0,0.0,0.0,0.0,0.0,-1.3353171,-4.473132e-07,4.0472244e-07,0.0,0.37147173,0.088828534,-0.41821244,0.026020752,-9.001171e-05,8.144128e-05,0.0,-0.11193751,-0.64840776,1.9036748,-2.8647215,-0.37228525,0.0,0.1754843,1.1022404,0.4826605,0.6597314,0.113951184,inf,inf,inf,inf,0,1,0,1,1,0,1,0,2,0,0,1
45697414,0,0.0,0.0,0.0,0.0,-1.3353494,-4.473132e-07,4.0472244e-07,0.0,0.38230208,0.09717623,-0.425932,0.017287126,-9.001171e-05,8.144128e-05,0.0,-0.02519516,1.9669633,-0.84974515,-2.863838,-0.37228525,0.0,0.17884421,1.157197,0.48111364,0.6809889,0.113868706,inf,inf,inf,inf,0,1,0,1,1,0,1,0,2,0,0,1
45796747,0,0.0,0.0,0.0,0.0,-1.3330245,-4.473132e-07,4.0472244e-07,0.0,0.38669065,0.09204571,-0.4228288,0.01911264,-9.001171e-05,8.144128e-05,0.0,-0.35318196,-0.0842629,0.45168948,-2.8636522,-0.37228525,0.0,0.17651927,1.2162195,0.48501548,0.70258945,0.114520825,inf,inf,inf,inf,0,1,0,1,1,0,1,0,2,0,0,1
45896089,0,0.0,0.0,0.0,0.0,-1.3298746,-4.473132e-07,4.0472244e-07,0.0,0.40456983,0.09511934,-0.42600623,0.014460587,-9.001171e-05,8.144128e-05,0.0,1.1484727,2.1355758,-2.2011795,-2.864136,-0.37228525,0.0,0.17336941,1.2820818,0.48432508,0.726311,0.114578605,inf,inf,inf,inf,0,1,0,1,1,0,1,0,2,0,0,1
45995427,0,0.0,0.0,0.0,0.0,-1.328216,-4.473132e-07,4.0472244e-07,0.0,0.40944248,0.09340671,-0.4081727,0.029757721,-9.001171e-05,8.144128e-05,0.0,-0.57855123,0.84629613,-0.3011492,-2.8642797,-0.37228525,0.0,0.17171073,1.3443125,0.48360172,0.74701357,0.11460431,inf,inf,inf,inf,0,1,0,1,1,0,1,0,2,0,0,1
46094768,0,0.0,0.0,0.0,0.0,-1.3257759,-4.473132e-07,4.0472244e-07,0.0,0.42180628,0.08852262,-0.41275218,0.023835037,-9.001171e-05,8.144128e-05,0.0,1.6797895,0.6868092,-0.52788436,-2.8640432,-0.37228525,0.0,0.17281878,1.4149755,0.48289976,0.77078104,0.114660226,inf,inf,inf,inf,0,1,0,1,1,0,1,0,2,0,0,1
46204034,0,0.0,0.0,0.0,0.0,-1.3213202,-4.473132e-07,4.0472244e-07,0.0,0.4255689,0.07772219,-0.4003062,0.036486022,-9.001171e-05,8.144128e-05,0.0,-1.2912904,-0.4262279,1.4910207,-2.8651462,-0.37228525,0.0,0.1756339,1.487195,0.48305556,0.7928136,0.11480606,inf,inf,inf,inf,0,1,0,1,1,0,1,0,2,0,0,1
46303392,0,0.0,0.0,0.0,0.0,-1.3159952,-4.473132e-07,4.0472244e-07,0.0,0.44719797,0.070910156,-0.40282807,0.035178356,-9.001171e-05,8.144128e-05,0.0,1.1789982,-0.61974585,-0.02644632,-2.864312,-0.37228525,0.0,0.17421067,1.562779,0.48239052,0.8165724,0.1148662,inf,inf,inf,inf,0,1,0,1,1,0,1,0,2,0,0,1
46402829,0,0.0,0.0,0.0,0.0,-1.3128669,-4.473132e-07,4.0472244e-07,0.0,0.46536812,0.07154943,-0.40933636,0.02743898,-9.001171e-05,8.144128e-05,0.0,1.6732185,-0.59977853,-0.1954463,-2.8641758,-0.37228525,0.0,0.17108238,1.629561,0.48170018,0.8349945,0.11487329,inf,inf,inf,inf,0,1,0,1,1,0,1,0,2,0,0,1
46497080,0,0.0,0.0,0.0,0.0,-1.3119061,-4.473132e-07,4.0472244e-07,0.0,0.46853358,0.06932606,-0.40044245,0.0352114,-9.001171e-05,8.144128e-05,0.0,3.5039525,0.15063716,-1.0035876,-2.8639934,-0.37228525,0.0,0.17056537,1.7015527,0.48479587,0.85633737,0.11541537,inf,inf,inf,inf,0,1,0,1,1,0,1,0,2,0,0,1
46596417,0,0.0,0.0,0.0,0.0,-1.3085914,-4.473132e-07,4.0472244e-07,0.0,0.47805187,0.061422862,-0.39242354,0.041781347,-9.001171e-05,8.144128e-05,0.0,0.023067255,-0.6798427,1.1248755,-2.864634,-0.37228525,0.0,0.16944706,1.7691568,0.48409963,0.8734014,0.1154108,inf,inf,inf,inf,0,1,0,1,1,0,1,0,2,0,0,1
46695754,0,0.0,0.0,0.0,0.0,-1.303384,-4.473132e-07,4.0472244e-07,0.0,0.49076992,0.065999694,-0.40129554,0.032358516,-9.001171e-05,8.144128e-05,0.0,1.1040637,0.04760272,-1.408316,-2.8651755,-0.37228525,0.0,0.16916716,1.8533136,0.4834715,0.8969985,0.1154644,inf,inf,inf,inf,0,1,0,1,1,0,1,0,2,0,0,1
46795092,0,0.0,0.0,0.0,0.0,-1.2971452,-4.473132e-07,4.0472244e-07,0.0,0.49678147,0.058090158,-0.38826424,0.045983456,-9.001171e-05,8.144128e-05,0.0,-1.0815645,-1.5730582,-0.13416079,-2.8651278,-0.37228525,0.0,0.1733861,1.9208024,0.48282978,0.91204226,0.11544829,inf,inf,inf,inf,0,1,0,1,1,0,1,0,2,0,0,1
46904406,0,0.0,0.0,0.0,0.0,-1.2907861,-4.473132e-07,4.0472244e-07,0.0,0.5124422,0.042692382,-0.3911499,0.043133993,-9.001171e-05,8.144128e-05,0.0,-0.36467984,-1.3939533,0.43658528,-2.8649144,-0.37228525,0.0,0.1702882,2.0179992,0.48307225,0.93782896,0.11562074,inf,inf,inf,inf,0,1,0,1,1,0,1,0,2,0,0,1
46998733,0,0.0,0.0,0.0,0.0,-1.2872105,-4.473132e-07,4.0472244e-07,0.0,0.51648647,0.042551555,-0.38381132,0.05052962,-9.001171e-05,8.144128e-05,0.0,-2.6014183,-0.66632766,1.2329397,-2.864269,-0.37228525,0.0,0.17397833,2.0754237,0.48155206,0.94842654,0.11543772,inf,inf,inf,inf,0,1,0,1,1,0,1,0,2,0,0,1
47098072,0,0.0,0.0,0.0,0.0,-1.2818481,-4.473132e-07,4.0472244e-07,0.0,0.5304122,0.032900225,-0.37678817,0.056724217,-9.001171e-05,8.144128e-05,0.0,-3.7914207,-0.6223528,2.960387,-2.8643157,-0.37228525,0.0,0.16861594,2.1675467,0.48554873,0.9717459,0.116094336,inf,inf,inf,inf,0,1,0,1,1,0,1,0,2,0,0,1
47197466,0,0.0,0.0,0.0,0.0,-1.2742183,-4.473132e-07,4.0472244e-07,0.0,0.53352237,0.028509114,-0.3695186,0.06436112,-9.001171e-05,8.144128e-05,0.0,-4.829962,-0.18384576,3.4122427,-2.8643832,-0.37228525,0.0,0.1679666,2.2620256,0.4849514,0.9951822,0.11614245,inf,inf,inf,inf,0,1,0,1,1,0,1,0,2,0,0,1
47296746,0,0.0,0.0,0.0,0.0,-1.2642341,-4.473132e-07,4.0472244e-07,0.0,0.5542505,0.024087295,-0.3806278,0.055413827,-9.001171e-05,8.144128e-05,0.0,2.8760097,0.9079864,-2.6736495,-2.8644028,-0.37228525,0.0,0.17117,2.3270211,0.48429632,1.0053767,0.1160671,inf,inf,inf,inf,0,1,0,1,1,0,1,0,2,0,0,1
47396083,0,0.0,0.0,0.0,0.0,-1.2530266,-4.473132e-07,4.0472244e-07,0.0,0.5541843,0.017956194,-0.367194,0.072232336,-9.001171e-05,8.144128e-05,0.0,-1.1459018,-0.98814464,0.49837047,-2.8656607,-0.37228525,0.0,0.17407954,2.4249797,0.48372835,1.0284421,0.11612298,inf,inf,inf,inf,0,1,0,1,1,0,1,0,2,0,0,1
47495618,0,0.0,0.0,0.0,0.0,-1.2443645,-4.473132e-07,4.0472244e-07,0.0,0.5656787,0.02980954,-0.37934795,0.06090456,-9.001171e-05,8.144128e-05,0.0,-1.4282646,-0.764174,-0.236739,-2.8647103,-0.37228525,0.0,0.16541743,2.485855,0.48306715,1.0358027,0.1160138,inf,inf,inf,inf,0,1,0,1,1,0,1,0,2,0,0,1
47599727,0,0.0,0.0,0.0,0.0,-1.2417032,-4.473132e-07,4.0472244e-07,0.0,0.5682178,0.07005275,-0.3938716,0.044129644,-9.001171e-05,8.144128e-05,0.0,1.5855672,0.47580394,-1.3060275,-2.8643515,-0.37228525,0.0,0.16359746,2.5869465,0.48249292,1.058594,0.11604133,inf,inf,inf,inf,0,1,0,1,1,0,1,0,2,0,0,1
47699062,0,0.0,0.0,0.0,0.0,-1.2395284,-4.473132e-07,4.0472244e-07,0.0,0.5662384,0.080366485,-0.3927314,0.04143943,-9.001171e-05,8.144128e-05,0.0,-0.51538074,0.22304305,1.1315556,-2.8633673,-0.37228525,0.0,0.16142273,2.6427436,0.48182133,1.0631791,0.11585892,inf,inf,inf,inf,0,1,0,1,1,0,1,0,2,0,0,1
47798461,0,0.0,0.0,0.0,0.0,-1.2386484,-4.473132e-07,4.0472244e-07,0.0,0.5853646,0.04072057,-0.3727836,0.055328317,-9.001171e-05,8.144128e-05,0.0,1.1080741,0.19085807,0.3306596,-2.8625176,-0.37228525,0.0,0.16054273,2.7466512,0.48126858,1.0857074,0.11575465,inf,inf,inf,inf,0,1,0,1,1,0,1,0,2,0,0,1
47897737,0,0.0,0.0,0.0,0.0,-1.2352856,-4.473132e-07,4.0472244e-07,0.0,0.6114639,-0.053020805,-0.30981368,0.11215603,-9.001171e-05,8.144128e-05,0.0,-0.21224216,-1.6369203,2.207174,-2.8555043,-0.37228525,0.0,0.15717995,2.7959607,0.4852001,1.0869147,0.115895145,inf,inf,inf,inf,0,1,0,1,1,0,1,0,2,0,0,1
47997097,0,0.0,0.0,0.0,0.0,-1.22449,-4.473132e-07,4.0472244e-07,0.0,0.6743121,-0.027436398,-0.3690398,0.05022939,-9.001171e-05,8.144128e-05,0.0,0.75911003,3.7528102,-2.204088,-2.8463948,-0.37228525,0.0,0.14983642,2.9022944,0.4846303,1.1089249,0.115462616,inf,inf,inf,inf,0,1,0,1,1,0,1,0,2,0,0,1
48101399,0,0.0,0.0,0.0,0.0,-1.2223762,-4.473132e-07,4.0472244e-07,0.0,0.65550506,-0.058432676,-0.383008,0.033606507,-9.001171e-05,8.144128e-05,0.0,-0.4075749,-0.2547086,-0.3028259,-2.8363206,-0.37228525,0.0,0.14918423,2.9435346,0.4838795,1.106375,0.114911355,inf,inf,inf,inf,0,1,0,1,1,0,1,0,2,0,0,1
48200716,0,0.0,0.0,0.0,0.0,-1.2212559,-4.473132e-07,4.0472244e-07,0.0,0.6292353,-0.09565094,-0.36453602,0.04754648,-9.001171e-05,8.144128e-05,0.0,0.3669263,1.343318,1.3913451,-2.848442,-0.37228525,0.0,0.15039074,3.0518608,0.48327246,1.1283737,0.114934415,inf,inf,inf,inf,0,1,0,1,1,0,1,0,2,0,0,0
48300240,0,0.0,0.0,0.0,0.0,-1.2194037,-4.473132e-07,4.0472244e-07,0.0,0.6356647,-0.09239384,-0.33971363,0.0666154,-9.001171e-05,8.144128e-05,0.0,-0.8974047,2.9162781,0.13650124,-2.862942,-0.37228525,0.0,0.14853859,3.084247,0.48251754,1.1226655,0.114828885,inf,inf,inf,inf,0,1,0,1,1,0,1,0,2,0,0,0
48399431,0,0.0,0.0,0.0,0.0,-1.217163,-4.473132e-07,4.0472244e-07,0.0,0.652385,-0.059964042,-0.32274908,0.0769871,-9.001171e-05,8.144128e-05,0.0,-0.0075970404,2.5438302,-0.56005996,-2.876121,-0.37228525,0.0,0.14629781,3.194218,0.48194054,1.1438595,0.115055345,inf,inf,inf,inf,0,1,0,1,1,0,1,0,2,0,0,0
48498728,0,0.0,0.0,0.0,0.0,-1.217188,-4.473132e-07,4.0472244e-07,0.0,0.6237996,-0.06824638,-0.3552408,0.03742607,-9.001171e-05,8.144128e-05,0.0,0.8044386,1.9847145,-1.069367,-2.8796787,-0.37228525,0.0,0.14632285,3.216892,0.48118395,1.1344742,0.11501916,inf,inf,inf,inf,0,1,0,1,1,0,1,0,2,0,0,0
48598069,0,0.0,0.0,0.0,0.0,-1.2172024,-4.473132e-07,4.0472244e-07,0.0,0.61006075,-0.03503709,-0.35353884,0.034059823,-9.001171e-05,8.144128e-05,0.0,-0.39042243,0.94694835,0.5253159,-2.8777533,-0.37228525,0.0,0.14633727,3.328301,0.48523957,1.1552615,0.11578269,inf,inf,inf,inf,0,1,0,1,1,0,1,0,2,0,0,0
48697437,48617932,34.03371020000001,108.7637343,0.10141797,0.017964086,-1.2003506,-2.0851908,0.11396706,0.0,-0.00518288,0.08345089,-0.0089273695,0.37840417,-0.6203817,0.093075745,0.35396147,-0.5327056,-0.23975246,-0.24338128,-2.7849827,0.09131726,441.86426,0.14101088,0.92002594,0.48212892,0.23064984,0.17826742,inf,inf,inf,inf,1,1,1,1,2,0,2,1,3,1,1,0
48796779,48617932,34.03371020000001,108.7637343,0.073372245,0.012880719,-1.1551213,-2.0851908,0.11396706,0.0,0.004937684,0.09493539,-0.05802462,0.3281017,-0.6203817,0.093075745,0.35396147,0.56926125,-2.5583563,-1.8825288,-2.7846978,0.09131726,441.86426,0.13656771,0.92049,0.47377807,0.2329429,0.17886119,inf,inf,inf,inf,1,1,1,1,2,0,2,1,3,1,1,0
48896077,48617932,34.03371020000001,108.7637343,0.039257117,0.019272653,-1.1115853,-2.0851908,0.11396706,0.0,-0.009656259,0.12942523,-0.1246922,0.25965765,-0.6203817,0.093075745,0.35396147,-1.0652351,-0.9540532,-0.27348316,-2.7883248,0.09131726,441.86426,0.12734723,0.7505387,0.4662596,0.2074826,0.16698733,inf,inf,inf,inf,1,1,1,1,2,0,2,1,3,1,1,0
49005357,48617932,34.03371020000001,108.7637343,0.014036539,0.035422284,-1.0795889,-2.0851908,0.11396706,0.0,-0.0004633217,0.15009806,-0.19750446,0.18197678,-0.6203817,0.093075745,0.35396147,0.16384633,-4.1973233,-1.5941507,-2.7892015,0.09131726,441.86426,0.118617654,0.75189453,0.4600307,0.21450856,0.16834916,inf,inf,inf,inf,1,1,1,1,2,0,2,1,3,1,1,0
49094875,48617932,34.03371020000001,108.7637343,0.001123336,0.052141864,-1.0661762,-2.0851908,0.11396706,0.0,0.014155952,0.16307461,-0.26786873,0.10484544,-0.6203817,0.093075745,0.35396147,0.03304498,0.8006777,-1.277319,-2.7885358,0.09131726,441.86426,0.116990566,0.65009224,0.45740843,0.19720231,0.15891355,inf,inf,inf,inf,1,1,1,1,2,0,2,1,3,1,1,0
49204023,48617932,34.03371020000001,108.7637343,-0.0069559338,0.07645091,-1.0566784,-2.0851908,0.11396706,0.0,0.02219661,0.1667319,-0.30376872,0.06341499,-0.6203817,0.093075745,0.35396147,-1.2974468,-3.2245436,1.3123231,-2.78509,0.09131726,441.86426,0.13398516,0.65215397,0.4488689,0.20794477,0.16091818,inf,inf,inf,inf,1,1,1,1,2,0,2,1,3,1,1,0
49293426,48617932,34.03371020000001,108.7637343,-0.011240608,0.09693736,-1.053219,-2.0851908,0.11396706,0.0,0.024501437,0.17930152,-0.33858517,0.024879115,-0.6203817,0.093075745,0.35396147,-0.5434551,1.7729942,-1.6317232,-2.7817292,0.09131726,441.86426,0.13802528,0.5822391,0.4467233,0.19453833,0.15326257,inf,inf,inf,inf,1,1,1,1,2,0,2,1,3,1,1,0
49397778,48617932,34.03371020000001,108.7637343,-0.014243829,0.11973762,-1.0556716,-2.0851908,0.11396706,0.0,0.04076548,0.16578227,-0.38849154,-0.028032083,-0.6203817,0.093075745,0.35396147,0.61036414,-0.42791203,-1.6776949,-2.779819,0.09131726,441.86426,0.14604366,0.58471626,0.44283682,0.20648447,0.15561491,inf,inf,inf,inf,1,1,1,1,2,0,2,1,3,1,1,0
49497068,48617932,34.03371020000001,108.7637343,-0.014435147,0.14235273,-1.0631274,-2.0851908,0.11396706,0.0,0.026472192,0.15294826,-0.40741727,-0.051494714,-0.6203817,0.093075745,0.35396147,-1.9298131,-1.164086,1.1136817,-2.7778971,0.09131726,441.86426,0.15349948,0.5328584,0.4378305,0.1952753,0.14937286,inf,inf,inf,inf,1,1,1,1,2,0,2,1,3,1,1,0
49596418,48617932,34.03371020000001,108.7637343,-0.0128959045,0.1689053,-1.0749525,-2.0851908,0.11396706,0.0,0.011890613,0.1254262,-0.42044672,-0.07127708,-0.6203817,0.093075745,0.35396147,-0.44226816,-3.1428723,-1.1294317,-2.7755537,0.09131726,441.86426,0.16532457,0.5359796,0.43492123,0.20873241,0.15230228,inf,inf,inf,inf,1,1,1,1,2,0,2,1,3,1,1,0
49700710,48617932,34.03371020000001,108.7637343,-0.013249845,0.19242974,-1.0902439,-2.0851908,0.11396706,0.0,-0.0045156227,0.102864094,-0.4387072,-0.09544627,-0.6203817,0.093075745,0.35396147,1.8701595,-1.8540728,-1.125488,-2.7770371,0.09131726,441.86426,0.18061602,0.49531052,0.430375,0.19765402,0.14698726,inf,inf,inf,inf,1,1,1,1,2,0,2,1,3,1,1,0
49800047,48617932,34.03371020000001,108.7637343,-0.016957968,0.2117292,-1.1057909,-2.0851908,0.11396706,0.0,-0.04793629,0.069553286,-0.44994113,-0.11226618,-0.6203817,0.093075745,0.35396147,0.2923555,1.0012329,-0.77816963,-2.7800395,0.09131726,441.86426,0.19616294,0.49911702,0.4282835,0.21146677,0.15022577,inf,inf,inf,inf,1,1,1,1,2,0,2,1,3,1,1,0
49899497,48617932,34.03371020000001,108.7637343,-0.027899483,0.22537315,-1.1218654,-2.0851908,0.11396706,0.0,-0.10577116,0.015074947,-0.44822037,-0.11597729,-0.6203817,0.093075745,0.35396147,-0.53647745,2.3549685,0.7908976,-2.7840416,0.09131726,441.86426,0.21223748,0.46583173,0.42409393,0.19975229,0.14565957,inf,inf,inf,inf,1,1,1,1,2,0,2,1,3,1,1,0
49998721,48617932,34.03371020000001,108.7637343,-0.045460857,0.23054308,-1.1388938,-2.0851908,0.11396706,0.0,-0.12967184,-0.08358499,-0.45663384,-0.12959205,-0.6203817,0.093075745,0.35396147,1.2942463,-0.43652815,-0.13049853,-2.7877645,0.09131726,441.86426,0.22926593,0.47032216,0.42581868,0.21354912,0.1493804,inf,inf,inf,inf,1,1,1,1,2,0,2,1,3,1,1,0
50098059,48617932,34.03371020000001,108.7637343,-0.06363468,0.22735922,-1.1579267,-2.0851908,0.11396706,0.0,-0.14533448,-0.16948815,-0.4695493,-0.14824374,-0.6203817,0.093075745,0.35396147,0.21303052,-2.4854994,-0.17246056,-2.78843,0.09131726,441.86426,0.24829876,0.44216877,0.4218072,0.20083709,0.14514835,inf,inf,inf,inf,1,1,1,1,2,0,2,1,3,1,1,0
50197407,48617932,34.03371020000001,108.7637343,-0.07974145,0.21340321,-1.1807786,-2.0851908,0.11396706,0.0,-0.13662401,-0.30688125,-0.4802753,-0.16669399,-0.6203817,0.093075745,0.35396147,0.1396278,-1.9031659,-1.8226354,-2.7882776,0.09131726,441.86426,0.2711507,0.4473139,0.42097738,0.21430387,0.14907646,inf,inf,inf,inf,1,1,1,1,2,0,2,1,3,1,1,0
50296734,48617932,34.03371020000001,108.7637343,-0.09573744,0.18849193,-1.2077584,-2.0851908,0.11396706,0.0,-0.097037576,-0.40922704,-0.4916932,-0.1882933,-0.6203817,0.093075745,0.35396147,1.6196278,-1.1849315,-1.5575459,-2.78905,0.09131726,441.86426,0.2981305,0.42602944,0.4171733,0.2009975,0.14516753,inf,inf,inf,inf,1,1,1,1,2,0,2,1,3,1,1,0
50396076,48617932,34.03371020000001,108.7637343,-0.11135511,0.15756682,-1.2404772,-2.0851908,0.11396706,0.0,-0.06450106,-0.5009911,-0.49744153,-0.20736073,-0.6203817,0.093075745,0.35396147,1.7066551,1.752096,-0.27510446,-2.789669,0.09131726,441.86426,0.3308493,0.43181506,0.41686404,0.21391751,0.14932498,inf,inf,inf,inf,1,1,1,1,2,0,2,1,3,1,1,0
50495408,48617932,34.03371020000001,108.7637343,-0.122308776,0.11653341,-1.2771165,-2.0851908,0.11396706,0.0,-0.035155114,-0.56862515,-0.5038553,-0.22887968,-0.6203817,0.093075745,0.35396147,-0.48040375,2.5566626,0.88505477,-2.7902339,0.09131726,441.86426,0.36748862,0.4094503,0.41609254,0.19975188,0.14566185,inf,inf,inf,inf,1,1,1,1,2,0,2,1,3,1,1,0
50604679,48617932,34.03371020000001,108.7637343,-0.13114968,0.066874444,-1.3219255,-2.0851908,0.11396706,0.0,-0.014239392,-0.59407866,-0.52972764,-0.27204755,-0.6203817,0.093075745,0.35396147,-0.021936804,0.8136417,-0.79374135,-2.7888002,0.09131726,441.86426,0.4122976,0.41643068,0.4168731,0.2131844,0.1504726,inf,inf,inf,inf,1,1,1,1,2,0,2,1,3,1,1,0
50694206,48617932,34.03371020000001,108.7637343,-0.13625835,0.02489043,-1.3592772,-2.0851908,0.11396706,0.0,-0.014004964,-0.5721111,-0.5409851,-0.29493824,-0.6203817,0.093075745,0.35396147,-0.59762734,3.0660357,0.2595252,-2.7878666,0.09131726,441.86426,0.44964933,0.39566275,0.4126095,0.19801767,0.14621453,inf,inf,inf,inf,1,1,1,1,2,0,2,1,3,1,1,0
50803357,48617932,34.03371020000001,108.7637343,-0.14212301,-0.024838902,-1.4062514,-2.0851908,0.11396706,0.0,-0.022854134,-0.53250223,-0.55472344,-0.3212307,-0.6203817,0.093075745,0.35396147,-0.45357475,1.1793514,-1.12346,-2.7867048,0.09131726,441.86426,0.49662352,0.40316412,0.41381538,0.21059225,0.1511126,inf,inf,inf,inf,1,1,1,1,2,0,2,1,3,1,1,0
50902691,48617932,34.03371020000001,108.7637343,-0.14019477,-0.06127597,-1.4476442,-2.0851908,0.11396706,0.0,-0.031162594,-0.4443266,-0.5634187,-0.33755395,-0.6203817,0.093075745,0.35396147,-0.49589136,3.925723,-0.6292953,-2.7866902,0.09131726,441.86426,0.5380163,0.38464,0.41020533,0.19632708,0.14713727,inf,inf,inf,inf,1,1,1,1,2,0,2,1,3,1,1,0
50997061,48617932,34.03371020000001,108.7637343,-0.13062298,-0.08526031,-1.4879115,-2.0851908,0.11396706,0.0,-0.029014247,-0.3751653,-0.57224894,-0.3519448,-0.6203817,0.093075745,0.35396147,1.2051588,-0.5004105,-1.1811272,-2.786157,0.09131726,441.86426,0.57828355,0.39112848,0.4104597,0.20588131,0.15103811,inf,inf,inf,inf,1,1,1,1,2,0,2,1,3,1,1,0
51096399,48617932,34.03371020000001,108.7637343,-0.1249311,-0.105954975,-1.5301867,-2.0851908,0.11396706,0.0,-0.04805309,-0.27919176,-0.57206947,-0.3576162,-0.6203817,0.093075745,0.35396147,-0.0837812,1.8574531,0.13462453,-2.7865338,0.09131726,441.86426,0.62055874,0.373929,0.4096846,0.19188724,0.14718407,inf,inf,inf,inf,1,1,1,1,2,0,2,1,3,1,1,0
51195736,48617932,34.03371020000001,108.7637343,-0.13207188,-0.12235369,-1.5744767,-2.0851908,0.11396706,0.0,-0.07135158,-0.21703723,-0.5751811,-0.36796322,-0.6203817,0.093075745,0.35396147,-0.6367532,-0.7631712,0.7945532,-2.7865481,0.09131726,441.86426,0.6648488,0.38139853,0.4108925,0.20198105,0.15168358,inf,inf,inf,inf,1,1,1,1,2,0,2,1,3,1,1,0
51305009,48617932,34.03371020000001,108.7637343,-0.14454913,-0.1289819,-1.6218723,-2.0851908,0.11396706,0.0,-0.098915115,-0.12968762,-0.5880815,-0.38631734,-0.6203817,0.093075745,0.35396147,0.59434587,1.1987267,-1.554037,-2.7857232,0.09131726,441.86426,0.7122444,0.36686182,0.4085639,0.19213627,0.14903252,inf,inf,inf,inf,1,1,1,1,2,0,2,1,3,1,1,0
51394410,48617932,34.03371020000001,108.7637343,-0.15902801,-0.12475873,-1.6624539,-2.0851908,0.11396706,0.0,-0.13358526,-0.06026842,-0.5894099,-0.39284378,-0.6203817,0.093075745,0.35396147,-1.5680057,0.5234335,0.25424406,-2.7856846,0.09131726,441.86426,0.752826,0.37406382,0.40941343,0.20073606,0.15293175,inf,inf,inf,inf,1,1,1,1,2,0,2,1,3,1,1,0
51503753,48617932,34.03371020000001,108.7637343,-0.17962255,-0.10876381,-1.7101716,-2.0851908,0.11396706,0.0,-0.15716645,0.012932122,-0.5918896,-0.39839774,-0.6203817,0.093075745,0.35396147,-1.9344841,-1.5642452,1.3075963,-2.785181,0.09131726,441.86426,0.80054367,0.36037365,0.40716478,0.19100581,0.1502438,inf,inf,inf,inf,1,1,1,1,2,0,2,1,3,1,1,0
51593086,48617932,34.03371020000001,108.7637343,-0.19811605,-0.085368484,-1.7482288,-2.0851908,0.11396706,0.0,-0.16368786,0.08438947,-0.6050095,-0.41252288,-0.6203817,0.093075745,0.35396147,0.91918397,-1.849338,-0.36042377,-2.783859,0.09131726,441.86426,0.8386009,0.36796078,0.40827772,0.19917856,0.15408589,inf,inf,inf,inf,1,1,1,1,2,0,2,1,3,1,1,0
51702357,48617932,34.03371020000001,108.7637343,-0.22613254,-0.055442452,-1.7973071,-2.0851908,0.11396706,0.0,-0.18365566,0.17144671,-0.61481595,-0.42567527,-0.6203817,0.093075745,0.35396147,0.78432137,3.2844954,-0.8719132,-2.782253,0.09131726,441.86426,0.8876792,0.3544483,0.40576166,0.18838966,0.15080965,inf,inf,inf,inf,1,1,1,1,2,0,2,1,3,1,1,0
51791935,48617932,34.03371020000001,108.7637343,-0.25527152,-0.029661542,-1.8387665,-2.0851908,0.11396706,0.0,-0.2056284,0.22587119,-0.62076825,-0.43436167,-0.6203817,0.093075745,0.35396147,-1.2443496,3.4279158,1.0424157,-2.7810545,0.09131726,441.86426,0.92913854,0.36228567,0.40985447,0.19616729,0.15489611,inf,inf,inf,inf,1,1,1,1,2,0,2,1,3,1,1,0
51896068,48617932,34.03371020000001,108.7637343,-0.2877151,0.0012104546,-1.8887987,-2.0851908,0.11396706,0.0,-0.20237917,0.25254944,-0.60643023,-0.42300048,-0.6203817,0.093075745,0.35396147,-0.028594075,-0.026592718,1.9212751,-2.776723,0.09131726,441.86426,0.9791708,0.3500242,0.4063259,0.18450078,0.15072474,inf,inf,inf,inf,1,1,1,1,2,0,2,1,3,1,1,0
52005336,48617932,34.03371020000001,108.7637343,-0.3209022,0.032418717,-1.9320823,-2.0851908,0.11396706,0.0,-0.19829012,0.28685167,-0.52968705,-0.34705296,-0.6203817,0.093075745,0.35396147,2.0200963,0.9478077,-0.4223058,-2.7615402,0.09131726,441.86426,1.0224544,0.3598487,0.4093964,0.19356005,0.15550976,inf,inf,inf,inf,1,1,1,1,2,0,2,1,3,1,1,0
52099706,48617932,34.03371020000001,108.7637343,-0.35168362,0.06719276,-1.9612567,-2.0851908,0.11396706,0.0,-0.19258216,0.29384258,-0.4184182,-0.23661783,-0.6203817,0.093075745,0.35396147,1.3782239,0.8398732,0.5560516,-2.7478473,0.09131726,441.86426,1.0516288,0.34644,0.40468153,0.18049547,0.15016744,inf,inf,inf,inf,1,1,1,1,2,0,2,1,3,1,1,0
52199043,48617932,34.03371020000001,108.7637343,-0.3863906,0.110275574,-1.9761782,-2.0851908,0.11396706,0.0,-0.18456773,0.29758412,-0.25775474,-0.0755493,-0.6203817,0.093075745,0.35396147,0.3527363,1.1662592,1.5968497,-2.7337449,0.09131726,441.86426,1.0665503,0.35541353,0.4070488,0.18801177,0.15406546,inf,inf,inf,inf,1,1,1,1,2,0,2,1,3,1,1,0
52298451,48617932,34.03371020000001,108.7637343,-0.41724518,0.15084766,-1.9713737,-2.0851908,0.11396706,0.0,-0.16263354,0.28556713,-0.06312442,0.1213561,-0.6203817,0.093075745,0.35396147,0.28950596,0.37401417,2.4917836,-2.7202458,0.09131726,441.86426,1.0617458,0.3484386,0.40585375,0.17704767,0.14942516,inf,inf,inf,inf,1,1,1,1,2,0,2,1,3,1,1,0
52397718,48617932,34.03371020000001,108.7637343,-0.44386163,0.18924984,-1.944057,-2.0851908,0.11396706,0.0,-0.14034627,0.26328433,0.107754536,0.29725996,-0.6203817,0.093075745,0.35396147,0.19773632,-1.4743495,0.24578573,-2.7072644,0.09131726,441.86426,1.0344291,0.35758972,0.40837485,0.18395372,0.15302801,inf,inf,inf,inf,1,1,1,1,2,0,2,1,3,1,1,0
52497058,48617932,34.03371020000001,108.7637343,-0.46955144,0.21679235,-1.9123228,-2.0851908,0.11396706,0.0,-0.107037865,0.23738293,0.2131941,0.39674893,-0.6203817,0.093075745,0.35396147,-0.85988986,0.96317697,-0.14293772,-2.695889,0.09131726,441.86426,1.0026948,0.35043815,0.4044242,0.17346159,0.14801241,inf,inf,inf,inf,1,1,1,1,2,0,2,1,3,1,1,0
52596593,48617932,34.03371020000001,108.7637343,-0.49491033,0.23193172,-1.8852931,-2.0851908,0.11396706,0.0,-0.058878962,0.17314108,0.23290847,0.4012364,-0.6203817,0.093075745,0.35396147,2.215754,-3.2675493,-1.1418517,-2.6849544,0.09131726,441.86426,0.9756652,0.35970014,0.40702346,0.18003468,0.151519,inf,inf,inf,inf,1,1,1,1,2,0,2,1,3,1,1,0
52700701,48617932,34.03371020000001,108.7637343,-0.5157375,0.2409369,-1.8605,-2.0851908,0.11396706,0.0,-0.019207092,0.14252578,0.19073139,0.3444506,-0.6203817,0.093075745,0.35396147,0.24452016,1.3491119,-1.1738565,-2.6762085,0.09131726,441.86426,0.95087206,0.35254475,0.4030925,0.17031047,0.14682816,inf,inf,inf,inf,1,1,1,1,2,0,2,1,3,1,1,0
52800036,48617932,34.03371020000001,108.7637343,-0.5340478,0.24272339,-1.842572,-2.0851908,0.11396706,0.0,0.007555419,0.09772821,0.13315596,0.273706,-0.6203817,0.093075745,0.35396147,-1.2196939,-1.0531361,0.31365612,-2.669221,0.09131726,441.86426,0.93294406,0.36188418,0.40574345,0.17689738,0.15061375,inf,inf,inf,inf,1,1,1,1,2,0,2,1,3,1,1,0
52899372,48617932,34.03371020000001,108.7637343,-0.5510169,0.23950757,-1.8354315,-2.0851908,0.11396706,0.0,0.039093144,0.07538835,0.05963516,0.18431859,-0.6203817,0.093075745,0.35396147,1.547075,2.7846549,-1.9004451,-2.6650064,0.09131726,441.86426,0.92580354,0.35676104,0.401825,0.16807242,0.14615935,inf,inf,inf,inf,1,1,1,1,2,0,2,1,3,1,1,0
52998709,48617932,34.03371020000001,108.7637343,-0.5691838,0.23272705,-1.8378463,-2.0851908,0.11396706,0.0,0.055830892,0.044745136,0.021748215,0.12925757,-0.6203817,0.093075745,0.35396147,0.44348282,-2.9136941,0.90155613,-2.6635096,0.09131726,441.86426,0.92821836,0.36620212,0.40726653,0.17446664,0.15015604,inf,inf,inf,inf,1,1,1,1,2,0,2,1,3,1,1,0
53098044,48617932,34.03371020000001,108.7637343,-0.5866371,0.22334403,-1.8416822,-2.0851908,0.11396706,0.0,0.0569097,0.038124774,0.0068826545,0.10073921,-0.6203817,0.093075745,0.35396147,-0.3866216,-1.2843643,1.2741454,-2.6633432,0.09131726,441.86426,0.9320543,0.3616522,0.40327337,0.16610111,0.14569272,inf,inf,inf,inf,1,1,1,1,2,0,2,1,3,1,1,0
53197385,48617932,34.03371020000001,108.7637343,-0.6059615,0.21120456,-1.8459369,-2.0851908,0.11396706,0.0,0.07273337,0.036849517,-0.00062324904,0.08177208,-0.6203817,0.093075745,0.35396147,1.5365365,0.44310632,-0.5049335,-2.6633232,0.09131726,441.86426,0.936309,0.37116882,0.40607405,0.17222689,0.14920099,inf,inf,inf,inf,1,1,1,1,2,0,2,1,3,1,1,0
53296721,48617932,34.03371020000001,108.7637343,-0.6219019,0.19821686,-1.8484333,-2.0851908,0.11396706,0.0,0.08273236,0.025359308,0.008038373,0.08175506,-0.6203817,0.093075745,0.35396147,2.0513027,-0.17901653,-1.0323157,-2.6637318,0.09131726,441.86426,0.93880534,0.36615562,0.40247282,0.16465832,0.14509726,inf,inf,inf,inf,1,1,1,1,2,0,2,1,3,1,1,0
53396186,48617932,34.03371020000001,108.7637343,-0.6359412,0.18402809,-1.8488352,-2.0851908,0.11396706,0.0,0.09667807,0.025088629,0.008964077,0.07660056,-0.6203817,0.093075745,0.35396147,1.23398,-0.72397476,-0.4099401,-2.664479,0.09131726,441.86426,0.9392073,0.37575498,0.405326,0.1705372,0.14842032,inf,inf,inf,inf,1,1,1,1,2,0,2,1,3,1,1,0
53495396,48617932,34.03371020000001,108.7637343,-0.6480644,0.16911893,-1.8467102,-2.0851908,0.11396706,0.0,0.11117241,0.026146792,0.010127001,0.074271314,-0.6203817,0.093075745,0.35396147,0.7697807,1.6654886,-0.8057692,-2.6648343,0.09131726,441.86426,0.9370823,0.37030143,0.40196782,0.1635297,0.14459832,inf,inf,inf,inf,1,1,1,1,2,0,2,1,3,1,1,0
53604667,48617932,34.03371020000001,108.7637343,-0.6609772,0.15107414,-1.8417283,-2.0851908,0.11396706,0.0,0.12959644,0.021633558,0.0117663015,0.07473307,-0.6203817,0.093075745,0.35396147,0.4173117,-1.1369804,-0.20392108,-2.6646245,0.09131726,441.86426,0.9321004,0.3809844,0.40571642,0.169838,0.14819355,inf,inf,inf,inf,1,1,1,1,2,0,2,1,3,1,1,0
53699038,48617932,34.03371020000001,108.7637343,-0.66776675,0.13732369,-1.8341504,-2.0851908,0.11396706,0.0,0.14529496,0.018961413,0.01727857,0.082537085,-0.6203817,0.093075745,0.35396147,0.609663,-1.846048,-0.8460309,-2.662942,0.09131726,441.86426,0.9245225,0.37382066,0.40440276,0.16261551,0.14453717,inf,inf,inf,inf,1,1,1,1,2,0,2,1,3,1,1,0
53798371,48617932,34.03371020000001,108.7637343,-0.6776321,0.11889646,-1.8217888,-2.0851908,0.11396706,0.0,0.15948246,0.027521543,0.01006263,0.08119717,-0.6203817,0.093075745,0.35396147,1.0856036,-1.4934099,-1.3306556,-2.6609688,0.09131726,441.86426,0.9121609,0.38356036,0.40742096,0.16821146,0.14765443,inf,inf,inf,inf,1,1,1,1,2,0,2,1,3,1,1,0
53897737,48617932,34.03371020000001,108.7637343,-0.6848529,0.100936994,-1.8052686,-2.0851908,0.11396706,0.0,0.17361487,0.028941872,0.010094695,0.09070893,-0.6203817,0.093075745,0.35396147,-0.28375256,1.8035693,-1.374478,-2.6576703,0.09131726,441.86426,0.89564073,0.37642723,0.40447113,0.16207862,0.14440225,inf,inf,inf,inf,1,1,1,1,2,0,2,1,3,1,1,0
53997049,48617932,34.03371020000001,108.7637343,-0.6916333,0.081002176,-1.7862886,-2.0851908,0.11396706,0.0,0.19090806,0.032459557,0.005791554,0.096857265,-0.6203817,0.093075745,0.35396147,1.5043243,0.577572,-1.5125686,-2.6538236,0.09131726,441.86426,0.8766607,0.38622847,0.4075593,0.16759476,0.14743578,inf,inf,inf,inf,1,1,1,1,2,0,2,1,3,1,1,0
54096399,48617932,34.03371020000001,108.7637343,-0.6958657,0.061531425,-1.766169,-2.0851908,0.11396706,0.0,0.2089175,0.023029834,0.0033750958,0.10516391,-0.6203817,0.093075745,0.35396147,1.620442,-3.1362913,-0.9485951,-2.649474,0.09131726,441.86426,0.85654104,0.37541026,0.4033656,0.15927637,0.14287011,inf,inf,inf,inf,1,1,1,1,2,0,2,1,3,1,1,0
54195811,48617932,34.03371020000001,108.7637343,-0.6996141,0.04092471,-1.7429665,-2.0851908,0.11396706,0.0,0.22196254,0.034524795,-0.005317083,0.10915327,-0.6203817,0.093075745,0.35396147,-0.11575582,-0.63719666,-0.59772116,-2.6446664,0.09131726,441.86426,0.8333386,0.38501364,0.40642384,0.16464849,0.14577737,inf,inf,inf,inf,1,1,1,1,2,0,2,1,3,1,1,0
54295061,48617932,34.03371020000001,108.7637343,-0.7007528,0.021174902,-1.7217928,-2.0851908,0.11396706,0.0,0.2388151,0.033552103,-0.013989726,0.11067663,-0.6203817,0.093075745,0.35396147,0.85213304,-0.9420255,0.17320493,-2.638894,0.09131726,441.86426,0.8121649,0.37223268,0.4022117,0.15640596,0.14125885,inf,inf,inf,inf,1,1,1,1,2,0,2,1,3,1,1,0
54394438,48617932,34.03371020000001,108.7637343,-0.7017822,0.00073473784,-1.7027644,-2.0851908,0.11396706,0.0,0.2559916,0.05017203,-0.031075586,0.10169761,-0.6203817,0.093075745,0.35396147,-0.68924206,2.3131802,0.40807745,-2.633751,0.09131726,441.86426,0.7931365,0.38159636,0.40798688,0.16167556,0.14441875,inf,inf,inf,inf,1,1,1,1,2,0,2,1,3,1,1,0
54498703,48617932,34.03371020000001,108.7637343,-0.6984904,-0.017689671,-1.6890972,-2.0851908,0.11396706,0.0,0.27220196,0.043532573,-0.053321764,0.08352279,-0.6203817,0.093075745,0.35396147,1.00253,-0.8650947,-0.42565906,-2.628401,0.09131726,441.86426,0.77946925,0.36681935,0.40374306,0.15357253,0.13999465,inf,inf,inf,inf,1,1,1,1,2,0,2,1,3,1,1,0
54598040,48617932,34.03371020000001,108.7637343,-0.70174193,-0.040879972,-1.6798968,-2.0851908,0.11396706,0.0,0.2889797,0.052255023,-0.07701706,0.060885,-0.6203817,0.093075745,0.35396147,-0.47660688,-0.38158217,-0.69053644,-2.6250598,0.09131726,441.86426,0.7702689,0.3759131,0.4067815,0.15876941,0.14272632,inf,inf,inf,inf,1,1,1,1,2,0,2,1,3,1,1,0
54697381,48617932,34.03371020000001,108.7637343,-0.701119,-0.060811874,-1.674813,-2.0851908,0.11396706,0.0,0.30463484,0.042735882,-0.0912945,0.045125432,-0.6203817,0.093075745,0.35396147,0.5798604,-2.9938245,-0.7961997,-2.6230652,0.09131726,441.86426,0.7651851,0.36065665,0.4026277,0.15124668,0.13853435,inf,inf,inf,inf,1,1,1,1,2,0,2,1,3,1,1,0
54796715,48617932,34.03371020000001,108.7637343,-0.6998204,-0.080109045,-1.6713772,-2.0851908,0.11396706,0.0,0.31876627,0.061498486,-0.10753779,0.02728299,-0.6203817,0.093075745,0.35396147,0.61361974,0.53882676,-1.2247639,-2.6228783,0.09131726,441.86426,0.76174927,0.36951005,0.40563715,0.15637976,0.14116894,inf,inf,inf,inf,1,1,1,1,2,0,2,1,3,1,1,0
54896052,48617932,34.03371020000001,108.7637343,-0.69366366,-0.093660615,-1.6695058,-2.0851908,0.11396706,0.0,0.32868862,0.06964207,-0.11749473,0.015829943,-0.6203817,0.093075745,0.35396147,-0.8577383,-0.07564497,-1.4628451,-2.6238117,0.09131726,441.86426,0.7598779,0.35482562,0.4015653,0.14920138,0.13702986,inf,inf,inf,inf,1,1,1,1,2,0,2,1,3,1,1,0
54995449,48617932,34.03371020000001,108.7637343,-0.6853444,-0.10385036,-1.6690165,-2.0851908,0.11396706,0.0,0.34278655,0.078833684,-0.11411403,0.017074592,-0.6203817,0.093075745,0.35396147,0.644169,0.18903928,0.32905483,-2.625296,0.09131726,441.86426,0.75938857,0.3634791,0.40452972,0.15424469,0.13954723,inf,inf,inf,inf,1,1,1,1,2,0,2,1,3,1,1,0
55094749,48617932,34.03371020000001,108.7637343,-0.67484605,-0.11100969,-1.6704586,-2.0851908,0.11396706,0.0,0.34559703,0.09880741,-0.11357337,0.01373595,-0.6203817,0.093075745,0.35396147,-0.93776256,2.8083913,0.44861275,-2.6274357,0.09131726,441.86426,0.76083064,0.34896383,0.40317357,0.14738564,0.13584933,inf,inf,inf,inf,1,1,1,1,2,0,2,1,3,1,1,0
55203998,48617932,34.03371020000001,108.7637343,-0.6632806,-0.1168455,-1.6725645,-2.0851908,0.11396706,0.0,0.34911186,0.10615654,-0.10583216,0.0168596,-0.6203817,0.093075745,0.35396147,-1.1153122,1.4833769,0.80099803,-2.6300082,0.09131726,441.86426,0.7629366,0.35832468,0.4070134,0.1528461,0.13859427,inf,inf,inf,inf,1,1,1,1,2,0,2,1,3,1,1,0
55303338,48617932,34.03371020000001,108.7637343,-0.65076625,-0.12063467,-1.6794901,-2.0851908,0.11396706,0.0,0.35526982,0.112610646,-0.101073876,0.012322755,-0.6203817,0.093075745,0.35396147,0.78408647,-0.13538598,0.871301,-2.6313276,0.09131726,441.86426,0.7698622,0.3502015,0.40294585,0.14698006,0.13462652,inf,inf,inf,inf,1,1,1,1,2,0,2,1,3,1,1,0
55402674,48617932,34.03371020000001,108.7637343,-0.63982385,-0.12509422,-1.6912647,-2.0851908,0.11396706,0.0,0.353033,0.11899334,-0.10337686,-0.002871538,-0.6203817,0.093075745,0.35396147,0.3790962,0.6132339,0.42070344,-2.6322458,0.09131726,441.86426,0.78163683,0.35872534,0.40589738,0.15187055,0.1369564,inf,inf,inf,inf,1,1,1,1,2,0,2,1,3,1,1,0
55502011,48617932,34.03371020000001,108.7637343,-0.62576574,-0.1265649,-1.7021831,-2.0851908,0.11396706,0.0,0.3393132,0.11727566,-0.10633175,-0.01587429,-0.6203817,0.093075745,0.35396147,-0.34979007,-3.3542275,0.26931483,-2.633327,0.09131726,441.86426,0.7925552,0.35251105,0.40190205,0.14634798,0.13310742,inf,inf,inf,inf,1,1,1,1,2,0,2,1,3,1,1,0
55596386,48617932,34.03371020000001,108.7637343,-0.6108469,-0.1265517,-1.7113913,-2.0851908,0.11396706,0.0,0.33387288,0.13105199,-0.104277626,-0.020641591,-0.6203817,0.093075745,0.35396147,-2.316643,2.4895613,0.30537245,-2.634859,0.09131726,441.86426,0.8017634,0.36017966,0.4039602,0.15069932,0.13505666,inf,inf,inf,inf,1,1,1,1,2,0,2,1,3,1,1,0
55695718,48617932,34.03371020000001,108.7637343,-0.5939038,-0.12607387,-1.7211242,-2.0851908,0.11396706,0.0,0.33480164,0.12457293,-0.10311382,-0.026195006,-0.6203817,0.093075745,0.35396147,-0.7503093,-1.3972574,1.6314858,-2.6361628,0.09131726,441.86426,0.81149626,0.3522259,0.40006733,0.14504465,0.13134545,inf,inf,inf,inf,1,1,1,1,2,0,2,1,3,1,1,0
55795132,48617932,34.03371020000001,108.7637343,-0.57918525,-0.12847415,-1.7311957,-2.0851908,0.11396706,0.0,0.33351526,0.13169992,-0.1084027,-0.037890557,-0.6203817,0.093075745,0.35396147,-1.6794953,2.3831215,0.69243354,-2.638592,0.09131726,441.86426,0.8215678,0.36069524,0.40560433,0.14998247,0.1339222,inf,inf,inf,inf,1,1,1,1,2,0,2,1,3,1,1,0
55894392,48617932,34.03371020000001,108.7637343,-0.5629659,-0.12602891,-1.7366453,-2.0851908,0.11396706,0.0,0.34040275,0.119201854,-0.097186424,-0.028093519,-0.6203817,0.093075745,0.35396147,0.8890618,-1.3923736,1.2406858,-2.6411338,0.09131726,441.86426,0.8270174,0.35042125,0.40172502,0.14421855,0.13033466,inf,inf,inf,inf,1,1,1,1,2,0,2,1,3,1,1,0
56003664,48617932,34.03371020000001,108.7637343,-0.54530126,-0.11871167,-1.7386874,-2.0851908,0.11396706,0.0,0.33415705,0.12078031,-0.090765394,-0.020180874,-0.6203817,0.093075745,0.35396147,-0.59143436,-2.233123,0.10093142,-2.644126,0.09131726,441.86426,0.8290595,0.359688,0.40540326,0.14948642,0.1327332,inf,inf,inf,inf,1,1,1,1,2,0,2,1,3,1,1,0
56093236,48617932,34.03371020000001,108.7637343,-0.53352,-0.1139871,-1.7384405,-2.0851908,0.11396706,0.0,0.33206955,0.12718618,-0.09361322,-0.020527748,-0.6203817,0.093075745,0.35396147,0.21427794,1.3435261,-1.0270422,-2.6469257,0.09131726,441.86426,0.8288126,0.34629446,0.40075487,0.14305067,0.1289582,inf,inf,inf,inf,1,1,1,1,2,0,2,1,3,1,1,0
56197371,48617932,34.03371020000001,108.7637343,-0.5229387,-0.11016238,-1.7379934,-2.0851908,0.11396706,0.0,0.3184907,0.13338794,-0.088083506,-0.012332746,-0.6203817,0.093075745,0.35396147,-1.4584277,3.28117,0.5244483,-2.651366,0.09131726,441.86426,0.82836545,0.35457647,0.40354812,0.14781381,0.13100572,inf,inf,inf,inf,1,1,1,1,2,0,2,1,3,1,1,0
56296714,48617932,34.03371020000001,108.7637343,-0.5106866,-0.10572044,-1.7369068,-2.0851908,0.11396706,0.0,0.31100932,0.12548994,-0.08918061,-0.0107905,-0.6203817,0.093075745,0.35396147,-0.36207354,0.94120216,1.2501705,-2.6566257,0.09131726,441.86426,0.82727885,0.34009305,0.39977583,0.14184356,0.12764087,inf,inf,inf,inf,1,1,1,1,2,0,2,1,3,1,1,0
56396056,48617932,34.03371020000001,108.7637343,-0.502515,-0.10422029,-1.7329865,-2.0851908,0.11396706,0.0,0.25063524,0.08158238,-0.06287374,0.018973514,-0.6203817,0.093075745,0.35396147,-0.1632873,0.03589578,0.80132645,-2.6581306,0.09131726,441.86426,0.82335854,0.34822568,0.4025279,0.14660445,0.12962642,inf,inf,inf,inf,1,1,1,1,2,0,2,1,3,1,1,0
56495384,48617932,34.03371020000001,108.7637343,-0.49890894,-0.1067036,-1.7307118,-2.0851908,0.11396706,0.0,0.17525794,0.037220195,-0.06677495,0.015838841,-0.6203817,0.093075745,0.35396147,-0.39976197,0.2044045,1.2474929,-2.6627035,0.09131726,441.86426,0.8210839,0.33570263,0.39884242,0.14099748,0.12633997,inf,inf,inf,inf,1,1,1,1,2,0,2,1,3,1,1,0
56594788,48617932,34.03371020000001,108.7637343,-0.50622016,-0.11384259,-1.7298359,-2.0851908,0.11396706,0.0,0.035463054,-0.03964175,-0.07361791,0.008756949,-0.6203817,0.093075745,0.35396147,0.35616764,-2.5406983,-1.0556111,-2.667991,0.09131726,441.86426,0.82020795,0.34375656,0.40421018,0.14570673,0.12858081,inf,inf,inf,inf,1,1,1,1,2,0,2,1,3,1,1,0
56703992,48617932,34.03371020000001,108.7637343,-0.53391945,-0.13328205,-1.726809,-2.0851908,0.11396706,0.0,-0.20902592,-0.1575722,-0.06906793,0.015145324,-0.6203817,0.093075745,0.35396147,-2.6688745,-1.6876181,1.0575172,-2.6764612,0.09131726,441.86426,0.8171811,0.3337696,0.40128624,0.14088936,0.12560141,inf,inf,inf,inf,1,1,1,1,2,0,2,1,3,1,1,0
56803332,48617932,34.03371020000001,108.7637343,-0.5889476,-0.16396141,-1.722039,-2.0851908,0.11396706,0.0,-0.49625438,-0.28422496,-0.084353805,0.00352061,-0.6203817,0.093075745,0.35396147,-3.9278564,-2.8443346,-1.0441983,-2.6839163,0.09131726,441.86426,0.81241107,0.3418427,0.4040062,0.14571896,0.12744582,inf,inf,inf,inf,1,1,1,1,2,0,2,1,3,1,1,0
56902862,48617932,34.03371020000001,108.7637343,-0.66934717,-0.20400858,-1.7204527,-2.0851908,0.11396706,0.0,-0.77067435,-0.37607345,-0.09293212,-0.003916675,-0.6203817,0.093075745,0.35396147,-1.5654954,0.0152130835,-2.0073907,-2.6946368,0.09131726,441.86426,0.81082475,0.33256516,0.40032664,0.14087255,0.12429136,inf,inf,inf,inf,1,1,1,1,2,0,2,1,3,1,1,0
56997037,48617932,34.03371020000001,108.7637343,-0.7698175,-0.24747445,-1.7194891,-2.0851908,0.11396706,0.0,-1.0257263,-0.4482051,-0.05313593,0.035640925,-0.6203817,0.093075745,0.35396147,-2.4474692,-3.3943224,1.5608853,-2.7058995,0.09131726,441.86426,0.8098612,0.33981177,0.4021735,0.14552435,0.12582432,inf,inf,inf,inf,1,1,1,1,2,0,2,1,3,1,1,0
57096376,48617932,34.03371020000001,108.7637343,-0.89610475,-0.29513654,-1.7143923,-2.0851908,0.11396706,0.0,-1.238442,-0.46376985,-0.009611806,0.07818197,-0.6203817,0.093075745,0.35396147,-1.757187,0.85793066,-1.4716061,-2.7161055,0.09131726,441.86426,0.8047644,0.33149818,0.39859328,0.14110982,0.12280579,inf,inf,inf,inf,1,1,1,1,2,0,2,1,3,1,1,0
57195714,48617932,34.03371020000001,108.7637343,-1.038339,-0.34188074,-1.7065086,-2.0851908,0.11396706,0.0,-1.3807987,-0.4675491,0.034652397,0.11968867,-0.6203817,0.093075745,0.35396147,-0.9361703,-1.0005594,1.7546018,-2.7247403,0.09131726,441.86426,0.7968807,0.33955038,0.40117434,0.14613414,0.124499656,inf,inf,inf,inf,1,1,1,1,2,0,2,1,3,1,1,0
57295049,48617932,34.03371020000001,108.7637343,-1.1895127,-0.38665664,-1.699996,-2.0851908,0.11396706,0.0,-1.4434694,-0.41820252,0.032306567,0.11201988,-0.6203817,0.093075745,0.35396147,0.72387123,-0.6075134,-0.91877174,-2.7304344,0.09131726,441.86426,0.7903681,0.3289353,0.40026626,0.14097275,0.12185341,inf,inf,inf,inf,1,1,1,1,2,0,2,1,3,1,1,0
57394386,48617932,34.03371020000001,108.7637343,-1.3428044,-0.42771602,-1.6961628,-2.0851908,0.11396706,0.0,-1.4352181,-0.3460614,0.027663734,0.100089185,-0.6203817,0.093075745,0.35396147,-1.6620188,2.9006443,0.73406357,-2.735467,0.09131726,441.86426,0.7865349,0.3369663,0.40285298,0.14579222,0.12354684,inf,inf,inf,inf,1,1,1,1,2,0,2,1,3,1,1,0
57498692,48617932,34.03371020000001,108.7637343,-1.49454,-0.45855978,-1.693833,-2.0851908,0.11396706,0.0,-1.3268435,-0.27171806,0.013776349,0.07962691,-0.6203817,0.093075745,0.35396147,1.3398714,2.4576538,-0.036666628,-2.7359455,0.09131726,441.86426,0.7842051,0.327036,0.3993281,0.14057893,0.12069972,inf,inf,inf,inf,1,1,1,1,2,0,2,1,3,1,1,0
57598088,48617932,34.03371020000001,108.7637343,-1.6235493,-0.47539243,-1.6916223,-2.0851908,0.11396706,0.0,-1.1354648,-0.2011026,0.0062413653,0.067388795,-0.6203817,0.093075745,0.35396147,1.4501282,0.77654594,0.61282414,-2.7313771,0.09131726,441.86426,0.78199434,0.33507067,0.40184352,0.14512305,0.122350335,inf,inf,inf,inf,1,1,1,1,2,0,2,1,3,1,1,0
57697488,48617932,34.03371020000001,108.7637343,-1.7262142,-0.48705357,-1.6934748,-2.0851908,0.11396706,0.0,-0.8769925,-0.1256873,-0.015008842,0.039055593,-0.6203817,0.093075745,0.35396147,2.57134,-1.1349112,-0.85857666,-2.722107,0.09131726,441.86426,0.78384686,0.3270164,0.39835367,0.14014144,0.11960194,inf,inf,inf,inf,1,1,1,1,2,0,2,1,3,1,1,0
57796702,48617932,34.03371020000001,108.7637343,-1.7989675,-0.4935184,-1.6990094,-2.0851908,0.11396706,0.0,-0.619647,-0.042944912,-0.017620174,0.0276143,-0.6203817,0.093075745,0.35396147,1.6628228,4.214626,0.518994,-2.7096481,0.09131726,441.86426,0.7893815,0.33509824,0.40082145,0.14452386,0.121181555,inf,inf,inf,inf,1,1,1,1,2,0,2,1,3,1,1,0
57896046,48617932,34.03371020000001,108.7637343,-1.8428106,-0.49545732,-1.7086567,-2.0851908,0.11396706,0.0,-0.34590358,0.0009303848,-0.0036892495,0.028818764,-0.6203817,0.093075745,0.35396147,2.9800668,0.38445765,-1.2459117,-2.6992245,0.09131726,441.86426,0.79902875,0.32733697,0.39998698,0.1395391,0.11876681,inf,inf,inf,inf,1,1,1,1,2,0,2,1,3,1,1,0
57995377,48617932,34.03371020000001,108.7637343,-1.8596435,-0.49356523,-1.7194724,-2.0851908,0.11396706,0.0,-0.13005239,0.059618447,0.016314618,0.034847595,-0.6203817,0.093075745,0.35396147,3.643754,2.4355428,-0.66404015,-2.6909876,0.09131726,441.86426,0.8098445,0.3354578,0.40245166,0.14409566,0.12029139,inf,inf,inf,inf,1,1,1,1,2,0,2,1,3,1,1,0
58104648,48617932,34.03371020000001,108.7637343,-1.8613213,-0.48439315,-1.7249991,-2.0851908,0.11396706,0.0,0.0140321255,0.101958916,0.031218873,0.040503442,-0.6203817,0.093075745,0.35396147,-0.37699473,-1.2364378,-0.51420504,-2.6822054,0.09131726,441.86426,0.81537116,0.3285511,0.39973032,0.13976608,0.117807575,inf,inf,inf,inf,1,1,1,1,2,0,2,1,3,1,1,0
58204029,48617932,34.03371020000001,108.7637343,-1.8547662,-0.4735361,-1.7269557,-2.0851908,0.11396706,0.0,0.08899093,0.10775504,0.04825087,0.051222257,-0.6203817,0.093075745,0.35396147,0.6582839,0.55055904,-1.5924274,-2.6758642,0.09131726,441.86426,0.81732774,0.33675426,0.40210843,0.1444957,0.119300045,inf,inf,inf,inf,1,1,1,1,2,0,2,1,3,1,1,0
58303323,48617932,34.03371020000001,108.7637343,-1.8487455,-0.46134302,-1.7294676,-2.0851908,0.11396706,0.0,0.10518149,0.1211831,0.041705966,0.038622815,-0.6203817,0.093075745,0.35396147,-2.1177974,-0.87270904,1.6117336,-2.6727278,0.09131726,441.86426,0.8198397,0.32980844,0.39866835,0.13989152,0.11670653,inf,inf,inf,inf,1,1,1,1,2,0,2,1,3,1,1,0
58402669,48617932,34.03371020000001,108.7637343,-1.846108,-0.45008028,-1.7334862,-2.0851908,0.11396706,0.0,0.09176899,0.1183975,0.032759625,0.023529684,-0.6203817,0.093075745,0.35396147,-0.81793296,1.9509948,-0.41202682,-2.6709244,0.09131726,441.86426,0.82385826,0.33806208,0.40366405,0.1446705,0.11852179,inf,inf,inf,inf,1,1,1,1,2,0,2,1,3,1,1,0
58502108,48617932,34.03371020000001,108.7637343,-1.8483673,-0.4430552,-1.7354629,-2.0851908,0.11396706,0.0,0.06277304,0.09541027,0.027060699,0.014713936,-0.6203817,0.093075745,0.35396147,-0.82104623,-0.3591159,-0.88472956,-2.6701157,0.09131726,441.86426,0.825835,0.33360878,0.40020564,0.14035855,0.11598659,inf,inf,inf,inf,1,1,1,1,2,0,2,1,3,1,1,0
58596368,48617932,34.03371020000001,108.7637343,-1.8560115,-0.44167444,-1.735307,-2.0851908,0.11396706,0.0,0.03944946,0.07429439,0.024996018,0.011937504,-0.6203817,0.093075745,0.35396147,1.4435023,0.8552587,-1.7336553,-2.6743407,0.09131726,441.86426,0.82567906,0.3411057,0.40176332,0.14460143,0.11722683,inf,inf,inf,inf,1,1,1,1,2,0,2,1,3,1,1,0
58695756,48617932,34.03371020000001,108.7637343,-1.8683959,-0.44399226,-1.7344675,-2.0851908,0.11396706,0.0,0.0044780313,0.04536589,-0.021814043,-0.032499857,-0.6203817,0.093075745,0.35396147,-1.414416,-2.5076106,0.1516339,-2.6839457,0.09131726,441.86426,0.8248396,0.3387056,0.39839983,0.14072956,0.11480881,inf,inf,inf,inf,1,1,1,1,2,0,2,1,3,1,1,0
58800010,48617932,34.03371020000001,108.7637343,-1.8852787,-0.45056123,-1.738502,-2.0851908,0.11396706,0.0,-0.016757024,0.02417218,-0.0764916,-0.08366259,-0.6203817,0.093075745,0.35396147,0.29717305,-3.4741123,-0.65220946,-2.7003903,0.09131726,441.86426,0.8288741,0.34715313,0.40067306,0.14549956,0.11623417,inf,inf,inf,inf,1,1,1,1,2,0,2,1,3,1,1,0
58899371,48617932,34.03371020000001,108.7637343,-1.9040003,-0.45955706,-1.7479216,-2.0851908,0.11396706,0.0,-0.032337427,0.023746772,-0.12878788,-0.13411132,-0.6203817,0.093075745,0.35396147,-0.48206997,1.8616394,0.35305285,-2.723792,0.09131726,441.86426,0.8382937,0.34482038,0.39737344,0.14158608,0.11388924,inf,inf,inf,inf,1,1,1,1,2,0,2,1,3,1,1,0
58998684,48617932,34.03371020000001,108.7637343,-1.9256271,-0.47107166,-1.7658223,-2.0851908,0.11396706,0.0,-0.040991884,0.0007387947,-0.19304468,-0.19857107,-0.6203817,0.093075745,0.35396147,-0.13584049,-1.8834385,-0.13465281,-2.748873,0.09131726,441.86426,0.8561944,0.35339478,0.40224513,0.14672728,0.11567154,inf,inf,inf,inf,1,1,1,1,2,0,2,1,3,1,1,0
59098021,48617932,34.03371020000001,108.7637343,-1.9486558,-0.48448083,-1.7894182,-2.0851908,0.11396706,0.0,-0.0392159,0.0026781233,-0.22879204,-0.23554303,-0.6203817,0.093075745,0.35396147,0.14774333,-0.44323242,-1.1259397,-2.770173,0.09131726,441.86426,0.8797903,0.35077283,0.3989421,0.14263466,0.113363154,inf,inf,inf,inf,1,1,1,1,2,0,2,1,3,1,1,0
59197363,48617932,34.03371020000001,108.7637343,-1.9738276,-0.49996388,-1.818016,-2.0851908,0.11396706,0.0,-0.038486317,0.0012193553,-0.2758769,-0.28529996,-0.6203817,0.093075745,0.35396147,0.19983917,0.1688133,-1.8042343,-2.787449,0.09131726,441.86426,0.90838814,0.35944805,0.40119648,0.14758644,0.11476296,inf,inf,inf,inf,1,1,1,1,2,0,2,1,3,1,1,0
59296749,48617932,34.03371020000001,108.7637343,-1.9968666,-0.5173416,-1.8558226,-2.0851908,0.11396706,0.0,-0.01682302,0.0045587393,-0.4036097,-0.41617286,-0.6203817,0.093075745,0.35396147,1.4733002,1.9030199,-3.1307697,-2.802575,0.09131726,441.86426,0.94619465,0.3559955,0.39794454,0.1431581,0.11248341,inf,inf,inf,inf,1,1,1,1,2,0,2,1,3,1,1,0
59396034,48617932,34.03371020000001,108.7637343,-2.018883,-0.5381709,-1.9108906,-2.0851908,0.11396706,0.0,-0.0060330294,-0.008806942,-0.58312887,-0.59939176,-0.6203817,0.093075745,0.35396147,-1.561543,-1.9667537,-0.5791432,-2.8180006,0.09131726,441.86426,1.0012627,0.36472672,0.40014625,0.1482205,0.11386259,inf,inf,inf,inf,1,1,1,1,2,0,2,1,3,1,1,0
59505304,48617932,34.03371020000001,108.7637343,-2.0422025,-0.5620209,-1.9886792,-2.0851908,0.11396706,0.0,0.02899215,0.010852352,-0.76465034,-0.7809168,-0.6203817,0.093075745,0.35396147,1.4861506,0.9490076,-1.1792945,-2.8345342,0.09131726,441.86426,1.0790513,0.3610052,0.39770663,0.14467096,0.11194706,inf,inf,inf,inf,1,1,1,1,2,0,2,1,3,1,1,0
59594901,48617932,34.03371020000001,108.7637343,-2.0608177,-0.58373713,-2.063249,-2.0851908,0.11396706,0.0,0.04691506,-0.0035418924,-0.8530173,-0.86806864,-0.6203817,0.093075745,0.35396147,-0.11523315,-1.4564707,0.8027594,-2.8487663,0.09131726,441.86426,1.1536212,0.36892098,0.39914396,0.14980026,0.11318164,inf,inf,inf,inf,1,1,1,1,2,0,2,1,3,1,1,0
59699012,48617932,34.03371020000001,108.7637343,-2.0777678,-0.6063521,-2.1543539,-2.0851908,0.11396706,0.0,0.067065604,0.006438758,-0.87155336,-0.8841611,-0.6203817,0.093075745,0.35396147,0.3654583,-2.3771057,-0.7734792,-2.8649247,0.09131726,441.86426,1.244726,0.3633625,0.3985512,0.14533007,0.11137614,inf,inf,inf,inf,1,1,1,1,2,0,2,1,3,1,1,0
59798356,48617932,34.03371020000001,108.7637343,-2.0934682,-0.63026977,-2.2358685,-2.0851908,0.11396706,0.0,0.08246755,0.023652883,-0.8085482,-0.8169027,-0.6203817,0.093075745,0.35396147,-0.4174354,3.5913858,1.1440841,-2.8782792,0.09131726,441.86426,1.3262405,0.37213475,0.40073496,0.15085486,0.11276616,inf,inf,inf,inf,1,1,1,1,2,0,2,1,3,1,1,0
59897687,48617932,34.03371020000001,108.7637343,-2.109109,-0.6497693,-2.311386,-2.0851908,0.11396706,0.0,0.1025491,0.024706641,-0.781278,-0.7846663,-0.6203817,0.093075745,0.35396147,-0.56742144,-2.7720485,1.0830715,-2.8857903,0.09131726,441.86426,1.4017582,0.36542383,0.39756972,0.14536686,0.11054759,inf,inf,inf,inf,1,1,1,1,2,0,2,1,3,1,1,0
59997024,48617932,34.03371020000001,108.7637343,-2.1268125,-0.6661658,-2.387147,-2.0851908,0.11396706,0.0,0.11741124,0.045940604,-0.8221339,-0.8210151,-0.6203817,0.093075745,0.35396147,0.6319764,-1.8971759,-0.63010395,-2.8893876,0.09131726,441.86426,1.477519,0.37414232,0.3997185,0.1499194,0.111750565,inf,inf,inf,inf,1,1,1,1,2,0,2,1,3,1,1,0
60096393,48617932,34.03371020000001,108.7637343,-2.1483638,-0.6877204,-2.4747558,-2.0851908,0.11396706,0.0,0.1298693,0.074204594,-0.97338206,-0.9710778,-0.6203817,0.093075745,0.35396147,-1.4339225,1.932758,-1.1244192,-2.8906503,0.09131726,441.86426,1.5651278,0.3664283,0.39679843,0.14482185,0.10972705,inf,inf,inf,inf,1,1,1,1,2,0,2,1,3,1,1,0
60195720,48617932,34.03371020000001,108.7637343,-2.1761107,-0.7164492,-2.584448,-2.0851908,0.11396706,0.0,0.1491747,0.08864861,-1.2155054,-1.2141273,-0.6203817,0.093075745,0.35396147,-0.61894804,-0.8998006,-2.1471505,-2.8893015,0.09131726,441.86426,1.6748202,0.3750959,0.39890712,0.15004696,0.11100036,inf,inf,inf,inf,1,1,1,1,2,0,2,1,3,1,1,0
60295038,48617932,34.03371020000001,108.7637343,-2.1904066,-0.73510784,-2.7163439,-2.0851908,0.11396706,0.0,0.18054156,0.11395231,-1.4971799,-1.4920285,-0.6203817,0.093075745,0.35396147,2.20892,0.7352293,-2.5833418,-2.886667,0.09131726,441.86426,1.806716,0.36598706,0.39578938,0.14514819,0.10898963,inf,inf,inf,inf,1,1,1,1,2,0,2,1,3,1,1,0
60404307,48617932,34.03371020000001,108.7637343,-2.1999326,-0.76827097,-2.88702,-2.0851908,0.11396706,0.0,0.2071479,0.14849468,-1.7456048,-1.7332871,-0.6203817,0.093075745,0.35396147,0.62679946,3.4957473,-3.1739864,-2.8832498,0.09131726,441.86426,1.9773922,0.3754496,0.3985932,0.15205146,0.11059204,inf,inf,inf,inf,1,1,1,1,2,0,2,1,3,1,1,0
60493720,48617932,34.03371020000001,108.7637343,-2.2070353,-0.7880584,-3.0396554,-2.0851908,0.11396706,0.0,0.22239302,0.15080018,-1.8775799,-1.856296,-0.6203817,0.093075745,0.35396147,-0.82885975,-1.6378648,-2.0067825,-2.8814332,0.09131726,441.86426,2.1300275,0.36436453,0.3973525,0.14672083,0.10879562,inf,inf,inf,inf,1,1,1,1,2,0,2,1,3,1,1,0
60602982,48617932,34.03371020000001,108.7637343,-2.2239208,-0.80974996,-3.232158,-2.0851908,0.11396706,0.0,0.23934838,0.16392869,-1.9478908,-1.9115072,-0.6203817,0.093075745,0.35396147,0.3215233,-3.6821134,-0.29757726,-2.8820171,0.09131726,441.86426,2.32253,0.37374127,0.40016848,0.15337287,0.11033941,inf,inf,inf,inf,1,1,1,1,2,0,2,1,3,1,1,0
60702320,48617932,34.03371020000001,108.7637343,-2.2417293,-0.82832307,-3.405467,-2.0851908,0.11396706,0.0,0.2415437,0.18731442,-1.9278318,-1.875402,-0.6203817,0.093075745,0.35396147,-0.11959019,-0.5915376,-1.05394,-2.883976,0.09131726,441.86426,2.495839,0.36218902,0.39740372,0.14823204,0.10855429,inf,inf,inf,inf,1,1,1,1,2,0,2,1,3,1,1,0
60801685,48617932,34.03371020000001,108.7637343,-2.2600372,-0.8447331,-3.571064,-2.0851908,0.11396706,0.0,0.2447229,0.19224592,-1.8145797,-1.7469639,-0.6203817,0.093075745,0.35396147,-1.5000966,-2.456543,3.2709947,-2.8873527,0.09131726,441.86426,2.661436,0.3706757,0.39947408,0.1533921,0.10973796,inf,inf,inf,inf,1,1,1,1,2,0,2,1,3,1,1,0
60901004,48617932,34.03371020000001,108.7637343,-2.2728922,-0.8568425,-3.7233784,-2.0851908,0.11396706,0.0,0.2497505,0.20501915,-1.6412171,-1.5606092,-0.6203817,0.093075745,0.35396147,-1.2310991,-0.55944633,3.4710171,-2.8913045,0.09131726,441.86426,2.8137505,0.35731193,0.39689532,0.14741474,0.10794133,inf,inf,inf,inf,1,1,1,1,2,0,2,1,3,1,1,0
