timestamp,timestamp_sample,accel_device_id,gyro_device_id,delta_angle[0],delta_angle[1],delta_angle[2],delta_velocity[0],delta_velocity[1],delta_velocity[2],delta_angle_dt,delta_velocity_dt,delta_velocity_clipping
43199434,43199081,3670026,3670026,-5.7999656e-05,3.934827e-05,-3.4224814e-07,0.0002841842,-0.001982056,-0.04857411,4963,4963,0
43204412,43204051,3670026,3670026,0.00019872753,-0.00011670391,2.298646e-05,0.0017424604,-0.0025729553,-0.048434757,4970,4970,0
43701112,43700783,3670026,3670026,0.00022099262,-0.0004436662,-0.00042669242,0.0010794578,-0.0028986183,-0.042411957,4991,4991,0
44202780,44202392,3670026,3670026,0.0045112413,-0.0007114262,-9.3427676e-05,-0.008479355,-0.0141770635,-0.06254185,4969,4969,0
44704429,44704048,3670026,3670026,0.0013523618,0.00035921647,0.00018382387,-0.0012835901,0.0025352824,-0.051640008,4972,4972,0
45201131,45200728,3670026,3670026,0.0012192867,9.836103e-05,-0.0008079806,0.0012860269,-0.0006936211,-0.038063504,4967,4967,0
45702707,45702381,3670026,3670026,-0.0030663833,-6.031013e-05,-0.0009915448,0.006608222,2.7061731e-05,-0.041345507,4967,4967,0
46204436,46204034,3670026,3670026,0.00022743848,-0.0012419508,-0.00022484173,0.007622593,-0.0018258711,-0.041256655,4966,4966,0
46701065,46700721,3670026,3670026,-0.0009075912,-0.0010145801,-0.00020829454,0.017647218,0.0015973779,-0.037269622,4967,4967,0
47202889,47202513,3670026,3670026,0.000100800644,-0.00019558458,-1.274513e-05,-0.015642421,0.0019475899,-0.06195229,5047,5047,0
47699389,47699062,3670026,3670026,-0.0012150762,-0.0008388878,0.0003950177,0.0027431722,-0.0014544603,-0.04321391,4965,4965,0
48201118,48200716,3670026,3670026,0.0003774706,-0.0006445174,-0.0008346328,-0.002467414,-0.010184403,-0.041257583,4967,4967,0
48702694,48702371,3670026,3670026,-0.0017993647,0.00017991959,0.0007167115,-0.0028395934,0.0010973327,-0.053526122,4934,4934,0
49204444,49204023,3670026,3670026,0.00033930477,-0.00012677789,0.0001843077,0.012043233,0.009186332,-0.043113086,4966,4966,0
49701056,49700710,3670026,3670026,-0.0005183628,-0.0004786661,0.00069408346,-0.008652655,0.0070859855,-0.054813266,4962,4962,0
50202710,50202363,3670026,3670026,0.0023743594,0.00050707,-0.00021461945,-0.001255832,-0.0010087093,-0.041928343,4956,4956,0
50699515,50699189,3670026,3670026,-0.00352426,-5.435539e-05,0.00093000877,0.0018363749,0.012721155,-0.051447462,4983,4983,0
51201139,51200703,3670026,3670026,0.001042466,4.14981e-05,-0.00024768754,-0.0032424438,-0.011191218,-0.051512107,4967,4967,0
51702726,51702357,3670026,3670026,-0.000892801,0.0002795668,0.00043988647,-0.009102618,-0.014090836,-0.05328973,4967,4967,0
52204406,52204010,3670026,3670026,0.00068172807,0.00024109651,0.00055268116,0.006914355,0.0035319657,-0.04434205,4967,4967,0
52701030,52700701,3670026,3670026,-0.00011908387,-3.1807005e-05,-8.2308856e-05,-0.0031136586,-0.012356718,-0.05375408,4971,4971,0
53202761,53202350,3670026,3670026,-0.0003233771,0.00047837247,-0.00017736993,0.0072318125,-0.0029486963,-0.04715448,4965,4965,0
53699382,53699038,3670026,3670026,-0.00019463495,-3.5188103e-05,0.00040502992,0.0023584273,0.0058672437,-0.053595908,4968,4968,0
54201243,54200814,3670026,3670026,-0.00032303022,0.00031561375,0.00036399343,-0.0021490003,-0.005008742,-0.048421405,5003,5003,0
54702749,54702362,3670026,3670026,0.00012369627,-0.0005359019,-0.00014414014,-0.006358019,-0.013078839,-0.04689244,4981,4981,0
55204378,55203998,3670026,3670026,0.0008156153,-7.267874e-06,-0.0005419407,0.001323468,-0.011456661,-0.04441802,4967,4967,0
55701010,55700685,3670026,3670026,-0.00022573792,-9.63478e-05,0.000324273,-0.0070760557,-0.010212908,-0.05454692,4967,4967,0
56202716,56202338,3670026,3670026,-0.00075847574,0.0004467295,0.00032735907,-0.0021920109,0.014329861,-0.05347938,4967,4967,0
56704439,56703992,3670026,3670026,-0.00069039554,-0.0037809839,-0.00022777458,0.0020203085,-0.0010515262,-0.046342142,4965,4965,0
57201033,57200680,3670026,3670026,0.0016040736,0.004346481,-0.00015719605,-0.0053622858,-0.007818028,-0.05614695,4966,4966,0
57702890,57702476,3670026,3670026,0.0008305387,0.00273312,0.0002424725,-0.0012914165,-0.00778253,-0.04658884,4988,4988,0
58204362,58204029,3670026,3670026,0.0001397022,-0.0030300657,0.00081288273,-0.0036705795,-0.00441232,-0.057077225,4994,4994,0
58701062,58700679,3670026,3670026,-0.00012948399,0.0002646933,-0.0004222025,-0.010958155,-0.010841479,-0.05420279,4923,4923,0
59202750,59202328,3670026,3670026,-0.0006738446,0.0007528909,-0.00031744246,-0.0021853098,-0.0015545695,-0.04866919,4965,4965,0
59704410,59703980,3670026,3670026,-0.00012575123,-0.00011768125,-0.000882929,-0.0013738206,-0.01079417,-0.03949865,4968,4968,0
60201035,60200669,3670026,3670026,-0.00089176785,0.00045763623,0.0005856615,-0.0029124033,-0.0035855,-0.06673009,4949,4949,0
60702662,60702320,3670026,3670026,-0.00023850468,0.00042313605,0.00026995104,0.0026416555,-4.6838795e-05,-0.054180235,4968,4968,0
61199539,61199152,3670026,3670026,1.2157616e-05,-0.00037010477,-0.0005908593,0.0044811196,-0.0021400633,-0.02960832,4990,4990,0
61701054,61700727,3670026,3670026,-0.0005237379,-0.00013697594,0.00063492096,-0.0069061443,-0.0009657715,-0.056333844,5004,5004,0
62202734,62202313,3670026,3670026,-0.0010085637,-0.0025584777,0.00080826937,-0.012811414,0.0032286316,-0.060789928,4967,4967,0
62704345,62703971,3670026,3670026,0.000362651,0.0040461323,-0.0006016219,-0.005322285,-0.008979862,-0.054385494,4969,4969,0
63201028,63200654,3670026,3670026,6.81213e-05,-0.004874211,-0.00089933234,0.0026035726,-0.011436749,-0.04436456,4961,4961,0
63702702,63702306,3670026,3670026,-0.00085740077,-0.0019579406,0.00095389044,-0.003007817,0.0012504798,-0.0490998,4967,4967,0
64199393,64198993,3670026,3670026,0.0010103639,0.004403873,-0.00024351833,0.007340037,-0.0028872786,-0.043930285,4965,4965,0
64701191,64700824,3670026,3670026,-0.001432173,-0.0042858855,0.0009974991,0.0024534327,0.012721343,-0.05140226,4987,4987,0
65202634,65202310,3670026,3670026,0.0007616851,0.004357436,0.00033800866,0.0016969405,0.007928616,-0.05308874,4973,4973,0
65704327,65703953,3670026,3670026,-0.0005425811,0.0017132708,0.00012844116,-0.0047098356,0.0006246605,-0.05302168,4966,4966,0
66200973,66200639,3670026,3670026,-0.00088600884,-0.0031779872,0.00057226786,-0.00063474866,-0.0015440364,-0.04941714,4966,4966,0
66702625,66702296,3670026,3670026,0.0020606772,-0.003703805,-0.0038320476,0.0066400296,0.002336519,-0.0426462,4970,4970,0
67204283,67203946,3670026,3670026,-0.00075363624,-0.003493751,-0.00013232736,-0.0023405373,-0.0056879534,-0.049705986,4965,4965,0
67701029,67700636,3670026,3670026,0.0009388812,0.004320548,-0.00032524328,-0.004766659,-0.01219443,-0.055211738,4929,4929,0
68202638,68202286,3670026,3670026,0.001230976,0.0022919043,-0.0011116934,0.009753092,0.00025232014,-0.040547557,4783,4783,0
68699401,68698985,3670026,3670026,-0.00096379255,-0.004198137,0.00064957375,0.004587399,0.01421402,-0.05057123,4979,4979,0
69201035,69200626,3670026,3670026,-0.00056153303,0.000168394,0.00062981795,-0.013635879,-0.009026736,-0.05758743,4965,4965,0
69702651,69702280,3670026,3670026,0.00025256947,0.0023454188,-0.0002951505,0.0003754587,-0.007678917,-0.052589506,4967,4967,0
70204357,70203935,3670026,3670026,0.00046711057,-4.8955488e-05,-3.2319876e-05,-0.005189854,-0.019786455,-0.05354331,4966,4966,0
70705958,70705587,3670026,3670026,0.0005462287,-0.0013033883,-9.302063e-05,-0.009160102,-0.018759439,-0.050898295,4967,4967,0
71202633,71202273,3670026,3670026,0.00026995142,0.0005029794,-0.0005476386,-0.0045767725,-0.007591054,-0.0450365,4966,4966,0
71699309,71698960,3670026,3670026,0.000768412,-0.00011576852,-0.0007231141,-0.0011315456,-0.010326874,-0.043237336,4784,4784,0
72200994,72200660,3670026,3670026,-0.0005974638,-0.0019383888,0.00039978977,-0.0067689284,-0.0057349443,-0.051987495,4994,4994,0
72702635,72702267,3670026,3670026,-0.0007989686,0.0030750446,0.00045989262,-0.007196463,0.009033932,-0.052105173,4967,4967,0
73204251,73203920,3670026,3670026,-0.0012035391,0.0012727145,0.00068026886,-0.010791369,0.0010063782,-0.055392418,4966,4966,0
73700930,73700606,3670026,3670026,0.00079221756,0.0021055709,-0.0010841044,-0.00038815272,-0.012081751,-0.048242386,4954,4954,0
74202600,74202262,3670026,3670026,0.00041811645,-0.004007228,-7.508282e-05,-0.0022841392,-0.008999843,-0.04850495,4967,4967,0
74699295,74698947,3670026,3670026,-0.00046391375,0.0011489424,-0.0003309954,-0.0096556535,-0.0075689396,-0.043975223,4967,4967,0
75200950,75200600,3670026,3670026,-0.00026944838,-0.0005259302,0.0006054067,-0.012876247,-0.0012960567,-0.057876453,4965,4965,0
75702643,75702320,3670026,3670026,-3.653688e-05,0.0017863256,-9.571403e-05,-0.00086457,-0.005207578,-0.052228037,4991,4991,0
76204268,76203932,3670026,3670026,-0.0015896752,0.0031560815,-0.0008818461,0.008426742,-0.005027018,-0.04092225,4989,4989,0
76700918,76700593,3670026,3670026,-0.0035253381,-0.0028702924,0.0008500357,-0.013579233,-0.0074379602,-0.05344809,4967,4967,0
77202628,77202298,3670026,3670026,0.0026427,-0.0017768256,0.0006515436,0.0011436922,0.0063081263,-0.05129886,4955,4955,0
77704273,77703900,3670026,3670026,-0.004599172,-0.0015812842,0.0005755335,-0.0025318577,0.005265812,-0.051865883,4958,4958,0
78200987,78200587,3670026,3670026,0.0015566102,0.0025342735,0.0005021769,-0.008812806,0.0015908217,-0.058313712,4967,4967,0
78702584,78702241,3670026,3670026,-0.0011471355,-0.0016557247,0.0002258275,-0.018400602,-0.015551016,-0.060680624,4968,4968,0
79204393,79204061,3670026,3670026,-2.471575e-05,-0.0006657804,0.0005503229,0.008196765,0.014913314,-0.048596025,4995,4995,0
79700969,79700637,3670026,3670026,-0.00017444712,0.00033952214,0.00020748933,0.0065274057,0.002662314,-0.041841157,4994,4994,0
80202619,80202235,3670026,3670026,0.00021049732,0.0027260608,-0.00057598826,-0.002739541,-0.01315456,-0.050813287,4968,4968,0
80704315,80703940,3670026,3670026,3.299442e-05,-0.0008803919,0.0006885448,-0.0005675302,0.0023766332,-0.05609851,5016,5016,0
81201053,81200578,3670026,3670026,-0.00023846175,0.0033831024,-0.00064655213,0.00038751753,-0.011547903,-0.04156704,4971,4971,0
81702617,81702227,3670026,3670026,-0.0033469074,-0.0035531304,-9.532329e-05,-0.005654581,-0.015253811,-0.045485873,4967,4967,0
82199269,82198916,3670026,3670026,0.0037366636,0.000594076,-3.305879e-05,-0.0011880337,-0.0035578052,-0.04538177,4969,4969,0
82700992,82700664,3670026,3670026,-0.004039473,-0.0034920766,0.00078089227,-0.003028411,0.009582961,-0.053548094,4991,4991,0
83202594,83202262,3670026,3670026,0.0007224243,0.0033753621,-0.00010993492,-0.007390646,-0.0062712287,-0.050350625,4998,4998,0
83704269,83703897,3670026,3670026,-1.786724e-05,-0.0033299108,0.00026442064,-0.0022766374,-0.01633682,-0.046235014,4985,4985,0
84200888,84200564,3670026,3670026,-0.00041476268,-0.000786476,0.00042504465,-0.0151508385,-0.0068505746,-0.060150445,4970,4970,0
84702599,84702215,3670026,3670026,-0.0012668013,-0.0018614576,0.00018761055,-0.010037029,-0.013229384,-0.054098114,4966,4966,0
85199307,85198903,3670026,3670026,1.4870328e-05,-0.00096654537,0.0004611457,-0.01374852,-0.015060774,-0.05840795,4965,4965,0
85700897,85700554,3670026,3670026,-0.0008719094,-0.0024202038,-0.00070126884,0.013050474,-0.01179061,-0.038971234,4967,4967,0
86202667,86202336,3670026,3670026,0.0028763367,0.0036564579,-0.00021573291,-0.00083890784,-0.00031497452,-0.053680256,4992,4992,0
86704201,86703875,3670026,3670026,0.000330002,0.004099411,-0.00016362684,0.001914901,0.0056836256,-0.047442634,4983,4983,0
87201015,87200549,3670026,3670026,-0.000112592075,-0.0042737005,0.00087912,0.0019521496,0.013182677,-0.047749076,4968,4968,0
87702583,87702208,3670026,3670026,-0.0030396362,0.0013431032,0.001052189,-0.0066883,0.002126592,-0.05386258,4972,4972,0
88204271,88203890,3670026,3670026,0.0009541152,-0.0018823565,0.0003420725,-0.007186154,-0.007082297,-0.060142033,5002,5002,0
88700929,88700542,3670026,3670026,-0.0010443077,0.00062990544,0.00034992144,0.0037660406,0.0021756089,-0.04933782,4967,4967,0
89202549,89202200,3670026,3670026,0.0029483347,0.0032273924,-0.00024014391,-0.011159911,-0.01972369,-0.05351153,4971,4971,0
89699381,89699007,3670026,3670026,-0.0023955174,-0.00082614593,-0.00062772934,-0.0048128506,-0.01739455,-0.04106033,4989,4989,0
90200911,90200576,3670026,3670026,-0.00034722404,-0.002989318,0.00021350122,-0.014390095,-0.019348275,-0.05301622,5007,5007,0
90702560,90702189,3670026,3670026,-7.587937e-05,-0.0029446152,0.00027706157,-0.0054347795,-0.011483119,-0.047384422,4966,4966,0
91204189,91203855,3670026,3670026,-5.6970093e-05,-0.002845517,-0.00043163827,0.010054168,0.0005747016,-0.042561553,4980,4980,0
91705935,91705496,3670026,3670026,0.0002607096,-0.001100663,-0.0002175806,-0.009964237,-0.014208174,-0.057021193,4919,4919,0
92202571,92202183,3670026,3670026,-0.00052177225,0.0043343827,-0.0004557094,-0.0036760273,-0.009330985,-0.056213584,4965,4965,0
92699224,92698871,3670026,3670026,-0.0004992483,-0.00063292304,-0.0001697628,-0.012409771,-0.018176291,-0.047717728,4968,4968,0
93201073,93200695,3670026,3670026,0.0008324541,-0.002884139,0.000103175524,0.0057400945,0.013493,-0.04571065,4949,4949,0
93702550,93702184,3670026,3670026,0.00030890637,-0.001981716,0.0008583391,-0.009188214,-0.0061199795,-0.05243189,4973,4973,0
94204174,94203832,3670026,3670026,0.00016030876,-0.0013639731,0.00011131963,-0.013194825,-0.019932544,-0.055218585,4968,4968,0
94700837,94700517,3670026,3670026,0.00030337914,-0.0029188974,-0.00032500914,-0.0030785352,-0.009135442,-0.052902933,4958,4958,0
95202547,95202170,3670026,3670026,0.0006268344,0.0032038924,-0.0005179366,0.0033277192,0.0057932395,-0.04828099,4962,4962,0
95699262,95698857,3670026,3670026,-0.00059508806,6.444788e-05,-0.00013020543,-0.01077819,0.00030530788,-0.047924504,4967,4967,0
96200855,96200513,3670026,3670026,-0.0009078208,0.0025213028,0.00014379885,-0.016345907,-0.019691717,-0.05927227,4969,4969,0
96702760,96702350,3670026,3670026,-0.00034555251,-0.0011347232,0.000630713,-0.001686965,-0.0056638746,-0.051103726,4988,4988,0
97204205,97203833,3670026,3670026,-0.000945832,0.00093068025,0.00077365874,-0.0033143978,-0.008440732,-0.049576845,4979,4979,0
97700874,97700507,3670026,3670026,-0.00018528693,-0.0017400981,0.00044345568,-0.0012546135,0.007200885,-0.0518696,4969,4969,0
98202627,98202161,3670026,3670026,-0.0003229237,0.0020373052,-0.0005727295,-0.0008318576,0.001105743,-0.046297587,4967,4967,0
98704134,98703813,3670026,3670026,0.0005759105,-0.003261984,-0.000404707,-0.002776388,-0.011492636,-0.04998799,4967,4967,0
99200918,99200500,3670026,3670026,-0.0012992544,0.0008321543,0.0018410089,-0.004092151,0.0008566469,-0.05543971,4967,4967,0
99702499,99702153,3670026,3670026,-0.000880949,0.00047425227,0.0024699168,0.0010824167,0.008826383,-0.054620348,4967,4967,0
100204162,100203807,3670026,3670026,0.00045891022,-0.00020477512,0.0026967726,-0.005703875,-0.010529482,-0.047663942,4773,4773,0
100700957,100700570,3670026,3670026,-0.0006281499,0.00018955072,0.0044517354,0.0017637938,-0.0022789473,-0.04348491,4991,4991,0
101202502,101202172,3670026,3670026,-0.00097625033,0.00042797817,0.0016653249,-0.0048631583,0.0030800272,-0.047703397,4994,4994,0
101704243,101703802,3670026,3670026,0.00050325633,-0.00067926967,0.0036692007,0.0060587614,-0.00045742217,-0.045791596,4966,4966,0
102200853,102200524,3670026,3670026,6.315458e-05,-0.0037361374,0.0005277912,0.0047264067,-0.0042359214,-0.050554313,4994,4994,0
102702548,102702144,3670026,3670026,9.752635e-05,0.0033619534,-0.0006811682,-0.0015286694,-0.009709357,-0.041998804,4968,4968,0
103199227,103198829,3670026,3670026,0.0012130862,0.0007048239,-0.00065186835,0.012074522,-0.0023350103,-0.043750685,4967,4967,0
103700828,103700485,3670026,3670026,-0.00026129343,0.0011543086,0.00093272084,-0.0014313454,0.009718234,-0.050491508,4778,4778,0
104202621,104202225,3670026,3670026,0.0010732772,-0.0031838322,-0.00037149023,-0.0042546303,-0.016220137,-0.051714856,4967,4967,0
104704163,104703791,3670026,3670026,-0.00034574047,-0.0015126243,0.0007211478,-0.0088010235,-0.009160534,-0.054342244,4967,4967,0
105205846,105205452,3670026,3670026,0.00012859021,0.00070236926,-0.00053760933,-0.0048581543,-0.013414864,-0.04785157,4974,4974,0
105702513,105702132,3670026,3670026,2.0717833e-05,-0.003409877,-0.0014064632,0.005900277,-0.008695312,-0.04483836,4967,4967,0
106199146,106198818,3670026,3670026,-0.0037519003,0.000306904,-0.0002566296,-0.0012373514,0.0007031967,-0.054444935,4966,4966,0
106700822,106700472,3670026,3670026,0.00045094494,0.0005108188,0.0006454647,-0.008879237,0.0062951986,-0.058232624,4966,4966,0
107202477,107202126,3670026,3670026,0.003456536,-0.0004910841,0.00093755004,-0.009041598,-0.003482204,-0.059359573,4967,4967,0
107704230,107703859,3670026,3670026,-0.0026445407,0.0005278549,0.000547584,0.0060232077,0.012385354,-0.04547901,4989,4989,0
108200796,108200467,3670026,3670026,-3.2462605e-05,0.0040115057,-0.00060004066,0.0017438465,-0.008829665,-0.050396096,4966,4966,0
108702487,108702117,3670026,3670026,0.001280926,-0.003921241,-7.148562e-07,-0.0019018356,-0.0063658287,-0.05606883,4940,4940,0
109204168,109203776,3670026,3670026,-0.0004844192,0.0008912887,0.00066887186,-0.015459526,-0.013387712,-0.05672447,4968,4968,0
109700831,109700461,3670026,3670026,-0.0007526709,-0.002421562,0.00047596983,-0.008289031,0.00642566,-0.050370563,4966,4966,0
110202473,110202117,3670026,3670026,-0.0012886671,0.0013801382,-0.00014917216,0.010477559,0.017257636,-0.039505746,4965,4965,0
110704111,110703767,3670026,3670026,0.00021255031,-0.001113714,0.00045894852,-0.004490729,-0.0036798927,-0.045134556,4944,4944,0
111200904,111200538,3670026,3670026,-0.0014620293,-0.0024662286,0.00096909533,-0.0032437933,0.0110298,-0.05144794,4997,4997,0
111702482,111702111,3670026,3670026,-0.00024959244,-0.003406849,-0.00018701507,0.00044655733,-0.013592203,-0.04930934,4968,4968,0
112204140,112203764,3670026,3670026,0.00259608,0.0027200305,0.00063469756,-0.007183889,0.004452875,-0.056118835,4967,4967,0
112705744,112705419,3670026,3670026,-0.0032063248,0.0032919617,-0.00026454337,-0.004729703,-0.013719133,-0.0555469,4968,4968,0
113202575,113202159,3670026,3670026,-0.00038391756,-0.0026539727,0.00050312496,0.0013560426,0.014728429,-0.047379255,4976,4976,0
113699187,113698792,3670026,3670026,0.00029829238,0.0038438106,-0.00092254643,-0.0013360584,-0.019243233,-0.042441115,4966,4966,0
114200804,114200448,3670026,3670026,0.0001070465,-0.003029489,0.00056864397,-0.0057711448,0.003925136,-0.0561165,4968,4968,0
114702621,114702208,3670026,3670026,-0.0033539424,-0.0014063532,0.0011284243,-0.008776437,0.008974214,-0.056388117,4991,4991,0
115204082,115203756,3670026,3670026,0.00059628865,0.004159149,0.0001438827,-0.00041123072,-0.006739594,-0.056274958,4968,4968,0
115700765,115700441,3670026,3670026,0.0028224026,0.0014650674,0.00056444405,-0.00094798254,0.0008014661,-0.053828087,4967,4967,0
116202517,116202095,3670026,3670026,-0.004539496,-0.003622109,0.0011611267,-0.0019059577,0.003989933,-0.0509342,4965,4965,0
116699159,116698782,3670026,3670026,0.0003258195,0.0016638804,6.475269e-05,-0.004539356,-0.014912285,-0.053831,4967,4967,0
117200792,117200437,3670026,3670026,0.0026844225,0.0027055922,-0.0007649904,0.011180259,0.011196802,-0.04306725,4966,4966,0
117702437,117702092,3670026,3670026,-0.001980803,-0.002532574,-0.00018696178,0.001653078,-0.004282348,-0.039494775,4967,4967,0
118204316,118203942,3670026,3670026,0.0041074497,0.00016927454,0.00015456781,-0.0010914616,0.011181107,-0.05712716,4946,4946,0
118700800,118700431,3670026,3670026,-0.0029535557,0.0010936324,-5.9268215e-05,-0.005328346,-0.003800027,-0.05271577,4966,4966,0
119202455,119202093,3670026,3670026,-0.0002111919,0.0042316294,-8.794452e-05,-0.012360264,-0.007828469,-0.051025417,4973,4973,0
119704110,119703740,3670026,3670026,0.0009887876,-0.0011040356,-0.00022284115,0.0071093175,-0.016127143,-0.047280483,4967,4967,0
120200798,120200427,3670026,3670026,-0.0007045775,-0.0038048003,0.0005713724,-0.007222185,0.0035755862,-0.054749377,4967,4967,0
120702435,120702081,3670026,3670026,0.0003594169,0.004322808,-0.0004988281,-0.00034299612,-0.009824544,-0.055895533,4966,4966,0
121204100,121203735,3670026,3670026,-0.0017443432,0.0020273475,0.0008274529,-0.018269397,-0.013844862,-0.059300758,4967,4967,0
121700879,121700558,3670026,3670026,0.0009399758,0.0026046077,-0.001393408,0.0019373343,-0.017410627,-0.04340899,4989,4989,0
122202471,122202098,3670026,3670026,-0.00046664116,-0.0041857515,0.0007024,-0.008755525,0.009438874,-0.05725014,4978,4978,0
122704127,122703761,3670026,3670026,0.0005972593,-0.0013544002,0.0009923282,-0.0007639065,0.012189756,-0.0556634,4989,4989,0
123200795,123200420,3670026,3670026,-0.00070198014,0.004279426,0.00039397,-0.0064909733,-0.0011592052,-0.056409605,4918,4918,0
123702438,123702072,3670026,3670026,0.00047590348,0.00071287743,-0.00036308874,0.00055931124,-0.011481698,-0.044164494,4967,4967,0
124199161,124198760,3670026,3670026,0.00026758513,0.0018064604,-0.0010861511,0.0007869507,-0.010567056,-0.044377703,4967,4967,0
124700771,124700414,3670026,3670026,0.00051886775,-0.003194223,-0.000677227,0.0034497092,-0.006112942,-0.042936366,4967,4967,0
125202597,125202263,3670026,3670026,0.0012434119,-0.0013669987,-0.0001760504,0.005434421,-0.0006923081,-0.053445894,4950,4950,0
125704086,125703718,3670026,3670026,-0.0002795719,0.0004808923,0.00045134628,0.0035683652,0.0060972753,-0.05531325,4962,4962,0
126205755,126205377,3670026,3670026,-0.00014580197,0.0040439353,-0.00022736893,0.0023202235,0.001080999,-0.043905806,4967,4967,0
126702391,126702064,3670026,3670026,-0.0042601014,-0.0017881967,0.0003519993,-0.0014054879,0.013038371,-0.054597404,4965,4965,0
127199075,127198753,3670026,3670026,-0.0013121864,0.0021946235,-0.00039646323,0.00609822,-0.0033402205,-0.045322448,4968,4968,0
127700771,127700407,3670026,3670026,0.0010291564,-0.0021104142,0.00045033495,-0.005297612,-0.00023355069,-0.050867587,4967,4967,0
128202508,128202066,3670026,3670026,0.004235069,0.0006557642,-0.003511453,0.003331952,0.004342126,-0.044863515,4973,4973,0
128704277,128703904,3670026,3670026,-0.001833479,-0.0020194957,-0.005146285,0.0025397846,0.0040489556,-0.042343587,4981,4981,0
129200838,129200508,3670026,3670026,0.00096604036,-0.00091473135,-0.005470797,0.0005768204,-0.027413284,-0.04519322,4989,4989,0
129702395,129702059,3670026,3670026,-0.0002727569,-0.0033336298,0.000616362,-0.011608412,-0.003721073,-0.057889543,4969,4969,0
130204090,130203712,3670026,3670026,0.00044532501,0.0037867338,-0.0006031353,-0.0028176273,-0.0120596895,-0.04203324,4965,4965,0
130700771,130700399,3670026,3670026,-0.00039473493,-0.0033997924,-0.00010833177,-0.004120934,-0.007448071,-0.044077072,4966,4966,0
131202387,131202056,3670026,3670026,0.0010817194,-0.00011642725,-0.00033277902,0.0067569264,0.003678186,-0.050071545,4969,4969,0
131704063,131703708,3670026,3670026,0.00021743713,0.0005725031,-0.0005526919,-0.00034618453,-0.0067123594,-0.05523995,4967,4967,0
132200746,132200398,3670026,3670026,-0.0002549275,0.0004162959,-0.00016949857,-0.002421116,0.00058363174,-0.042203333,4791,4791,0
132702399,132702074,3670026,3670026,-0.00025685245,-0.0030111938,0.0016236521,-0.0040422874,0.00011718564,-0.053275634,4961,4961,0
133204035,133203705,3670026,3670026,-0.00016217025,0.0017435096,0.0006766655,0.0016660118,0.013588639,-0.050195895,4967,4967,0
133705683,133705360,3670026,3670026,-0.0010870583,0.0039536846,0.00054801063,-0.008733621,0.00053195615,-0.054370835,4968,4968,0
134202375,134202047,3670026,3670026,-0.0010529482,-0.0044482728,0.0010580103,0.0004639941,0.015228506,-0.05133498,4967,4967,0
134699056,134698735,3670026,3670026,-0.0004739296,-0.00044102132,-4.773314e-05,-0.008644112,-0.0042363005,-0.046572693,4967,4967,0
135200788,135200390,3670026,3670026,0.0001310222,-0.001788047,0.00013643215,0.0051186252,0.005381101,-0.04918467,4967,4967,0
135702395,135702045,3670026,3670026,0.0005270736,0.002057743,-3.5227444e-05,0.0031901707,0.0029597552,-0.048424434,4965,4965,0
136204216,136203750,3670026,3670026,-0.0038107568,0.0034798868,0.00071840466,-0.00050143775,0.007414677,-0.05377919,4986,4986,0
136705748,136705354,3670026,3670026,0.004211697,-0.0015233427,-0.00036959135,0.004233044,0.005585252,-0.047859438,4967,4967,0
137202375,137202043,3670026,3670026,-0.0036145586,0.0009858432,-0.00079557014,-0.0009003745,-0.009680514,-0.04077419,4968,4968,0
137699142,137698733,3670026,3670026,-0.0010859019,-0.0003895948,0.0005355354,-0.0063658194,0.004741016,-0.05507909,4921,4921,0
138200765,138200385,3670026,3670026,0.0023495518,-0.0011994862,3.5431905e-05,0.009543873,0.0016954208,-0.050118577,4967,4967,0
138702385,138702039,3670026,3670026,-0.004391764,0.0026270752,0.0009811951,-0.009458373,-0.003610854,-0.05496644,4964,4964,0
139204057,139203696,3670026,3670026,0.0022376336,0.0028524387,0.0007709503,-0.010845412,0.005235151,-0.054991934,4968,4968,0
139700875,139700442,3670026,3670026,-0.0014031958,0.0033986121,0.00025808427,-0.008966002,-0.004461685,-0.0555218,4986,4986,0
140202414,140202042,3670026,3670026,0.002898143,-0.0012064063,0.0007303676,0.0064289416,0.018689632,-0.051807836,4967,4967,0
140704059,140703692,3670026,3670026,0.0019601884,-0.0024808238,0.0014187394,-0.007200672,0.0056526917,-0.05526865,4965,4965,0
141200755,141200381,3670026,3670026,-0.0007384696,0.0043042614,-0.00025795968,-0.008394215,0.005980341,-0.055994797,4967,4967,0
141702360,141702037,3670026,3670026,-0.0005891148,-0.0043269377,0.00041217604,0.00012926428,-0.004249095,-0.05862066,4962,4962,0
142204049,142203699,3670026,3670026,-2.4810959e-05,4.476382e-06,0.0005581987,-0.013181315,3.565004e-05,-0.05570519,4956,4956,0
142700767,142700379,3670026,3670026,-0.0036061602,0.0047843214,0.00064006244,-0.011298071,-0.009094061,-0.05280565,4967,4967,0
143202488,143202120,3670026,3670026,0.0028421043,-0.0031444686,0.00067215186,-0.004303089,0.009358959,-0.051250227,4990,4990,0
143704010,143703686,3670026,3670026,-0.0019576529,-0.0023253118,0.0002428162,-0.00057694496,0.004671548,-0.04613916,4964,4964,0
144205668,144205344,3670026,3670026,0.0030254766,0.0045298752,-0.0018258723,0.0051348917,-0.020150106,-0.046129167,4967,4967,0
144702401,144702071,3670026,3670026,-0.0027942471,-0.0040022414,-0.0010920202,-0.003174537,-0.020650456,-0.044065975,5005,5005,0
145199093,145198721,3670026,3670026,0.003496356,-0.002024125,-0.0004902787,-0.0031970388,-0.003916119,-0.061033107,4967,4967,0
145700728,145700378,3670026,3670026,-0.0009288095,0.0020325352,-0.0011564312,0.008497362,-0.003172313,-0.040839233,4968,4968,0
146202389,146202032,3670026,3670026,0.0032407185,0.00090482016,-0.00040257224,0.016019002,-0.0013946535,-0.053791538,4967,4967,0
146704190,146703867,3670026,3670026,-0.0036150822,-0.0014561429,0.00038121024,0.00905826,0.016510302,-0.04347925,4989,4989,0
147205807,147205398,3670026,3670026,0.0043486375,-0.0028884222,-0.00043697367,0.004454754,-0.007624527,-0.04421211,4999,4999,0
147702400,147702031,3670026,3670026,-0.00033510206,0.0042123455,0.0003139445,-0.00024011204,0.020214716,-0.049401943,4967,4967,0
148199092,148198719,3670026,3670026,-0.002332829,-0.004086545,-0.00035045698,0.0020820005,0.003893487,-0.040518843,4967,4967,0
148700748,148700375,3670026,3670026,-0.00066085707,-0.00041718478,-0.00036405283,-0.0034128143,0.0020510033,-0.053151485,4967,4967,0
149202391,149202035,3670026,3670026,-3.548383e-05,0.0043079173,0.00025237777,-0.001640358,-0.0013260494,-0.056859124,4968,4968,0
149704073,149703689,3670026,3670026,-0.0017559647,-0.0028973138,0.00029323672,0.004985686,-0.00030931304,-0.050070006,4936,4936,0
150200864,150200491,3670026,3670026,-0.0012678164,0.00028427815,0.00035898908,0.0002038503,0.0059898472,-0.04549794,4972,4972,0
150702416,150702042,3670026,3670026,0.0009892549,-0.0010629654,-0.00072635413,0.0006204309,-0.019216962,-0.042906046,4955,4955,0
151204082,151203685,3670026,3670026,0.00026274717,0.0032134817,-0.00017323588,-0.003005794,0.00033157677,-0.043933675,4967,4967,0
151700705,151700374,3670026,3670026,-0.003415069,-0.00067777856,0.0003556291,-0.0030642857,0.013863281,-0.048291866,4967,4967,0
152202361,152202030,3670026,3670026,0.0013745826,0.0029829342,-4.0109313e-05,-0.0036189978,-0.014097585,-0.056779835,4968,4968,0
152704050,152703685,3670026,3670026,-0.0015940436,-0.0035226485,0.00077343587,-0.008255681,-0.0009253733,-0.055705216,4965,4965,0
153200770,153200374,3670026,3670026,-0.0026075933,0.0013591151,0.000101059944,0.014417805,0.005618186,-0.043819275,4967,4967,0
153702544,153702185,3670026,3670026,0.0048200963,-0.0008836314,0.00022952205,-0.0003661591,-0.0045198863,-0.044789243,4997,4997,0
154204105,154203722,3670026,3670026,-0.004338684,-0.0036441262,0.001548486,-0.004235785,0.01146005,-0.053217236,4993,4993,0
154705705,154705340,3670026,3670026,-0.0004088137,0.0044353744,0.000340256,0.0029791053,0.0039141146,-0.050855592,4967,4967,0
155202369,155202032,3670026,3670026,0.0011835104,-0.004494459,-0.00021059743,0.004890905,-0.011092406,-0.046395704,4970,4970,0
155699098,155698718,3670026,3670026,0.0012593166,0.003290784,-0.0010020083,0.00496266,-0.004697706,-0.042490933,4964,4964,0
156200796,156200374,3670026,3670026,-0.00029899713,-0.0024879097,0.0002638037,-0.0108011495,-0.004112506,-0.056828387,4967,4967,0
156702386,156702040,3670026,3670026,-0.000121170946,-0.0031371363,-0.0009828465,0.008357894,0.0051004086,-0.04586345,4962,4962,0
157204324,157203859,3670026,3670026,2.4415542e-05,-0.0005122492,-0.0009049291,-0.0013249292,-0.015610265,-0.05305209,4992,4992,0
157705713,157705344,3670026,3670026,-1.8257582e-05,0.00070164056,-0.00047574518,0.0030724977,-0.007547376,-0.041026328,4969,4969,0
158202373,158202032,3670026,3670026,-0.00055001414,0.0035235265,-9.601333e-05,-0.0026251287,-0.009750107,-0.04679491,4964,4964,0
158699047,158698719,3670026,3670026,0.0004931959,0.002135996,-0.00037633022,0.0029020861,0.003033173,-0.047887627,4967,4967,0
159200696,159200375,3670026,3670026,0.0004423609,-0.0038416793,0.00022686725,-0.0028598907,-0.008736499,-0.053485394,4967,4967,0
159702429,159702031,3670026,3670026,0.0015165737,-0.00017524119,-0.0007050725,0.007545863,0.00055785675,-0.041991614,4966,4966,0
160204090,160203687,3670026,3670026,-0.00047278588,-0.0029271806,0.00014794021,-0.0035117744,-0.008124716,-0.049142648,4967,4967,0
160700954,160700551,3670026,3670026,-0.0002353615,-0.0038069263,9.2523616e-05,0.0017029323,0.0068225856,-0.05053734,4996,4996,0
161202489,161202096,3670026,3670026,6.5988356e-06,-0.001297273,4.365697e-05,-0.0040450124,-0.009397088,-0.04988101,4972,4972,0
161704041,161703710,3670026,3670026,-0.00060771743,0.002082825,0.0001846518,0.008587311,0.0034660115,-0.044947732,4979,4979,0
162200755,162200379,3670026,3670026,-0.00043812246,0.00095586124,-6.294782e-05,0.0011175418,-0.00545033,-0.05244543,4966,4966,0
162702408,162702034,3670026,3670026,0.00023892253,0.0038238044,-0.0001332578,-0.004126529,-0.006929632,-0.04949336,4967,4967,0
163204107,163203690,3670026,3670026,0.00019015849,-0.0036342381,0.00015785778,-0.0058609955,-0.011740924,-0.052057154,4967,4967,0
163700728,163700380,3670026,3670026,0.000502605,-0.0019811664,-0.0001314475,-0.0017753252,-0.003812791,-0.04201721,4968,4968,0
164202394,164202041,3670026,3670026,-0.0007765967,-0.002607482,0.00040547975,-0.0011394535,0.0065407683,-0.03965407,4797,4797,0
164704098,164703773,3670026,3670026,-0.00011193526,-0.0024923377,-2.0520069e-05,0.007464088,0.014996927,-0.050416496,5033,5033,0
165205673,165205348,3670026,3670026,-0.0011042291,0.0034594699,-0.0006082486,0.00400419,-0.009342787,-0.04277509,4967,4967,0
165702361,165702038,3670026,3670026,0.0044973358,-0.0018449348,-0.00094340515,0.0013922133,-0.022732802,-0.04789378,4968,4968,0
166199056,166198728,3670026,3670026,-0.0024008693,-0.0008768102,-0.00021304148,-0.004966929,-0.013308751,-0.047833882,4968,4968,0
166700830,166700437,3670026,3670026,0.00017206627,0.00088285614,-1.636507e-05,-0.009382377,-0.016075326,-0.058755156,5021,5021,0
167202477,167202040,3670026,3670026,-0.00088371336,0.004750068,-0.0009973441,-0.0024635885,-0.008410185,-0.051230166,4967,4967,0
167704039,167703696,3670026,3670026,0.00027702693,0.002516085,-0.00069117727,0.0034649791,-8.354101e-05,-0.045266233,4967,4967,0
168205809,168205406,3670026,3670026,-1.0402565e-05,-0.0044234954,0.00037846237,0.0029694084,0.003932761,-0.04146552,4972,4972,0
168702370,168702043,3670026,3670026,-0.00016770906,5.888592e-05,0.00034202458,-0.007578949,-0.0018383395,-0.048947453,4968,4968,0
169199065,169198732,3670026,3670026,-0.00071744766,0.004353542,3.7994334e-05,0.009798312,0.014787098,-0.048560075,4967,4967,0
169700796,169700388,3670026,3670026,-0.00078000536,0.0029180935,0.000605743,0.004816551,0.007973376,-0.051506527,4967,4967,0
170202374,170202044,3670026,3670026,-0.00043450945,0.0031299926,-0.00095503114,0.0052965116,-0.009301103,-0.0477738,4966,4966,0
170704046,170703701,3670026,3670026,0.00026696132,-0.0002527551,-0.00017192907,-0.0015722099,0.0067780945,-0.046197344,4966,4966,0
171200738,171200391,3670026,3670026,0.0009790644,-0.0030953058,0.00045950396,-0.00080257887,0.009015645,-0.05347687,4967,4967,0
171702525,171702113,3670026,3670026,0.0004109376,-0.0034379398,0.0004006206,-0.002939695,0.0034503979,-0.045368787,4998,4998,0
172204038,172203705,3670026,3670026,0.001670329,-0.002654762,-3.918675e-05,0.0039323005,0.007723881,-0.044748478,4967,4967,0
172700718,172700395,3670026,3670026,-0.00046113023,-0.002685772,0.00065894256,-0.0003307313,0.0020594704,-0.053102404,4965,4965,0
173202430,173202099,3670026,3670026,0.00038574368,0.0030459347,-0.00073221105,-0.00044993532,-0.0043036044,-0.043358922,5015,5015,0
173704119,173703704,3670026,3670026,0.0015585059,-0.0015618887,-0.00047333282,0.0049854475,0.0005501865,-0.044398133,4964,4964,0
174200833,174200397,3670026,3670026,0.00032976075,-0.0029876474,0.00027233653,-0.0014354489,0.0065912353,-0.05401047,4963,4963,0
174702413,174702054,3670026,3670026,0.001268275,-0.0038554443,-0.0004761517,-0.00096012914,-0.009519559,-0.048882805,4967,4967,0
175204262,175203799,3670026,3670026,0.00034350008,-0.0032707993,-0.0003269933,-0.0069709388,-0.022387585,-0.049427766,4981,4981,0
175705717,175705393,3670026,3670026,-0.0006235107,0.0044401092,0.000100835205,-0.008656717,-0.016398652,-0.055081677,4989,4989,0
176202443,176202111,3670026,3670026,0.0007404314,-0.0011994349,-5.2826927e-05,0.0033092736,-0.009451139,-0.044111423,5002,5002,0
176699165,176698748,3670026,3670026,-0.0005255483,-0.0036558765,0.00010538033,-0.0072702435,-0.013241085,-0.05519779,4967,4967,0
177200768,177200405,3670026,3670026,0.00049012847,0.0043698195,-0.0007466331,-0.00079772406,-0.00996915,-0.046123963,4967,4967,0
177702407,177702063,3670026,3670026,-0.0016130348,-0.003806186,0.001215485,-0.0043196008,0.0064856317,-0.052897226,4968,4968,0
178204077,178203719,3670026,3670026,0.0011802901,0.002604041,-0.00077502435,0.011613069,0.011637346,-0.040519547,4965,4965,0
178700979,178700563,3670026,3670026,-0.00045736236,-0.0021047704,0.0009394011,-0.004900487,0.0053831595,-0.05294224,4984,4984,0
179202455,179202075,3670026,3670026,-0.0005042622,0.0010165235,-0.00038854007,0.0006750447,-0.022295026,-0.043373298,4976,4976,0
179699080,179698753,3670026,3670026,0.000101336635,0.0038091228,-0.00033658132,0.0001398593,-0.007161934,-0.040745337,4933,4933,0
180200831,180200413,3670026,3670026,0.0018290036,0.0021794497,-0.0006441246,0.0065812925,-0.00219382,-0.045521226,4966,4966,0
180702401,180702071,3670026,3670026,0.0017841485,-0.0026440683,-0.00013364368,-0.002300729,0.0072704772,-0.052907765,4963,4963,0
181204114,181203728,3670026,3670026,-0.0029992133,-0.0014159407,-0.0005929162,-0.0057397685,-0.028077595,-0.05317014,4967,4967,0
181700770,181700424,3670026,3670026,0.0014582629,0.0020046057,3.3992234e-05,-0.0019005118,-0.004167565,-0.0477831,4972,4972,0
182202611,182202244,3670026,3670026,-0.0028809104,-0.003936159,0.00029650496,0.0039286986,0.006093596,-0.04169024,4992,4992,0
182704148,182703781,3670026,3670026,-0.0006375938,0.0042027696,-0.0001690774,0.0015237221,0.00023705995,-0.044875152,5012,5012,0
183200802,183200424,3670026,3670026,4.9456663e-05,-0.0019760153,-0.00042545408,0.0065774093,-0.0050126947,-0.044929694,4967,4967,0
183702406,183702081,3670026,3670026,-0.00034754665,-0.003825571,0.0005954067,-0.004038524,0.001628018,-0.047372073,4967,4967,0
184204089,184203741,3670026,3670026,4.1473242e-05,0.0037740536,0.0005166015,-0.00787768,-0.0043935427,-0.051920213,4969,4969,0
184700813,184700429,3670026,3670026,0.00037095032,-0.004418968,-0.00018571092,0.0052646245,0.009173856,-0.04457759,4967,4967,0
185202441,185202086,3670026,3670026,0.0029339944,0.0005537018,-0.0001980162,0.013941463,0.012503912,-0.04393803,4966,4966,0
185704262,185703932,3670026,3670026,-0.0004846789,-0.0028785258,0.0015531434,-0.0034851837,-0.0022250705,-0.052905366,4995,4995,0
186200806,186200479,3670026,3670026,-0.0006126968,0.0041318694,0.0004479332,0.0021292157,0.014530785,-0.05455287,4994,4994,0
186702502,186702092,3670026,3670026,0.00014043394,0.0023839774,-0.0002977225,0.0052378643,0.0010388269,-0.047885753,4966,4966,0
187199157,187198783,3670026,3670026,-0.0018692716,-0.0015125445,0.0008135761,-0.011428014,-0.0044464823,-0.053900093,4966,4966,0
187700862,187700443,3670026,3670026,-0.00025970268,-0.00424859,-0.00016808226,0.004144896,-0.0101864915,-0.043085907,4968,4968,0
188202477,188202108,3670026,3670026,-0.00054825086,0.0043494008,0.00028567133,-0.007841543,-0.004823131,-0.055755332,4978,4978,0
188704136,188703756,3670026,3670026,-0.0010965464,-0.0036916616,0.0007711471,0.0018532737,0.0108743,-0.054464474,4965,4965,0
189200970,189200595,3670026,3670026,0.00030017816,0.00032324827,-8.4971165e-05,0.0052127503,0.013383828,-0.045979675,4994,4994,0
189702439,189702105,3670026,3670026,0.0006902994,0.0029220593,0.0002157187,-0.0030329158,0.0066521037,-0.039186493,4967,4967,0
190199125,190198796,3670026,3670026,0.0002949522,0.0026589795,-0.00017409357,-0.0005138463,-0.005611514,-0.045928467,4966,4966,0
190700805,190700458,3670026,3670026,-0.0007469219,-0.0042089554,0.00054438954,0.006125006,0.020917814,-0.045053713,4971,4971,0
191202500,191202122,3670026,3670026,0.00048985175,-0.0011180601,-6.269707e-05,-0.010120187,-0.023293393,-0.05303315,4935,4935,0
191704214,191703770,3670026,3670026,-0.00010448423,0.0013396497,-0.00022335022,0.0015972604,-0.0073267953,-0.04488662,4967,4967,0
192200808,192200461,3670026,3670026,0.00066538807,0.002438308,-0.0007724156,0.0007819699,-0.0034574824,-0.04435324,4967,4967,0
192702690,192702303,3670026,3670026,-1.5168984e-05,0.0033199277,-0.0005858821,0.0055647506,-0.013509403,-0.04612487,5001,5001,0
193204221,193203839,3670026,3670026,-0.0006973667,-0.002752867,-0.00014471431,-0.0030709943,-0.013680109,-0.061649796,5002,5002,0
193700880,193700469,3670026,3670026,0.00020099118,0.00337565,-0.00076549256,0.0036431202,-0.0053729783,-0.042145018,4924,4924,0
194202519,194202130,3670026,3670026,0.00012112417,-0.0026063619,0.0001815825,0.0005109072,-0.011516958,-0.04999549,4969,4969,0
194704170,194703785,3670026,3670026,0.00021402183,0.0018621344,0.00015278331,0.0027055265,0.014605036,-0.050182234,4967,4967,0
195200891,195200476,3670026,3670026,0.0003053406,0.0031888662,-0.00030002085,-0.005409612,-0.015223892,-0.058753517,4967,4967,0
195702484,195702135,3670026,3670026,-0.00013458355,-0.0039699934,0.00022340886,0.003923529,0.0014206467,-0.052974455,4967,4967,0
196204140,196203797,3670026,3670026,-0.001089185,-0.0018180955,0.00080229394,-0.013130281,-0.005074806,-0.05343476,4792,4792,0
196705798,196705477,3670026,3670026,-0.00035306072,-0.0032236718,0.0010434698,-0.010195081,-0.005565284,-0.056942903,4986,4986,0
197202470,197202142,3670026,3670026,0.00074710534,-0.0026182982,0.00012561376,0.007421354,0.010475241,-0.04923504,4966,4966,0
197699159,197698834,3670026,3670026,0.00017950434,0.004207407,6.0709885e-05,0.0017095754,0.0067733563,-0.05503527,4967,4967,0
198200922,198200539,3670026,3670026,-0.0010800416,0.00045338678,0.0003967461,-0.006050942,0.0017137894,-0.05348474,4998,4998,0
198702564,198702151,3670026,3670026,0.0012320095,-0.00025064222,-0.0011371673,0.0009089041,-0.016730018,-0.04982853,4967,4967,0
199204215,199203814,3670026,3670026,0.00046291738,-0.0027351372,-0.00032206211,0.003121929,-0.013836286,-0.04493255,4946,4946,0
199700851,199700504,3670026,3670026,0.0003215676,-0.0034650024,-0.000322338,0.0075215427,-0.0012017884,-0.04446408,4793,4793,0
200202642,200202214,3670026,3670026,0.0008801247,0.0039469735,-0.00028286743,-0.0005353875,0.0006759514,-0.042307485,5001,5001,0
200699221,200698852,3670026,3670026,0.0012048684,0.00087555643,-0.00081985845,0.0047214953,-0.00048798343,-0.04699402,4966,4966,0
201200852,201200523,3670026,3670026,0.00092110515,0.0006388556,-0.000471123,-0.0047591575,-0.0036454867,-0.04782732,4929,4929,0
201702496,201702169,3670026,3670026,0.000110393,-0.0038972457,-0.00012562318,-0.0037647395,-0.009834898,-0.043952104,4962,4962,0
202204202,202203828,3670026,3670026,0.0011405152,-0.0013318403,-0.0005769421,0.009465716,-0.0013303203,-0.04095272,4967,4967,0
202700864,202700520,3670026,3670026,0.00024001098,-2.7531423e-05,6.7996325e-06,0.012549431,0.007842373,-0.05125924,4965,4965,0
203202523,203202179,3670026,3670026,-0.000119475204,0.0024182752,0.00023845972,0.0072639575,0.0070174895,-0.04856794,4963,4963,0
203704222,203703891,3670026,3670026,0.0009792983,0.0023844563,-0.0010400702,0.0040320004,-0.012587456,-0.04350306,4977,4977,0
204200908,204200579,3670026,3670026,0.001080141,0.0014738588,-0.00061204337,0.0018238393,-0.0048911693,-0.042304743,5016,5016,0
204702526,204702193,3670026,3670026,-0.0012202377,-0.0005600491,0.000669216,-0.0049994565,-0.0009770779,-0.05463401,4971,4971,0
205204187,205203851,3670026,3670026,0.0018195444,-0.00077835465,-0.00043235283,0.013198765,0.0009660156,-0.04279041,4970,4970,0
205700966,205700600,3670026,3670026,-0.00022864649,-0.0006745369,0.0007653598,-0.0043262322,0.006623213,-0.051367246,4988,4988,0
206202649,206202204,3670026,3670026,-0.00027202774,-0.0008770392,-4.2460626e-05,-0.00056124025,-0.004343502,-0.0406207,4972,4972,0
206704212,206703858,3670026,3670026,-0.00069489697,0.0033033385,0.000315835,-0.011691389,-0.006184763,-0.05553257,4967,4967,0
207206026,207205598,3670026,3670026,-0.0011392375,-0.003574606,0.0005644806,-0.00053200766,0.0016271685,-0.055056524,4980,4980,0
207702643,207702210,3670026,3670026,0.0002778302,-0.0010434159,0.0006581355,0.003895521,0.0140308095,-0.047142226,4966,4966,0
208199288,208198903,3670026,3670026,0.0005876581,0.0011518871,-0.0004995247,0.00883547,0.0013651438,-0.04259225,4967,4967,0
208700932,208700562,3670026,3670026,-0.0020598795,0.0033916563,0.000655525,-0.008386221,0.011167557,-0.048454866,4967,4967,0
209202600,209202221,3670026,3670026,-0.0011635377,-0.0039727543,0.0007981902,-0.0056484644,0.009496199,-0.053150933,4966,4966,0
209704236,209703882,3670026,3670026,0.00020424959,0.0032552981,-0.0005830551,0.0005238991,-0.0050975606,-0.048522852,4967,4967,0
210200919,210200573,3670026,3670026,0.00021423388,-0.0032056198,0.0002455858,-0.0055960934,-0.021184087,-0.05602387,4966,4966,0
210702758,210702316,3670026,3670026,0.0011228645,0.00084723317,-0.0002809327,0.0017117369,-0.008841477,-0.048930913,4986,4986,0
211199349,211198925,3670026,3670026,-0.0012926089,0.0016459775,0.00062746444,-0.011895739,0.0006505745,-0.05510913,4967,4967,0
211700954,211700584,3670026,3670026,-0.0011365066,0.00071818015,0.0005374004,-0.0026692399,0.0037178658,-0.051826715,4966,4966,0
212202624,212202244,3670026,3670026,-0.00032478062,-0.00083826756,-0.00047029575,0.0014293129,-0.019163119,-0.04974028,4966,4966,0
212704234,212703904,3670026,3670026,-0.0010997744,0.0009679843,8.5418986e-05,-0.0038529872,0.007922267,-0.06573392,4967,4967,0
213201039,213200638,3670026,3670026,-0.00094629853,-0.0014555287,0.0009527078,-0.00055097917,0.00913846,-0.04477179,4999,4999,0
213702599,213702257,3670026,3670026,0.0005251219,-0.00070749444,-0.0004426892,0.0030874156,-0.009525647,-0.048138738,4967,4967,0
214199413,214199041,3670026,3670026,0.0010247885,0.0040466436,-0.00060556666,-0.0055434704,-0.008332721,-0.060530964,4987,4987,0
214700956,214700630,3670026,3670026,-0.0012262444,-0.002423043,0.0010189792,-0.006818486,0.0068115834,-0.053392656,4987,4987,0
215202606,215202270,3670026,3670026,0.0014342549,0.0026646785,-0.0007985332,0.0024521772,-0.014130124,-0.05262511,4968,4968,0
215699330,215698995,3670026,3670026,0.00016730098,3.8229584e-05,-7.831317e-05,0.0012692661,-0.0020728603,-0.041324552,4976,4976,0
216201007,216200624,3670026,3670026,0.0008649887,-0.0007081081,-0.00013150851,-0.001055356,-0.014547414,-0.044140268,4968,4968,0
216702669,216702282,3670026,3670026,-0.0009210253,0.0040899226,-4.686683e-05,0.0048812083,0.010097483,-0.055176944,4965,4965,0
217204309,217203959,3670026,3670026,0.00032545775,-0.00016684966,-0.0004594442,0.0053371675,0.0037712466,-0.04120461,4984,4984,0
217706159,217705739,3670026,3670026,0.0008153912,-0.0006892424,-0.00025394815,0.0021357862,-0.004136632,-0.04796008,4991,4991,0
218202624,218202297,3670026,3670026,0.0011750754,-0.0007145512,-0.00073051115,0.0016907647,-0.026347406,-0.045393042,4968,4968,0
218699318,218698989,3670026,3670026,-0.00047453085,-0.00025919304,0.0005021292,-0.0054002884,0.0018195658,-0.050526343,4967,4967,0
219201030,219200649,3670026,3670026,-0.000551291,0.00014224323,-0.0005921496,-0.0022829683,0.0033812136,-0.047156233,4967,4967,0
219702682,219702311,3670026,3670026,0.0014103339,0.00014676664,-0.002730908,0.004081208,-0.014910414,-0.045811445,4934,4934,0
220204381,220203983,3670026,3670026,-0.00030177293,8.426635e-05,-0.001820568,-0.0038796805,0.011324144,-0.054312468,4982,4982,0
220701009,220700663,3670026,3670026,9.2216986e-05,7.762063e-05,-0.0046173916,-0.0013774423,0.0066916044,-0.053291515,4967,4967,0
221202809,221202471,3670026,3670026,-0.0012966613,0.00031131564,-0.006091834,-0.013429301,-0.0014259192,-0.058046136,4999,4999,0
221699393,221699019,3670026,3670026,0.0004960454,-0.00026650308,-0.0071361545,-0.00217914,-0.014415049,-0.05706849,4969,4969,0
222201073,222200677,3670026,3670026,-0.0008238847,-0.00027755246,-0.00301001,0.0077791773,0.012166092,-0.0510455,4970,4970,0
222702667,222702339,3670026,3670026,6.077146e-05,-0.0007989162,-0.0010376044,-0.0008238795,-0.0017773453,-0.063840635,4968,4968,0
223204382,223203999,3670026,3670026,-0.001978168,-0.0032986251,-8.9553214e-05,0.0016490314,-0.003164095,-0.038007237,4965,4965,0
223701048,223700692,3670026,3670026,-0.000234465,0.0015911657,0.0001533002,0.0034951272,-0.009988081,-0.04519996,4967,4967,0
224202715,224202358,3670026,3670026,-0.00011459068,-0.002355679,-0.00069790985,-0.002329623,-0.018039552,-0.046859097,4972,4972,0
224704526,224704187,3670026,3670026,0.00032052162,0.0042234925,0.00024431437,0.0013890848,0.004771278,-0.053735476,4984,4984,0
225201081,225200707,3670026,3670026,-0.00011612873,-0.0015792975,-0.00037088277,-0.008635817,-0.028814109,-0.0510695,4967,4967,0
225702739,225702368,3670026,3670026,-0.0012875145,0.0025711784,0.000759334,-0.006779169,0.0031551453,-0.05501572,4966,4966,0
226199400,226199062,3670026,3670026,0.00019093869,0.00082105433,-0.00010432136,-0.0069709625,-0.0005208142,-0.05541957,4967,4967,0
226701105,226700724,3670026,3670026,0.0015199601,-0.0018240836,-0.00039080883,0.0124575775,-0.0026500758,-0.047172192,4968,4968,0
227202825,227202385,3670026,3670026,-0.0015481085,-0.0017447817,-0.000104147584,0.0015939253,-0.010408304,-0.043037795,4968,4968,0
227704414,227704067,3670026,3670026,0.0004136732,0.0014609266,0.00032711873,-0.006012573,0.0010810571,-0.044035163,4971,4971,0
228206058,228205709,3670026,3670026,-0.0013428578,0.000940444,0.0006365784,-0.0032662991,0.01596078,-0.05201889,4792,4792,0
228702810,228702448,3670026,3670026,-0.00012872963,0.0022093814,0.0005422001,-0.0030497215,0.005419098,-0.05282893,4992,4992,0
229199433,229199107,3670026,3670026,-6.85975e-05,0.0014588858,0.0006194363,-0.00059831666,0.0091696605,-0.04836831,4978,4978,0
229701082,229700755,3670026,3670026,0.00022022182,-0.0005085294,-0.00079187204,0.00044336298,-0.01445047,-0.030157862,4966,4966,0
230202792,230202417,3670026,3670026,0.00082180527,-0.0027631305,3.0253823e-05,-0.006826283,-0.012194883,-0.044434547,4965,4965,0
230704510,230704080,3670026,3670026,-0.00040364332,0.0010167671,0.00056207937,-0.010672566,0.00032115632,-0.05209298,4969,4969,0
231201113,231200773,3670026,3670026,0.0002098783,0.0004119007,0.00034584658,-0.005448345,0.0065432335,-0.0507935,4965,4965,0
231702965,231702640,3670026,3670026,0.00029262374,0.0027557365,0.00045500323,-0.0068257865,-0.003344127,-0.054001566,5002,5002,0
232199640,232199266,3670026,3670026,0.000503739,0.0015973817,-0.00029610202,-0.003765282,0.0013228741,-0.053182222,5016,5016,0
232701131,232700810,3670026,3670026,-0.0009417518,-0.002509989,0.00018697219,-0.00061104615,0.00756441,-0.044073757,4977,4977,0
233202870,233202453,3670026,3670026,-0.0009905568,-0.0015094423,0.00071851443,-0.011616603,-0.005235588,-0.055080216,4964,4964,0
233704489,233704114,3670026,3670026,-0.0011667621,-0.0036668072,0.00043592922,-0.011189286,-0.015669258,-0.056549095,4967,4967,0
234201315,234200809,3670026,3670026,-0.0005517282,0.0022438278,0.00042638415,-0.012166372,0.011335591,-0.05602529,4967,4967,0
234702854,234702471,3670026,3670026,-0.0006624057,0.0016957156,-4.512438e-06,-0.007088163,-0.0021901056,-0.04695011,4967,4967,0
235204484,235204135,3670026,3670026,-0.0009131131,0.0050721387,0.0010188153,-0.0042592348,0.014889741,-0.053667706,4964,4964,0
235701189,235700857,3670026,3670026,-0.0008075305,-0.0029468546,0.00037264053,-0.0012462785,-0.0047334246,-0.054515235,4988,4988,0
236202817,236202490,3670026,3670026,-0.00044761618,-0.004146577,-0.0006449258,0.010057816,0.0015687189,-0.045212694,4967,4967,0
236699518,236699185,3670026,3670026,0.00049168034,0.0047637764,0.00041002268,-0.007848458,-0.0016170987,-0.053489674,4966,4966,0
237201245,237200847,3670026,3670026,0.0017577431,-0.004272673,0.0002914509,-0.0027462854,-0.0015888731,-0.046058014,4967,4967,0
237702838,237702512,3670026,3670026,0.0011415508,-0.0004840695,-0.00060374785,-0.010706573,-0.029257866,-0.055117555,4969,4969,0
238204571,238204171,3670026,3670026,0.00032588316,-0.0016477181,-0.00045641296,0.00045446894,-0.0044336943,-0.050424885,4962,4962,0
238706186,238705833,3670026,3670026,-0.0006223954,-0.002911846,0.0006017,-0.00316359,0.0038559136,-0.053553537,4967,4967,0
239203000,239202581,3670026,3670026,0.00037083658,0.000620951,-0.00075688295,0.012128979,-0.0068473704,-0.04444003,4992,4992,0
239699608,239699224,3670026,3670026,0.00020742897,0.002577226,-0.0007876408,-0.008228171,-0.028003993,-0.04915964,4964,4964,0
240201262,240200889,3670026,3670026,-0.0017764338,0.000979692,0.0004731363,-0.012109116,-0.007797922,-0.0565986,4968,4968,0
240702919,240702549,3670026,3670026,-0.0008750445,0.00019500533,0.0006070364,-0.01167838,0.0045175417,-0.054654256,4953,4953,0
241204585,241204259,3670026,3670026,0.00096463994,-0.0034667887,0.0010769014,-0.014737474,0.0038423275,-0.057585225,5012,5012,0
241701256,241700909,3670026,3670026,-0.002625427,-0.0017244677,2.5923696e-06,0.0051946854,-0.0017071798,-0.040619552,4969,4969,0
242202932,242202573,3670026,3670026,-0.0019164971,0.002162719,-0.00022983909,0.0060274354,-0.0008960248,-0.044036955,4970,4970,0
242699645,242699316,3670026,3670026,0.0048521967,0.00017856194,-0.00091014936,0.0015088612,-0.017935831,-0.04531065,4991,4991,0
243201370,243200930,3670026,3670026,-0.0020444407,-0.0029476485,8.700046e-05,-0.0087912055,-0.022140583,-0.053765528,4968,4968,0
243702915,243702591,3670026,3670026,-0.0010673737,-0.004340116,-0.00042324737,-0.002081597,-0.0026994103,-0.046775352,4962,4962,0
244204631,244204255,3670026,3670026,0.0044455254,0.0030014447,-0.0007327959,0.00751287,-0.0031901838,-0.041246634,4968,4968,0
244701418,244700950,3670026,3670026,0.0005217354,-0.0044737575,0.00040337135,-0.0014014222,-0.008646193,-0.04357894,4965,4965,0
245202968,245202613,3670026,3670026,-0.0029846528,0.00558359,0.000533516,-0.008132471,0.003987957,-0.05184372,4966,4966,0
245704618,245704276,3670026,3670026,0.0012005864,0.0036949553,-0.00021550806,-0.00992348,-0.013372918,-0.05126054,4966,4966,0
246201433,246201100,3670026,3670026,-0.00096352363,-0.004126997,0.00015340322,-0.0020403436,0.0018665532,-0.0504805,4979,4979,0
246703042,246702635,3670026,3670026,-0.0005627413,-0.00074556924,0.0002025568,0.0065894267,0.0018180441,-0.049476586,4967,4967,0
247199737,247199336,3670026,3670026,-0.0036871166,-0.00042552585,-0.00071167806,-0.011572077,-0.007928856,-0.053954955,4970,4970,0
247701376,247700999,3670026,3670026,0.0054936316,0.0004432573,-0.00095436716,0.009455029,-0.010965882,-0.039900552,4971,4971,0
248203084,248202658,3670026,3670026,-0.0006504228,0.0010501608,-0.0006248537,0.008906846,0.0042109545,-0.042181358,4967,4967,0
248704706,248704321,3670026,3670026,-0.0009126657,0.00075037015,-1.0954306e-05,-0.012801756,0.0011668563,-0.054280177,4967,4967,0
249201370,249201017,3670026,3670026,0.0019343494,0.0034739375,-0.0008337004,0.0017176119,-0.0146662425,-0.043508567,4967,4967,0
249703127,249702800,3670026,3670026,-0.0021372011,-0.0007297437,5.805783e-06,0.0048790323,0.008163915,-0.04782408,4974,4974,0
250199710,250199377,3670026,3670026,3.6341396e-05,-0.0014475127,-0.0005752654,0.0016564715,-0.0059625055,-0.04773802,4966,4966,0
250701361,250701041,3670026,3670026,-0.0026496984,0.00030119202,-0.00022244743,0.005190128,0.004974283,-0.044343922,4967,4967,0
251203034,251202707,3670026,3670026,-0.0018968213,0.0019650077,0.00016296089,0.0033645255,0.002493443,-0.0500376,4970,4970,0
251704689,251704368,3670026,3670026,0.0048745023,0.0009251232,-0.00081435574,0.0049728192,-0.0053185807,-0.046139926,4968,4968,0
252201465,252201064,3670026,3670026,-0.0010699049,0.0036267438,-0.0012360256,-0.0044433996,-0.027920749,-0.04799055,4967,4967,0
252703069,252702724,3670026,3670026,-0.002115781,-0.00011833768,-0.0011758336,0.00014608851,0.006715455,-0.046463475,4962,4962,0
253199917,253199533,3670026,3670026,3.7939204e-05,-0.0036876905,-0.0008944851,0.0038817048,-0.008361315,-0.051920965,5000,5000,0
253701502,253701091,3670026,3670026,0.0016650759,0.0007414222,0.0008597206,-0.011193652,-0.00029856138,-0.05495216,4970,4970,0
254203185,254202753,3670026,3670026,-0.0012818906,-2.140739e-05,-0.0002822046,0.009923278,-0.004396506,-0.044055883,4968,4968,0
254699815,254699450,3670026,3670026,0.00080218207,0.004369713,-0.00097113685,0.0005897812,-0.013778647,-0.047887553,4968,4968,0
255201511,255201115,3670026,3670026,0.0011124107,0.002049131,-0.00022714352,0.003893618,-6.093549e-05,-0.043530248,4961,4961,0
255703223,255702776,3670026,3670026,-0.00070718915,-0.0038088812,0.00029303308,-0.012284017,0.0023925472,-0.05554686,4967,4967,0
256204788,256204441,3670026,3670026,-0.00030482543,0.00012929716,-7.392724e-05,0.0023137047,-0.0010923599,-0.04771789,4968,4968,0
256701678,256701311,3670026,3670026,-0.0011826345,-0.00036295512,0.00095091906,-0.0061121588,0.004075364,-0.054640237,5038,5038,0
257203156,257202821,3670026,3670026,0.004622742,-0.0004498604,-0.0013203461,0.0031056565,-0.012907785,-0.042457607,4982,4982,0
257699870,257699498,3670026,3670026,-0.0028557784,0.0011979946,0.00055537885,-0.0059942272,0.016802708,-0.05405035,4967,4967,0
258201565,258201162,3670026,3670026,0.00024639498,0.0023471194,-6.679132e-05,-0.0039217337,-0.010444472,-0.051106412,4961,4961,0
258703192,258702825,3670026,3670026,0.0018248642,-0.0023942883,0.000476539,-0.0102668805,4.9996e-05,-0.052289464,4966,4966,0
259204851,259204489,3670026,3670026,-0.002505299,-0.0003023074,0.00014187569,0.0047282684,0.013332209,-0.050043125,4966,4966,0
259701575,259701188,3670026,3670026,0.0026704154,-0.003098866,0.0007843742,-0.0056117554,0.005785208,-0.052874193,4968,4968,0
260198403,260198039,3670026,3670026,-0.002401345,0.0016642509,-0.0002816835,0.0066475137,-0.0013574752,-0.037430003,4984,4984,0
260699929,260699548,3670026,3670026,0.00023728861,-0.0038386541,0.0010054056,-0.0025584647,0.006730069,-0.049120456,4967,4967,0
261201632,261201214,3670026,3670026,0.00019796928,0.0033796458,-0.0005309977,-0.003922155,-0.006424889,-0.041785154,4968,4968,0
261703257,261702877,3670026,3670026,0.0016068104,0.00066329865,-0.000387557,0.007059957,-0.00048400692,-0.045848794,4966,4966,0
262204913,262204541,3670026,3670026,0.0011564397,-3.4024695e-05,-0.00079501735,0.011294593,0.007633595,-0.04178546,4962,4962,0
262701629,262701282,3670026,3670026,-0.00076455245,-0.00083600084,0.0010108217,-0.00841334,-0.00040025092,-0.051145516,5011,5011,0
263203325,263202903,3670026,3670026,0.00088461983,0.0036006595,-0.0005794256,-0.007550377,-0.02133129,-0.055817336,4965,4965,0
263700123,263699754,3670026,3670026,-0.00073164864,0.0022643951,0.00016519538,-0.0042411033,-0.0055105486,-0.04888662,4933,4933,0
264201684,264201266,3670026,3670026,-0.00014294131,0.0021217144,-0.0007180322,-0.0027654567,-0.01622304,-0.05054821,4969,4969,0
264703428,264702929,3670026,3670026,-0.0013144144,-0.0026623202,0.0005408336,-0.010012689,-0.008829548,-0.053462777,4965,4965,0
265199993,265199626,3670026,3670026,-0.00014271462,0.00039239152,0.00029676573,0.0033856202,0.011726972,-0.049437653,4967,4967,0
265701620,265701292,3670026,3670026,-4.061055e-05,0.0006233008,0.0001154186,0.0010933274,-0.00557989,-0.05283264,4968,4968,0
266203325,266202955,3670026,3670026,0.0020771495,0.0025418047,-0.001038907,0.008346172,-0.0020731194,-0.040762097,4967,4967,0
266704980,266704635,3670026,3670026,-0.0033073898,0.0033058105,-0.00040748162,-0.005185225,-0.008948035,-0.0489409,4938,4938,0
267201868,267201495,3670026,3670026,0.0030198777,-0.003171365,0.00055380206,-0.0037119968,0.013814901,-0.051167395,4993,4993,0
267703371,267702993,3670026,3670026,0.00083398895,-0.0011734746,3.4981553e-05,0.002569548,0.001875196,-0.046938203,4978,4978,0
268200108,268199681,3670026,3670026,0.0002427878,0.00026805734,0.00042183514,-0.005936315,0.0066747814,-0.05372122,4968,4968,0
268701670,268701345,3670026,3670026,0.001347612,0.0012868788,-0.0005526757,0.004538273,-0.0031846438,-0.050058976,4966,4966,0
269203376,269203034,3670026,3670026,0.0017992165,0.0021498727,-0.00065286434,0.012164449,-0.0027140053,-0.044479888,4984,4984,0
269704996,269704675,3670026,3670026,-1.1507687e-05,-0.0031156086,0.0015337374,-0.010835893,0.0076068994,-0.05911614,4967,4967,0
270201852,270201402,3670026,3670026,-0.0024819938,0.0046629272,-0.00023432207,-0.00036512897,-0.0012467405,-0.047422122,4992,4992,0
270698632,270698256,3670026,3670026,0.00012353939,-0.0038564606,-0.00025216237,-0.009541719,-0.016605651,-0.04247855,4917,4917,0
271200164,271199756,3670026,3670026,0.00065179344,0.0023711913,-0.0009159754,0.003054113,-0.0071565295,-0.043513443,4983,4983,0
271701796,271701420,3670026,3670026,-0.00081161055,-0.0033679334,0.00122195,-0.0031412817,0.011874957,-0.054003254,4942,4942,0
272203502,272203066,3670026,3670026,0.0010238732,0.003378995,-0.00066879543,0.008012247,-0.004696049,-0.04157333,4968,4968,0
272705062,272704731,3670026,3670026,-0.0026103654,0.002307727,-0.00027687248,-0.006281328,-0.016399983,-0.044729814,4968,4968,0
273201846,273201429,3670026,3670026,0.004265537,-0.0017444674,-0.0009852804,-0.0008569657,-0.012082131,-0.047136102,4967,4967,0
273703520,273703137,3670026,3670026,-0.0021131968,-0.0015199733,0.0012472811,-0.0073644584,0.0069368873,-0.054390118,5010,5010,0
274200152,274199792,3670026,3670026,-0.004081569,0.0015741462,0.00077127153,-0.009208002,0.002375596,-0.051449236,4782,4782,0
274701911,274701539,3670026,3670026,0.0029412743,-0.00031291065,0.0010408735,-0.0058659473,0.007948215,-0.051946156,5030,5030,0
275203508,275203123,3670026,3670026,0.00031049244,0.0014806958,-1.1242849e-05,-0.001320634,0.008580852,-0.049226053,4967,4967,0
275700147,275699821,3670026,3670026,-0.0038607956,-0.0013456966,-1.4813177e-06,-0.0020788852,-0.0057070833,-0.04603939,4967,4967,0
276201827,276201488,3670026,3670026,0.0049474253,-0.0040763663,-0.00039914902,-0.0021802618,-0.010067677,-0.04591663,4969,4969,0
276703477,276703152,3670026,3670026,-0.0031023102,0.0010795229,0.00021553146,-0.001476531,0.007980974,-0.047058225,4967,4967,0
