timestamp,timestamp_sample,accel_device_id,gyro_device_id,delta_angle[0],delta_angle[1],delta_angle[2],delta_velocity[0],delta_velocity[1],delta_velocity[2],delta_angle_dt,delta_velocity_dt,delta_velocity_clipping
43201104,43200989,4259850,4325386,1.10031415e-05,3.574962e-05,3.6085416e-06,0.00076713343,-0.0027124414,-0.04814595,4991,4957,0
43206096,43205972,4259850,4325386,0.0002444385,-0.0001475741,-6.1401945e-05,0.0017023897,-0.0015743723,-0.048385877,4983,4977,0
43699405,43699257,4259850,4325386,0.00036162828,-0.00013093038,-0.0003550129,-0.0013024644,-0.0012979081,-0.04420621,4988,4988,0
44203484,44203019,4259850,4325386,0.0045734025,-0.00070787454,-0.00013405392,-0.008987913,-0.014512936,-0.059671503,4988,4942,0
44701426,44701290,4259850,4325386,-0.00046932817,-8.979609e-05,-0.00060499,0.005785792,0.0038887733,-0.037928198,4987,4935,0
45205201,45205053,4259850,4325386,0.0018771508,-0.00026406266,-0.0006012226,0.0059102,-0.01017241,-0.036116935,4787,3860,0
45704100,45703903,4259850,4325386,-0.0026179622,-0.0001742345,-0.00094366143,0.0067877416,0.008913605,-0.039255895,4961,4950,0
46202723,46202600,4259850,4325386,-2.4670195e-05,-0.0012089203,-0.00056500814,0.015291263,-0.002866302,-0.037558034,4996,4937,0
46701476,46701365,4259850,4325386,-0.000852303,-0.0009133554,-0.00019644402,0.016855696,0.00072687556,-0.04096662,4988,4964,0
47199843,47199685,4259850,4325386,0.00064209057,-0.0014957095,-0.00040146554,0.018964281,-0.004298748,-0.04078693,4989,4937,0
47703585,47703443,4259850,4325386,-0.001408429,-0.00013653302,0.0006579286,0.0030438225,0.0063046156,-0.047292188,4987,4947,0
48202422,48202308,4259850,4325386,0.00015101732,-0.0009518628,-0.0007361653,-0.0018081324,-0.009214013,-0.03939023,4974,4977,0
48701102,48700986,4259850,4325386,-0.0011042543,2.7098895e-06,0.00046731217,-0.0068687815,-0.008349719,-0.05515198,4988,4934,0
49204530,49204351,4259850,4325386,0.00016720555,1.6994265e-05,0.0003722915,0.01430837,0.01215408,-0.044183183,4963,4964,0
49702654,49702524,4259850,4325386,-8.616582e-05,-0.0004598259,0.00048670758,-0.0011616987,0.008231767,-0.04789608,5037,4922,0
50201766,50201596,4259850,4325386,0.002003635,0.0005980087,0.00011148194,-0.002167141,0.0007667339,-0.044132024,4965,4966,0
50700135,50700017,4259850,4325386,-0.0033554637,-8.711258e-05,0.0008923737,0.0041731754,0.017815642,-0.051208057,4988,4933,0
51204007,51203774,4259850,4325386,-0.0003616211,0.0004699102,0.00044854236,-0.002215927,-0.005750156,-0.06337431,4988,5751,0
51702834,51702631,4259850,4325386,-0.0006396681,0.00018394654,0.0002306099,-0.009029117,-0.012245189,-0.051759847,4963,4935,0
52201444,52201317,4259850,4325386,0.0005854368,0.0003553265,0.001240994,-0.0031548012,-0.004159798,-0.043107636,4988,4944,0
52700726,52700587,4259850,4325386,4.1210835e-05,-0.00016781106,-0.0003300992,-0.0030066925,-0.015115819,-0.051168207,4988,4941,0
53199481,53199361,4259850,4325386,-3.793068e-05,0.0004885007,0.00038368252,-0.0050724894,-0.00089554116,-0.05258448,4990,4978,0
53703400,53703241,4259850,4325386,0.00038996252,-6.305068e-05,3.8618302e-05,-0.0017007202,-0.006306387,-0.05115306,4971,4935,0
54202243,54202067,4259850,4325386,-0.00032152745,0.00041482828,0.00037841406,-0.00043074574,-0.0024365913,-0.048921216,4995,5013,0
54700772,54700661,4259850,4325386,0.000861464,-0.0005051027,-0.00019375425,0.0030049353,-0.004590485,-0.054884132,4988,4934,0
55204610,55204428,4259850,4325386,0.0008416739,2.0473792e-05,-0.0005293337,0.0012645524,-0.013864656,-0.043693747,4994,4972,0
55703599,55703434,4259850,4325386,-0.0010154424,0.00015943752,0.00045843865,-0.0011736103,0.0047914805,-0.046775732,4950,4928,0
56201660,56201466,4259850,4325386,-0.0012923684,0.00034471267,0.0003958229,-0.006183081,0.0051668277,-0.051641364,4988,4938,0
56705445,56705231,4259850,4325386,-0.0005422651,-0.0038030797,-0.000530812,0.0035880154,0.0009128894,-0.04444964,4994,4770,0
57199123,57199007,4259850,4325386,0.0013124178,0.0041143172,-0.00035434906,0.0013778884,0.0072090575,-0.04357431,4987,4676,0
57702944,57702801,4259850,4325386,0.0008335249,0.002634861,0.00017312582,-0.0008498434,-0.0069065425,-0.048588898,4980,4985,0
58201978,58201784,4259850,4325386,0.00090321637,-0.003657061,0.00025911562,-0.0050685527,-0.007973765,-0.0506751,4979,4984,0
58699923,58699811,4259850,4325386,0.00048254686,-4.4210734e-05,-0.0011709009,-0.00802698,-0.016330656,-0.049739975,4987,4969,0
59203966,59203847,4259850,4325386,-0.00059879053,0.00067464524,-0.000520804,0.0049302345,0.0071523283,-0.046614666,5260,4934,0
59702451,59702341,4259850,4325386,0.00050487777,-0.00014218946,-0.0011254518,-0.0014771665,-0.008832177,-0.042837333,4988,4940,0
60201289,60201172,4259850,4325386,-0.00085190014,0.0004430249,0.00051511114,-0.0015209082,0.0007805553,-0.056987572,4964,3945,0
60700294,60700112,4259850,4325386,0.00016424496,-0.00010805376,-0.00015385306,-0.004140813,-0.0044942447,-0.045602497,4969,4967,0
61203767,61203653,4259850,4325386,-0.0002850555,0.00056591356,-0.00013903082,-0.010874621,-0.0038601125,-0.03590141,4997,4971,0
61702592,61702415,4259850,4325386,-0.00045929846,-0.00011974493,0.0007698415,-0.005159415,0.004664608,-0.068073325,4988,5927,0
62201545,62201363,4259850,4325386,-0.0008545005,-0.0028408733,0.0005136598,-0.013904074,-0.0020908627,-0.058687653,4977,4980,0
62705369,62704950,4259850,4325386,0.00023142698,0.0041465345,-0.00042835713,-0.011731366,-0.00881692,-0.055956464,4992,4998,0
63203998,63203848,4259850,4325386,-0.0015311477,-0.0040544993,0.00012695859,-0.014254908,-0.017095013,-0.050716188,4989,4931,0
63702752,63702585,4259850,4325386,-0.0009948959,-0.0019761105,0.0010367056,-0.0037930633,0.0036284549,-0.050657254,4972,4934,0
64200300,64199767,4259850,4325386,0.0009453467,0.004504696,-0.00023930529,0.00922658,-0.0007316482,-0.042045157,4990,4763,0
64703173,64703023,4259850,4325386,-0.00016631173,-0.00459245,-3.4385008e-05,0.007610518,0.00929948,-0.047118913,4986,4931,0
65201930,65201795,4259850,4325386,0.00046520703,0.004274968,0.0007160502,-0.00013614642,0.01000896,-0.052985627,4937,4931,0
65700677,65700566,4259850,4325386,0.00019726611,0.0019527962,-0.00082491094,0.0015954608,-0.00543198,-0.043979775,4986,4932,0
66204460,66204335,4259850,4325386,-0.0007656105,-0.0035315917,-0.00015900898,0.004842094,-0.010148827,-0.045644466,4993,4876,0
66703231,66703116,4259850,4325386,0.0020501954,-0.003680812,-0.0038694055,0.006359577,-0.0054555726,-0.043033294,5007,4899,0
67202147,67202013,4259850,4325386,-0.0009907947,-0.0032123812,-5.491101e-05,0.0012840029,-0.0017608328,-0.05862298,4992,4935,0
67701080,67700912,4259850,4325386,0.0010672628,0.0045116525,-0.0004520188,-0.0031711936,-0.011544722,-0.05206186,5261,4935,0
68204695,68204409,4259850,4325386,0.0014333,0.0022257802,-0.001318328,-0.006413811,-0.028122915,-0.047872223,4999,4996,0
68703344,68703171,4259850,4325386,0.0012478251,-0.0049827793,-0.0011921286,-0.0037299646,-0.020889215,-0.044485845,4989,4936,0
69201199,69200943,4259850,4325386,-0.00039063414,4.249674e-05,0.0004575081,-0.012384372,-0.011544775,-0.0623829,4987,5922,0
69704411,69704254,4259850,4325386,-5.3440024e-05,0.002507696,0.000230462,-0.0059171454,-0.014218412,-0.05256636,4988,4933,0
70203201,70203025,4259850,4325386,0.0011305109,-0.00041318827,-0.00046651246,-0.0019889208,-0.018150974,-0.047402,4987,4934,0
70701950,70701797,4259850,4325386,0.00038785423,-0.0008570539,-0.00036618102,0.012989906,0.013202809,-0.0447538,4991,4934,0
71200685,71200565,4259850,4325386,5.2220985e-06,0.00030789193,-0.00012004686,-0.0064598722,0.00032198578,-0.042028576,4988,4670,0
71699954,71699497,4259850,4325386,0.00074886857,-0.00022621412,-0.00067922415,-0.0022483335,-0.012542282,-0.045490555,4981,4992,0
72203294,72203151,4259850,4325386,-0.0004407772,-0.0017389734,0.0009886583,-0.005283728,0.0026370538,-0.053124275,4996,4943,0
72702016,72701868,4259850,4325386,-0.0010750745,0.0030601306,0.00012408965,-0.009009227,0.0006457296,-0.049704775,4989,4976,0
73205817,73205628,4259850,4325386,-0.0011122827,0.0013429781,0.00049292116,-0.00019859501,0.011614772,-0.060386136,4990,5835,0
73704779,73704607,4259850,4325386,-0.0011418228,0.0030657875,0.00053163676,-0.008927667,0.0028020896,-0.052487846,4965,4964,0
74198604,74198182,4259850,4325386,0.0003828122,-0.0034716385,0.00025197287,0.0072323414,0.0033126944,-0.04732393,4970,4986,0
74701520,74701394,4259850,4325386,-0.00068897504,0.001536994,-3.2701653e-05,-0.0052669994,0.0016380744,-0.04554595,4987,4984,0
75200285,75200165,4259850,4325386,-5.1521547e-05,-0.0006924002,5.0557795e-05,-0.011626666,-0.0074865855,-0.05549719,4988,4971,0
75704095,75703934,4259850,4325386,-0.00026397753,0.0017847427,0.000111221154,-0.00026909873,-0.003963013,-0.05575452,4996,4984,0
76203174,76203019,4259850,4325386,-0.00197691,0.003374016,-0.00029716297,0.007120906,0.0032998887,-0.038859684,5029,4617,0
76701758,76701611,4259850,4325386,-0.0036399837,-0.002844498,0.00095267233,-0.00789595,0.0054257545,-0.051257245,5043,4938,0
77205371,77205225,4259850,4325386,0.003673851,-0.0023572496,-0.00053622335,0.008321164,0.0063531892,-0.047939222,4972,4927,0
77704356,77704172,4259850,4325386,-0.0046744454,-0.0016019797,0.0006229008,-0.00469684,0.004745009,-0.052450042,4950,4935,0
78202433,78202316,4259850,4325386,0.0017815193,0.002643423,0.0005254875,-0.006521983,0.0085777445,-0.055842906,4969,4931,0
78701432,78701279,4259850,4325386,0.00021032162,-0.0023503012,-0.00059678656,-0.010476401,-0.015033547,-0.051230457,4973,4934,0
79200350,79199813,4259850,4325386,-0.0007590142,-0.00067378074,0.0007665143,-0.0062641064,-0.0145217,-0.05157311,4972,4936,0
79703680,79703570,4259850,4325386,0.0007698075,0.00033842676,0.00012661506,0.0024598525,0.0002197189,-0.04968454,4987,4933,0
80202740,80202519,4259850,4325386,0.00036853694,0.0026493573,-0.00064334506,-0.0036187272,-0.0153891435,-0.057742033,4974,5923,0
80701228,80701113,4259850,4325386,0.00032304536,-0.0016328682,0.00044630168,-0.007875281,-0.0092916,-0.05108682,4988,4972,0
81200102,81199958,4259850,4325386,5.0168248e-05,0.0034502186,-0.00061599986,0.0012501101,-0.009916834,-0.040497657,4957,4935,0
81698916,81698785,4259850,4325386,-0.0029844476,-0.0035916592,0.0004293835,0.0038793671,0.005514418,-0.052165203,4965,4935,0
82202527,82202415,4259850,4325386,0.0043418882,-1.1063898e-05,-0.00033374561,0.0017360145,0.0048762066,-0.047587138,4988,4970,0
82701302,82701188,4259850,4325386,-0.004062713,-0.0035160067,0.00074249826,-0.0056256824,0.013824363,-0.041714195,4983,3942,0
83200133,83200013,4259850,4325386,0.00060885784,0.003584067,-0.00027077596,0.00752837,-0.0024860695,-0.04487751,4969,4934,0
83703828,83703717,4259850,4325386,0.00040977198,-0.0033373523,0.00015560977,-0.0002622357,-0.014193229,-0.04847662,4988,4965,0
84203127,84202987,4259850,4325386,-0.0005172693,-0.00040159046,0.0005190546,-0.01340757,0.003418448,-0.054647878,4988,4934,0
84701870,84701758,4259850,4325386,-0.00035426317,-0.002186738,-0.0005108325,-0.009705734,-0.022141032,-0.045700442,4987,4738,0
85200827,85200683,4259850,4325386,-0.0005543982,-0.0006748454,0.00092469866,-0.009468235,-0.0032026714,-0.0541402,4966,4960,0
85699422,85699301,4259850,4325386,-0.0010068528,-0.001820137,0.00013117261,0.009245081,0.0048376163,-0.046509463,4988,4966,0
86203175,86203060,4259850,4325386,0.0028312884,0.0035980188,-0.00018461357,-0.0016686454,-0.0011732202,-0.051370904,4986,4935,0
86701946,86701831,4259850,4325386,2.0607351e-05,0.0037807762,0.00079303543,-0.01067475,0.00829906,-0.052542754,4987,4966,0
87201068,87200832,4259850,4325386,-0.00036666347,-0.004192933,0.0009638933,0.0032439486,0.01712959,-0.04842981,4977,4969,0
87704476,87704362,4259850,4325386,-0.0029691667,0.0014064966,0.00076973345,0.00769812,0.012795001,-0.047090467,4984,4752,0
88203443,88203297,4259850,4325386,0.0015340126,-0.0020428333,-3.9877083e-05,-0.008560685,-0.012782101,-0.055445515,4993,4959,0
88702192,88702060,4259850,4325386,-0.0008210997,0.00047673774,8.794566e-05,0.0036345469,0.004910275,-0.046188414,4964,4932,0
89200792,89200678,4259850,4325386,0.00399912,0.0028725998,-0.000852841,0.0031833975,-0.014389616,-0.046976253,4990,4987,0
89699651,89699450,4259850,4325386,-0.0023809932,-0.0008425331,-0.00072125264,-0.008500949,-0.021081885,-0.039335027,4990,4961,0
90203426,90203307,4259850,4325386,-0.001162861,-0.002244551,0.0010937504,-0.01149122,0.0048275795,-0.054854967,4974,4932,0
90702098,90701986,4259850,4325386,0.00028393502,-0.0032033375,5.3327607e-05,-0.0061784834,-0.012120035,-0.044899788,4990,4943,0
91205870,91205739,4259850,4325386,7.977069e-05,-0.003291954,-0.000430298,0.004175762,-0.0067289467,-0.04679074,4991,4933,0
91704667,91704534,4259850,4325386,0.0009532172,-0.0015375147,-0.00065361854,-0.004687346,-0.010788577,-0.05281917,4963,4922,0
92198544,92198294,4259850,4325386,0.00018411,0.0047607897,-0.00045749047,0.0056131985,0.0029789375,-0.040634923,4987,4944,0
92702217,92702053,4259850,4325386,-0.001186001,3.1331842e-06,0.0005956396,-0.007411436,0.015800118,-0.055788353,4990,4995,0
93201126,93200972,4259850,4325386,0.0005712355,-0.0028600837,0.0002671939,0.0061127553,0.016927542,-0.04530402,4939,4754,0
93699794,93699666,4259850,4325386,0.0006757725,-0.002287799,-0.00017701827,-0.0005204818,-0.010885483,-0.045458212,4989,4933,0
94203502,94203353,4259850,4325386,0.0010800691,-0.001801085,-0.0005954837,-0.0071621723,-0.025324102,-0.04559022,4989,4679,0
94702246,94702126,4259850,4325386,-6.856575e-05,-0.002793734,-0.00021177351,-0.0032892497,-0.012910719,-0.052457724,4988,4935,0
95200512,95200395,4259850,4325386,-0.0003522689,0.0034667067,-0.0003303338,0.0021746666,0.005727888,-0.041465465,4988,4961,0
95700026,95699670,4259850,4325386,-0.00062009343,8.6199616e-05,-0.00011796544,-0.008938476,0.002256209,-0.04660101,4990,4968,0
96203640,96203528,4259850,4325386,-0.0015094978,0.002568048,0.0007156811,0.0001737942,0.02069267,-0.053188924,4990,4987,0
96702818,96702621,4259850,4325386,-0.00024930353,-0.00095947,0.00043691843,-0.0021015592,-0.0051947874,-0.052330475,4984,4978,0
97201083,97200970,4259850,4325386,0.00058800314,0.0006989628,-0.00038412996,0.003963445,-0.015281177,-0.04197264,4990,4951,0
97704845,97704728,4259850,4325386,0.00058577076,-0.0023998702,-0.0006594201,0.0005525093,-0.009511751,-0.046544805,4987,4987,0
98203786,98203674,4259850,4325386,-0.00018324552,0.0019967472,-0.0008637611,0.004010491,-0.0011747228,-0.043899097,4957,4933,0
98702385,98702270,4259850,4325386,0.00038719203,-0.0034921526,-0.00018102047,-0.000231667,0.002644552,-0.044420913,4987,4942,0
99201361,99201120,4259850,4325386,-0.0013295532,0.0008111345,0.0018418193,-0.0023384686,0.007675001,-0.054530293,4999,4992,0
99700122,99699987,4259850,4325386,-0.00015731485,6.932283e-05,0.0018676078,-0.009652303,-0.016320724,-0.045394365,4962,4675,0
100203688,100203573,4259850,4325386,0.00066656497,-0.0004290838,0.0026794919,-0.0034745787,-0.0100234905,-0.045222383,4987,4977,0
100702455,100702344,4259850,4325386,-0.00052027416,7.623279e-05,0.004483299,0.0023185448,0.0022824954,-0.044044252,4985,4981,0
101205232,101205108,4259850,4325386,-0.0001187106,0.00051176857,0.001778898,0.0025157898,0.012626957,-0.05113716,4990,4948,0
101704293,101704080,4259850,4325386,0.00040684245,-0.0006882378,0.0037696492,0.0057121385,-0.0021420885,-0.04485293,4967,4932,0
102202320,102202153,4259850,4325386,1.6142718e-05,-0.0038802242,0.00042935114,0.0005557307,-0.010741586,-0.047009762,4988,4929,0
102701396,102701188,4259850,4325386,0.00061224535,0.0034365472,-0.0008710031,-0.001675587,-0.0117314905,-0.0427998,4962,4971,0
103201078,103199696,4259850,4325386,0.00121015,0.0006849494,-0.000671235,0.0065157614,-0.010567911,-0.05155566,4991,5812,0
103698662,103698502,4259850,4325386,-0.0007135788,0.00095170067,0.000468252,-0.005826734,-0.007447931,-0.05939376,5283,6253,0
104202675,104202509,4259850,4325386,0.0012637373,-0.0033412052,-0.0005425449,-0.0035521956,-0.019448271,-0.04673743,4972,4752,0
104701360,104701174,4259850,4325386,0.00075784663,-0.0021367772,-0.0002981208,-0.0039847475,-0.010438788,-0.050998088,4981,5890,0
105204878,105204756,4259850,4325386,0.00034792695,0.000716116,-0.0010090494,0.001252875,-0.009444135,-0.043924958,4990,4935,0
105698857,105698739,4259850,4325386,-0.0008077003,-0.0030780926,8.387072e-05,-0.00071327505,0.008455518,-0.052156433,4964,4963,0
106202413,106202297,4259850,4325386,-0.0030326194,-3.397384e-05,-0.0004285402,0.0053677806,0.0055999197,-0.048963528,4988,4765,0
106701276,106701070,4259850,4325386,0.0005176583,0.00047703597,0.0005612393,-0.0066441516,0.013190249,-0.05776495,4973,4935,0
107200326,107200178,4259850,4325386,0.0053607314,-0.0013429517,-0.00064432673,-0.0086325165,-0.019407872,-0.047937345,5017,4905,0
107703739,107703599,4259850,4325386,-0.0034360683,0.0007011616,0.0011225331,0.0029761286,0.023683704,-0.04981728,4988,4934,0
108202486,108202371,4259850,4325386,-0.00034436627,0.004104279,-4.0004852e-05,-0.010357232,-0.010621328,-0.053398844,4941,4937,0
108701383,108701222,4259850,4325386,0.0013862015,-0.0040181503,-9.3384326e-05,-0.001059424,-0.0021090826,-0.056197032,4967,4957,0
109205414,109204905,4259850,4325386,-0.00067626726,0.0009771871,0.00084492454,-0.008130733,-0.007896031,-0.06059269,4989,5925,0
109698409,109698258,4259850,4325386,-0.00020549494,-0.0025761165,5.6348727e-05,-0.019282226,-0.017538315,-0.057424992,4953,4933,0
110202139,110201998,4259850,4325386,-0.0022840302,0.0018096365,0.00037830762,0.010540088,0.024159737,-0.043381877,4984,4934,0
110700882,110700765,4259850,4325386,0.0006755027,-0.0015012145,0.00047307392,-0.0114051355,-0.009850457,-0.05484703,4947,4933,0
111204685,111204552,4259850,4325386,0.0007774673,-0.0033747163,-0.0006001561,0.010542324,0.004241658,-0.043471914,4994,4933,0
111703859,111703747,4259850,4325386,-0.0005882192,-0.003344042,0.00026785163,-0.0064519946,-0.00810685,-0.05196897,4988,4991,0
112202658,112202526,4259850,4325386,0.0024219893,0.002592098,0.0003594871,-0.007895438,-0.003328852,-0.052127287,4995,4949,0
112706690,112706297,4259850,4325386,-0.003383079,0.0033110497,-0.00011084977,-0.007061267,-0.0066279164,-0.054136053,4990,4997,0
113200358,113200244,4259850,4325386,-0.0006592763,-0.0025414138,0.00068846554,-0.018313395,-0.0056482954,-0.05123198,4984,4930,0
113699243,113699072,4259850,4325386,0.00043043267,0.0039077587,-0.000941639,-0.0026097554,-0.020664733,-0.03986798,4968,4934,0
114202718,114202594,4259850,4325386,0.0005227327,-0.0030924594,0.0004741179,0.0025117795,0.007320927,-0.06002662,4981,4966,0
114701490,114701376,4259850,4325386,-0.0033380906,-0.0015559839,0.00048137113,-0.011058189,-0.0027924317,-0.054087203,4994,4995,0
115205748,115205281,4259850,4325386,0.00028687646,0.0041180346,0.0004446142,0.0025390973,-0.0007582517,-0.05850915,4975,4951,0
115704040,115703928,4259850,4325386,0.0041401885,0.0007247261,-0.0001291757,0.00028853538,0.007219323,-0.044940725,4990,4991,0
116202828,116202668,4259850,4325386,-0.0045905765,-0.0036725532,0.0011045047,0.0007835665,0.0070297658,-0.04917386,4988,4971,0
116701643,116701533,4259850,4325386,-0.00072279485,0.002191197,0.00079549785,-0.010049296,-0.0033259168,-0.052454088,4961,4934,0
117200406,117200212,4259850,4325386,0.0016728663,0.0031006539,-0.00013188757,0.011813615,0.01825035,-0.04653881,4989,4944,0
117704334,117703991,4259850,4325386,-0.0019650762,-0.0025736354,-0.000116997726,-0.0056875343,-0.011386227,-0.04299487,5006,4900,0
118203092,118202964,4259850,4325386,0.0034548803,0.0003249376,0.00031876581,-0.0019102179,0.0111537315,-0.057076648,4987,4985,0
118701795,118701630,4259850,4325386,-0.0030300983,0.0010634011,-7.1446084e-05,-0.005319793,-0.006152277,-0.0491357,4992,4949,0
119205012,119204900,4259850,4325386,-0.00073159114,0.0049979202,0.00038016154,-0.0071214964,0.003833291,-0.051974,4933,4956,0
119703710,119703594,4259850,4325386,0.0013155235,-0.0009539208,-0.00052723166,0.008903076,-0.01675376,-0.044420704,4986,4929,0
120202470,120202365,4259850,4325386,-0.00046711246,-0.0037611837,0.0003552879,-0.0025720173,0.008240158,-0.04069547,4986,3945,0
120701706,120701588,4259850,4325386,0.00025352906,0.0042134756,-0.00058879476,0.0018767203,-0.0037121994,-0.051862713,4988,4969,0
121200943,121200504,4259850,4325386,0.0010698406,0.00083786674,-0.00079450174,0.0007366118,-0.013552116,-0.056177136,4993,5925,0
121704419,121704300,4259850,4325386,-0.0007504675,0.0031912355,-0.00033322658,-0.009415395,-0.005033891,-0.049514726,4990,4935,0
122202168,122202042,4259850,4325386,-0.000839839,-0.004218579,0.000535687,-0.010259971,0.003737275,-0.05452172,4984,4930,0
122700775,122700665,4259850,4325386,-0.00040981997,-0.0014964361,0.0004654743,-0.0065859314,-0.008844959,-0.04416155,4984,4931,0
123199604,123199466,4259850,4325386,-0.0003108053,0.0038200081,0.00025121862,-0.007767649,-0.007440416,-0.050041158,4977,4935,0
123702874,123702763,4259850,4325386,0.00044527915,0.0007419444,-0.000324916,-0.0025541214,-0.015884232,-0.04452178,4986,4965,0
124201719,124201576,4259850,4325386,-0.00040379935,0.002168922,-0.0002908014,-0.007992276,-0.0019799797,-0.050333716,5020,4914,0
124700358,124700241,4259850,4325386,0.0005285637,-0.0030962913,-0.000616823,0.0044079283,-0.003060335,-0.044994026,4988,4939,0
125204151,125204000,4259850,4325386,0.0012566582,-0.0013640212,-7.657384e-05,-0.0005493627,-0.006254123,-0.05389674,4939,4934,0
125702914,125702779,4259850,4325386,-0.00059735664,0.00056127517,0.0005667618,-0.0006835842,0.00389666,-0.05165402,4952,4733,0
126207048,126206534,4259850,4325386,-6.270551e-05,0.0039912513,-0.00023482363,0.0046405625,0.00030098652,-0.057300128,4990,5922,0
126700997,126700820,4259850,4325386,-0.0045417114,-0.0019430115,0.00045544776,-0.008925671,-0.0020004362,-0.06455836,4993,5942,0
127199239,127199089,4259850,4325386,-0.0014539534,0.0022476902,-0.0002579771,0.0067440076,0.0009283104,-0.045795612,4988,4934,0
127702970,127702847,4259850,4325386,0.0009424875,-0.0019377727,0.00023653783,0.004252415,0.011344052,-0.043394055,4955,4934,0
128201743,128201619,4259850,4325386,0.0037360836,0.0008281252,-0.003221819,0.00044409835,0.0060161734,-0.04522913,4988,4968,0
128705601,128705479,4259850,4325386,-0.0017236004,-0.0020870662,-0.005529329,0.00031493415,-0.008457836,-0.04067966,5028,4937,0
129204611,129204484,4259850,4325386,-0.0016113522,0.00025025566,-0.0038310937,-0.006287562,0.016418552,-0.05292323,5037,4919,0
129703079,129702927,4259850,4325386,-0.00026655826,-0.0032651732,0.00062050443,-0.009915661,-0.0012254154,-0.053914495,4992,4931,0
130202312,130202193,4259850,4325386,0.00053890666,0.0040239557,-0.0005863405,0.0067628236,-0.0001445645,-0.044780497,4985,4933,0
130702442,130701125,4259850,4325386,-0.0004336551,-0.0034400495,-8.9660076e-05,-0.004114053,-0.005824092,-0.04283835,4987,4968,0
131200057,131199842,4259850,4325386,0.0010572473,-0.000452819,-0.00025837598,-0.0011552394,-0.0013004144,-0.05836199,4964,5933,0
131703610,131703496,4259850,4325386,0.0002948348,0.00044214664,-0.0010158566,0.0017014456,-0.011981854,-0.052597664,4987,4933,0
132202297,132202143,4259850,4325386,-3.162725e-05,0.00033405045,-0.00034256894,0.003081521,0.005903255,-0.04693367,5016,4932,0
132700684,132700542,4259850,4325386,9.907056e-05,-0.003284783,0.0009422409,-0.0063602007,-0.011512865,-0.048833143,4987,4985,0
133204426,133204309,4259850,4325386,-0.00020089996,0.0017980897,0.0007311928,0.0061843805,0.0103317285,-0.038001943,4994,3789,0
133703345,133703221,4259850,4325386,0.0003088163,0.003298076,-0.0007988999,-0.00873371,-0.02084187,-0.047851663,4987,4986,0
134201961,134201851,4259850,4325386,-0.0015960588,-0.0042024744,0.0012726578,0.0005337813,0.017878717,-0.05450356,4941,4935,0
134700737,134700619,4259850,4325386,-0.00034198642,-0.00037643817,-0.00010361704,-0.003911219,0.0061881687,-0.045589633,4984,4974,0
135199744,135199620,4259850,4325386,5.4721466e-05,-0.0017165722,0.0007924039,-0.0011412012,0.00894711,-0.05250301,4966,4934,0
135703350,135703156,4259850,4325386,0.00063474843,0.0020886164,-0.00022247371,0.0018948641,-0.0017921967,-0.04623156,4994,4989,0
136202102,136201922,4259850,4325386,-0.0035242948,0.0032180455,0.00038813445,-0.010068569,-0.013584206,-0.060800377,4988,5924,0
136705867,136705683,4259850,4325386,0.0039826105,-0.0015085757,-0.00016377354,0.005795016,0.009831441,-0.05945231,4988,5922,0
137199608,137199467,4259850,4325386,-0.0040531843,0.0013666677,-0.00037633738,0.004654112,0.0037393712,-0.045528892,4988,4933,0
137701920,137701786,4259850,4325386,-0.0008051025,-0.0005564092,5.935401e-05,0.0049702614,0.009985838,-0.04836612,4991,4935,0
138200850,138200666,4259850,4325386,0.0021249605,-0.0010325208,0.00013030207,0.009784607,0.0050649727,-0.05283471,4973,4934,0
138699440,138699322,4259850,4325386,-0.0024470573,0.002088163,-0.00017754149,-0.0030069447,-0.020808447,-0.051604114,4983,4933,0
139203274,139203083,4259850,4325386,0.002712043,0.002548192,0.0003023564,-0.011555795,-0.0023234095,-0.051181845,4979,4939,0
139702090,139701976,4259850,4325386,-0.0012956893,0.0033905776,0.00017628702,-0.00712311,-0.0002860992,-0.049218077,4972,4941,0
140205814,140205673,4259850,4325386,0.0040935376,-0.0020495008,-0.000318371,0.0022037497,-0.0137484,-0.046308406,4992,4933,0
140704530,140704387,4259850,4325386,0.0020008995,-0.0024519402,0.0013583832,-0.0049749846,0.011335116,-0.053871177,4987,4947,0
141203293,141203161,4259850,4325386,-0.0002874576,0.004654114,-0.00030331782,-0.0020149513,0.0027689275,-0.05417084,4986,4934,0
141702065,141701931,4259850,4325386,-0.0005631204,-0.004174051,0.00017814533,-0.00048829196,-0.006623655,-0.05937542,4985,4933,0
142200826,142200706,4259850,4325386,0.00031284028,-0.00054417964,-0.00051440945,-0.0054217894,-0.009184803,-0.055683963,4978,4936,0
142704693,142704579,4259850,4325386,-0.0026784546,0.0046186154,0.00023489229,0.006587561,0.019642677,-0.054074463,5004,4932,0
143203492,143203369,4259850,4325386,0.0030558887,-0.0032312793,0.00044473237,-0.0003096571,0.011059249,-0.03688223,4985,3923,0
143701648,143701542,4259850,4325386,-0.0028512583,-0.0020025424,0.00024124011,-0.009345437,-0.00017066688,-0.05373666,5022,4912,0
144204841,144204723,4259850,4325386,0.0033705705,0.0045720628,-0.0016612348,0.0075818705,-0.011298212,-0.043203577,4988,4958,0
144699037,144698591,4259850,4325386,-0.002879324,-0.0036355618,0.00012091996,0.006412725,0.020422364,-0.056101665,4976,4937,0
145202382,145202268,4259850,4325386,0.0028116014,-0.0017875473,-7.520355e-05,-0.00836669,-0.004322324,-0.052146323,4988,4935,0
145701155,145701042,4259850,4325386,-0.0010015228,0.0020684612,-0.0010678432,0.0051428443,-0.011832162,-0.0428096,4987,4973,0
146200219,146200021,4259850,4325386,0.0015593894,0.0020117136,0.00019672609,0.01231633,0.014293319,-0.055722915,4966,4970,0
146703706,146703572,4259850,4325386,-0.0040398086,-0.0013069303,0.0009271987,0.0052680415,0.021973277,-0.047531646,4987,4993,0
147202528,147202346,4259850,4325386,0.004185346,-0.0028358758,0.0003073598,-0.0032868327,0.0070689293,-0.05827745,4985,5827,0
147706234,147706107,4259850,4325386,0.0024130142,0.0033818933,-0.0016000436,0.003968062,-0.011929201,-0.044919055,4983,4933,0
148200079,148199890,4259850,4325386,-0.0021584276,-0.0040617194,-0.0004841556,-0.0008609366,-0.0033692026,-0.041036267,4982,4936,0
148698772,148698662,4259850,4325386,-0.0011492992,-0.00057113817,-0.00022236253,-0.005013107,-0.0005854975,-0.04259309,4987,4932,0
149203075,149202511,4259850,4325386,-8.44674e-05,0.004256873,0.0002665073,-0.0035874667,-0.00332333,-0.05538519,4970,4934,0
149701865,149701731,4259850,4325386,-0.0016377084,-0.0031781415,0.00083815714,-0.003929657,-0.0010177308,-0.05313875,4974,4968,0
150200960,150200763,4259850,4325386,-0.0014216511,0.00037639096,0.00038751485,0.00035725636,0.007821604,-0.04539401,4972,4934,0
150704361,150704227,4259850,4325386,1.5254888e-05,-0.0009363032,-0.00019163113,-0.0037996462,-0.0094566485,-0.043838214,4988,4934,0
151203129,151203001,4259850,4325386,-0.0003441277,0.0033280312,0.00016381682,-0.0035561728,0.003530554,-0.049463652,4989,4926,0
151701996,151701888,4259850,4325386,-0.0027994455,-0.0007274571,-0.00018352026,0.0056243096,0.0059760916,-0.034644198,4954,4115,0
152200659,152200544,4259850,4325386,0.002016322,0.0029878488,-0.00063430035,0.0062641287,-0.0090087475,-0.04961923,4988,4943,0
152704460,152704311,4259850,4325386,-0.0015606879,-0.0035217947,0.0006676875,-0.008480005,0.003851236,-0.044064775,4992,3943,0
153203494,153203332,4259850,4325386,-0.0017306675,0.0008157594,-0.00038049696,-0.0030859313,-0.012945913,-0.05044918,4973,4936,0
153701969,153701851,4259850,4325386,0.0048565627,-0.0011098392,0.00030316436,-0.00026991803,-0.0031985326,-0.0415004,4988,4934,0
154205738,154205612,4259850,4325386,-0.0032130876,-0.0037868605,0.0011152594,-0.0010999634,0.017720105,-0.0460896,4989,4957,0
154703494,154703385,4259850,4325386,-8.1011334e-05,0.004363441,0.0004257251,-0.0034873807,-0.0028287994,-0.054662444,4987,4940,0
155201849,155201706,4259850,4325386,0.0010467015,-0.004389375,6.345107e-05,0.0061808005,-0.0059948773,-0.048430428,4996,4985,0
155700578,155700435,4259850,4325386,0.001060896,0.0035163264,-0.0011858246,-0.0009766725,-0.02090187,-0.043121047,4989,4936,0
156199570,156199410,4259850,4325386,0.00023549027,-0.0026687721,-0.0003929324,-0.0046041138,-0.008991841,-0.05141898,4963,4936,0
156703083,156702972,4259850,4325386,-6.0597395e-06,-0.0032207847,-0.0010724054,0.0049642986,-0.00044634007,-0.044270985,4989,4872,0
157201863,157201738,4259850,4325386,-0.000150332,-0.0005761258,-0.0007221113,0.0075430274,0.002057017,-0.046998464,4988,5017,0
157705192,157705047,4259850,4325386,-0.00013694333,0.00071131764,-0.0003428444,0.0038610839,-0.0016385363,-0.04106722,4987,4935,0
158199030,158198839,4259850,4325386,-0.00071003824,0.0037600985,0.00038848558,0.003727776,0.0037638105,-0.056118064,4994,4994,0
158702853,158702722,4259850,4325386,0.00022013354,0.0022639052,0.00017541974,-0.0074644643,-0.0109719075,-0.054743253,4972,4945,0
159201484,159201373,4259850,4325386,0.00033579895,-0.00374337,0.00027031862,-0.0020405615,-0.00933657,-0.05021014,4992,4756,0
159700252,159700138,4259850,4325386,2.9040084e-05,0.00013156564,0.00017105475,0.0031660863,0.015585886,-0.04283569,4987,4964,0
160204408,160204241,4259850,4325386,-0.0004331671,-0.0029990796,3.5388734e-05,-0.006144906,-0.008407239,-0.04669605,5031,4715,0
160702786,160702672,4259850,4325386,0.00038518728,-0.003765223,9.799405e-05,0.0014590841,0.001872151,-0.055018727,4987,4935,0
161205510,161205387,4259850,4325386,-0.00074858626,-0.0007915846,0.0008900713,-0.0024558331,-0.0009830497,-0.052058633,4988,4936,0
161704980,161704781,4259850,4325386,-0.000515267,0.0019963107,8.071202e-06,0.011333131,0.00854191,-0.04523846,4996,4934,0
162198557,162198444,4259850,4325386,1.1367264e-05,0.0010638502,-0.00037289836,0.0050997594,-0.007100786,-0.046595026,4988,4973,0
162702458,162702312,4259850,4325386,0.00021574873,0.003753314,-0.00023068323,-0.0044710045,-0.009654309,-0.047914896,4970,4941,0
163201096,163200980,4259850,4325386,0.0003078299,-0.003439133,-0.0002597611,0.0065582627,0.004985735,-0.04404226,4989,5009,0
163704857,163704745,4259850,4325386,0.00018679083,-0.0014755824,0.00027477392,0.0036922318,-0.00015710173,-0.05130727,4976,4927,0
164203879,164203759,4259850,4325386,-0.0004551638,-0.00289133,0.00013338006,0.002800302,0.011404887,-0.04093998,4986,4934,0
164702610,164702480,4259850,4325386,-0.0011185048,-0.0022875029,0.0008773351,-0.005741974,0.010063944,-0.053166375,4993,4943,0
165206640,165206047,4259850,4325386,-0.0011282687,0.0034463448,-0.0005781825,-0.0013461522,-0.012699158,-0.04435106,4976,4935,0
165699990,165699881,4259850,4325386,0.0041270643,-0.0008051326,-0.00054037553,0.013090019,0.005637532,-0.04837332,5020,4914,0
166203754,166203595,4259850,4325386,-0.003160471,3.6328394e-05,0.0005439534,0.0023117764,0.003079985,-0.050760336,4991,4992,0
166702507,166702397,4259850,4325386,-0.00052696955,0.0011689864,0.00020429063,-0.0058167954,0.004416451,-0.049531735,5019,4914,0
167201450,167201337,4259850,4325386,-0.00042906412,0.0046617743,-0.0014240021,-8.513014e-05,-0.011019106,-0.046874236,5029,4926,0
167705035,167704898,4259850,4325386,0.00031758187,0.002550108,-0.00071833894,0.0041936864,-0.0010278436,-0.047540046,4986,4934,0
168203788,168203674,4259850,4325386,-0.00020856301,-0.0041250177,0.00055949937,-0.0034830098,-0.00482028,-0.047929585,4990,4992,0
168702599,168702482,4259850,4325386,-0.00024748733,4.9363054e-05,0.00040923484,-0.00494577,0.0020584662,-0.046014294,5024,4917,0
169201660,169201497,4259850,4325386,0.00044778403,0.004140327,-0.0007534888,0.0027228217,-0.0063813734,-0.05788537,5267,6189,0
169700113,169699993,4259850,4325386,-0.0009447939,0.0029721677,0.0006763468,0.00047572766,0.004562769,-0.051868267,4990,4934,0
170204063,170203948,4259850,4325386,-0.00088782783,0.003238066,-0.0006327239,-0.0067264177,-0.009140858,-0.055113968,4996,4988,0
170702909,170702757,4259850,4325386,-0.0003197802,-0.00027841117,0.00043795453,-0.0071047163,0.009159033,-0.047478158,4927,4650,0
171201440,171201304,4259850,4325386,0.0011182891,-0.0031800147,0.00037812674,-0.0015519892,0.0072764866,-0.05147691,4989,4949,0
171705020,171704873,4259850,4325386,0.00080815685,-0.002981891,0.00025728196,-0.0056736493,-0.0059335823,-0.04556511,4967,4934,0
172203480,172203333,4259850,4325386,0.000830832,-0.0024057562,0.0005177255,0.0017651496,0.019765051,-0.050039247,4988,4976,0
172702230,172702107,4259850,4325386,-0.00036970386,-0.0028258704,0.00033459958,0.006154397,0.009269346,-0.052358385,4986,4977,0
173201298,173201102,4259850,4325386,0.00059100124,0.003248087,-0.0007373282,0.00040404193,-0.00506428,-0.04560553,4989,4999,0
173705254,173704645,4259850,4325386,0.0015837367,-0.0015347914,-0.00061755616,0.005385272,-0.004096143,-0.049776327,4990,5728,0
174203588,174203414,4259850,4325386,0.0010068556,-0.0029750376,-7.458415e-05,-0.004293175,-0.00026669647,-0.063707724,4987,5920,0
174702610,174702501,4259850,4325386,0.0013333298,-0.003876594,-0.00060924824,-0.002923391,-0.01004206,-0.037771896,4977,3942,0
175201177,175200966,4259850,4325386,0.00059088913,-0.0034651584,-0.00043793407,0.01012325,0.007745508,-0.049374193,4992,5652,0
175705455,175705285,4259850,4325386,-4.3101198e-05,0.00426425,-0.00023016923,-0.009713646,-0.0199461,-0.05194888,4990,4997,0
176199172,176199007,4259850,4325386,0.0012630088,-0.00052687095,0.0002277908,0.008260019,-0.000671884,-0.047768127,4989,4943,0
176703043,176702774,4259850,4325386,0.0004955986,-0.0037529548,0.0002395828,0.003099667,0.017668366,-0.06048035,4989,5881,0
177201160,177201046,4259850,4325386,0.00040438733,0.0043502357,-0.000702805,-0.001207245,-0.01318081,-0.044925395,4962,4930,0
177699982,177699853,4259850,4325386,0.00012805745,-0.0040244786,-0.0001367975,-0.0052247415,-0.026738087,-0.050980564,4951,4933,0
178203691,178203579,4259850,4325386,0.00030517706,0.0027979808,-0.00026068775,0.010306771,0.019778147,-0.046004433,4989,5195,0
178702500,178702355,4259850,4325386,0.00015596612,-0.002289986,0.00046959743,0.0007815524,0.0096448725,-0.047610294,4991,4998,0
179201306,179201163,4259850,4325386,0.00048446257,0.0008189132,-0.0007447551,0.0020753632,-0.023539282,-0.04003859,4959,4965,0
179699578,179699405,4259850,4325386,6.9285365e-05,0.0038605507,-0.00031318192,0.0005554412,-0.0070034186,-0.031605218,4990,3946,0
180203835,180203722,4259850,4325386,0.0014822881,0.0021153074,-3.718225e-05,-0.005021265,-0.012267113,-0.05459302,4997,4933,0
180702647,180702434,4259850,4325386,0.0017289652,-0.0026735708,-8.745331e-05,-0.003106223,0.009679759,-0.052680638,4986,4934,0
181201338,181201209,4259850,4325386,-0.0011440454,-0.0019010055,-0.00048384463,0.010203557,-0.003297812,-0.04196336,4983,4936,0
181705081,181704970,4259850,4325386,0.0014707537,0.0014673249,0.0006190403,0.0047223098,-4.7047022e-05,-0.059035525,4990,4925,0
182203871,182203740,4259850,4325386,-0.002474863,-0.0041705538,0.00010036248,0.003099003,0.005868776,-0.042478062,4989,4934,0
182702955,182702773,4259850,4325386,-0.0009868906,0.0040908926,0.00039571073,-0.0026927595,0.0034116756,-0.04667712,4967,4975,0
183200449,183200292,4259850,4325386,-4.5905254e-06,-0.0019022995,-0.00014474199,0.005199169,0.002516049,-0.047527555,4986,4987,0
183699685,183699564,4259850,4325386,0.0010301911,-0.0041079675,1.9126162e-05,-0.006974759,-0.017847989,-0.056201015,4988,4938,0
184203522,184203331,4259850,4325386,0.00016517314,0.0035318064,0.00019764346,-0.007989432,-0.0077443775,-0.048514534,4993,4960,0
184702287,184702161,4259850,4325386,0.00089131837,-0.004426726,-0.00043444158,0.0030474868,0.0031884112,-0.049147613,4941,4930,0
185201304,185201143,4259850,4325386,0.0013266844,0.0011363638,0.00086763914,0.010802915,0.024977412,-0.049897023,4982,4932,0
185703817,185703685,4259850,4325386,-0.0003807154,-0.0028941135,0.0015443405,-0.0044319564,-0.0017771533,-0.05146842,4987,4933,0
186202584,186202460,4259850,4325386,0.0003864495,0.0038684034,-0.00026780338,0.0098897265,0.00597206,-0.049908563,4989,4969,0
186701347,186701233,4259850,4325386,-0.00061883754,0.0028703965,0.00017770755,0.004359141,0.007419254,-0.05232939,4955,4924,0
187200140,187200008,4259850,4325386,-0.0019449542,-0.0014713604,0.0010055881,-0.0070250067,0.0083216,-0.054354917,4989,4976,0
187703876,187703767,4259850,4325386,-0.0003747504,-0.0040966645,0.00035115244,-0.007324102,0.0005976549,-0.051669594,4964,4934,0
188202782,188202605,4259850,4325386,-0.0005407259,0.0043463204,0.000303117,-0.008501829,-0.0032256239,-0.04511265,4983,3948,0
188701914,188701799,4259850,4325386,-0.00081048376,-0.003888967,0.00022587413,-0.009136983,-0.0070256214,-0.052040562,4982,4977,0
189201167,189201040,4259850,4325386,0.00017789664,0.00037158624,7.807327e-06,0.00845954,0.012695151,-0.045248985,4987,4992,0
189700049,189699896,4259850,4325386,0.00017118518,0.0028808287,0.00024079932,-0.007697943,0.004403324,-0.041409954,4966,4965,0
190198758,190198591,4259850,4325386,0.00019185919,0.0026949982,-6.69215e-05,-0.000734639,-0.004166212,-0.046673164,4995,4984,0
190702475,190702349,4259850,4325386,0.0005888125,-0.0045389594,-0.00023752115,0.012721429,0.014314968,-0.04459819,4988,4963,0
191201306,191201160,4259850,4325386,0.0016227622,-0.0015202353,-0.0009136189,-0.0016840069,-0.0206439,-0.04658751,4972,4933,0
191705420,191704887,4259850,4325386,-0.00015688932,0.0012999143,-9.1528505e-05,-0.00469352,-0.007697201,-0.04829697,4990,4951,0
192203628,192203439,4259850,4325386,-0.00030964136,0.0028327035,-0.00044050612,-0.0063222386,-0.015715363,-0.04540585,4974,4966,0
192702057,192701942,4259850,4325386,0.0004491564,0.0032772545,-0.0007839505,0.006949029,-0.013794978,-0.0439204,4996,4925,0
193205820,193205697,4259850,4325386,-0.0011002632,-0.002474737,0.0002424275,-0.010924307,-0.0036994647,-0.06523735,4989,4997,0
193699647,193699511,4259850,4325386,0.00015356707,0.0036564486,-0.0007135988,0.0073542884,-0.0031551041,-0.04411743,4971,4989,0
194203486,194202798,4259850,4325386,0.0001219433,-0.0026016862,0.00016263752,0.0003153123,-0.010444893,-0.048041556,4989,4964,0
194701141,194701021,4259850,4325386,-0.00094331795,0.0017967494,-6.515262e-05,-0.002861438,-0.0048280703,-0.040685534,4988,4935,0
195204663,195204495,4259850,4325386,-0.00078021537,0.0032461397,0.0002702317,0.0009550459,0.006351182,-0.047774784,4980,4936,0
195702836,195702660,4259850,4325386,-0.000140268,-0.0039882152,0.00016839204,0.0031317296,0.00026535476,-0.053922832,5024,4913,0
196201972,196201782,4259850,4325386,0.0002557566,-0.002525199,-0.00040946645,-0.007435084,-0.016110826,-0.060897954,5014,5920,0
196705260,196705096,4259850,4325386,5.3299016e-05,-0.0033708403,0.00057577086,-0.011002255,-0.009210152,-0.054622408,4988,4940,0
197199009,197198884,4259850,4325386,-0.0016058644,-0.0017064784,0.00090371165,-0.0047562015,-0.007954864,-0.056626026,4984,4995,0
197702967,197702833,4259850,4325386,2.887791e-05,0.004102455,-0.00060141296,-0.0012968535,-0.014304385,-0.040716354,4965,4933,0
198201545,198201419,4259850,4325386,-0.0010896204,0.00049706415,0.00048999186,-0.0070574796,0.0035016648,-0.053277988,4984,5002,0
198700416,198700268,4259850,4325386,0.0004026298,-8.1232385e-05,-0.00051738846,0.007734382,0.01241839,-0.045154393,4984,4786,0
199204267,199204094,4259850,4325386,0.0005955134,-0.0027151853,-0.00034149573,0.002335083,-0.013659251,-0.043849934,4950,4935,0
199704843,199703533,4259850,4325386,0.0001699852,-0.0034918338,-2.929138e-05,-0.005129555,-0.009384385,-0.05461927,4977,4975,0
200201660,200201505,4259850,4325386,0.0006789267,0.004012317,-0.000399655,0.00052796036,0.0017379452,-0.039894663,4988,4938,0
200700536,200700426,4259850,4325386,0.0012295842,0.0008943371,-0.00086452387,-0.003985467,-0.019363232,-0.0534788,4971,4976,0
201199172,201199053,4259850,4325386,0.00013025971,0.00044230794,-0.00019114617,9.470605e-05,0.008388422,-0.044853937,4987,4936,0
201703083,201702976,4259850,4325386,0.00015278214,-0.0039181095,-0.00017067372,-0.004680574,-0.008413772,-0.040171888,5036,4930,0
202201777,202201623,4259850,4325386,-0.00059642945,-0.00055274746,0.0008300459,0.0061736247,0.018263994,-0.0507291,4976,4936,0
202700485,202700366,4259850,4325386,-0.00019816154,0.00026637677,0.0002491728,0.011595636,0.009955572,-0.055326,4987,4942,0
203203979,203203859,4259850,4325386,0.00033773945,0.0020664113,2.1877644e-05,0.0071267392,0.007155349,-0.046347175,4913,4932,0
203702544,203702403,4259850,4325386,0.00019721233,0.0027697275,-0.00034381996,0.009928901,0.013324614,-0.049403053,4987,4990,0
204201835,204201181,4259850,4325386,0.001060718,0.0014831324,-0.00057744316,-0.0013523151,-0.0121371765,-0.05066071,4988,5821,0
204700148,204700037,4259850,4325386,0.0004947114,-0.001008455,-0.0005833082,-0.004790077,-0.020614743,-0.05073022,4969,4965,0
205203833,205203715,4259850,4325386,0.0012940784,-0.000585031,7.664491e-05,0.013682832,0.006367605,-0.04438182,4969,4933,0
205702624,205702513,4259850,4325386,0.0001981041,-0.0008332897,0.00061504834,0.0054640616,0.005564401,-0.043311805,5008,4894,0
206201608,206201444,4259850,4325386,-9.84726e-05,-0.00094634073,-7.279965e-05,-0.0013480089,-0.005296031,-0.040678248,4959,4965,0
206705209,206705031,4259850,4325386,-0.0009335848,0.0033852328,0.0005161227,-0.008098285,0.0029718634,-0.050253138,4986,4993,0
207203979,207203802,4259850,4325386,-0.00032142404,-0.004166981,0.00010733223,-0.0046164854,-0.0107004875,-0.04615002,4980,4933,0
207702695,207702578,4259850,4325386,-3.3266408e-06,-0.0009531864,0.000746954,0.0031225136,0.018282384,-0.050564762,4987,4941,0
208201513,208201357,4259850,4325386,0.0007979845,0.0009797122,-0.0006319871,0.0034529318,-0.008176676,-0.046847153,4991,4945,0
208700302,208700155,4259850,4325386,-0.0020541658,0.0032414296,0.00055816304,-0.010069494,0.0073900865,-0.048184033,4983,4985,0
209204252,209204093,4259850,4325386,-0.00035311573,-0.0042451853,0.0005577885,0.0003477989,0.01638156,-0.049032502,4986,4939,0
209703105,209702915,4259850,4325386,0.00051489944,0.0032905764,-0.00090640056,0.0031482633,-0.0072496575,-0.045385562,4949,4937,0
210206761,210206433,4259850,4325386,0.0001716321,-0.0033488462,0.00026064864,0.0069921687,0.0138376355,-0.042592764,4993,4932,0
210700327,210700215,4259850,4325386,0.00092469633,0.0010871219,-0.00029714487,0.012236641,0.0012300502,-0.041373346,4988,4756,0
211199399,211199204,4259850,4325386,-0.0012117705,0.0016023115,0.0005160704,-0.011790346,0.006266875,-0.054088425,4966,4960,0
211702917,211702804,4259850,4325386,-0.00050182204,0.00060980197,0.0004892306,0.0047376356,0.015214289,-0.055353995,4990,4941,0
212201683,212201528,4259850,4325386,0.00068720547,-0.0010066691,-0.0010235754,0.0066562174,-0.021601481,-0.044493366,4988,4934,0
212700580,212700464,4259850,4325386,0.00075708586,0.00018315036,-0.0007190976,-0.005425544,-0.018241834,-0.054082267,4974,4938,0
213203759,213203619,4259850,4325386,0.00013543997,-0.0018722753,0.0005208034,0.007069882,0.011673026,-0.041374072,4990,4876,0
213702953,213702843,4259850,4325386,0.0005369016,-0.0006992594,-0.0005040916,6.643703e-05,-0.0105501525,-0.038764227,4981,3947,0
214202013,214201872,4259850,4325386,-0.00028553023,0.004277181,-0.00026615305,0.0017679817,-0.006412216,-0.0627629,5002,4992,0
214700691,214700529,4259850,4325386,-0.0011959242,-0.0025037942,0.00092568377,-0.006129583,0.008880527,-0.051703192,4990,4989,0
215199289,215199167,4259850,4325386,-9.578575e-05,0.0028133478,-0.000113684735,0.0066992324,0.020561619,-0.04457479,4985,4937,0
215703150,215703025,4259850,4325386,-3.4173197e-05,0.000100277684,0.00026004878,0.0046458794,-0.0020719897,-0.05555505,4973,4967,0
216201835,216201713,4259850,4325386,0.000661806,-0.0005993088,-0.00010082336,-0.004177719,-0.014139799,-0.04215136,4996,4975,0
216700591,216700480,4259850,4325386,-0.0015192577,0.004591755,0.00033856402,-0.0019320471,-0.004331159,-0.060763743,4988,4954,0
217204653,217204436,4259850,4325386,0.00019091937,-0.00012916324,-0.00044810018,0.0044447407,-5.444947e-05,-0.04207983,4979,4987,0
217703158,217703020,4259850,4325386,-0.00071469863,-5.1547002e-05,0.0006805042,0.0053208154,0.014758796,-0.05548563,4989,4936,0
218201914,218201796,4259850,4325386,0.0017715481,-0.00071712513,-0.0009352814,0.003948862,-0.023203352,-0.042984527,4988,4945,0
218700720,218700613,4259850,4325386,-0.00024670444,-0.00025309453,0.0003844801,-0.0002888384,0.005261815,-0.04260282,5031,4919,0
219204465,219204335,4259850,4325386,0.00027419504,3.8749176e-06,-0.0013923837,0.008438761,-0.0025430638,-0.045281947,4990,4983,0
219703542,219703113,4259850,4325386,0.0013486393,0.00022596706,-0.0027451618,0.0003378346,-0.019458927,-0.05467529,4992,5931,0
220202187,220201974,4259850,4325386,-0.0007239518,-0.00012239847,-0.002183304,-0.0067847935,-0.0040220446,-0.04913707,4974,4935,0
220705349,220705201,4259850,4325386,0.0006070608,-0.00035632635,-0.0058810944,0.004591173,-0.008119368,-0.042910866,4990,4931,0
221204148,221204037,4259850,4325386,-0.0011404253,0.00041551635,-0.006039825,-0.0020937491,0.019228911,-0.05210911,4962,4969,0
221703331,221703036,4259850,4325386,-0.00026524495,-0.0002828465,-0.00663691,-0.0024192843,0.010624121,-0.0651006,5277,5923,0
222202329,222202215,4259850,4325386,9.97171e-06,-0.00053904817,-0.0032639864,0.011594305,0.022416897,-0.052400358,4977,4990,0
222700861,222700750,4259850,4325386,-0.000561077,-0.0009541065,-0.00017001426,5.082009e-05,0.0034376855,-0.06870212,4988,4972,0
223204825,223204709,4259850,4325386,-0.0019493235,-0.0033096778,-9.013263e-05,0.0016376568,-0.0025301361,-0.037867054,4995,4944,0
223703629,223703500,4259850,4325386,-0.00022321641,0.0016704059,0.0009495184,-0.0013609421,0.004534619,-0.045584206,4964,4690,0
224202184,224202067,4259850,4325386,0.000420637,-0.0023992716,-0.0009063214,-0.0006567909,-0.01586475,-0.046081044,4991,4961,0
224705990,224705828,4259850,4325386,0.00068150816,0.0042226426,0.00014037796,0.002510306,0.0071341074,-0.052869905,4986,4956,0
225199316,225199165,4259850,4325386,0.0014544918,-0.0020468223,-0.0007483082,0.004947856,-0.009559729,-0.04191332,4988,4971,0
225703042,225702929,4259850,4325386,-0.0012769345,0.0025722168,0.0007304193,-0.0044676727,0.009536487,-0.055275124,4985,4957,0
226201931,226201817,4259850,4325386,0.00041838732,0.00079445355,-0.00062645884,0.0037817322,0.001462509,-0.04753926,4965,4934,0
226700594,226700480,4259850,4325386,0.0011179557,-0.0014727261,-0.0002529557,0.015769035,0.00617397,-0.051527698,4987,4959,0
227204805,227204695,4259850,4325386,-0.0015496003,-0.0019887134,0.000140083,-0.004395091,0.0025491824,-0.048417214,4983,4940,0
227703449,227703336,4259850,4325386,0.00013817276,0.0013894062,0.0006257541,-0.008746872,0.0041958066,-0.04476633,5028,4922,0
228201924,228201807,4259850,4325386,0.0006205067,-5.9698505e-05,-0.0011477841,-0.0111360615,-0.030298492,-0.04660929,4996,4942,0
228701284,228701158,4259850,4325386,-0.000815697,0.0022951295,0.00062805234,-0.0018429926,-0.0021556455,-0.058092125,4994,4935,0
229200323,229199803,4259850,4325386,-6.486838e-05,0.0014645444,0.00061614905,0.0012327831,0.011688307,-0.0466167,4954,4939,0
229703720,229703612,4259850,4325386,-0.00020554733,0.0003867372,-0.0004524457,-0.013082066,-0.0026277942,-0.03367313,5035,4928,0
230202485,230202340,4259850,4325386,0.0010275872,-0.00283224,-1.5776898e-06,-0.0057061,-0.009365066,-0.04353722,4989,4987,0
230700804,230700676,4259850,4325386,6.5202075e-05,0.00080171943,-0.0005994909,-0.0029939474,-0.0100739375,-0.040255904,4958,4673,0
231204572,231204429,4259850,4325386,0.0009719445,-2.82922e-05,-0.00069005875,0.0008484259,0.00027777418,-0.04611293,4987,4968,0
231703786,231703210,4259850,4325386,0.00022855081,0.002738835,0.0004340511,-0.0068587423,-0.0020841744,-0.049672555,4991,4930,0
232202160,232201996,4259850,4325386,0.00043866067,0.0017308512,-0.00017780143,-0.006977077,-0.012923071,-0.054613605,4997,4888,0
232700877,232700757,4259850,4325386,-0.0012678013,-0.0023840445,0.00036674066,-0.0011771257,0.010289623,-0.046202015,4988,4934,0
233199787,233199622,4259850,4325386,0.000349077,-0.002539109,-0.00062795205,-0.00048209418,-0.02195877,-0.04535807,4979,4936,0
233702471,233702361,4259850,4325386,0.000525353,-0.004116151,-0.0006964392,-0.0026765808,-0.017968914,-0.0493111,4983,4934,0
234201369,234201166,4259850,4325386,-0.00070769264,0.0021960163,0.0003771496,-0.010473814,0.012140667,-0.054192733,4986,4982,0
234704912,234704792,4259850,4325386,-0.00044543485,0.001763078,-0.00057668856,0.00056682806,-7.109467e-05,-0.042880666,4987,4948,0
235203740,235203569,4259850,4325386,-0.001130144,0.0052892114,0.0008018383,-0.008537044,0.009221063,-0.055786356,4987,4980,0
235702552,235702377,4259850,4325386,-0.00077467936,-0.0028606998,0.00059983914,-0.004455193,-0.0071249655,-0.060550064,4981,5918,0
236201274,236201124,4259850,4325386,-0.0014133173,-0.0034645353,0.00011237338,0.009211885,0.011671716,-0.04628285,4946,4752,0
236700038,236699899,4259850,4325386,0.00041981714,0.004769259,0.00047822384,-0.0033595639,0.003135743,-0.05032365,4983,4933,0
237203776,237203664,4259850,4325386,0.0016879027,-0.004177521,1.6084598e-05,0.005313962,-0.0034168288,-0.046902653,4988,4937,0
237702579,237702440,4259850,4325386,0.0019295238,-0.0007495443,-0.0009723517,-0.009173854,-0.031817574,-0.050103635,4988,4935,0
238201369,238201217,4259850,4325386,-0.0008096213,-0.0015101568,0.000554949,-0.010353656,0.008978492,-0.057727385,4986,4961,0
238705266,238705114,4259850,4325386,-0.0011368396,-0.0028397446,0.0006207754,-0.0031801374,0.0041400595,-0.055145383,4960,4963,0
239204043,239203895,4259850,4325386,0.00041530645,0.00037304117,-0.0007684388,0.0010531632,-0.014612922,-0.050282028,5002,5000,0
239702678,239702534,4259850,4325386,-0.0018647938,0.0031739518,0.0007417177,-0.01052685,0.00927249,-0.054617263,4987,4936,0
240200957,240200813,4259850,4325386,-0.0013938467,0.00085094234,8.271394e-05,-0.010674246,-0.019344388,-0.051442098,4988,4935,0
240704701,240704589,4259850,4325386,-0.00039005355,0.00011404521,0.00065956137,-0.0043364167,0.012115925,-0.04927641,4950,4753,0
241203969,241203853,4259850,4325386,0.0010100272,-0.0036887978,0.00048765773,-0.012095306,-0.007664875,-0.053785965,4988,4977,0
241702817,241702685,4259850,4325386,-0.002428576,-0.0018578307,-0.00013038573,0.0041093784,-0.00052722706,-0.046441708,5022,4919,0
242206063,242205948,4259850,4325386,-0.0013562379,0.0013375089,0.00017969361,-0.00041404553,-0.0009175265,-0.04678338,5037,4918,0
242699886,242699687,4259850,4325386,0.004883746,0.0002469444,-0.0008699126,-0.0027074015,-0.023746734,-0.04598404,4989,4934,0
243203818,243203702,4259850,4325386,-0.0033707966,-0.0023913528,0.0009139658,-0.007036751,0.0067643323,-0.05000043,4983,4999,0
243702419,243702308,4259850,4325386,-0.0013119215,-0.0042735804,-0.00032424563,0.00019154711,0.002533446,-0.048241958,4989,4963,0
244206154,244205995,4259850,4325386,0.0045583076,0.0028896346,-0.0006361293,-0.0010342449,-0.0074839154,-0.042970695,4986,4937,0
244703394,244703284,4259850,4325386,3.373141e-05,-0.004105539,0.00065372884,0.0032550744,-0.015381322,-0.051492207,4996,4875,0
245202238,245202052,4259850,4325386,-0.002943597,0.005390934,0.00058225443,-0.012738775,-0.0031848135,-0.060573515,4988,5920,0
245706366,245705995,4259850,4325386,0.00060412433,0.0041393586,3.6898968e-05,-0.009652525,-0.01122764,-0.05077657,4955,4939,0
246199750,246199608,4259850,4325386,-0.00043445258,-0.003991684,0.00024982286,-0.0030053528,-0.007046131,-0.05716175,4989,4943,0
246703489,246703369,4259850,4325386,-0.0005196599,-0.0007709155,0.00026916998,0.008973379,0.0027273942,-0.049865182,4984,4966,0
247202272,247202148,4259850,4325386,-0.0045225862,0.00021918918,-0.00016094871,-0.0030232663,-0.0030184565,-0.057078715,4987,4930,0
247701068,247700932,4259850,4325386,0.005653427,0.0006252152,-0.0008571507,0.0093591735,-0.0029064564,-0.040038142,4996,4959,0
248204863,248204689,4259850,4325386,-0.00040545655,0.00094435865,-0.0009040556,-9.82484e-05,-0.02363887,-0.052974354,4988,5921,0
248703726,248703613,4259850,4325386,-0.0009522472,0.00044635154,-0.00031341636,-0.010109337,-0.0025987758,-0.049574506,4972,4982,0
249202385,249202245,4259850,4325386,0.0016908505,0.003480017,-0.00076397357,-0.00033764893,-0.016982205,-0.044797722,4989,4936,0
249700712,249700559,4259850,4325386,-0.002603241,-0.0006240023,0.0007716342,-0.0067195385,0.005634863,-0.052495994,4992,4992,0
250198919,250198802,4259850,4325386,-9.589535e-05,-0.0014172681,-0.0005415296,0.0045507466,0.0029682077,-0.04372577,4988,4979,0
250702685,250702564,4259850,4325386,-0.0023440856,0.00013016224,-0.00028662567,-0.0009433692,-0.001912296,-0.0435709,4968,4997,0
251201498,251201357,4259850,4325386,-0.0024061836,0.002541665,0.00031544483,0.0032758065,-0.00033160008,-0.055800226,5000,4883,0
251705287,251705112,4259850,4325386,0.004833563,0.0009804212,-0.00081444567,0.0004679598,-0.013561656,-0.04437829,4988,4941,0
252204239,252204030,4259850,4325386,-0.0034829525,0.0044466634,0.00020381257,-0.015522682,-0.018954562,-0.051221993,4976,4935,0
252702790,252702665,4259850,4325386,-0.0024142116,-1.1925511e-05,-0.00088138,-0.0022563976,0.00993915,-0.047489814,4989,4936,0
253202413,253202296,4259850,4325386,-0.00053025136,-0.0033741556,-0.00021831508,-0.011141634,-0.01137543,-0.05698556,4982,4931,0
253700865,253700718,4259850,4325386,0.0020771914,0.0006989994,0.0005836604,-0.01458129,-0.011646852,-0.054848444,4987,4958,0
254199859,254199498,4259850,4325386,-0.0022280524,0.00033983143,0.001299148,-0.0074579874,0.007761752,-0.054775305,4988,4975,0
254703628,254703452,4259850,4325386,-0.00077002245,0.004413766,0.00027910405,-0.007585309,-0.0017095794,-0.049130037,4964,4962,0
255202325,255202043,4259850,4325386,0.0011561712,0.0020276704,-0.00028533288,0.0017883527,-0.0009229719,-0.04438095,4991,4935,0
255705963,255705819,4259850,4325386,-0.00051271793,-0.0035212236,-8.9186906e-05,0.008973039,-0.0133046545,-0.06034347,4993,4889,0
256205215,256204917,4259850,4325386,-0.00037413999,0.00021509737,-5.813043e-05,0.0023035184,0.0022473207,-0.046135366,4968,4970,0
256698482,256698373,4259850,4325386,-0.0008534451,-0.00076908496,-0.00034693108,-0.0072967284,-0.015788434,-0.04672827,4987,4934,0
257202326,257202138,4259850,4325386,0.004621219,-0.00036263067,-0.00091261737,0.005815202,-0.0017948133,-0.04360924,4987,4982,0
257701139,257701020,4259850,4325386,-0.0022145344,0.0010578325,0.0002500418,0.00040745316,0.018025547,-0.05346963,4972,4937,0
258204813,258204686,4259850,4325386,-0.00034748268,0.0029134445,-0.00028189283,-0.0016249089,-0.005881901,-0.04029625,4991,4999,0
258703827,258703517,4259850,4325386,0.0018162936,-0.0023864359,0.00043338214,-0.009202496,0.0006356877,-0.050434735,4998,4960,0
259202427,259202293,4259850,4325386,-0.003803144,0.00019697004,0.00074460596,-0.0050172564,0.007419468,-0.052367266,4981,4937,0
259706130,259706005,4259850,4325386,0.0037499827,-0.0031933764,-0.00032538953,0.006096249,0.0027484964,-0.03895191,4989,4958,0
260199913,260199800,4259850,4325386,-0.0024760452,0.0015869496,-0.00022338734,0.008171889,-0.0010001853,-0.043745976,4994,4937,0
260703689,260703556,4259850,4325386,0.00093426986,-0.0037998313,-0.00051863835,0.008575804,-0.013979124,-0.04455228,4958,4933,0
261202475,261202337,4259850,4325386,8.666694e-05,0.0033472693,-0.0003795237,-0.0059959446,-0.007188907,-0.04321332,4984,4934,0
261701368,261701258,4259850,4325386,0.00037198354,0.0010858403,0.00059991167,0.0059571695,0.017002838,-0.055017695,4996,4968,0
262205500,262205383,4259850,4325386,0.001229957,-4.123117e-05,-0.00086920656,0.009955475,0.0057265847,-0.045264192,4987,4959,0
262703785,262703659,4259850,4325386,-0.00037379796,-0.0007189534,0.00045458286,0.005302495,0.005619074,-0.04325497,4987,4935,0
263202308,263202143,4259850,4325386,0.0015178852,0.0033273033,-0.00089847075,-0.0043953597,-0.01915645,-0.050542373,4978,4980,0
263700871,263700719,4259850,4325386,-0.0008576105,0.0022307946,0.00022359716,0.0008147325,0.0018795731,-0.045771133,4987,4931,0
264199637,264199495,4259850,4325386,0.00077366247,0.0017965856,-0.0010291566,0.0030381675,-0.009552031,-0.042780098,4979,4935,0
264703481,264703310,4259850,4325386,-0.0011804996,-0.002699513,0.0004168279,-0.007750352,-0.007208039,-0.049583577,5035,4916,0
265202180,265202040,4259850,4325386,0.00068844133,-0.00023165418,-0.0002754623,0.002523012,-0.0052996846,-0.046469543,4988,4944,0
265700957,265700818,4259850,4325386,0.00038065048,0.0005869759,-0.00025196635,-0.000114273935,-0.009175889,-0.049947426,4977,4969,0
266204938,266204748,4259850,4325386,0.0021948016,0.002435702,-0.0010918063,-0.002740406,-0.019578649,-0.045378003,4995,4983,0
266703500,266703363,4259850,4325386,-0.0028470107,0.003301533,-0.00079312787,0.0039064214,-0.00949942,-0.044314727,4989,4993,0
267201922,267201772,4259850,4325386,0.002881372,-0.003082969,0.0005154195,-0.0025434406,0.016224949,-0.052741416,4992,4934,0
267700619,267700500,4259850,4325386,0.0011352538,-0.001116622,7.7939745e-05,-0.008261313,-0.009001538,-0.05429069,4997,4938,0
268204343,268204188,4259850,4325386,0.0011202762,0.0012865165,-2.2479964e-05,0.0033580284,0.0017909125,-0.0542137,4986,4936,0
268703130,268702968,4259850,4325386,0.0012031439,0.001405182,-0.00032166796,-0.0046848347,-0.012450071,-0.055933613,4991,4989,0
269201875,269201746,4259850,4325386,0.0014518475,0.0025702368,7.868841e-05,0.0074132113,0.010527283,-0.046712387,4991,4755,0
269705621,269705511,4259850,4325386,-2.405976e-06,-0.0031768393,0.0015163441,-0.0059863753,0.019799497,-0.05874893,4946,4935,0
270204546,270204331,4259850,4325386,-0.00238542,0.0044484376,0.000110207344,-0.0017113299,0.0016342183,-0.0539237,4971,4942,0
270698683,270698528,4259850,4325386,0.00049385364,-0.004236507,-0.00039523546,-0.010369401,-0.01834498,-0.04196802,5243,4937,0
271201957,271201844,4259850,4325386,0.0003264106,0.0024281181,-0.0006376102,-0.011096333,-0.016700039,-0.04736309,4984,4936,0
271700748,271700632,4259850,4325386,-0.0007925753,-0.0035872126,0.00086398725,-0.0064777965,0.0014556178,-0.05180001,4996,4978,0
272204192,272203994,4259850,4325386,0.0010257451,0.0033955115,-0.0007257698,0.009140148,-0.004168172,-0.042136583,4994,4979,0
272702866,272702718,4259850,4325386,-0.0028793756,0.0024244029,-4.711306e-05,0.0006554091,-0.0022525,-0.050427046,4988,4961,0
273201895,273201713,4259850,4325386,0.0044316943,-0.0018331357,-0.0010816527,-0.0007331456,-0.011997724,-0.043468155,4974,4934,0
273705369,273705263,4259850,4325386,-0.001455575,-0.0014212646,0.00050644483,0.0032571966,0.0065189837,-0.043068364,4980,4934,0
274199255,274199115,4259850,4325386,-0.0043059806,0.0015247577,0.0003078592,-0.0081579685,-0.0034890152,-0.050867252,5013,5009,0
274703124,274703013,4259850,4325386,0.003290875,-0.00039646024,0.0010178677,0.0017813583,0.020314045,-0.05191297,4979,4933,0
275201926,275201745,4259850,4325386,0.00010653278,0.0015391313,0.00017451427,-0.00998362,-0.0046253167,-0.055198934,4988,4937,0
275700538,275700429,4259850,4325386,-0.0039020549,-0.0014125033,-4.9382354e-05,-0.0051111397,-0.009180274,-0.046181817,5037,4923,0
276204407,276204253,4259850,4325386,0.0038646993,-0.0034424919,-0.00018097983,-0.011323791,-0.0108298715,-0.048616257,4972,4951,0
276703034,276702924,4259850,4325386,-0.0034027912,0.0011038556,0.00048639512,-0.0023104784,0.010126372,-0.04796761,4989,4935,0
