timestamp,yaw_composite,yaw_variance,yaw[0],yaw[1],yaw[2],yaw[3],yaw[4],innov_vn[0],innov_vn[1],innov_vn[2],innov_vn[3],innov_vn[4],innov_ve[0],innov_ve[1],innov_ve[2],innov_ve[3],innov_ve[4],weight[0],weight[1],weight[2],weight[3],weight[4]
43372920,1.6507696,3.7090592,-2.514101,-1.2574638,-0.0008267669,1.2558103,2.5124474,0.0,0.0,0.0,0.0,0.0,0.0,0.0,0.0,0.0,0.0,0.2,0.2,0.2,0.2,0.2
43382855,-2.8614495,3.6735482,-2.5143466,-1.2577094,-0.0010722749,1.2555648,2.512202,0.0,0.0,0.0,0.0,0.0,0.0,0.0,0.0,0.0,0.0,0.2,0.2,0.2,0.2,0.2
43576610,-0.782053,3.7797887,-2.5150647,-1.2584453,-0.0018466319,1.2547843,2.511456,-0.028636085,0.0009818152,-0.0080702,-0.04328257,-0.05599297,-0.032953423,-0.013812118,0.02027117,0.022194494,-0.010700113,0.19999716,0.20001544,0.20001236,0.19999222,0.19998279
43775236,-0.92065,3.6675472,-2.5161164,-1.2595134,-0.002933277,1.2537029,2.5103965,-0.0063324794,0.01729857,0.0012430865,-0.032312136,-0.036994874,-0.028034683,-0.0034735268,0.02659078,0.020612113,-0.013149402,0.19999924,0.20002496,0.20001611,0.1999851,0.19997455
43973976,-0.87421805,3.7019427,-2.5176928,-1.2611296,-0.004627691,1.2520002,2.508767,-0.013848031,0.017274536,-0.008035552,-0.05480414,-0.058397654,-0.048445825,-0.0117182955,0.029230947,0.017814647,-0.030194925,0.19999549,0.20005552,0.20003878,0.19996858,0.19994166
44172586,-0.8329071,3.736871,-2.5186567,-1.262033,-0.0054109986,1.2512304,2.5078852,0.03534994,0.072293825,0.034848273,-0.02524909,-0.024942514,-0.044568256,0.006815891,0.057831846,0.03798677,-0.025308168,0.19999634,0.2000205,0.2000163,0.19998972,0.1999772
44376228,2.0665808,3.7452924,-2.5205717,-1.2638218,-0.0069198785,1.2497687,2.5061727,0.04675,0.08742458,0.044117257,-0.023330716,-0.021706501,-0.05517361,0.0035843598,0.06042642,0.036806364,-0.03464454,0.19998115,0.19996041,0.19999433,0.2000362,0.2000279
44574902,2.5694983,3.5560665,-2.5216818,-1.2649989,-0.008021595,1.2487807,2.5051796,0.016564807,0.052539654,0.0076370817,-0.056084216,-0.050573006,-0.04539311,0.0135117555,0.06592352,0.039420217,-0.029376192,0.20000474,0.19997229,0.19997813,0.20001432,0.2000306
44773613,2.220716,3.6306481,-2.5237017,-1.2668885,-0.009763081,1.2470008,2.5032277,0.049909018,0.09403836,0.048183195,-0.024299199,-0.02323523,-0.060167257,0.002394326,0.063699305,0.039034896,-0.03752808,0.19998427,0.1998975,0.19995236,0.20007318,0.20009273
44977219,1.9773768,3.8240864,-2.5252552,-1.2681984,-0.010881023,1.245758,2.501716,0.061359756,0.11433977,0.05912479,-0.027983831,-0.026608175,-0.07981378,-0.004536976,0.069110215,0.03936056,-0.052683763,0.19992974,0.19978276,0.19993584,0.20017774,0.20017385
45175893,1.9375764,3.8644507,-2.526093,-1.2687674,-0.0111448765,1.2454146,2.5010173,0.06740464,0.12369762,0.06525996,-0.027118739,-0.025805112,-0.07962345,0.000106777996,0.07826649,0.0468516,-0.050713483,0.19988094,0.19964197,0.19989744,0.20029499,0.20028464
45374568,1.916938,3.883993,-2.5279117,-1.2703335,-0.012444108,1.2440281,2.4993095,0.06831626,0.13320872,0.055676267,-0.05704514,-0.049262695,-0.094849564,0.0077383285,0.101112,0.056253187,-0.06480945,0.19983621,0.19950932,0.19985995,0.20040464,0.2003898
45573307,1.8666233,3.9344864,-2.529014,-1.2714056,-0.01353808,1.2428899,2.4981656,0.037374977,0.091206565,0.019063324,-0.07922124,-0.06794082,-0.090703584,0.0026081246,0.08257733,0.038707834,-0.068310216,0.19981049,0.1995118,0.19988722,0.20041907,0.20037141
45776884,1.7630334,3.8184075,-2.5297437,-1.272313,-0.014680934,1.2417791,2.4973106,0.0070225336,0.07501407,0.0006876178,-0.113107204,-0.109228104,-0.10822381,-0.0080157835,0.08755227,0.046425946,-0.07449524,0.1998051,0.19964007,0.19997212,0.20034316,0.20023958
45975559,1.3849587,3.5670192,-2.5312338,-1.2737124,-0.016353175,1.2398472,2.4954906,0.03327099,0.10297046,0.018685695,-0.10301791,-0.09406598,-0.13193472,-0.02065934,0.07995447,0.030938553,-0.09997962,0.1996891,0.19969186,0.20012021,0.20038293,0.20011587
46174234,1.3016508,3.5483096,-2.5318015,-1.274088,-0.016717743,1.2392977,2.4948156,0.05155771,0.11732093,0.036529705,-0.079091966,-0.06990226,-0.11237257,-0.006015923,0.08932001,0.042025957,-0.08261062,0.19960569,0.19964232,0.20017299,0.20046522,0.20011382
46372910,1.1100394,3.5601916,-2.534034,-1.2763922,-0.019223766,1.2367382,2.492425,0.05002639,0.09812085,-0.0054828627,-0.11750078,-0.08336034,-0.10824054,0.016397413,0.10053209,0.028138231,-0.10087402,0.19958195,0.19971867,0.200244,0.20043264,0.20002265
46576549,1.0164423,3.592291,-2.534131,-1.2765558,-0.019480225,1.2364905,2.4922755,0.04835061,0.10394928,0.0052074143,-0.11134911,-0.084852055,-0.10308949,0.018893635,0.10935743,0.04354358,-0.0877651,0.19958419,0.19976337,0.20026943,0.20040363,0.19997935
46775245,1.131991,3.5535398,-2.5358787,-1.2781813,-0.020967197,1.2349677,2.4905915,0.07301675,0.12433942,0.02020718,-0.095428824,-0.06296941,-0.09501906,0.031262722,0.11898998,0.047213685,-0.08507986,0.19956556,0.1996954,0.20024595,0.20045719,0.20003586
46978866,0.95897907,3.617234,-2.537185,-1.2794751,-0.022436172,1.2333778,2.489102,0.055074334,0.109644346,0.005759719,-0.11294113,-0.082646444,-0.11488681,0.012179503,0.10322567,0.032714263,-0.10209772,0.19951248,0.19974045,0.20032704,0.20046219,0.19995788
47177541,0.8427784,3.6934934,-2.5373945,-1.2797347,-0.022821566,1.2329645,2.488797,0.07150323,0.11461396,-0.008482249,-0.1276217,-0.07842691,-0.10832364,0.035273287,0.12050818,0.029976718,-0.11149413,0.19949944,0.19978806,0.20036955,0.20044078,0.19990212
47376259,0.841879,3.6927948,-2.538139,-1.2804474,-0.023536287,1.2322162,2.48803,0.0800462,0.12423884,-0.0008546519,-0.12233894,-0.07258753,-0.104844995,0.041223876,0.12825619,0.0363882,-0.10774276,0.1994852,0.19978055,0.20037915,0.20045428,0.1999008
47569924,0.57370824,3.90062,-2.5405593,-1.2829809,-0.026374435,1.2293028,2.4853747,0.047578253,0.103725,-0.0047198394,-0.12786104,-0.095762305,-0.120147794,0.012277324,0.106473066,0.03263125,-0.107481554,0.1994528,0.19989476,0.2004823,0.20040366,0.19976649
47778532,0.31510687,3.654967,-2.5398886,-1.2823592,-0.026170295,1.2292972,2.485657,0.042559303,0.06769231,-0.020570546,-0.100273356,-0.061436877,-0.107175276,-0.0060579553,0.04900604,-0.017771088,-0.114367366,0.19935767,0.2000224,0.20065658,0.20038345,0.1995799
47977208,0.19613333,3.5837252,-2.5389566,-1.2812413,-0.025608305,1.2293295,2.4859178,0.057535302,0.06226658,0.016251536,-0.016943043,0.008481232,-0.16207883,-0.1120785,-0.09216533,-0.12970084,-0.1729543,0.19911787,0.20012455,0.20096014,0.2004682,0.19932923
48170918,1.8302206,3.8855786,-2.5248673,-1.2679818,-0.010665594,1.2461447,2.5022116,0.10521418,0.15104878,-0.033808492,-0.19418539,-0.10879855,-0.04196866,0.16783863,0.27608114,0.13417101,-0.06275836,0.19990231,0.19990268,0.20003773,0.2001207,0.20003662
48369589,-1.2435074,3.536296,-2.5262895,-1.270834,-0.014969974,1.2423635,2.5002127,0.06808883,0.07858488,-0.11494274,-0.24505395,-0.13215032,-0.1570901,0.049976155,0.12383574,-0.037214324,-0.21091203,0.20013393,0.20068796,0.20029055,0.1994927,0.19939488
48578202,-1.9463954,3.9100356,-2.5570476,-1.301232,-0.044390175,1.2131925,2.4702153,0.13540724,0.18956174,0.016945757,-0.14453381,-0.071381494,-0.100588575,0.09885417,0.21216866,0.083066136,-0.11066651,0.20025529,0.20034087,0.19995534,0.19963205,0.19981645
48776872,-2.0512838,3.79471,-2.5585217,-1.3025727,-0.04561604,1.2119051,2.4687743,0.0939412,0.12518254,-0.003108685,-0.113886334,-0.053910594,-0.09180885,0.053355195,0.1280059,0.02906283,-0.106953114,0.20022248,0.20027351,0.19994658,0.19969389,0.19986352
48975548,-1.0339887,3.605057,-2.5533094,-1.2973284,-0.04120766,1.2157655,2.473127,0.07539235,0.06609353,-0.009583419,-0.047082916,0.005435095,-0.13868777,-0.062125064,-0.0472985,-0.11469338,-0.17119269,0.19997504,0.20049079,0.20032777,0.19971234,0.199494
49174221,-1.0640615,3.5855923,-2.547536,-1.2918171,-0.035994746,1.2210592,2.4787652,0.05745104,0.025294833,0.002318589,0.020336345,0.054453257,-0.069222495,-0.05557422,-0.0819336,-0.11197187,-0.10406114,0.200002,0.20064078,0.20039338,0.19960277,0.19936103
49373077,-1.106044,3.5564475,-2.5341768,-1.2793736,-0.024622623,1.2326889,2.4916244,0.15149096,0.08081196,0.07946073,0.14953384,0.19415565,-0.017073512,-0.038805638,-0.11275711,-0.1369884,-0.07766886,0.20010868,0.20118113,0.20061986,0.19920245,0.19888784
49576540,-1.5844966,3.6155777,-2.5243616,-1.2717066,-0.017064711,1.2423357,2.5026636,0.01297871,-0.06672722,-0.07578275,-0.0013804962,0.053654175,-0.182953,-0.19960254,-0.28055042,-0.31433338,-0.25376555,0.20102726,0.20179646,0.20007871,0.19825652,0.19884096
49770246,-1.5839703,3.6132567,-2.5192947,-1.2673934,-0.01320415,1.2466722,2.507744,0.064015724,0.0057112984,-0.011715725,0.03617498,0.08311838,-0.073504075,-0.0743987,-0.13016434,-0.16409563,-0.12879919,0.2012377,0.20212264,0.2000681,0.19792575,0.19864577
49968924,-1.6048295,3.6285863,-2.5243003,-1.2716725,-0.016983462,1.2424867,2.5027905,0.19026664,0.21204512,0.19045408,0.15501963,0.15496165,-0.07181736,-0.04193728,-0.011855729,-0.023149222,-0.060390208,0.20106202,0.20178764,0.20003867,0.19824037,0.19887125
50177684,-2.1121595,3.6938589,-2.532901,-1.2801373,-0.023492543,1.2370702,2.4960716,0.04055795,0.21375762,0.22694315,0.06069008,-0.05469708,-0.12476407,-0.081639424,0.09669882,0.16451144,0.026796509,0.20153306,0.20121047,0.19921497,0.19830644,0.19973508
50376209,2.8284943,3.5928373,-2.5396252,-1.2832736,-0.01756317,1.245067,2.4962025,0.22229047,0.5356658,0.45573115,0.09010668,-0.053655535,-0.27747706,-0.09065283,0.26630217,0.3001494,-0.03760087,0.20242563,0.19767667,0.19614294,0.19991897,0.20383579
50574879,-3.1181507,3.6153004,-2.5517473,-1.3086095,-0.021667935,1.2673397,2.513482,0.22306027,0.64781773,0.3489746,-0.26003814,-0.3334198,-0.10196936,0.34670138,0.8914881,0.7718148,0.15960531,0.214703,0.19512442,0.18274271,0.1936639,0.21376595
50773553,-3.0042446,3.1811168,-2.5657346,-1.3479103,-0.030756226,1.3020837,2.5448506,0.23183665,0.68722683,0.23677465,-0.49999145,-0.47699025,-0.032069147,0.57115436,1.2054548,0.9506386,0.19255432,0.23673642,0.19245009,0.16139819,0.18086666,0.2285486
50972329,-2.793174,2.833825,-2.5576198,-1.3746412,-0.05395311,1.315988,2.5777276,-0.07764593,0.32926565,-0.11917068,-0.8138407,-0.7326698,-0.1157386,0.4505757,1.0459129,0.75539935,0.04926029,0.257585,0.20039968,0.1486776,0.16337803,0.2299597
51175891,-2.8899548,2.7196188,-2.57473,-1.3955126,-0.050966702,1.3370776,2.5873618,0.34923714,0.6285122,0.33274472,-0.15685005,-0.09307553,0.13620445,0.50938123,0.92788196,0.730241,0.24040976,0.2685575,0.19295628,0.13622983,0.15975176,0.24250464
51374543,-2.9209933,2.7040153,-2.5805924,-1.3991833,-0.049204122,1.3406767,2.5869055,0.21963385,0.4011585,0.2542429,-0.03487608,-0.019448489,-0.057800785,0.13424873,0.39036068,0.30043653,0.022259578,0.27028632,0.19035798,0.1336064,0.15977016,0.24597912
51573218,-2.9282281,2.710873,-2.579259,-1.3957965,-0.047334958,1.34094,2.5858786,0.1335459,0.20813535,0.19163705,0.0984908,0.07400032,-0.13471894,-0.09966107,-0.01101042,-0.005234251,-0.08721291,0.27003646,0.18966286,0.13346648,0.16024943,0.24658477
51772019,-2.8986084,2.6858544,-2.5753474,-1.3942604,-0.04810926,1.3457083,2.5942025,0.2715062,0.25905815,0.36337,0.43582812,0.3679071,0.1378555,0.03245846,-0.018987462,0.07895122,0.16447781,0.27155888,0.19148602,0.13336928,0.15844537,0.24514048
51975534,-2.86481,2.6533792,-2.5695164,-1.3930233,-0.051032882,1.3477387,2.60019,0.096805826,-0.023028553,0.16072777,0.40301937,0.32941246,0.11732981,-0.09692859,-0.29990482,-0.15293962,0.09347908,0.27387026,0.19347413,0.13273314,0.15606691,0.24385563
52179176,-2.790703,2.5400982,-2.547085,-1.3858066,-0.04302852,1.378369,2.635685,0.20983377,0.023590356,0.22075598,0.5519501,0.49877614,-0.17218031,-0.4207935,-0.7075113,-0.5630178,-0.2393162,0.2828297,0.19682638,0.12796642,0.14885484,0.24352266
52377851,-2.7434287,2.482552,-2.5179946,-1.3647014,-0.020712214,1.4121166,2.6711302,0.077303246,-0.16629763,-0.008034542,0.38101017,0.3766805,-0.11337939,-0.34539682,-0.692937,-0.59488595,-0.2337802,0.28773278,0.1980049,0.12506211,0.14523876,0.24396135
52576632,-2.6931372,2.4624524,-2.4901485,-1.3408997,-0.0003688225,1.4366685,2.699663,0.22694817,-0.02843377,0.036453903,0.39483547,0.46141893,0.1177861,-0.03206893,-0.36579996,-0.3586018,-0.044682726,0.28931814,0.20014904,0.12500212,0.14332719,0.24220349
52770235,-2.6568904,2.4503012,-2.468634,-1.3220541,0.016025506,1.4556947,2.7213306,0.22423151,-0.039680153,-0.11059657,0.18704975,0.3580237,0.05095814,0.02287656,-0.27610356,-0.4035343,-0.16907915,0.2902573,0.20159829,0.12504745,0.14211841,0.24097854
52968914,-2.634461,2.4496975,-2.453321,-1.3073481,0.02895091,1.4687831,2.7358575,0.32157415,0.04312496,-0.19927198,0.02357237,0.3295839,0.05808849,0.18317847,-0.07506849,-0.37416083,-0.23830684,0.29016814,0.20233847,0.12547377,0.1418522,0.24016748
53177518,-2.6276267,2.4492528,-2.4480581,-1.3021467,0.033586863,1.4733804,2.740861,0.35422188,0.05572071,-0.311752,-0.13314834,0.27624768,0.08619748,0.32032874,0.08116774,-0.34561715,-0.27308792,0.29006848,0.2024959,0.12562478,0.14183842,0.23997247
53376222,-2.6261518,2.4387343,-2.44862,-1.3040254,0.031903535,1.4734309,2.7413397,0.28680608,-0.022735966,-0.4491922,-0.2896164,0.16923568,0.060728293,0.3458931,0.11387868,-0.3734609,-0.32931277,0.2908934,0.20264068,0.12511273,0.14125156,0.24010167
53574866,-2.6259494,2.426881,-2.4497502,-1.3064845,0.02981702,1.4732314,2.7414525,0.3363128,-0.009013418,-0.4862086,-0.30846116,0.20470119,0.08356689,0.40287197,0.1447499,-0.40104446,-0.3517796,0.29179808,0.2027051,0.12450754,0.14064747,0.24034175
53778507,-2.6223407,2.4038424,-2.4499059,-1.3094825,0.027532648,1.4748108,2.7437644,0.32029846,-0.066413745,-0.5889989,-0.38260272,0.1832875,0.0781876,0.42457974,0.13157935,-0.46877435,-0.4043362,0.29371804,0.2029672,0.123284325,0.13932703,0.24070339
53977183,-2.6116788,2.3658676,-2.4459393,-1.3103547,0.027827537,1.4816167,2.7518544,0.30243105,-0.11203556,-0.6770103,-0.45595503,0.15431345,0.06712161,0.44146425,0.1285083,-0.52071327,-0.45153356,0.29703987,0.20347962,0.12121238,0.13703404,0.24123417
54175856,-2.594531,2.303634,-2.438684,-1.3111031,0.029256383,1.4939632,2.7661293,0.2685006,-0.18460824,-0.7747431,-0.51295304,0.13339883,0.06996284,0.45105207,0.09805354,-0.5861614,-0.4857222,0.3027328,0.20426305,0.117668755,0.13317652,0.24215889
54374569,-2.5702944,2.2162466,-2.428829,-1.3127072,0.030314907,1.5105553,2.785792,0.25891817,-0.20720159,-0.83674115,-0.5706287,0.11110939,0.053000234,0.46031848,0.10191918,-0.6263977,-0.5265403,0.31108642,0.20555745,0.11266021,0.12752426,0.24317168
54568241,-2.5563955,2.12677,-2.4198942,-1.314153,0.03348062,1.5292372,2.8056116,0.30967045,-0.17672046,-0.8230864,-0.5259524,0.17685561,0.119179085,0.52674407,0.14457975,-0.6081779,-0.4800545,0.31979263,0.20566376,0.10706129,0.12217693,0.2453054
54776847,-2.5389047,2.0091646,-2.4119587,-1.3206656,0.03224105,1.5491062,2.8278112,0.25461048,-0.23753345,-0.89227694,-0.57646453,0.13297996,0.094402604,0.4998306,0.10754996,-0.656827,-0.5097349,0.33196786,0.20619561,0.09970615,0.11466654,0.24746384
54975523,-2.5221243,1.8729485,-2.4098558,-1.3364688,0.021226482,1.563595,2.8463507,0.20733887,-0.28502378,-0.95238733,-0.62217474,0.09447804,0.05728869,0.4633695,0.06756434,-0.7126652,-0.54896224,0.34705263,0.20743231,0.09129407,0.10537425,0.24884667
55174201,-2.5186777,1.7544285,-2.4132524,-1.3546379,0.008496139,1.5730662,2.8579257,0.23252085,-0.2577804,-0.91466093,-0.5567707,0.14742395,0.100813374,0.4857793,0.07980539,-0.69291484,-0.4961806,0.36075956,0.20741652,0.08366394,0.09750968,0.25065023
55372872,-2.526661,1.6978261,-2.4196901,-1.3670809,3.5988793e-05,1.5748036,2.8591127,0.2738422,-0.21537049,-0.8606682,-0.47508928,0.21453157,0.16896142,0.533883,0.116172105,-0.646038,-0.41827017,0.36737886,0.20634708,0.079770446,0.094089,0.25241452
55576513,-2.5266073,1.6422598,-2.422659,-1.3772289,-0.0074960142,1.5781868,2.8634331,0.18657023,-0.29450908,-0.9223904,-0.528098,0.1409975,0.09581858,0.44459075,0.026366904,-0.7157621,-0.47616658,0.37424958,0.20614663,0.07616093,0.090313144,0.25312972
55775183,-2.5317054,1.5873597,-2.427208,-1.3881737,-0.014636974,1.5815885,2.8665676,0.18851534,-0.27008823,-0.87065923,-0.48472577,0.1521219,0.13816562,0.46754417,0.06497402,-0.6450037,-0.40594965,0.38109154,0.20508671,0.072394855,0.08683355,0.25459334
55973862,-2.5139956,1.5095103,-2.4272802,-1.401537,-0.029377095,1.5836632,2.8750858,0.15745756,-0.27943757,-0.8585554,-0.48346013,0.12571055,-0.060985267,0.2544472,-0.1313806,-0.81486475,-0.57988644,0.39181352,0.20788547,0.06812973,0.08033457,0.25183663
56177506,-2.5132623,1.4564846,-2.432301,-1.4136963,-0.040648606,1.5825855,2.8762434,0.2536308,-0.15141428,-0.71973836,-0.37595004,0.21489745,0.08254877,0.39390695,0.04413651,-0.6269547,-0.41092652,0.3990896,0.20833945,0.064908616,0.07641516,0.25124714
56376179,-2.518706,1.3815427,-2.4408312,-1.4326303,-0.055825777,1.583248,2.878387,0.11586574,-0.25022078,-0.78158545,-0.47211272,0.075792074,0.05748917,0.3496539,0.037189186,-0.58972704,-0.39504787,0.4096792,0.20758529,0.059978295,0.07117474,0.25158244
56574853,-2.5183547,1.3355556,-2.4434903,-1.4411794,-0.06439443,1.583062,2.8791704,0.15214393,-0.17477782,-0.66589993,-0.38552213,0.115073144,0.051349565,0.3204922,0.04244505,-0.5360794,-0.35770395,0.41679326,0.20741454,0.0569103,0.067665294,0.25121662
56773529,-2.5230212,1.337628,-2.4456222,-1.44136,-0.06404909,1.5814615,2.8764117,0.27134573,0.13598737,-0.18474406,-0.12282595,0.18631497,0.07625075,0.28028205,0.20522276,-0.16412392,-0.14555386,0.41646132,0.20671853,0.056906294,0.06800196,0.25191188
56977169,-2.5539017,1.3158864,-2.4668636,-1.4636595,-0.08201241,1.5709534,2.86027,0.22759755,0.47719935,0.5429936,0.17560706,0.06411457,-0.094902955,-0.051345684,0.26858744,0.37064138,0.076082006,0.41917133,0.20340684,0.054933246,0.06739467,0.2550939
57175847,-2.6265113,1.139648,-2.5160623,-1.5360252,-0.13388798,1.5754863,2.8468328,0.21560508,0.9491585,1.583081,0.7099564,0.0063432455,-0.23222345,-0.45712155,0.33001086,1.1125894,0.46431297,0.4439054,0.19012013,0.042219408,0.057943627,0.26581144
57374521,-2.6765862,0.7799272,-2.5569844,-1.644093,-0.20484509,1.6495227,2.8922393,0.3046111,1.2741784,2.3686368,1.2282792,0.14115763,-0.15310925,-0.6274085,0.35801536,1.6584618,0.84423923,0.5053986,0.16369362,0.019907894,0.034885045,0.27611488
57578182,-2.7318382,0.5672512,-2.5958943,-1.7336721,-0.24825081,1.7256304,2.9284906,0.30199826,1.1688825,2.479334,1.3244152,0.21156383,-0.34433657,-0.9381067,-0.0894385,1.4278097,0.60628307,0.547368,0.13202937,0.008682134,0.022112854,0.28980765
57776835,-2.7445421,0.49258986,-2.614709,-1.7790754,-0.28092548,1.7487979,2.943881,0.22893375,0.7763844,1.8706491,1.0512979,0.22365499,-0.07530177,-0.59304845,-0.09518972,1.1633105,0.5779022,0.56760615,0.12219022,0.005723447,0.016720224,0.28775993
57975666,-2.7429273,0.48165992,-2.6142654,-1.7816842,-0.28012022,1.7547908,2.9511514,0.19917029,0.3927134,0.80557257,0.4967059,0.19600183,-0.01280871,-0.21632117,-0.0397595,0.4526325,0.2157613,0.570866,0.12039075,0.0053238445,0.015927192,0.2874923
58174220,-2.7000408,0.4814183,-2.5736666,-1.7405466,-0.24075745,1.7965242,2.993788,0.36609256,0.23604661,-0.07958937,0.13420631,0.36111343,-0.024266627,0.103850104,-0.001279749,-0.3317937,-0.199504,0.57097536,0.121324286,0.005411197,0.015937412,0.2863518
58372859,-2.6638916,0.4727115,-2.5417073,-1.7162024,-0.21889406,1.8360182,3.030321,0.44180253,0.11800807,-0.6139274,-0.0795177,0.44467732,0.052274317,0.36661583,0.08377823,-0.71398264,-0.354721,0.5732816,0.122347705,0.0053172335,0.015430533,0.28362295
58576501,-2.658875,0.46544948,-2.5380316,-1.7163355,-0.21883997,1.846839,3.0382202,0.42795098,0.07891164,-0.7377668,-0.16305481,0.4226068,0.14573887,0.50174093,0.20991692,-0.6918498,-0.30153897,0.57469386,0.122009404,0.005167568,0.015104638,0.28302452
58775301,-2.6628342,0.4618481,-2.5428162,-1.7230448,-0.22564046,1.8456228,3.0356045,0.39932856,0.10237012,-0.6423938,-0.15914641,0.37831232,0.10383904,0.4338901,0.2065616,-0.6229662,-0.29527327,0.57542264,0.12191511,0.0050981776,0.014939197,0.2826249
58978818,-2.6898048,0.45979246,-2.570234,-1.7515187,-0.2540752,1.8204517,3.0095608,0.40014225,0.17031878,-0.49848726,-0.14552586,0.34988394,0.0698295,0.37965465,0.2439322,-0.5163835,-0.2760737,0.57573426,0.1218729,0.005067155,0.014867975,0.28245768
59177491,-2.7392564,0.45849714,-2.6198967,-1.8017396,-0.30406213,1.7724624,2.9609447,0.4290493,0.2261772,-0.40229714,-0.09887427,0.3708901,0.07193395,0.36740452,0.26427242,-0.45532674,-0.24855836,0.5757806,0.1218409,0.0050576013,0.014855541,0.28246537
59376201,-2.778267,0.45655474,-2.6585963,-1.8412788,-0.34262288,1.7363957,2.923634,0.37917662,0.18837833,-0.44776684,-0.17312281,0.30784845,0.1103985,0.4159368,0.33852023,-0.3977493,-0.20879197,0.5758147,0.121462815,0.005017466,0.014839037,0.28286594
59574933,-2.8103702,0.4543117,-2.6904044,-1.8739799,-0.37423646,1.7076064,2.8934746,0.43240514,0.22500281,-0.45593262,-0.15279922,0.359628,0.11155996,0.43787774,0.3485115,-0.43969986,-0.23013625,0.5758038,0.12107584,0.0049786386,0.014831697,0.28330997
59778482,-2.842119,0.449681,-2.7226496,-1.9086322,-0.4085512,1.6800258,2.86382,0.33713937,0.1066422,-0.6323645,-0.28862143,0.26386708,0.06655071,0.41916052,0.31131124,-0.5433898,-0.30477545,0.576742,0.12064315,0.004864219,0.014614342,0.28313637
59977157,-2.8669477,0.44467488,-2.7500908,-1.9389776,-0.44110015,1.6560272,2.8390071,0.4200763,0.17245491,-0.623634,-0.25075355,0.34228644,-0.039838545,0.34011835,0.22476925,-0.69883895,-0.43818164,0.57837653,0.121182136,0.004783111,0.014263542,0.28139463
60175831,-2.884583,0.44132116,-2.7647462,-1.9540166,-0.45119312,1.6477323,2.8271346,0.57650983,0.3001171,-0.53444636,-0.10153067,0.511364,0.27556372,0.66621673,0.5147648,-0.4488757,-0.14631534,0.5771784,0.11951738,0.004713831,0.014489201,0.2841012
60374570,-2.8893106,0.4276702,-2.7683077,-1.9645165,-0.45781782,1.6592698,2.8308234,0.18062049,-0.14159122,-1.0182579,-0.48213542,0.14247167,0.1961473,0.59186023,0.36909005,-0.6228298,-0.25422478,0.5799489,0.11665297,0.0042644246,0.013830812,0.28530285
60573181,-2.878601,0.41878706,-2.7616174,-1.9629202,-0.45912588,1.6722356,2.8422303,0.4725836,0.1305339,-0.76839375,-0.17191558,0.4504155,0.0535222,0.44818556,0.19306682,-0.813205,-0.407189,0.5828553,0.117245845,0.0041030366,0.0132267,0.2825692
60771855,-2.873465,0.40669364,-2.7603774,-1.9684335,-0.46672547,1.683238,2.8499742,0.43963575,0.05789636,-0.8587781,-0.16353029,0.44986516,0.11367798,0.4989713,0.17611921,-0.83389926,-0.36350065,0.58656484,0.11720732,0.0038407352,0.01246381,0.27992338
60975497,-2.8712053,0.38466635,-2.764721,-1.9867146,-0.4892831,1.6978089,2.8574712,0.20982638,-0.19044253,-1.1072491,-0.35276338,0.24194524,0.021005362,0.3935018,0.033554375,-0.96568847,-0.4576863,0.5949704,0.11621532,0.0032542634,0.0108484905,0.27471158
61174208,-2.8727455,0.36283073,-2.7723904,-2.008871,-0.5152803,1.7104928,2.8623736,0.20058453,-0.19270864,-1.0926677,-0.3204027,0.24344999,0.038181007,0.3932664,0.035558224,-0.9429878,-0.42473197,0.6036056,0.11482997,0.002701149,0.009338962,0.26952425
61377816,-2.87035,0.34732628,-2.776611,-2.0234485,-0.5350587,1.7186793,2.8672159,0.37467888,-0.007900178,-0.89083755,-0.10828774,0.4252812,0.08487585,0.42403215,0.07463214,-0.883878,-0.36062187,0.61012745,0.11526093,0.002397669,0.008304178,0.26390976
61576488,-2.8839824,0.3281445,-2.7866333,-2.0454412,-0.54876035,1.7377272,2.8705463,-0.0030425787,-0.36626202,-1.2028089,-0.43879533,0.053044915,0.22514549,0.5391562,0.20471072,-0.7022003,-0.19192615,0.61525714,0.10868487,0.0018635546,0.0074756034,0.2667189
61775163,-2.863855,0.31660005,-2.777778,-2.0467696,-0.56280386,1.7504051,2.886062,0.39636704,0.049576297,-0.77702856,-0.014709696,0.4516622,-0.061285555,0.24434865,-0.07476026,-0.96268773,-0.46092266,0.623193,0.11229143,0.0017196165,0.006455642,0.25634032
61973885,-2.8524013,0.30416662,-2.7715197,-2.0501857,-0.5708471,1.7683042,2.9005895,0.2810999,-0.07045837,-0.8668858,-0.07349554,0.35631415,0.07277247,0.3537286,0.012786478,-0.83491904,-0.31300583,0.6293997,0.11224675,0.001500406,0.005695783,0.25115728
62177483,-2.8428915,0.29617298,-2.766859,-2.0522947,-0.5779704,1.7789159,2.910355,0.2938662,-0.0010253489,-0.7013746,-0.024905145,0.3525677,0.037991315,0.28569552,0.013905376,-0.7411969,-0.29424456,0.6339615,0.113175586,0.0013825498,0.0051825824,0.24629779
62376153,-2.817725,0.29464585,-2.745712,-2.030169,-0.5612204,1.798288,2.9337938,0.16897494,0.04548814,-0.29078007,-0.010386236,0.1813455,-0.15400952,-0.03361079,-0.123089075,-0.49412492,-0.30995387,0.63594824,0.11474326,0.0013724167,0.0049827076,0.24295342
62574828,-2.8222759,0.2927441,-2.7496555,-2.0350404,-0.5660546,1.7980069,2.9315932,0.07544948,0.19708274,0.41438895,0.1193044,0.025586486,-0.0462518,-0.12198696,0.033125766,0.26335543,0.059076935,0.6366308,0.113736786,0.0013249189,0.0049056904,0.24340193
62773502,-2.8522325,0.2831766,-2.7743654,-2.06912,-0.59535146,1.7932256,2.912795,0.09507683,0.36016226,0.9400101,0.31327057,0.019930035,-0.20431206,-0.41650325,-0.13832183,0.50254905,0.06847308,0.6393522,0.1081034,0.0011012481,0.004611119,0.24683201
62977145,-2.8719246,0.27238157,-2.7954469,-2.0950403,-0.6239063,1.7900827,2.9043062,0.14394173,0.41596496,0.9875175,0.32468808,0.057196498,0.010117874,-0.18990988,0.11223149,0.7234005,0.2767484,0.6447481,0.10464784,0.00089570053,0.004064133,0.2456442
63175844,-2.873275,0.26852277,-2.79256,-2.0986445,-0.6228105,1.8042755,2.9082246,0.26778555,0.45054424,0.7226454,0.2471323,0.17428231,-0.097875796,-0.16803999,0.09739661,0.3333989,0.03398388,0.64529234,0.10132423,0.00081083376,0.003986927,0.24858564
63374493,-2.8869705,0.26590472,-2.8046675,-2.1066303,-0.6278358,1.8001097,2.9028714,0.35483852,0.49149448,0.57925737,0.20356286,0.25202358,0.06936177,0.08132974,0.34199834,0.3383857,0.12209486,0.6451242,0.098691985,0.0007546009,0.0039648307,0.25146443
63573169,-2.9011478,0.26247776,-2.8150525,-2.1181664,-0.634124,1.8012624,2.896789,0.43089032,0.58985776,0.7699146,0.34304658,0.33377284,-0.028386794,-0.056724682,0.20641707,0.3176252,0.0627931,0.6448786,0.09510334,0.00068220304,0.003935923,0.25539988
63776841,-2.9167397,0.25427908,-2.8252316,-2.140069,-0.6490314,1.8151045,2.8923736,0.549084,0.76261556,1.1618197,0.60544455,0.46256086,-0.011187851,-0.13433397,0.13910945,0.5220634,0.1705601,0.646952,0.089322336,0.0005387102,0.0036634626,0.2595235
63975486,-2.9035895,0.24509375,-2.8141646,-2.132901,-0.6435118,1.8456076,2.9177344,0.2453214,0.4959664,1.0309775,0.36894444,0.15934569,0.054755196,-0.12189531,0.17095256,0.70800173,0.28861618,0.6515116,0.08612939,0.00043078343,0.0032458336,0.25868237
64164404,-2.9014182,0.23343419,-2.8116362,-2.1431355,-0.65207696,1.8788338,2.9349096,0.46241075,0.72650015,1.3262225,0.612992,0.3770715,0.06965542,-0.13093644,0.16433898,0.7752795,0.32446295,0.6569485,0.08084884,0.00030566426,0.0027657873,0.2591312
64377799,-2.9051487,0.22378738,-2.8155851,-2.1582582,-0.66633797,1.9010322,2.9436724,0.32764107,0.5901619,1.2167788,0.48100233,0.24448788,0.024888754,-0.18397382,0.10286389,0.7408572,0.28150484,0.66159654,0.07666102,0.00022567993,0.0023981503,0.25911856
64576475,-2.904176,0.21990792,-2.814439,-2.1616926,-0.66822,1.9139225,2.9506671,0.31176198,0.48446918,0.8130691,0.30907702,0.23386192,0.10003051,0.008804768,0.2483263,0.52870184,0.23368038,0.6632098,0.07469648,0.0001969567,0.0022641611,0.25963256
64775150,-2.8954263,0.2198319,-2.8009305,-2.1529865,-0.65196705,1.9328016,2.9600205,0.50642145,0.59955823,0.58426434,0.30302107,0.41913116,-2.1100044e-05,0.050431147,0.28524208,0.13106652,0.0013454407,0.6611347,0.07270024,0.00018911801,0.0023344448,0.26364154
64973825,-2.900603,0.21903118,-2.804568,-2.1477509,-0.6406418,1.9333682,2.9631195,0.60395825,0.67316914,0.57248974,0.36310112,0.51918006,0.0056054443,0.0883506,0.31043786,0.056567833,-0.025134102,0.6582928,0.07081596,0.00018580783,0.002449386,0.2682561
65172501,-2.9085314,0.21745361,-2.810791,-2.1549423,-0.6438715,1.9339966,2.959463,0.3352523,0.46315834,0.605095,0.22572136,0.25460917,-0.0015514791,-0.01587005,0.21914577,0.25985396,0.059666812,0.6575857,0.069124684,0.00017337139,0.0024441334,0.2706721
65376140,-2.9209957,0.21429554,-2.8198802,-2.1752245,-0.6592891,1.9392765,2.9497914,0.40277624,0.57462895,0.9356216,0.42501324,0.333094,-0.00038278103,-0.10622677,0.12149471,0.43691865,0.1415649,0.6582264,0.066468544,0.0001471768,0.0023341118,0.27282384
65574814,-2.9166105,0.20988128,-2.816264,-2.1781685,-0.6615782,1.9574854,2.96047,0.42090023,0.5936885,0.9443526,0.4233353,0.34700263,0.21782342,0.11980772,0.35879886,0.6489147,0.35409546,0.6605977,0.0646225,0.00012335462,0.0021526339,0.2725039
65773650,-2.924647,0.20695779,-2.8219802,-2.1867626,-0.6639952,1.9656246,2.959858,0.5495725,0.6991584,0.95488155,0.49709737,0.4739167,0.011105657,-0.047772765,0.18778674,0.3580099,0.11027861,0.6597406,0.061844252,0.00010640054,0.0021150112,0.2761937
65972164,-2.928938,0.20550306,-2.8247685,-2.190784,-0.66392684,1.9700317,2.9596548,0.37538266,0.49708176,0.63647175,0.26335186,0.29927933,0.042948574,0.029852599,0.26017904,0.2870015,0.09899299,0.6588932,0.06030862,9.858725e-05,0.0021085765,0.27859098
66175805,-2.9459844,0.20380238,-2.8421154,-2.2007952,-0.6693209,1.9574766,2.9513674,0.38982272,0.4450165,0.3372193,0.17642003,0.3200733,0.21445581,0.29248112,0.48732477,0.2346656,0.18146253,0.65697,0.058964875,9.4930976e-05,0.002157331,0.28181276
66379447,-2.9421802,0.203717,-2.836141,-2.1916835,-0.65538925,1.9627694,2.9563644,0.5876764,0.5598239,0.072270036,0.18443435,0.5114572,0.021084428,0.24818818,0.43226463,-0.27440718,-0.14575121,0.6544245,0.05833153,9.794307e-05,0.002269454,0.28487659
66578270,-2.9489172,0.20029666,-2.8424497,-2.1993425,-0.66143167,1.9616605,2.9521286,0.5538973,0.4330652,-0.439825,-0.025293946,0.47763383,0.04686573,0.42163163,0.5701916,-0.5776017,-0.2563018,0.6542363,0.057558782,9.334028e-05,0.0022574184,0.28585407
66776798,-3.005609,0.1927866,-2.8979595,-2.2619405,-0.71973664,1.9249119,2.9039474,0.46573263,0.27410233,-0.836542,-0.18916005,0.40261543,0.17353228,0.630617,0.7237141,-0.67272806,-0.21338952,0.6545136,0.054706417,7.468922e-05,0.0021396365,0.2885656
66975487,-3.1234605,0.18646418,-3.0111673,-2.3861375,-0.83761215,1.8296459,2.7888057,0.6097071,0.3839328,-0.877724,-0.091269284,0.55131584,0.21286151,0.72086954,0.8008055,-0.76043665,-0.22067198,0.6537788,0.051625226,5.9393282e-05,0.002057659,0.29247883
67179113,3.0870764,0.17809714,-3.0887096,-2.468162,-0.9230846,1.7671168,2.7268255,0.4279493,0.2361526,-0.8930801,-0.19665721,0.37227952,0.05356192,0.5065994,0.5981053,-0.80315447,-0.32783008,0.657501,0.050439313,4.777583e-05,0.0018471804,0.2901647
67377904,3.059523,0.17615199,-3.1171527,-2.498826,-0.95522875,1.7413805,2.6999261,0.3392439,0.22453004,-0.45797879,-0.028710008,0.3082475,0.014174111,0.2829246,0.34207085,-0.50335646,-0.2136217,0.65875924,0.05035312,4.5571596e-05,0.0017925086,0.28904957
67576462,3.0413535,0.1763117,-3.135677,-2.5171437,-0.97466123,1.7218033,2.6810627,0.37676644,0.34657973,0.29543322,0.39675838,0.3940956,0.07696184,0.08043134,0.029819787,0.014356524,0.05929248,0.6590788,0.050626047,4.623018e-05,0.0017893903,0.28845963
67775139,3.03567,0.17191897,3.1373851,-2.5369084,-1.0029769,1.7265465,2.6785216,0.4590596,0.51594645,1.0647796,0.8323095,0.5159901,0.09461203,-0.15000275,-0.28811648,0.47358745,0.27671215,0.6652336,0.0502969,3.6961097e-05,0.001534984,0.2828976
67973811,3.0411167,0.16701761,3.1404288,-2.5485203,-1.0230786,1.7552505,2.6844409,0.49791777,0.5859612,1.3082235,0.9518002,0.55791473,0.03105697,-0.2789497,-0.43172145,0.5501292,0.26951995,0.67269015,0.048880953,2.5343783e-05,0.0012400037,0.27716354
68172596,3.0381238,0.16229832,3.1325393,-2.5630023,-1.0433582,1.7582544,2.6912208,0.33797657,0.4011454,0.89643705,0.63237685,0.37340057,0.05379583,-0.15485229,-0.2558816,0.41823357,0.21513337,0.67635036,0.048373047,2.1305439e-05,0.0011182454,0.2741371
68371160,3.0354493,0.1620239,3.1294188,-2.566906,-1.048049,1.7562443,2.6888938,0.541044,0.55046755,0.6138834,0.5772332,0.5451209,0.15649584,0.12693161,0.11697562,0.20730089,0.17725967,0.6768849,0.04838955,2.0949423e-05,0.0011033454,0.2736013
68574802,3.0299711,0.16185533,3.1250389,-2.5701299,-1.0488232,1.7514508,2.68404,0.42743745,0.39199513,-0.0044482946,0.16680479,0.3893544,0.07613297,0.24251214,0.36538774,-0.19546807,-0.05152747,0.67550683,0.048009682,2.1186732e-05,0.0011343048,0.27532804
68778443,3.0266237,0.16216403,3.1265125,-2.568087,-1.0408357,1.7586522,2.677092,0.47778893,0.40802872,-0.30079216,0.024566233,0.41428584,0.16827464,0.46566278,0.66693974,-0.32560727,-0.059981167,0.6730947,0.04655289,1.9882113e-05,0.0011672667,0.2791653
68977178,3.018905,0.1588098,3.1171637,-2.5782757,-1.0498794,1.7502689,2.6779556,0.5100674,0.4316808,-0.27699006,0.08084297,0.4547058,0.06442003,0.35580635,0.5309019,-0.43748292,-0.1625469,0.672029,0.045931388,1.9399406e-05,0.0011845011,0.28083563
69175792,3.0077548,0.15912835,3.1066666,-2.5871654,-1.0575306,1.7368692,2.666177,0.5233723,0.48940313,0.1724605,0.3303864,0.49804354,0.012310043,0.14124066,0.22223473,-0.20947127,-0.0887761,0.67105293,0.046027664,2.031413e-05,0.0012183037,0.28168076
69369500,3.0065186,0.15888596,3.1049113,-2.5897486,-1.061137,1.7359042,2.6650658,0.46199584,0.4680797,0.53795683,0.5091299,0.46939325,0.14502259,0.11168888,0.09057258,0.1946598,0.16773507,0.67169094,0.046104383,2.0022679e-05,0.0012009458,0.2809837
69578108,3.0111742,0.1597713,3.1110733,-2.584785,-1.057463,1.7484177,2.6637409,0.43483782,0.46259093,0.71123487,0.5860901,0.45464045,0.03852579,-0.06796877,-0.12774582,0.21715325,0.118491,0.67333597,0.045904793,1.8510811e-05,0.0011465065,0.27959418
69776806,3.0201876,0.15859874,3.1189919,-2.5800457,-1.0548587,1.7616744,2.6741755,0.52270913,0.54831696,0.7834763,0.6661429,0.5416256,0.024957672,-0.07576394,-0.1345141,0.19364741,0.10036941,0.67498153,0.045655724,1.7002913e-05,0.0010926097,0.27825308
69975459,3.0239654,0.15847254,3.122479,-2.5770376,-1.05241,1.7656592,2.6780229,0.4641919,0.46645725,0.508309,0.4954055,0.46973735,0.09535298,0.073973805,0.057229385,0.12429704,0.10895702,0.6753439,0.04569736,1.6858332e-05,0.0010835105,0.2778583
70174132,3.0244634,0.15870616,3.1226437,-2.5763226,-1.0523977,1.7639507,2.677668,0.609753,0.58563274,0.5059922,0.59773433,0.61727214,-0.008676723,0.012795031,-0.009572178,-0.08095613,-0.033707976,0.67559665,0.04603762,1.7349688e-05,0.0010860508,0.27726233
70372807,3.0297863,0.15883474,3.1280198,-2.57046,-1.0464835,1.7680793,2.6825404,0.3148738,0.27792984,0.07778227,0.2293191,0.31275892,0.027943447,0.09980816,0.108858936,-0.1300247,-0.03556806,0.6754541,0.04617119,1.7697865e-05,0.0010939562,0.2772631
70571481,3.032011,0.15680215,3.1269412,-2.5722547,-1.0506308,1.7624832,2.6910543,0.44325513,0.38203537,0.0045650005,0.26153535,0.43158174,-0.05573395,0.087125145,0.127404,-0.34563833,-0.17587942,0.6759058,0.0467258,1.8521705e-05,0.0010978477,0.27625194
70770156,3.0476167,0.1585513,-3.138879,-2.55315,-1.0327365,1.7784157,2.6970198,0.486974,0.399907,-0.14177716,0.22222745,0.4690724,-0.057960644,0.14914714,0.2096495,-0.4741621,-0.23093833,0.6769602,0.047470335,1.9365729e-05,0.0010905281,0.27445963
70973800,3.0498242,0.15703242,-3.1380575,-2.553925,-1.0365372,1.7805779,2.698842,0.39804733,0.30281514,-0.38185042,0.027185023,0.3621328,-0.048087195,0.22370203,0.34202674,-0.5587515,-0.2674786,0.67874527,0.0478174,1.8939387e-05,0.0010535591,0.27236485
71177439,3.0452316,0.15595898,3.1398757,-2.5592465,-1.0432465,1.774692,2.6936061,0.50958455,0.41265208,-0.27823627,0.13769394,0.4744184,-0.01284197,0.26083958,0.3793698,-0.53041124,-0.2342306,0.679504,0.048124567,1.9138743e-05,0.001044316,0.27130806
71376133,3.0461798,0.15376446,3.1368315,-2.5628247,-1.0506908,1.7657582,2.700246,0.5199195,0.45674586,-0.04277432,0.23478734,0.48847294,-0.13702273,0.064701855,0.16999379,-0.5036142,-0.2972464,0.6805995,0.04910932,2.0415437e-05,0.0010409757,0.26922974
71579755,3.0421283,0.15368424,3.1324694,-2.5671575,-1.0556996,1.7606151,2.6956887,0.24902749,0.21267498,-0.06561434,0.09144008,0.23228103,-0.055480674,0.056031875,0.11220775,-0.2609397,-0.1450181,0.68090785,0.04933282,2.0666868e-05,0.0010385716,0.2687001
71778431,3.036262,0.15594825,3.1294272,-2.5681949,-1.0551287,1.75881,2.6815858,0.2797081,0.26343375,0.18064916,0.24528337,0.27949888,0.055584446,0.08461407,0.08666094,-0.011102587,0.029076293,0.6807581,0.049379688,2.0872452e-05,0.001043727,0.26879767
71977104,3.0361779,0.15592217,3.1291997,-2.5685499,-1.0557573,1.7587587,2.6814656,0.2385093,0.22980511,0.24193382,0.26896977,0.2482413,-0.07186789,-0.08416196,-0.11442342,-0.07363934,-0.06773458,0.6809317,0.04941873,2.0828522e-05,0.0010399402,0.26858884
72175780,3.034567,0.15379532,3.1248205,-2.5747366,-1.0633645,1.7521331,2.6878772,0.16393417,0.15031546,0.06365228,0.12003744,0.16072786,-0.008424327,0.024235308,0.03567943,-0.074535266,-0.036236048,0.68090755,0.04946301,2.0939826e-05,0.0010417113,0.26856682
72374500,3.040957,0.15405497,3.1322286,-2.565296,-1.0515957,1.7571673,2.694066,0.5362894,0.49896163,0.1328901,0.30444527,0.5050357,0.052854836,0.2067527,0.3092555,-0.20618564,-0.065250754,0.67947423,0.049343027,2.1837455e-05,0.001080485,0.27008042
72573131,3.051952,0.15545915,-3.1377094,-2.5504868,-1.0365902,1.7719214,2.6960273,0.44551086,0.3983457,-0.19529808,0.03818679,0.38277543,-0.08953163,0.1690652,0.3704707,-0.49387985,-0.2813086,0.6802141,0.049635913,2.2030388e-05,0.001071165,0.26905677
72771807,3.0514886,0.15231247,-3.1409001,-2.5554338,-1.0425385,1.76697,2.7044878,0.44193858,0.39915287,-0.17903745,0.037391305,0.37803048,-0.03079079,0.22314627,0.42844927,-0.42144063,-0.21776915,0.6800638,0.049465436,2.1916832e-05,0.0010755614,0.2693734
72980411,3.0432987,0.15379362,3.1362753,-2.5605893,-1.0478046,1.7649902,2.6877024,0.19254643,0.17454761,-0.25734514,-0.1412341,0.13268143,-0.08243817,0.115232185,0.30674833,-0.35816097,-0.2220533,0.68116,0.049547434,2.1312339e-05,0.0010491415,0.26822224
73174119,3.0438778,0.15341455,3.137439,-2.5590625,-1.0450906,1.7665399,2.6887398,0.3572392,0.3386755,-0.07712126,0.038992643,0.30087513,-0.01033175,0.17914003,0.36078805,-0.27780825,-0.1447424,0.68056244,0.049263373,2.1247308e-05,0.0010614566,0.2690915
73377760,3.040541,0.15281728,3.1352518,-2.5608282,-1.0445422,1.7657068,2.686661,0.39554673,0.37684494,-0.09676039,0.02805531,0.32930297,0.02623874,0.24358295,0.45654187,-0.2754071,-0.12676883,0.6793919,0.04862047,2.0879603e-05,0.001081883,0.27088478
73576622,3.0352137,0.15107027,3.1291196,-2.5692337,-1.0545954,1.7639859,2.6825023,0.25902075,0.22186607,-0.38569087,-0.18072551,0.18572354,-0.0442065,0.22676441,0.46253777,-0.44545934,-0.24007407,0.6808122,0.048327334,1.9387773e-05,0.0010395336,0.26980168
73775110,3.0253568,0.1492597,3.1192017,-2.5808394,-1.0663233,1.7586194,2.6744072,0.3514459,0.3002174,-0.37196308,-0.109537005,0.2799803,0.00056117773,0.29370633,0.5278314,-0.45614278,-0.21569745,0.6813742,0.047708735,1.7973198e-05,0.0010145032,0.2698846
73968821,3.020042,0.14658035,3.1126435,-2.5913558,-1.0794157,1.7597191,2.6712441,0.25298733,0.19280928,-0.5459221,-0.24141228,0.17871076,-0.025045529,0.29393953,0.5407496,-0.5319796,-0.26202226,0.68366736,0.047144018,1.5718357e-05,0.0009470588,0.26822582
74177426,3.019098,0.1398924,3.1045973,-2.6114392,-1.110131,1.7601433,2.6807818,0.23530394,0.14659625,-0.7815725,-0.34931773,0.1553641,-0.12102489,0.27013117,0.54593945,-0.7751269,-0.41747195,0.69008905,0.04728942,1.2739113e-05,0.00080608285,0.26180273
74376251,3.0338964,0.13782868,3.1189094,-2.5996015,-1.1036128,1.786925,2.6879778,0.46939015,0.35470566,-0.7316347,-0.18000758,0.38903242,-0.08130446,0.3667001,0.6666757,-0.86629444,-0.42662638,0.69549716,0.047251225,1.0534039e-05,0.0007021065,0.2565389
74574776,3.0389557,0.13165008,3.119578,-2.6096106,-1.1191227,1.7968062,2.7063503,0.31874943,0.20473146,-0.84670264,-0.29419774,0.24670489,0.011781499,0.44059485,0.72813636,-0.7569145,-0.3209604,0.69875777,0.04618708,8.352577e-06,0.000628874,0.25441787
74778417,3.040181,0.1304972,3.1196475,-2.6112647,-1.1231935,1.7985026,2.7075477,0.32829022,0.25978214,-0.41094792,-0.06507462,0.28090742,-0.07556202,0.1977427,0.3955436,-0.5639041,-0.2862895,0.7005556,0.046375737,7.99962e-06,0.0006027073,0.25245792
74977093,3.0319154,0.13054186,3.1113296,-2.619598,-1.1316996,1.7895434,2.698981,0.17328644,0.15932274,0.01503706,0.086622775,0.16256487,-0.05470799,0.003752619,0.050061896,-0.15954238,-0.099781916,0.7006353,0.046461653,8.055875e-06,0.0006027795,0.25229213
75175883,3.0283394,0.13292095,3.110484,-2.6154697,-1.126028,1.7928025,2.6855092,0.036453485,0.06243348,0.22770369,0.110511005,0.04012263,0.04923609,-0.013465002,-0.034169212,0.17858696,0.101120695,0.70096666,0.046480685,7.970893e-06,0.00059758825,0.25194713
75374442,3.0356524,0.13267434,3.1181257,-2.6084738,-1.1188978,1.8022765,2.6935918,0.11768913,0.14345574,0.34095716,0.21908414,0.12666404,-0.13389546,-0.2119192,-0.2524109,0.015483428,-0.071697325,0.7008001,0.046123784,7.711024e-06,0.000595242,0.2524732
75573119,3.0393264,0.13270232,3.1217737,-2.6048896,-1.1153035,1.805848,2.6971834,-0.1447388,-0.13235104,-0.097384095,-0.14616233,-0.1499418,0.004360795,-0.0051437765,0.01140739,0.0383742,0.015164226,0.7008343,0.046152547,7.726016e-06,0.0005950742,0.25241035
75771790,3.0415478,0.13275307,3.1240587,-2.6024976,-1.112824,1.8081142,2.6993327,0.14853829,0.14562327,0.0919193,0.110790014,0.1426577,0.030277893,0.05303693,0.07745983,-0.0066644102,0.013529137,0.70077807,0.04614214,7.73462e-06,0.0005959122,0.25247616
75970522,3.0406702,0.13279924,3.123199,-2.6031842,-1.1134853,1.807043,2.6983442,0.17917871,0.16900861,0.04496503,0.10066843,0.16847277,-0.022824347,0.028634101,0.073449984,-0.11112659,-0.061709523,0.7007525,0.04616138,7.761602e-06,0.0005967326,0.2524816
76174104,3.0414724,0.13291766,3.1240478,-2.6019516,-1.1122049,1.807174,2.698824,0.33189267,0.31994188,0.17412454,0.23959088,0.31927073,-0.054440245,0.006231189,0.05867687,-0.1581535,-0.100220814,0.70066625,0.046232294,7.85639e-06,0.00059949496,0.2524941
76377747,3.0375357,0.13037023,3.1166792,-2.614421,-1.1276624,1.79471,2.7046776,0.3318274,0.3056382,0.06663084,0.19662905,0.31681943,-0.13889827,-0.04307213,0.02296781,-0.31528842,-0.21379858,0.7009725,0.04651447,8.023138e-06,0.00059889647,0.25190616
76576422,3.0330014,0.12970775,3.1108801,-2.6219153,-1.1379894,1.7901535,2.6998065,0.1076349,0.050022423,-0.41772652,-0.14190155,0.08364236,-0.13681899,0.047593746,0.15753508,-0.48830155,-0.2835117,0.7027926,0.046867814,7.782728e-06,0.00057427754,0.24975759
76775149,3.0464067,0.13063498,3.1248367,-2.6060421,-1.1253251,1.8120575,2.7025886,0.16411364,0.054795682,-0.6431634,-0.1501714,0.14920017,-0.12801188,0.13234067,0.22937286,-0.67711973,-0.34566584,0.7065007,0.04735428,7.1176883e-06,0.00052351557,0.24561438
76978738,3.0465178,0.12672412,3.1177487,-2.6221137,-1.1533421,1.8000367,2.7102919,0.37380865,0.24130636,-0.46165657,0.11576682,0.37964755,-0.2196643,0.027135774,0.06169033,-0.7971904,-0.436993,0.7118461,0.049296614,7.117586e-06,0.00046901059,0.23838106
77177415,3.0391593,0.12660946,3.1114507,-2.6281545,-1.161928,1.8090358,2.6953034,-0.025191128,-0.22959724,-0.92817986,-0.0996615,0.045665473,-0.04843633,0.14937235,-0.025490046,-0.69756746,-0.2596616,0.71549886,0.048617903,5.696429e-06,0.00041387146,0.23546366
77376094,3.0510056,0.12317237,3.1187766,-2.6298294,-1.1758485,1.8281697,2.708634,0.09787947,-0.18053669,-0.93109167,0.18054843,0.22885707,-0.16571102,0.0042023957,-0.360686,-0.9181303,-0.3846916,0.7226847,0.04916098,4.4541603e-06,0.00033450525,0.22781529
77574787,3.0607827,0.11984225,3.1231549,-2.6348567,-1.1955658,1.843123,2.7190175,0.13402331,-0.14094228,-0.88236225,0.23374316,0.26703343,-0.2398059,-0.07720041,-0.43991503,-0.9814868,-0.45193052,0.730852,0.050371483,3.5440496e-06,0.00026300031,0.21850988
77773437,3.0681977,0.11739278,3.126167,-2.63953,-1.2125762,1.8544587,2.726932,0.034301758,-0.17696959,-0.78168637,0.096140385,0.13439494,-0.35503268,-0.21789831,-0.47473976,-0.9481943,-0.5262353,0.7374897,0.051490363,2.9524838e-06,0.00021491644,0.21080211
77972111,3.0684745,0.11399047,3.1200707,-2.6557574,-1.243042,1.8451761,2.7365606,0.33808023,0.15341449,-0.30635285,0.46027794,0.43823317,-0.2040137,-0.11975154,-0.38994724,-0.6752481,-0.32876402,0.74227715,0.053506974,2.8989277e-06,0.00018812079,0.20402497
78175752,3.0780463,0.11313272,3.127954,-2.6503892,-1.2431614,1.8555783,2.7460287,0.17158747,-0.0050610304,-0.2862966,0.42574716,0.29211354,-0.061966002,-0.05746621,-0.42060918,-0.40363485,-0.12832162,0.7447576,0.054118574,2.7336764e-06,0.00017341979,0.20094775
78374473,3.0743124,0.114813566,3.1264791,-2.6475828,-1.238291,1.8602589,2.732016,0.11094171,0.030976117,0.03964901,0.34397566,0.18683243,-0.32396457,-0.38738555,-0.6434269,-0.38340288,-0.30848917,0.7456428,0.053682193,2.5227712e-06,0.00016680815,0.20050584
78573102,3.080359,0.11445062,3.1342463,-2.6404948,-1.2290608,1.871788,2.7404811,0.2744819,0.3463379,0.60117644,0.29054523,0.24781322,-0.3356358,-0.40481648,-0.3496572,-0.100156575,-0.2626027,0.7443221,0.052214503,2.3239643e-06,0.00017076547,0.2032903
78776744,3.0760236,0.11141644,3.130099,-2.6513073,-1.2397339,1.8709763,2.751225,0.120310426,0.31209475,0.7510253,-0.04581046,0.010943532,-0.41586673,-0.48412746,-0.17393003,0.0429226,-0.30148515,0.7418421,0.05006483,2.075508e-06,0.00017874996,0.20791225
78970452,3.066521,0.10910416,3.123147,-2.6629636,-1.2498558,1.880242,2.7490993,0.19849539,0.4400053,1.1166167,0.09001839,0.07865965,-0.24803504,-0.39136532,-0.0821353,0.41355282,-0.06409811,0.7404485,0.0467923,1.5171771e-06,0.00017466788,0.21258304
79179138,3.0594003,0.10800229,3.1202295,-2.6660206,-1.2512581,1.9023391,2.7397876,0.15652537,0.40223253,1.2782292,0.1872294,0.060242534,-0.19824243,-0.42814848,-0.2344796,0.5986412,0.04644811,0.74053717,0.04339042,9.744183e-07,0.00015980736,0.21591167
79372767,3.0578883,0.10400107,3.1178083,-2.6788466,-1.266185,1.9063735,2.7540627,-0.1781044,0.045634627,0.8450531,-0.16869926,-0.26820767,-0.35730866,-0.5620153,-0.3802184,0.36093682,-0.13916461,0.7389218,0.041467406,8.0257007e-07,0.00015944242,0.2194505
79571443,3.0656447,0.10536864,3.1307864,-2.6583056,-1.2376261,1.9276937,2.7539093,-0.09769523,0.11174774,0.744023,-0.18735874,-0.19878256,-0.4620072,-0.5983318,-0.34489995,0.12433532,-0.29692137,0.73586667,0.039665695,7.0643466e-07,0.00016641495,0.22430047
79780057,3.067243,0.10498339,3.1326036,-2.6564262,-1.2357419,1.9292649,2.7555819,-0.23535132,-0.046387196,0.4132008,-0.40458977,-0.34159327,-0.36752778,-0.43921405,-0.1321271,0.080743596,-0.25461775,0.73550886,0.039602995,7.0661224e-07,0.00016722671,0.22472025
79978772,3.0713866,0.10479314,3.1360495,-2.65305,-1.234147,1.9309613,2.7586343,-0.2550971,-0.078044474,0.21633959,-0.5194672,-0.37312728,-0.3658245,-0.37077776,0.0098300725,-0.041280746,-0.30326056,0.73634565,0.040150017,7.3217024e-07,0.0001647002,0.22333895
80177403,3.0698247,0.10217774,3.1323204,-2.6646185,-1.2477403,1.9250423,2.769879,0.1659466,0.33043784,0.50269485,-0.15879941,0.042417526,-0.36007923,-0.31832886,0.10394269,-0.12915936,-0.33414698,0.7352273,0.039672676,7.159845e-07,0.00016824933,0.22493108
80376074,3.0587015,0.10186325,3.1216278,-2.6758578,-1.2583272,1.9157077,2.7595046,0.054448962,0.23684037,0.50624347,-0.24461591,-0.07196128,-0.2920732,-0.28164604,0.13350852,0.018940791,-0.23831901,0.73470473,0.039322756,6.92679e-07,0.00016896086,0.22580288
80564997,3.0461724,0.10374932,3.111991,-2.6776516,-1.2576106,1.912895,2.7360458,0.004082203,0.2041642,0.58400446,-0.25946236,-0.12335336,-0.11330274,-0.140135,0.25870058,0.28649053,-0.02774246,0.735028,0.03902583,6.4862e-07,0.00016521223,0.22578031
80778391,3.034205,0.10328651,3.099933,-2.6905186,-1.2713897,1.9035987,2.7250428,0.018075585,0.2223956,0.5977377,-0.2629882,-0.11403,-0.10002145,-0.1210601,0.2961541,0.29812926,-0.017229512,0.7352915,0.03877344,6.1355263e-07,0.00016215748,0.22577225
80977065,3.0346966,0.100604035,3.0970273,-2.704089,-1.2898067,1.896759,2.7371778,-0.20153391,-0.0081704855,0.2922449,-0.51120365,-0.3340131,-0.22659665,-0.22110564,0.21216932,0.11056691,-0.1660668,0.736029,0.039001465,6.1159295e-07,0.00015906413,0.22480972
81170773,3.034821,0.10012264,3.0978527,-2.7042882,-1.2890632,1.9016131,2.7392058,0.2474786,0.4474579,0.8977144,0.03369677,0.1289053,-0.16590343,-0.22355892,0.12930426,0.28097826,-0.059237495,0.7352253,0.038223956,5.6004234e-07,0.00015904978,0.22639108
81379381,3.0260735,0.09958506,3.0899374,-2.713522,-1.2971493,1.898413,2.7327135,0.26633382,0.4425882,0.9516157,0.16277027,0.17677796,-0.20151637,-0.30301538,-0.06753812,0.2696845,-0.07250849,0.73423815,0.037312448,5.041719e-07,0.0001590811,0.22828978
81578056,3.0205207,0.09921983,3.084804,-2.720002,-1.3032097,1.8964881,2.7285354,0.28261876,0.41566885,0.80015844,0.20375085,0.21517718,-0.058491834,-0.13494769,0.043478932,0.29576835,0.038467817,0.7338402,0.036766604,4.6799235e-07,0.00015803316,0.22923468
81776730,3.0329323,0.099165425,3.0979028,-2.70649,-1.2879236,1.9107238,2.741899,0.46881127,0.5501315,0.5810654,0.26673937,0.40123284,-0.05992247,-0.014373446,0.23406772,0.012296902,-0.06501695,0.7327684,0.03630926,4.564512e-07,0.00016118499,0.23076075
81975405,3.0429244,0.10162709,3.1105435,-2.682687,-1.2619168,1.9273975,2.7391207,0.23414403,0.27538145,0.019367933,-0.07129121,0.16497475,-0.3127178,-0.16724253,0.14322284,-0.46697736,-0.40044188,0.73339045,0.03657994,4.6503322e-07,0.00015981038,0.22986943
82174228,3.0338645,0.098644316,3.0962656,-2.7100675,-1.2983274,1.9080095,2.7406573,0.1204108,0.06548667,-0.4852621,-0.1372037,0.09873104,-0.5123607,-0.30483648,-0.114145756,-0.9342121,-0.6751326,0.7368662,0.03762038,4.6898788e-07,0.0001482322,0.22536471
82372756,3.018204,0.09794869,3.0792522,-2.7292166,-1.3216869,1.8930298,2.7244885,0.28201365,0.1521542,-0.61641836,0.070292115,0.29918456,-0.14639986,0.10424346,0.19665319,-0.7709222,-0.3642854,0.7392788,0.038078006,4.5117608e-07,0.00013923402,0.22250351
82576396,3.0226152,0.09912163,3.0831995,-2.7163653,-1.3144416,1.9038094,2.7159867,0.3712105,0.27040005,-0.6764643,-0.05866486,0.33921513,-0.36237407,-0.0089325905,0.30727756,-1.0972832,-0.64225817,0.74415696,0.039339464,4.3739684e-07,0.00012366222,0.21637945
82775073,3.0151405,0.09715673,3.072744,-2.7311528,-1.3381045,1.899041,2.708688,0.36923015,0.37788752,-0.64084035,-0.4336527,0.22919738,-0.34571692,0.12466207,0.86854637,-1.0728782,-0.6715935,0.7491034,0.040124156,3.8984695e-07,0.00010764043,0.21066447
82973863,3.0032406,0.0949105,3.0583282,-2.749009,-1.363366,1.8902808,2.6973507,0.56292456,0.6812246,-0.2617038,-0.5042521,0.33412486,-0.45633295,0.06496935,1.1400526,-1.0755566,-0.7828398,0.7533461,0.04068846,3.4794138e-07,9.543721e-05,0.20586969
83172419,3.0100007,0.0905431,3.0630953,-2.7621925,-1.3809229,1.9008509,2.7190366,0.42712116,0.59387094,-0.08391559,-0.58325964,0.18907946,-0.14972892,0.28959215,1.351552,-0.5581722,-0.40410104,0.75436085,0.039292984,2.6909046e-07,8.9046625e-05,0.20625679
83371095,3.0079882,0.08933884,3.0611174,-2.766814,-1.3865719,1.9050468,2.7192378,0.26855946,0.43857512,0.106197536,-0.48455036,0.07330507,-0.1528922,0.13088185,0.9618492,-0.312565,-0.29796985,0.7549467,0.038548492,2.3203603e-07,8.544853e-05,0.2064192
83574736,3.0125115,0.08845757,3.06527,-2.7648509,-1.3863151,1.9132615,2.7251604,0.13274115,0.29949686,0.13911879,-0.4804365,-0.037364304,-0.16309074,0.040108144,0.7384639,-0.20111045,-0.25309807,0.75587934,0.038252976,2.0995311e-07,8.184101e-05,0.20578572
83773492,3.0279415,0.08722703,3.07919,-2.7538164,-1.3802423,1.9313353,2.7413568,0.14410165,0.285643,-0.07204646,-0.5431037,-0.027606428,-0.27908126,-0.0061721317,0.7513115,-0.4772559,-0.42624018,0.7586074,0.03854171,1.9033928e-07,7.4921576e-05,0.20277572
83977052,3.0525446,0.087882124,3.1046576,-2.7174666,-1.3464541,1.9676958,2.7543085,0.34924552,0.46206337,-0.1265701,-0.42778087,0.17508051,-0.3100416,0.045319267,0.8772094,-0.6972629,-0.52469975,0.7616753,0.03872784,1.6806787e-07,6.790895e-05,0.19952887
84175726,3.0716164,0.083418936,3.1184928,-2.7234979,-1.3654268,1.98466,2.7878056,0.14092438,0.24683379,-0.37738478,-0.64392805,-0.030978918,-0.2693187,0.09730534,0.9381304,-0.6916726,-0.4946543,0.7669285,0.039202303,1.3617769e-07,5.6709527e-05,0.19381234
84379368,3.0765479,0.082479596,3.1232362,-2.7203784,-1.3633343,1.9930283,2.7940068,0.30122042,0.4136438,0.057864904,-0.30729532,0.15662885,-0.19862348,0.05333247,0.72805154,-0.42592207,-0.34215292,0.76770765,0.038821522,1.2322113e-07,5.4727643e-05,0.19341594
84578116,3.0677881,0.08210183,3.1133096,-2.731783,-1.3780226,1.9830971,2.784566,-0.13801533,-0.002507031,0.03853959,-0.5228089,-0.2557109,-0.24561445,-0.15369698,0.30652735,-0.16500019,-0.26908037,0.76956403,0.039502744,1.2305176e-07,5.1724037e-05,0.19088136
84776717,3.0480134,0.084169984,3.096663,-2.7337496,-1.3761976,1.9756774,2.752517,0.17120385,0.30878067,0.532028,-0.086575866,0.073191404,-0.14435902,-0.13242993,0.19800046,0.07487935,-0.110704474,0.76881075,0.03882527,1.1446426e-07,5.216545e-05,0.1923117
84975392,3.0352187,0.08391759,3.0850677,-2.7451081,-1.3852489,1.9671113,2.7415447,0.25460732,0.39508379,0.64957315,0.01062417,0.1576662,-0.2446221,-0.24415316,0.07387847,-0.0013604686,-0.2019673,0.7672183,0.037834615,1.0550773e-07,5.3774947e-05,0.19489327
85174066,3.0256119,0.08372043,3.0758846,-2.754247,-1.3936886,1.9596101,2.7327898,0.1243667,0.24908632,0.42467594,-0.12875831,0.03252268,-0.17786911,-0.15489969,0.16606137,-0.00090084225,-0.15601435,0.7666685,0.037429307,1.0110541e-07,5.415786e-05,0.19584797
85372761,3.0265257,0.083558604,3.0765865,-2.753825,-1.3939465,1.9606775,2.7336369,-0.02146697,0.094061255,0.20825332,-0.29141605,-0.11223757,-0.1959346,-0.15284234,0.1814524,-0.06906339,-0.19110239,0.7670297,0.03751754,1.0019637e-07,5.3459353e-05,0.19539925
85576383,3.0253375,0.08349163,3.0757463,-2.7542858,-1.3934262,1.9599546,2.732633,0.19825625,0.29718274,0.31931174,-0.08846903,0.111605644,-0.24773648,-0.1768215,0.16687739,-0.19667372,-0.26767245,0.7665331,0.03731481,9.940443e-08,5.4172542e-05,0.19609776
85775057,3.0174212,0.08331401,3.0685883,-2.7612977,-1.3987218,1.9547818,2.7258751,0.28173,0.3767718,0.35955858,-0.021662354,0.19392389,-0.04827623,0.037118107,0.39626104,-0.028084531,-0.07954255,0.7655256,0.036684413,9.420903e-08,5.522552e-05,0.19773462
85978700,3.0175216,0.08089366,3.0665517,-2.7802603,-1.4184319,1.9451375,2.739143,0.21220237,0.29167658,0.25850493,-0.054141164,0.13680643,-0.19127849,-0.11177903,0.20255144,-0.1887334,-0.22320297,0.76513654,0.03651886,9.3544884e-08,5.5807683e-05,0.19828872
86177397,3.0105321,0.08089424,3.059788,-2.7871566,-1.4245925,1.9383904,2.7322893,0.18000424,0.2193011,0.20222074,0.04968071,0.1431731,-0.043645523,-0.0048635527,0.15011649,-0.043357596,-0.059428647,0.764839,0.03637749,9.282389e-08,5.6211786e-05,0.19872718
86376058,2.9998348,0.080893114,3.0491047,-2.798267,-1.4358126,1.9277323,2.7215,0.026506841,0.0014511347,0.018665433,0.119951785,0.052449107,-0.015396453,-0.04562276,-0.15214905,-0.012657344,-0.0027560592,0.76491666,0.036370456,9.2303026e-08,5.602504e-05,0.1986567
86569756,2.9969938,0.0831178,3.0482678,-2.781125,-1.4188371,1.936279,2.706272,0.08529568,0.055901527,0.15127635,0.24899524,0.12437618,0.03243223,-0.036478374,-0.21783692,0.09254384,0.070962876,0.76535285,0.036426436,9.093619e-08,5.5193395e-05,0.19816543
86778364,3.0013895,0.083120584,3.0532176,-2.776199,-1.4129156,1.9417249,2.7111843,-0.17313212,-0.17383546,-0.050780535,-0.07816005,-0.15706116,-0.29177272,-0.34911036,-0.4462564,-0.20022172,-0.25234026,0.7645996,0.036058396,8.8913396e-08,5.6087272e-05,0.19928578
86977039,3.007927,0.083174914,3.0598824,-2.7693665,-1.4058331,1.948182,2.7176013,0.029027343,0.06001985,0.11569452,-0.023445964,0.008118629,-0.23297831,-0.23343897,-0.16322951,-0.18077889,-0.22357383,0.76443046,0.03602462,8.9228635e-08,5.6376768e-05,0.19948843
87175727,3.0156329,0.08069722,3.0640855,-2.7840793,-1.4248325,1.9429876,2.7370167,-0.1799627,-0.14645398,-0.28950328,-0.38522673,-0.2266928,-0.38061807,-0.2895487,-0.05990897,-0.47701263,-0.43472165,0.76629066,0.03675481,9.1438515e-08,5.3825777e-05,0.1969006
87374390,3.015211,0.082750835,3.0661933,-2.7641358,-1.4036934,1.955575,2.7243147,0.2461561,0.29293036,0.00051033497,-0.110803425,0.16945666,-0.054696865,0.11517377,0.5076468,-0.2598214,-0.16012913,0.7662022,0.036436174,8.721439e-08,5.360896e-05,0.1973079
87573063,3.0136077,0.082435995,3.063521,-2.7675462,-1.410096,1.9531585,2.722012,0.06846005,0.13312602,-0.10071373,-0.30090368,-0.017616153,-0.28837904,-0.12992935,0.28428572,-0.44300216,-0.3801437,0.7679196,0.036991816,8.7349946e-08,5.12074e-05,0.19503734
87771738,3.0188725,0.07981546,3.0661275,-2.7839162,-1.4283993,1.9472345,2.740652,0.1327731,0.19476819,0.025252879,-0.18261856,0.05657965,-0.17696662,-0.04931411,0.30737177,-0.28477785,-0.2479582,0.76843226,0.037094504,8.64495e-08,5.044131e-05,0.19442266
87970414,3.0221179,0.08195832,3.0705318,-2.7624469,-1.4094521,1.9608759,2.729476,0.004646063,-0.002201438,-0.33866465,-0.21833354,-0.028169751,-0.28248337,-0.137622,0.092787236,-0.5410588,-0.3872081,0.7705341,0.03773915,8.5787235e-08,4.7526544e-05,0.19167915
88174055,3.0279026,0.081648074,3.0758512,-2.7581499,-1.4067053,1.966714,2.7349925,0.25684845,0.18318105,-0.30756104,0.12940931,0.26717466,-0.023499578,0.13453738,0.23756637,-0.4233461,-0.15855864,0.7714838,0.037916962,8.416985e-08,4.6143414e-05,0.19055301
88377698,3.0233696,0.08145574,3.070664,-2.7640262,-1.4145098,1.9616992,2.7301111,0.13938957,0.10059202,-0.24173278,0.011441588,0.13523382,-0.14748487,-0.026709512,0.09210645,-0.4227001,-0.24530484,0.7725646,0.038241543,8.3770914e-08,4.473198e-05,0.18914902
88576392,3.022785,0.08140901,3.0702703,-2.7644703,-1.414498,1.96162,2.7297533,0.13240182,0.20774323,0.24626064,-0.075246096,0.06821138,-0.13566163,-0.08928447,0.15988724,-0.0822634,-0.14517747,0.77232206,0.03809576,8.277317e-08,4.4963002e-05,0.18953705
88775047,3.0195787,0.078741506,3.0648348,-2.7872581,-1.4390494,1.9497644,2.7414494,-0.042635202,0.110017896,0.45785242,-0.26655018,-0.14146137,-0.30626744,-0.33346558,-0.03564835,0.009278096,-0.23953106,0.77188987,0.037833698,8.0549924e-08,4.5189456e-05,0.19023113
88978686,3.0138242,0.078448,3.0585508,-2.7945147,-1.4482567,1.944232,2.7355728,-0.2008239,-0.04441154,0.35373944,-0.40001357,-0.29721558,-0.13885954,-0.18540886,0.08807874,0.21610186,-0.05727333,0.7728156,0.038086005,7.930208e-08,4.372741e-05,0.18905455
89177361,2.9981177,0.078206375,3.0436769,-2.810339,-1.4628772,1.9324912,2.7212808,0.21032631,0.31841868,0.67279243,0.12999392,0.15296257,-0.19333744,-0.26113394,-0.13281679,0.11249699,-0.11177936,0.7718612,0.037276085,7.2402905e-08,4.4196866e-05,0.1908185
89376037,2.9911313,0.07810482,3.0372372,-2.8172643,-1.4688524,1.9274119,2.7150686,0.025882483,0.06713569,0.33292025,0.089953184,0.019352436,-0.24221867,-0.32688892,-0.3776077,-0.026080325,-0.1695959,0.7711786,0.036799435,6.917126e-08,4.467278e-05,0.19197729
89574710,2.9957893,0.080446966,3.044263,-2.7921846,-1.4427491,1.9430778,2.7062294,0.07804835,0.0744704,0.20320004,0.18299949,0.09658432,-0.033613116,-0.09483086,-0.20662014,0.06344734,0.008464783,0.7713026,0.03674358,6.79695e-08,4.4368215e-05,0.19190936
89773381,2.9954607,0.08047077,3.044082,-2.792407,-1.4425697,1.9426862,2.7058794,-0.061627746,-0.017831087,0.121411204,-0.09778774,-0.085271716,-0.18140373,-0.20685871,-0.1508436,-0.061758623,-0.1499322,0.7711078,0.036680683,6.794185e-08,4.4594726e-05,0.19216679
89972208,2.9938228,0.0803236,3.043804,-2.792759,-1.440061,1.9447885,2.70603,0.28918993,0.40774733,0.71471035,0.13999248,0.21657777,-0.3589282,-0.39584526,-0.1909667,-0.08789074,-0.29614097,0.7691539,0.03567426,6.276087e-08,4.640351e-05,0.19512543
90170735,2.9971573,0.08000291,3.046549,-2.7910123,-1.4406717,1.9490868,2.7093632,-0.14986801,0.0029934049,0.372086,-0.36171603,-0.24656057,-0.06154403,-0.09696075,0.1886726,0.2665185,0.010716692,0.77022904,0.035863496,6.077248e-08,4.4643468e-05,0.19386275
