timestamp,roll,pitch,yaw,thrust_body[0],thrust_body[1],thrust_body[2]
40411917,-0.318721,-0.177957,0.00102877,0.0,0.0,-0.0327273
40416901,-0.325268,-0.167485,0.00263004,0.0,0.0,-0.0327273
40431991,-0.306513,-0.167678,0.00257713,0.0,0.0,-0.0327273
40451944,-0.330078,-0.155352,0.00166675,0.0,0.0,-0.0242424
40476966,-0.319905,-0.158372,0.00156024,0.0,0.0,-0.0327273
40492033,-0.321867,-0.16878,0.00301961,0.0,0.0,-0.0339394
40512038,-0.327799,-0.1549,0.000622509,0.0,0.0,-0.0339394
40537047,-0.322128,-0.152837,0.00139198,0.0,0.0,-0.0327273
40557048,-0.314639,-0.167177,0.00268459,0.0,0.0,-0.0339394
40572088,-0.320469,-0.165886,0.00119818,0.0,0.0,-0.0327273
40592106,-0.319421,-0.154487,0.00167754,0.0,0.0,-0.0327273
40617134,-0.315053,-0.157846,0.00210461,0.0,0.0,-0.0339394
40632144,-0.322575,-0.174587,0.00262205,0.0,0.0,-0.0339394
40652157,-0.318996,-0.1611,0.00082437,0.0,0.0,-0.0327273
40677244,-0.320434,-0.155488,0.00110601,0.0,0.0,-0.0327273
40697216,-0.318263,-0.156527,0.00219641,0.0,0.0,-0.0327273
40712248,-0.327472,-0.168512,0.00241774,0.0,0.0,-0.0339394
40732245,-0.324854,-0.15725,0.000831193,0.0,0.0,-0.0327273
40757283,-0.329017,-0.156455,0.000885202,0.0,0.0,-0.0339394
40772300,-0.336231,-0.159339,0.00306123,0.0,0.0,-0.0339394
40792345,-0.340086,-0.163641,0.003535,0.0,0.0,-0.0327273
40812367,-0.341412,-0.1624,0.00217005,0.0,0.0,-0.0339394
40837432,-0.347563,-0.160174,0.00234067,0.0,0.0,-0.0339394
40852441,-0.355243,-0.14731,0.000676726,0.0,0.0,-0.0327273
40872429,-0.357824,-0.147912,0.00305657,0.0,0.0,-0.0339394
40897456,-0.360118,-0.147912,0.00317097,0.0,0.0,-0.0327273
40912563,-0.355157,-0.169123,0.00297965,0.0,0.0,-0.0339394
40932577,-0.355101,-0.170366,0.000330327,0.0,0.0,-0.0339394
40952566,-0.355569,-0.162117,-0.000433518,0.0,0.0,-0.0339394
40977543,-0.349584,-0.166229,-0.000640968,0.0,0.0,-0.0339394
40992559,-0.341854,-0.160557,0.00476227,0.0,0.0,-0.0339394
41012643,-0.3345,-0.175072,0.00475156,0.0,0.0,-0.0327273
41037619,-0.331023,-0.169958,0.00506626,0.0,0.0,-0.0339394
41052679,-0.335419,-0.169869,-0.000410762,0.0,0.0,-0.0339394
41072650,-0.334951,-0.153827,-0.00118596,0.0,0.0,-0.0339394
41092724,-0.332042,-0.144762,0.00160132,0.0,0.0,-0.0339394
41117689,-0.330166,-0.146479,0.000337467,0.0,0.0,-0.0339394
41132742,-0.321993,-0.166692,0.00475551,0.0,0.0,-0.0327273
41152723,-0.329224,-0.175842,0.00329595,0.0,0.0,-0.0339394
41172750,-0.331712,-0.176656,0.00125097,0.0,0.0,-0.0339394
41192756,-0.32691,-0.166909,-4.35725e-05,0.0,0.0,-0.0327273
41212791,-0.32781,-0.1552,0.000295949,0.0,0.0,-0.0327273
41232801,-0.327637,-0.151639,0.00246199,0.0,0.0,-0.0327273
41257848,-0.332662,-0.15349,0.00133409,0.0,0.0,-0.0339394
41272868,-0.335913,-0.169416,0.00351848,0.0,0.0,-0.0339394
41292894,-0.342234,-0.173813,0.00375768,0.0,0.0,-0.0339394
41312894,-0.343526,-0.171127,0.00309633,0.0,0.0,-0.0327273
41332947,-0.337305,-0.168229,0.00140914,0.0,0.0,-0.0339394
41352985,-0.330433,-0.161749,-0.000394761,0.0,0.0,-0.0339394
41372966,-0.33024,-0.15405,-0.000442119,0.0,0.0,-0.0339394
41398056,-0.323249,-0.160294,-0.000952499,0.0,0.0,-0.0339394
41413022,-0.321935,-0.151498,0.00361472,0.0,0.0,-0.0339394
41433034,-0.315236,-0.163482,0.00486257,0.0,0.0,-0.0339394
41453057,-0.310197,-0.173563,0.00436063,0.0,0.0,-0.0412121
41473085,-0.309267,-0.175248,0.00227433,0.0,0.0,-0.0412121
41493106,-0.304634,-0.178091,-0.000357268,0.0,0.0,-0.0642424
41513119,-0.29972,-0.154941,-0.00172583,0.0,0.0,-0.160436
41538157,-0.297989,-0.164714,-0.00216928,0.0,0.0,-0.230691
41553159,-0.29875,-0.144163,0.0032781,0.0,0.0,-0.230691
41573198,-0.293821,-0.154629,0.00313017,0.0,0.0,-0.238836
41593203,-0.279654,-0.16163,0.00184063,0.0,0.0,-0.2368
41613280,-0.26556,-0.151619,0.00151047,0.0,0.0,-0.2368
41633291,-0.259799,-0.132828,0.000616547,0.0,0.0,-0.2368
41653293,-0.24248,-0.121507,0.000809277,0.0,0.0,-0.2368
41673366,-0.214306,-0.114068,-0.000591703,0.0,0.0,-0.238836
41693348,-0.188656,-0.0929297,-0.00224278,0.0,0.0,-0.238836
41713365,-0.175426,-0.0784688,-0.00157865,0.0,0.0,-0.2368
41733397,-0.157769,-0.0967536,-0.00099141,0.0,0.0,-0.235782
41753406,-0.133814,-0.0898733,-0.00173874,0.0,0.0,-0.235782
41773441,-0.0960941,-0.0809198,-0.00122521,0.0,0.0,-0.235782
41793533,-0.078132,-0.0925184,0.00198579,0.0,0.0,-0.235782
41813475,-0.0726412,-0.0839231,0.0019547,0.0,0.0,-0.235782
41833567,-0.06175,-0.0806438,0.00252839,0.0,0.0,-0.235782
41853520,-0.0479461,-0.0746329,0.000353938,0.0,0.0,-0.235782
41873580,-0.0383568,-0.0539898,-0.00204212,0.0,0.0,-0.235782
41893564,-0.0366583,-0.0459345,-0.00161004,0.0,0.0,-0.235782
41913604,-0.0490654,-0.0267424,-0.00344689,0.0,0.0,-0.235782
41933611,-0.061689,-0.0026976,-0.00384052,0.0,0.0,-0.235782
41953654,-0.0726077,0.0167433,-0.0062345,0.0,0.0,-0.235782
41973626,-0.0907784,0.0533976,-0.00939285,0.0,0.0,-0.235782
41993664,-0.098818,0.0746756,-0.0108095,0.0,0.0,-0.235782
42013670,-0.120934,0.0933887,-0.0134361,0.0,0.0,-0.235782
42033713,-0.13817,0.117515,-0.0164338,0.0,0.0,-0.235782
42053726,-0.123259,0.122111,-0.019472,0.0,0.0,-0.235782
42073756,-0.129249,0.126119,-0.0227509,0.0,0.0,-0.235782
42093762,-0.130318,0.122724,-0.0252654,0.0,0.0,-0.235782
42113799,-0.123949,0.111765,-0.024314,0.0,0.0,-0.235782
42133818,-0.118696,0.0789877,-0.0232551,0.0,0.0,-0.235782
42153864,-0.114843,0.0668426,-0.0233734,0.0,0.0,-0.235782
42173849,-0.0858558,0.0428402,-0.0195274,0.0,0.0,-0.232727
42193891,-0.0819267,0.012308,-0.0141182,0.0,0.0,-0.232727
42213894,-0.0727657,-0.00187092,-0.0106501,0.0,0.0,-0.232727
42233926,-0.049402,-0.0243575,-0.00704067,0.0,0.0,-0.232727
42253942,-0.0431423,-0.0389291,-0.00446024,0.0,0.0,-0.234764
42273977,-0.0221492,-0.0535349,-0.00356717,0.0,0.0,-0.234764
42293997,-0.01723,-0.0705028,-0.00196076,0.0,0.0,-0.234764
42314020,-0.0159957,-0.0743294,-0.00275175,0.0,0.0,-0.234764
42334077,0.00040425,-0.0927965,-0.00318186,0.0,0.0,-0.233745
42354067,-0.00469445,-0.0982802,-0.00496649,0.0,0.0,-0.233745
42374117,-0.00805772,-0.104222,-0.00630286,0.0,0.0,-0.233745
42394118,0.00036519,-0.109051,-0.00799363,0.0,0.0,-0.234764
42414125,0.000934413,-0.0895144,-0.011152,0.0,0.0,-0.233745
42434170,-0.00221206,-0.0877192,-0.0103734,0.0,0.0,-0.233745
42454206,0.000226589,-0.0785037,-0.0123034,0.0,0.0,-0.233745
42474199,-0.000377051,-0.0459832,-0.0137804,0.0,0.0,-0.233745
42494222,6.50914e-05,-0.03499,-0.0115672,0.0,0.0,-0.234764
42514244,0.00043721,-0.00233096,-0.013779,0.0,0.0,-0.234764
42534276,0.000787782,0.0396282,-0.0130919,0.0,0.0,-0.234764
42554295,-0.000652228,0.0619546,-0.0118185,0.0,0.0,-0.234764
42574376,-0.00238118,0.112044,-0.0137244,0.0,0.0,-0.235782
42594345,0.00634873,0.156584,-0.0131465,0.0,0.0,-0.235782
42614430,-0.00137831,0.181746,-0.0133173,0.0,0.0,-0.237818
42634419,-0.0173656,0.227021,-0.0151565,0.0,0.0,-0.237818
42654441,-0.0221632,0.251306,-0.0167189,0.0,0.0,-0.2368
42674483,-0.0233197,0.276272,-0.0186866,0.0,0.0,-0.237818
42694552,-0.0246568,0.292137,-0.0214335,0.0,0.0,-0.2368
42714532,-0.0381502,0.307309,-0.0229931,0.0,0.0,-0.2368
42734561,-0.028905,0.299663,-0.0243549,0.0,0.0,-0.237818
42754513,-0.0438972,0.30001,-0.0276124,0.0,0.0,-0.2368
42774545,-0.0476134,0.288015,-0.032027,0.0,0.0,-0.2368
42794561,-0.049446,0.269889,-0.0318253,0.0,0.0,-0.237818
42814585,-0.0275111,0.236256,-0.0331628,0.0,0.0,-0.2368
42834634,-0.0453035,0.207785,-0.0349186,0.0,0.0,-0.2368
42854630,-0.0482076,0.177419,-0.0375871,0.0,0.0,-0.237818
42874636,-0.0367884,0.155981,-0.0380235,0.0,0.0,-0.2368
42894661,-0.0326012,0.118386,-0.0367487,0.0,0.0,-0.237818
42914732,-0.0323989,0.10664,-0.0373044,0.0,0.0,-0.237818
42934712,-0.0246148,0.0873545,-0.0384155,0.0,0.0,-0.237818
42954718,-0.0231715,0.0679597,-0.0364641,0.0,0.0,-0.237818
42974756,-0.013196,0.0481591,-0.0375725,0.0,0.0,-0.241891
42994766,-0.0155489,0.0357264,-0.0374913,0.0,0.0,-0.245964
43014809,0.00915201,0.00111913,-0.0361209,0.0,0.0,-0.248
43034855,0.0012332,-0.0157609,-0.0372916,0.0,0.0,-0.248
43054839,0.00488613,-0.0259681,-0.0395908,0.0,0.0,-0.254109
43074907,0.0144928,-0.0418328,-0.0395693,0.0,0.0,-0.262255
43094899,0.0132819,-0.0458053,-0.0412775,0.0,0.0,-0.263273
43114905,0.0249943,-0.0485516,-0.0420927,0.0,0.0,-0.2704
43134936,0.0209458,-0.0471567,-0.0411779,0.0,0.0,-0.291782
43154964,0.0174086,-0.0491639,-0.0419394,0.0,0.0,-0.309091
43175017,0.0125475,-0.0491221,-0.0396737,0.0,0.0,-0.309091
43195054,0.00833836,-0.0468057,-0.0397213,0.0,0.0,-0.317236
43215022,-0.00382152,-0.0322795,-0.0382453,0.0,0.0,-0.319273
43235104,-0.0124368,-0.0291523,-0.0358506,0.0,0.0,-0.319273
43255072,-0.0336027,-0.00536747,-0.0343281,0.0,0.0,-0.330473
43275112,-0.0325154,0.0074969,-0.0325309,0.0,0.0,-0.341673
43295121,-0.0406989,0.0286678,-0.0312298,0.0,0.0,-0.347782
43315160,-0.0267707,0.0459795,-0.0309111,0.0,0.0,-0.347782
43335152,-0.0286432,0.0721521,-0.0294696,0.0,0.0,-0.349818
43355196,-0.0203218,0.104684,-0.0292184,0.0,0.0,-0.349818
43375186,-0.0139474,0.118732,-0.0274348,0.0,0.0,-0.349818
43395223,-0.0174651,0.151403,-0.0276541,0.0,0.0,-0.349818
43415232,-0.00469453,0.17319,-0.0260067,0.0,0.0,-0.349818
43430274,0.00108417,0.198762,-0.0275402,0.0,0.0,-0.349818
43455284,0.0212183,0.222978,-0.0279321,0.0,0.0,-0.351855
43475331,0.0267752,0.234042,-0.0305653,0.0,0.0,-0.351855
43495338,0.0413298,0.214301,-0.0292609,0.0,0.0,-0.351855
43515388,0.0420555,0.208408,-0.0311156,0.0,0.0,-0.352873
43535391,0.048551,0.203937,-0.0325464,0.0,0.0,-0.351855
43555422,0.0690264,0.187892,-0.0347928,0.0,0.0,-0.351855
43570549,0.0650121,0.178946,-0.0360654,0.0,0.0,-0.352873
43595453,0.0580016,0.144155,-0.0385983,0.0,0.0,-0.351855
43615479,0.0491299,0.111024,-0.0395697,0.0,0.0,-0.351855
43635514,0.0402857,0.0830386,-0.0436381,0.0,0.0,-0.352873
43655519,0.0320273,0.0616375,-0.0464157,0.0,0.0,-0.352873
43675561,0.0297371,0.0454404,-0.0489706,0.0,0.0,-0.351855
43695596,0.0269391,0.0325127,-0.049471,0.0,0.0,-0.351855
43710573,0.0214332,0.0327302,-0.0498407,0.0,0.0,-0.351855
43735593,-0.000652231,0.0422221,-0.0519747,0.0,0.0,-0.351855
43755623,-0.00380001,0.0555742,-0.0550356,0.0,0.0,-0.351855
43775632,-0.0167568,0.0633335,-0.0571713,0.0,0.0,-0.351855
43795681,-0.0131626,0.0765056,-0.0611097,0.0,0.0,-0.351855
43815721,-0.0265503,0.0946122,-0.0618589,0.0,0.0,-0.351855
43835709,-0.03368,0.11804,-0.0637864,0.0,0.0,-0.353891
43850750,-0.0229931,0.129266,-0.0644211,0.0,0.0,-0.353891
43875775,-0.00593779,0.147761,-0.0644013,0.0,0.0,-0.364073
43895783,-0.00825364,0.164461,-0.0645367,0.0,0.0,-0.367127
43915819,-0.012948,0.168018,-0.0625955,0.0,0.0,-0.375273
43930810,-0.0156041,0.173301,-0.0608887,0.0,0.0,-0.381382
43955878,-0.0374349,0.159362,-0.0592336,0.0,0.0,-0.387491
43975928,-0.0508,0.143229,-0.0579293,0.0,0.0,-0.389527
43990911,-0.06066,0.126225,-0.0579456,0.0,0.0,-0.395636
44015992,-0.0384861,0.100064,-0.0573915,0.0,0.0,-0.411927
44035948,-0.0554476,0.0805535,-0.0564604,0.0,0.0,-0.411927
44055958,-0.048851,0.0575744,-0.0563914,0.0,0.0,-0.421091
44070965,-0.0254779,0.0500384,-0.0560262,0.0,0.0,-0.420073
44096034,0.0160931,0.0463751,-0.0555619,0.0,0.0,-0.421091
44116025,0.061818,0.0624233,-0.0565429,0.0,0.0,-0.421091
44131043,0.0492839,0.0665962,-0.0539647,0.0,0.0,-0.421091
44156070,0.0393622,0.0988576,-0.0528567,0.0,0.0,-0.421091
44176094,0.0257354,0.109084,-0.0515878,0.0,0.0,-0.421091
44196101,0.0335274,0.128607,-0.051858,0.0,0.0,-0.420073
44211126,0.0241503,0.128631,-0.050037,0.0,0.0,-0.420073
44236145,0.0692646,0.138301,-0.0503699,0.0,0.0,-0.421091
44256182,0.0332434,0.151114,-0.0472498,0.0,0.0,-0.421091
44271189,0.00737664,0.162636,-0.0488383,0.0,0.0,-0.420073
44291216,-0.051484,0.169666,-0.0478103,0.0,0.0,-0.422109
44316238,-0.102728,0.163201,-0.0476338,0.0,0.0,-0.423127
44336279,-0.0915429,0.162481,-0.0501113,0.0,0.0,-0.422109
44351310,-0.127299,0.137924,-0.050946,0.0,0.0,-0.422109
44376343,-0.0904831,0.108473,-0.0513522,0.0,0.0,-0.423127
44396344,-0.0717821,0.0886577,-0.0519172,0.0,0.0,-0.422109
44411376,-0.0210401,0.0796207,-0.0555658,0.0,0.0,-0.424145
44431402,0.00659854,0.0552213,-0.0562835,0.0,0.0,-0.424145
44456480,0.0968624,0.0334535,-0.0572039,0.0,0.0,-0.424145
44476575,0.149572,0.0109288,-0.0553483,0.0,0.0,-0.424145
44491431,0.178215,0.00437507,-0.0531158,0.0,0.0,-0.424145
44516581,0.165077,-0.0279666,-0.0483218,0.0,0.0,-0.422109
44536501,0.149088,-0.0393444,-0.0480747,0.0,0.0,-0.422109
44551523,0.094971,-0.0296307,-0.0457048,0.0,0.0,-0.422109
44571523,0.0527065,-0.0294245,-0.0461346,0.0,0.0,-0.421091
44596571,0.0303694,-0.027091,-0.0491724,0.0,0.0,-0.413964
44616601,-0.0383273,-0.034365,-0.0471095,0.0,0.0,-0.398691
44631599,-0.0333869,-0.0472832,-0.0481586,0.0,0.0,-0.390545
44656653,-0.0568459,-0.0650827,-0.0486305,0.0,0.0,-0.387491
44676704,-0.0159248,-0.0675061,-0.0517814,0.0,0.0,-0.3824
44691699,-0.0232908,-0.0818656,-0.0523979,0.0,0.0,-0.380364
44711680,0.0435524,-0.0948759,-0.0560398,0.0,0.0,-0.372218
44736724,0.0662267,-0.111435,-0.0550349,0.0,0.0,-0.365091
44756753,0.109778,-0.120634,-0.0560732,0.0,0.0,-0.363055
44771744,0.146673,-0.127422,-0.0568727,0.0,0.0,-0.36
44791773,0.171377,-0.209805,-0.0595421,0.0,0.0,-0.352873
44816817,0.217318,-0.221137,-0.0622545,0.0,0.0,-0.352873
44831818,0.203381,-0.205332,-0.064039,0.0,0.0,-0.353891
44851883,0.189088,-0.206152,-0.0655906,0.0,0.0,-0.355927
44876896,0.115607,-0.201584,-0.06674,0.0,0.0,-0.355927
44896904,0.100535,-0.197039,-0.0686444,0.0,0.0,-0.358982
44911921,0.0512358,-0.244076,-0.0688241,0.0,0.0,-0.358982
44931945,0.0347844,-0.266947,-0.0693071,0.0,0.0,-0.362036
44956966,-0.0447924,-0.331018,-0.0692269,0.0,0.0,-0.361018
44972008,-0.0634962,-0.357246,-0.0716053,0.0,0.0,-0.361018
44991996,-0.121527,-0.548544,-0.0696546,0.0,0.0,-0.361018
45017034,-0.118162,-0.613634,-0.0723373,0.0,0.0,-0.361018
45037055,-0.107434,-0.779047,-0.0721793,0.0,0.0,-0.361018
45052079,-0.0948267,-0.785572,-0.070554,0.0,0.0,-0.361018
45072075,-0.0725182,-0.960106,-0.0694878,0.0,0.0,-0.361018
45097120,-0.0621241,-0.907366,-0.0642793,0.0,0.0,-0.361018
45112128,-0.0303884,-0.824967,-0.0636845,0.0,0.0,-0.361018
45132168,0.0269842,-0.815239,-0.0647287,0.0,0.0,-0.362036
45157193,0.120142,-0.663349,-0.0658614,0.0,0.0,-0.362036
45177216,0.122184,-0.536159,-0.0652442,0.0,0.0,-0.361018
45192234,0.158499,-0.444014,-0.0665031,0.0,0.0,-0.361018
45212289,0.133063,-0.307025,-0.0674296,0.0,0.0,-0.361018
45237303,0.149259,-0.176671,-0.0690122,0.0,0.0,-0.362036
45252330,0.11564,-0.129707,-0.0684895,0.0,0.0,-0.362036
45272324,0.0948798,-0.0855463,-0.0685754,0.0,0.0,-0.365091
45292348,0.0621743,-0.0590982,-0.0662766,0.0,0.0,-0.362036
45317382,-0.041618,-0.0424928,-0.0618911,0.0,0.0,-0.363055
45332433,-0.0667511,-0.0580722,-0.0621114,0.0,0.0,-0.363055
45352590,-0.0983392,-0.0289067,-0.0594412,0.0,0.0,-0.363055
45377461,-0.0626645,-0.0578483,-0.0570801,0.0,0.0,-0.362036
45392531,-0.0635207,-0.0392983,-0.0553342,0.0,0.0,-0.362036
45412487,-0.031014,-0.0499354,-0.0522582,0.0,0.0,-0.362036
45432511,-0.0246702,-0.0632061,-0.0506138,0.0,0.0,-0.362036
45457543,0.0389314,-0.0722452,-0.0481083,0.0,0.0,-0.362036
45472611,0.0598635,-0.0802569,-0.0442621,0.0,0.0,-0.362036
45492566,0.116075,-0.0681686,-0.0422211,0.0,0.0,-0.363055
45517658,0.117094,-0.0725605,-0.0373732,0.0,0.0,-0.363055
45532615,0.133454,-0.0873849,-0.0361682,0.0,0.0,-0.362036
45552709,0.0822586,-0.0781885,-0.0331507,0.0,0.0,-0.362036
45572654,0.0148887,-0.0736933,-0.0301554,0.0,0.0,-0.362036
45597686,-0.0349366,-0.0616272,-0.0284152,0.0,0.0,-0.362036
45612689,-0.106194,-0.0447797,-0.0266153,0.0,0.0,-0.363055
45632742,-0.169187,-0.0146126,-0.0240559,0.0,0.0,-0.362036
45657765,-0.275894,0.0308816,-0.0170967,0.0,0.0,-0.362036
45672804,-0.306023,0.0399649,-0.0143368,0.0,0.0,-0.362036
45692793,-0.348279,0.0566234,-0.0108807,0.0,0.0,-0.363055
45712811,-0.348475,0.0893346,-0.00793821,0.0,0.0,-0.362036
45737858,-0.296596,0.179381,-0.00615761,0.0,0.0,-0.363055
45752849,-0.264477,0.21189,-0.00485708,0.0,0.0,-0.362036
45772868,-0.231922,0.394662,-0.00370502,0.0,0.0,-0.362036
45792895,-0.210557,0.538137,-0.000693347,0.0,0.0,-0.362036
45812900,-0.185564,0.964422,-0.000878547,0.0,0.0,-0.362036
45832974,-0.123361,1.0352,0.00279718,0.0,0.0,-0.362036
45852943,-0.0609572,0.974109,0.00507679,0.0,0.0,-0.362036
45877999,-0.048522,0.84188,0.00774249,0.0,0.0,-0.362036
45893001,-0.0120626,0.739716,0.010958,0.0,0.0,-0.362036
45913090,-0.0130459,0.584441,0.0118971,0.0,0.0,-0.358982
45933030,-0.021865,0.413458,0.0147898,0.0,0.0,-0.365091
45953064,-0.000589737,0.233131,0.018814,0.0,0.0,-0.375273
45973076,0.0286596,0.0751084,0.0212023,0.0,0.0,-0.375273
45993110,0.0274624,-0.0593117,0.0206085,0.0,0.0,-0.379345
46018165,-0.0221491,-0.185394,0.0235738,0.0,0.0,-0.387491
46033154,-0.0230324,-0.213958,0.021839,0.0,0.0,-0.388509
46053172,-0.0106861,-0.242501,0.0222447,0.0,0.0,-0.394618
46073213,0.0287309,-0.237444,0.0212887,0.0,0.0,-0.400727
46093318,0.0630575,-0.200276,0.0191514,0.0,0.0,-0.400727
46113245,0.072309,-0.14581,0.0198842,0.0,0.0,-0.407855
46133313,0.0605475,-0.0904255,0.0191149,0.0,0.0,-0.407855
46153299,0.0433693,-0.0343458,0.0196446,0.0,0.0,-0.407855
46173380,0.0605111,0.00928419,0.0197805,0.0,0.0,-0.405818
46193349,0.0883661,0.0341501,0.0197595,0.0,0.0,-0.403782
46213373,0.0887562,0.0408664,0.0203901,0.0,0.0,-0.403782
46233398,0.0546712,0.0314168,0.0200812,0.0,0.0,-0.4048
46253494,0.00880684,0.00664461,0.0223625,0.0,0.0,-0.401745
46273463,-0.0326844,-0.0293642,0.0243994,0.0,0.0,-0.401745
46293511,-0.0417529,-0.0694475,0.0241391,0.0,0.0,-0.403782
46313478,-0.0165987,-0.0974591,0.0236273,0.0,0.0,-0.400727
46333515,0.0152253,-0.115838,0.0244929,0.0,0.0,-0.400727
46353553,0.0124759,-0.137829,0.0259297,0.0,0.0,-0.400727
46373577,0.00645648,-0.153957,0.0276641,0.0,0.0,-0.398691
46393566,-0.00786287,-0.165009,0.0291808,0.0,0.0,-0.398691
46413612,0.0050609,-0.173094,0.0307038,0.0,0.0,-0.403782
46433647,0.0157779,-0.172869,0.032023,0.0,0.0,-0.407855
46453643,0.00917424,-0.160589,0.032301,0.0,0.0,-0.417018
46473636,-0.0143837,-0.13513,0.0368846,0.0,0.0,-0.421091
46493683,-0.0369275,-0.101848,0.0371281,0.0,0.0,-0.421091
46513679,-0.0294482,-0.0741622,0.0359418,0.0,0.0,-0.432291
46533712,0.013996,-0.0523304,0.0371141,0.0,0.0,-0.433309
46553739,0.0701865,-0.0349611,0.0385066,0.0,0.0,-0.433309
46573757,0.101698,-0.0174778,0.0391435,0.0,0.0,-0.433309
46593769,0.0967662,-0.0103503,0.0394026,0.0,0.0,-0.433309
46613818,0.0810991,-0.0140856,0.041323,0.0,0.0,-0.432291
46633824,0.0865373,-0.0218727,0.0405998,0.0,0.0,-0.432291
46653857,0.0955647,-0.0320701,0.0390997,0.0,0.0,-0.432291
46673858,0.078871,-0.0357506,0.0380823,0.0,0.0,-0.432291
46693918,0.0347803,-0.02865,0.0392039,0.0,0.0,-0.432291
46713904,-0.0338807,-0.0171656,0.0378645,0.0,0.0,-0.432291
46733946,-0.0773894,-0.00891302,0.0366324,0.0,0.0,-0.433309
46753952,-0.0800668,-0.00374656,0.033881,0.0,0.0,-0.431273
46773993,-0.0446569,0.0103674,0.0316291,0.0,0.0,-0.430255
46793993,-0.00876553,0.0247133,0.0297418,0.0,0.0,-0.431273
46814025,0.00589527,0.0323668,0.0258719,0.0,0.0,-0.430255
46834037,0.0256366,0.0390467,0.0258189,0.0,0.0,-0.431273
46854083,0.0755233,0.0309225,0.0220694,0.0,0.0,-0.431273
46874142,0.136889,0.00863083,0.0178359,0.0,0.0,-0.431273
46894115,0.175813,-0.0176829,0.0165978,0.0,0.0,-0.431273
46914194,0.23641,-0.0323227,0.0175452,0.0,0.0,-0.431273
46934168,0.245723,-0.0348863,0.0153375,0.0,0.0,-0.430255
46954194,0.267605,-0.0402091,0.0149033,0.0,0.0,-0.430255
46974215,0.254231,-0.0506499,0.0150238,0.0,0.0,-0.431273
46994237,0.242471,-0.0598415,0.0137492,0.0,0.0,-0.431273
47014259,0.257878,-0.0582638,0.0134688,0.0,0.0,-0.431273
47034345,0.238378,-0.0674681,0.0135284,0.0,0.0,-0.430255
47054313,0.292067,-0.0802796,0.0145815,0.0,0.0,-0.431273
47074401,0.314474,-0.0800104,0.0138657,0.0,0.0,-0.431273
47094368,0.356965,-0.067851,0.00995172,0.0,0.0,-0.431273
47114397,0.384171,-0.0650471,0.00709299,0.0,0.0,-0.430255
47134431,0.345157,-0.0679538,0.00734598,0.0,0.0,-0.431273
47154486,0.248476,-0.0672493,0.0106635,0.0,0.0,-0.431273
47174552,0.187349,-0.062803,0.00983724,0.0,0.0,-0.431273
47194530,0.00666843,-0.0483987,0.00718195,0.0,0.0,-0.431273
47214481,-0.0987796,-0.0419979,0.00426416,0.0,0.0,-0.431273
47234533,-0.165564,-0.0426501,0.00524636,0.0,0.0,-0.431273
47254530,-0.255806,-0.0483739,0.00800234,0.0,0.0,-0.431273
47274581,-0.407829,-0.0434546,0.0110564,0.0,0.0,-0.431273
47294562,-0.522148,-0.0356061,0.0102016,0.0,0.0,-0.431273
47314634,-0.488158,-0.0365259,0.0100484,0.0,0.0,-0.431273
47334603,-0.383695,-0.0342587,0.00890786,0.0,0.0,-0.431273
47354629,-0.26704,-0.0295825,0.00917912,0.0,0.0,-0.431273
47374647,-0.164168,-0.0397145,0.00979741,0.0,0.0,-0.426182
47394691,-0.0840264,-0.0509328,0.00880064,0.0,0.0,-0.426182
47414697,-0.0165921,-0.0770824,0.0114385,0.0,0.0,-0.426182
47434718,0.0457341,-0.110076,0.0104594,0.0,0.0,-0.423127
47454731,0.0843606,-0.136843,0.0103877,0.0,0.0,-0.423127
47474767,0.0925251,-0.23762,0.0119134,0.0,0.0,-0.423127
47494780,0.0784078,-0.274717,0.0132039,0.0,0.0,-0.422109
47514812,0.0524916,-0.28859,0.0140235,0.0,0.0,-0.411927
47534832,0.0306096,-0.300306,0.0164811,0.0,0.0,-0.403782
47554871,0.0104431,-0.257871,0.0153977,0.0,0.0,-0.4048
47574916,-0.0161944,-0.201955,0.0166685,0.0,0.0,-0.4048
47594902,-0.058529,-0.135583,0.019102,0.0,0.0,-0.391564
47614933,-0.115504,-0.0789729,0.0222931,0.0,0.0,-0.385455
47634960,-0.162422,-0.0341259,0.0232003,0.0,0.0,-0.383418
47655058,-0.189597,0.0280213,0.0254144,0.0,0.0,-0.383418
47674991,-0.195501,0.0196024,0.0259477,0.0,0.0,-0.3824
47695053,-0.180921,0.0112427,0.0279998,0.0,0.0,-0.377309
47715036,-0.185053,-0.0133431,0.0280176,0.0,0.0,-0.366109
47735079,-0.201415,-0.0176684,0.0295865,0.0,0.0,-0.364073
47755106,-0.201408,-0.0371095,0.0323129,0.0,0.0,-0.364073
47775153,-0.178476,-0.0705883,0.0336259,0.0,0.0,-0.361018
47795132,-0.142976,-0.115002,0.0329762,0.0,0.0,-0.362036
47815210,-0.1135,-0.13413,0.0336379,0.0,0.0,-0.361018
47835180,-0.0843581,-0.158737,0.0356537,0.0,0.0,-0.361018
47855193,-0.07369,-0.157018,0.0374729,0.0,0.0,-0.361018
47875222,-0.064186,-0.133997,0.0397598,0.0,0.0,-0.363055
47895257,-0.0366144,-0.115197,0.0412723,0.0,0.0,-0.363055
47910278,-0.0322912,-0.107149,0.042288,0.0,0.0,-0.365091
47935293,0.0241786,-0.0637139,0.0425565,0.0,0.0,-0.365091
47955322,0.0209946,-0.027513,0.0443789,0.0,0.0,-0.365091
47975349,-0.00220766,-0.0231668,0.0477642,0.0,0.0,-0.365091
47995376,-0.0144635,0.0108532,0.0493176,0.0,0.0,-0.365091
48015390,-0.0226038,0.0465489,0.0480666,0.0,0.0,-0.366109
48035403,-0.0245913,0.0681564,0.0487391,0.0,0.0,-0.367127
48050495,-0.043859,0.0708016,0.0501536,0.0,0.0,-0.367127
48075455,-0.0552546,0.0859849,0.0524089,0.0,0.0,-0.366109
48095481,-0.0981637,0.0855354,0.0546869,0.0,0.0,-0.367127
48115488,-0.128701,0.0814964,0.0569866,0.0,0.0,-0.366109
48135526,-0.118472,0.0729062,0.0579346,0.0,0.0,-0.366109
48155526,-0.0753766,0.0788093,0.0592263,0.0,0.0,-0.367127
48175608,-0.0320849,0.0648595,0.0602701,0.0,0.0,-0.367127
48190605,-0.00642986,0.0473744,0.0615484,0.0,0.0,-0.367127
48215604,0.0217965,0.0531996,0.0635414,0.0,0.0,-0.367127
48235608,0.02009,0.0573076,0.0667769,0.0,0.0,-0.367127
48255699,0.0302678,0.0535055,0.067608,0.0,0.0,-0.367127
48275686,0.0582179,0.051874,0.0678507,0.0,0.0,-0.367127
48295684,0.0681725,0.0448366,0.0680926,0.0,0.0,-0.367127
48315697,0.0403775,0.0445188,0.0719638,0.0,0.0,-0.367127
48330721,0.00646235,0.0412328,0.0718087,0.0,0.0,-0.367127
48355808,-0.089881,0.0310262,0.0786497,0.0,0.0,-0.367127
48375775,-0.124049,0.0207906,0.081337,0.0,0.0,-0.366109
48395834,-0.120684,0.0296241,0.0834096,0.0,0.0,-0.366109
48415826,-0.112472,0.0240249,0.0836438,0.0,0.0,-0.366109
48435856,-0.134036,0.0250795,0.0865777,0.0,0.0,-0.367127
48455868,-0.173052,0.0157441,0.087308,0.0,0.0,-0.367127
48470899,-0.147153,0.0272929,0.0889255,0.0,0.0,-0.367127
48495930,-0.159436,0.00641789,0.0911451,0.0,0.0,-0.367127
48516021,-0.102243,0.00271928,0.09224,0.0,0.0,-0.367127
48535954,-0.055952,-0.000658681,0.0955396,0.0,0.0,-0.367127
48550979,-0.0324905,-0.0101917,0.0974545,0.0,0.0,-0.367127
48575999,-0.0400531,-0.00986655,0.105085,0.0,0.0,-0.367127
48596080,-0.0368702,-0.00526732,0.10709,0.0,0.0,-0.365091
48611083,-0.0381195,-0.00120796,0.107627,0.0,0.0,-0.364073
48636079,0.0130818,-0.0175411,0.108047,0.0,0.0,-0.363055
48656089,0.0309549,-0.083154,0.109545,0.0,0.0,-0.365091
48676121,0.026991,-0.0773353,0.111226,0.0,0.0,-0.366109
48691144,0.0687289,-0.158925,0.112309,0.0,0.0,-0.366109
48716159,0.0465554,-0.268883,0.11359,0.0,0.0,-0.366109
48736168,0.0787997,-0.300947,0.11388,0.0,0.0,-0.366109
48751214,0.0746026,-0.432744,0.112386,0.0,0.0,-0.366109
48771283,0.0988694,-0.416279,0.111436,0.0,0.0,-0.366109
48796256,0.106569,-0.479821,0.111591,0.0,0.0,-0.366109
48816259,0.0716035,-0.428357,0.110938,0.0,0.0,-0.366109
48831371,0.092174,-0.390231,0.111847,0.0,0.0,-0.366109
48856317,0.0902161,-0.323428,0.108419,0.0,0.0,-0.364073
48876393,0.111121,-0.268826,0.106915,0.0,0.0,-0.364073
48891398,0.0907049,-0.221499,0.106795,0.0,0.0,-0.364073
48911452,0.0945577,-0.154712,0.107391,0.0,0.0,-0.364073
48936457,0.0561937,-0.0938239,0.109148,0.0,0.0,-0.364073
48956549,0.0710804,-0.0607615,0.107833,0.0,0.0,-0.364073
48971459,0.0705133,-0.0416191,0.109092,0.0,0.0,-0.364073
48996492,0.151229,-0.0342931,0.10558,0.0,0.0,-0.364073
49016489,0.138129,-0.0314197,0.105646,0.0,0.0,-0.364073
49031528,0.156494,-0.0540495,0.105596,0.0,0.0,-0.364073
49051547,0.148626,-0.0563108,0.105723,0.0,0.0,-0.365091
49076569,0.145649,-0.0860617,0.101376,0.0,0.0,-0.364073
49096577,0.183567,-0.0608987,0.0982807,0.0,0.0,-0.365091
49111604,0.172498,-0.0531813,0.0945324,0.0,0.0,-0.364073
49136724,0.15823,0.00858916,0.0925162,0.0,0.0,-0.364073
49156649,0.134082,0.0264965,0.0875971,0.0,0.0,-0.365091
49171742,0.13493,0.0366284,0.0859026,0.0,0.0,-0.365091
49191682,0.120153,0.0761955,0.0801226,0.0,0.0,-0.365091
49216774,0.11919,0.0743463,0.0704346,0.0,0.0,-0.364073
49236738,0.0719771,0.233741,0.066773,0.0,0.0,-0.365091
49251763,0.0607524,0.338748,0.0591548,0.0,0.0,-0.364073
49271771,0.0220293,0.373852,0.0533823,0.0,0.0,-0.365091
49296856,0.0184879,0.413643,0.0416782,0.0,0.0,-0.364073
49311867,-0.00439895,0.380417,0.0390016,0.0,0.0,-0.364073
49331861,0.00873064,0.386734,0.0320014,0.0,0.0,-0.365091
49356890,0.00266817,0.319106,0.0236631,0.0,0.0,-0.363055
49376903,-0.0150994,0.364325,0.0195221,0.0,0.0,-0.363055
49391923,0.011934,0.372745,0.0150355,0.0,0.0,-0.363055
49411940,0.0088676,0.286426,0.00965529,0.0,0.0,-0.363055
49436950,0.0898864,0.185312,0.00173653,0.0,0.0,-0.363055
49451987,0.0934101,0.142206,-0.0014171,0.0,0.0,-0.363055
49472065,0.11142,0.0792943,-0.00902451,0.0,0.0,-0.361018
49497040,0.0604264,0.0111962,-0.0115733,0.0,0.0,-0.361018
49517036,0.0865479,-0.0216131,-0.0196061,0.0,0.0,-0.361018
49532083,0.0746562,-0.0467024,-0.0218554,0.0,0.0,-0.361018
49552095,0.119776,-0.0554926,-0.0307518,0.0,0.0,-0.358982
49577114,0.122398,-0.0419139,-0.0388689,0.0,0.0,-0.361018
49592153,0.128307,-0.0240021,-0.0463957,0.0,0.0,-0.364073
49612175,0.112097,-0.0158851,-0.0516018,0.0,0.0,-0.364073
49637174,0.134351,-0.00279476,-0.0631661,0.0,0.0,-0.376291
49657218,0.127934,0.00431388,-0.0697193,0.0,0.0,-0.380364
49672243,0.118838,0.0160694,-0.0754827,0.0,0.0,-0.380364
49692243,0.0729788,0.016746,-0.0830543,0.0,0.0,-0.3824
49717269,0.0221782,0.00515876,-0.0879679,0.0,0.0,-0.384436
49732291,0.0168789,-0.0163524,-0.0897063,0.0,0.0,-0.391564
49752339,0.0243999,-0.0283594,-0.0960691,0.0,0.0,-0.3936
49772350,0.0485497,-0.0524852,-0.099497,0.0,0.0,-0.3936
49797362,0.0409329,-0.0708173,-0.100672,0.0,0.0,-0.392582
49812497,0.0657386,-0.072613,-0.105474,0.0,0.0,-0.392582
49832474,0.0442214,-0.0749518,-0.106063,0.0,0.0,-0.392582
49857452,0.0895543,-0.0732555,-0.110979,0.0,0.0,-0.391564
49872546,0.0688395,-0.0647072,-0.110688,0.0,0.0,-0.391564
49892483,0.0951174,-0.0574272,-0.114558,0.0,0.0,-0.392582
49912512,0.0903578,-0.146189,-0.115376,0.0,0.0,-0.392582
49937532,0.0195912,-0.260055,-0.113667,0.0,0.0,-0.392582
49952561,0.0365981,-0.314625,-0.117191,0.0,0.0,-0.391564
49972567,0.0980819,-0.333474,-0.119071,0.0,0.0,-0.391564
49997624,0.171206,-0.287401,-0.121736,0.0,0.0,-0.391564
50012620,0.311115,-0.307979,-0.122903,0.0,0.0,-0.391564
50032648,0.42657,-0.311101,-0.123404,0.0,0.0,-0.391564
50052712,0.496132,-0.261565,-0.125337,0.0,0.0,-0.3936
50077750,0.457278,-0.172934,-0.129344,0.0,0.0,-0.3936
50092750,0.400402,-0.122936,-0.128662,0.0,0.0,-0.392582
50112731,0.355548,-0.0841931,-0.13324,0.0,0.0,-0.3936
50132799,0.322965,-0.0361588,-0.135092,0.0,0.0,-0.3936
50152776,0.225951,0.00296934,-0.135321,0.0,0.0,-0.392582
50172809,0.132317,0.0228682,-0.134916,0.0,0.0,-0.391564
50192836,0.0714331,0.0160555,-0.132425,0.0,0.0,-0.391564
50217851,0.0400494,0.0635409,-0.135529,0.0,0.0,-0.403782
50232869,0.0238523,0.0573586,-0.135015,0.0,0.0,-0.403782
50252972,0.0413744,0.0844238,-0.134286,0.0,0.0,-0.406836
50272921,0.0392755,0.103112,-0.130627,0.0,0.0,-0.406836
50292958,0.0155353,0.115111,-0.128538,0.0,0.0,-0.405818
50312982,-0.0434754,0.185035,-0.126747,0.0,0.0,-0.405818
50332999,-0.035871,0.19108,-0.123364,0.0,0.0,-0.405818
50358021,0.0188044,0.213268,-0.123244,0.0,0.0,-0.405818
50373026,0.0215817,0.2035,-0.122925,0.0,0.0,-0.405818
50393074,-0.00620526,0.201661,-0.122475,0.0,0.0,-0.406836
50413067,-0.0559407,0.181839,-0.121071,0.0,0.0,-0.406836
50433076,-0.0954293,0.142087,-0.116648,0.0,0.0,-0.406836
50453121,-0.0726556,0.0979958,-0.117404,0.0,0.0,-0.4048
50473132,-0.0373974,0.0690559,-0.119976,0.0,0.0,-0.401745
50498153,-0.0197331,0.0426116,-0.11815,0.0,0.0,-0.401745
50513173,0.0144104,0.0369843,-0.11775,0.0,0.0,-0.401745
50533202,0.0616741,0.0368681,-0.117314,0.0,0.0,-0.401745
50553209,0.0647528,0.0684366,-0.117923,0.0,0.0,-0.401745
50573257,0.111256,0.0896508,-0.118559,0.0,0.0,-0.401745
50593255,0.274219,0.105667,-0.1221,0.0,0.0,-0.401745
50613302,0.409138,0.109964,-0.12373,0.0,0.0,-0.401745
50633310,0.522673,0.108283,-0.123928,0.0,0.0,-0.401745
50653355,0.547066,0.142509,-0.127758,0.0,0.0,-0.401745
50673354,0.513342,0.153192,-0.132783,0.0,0.0,-0.401745
50693396,0.493775,0.141889,-0.135995,0.0,0.0,-0.401745
50713408,0.478428,0.158849,-0.137732,0.0,0.0,-0.401745
50733466,0.411206,0.132912,-0.140033,0.0,0.0,-0.401745
50753467,0.334437,0.0850882,-0.139699,0.0,0.0,-0.401745
50773478,0.225889,0.0400379,-0.139801,0.0,0.0,-0.401745
50793488,0.101855,0.000315829,-0.140216,0.0,0.0,-0.400727
50813524,-0.0044666,-0.0139678,-0.138915,0.0,0.0,-0.400727
50833589,-0.0676404,-0.0428685,-0.138144,0.0,0.0,-0.401745
50853579,-0.140157,-0.0377122,-0.137844,0.0,0.0,-0.400727
50873633,-0.26404,-0.0207792,-0.136244,0.0,0.0,-0.401745
50893618,-0.333482,-0.00404294,-0.135211,0.0,0.0,-0.401745
50913640,-0.363706,0.0313068,-0.135757,0.0,0.0,-0.401745
50933649,-0.364424,0.0780419,-0.133576,0.0,0.0,-0.399709
50953685,-0.315849,0.094034,-0.132521,0.0,0.0,-0.399709
50973694,-0.269817,0.101095,-0.131235,0.0,0.0,-0.399709
50993755,-0.225196,0.0824788,-0.126191,0.0,0.0,-0.399709
51013742,-0.165975,0.0776866,-0.122173,0.0,0.0,-0.399709
51033815,-0.0863752,0.0727241,-0.123107,0.0,0.0,-0.399709
51053798,-0.0116157,0.0550817,-0.123426,0.0,0.0,-0.399709
51073834,0.0298331,0.0277383,-0.119107,0.0,0.0,-0.399709
51093830,0.0318788,0.00560235,-0.11733,0.0,0.0,-0.400727
51113892,0.00254079,-0.0127419,-0.114316,0.0,0.0,-0.400727
51133878,-0.072323,-0.0163065,-0.115339,0.0,0.0,-0.400727
51153908,-0.187543,-0.0517982,-0.112356,0.0,0.0,-0.399709
51173916,-0.463682,-0.0632099,-0.107923,0.0,0.0,-0.399709
51193936,-0.528135,-0.0452025,-0.106557,0.0,0.0,-0.399709
51213949,-0.534384,-0.00924081,-0.103179,0.0,0.0,-0.400727
51233995,-0.513065,0.0356436,-0.101177,0.0,0.0,-0.399709
51254004,-0.453923,0.0076291,-0.100251,0.0,0.0,-0.400727
51274026,-0.351561,-0.0230821,-0.0997686,0.0,0.0,-0.399709
51294046,-0.261836,-0.0376682,-0.0972811,0.0,0.0,-0.400727
51314074,-0.213794,-0.0478306,-0.0946356,0.0,0.0,-0.400727
51334080,-0.16609,-0.0498835,-0.091503,0.0,0.0,-0.400727
51354157,-0.0813252,-0.056023,-0.0887917,0.0,0.0,-0.400727
51374125,0.0240685,-0.0535775,-0.0903524,0.0,0.0,-0.399709
51394165,0.105693,-0.0591891,-0.0918621,0.0,0.0,-0.399709
51414172,0.142023,-0.035156,-0.0917569,0.0,0.0,-0.400727
51434215,0.119084,-0.017365,-0.0905879,0.0,0.0,-0.399709
51454217,0.0767149,-0.021444,-0.0866213,0.0,0.0,-0.399709
51474255,0.0350534,0.00287339,-0.0848519,0.0,0.0,-0.399709
51494273,-0.00438263,-0.0227042,-0.08499,0.0,0.0,-0.399709
51514308,-0.0431752,-0.0253394,-0.0830975,0.0,0.0,-0.400727
51534368,-0.0914482,-0.0214516,-0.0807038,0.0,0.0,-0.399709
51554354,-0.15152,0.00624616,-0.0789993,0.0,0.0,-0.399709
51574422,-0.190935,0.0528546,-0.0763792,0.0,0.0,-0.400727
51594493,-0.170401,0.0430959,-0.0764297,0.0,0.0,-0.406836
51614530,-0.104925,0.0443881,-0.0774975,0.0,0.0,-0.406836
51634509,-0.0456781,0.0336046,-0.0764415,0.0,0.0,-0.406836
51654494,-0.0322115,0.0307967,-0.0730538,0.0,0.0,-0.406836
51674500,-0.0240575,0.0342033,-0.0715047,0.0,0.0,-0.406836
51694563,0.0060705,0.0174998,-0.0689342,0.0,0.0,-0.406836
51714530,0.0623332,-0.00936397,-0.0691072,0.0,0.0,-0.419055
51734553,0.119228,-0.017831,-0.0712932,0.0,0.0,-0.424145
51754591,0.140292,-0.00160222,-0.070878,0.0,0.0,-0.424145
51774656,0.115377,0.0201849,-0.0692771,0.0,0.0,-0.4272
51794617,0.0850098,0.027046,-0.0686977,0.0,0.0,-0.429236
51814691,0.0793965,0.0551074,-0.066603,0.0,0.0,-0.430255
51834665,0.108278,0.0476093,-0.0688275,0.0,0.0,-0.430255
51854694,0.125483,0.0603375,-0.0711322,0.0,0.0,-0.428218
51874710,0.0900989,0.0484681,-0.0698328,0.0,0.0,-0.428218
51894760,0.0354967,0.0361177,-0.0683075,0.0,0.0,-0.416
51914747,-0.0120664,0.0241511,-0.06927,0.0,0.0,-0.416
51934779,-0.0453458,-0.00671612,-0.0721343,0.0,0.0,-0.421091
51954831,-0.0591317,-0.0124934,-0.0737907,0.0,0.0,-0.421091
51974833,-0.151119,-0.0230829,-0.0735302,0.0,0.0,-0.422109
51994835,-0.256123,-0.0472863,-0.0734089,0.0,0.0,-0.421091
52014868,-0.356052,-0.0509255,-0.0695568,0.0,0.0,-0.421091
52034870,-0.410375,-0.0238461,-0.0675556,0.0,0.0,-0.421091
52054915,-0.400512,0.00886635,-0.0701353,0.0,0.0,-0.421091
52074912,-0.381158,0.0804091,-0.0731814,0.0,0.0,-0.422109
52094950,-0.394463,0.156519,-0.0716484,0.0,0.0,-0.422109
52114974,-0.387289,0.198851,-0.070128,0.0,0.0,-0.422109
52135004,-0.399458,0.205175,-0.0709084,0.0,0.0,-0.422109
52155002,-0.3785,0.2063,-0.0704768,0.0,0.0,-0.421091
52175048,-0.314265,0.196462,-0.0702845,0.0,0.0,-0.421091
52195046,-0.294038,0.182702,-0.0674877,0.0,0.0,-0.421091
52215146,-0.291714,0.15059,-0.0664035,0.0,0.0,-0.422109
52235091,-0.306571,0.0915992,-0.0619858,0.0,0.0,-0.421091
52255137,-0.290847,0.0501786,-0.0580729,0.0,0.0,-0.421091
52275136,-0.275102,0.0181567,-0.0585072,0.0,0.0,-0.421091
52295173,-0.249078,0.00122364,-0.0575838,0.0,0.0,-0.421091
52315241,-0.206206,-0.00231613,-0.055383,0.0,0.0,-0.422109
52335244,-0.204388,-0.033213,-0.0543094,0.0,0.0,-0.421091
52355283,-0.182394,-0.0718448,-0.0512385,0.0,0.0,-0.421091
52375283,-0.138664,-0.0625214,-0.0495465,0.0,0.0,-0.422109
52390286,-0.114502,-0.0433366,-0.0512022,0.0,0.0,-0.421091
52415330,-0.0632429,0.00816486,-0.0478598,0.0,0.0,-0.422109
52435346,0.0210403,0.0465411,-0.0466688,0.0,0.0,-0.421091
52455366,0.0599158,0.0481637,-0.0462229,0.0,0.0,-0.423127
52475486,0.112259,0.0395959,-0.0416576,0.0,0.0,-0.432291
52495411,0.192794,0.0542333,-0.0360188,0.0,0.0,-0.432291
52515487,0.310739,0.0590121,-0.137425,0.0,0.0,-0.432291
52530584,0.340003,0.0674976,-0.164535,0.0,0.0,-0.432291
52555480,0.403435,0.0654434,-0.175238,0.0,0.0,-0.431273
52575495,0.41367,0.064109,-0.207519,0.0,0.0,-0.432291
52595550,0.372836,0.0362945,-0.249926,0.0,0.0,-0.431273
52615552,0.306205,0.0114244,-0.253861,0.0,0.0,-0.431273
52635572,0.259144,0.000107091,-0.310453,0.0,0.0,-0.432291
52655591,0.237204,0.00271379,-0.516695,0.0,0.0,-0.432291
52670606,0.153863,0.0645592,-0.527205,0.0,0.0,-0.432291
52695619,0.140102,0.0663546,-0.549113,0.0,0.0,-0.432291
52715646,0.062844,0.0582103,-0.566871,0.0,0.0,-0.432291
52735645,-0.0116443,0.0457361,-0.580245,0.0,0.0,-0.432291
52755691,-0.0599164,0.0347611,-0.59013,0.0,0.0,-0.430255
52775689,-0.0710801,0.0268251,-0.606213,0.0,0.0,-0.430255
52795728,-0.0591217,0.0212002,-0.590235,0.0,0.0,-0.429236
52810734,-0.0755613,0.0181923,-0.586173,0.0,0.0,-0.430255
52835767,-0.0360692,0.0168364,-0.588949,0.0,0.0,-0.430255
52855780,-0.0640396,0.0287565,-0.590943,0.0,0.0,-0.430255
52875815,-0.0570386,0.0421269,-0.619738,0.0,0.0,-0.429236
52890827,-0.0270267,0.0545766,-0.617265,0.0,0.0,-0.430255
52915884,0.0540256,0.0554466,-0.622817,0.0,0.0,-0.430255
52935870,0.0814596,0.0641444,-0.560073,0.0,0.0,-0.430255
52950891,0.0841859,0.0691312,-0.489108,0.0,0.0,-0.429236
52975928,0.051704,0.0649078,-0.400296,0.0,0.0,-0.430255
52995950,0.0400879,0.0558336,-0.406063,0.0,0.0,-0.430255
53015962,0.0573401,0.0541954,-0.414214,0.0,0.0,-0.430255
53030972,0.0296698,0.0433344,-0.365512,0.0,0.0,-0.431273
53056004,0.0611591,0.036976,-0.312043,0.0,0.0,-0.431273
53076039,0.0107141,0.0267832,-0.13434,0.0,0.0,-0.430255
53091050,0.020358,0.0187878,-0.120955,0.0,0.0,-0.430255
53116099,-0.0575063,0.0135964,-0.0999676,0.0,0.0,-0.431273
53136147,-0.0339879,0.021801,-0.0873884,0.0,0.0,-0.431273
53156140,-0.0142671,-0.0236326,-0.0747658,0.0,0.0,-0.430255
53171161,-0.0478973,-0.107255,-0.0655203,0.0,0.0,-0.428218
53196179,-0.0139985,-0.145549,-0.0513439,0.0,0.0,-0.425164
53216202,0.0054726,-0.181882,-0.0401833,0.0,0.0,-0.424145
53231220,0.0502397,-0.294957,-0.0343683,0.0,0.0,-0.422109
53251237,0.0891076,-0.30689,-0.02694,0.0,0.0,-0.421091
53276278,0.217029,-0.320596,0.0273844,0.0,0.0,-0.414982
53296347,0.25581,-0.29791,0.122457,0.0,0.0,-0.406836
53311374,0.286468,-0.285156,0.109407,0.0,0.0,-0.4048
53336427,0.245291,-0.240273,0.0913775,0.0,0.0,-0.4048
53356511,0.246548,-0.205354,0.0122286,0.0,0.0,-0.4048
53371407,0.238437,-0.160236,0.0133888,0.0,0.0,-0.4048
53391460,0.227916,-0.102656,0.0140308,0.0,0.0,-0.4048
53416449,0.225898,-0.0589113,0.0178458,0.0,0.0,-0.4048
53436459,0.173879,-0.0387544,0.0242748,0.0,0.0,-0.405818
53451466,0.180214,-0.0448489,0.0254957,0.0,0.0,-0.4048
53476505,0.102316,-0.0258632,0.0305403,0.0,0.0,-0.4048
53496524,0.0935432,-0.0111298,0.0346226,0.0,0.0,-0.4048
53511551,0.0235543,0.013182,0.0357185,0.0,0.0,-0.4048
53531573,-0.00180739,0.00459498,0.0378719,0.0,0.0,-0.4048
53556578,-0.101654,0.00680782,0.0403525,0.0,0.0,-0.405818
53576610,-0.164367,-0.0248027,0.0411248,0.0,0.0,-0.4048
53591631,-0.201454,-0.0584006,0.0448724,0.0,0.0,-0.4048
53616670,-0.193729,-0.0774983,0.0416528,0.0,0.0,-0.403782
53636659,-0.2053,-0.0735593,0.0403245,0.0,0.0,-0.402764
53651760,-0.196371,-0.0790147,0.0400284,0.0,0.0,-0.402764
53671720,-0.19085,-0.0854535,0.040734,0.0,0.0,-0.402764
53696739,-0.229306,-0.0771235,0.0388821,0.0,0.0,-0.403782
53716752,-0.169071,-0.0608448,0.0363359,0.0,0.0,-0.403782
53731831,-0.173817,-0.0123138,0.0321669,0.0,0.0,-0.402764
53751807,-0.151326,0.0315404,0.0320756,0.0,0.0,-0.402764
53776844,-0.191475,0.0749365,0.0308182,0.0,0.0,-0.403782
53791837,-0.197428,0.0814924,0.02939,0.0,0.0,-0.400727
53811849,-0.232584,0.120978,0.0287843,0.0,0.0,-0.401745
53836896,-0.191175,0.121928,0.0256823,0.0,0.0,-0.400727
53856922,-0.178968,0.149178,0.0238564,0.0,0.0,-0.401745
53871948,-0.136792,0.116083,0.0228297,0.0,0.0,-0.400727
53891937,-0.0991976,0.0878267,0.0232895,0.0,0.0,-0.400727
53917023,-0.0952928,0.0531267,0.0232619,0.0,0.0,-0.380364
53931983,-0.070581,0.0287206,0.0228629,0.0,0.0,-0.380364
53952017,-0.0475804,0.0311137,0.0222886,0.0,0.0,-0.373236
53977065,-0.0194252,0.0252304,0.020838,0.0,0.0,-0.373236
53997113,-0.0695191,0.00869879,0.0238875,0.0,0.0,-0.373236
54012084,-0.0698061,-0.00329751,0.0253638,0.0,0.0,-0.372218
54032107,-0.135615,-0.00843142,0.0278943,0.0,0.0,-0.373236
54057151,-0.144328,-0.0130336,0.028831,0.0,0.0,-0.374255
54072163,-0.196045,-0.00184912,0.0324555,0.0,0.0,-0.374255
54092208,-0.173465,0.00829427,0.0328944,0.0,0.0,-0.378327
54117237,-0.198393,0.00835863,0.0351681,0.0,0.0,-0.377309
54137235,-0.159825,0.0304839,0.0378306,0.0,0.0,-0.377309
54152258,-0.094493,0.0447305,0.038262,0.0,0.0,-0.377309
54172340,-0.0103362,0.0654529,0.0395238,0.0,0.0,-0.377309
54197307,0.153741,0.0755778,0.0398154,0.0,0.0,-0.377309
54212397,0.199177,0.0912202,0.0410001,0.0,0.0,-0.377309
54232413,0.283152,0.0834246,0.0402403,0.0,0.0,-0.377309
54252489,0.322822,0.0748702,0.0412126,0.0,0.0,-0.378327
54277422,0.359134,0.0503754,0.042434,0.0,0.0,-0.377309
54292426,0.337851,0.0803234,0.0420386,0.0,0.0,-0.378327
54312441,0.35498,0.0615779,0.0433473,0.0,0.0,-0.378327
54337464,0.28057,0.0724849,0.0447026,0.0,0.0,-0.377309
54352502,0.258797,0.050632,0.0438053,0.0,0.0,-0.377309
54372511,0.166924,0.0412114,0.0438853,0.0,0.0,-0.377309
54392507,0.0934793,0.0196512,0.044509,0.0,0.0,-0.378327
54417548,0.0499415,-0.00530805,0.0405512,0.0,0.0,-0.378327
54432569,0.0248661,-0.0366274,0.0397025,0.0,0.0,-0.377309
54452586,0.00221206,-0.062113,0.0389279,0.0,0.0,-0.378327
54477665,-0.0572245,-0.0740282,0.039065,0.0,0.0,-0.378327
54492622,-0.0638382,-0.0761026,0.0376954,0.0,0.0,-0.377309
54512684,-0.0854955,-0.0685117,0.037036,0.0,0.0,-0.377309
54532667,-0.0792831,-0.0484304,0.0356833,0.0,0.0,-0.377309
54557768,-0.0756621,-0.0119851,0.0335147,0.0,0.0,-0.377309
54572713,-0.0746946,0.0145911,0.0328662,0.0,0.0,-0.378327
54592726,-0.11228,0.0201787,0.031413,0.0,0.0,-0.377309
54617815,-0.178086,0.0140646,0.0286912,0.0,0.0,-0.377309
54632776,-0.189862,-0.00192164,0.0259019,0.0,0.0,-0.377309
54652806,-0.223516,0.00367397,0.0208136,0.0,0.0,-0.378327
54672825,-0.242246,0.0113437,0.0178706,0.0,0.0,-0.377309
54697936,-0.314797,0.0754727,0.0130629,0.0,0.0,-0.378327
54712864,-0.326602,0.0585045,0.0114499,0.0,0.0,-0.378327
54732904,-0.371271,0.0729788,0.0078395,0.0,0.0,-0.377309
54752949,-0.379556,0.131967,0.00329013,0.0,0.0,-0.377309
54772943,-0.180604,0.156875,-0.00404987,0.0,0.0,-0.378327
54792998,-0.0642909,0.152759,-0.00716177,0.0,0.0,-0.377309
54812986,0.0269134,0.124857,-0.0126854,0.0,0.0,-0.378327
54838031,0.0709487,0.0872872,-0.0186836,0.0,0.0,-0.377309
54853034,0.144909,0.0685362,-0.0210173,0.0,0.0,-0.377309
54873145,0.173382,0.0408922,-0.0256578,0.0,0.0,-0.377309
54893072,0.269571,0.0199179,-0.0303183,0.0,0.0,-0.377309
54913145,0.297291,0.0174962,-0.0333057,0.0,0.0,-0.377309
54933117,0.305086,0.00348517,-0.0367999,0.0,0.0,-0.378327
54953151,0.261848,0.00143267,-0.0384118,0.0,0.0,-0.377309
54978187,0.162824,0.0116261,-0.0392707,0.0,0.0,-0.377309
54993184,0.111264,0.0195097,-0.0409828,0.0,0.0,-0.377309
55013216,0.0626715,0.029104,-0.0389808,0.0,0.0,-0.377309
55033234,0.0278742,0.028901,-0.0414876,0.0,0.0,-0.377309
55053273,-0.0360823,0.0329598,-0.043836,0.0,0.0,-0.378327
55073286,-0.158931,0.0421892,-0.0456968,0.0,0.0,-0.378327
55093303,-0.335492,0.0385262,-0.0481791,0.0,0.0,-0.377309
55113337,-0.45149,0.0296356,-0.0457457,0.0,0.0,-0.377309
55133373,-0.49509,0.021914,-0.0488946,0.0,0.0,-0.377309
55153387,-0.458326,-0.00306594,-0.0488871,0.0,0.0,-0.377309
55173422,-0.405428,-0.00669447,-0.0489846,0.0,0.0,-0.377309
55193427,-0.341463,-0.0237201,-0.0471545,0.0,0.0,-0.377309
55213508,-0.279264,-0.042221,-0.0430438,0.0,0.0,-0.377309
55233478,-0.206639,-0.0531137,-0.0408263,0.0,0.0,-0.378327
55253501,-0.162862,-0.0531624,-0.0387714,0.0,0.0,-0.377309
55273521,-0.185067,-0.0666207,-0.0373547,0.0,0.0,-0.377309
55293525,-0.18225,-0.0665537,-0.0347969,0.0,0.0,-0.378327
55313549,-0.28693,-0.0599421,-0.0302707,0.0,0.0,-0.378327
55333576,-0.320087,-0.0533698,-0.0251937,0.0,0.0,-0.377309
55353603,-0.331817,-0.0472437,-0.020539,0.0,0.0,-0.378327
55373615,-0.309682,-0.0414362,-0.022486,0.0,0.0,-0.377309
55393643,-0.274648,-0.0215866,-0.0229201,0.0,0.0,-0.377309
55413640,-0.246076,-0.00518368,-0.0221179,0.0,0.0,-0.378327
55433672,-0.226446,-0.00131332,-0.0217368,0.0,0.0,-0.377309
55453737,-0.198518,0.000344576,-0.0190835,0.0,0.0,-0.377309
55473766,-0.14484,0.00128598,-0.0180812,0.0,0.0,-0.377309
55493780,-0.0762549,0.000479358,-0.0205152,0.0,0.0,-0.378327
55513775,-0.00336131,-0.00871269,-0.0210201,0.0,0.0,-0.378327
55533784,0.0433323,-0.00803438,-0.0182418,0.0,0.0,-0.377309
55553807,0.0382127,-0.0115236,-0.0181336,0.0,0.0,-0.377309
55573873,0.017124,-0.0109952,-0.0163124,0.0,0.0,-0.378327
55593867,0.0338604,-0.0111788,-0.0134903,0.0,0.0,-0.377309
55613934,0.0591435,-0.0145674,-0.0141454,0.0,0.0,-0.377309
55633914,0.0659586,-0.00734834,-0.0133531,0.0,0.0,-0.378327
55653937,0.0342382,0.00642353,-0.0123191,0.0,0.0,-0.377309
55673944,-0.0144945,0.00756693,-0.00994692,0.0,0.0,-0.377309
55693995,-0.0374248,0.0143444,-0.00815154,0.0,0.0,-0.378327
55714005,-0.0365542,0.0272146,-0.0117596,0.0,0.0,-0.377309
55734088,-0.0431149,0.0381105,-0.0123813,0.0,0.0,-0.378327
55754042,-0.0562873,0.044534,-0.0105241,0.0,0.0,-0.378327
55774084,-0.085627,0.0419708,-0.0102093,0.0,0.0,-0.377309
55794077,-0.130784,0.0431696,-0.00833665,0.0,0.0,-0.375273
55814110,-0.141243,0.0430987,-0.0088566,0.0,0.0,-0.378327
55834112,-0.117922,0.037175,-0.00918464,0.0,0.0,-0.378327
55854145,-0.0866988,0.0434121,-0.0102777,0.0,0.0,-0.378327
55874160,-0.102212,0.0436592,-0.0086981,0.0,0.0,-0.378327
55894203,-0.116556,0.0360816,-0.00667123,0.0,0.0,-0.378327
55914216,-0.119592,0.0324125,-0.00489594,0.0,0.0,-0.378327
55934243,-0.086374,0.0381463,-0.00522646,0.0,0.0,-0.378327
55954249,-0.0359646,0.04237,-0.00589735,0.0,0.0,-0.378327
55974294,0.0383667,0.0558417,-0.0039456,0.0,0.0,-0.378327
55994328,0.0815063,0.0677898,-0.000815772,0.0,0.0,-0.378327
56014434,0.105677,0.0754785,0.00320464,0.0,0.0,-0.378327
56034406,0.147735,0.0763294,0.00693903,0.0,0.0,-0.378327
56054444,0.197563,0.0843235,0.00833691,0.0,0.0,-0.378327
56074393,0.236452,0.0833396,0.00872788,0.0,0.0,-0.378327
56094490,0.234958,0.0781697,0.0117214,0.0,0.0,-0.378327
56114437,0.198962,0.0746599,0.0136842,0.0,0.0,-0.377309
56134469,0.134275,0.0557582,0.0166197,0.0,0.0,-0.378327
56154493,0.0773942,0.0451743,0.0199515,0.0,0.0,-0.378327
56174591,0.0623111,0.0303734,0.0203993,0.0,0.0,-0.378327
56194524,0.0693139,0.0177489,0.020236,0.0,0.0,-0.378327
56214567,0.0728163,0.0222407,0.0241094,0.0,0.0,-0.378327
56234611,0.0418598,0.0324143,0.0256638,0.0,0.0,-0.378327
56254603,0.0146502,0.0369091,0.0278264,0.0,0.0,-0.377309
56274669,0.0327248,0.0398955,0.0313646,0.0,0.0,-0.377309
56294648,0.0529715,0.0423247,0.0327159,0.0,0.0,-0.378327
56314742,0.06156,-0.0532268,0.0335461,0.0,0.0,-0.378327
56334706,0.0519589,-0.0536933,0.0370809,0.0,0.0,-0.378327
56354717,0.0245112,-0.177981,0.0420953,0.0,0.0,-0.378327
56374739,-0.00318986,-0.227437,0.0454299,0.0,0.0,-0.377309
56394759,-0.0172587,-0.256966,0.0484575,0.0,0.0,-0.378327
56414778,-0.0100676,-0.276715,0.051827,0.0,0.0,-0.378327
56434844,0.000118556,-0.333536,0.0545677,0.0,0.0,-0.378327
56454836,-0.00925904,-0.339296,0.0614133,0.0,0.0,-0.378327
56474860,-0.0435269,-0.302496,0.0681634,0.0,0.0,-0.378327
56494868,-0.0630857,-0.260583,0.072915,0.0,0.0,-0.378327
56514956,-0.0673111,-0.19526,0.0773471,0.0,0.0,-0.378327
56534902,-0.0372364,-0.157292,0.0815609,0.0,0.0,-0.377309
56554934,-0.0231569,-0.0913005,0.0877418,0.0,0.0,-0.378327
56574951,-0.0370635,-0.0498432,0.0924117,0.0,0.0,-0.378327
56594997,-0.0683408,-0.00976147,0.0987339,0.0,0.0,-0.377309
56614992,-0.0881585,0.0218349,0.103085,0.0,0.0,-0.378327
56635024,-0.0759091,0.0205303,0.107106,0.0,0.0,-0.378327
56655036,-0.0458473,0.0157195,0.1109,0.0,0.0,-0.378327
56675085,-0.0277614,-0.0130655,0.116612,0.0,0.0,-0.378327
56695096,-0.0305798,-0.0312503,0.12136,0.0,0.0,-0.378327
56715115,-0.0339949,-0.0892712,0.124478,0.0,0.0,-0.378327
56735148,-0.0146515,-0.106142,0.129441,0.0,0.0,-0.378327
56755159,0.0190686,-0.115913,0.133262,0.0,0.0,-0.378327
56775216,0.0740009,-0.111688,0.135967,0.0,0.0,-0.378327
56795204,0.109955,-0.106233,0.138933,0.0,0.0,-0.378327
56815219,0.106412,-0.0803512,0.144281,0.0,0.0,-0.378327
56835257,0.0915876,-0.0663087,0.147771,0.0,0.0,-0.378327
56855285,0.0776249,-0.00885962,0.149316,0.0,0.0,-0.378327
56870396,0.0746155,0.00358903,0.151527,0.0,0.0,-0.378327
56895315,0.103518,0.033895,0.150669,0.0,0.0,-0.378327
56915351,0.0911951,0.0458772,0.151267,0.0,0.0,-0.378327
56935414,0.0479011,0.0512139,0.154179,0.0,0.0,-0.378327
56955422,-0.00740133,0.0613235,0.155653,0.0,0.0,-0.378327
56975421,-0.0413387,0.0515274,0.155693,0.0,0.0,-0.378327
56995441,-0.0446056,0.0764608,0.155614,0.0,0.0,-0.378327
57010475,-0.0732776,0.041612,0.156274,0.0,0.0,-0.378327
57035497,-0.0155057,0.017782,0.157158,0.0,0.0,-0.377309
57055574,0.0117185,0.0161995,0.161646,0.0,0.0,-0.378327
57075540,0.0305082,0.0905112,0.163131,0.0,0.0,-0.378327
57095627,0.0754958,0.128256,0.165125,0.0,0.0,-0.378327
57115577,0.144696,0.123102,0.167552,0.0,0.0,-0.378327
57135646,0.205475,0.215198,0.169073,0.0,0.0,-0.378327
57150617,0.231813,0.274201,0.171416,0.0,0.0,-0.378327
57175671,0.250885,0.339783,0.174539,0.0,0.0,-0.378327
57195659,0.234289,0.333779,0.174467,0.0,0.0,-0.377309
57215687,0.211538,0.317015,0.174357,0.0,0.0,-0.378327
57235687,0.200082,0.28909,0.173033,0.0,0.0,-0.378327
57255727,0.186364,0.242073,0.173355,0.0,0.0,-0.378327
57275729,0.152245,0.194608,0.174078,0.0,0.0,-0.378327
57290767,0.121506,0.166369,0.170893,0.0,0.0,-0.378327
57315774,0.0403513,0.117252,0.173732,0.0,0.0,-0.378327
57335817,-0.00306626,0.0816142,0.171635,0.0,0.0,-0.378327
57355826,-0.00949886,0.0473049,0.171144,0.0,0.0,-0.378327
57370855,-0.0350378,0.0487334,0.17317,0.0,0.0,-0.378327
57395914,0.0248541,0.0398415,0.172007,0.0,0.0,-0.376291
57415897,0.0204012,0.0469959,0.174278,0.0,0.0,-0.375273
57430969,0.0731346,0.0423025,0.174803,0.0,0.0,-0.375273
57455955,0.0704802,0.0547599,0.179082,0.0,0.0,-0.373236
57476013,0.123498,0.0621428,0.179396,0.0,0.0,-0.372218
57495987,0.175975,0.0654953,0.180506,0.0,0.0,-0.370182
57511022,0.169451,0.0687841,0.182933,0.0,0.0,-0.370182
57536032,0.172324,0.0813426,0.188392,0.0,0.0,-0.3824
57556047,0.163624,0.08724,0.190984,0.0,0.0,-0.387491
57571066,0.160802,0.0895374,0.193092,0.0,0.0,-0.387491
57596100,0.200313,0.080926,0.195275,0.0,0.0,-0.391564
57616122,0.206124,0.0792105,0.198909,0.0,0.0,-0.3936
57636179,0.176119,0.0686967,0.20281,0.0,0.0,-0.390545
57651164,0.190575,0.0535949,0.20559,0.0,0.0,-0.394618
57676188,0.0754072,0.0498549,0.210491,0.0,0.0,-0.394618
57696214,0.0482178,0.0287952,0.213037,0.0,0.0,-0.394618
57711238,0.00216924,0.0277755,0.21552,0.0,0.0,-0.403782
57731248,-0.0203631,0.0140498,0.215638,0.0,0.0,-0.403782
57756330,-0.0545565,-0.0229099,0.217918,0.0,0.0,-0.396655
57776348,-0.0878568,-0.0375481,0.221089,0.0,0.0,-0.397673
57791350,-0.0632463,-0.056323,0.220918,0.0,0.0,-0.397673
57816430,-0.049395,-0.0590041,0.221244,0.0,0.0,-0.395636
57836472,-0.010353,-0.0625294,0.220731,0.0,0.0,-0.395636
57851423,0.0176441,-0.0600237,0.22161,0.0,0.0,-0.395636
57871479,0.0593278,-0.0389896,0.219644,0.0,0.0,-0.395636
57896454,0.0402566,-0.0186139,0.22269,0.0,0.0,-0.3936
57916491,0.0802161,-0.0129382,0.222319,0.0,0.0,-0.3936
57931555,0.0946973,-0.0101664,0.221323,0.0,0.0,-0.3936
57956536,0.364031,-0.0101087,0.21961,0.0,0.0,-0.3936
57976535,0.475051,-0.0122486,0.216884,0.0,0.0,-0.394618
57991590,0.488332,-0.0159645,0.214923,0.0,0.0,-0.394618
58011618,0.473351,-0.00579219,0.212476,0.0,0.0,-0.394618
58036612,0.623198,0.0123665,0.207984,0.0,0.0,-0.394618
58056611,0.67854,0.035596,0.203958,0.0,0.0,-0.3936
58071653,0.632165,0.0506532,0.203983,0.0,0.0,-0.3936
58096684,0.697914,0.114221,0.198551,0.0,0.0,-0.394618
58116692,0.634633,0.148201,0.194094,0.0,0.0,-0.394618
58131736,0.568126,0.17486,0.19165,0.0,0.0,-0.394618
58151733,0.452268,0.195239,0.186783,0.0,0.0,-0.3936
58176778,0.348491,0.197401,0.182413,0.0,0.0,-0.3936
58196779,0.318422,0.195768,0.176396,0.0,0.0,-0.3936
58211820,0.290369,0.186133,0.172948,0.0,0.0,-0.3936
58231813,0.249044,0.172268,0.169498,0.0,0.0,-0.3936
58256865,0.249508,0.137718,0.164753,0.0,0.0,-0.394618
58271870,0.236926,0.11346,0.163554,0.0,0.0,-0.3936
58291894,0.313817,0.0966962,0.157811,0.0,0.0,-0.3936
58316928,0.327374,0.0710068,0.153574,0.0,0.0,-0.394618
58336975,0.29831,0.0560412,0.150364,0.0,0.0,-0.3936
58351962,0.290341,0.047785,0.145923,0.0,0.0,-0.3936
58371984,0.286458,0.0432861,0.14098,0.0,0.0,-0.3936
58397007,0.129399,0.0308805,0.133629,0.0,0.0,-0.392582
58412039,0.100861,0.0444471,0.13205,0.0,0.0,-0.392582
58432040,-0.225688,0.0476121,0.126921,0.0,0.0,-0.402764
58457143,-0.412506,0.0715421,0.125325,0.0,0.0,-0.409891
58477098,-0.532842,0.0909678,0.121327,0.0,0.0,-0.409891
58492131,-0.54919,0.100932,0.118805,0.0,0.0,-0.409891
58512178,-0.621407,0.122779,0.114467,0.0,0.0,-0.426182
58537190,-0.803932,0.116671,0.110497,0.0,0.0,-0.445527
58552187,-0.74771,0.105649,0.107516,0.0,0.0,-0.445527
58572254,-0.731576,0.0997824,0.10452,0.0,0.0,-0.4496
58592230,-0.66612,0.0826114,0.0992784,0.0,0.0,-0.448582
58617250,-0.462405,0.0503738,0.0912543,0.0,0.0,-0.451636
58632348,-0.380662,0.049784,0.0870505,0.0,0.0,-0.451636
58652464,-0.248275,0.0283992,0.0817547,0.0,0.0,-0.451636
58677334,-0.130137,0.0187492,0.0739146,0.0,0.0,-0.444509
58692409,-0.0633073,0.0134974,0.0713073,0.0,0.0,-0.444509
58712393,-0.0260013,0.0141,0.063174,0.0,0.0,-0.440436
58732404,-0.00738387,0.0210295,0.0548292,0.0,0.0,-0.439418
58757401,-0.0089708,0.0435122,0.0447104,0.0,0.0,-0.439418
58772445,-0.0303987,0.0398616,0.0404155,0.0,0.0,-0.439418
58792464,-0.0749498,0.051194,0.0343585,0.0,0.0,-0.439418
58817508,-0.154719,0.0523738,0.026887,0.0,0.0,-0.439418
58832547,-0.157019,0.0568048,0.0222298,0.0,0.0,-0.439418
58852541,-0.155065,0.0340094,0.0158163,0.0,0.0,-0.439418
58872568,-0.11509,0.00437259,0.00984265,0.0,0.0,-0.439418
58897588,-0.071,-0.021008,0.00502914,0.0,0.0,-0.439418
58912655,-0.0200944,-0.0464372,0.00185179,0.0,0.0,-0.439418
58932602,-0.0120503,-0.0573356,-0.0029452,0.0,0.0,-0.439418
58957711,0.00250765,-0.0407956,-0.0091397,0.0,0.0,-0.4384
58972642,0.0273099,-0.0438222,-0.0132039,0.0,0.0,-0.4384
58992698,0.0614438,-0.0177846,-0.0174625,0.0,0.0,-0.437382
59012692,0.0850565,0.00659379,-0.0221392,0.0,0.0,-0.4384
59037718,0.0621326,0.0249575,-0.0236474,0.0,0.0,-0.437382
59052732,0.085742,0.0368013,-0.0270039,0.0,0.0,-0.437382
59072770,0.0970318,0.0447276,-0.029616,0.0,0.0,-0.440436
59092796,0.113429,0.0460001,-0.0335442,0.0,0.0,-0.441455
59112830,0.139867,0.0576801,-0.0374082,0.0,0.0,-0.442473
59132830,0.136181,0.0690698,-0.0413998,0.0,0.0,-0.443491
59152867,0.095463,-0.0135258,-0.0464409,0.0,0.0,-0.443491
59177934,0.0482117,-0.0656839,-0.0468888,0.0,0.0,-0.443491
59192915,0.0398227,-0.197336,-0.0501696,0.0,0.0,-0.445527
59212928,0.0571438,-0.289347,-0.0537538,0.0,0.0,-0.444509
59232950,0.0874599,-0.550785,-0.0598857,0.0,0.0,-0.444509
59253057,0.11872,-0.596818,-0.0650694,0.0,0.0,-0.445527
59272996,0.120819,-0.600097,-0.0686158,0.0,0.0,-0.442473
59293052,0.114071,-0.553395,-0.0707048,0.0,0.0,-0.440436
59318055,0.14011,-0.461894,-0.0759245,0.0,0.0,-0.439418
59333061,0.122162,-0.378713,-0.0791402,0.0,0.0,-0.439418
59353109,0.13318,-0.273946,-0.0844014,0.0,0.0,-0.439418
59373142,0.118762,-0.186526,-0.0883494,0.0,0.0,-0.439418
59393132,0.0636827,-0.105924,-0.0903951,0.0,0.0,-0.439418
59413209,-0.0192998,-0.0285969,-0.0889992,0.0,0.0,-0.439418
59433188,-0.0990576,0.00682572,-0.088751,0.0,0.0,-0.439418
59458188,-0.124959,0.146676,-0.0950529,0.0,0.0,-0.439418
59473284,-0.166449,0.163585,-0.0972702,0.0,0.0,-0.439418
59493256,-0.201395,0.268106,-0.100142,0.0,0.0,-0.439418
59513315,-0.24894,0.300818,-0.100634,0.0,0.0,-0.439418
59533334,-0.279914,0.382003,-0.102339,0.0,0.0,-0.4384
59553329,-0.291495,0.360985,-0.107619,0.0,0.0,-0.4384
59573401,-0.265871,0.598922,-0.117518,0.0,0.0,-0.4384
59593365,-0.132934,0.529495,-0.124569,0.0,0.0,-0.4384
59613402,0.000520057,0.458464,-0.130263,0.0,0.0,-0.4384
59633431,0.104933,0.347115,-0.13571,0.0,0.0,-0.4384
59653443,0.0767912,0.294853,-0.140015,0.0,0.0,-0.4384
59673477,0.0918919,0.208439,-0.145956,0.0,0.0,-0.4384
59693491,0.0988384,0.125202,-0.150784,0.0,0.0,-0.4384
59713501,0.120054,0.0440332,-0.153124,0.0,0.0,-0.4384
59733522,0.109834,-0.0061906,-0.154547,0.0,0.0,-0.4384
59753545,0.0682699,-0.052165,-0.157781,0.0,0.0,-0.4384
59773605,0.0257961,-0.0604322,-0.159942,0.0,0.0,-0.4384
59793577,0.00611551,-0.0590883,-0.16519,0.0,0.0,-0.4384
59813610,-0.0144047,-0.0550257,-0.169471,0.0,0.0,-0.4384
59833625,-0.0357442,-0.0511772,-0.176154,0.0,0.0,-0.4384
59853670,-0.0516948,-0.0407392,-0.180017,0.0,0.0,-0.4384
59873702,-0.109849,-0.0237579,-0.185213,0.0,0.0,-0.4384
59893697,-0.137493,-0.0103007,-0.191462,0.0,0.0,-0.4384
59913728,-0.166058,0.00887879,-0.196995,0.0,0.0,-0.4384
59933730,-0.16191,0.0125452,-0.202556,0.0,0.0,-0.4384
59953751,-0.139361,0.0187161,-0.205141,0.0,0.0,-0.4384
59973808,-0.127053,0.0347403,-0.205044,0.0,0.0,-0.4384
59993798,-0.121703,0.0500816,-0.208649,0.0,0.0,-0.437382
60013834,-0.102058,0.0538041,-0.211317,0.0,0.0,-0.4384
60033911,-0.0421685,0.0424514,-0.213029,0.0,0.0,-0.4384
60053872,0.0113429,0.0271215,-0.213825,0.0,0.0,-0.437382
60073965,0.0305537,0.00205312,-0.216007,0.0,0.0,-0.441455
60093917,0.0169564,-0.0264864,-0.214255,0.0,0.0,-0.4496
60113941,0.0109883,-0.0504229,-0.213829,0.0,0.0,-0.451636
60133964,0.033213,-0.0614218,-0.218086,0.0,0.0,-0.451636
60153988,0.0755019,-0.0478238,-0.223774,0.0,0.0,-0.451636
60174054,0.0780341,-0.0316147,-0.228922,0.0,0.0,-0.451636
60194084,0.0411223,-0.0351954,-0.233965,0.0,0.0,-0.451636
60214085,-0.000591949,-0.0191483,-0.233481,0.0,0.0,-0.451636
60234152,-0.0103356,-0.0378323,-0.23623,0.0,0.0,-0.451636
60254106,0.087407,-0.0950226,-0.242281,0.0,0.0,-0.451636
60274157,0.103991,-0.0710969,-0.246034,0.0,0.0,-0.450618
60294180,0.0903841,-0.0852148,-0.248717,0.0,0.0,-0.437382
60314198,0.0476354,-0.0760833,-0.251477,0.0,0.0,-0.437382
60334198,0.0310063,-0.0615274,-0.256095,0.0,0.0,-0.430255
60354232,0.0665643,-0.109597,-0.259862,0.0,0.0,-0.401745
60374260,0.113002,-0.128605,-0.263298,0.0,0.0,-0.395636
60394271,0.126037,-0.139594,-0.266502,0.0,0.0,-0.395636
60414297,0.105508,-0.142338,-0.268649,0.0,0.0,-0.395636
60434347,0.058615,-0.195069,-0.270135,0.0,0.0,-0.3936
60454356,0.0350626,-0.173836,-0.273119,0.0,0.0,-0.391564
60474441,0.0289312,-0.080494,-0.275862,0.0,0.0,-0.389527
60494449,0.0268087,-0.0665367,-0.279613,0.0,0.0,-0.388509
60514462,-0.0173892,-0.0425733,-0.281699,0.0,0.0,-0.387491
60534414,-0.100466,-0.0361893,-0.282629,0.0,0.0,-0.387491
60554463,-0.180245,-0.0399801,-0.279754,0.0,0.0,-0.388509
60574470,-0.25583,0.000732788,-0.28048,0.0,0.0,-0.388509
60594492,-0.293821,0.0379611,-0.282056,0.0,0.0,-0.390545
60614505,-0.308064,0.0138353,-0.282482,0.0,0.0,-0.390545
60634537,-0.293858,-0.0303957,-0.283436,0.0,0.0,-0.3936
60654552,-0.313261,-0.0713295,-0.283396,0.0,0.0,-0.3936
60674596,-0.281484,-0.0971176,-0.282449,0.0,0.0,-0.3936
60694595,-0.208516,-0.116165,-0.284301,0.0,0.0,-0.3936
60714641,0.0118719,-0.129356,-0.284236,0.0,0.0,-0.395636
60734691,0.165969,-0.134613,-0.284259,0.0,0.0,-0.391564
60754668,0.260708,-0.099958,-0.282509,0.0,0.0,-0.391564
60774722,0.259673,-0.0868519,-0.279386,0.0,0.0,-0.391564
60794709,0.293391,-0.0382423,-0.276022,0.0,0.0,-0.391564
60814773,0.318557,-0.0150789,-0.275938,0.0,0.0,-0.391564
60834754,0.361012,0.0338922,-0.275704,0.0,0.0,-0.3936
60854814,0.395488,0.0541029,-0.2723,0.0,0.0,-0.394618
60874798,0.324327,0.0624332,-0.268055,0.0,0.0,-0.3936
60894818,0.219096,0.075724,-0.264888,0.0,0.0,-0.3936
60914884,0.123025,0.0656021,-0.260885,0.0,0.0,-0.3936
