timestamp,time_utc_usec,lat,lon,alt,alt_ellipsoid,s_variance_m_s,c_variance_rad,eph,epv,hdop,vdop,noise_per_ms,jamming_indicator,vel_m_s,vel_n_m_s,vel_e_m_s,vel_d_m_s,cog_rad,timestamp_time_relative,heading,heading_offset,fix_type,vel_ned_valid,satellites_used
40281273,1599454797200078,340348366,1087567269,420846,392931,0.134,0.401031,0.987,1.472,0.75,0.99,95,4,0.019,0.01,0.016,-0.017,0.456702,0,nan,0.0,3,1,17
40477490,1599454797400078,340348366,1087567269,420847,392932,0.215,0.401032,0.982,1.468,0.75,0.99,95,4,0.013,0.01,0.008,0.011,0.456702,0,nan,0.0,3,1,17
41278360,1599454798200078,340348366,1087567267,420878,392963,0.15,0.401037,0.964,1.457,0.75,0.99,96,3,0.022,0.007,-0.021,0.003,0.456702,0,nan,0.0,3,1,17
42276544,1599454799200079,340348365,1087567262,420893,392978,0.193,0.401043,0.945,1.447,0.75,0.99,102,8,0.029,-0.021,-0.02,-0.012,0.456702,0,nan,0.0,3,1,17
43279303,1599454800200079,340348361,1087567254,420876,392961,0.218,0.401049,0.929,1.438,0.75,0.99,102,4,0.002,0.002,-0.001,0.033,0.456702,0,nan,0.0,3,1,17
44276892,1599454801200079,340348359,1087567247,420858,392943,0.138,0.401055,0.914,1.432,0.75,0.99,102,5,0.011,0.011,0.001,-0.006,0.456702,0,nan,0.0,3,1,17
45278350,1599454802200079,340348356,1087567233,421633,393718,0.265,0.401075,0.91,1.436,0.75,0.99,102,3,0.146,0.04,-0.14,-0.54,0.456702,0,nan,0.0,3,1,17
46279545,1599454803200079,340348398,1087567233,421638,393723,0.221,0.242448,0.914,1.457,0.75,0.99,102,2,0.755,0.747,0.108,0.324,0.123645,0,nan,0.0,3,1,17
47275055,1599454804200080,340348448,1087567229,421727,393812,0.171,0.449381,0.906,1.455,0.84,1.24,102,8,0.492,0.48,-0.104,-0.312,6.19479,0,nan,0.0,3,1,16
48277326,1599454805200080,340348465,1087567230,422227,394312,0.18,0.678365,0.9,1.464,0.77,1.02,102,5,0.209,0.208,0.023,-0.245,0.129173,0,nan,0.0,3,1,16
49273370,1599454806200080,340348497,1087567231,422045,394130,0.208,0.375617,0.893,1.458,0.75,0.99,102,10,0.462,0.461,-0.027,0.221,0.0329811,0,nan,0.0,3,1,17
50280468,1599454807200080,340348555,1087567217,421479,393564,0.235,0.289099,0.892,1.457,0.75,0.99,95,9,0.667,0.662,-0.079,0.573,6.09503,0,nan,0.0,3,1,17
51283302,1599454808200080,340348602,1087567230,421189,393274,0.236,0.31839,0.896,1.461,0.75,0.99,95,8,0.608,0.449,0.41,0.1,0.490506,0,nan,0.0,3,1,17
52271260,1599454809200081,340348650,1087567291,421238,393323,0.164,0.204755,0.893,1.456,0.77,1.02,88,10,0.838,0.648,0.532,-0.322,0.753009,0,nan,0.0,3,1,16
53275282,1599454810200081,340348697,1087567312,421832,393917,0.179,0.314749,0.887,1.456,0.75,0.99,88,5,0.607,0.597,0.11,-0.782,0.266839,0,nan,0.0,3,1,17
54279835,1599454811200081,340348751,1087567291,422769,394854,0.146,0.171357,0.875,1.445,0.75,0.99,89,3,0.87,0.866,-0.089,-0.847,6.12689,0,nan,0.0,3,1,17
55280060,1599454812200081,340348826,1087567265,423129,395214,0.123,0.16579,0.859,1.419,0.75,0.99,95,4,0.813,0.813,-0.005,-0.267,6.12361,0,nan,0.0,3,1,17
56276463,1599454813200081,340348882,1087567266,423071,395156,0.154,0.282688,0.842,1.387,0.75,0.99,95,15,0.503,0.5,0.053,0.048,0.0952842,0,nan,0.0,3,1,17
57275274,1599454814200082,340348931,1087567254,422702,394787,0.186,0.207612,0.83,1.367,0.75,0.99,95,14,0.743,0.715,-0.202,0.348,6.08836,0,nan,0.0,3,1,17
58273386,1599454815200082,340348993,1087567224,421866,393951,0.212,0.194794,0.821,1.354,0.75,0.99,95,3,0.758,0.694,-0.305,0.9,5.87748,0,nan,0.0,3,1,17
59280589,1599454816200082,340349055,1087567217,420699,392784,0.241,0.260018,0.822,1.353,0.75,0.99,95,4,0.78,0.776,0.08,1.06,0.000257262,0,nan,0.0,3,1,17
60292374,1599454817200082,340349126,1087567208,420393,392478,0.157,0.201612,0.824,1.358,0.75,0.99,88,3,0.902,0.891,-0.14,-0.193,6.17049,0,nan,0.0,3,1,17
61275927,1599454818200082,340349190,1087567201,420939,393024,0.151,0.276254,0.823,1.358,0.75,0.99,82,5,0.646,0.646,0.033,-0.515,6.26055,0,nan,0.0,3,1,17
62287467,1599454819200083,340349240,1087567222,421308,393393,0.137,0.250821,0.816,1.346,0.75,0.99,82,9,0.639,0.629,0.113,-0.47,0.274272,0,nan,0.0,3,1,17
63282701,1599454820200083,340349301,1087567218,421257,393342,0.163,0.214943,0.807,1.335,0.75,0.99,83,9,0.675,0.671,-0.078,0.17,6.19713,0,nan,0.0,3,1,17
64275282,1599454821200083,340349351,1087567246,420617,392702,0.213,0.283013,0.8,1.323,0.75,0.99,88,11,0.562,0.468,0.313,0.528,0.509789,0,nan,0.0,3,1,17
65281319,1599454822200083,340349395,1087567248,420649,392734,0.123,0.23438,0.789,1.304,0.75,0.99,94,7,0.605,0.596,-0.101,-0.232,6.17288,0,nan,0.0,3,1,17
66279272,1599454823200083,340349446,1087567248,421031,393116,0.14,0.279167,0.783,1.295,0.75,0.99,100,3,0.558,0.544,0.123,-0.455,0.131707,0,nan,0.0,3,1,17
67281274,1599454824200084,340349494,1087567265,421711,393796,0.144,0.228817,0.776,1.281,0.75,0.99,101,4,0.651,0.627,0.177,-0.658,0.276283,0,nan,0.0,3,1,17
68276311,1599454825200084,340349558,1087567276,422247,394332,0.116,0.165666,0.769,1.268,0.75,0.99,101,5,0.79,0.783,0.105,-0.478,0.154718,0,nan,0.0,3,1,17
69275034,1599454826200084,340349620,1087567283,422655,394740,0.128,0.230116,0.762,1.258,0.75,0.99,101,4,0.641,0.641,0.015,-0.364,0.0600515,0,nan,0.0,3,1,17
70276273,1599454827200084,340349680,1087567275,422488,394573,0.187,0.205927,0.757,1.249,0.75,0.99,108,3,0.681,0.667,-0.133,0.389,6.15332,0,nan,0.0,3,1,17
71275289,1599454828200084,340349742,1087567258,421745,393830,0.252,0.291887,0.764,1.255,0.75,0.99,93,2,0.706,0.692,-0.141,0.747,6.05629,0,nan,0.0,3,1,17
72274277,1599454829200085,340349797,1087567251,420895,392979,0.261,0.357583,0.778,1.272,0.75,0.99,93,8,0.583,0.579,0.069,0.883,0.0200221,0,nan,0.0,3,1,17
73285291,1599454830200085,340349841,1087567265,420428,392513,0.165,0.267961,0.776,1.269,0.75,0.99,94,5,0.563,0.544,0.144,0.154,0.248287,0,nan,0.0,3,1,17
74282382,1599454831200085,340349880,1087567267,420205,392290,0.163,0.308927,0.77,1.261,0.75,0.99,100,5,0.45,0.449,0.029,0.094,0.0832143,0,nan,0.0,3,1,17
75278560,1599454832200085,340349924,1087567289,420070,392155,0.17,0.214317,0.766,1.256,0.75,0.99,100,5,0.702,0.447,0.541,0.097,0.662785,0,nan,0.0,3,1,17
76273326,1599454833200085,340349973,1087567347,420100,392185,0.131,0.171493,0.761,1.249,0.75,0.99,100,7,0.856,0.751,0.41,-0.12,0.609646,0,nan,0.0,3,1,17
77286277,1599454834200086,340350040,1087567354,420333,392418,0.146,0.20862,0.759,1.248,0.75,0.99,100,10,0.775,0.775,-0.026,-0.284,0.0350029,0,nan,0.0,3,1,17
78281272,1599454835200086,340350114,1087567343,420780,392865,0.129,0.156588,0.757,1.245,0.75,0.99,100,7,0.915,0.912,-0.071,-0.314,6.19612,0,nan,0.0,3,1,17
79276420,1599454836200086,340350205,1087567326,420662,392747,0.173,0.166785,0.756,1.245,0.75,0.99,100,7,0.93,0.914,-0.169,0.206,6.14062,0,nan,0.0,3,1,17
80275279,1599454837200086,340350291,1087567339,420159,392244,0.202,0.1858,0.754,1.241,0.75,0.99,100,7,0.922,0.917,0.089,0.486,0.106765,0,nan,0.0,3,1,17
81279359,1599454838200086,340350367,1087567346,419576,391661,0.215,0.23454,0.754,1.245,0.75,0.99,100,5,0.787,0.771,0.155,0.442,0.0994009,0,nan,0.0,3,1,17
82276494,1599454839200087,340350439,1087567347,419650,391735,0.127,0.182777,0.753,1.247,0.75,0.99,93,4,0.826,0.824,-0.064,-0.243,6.25125,0,nan,0.0,3,1,17
83281289,1599454840200087,340350508,1087567340,419975,392060,0.166,0.236423,0.754,1.252,0.75,0.99,82,2,0.812,0.811,-0.044,-0.079,6.21452,0,nan,0.0,3,1,17
84272440,1599454841200087,340350576,1087567344,419753,391838,0.233,0.239427,0.766,1.272,0.75,0.99,82,2,0.847,0.811,0.245,0.396,0.182194,0,nan,0.0,3,1,17
85288296,1599454842200087,340350631,1087567361,419446,391531,0.244,0.361521,0.781,1.297,0.75,0.99,82,5,0.633,0.623,0.112,0.307,0.233374,0,nan,0.0,3,1,17
86286286,1599454843200087,340350691,1087567364,419532,391617,0.201,0.332435,0.797,1.323,0.75,0.99,82,7,0.71,0.705,0.082,-0.2,0.0753506,0,nan,0.0,3,1,17
87280356,1599454844200088,340350743,1087567386,419691,391776,0.141,0.348354,0.794,1.32,0.84,1.23,93,6,0.501,0.476,0.155,-0.177,0.355204,0,nan,0.0,3,1,16
88276698,1599454845200088,340350793,1087567403,419322,391407,0.212,0.321493,0.79,1.319,0.84,1.23,93,6,0.489,0.478,0.102,0.268,0.22905,0,nan,0.0,3,1,16
89279649,1599454846200088,340350837,1087567411,419193,391278,0.21,0.35052,0.787,1.315,0.84,1.23,93,7,0.471,0.471,-0.003,0.274,0.0357333,0,nan,0.0,3,1,16
90280776,1599454847200088,340350868,1087567408,419697,391782,0.194,0.43544,0.783,1.307,0.85,1.26,93,9,0.394,0.394,-0.018,-0.787,6.14025,0,nan,0.0,3,1,15
91286273,1599454848200088,340350889,1087567388,420947,393032,0.214,0.528791,0.78,1.303,0.84,1.23,93,9,0.335,0.217,-0.254,-1.12,5.55281,0,nan,0.0,3,1,16
92277260,1599454849200089,340350910,1087567377,421785,393870,0.204,0.657108,0.773,1.288,0.85,1.26,93,5,0.146,0.138,-0.046,-0.767,5.78379,0,nan,0.0,3,1,15
93290369,1599454850200089,340350903,1087567376,422232,394316,0.178,0.294758,0.765,1.272,0.84,1.23,93,11,0.433,-0.432,-0.016,-0.194,3.44404,0,nan,0.0,3,1,16
94279485,1599454851200089,340350840,1087567420,422312,394397,0.148,0.189101,0.757,1.257,0.75,0.99,93,8,0.902,-0.831,0.35,-0.133,2.69633,0,nan,0.0,3,1,17
95279301,1599454852200089,340350776,1087567441,422091,394176,0.158,0.244003,0.754,1.248,0.75,0.99,100,6,0.624,-0.624,-0.024,0.465,3.0407,0,nan,0.0,3,1,17
96286376,1599454853200089,340350731,1087567425,421849,393934,0.208,0.249931,0.751,1.242,0.75,0.99,100,5,0.495,-0.397,-0.295,-0.137,3.62865,0,nan,0.0,3,1,17
97277145,1599454854200090,340350706,1087567397,422078,394163,0.254,0.452768,0.76,1.25,0.84,1.23,86,7,0.412,-0.28,-0.303,-0.072,3.91186,0,nan,0.0,3,1,16
98278472,1599454855200090,340350685,1087567378,421960,394045,0.261,0.485199,0.776,1.274,0.84,1.23,86,10,0.383,-0.332,-0.19,0.263,3.76277,0,nan,0.0,3,1,16
99275274,1599454856200090,340350666,1087567366,421630,393715,0.225,0.608277,0.79,1.291,0.84,1.23,86,12,0.287,-0.179,-0.224,0.478,3.90888,0,nan,0.0,3,1,16
100281281,1599454857200090,340350664,1087567337,420977,393062,0.233,0.508728,0.803,1.311,0.84,1.23,86,8,0.44,0.047,-0.438,0.763,4.61235,0,nan,0.0,3,1,16
101282282,1599454858200090,340350670,1087567319,419966,392050,0.216,0.566741,0.804,1.308,0.77,1.02,79,5,0.015,0.014,0.007,1.126,4.90022,0,nan,0.0,3,1,16
102284506,1599454859200091,340350651,1087567321,419674,391759,0.196,0.485068,0.796,1.295,0.73,0.97,79,14,0.251,-0.233,-0.095,-0.112,3.57476,0,nan,0.0,3,1,18
103280682,1599454860200091,340350634,1087567321,420117,392201,0.205,0.599158,0.787,1.279,0.73,0.97,84,13,0.115,-0.113,0.022,-0.485,3.33969,0,nan,0.0,3,1,18
104285341,1599454861200091,340350645,1087567324,419753,391838,0.221,0.599168,0.778,1.273,0.8,1.19,90,9,0.088,0.086,0.02,0.942,3.33969,0,nan,0.0,3,1,17
105288342,1599454862200091,340350647,1087567324,419870,391954,0.212,0.599185,0.773,1.269,0.73,0.97,96,7,0.109,0.054,0.095,-0.692,3.33969,0,nan,0.0,3,1,18
106282283,1599454863200091,340350628,1087567355,420703,392788,0.196,0.245212,0.765,1.257,0.8,1.19,96,12,0.599,-0.333,0.498,-0.749,2.25877,0,nan,0.0,3,1,17
107279355,1599454864200092,340350573,1087567412,421030,393114,0.161,0.126945,0.757,1.244,0.73,0.97,97,15,1.06,-0.921,0.523,-0.296,2.57664,0,nan,0.0,3,1,18
108276548,1599454865200092,340350488,1087567449,420929,393014,0.131,0.151622,0.753,1.239,0.73,0.97,97,12,0.901,-0.887,0.157,0.271,2.86663,0,nan,0.0,3,1,18
109286262,1599454866200092,340350431,1087567435,420426,392511,0.157,0.342303,0.748,1.233,0.73,0.97,103,13,0.462,-0.282,-0.366,0.507,3.57637,0,nan,0.0,3,1,18
110287271,1599454867200092,340350454,1087567374,419902,391987,0.182,0.251317,0.748,1.237,0.73,0.97,103,9,0.656,0.324,-0.57,0.477,5.17319,0,nan,0.0,3,1,18
111283596,1599454868200092,340350478,1087567319,419300,391385,0.216,0.552208,0.748,1.238,0.73,0.97,89,8,0.371,0.04,-0.368,0.626,4.99377,0,nan,0.0,3,1,18
112276275,1599454869200093,340350468,1087567294,419016,391101,0.159,0.55222,0.766,1.263,0.73,0.97,89,7,0.207,-0.121,-0.169,0.078,4.99377,0,nan,0.0,3,1,18
113287262,1599454870200093,340350424,1087567254,419164,391249,0.242,0.359229,0.786,1.288,0.73,0.97,89,5,0.694,-0.544,-0.432,-0.025,3.83323,0,nan,0.0,3,1,18
114288360,1599454871200093,340350379,1087567198,419300,391385,0.15,0.186962,0.779,1.272,0.73,0.97,84,4,0.819,-0.519,-0.634,-0.098,3.94808,0,nan,0.0,3,1,18
115283286,1599454872200093,340350314,1087567125,419288,391372,0.158,0.162235,0.772,1.263,0.73,0.97,84,8,0.973,-0.699,-0.676,-0.121,3.8908,0,nan,0.0,3,1,18
116274290,1599454873200093,340350272,1087567058,419658,391743,0.174,0.172418,0.764,1.248,0.75,0.98,84,15,0.74,-0.39,-0.629,-0.381,4.1431,0,nan,0.0,3,1,17
117282284,1599454874200094,340350250,1087566998,419754,391838,0.136,0.202414,0.756,1.236,0.73,0.97,90,6,0.667,-0.235,-0.624,-0.084,4.2965,0,nan,0.0,3,1,18
118283199,1599454875200094,340350239,1087566945,419871,391956,0.133,0.263222,0.746,1.214,0.73,0.97,96,14,0.53,-0.122,-0.516,-0.058,4.45212,0,nan,0.0,3,1,18
119284288,1599454876200094,340350241,1087566876,419364,391448,0.149,0.216249,0.737,1.198,0.73,0.97,96,14,0.701,0.08,-0.696,0.573,4.72715,0,nan,0.0,3,1,18
120298478,1599454877200094,340350237,1087566801,419138,391223,0.138,0.189092,0.733,1.192,0.8,1.19,96,5,0.701,-0.275,-0.645,0.178,4.48026,0,nan,0.0,3,1,17
121280351,1599454878200094,340350178,1087566732,419214,391298,0.181,0.148558,0.729,1.185,0.73,0.97,96,9,0.904,-0.618,-0.659,-0.085,3.92951,0,nan,0.0,3,1,18
122276431,1599454879200095,340350156,1087566646,419587,391672,0.152,0.167452,0.725,1.177,0.73,0.97,96,9,0.899,-0.068,-0.896,-0.451,4.54033,0,nan,0.0,3,1,18
123283273,1599454880200095,340350165,1087566552,419885,391970,0.146,0.183612,0.72,1.166,0.73,0.97,96,4,0.878,0.091,-0.873,-0.219,4.80984,0,nan,0.0,3,1,18
124324293,1599454881200095,340350189,1087566458,420107,392192,0.17,0.226795,0.728,1.171,0.73,0.97,90,2,0.993,0.394,-0.911,-0.121,5.07285,0,nan,0.0,4,1,18
125288296,1599454882200095,340350208,1087566351,420453,392538,0.202,0.214944,0.741,1.185,0.73,0.97,84,3,1.096,0.172,-1.083,-0.169,4.9074,0,nan,0.0,4,1,18
126330823,1599454883200095,340350247,1087566273,420444,392529,0.182,0.310369,0.754,1.197,0.73,0.97,84,9,0.738,0.498,-0.544,0.095,5.33594,0,nan,0.0,4,1,18
127282196,1599454884200095,340350266,1087566239,420326,392410,0.233,0.621853,0.765,1.207,0.73,0.97,84,7,0.179,0.13,-0.123,0.337,5.27556,0,nan,0.0,4,1,18
128288273,1599454885200096,340350282,1087566208,419998,392083,0.195,0.544586,0.777,1.222,0.73,0.97,84,3,0.445,0.249,-0.369,0.051,5.31018,0,nan,0.0,4,1,18
129288577,1599454886200096,340350299,1087566157,420179,392264,0.182,0.438213,0.789,1.236,0.73,0.97,84,4,0.526,0.144,-0.505,-0.099,5.07541,0,nan,0.0,4,1,18
130286982,1599454887200096,340350323,1087566101,420229,392314,0.178,0.430468,0.8,1.248,0.73,0.97,84,2,0.574,0.267,-0.508,0.024,5.17624,0,nan,0.0,4,1,18
131286546,1599454888200096,340350356,1087566055,420057,392142,0.214,0.407511,0.811,1.258,0.75,0.98,84,3,0.576,0.351,-0.457,0.371,5.39701,0,nan,0.0,4,1,17
132288361,1599454889200096,340350408,1087566063,419668,391753,0.239,0.262266,0.819,1.271,0.73,0.97,84,4,0.728,0.665,0.296,0.45,0.316852,0,nan,0.0,4,1,18
133289014,1599454890200097,340350470,1087566070,419839,391924,0.188,0.378061,0.826,1.284,0.73,0.97,83,4,0.583,0.582,-0.037,-0.214,0.0224011,0,nan,0.0,4,1,18
134278302,1599454891200097,340350522,1087566069,420300,392385,0.188,0.324525,0.832,1.299,0.73,0.97,83,9,0.659,0.657,0.051,-0.325,0.0487936,0,nan,0.0,4,1,18
135281261,1599454892200097,340350570,1087566046,420713,392797,0.183,0.274671,0.84,1.317,0.73,0.97,83,9,0.681,0.528,-0.431,-0.225,5.79393,0,nan,0.0,4,1,18
136277278,1599454893200097,340350613,1087566011,420889,392973,0.18,0.382914,0.847,1.335,0.73,0.97,83,8,0.553,0.552,0.035,-0.066,6.06869,0,nan,0.0,4,1,18
137283938,1599454894200097,340350658,1087566024,420806,392890,0.236,0.464012,0.856,1.358,0.73,0.97,84,2,0.464,0.463,0.025,0.198,0.159777,0,nan,0.0,4,1,18
138281307,1599454895200098,340350687,1087565973,420056,392141,0.234,0.225483,0.866,1.378,0.73,0.97,83,3,0.903,0.197,-0.881,0.88,5.07293,0,nan,0.0,4,1,18
139278279,1599454896200098,340350714,1087565907,419071,391156,0.245,0.388261,0.874,1.399,0.73,0.97,83,2,0.582,0.414,-0.409,0.48,5.39275,0,nan,0.0,4,1,18
140283259,1599454897200098,340350747,1087565888,419705,391790,0.181,0.321703,0.879,1.413,0.73,0.97,83,5,0.573,0.565,0.094,-0.621,0.0201088,0,nan,0.0,4,1,18
141278566,1599454898200098,340350782,1087565914,420547,392631,0.201,0.384968,0.884,1.424,0.73,0.97,83,4,0.548,0.452,0.311,-0.717,0.561233,0,nan,0.0,4,1,18
142275270,1599454899200098,340350822,1087565933,420486,392570,0.245,0.373985,0.888,1.428,0.73,0.97,83,2,0.562,0.509,0.239,0.252,0.44602,0,nan,0.0,4,1,18
143282262,1599454900200099,340350862,1087565939,419961,392045,0.28,0.459645,0.895,1.443,0.8,1.18,83,3,0.429,0.424,-0.066,0.628,6.27596,0,nan,0.0,4,1,17
144282375,1599454901200099,340350889,1087565935,419054,391138,0.277,0.63388,0.901,1.457,0.73,0.97,83,2,0.343,0.342,-0.024,0.885,6.20923,0,nan,0.0,4,1,18
145291262,1599454902200099,340350915,1087565894,419352,391437,0.27,0.553305,0.91,1.478,0.73,0.97,81,2,0.419,0.271,-0.32,-0.446,5.53307,0,nan,0.0,3,1,18
146284358,1599454903200099,340350924,1087565882,419792,391876,0.224,0.673923,0.915,1.488,0.73,0.97,81,2,0.137,0.119,-0.068,-0.218,5.50233,0,nan,0.0,3,1,18
147285493,1599454904200099,340350930,1087565879,419648,391733,0.178,0.673927,0.919,1.495,0.8,1.18,81,2,0.112,-0.105,-0.041,0.115,5.50233,0,nan,0.0,3,1,17
148286334,1599454905200099,340350900,1087565892,419283,391368,0.215,0.429334,0.925,1.507,0.8,1.18,81,2,0.488,-0.328,0.362,0.406,2.53309,0,nan,0.0,3,1,17
149288269,1599454906200100,340350883,1087565960,418722,390807,0.257,0.296667,0.933,1.524,0.8,1.18,81,6,0.696,-0.115,0.686,0.444,1.79397,0,nan,0.0,3,1,17
150289270,1599454907200100,340350893,1087566015,418797,390882,0.194,0.439503,0.94,1.539,0.8,1.18,81,2,0.461,0.303,0.347,-0.089,1.0999,0,nan,0.0,3,1,17
151280604,1599454908200100,340350920,1087566031,418892,390977,0.206,0.578959,0.948,1.556,0.8,1.18,81,2,0.364,0.348,0.108,-0.007,0.376048,0,nan,0.0,3,1,17
152289341,1599454909200100,340350948,1087566031,418962,391047,0.189,0.749339,0.951,1.566,0.8,1.18,81,3,0.326,0.324,-0.036,-0.047,6.18812,0,nan,0.0,3,1,17
153283631,1599454910200100,340350978,1087566025,418895,390979,0.234,0.502725,0.958,1.582,0.8,1.18,81,3,0.41,0.41,0.009,0.12,6.1967,0,nan,0.0,3,1,17
154289276,1599454911200101,340350990,1087566009,418695,390779,0.234,0.555219,0.962,1.588,0.8,1.18,81,3,0.334,-0.138,-0.304,0.452,5.10785,0,nan,0.0,3,1,17
155280468,1599454912200101,340350966,1087565966,418905,390990,0.258,0.492993,0.964,1.591,0.8,1.18,81,4,0.434,-0.104,-0.422,-0.498,4.24519,0,nan,0.0,3,1,17
156276395,1599454913200101,340350939,1087565930,419536,391621,0.306,0.473116,0.97,1.602,0.8,1.18,81,3,0.404,-0.331,-0.231,-0.345,3.90626,0,nan,0.0,3,1,17
157283293,1599454914200101,340350914,1087565913,419595,391680,0.256,0.368164,0.97,1.596,0.8,1.18,81,4,0.469,-0.384,-0.27,-0.034,3.76814,0,nan,0.0,3,1,17
158279862,1599454915200101,340350874,1087565887,419125,391210,0.169,0.328554,0.969,1.592,0.8,1.18,81,4,0.665,-0.589,-0.308,0.438,3.66401,0,nan,0.0,3,1,17
159280716,1599454916200102,340350800,1087565841,418490,390574,0.185,0.235566,0.975,1.611,0.8,1.18,81,3,1.007,-0.896,-0.459,0.32,3.61273,0,nan,0.0,3,1,17
160282285,1599454917200102,340350707,1087565805,418781,390866,0.229,0.196678,0.982,1.629,0.8,1.18,81,9,1.193,-1.162,-0.269,-0.271,3.38969,0,nan,0.0,3,1,17
161277289,1599454918200102,340350605,1087565785,418701,390786,0.194,0.236516,0.99,1.653,0.8,1.18,81,5,1.094,-1.082,-0.162,0.108,3.31344,0,nan,0.0,3,1,17
162283043,1599454919200102,340350515,1087565766,418777,390862,0.242,0.254757,1.0,1.686,0.8,1.18,81,7,1.011,-0.996,-0.169,-0.364,3.29617,0,nan,0.0,3,1,17
163285817,1599454920200102,340350429,1087565752,419494,391578,0.27,0.266258,1.012,1.716,0.8,1.18,81,3,0.956,-0.951,-0.097,-0.632,3.2439,0,nan,0.0,3,1,17
164281260,1599454921200102,340350337,1087565763,420000,392084,0.233,0.239194,1.021,1.74,0.8,1.18,81,3,1.042,-1.042,0.024,-0.348,3.09876,0,nan,0.0,3,1,17
165281282,1599454922200103,340350250,1087565766,419427,391511,0.188,0.231955,1.03,1.761,0.8,1.18,81,3,1.064,-1.064,-0.033,0.574,3.18416,0,nan,0.0,3,1,17
166286324,1599454923200103,340350164,1087565753,418569,390653,0.191,0.25359,1.032,1.772,0.81,1.19,81,4,0.967,-0.964,-0.078,0.73,3.27114,0,nan,0.0,3,1,17
167281261,1599454924200103,340350073,1087565734,418291,390376,0.213,0.236673,1.039,1.795,0.81,1.19,81,3,1.106,-1.106,-0.003,-0.101,3.1957,0,nan,0.0,3,1,17
168282020,1599454925200103,340349971,1087565723,418745,390830,0.242,0.224661,1.045,1.81,0.81,1.19,81,3,1.096,-1.076,-0.211,-0.478,3.26191,0,nan,0.0,3,1,17
169286344,1599454926200103,340349887,1087565715,418957,391042,0.21,0.278284,1.054,1.836,0.81,1.19,82,2,0.919,-0.882,0.258,-0.065,3.04026,0,nan,0.0,3,1,17
170291260,1599454927200104,340349806,1087565742,418857,390941,0.191,0.24541,1.06,1.858,0.81,1.19,82,4,0.944,-0.904,0.272,0.164,2.85227,0,nan,0.0,3,1,17
171290414,1599454928200104,340349735,1087565757,418247,390331,0.229,0.381648,1.067,1.877,0.81,1.19,82,7,0.641,-0.634,0.096,0.63,2.98643,0,nan,0.0,3,1,17
172281547,1599454929200104,340349679,1087565768,418181,390266,0.22,0.406082,1.073,1.894,0.81,1.19,82,3,0.629,-0.629,0.007,-0.113,2.96601,0,nan,0.0,3,1,17
173286456,1599454930200104,340349636,1087565737,418710,390795,0.29,0.447692,1.078,1.91,0.81,1.19,82,3,0.538,-0.443,-0.305,-0.396,3.67384,0,nan,0.0,3,1,17
174282305,1599454931200104,340349589,1087565697,418809,390893,0.234,0.375611,1.084,1.929,0.81,1.19,82,7,0.633,-0.573,-0.269,-0.158,3.67895,0,nan,0.0,3,1,17
175280445,1599454932200104,340349529,1087565682,418804,390888,0.18,0.331387,1.091,1.947,0.81,1.19,82,8,0.761,-0.753,-0.111,0.172,3.30546,0,nan,0.0,3,1,17
176284303,1599454933200105,340349459,1087565697,418139,390224,0.227,0.270425,1.099,1.967,0.81,1.19,82,6,0.922,-0.903,0.186,0.74,2.91977,0,nan,0.0,3,1,17
177285280,1599454934200105,340349418,1087565724,417259,389343,0.241,0.65171,1.105,1.986,0.81,1.19,82,6,0.323,-0.157,0.283,-0.108,2.53079,0,nan,0.0,3,1,17
178286529,1599454935200105,340349397,1087565727,417841,389925,0.291,0.65172,1.114,2.007,0.81,1.19,82,3,0.297,-0.282,0.093,-0.294,2.53079,0,nan,0.0,3,1,17
179281355,1599454936200105,340349355,1087565719,417855,389940,0.17,0.427887,1.12,2.022,0.81,1.19,77,3,0.566,-0.548,-0.14,0.185,3.31671,0,nan,0.0,3,1,17
180294791,1599454937200105,340349304,1087565712,417296,389381,0.21,0.405845,1.125,2.041,0.81,1.19,77,3,0.645,-0.642,-0.056,0.476,3.24807,0,nan,0.0,3,1,17
181280397,1599454938200106,340349245,1087565707,417034,389119,0.195,0.357499,1.133,2.066,0.81,1.19,77,4,0.737,-0.737,-0.007,0.127,3.14279,0,nan,0.0,3,1,17
182282254,1599454939200106,340349170,1087565681,417086,389171,0.183,0.297502,1.141,2.093,0.73,0.96,77,5,0.894,-0.866,-0.225,0.277,3.39574,0,nan,0.0,3,1,18
183282404,1599454940200106,340349081,1087565643,417371,389455,0.227,0.277826,1.141,2.096,0.73,0.96,77,10,0.947,-0.938,-0.132,-0.234,3.36766,0,nan,0.0,3,1,18
184283609,1599454941200106,340348989,1087565632,417432,389516,0.205,0.274666,1.15,2.112,0.73,0.96,77,5,1.009,-1.001,-0.125,0.099,3.25027,0,nan,0.0,3,1,18
185278479,1599454942200106,340348899,1087565612,417530,389614,0.185,0.234318,1.156,2.132,0.73,0.96,78,8,1.057,-1.025,-0.255,0.07,3.34646,0,nan,0.0,3,1,18
186282017,1599454943200106,340348803,1087565601,417563,389647,0.205,0.238825,1.155,2.133,0.73,0.96,89,6,1.068,-1.066,0.066,-0.025,3.14982,0,nan,0.0,3,1,18
187274609,1599454944200107,340348709,1087565592,417720,389805,0.204,0.296341,1.157,2.142,0.73,0.96,89,8,0.907,-0.905,-0.056,-0.003,3.19897,0,nan,0.0,3,1,18
188285505,1599454945200107,340348633,1087565573,417728,389812,0.194,0.354273,1.155,2.147,0.73,0.96,95,6,0.732,-0.726,-0.09,0.029,3.2775,0,nan,0.0,3,1,18
189281273,1599454946200107,340348572,1087565565,417834,389919,0.216,0.456289,1.157,2.157,0.73,0.96,103,9,0.628,-0.624,-0.071,-0.044,3.25173,0,nan,0.0,3,1,18
190286260,1599454947200107,340348514,1087565558,417994,390079,0.191,0.461193,1.16,2.172,0.73,0.96,103,8,0.59,-0.587,-0.05,0.035,3.2104,0,nan,0.0,3,1,18
191273395,1599454948200107,340348467,1087565548,418354,390439,0.198,0.666475,1.154,2.163,0.82,1.23,110,8,0.344,-0.285,-0.193,0.098,3.51103,0,nan,0.0,3,1,16
192278775,1599454949200108,340348455,1087565530,418362,390447,0.232,0.762955,1.152,2.159,0.82,1.23,110,8,0.184,-0.069,-0.171,0.055,3.8586,0,nan,0.0,3,1,16
193286557,1599454950200108,340348452,1087565524,418316,390401,0.227,0.76296,1.143,2.145,0.82,1.23,102,3,0.178,0.139,-0.11,0.184,3.8586,0,nan,0.0,3,1,16
194282975,1599454951200108,340348503,1087565524,418128,390213,0.168,0.206165,1.107,2.079,0.75,0.99,102,4,0.713,0.68,0.217,-0.04,0.126786,0,nan,0.0,3,1,17
195287302,1599454952200108,340348562,1087565544,418904,390989,0.162,0.224532,1.065,1.985,0.75,0.99,103,13,0.643,0.606,0.217,-0.864,0.304763,0,nan,0.0,3,1,17
196285262,1599454953200108,340348607,1087565588,419092,391177,0.146,0.194242,1.013,1.848,0.75,0.99,103,13,0.755,0.406,0.637,0.259,0.820502,0,nan,0.0,3,1,17
197289255,1599454954200108,340348645,1087565649,418503,390587,0.196,0.239575,0.984,1.778,0.75,0.99,103,6,0.664,0.387,0.539,0.654,0.949063,0,nan,0.0,3,1,17
198282547,1599454955200109,340348680,1087565707,418354,390439,0.159,0.278978,0.958,1.719,0.75,0.99,102,4,0.582,0.307,0.494,-0.063,0.970151,0,nan,0.0,3,1,17
199287455,1599454956200109,340348712,1087565758,418192,390277,0.225,0.292355,0.939,1.681,0.75,0.99,102,11,0.594,0.424,0.416,0.393,0.802391,0,nan,0.0,3,1,17
200288517,1599454957200109,340348774,1087565787,418828,390912,0.157,0.207314,0.924,1.656,0.75,0.99,95,4,0.781,0.764,0.163,-0.846,0.347781,0,nan,0.0,3,1,17
201286272,1599454958200109,340348834,1087565791,419663,391747,0.166,0.232823,0.913,1.638,0.75,0.99,95,9,0.815,0.814,0.036,-0.34,0.0445658,0,nan,0.0,3,1,17
202287338,1599454959200109,340348898,1087565811,419091,391176,0.247,0.270822,0.906,1.625,0.73,0.96,95,3,0.59,0.443,0.389,0.569,0.474928,0,nan,0.0,3,1,18
203283598,1599454960200110,340348926,1087565841,419404,391489,0.138,0.326873,0.892,1.6,0.81,1.19,95,3,0.466,0.406,0.23,-0.426,0.599347,0,nan,0.0,3,1,17
204284883,1599454961200110,340348973,1087565873,419963,392047,0.118,0.179902,0.888,1.588,0.73,0.96,94,5,0.799,0.668,0.438,-0.412,0.586463,0,nan,0.0,3,1,18
205290358,1599454962200110,340349012,1087565906,420535,392620,0.114,0.282512,0.864,1.525,0.73,0.96,94,4,0.494,0.334,0.364,-0.198,0.670567,0,nan,0.0,3,1,18
206282331,1599454963200110,340349024,1087565948,419611,391696,0.178,0.446013,0.84,1.462,0.73,0.96,94,4,0.314,-0.051,0.309,1.185,1.49264,0,nan,0.0,3,1,18
207283457,1599454964200110,340349030,1087565980,419526,391610,0.136,0.576008,0.822,1.416,0.73,0.96,94,9,0.266,0.134,0.23,-0.201,1.06461,0,nan,0.0,3,1,18
208290400,1599454965200110,340349053,1087566045,419435,391520,0.151,0.199271,0.802,1.364,0.73,0.96,94,4,0.729,0.236,0.69,0.372,1.15176,0,nan,0.0,3,1,18
209291262,1599454966200111,340349055,1087566127,418804,390888,0.154,0.215296,0.789,1.334,0.73,0.96,94,4,0.712,0.04,0.711,0.312,1.55631,0,nan,0.0,3,1,18
210280451,1599454967200111,340349074,1087566194,418973,391058,0.124,0.211671,0.78,1.311,0.73,0.96,100,4,0.722,0.233,0.683,-0.353,1.21386,0,nan,0.0,3,1,18
211281686,1599454968200111,340349079,1087566264,419578,391663,0.128,0.230097,0.769,1.283,0.73,0.96,101,15,0.703,0.201,0.674,-0.486,1.33528,0,nan,0.0,3,1,18
212294501,1599454969200111,340349103,1087566327,419494,391579,0.155,0.207193,0.758,1.255,0.73,0.96,101,10,0.738,0.273,0.686,0.425,1.1679,0,nan,0.0,3,1,18
213284527,1599454970200111,340349131,1087566403,418910,390994,0.157,0.269693,0.752,1.239,0.73,0.96,100,14,0.61,0.131,0.596,0.203,1.20783,0,nan,0.0,3,1,18
214283292,1599454971200111,340349115,1087566457,418762,390847,0.198,0.345177,0.75,1.226,0.73,0.96,88,6,0.603,-0.128,0.59,0.355,1.86528,0,nan,0.0,3,1,18
215283257,1599454972200112,340349119,1087566525,418771,390856,0.205,0.319438,0.765,1.236,0.73,0.96,88,6,0.692,0.194,0.664,-0.065,1.36065,0,nan,0.0,3,1,18
216283260,1599454973200112,340349116,1087566592,418790,390875,0.217,0.386826,0.781,1.25,0.73,0.96,88,4,0.607,-0.157,0.587,0.174,1.67305,0,nan,0.0,3,1,18
217289403,1599454974200112,340349101,1087566666,419041,391125,0.157,0.215328,0.78,1.24,0.73,0.96,94,7,0.746,-0.123,0.736,-0.698,1.72835,0,nan,0.0,3,1,18
218292269,1599454975200112,340349083,1087566728,419847,391932,0.181,0.214536,0.773,1.226,0.73,0.96,94,13,0.638,-0.482,0.418,-0.872,2.19104,0,nan,0.0,3,1,18
219281176,1599454976200112,340349052,1087566761,420553,392638,0.164,0.387519,0.76,1.201,0.73,0.96,94,6,0.326,-0.152,0.289,-0.684,2.32131,0,nan,0.0,3,1,18
220282282,1599454977200113,340349064,1087566787,420952,393037,0.116,0.533709,0.746,1.174,0.73,0.96,95,6,0.226,0.154,0.165,-0.015,0.876481,0,nan,0.0,3,1,18
221289275,1599454978200113,340349061,1087566787,420393,392478,0.16,0.514536,0.736,1.157,0.73,0.96,101,5,0.251,-0.215,-0.129,0.689,2.33071,0,nan,0.0,3,1,18
222300421,1599454979200113,340349034,1087566787,419765,391850,0.142,0.213694,0.728,1.138,0.73,0.96,101,8,0.615,-0.475,0.391,0.345,2.64719,0,nan,0.0,3,1,18
223287540,1599454980200113,340348995,1087566861,419616,391700,0.131,0.188213,0.721,1.125,0.73,0.96,101,7,0.74,-0.268,0.69,0.039,2.05223,0,nan,0.0,3,1,18
224288690,1599454981200113,340348969,1087566906,419804,391888,0.137,0.335684,0.715,1.115,0.81,1.19,101,7,0.437,-0.311,0.306,-0.1,2.2899,0,nan,0.0,3,1,17
225289881,1599454982200113,340348927,1087566920,419822,391907,0.143,0.303297,0.712,1.119,0.81,1.19,101,17,0.566,-0.564,0.037,-0.082,2.97555,0,nan,0.0,3,1,17
226281224,1599454983200114,340348879,1087566924,419490,391575,0.182,0.337367,0.71,1.124,0.81,1.19,101,6,0.47,-0.433,0.183,0.615,2.92335,0,nan,0.0,3,1,17
227282271,1599454984200114,340348853,1087566956,418624,390709,0.243,0.778964,0.721,1.149,0.81,1.19,89,2,0.304,-0.245,0.18,0.34,2.39899,0,nan,0.0,3,1,17
228281723,1599454985200114,340348829,1087566972,418822,390907,0.236,0.764026,0.742,1.188,0.81,1.19,89,3,0.302,-0.153,0.26,-0.124,2.39795,0,nan,0.0,3,1,17
229293462,1599454986200114,340348803,1087566992,419106,391191,0.19,0.425703,0.741,1.197,0.82,1.22,99,4,0.387,-0.379,0.076,-0.211,2.78923,0,nan,0.0,3,1,16
230286268,1599454987200114,340348757,1087567000,418894,390979,0.153,0.335148,0.741,1.205,0.82,1.22,99,10,0.516,-0.51,0.079,0.274,3.0095,0,nan,0.0,3,1,16
231279685,1599454988200114,340348723,1087567028,418317,390402,0.221,0.408851,0.743,1.214,0.82,1.22,99,5,0.435,-0.319,0.295,0.433,2.45153,0,nan,0.0,3,1,16
232286982,1599454989200115,340348680,1087567053,418183,390267,0.184,0.352314,0.745,1.222,0.82,1.22,87,5,0.542,-0.53,0.116,-0.172,2.76561,0,nan,0.0,3,1,16
233293302,1599454990200115,340348636,1087567059,418291,390376,0.225,0.371013,0.75,1.233,0.82,1.22,86,4,0.528,-0.522,0.079,-0.289,3.00704,0,nan,0.0,3,1,16
234291277,1599454991200115,340348591,1087567095,418622,390707,0.162,0.251762,0.754,1.243,0.82,1.22,81,10,0.668,-0.479,0.466,-0.164,2.48094,0,nan,0.0,3,1,16
235289997,1599454992200115,340348543,1087567146,418619,390704,0.157,0.218366,0.752,1.251,0.82,1.22,81,3,0.77,-0.689,0.344,0.008,2.59837,0,nan,0.0,3,1,16
236285590,1599454993200115,340348470,1087567169,418304,390389,0.153,0.211384,0.753,1.262,0.82,1.22,81,6,0.812,-0.791,0.185,0.545,2.90838,0,nan,0.0,3,1,16
237282661,1599454994200115,340348403,1087567169,417829,389914,0.166,0.359686,0.757,1.282,0.82,1.22,81,7,0.567,-0.567,0.015,0.132,3.13362,0,nan,0.0,3,1,16
238289274,1599454995200116,340348356,1087567178,418284,390369,0.22,0.379506,0.755,1.291,0.82,1.22,92,5,0.415,-0.413,0.039,-0.459,2.96412,0,nan,0.0,3,1,16
239293261,1599454996200116,340348356,1087567174,418869,390954,0.213,0.694454,0.754,1.304,0.75,0.99,99,3,0.109,0.057,0.093,-0.403,3.76687,0,nan,0.0,3,1,17
240300454,1599454997200116,340348363,1087567228,419012,391097,0.183,0.24894,0.749,1.301,0.82,1.22,99,15,0.51,0.104,0.499,0.123,1.46104,0,nan,0.0,3,1,16
241281370,1599454998200116,340348402,1087567250,418371,390456,0.238,0.22862,0.748,1.309,0.82,1.22,106,15,0.7,0.676,0.183,0.802,0.271996,0,nan,0.0,3,1,16
242288629,1599454999200116,340348434,1087567236,418189,390274,0.199,0.559688,0.746,1.314,0.82,1.22,106,4,0.304,0.177,-0.247,-0.209,5.6688,0,nan,0.0,3,1,16
243285284,1599455000200117,340348442,1087567201,418589,390674,0.2,0.445565,0.744,1.317,0.82,1.22,106,10,0.325,-0.006,-0.325,-0.124,4.83272,0,nan,0.0,3,1,16
244280878,1599455001200117,340348446,1087567198,418569,390654,0.267,0.577103,0.758,1.339,0.82,1.22,99,6,0.201,0.001,0.201,0.202,4.87982,0,nan,0.0,3,1,16
245287330,1599455002200117,340348441,1087567232,418029,390114,0.276,0.568756,0.777,1.37,0.81,1.18,99,5,0.206,-0.144,0.147,0.905,1.55535,0,nan,0.0,3,1,17
246288255,1599455003200117,340348437,1087567244,418039,390124,0.216,0.486124,0.793,1.398,0.82,1.22,99,5,0.111,-0.069,-0.088,0.082,1.71596,0,nan,0.0,3,1,16
247283970,1599455004200117,340348438,1087567228,417981,390066,0.252,0.608042,0.811,1.434,0.81,1.18,99,3,0.083,0.083,0.006,0.017,4.90212,0,nan,0.0,3,1,17
248279683,1599455005200117,340348439,1087567231,417959,390044,0.296,0.608048,0.832,1.472,0.81,1.18,99,2,0.024,0.015,0.019,0.016,4.90212,0,nan,0.0,3,1,17
