timestamp,x,y,z,r,flaps,aux1,aux2,aux3,aux4,aux5,aux6,mode_switch,return_switch,rattitude_switch,posctl_switch,loiter_switch,acro_switch,offboard_switch,kill_switch,arm_switch,transition_switch,gear_switch,mode_slot,data_source,stab_switch,man_switch
92751444,0.0,-0.00488998,0.0315152,0.997512,0.0,0.0,0.0,0.0,0.0,0.0,0.0,0,0,0,0,0,0,0,0,0,0,0,4,1,0,0
92771783,0.0,-0.00488998,0.0327273,0.997512,0.0,0.0,0.0,0.0,0.0,0.0,0.0,0,0,0,0,0,0,0,0,0,0,0,4,1,0,0
92961861,0.0,-0.00488998,0.0327273,0.78607,0.0,0.0,0.0,0.0,0.0,0.0,0.0,0,0,0,0,0,0,0,0,0,0,0,4,1,0,0
93148346,0.0,-0.00488998,0.0327273,0.0,0.0,0.0,0.0,0.0,0.0,0.0,0.0,0,0,0,0,0,0,0,0,0,0,0,4,1,0,0
93348474,0.0,-0.00488998,0.0315152,0.0,0.0,0.0,0.0,0.0,0.0,0.0,0.0,0,0,0,0,0,0,0,0,0,0,0,4,1,0,0
93556558,0.0,-0.00488998,0.0315152,0.0,0.0,0.0,0.0,0.0,0.0,0.0,0.0,0,0,0,0,0,0,0,0,0,0,0,4,1,0,0
93748908,0.0,-0.00488998,0.0327273,0.0,0.0,0.0,0.0,0.0,0.0,0.0,0.0,0,0,0,0,0,0,0,0,0,0,0,4,1,0,0
93959067,0.0,-0.00488998,0.0315152,0.0,0.0,0.0,0.0,0.0,0.0,0.0,0.0,0,0,0,0,0,0,0,0,0,0,0,4,1,0,0
94156902,0.0,-0.00488998,0.0315152,0.0,0.0,0.0,0.0,0.0,0.0,0.0,0.0,0,0,0,0,0,0,0,0,0,0,0,4,1,0,0
94359286,0.0,-0.00488998,0.0509091,0.0,0.0,0.0,0.0,0.0,0.0,0.0,0.0,0,0,0,0,0,0,0,0,0,0,0,4,1,0,0
94559448,0.0,-0.00488998,0.0812121,0.0,0.0,0.0,0.0,0.0,0.0,0.0,0.0,0,0,0,0,0,0,0,0,0,0,0,4,1,0,0
94747379,0.0,-0.00488998,0.0824242,0.0,0.0,0.0,0.0,0.0,0.0,0.0,0.0,0,0,0,0,0,0,0,0,0,0,0,4,1,0,0
94953137,0.0,-0.00488998,0.0848485,0.0,0.0,0.0,0.0,0.0,0.0,0.0,0.0,0,0,0,0,0,0,0,0,0,0,0,4,1,0,0
95163621,0.0,-0.00488998,0.144242,0.0,0.0,0.0,0.0,0.0,0.0,0.0,0.0,0,0,0,0,0,0,0,0,0,0,0,4,1,0,0
95360123,0.0,-0.00488998,0.149091,0.0,0.0,0.0,0.0,0.0,0.0,0.0,0.0,0,0,0,0,0,0,0,0,0,0,0,4,1,0,0
95553619,0.0,-0.00488998,0.150303,0.0,0.0,0.0,0.0,0.0,0.0,0.0,0.0,0,0,0,0,0,0,0,0,0,0,0,4,1,0,0
95748191,0.0,-0.00488998,0.151515,0.0,0.0,0.0,0.0,0.0,0.0,0.0,0.0,0,0,0,0,0,0,0,0,0,0,0,4,1,0,0
95964272,0.0,-0.00488998,0.186667,0.0,0.0,0.0,0.0,0.0,0.0,0.0,0.0,0,0,0,0,0,0,0,0,0,0,0,4,1,0,0
96160771,0.0,-0.00488998,0.208485,0.0,0.0,0.0,0.0,0.0,0.0,0.0,0.0,0,0,0,0,0,0,0,0,0,0,0,4,1,0,0
96350898,0.0,-0.00488998,0.218182,0.0,0.0,0.0,0.0,0.0,0.0,0.0,0.0,0,0,0,0,0,0,0,0,0,0,0,4,1,0,0
96559750,0.0,-0.00488998,0.221818,0.0,0.0,0.0,0.0,0.0,0.0,0.0,0.0,0,0,0,0,0,0,0,0,0,0,0,4,1,0,0
96751223,0.0,-0.00488998,0.259394,0.0,0.0,0.0,0.0,0.0,0.0,0.0,0.0,0,0,0,0,0,0,0,0,0,0,0,4,1,0,0
96951396,0.0,-0.00488998,0.286061,0.0,0.0,0.0,0.0,0.0,0.0,0.0,0.0,0,0,0,0,0,0,0,0,0,0,0,4,1,0,0
97151625,0.0,-0.00488998,0.294545,0.0,0.0,0.0,0.0,0.0,0.0,0.0,0.0,0,0,0,0,0,0,0,0,0,0,0,4,1,0,0
97361798,0.0,-0.00488998,0.290909,0.0,0.0,0.0,0.0,0.0,0.0,0.0,0.0,0,0,0,0,0,0,0,0,0,0,0,4,1,0,0
97549615,0.0,-0.00488998,0.289697,0.0,0.0,0.0,0.0,0.0,0.0,0.0,0.0,0,0,0,0,0,0,0,0,0,0,0,4,1,0,0
97749774,0.0,-0.00488998,0.30303,0.0,0.0,0.0,0.0,0.0,0.0,0.0,0.0,0,0,0,0,0,0,0,0,0,0,0,4,1,0,0
97952254,0.0,-0.00488998,0.307879,0.0,0.0,0.0,0.0,0.0,0.0,0.0,0.0,0,0,0,0,0,0,0,0,0,0,0,4,1,0,0
98162338,0.0,-0.00488998,0.310303,0.0,0.0,0.0,0.0,0.0,0.0,0.0,0.0,0,0,0,0,0,0,0,0,0,0,0,4,1,0,0
98352499,0.0,-0.00488998,0.321212,0.0,0.0,0.0,0.0,0.0,0.0,0.0,0.0,0,0,0,0,0,0,0,0,0,0,0,4,1,0,0
98546347,0.0,-0.00488998,0.329697,0.0,0.0,0.0,0.0,0.0,0.0,0.0,0.0,0,0,0,0,0,0,0,0,0,0,0,4,1,0,0
98752820,0.0,-0.00244499,0.333333,-0.0243309,0.0,0.0,0.0,0.0,0.0,0.0,0.0,0,0,0,0,0,0,0,0,0,0,0,4,1,0,0
98962973,0.119107,0.0225,0.334545,0.0,0.0,0.0,0.0,0.0,0.0,0.0,0.0,0,0,0,0,0,0,0,0,0,0,0,4,1,0,0
99160909,0.129032,0.0,0.334545,0.0,0.0,0.0,0.0,0.0,0.0,0.0,0.0,0,0,0,0,0,0,0,0,0,0,0,4,1,0,0
99353320,0.0,-0.00244499,0.334545,0.0,0.0,0.0,0.0,0.0,0.0,0.0,0.0,0,0,0,0,0,0,0,0,0,0,0,4,1,0,0
99553476,0.0,-0.00244499,0.340606,-0.00243309,0.0,0.0,0.0,0.0,0.0,0.0,0.0,0,0,0,0,0,0,0,0,0,0,0,4,1,0,0
99763614,0.0,-0.00244499,0.346667,-0.00486618,0.0,0.0,0.0,0.0,0.0,0.0,0.0,0,0,0,0,0,0,0,0,0,0,0,4,1,0,0
99953804,0.0,-0.00244499,0.361212,-0.0194647,0.0,0.0,0.0,0.0,0.0,0.0,0.0,0,0,0,0,0,0,0,0,0,0,0,4,1,0,0
100143973,0.0,-0.00244499,0.361212,-0.00973236,0.0,0.0,0.0,0.0,0.0,0.0,0.0,0,0,0,0,0,0,0,0,0,0,0,4,1,0,0
100364125,0.0,-0.00244499,0.372121,-0.00486618,0.0,0.0,0.0,0.0,0.0,0.0,0.0,0,0,0,0,0,0,0,0,0,0,0,4,1,0,0
100554301,0.0,-0.00244499,0.367273,0.0,0.0,0.0,0.0,0.0,0.0,0.0,0.0,0,0,0,0,0,0,0,0,0,0,0,4,1,0,0
100752178,0.129032,0.0,0.374545,0.0,0.0,0.0,0.0,0.0,0.0,0.0,0.0,0,0,0,0,0,0,0,0,0,0,0,4,1,0,0
100948281,0.158809,0.0,0.374545,0.0,0.0,0.0,0.0,0.0,0.0,0.0,0.0,0,0,0,0,0,0,0,0,0,0,0,4,1,0,0
101162527,0.0,-0.00244499,0.373333,0.0,0.0,0.0,0.0,0.0,0.0,0.0,0.0,0,0,0,0,0,0,0,0,0,0,0,4,1,0,0
101344913,0.0,-0.00488998,0.368485,0.0,0.0,0.0,0.0,0.0,0.0,0.0,0.0,0,0,0,0,0,0,0,0,0,0,0,4,1,0,0
101555049,0.0,0.0,0.390303,0.0,0.0,0.0,0.0,0.0,0.0,0.0,0.0,0,0,0,0,0,0,0,0,0,0,0,4,1,0,0
101762990,0.0,0.0,0.404848,0.0,0.0,0.0,0.0,0.0,0.0,0.0,0.0,0,0,0,0,0,0,0,0,0,0,0,4,1,0,0
101965377,0.0,0.0,0.410909,0.0,0.0,0.0,0.0,0.0,0.0,0.0,0.0,0,0,0,0,0,0,0,0,0,0,0,4,1,0,0
102153303,0.0248139,0.0,0.412121,0.0,0.0,0.0,0.0,0.0,0.0,0.0,0.0,0,0,0,0,0,0,0,0,0,0,0,4,1,0,0
102355728,0.0,-0.00244499,0.420606,0.0,0.0,0.0,0.0,0.0,0.0,0.0,0.0,0,0,0,0,0,0,0,0,0,0,0,4,1,0,0
102555948,0.0,-0.00244499,0.420606,0.0,0.0,0.0,0.0,0.0,0.0,0.0,0.0,0,0,0,0,0,0,0,0,0,0,0,4,1,0,0
102766010,0.0496278,0.0,0.418182,0.0,0.0,0.0,0.0,0.0,0.0,0.0,0.0,0,0,0,0,0,0,0,0,0,0,0,4,1,0,0
102949570,0.218362,-0.00244499,0.41697,0.0,0.0,0.0,0.0,0.0,0.0,0.0,0.0,0,0,0,0,0,0,0,0,0,0,0,4,1,0,0
103156341,0.198511,0.0,0.415758,0.0,0.0,0.0,0.0,0.0,0.0,0.0,0.0,0,0,0,0,0,0,0,0,0,0,0,4,1,0,0
103346534,0.0,-0.00977995,0.432727,0.0,0.0,0.0,0.0,0.0,0.0,0.0,0.0,0,0,0,0,0,0,0,0,0,0,0,4,1,0,0
103564437,0.0,-0.00244499,0.418182,0.0,0.0,0.0,0.0,0.0,0.0,0.0,0.0,0,0,0,0,0,0,0,0,0,0,0,4,1,0,0
103750595,0.0,-0.0171149,0.430303,0.0,0.0,0.0,0.0,0.0,0.0,0.0,0.0,0,0,0,0,0,0,0,0,0,0,0,4,1,0,0
103960661,0.0,-0.114914,0.427879,0.0,0.0,0.0,0.0,0.0,0.0,0.0,0.0,0,0,0,0,0,0,0,0,0,0,0,4,1,0,0
104167126,0.0223325,-0.0488998,0.426667,0.0,0.0,0.0,0.0,0.0,0.0,0.0,0.0,0,0,0,0,0,0,0,0,0,0,0,4,1,0,0
104347330,0.00496278,-0.0391198,0.429091,0.0,0.0,0.0,0.0,0.0,0.0,0.0,0.0,0,0,0,0,0,0,0,0,0,0,0,4,1,0,0
104557454,0.0,-0.0342298,0.44,-0.00243309,0.0,0.0,0.0,0.0,0.0,0.0,0.0,0,0,0,0,0,0,0,0,0,0,0,4,1,0,0
104757620,0.0,-0.0122249,0.44,0.0,0.0,0.0,0.0,0.0,0.0,0.0,0.0,0,0,0,0,0,0,0,0,0,0,0,4,1,0,0
104947774,0.0,-0.00488998,0.446061,0.0,0.0,0.0,0.0,0.0,0.0,0.0,0.0,0,0,0,0,0,0,0,0,0,0,0,4,1,0,0
105147930,0.0,-0.00488998,0.450909,-0.00486618,0.0,0.0,0.0,0.0,0.0,0.0,0.0,0,0,0,0,0,0,0,0,0,0,0,4,1,0,0
105358085,0.0,0.0,0.450909,0.0,0.0,0.0,0.0,0.0,0.0,0.0,0.0,0,0,0,0,0,0,0,0,0,0,0,4,1,0,0
105548252,0.0,-0.00244499,0.450909,0.0,0.0,0.0,0.0,0.0,0.0,0.0,0.0,0,0,0,0,0,0,0,0,0,0,0,4,1,0,0
105748411,0.0,-0.00244499,0.449697,0.0,0.0,0.0,0.0,0.0,0.0,0.0,0.0,0,0,0,0,0,0,0,0,0,0,0,4,1,0,0
105948723,0.133995,-0.00244499,0.454545,0.0,0.0,0.0,0.0,0.0,0.0,0.0,0.0,0,0,0,0,0,0,0,0,0,0,0,4,1,0,0
106158748,0.215881,-0.0220049,0.452121,0.0,0.0,0.0,0.0,0.0,0.0,0.0,0.0,0,0,0,0,0,0,0,0,0,0,0,4,1,0,0
106358969,0.198511,-0.0220049,0.450909,0.0,0.0,0.0,0.0,0.0,0.0,0.0,0.0,0,0,0,0,0,0,0,0,0,0,0,4,1,0,0
106549102,0.16129,-0.0293399,0.458182,0.0,0.0,0.0,0.0,0.0,0.0,0.0,0.0,0,0,0,0,0,0,0,0,0,0,0,4,1,0,0
106762921,0.00496278,-0.161369,0.454545,0.0,0.0,0.0,0.0,0.0,0.0,0.0,0.0,0,0,0,0,0,0,0,0,0,0,0,4,1,0,0
106959397,0.0,-0.188264,0.454545,0.0,0.0,0.0,0.0,0.0,0.0,0.0,0.0,0,0,0,0,0,0,0,0,0,0,0,4,1,0,0
107149650,0.0,-0.198044,0.454545,0.0,0.0,0.0,0.0,0.0,0.0,0.0,0.0,0,0,0,0,0,0,0,0,0,0,0,4,1,0,0
107347461,0.0,-0.00244499,0.449697,0.0,0.0,0.0,0.0,0.0,0.0,0.0,0.0,0,0,0,0,0,0,0,0,0,0,0,4,1,0,0
107557672,0.0,-0.00244499,0.449697,0.0,0.0,0.0,0.0,0.0,0.0,0.0,0.0,0,0,0,0,0,0,0,0,0,0,0,4,1,0,0
107750046,0.0,-0.00488998,0.449697,0.0,0.0,0.0,0.0,0.0,0.0,0.0,0.0,0,0,0,0,0,0,0,0,0,0,0,4,1,0,0
107960180,0.0,-0.00244499,0.472727,0.0,0.0,0.0,0.0,0.0,0.0,0.0,0.0,0,0,0,0,0,0,0,0,0,0,0,4,1,0,0
108148106,0.0,0.0,0.471515,0.0,0.0,0.0,0.0,0.0,0.0,0.0,0.0,0,0,0,0,0,0,0,0,0,0,0,4,1,0,0
108360509,0.0,0.0,0.473939,0.0,0.0,0.0,0.0,0.0,0.0,0.0,0.0,0,0,0,0,0,0,0,0,0,0,0,4,1,0,0
108554354,0.0,-0.00488998,0.470303,0.0,0.0,0.0,0.0,0.0,0.0,0.0,0.0,0,0,0,0,0,0,0,0,0,0,0,4,1,0,0
108760907,0.0,-0.00244499,0.471515,0.0,0.0,0.0,0.0,0.0,0.0,0.0,0.0,0,0,0,0,0,0,0,0,0,0,0,4,1,0,0
108951237,0.171216,0.0,0.464242,0.0,0.0,0.0,0.0,0.0,0.0,0.0,0.0,0,0,0,0,0,0,0,0,0,0,0,4,1,0,0
109161162,0.129032,0.0,0.473939,0.0,0.0,0.0,0.0,0.0,0.0,0.0,0.0,0,0,0,0,0,0,0,0,0,0,0,4,1,0,0
109349173,0.0,-0.00244499,0.471515,0.0,0.0,0.0,0.0,0.0,0.0,0.0,0.0,0,0,0,0,0,0,0,0,0,0,0,4,1,0,0
109551447,0.0,-0.00244499,0.471515,0.0,0.0,0.0,0.0,0.0,0.0,0.0,0.0,0,0,0,0,0,0,0,0,0,0,0,4,1,0,0
109754942,0.0372208,-0.0317848,0.470303,0.0,0.0,0.0,0.0,0.0,0.0,0.0,0.0,0,0,0,0,0,0,0,0,0,0,0,4,1,0,0
109949553,0.0,-0.124694,0.469091,0.0,0.0,0.0,0.0,0.0,0.0,0.0,0.0,0,0,0,0,0,0,0,0,0,0,0,4,1,0,0
110161979,0.0,-0.0855746,0.469091,0.0,0.0,0.0,0.0,0.0,0.0,0.0,0.0,0,0,0,0,0,0,0,0,0,0,0,4,1,0,0
110352132,0.0,-0.00244499,0.471515,0.0,0.0,0.0,0.0,0.0,0.0,0.0,0.0,0,0,0,0,0,0,0,0,0,0,0,4,1,0,0
110562283,0.0,-0.00733496,0.470303,0.0,0.0,0.0,0.0,0.0,0.0,0.0,0.0,0,0,0,0,0,0,0,0,0,0,0,4,1,0,0
110746284,0.0769231,0.0,0.471515,0.0,0.0,0.0,0.0,0.0,0.0,0.0,0.0,0,0,0,0,0,0,0,0,0,0,0,4,1,0,0
110952614,0.0,-0.00488998,0.471515,0.0,0.0,0.0,0.0,0.0,0.0,0.0,0.0,0,0,0,0,0,0,0,0,0,0,0,4,1,0,0
111160521,0.0,-0.00488998,0.471515,0.0,0.0,0.0,0.0,0.0,0.0,0.0,0.0,0,0,0,0,0,0,0,0,0,0,0,4,1,0,0
111362898,0.0,-0.0537897,0.470303,0.0,0.0,0.0,0.0,0.0,0.0,0.0,0.0,0,0,0,0,0,0,0,0,0,0,0,4,1,0,0
111550943,0.0,-0.0977995,0.469091,0.0,0.0,0.0,0.0,0.0,0.0,0.0,0.0,0,0,0,0,0,0,0,0,0,0,0,4,1,0,0
111753223,0.0,-0.00488998,0.471515,0.0,0.0,0.0,0.0,0.0,0.0,0.0,0.0,0,0,0,0,0,0,0,0,0,0,0,4,1,0,0
111951155,0.0,-0.00488998,0.470303,0.0,0.0,0.0,0.0,0.0,0.0,0.0,0.0,0,0,0,0,0,0,0,0,0,0,0,4,1,0,0
112163575,0.0,-0.00488998,0.471515,0.0,0.0,0.0,0.0,0.0,0.0,0.0,0.0,0,0,0,0,0,0,0,0,0,0,0,4,1,0,0
112361490,0.0,-0.00488998,0.471515,0.0,0.0,0.0,0.0,0.0,0.0,0.0,0.0,0,0,0,0,0,0,0,0,0,0,0,4,1,0,0
112553860,0.0148883,-0.0953545,0.466667,0.0,0.0,0.0,0.0,0.0,0.0,0.0,0.0,0,0,0,0,0,0,0,0,0,0,0,4,1,0,0
112764070,0.00992556,-0.107579,0.466667,0.0,0.0,0.0,0.0,0.0,0.0,0.0,0.0,0,0,0,0,0,0,0,0,0,0,0,4,1,0,0
112964246,0.0,-0.00244499,0.472727,0.0,0.0,0.0,0.0,0.0,0.0,0.0,0.0,0,0,0,0,0,0,0,0,0,0,0,4,1,0,0
113154339,0.0,-0.00488998,0.471515,0.0,0.0,0.0,0.0,0.0,0.0,0.0,0.0,0,0,0,0,0,0,0,0,0,0,0,4,1,0,0
113354514,0.129032,-0.00244499,0.471515,0.0,0.0,0.0,0.0,0.0,0.0,0.0,0.0,0,0,0,0,0,0,0,0,0,0,0,4,1,0,0
113564688,0.0992556,-0.0366748,0.469091,0.0,0.0,0.0,0.0,0.0,0.0,0.0,0.0,0,0,0,0,0,0,0,0,0,0,0,4,1,0,0
113752609,0.0992556,-0.0342298,0.469091,0.0,0.0,0.0,0.0,0.0,0.0,0.0,0.0,0,0,0,0,0,0,0,0,0,0,0,4,1,0,0
113955001,0.0173697,-0.00488998,0.471515,0.0,0.0,0.0,0.0,0.0,0.0,0.0,0.0,0,0,0,0,0,0,0,0,0,0,0,4,1,0,0
114165159,0.0545906,0.0,0.472727,0.0,0.0,0.0,0.0,0.0,0.0,0.0,0.0,0,0,0,0,0,0,0,0,0,0,0,4,1,0,0
114365326,0.0,-0.00733496,0.470303,0.0,0.0,0.0,0.0,0.0,0.0,0.0,0.0,0,0,0,0,0,0,0,0,0,0,0,4,1,0,0
114565576,0.0,-0.00488998,0.470303,0.0,0.0,0.0,0.0,0.0,0.0,0.0,0.0,0,0,0,0,0,0,0,0,0,0,0,4,1,0,0
114753425,0.0,-0.176039,0.469091,0.0,0.0,0.0,0.0,0.0,0.0,0.0,0.0,0,0,0,0,0,0,0,0,0,0,0,4,1,0,0
114963704,0.0,-0.195599,0.467879,0.0,0.0,0.0,0.0,0.0,0.0,0.0,0.0,0,0,0,0,0,0,0,0,0,0,0,4,1,0,0
115156009,0.00496278,-0.132029,0.46303,0.0,0.0,0.0,0.0,0.0,0.0,0.0,0.0,0,0,0,0,0,0,0,0,0,0,0,4,1,0,0
115353915,0.0,-0.00488998,0.471515,0.0,0.0,0.0,0.0,0.0,0.0,0.0,0.0,0,0,0,0,0,0,0,0,0,0,0,4,1,0,0
115556292,0.101737,0.0,0.46303,0.0,0.0,0.0,0.0,0.0,0.0,0.0,0.0,0,0,0,0,0,0,0,0,0,0,0,4,1,0,0
115766450,0.200993,0.0,0.469091,0.0,0.0,0.0,0.0,0.0,0.0,0.0,0.0,0,0,0,0,0,0,0,0,0,0,0,4,1,0,0
115964382,0.166253,0.0325,0.469091,0.0,0.0,0.0,0.0,0.0,0.0,0.0,0.0,0,0,0,0,0,0,0,0,0,0,0,4,1,0,0
116146903,0.0,-0.00244499,0.472727,0.0,0.0,0.0,0.0,0.0,0.0,0.0,0.0,0,0,0,0,0,0,0,0,0,0,0,4,1,0,0
116356939,0.0,-0.00244499,0.472727,0.0,0.0,0.0,0.0,0.0,0.0,0.0,0.0,0,0,0,0,0,0,0,0,0,0,0,4,1,0,0
116547067,0.0223325,0.16,0.469091,0.0,0.0,0.0,0.0,0.0,0.0,0.0,0.0,0,0,0,0,0,0,0,0,0,0,0,4,1,0,0
116767245,0.0,-0.00488998,0.471515,0.0,0.0,0.0,0.0,0.0,0.0,0.0,0.0,0,0,0,0,0,0,0,0,0,0,0,4,1,0,0
116957406,0.0,-0.00244499,0.470303,0.0,0.0,0.0,0.0,0.0,0.0,0.0,0.0,0,0,0,0,0,0,0,0,0,0,0,4,1,0,0
117161292,0.0,0.0,0.470303,0.0,0.0,0.0,0.0,0.0,0.0,0.0,0.0,0,0,0,0,0,0,0,0,0,0,0,4,1,0,0
117347721,0.0,-0.00488998,0.471515,0.0,0.0,0.0,0.0,0.0,0.0,0.0,0.0,0,0,0,0,0,0,0,0,0,0,0,4,1,0,0
117557877,0.00744417,0.0,0.464242,0.0,0.0,0.0,0.0,0.0,0.0,0.0,0.0,0,0,0,0,0,0,0,0,0,0,0,4,1,0,0
117748029,0.0992556,-0.00244499,0.472727,0.0,0.0,0.0,0.0,0.0,0.0,0.0,0.0,0,0,0,0,0,0,0,0,0,0,0,4,1,0,0
117961906,0.0,-0.00244499,0.471515,0.0,0.0,0.0,0.0,0.0,0.0,0.0,0.0,0,0,0,0,0,0,0,0,0,0,0,4,1,0,0
118148479,0.0918114,0.0,0.472727,0.0,0.0,0.0,0.0,0.0,0.0,0.0,0.0,0,0,0,0,0,0,0,0,0,0,0,4,1,0,0
118358668,0.0198511,-0.0977995,0.470303,0.0,0.0,0.0,0.0,0.0,0.0,0.0,0.0,0,0,0,0,0,0,0,0,0,0,0,4,1,0,0
118556489,0.0,-0.00488998,0.471515,0.0,0.0,0.0,0.0,0.0,0.0,0.0,0.0,0,0,0,0,0,0,0,0,0,0,0,4,1,0,0
118746658,0.0,-0.00488998,0.470303,0.0,0.0,0.0,0.0,0.0,0.0,0.0,0.0,0,0,0,0,0,0,0,0,0,0,0,4,1,0,0
118952767,0.0744417,-0.0317848,0.469091,0.0,0.0,0.0,0.0,0.0,0.0,0.0,0.0,0,0,0,0,0,0,0,0,0,0,0,4,1,0,0
119146941,0.0,0.0,0.470303,0.0,0.0,0.0,0.0,0.0,0.0,0.0,0.0,0,0,0,0,0,0,0,0,0,0,0,4,1,0,0
119359430,0.0521092,0.0,0.472727,0.0,0.0,0.0,0.0,0.0,0.0,0.0,0.0,0,0,0,0,0,0,0,0,0,0,0,4,1,0,0
119549488,0.0992556,-0.00244499,0.472727,0.0,0.0,0.0,0.0,0.0,0.0,0.0,0.0,0,0,0,0,0,0,0,0,0,0,0,4,1,0,0
119749666,0.0,-0.00244499,0.471515,0.0,0.0,0.0,0.0,0.0,0.0,0.0,0.0,0,0,0,0,0,0,0,0,0,0,0,4,1,0,0
119963550,0.0,-0.00244499,0.471515,0.0,0.0,0.0,0.0,0.0,0.0,0.0,0.0,0,0,0,0,0,0,0,0,0,0,0,4,1,0,0
120163409,0.0,-0.0366748,0.469091,0.0,0.0,0.0,0.0,0.0,0.0,0.0,0.0,0,0,0,0,0,0,0,0,0,0,0,4,1,0,0
120350119,0.0,-0.163814,0.469091,0.0,0.0,0.0,0.0,0.0,0.0,0.0,0.0,0,0,0,0,0,0,0,0,0,0,0,4,1,0,0
120550332,0.0,-0.00488998,0.470303,0.0,0.0,0.0,0.0,0.0,0.0,0.0,0.0,0,0,0,0,0,0,0,0,0,0,0,4,1,0,0
120760451,0.0,-0.00488998,0.470303,0.0,0.0,0.0,0.0,0.0,0.0,0.0,0.0,0,0,0,0,0,0,0,0,0,0,0,4,1,0,0
120964344,0.129032,0.0,0.46303,0.0,0.0,0.0,0.0,0.0,0.0,0.0,0.0,0,0,0,0,0,0,0,0,0,0,0,4,1,0,0
121148683,0.158809,0.0,0.472727,0.0,0.0,0.0,0.0,0.0,0.0,0.0,0.0,0,0,0,0,0,0,0,0,0,0,0,4,1,0,0
121358735,0.0,-0.00244499,0.471515,0.0,0.0,0.0,0.0,0.0,0.0,0.0,0.0,0,0,0,0,0,0,0,0,0,0,0,4,1,0,0
121561150,0.0,-0.00488998,0.471515,0.0,0.0,0.0,0.0,0.0,0.0,0.0,0.0,0,0,0,0,0,0,0,0,0,0,0,4,1,0,0
121751404,0.0,-0.0831296,0.469091,0.0,0.0,0.0,0.0,0.0,0.0,0.0,0.0,0,0,0,0,0,0,0,0,0,0,0,4,1,0,0
121959690,0.0,-0.0880196,0.460606,0.0,0.0,0.0,0.0,0.0,0.0,0.0,0.0,0,0,0,0,0,0,0,0,0,0,0,4,1,0,0
122151673,0.0,-0.00488998,0.471515,0.0,0.0,0.0,0.0,0.0,0.0,0.0,0.0,0,0,0,0,0,0,0,0,0,0,0,4,1,0,0
122349513,0.0,-0.00244499,0.471515,0.0,0.0,0.0,0.0,0.0,0.0,0.0,0.0,0,0,0,0,0,0,0,0,0,0,0,4,1,0,0
122565600,0.0,-0.00244499,0.471515,0.0,0.0,0.0,0.0,0.0,0.0,0.0,0.0,0,0,0,0,0,0,0,0,0,0,0,4,1,0,0
122752053,0.0967742,0.0,0.461818,0.0,0.0,0.0,0.0,0.0,0.0,0.0,0.0,0,0,0,0,0,0,0,0,0,0,0,4,1,0,0
122945908,0.101737,-0.00244499,0.473939,0.0,0.0,0.0,0.0,0.0,0.0,0.0,0.0,0,0,0,0,0,0,0,0,0,0,0,4,1,0,0
123160191,0.0,-0.00488998,0.471515,0.0,0.0,0.0,0.0,0.0,0.0,0.0,0.0,0,0,0,0,0,0,0,0,0,0,0,4,1,0,0
123352583,0.0,-0.00977995,0.469091,0.0,0.0,0.0,0.0,0.0,0.0,0.0,0.0,0,0,0,0,0,0,0,0,0,0,0,4,1,0,0
123546408,0.0223325,-0.117359,0.467879,0.0,0.0,0.0,0.0,0.0,0.0,0.0,0.0,0,0,0,0,0,0,0,0,0,0,0,4,1,0,0
123746604,0.0,-0.100244,0.469091,0.0,0.0,0.0,0.0,0.0,0.0,0.0,0.0,0,0,0,0,0,0,0,0,0,0,0,4,1,0,0
123953022,0.0,-0.00488998,0.471515,0.0,0.0,0.0,0.0,0.0,0.0,0.0,0.0,0,0,0,0,0,0,0,0,0,0,0,4,1,0,0
124153184,0.0,-0.00488998,0.470303,0.0,0.0,0.0,0.0,0.0,0.0,0.0,0.0,0,0,0,0,0,0,0,0,0,0,0,4,1,0,0
124361134,0.0918114,0.0,0.46303,0.0,0.0,0.0,0.0,0.0,0.0,0.0,0.0,0,0,0,0,0,0,0,0,0,0,0,4,1,0,0
124553643,0.131514,0.0,0.46303,0.0,0.0,0.0,0.0,0.0,0.0,0.0,0.0,0,0,0,0,0,0,0,0,0,0,0,4,1,0,0
124751457,0.0,-0.00488998,0.470303,0.0,0.0,0.0,0.0,0.0,0.0,0.0,0.0,0,0,0,0,0,0,0,0,0,0,0,4,1,0,0
124947540,0.0,-0.00488998,0.470303,0.0,0.0,0.0,0.0,0.0,0.0,0.0,0.0,0,0,0,0,0,0,0,0,0,0,0,4,1,0,0
125164003,0.0421836,-0.00244499,0.471515,0.0,0.0,0.0,0.0,0.0,0.0,0.0,0.0,0,0,0,0,0,0,0,0,0,0,0,4,1,0,0
125357891,0.17866,-0.00488998,0.471515,0.0,0.0,0.0,0.0,0.0,0.0,0.0,0.0,0,0,0,0,0,0,0,0,0,0,0,4,1,0,0
125552083,0.0421836,0.0,0.471515,0.0,0.0,0.0,0.0,0.0,0.0,0.0,0.0,0,0,0,0,0,0,0,0,0,0,0,4,1,0,0
125754487,0.0397022,-0.00244499,0.470303,0.0,0.0,0.0,0.0,0.0,0.0,0.0,0.0,0,0,0,0,0,0,0,0,0,0,0,4,1,0,0
125944766,0.0,-0.00244499,0.471515,0.0,0.0,0.0,0.0,0.0,0.0,0.0,0.0,0,0,0,0,0,0,0,0,0,0,0,4,1,0,0
126162577,0.0,-0.00488998,0.470303,0.0,0.0,0.0,0.0,0.0,0.0,0.0,0.0,0,0,0,0,0,0,0,0,0,0,0,4,1,0,0
126345066,0.0,-0.0782396,0.469091,0.0,0.0,0.0,0.0,0.0,0.0,0.0,0.0,0,0,0,0,0,0,0,0,0,0,0,4,1,0,0
126562894,0.0,-0.132029,0.469091,0.0,0.0,0.0,0.0,0.0,0.0,0.0,0.0,0,0,0,0,0,0,0,0,0,0,0,4,1,0,0
126765291,0.0,-0.00244499,0.472727,0.0,0.0,0.0,0.0,0.0,0.0,0.0,0.0,0,0,0,0,0,0,0,0,0,0,0,4,1,0,0
126965477,0.0,-0.00244499,0.472727,0.0,0.0,0.0,0.0,0.0,0.0,0.0,0.0,0,0,0,0,0,0,0,0,0,0,0,4,1,0,0
127155665,0.0347395,0.0,0.46303,0.0,0.0,0.0,0.0,0.0,0.0,0.0,0.0,0,0,0,0,0,0,0,0,0,0,0,4,1,0,0
127345753,0.0496278,0.0,0.472727,0.0,0.0,0.0,0.0,0.0,0.0,0.0,0.0,0,0,0,0,0,0,0,0,0,0,0,4,1,0,0
127545919,0.0,-0.00244499,0.471515,0.0,0.0,0.0,0.0,0.0,0.0,0.0,0.0,0,0,0,0,0,0,0,0,0,0,0,4,1,0,0
127753868,0.129032,0.0,0.46303,0.0,0.0,0.0,0.0,0.0,0.0,0.0,0.0,0,0,0,0,0,0,0,0,0,0,0,4,1,0,0
127964020,0.131514,-0.00244499,0.471515,0.0,0.0,0.0,0.0,0.0,0.0,0.0,0.0,0,0,0,0,0,0,0,0,0,0,0,4,1,0,0
128154172,0.166253,-0.00244499,0.471515,0.0,0.0,0.0,0.0,0.0,0.0,0.0,0.0,0,0,0,0,0,0,0,0,0,0,0,4,1,0,0
128366584,0.156328,-0.00244499,0.471515,0.0,0.0,0.0,0.0,0.0,0.0,0.0,0.0,0,0,0,0,0,0,0,0,0,0,0,4,1,0,0
128556728,0.0992556,-0.00244499,0.471515,0.0,0.0,0.0,0.0,0.0,0.0,0.0,0.0,0,0,0,0,0,0,0,0,0,0,0,4,1,0,0
128756883,0.0,-0.00244499,0.471515,0.0,0.0,0.0,0.0,0.0,0.0,0.0,0.0,0,0,0,0,0,0,0,0,0,0,0,4,1,0,0
128947052,0.0,-0.0806846,0.469091,0.0,0.0,0.0,0.0,0.0,0.0,0.0,0.0,0,0,0,0,0,0,0,0,0,0,0,4,1,0,0
129141115,0.0,-0.141809,0.467879,0.0,0.0,0.0,0.0,0.0,0.0,0.0,0.0,0,0,0,0,0,0,0,0,0,0,0,4,1,0,0
129357388,0.0,-0.119804,0.467879,0.0,0.0,0.0,0.0,0.0,0.0,0.0,0.0,0,0,0,0,0,0,0,0,0,0,0,4,1,0,0
129565314,0.0,-0.00488998,0.470303,0.0,0.0,0.0,0.0,0.0,0.0,0.0,0.0,0,0,0,0,0,0,0,0,0,0,0,4,1,0,0
129757716,0.0,-0.00244499,0.460606,0.0,0.0,0.0,0.0,0.0,0.0,0.0,0.0,0,0,0,0,0,0,0,0,0,0,0,4,1,0,0
129947867,0.129032,0.0,0.464242,0.0,0.0,0.0,0.0,0.0,0.0,0.0,0.0,0,0,0,0,0,0,0,0,0,0,0,4,1,0,0
130158061,0.08933,-0.00244499,0.472727,0.0,0.0,0.0,0.0,0.0,0.0,0.0,0.0,0,0,0,0,0,0,0,0,0,0,0,4,1,0,0
130352017,0.0,-0.00244499,0.470303,0.0,0.0,0.0,0.0,0.0,0.0,0.0,0.0,0,0,0,0,0,0,0,0,0,0,0,4,1,0,0
130552011,0.0,-0.00488998,0.470303,0.0,0.0,0.0,0.0,0.0,0.0,0.0,0.0,0,0,0,0,0,0,0,0,0,0,0,4,1,0,0
130758495,0.0,-0.00488998,0.470303,0.0,0.0,0.0,0.0,0.0,0.0,0.0,0.0,0,0,0,0,0,0,0,0,0,0,0,4,1,0,0
130966457,0.0,-0.00488998,0.470303,0.0,0.0,0.0,0.0,0.0,0.0,0.0,0.0,0,0,0,0,0,0,0,0,0,0,0,4,1,0,0
131162668,0.0521092,0.0,0.472727,0.0,0.0,0.0,0.0,0.0,0.0,0.0,0.0,0,0,0,0,0,0,0,0,0,0,0,4,1,0,0
131352774,0.19603,-0.0342298,0.469091,0.0,0.0,0.0,0.0,0.0,0.0,0.0,0.0,0,0,0,0,0,0,0,0,0,0,0,4,1,0,0
131562863,0.0,-0.0366748,0.471515,0.0,0.0,0.0,0.0,0.0,0.0,0.0,0.0,0,0,0,0,0,0,0,0,0,0,0,4,1,0,0
131759329,0.0,-0.00488998,0.470303,0.0,0.0,0.0,0.0,0.0,0.0,0.0,0.0,0,0,0,0,0,0,0,0,0,0,0,4,1,0,0
131957226,0.0,-0.00488998,0.470303,0.0,0.0,0.0,0.0,0.0,0.0,0.0,0.0,0,0,0,0,0,0,0,0,0,0,0,4,1,0,0
132149644,0.0,-0.0977995,0.467879,0.0,0.0,0.0,0.0,0.0,0.0,0.0,0.0,0,0,0,0,0,0,0,0,0,0,0,4,1,0,0
132349855,0.0,-0.0733496,0.467879,0.0,0.0,0.0,0.0,0.0,0.0,0.0,0.0,0,0,0,0,0,0,0,0,0,0,0,4,1,0,0
132563675,0.0,-0.00244499,0.471515,0.0,0.0,0.0,0.0,0.0,0.0,0.0,0.0,0,0,0,0,0,0,0,0,0,0,0,4,1,0,0
132750092,0.0,-0.00244499,0.471515,0.0,0.0,0.0,0.0,0.0,0.0,0.0,0.0,0,0,0,0,0,0,0,0,0,0,0,4,1,0,0
132960335,0.0,-0.00244499,0.471515,0.0,0.0,0.0,0.0,0.0,0.0,0.0,0.0,0,0,0,0,0,0,0,0,0,0,0,4,1,0,0
133160432,0.0,-0.00244499,0.471515,0.0,0.0,0.0,0.0,0.0,0.0,0.0,0.0,0,0,0,0,0,0,0,0,0,0,0,4,1,0,0
133350578,0.0,-0.00244499,0.471515,0.0,0.0,0.0,0.0,0.0,0.0,0.0,0.0,0,0,0,0,0,0,0,0,0,0,0,4,1,0,0
133560765,0.0,-0.00244499,0.471515,0.0,0.0,0.0,0.0,0.0,0.0,0.0,0.0,0,0,0,0,0,0,0,0,0,0,0,4,1,0,0
133760930,0.0,-0.0660147,0.467879,0.0,0.0,0.0,0.0,0.0,0.0,0.0,0.0,0,0,0,0,0,0,0,0,0,0,0,4,1,0,0
133961064,0.0,-0.105134,0.467879,0.0,0.0,0.0,0.0,0.0,0.0,0.0,0.0,0,0,0,0,0,0,0,0,0,0,0,4,1,0,0
134159909,0.0,-0.112469,0.469091,0.0,0.0,0.0,0.0,0.0,0.0,0.0,0.0,0,0,0,0,0,0,0,0,0,0,0,4,1,0,0
134361379,0.0,-0.0929095,0.469091,0.0,0.0,0.0,0.0,0.0,0.0,0.0,0.0,0,0,0,0,0,0,0,0,0,0,0,4,1,0,0
134549322,0.0,-0.0831296,0.467879,0.0,0.0,0.0,0.0,0.0,0.0,0.0,0.0,0,0,0,0,0,0,0,0,0,0,0,4,1,0,0
134745409,0.0,-0.0391198,0.467879,0.0,0.0,0.0,0.0,0.0,0.0,0.0,0.0,0,0,0,0,0,0,0,0,0,0,0,4,1,0,0
134965594,0.0,-0.00244499,0.471515,0.0,0.0,0.0,0.0,0.0,0.0,0.0,0.0,0,0,0,0,0,0,0,0,0,0,0,4,1,0,0
135142004,0.0,-0.00244499,0.471515,0.0,0.0,0.0,0.0,0.0,0.0,0.0,0.0,0,0,0,0,0,0,0,0,0,0,0,4,1,0,0
135349947,0.101737,0.0,0.472727,0.0,0.0,0.0,0.0,0.0,0.0,0.0,0.0,0,0,0,0,0,0,0,0,0,0,0,4,1,0,0
135552365,0.0,-0.00488998,0.471515,0.0,0.0,0.0,0.0,0.0,0.0,0.0,0.0,0,0,0,0,0,0,0,0,0,0,0,4,1,0,0
135760365,0.0,-0.00488998,0.471515,0.0,0.0,0.0,0.0,0.0,0.0,0.0,0.0,0,0,0,0,0,0,0,0,0,0,0,4,1,0,0
135950430,0.0,-0.0562347,0.466667,0.0,0.0,0.0,0.0,0.0,0.0,0.0,0.0,0,0,0,0,0,0,0,0,0,0,0,4,1,0,0
136162870,0.0,-0.0733496,0.471515,0.0,0.0,0.0,0.0,0.0,0.0,0.0,0.0,0,0,0,0,0,0,0,0,0,0,0,4,1,0,0
136353131,0.0,-0.00244499,0.471515,0.0,0.0,0.0,0.0,0.0,0.0,0.0,0.0,0,0,0,0,0,0,0,0,0,0,0,4,1,0,0
136553309,0.0,0.0,0.473939,0.0,0.0,0.0,0.0,0.0,0.0,0.0,0.0,0,0,0,0,0,0,0,0,0,0,0,4,1,0,0
136763298,0.0,-0.0220049,0.477576,-0.0851582,0.0,0.0,0.0,0.0,0.0,0.0,0.0,0,0,0,0,0,0,0,0,0,0,0,4,1,0,0
136951258,0.0,0.0,0.472727,-0.0948905,0.0,0.0,0.0,0.0,0.0,0.0,0.0,0,0,0,0,0,0,0,0,0,0,0,4,1,0,0
137161405,0.0,-0.00977995,0.48,-0.19708,0.0,0.0,0.0,0.0,0.0,0.0,0.0,0,0,0,0,0,0,0,0,0,0,0,4,1,0,0
137351708,0.0,-0.00488998,0.482424,-0.265207,0.0,0.0,0.0,0.0,0.0,0.0,0.0,0,0,0,0,0,0,0,0,0,0,0,4,1,0,0
137553948,0.0,-0.00244499,0.483636,-0.430657,0.0,0.0,0.0,0.0,0.0,0.0,0.0,0,0,0,0,0,0,0,0,0,0,0,4,1,0,0
137764258,0.0,-0.161369,0.482424,-0.437956,0.0,0.0,0.0,0.0,0.0,0.0,0.0,0,0,0,0,0,0,0,0,0,0,0,4,1,0,0
137964272,0.0,-0.185819,0.483636,-0.442822,0.0,0.0,0.0,0.0,0.0,0.0,0.0,0,0,0,0,0,0,0,0,0,0,0,4,1,0,0
138164440,0.0,-0.129584,0.482424,-0.43309,0.0,0.0,0.0,0.0,0.0,0.0,0.0,0,0,0,0,0,0,0,0,0,0,0,4,1,0,0
138352362,0.0,-0.00488998,0.482424,-0.425791,0.0,0.0,0.0,0.0,0.0,0.0,0.0,0,0,0,0,0,0,0,0,0,0,0,4,1,0,0
138562525,0.156328,-0.0293399,0.482424,-0.406326,0.0,0.0,0.0,0.0,0.0,0.0,0.0,0,0,0,0,0,0,0,0,0,0,0,4,1,0,0
138758659,0.0,-0.00488998,0.483636,-0.194647,0.0,0.0,0.0,0.0,0.0,0.0,0.0,0,0,0,0,0,0,0,0,0,0,0,4,1,0,0
138955056,0.0595534,-0.00488998,0.482424,0.0,0.0,0.0,0.0,0.0,0.0,0.0,0.0,0,0,0,0,0,0,0,0,0,0,0,4,1,0,0
139155227,0.218362,-0.00244499,0.484848,0.0,0.0,0.0,0.0,0.0,0.0,0.0,0.0,0,0,0,0,0,0,0,0,0,0,0,4,1,0,0
139355402,0.0,-0.00244499,0.483636,0.0,0.0,0.0,0.0,0.0,0.0,0.0,0.0,0,0,0,0,0,0,0,0,0,0,0,4,1,0,0
139565628,0.0,-0.00244499,0.483636,0.0,0.0,0.0,0.0,0.0,0.0,0.0,0.0,0,0,0,0,0,0,0,0,0,0,0,4,1,0,0
139765721,0.0,-0.00244499,0.483636,0.0,0.0,0.0,0.0,0.0,0.0,0.0,0.0,0,0,0,0,0,0,0,0,0,0,0,4,1,0,0
139953665,0.0,-0.00488998,0.483636,0.0,0.0,0.0,0.0,0.0,0.0,0.0,0.0,0,0,0,0,0,0,0,0,0,0,0,4,1,0,0
140156049,0.0,-0.0464548,0.483636,0.0,0.0,0.0,0.0,0.0,0.0,0.0,0.0,0,0,0,0,0,0,0,0,0,0,0,4,1,0,0
140346171,0.0,-0.00244499,0.483636,0.0,0.0,0.0,0.0,0.0,0.0,0.0,0.0,0,0,0,0,0,0,0,0,0,0,0,4,1,0,0
140554138,0.0521092,-0.00244499,0.483636,0.0,0.0,0.0,0.0,0.0,0.0,0.0,0.0,0,0,0,0,0,0,0,0,0,0,0,4,1,0,0
140766534,0.0992556,-0.0293399,0.482424,0.0,0.0,0.0,0.0,0.0,0.0,0.0,0.0,0,0,0,0,0,0,0,0,0,0,0,4,1,0,0
140956686,0.0868486,-0.00977995,0.483636,0.0,0.0,0.0,0.0,0.0,0.0,0.0,0.0,0,0,0,0,0,0,0,0,0,0,0,4,1,0,0
141164612,0.0297767,-0.0146699,0.477576,0.0,0.0,0.0,0.0,0.0,0.0,0.0,0.0,0,0,0,0,0,0,0,0,0,0,0,4,1,0,0
141347085,0.0,-0.00244499,0.482424,0.0,0.0,0.0,0.0,0.0,0.0,0.0,0.0,0,0,0,0,0,0,0,0,0,0,0,4,1,0,0
141561079,0.0,-0.00244499,0.483636,0.0,0.0,0.0,0.0,0.0,0.0,0.0,0.0,0,0,0,0,0,0,0,0,0,0,0,4,1,0,0
141747322,0.0,-0.102689,0.482424,0.0,0.0,0.0,0.0,0.0,0.0,0.0,0.0,0,0,0,0,0,0,0,0,0,0,0,4,1,0,0
141967485,0.0,-0.144254,0.482424,0.0,0.0,0.0,0.0,0.0,0.0,0.0,0.0,0,0,0,0,0,0,0,0,0,0,0,4,1,0,0
142155410,0.0,-0.0366748,0.483636,0.0,0.0,0.0,0.0,0.0,0.0,0.0,0.0,0,0,0,0,0,0,0,0,0,0,0,4,1,0,0
142357794,0.0,-0.00488998,0.483636,0.0,0.0,0.0,0.0,0.0,0.0,0.0,0.0,0,0,0,0,0,0,0,0,0,0,0,4,1,0,0
142555741,0.0,-0.0122249,0.481212,-0.0437956,0.0,0.0,0.0,0.0,0.0,0.0,0.0,0,0,0,0,0,0,0,0,0,0,0,4,1,0,0
142742001,0.0,-0.00733496,0.482424,-0.114355,0.0,0.0,0.0,0.0,0.0,0.0,0.0,0,0,0,0,0,0,0,0,0,0,0,4,1,0,0
142956072,0.0,-0.00733496,0.482424,-0.180049,0.0,0.0,0.0,0.0,0.0,0.0,0.0,0,0,0,0,0,0,0,0,0,0,0,4,1,0,0
143158430,0.0,-0.00733496,0.482424,-0.182482,0.0,0.0,0.0,0.0,0.0,0.0,0.0,0,0,0,0,0,0,0,0,0,0,0,4,1,0,0
143366379,0.0,-0.00733496,0.482424,-0.177616,0.0,0.0,0.0,0.0,0.0,0.0,0.0,0,0,0,0,0,0,0,0,0,0,0,4,1,0,0
143558762,0.0,-0.00488998,0.482424,-0.192214,0.0,0.0,0.0,0.0,0.0,0.0,0.0,0,0,0,0,0,0,0,0,0,0,0,4,1,0,0
143766712,0.0,-0.00244499,0.483636,-0.199513,0.0,0.0,0.0,0.0,0.0,0.0,0.0,0,0,0,0,0,0,0,0,0,0,0,4,1,0,0
143959219,0.0173697,-0.0904645,0.482424,-0.116788,0.0,0.0,0.0,0.0,0.0,0.0,0.0,0,0,0,0,0,0,0,0,0,0,0,4,1,0,0
144149272,0.0,-0.00488998,0.484848,-0.138686,0.0,0.0,0.0,0.0,0.0,0.0,0.0,0,0,0,0,0,0,0,0,0,0,0,4,1,0,0
144349467,0.0,-0.00244499,0.483636,-0.172749,0.0,0.0,0.0,0.0,0.0,0.0,0.0,0,0,0,0,0,0,0,0,0,0,0,4,1,0,0
144559625,0.044665,-0.00733496,0.482424,-0.0973236,0.0,0.0,0.0,0.0,0.0,0.0,0.0,0,0,0,0,0,0,0,0,0,0,0,4,1,0,0
144767503,0.0620347,-0.00488998,0.482424,-0.0973236,0.0,0.0,0.0,0.0,0.0,0.0,0.0,0,0,0,0,0,0,0,0,0,0,0,4,1,0,0
144963578,0.0198511,-0.00733496,0.482424,-0.0462287,0.0,0.0,0.0,0.0,0.0,0.0,0.0,0,0,0,0,0,0,0,0,0,0,0,4,1,0,0
145153513,0.0,-0.00244499,0.483636,-0.00729927,0.0,0.0,0.0,0.0,0.0,0.0,0.0,0,0,0,0,0,0,0,0,0,0,0,4,1,0,0
145363588,0.0421836,-0.0122249,0.482424,0.0,0.0,0.0,0.0,0.0,0.0,0.0,0.0,0,0,0,0,0,0,0,0,0,0,0,4,1,0,0
145550364,0.116625,0.0,0.483636,0.0,0.0,0.0,0.0,0.0,0.0,0.0,0.0,0,0,0,0,0,0,0,0,0,0,0,4,1,0,0
145750528,0.0322581,-0.0146699,0.477576,0.0,0.0,0.0,0.0,0.0,0.0,0.0,0.0,0,0,0,0,0,0,0,0,0,0,0,4,1,0,0
145958483,0.0,-0.00244499,0.483636,0.0,0.0,0.0,0.0,0.0,0.0,0.0,0.0,0,0,0,0,0,0,0,0,0,0,0,4,1,0,0
146164566,0.129032,0.15,0.482424,0.0,0.0,0.0,0.0,0.0,0.0,0.0,0.0,0,0,0,0,0,0,0,0,0,0,0,4,1,0,0
146356620,0.0198511,0.015,0.483636,0.0,0.0,0.0,0.0,0.0,0.0,0.0,0.0,0,0,0,0,0,0,0,0,0,0,0,4,1,0,0
146558952,0.0,-0.00244499,0.482424,0.0621891,0.0,0.0,0.0,0.0,0.0,0.0,0.0,0,0,0,0,0,0,0,0,0,0,0,4,1,0,0
146761384,0.0,0.115,0.484848,0.179104,0.0,0.0,0.0,0.0,0.0,0.0,0.0,0,0,0,0,0,0,0,0,0,0,0,4,1,0,0
146961478,0.0,0.08,0.484848,0.136816,0.0,0.0,0.0,0.0,0.0,0.0,0.0,0,0,0,0,0,0,0,0,0,0,0,4,1,0,0
147151735,0.0,0.125,0.484848,0.144279,0.0,0.0,0.0,0.0,0.0,0.0,0.0,0,0,0,0,0,0,0,0,0,0,0,4,1,0,0
147339561,0.0,0.215,0.484848,0.144279,0.0,0.0,0.0,0.0,0.0,0.0,0.0,0,0,0,0,0,0,0,0,0,0,0,4,1,0,0
147559737,0.0,0.185,0.486061,0.0895522,0.0,0.0,0.0,0.0,0.0,0.0,0.0,0,0,0,0,0,0,0,0,0,0,0,4,1,0,0
147749890,0.0,0.09,0.482424,0.0970149,0.0,0.0,0.0,0.0,0.0,0.0,0.0,0,0,0,0,0,0,0,0,0,0,0,4,1,0,0
147960058,0.0,-0.00488998,0.486061,0.0870647,0.0,0.0,0.0,0.0,0.0,0.0,0.0,0,0,0,0,0,0,0,0,0,0,0,4,1,0,0
148162434,0.0992556,0.0725,0.484848,0.079602,0.0,0.0,0.0,0.0,0.0,0.0,0.0,0,0,0,0,0,0,0,0,0,0,0,4,1,0,0
148360509,0.109181,0.02,0.483636,0.0621891,0.0,0.0,0.0,0.0,0.0,0.0,0.0,0,0,0,0,0,0,0,0,0,0,0,4,1,0,0
148546088,0.0,-0.00488998,0.483636,0.0696517,0.0,0.0,0.0,0.0,0.0,0.0,0.0,0,0,0,0,0,0,0,0,0,0,0,4,1,0,0
148752976,0.0,-0.00733496,0.483636,0.0771144,0.0,0.0,0.0,0.0,0.0,0.0,0.0,0,0,0,0,0,0,0,0,0,0,0,4,1,0,0
148943060,0.0,-0.00244499,0.484848,0.079602,0.0,0.0,0.0,0.0,0.0,0.0,0.0,0,0,0,0,0,0,0,0,0,0,0,4,1,0,0
149161058,0.0,0.0,0.486061,0.0746269,0.0,0.0,0.0,0.0,0.0,0.0,0.0,0,0,0,0,0,0,0,0,0,0,0,4,1,0,0
149351195,0.126551,0.13,0.487273,0.0646766,0.0,0.0,0.0,0.0,0.0,0.0,0.0,0,0,0,0,0,0,0,0,0,0,0,4,1,0,0
149543573,0.0,-0.00488998,0.487273,0.0696517,0.0,0.0,0.0,0.0,0.0,0.0,0.0,0,0,0,0,0,0,0,0,0,0,0,4,1,0,0
149761505,0.0,-0.00244499,0.487273,0.0621891,0.0,0.0,0.0,0.0,0.0,0.0,0.0,0,0,0,0,0,0,0,0,0,0,0,4,1,0,0
149961728,0.0,-0.00488998,0.486061,0.0646766,0.0,0.0,0.0,0.0,0.0,0.0,0.0,0,0,0,0,0,0,0,0,0,0,0,4,1,0,0
150154028,0.0,-0.00244499,0.487273,0.0472637,0.0,0.0,0.0,0.0,0.0,0.0,0.0,0,0,0,0,0,0,0,0,0,0,0,4,1,0,0
150364232,0.0,-0.00244499,0.487273,0.0497512,0.0,0.0,0.0,0.0,0.0,0.0,0.0,0,0,0,0,0,0,0,0,0,0,0,4,1,0,0
150564373,0.0,0.0,0.486061,0.0646766,0.0,0.0,0.0,0.0,0.0,0.0,0.0,0,0,0,0,0,0,0,0,0,0,0,4,1,0,0
150754522,0.0967742,0.11,0.487273,0.0746269,0.0,0.0,0.0,0.0,0.0,0.0,0.0,0,0,0,0,0,0,0,0,0,0,0,4,1,0,0
150964689,0.0,-0.00488998,0.486061,0.0721393,0.0,0.0,0.0,0.0,0.0,0.0,0.0,0,0,0,0,0,0,0,0,0,0,0,4,1,0,0
151154852,0.0,-0.00488998,0.486061,0.0696517,0.0,0.0,0.0,0.0,0.0,0.0,0.0,0,0,0,0,0,0,0,0,0,0,0,4,1,0,0
151365021,0.0,-0.00244499,0.486061,0.0621891,0.0,0.0,0.0,0.0,0.0,0.0,0.0,0,0,0,0,0,0,0,0,0,0,0,4,1,0,0
151555148,0.0,-0.00488998,0.486061,0.0671642,0.0,0.0,0.0,0.0,0.0,0.0,0.0,0,0,0,0,0,0,0,0,0,0,0,4,1,0,0
151755358,0.0496278,0.1575,0.486061,0.0621891,0.0,0.0,0.0,0.0,0.0,0.0,0.0,0,0,0,0,0,0,0,0,0,0,0,4,1,0,0
151949176,0.0744417,0.195,0.487273,0.0671642,0.0,0.0,0.0,0.0,0.0,0.0,0.0,0,0,0,0,0,0,0,0,0,0,0,4,1,0,0
152163491,0.0,-0.00244499,0.488485,0.0696517,0.0,0.0,0.0,0.0,0.0,0.0,0.0,0,0,0,0,0,0,0,0,0,0,0,4,1,0,0
152355807,0.0,-0.00488998,0.486061,0.0671642,0.0,0.0,0.0,0.0,0.0,0.0,0.0,0,0,0,0,0,0,0,0,0,0,0,4,1,0,0
152563742,0.0,-0.00488998,0.486061,0.0671642,0.0,0.0,0.0,0.0,0.0,0.0,0.0,0,0,0,0,0,0,0,0,0,0,0,4,1,0,0
152746098,0.00248139,0.0,0.486061,0.0646766,0.0,0.0,0.0,0.0,0.0,0.0,0.0,0,0,0,0,0,0,0,0,0,0,0,4,1,0,0
152954144,0.131514,0.08,0.486061,0.0597015,0.0,0.0,0.0,0.0,0.0,0.0,0.0,0,0,0,0,0,0,0,0,0,0,0,4,1,0,0
153156439,0.0,-0.00244499,0.487273,0.0522388,0.0,0.0,0.0,0.0,0.0,0.0,0.0,0,0,0,0,0,0,0,0,0,0,0,4,1,0,0
153364486,0.0,-0.00488998,0.487273,0.0621891,0.0,0.0,0.0,0.0,0.0,0.0,0.0,0,0,0,0,0,0,0,0,0,0,0,4,1,0,0
153554535,0.0,-0.00488998,0.487273,0.0646766,0.0,0.0,0.0,0.0,0.0,0.0,0.0,0,0,0,0,0,0,0,0,0,0,0,4,1,0,0
153756907,0.0,-0.00488998,0.487273,0.0771144,0.0,0.0,0.0,0.0,0.0,0.0,0.0,0,0,0,0,0,0,0,0,0,0,0,4,1,0,0
153957066,0.0,0.13,0.487273,0.079602,0.0,0.0,0.0,0.0,0.0,0.0,0.0,0,0,0,0,0,0,0,0,0,0,0,4,1,0,0
154145100,0.0,0.0025,0.487273,0.0771144,0.0,0.0,0.0,0.0,0.0,0.0,0.0,0,0,0,0,0,0,0,0,0,0,0,4,1,0,0
154361106,0.0,-0.00244499,0.486061,0.0746269,0.0,0.0,0.0,0.0,0.0,0.0,0.0,0,0,0,0,0,0,0,0,0,0,0,4,1,0,0
154557627,0.00496278,0.0425,0.486061,0.079602,0.0,0.0,0.0,0.0,0.0,0.0,0.0,0,0,0,0,0,0,0,0,0,0,0,4,1,0,0
154757817,0.057072,0.08,0.481212,0.0746269,0.0,0.0,0.0,0.0,0.0,0.0,0.0,0,0,0,0,0,0,0,0,0,0,0,4,1,0,0
154957886,0.0,-0.00488998,0.487273,0.0746269,0.0,0.0,0.0,0.0,0.0,0.0,0.0,0,0,0,0,0,0,0,0,0,0,0,4,1,0,0
155148031,0.0,-0.00244499,0.487273,0.0746269,0.0,0.0,0.0,0.0,0.0,0.0,0.0,0,0,0,0,0,0,0,0,0,0,0,4,1,0,0
155358222,0.0,-0.00244499,0.487273,0.0746269,0.0,0.0,0.0,0.0,0.0,0.0,0.0,0,0,0,0,0,0,0,0,0,0,0,4,1,0,0
155546186,0.057072,0.1425,0.486061,0.0820896,0.0,0.0,0.0,0.0,0.0,0.0,0.0,0,0,0,0,0,0,0,0,0,0,0,4,1,0,0
155752345,0.0,0.0,0.484848,0.0820896,0.0,0.0,0.0,0.0,0.0,0.0,0.0,0,0,0,0,0,0,0,0,0,0,0,4,1,0,0
155952071,0.0,-0.00244499,0.484848,0.0771144,0.0,0.0,0.0,0.0,0.0,0.0,0.0,0,0,0,0,0,0,0,0,0,0,0,4,1,0,0
156146627,0.0,-0.00244499,0.487273,0.0845771,0.0,0.0,0.0,0.0,0.0,0.0,0.0,0,0,0,0,0,0,0,0,0,0,0,4,1,0,0
156359079,0.0397022,0.0575,0.483636,0.0746269,0.0,0.0,0.0,0.0,0.0,0.0,0.0,0,0,0,0,0,0,0,0,0,0,0,4,1,0,0
156549133,0.044665,0.05,0.483636,0.0721393,0.0,0.0,0.0,0.0,0.0,0.0,0.0,0,0,0,0,0,0,0,0,0,0,0,4,1,0,0
156757195,0.0,0.0,0.486061,0.0945274,0.0,0.0,0.0,0.0,0.0,0.0,0.0,0,0,0,0,0,0,0,0,0,0,0,4,1,0,0
156957352,0.0,-0.00244499,0.486061,0.0,0.0,0.0,0.0,0.0,0.0,0.0,0.0,0,0,0,0,0,0,0,0,0,0,0,4,1,0,0
157147430,0.0,-0.00488998,0.486061,0.0,0.0,0.0,0.0,0.0,0.0,0.0,0.0,0,0,0,0,0,0,0,0,0,0,0,4,1,0,0
157357621,0.0,-0.00244499,0.486061,0.0,0.0,0.0,0.0,0.0,0.0,0.0,0.0,0,0,0,0,0,0,0,0,0,0,0,4,1,0,0
157547828,0.0769231,0.0475,0.484848,0.0,0.0,0.0,0.0,0.0,0.0,0.0,0.0,0,0,0,0,0,0,0,0,0,0,0,4,1,0,0
157760113,0.0347395,0.075,0.486061,0.0,0.0,0.0,0.0,0.0,0.0,0.0,0.0,0,0,0,0,0,0,0,0,0,0,0,4,1,0,0
157950335,0.0,-0.00733496,0.486061,0.0,0.0,0.0,0.0,0.0,0.0,0.0,0.0,0,0,0,0,0,0,0,0,0,0,0,4,1,0,0
158150519,0.0,-0.00244499,0.486061,0.0,0.0,0.0,0.0,0.0,0.0,0.0,0.0,0,0,0,0,0,0,0,0,0,0,0,4,1,0,0
158360594,0.0,-0.00244499,0.484848,0.0,0.0,0.0,0.0,0.0,0.0,0.0,0.0,0,0,0,0,0,0,0,0,0,0,0,4,1,0,0
158548542,0.0669975,0.1175,0.484848,0.0,0.0,0.0,0.0,0.0,0.0,0.0,0.0,0,0,0,0,0,0,0,0,0,0,0,4,1,0,0
158750904,0.0,-0.00488998,0.483636,0.0,0.0,0.0,0.0,0.0,0.0,0.0,0.0,0,0,0,0,0,0,0,0,0,0,0,4,1,0,0
158964763,0.0,-0.00244499,0.483636,0.0174129,0.0,0.0,0.0,0.0,0.0,0.0,0.0,0,0,0,0,0,0,0,0,0,0,0,4,1,0,0
159154919,0.0,-0.00488998,0.486061,0.0771144,0.0,0.0,0.0,0.0,0.0,0.0,0.0,0,0,0,0,0,0,0,0,0,0,0,4,1,0,0
159365077,0.0,-0.00244499,0.486061,0.0820896,0.0,0.0,0.0,0.0,0.0,0.0,0.0,0,0,0,0,0,0,0,0,0,0,0,4,1,0,0
159551691,0.0,-0.00488998,0.488485,0.0945274,0.0,0.0,0.0,0.0,0.0,0.0,0.0,0,0,0,0,0,0,0,0,0,0,0,4,1,0,0
159765416,0.0,-0.00488998,0.488485,0.0895522,0.0,0.0,0.0,0.0,0.0,0.0,0.0,0,0,0,0,0,0,0,0,0,0,0,4,1,0,0
159955546,0.0,-0.00488998,0.484848,0.0870647,0.0,0.0,0.0,0.0,0.0,0.0,0.0,0,0,0,0,0,0,0,0,0,0,0,4,1,0,0
160152051,0.0,-0.00244499,0.484848,0.079602,0.0,0.0,0.0,0.0,0.0,0.0,0.0,0,0,0,0,0,0,0,0,0,0,0,4,1,0,0
160352163,0.0,0.0,0.484848,0.0696517,0.0,0.0,0.0,0.0,0.0,0.0,0.0,0,0,0,0,0,0,0,0,0,0,0,4,1,0,0
160560116,0.0471464,0.1075,0.483636,0.0621891,0.0,0.0,0.0,0.0,0.0,0.0,0.0,0,0,0,0,0,0,0,0,0,0,0,4,1,0,0
160762529,0.0,-0.00488998,0.486061,0.0646766,0.0,0.0,0.0,0.0,0.0,0.0,0.0,0,0,0,0,0,0,0,0,0,0,0,4,1,0,0
160952654,0.0,-0.00488998,0.486061,0.0671642,0.0,0.0,0.0,0.0,0.0,0.0,0.0,0,0,0,0,0,0,0,0,0,0,0,4,1,0,0
161152847,0.0,-0.00733496,0.486061,0.0621891,0.0,0.0,0.0,0.0,0.0,0.0,0.0,0,0,0,0,0,0,0,0,0,0,0,4,1,0,0
161363086,0.0967742,0.0675,0.487273,0.0572139,0.0,0.0,0.0,0.0,0.0,0.0,0.0,0,0,0,0,0,0,0,0,0,0,0,4,1,0,0
161540905,0.0,0.0075,0.484848,0.0522388,0.0,0.0,0.0,0.0,0.0,0.0,0.0,0,0,0,0,0,0,0,0,0,0,0,4,1,0,0
161753290,0.0,-0.00488998,0.483636,0.039801,0.0,0.0,0.0,0.0,0.0,0.0,0.0,0,0,0,0,0,0,0,0,0,0,0,4,1,0,0
161963461,0.0,-0.00488998,0.486061,0.0273632,0.0,0.0,0.0,0.0,0.0,0.0,0.0,0,0,0,0,0,0,0,0,0,0,0,4,1,0,0
162163655,0.0,-0.00244499,0.486061,0.0497512,0.0,0.0,0.0,0.0,0.0,0.0,0.0,0,0,0,0,0,0,0,0,0,0,0,4,1,0,0
162363822,0.0,-0.00488998,0.488485,0.0,0.0,0.0,0.0,0.0,0.0,0.0,0.0,0,0,0,0,0,0,0,0,0,0,0,4,1,0,0
162554006,0.0,-0.00488998,0.487273,0.0,0.0,0.0,0.0,0.0,0.0,0.0,0.0,0,0,0,0,0,0,0,0,0,0,0,4,1,0,0
162764086,0.0,0.1475,0.486061,0.0,0.0,0.0,0.0,0.0,0.0,0.0,0.0,0,0,0,0,0,0,0,0,0,0,0,4,1,0,0
162952094,0.0,0.1875,0.484848,0.0,0.0,0.0,0.0,0.0,0.0,0.0,0.0,0,0,0,0,0,0,0,0,0,0,0,4,1,0,0
163162299,0.0,-0.00488998,0.484848,0.0,0.0,0.0,0.0,0.0,0.0,0.0,0.0,0,0,0,0,0,0,0,0,0,0,0,4,1,0,0
163354572,0.0,-0.00488998,0.484848,0.0,0.0,0.0,0.0,0.0,0.0,0.0,0.0,0,0,0,0,0,0,0,0,0,0,0,4,1,0,0
163564848,0.0,-0.00488998,0.482424,0.0,0.0,0.0,0.0,0.0,0.0,0.0,0.0,0,0,0,0,0,0,0,0,0,0,0,4,1,0,0
163764982,0.0,-0.00244499,0.482424,0.0,0.0,0.0,0.0,0.0,0.0,0.0,0.0,0,0,0,0,0,0,0,0,0,0,0,4,1,0,0
163955178,-0.134663,-0.0684597,0.483636,0.0,0.0,0.0,0.0,0.0,0.0,0.0,0.0,0,0,0,0,0,0,0,0,0,0,0,4,1,0,0
164145232,0.0,-0.00488998,0.482424,0.0,0.0,0.0,0.0,0.0,0.0,0.0,0.0,0,0,0,0,0,0,0,0,0,0,0,4,1,0,0
164355358,0.0,-0.00488998,0.482424,0.0,0.0,0.0,0.0,0.0,0.0,0.0,0.0,0,0,0,0,0,0,0,0,0,0,0,4,1,0,0
164565539,0.0,-0.00488998,0.483636,0.0,0.0,0.0,0.0,0.0,0.0,0.0,0.0,0,0,0,0,0,0,0,0,0,0,0,4,1,0,0
164763461,0.0,-0.00488998,0.483636,-0.0291971,0.0,0.0,0.0,0.0,0.0,0.0,0.0,0,0,0,0,0,0,0,0,0,0,0,4,1,0,0
164959548,0.0,-0.00244499,0.481212,-0.238443,0.0,0.0,0.0,0.0,0.0,0.0,0.0,0,0,0,0,0,0,0,0,0,0,0,4,1,0,0
165146001,0.0,-0.00488998,0.483636,-0.372263,0.0,0.0,0.0,0.0,0.0,0.0,0.0,0,0,0,0,0,0,0,0,0,0,0,4,1,0,0
165356169,0.0,-0.00733496,0.482424,-0.301703,0.0,0.0,0.0,0.0,0.0,0.0,0.0,0,0,0,0,0,0,0,0,0,0,0,4,1,0,0
165544085,0.0,-0.00733496,0.481212,-0.3382,0.0,0.0,0.0,0.0,0.0,0.0,0.0,0,0,0,0,0,0,0,0,0,0,0,4,1,0,0
165766488,0.0,-0.00488998,0.483636,-0.311436,0.0,0.0,0.0,0.0,0.0,0.0,0.0,0,0,0,0,0,0,0,0,0,0,0,4,1,0,0
165956663,0.0,-0.00733496,0.482424,-0.304136,0.0,0.0,0.0,0.0,0.0,0.0,0.0,0,0,0,0,0,0,0,0,0,0,0,4,1,0,0
166156791,0.0,-0.102689,0.481212,-0.265207,0.0,0.0,0.0,0.0,0.0,0.0,0.0,0,0,0,0,0,0,0,0,0,0,0,4,1,0,0
166360709,0.0,-0.158924,0.481212,-0.250608,0.0,0.0,0.0,0.0,0.0,0.0,0.0,0,0,0,0,0,0,0,0,0,0,0,4,1,0,0
166547099,0.0,-0.139364,0.483636,-0.250608,0.0,0.0,0.0,0.0,0.0,0.0,0.0,0,0,0,0,0,0,0,0,0,0,0,4,1,0,0
166761093,0.0,-0.00733496,0.481212,-0.255474,0.0,0.0,0.0,0.0,0.0,0.0,0.0,0,0,0,0,0,0,0,0,0,0,0,4,1,0,0
166945196,0.0,-0.168704,0.483636,-0.209246,0.0,0.0,0.0,0.0,0.0,0.0,0.0,0,0,0,0,0,0,0,0,0,0,0,4,1,0,0
167157723,0.0,-0.210269,0.481212,-0.201946,0.0,0.0,0.0,0.0,0.0,0.0,0.0,0,0,0,0,0,0,0,0,0,0,0,4,1,0,0
167365632,0.0198511,-0.166259,0.482424,-0.221411,0.0,0.0,0.0,0.0,0.0,0.0,0.0,0,0,0,0,0,0,0,0,0,0,0,4,1,0,0
167555696,0.0496278,-0.139364,0.482424,-0.20438,0.0,0.0,0.0,0.0,0.0,0.0,0.0,0,0,0,0,0,0,0,0,0,0,0,4,1,0,0
167761771,0.0,-0.00733496,0.482424,-0.20438,0.0,0.0,0.0,0.0,0.0,0.0,0.0,0,0,0,0,0,0,0,0,0,0,0,4,1,0,0
167948256,0.203474,-0.00488998,0.482424,-0.189781,0.0,0.0,0.0,0.0,0.0,0.0,0.0,0,0,0,0,0,0,0,0,0,0,0,4,1,0,0
168156159,0.225806,-0.00733496,0.482424,-0.187348,0.0,0.0,0.0,0.0,0.0,0.0,0.0,0,0,0,0,0,0,0,0,0,0,0,4,1,0,0
168358579,0.213399,-0.00733496,0.482424,-0.189781,0.0,0.0,0.0,0.0,0.0,0.0,0.0,0,0,0,0,0,0,0,0,0,0,0,4,1,0,0
168548841,0.126551,-0.00733496,0.482424,-0.194647,0.0,0.0,0.0,0.0,0.0,0.0,0.0,0,0,0,0,0,0,0,0,0,0,0,4,1,0,0
168748977,0.0,-0.00733496,0.482424,-0.187348,0.0,0.0,0.0,0.0,0.0,0.0,0.0,0,0,0,0,0,0,0,0,0,0,0,4,1,0,0
168942718,0.0,-0.00733496,0.482424,-0.189781,0.0,0.0,0.0,0.0,0.0,0.0,0.0,0,0,0,0,0,0,0,0,0,0,0,4,1,0,0
169149208,0.0,-0.00488998,0.482424,-0.158151,0.0,0.0,0.0,0.0,0.0,0.0,0.0,0,0,0,0,0,0,0,0,0,0,0,4,1,0,0
169359383,0.0,-0.0122249,0.486061,-0.0632603,0.0,0.0,0.0,0.0,0.0,0.0,0.0,0,0,0,0,0,0,0,0,0,0,0,4,1,0,0
169557286,0.0,-0.00244499,0.486061,0.0,0.0,0.0,0.0,0.0,0.0,0.0,0.0,0,0,0,0,0,0,0,0,0,0,0,4,1,0,0
169749671,0.0,-0.00244499,0.484848,0.0,0.0,0.0,0.0,0.0,0.0,0.0,0.0,0,0,0,0,0,0,0,0,0,0,0,4,1,0,0
169959856,0.124069,-0.0146699,0.486061,0.0,0.0,0.0,0.0,0.0,0.0,0.0,0.0,0,0,0,0,0,0,0,0,0,0,0,4,1,0,0
170149965,0.126551,-0.0122249,0.486061,0.0,0.0,0.0,0.0,0.0,0.0,0.0,0.0,0,0,0,0,0,0,0,0,0,0,0,4,1,0,0
170353485,0.121588,0.0,0.486061,0.0,0.0,0.0,0.0,0.0,0.0,0.0,0.0,0,0,0,0,0,0,0,0,0,0,0,4,1,0,0
170560334,0.0372208,-0.0122249,0.48,0.0,0.0,0.0,0.0,0.0,0.0,0.0,0.0,0,0,0,0,0,0,0,0,0,0,0,4,1,0,0
170750459,0.0,-0.00488998,0.486061,0.0,0.0,0.0,0.0,0.0,0.0,0.0,0.0,0,0,0,0,0,0,0,0,0,0,0,4,1,0,0
170950612,0.0,-0.00488998,0.486061,0.0,0.0,0.0,0.0,0.0,0.0,0.0,0.0,0,0,0,0,0,0,0,0,0,0,0,4,1,0,0
171154532,0.00248139,-0.00244499,0.486061,0.0,0.0,0.0,0.0,0.0,0.0,0.0,0.0,0,0,0,0,0,0,0,0,0,0,0,4,1,0,0
171344747,0.08933,0.0,0.486061,0.0,0.0,0.0,0.0,0.0,0.0,0.0,0.0,0,0,0,0,0,0,0,0,0,0,0,4,1,0,0
171561132,0.0,-0.00488998,0.486061,0.0,0.0,0.0,0.0,0.0,0.0,0.0,0.0,0,0,0,0,0,0,0,0,0,0,0,4,1,0,0
171751413,0.0,-0.00488998,0.486061,0.0,0.0,0.0,0.0,0.0,0.0,0.0,0.0,0,0,0,0,0,0,0,0,0,0,0,4,1,0,0
171955106,0.0,-0.00488998,0.486061,0.0,0.0,0.0,0.0,0.0,0.0,0.0,0.0,0,0,0,0,0,0,0,0,0,0,0,4,1,0,0
172149345,0.0,-0.00244499,0.486061,0.0,0.0,0.0,0.0,0.0,0.0,0.0,0.0,0,0,0,0,0,0,0,0,0,0,0,4,1,0,0
172341910,0.0,-0.178484,0.486061,0.0,0.0,0.0,0.0,0.0,0.0,0.0,0.0,0,0,0,0,0,0,0,0,0,0,0,4,1,0,0
172559668,0.0,-0.00244499,0.486061,0.0,0.0,0.0,0.0,0.0,0.0,0.0,0.0,0,0,0,0,0,0,0,0,0,0,0,4,1,0,0
172735732,0.0,-0.00244499,0.486061,0.0,0.0,0.0,0.0,0.0,0.0,0.0,0.0,0,0,0,0,0,0,0,0,0,0,0,4,1,0,0
172962219,0.0,-0.00733496,0.481212,-0.0413625,0.0,0.0,0.0,0.0,0.0,0.0,0.0,0,0,0,0,0,0,0,0,0,0,0,4,1,0,0
173152351,0.0,-0.0146699,0.477576,-0.0583942,0.0,0.0,0.0,0.0,0.0,0.0,0.0,0,0,0,0,0,0,0,0,0,0,0,4,1,0,0
173362565,0.0,-0.00488998,0.482424,-0.0389294,0.0,0.0,0.0,0.0,0.0,0.0,0.0,0,0,0,0,0,0,0,0,0,0,0,4,1,0,0
173560481,0.0,-0.00488998,0.482424,-0.0121655,0.0,0.0,0.0,0.0,0.0,0.0,0.0,0,0,0,0,0,0,0,0,0,0,0,4,1,0,0
173760618,0.0,-0.00488998,0.483636,-0.0121655,0.0,0.0,0.0,0.0,0.0,0.0,0.0,0,0,0,0,0,0,0,0,0,0,0,4,1,0,0
173953001,0.0,-0.00488998,0.482424,-0.0243309,0.0,0.0,0.0,0.0,0.0,0.0,0.0,0,0,0,0,0,0,0,0,0,0,0,4,1,0,0
174160937,0.0,-0.00488998,0.483636,-0.0437956,0.0,0.0,0.0,0.0,0.0,0.0,0.0,0,0,0,0,0,0,0,0,0,0,0,4,1,0,0
174363326,0.0,-0.00244499,0.482424,-0.0437956,0.0,0.0,0.0,0.0,0.0,0.0,0.0,0,0,0,0,0,0,0,0,0,0,0,4,1,0,0
174547315,0.0,-0.00488998,0.482424,-0.0364963,0.0,0.0,0.0,0.0,0.0,0.0,0.0,0,0,0,0,0,0,0,0,0,0,0,4,1,0,0
174761435,0.0,-0.00488998,0.483636,-0.0413625,0.0,0.0,0.0,0.0,0.0,0.0,0.0,0,0,0,0,0,0,0,0,0,0,0,4,1,0,0
174957142,0.0,-0.00733496,0.483636,-0.00973236,0.0,0.0,0.0,0.0,0.0,0.0,0.0,0,0,0,0,0,0,0,0,0,0,0,4,1,0,0
175144056,0.0,-0.00488998,0.481212,-0.00486618,0.0,0.0,0.0,0.0,0.0,0.0,0.0,0,0,0,0,0,0,0,0,0,0,0,4,1,0,0
175362049,0.0,-0.00488998,0.481212,-0.0218978,0.0,0.0,0.0,0.0,0.0,0.0,0.0,0,0,0,0,0,0,0,0,0,0,0,4,1,0,0
175562099,0.0,-0.00977995,0.481212,-0.0340633,0.0,0.0,0.0,0.0,0.0,0.0,0.0,0,0,0,0,0,0,0,0,0,0,0,4,1,0,0
175758275,0.0,-0.00488998,0.483636,0.0,0.0,0.0,0.0,0.0,0.0,0.0,0.0,0,0,0,0,0,0,0,0,0,0,0,4,1,0,0
175958292,-0.13217,0.0,0.483636,0.0,0.0,0.0,0.0,0.0,0.0,0.0,0.0,0,0,0,0,0,0,0,0,0,0,0,4,1,0,0
176164847,-0.179551,0.0,0.48,0.0,0.0,0.0,0.0,0.0,0.0,0.0,0.0,0,0,0,0,0,0,0,0,0,0,0,4,1,0,0
176358604,0.0,0.0,0.483636,0.0,0.0,0.0,0.0,0.0,0.0,0.0,0.0,0,0,0,0,0,0,0,0,0,0,0,4,1,0,0
176552840,0.0,-0.00488998,0.482424,0.0,0.0,0.0,0.0,0.0,0.0,0.0,0.0,0,0,0,0,0,0,0,0,0,0,0,4,1,0,0
176745322,0.0,0.2075,0.484848,0.0,0.0,0.0,0.0,0.0,0.0,0.0,0.0,0,0,0,0,0,0,0,0,0,0,0,4,1,0,0
176965387,0.0,-0.00244499,0.484848,0.0,0.0,0.0,0.0,0.0,0.0,0.0,0.0,0,0,0,0,0,0,0,0,0,0,0,4,1,0,0
177159282,0.0,-0.00244499,0.484848,0.0,0.0,0.0,0.0,0.0,0.0,0.0,0.0,0,0,0,0,0,0,0,0,0,0,0,4,1,0,0
177365820,0.0,-0.00244499,0.483636,0.0,0.0,0.0,0.0,0.0,0.0,0.0,0.0,0,0,0,0,0,0,0,0,0,0,0,4,1,0,0
177553629,0.08933,0.185,0.483636,0.0,0.0,0.0,0.0,0.0,0.0,0.0,0.0,0,0,0,0,0,0,0,0,0,0,0,4,1,0,0
177756019,0.0,0.0,0.484848,0.0,0.0,0.0,0.0,0.0,0.0,0.0,0.0,0,0,0,0,0,0,0,0,0,0,0,4,1,0,0
177946156,0.0,0.0,0.484848,0.0,0.0,0.0,0.0,0.0,0.0,0.0,0.0,0,0,0,0,0,0,0,0,0,0,0,4,1,0,0
178150018,0.0,0.0,0.484848,0.0,0.0,0.0,0.0,0.0,0.0,0.0,0.0,0,0,0,0,0,0,0,0,0,0,0,4,1,0,0
178361288,0.0,-0.00244499,0.483636,0.0,0.0,0.0,0.0,0.0,0.0,0.0,0.0,0,0,0,0,0,0,0,0,0,0,0,4,1,0,0
178564454,0.0,0.1075,0.484848,0.0,0.0,0.0,0.0,0.0,0.0,0.0,0.0,0,0,0,0,0,0,0,0,0,0,0,4,1,0,0
178754595,0.0,0.04,0.484848,0.0,0.0,0.0,0.0,0.0,0.0,0.0,0.0,0,0,0,0,0,0,0,0,0,0,0,4,1,0,0
178946986,0.0,-0.00244499,0.484848,0.0,0.0,0.0,0.0,0.0,0.0,0.0,0.0,0,0,0,0,0,0,0,0,0,0,0,4,1,0,0
179154901,0.0,-0.00244499,0.484848,0.0,0.0,0.0,0.0,0.0,0.0,0.0,0.0,0,0,0,0,0,0,0,0,0,0,0,4,1,0,0
179357393,0.0942928,0.0,0.483636,0.0,0.0,0.0,0.0,0.0,0.0,0.0,0.0,0,0,0,0,0,0,0,0,0,0,0,4,1,0,0
179547481,0.0,-0.00244499,0.484848,0.0,0.0,0.0,0.0,0.0,0.0,0.0,0.0,0,0,0,0,0,0,0,0,0,0,0,4,1,0,0
179762138,0.0,-0.00244499,0.483636,0.0,0.0,0.0,0.0,0.0,0.0,0.0,0.0,0,0,0,0,0,0,0,0,0,0,0,4,1,0,0
179951475,0.0397022,-0.00733496,0.48,0.0,0.0,0.0,0.0,0.0,0.0,0.0,0.0,0,0,0,0,0,0,0,0,0,0,0,4,1,0,0
180162658,0.0,-0.00244499,0.483636,0.0,0.0,0.0,0.0,0.0,0.0,0.0,0.0,0,0,0,0,0,0,0,0,0,0,0,4,1,0,0
180348095,0.0,0.0,0.483636,0.0,0.0,0.0,0.0,0.0,0.0,0.0,0.0,0,0,0,0,0,0,0,0,0,0,0,4,1,0,0
180558249,0.0,-0.00244499,0.483636,0.0,0.0,0.0,0.0,0.0,0.0,0.0,0.0,0,0,0,0,0,0,0,0,0,0,0,4,1,0,0
180758415,0.0,-0.00488998,0.483636,0.0,0.0,0.0,0.0,0.0,0.0,0.0,0.0,0,0,0,0,0,0,0,0,0,0,0,4,1,0,0
180952395,0.0,-0.0391198,0.484848,0.0,0.0,0.0,0.0,0.0,0.0,0.0,0.0,0,0,0,0,0,0,0,0,0,0,0,4,1,0,0
181166510,0.0,-0.00244499,0.484848,0.0,0.0,0.0,0.0,0.0,0.0,0.0,0.0,0,0,0,0,0,0,0,0,0,0,0,4,1,0,0
181358949,0.0,-0.00488998,0.483636,0.0,0.0,0.0,0.0,0.0,0.0,0.0,0.0,0,0,0,0,0,0,0,0,0,0,0,4,1,0,0
181556914,0.0,-0.00733496,0.483636,0.0,0.0,0.0,0.0,0.0,0.0,0.0,0.0,0,0,0,0,0,0,0,0,0,0,0,4,1,0,0
181747061,0.0,-0.00244499,0.484848,0.0,0.0,0.0,0.0,0.0,0.0,0.0,0.0,0,0,0,0,0,0,0,0,0,0,0,4,1,0,0
181949350,0.0,-0.00488998,0.483636,0.0,0.0,0.0,0.0,0.0,0.0,0.0,0.0,0,0,0,0,0,0,0,0,0,0,0,4,1,0,0
182159549,0.166253,-0.00244499,0.484848,0.0,0.0,0.0,0.0,0.0,0.0,0.0,0.0,0,0,0,0,0,0,0,0,0,0,0,4,1,0,0
182349708,0.0,-0.00488998,0.483636,0.0,0.0,0.0,0.0,0.0,0.0,0.0,0.0,0,0,0,0,0,0,0,0,0,0,0,4,1,0,0
182549822,0.0,-0.00244499,0.483636,0.0,0.0,0.0,0.0,0.0,0.0,0.0,0.0,0,0,0,0,0,0,0,0,0,0,0,4,1,0,0
182764846,0.0,-0.00244499,0.483636,0.0,0.0,0.0,0.0,0.0,0.0,0.0,0.0,0,0,0,0,0,0,0,0,0,0,0,4,1,0,0
182957974,0.0,-0.00244499,0.483636,0.0,0.0,0.0,0.0,0.0,0.0,0.0,0.0,0,0,0,0,0,0,0,0,0,0,0,4,1,0,0
183164052,0.0,-0.00488998,0.484848,0.0,0.0,0.0,0.0,0.0,0.0,0.0,0.0,0,0,0,0,0,0,0,0,0,0,0,4,1,0,0
183355034,0.0,-0.00244499,0.483636,0.0,0.0,0.0,0.0,0.0,0.0,0.0,0.0,0,0,0,0,0,0,0,0,0,0,0,4,1,0,0
183544318,0.0,-0.00244499,0.483636,0.0,0.0,0.0,0.0,0.0,0.0,0.0,0.0,0,0,0,0,0,0,0,0,0,0,0,4,1,0,0
183748541,0.0,-0.00488998,0.484848,0.0,0.0,0.0,0.0,0.0,0.0,0.0,0.0,0,0,0,0,0,0,0,0,0,0,0,4,1,0,0
183964628,0.0545906,0.005,0.487273,0.0,0.0,0.0,0.0,0.0,0.0,0.0,0.0,0,0,0,0,0,0,0,0,0,0,0,4,1,0,0
184154789,0.0595534,0.0425,0.483636,0.0,0.0,0.0,0.0,0.0,0.0,0.0,0.0,0,0,0,0,0,0,0,0,0,0,0,4,1,0,0
184351254,0.0,-0.00244499,0.483636,0.0,0.0,0.0,0.0,0.0,0.0,0.0,0.0,0,0,0,0,0,0,0,0,0,0,0,4,1,0,0
184561424,0.0,-0.00244499,0.484848,0.0,0.0,0.0,0.0,0.0,0.0,0.0,0.0,0,0,0,0,0,0,0,0,0,0,0,4,1,0,0
184755391,0.0,-0.00244499,0.484848,0.0,0.0,0.0,0.0,0.0,0.0,0.0,0.0,0,0,0,0,0,0,0,0,0,0,0,4,1,0,0
184957156,0.0248139,0.0475,0.483636,0.0,0.0,0.0,0.0,0.0,0.0,0.0,0.0,0,0,0,0,0,0,0,0,0,0,0,4,1,0,0
185149678,0.0,-0.00244499,0.484848,0.0,0.0,0.0,0.0,0.0,0.0,0.0,0.0,0,0,0,0,0,0,0,0,0,0,0,4,1,0,0
185362102,0.0,-0.00244499,0.484848,0.0,0.0,0.0,0.0,0.0,0.0,0.0,0.0,0,0,0,0,0,0,0,0,0,0,0,4,1,0,0
185552226,0.0,-0.00244499,0.483636,0.0,0.0,0.0,0.0,0.0,0.0,0.0,0.0,0,0,0,0,0,0,0,0,0,0,0,4,1,0,0
185760346,0.0,0.0,0.484848,0.0,0.0,0.0,0.0,0.0,0.0,0.0,0.0,0,0,0,0,0,0,0,0,0,0,0,4,1,0,0
185942519,0.0,-0.00244499,0.484848,0.0,0.0,0.0,0.0,0.0,0.0,0.0,0.0,0,0,0,0,0,0,0,0,0,0,0,4,1,0,0
186150451,0.0,-0.00244499,0.484848,0.0,0.0,0.0,0.0,0.0,0.0,0.0,0.0,0,0,0,0,0,0,0,0,0,0,0,4,1,0,0
186352823,0.0,0.0,0.481212,0.0,0.0,0.0,0.0,0.0,0.0,0.0,0.0,0,0,0,0,0,0,0,0,0,0,0,4,1,0,0
186552993,0.0,-0.00244499,0.484848,0.0,0.0,0.0,0.0,0.0,0.0,0.0,0.0,0,0,0,0,0,0,0,0,0,0,0,4,1,0,0
186763228,0.0,-0.00244499,0.483636,0.0,0.0,0.0,0.0,0.0,0.0,0.0,0.0,0,0,0,0,0,0,0,0,0,0,0,4,1,0,0
186951079,0.0,-0.00244499,0.484848,0.0,0.0,0.0,0.0,0.0,0.0,0.0,0.0,0,0,0,0,0,0,0,0,0,0,0,4,1,0,0
187153466,0.0645161,0.045,0.483636,0.0,0.0,0.0,0.0,0.0,0.0,0.0,0.0,0,0,0,0,0,0,0,0,0,0,0,4,1,0,0
187363635,0.0,-0.00244499,0.483636,0.0,0.0,0.0,0.0,0.0,0.0,0.0,0.0,0,0,0,0,0,0,0,0,0,0,0,4,1,0,0
187553816,0.0,-0.00244499,0.483636,0.0,0.0,0.0,0.0,0.0,0.0,0.0,0.0,0,0,0,0,0,0,0,0,0,0,0,4,1,0,0
187757298,0.0,0.0125,0.483636,0.0,0.0,0.0,0.0,0.0,0.0,0.0,0.0,0,0,0,0,0,0,0,0,0,0,0,4,1,0,0
187951949,0.0,0.0,0.484848,0.0,0.0,0.0,0.0,0.0,0.0,0.0,0.0,0,0,0,0,0,0,0,0,0,0,0,4,1,0,0
188157627,0.0,-0.00244499,0.483636,0.0,0.0,0.0,0.0,0.0,0.0,0.0,0.0,0,0,0,0,0,0,0,0,0,0,0,4,1,0,0
188352207,0.0,0.0,0.484848,0.0,0.0,0.0,0.0,0.0,0.0,0.0,0.0,0,0,0,0,0,0,0,0,0,0,0,4,1,0,0
188554846,0.0,0.145,0.483636,0.0,0.0,0.0,0.0,0.0,0.0,0.0,0.0,0,0,0,0,0,0,0,0,0,0,0,4,1,0,0
188748436,0.0,-0.00244499,0.482424,0.0,0.0,0.0,0.0,0.0,0.0,0.0,0.0,0,0,0,0,0,0,0,0,0,0,0,4,1,0,0
188962672,0.0,-0.00244499,0.482424,0.0,0.0,0.0,0.0,0.0,0.0,0.0,0.0,0,0,0,0,0,0,0,0,0,0,0,4,1,0,0
189155067,0.0,-0.00244499,0.483636,0.0,0.0,0.0,0.0,0.0,0.0,0.0,0.0,0,0,0,0,0,0,0,0,0,0,0,4,1,0,0
189355215,0.0198511,0.0,0.482424,0.0,0.0,0.0,0.0,0.0,0.0,0.0,0.0,0,0,0,0,0,0,0,0,0,0,0,4,1,0,0
189565365,0.0,0.005,0.483636,0.0,0.0,0.0,0.0,0.0,0.0,0.0,0.0,0,0,0,0,0,0,0,0,0,0,0,4,1,0,0
189759229,0.0,0.0,0.483636,0.0,0.0,0.0,0.0,0.0,0.0,0.0,0.0,0,0,0,0,0,0,0,0,0,0,0,4,1,0,0
189955699,0.0,-0.00244499,0.484848,0.0,0.0,0.0,0.0,0.0,0.0,0.0,0.0,0,0,0,0,0,0,0,0,0,0,0,4,1,0,0
190149548,0.0,-0.00244499,0.484848,0.0,0.0,0.0,0.0,0.0,0.0,0.0,0.0,0,0,0,0,0,0,0,0,0,0,0,4,1,0,0
190363807,0.0421836,0.08,0.481212,0.0,0.0,0.0,0.0,0.0,0.0,0.0,0.0,0,0,0,0,0,0,0,0,0,0,0,4,1,0,0
190546148,0.0,0.0,0.483636,0.0,0.0,0.0,0.0,0.0,0.0,0.0,0.0,0,0,0,0,0,0,0,0,0,0,0,4,1,0,0
190756315,0.0,0.0,0.483636,0.0,0.0,0.0,0.0,0.0,0.0,0.0,0.0,0,0,0,0,0,0,0,0,0,0,0,4,1,0,0
190966487,0.0,-0.00244499,0.484848,0.0,0.0,0.0,0.0,0.0,0.0,0.0,0.0,0,0,0,0,0,0,0,0,0,0,0,4,1,0,0
191166696,0.0,-0.00244499,0.484848,0.0,0.0,0.0,0.0,0.0,0.0,0.0,0.0,0,0,0,0,0,0,0,0,0,0,0,4,1,0,0
191350596,0.0,-0.00244499,0.484848,0.0,0.0,0.0,0.0,0.0,0.0,0.0,0.0,0,0,0,0,0,0,0,0,0,0,0,4,1,0,0
191546937,0.0,-0.00244499,0.484848,0.0,0.0,0.0,0.0,0.0,0.0,0.0,0.0,0,0,0,0,0,0,0,0,0,0,0,4,1,0,0
191761849,0.0,0.0,0.483636,0.0,0.0,0.0,0.0,0.0,0.0,0.0,0.0,0,0,0,0,0,0,0,0,0,0,0,4,1,0,0
191950673,0.0,-0.00244499,0.484848,0.0,0.0,0.0,0.0,0.0,0.0,0.0,0.0,0,0,0,0,0,0,0,0,0,0,0,4,1,0,0
192157417,0.0,-0.00244499,0.483636,0.0,0.0,0.0,0.0,0.0,0.0,0.0,0.0,0,0,0,0,0,0,0,0,0,0,0,4,1,0,0
192351448,0.0,-0.00244499,0.483636,0.0,0.0,0.0,0.0,0.0,0.0,0.0,0.0,0,0,0,0,0,0,0,0,0,0,0,4,1,0,0
192547791,-0.0498753,-0.00244499,0.484848,0.0,0.0,0.0,0.0,0.0,0.0,0.0,0.0,0,0,0,0,0,0,0,0,0,0,0,4,1,0,0
192755680,0.0,-0.00244499,0.483636,0.0,0.0,0.0,0.0,0.0,0.0,0.0,0.0,0,0,0,0,0,0,0,0,0,0,0,4,1,0,0
192962805,0.0,0.0,0.484848,0.0,0.0,0.0,0.0,0.0,0.0,0.0,0.0,0,0,0,0,0,0,0,0,0,0,0,4,1,0,0
193158490,-0.112219,-0.00244499,0.483636,0.0,0.0,0.0,0.0,0.0,0.0,0.0,0.0,0,0,0,0,0,0,0,0,0,0,0,4,1,0,0
193348379,-0.119701,-0.00244499,0.484848,0.0,0.0,0.0,0.0,0.0,0.0,0.0,0.0,0,0,0,0,0,0,0,0,0,0,0,4,1,0,0
193548702,0.0,-0.00733496,0.482424,-0.0170316,0.0,0.0,0.0,0.0,0.0,0.0,0.0,0,0,0,0,0,0,0,0,0,0,0,4,1,0,0
193748801,0.0,-0.00488998,0.482424,-0.184915,0.0,0.0,0.0,0.0,0.0,0.0,0.0,0,0,0,0,0,0,0,0,0,0,0,4,1,0,0
193963765,-0.0074813,-0.00244499,0.484848,-0.296837,0.0,0.0,0.0,0.0,0.0,0.0,0.0,0,0,0,0,0,0,0,0,0,0,0,4,1,0,0
194149045,-0.0249377,-0.00488998,0.482424,-0.352798,0.0,0.0,0.0,0.0,0.0,0.0,0.0,0,0,0,0,0,0,0,0,0,0,0,4,1,0,0
194359177,-0.0249377,-0.00488998,0.482424,-0.379562,0.0,0.0,0.0,0.0,0.0,0.0,0.0,0,0,0,0,0,0,0,0,0,0,0,4,1,0,0
194559408,-0.0299252,-0.00488998,0.482424,-0.377129,0.0,0.0,0.0,0.0,0.0,0.0,0.0,0,0,0,0,0,0,0,0,0,0,0,4,1,0,0
194763993,0.0,-0.154034,0.482424,-0.3382,0.0,0.0,0.0,0.0,0.0,0.0,0.0,0,0,0,0,0,0,0,0,0,0,0,4,1,0,0
194949687,0.0,-0.151589,0.482424,-0.352798,0.0,0.0,0.0,0.0,0.0,0.0,0.0,0,0,0,0,0,0,0,0,0,0,0,4,1,0,0
195159812,0.0,-0.0733496,0.483636,-0.333333,0.0,0.0,0.0,0.0,0.0,0.0,0.0,0,0,0,0,0,0,0,0,0,0,0,4,1,0,0
195359966,0.0,-0.0635697,0.483636,-0.355231,0.0,0.0,0.0,0.0,0.0,0.0,0.0,0,0,0,0,0,0,0,0,0,0,0,4,1,0,0
195550103,0.0,-0.0929095,0.482424,-0.357664,0.0,0.0,0.0,0.0,0.0,0.0,0.0,0,0,0,0,0,0,0,0,0,0,0,4,1,0,0
195765059,0.0,-0.0146699,0.481212,-0.328467,0.0,0.0,0.0,0.0,0.0,0.0,0.0,0,0,0,0,0,0,0,0,0,0,0,4,1,0,0
195960429,0.0,-0.00488998,0.481212,-0.318735,0.0,0.0,0.0,0.0,0.0,0.0,0.0,0,0,0,0,0,0,0,0,0,0,0,4,1,0,0
196165032,0.0,-0.102689,0.481212,-0.309002,0.0,0.0,0.0,0.0,0.0,0.0,0.0,0,0,0,0,0,0,0,0,0,0,0,4,1,0,0
196358522,0.0,-0.0977995,0.481212,-0.245742,0.0,0.0,0.0,0.0,0.0,0.0,0.0,0,0,0,0,0,0,0,0,0,0,0,4,1,0,0
196551056,0.0397022,-0.0391198,0.482424,-0.0973236,0.0,0.0,0.0,0.0,0.0,0.0,0.0,0,0,0,0,0,0,0,0,0,0,0,4,1,0,0
196761078,0.0942928,-0.0366748,0.481212,0.0,0.0,0.0,0.0,0.0,0.0,0.0,0.0,0,0,0,0,0,0,0,0,0,0,0,4,1,0,0
196949078,0.129032,-0.0244499,0.482424,0.0,0.0,0.0,0.0,0.0,0.0,0.0,0.0,0,0,0,0,0,0,0,0,0,0,0,4,1,0,0
197151378,0.121588,-0.0171149,0.481212,0.0,0.0,0.0,0.0,0.0,0.0,0.0,0.0,0,0,0,0,0,0,0,0,0,0,0,4,1,0,0
197359332,0.0,-0.00733496,0.482424,0.0,0.0,0.0,0.0,0.0,0.0,0.0,0.0,0,0,0,0,0,0,0,0,0,0,0,4,1,0,0
197559519,0.0,-0.132029,0.48,-0.0437956,0.0,0.0,0.0,0.0,0.0,0.0,0.0,0,0,0,0,0,0,0,0,0,0,0,4,1,0,0
197755751,0.0,-0.0953545,0.482424,-0.187348,0.0,0.0,0.0,0.0,0.0,0.0,0.0,0,0,0,0,0,0,0,0,0,0,0,4,1,0,0
197962216,0.0,-0.124694,0.481212,-0.189781,0.0,0.0,0.0,0.0,0.0,0.0,0.0,0,0,0,0,0,0,0,0,0,0,0,4,1,0,0
198159985,0.0,-0.127139,0.481212,-0.189781,0.0,0.0,0.0,0.0,0.0,0.0,0.0,0,0,0,0,0,0,0,0,0,0,0,4,1,0,0
198362345,0.111663,-0.0317848,0.481212,-0.0973236,0.0,0.0,0.0,0.0,0.0,0.0,0.0,0,0,0,0,0,0,0,0,0,0,0,4,1,0,0
198550358,0.129032,-0.0146699,0.482424,0.0,0.0,0.0,0.0,0.0,0.0,0.0,0.0,0,0,0,0,0,0,0,0,0,0,0,4,1,0,0
198750453,0.0,-0.00488998,0.483636,0.0,0.0,0.0,0.0,0.0,0.0,0.0,0.0,0,0,0,0,0,0,0,0,0,0,0,4,1,0,0
198962816,0.0,-0.00488998,0.483636,0.0,0.0,0.0,0.0,0.0,0.0,0.0,0.0,0,0,0,0,0,0,0,0,0,0,0,4,1,0,0
199158536,0.0,-0.00488998,0.483636,0.0,0.0,0.0,0.0,0.0,0.0,0.0,0.0,0,0,0,0,0,0,0,0,0,0,0,4,1,0,0
199353116,0.0,-0.00244499,0.484848,0.0,0.0,0.0,0.0,0.0,0.0,0.0,0.0,0,0,0,0,0,0,0,0,0,0,0,4,1,0,0
199556981,0.0,-0.00244499,0.484848,0.0,0.0,0.0,0.0,0.0,0.0,0.0,0.0,0,0,0,0,0,0,0,0,0,0,0,4,1,0,0
199747279,0.0322581,0.0,0.477576,0.0,0.0,0.0,0.0,0.0,0.0,0.0,0.0,0,0,0,0,0,0,0,0,0,0,0,4,1,0,0
199961432,0.0322581,0.0,0.476364,0.0,0.0,0.0,0.0,0.0,0.0,0.0,0.0,0,0,0,0,0,0,0,0,0,0,0,4,1,0,0
200151662,0.0,0.0,0.483636,0.0373134,0.0,0.0,0.0,0.0,0.0,0.0,0.0,0,0,0,0,0,0,0,0,0,0,0,4,1,0,0
200363935,0.0,-0.00977995,0.48,0.0646766,0.0,0.0,0.0,0.0,0.0,0.0,0.0,0,0,0,0,0,0,0,0,0,0,0,4,1,0,0
200557827,0.0,0.0,0.478788,0.0771144,0.0,0.0,0.0,0.0,0.0,0.0,0.0,0,0,0,0,0,0,0,0,0,0,0,4,1,0,0
200747924,0.00496278,0.1075,0.486061,0.0671642,0.0,0.0,0.0,0.0,0.0,0.0,0.0,0,0,0,0,0,0,0,0,0,0,0,4,1,0,0
200959121,0.0,-0.00244499,0.486061,0.0547264,0.0,0.0,0.0,0.0,0.0,0.0,0.0,0,0,0,0,0,0,0,0,0,0,0,4,1,0,0
201164703,0.0,0.0,0.486061,0.0547264,0.0,0.0,0.0,0.0,0.0,0.0,0.0,0,0,0,0,0,0,0,0,0,0,0,4,1,0,0
201354740,0.0,0.16,0.486061,0.0646766,0.0,0.0,0.0,0.0,0.0,0.0,0.0,0,0,0,0,0,0,0,0,0,0,0,4,1,0,0
201559659,0.0,-0.00244499,0.483636,0.106965,0.0,0.0,0.0,0.0,0.0,0.0,0.0,0,0,0,0,0,0,0,0,0,0,0,4,1,0,0
201752807,0.0,0.0,0.482424,0.156716,0.0,0.0,0.0,0.0,0.0,0.0,0.0,0,0,0,0,0,0,0,0,0,0,0,4,1,0,0
201943055,0.0,0.2475,0.482424,0.151741,0.0,0.0,0.0,0.0,0.0,0.0,0.0,0,0,0,0,0,0,0,0,0,0,0,4,1,0,0
202165487,0.0,-0.00977995,0.481212,0.151741,0.0,0.0,0.0,0.0,0.0,0.0,0.0,0,0,0,0,0,0,0,0,0,0,0,4,1,0,0
202355613,0.0,-0.00488998,0.481212,0.136816,0.0,0.0,0.0,0.0,0.0,0.0,0.0,0,0,0,0,0,0,0,0,0,0,0,4,1,0,0
202549366,0.0,0.3025,0.482424,0.124378,0.0,0.0,0.0,0.0,0.0,0.0,0.0,0,0,0,0,0,0,0,0,0,0,0,4,1,0,0
202763621,0.0,-0.00488998,0.482424,0.126866,0.0,0.0,0.0,0.0,0.0,0.0,0.0,0,0,0,0,0,0,0,0,0,0,0,4,1,0,0
202956133,0.0,0.05,0.482424,0.134328,0.0,0.0,0.0,0.0,0.0,0.0,0.0,0,0,0,0,0,0,0,0,0,0,0,4,1,0,0
203156289,0.0,0.03,0.482424,0.121891,0.0,0.0,0.0,0.0,0.0,0.0,0.0,0,0,0,0,0,0,0,0,0,0,0,4,1,0,0
203346298,0.0,-0.00244499,0.482424,0.0597015,0.0,0.0,0.0,0.0,0.0,0.0,0.0,0,0,0,0,0,0,0,0,0,0,0,4,1,0,0
203566470,0.0,-0.00244499,0.482424,0.0,0.0,0.0,0.0,0.0,0.0,0.0,0.0,0,0,0,0,0,0,0,0,0,0,0,4,1,0,0
203756618,0.0223325,-0.00488998,0.482424,0.0,0.0,0.0,0.0,0.0,0.0,0.0,0.0,0,0,0,0,0,0,0,0,0,0,0,4,1,0,0
203954546,0.0868486,0.1125,0.481212,0.0,0.0,0.0,0.0,0.0,0.0,0.0,0.0,0,0,0,0,0,0,0,0,0,0,0,4,1,0,0
204161426,0.0,-0.00244499,0.482424,0.0,0.0,0.0,0.0,0.0,0.0,0.0,0.0,0,0,0,0,0,0,0,0,0,0,0,4,1,0,0
204354870,0.0,-0.00244499,0.482424,0.0,0.0,0.0,0.0,0.0,0.0,0.0,0.0,0,0,0,0,0,0,0,0,0,0,0,4,1,0,0
204547251,0.0,0.05,0.482424,0.0,0.0,0.0,0.0,0.0,0.0,0.0,0.0,0,0,0,0,0,0,0,0,0,0,0,4,1,0,0
204757429,0.0,-0.00244499,0.483636,0.0124378,0.0,0.0,0.0,0.0,0.0,0.0,0.0,0,0,0,0,0,0,0,0,0,0,0,4,1,0,0
204967631,0.0471464,0.0,0.484848,0.0,0.0,0.0,0.0,0.0,0.0,0.0,0.0,0,0,0,0,0,0,0,0,0,0,0,4,1,0,0
205157731,0.0645161,0.0,0.483636,0.0,0.0,0.0,0.0,0.0,0.0,0.0,0.0,0,0,0,0,0,0,0,0,0,0,0,4,1,0,0
205357993,0.0,-0.00244499,0.486061,0.0,0.0,0.0,0.0,0.0,0.0,0.0,0.0,0,0,0,0,0,0,0,0,0,0,0,4,1,0,0
205555818,0.0,-0.00244499,0.483636,0.039801,0.0,0.0,0.0,0.0,0.0,0.0,0.0,0,0,0,0,0,0,0,0,0,0,0,4,1,0,0
205745966,0.0,-0.00244499,0.486061,0.11194,0.0,0.0,0.0,0.0,0.0,0.0,0.0,0,0,0,0,0,0,0,0,0,0,0,4,1,0,0
205948373,0.0,-0.00244499,0.483636,0.121891,0.0,0.0,0.0,0.0,0.0,0.0,0.0,0,0,0,0,0,0,0,0,0,0,0,4,1,0,0
206162451,0.0322581,0.1375,0.489697,0.0746269,0.0,0.0,0.0,0.0,0.0,0.0,0.0,0,0,0,0,0,0,0,0,0,0,0,4,1,0,0
206362032,0.0,-0.00488998,0.487273,0.0721393,0.0,0.0,0.0,0.0,0.0,0.0,0.0,0,0,0,0,0,0,0,0,0,0,0,4,1,0,0
206548817,0.0,0.145,0.486061,0.0820896,0.0,0.0,0.0,0.0,0.0,0.0,0.0,0,0,0,0,0,0,0,0,0,0,0,4,1,0,0
206762685,0.0,0.215,0.484848,0.079602,0.0,0.0,0.0,0.0,0.0,0.0,0.0,0,0,0,0,0,0,0,0,0,0,0,4,1,0,0
206952861,0.0,-0.00488998,0.487273,0.0746269,0.0,0.0,0.0,0.0,0.0,0.0,0.0,0,0,0,0,0,0,0,0,0,0,0,4,1,0,0
207143721,0.0,-0.00244499,0.487273,0.0721393,0.0,0.0,0.0,0.0,0.0,0.0,0.0,0,0,0,0,0,0,0,0,0,0,0,4,1,0,0
207357238,0.00496278,0.1575,0.487273,0.0646766,0.0,0.0,0.0,0.0,0.0,0.0,0.0,0,0,0,0,0,0,0,0,0,0,0,4,1,0,0
207559657,0.0,-0.00488998,0.486061,0.0646766,0.0,0.0,0.0,0.0,0.0,0.0,0.0,0,0,0,0,0,0,0,0,0,0,0,4,1,0,0
207749922,0.0,-0.00488998,0.486061,0.0621891,0.0,0.0,0.0,0.0,0.0,0.0,0.0,0,0,0,0,0,0,0,0,0,0,0,4,1,0,0
207963760,0.0,-0.00488998,0.486061,0.0,0.0,0.0,0.0,0.0,0.0,0.0,0.0,0,0,0,0,0,0,0,0,0,0,0,4,1,0,0
208157875,0.0,-0.00488998,0.486061,0.0,0.0,0.0,0.0,0.0,0.0,0.0,0.0,0,0,0,0,0,0,0,0,0,0,0,4,1,0,0
208360328,0.0,0.225,0.484848,0.0,0.0,0.0,0.0,0.0,0.0,0.0,0.0,0,0,0,0,0,0,0,0,0,0,0,4,1,0,0
208544106,0.0,0.1375,0.484848,0.0,0.0,0.0,0.0,0.0,0.0,0.0,0.0,0,0,0,0,0,0,0,0,0,0,0,4,1,0,0
208750622,0.0,-0.00488998,0.484848,0.0373134,0.0,0.0,0.0,0.0,0.0,0.0,0.0,0,0,0,0,0,0,0,0,0,0,0,4,1,0,0
208958662,0.0,-0.0146699,0.478788,0.079602,0.0,0.0,0.0,0.0,0.0,0.0,0.0,0,0,0,0,0,0,0,0,0,0,0,4,1,0,0
209160924,0.0,-0.0122249,0.478788,0.0945274,0.0,0.0,0.0,0.0,0.0,0.0,0.0,0,0,0,0,0,0,0,0,0,0,0,4,1,0,0
209354770,0.0,-0.0122249,0.478788,0.0870647,0.0,0.0,0.0,0.0,0.0,0.0,0.0,0,0,0,0,0,0,0,0,0,0,0,4,1,0,0
209564629,0.0,-0.0122249,0.478788,0.0671642,0.0,0.0,0.0,0.0,0.0,0.0,0.0,0,0,0,0,0,0,0,0,0,0,0,4,1,0,0
209751384,0.0,-0.0146699,0.478788,0.0895522,0.0,0.0,0.0,0.0,0.0,0.0,0.0,0,0,0,0,0,0,0,0,0,0,0,4,1,0,0
209961686,0.0,-0.0146699,0.478788,0.146766,0.0,0.0,0.0,0.0,0.0,0.0,0.0,0,0,0,0,0,0,0,0,0,0,0,4,1,0,0
210159449,0.0,-0.0122249,0.478788,0.149254,0.0,0.0,0.0,0.0,0.0,0.0,0.0,0,0,0,0,0,0,0,0,0,0,0,4,1,0,0
210359667,0.0,-0.0171149,0.476364,0.164179,0.0,0.0,0.0,0.0,0.0,0.0,0.0,0,0,0,0,0,0,0,0,0,0,0,4,1,0,0
210565361,0.0,0.2725,0.476364,0.149254,0.0,0.0,0.0,0.0,0.0,0.0,0.0,0,0,0,0,0,0,0,0,0,0,0,4,1,0,0
210759994,0.0,0.31,0.478788,0.0746269,0.0,0.0,0.0,0.0,0.0,0.0,0.0,0,0,0,0,0,0,0,0,0,0,0,4,1,0,0
210952448,0.0,0.215,0.48,0.0671642,0.0,0.0,0.0,0.0,0.0,0.0,0.0,0,0,0,0,0,0,0,0,0,0,0,4,1,0,0
211152474,0.0,0.08,0.481212,0.0522388,0.0,0.0,0.0,0.0,0.0,0.0,0.0,0,0,0,0,0,0,0,0,0,0,0,4,1,0,0
211362644,0.0,0.08,0.481212,0.0547264,0.0,0.0,0.0,0.0,0.0,0.0,0.0,0,0,0,0,0,0,0,0,0,0,0,4,1,0,0
211550565,0.0,-0.00733496,0.481212,0.0,0.0,0.0,0.0,0.0,0.0,0.0,0.0,0,0,0,0,0,0,0,0,0,0,0,4,1,0,0
211752954,0.0,-0.00733496,0.481212,0.0,0.0,0.0,0.0,0.0,0.0,0.0,0.0,0,0,0,0,0,0,0,0,0,0,0,4,1,0,0
211960951,0.0,0.0425,0.48,0.0,0.0,0.0,0.0,0.0,0.0,0.0,0.0,0,0,0,0,0,0,0,0,0,0,0,4,1,0,0
212163291,0.0,0.2625,0.481212,0.0,0.0,0.0,0.0,0.0,0.0,0.0,0.0,0,0,0,0,0,0,0,0,0,0,0,4,1,0,0
212353437,0.0,0.12,0.48,0.0,0.0,0.0,0.0,0.0,0.0,0.0,0.0,0,0,0,0,0,0,0,0,0,0,0,4,1,0,0
