timestamp,ref_timestamp,ref_lat,ref_lon,x,y,z,delta_xy[0],delta_xy[1],delta_z,vx,vy,vz,z_deriv,delta_vxy[0],delta_vxy[1],delta_vz,ax,ay,az,heading,delta_heading,ref_alt,dist_bottom,eph,epv,evh,evv,vxy_max,vz_max,hagl_min,hagl_max,xy_valid,z_valid,v_xy_valid,v_z_valid,xy_reset_counter,z_reset_counter,vxy_reset_counter,vz_reset_counter,heading_reset_counter,xy_global,z_global,dist_bottom_valid
92758231,15063323,34.0348592,108.7567287,-0.950791,-0.671497,-0.497566,-0.0255126,-0.157561,0.0,0.00213276,0.0288987,0.010923,0.0464332,-0.0907208,-0.42669,0.181226,3.49959,-4.84971,1.57254,0.00439692,0.0375331,426.732,0.133398,0.264277,0.388321,0.13024,0.0989001,inf,inf,inf,inf,1,1,1,1,2,0,2,1,3,1,1,1
92768239,15063323,34.0348592,108.7567287,-0.951464,-0.671299,-0.496629,-0.0255126,-0.157561,0.0,-0.0138168,0.0240817,0.00920028,0.0452052,-0.0907208,-0.42669,0.181226,-3.7558,1.99896,0.3999,0.00326434,0.0375331,426.732,0.113819,0.265112,0.386574,0.130683,0.0988202,inf,inf,inf,inf,1,1,1,1,2,0,2,1,3,1,1,1
92858308,15063323,34.0348592,108.7567287,-0.958144,-0.66791,-0.490916,-0.0255126,-0.157561,0.0,0.00367704,0.00611194,0.0143393,0.0521327,-0.0907208,-0.42669,0.181226,-4.50859,0.454779,2.84352,0.00349986,0.0375331,426.732,0.102386,0.272863,0.389912,0.134729,0.100081,inf,inf,inf,inf,1,1,1,1,2,0,2,1,3,1,1,1
92958387,15063323,34.0348592,108.7567287,-0.967212,-0.662139,-0.492635,-0.0255126,-0.157561,0.0,-0.0561206,0.0677867,0.00505961,0.036817,-0.0907208,-0.42669,0.181226,3.50895,2.51658,-1.68511,0.00545608,0.0375331,426.732,0.1,0.263881,0.387602,0.130337,0.0988438,inf,inf,inf,inf,1,1,1,1,2,0,2,1,3,1,1,1
93058467,15063323,34.0348592,108.7567287,-0.974626,-0.656326,-0.49541,-0.0255126,-0.157561,0.0,-0.0083108,0.0280501,-0.00295019,0.0225251,-0.0907208,-0.42669,0.181226,-6.98286,2.00617,1.3331,0.00400938,0.0375331,426.732,0.1,0.272486,0.389169,0.134809,0.100019,inf,inf,inf,inf,1,1,1,1,2,0,2,1,3,1,1,1
93158549,15063323,34.0348592,108.7567287,-0.981694,-0.65029,-0.496547,-0.0255126,-0.157561,0.0,0.00877701,0.0337849,0.00545712,0.0267223,-0.0907208,-0.42669,0.181226,6.6143,-3.53308,-0.990481,0.00518629,0.0375331,426.732,0.1,0.263343,0.389223,0.130266,0.0990011,inf,inf,inf,inf,1,1,1,1,2,0,2,1,3,1,1,1
93258627,15063323,34.0348592,108.7567287,-0.987618,-0.644853,-0.500978,-0.0255126,-0.157561,0.0,-0.00709559,0.0353696,0.000870017,0.0151132,-0.0907208,-0.42669,0.181226,5.35631,-1.98071,-1.77502,0.00487392,0.0375331,426.732,0.1,0.271948,0.390795,0.134759,0.100179,inf,inf,inf,inf,1,1,1,1,2,0,2,1,3,1,1,1
93358707,15063323,34.0348592,108.7567287,-0.994443,-0.639512,-0.513343,-0.0255126,-0.157561,0.0,-0.0154867,0.0386498,0.00333871,0.00332412,-0.0907208,-0.42669,0.181226,2.15282,0.010894,-3.53616,0.00441694,0.0375331,426.732,0.1,0.262896,0.388436,0.130282,0.0989205,inf,inf,inf,inf,1,1,1,1,2,0,2,1,3,1,1,1
93458787,15063323,34.0348592,108.7567287,-1.00112,-0.634372,-0.518825,-0.0255126,-0.157561,0.0,-0.035785,0.0501228,-0.00920749,-0.0153739,-0.0907208,-0.42669,0.181226,-1.46294,3.18382,-3.69137,0.00456037,0.0375331,426.732,0.1,0.271509,0.389991,0.134787,0.100093,inf,inf,inf,inf,1,1,1,1,2,0,2,1,3,1,1,1
93558867,15063323,34.0348592,108.7567287,-1.00675,-0.629083,-0.527005,-0.0255126,-0.157561,0.0,-0.0380624,0.0563274,0.0114849,-0.00245972,-0.0907208,-0.42669,0.181226,2.18861,1.31566,0.260464,0.00490095,0.0375331,426.732,0.1,0.262483,0.387649,0.130278,0.0988367,inf,inf,inf,inf,1,1,1,1,2,0,2,1,3,1,1,1
93658947,15063323,34.0348592,108.7567287,-1.01117,-0.623863,-0.531144,-0.0255126,-0.157561,0.0,-0.0139685,0.041163,0.00541006,-0.0117716,-0.0907208,-0.42669,0.181226,3.12155,-0.148564,-1.74769,0.0036382,0.0375331,426.732,0.1,0.271105,0.389205,0.13476,0.10001,inf,inf,inf,inf,1,1,1,1,2,0,2,1,3,1,1,1
93759027,15063323,34.0348592,108.7567287,-1.01698,-0.618502,-0.546415,-0.0255126,-0.157561,0.0,-0.0374963,0.0577835,-0.00235159,-0.0332934,-0.0907208,-0.42669,0.181226,-2.38158,4.1675,-2.81002,0.00429661,0.0375331,426.732,0.1,0.262101,0.386879,0.130233,0.0987588,inf,inf,inf,inf,1,1,1,1,2,0,2,1,3,1,1,1
93859107,15063323,34.0348592,108.7567287,-1.02277,-0.613134,-0.561437,-0.0255126,-0.157561,0.0,-0.0278178,0.0564914,0.00978827,-0.0329787,-0.0907208,-0.42669,0.181226,1.90411,0.70054,-0.570975,0.00363361,0.0375331,426.732,0.1,0.270733,0.390841,0.134783,0.100185,inf,inf,inf,inf,1,1,1,1,2,0,2,1,3,1,1,1
93959202,15063323,34.0348592,108.7567287,-1.02765,-0.609508,-0.572261,-0.0255126,-0.157561,0.0,-0.0304929,0.0330146,0.0130002,-0.0360995,-0.0907208,-0.42669,0.181226,-1.39892,2.17984,0.61328,0.00378015,0.0375331,426.732,0.1,0.261744,0.388495,0.130242,0.0989283,inf,inf,inf,inf,1,1,1,1,2,0,2,1,3,1,1,1
94059275,15063323,34.0348592,108.7567287,-1.03164,-0.606498,-0.57995,-0.0255126,-0.157561,0.0,-0.0329208,0.0487952,0.0148304,-0.0368916,-0.0907208,-0.42669,0.181226,-0.7248,3.44436,1.00536,0.00476285,0.0375331,426.732,0.1,0.270383,0.390064,0.134716,0.100107,inf,inf,inf,inf,1,1,1,1,2,0,2,1,3,1,1,1
94159347,15063323,34.0348592,108.7567287,-1.03546,-0.603401,-0.592023,-0.0255126,-0.157561,0.0,-0.0240383,0.0181634,0.00637761,-0.05196,-0.0907208,-0.42669,0.181226,-3.34739,-0.739153,0.767002,0.00411145,0.0375331,426.732,0.1,0.261408,0.387734,0.130209,0.098853,inf,inf,inf,inf,1,1,1,1,2,0,2,1,3,1,1,1
94259429,15063323,34.0348592,108.7567287,-1.03917,-0.600116,-0.598553,-0.0255126,-0.157561,0.0,-0.0314808,0.0378337,0.00603165,-0.0526791,-0.0907208,-0.42669,0.181226,-1.10865,1.47901,2.36989,0.00431322,0.0375331,426.732,0.1,0.270056,0.389294,0.13468,0.100029,inf,inf,inf,inf,1,1,1,1,2,0,2,1,3,1,1,1
94359533,15063323,34.0348592,108.7567287,-1.04208,-0.59577,-0.60127,-0.0255126,-0.157561,0.0,-0.00478537,0.0266817,0.00738623,-0.0483323,-0.0907208,-0.42669,0.181226,-1.80391,-2.54681,-0.0632226,0.00455036,0.0375331,426.732,0.1,0.261091,0.38698,0.130164,0.0987787,inf,inf,inf,inf,1,1,1,1,2,0,2,1,3,1,1,1
94459587,15063323,34.0348592,108.7567287,-1.04423,-0.59139,-0.602816,-0.0255126,-0.157561,0.0,-0.0377131,0.0443554,0.0111817,-0.0407326,-0.0907208,-0.42669,0.181226,-2.5256,2.1679,2.70143,0.00460705,0.0375331,426.732,0.1,0.269747,0.388532,0.134646,0.0999525,inf,inf,inf,inf,1,1,1,1,2,0,2,1,3,1,1,1
94559679,15063323,34.0348592,108.7567287,-1.0458,-0.587302,-0.598926,-0.0255126,-0.157561,0.0,-0.0230288,0.0481732,-0.000765499,-0.043667,-0.0907208,-0.42669,0.181226,-2.03917,3.15772,-1.28621,0.00538989,0.0375331,426.732,0.120191,0.260967,0.388613,0.130182,0.0989539,inf,inf,inf,inf,1,1,1,1,2,0,2,1,3,1,1,1
94659747,15063323,34.0348592,108.7567287,-1.04554,-0.582681,-0.589846,-0.0255126,-0.157561,0.0,-0.00192061,0.0456763,0.00402915,-0.0262792,-0.0907208,-0.42669,0.181226,-3.95023,-0.836458,2.9151,0.00682669,0.0375331,426.732,0.122962,0.269636,0.390187,0.134692,0.100133,inf,inf,inf,inf,1,1,1,1,2,0,2,1,3,1,1,1
94759828,15063323,34.0348592,108.7567287,-1.04711,-0.576792,-0.579067,-0.0255126,-0.157561,0.0,-0.00294775,0.0473465,-0.0243111,-0.0414436,-0.0907208,-0.42669,0.181226,0.00249902,-1.3228,-8.47617,0.00712064,0.0375331,426.732,0.122373,0.260971,0.387844,0.130215,0.0988772,inf,inf,inf,inf,1,1,1,1,2,0,2,1,3,1,1,1
94859907,15063323,34.0348592,108.7567287,-1.04909,-0.571539,-0.566573,-0.0255126,-0.157561,0.0,-0.0243148,0.0521108,-0.00660681,-0.0100195,-0.0907208,-0.42669,0.181226,-1.47042,2.13064,-5.05664,0.00584392,0.0375331,426.732,0.104913,0.269654,0.389386,0.134648,0.100047,inf,inf,inf,inf,1,1,1,1,2,0,2,1,3,1,1,1
94959987,15063323,34.0348592,108.7567287,-1.05112,-0.567794,-0.566711,-0.0255126,-0.157561,0.0,-0.0259973,0.0279947,0.0253937,0.0224963,-0.0907208,-0.42669,0.181226,-1.2119,-1.64543,6.34807,0.00703983,0.0375331,426.732,0.112793,0.261115,0.389432,0.132028,0.0990409,inf,inf,inf,inf,1,1,1,1,2,0,2,1,3,1,1,1
95060067,15063323,34.0348592,108.7567287,-1.05142,-0.563225,-0.56146,-0.0255126,-0.157561,0.0,0.000741758,0.0648457,-0.00829378,-0.00615101,-0.0907208,-0.42669,0.181226,-1.10823,1.2772,-7.93123,0.0112236,0.0375331,426.732,0.115996,0.269834,0.390972,0.143873,0.100221,inf,inf,inf,inf,1,1,1,1,2,0,2,1,3,1,1,1
95160147,15063323,34.0348592,108.7567287,-1.0522,-0.556921,-0.553874,-0.0255126,-0.157561,0.0,-0.0172303,0.0475582,0.0575895,0.0665379,-0.0907208,-0.42669,0.181226,2.17869,-6.79652,8.39184,0.0104979,0.0375331,426.732,0.120196,0.261396,0.38859,0.148789,0.0989634,inf,inf,inf,inf,1,1,1,1,2,0,2,1,3,1,1,1
95260247,15063323,34.0348592,108.7567287,-1.05288,-0.553584,-0.541002,-0.0255126,-0.157561,0.0,0.000843151,0.0301798,0.0863238,0.103212,-0.0907208,-0.42669,0.181226,1.50032,2.10644,8.34837,0.0124634,0.0375331,426.732,0.132448,0.270282,0.390122,0.167463,0.100147,inf,inf,inf,inf,1,1,1,1,2,0,2,1,3,1,1,1
95360308,15063323,34.0348592,108.7567287,-1.05015,-0.556553,-0.524722,-0.0255126,-0.157561,0.0,0.0044301,0.0236186,0.0801318,0.104407,-0.0907208,-0.42669,0.181226,-0.864802,1.05368,1.97984,0.0109341,0.0375331,426.732,0.116408,0.261801,0.38776,0.172276,0.098901,inf,inf,inf,inf,1,1,1,1,2,0,2,1,3,1,1,1
95460387,15063323,34.0348592,108.7567287,-1.04917,-0.559785,-0.515426,-0.0255126,-0.157561,0.0,-0.0206408,0.0105838,0.026803,0.0542895,-0.0907208,-0.42669,0.181226,-2.10805,-0.258279,-1.68153,0.0109317,0.0375331,426.732,0.107111,0.27107,0.391723,0.19378,0.100353,inf,inf,inf,inf,1,1,1,1,2,0,2,1,3,1,1,1
95560467,15063323,34.0348592,108.7567287,-1.05129,-0.558903,-0.506501,-0.0255126,-0.157561,0.0,-0.0052223,-0.0014594,-0.0293165,0.001107,-0.0907208,-0.42669,0.181226,-2.29213,-0.343231,-1.30008,0.0118124,0.0375331,426.732,0.109846,0.262444,0.389335,0.193514,0.0991012,inf,inf,inf,inf,1,1,1,1,2,0,2,1,3,1,1,1
95660547,15063323,34.0348592,108.7567287,-1.05437,-0.556496,-0.499999,-0.0255126,-0.157561,0.0,-0.0013515,0.00961628,0.0303937,0.0644888,-0.0907208,-0.42669,0.181226,-2.01046,2.69571,0.576983,0.0138216,0.0375331,426.732,0.121052,0.272288,0.390889,0.215347,0.100304,inf,inf,inf,inf,1,1,1,1,2,0,2,1,3,1,1,1
95760637,15063323,34.0348592,108.7567287,-1.05617,-0.548309,-0.474661,-0.0255126,-0.157561,0.0,-0.00997151,0.05125,0.037489,0.0906655,-0.0907208,-0.42669,0.181226,-0.564873,1.619,9.64011,0.0172031,0.0375331,426.732,0.163725,0.263216,0.388527,0.208354,0.0990405,inf,inf,inf,inf,1,1,1,1,2,0,2,1,3,1,1,1
95860707,15063323,34.0348592,108.7567287,-1.05856,-0.535142,-0.452182,-0.0255126,-0.157561,0.0,-0.00806236,0.0628648,0.0345149,0.102704,-0.0907208,-0.42669,0.181226,2.47451,-1.12848,7.07671,0.0213605,0.0375331,426.732,0.141246,0.273675,0.390075,0.228974,0.100226,inf,inf,inf,inf,1,1,1,1,2,0,2,1,3,1,1,1
95960809,15063323,34.0348592,108.7567287,-1.05979,-0.524795,-0.431533,-0.0255126,-0.157561,0.0,-0.005626,0.0613873,0.0461178,0.122527,-0.0907208,-0.42669,0.181226,-1.24962,0.810801,1.29528,0.0216638,0.0375331,426.732,0.122719,0.26397,0.387717,0.215534,0.0989392,inf,inf,inf,inf,1,1,1,1,2,0,2,1,3,1,1,1
96060867,15063323,34.0348592,108.7567287,-1.06181,-0.518435,-0.418789,-0.0255126,-0.157561,0.0,-0.0114805,0.0537639,0.0326261,0.108539,-0.0907208,-0.42669,0.181226,-0.448087,1.42348,1.40712,0.0189332,0.0375331,426.732,0.109975,0.274914,0.389257,0.234422,0.10012,inf,inf,inf,inf,1,1,1,1,2,0,2,1,3,1,1,1
96160947,15063323,34.0348592,108.7567287,-1.06461,-0.514131,-0.412254,-0.0255126,-0.157561,0.0,-0.0260844,0.0155758,0.0336268,0.102962,-0.0907208,-0.42669,0.181226,0.144795,1.21531,5.11679,0.0192502,0.0375331,426.732,0.10344,0.264901,0.386929,0.218043,0.0988543,inf,inf,inf,inf,1,1,1,1,2,0,2,1,3,1,1,1
96261027,15063323,34.0348592,108.7567287,-1.06931,-0.512109,-0.405655,-0.0255126,-0.157561,0.0,-0.0341486,0.0360649,0.0347967,0.100905,-0.0907208,-0.42669,0.181226,-1.1783,4.23427,8.44057,0.0225067,0.0375331,426.732,0.1,0.276248,0.390885,0.235156,0.100291,inf,inf,inf,inf,1,1,1,1,2,0,2,1,3,1,1,1
96361111,15063323,34.0348592,108.7567287,-1.07096,-0.506672,-0.403275,-0.0255126,-0.157561,0.0,0.00627977,0.0760099,0.0335747,0.0933401,-0.0907208,-0.42669,0.181226,-0.34379,0.639041,8.2874,0.0283991,0.0375331,426.732,0.1,0.265693,0.38851,0.21645,0.0990024,inf,inf,inf,inf,1,1,1,1,2,0,2,1,3,1,1,1
96461187,15063323,34.0348592,108.7567287,-1.07096,-0.498874,-0.401816,-0.0255126,-0.157561,0.0,-0.0165384,0.084587,0.0108271,0.062611,-0.0907208,-0.42669,0.181226,-2.66005,3.95191,-3.13404,0.0340046,0.0375331,426.732,0.1,0.277269,0.390056,0.231799,0.100168,inf,inf,inf,inf,1,1,1,1,2,0,2,1,3,1,1,1
96561273,15063323,34.0348592,108.7567287,-1.07353,-0.494502,-0.393689,-0.0255126,-0.157561,0.0,-0.020915,0.0529238,0.0244022,0.0765965,-0.0907208,-0.42669,0.181226,0.923551,-2.03015,4.90052,0.0388046,0.0375331,426.732,0.113578,0.266731,0.38771,0.213626,0.0989004,inf,inf,inf,inf,1,1,1,1,2,0,2,1,3,1,1,1
96661350,15063323,34.0348592,108.7567287,-1.07707,-0.496039,-0.384147,-0.0255126,-0.157561,0.0,-0.0185424,0.0120302,-0.0146047,0.0414462,-0.0907208,-0.42669,0.181226,1.52445,-0.0604833,-11.7147,0.038945,0.0375331,426.732,0.11322,0.278504,0.389242,0.22746,0.100074,inf,inf,inf,inf,1,1,1,1,2,0,2,1,3,1,1,1
96761427,15063323,34.0348592,108.7567287,-1.07695,-0.496517,-0.377768,-0.0255126,-0.157561,0.0,-0.00665119,-0.000268944,0.0473401,0.10229,-0.0907208,-0.42669,0.181226,0.0393218,-2.49573,8.61204,0.0401152,0.0375331,426.732,0.107621,0.267665,0.389307,0.209385,0.0990761,inf,inf,inf,inf,1,1,1,1,2,0,2,1,3,1,1,1
96861511,15063323,34.0348592,108.7567287,-1.07425,-0.496359,-0.364168,-0.0255126,-0.157561,0.0,-0.00632211,0.0197193,0.0251857,0.0846274,-0.0907208,-0.42669,0.181226,-3.18376,4.811,0.847257,0.0414673,0.0375331,426.732,0.107694,0.279534,0.390869,0.221872,0.100259,inf,inf,inf,inf,1,1,1,1,2,0,2,1,3,1,1,1
96961587,15063323,34.0348592,108.7567287,-1.07401,-0.494909,-0.351345,-0.0255126,-0.157561,0.0,-0.00791744,0.0144989,0.0194315,0.0812008,-0.0907208,-0.42669,0.181226,1.61121,-2.11619,-7.58461,0.0405146,0.0375331,426.732,0.102495,0.268342,0.388515,0.204091,0.0989901,inf,inf,inf,inf,1,1,1,1,2,0,2,1,3,1,1,1
97061667,15063323,34.0348592,108.7567287,-1.07365,-0.492568,-0.338515,-0.0255126,-0.157561,0.0,0.0072606,0.00794323,0.0606729,0.124016,-0.0907208,-0.42669,0.181226,0.575755,-2.75971,3.3221,0.0391726,0.0375331,426.732,0.101792,0.280189,0.39007,0.215401,0.100168,inf,inf,inf,inf,1,1,1,1,2,0,2,1,3,1,1,1
97161747,15063323,34.0348592,108.7567287,-1.072,-0.489507,-0.3309,-0.0255126,-0.157561,0.0,0.0138439,0.0157921,0.0524148,0.111044,-0.0907208,-0.42669,0.181226,2.07286,-1.67004,-2.42092,0.0373748,0.0375331,426.732,0.1,0.268927,0.387733,0.198618,0.0989036,inf,inf,inf,inf,1,1,1,1,2,0,2,1,3,1,1,1
97261827,15063323,34.0348592,108.7567287,-1.07001,-0.487064,-0.33681,-0.0255126,-0.157561,0.0,-0.00370986,0.00872734,0.0265824,0.0692525,-0.0907208,-0.42669,0.181226,-1.21925,2.82819,0.584211,0.0334261,0.0375331,426.732,0.100893,0.28071,0.38928,0.208931,0.100078,inf,inf,inf,inf,1,1,1,1,2,0,2,1,3,1,1,1
97361912,15063323,34.0348592,108.7567287,-1.06943,-0.485167,-0.356007,-0.0255126,-0.157561,0.0,-0.00299208,0.00417918,0.0336176,0.049644,-0.0907208,-0.42669,0.181226,-1.93718,5.33858,-1.1383,0.0311744,0.0375331,426.732,0.12009,0.269426,0.386959,0.193208,0.0988211,inf,inf,inf,inf,1,1,1,1,2,0,2,1,3,1,1,1
97461989,15063323,34.0348592,108.7567287,-1.06887,-0.483834,-0.375539,-0.0255126,-0.157561,0.0,0.00609623,-0.0149538,0.0201305,0.0126673,-0.0907208,-0.42669,0.181226,-0.37151,2.01958,-4.79845,0.0287225,0.0375331,426.732,0.139622,0.281114,0.390924,0.202652,0.100253,inf,inf,inf,inf,1,1,1,1,2,0,2,1,3,1,1,1
97562068,15063323,34.0348592,108.7567287,-1.06571,-0.482784,-0.389904,-0.0255126,-0.157561,0.0,0.0256497,-0.0146467,0.0448618,0.0215623,-0.0907208,-0.42669,0.181226,-2.57986,2.83895,4.59739,0.0222886,0.0375331,426.732,0.153987,0.26998,0.38858,0.188194,0.0990025,inf,inf,inf,inf,1,1,1,1,2,0,2,1,3,1,1,1
97662148,15063323,34.0348592,108.7567287,-1.06178,-0.479983,-0.400047,-0.0255126,-0.157561,0.0,0.0181371,0.0219118,0.025834,-0.00715494,-0.0907208,-0.42669,0.181226,-1.60268,4.12159,3.70462,0.0161615,0.0375331,426.732,0.16413,0.281576,0.390151,0.196901,0.100183,inf,inf,inf,inf,1,1,1,1,2,0,2,1,3,1,1,1
97762228,15063323,34.0348592,108.7567287,-1.06069,-0.475575,-0.40684,-0.0255126,-0.157561,0.0,0.00117452,-0.0182687,0.0379,-0.000184054,-0.0907208,-0.42669,0.181226,-0.262232,-3.1063,2.076,0.0163028,0.0375331,426.732,0.170923,0.270436,0.38783,0.183336,0.0989363,inf,inf,inf,inf,1,1,1,1,2,0,2,1,3,1,1,1
97862308,15063323,34.0348592,108.7567287,-1.06173,-0.47365,-0.418974,-0.0255126,-0.157561,0.0,-0.0112409,-0.0253598,0.0236379,-0.0231714,-0.0907208,-0.42669,0.181226,0.274573,-2.15904,1.75184,0.016821,0.0375331,426.732,0.183057,0.281918,0.389395,0.191416,0.100116,inf,inf,inf,inf,1,1,1,1,2,0,2,1,3,1,1,1
97962391,15063323,34.0348592,108.7567287,-1.06181,-0.467733,-0.425509,-0.0255126,-0.157561,0.0,0.013369,0.000750399,0.0357585,-0.0135283,-0.0907208,-0.42669,0.181226,-0.551898,1.18268,5.70045,0.0166813,0.0375331,426.732,0.189593,0.270773,0.387088,0.178673,0.0988765,inf,inf,inf,inf,1,1,1,1,2,0,2,1,3,1,1,1
98062468,15063323,34.0348592,108.7567287,-1.05923,-0.459912,-0.43552,-0.0255126,-0.157561,0.0,0.0262457,-0.000676909,0.0175144,-0.0380066,-0.0907208,-0.42669,0.181226,-1.87294,1.42795,2.99266,0.0141035,0.0375331,426.732,0.199603,0.282126,0.388653,0.186214,0.100055,inf,inf,inf,inf,1,1,1,1,2,0,2,1,3,1,1,1
98162548,15063323,34.0348592,108.7567287,-1.05802,-0.455082,-0.446356,-0.0255126,-0.157561,0.0,0.0141845,-0.022455,0.0231493,-0.038636,-0.0907208,-0.42669,0.181226,0.519027,-2.65878,0.333736,0.0126613,0.0375331,426.732,0.210439,0.270903,0.386355,0.174085,0.0988008,inf,inf,inf,inf,1,1,1,1,2,0,2,1,3,1,1,1
98262630,15063323,34.0348592,108.7567287,-1.05952,-0.450877,-0.459781,-0.0255126,-0.157561,0.0,0.0104299,-0.018356,0.02612,-0.0434812,-0.0907208,-0.42669,0.181226,1.66061,-1.97928,-0.113746,0.00989622,0.0375331,426.732,0.223864,0.282096,0.390317,0.181153,0.100232,inf,inf,inf,inf,1,1,1,1,2,0,2,1,3,1,1,1
98362708,15063323,34.0348592,108.7567287,-1.0611,-0.44361,-0.46888,-0.0255126,-0.157561,0.0,-0.00161903,-0.00884307,-0.00111164,-0.0728489,-0.0907208,-0.42669,0.181226,1.67195,-2.58761,-9.82843,0.00755792,0.0375331,426.732,0.232963,0.270984,0.387998,0.169806,0.0989768,inf,inf,inf,inf,1,1,1,1,2,0,2,1,3,1,1,1
98462788,15063323,34.0348592,108.7567287,-1.06237,-0.43631,-0.482217,-0.0255126,-0.157561,0.0,0.0118248,-0.00677553,-0.0135886,-0.0917052,-0.0907208,-0.42669,0.181226,-0.0666662,2.21266,-7.41168,0.00578092,0.0375331,426.732,0.2463,0.282018,0.389577,0.176462,0.100159,inf,inf,inf,inf,1,1,1,1,2,0,2,1,3,1,1,1
98562868,15063323,34.0348592,108.7567287,-1.06071,-0.430011,-0.501714,-0.0255126,-0.157561,0.0,0.0149934,0.010329,0.0069514,-0.0826535,-0.0907208,-0.42669,0.181226,-1.72689,4.46421,-1.74614,0.0055933,0.0375331,426.732,0.265797,0.270985,0.387271,0.165818,0.0989049,inf,inf,inf,inf,1,1,1,1,2,0,2,1,3,1,1,1
98662948,15063323,34.0348592,108.7567287,-1.06033,-0.424473,-0.51601,-0.0255126,-0.157561,0.0,-0.00184797,-0.00281253,-0.00587249,-0.0993742,-0.0907208,-0.42669,0.181226,0.897898,-1.37629,-3.1081,0.00335444,0.0375331,426.732,0.280093,0.28186,0.388843,0.172122,0.100083,inf,inf,inf,inf,1,1,1,1,2,0,2,1,3,1,1,1
98763028,15063323,34.0348592,108.7567287,-1.061,-0.418736,-0.520595,-0.0255126,-0.157561,0.0,0.0154588,0.0201248,-0.00217651,-0.0899211,-0.0907208,-0.42669,0.181226,0.808812,3.16408,-3.37688,-0.00131626,0.0375331,426.732,0.284678,0.270913,0.38655,0.162112,0.098832,inf,inf,inf,inf,1,1,1,1,2,0,2,1,3,1,1,1
98863108,15063323,34.0348592,108.7567287,-1.06069,-0.413635,-0.522091,-0.0255126,-0.157561,0.0,0.0147058,0.0160916,0.0258438,-0.0539036,-0.0907208,-0.42669,0.181226,-0.435346,1.41971,6.35719,-0.00350738,0.0375331,426.732,0.286174,0.28163,0.388114,0.168102,0.100008,inf,inf,inf,inf,1,1,1,1,2,0,2,1,3,1,1,1
98963192,15063323,34.0348592,108.7567287,-1.05869,-0.409207,-0.522306,-0.0255126,-0.157561,0.0,0.0413137,-0.01331,0.0168664,-0.0553028,-0.0907208,-0.42669,0.181226,0.994583,-5.01861,-1.68982,-0.00276479,0.0375331,426.732,0.286389,0.270812,0.388207,0.158672,0.0990065,inf,inf,inf,inf,1,1,1,1,2,0,2,1,3,1,1,1
99063275,15063323,34.0348592,108.7567287,-1.05369,-0.40295,-0.531981,-0.0255126,-0.157561,0.0,0.078691,0.0345384,0.0193603,-0.055897,-0.0907208,-0.42669,0.181226,-0.483117,-0.573772,1.92052,-0.000331445,0.0375331,426.732,0.296064,0.281376,0.389801,0.1644,0.100191,inf,inf,inf,inf,1,1,1,1,2,0,2,1,3,1,1,1
99163349,15063323,34.0348592,108.7567287,-1.04803,-0.394918,-0.536206,-0.0255126,-0.157561,0.0,0.0791067,0.00974088,0.000904452,-0.0707436,-0.0907208,-0.42669,0.181226,1.69725,-4.08054,-4.07668,-0.00278776,0.0375331,426.732,0.300289,0.27053,0.387485,0.155359,0.0989251,inf,inf,inf,inf,1,1,1,1,2,0,2,1,3,1,1,1
99263429,15063323,34.0348592,108.7567287,-1.04308,-0.38672,-0.531847,-0.0255126,-0.157561,0.0,0.0738634,0.0286389,0.00389683,-0.0571516,-0.0907208,-0.42669,0.181226,1.2247,1.75178,0.328202,-0.0101506,0.0375331,426.732,0.29593,0.280928,0.389071,0.160853,0.100107,inf,inf,inf,inf,1,1,1,1,2,0,2,1,3,1,1,1
99363509,15063323,34.0348592,108.7567287,-1.03705,-0.377302,-0.525104,-0.0255126,-0.157561,0.0,0.064772,0.0377958,0.00951614,-0.0400174,-0.0907208,-0.42669,0.181226,-1.0885,-1.37298,2.02558,-0.01528,0.0375331,426.732,0.289187,0.270473,0.386786,0.152564,0.0988687,inf,inf,inf,inf,1,1,1,1,2,0,2,1,3,1,1,1
99463589,15063323,34.0348592,108.7567287,-1.03072,-0.36934,-0.523772,-0.0255126,-0.157561,0.0,0.0783765,0.0239538,0.0240565,-0.0203661,-0.0907208,-0.42669,0.181226,0.785341,0.915825,-1.73472,-0.0157278,0.0375331,426.732,0.287855,0.280743,0.388365,0.157858,0.100048,inf,inf,inf,inf,1,1,1,1,2,0,2,1,3,1,1,1
99563669,15063323,34.0348592,108.7567287,-1.02538,-0.36228,-0.523292,-0.0255126,-0.157561,0.0,0.0452766,0.0130974,0.0212112,-0.0202433,-0.0907208,-0.42669,0.181226,-2.14908,-1.19889,0.465835,-0.0139119,0.0375331,426.732,0.287375,0.270381,0.388455,0.149972,0.0990569,inf,inf,inf,inf,1,1,1,1,2,0,2,1,3,1,1,1
99663749,15063323,34.0348592,108.7567287,-1.0234,-0.35646,-0.521168,-0.0255126,-0.157561,0.0,0.0121007,0.0182857,0.00738877,-0.029241,-0.0907208,-0.42669,0.181226,-1.74552,2.68606,-0.519698,-0.0105141,0.0375331,426.732,0.285251,0.280525,0.390023,0.155098,0.100235,inf,inf,inf,inf,1,1,1,1,2,0,2,1,3,1,1,1
99763829,15063323,34.0348592,108.7567287,-1.02362,-0.348637,-0.51709,-0.0255126,-0.157561,0.0,0.0266489,0.012879,0.0355717,0.00486137,-0.0907208,-0.42669,0.181226,1.21559,-4.48759,2.06849,-0.00621342,0.0375331,426.732,0.281173,0.27022,0.387692,0.14757,0.0989851,inf,inf,inf,inf,1,1,1,1,2,0,2,1,3,1,1,1
99863916,15063323,34.0348592,108.7567287,-1.0218,-0.342385,-0.516932,-0.0255126,-0.157561,0.0,0.0499248,-0.00521648,0.0132602,-0.0166915,-0.0907208,-0.42669,0.181226,2.37582,-2.95888,-5.70413,-0.00276314,0.0375331,426.732,0.281015,0.280239,0.389253,0.152548,0.100162,inf,inf,inf,inf,1,1,1,1,2,0,2,1,3,1,1,1
99963989,15063323,34.0348592,108.7567287,-1.02164,-0.334236,-0.519511,-0.0255126,-0.157561,0.0,0.0247758,0.0141321,0.0112192,-0.0193491,-0.0907208,-0.42669,0.181226,1.47132,-2.95233,1.97971,-0.000816808,0.0375331,426.732,0.283594,0.270037,0.386929,0.145368,0.0989094,inf,inf,inf,inf,1,1,1,1,2,0,2,1,3,1,1,0
100064069,15063323,34.0348592,108.7567287,-1.02249,-0.326467,-0.5156,-0.0255126,-0.157561,0.0,0.0130752,0.0336254,0.00149079,-0.0227915,-0.0907208,-0.42669,0.181226,0.049366,4.02968,-1.35924,-0.00360294,0.0375331,426.732,0.279683,0.279935,0.390906,0.150232,0.100341,inf,inf,inf,inf,1,1,1,1,2,0,2,1,3,1,1,0
100164150,15063323,34.0348592,108.7567287,-1.02159,-0.31898,-0.514342,-0.0255126,-0.157561,0.0,0.0251318,0.0265068,0.0188881,-0.002672,-0.0907208,-0.42669,0.181226,-0.0794248,-1.63704,4.76072,-0.0080453,0.0375331,426.732,0.278426,0.269691,0.388555,0.143267,0.0990741,inf,inf,inf,inf,1,1,1,1,2,0,2,1,3,1,1,0
100264229,15063323,34.0348592,108.7567287,-1.01985,-0.311461,-0.518181,-0.0255126,-0.157561,0.0,0.0377899,0.0451685,0.0155786,-0.00911484,-0.0907208,-0.42669,0.181226,-0.199211,0.360974,0.326845,-0.0137586,0.0375331,426.732,0.282265,0.279461,0.390138,0.148018,0.100253,inf,inf,inf,inf,1,1,1,1,2,0,2,1,3,1,1,0
100364310,15063323,34.0348592,108.7567287,-1.01855,-0.302037,-0.520523,-0.0255126,-0.157561,0.0,0.0366012,0.0362048,0.00383312,-0.0205584,-0.0907208,-0.42669,0.181226,1.20228,-2.02367,2.27799,-0.0157029,0.0375331,426.732,0.284606,0.269204,0.387797,0.141232,0.0989781,inf,inf,inf,inf,1,1,1,1,2,0,2,1,3,1,1,0
100464391,15063323,34.0348592,108.7567287,-1.01838,-0.292983,-0.522643,-0.0255126,-0.157561,0.0,0.0434973,0.0793464,0.0236249,-0.00136405,-0.0907208,-0.42669,0.181226,-1.05055,4.88359,6.29261,-0.0181585,0.0375331,426.732,0.286726,0.27884,0.389371,0.145906,0.100153,inf,inf,inf,inf,1,1,1,1,2,0,2,1,3,1,1,0
100564473,15063323,34.0348592,108.7567287,-1.01789,-0.281181,-0.53125,-0.0255126,-0.157561,0.0,0.0375226,0.0554366,-0.00376883,-0.0360162,-0.0907208,-0.42669,0.181226,0.858965,-0.723749,-1.85081,-0.0234901,0.0375331,426.732,0.295333,0.268801,0.387051,0.139521,0.0988952,inf,inf,inf,inf,1,1,1,1,2,0,2,1,3,1,1,0
100664550,15063323,34.0348592,108.7567287,-1.01774,-0.271615,-0.542737,-0.0255126,-0.157561,0.0,0.0404758,0.0459489,0.0139397,-0.0266281,-0.0907208,-0.42669,0.181226,-0.542517,2.10089,-1.70724,-0.0319528,0.0375331,426.732,0.30682,0.278323,0.388608,0.144116,0.100068,inf,inf,inf,inf,1,1,1,1,2,0,2,1,3,1,1,0
100764630,15063323,34.0348592,108.7567287,-1.01652,-0.264446,-0.548876,-0.0255126,-0.157561,0.0,0.0560429,0.0271085,0.0207404,-0.0221671,-0.0907208,-0.42669,0.181226,0.327177,-0.178073,3.34602,-0.0349523,0.0375331,426.732,0.312959,0.268336,0.388685,0.137987,0.0990635,inf,inf,inf,inf,1,1,1,1,2,0,2,1,3,1,1,0
100864710,15063323,34.0348592,108.7567287,-1.0116,-0.259171,-0.546284,-0.0255126,-0.157561,0.0,0.0887834,0.03363,-0.00633546,-0.0441376,-0.0907208,-0.42669,0.181226,-1.27468,4.24305,-1.5464,-0.0388021,0.0375331,426.732,0.310367,0.27775,0.390272,0.142491,0.100244,inf,inf,inf,inf,1,1,1,1,2,0,2,1,3,1,1,0
100954786,15063323,34.0348592,108.7567287,-1.00604,-0.252097,-0.54206,-0.0255126,-0.157561,0.0,0.103151,0.0542036,-0.00700817,-0.0361377,-0.0907208,-0.42669,0.181226,-0.258125,2.13661,0.514383,-0.0416548,0.0375331,426.732,0.306143,0.266916,0.387315,0.136124,0.0988165,inf,inf,inf,inf,1,1,1,1,2,0,2,1,3,1,1,0
101064870,15063323,34.0348592,108.7567287,-0.995849,-0.241089,-0.547856,-0.0255126,-0.157561,0.0,0.15475,0.0489243,-0.00817458,-0.0389372,-0.0907208,-0.42669,0.181226,1.41718,-4.26965,0.363653,-0.0434053,0.0375331,426.732,0.31194,0.277129,0.389532,0.141112,0.100165,inf,inf,inf,inf,1,1,1,1,2,0,2,1,3,1,1,0
101164954,15063323,34.0348592,108.7567287,-0.980968,-0.22988,-0.554292,-0.0255126,-0.157561,0.0,0.192145,0.0789896,0.000823523,-0.0323515,-0.0907208,-0.42669,0.181226,0.174009,-1.52909,2.44315,-0.0462572,0.0375331,426.732,0.318375,0.267289,0.387219,0.135383,0.0989091,inf,inf,inf,inf,1,1,1,1,2,0,2,1,3,1,1,0
101265031,15063323,34.0348592,108.7567287,-0.962643,-0.218065,-0.557845,-0.0255126,-0.157561,0.0,0.201716,0.0972435,0.0343562,-6.58758e-05,-0.0907208,-0.42669,0.181226,-0.764208,3.59566,6.01856,-0.0486674,0.0375331,426.732,0.321928,0.276507,0.388782,0.139864,0.100083,inf,inf,inf,inf,1,1,1,1,2,0,2,1,3,1,1,0
101365111,15063323,34.0348592,108.7567287,-0.948395,-0.207288,-0.565315,-0.0255126,-0.157561,0.0,0.187842,0.087823,-0.0363234,-0.0733311,-0.0907208,-0.42669,0.181226,0.0669574,3.17419,-0.542942,-0.0468832,0.0375331,426.732,0.329398,0.266757,0.388846,0.134329,0.0990741,inf,inf,inf,inf,1,1,1,1,2,0,2,1,3,1,1,0
101455186,15063323,34.0348592,108.7567287,-0.93661,-0.19859,-0.562221,-0.0255126,-0.157561,0.0,0.187393,0.0931065,0.0076338,-0.0210006,-0.0907208,-0.42669,0.181226,-0.100123,1.77028,4.83356,-0.043012,0.0375331,426.732,0.326304,0.274951,0.389769,0.138323,0.100084,inf,inf,inf,inf,1,1,1,1,2,0,2,1,3,1,1,0
101565277,15063323,34.0348592,108.7567287,-0.924055,-0.184519,-0.552746,-0.0255126,-0.157561,0.0,0.187862,0.0864292,0.033982,0.016321,-0.0907208,-0.42669,0.181226,-0.115037,0.784135,-1.63588,-0.0347217,0.0375331,426.732,0.31683,0.266221,0.388057,0.133453,0.0989866,inf,inf,inf,inf,1,1,1,1,2,0,2,1,3,1,1,0
101655346,15063323,34.0348592,108.7567287,-0.914796,-0.17177,-0.543392,-0.0255126,-0.157561,0.0,0.157062,0.0809967,-0.0198899,-0.0279059,-0.0907208,-0.42669,0.181226,-0.519339,-0.935593,2.00533,-0.0268525,0.0375331,426.732,0.307475,0.274345,0.388966,0.137427,0.0999899,inf,inf,inf,inf,1,1,1,1,2,0,2,1,3,1,1,0
101765431,15063323,34.0348592,108.7567287,-0.905539,-0.156753,-0.542804,-0.0255126,-0.157561,0.0,0.143318,0.0873526,-0.0540677,-0.0563655,-0.0907208,-0.42669,0.181226,0.073803,0.939828,-0.552236,-0.0172065,0.0375331,426.732,0.306887,0.265725,0.387269,0.132541,0.0988956,inf,inf,inf,inf,1,1,1,1,2,0,2,1,3,1,1,0
101865511,15063323,34.0348592,108.7567287,-0.895603,-0.142554,-0.553574,-0.0255126,-0.157561,0.0,0.159752,0.114112,-0.0747182,-0.0818857,-0.0907208,-0.42669,0.181226,-0.506995,3.75445,-1.22391,-0.0115879,0.0375331,426.732,0.317657,0.274709,0.391242,0.13718,0.100327,inf,inf,inf,inf,1,1,1,1,2,0,2,1,3,1,1,0
101955586,15063323,34.0348592,108.7567287,-0.883307,-0.127695,-0.561108,-0.0255126,-0.157561,0.0,0.169225,0.108137,-0.0546054,-0.0635367,-0.0907208,-0.42669,0.181226,-0.514601,4.99337,-0.782974,-0.00805995,0.0375331,426.732,0.325191,0.264455,0.38825,0.13175,0.0989031,inf,inf,inf,inf,1,1,1,1,2,0,2,1,3,1,1,0
102065684,15063323,34.0348592,108.7567287,-0.866243,-0.110197,-0.56718,-0.0255126,-0.157561,0.0,0.171617,0.104705,-0.0702699,-0.0775016,-0.0907208,-0.42669,0.181226,-0.519638,-2.31626,-2.83254,-0.00444068,0.0375331,426.732,0.331263,0.274253,0.390454,0.136617,0.100248,inf,inf,inf,inf,1,1,1,1,2,0,2,1,3,1,1,0
102155743,15063323,34.0348592,108.7567287,-0.852929,-0.0957039,-0.568686,-0.0255126,-0.157561,0.0,0.173623,0.132839,-0.0396959,-0.0432872,-0.0907208,-0.42669,0.181226,-0.0719636,-2.63361,-1.4673,-0.0028789,0.0375331,426.732,0.332769,0.264032,0.387481,0.131225,0.0988178,inf,inf,inf,inf,1,1,1,1,2,0,2,1,3,1,1,0
102265831,15063323,34.0348592,108.7567287,-0.836576,-0.0772494,-0.562066,-0.0255126,-0.157561,0.0,0.167248,0.150433,-0.00943726,-0.00375542,-0.0907208,-0.42669,0.181226,-0.179558,-0.912824,2.54636,-0.00180226,0.0375331,426.732,0.32615,0.273771,0.389677,0.13613,0.100162,inf,inf,inf,inf,1,1,1,1,2,0,2,1,3,1,1,0
102355904,15063323,34.0348592,108.7567287,-0.825055,-0.0615452,-0.554796,-0.0255126,-0.157561,0.0,0.158669,0.161265,-0.010932,0.0022711,-0.0907208,-0.42669,0.181226,0.107657,-0.97563,3.38448,-0.00295634,0.0375331,426.732,0.318879,0.26364,0.386713,0.130727,0.0987343,inf,inf,inf,inf,1,1,1,1,2,0,2,1,3,1,1,0
102456000,15063323,34.0348592,108.7567287,-0.81348,-0.043955,-0.55114,-0.0255126,-0.157561,0.0,0.146539,0.167256,-0.0431074,-0.0259892,-0.0907208,-0.42669,0.181226,0.295655,-1.03799,-6.93088,-0.00644938,0.0375331,426.732,0.315223,0.272418,0.390677,0.13509,0.100167,inf,inf,inf,inf,1,1,1,1,2,0,2,1,3,1,1,0
102556066,15063323,34.0348592,108.7567287,-0.802852,-0.0259428,-0.555226,-0.0255126,-0.157561,0.0,0.130063,0.175454,-0.0302186,-0.0167296,-0.0907208,-0.42669,0.181226,-0.526223,1.47624,-0.153795,-0.00543145,0.0375331,426.732,0.319309,0.263332,0.388341,0.130494,0.0989143,inf,inf,inf,inf,1,1,1,1,2,0,2,1,3,1,1,0
102656144,15063323,34.0348592,108.7567287,-0.793837,-0.00828672,-0.56075,-0.0255126,-0.157561,0.0,0.103253,0.16675,-0.0498304,-0.0397453,-0.0907208,-0.42669,0.181226,-0.608149,2.44878,1.28214,-0.00359974,0.0375331,426.732,0.324833,0.272079,0.389916,0.134901,0.100095,inf,inf,inf,inf,1,1,1,1,2,0,2,1,3,1,1,0
102766234,15063323,34.0348592,108.7567287,-0.786029,0.0106388,-0.571199,-0.0255126,-0.157561,0.0,0.0938969,0.166773,-0.0481938,-0.0441221,-0.0907208,-0.42669,0.181226,0.322325,2.90187,-1.05441,-0.00413137,0.0375331,426.732,0.335282,0.263807,0.38822,0.130651,0.0990029,inf,inf,inf,inf,1,1,1,1,2,0,2,1,3,1,1,0
102856304,15063323,34.0348592,108.7567287,-0.779122,0.0258106,-0.575348,-0.0255126,-0.157561,0.0,0.105092,0.156978,-0.0229261,-0.021117,-0.0907208,-0.42669,0.181226,-0.487122,-2.10656,-2.87112,-0.0065918,0.0375331,426.732,0.339431,0.271672,0.38914,0.134753,0.10001,inf,inf,inf,inf,1,1,1,1,2,0,2,1,3,1,1,0
102966392,15063323,34.0348592,108.7567287,-0.770023,0.0442324,-0.583137,-0.0255126,-0.157561,0.0,0.137597,0.174412,0.0221379,0.0170887,-0.0907208,-0.42669,0.181226,-0.0114152,2.45317,8.43723,-0.0104606,0.0375331,426.732,0.34722,0.263555,0.387448,0.130557,0.0989266,inf,inf,inf,inf,1,1,1,1,2,0,2,1,3,1,1,0
103056465,15063323,34.0348592,108.7567287,-0.757647,0.0591342,-0.59508,-0.0255126,-0.157561,0.0,0.206222,0.174738,0.0544674,0.0369607,-0.0907208,-0.42669,0.181226,-0.0440222,0.389925,8.06551,-0.0125261,0.0375331,426.732,0.359164,0.271401,0.390784,0.134521,0.100189,inf,inf,inf,inf,1,1,1,1,2,0,2,1,3,1,1,0
103156545,15063323,34.0348592,108.7567287,-0.737657,0.0761198,-0.609889,-0.0255126,-0.157561,0.0,0.279142,0.17256,0.0531285,0.0197004,-0.0907208,-0.42669,0.181226,0.0216998,1.43151,8.04105,-0.0160145,0.0375331,426.732,0.373972,0.26243,0.388437,0.129886,0.0989228,inf,inf,inf,inf,1,1,1,1,2,0,2,1,3,1,1,0
103266633,15063323,34.0348592,108.7567287,-0.705265,0.0957176,-0.615155,-0.0255126,-0.157561,0.0,0.394399,0.181569,0.0155414,-0.0226205,-0.0907208,-0.42669,0.181226,0.378648,2.54299,1.07785,-0.0171493,0.0375331,426.732,0.379238,0.27199,0.390645,0.134718,0.100267,inf,inf,inf,inf,1,1,1,1,2,0,2,1,3,1,1,0
103356705,15063323,34.0348592,108.7567287,-0.672163,0.112101,-0.611221,-0.0255126,-0.157561,0.0,0.447136,0.186312,0.0119577,-0.0200241,-0.0907208,-0.42669,0.181226,0.532674,1.86456,2.34863,-0.0164933,0.0375331,426.732,0.375304,0.262297,0.387676,0.12986,0.098844,inf,inf,inf,inf,1,1,1,1,2,0,2,1,3,1,1,0
103466793,15063323,34.0348592,108.7567287,-0.62564,0.132417,-0.604232,-0.0255126,-0.157561,0.0,0.495785,0.1909,-0.00660912,-0.0280984,-0.0907208,-0.42669,0.181226,0.270198,2.22932,-1.6388,-0.01358,0.0375331,426.732,0.368315,0.271848,0.389875,0.134868,0.100187,inf,inf,inf,inf,1,1,1,1,2,0,2,1,3,1,1,0
103556865,15063323,34.0348592,108.7567287,-0.587142,0.150718,-0.59966,-0.0255126,-0.157561,0.0,0.512897,0.211653,-0.0274789,-0.0419049,-0.0907208,-0.42669,0.181226,-0.531498,1.76662,-4.4517,-0.00963166,0.0375331,426.732,0.363743,0.262124,0.386917,0.129959,0.0987605,inf,inf,inf,inf,1,1,1,1,2,0,2,1,3,1,1,0
103656945,15063323,34.0348592,108.7567287,-0.544867,0.171992,-0.601326,-0.0255126,-0.157561,0.0,0.519647,0.210305,-0.0390636,-0.0514008,-0.0907208,-0.42669,0.181226,1.23356,-0.327731,-3.15015,-0.00604159,0.0375331,426.732,0.365409,0.270771,0.388466,0.134556,0.0999351,inf,inf,inf,inf,1,1,1,1,2,0,2,1,3,1,1,0
103757026,15063323,34.0348592,108.7567287,-0.501842,0.19466,-0.608118,-0.0255126,-0.157561,0.0,0.515385,0.217345,-0.0306942,-0.0451039,-0.0907208,-0.42669,0.181226,0.528938,-4.37256,1.40167,-0.005905,0.0375331,426.732,0.372201,0.261969,0.388544,0.130051,0.0989287,inf,inf,inf,inf,1,1,1,1,2,0,2,1,3,1,1,0
103857107,15063323,34.0348592,108.7567287,-0.458437,0.218199,-0.618004,-0.0255126,-0.157561,0.0,0.510577,0.220141,-0.0328206,-0.0519441,-0.0907208,-0.42669,0.181226,-0.0322617,-1.14729,1.40567,-0.00738952,0.0375331,426.732,0.382087,0.270609,0.390122,0.134636,0.100112,inf,inf,inf,inf,1,1,1,1,2,0,2,1,3,1,1,0
103957193,15063323,34.0348592,108.7567287,-0.412795,0.238893,-0.617718,-0.0255126,-0.157561,0.0,0.494168,0.205024,-0.0327218,-0.0455464,-0.0907208,-0.42669,0.181226,-0.207251,1.60327,2.95187,-0.00566975,0.0375331,426.732,0.381801,0.261884,0.387798,0.130282,0.0988615,inf,inf,inf,inf,1,1,1,1,2,0,2,1,3,1,1,0
104057272,15063323,34.0348592,108.7567287,-0.366904,0.255213,-0.614442,-0.0255126,-0.157561,0.0,0.469579,0.160979,-0.0474899,-0.0527208,-0.0907208,-0.42669,0.181226,-0.40277,-2.14416,-5.3065,-0.00639444,0.0375331,426.732,0.378525,0.270528,0.389369,0.134934,0.10004,inf,inf,inf,inf,1,1,1,1,2,0,2,1,3,1,1,0
104157347,15063323,34.0348592,108.7567287,-0.323902,0.270204,-0.610231,-0.0255126,-0.157561,0.0,0.428325,0.131548,0.0040503,0.00497187,-0.0907208,-0.42669,0.181226,0.206555,-1.21852,0.400208,-0.00829219,0.0375331,426.732,0.374314,0.26185,0.387067,0.130443,0.0987917,inf,inf,inf,inf,1,1,1,1,2,0,2,1,3,1,1,0
104257426,15063323,34.0348592,108.7567287,-0.282207,0.281873,-0.603764,-0.0255126,-0.157561,0.0,0.421619,0.0795153,0.0291981,0.0334622,-0.0907208,-0.42669,0.181226,0.704479,-1.95127,-4.24153,-0.0129926,0.0375331,426.732,0.367847,0.270501,0.38863,0.134939,0.099968,inf,inf,inf,inf,1,1,1,1,2,0,2,1,3,1,1,0
104357507,15063323,34.0348592,108.7567287,-0.244316,0.289814,-0.592709,-0.0255126,-0.157561,0.0,0.390296,0.0585017,0.0549737,0.0647011,-0.0907208,-0.42669,0.181226,0.352071,-1.59562,0.157269,-0.0203218,0.0375331,426.732,0.356792,0.261825,0.386341,0.130374,0.0987217,inf,inf,inf,inf,1,1,1,1,2,0,2,1,3,1,1,0
104457588,15063323,34.0348592,108.7567287,-0.208292,0.296569,-0.577078,-0.0255126,-0.157561,0.0,0.383357,0.0766359,0.0601212,0.0792693,-0.0907208,-0.42669,0.181226,-0.126113,1.99257,8.75782,-0.0284636,0.0375331,426.732,0.341161,0.270476,0.387904,0.13481,0.099897,inf,inf,inf,inf,1,1,1,1,2,0,2,1,3,1,1,0
104557667,15063323,34.0348592,108.7567287,-0.170659,0.304812,-0.565141,-0.0255126,-0.157561,0.0,0.370801,0.0521502,0.0479939,0.0728932,-0.0907208,-0.42669,0.181226,0.274556,-0.674918,3.00628,-0.0344203,0.0375331,426.732,0.329225,0.261835,0.387998,0.130403,0.0989038,inf,inf,inf,inf,1,1,1,1,2,0,2,1,3,1,1,0
104657751,15063323,34.0348592,108.7567287,-0.133165,0.313325,-0.547282,-0.0255126,-0.157561,0.0,0.348547,0.0674456,0.0343288,0.0706248,-0.0907208,-0.42669,0.181226,-0.277538,0.606845,2.06398,-0.0348085,0.0375331,426.732,0.311365,0.270495,0.389591,0.135171,0.100089,inf,inf,inf,inf,1,1,1,1,2,0,2,1,3,1,1,0
104757827,15063323,34.0348592,108.7567287,-0.0988911,0.324134,-0.539451,-0.0255126,-0.157561,0.0,0.320909,0.0692372,0.03089,0.0683744,-0.0907208,-0.42669,0.181226,-0.160417,1.51811,3.15734,-0.0337369,0.0375331,426.732,0.303535,0.261797,0.387287,0.130689,0.098831,inf,inf,inf,inf,1,1,1,1,2,0,2,1,3,1,1,0
104857908,15063323,34.0348592,108.7567287,-0.0676966,0.337063,-0.536945,-0.0255126,-0.157561,0.0,0.30174,0.0788703,0.014181,0.0490034,-0.0907208,-0.42669,0.181226,0.780581,-1.17634,1.97715,-0.0324767,0.0375331,426.732,0.301028,0.270462,0.388864,0.135346,0.100013,inf,inf,inf,inf,1,1,1,1,2,0,2,1,3,1,1,0
104957988,15063323,34.0348592,108.7567287,-0.0385328,0.349183,-0.533647,-0.0255126,-0.157561,0.0,0.280211,0.0908643,0.00162675,0.0355799,-0.0907208,-0.42669,0.181226,-0.294921,0.123968,0.75542,-0.0326971,0.0375331,426.732,0.29773,0.261854,0.386578,0.131034,0.0987695,inf,inf,inf,inf,1,1,1,1,2,0,2,1,3,1,1,0
105058068,15063323,34.0348592,108.7567287,-0.0110615,0.362301,-0.532387,-0.0255126,-0.157561,0.0,0.263935,0.127704,0.00710954,0.0392626,-0.0907208,-0.42669,0.181226,-0.284182,2.93852,5.94235,-0.0315086,0.0375331,426.732,0.29647,0.270536,0.388155,0.135662,0.0999507,inf,inf,inf,inf,1,1,1,1,2,0,2,1,3,1,1,0
105158154,15063323,34.0348592,108.7567287,0.0156127,0.37628,-0.535636,-0.0255126,-0.157561,0.0,0.252692,0.118109,-0.00509301,0.02132,-0.0907208,-0.42669,0.181226,0.174166,-2.16589,0.989198,-0.0298149,0.0375331,426.732,0.299719,0.261738,0.38587,0.131105,0.0986884,inf,inf,inf,inf,1,1,1,1,2,0,2,1,3,1,1,0
105258237,15063323,34.0348592,108.7567287,0.0422618,0.389963,-0.535984,-0.0255126,-0.157561,0.0,0.240885,0.133625,-0.0344596,-0.00930207,-0.0907208,-0.42669,0.181226,0.120466,0.951892,-0.852662,-0.0272542,0.0375331,426.732,0.300067,0.270417,0.389835,0.135841,0.100121,inf,inf,inf,inf,1,1,1,1,2,0,2,1,3,1,1,0
105358311,15063323,34.0348592,108.7567287,0.0679002,0.405094,-0.539307,-0.0255126,-0.157561,0.0,0.235825,0.164523,-0.0302602,-0.00748021,-0.0907208,-0.42669,0.181226,-0.717111,4.5688,1.79679,-0.0238889,0.0375331,426.732,0.30339,0.261758,0.387533,0.131297,0.0988641,inf,inf,inf,inf,1,1,1,1,2,0,2,1,3,1,1,0
105458389,15063323,34.0348592,108.7567287,0.0938621,0.420675,-0.558255,-0.0255126,-0.157561,0.0,0.237677,0.14686,-0.0339574,-0.0294721,-0.0907208,-0.42669,0.181226,-0.996951,2.90681,1.72585,-0.0191362,0.0375331,426.732,0.322339,0.270448,0.389122,0.135993,0.100049,inf,inf,inf,inf,1,1,1,1,2,0,2,1,3,1,1,0
105558469,15063323,34.0348592,108.7567287,0.11725,0.434229,-0.587478,-0.0255126,-0.157561,0.0,0.226993,0.156558,-0.040756,-0.061813,-0.0907208,-0.42669,0.181226,0.178258,0.695246,-2.7549,-0.0154537,0.0375331,426.732,0.351561,0.26185,0.386833,0.13145,0.0987934,inf,inf,inf,inf,1,1,1,1,2,0,2,1,3,1,1,0
105658551,15063323,34.0348592,108.7567287,0.139282,0.44726,-0.604901,-0.0255126,-0.157561,0.0,0.229424,0.143672,-0.0402706,-0.0733412,-0.0907208,-0.42669,0.181226,-0.0490288,-3.81672,-5.29366,-0.0122369,0.0375331,426.732,0.368984,0.270551,0.388414,0.136192,0.0999726,inf,inf,inf,inf,1,1,1,1,2,0,2,1,3,1,1,0
105758629,15063323,34.0348592,108.7567287,0.160689,0.46079,-0.610753,-0.0255126,-0.157561,0.0,0.216331,0.154725,-0.0167905,-0.0501869,-0.0907208,-0.42669,0.181226,-0.444494,-2.65778,-4.48753,-0.00872426,0.0375331,426.732,0.374836,0.262056,0.386142,0.131571,0.0987339,inf,inf,inf,inf,1,1,1,1,2,0,2,1,3,1,1,0
105858710,15063323,34.0348592,108.7567287,0.181428,0.475441,-0.61588,-0.0255126,-0.157561,0.0,0.202085,0.175941,0.00135191,-0.0330153,-0.0907208,-0.42669,0.181226,-0.450099,0.795683,3.48646,-0.00565225,0.0375331,426.732,0.379963,0.270776,0.387715,0.136172,0.0999115,inf,inf,inf,inf,1,1,1,1,2,0,2,1,3,1,1,0
105958790,15063323,34.0348592,108.7567287,0.200681,0.491123,-0.625982,-0.0255126,-0.157561,0.0,0.205403,0.191306,0.0142937,-0.0260015,-0.0907208,-0.42669,0.181226,-0.34202,2.93811,2.84429,-0.00494758,0.0375331,426.732,0.390065,0.262156,0.387816,0.131466,0.0989079,inf,inf,inf,inf,1,1,1,1,2,0,2,1,3,1,1,0
106058870,15063323,34.0348592,108.7567287,0.221581,0.50795,-0.62874,-0.0255126,-0.157561,0.0,0.240634,0.200048,0.0162368,-0.0237774,-0.0907208,-0.42669,0.181226,0.200419,0.764713,-0.393122,-0.00497353,0.0375331,426.732,0.392823,0.270882,0.389417,0.136247,0.100094,inf,inf,inf,inf,1,1,1,1,2,0,2,1,3,1,1,0
106158950,15063323,34.0348592,108.7567287,0.245139,0.526872,-0.623226,-0.0255126,-0.157561,0.0,0.301865,0.192594,0.0218784,-0.0110899,-0.0907208,-0.42669,0.181226,0.957963,-3.25194,-3.25455,-0.00450932,0.0375331,426.732,0.387309,0.262368,0.387134,0.131687,0.0988475,inf,inf,inf,inf,1,1,1,1,2,0,2,1,3,1,1,0
106259048,15063323,34.0348592,108.7567287,0.276171,0.547632,-0.625029,-0.0255126,-0.157561,0.0,0.399127,0.209796,0.0281664,-0.00538155,-0.0907208,-0.42669,0.181226,2.12968,-3.44781,0.143989,-0.0030972,0.0375331,426.732,0.389112,0.271109,0.388712,0.136268,0.100025,inf,inf,inf,inf,1,1,1,1,2,0,2,1,3,1,1,0
106359111,15063323,34.0348592,108.7567287,0.318364,0.567765,-0.632575,-0.0255126,-0.157561,0.0,0.498893,0.198427,0.0360335,-0.00348521,-0.0907208,-0.42669,0.181226,1.33359,-3.38164,0.453293,-0.00220651,0.0375331,426.732,0.396658,0.262658,0.386417,0.131725,0.0987752,inf,inf,inf,inf,1,1,1,1,2,0,2,1,3,1,1,0
106459191,15063323,34.0348592,108.7567287,0.371359,0.587496,-0.634116,-0.0255126,-0.157561,0.0,0.597499,0.207466,0.037842,-0.00119032,-0.0907208,-0.42669,0.181226,0.694813,-2.69401,4.30201,-0.000911526,0.0375331,426.732,0.398199,0.271418,0.387986,0.136459,0.0999464,inf,inf,inf,inf,1,1,1,1,2,0,2,1,3,1,1,0
106559278,15063323,34.0348592,108.7567287,0.429448,0.609304,-0.636211,-0.0255126,-0.157561,0.0,0.682742,0.208549,0.019685,-0.0199832,-0.0907208,-0.42669,0.181226,1.28526,-1.74084,-1.42486,-0.00151196,0.0375331,426.732,0.400294,0.263016,0.388076,0.13196,0.0989419,inf,inf,inf,inf,1,1,1,1,2,0,2,1,3,1,1,0
106659352,15063323,34.0348592,108.7567287,0.494669,0.631303,-0.632225,-0.0255126,-0.157561,0.0,0.768059,0.205803,-0.00603683,-0.0395073,-0.0907208,-0.42669,0.181226,1.54488,-1.58535,-6.26127,-0.00307,0.0375331,426.732,0.396308,0.271796,0.389674,0.136728,0.100123,inf,inf,inf,inf,1,1,1,1,2,0,2,1,3,1,1,0
106759432,15063323,34.0348592,108.7567287,0.564592,0.652985,-0.63136,-0.0255126,-0.157561,0.0,0.818589,0.194026,-0.0113245,-0.0406244,-0.0907208,-0.42669,0.181226,0.284564,-3.66106,-5.56689,-0.00604817,0.0375331,426.732,0.395443,0.263439,0.387369,0.132224,0.0988711,inf,inf,inf,inf,1,1,1,1,2,0,2,1,3,1,1,0
106859512,15063323,34.0348592,108.7567287,0.637931,0.672244,-0.632361,-0.0255126,-0.157561,0.0,0.841129,0.151353,-0.017658,-0.0442468,-0.0907208,-0.42669,0.181226,0.100554,-3.08976,-5.1265,-0.00973984,0.0375331,426.732,0.396444,0.272242,0.388951,0.136951,0.100051,inf,inf,inf,inf,1,1,1,1,2,0,2,1,3,1,1,0
106959600,15063323,34.0348592,108.7567287,0.715142,0.687556,-0.62861,-0.0255126,-0.157561,0.0,0.8516,0.0885758,-0.00560013,-0.0246156,-0.0907208,-0.42669,0.181226,0.421078,-4.27366,1.19826,-0.0142576,0.0375331,426.732,0.392693,0.263939,0.386659,0.132498,0.0988039,inf,inf,inf,inf,1,1,1,1,2,0,2,1,3,1,1,0
107059673,15063323,34.0348592,108.7567287,0.79345,0.696139,-0.618209,-0.0255126,-0.157561,0.0,0.840137,0.0363916,0.014181,0.00755512,-0.0907208,-0.42669,0.181226,0.0728173,2.95044,4.71405,-0.0182385,0.0375331,426.732,0.382292,0.272766,0.38824,0.137195,0.0999809,inf,inf,inf,inf,1,1,1,1,2,0,2,1,3,1,1,0
107159753,15063323,34.0348592,108.7567287,0.868959,0.697295,-0.623807,-0.0255126,-0.157561,0.0,0.810455,-0.0661725,0.0285214,0.0145756,-0.0907208,-0.42669,0.181226,-0.496395,-1.37362,-2.87189,-0.020221,0.0375331,426.732,0.38789,0.264429,0.385955,0.132566,0.0987212,inf,inf,inf,inf,1,1,1,1,2,0,2,1,3,1,1,0
107259833,15063323,34.0348592,108.7567287,0.941108,0.690176,-0.639449,-0.0255126,-0.157561,0.0,0.783141,-0.15995,0.0586918,0.0255767,-0.0907208,-0.42669,0.181226,-0.762171,-3.10807,-4.3225,-0.022155,0.0375331,426.732,0.403532,0.273266,0.389925,0.137214,0.100144,inf,inf,inf,inf,1,1,1,1,2,0,2,1,3,1,1,0
107359914,15063323,34.0348592,108.7567287,1.01172,0.676582,-0.645378,-0.0255126,-0.157561,0.0,0.739213,-0.188606,0.103225,0.0597112,-0.0907208,-0.42669,0.181226,-0.0823938,2.35983,5.76225,-0.0236111,0.0375331,426.732,0.409461,0.265043,0.387623,0.13247,0.0988886,inf,inf,inf,inf,1,1,1,1,2,0,2,1,3,1,1,0
107459994,15063323,34.0348592,108.7567287,1.08039,0.659767,-0.637276,-0.0255126,-0.157561,0.0,0.712,-0.220017,0.114075,0.0732223,-0.0907208,-0.42669,0.181226,0.157233,-0.203547,1.82706,-0.0253985,0.0375331,426.732,0.401359,0.273888,0.389216,0.136922,0.100066,inf,inf,inf,inf,1,1,1,1,2,0,2,1,3,1,1,0
107560074,15063323,34.0348592,108.7567287,1.14891,0.640772,-0.633727,-0.0255126,-0.157561,0.0,0.682211,-0.233551,0.106008,0.0622424,-0.0907208,-0.42669,0.181226,-0.403857,-0.152515,5.82135,-0.0268576,0.0375331,426.732,0.397811,0.265787,0.386932,0.132533,0.0988278,inf,inf,inf,inf,1,1,1,1,2,0,2,1,3,1,1,0
107660164,15063323,34.0348592,108.7567287,1.21569,0.621942,-0.630973,-0.0255126,-0.157561,0.0,0.667351,-0.215338,0.072631,0.0269987,-0.0907208,-0.42669,0.181226,0.297796,0.291334,-5.00836,-0.0291097,0.0375331,426.732,0.395056,0.274652,0.388516,0.137115,0.100005,inf,inf,inf,inf,1,1,1,1,2,0,2,1,3,1,1,0
107760256,15063323,34.0348592,108.7567287,1.28123,0.606182,-0.625055,-0.0255126,-0.157561,0.0,0.641429,-0.180673,0.0490244,0.00691195,-0.0907208,-0.42669,0.181226,-0.542188,4.4927,0.498441,-0.0292829,0.0375331,426.732,0.389138,0.266423,0.388588,0.132717,0.0989997,inf,inf,inf,inf,1,1,1,1,2,0,2,1,3,1,1,0
107860317,15063323,34.0348592,108.7567287,1.34609,0.591743,-0.625573,-0.0255126,-0.157561,0.0,0.636797,-0.164892,0.0297742,-0.0126698,-0.0907208,-0.42669,0.181226,0.110005,2.35863,0.565942,-0.0286441,0.0375331,426.732,0.389656,0.275307,0.390162,0.137336,0.100177,inf,inf,inf,inf,1,1,1,1,2,0,2,1,3,1,1,0
107960398,15063323,34.0348592,108.7567287,1.41295,0.576948,-0.640849,-0.0255126,-0.157561,0.0,0.620913,-0.158992,-0.0312499,-0.0854897,-0.0907208,-0.42669,0.181226,-0.96249,-1.9951,-6.72982,-0.0291965,0.0375331,426.732,0.404932,0.267075,0.387826,0.132962,0.0989177,inf,inf,inf,inf,1,1,1,1,2,0,2,1,3,1,1,0
108060475,15063323,34.0348592,108.7567287,1.48008,0.56301,-0.663493,-0.0255126,-0.157561,0.0,0.623048,-0.132226,-0.0685228,-0.136039,-0.0907208,-0.42669,0.181226,-0.492394,2.81934,-3.47923,-0.0286569,0.0375331,426.732,0.427576,0.275982,0.389391,0.137795,0.100094,inf,inf,inf,inf,1,1,1,1,2,0,2,1,3,1,1,0
108160556,15063323,34.0348592,108.7567287,1.54717,0.548896,-0.67968,-0.0255126,-0.157561,0.0,0.61645,-0.11315,-0.0892053,-0.158159,-0.0907208,-0.42669,0.181226,-0.13304,-0.404801,2.18742,-0.0289055,0.0375331,426.732,0.443764,0.267745,0.38707,0.133279,0.0988404,inf,inf,inf,inf,1,1,1,1,2,0,2,1,3,1,1,0
108260636,15063323,34.0348592,108.7567287,1.6131,0.535831,-0.688358,-0.0255126,-0.157561,0.0,0.612166,-0.0932777,-0.128508,-0.187403,-0.0907208,-0.42669,0.181226,0.600276,-0.472354,-0.550032,-0.0293703,0.0375331,426.732,0.452441,0.276677,0.388627,0.13831,0.100012,inf,inf,inf,inf,1,1,1,1,2,0,2,1,3,1,1,0
108360720,15063323,34.0348592,108.7567287,1.67599,0.523927,-0.696915,-0.0255126,-0.157561,0.0,0.599657,-0.0907485,-0.148375,-0.195678,-0.0907208,-0.42669,0.181226,-0.644405,-2.89172,1.49912,-0.0289496,0.0375331,426.732,0.460998,0.268395,0.388704,0.133762,0.099012,inf,inf,inf,inf,1,1,1,1,2,0,2,1,3,1,1,0
108460797,15063323,34.0348592,108.7567287,1.73678,0.513991,-0.715715,-0.0255126,-0.157561,0.0,0.581018,-0.0611985,-0.181359,-0.226214,-0.0907208,-0.42669,0.181226,-0.135843,1.73183,0.882101,-0.0291724,0.0375331,426.732,0.479798,0.27735,0.39029,0.13853,0.100193,inf,inf,inf,inf,1,1,1,1,2,0,2,1,3,1,1,0
108560883,15063323,34.0348592,108.7567287,1.79513,0.503319,-0.730465,-0.0255126,-0.157561,0.0,0.56806,-0.0609021,-0.194632,-0.231246,-0.0907208,-0.42669,0.181226,-0.217255,-0.353417,-2.62272,-0.029244,0.0375331,426.732,0.494548,0.269032,0.387955,0.133871,0.0989368,inf,inf,inf,inf,1,1,1,1,2,0,2,1,3,1,1,0
108660957,15063323,34.0348592,108.7567287,1.85172,0.493615,-0.748108,-0.0255126,-0.157561,0.0,0.551238,-0.0371821,-0.225388,-0.255922,-0.0907208,-0.42669,0.181226,-0.677085,0.735375,-3.73516,-0.0290695,0.0375331,426.732,0.512191,0.277999,0.389533,0.138738,0.100114,inf,inf,inf,inf,1,1,1,1,2,0,2,1,3,1,1,0
108761042,15063323,34.0348592,108.7567287,1.90795,0.488247,-0.772996,-0.0255126,-0.157561,0.0,0.539599,-0.0118182,-0.199846,-0.23125,-0.0907208,-0.42669,0.181226,-0.436209,2.36719,4.98654,-0.0290056,0.0375331,426.732,0.537079,0.269654,0.38722,0.134105,0.0988614,inf,inf,inf,inf,1,1,1,1,2,0,2,1,3,1,1,0
108861118,15063323,34.0348592,108.7567287,1.9633,0.486588,-0.797218,-0.0255126,-0.157561,0.0,0.534736,0.0116429,-0.183836,-0.216091,-0.0907208,-0.42669,0.181226,0.302513,-2.65024,2.70567,-0.0278765,0.0375331,426.732,0.561301,0.278629,0.38879,0.138853,0.100039,inf,inf,inf,inf,1,1,1,1,2,0,2,1,3,1,1,0
108961198,15063323,34.0348592,108.7567287,2.01821,0.488538,-0.812325,-0.0255126,-0.157561,0.0,0.551684,0.038872,-0.141153,-0.168861,-0.0907208,-0.42669,0.181226,0.448246,0.916636,4.28981,-0.0290752,0.0375331,426.732,0.576408,0.270287,0.386483,0.134052,0.0987886,inf,inf,inf,inf,1,1,1,1,2,0,2,1,3,1,1,0
109061281,15063323,34.0348592,108.7567287,2.07516,0.492797,-0.827082,-0.0255126,-0.157561,0.0,0.57936,0.0393994,-0.111862,-0.138522,-0.0907208,-0.42669,0.181226,1.22138,-2.3752,0.237358,-0.0293325,0.0375331,426.732,0.591165,0.279259,0.39046,0.138506,0.100222,inf,inf,inf,inf,1,1,1,1,2,0,2,1,3,1,1,0
109161359,15063323,34.0348592,108.7567287,2.13446,0.496807,-0.832418,-0.0255126,-0.157561,0.0,0.627638,0.0566336,-0.0721273,-0.0925542,-0.0907208,-0.42669,0.181226,0.263383,0.50143,0.0623142,-0.0285524,0.0375331,426.732,0.596501,0.270903,0.388132,0.133629,0.0989639,inf,inf,inf,inf,1,1,1,1,2,0,2,1,3,1,1,0
109261445,15063323,34.0348592,108.7567287,2.1987,0.500306,-0.846605,-0.0255126,-0.157561,0.0,0.684764,0.0463102,-0.0604707,-0.0868575,-0.0907208,-0.42669,0.181226,0.261495,-0.847838,-4.61109,-0.0277152,0.0375331,426.732,0.610688,0.279859,0.389722,0.137984,0.100146,inf,inf,inf,inf,1,1,1,1,2,0,2,1,3,1,1,0
109361519,15063323,34.0348592,108.7567287,2.27035,0.504059,-0.855337,-0.0255126,-0.157561,0.0,0.710318,0.0693209,-0.0234587,-0.0521584,-0.0907208,-0.42669,0.181226,-0.461665,3.63173,1.84778,-0.0270901,0.0375331,426.732,0.61942,0.271598,0.387413,0.133257,0.0988976,inf,inf,inf,inf,1,1,1,1,2,0,2,1,3,1,1,0
109461600,15063323,34.0348592,108.7567287,2.34491,0.508494,-0.861586,-0.0255126,-0.157561,0.0,0.72982,0.068395,0.0140733,-0.0177979,-0.0907208,-0.42669,0.181226,-0.950637,-0.526647,-2.68886,-0.0248234,0.0375331,426.732,0.625669,0.280547,0.38898,0.137712,0.100073,inf,inf,inf,inf,1,1,1,1,2,0,2,1,3,1,1,0
109561680,15063323,34.0348592,108.7567287,2.41591,0.513613,-0.860658,-0.0255126,-0.157561,0.0,0.723858,0.0753366,0.0475332,0.015686,-0.0907208,-0.42669,0.181226,-0.646195,1.93205,-2.31009,-0.0251211,0.0375331,426.732,0.624741,0.272236,0.386664,0.133032,0.0988162,inf,inf,inf,inf,1,1,1,1,2,0,2,1,3,1,1,0
109661760,15063323,34.0348592,108.7567287,2.4842,0.51937,-0.842355,-0.0255126,-0.157561,0.0,0.714662,0.0841542,0.0865659,0.0681554,-0.0907208,-0.42669,0.181226,0.268555,-1.09182,-6.77839,-0.0260952,0.0375331,426.732,0.606438,0.28117,0.390633,0.137369,0.100245,inf,inf,inf,inf,1,1,1,1,2,0,2,1,3,1,1,0
109761841,15063323,34.0348592,108.7567287,2.54976,0.526405,-0.821638,-0.0255126,-0.157561,0.0,0.697731,0.0930137,0.143621,0.135142,-0.0907208,-0.42669,0.181226,-0.336678,3.0811,0.873896,-0.0263601,0.0375331,426.732,0.585721,0.272872,0.388296,0.132646,0.0989823,inf,inf,inf,inf,1,1,1,1,2,0,2,1,3,1,1,0
109861921,15063323,34.0348592,108.7567287,2.61509,0.533593,-0.794583,-0.0255126,-0.157561,0.0,0.700361,0.0938141,0.19323,0.195166,-0.0907208,-0.42669,0.181226,-0.641613,1.89085,-1.80932,-0.0252339,0.0375331,426.732,0.558666,0.281788,0.389875,0.136974,0.100165,inf,inf,inf,inf,1,1,1,1,2,0,2,1,3,1,1,0
109962001,15063323,34.0348592,108.7567287,2.68109,0.541758,-0.768789,-0.0255126,-0.157561,0.0,0.703829,0.078522,0.228188,0.234102,-0.0907208,-0.42669,0.181226,0.219807,2.81542,3.35729,-0.0234819,0.0375331,426.732,0.532872,0.273474,0.387553,0.132316,0.098905,inf,inf,inf,inf,1,1,1,1,2,0,2,1,3,1,1,0
110062082,15063323,34.0348592,108.7567287,2.74808,0.547188,-0.744902,-0.0255126,-0.157561,0.0,0.701367,0.0500286,0.258028,0.263807,-0.0907208,-0.42669,0.181226,-0.252709,-2.00173,3.26436,-0.0228554,0.0375331,426.732,0.508985,0.282369,0.389124,0.136672,0.100082,inf,inf,inf,inf,1,1,1,1,2,0,2,1,3,1,1,0
110162162,15063323,34.0348592,108.7567287,2.81451,0.550876,-0.721926,-0.0255126,-0.157561,0.0,0.704465,0.00714783,0.270892,0.273602,-0.0907208,-0.42669,0.181226,0.496646,-2.02666,1.14451,-0.0239598,0.0375331,426.732,0.486009,0.274078,0.386816,0.132138,0.0988258,inf,inf,inf,inf,1,1,1,1,2,0,2,1,3,1,1,0
110262242,15063323,34.0348592,108.7567287,2.88079,0.55053,-0.702523,-0.0255126,-0.157561,0.0,0.689956,-0.0172035,0.282989,0.277229,-0.0907208,-0.42669,0.181226,0.0983393,0.809823,-0.344576,-0.0236278,0.0375331,426.732,0.466606,0.282962,0.388379,0.136574,0.100003,inf,inf,inf,inf,1,1,1,1,2,0,2,1,3,1,1,0
110362323,15063323,34.0348592,108.7567287,2.94444,0.547518,-0.697139,-0.0255126,-0.157561,0.0,0.668484,-0.0581032,0.228096,0.20211,-0.0907208,-0.42669,0.181226,-0.634239,-5.10877,-8.52296,-0.0218568,0.0375331,426.732,0.461222,0.274474,0.388464,0.131923,0.0989993,inf,inf,inf,inf,1,1,1,1,2,0,2,1,3,1,1,0
110462403,15063323,34.0348592,108.7567287,3.00703,0.542913,-0.690178,-0.0255126,-0.157561,0.0,0.664439,-0.0590222,0.184978,0.146868,-0.0907208,-0.42669,0.181226,-0.285946,1.21435,-5.47041,-0.0192566,0.0375331,426.732,0.454261,0.283343,0.390055,0.136555,0.100177,inf,inf,inf,inf,1,1,1,1,2,0,2,1,3,1,1,0
110562484,15063323,34.0348592,108.7567287,3.0706,0.53773,-0.685579,-0.0255126,-0.157561,0.0,0.665531,-0.055884,0.120984,0.0766506,-0.0907208,-0.42669,0.181226,-0.071394,2.47681,2.99429,-0.0197526,0.0375331,426.732,0.449662,0.274773,0.387732,0.132163,0.0989225,inf,inf,inf,inf,1,1,1,1,2,0,2,1,3,1,1,0
110662570,15063323,34.0348592,108.7567287,3.13526,0.532931,-0.684368,-0.0255126,-0.157561,0.0,0.678823,-0.0502922,0.0682035,0.0217358,-0.0907208,-0.42669,0.181226,0.209951,-2.64889,3.88094,-0.0207261,0.0375331,426.732,0.448451,0.283648,0.389315,0.137098,0.100098,inf,inf,inf,inf,1,1,1,1,2,0,2,1,3,1,1,0
110762644,15063323,34.0348592,108.7567287,3.20414,0.530598,-0.688756,-0.0255126,-0.157561,0.0,0.707592,-0.0279514,-0.0418849,-0.0894513,-0.0907208,-0.42669,0.181226,0.477647,-0.0402477,-5.70952,-0.0237443,0.0375331,426.732,0.452839,0.27491,0.387013,0.132875,0.0988465,inf,inf,inf,inf,1,1,1,1,2,0,2,1,3,1,1,0
110862724,15063323,34.0348592,108.7567287,3.27551,0.530465,-0.695483,-0.0255126,-0.157561,0.0,0.719279,-0.00136674,-0.0989137,-0.141636,-0.0907208,-0.42669,0.181226,-0.277133,1.45652,-0.370184,-0.0248419,0.0375331,426.732,0.459566,0.283798,0.388587,0.137726,0.100025,inf,inf,inf,inf,1,1,1,1,2,0,2,1,3,1,1,0
110962805,15063323,34.0348592,108.7567287,3.34705,0.531313,-0.709073,-0.0255126,-0.157561,0.0,0.746572,0.0117516,-0.151985,-0.190845,-0.0907208,-0.42669,0.181226,1.13033,-2.16039,0.640479,-0.0250309,0.0375331,426.732,0.473156,0.274912,0.386298,0.133448,0.0987763,inf,inf,inf,inf,1,1,1,1,2,0,2,1,3,1,1,0
111062885,15063323,34.0348592,108.7567287,3.41899,0.533233,-0.723813,-0.0255126,-0.157561,0.0,0.764898,0.0354139,-0.181771,-0.214433,-0.0907208,-0.42669,0.181226,0.600186,1.94969,-1.65779,-0.0244595,0.0375331,426.732,0.487896,0.283813,0.390268,0.138551,0.100205,inf,inf,inf,inf,1,1,1,1,2,0,2,1,3,1,1,0
111162965,15063323,34.0348592,108.7567287,3.49124,0.535132,-0.737708,-0.0255126,-0.157561,0.0,0.754799,0.0288656,-0.199408,-0.224276,-0.0907208,-0.42669,0.181226,-1.23993,-2.71311,-4.38756,-0.0241611,0.0375331,426.732,0.501791,0.274669,0.387929,0.13372,0.0989378,inf,inf,inf,inf,1,1,1,1,2,0,2,1,3,1,1,0
111263046,15063323,34.0348592,108.7567287,3.56247,0.537454,-0.7576,-0.0255126,-0.157561,0.0,0.747213,0.0568919,-0.20887,-0.231946,-0.0907208,-0.42669,0.181226,-0.751337,2.02286,-3.35436,-0.0242031,0.0375331,426.732,0.521683,0.283558,0.389508,0.138413,0.100114,inf,inf,inf,inf,1,1,1,1,2,0,2,1,3,1,1,0
111363128,15063323,34.0348592,108.7567287,3.62962,0.5395,-0.780342,-0.0255126,-0.157561,0.0,0.732523,0.0716015,-0.206426,-0.229592,-0.0907208,-0.42669,0.181226,-0.805008,2.12267,2.2362,-0.0244975,0.0375331,426.732,0.544425,0.27457,0.387194,0.133726,0.0988703,inf,inf,inf,inf,1,1,1,1,2,0,2,1,3,1,1,0
111463206,15063323,34.0348592,108.7567287,3.69565,0.54218,-0.800489,-0.0255126,-0.157561,0.0,0.720407,0.0627691,-0.223094,-0.241858,-0.0907208,-0.42669,0.181226,0.20963,-2.7891,2.08724,-0.0258986,0.0375331,426.732,0.564572,0.283452,0.388765,0.138486,0.100045,inf,inf,inf,inf,1,1,1,1,2,0,2,1,3,1,1,0
111563293,15063323,34.0348592,108.7567287,3.75909,0.544449,-0.821505,-0.0255126,-0.157561,0.0,0.705007,0.0418036,-0.221762,-0.23814,-0.0907208,-0.42669,0.181226,0.0714151,-0.239933,-3.95357,-0.0269825,0.0375331,426.732,0.585588,0.274332,0.38646,0.133812,0.0987913,inf,inf,inf,inf,1,1,1,1,2,0,2,1,3,1,1,0
111663367,15063323,34.0348592,108.7567287,3.82151,0.546042,-0.851338,-0.0255126,-0.157561,0.0,0.688646,0.0284151,-0.198266,-0.22197,-0.0907208,-0.42669,0.181226,-0.686675,-1.29923,-1.08784,-0.0287572,0.0375331,426.732,0.615422,0.283201,0.390437,0.138336,0.100221,inf,inf,inf,inf,1,1,1,1,2,0,2,1,3,1,1,0
111763447,15063323,34.0348592,108.7567287,3.88074,0.544237,-0.883388,-0.0255126,-0.157561,0.0,0.667994,0.00859933,-0.173693,-0.208325,-0.0907208,-0.42669,0.181226,-0.479916,0.901406,-3.63018,-0.02991,0.0375331,426.732,0.647471,0.273866,0.388105,0.133332,0.0989517,inf,inf,inf,inf,1,1,1,1,2,0,2,1,3,1,1,0
111863528,15063323,34.0348592,108.7567287,3.93702,0.542163,-0.904035,-0.0255126,-0.157561,0.0,0.642773,0.00576851,-0.114176,-0.151378,-0.0907208,-0.42669,0.181226,0.294842,1.81609,5.35975,-0.0299505,0.0375331,426.732,0.668119,0.282699,0.389688,0.137879,0.100129,inf,inf,inf,inf,1,1,1,1,2,0,2,1,3,1,1,0
111963608,15063323,34.0348592,108.7567287,3.99202,0.539568,-0.918488,-0.0255126,-0.157561,0.0,0.621781,-0.00215741,-0.112654,-0.148298,-0.0907208,-0.42669,0.181226,0.392087,-1.27317,1.92339,-0.0302323,0.0375331,426.732,0.682571,0.273405,0.387375,0.132932,0.0988765,inf,inf,inf,inf,1,1,1,1,2,0,2,1,3,1,1,0
112063692,15063323,34.0348592,108.7567287,4.04611,0.538262,-0.940711,-0.0255126,-0.157561,0.0,0.600063,0.0112649,-0.0733138,-0.116843,-0.0907208,-0.42669,0.181226,0.140364,-0.590455,4.66632,-0.0290307,0.0375331,426.732,0.704794,0.282203,0.388957,0.137429,0.100052,inf,inf,inf,inf,1,1,1,1,2,0,2,1,3,1,1,0
