timestamp,yaw_composite,yaw_variance,yaw[0],yaw[1],yaw[2],yaw[3],yaw[4],innov_vn[0],innov_vn[1],innov_vn[2],innov_vn[3],innov_vn[4],innov_ve[0],innov_ve[1],innov_ve[2],innov_ve[3],innov_ve[4],weight[0],weight[1],weight[2],weight[3],weight[4]
95310268,-1.32811,3.55763,-2.50818,-1.25171,0.00474842,1.26145,2.5183,0.0218039,0.025784,0.0507926,0.0622678,0.0443517,0.0427617,0.0177598,0.0138193,0.0363862,0.054273,0.200039,0.200094,0.200019,0.199918,0.19993
95320277,-2.35554,3.57346,-2.5084,-1.2522,0.00450597,1.26162,2.51849,-0.00544885,0.00335863,-0.0235006,-0.048918,-0.0377606,0.0359187,0.067026,0.0850188,0.0650334,0.0346817,0.200218,0.200098,0.199843,0.199805,0.200037
95520435,-3.04823,3.83431,-2.50901,-1.253,0.00485227,1.26287,2.51914,0.0330077,0.0455027,0.0836008,0.0946449,0.0633606,-0.113258,-0.149241,-0.148484,-0.112003,-0.0902414,0.200601,0.199844,0.199303,0.199725,0.200527
95720595,-3.05038,3.83434,-2.50819,-1.25241,0.00585586,1.26436,2.52051,-0.0219689,-0.0336322,-0.0182691,0.00288763,0.00056741,-0.0727887,-0.0927058,-0.10997,-0.100665,-0.0776978,0.200798,0.199785,0.199071,0.199639,0.200707
95920767,-3.05052,3.83898,-2.50412,-1.24831,0.00997035,1.26845,2.52458,-0.0219689,-0.0336322,-0.0182691,0.00288763,0.00056741,-0.0727887,-0.0927058,-0.10997,-0.100665,-0.0776978,0.200798,0.199785,0.199071,0.199639,0.200707
96110907,-3.12805,3.92535,-2.4994,-1.24372,0.015441,1.27459,2.53026,0.0169938,0.0196796,-0.0120567,-0.0343054,-0.0163021,0.0888304,0.123011,0.136137,0.109968,0.0807806,0.201087,0.199581,0.198657,0.199586,0.201089
96311067,3.08066,3.84282,-2.50271,-1.24677,0.0123479,1.27121,2.52675,0.0296693,0.0437852,0.0259638,0.000844614,0.00320803,-0.0563758,-0.0331118,-0.0124626,-0.0230934,-0.0502021,0.200958,0.199525,0.19875,0.1997,0.201066
96511227,3.06651,3.81512,-2.4949,-1.23901,0.0206151,1.27983,2.53508,0.0246117,0.0522578,0.0288054,-0.0133254,-0.0158109,0.0187655,0.052322,0.0890376,0.0779879,0.0345985,0.201112,0.199411,0.198527,0.199675,0.201275
96711387,-2.90489,3.71463,-2.48284,-1.22755,0.0309645,1.2901,2.54641,0.00572956,0.00423937,-0.0524064,-0.0857178,-0.0496959,-0.0886762,-0.0297673,-0.0129993,-0.0617697,-0.108376,0.201079,0.199876,0.198847,0.199409,0.200789
96921555,-2.83084,3.65844,-2.48013,-1.22513,0.0332658,1.29264,2.5492,-0.00163232,0.0196243,0.0463289,0.0414623,0.0118188,0.0116674,-0.0094495,0.00427726,0.0339183,0.0384108,0.201173,0.199946,0.198796,0.199307,0.200777
97111711,-2.83965,3.66561,-2.47899,-1.22392,0.0345679,1.29391,2.55037,-0.00163232,0.0196243,0.0463289,0.0414623,0.0118188,0.0116674,-0.0094495,0.00427726,0.0339183,0.0384108,0.201173,0.199946,0.198796,0.199307,0.200777
97311867,-2.88022,3.69198,-2.48316,-1.22813,0.0304637,1.28992,2.54634,0.0456224,0.0439495,-0.0157764,-0.0509198,-0.0128428,-0.0188735,0.0432376,0.0608778,0.00941461,-0.0397689,0.201209,0.199883,0.198722,0.199325,0.200862
97512027,-2.94552,3.74542,-2.48866,-1.23322,0.0252859,1.28427,2.54049,-0.027469,-0.0184565,-0.0112994,-0.0159286,-0.0259136,0.0310614,0.0264767,0.0336488,0.0426647,0.0410424,0.201022,0.199843,0.198884,0.199465,0.200787
97712188,-2.87968,3.68321,-2.49631,-1.24106,0.0173322,1.27644,2.53285,-0.0286375,0.00759677,0.0403939,0.0242612,-0.018378,0.0019962,-0.020655,0.00687355,0.0465514,0.0434359,0.201078,0.199924,0.198878,0.19938,0.20074
97912348,-2.82414,3.64101,-2.50395,-1.24868,0.00928227,1.2681,2.52476,-0.00394026,0.0132847,-0.00635082,-0.035741,-0.0341698,-0.0717793,-0.0455846,-0.0210554,-0.0322195,-0.0635612,0.200925,0.199986,0.199069,0.199437,0.200584
98112508,-2.83841,3.65076,-2.50361,-1.24822,0.00981115,1.26855,2.5251,-0.00394026,0.0132847,-0.00635082,-0.035741,-0.0341698,-0.0717793,-0.0455846,-0.0210554,-0.0322195,-0.0635612,0.200925,0.199986,0.199069,0.199437,0.200584
98312668,-2.93051,3.71406,-2.50817,-1.25294,0.00552626,1.2647,2.52108,0.039745,0.0622233,0.045458,0.0125685,0.00911255,0.0154748,0.0403729,0.0695005,0.0624928,0.0290954,0.201074,0.199863,0.198844,0.19942,0.200799
98512828,-2.95444,3.73282,-2.51254,-1.25702,0.00131074,1.26012,2.5164,-0.0211558,-0.000721959,-0.00577975,-0.0293982,-0.0388401,-0.0574772,-0.0455386,-0.0223644,-0.0200656,-0.0417845,0.200957,0.199871,0.198965,0.199487,0.200719
98712988,-2.96935,3.74404,-2.51456,-1.25903,-0.000657573,1.25817,2.51441,0.0261262,0.0327858,-0.00381883,-0.0330671,-0.0144779,-0.0210522,0.0195213,0.0384251,0.0093834,-0.0273263,0.200966,0.199855,0.198947,0.199492,0.20074
98913148,-2.81068,3.6182,-2.52056,-1.26578,-0.00745657,1.25207,2.50881,-0.0122558,0.0321691,0.0368001,-0.00489958,-0.035124,0.0121084,0.0216667,0.0669646,0.0852869,0.0513257,0.201225,0.200023,0.198792,0.199228,0.200732
99113309,-2.78345,3.60215,-2.52374,-1.26892,-0.0107643,1.24864,2.50545,0.00998171,0.0446732,0.0108414,-0.0448557,-0.0452162,-0.0568175,-0.0100572,0.0375072,0.0198837,-0.0384187,0.201169,0.200059,0.19887,0.199241,0.200661
99313469,-1.91626,3.90454,-2.52064,-1.26587,-0.0097487,1.24845,2.50656,-0.100965,0.00769939,0.0121793,-0.0940854,-0.16376,-0.0983503,-0.0677715,0.0452757,0.084255,-0.00466814,0.200631,0.200616,0.19975,0.19923,0.199773
99513635,-0.944927,3.6469,-2.53346,-1.27813,-0.0235405,1.23315,2.49187,-0.0813159,0.0302116,0.0349639,-0.0739248,-0.145778,-0.123082,-0.0917092,0.0241565,0.0644715,-0.0267171,0.199964,0.200885,0.200582,0.199475,0.199095
99713789,-0.627167,3.89927,-2.53326,-1.27739,-0.0231162,1.23283,2.49141,-0.055944,0.0206096,0.0392703,-0.0257579,-0.0847449,-0.0814633,-0.0760994,-0.00170753,0.0391493,-0.0101942,0.199637,0.200823,0.200872,0.199715,0.198954
99913949,-0.430163,3.70641,-2.52608,-1.26962,-0.0152573,1.24015,2.4983,0.0310823,0.063416,0.0363702,-0.0127883,-0.0161243,-0.0587297,-0.0196827,0.0231339,0.0107016,-0.039987,0.199499,0.200685,0.200925,0.199885,0.199006
100114109,-0.423787,3.70627,-2.5199,-1.26343,-0.00907047,1.24633,2.50449,0.0310823,0.063416,0.0363702,-0.0127883,-0.0161243,-0.0587297,-0.0196827,0.0231339,0.0107016,-0.039987,0.199499,0.200685,0.200925,0.199885,0.199006
100314278,-0.482365,3.75151,-2.5261,-1.26976,-0.0155174,1.23995,2.49826,-0.00164866,0.0219385,-0.00304231,-0.042148,-0.0413452,-0.0328288,0.0011836,0.0341215,0.0205922,-0.0208568,0.199524,0.200755,0.200943,0.199826,0.198952
100514430,-0.31923,3.62439,-2.53511,-1.27837,-0.0234503,1.23203,2.48968,0.0558577,0.0895505,0.0711581,0.0260417,0.0165068,-0.0330011,-0.00262805,0.038778,0.0341488,-0.0102763,0.199524,0.200468,0.200766,0.200004,0.199238
100714594,-0.0954416,3.53739,-2.5416,-1.28444,-0.0298564,1.22498,2.48257,-0.00595845,0.0444889,0.0261357,-0.0356603,-0.0555861,-0.0986441,-0.0628833,-0.00390033,-0.00305101,-0.0616396,0.19916,0.200391,0.201084,0.200276,0.199089
100914757,-0.0652225,3.52939,-2.55402,-1.29645,-0.0423059,1.21185,2.46946,-0.00274354,0.0631336,0.0281347,-0.0593299,-0.0785994,-0.0948577,-0.0365317,0.0440332,0.0358017,-0.050071,0.198942,0.20045,0.201339,0.200374,0.198895
101114910,0.0301857,3.53304,-2.56084,-1.30301,-0.0488859,1.20501,2.46247,-0.0350609,0.0315678,0.0447222,-0.0135507,-0.0630208,-0.0744967,-0.0666624,-0.00103222,0.0318968,-0.0134132,0.198726,0.200334,0.201484,0.200579,0.198877
101315070,-0.222088,3.53339,-2.56312,-1.3056,-0.0549697,1.19707,2.45688,-0.1463,-0.0133653,0.0114709,-0.105557,-0.2034,-0.103695,-0.0866227,0.0447241,0.109218,0.0177421,0.197906,0.201364,0.202945,0.200442,0.197343
101515231,-0.216688,3.50076,-2.56182,-1.30361,-0.0567992,1.19218,2.45391,-0.171833,0.0655212,0.126431,-0.0716073,-0.257303,-0.183325,-0.169999,0.0585975,0.188319,0.0394501,0.19652,0.202233,0.204885,0.200746,0.195617
101715391,0.0786337,3.43542,-2.55022,-1.28524,-0.0429264,1.1965,2.4568,-0.198028,0.0214332,0.0729207,-0.112249,-0.281807,-0.270992,-0.253381,-0.0411281,0.0752126,-0.0659219,0.192371,0.201609,0.208747,0.203667,0.193607
101915551,0.072983,3.34678,-2.52666,-1.25702,-0.0247464,1.20381,2.46743,-0.193035,-0.0589333,-0.0339438,-0.148034,-0.249116,-0.162677,-0.145432,-0.0154962,0.0507692,-0.0381152,0.187235,0.202978,0.214957,0.205886,0.188943
102115711,0.0858094,3.34671,-2.51584,-1.24587,-0.0136501,1.21453,2.478,-0.193035,-0.0589333,-0.0339438,-0.148034,-0.249116,-0.162677,-0.145432,-0.0154962,0.0507692,-0.0381152,0.187235,0.202978,0.214957,0.205886,0.188943
102315872,0.0410718,3.31828,-2.50822,-1.23865,-0.00987845,1.21653,2.48239,-0.129314,0.0350257,0.044674,-0.107605,-0.219735,-0.145439,-0.101547,0.0639214,0.12812,0.00121941,0.18637,0.20406,0.216545,0.205697,0.187327
102516033,-0.000201083,3.24848,-2.50194,-1.23054,-0.0108737,1.20785,2.47817,-0.0934716,0.054197,0.00465241,-0.169588,-0.236962,-0.248602,-0.145317,0.0222562,0.0325625,-0.134343,0.182773,0.206073,0.221636,0.206499,0.18302
102716192,-0.00513103,3.24889,-2.50506,-1.23402,-0.0143366,1.20479,2.47529,-0.0934716,0.054197,0.00465241,-0.169588,-0.236962,-0.248602,-0.145317,0.0222562,0.0325625,-0.134343,0.182773,0.206073,0.221636,0.206499,0.18302
102916353,-0.00325791,3.20865,-2.49961,-1.22644,-0.0115519,1.20221,2.47437,0.0667363,0.117149,0.0261365,-0.0824072,-0.0626585,-0.143806,-0.0268719,0.055187,-0.00154242,-0.127503,0.180465,0.206921,0.224661,0.207281,0.180672
103116513,-0.0117774,3.20911,-2.50632,-1.23357,-0.0186645,1.19556,2.46791,0.0667363,0.117149,0.0261365,-0.0824072,-0.0626585,-0.143806,-0.0268719,0.055187,-0.00154242,-0.127503,0.180465,0.206921,0.224661,0.207281,0.180672
103316673,-0.0096736,3.13201,-2.50817,-1.23134,-0.0254516,1.17898,2.45406,-0.237116,0.0166651,0.0613079,-0.148825,-0.344384,-0.242054,-0.205499,0.0361008,0.162453,-0.00236687,0.175751,0.208167,0.230616,0.209161,0.176306
103516833,-0.00852922,3.13204,-2.50709,-1.23026,-0.0243503,1.18008,2.45514,-0.237116,0.0166651,0.0613079,-0.148825,-0.344384,-0.242054,-0.205499,0.0361008,0.162453,-0.00236687,0.175751,0.208167,0.230616,0.209161,0.176306
103716993,0.0413493,2.9692,-2.49092,-1.20261,-0.0144897,1.16739,2.44533,-0.428446,0.0182871,0.154886,-0.171314,-0.552378,-0.396577,-0.395945,0.00637582,0.277606,0.0461453,0.165004,0.209351,0.24358,0.21439,0.167674
103917155,-0.0195429,2.4335,-2.43993,-1.13401,-0.0160823,1.10261,2.40932,-0.633846,-0.170665,-0.059012,-0.379223,-0.776304,-0.374735,-0.342791,0.0605393,0.32578,0.0943681,0.132842,0.221808,0.291792,0.221028,0.13253
104117314,-0.00922158,2.25272,-2.42546,-1.10944,-0.013916,1.08059,2.39379,-0.522294,-0.128873,-0.0364799,-0.292778,-0.641563,-0.394663,-0.362712,-0.0311736,0.199032,0.0144756,0.120606,0.223525,0.310113,0.224656,0.1211
104317474,-0.0149202,2.18912,-2.42282,-1.10414,-0.0171446,1.07013,2.38695,-0.349643,-0.087639,0.00268844,-0.134406,-0.383654,-0.174154,-0.191242,0.0123018,0.188558,0.109625,0.116482,0.224676,0.316926,0.225191,0.116725
104517655,-0.00419291,2.13528,-2.43296,-1.10594,-0.0248348,1.05319,2.36848,-0.416427,-0.250358,-0.122631,-0.149398,-0.338882,-0.0673503,-0.169303,-0.06917,0.0935788,0.130191,0.111851,0.222696,0.322762,0.228558,0.114133
104717796,-0.0189269,2.13531,-2.44767,-1.12067,-0.039564,1.03847,2.35377,-0.416427,-0.250358,-0.122631,-0.149398,-0.338882,-0.0673503,-0.169303,-0.06917,0.0935788,0.130191,0.111851,0.222696,0.322762,0.228558,0.114133
104917956,-0.00378919,2.10628,-2.44731,-1.11466,-0.0367667,1.03649,2.35038,-0.161636,-0.118096,-0.0597017,-0.0434168,-0.103189,0.075486,0.0130253,0.0287543,0.0902588,0.132274,0.10919,0.22113,0.325972,0.230828,0.112881
105118116,-0.00314698,2.10631,-2.44668,-1.11403,-0.0361247,1.03714,2.35102,-0.161636,-0.118096,-0.0597017,-0.0434168,-0.103189,0.075486,0.0130253,0.0287543,0.0902588,0.132274,0.10919,0.22113,0.325972,0.230828,0.112881
105318282,0.00112268,2.10754,-2.44447,-1.11116,-0.0335872,1.04027,2.35397,-0.085389,-0.104054,-0.101159,-0.0813248,-0.0674806,0.0526872,0.0380187,0.0196537,0.0161836,0.0338379,0.109165,0.22088,0.325856,0.231054,0.113045
105518437,0.00586855,2.10831,-2.43843,-1.10487,-0.0274156,1.04592,2.36015,0.00918928,-0.037204,-0.0765795,-0.0696144,-0.0157027,-0.00140579,0.0281467,0.00141213,-0.0433176,-0.0578611,0.109351,0.221086,0.325694,0.230804,0.113066
105718608,0.0149334,2.10077,-2.42982,-1.09557,-0.0190344,1.05286,2.36665,0.0982289,0.0256668,-0.0597934,-0.0702219,0.0239927,-0.0257013,0.0539112,0.021698,-0.0663689,-0.118967,0.108932,0.221035,0.32632,0.230971,0.112741
105918758,0.0212379,2.10107,-2.42298,-1.08911,-0.0126951,1.05978,2.37363,0.0982289,0.0256668,-0.0597934,-0.0702219,0.0239927,-0.0257013,0.0539112,0.021698,-0.0663689,-0.118967,0.108932,0.221035,0.32632,0.230971,0.112741
106118918,0.0264557,2.0741,-2.41615,-1.08121,-0.00796954,1.05996,2.3739,0.208001,0.131306,0.0148835,-0.0180605,0.0922141,-0.0884893,0.030122,0.00634116,-0.105073,-0.192906,0.107228,0.221109,0.329038,0.231463,0.111162
106319081,0.0206959,2.06505,-2.41619,-1.08177,-0.00992942,1.05711,2.37237,0.00496927,0.0470105,-0.0286511,-0.120704,-0.124138,-0.143391,-0.0316688,0.0341839,0.00125055,-0.11784,0.106842,0.221751,0.330035,0.231012,0.11036
106519242,0.0428044,2.02495,-2.41363,-1.07305,-0.00358363,1.05628,2.36799,-0.184909,0.102784,0.137117,-0.0549668,-0.303783,-0.333564,-0.269916,-0.0292166,0.117549,-0.0331807,0.103351,0.219444,0.334227,0.234179,0.108799
106719400,0.0482259,1.87201,-2.39876,-1.05034,-0.000281939,1.03814,2.35229,-0.502559,-0.0086984,0.105446,-0.175761,-0.624673,-0.425211,-0.387829,0.00175188,0.289562,0.104011,0.0932074,0.219332,0.351036,0.237116,0.0993092
106919560,0.0440346,1.58546,-2.3753,-1.01273,-0.00336947,0.991976,2.31188,-0.815006,-0.183562,0.00427234,-0.302404,-0.897733,-0.489668,-0.498142,-0.0278842,0.36854,0.205731,0.0741965,0.21855,0.385545,0.240973,0.0807356
107119731,0.0381325,1.58517,-2.38174,-1.01868,-0.00916448,0.985404,2.30542,-0.815006,-0.183562,0.00427234,-0.302404,-0.897733,-0.489668,-0.498142,-0.0278842,0.36854,0.205731,0.0741965,0.21855,0.385545,0.240973,0.0807356
107319881,0.0595006,1.21736,-2.34947,-0.956852,-0.00349657,0.92709,2.24547,-0.874709,-0.380727,-0.0466403,-0.0641969,-0.576233,-0.027262,-0.319073,-0.0623598,0.354995,0.559327,0.0488895,0.208291,0.435897,0.2491,0.0578225
107510034,0.0729697,1.07374,-2.33477,-0.926126,0.000915825,0.901976,2.21574,-0.843303,-0.478566,-0.0952011,0.0371263,-0.349483,0.277659,-0.161197,-0.0404799,0.337155,0.715808,0.0391354,0.200772,0.457725,0.253281,0.0490866
107710201,0.0685049,1.07389,-2.3386,-0.930306,-0.00377555,0.898114,2.21173,-0.843303,-0.478566,-0.0952011,0.0371263,-0.349483,0.277659,-0.161197,-0.0404799,0.337155,0.715808,0.0391354,0.200772,0.457725,0.253281,0.0490866
107920363,0.0908986,0.917303,-2.32079,-0.887966,0.00573895,0.870068,2.17483,-0.5902,-0.420559,-0.182093,-0.0433407,-0.204841,0.389444,0.060966,0.0828586,0.281245,0.579443,0.0287042,0.18889,0.483145,0.259497,0.0397629
108120524,0.0952066,0.882726,-2.31586,-0.87647,0.00878652,0.863306,2.16728,-0.431843,-0.306525,-0.13427,-0.0290388,-0.141296,0.329689,0.0822264,0.0986339,0.241221,0.464889,0.0265226,0.186357,0.489212,0.260346,0.0375626
108320688,0.0969134,0.867478,-2.31319,-0.870749,0.0100901,0.860748,2.16493,-0.286619,-0.198434,-0.0829367,-0.00992221,-0.0862339,0.230362,0.0583084,0.0719978,0.169533,0.323411,0.0255768,0.185308,0.491995,0.260567,0.0365533
108520845,0.0971353,0.858969,-2.31219,-0.867195,0.0102501,0.858816,2.16361,-0.203383,-0.160719,-0.09852,-0.0522034,-0.0879272,0.242472,0.140142,0.144588,0.19644,0.285178,0.0250598,0.18485,0.493554,0.260563,0.0359724
108710997,0.0960581,0.859056,-2.31261,-0.867833,0.00890359,0.858297,2.16293,-0.203383,-0.160719,-0.09852,-0.0522034,-0.0879272,0.242472,0.140142,0.144588,0.19644,0.285178,0.0250598,0.18485,0.493554,0.260563,0.0359724
108911166,0.0995326,0.858694,-2.31262,-0.86556,0.0115945,0.859451,2.16441,-0.130901,-0.151516,-0.143464,-0.116287,-0.0959805,0.10357,0.0659638,0.0495197,0.0479547,0.0752255,0.0250065,0.184436,0.493379,0.261118,0.0360608
109111322,0.0983133,0.859739,-2.31323,-0.865898,0.0103618,0.858942,2.16438,-0.00600517,-0.0661946,-0.112786,-0.117914,-0.0642329,0.0363152,0.0754778,0.0550887,0.0105431,-0.0336832,0.0251102,0.18464,0.493068,0.261028,0.0361541
109321487,0.0883687,0.85908,-2.31186,-0.86719,0.0068097,0.855486,2.1664,-0.124593,-0.0916874,-0.172323,-0.25889,-0.294147,-0.0796739,0.0596816,0.118951,0.0991258,-0.0327655,0.0254583,0.187289,0.493462,0.258063,0.0357277
109521648,0.0856762,0.853103,-2.30823,-0.864963,0.00725688,0.854907,2.16772,-0.0617775,0.0812957,0.0102158,-0.124718,-0.262942,-0.198217,-0.0260091,0.106166,0.139439,-0.0188363,0.0252798,0.188199,0.494818,0.256574,0.0351295
109711801,0.0879751,0.853122,-2.30593,-0.862677,0.00955891,0.857203,2.17,-0.0617775,0.0812957,0.0102158,-0.124718,-0.262942,-0.198217,-0.0260091,0.106166,0.139439,-0.0188363,0.0252798,0.188199,0.494818,0.256574,0.0351295
109911961,0.0801359,0.843851,-2.30414,-0.862995,0.00681447,0.851729,2.16797,-0.124057,0.0186367,-0.0510755,-0.185014,-0.323529,-0.215313,-0.0443811,0.0869294,0.120763,-0.0360087,0.024983,0.189609,0.496922,0.254298,0.0341877
110112122,0.0738321,0.835186,-2.29809,-0.860278,0.00576169,0.849531,2.16924,-0.0913481,-0.00559962,-0.100992,-0.230915,-0.318838,-0.223867,-0.0325607,0.0704198,0.0675905,-0.110242,0.0247528,0.191353,0.498943,0.251706,0.0332455
110312286,0.0683205,0.828923,-2.29595,-0.859991,0.00439864,0.846041,2.16867,-0.065527,0.00741744,-0.0784398,-0.193262,-0.269493,-0.192875,-0.0221978,0.067835,0.0640166,-0.0953351,0.0245923,0.192617,0.500368,0.249839,0.0325838
110512443,0.0667588,0.825605,-2.29397,-0.858746,0.00454504,0.845303,2.16925,-0.117778,-0.0445906,-0.0738853,-0.13441,-0.206584,-0.11346,-0.0389487,0.0260175,0.0478765,-0.021755,0.0244733,0.193117,0.501139,0.249026,0.0322446
110712607,0.0697996,0.824765,-2.29061,-0.855059,0.00730417,0.848313,2.17238,-0.156267,-0.135816,-0.127268,-0.124279,-0.142702,0.0271825,0.0135494,0.0246774,0.0397744,0.0498536,0.0244146,0.193044,0.501276,0.249074,0.0321911
110912764,0.0673372,0.824239,-2.29481,-0.858087,0.00414014,0.844623,2.16859,-0.172508,-0.171472,-0.157879,-0.140393,-0.139782,0.0664811,0.0359826,0.0312664,0.039779,0.0647888,0.0243488,0.192724,0.501267,0.249445,0.0322141
111112925,0.0631064,0.823576,-2.29699,-0.860686,0.000985382,0.841469,2.16644,-0.0956034,-0.0475422,-0.0574253,-0.0871353,-0.133728,0.00790731,0.03945,0.0779884,0.0968998,0.0668246,0.0243611,0.19316,0.501476,0.248913,0.0320901
111313086,0.0541962,0.817233,-2.29292,-0.860267,-0.00111188,0.837806,2.16817,-0.0996913,-0.00850797,-0.0547251,-0.142572,-0.23447,-0.0846494,0.0302785,0.115165,0.137146,0.0318962,0.0243262,0.195641,0.5031,0.245704,0.0312291
111513247,0.0549197,0.817254,-2.2922,-0.859543,-0.000389229,0.838532,2.16889,-0.0996913,-0.00850797,-0.0547251,-0.142572,-0.23447,-0.0846494,0.0302785,0.115165,0.137146,0.0318962,0.0243262,0.195641,0.5031,0.245704,0.0312291
111713409,0.0459373,0.812687,-2.29306,-0.86284,-0.00564739,0.832496,2.16556,-0.0598849,-0.0136114,-0.0979935,-0.200761,-0.253616,-0.162987,-0.00155615,0.0694408,0.0544164,-0.0970854,0.0242598,0.197009,0.504161,0.243874,0.0306962
111913575,0.0397127,0.811574,-2.29527,-0.866323,-0.00987877,0.828234,2.16284,-0.0126036,-0.00911415,-0.0827062,-0.153509,-0.164401,-0.0867412,0.0372833,0.0737365,0.0443476,-0.0747176,0.0243117,0.197838,0.504435,0.242909,0.0305062
112113729,0.0361058,0.812474,-2.29468,-0.867292,-0.0118038,0.827584,2.16376,-0.0566412,-0.098785,-0.158293,-0.192209,-0.157439,-0.0363992,0.0428205,0.0410805,-0.00276713,-0.0824261,0.0244805,0.198764,0.504297,0.242012,0.0304468
112313889,0.0356827,0.812754,-2.29346,-0.866501,-0.011233,0.828317,2.16536,0.13333,-0.0119005,-0.108807,-0.127252,0.00399882,0.0312102,0.128789,0.0722354,-0.0349045,-0.138046,0.0246241,0.199306,0.503999,0.241588,0.0304832
112514050,0.0376185,0.81273,-2.29222,-0.865005,-0.00903339,0.829683,2.16691,0.13333,-0.0119005,-0.108807,-0.127252,0.00399882,0.0312102,0.128789,0.0722354,-0.0349045,-0.138046,0.0246241,0.199306,0.503999,0.241588,0.0304832
112714211,0.0437908,0.806465,-2.28731,-0.858774,-0.00409571,0.832646,2.16825,0.259791,0.0861359,-0.0525299,-0.0979412,0.0564408,-2.86475e-05,0.15739,0.100202,-0.0381649,-0.19955,0.024242,0.198464,0.504938,0.242117,0.0302393
112914372,0.0458264,0.799959,-2.28357,-0.854864,-0.00183894,0.833167,2.16835,0.247728,0.0718868,-0.0847102,-0.147296,0.00633079,-0.0418416,0.146544,0.0963278,-0.0505712,-0.241434,0.0239324,0.198258,0.505978,0.241942,0.029889
113114533,0.0455668,0.79415,-2.27889,-0.851432,-0.000296924,0.833342,2.16947,0.200681,0.0308865,-0.087614,-0.116207,0.0352504,-0.0473233,0.0780866,0.0148796,-0.112456,-0.243882,0.0237194,0.198763,0.507076,0.240999,0.0294423
113314693,0.0418364,0.78917,-2.27932,-0.852483,-0.00364675,0.829537,2.16568,0.187656,0.00162154,-0.063403,-0.0312425,0.142414,0.0694452,0.0942627,-0.00462727,-0.116115,-0.154321,0.023487,0.198805,0.507986,0.240608,0.0291144
113514854,0.041399,0.785985,-2.28257,-0.854264,-0.00512497,0.826037,2.16096,0.160005,-0.0249414,-0.0902569,-0.0593755,0.11311,0.132102,0.158136,0.0603177,-0.0507851,-0.0904848,0.0232682,0.198065,0.508384,0.241233,0.0290504
113715015,0.0460277,0.780536,-2.27961,-0.849753,-0.00259572,0.827719,2.16055,0.0944222,0.036005,-0.0433952,-0.0910824,-0.0447703,-0.0441265,0.0657956,0.0623259,0.00265256,-0.106462,0.0228978,0.196999,0.509189,0.242035,0.0288791
113915192,0.0437663,0.778661,-2.27954,-0.85037,-0.00387733,0.826224,2.15971,-0.0619094,0.0599098,0.0408356,-0.03787,-0.159151,-0.108893,-0.0217014,0.0715452,0.119067,0.0454324,0.0228501,0.197347,0.509588,0.241509,0.0287057
114115337,0.0378443,0.766585,-2.27562,-0.84884,-0.0062892,0.821014,2.15651,-0.23344,-0.00390023,-0.00498074,-0.120186,-0.34434,-0.192548,-0.0869868,0.0723861,0.176322,0.0940395,0.0223299,0.19823,0.512172,0.239548,0.0277201
114315497,0.0344705,0.766564,-2.27986,-0.852849,-0.00930454,0.816907,2.1526,-0.23344,-0.00390023,-0.00498074,-0.120186,-0.34434,-0.192548,-0.0869868,0.0723861,0.176322,0.0940395,0.0223299,0.19823,0.512172,0.239548,0.0277201
114515658,0.0284946,0.752673,-2.27529,-0.850612,-0.012511,0.811335,2.14842,-0.230669,0.0024423,-0.0112414,-0.140542,-0.371348,-0.240866,-0.110356,0.0571083,0.157687,0.0535948,0.0216826,0.198842,0.515136,0.237688,0.0266513
114715819,0.0189845,0.738741,-2.27077,-0.850077,-0.0160697,0.803623,2.14463,-0.204041,-0.00144124,-0.0540599,-0.206852,-0.415452,-0.2515,-0.0650147,0.0994514,0.170371,0.0122937,0.0211679,0.20064,0.518237,0.234517,0.025438
114915980,0.0138109,0.721757,-2.25974,-0.84342,-0.0154695,0.800237,2.14498,-0.0740883,0.0265182,-0.0366995,-0.14996,-0.262852,-0.209957,-0.0501549,0.0495093,0.0707762,-0.0710168,0.02049,0.202397,0.521986,0.231079,0.024048
115116148,0.0134976,0.721228,-2.25949,-0.843294,-0.0155842,0.799986,2.14487,-0.113922,-0.09192,-0.086486,-0.0906916,-0.111586,0.0433595,0.0425585,0.0551856,0.0679457,0.0703519,0.0204654,0.202463,0.522114,0.230958,0.0239992
115316302,0.00997186,0.721247,-2.26301,-0.846818,-0.0191097,0.796458,2.14135,-0.113922,-0.09192,-0.086486,-0.0906916,-0.111586,0.0433595,0.0425585,0.0551856,0.0679457,0.0703519,0.0204654,0.202463,0.522114,0.230958,0.0239992
115516463,0.00755183,0.715121,-2.26547,-0.848572,-0.0224181,0.791153,2.13489,-0.0984474,-0.146805,-0.0457096,0.0828305,0.151972,0.240268,0.0336869,-0.0482122,-0.0297084,0.160619,0.020087,0.201681,0.523286,0.231243,0.0237039
115716624,0.00404147,0.697451,-2.26511,-0.847384,-0.0274335,0.781636,2.12303,-0.0996842,-0.186608,-0.041136,0.151794,0.26965,0.418261,0.112728,-0.0170479,0.00105955,0.280478,0.0190378,0.200046,0.526926,0.231268,0.0227213
115916785,0.00254457,0.675787,-2.26141,-0.842922,-0.0297339,0.772061,2.11093,-0.0551925,-0.14427,-0.00978899,0.172806,0.293513,0.489286,0.200593,0.0746428,0.0863885,0.347717,0.0177569,0.198182,0.531666,0.230948,0.0214476
116116945,-0.0155337,0.658017,-2.26012,-0.847408,-0.0413098,0.755869,2.09904,-0.266253,0.00844073,0.0965242,0.0567663,-0.197694,0.0120224,-0.0165223,0.125832,0.285571,0.352083,0.0170765,0.200267,0.535907,0.226738,0.020011
116317106,-0.0334221,0.630457,-2.2497,-0.845438,-0.0502935,0.739404,2.08837,-0.470762,-0.0294569,0.0599806,-0.0577082,-0.483358,-0.175717,-0.122964,0.130915,0.368607,0.385688,0.0160002,0.203068,0.542401,0.220592,0.017939
116517273,-0.0371134,0.599567,-2.22793,-0.830705,-0.0464378,0.732334,2.08578,-0.495789,-0.0306668,0.044451,-0.0965669,-0.555424,-0.265169,-0.170186,0.105029,0.349444,0.339111,0.0146578,0.204758,0.549813,0.214932,0.0158401
116717428,-0.0242957,0.5996,-2.21396,-0.816973,-0.0341161,0.746166,2.09924,-0.495789,-0.0306668,0.044451,-0.0965669,-0.555424,-0.265169,-0.170186,0.105029,0.349444,0.339111,0.0146578,0.204758,0.549813,0.214932,0.0158401
116917591,-0.0382756,0.551509,-2.18655,-0.800837,-0.0374315,0.724442,2.08424,-0.401082,-0.0896798,-0.105729,-0.266672,-0.606166,-0.342185,-0.146657,0.0695489,0.212741,0.0932994,0.0124913,0.206931,0.562173,0.205704,0.0127003
117117772,-0.0380243,0.551525,-2.1863,-0.800615,-0.0371637,0.724658,2.08446,-0.401082,-0.0896798,-0.105729,-0.266672,-0.606166,-0.342185,-0.146657,0.0695489,0.212741,0.0932994,0.0124913,0.206931,0.562173,0.205704,0.0127003
117317911,-0.0487858,0.526644,-2.16199,-0.787846,-0.038213,0.717574,2.08587,-0.0673036,0.0726095,-0.0401807,-0.228956,-0.437841,-0.395073,-0.0964799,0.0587857,0.0942403,-0.158586,0.0116772,0.211338,0.568375,0.197585,0.0110256
117518072,-0.0429481,0.526662,-2.15615,-0.781998,-0.032379,0.723417,2.09171,-0.0673036,0.0726095,-0.0401807,-0.228956,-0.437841,-0.395073,-0.0964799,0.0587857,0.0942403,-0.158586,0.0116772,0.211338,0.568375,0.197585,0.0110256
117718249,-0.0498232,0.506567,-2.14272,-0.775189,-0.0333773,0.713074,2.08576,0.109337,0.1149,-0.0385035,-0.213125,-0.302719,-0.315123,-0.00577751,0.0845845,0.0465809,-0.250286,0.0108958,0.213157,0.573481,0.192603,0.00986303
117918394,-0.0548595,0.498592,-2.13861,-0.773638,-0.0371935,0.707992,2.08158,0.0896229,0.116807,-0.0286906,-0.204865,-0.3173,-0.312692,-0.00522417,0.095557,0.0712724,-0.21768,0.0105845,0.21372,0.575493,0.190768,0.00943535
118118554,-0.0555253,0.488762,-2.13242,-0.769087,-0.0372091,0.703467,2.07691,0.0627073,0.114602,-0.0163158,-0.187653,-0.322309,-0.381431,-0.0876422,0.0216281,0.0141504,-0.254311,0.0101074,0.213339,0.578249,0.189359,0.00894519
118318715,-0.0658425,0.479768,-2.1356,-0.774521,-0.0455028,0.689424,2.06428,0.069197,0.0900987,-0.0452644,-0.208258,-0.313892,-0.358805,-0.0718022,0.0201004,-0.00253773,-0.27258,0.00970676,0.21355,0.580789,0.187484,0.0084695
118518876,-0.0753113,0.472434,-2.13452,-0.776874,-0.0533663,0.680267,2.05646,0.0208153,0.0651137,-0.0568206,-0.215411,-0.342594,-0.315143,-0.0401132,0.0599053,0.0531227,-0.197767,0.00943434,0.214402,0.582754,0.185342,0.00806714
118719037,-0.0754761,0.46934,-2.1365,-0.777774,-0.0538545,0.676433,2.05198,0.00677073,0.103924,0.0500926,-0.0539387,-0.200197,-0.259907,-0.0924536,0.00269105,0.0386835,-0.0919323,0.00924021,0.213538,0.583745,0.185524,0.00795256
118919198,-0.0779729,0.46651,-2.1346,-0.77741,-0.0552443,0.673901,2.05061,-0.10359,-0.0337768,-0.0767691,-0.156168,-0.264331,-0.179184,-0.0498118,0.0209807,0.0460414,-0.056101,0.00913695,0.214051,0.584558,0.184473,0.00778051
119119359,-0.0792005,0.465751,-2.1343,-0.777703,-0.0559495,0.673064,2.05029,-0.016218,0.0384226,0.00108111,-0.0652858,-0.152883,-0.0993915,0.00978727,0.0674209,0.0864614,-0.00100207,0.00912248,0.214351,0.584736,0.184059,0.00773165
119319519,-0.0763936,0.465688,-2.13003,-0.773724,-0.0537236,0.677029,2.05365,-0.016218,0.0384226,0.00108111,-0.0652858,-0.152883,-0.0993915,0.00978727,0.0674209,0.0864614,-0.00100207,0.00912248,0.214351,0.584736,0.184059,0.00773165
119519680,-0.0745924,0.463845,-2.1277,-0.771646,-0.0510006,0.677031,2.05465,-0.104917,-0.0443765,-0.0690398,-0.123429,-0.209486,-0.160924,-0.0743955,-0.0203623,0.00445975,-0.059347,0.00903151,0.214405,0.58534,0.183598,0.00762616
119719841,-0.0805534,0.46213,-2.12864,-0.774223,-0.0565631,0.672817,2.05089,-0.110049,-0.0461956,-0.0562009,-0.0951619,-0.175495,-0.0625899,-0.00423971,0.0432975,0.073067,0.0375931,0.00898821,0.214975,0.585779,0.182741,0.00751679
119920002,-0.0821442,0.462144,-2.13021,-0.775816,-0.0581496,0.67121,2.04926,-0.110049,-0.0461956,-0.0562009,-0.0951619,-0.175495,-0.0625899,-0.00423971,0.0432975,0.073067,0.0375931,0.00898821,0.214975,0.585779,0.182741,0.00751679
120110161,-0.0834267,0.460354,-2.13139,-0.777125,-0.0585733,0.668188,2.04716,-0.0840851,0.0258277,0.00859183,-0.0589537,-0.19748,-0.153889,-0.0532329,0.0286957,0.0796198,0.0186183,0.00890253,0.214988,0.586344,0.182343,0.00742257
120310317,-0.0852919,0.457745,-2.12706,-0.774923,-0.0598852,0.667727,2.04714,-0.118088,-0.036402,-0.070013,-0.144245,-0.261605,-0.148443,-0.0303015,0.0429421,0.0763373,-0.0104672,0.00882178,0.215592,0.587038,0.181277,0.0072706
120520484,-0.0835684,0.456203,-2.12446,-0.772862,-0.0568449,0.66833,2.0492,0.0310305,-0.004511,-0.0446395,-0.075506,-0.0622261,-0.0532517,0.00923125,0.0100003,-0.0158879,-0.0879629,0.00877134,0.215944,0.58746,0.180645,0.00717994
120720646,-0.0879841,0.455902,-2.1284,-0.777013,-0.0611744,0.66384,2.04477,0.0340164,-0.0261121,-0.0246038,0.00374526,0.0745625,0.0561589,0.0172372,-0.0229484,-0.0520562,-0.0348484,0.00876261,0.215982,0.587527,0.180562,0.00716644
120920806,-0.0876518,0.454479,-2.12725,-0.776137,-0.060985,0.663218,2.04376,0.0411765,-0.0383207,-0.0151535,0.046873,0.15532,0.15767,0.0620405,-0.00375234,-0.0378293,0.0274238,0.00868851,0.215758,0.587962,0.180481,0.00711013
121110959,-0.0860132,0.454497,-2.12561,-0.774503,-0.0593441,0.664851,2.04539,0.0411765,-0.0383207,-0.0151535,0.046873,0.15532,0.15767,0.0620405,-0.00375234,-0.0378293,0.0274238,0.00868851,0.215758,0.587962,0.180481,0.00711013
121311120,-0.0794434,0.453914,-2.11875,-0.767304,-0.0541306,0.671604,2.05054,0.0236322,-0.0885921,-0.0937672,-0.0506052,0.0761014,0.152845,0.0967358,0.0266039,-0.0298148,-0.0137323,0.00864741,0.215237,0.588098,0.180898,0.00712041
121511282,-0.0793202,0.454064,-2.11828,-0.767003,-0.0538997,0.67209,2.0511,-0.00268251,-0.00745511,-0.0276755,-0.0488763,-0.0575667,0.025976,0.06535,0.0743109,0.0679154,0.0284015,0.00866334,0.215359,0.588024,0.180828,0.00712483
121711446,-0.0772639,0.454387,-2.11985,-0.767376,-0.0516259,0.67246,2.05187,0.0450357,0.139618,0.124567,0.0661579,-0.0542,-0.123328,-0.0355772,0.0350539,0.0789584,0.0263599,0.00866082,0.215037,0.587955,0.181191,0.00715633
121911605,-0.0794118,0.452443,-2.1185,-0.76739,-0.0529075,0.670379,2.05064,-0.09914,-0.0359011,-0.0699013,-0.136766,-0.233925,-0.143657,-0.0350803,0.0264576,0.0506971,-0.0323923,0.00859498,0.215473,0.588512,0.18038,0.0070398
122121771,-0.0780548,0.451781,-2.11724,-0.766036,-0.0517502,0.671179,2.05108,0.0408789,-0.0112773,-0.0149593,0.00359923,0.0616094,0.0686374,0.0452451,0.0134071,-0.0129859,-0.00823566,0.00856031,0.21528,0.588693,0.180444,0.00702286
122311924,-0.0729063,0.451612,-2.11005,-0.759212,-0.0473815,0.677765,2.05671,0.0408789,-0.0112773,-0.0149593,0.00359923,0.0616094,0.0686374,0.0452451,0.0134071,-0.0129859,-0.00823566,0.00856031,0.21528,0.588693,0.180444,0.00702286
122512085,-0.0694143,0.451058,-2.10511,-0.754914,-0.0434281,0.68162,2.06109,0.0163577,-0.0605987,-0.0348004,0.0289337,0.136672,0.0865424,-0.0133104,-0.0790268,-0.111457,-0.0417466,0.00856042,0.215577,0.588767,0.180103,0.00699217
122712245,-0.0665851,0.448872,-2.10332,-0.752355,-0.0418322,0.681733,2.05942,0.10398,0.00395447,0.010022,0.0607333,0.181416,0.240104,0.16768,0.098772,0.050668,0.0862263,0.00839906,0.21451,0.589585,0.180578,0.00692791
122912406,-0.0679281,0.44773,-2.10539,-0.75394,-0.0438505,0.678979,2.0557,0.138207,0.0129167,-0.0218602,-0.00811183,0.112575,0.11399,0.112038,0.0513799,-0.0177686,-0.0587129,0.00832031,0.213939,0.589974,0.180865,0.00690103
123112567,-0.0692973,0.446402,-2.10773,-0.75566,-0.0460373,0.675896,2.05145,0.187017,0.0624087,0.00348258,-0.0113769,0.0909433,0.058334,0.10752,0.0619145,-0.0118895,-0.101622,0.00822705,0.213244,0.590432,0.181227,0.00687074
123312731,-0.0665907,0.445836,-2.10785,-0.75436,-0.0446638,0.676645,2.05051,0.203674,0.165564,0.108428,0.0582697,0.0611782,-0.0440546,0.0532027,0.0627934,0.0322091,-0.0737546,0.00815097,0.212252,0.590686,0.182021,0.00688945
123512888,-0.0657383,0.445328,-2.10873,-0.754994,-0.0430393,0.675614,2.05032,0.0301973,0.0621746,0.0211115,-0.0403903,-0.107139,-0.114303,-0.00892545,0.0364527,0.0438029,-0.0456127,0.00811878,0.212165,0.590886,0.181967,0.00686313
123713049,-0.0694681,0.444742,-2.1127,-0.758779,-0.0469935,0.671384,2.04577,0.036766,0.0949785,0.0574098,-0.0112959,-0.105986,-0.124656,-0.0109168,0.049385,0.0704168,-0.0178747,0.0080889,0.211966,0.591038,0.182055,0.00685076
123913210,-0.0673951,0.444657,-2.11081,-0.75679,-0.0450109,0.673331,2.04758,0.0259874,0.0588302,0.0399126,0.00385922,-0.0479231,-0.0622942,-0.00288753,0.029742,0.0421334,-0.00311299,0.00808326,0.2119,0.591059,0.182106,0.00685143
124113370,-0.0705884,0.444516,-2.11361,-0.759764,-0.0480946,0.670196,2.04455,-0.0248868,0.000620365,0.0255646,0.0437918,0.0323681,0.0365194,-0.00067856,0.00083301,0.0187159,0.0628761,0.00807998,0.211963,0.591101,0.182015,0.0068413
124313531,-0.077118,0.443796,-2.11881,-0.765513,-0.0543181,0.663679,2.03829,-0.0390924,-0.0127122,0.0353416,0.0801384,0.0845081,0.0934523,0.00817791,-0.00363877,0.0194631,0.109688,0.0080567,0.212114,0.591308,0.18172,0.00680005
124513692,-0.0834905,0.442036,-2.12109,-0.768913,-0.0611335,0.658333,2.03216,-0.0466977,-0.0292242,0.0315094,0.0949557,0.118997,0.156897,0.0395808,0.0143288,0.0356132,0.153298,0.00798981,0.212199,0.591808,0.181285,0.00671756
124713852,-0.0804288,0.440852,-2.11722,-0.765284,-0.0581808,0.660569,2.03406,0.0325741,-0.00152749,0.0252594,0.0712467,0.130524,0.163453,0.0866191,0.048333,0.0370798,0.0983105,0.00792446,0.212003,0.592222,0.181186,0.00666523
124914024,-0.0755128,0.440643,-2.11219,-0.76028,-0.0533169,0.665297,2.03867,0.0138853,0.00851566,0.0171713,0.0296608,0.0422935,0.105923,0.0844667,0.0757343,0.0749376,0.0934449,0.00791029,0.211944,0.592308,0.181182,0.00665546
125114174,-0.0745549,0.440863,-2.11062,-0.759055,-0.0519964,0.666929,2.04076,0.00937068,0.0845501,0.0859703,0.0555296,-0.0307396,-0.0210649,0.0210164,0.0688317,0.106332,0.0925947,0.00794144,0.21224,0.592167,0.180992,0.00666012
125314335,-0.0730831,0.441073,-2.11007,-0.758121,-0.0507689,0.668322,2.0419,0.0386335,0.12228,0.113138,0.0666882,-0.0372688,-0.0916248,-0.0221814,0.0375269,0.0770704,0.0402094,0.00795225,0.212105,0.592051,0.181206,0.00668572
125514495,-0.0737261,0.44055,-2.11077,-0.758745,-0.0515782,0.66719,2.04048,0.0500649,0.0711288,0.0304818,-0.0259788,-0.0804202,-0.101695,-0.00337101,0.0347945,0.0369659,-0.0492377,0.00792374,0.211939,0.592207,0.181259,0.0066712
125714658,-0.0718882,0.4392,-2.10864,-0.756585,-0.0500159,0.668032,2.04082,0.0523111,0.0941549,0.037683,-0.0461533,-0.136464,-0.162562,-0.0183912,0.0427923,0.0520026,-0.0704886,0.00785519,0.21163,0.59261,0.181278,0.00662676
125914817,-0.0715323,0.436703,-2.10808,-0.755866,-0.0501753,0.666705,2.0386,0.0183362,0.165482,0.112079,-0.0131263,-0.223639,-0.246608,-0.0456971,0.0818102,0.143673,0.00435807,0.0077451,0.211081,0.593244,0.181369,0.00656022
126114977,-0.0746077,0.431616,-2.11242,-0.758948,-0.0552612,0.658677,2.02755,-0.0551683,0.158965,0.123587,-0.00892967,-0.284023,-0.352286,-0.149078,0.0107682,0.109353,-0.00793681,0.0074569,0.209207,0.594837,0.182076,0.0064237
126315138,-0.0766951,0.427058,-2.11653,-0.761984,-0.0579502,0.651162,2.01897,-0.0776063,0.116753,0.0849711,-0.0342888,-0.283809,-0.32424,-0.140152,0.00433101,0.093764,-0.0106307,0.00719929,0.207786,0.596377,0.182367,0.00627097
126515299,-0.0814303,0.423258,-2.11765,-0.764306,-0.06239,0.644781,2.01244,-0.0910307,0.0582007,0.0216005,-0.0838087,-0.285088,-0.247371,-0.0796933,0.0383918,0.104688,0.00101407,0.00703895,0.207618,0.597568,0.181671,0.00610496
126715459,-0.0846898,0.421757,-2.12156,-0.767684,-0.06639,0.639804,2.00638,-0.017708,0.0814409,0.0565839,-0.0139853,-0.148689,-0.203511,-0.0905621,-0.0118084,0.0322921,-0.0374422,0.00694745,0.206935,0.598086,0.181967,0.00606563
126915620,-0.0926367,0.422044,-2.1292,-0.775542,-0.0740884,0.632393,1.99931,0.0281496,0.0894746,0.107255,0.102488,0.0453658,-0.0123951,-0.0134134,0.0150467,0.0485899,0.0721228,0.00697312,0.207153,0.597949,0.181851,0.00607419
127115781,-0.092922,0.41996,-2.12457,-0.772482,-0.0746524,0.632981,1.99896,-0.0691103,-0.0431423,0.0332807,0.111898,0.142067,0.16306,0.0153219,-0.0145937,0.0126736,0.160836,0.00690381,0.207296,0.598536,0.181282,0.00598196
127315945,-0.0924021,0.417987,-2.12123,-0.770261,-0.0736011,0.633126,1.99943,-0.0564234,-0.0622093,0.0188622,0.11632,0.187603,0.171441,-0.00569236,-0.0589333,-0.0465896,0.117434,0.00683825,0.207488,0.599109,0.180675,0.00589003
127516102,-0.0889541,0.415424,-2.11475,-0.764882,-0.0699048,0.635328,2.00142,0.063349,0.039546,0.0488238,0.069665,0.104997,0.114986,0.0805784,0.059586,0.0495808,0.0728987,0.00671932,0.207375,0.600032,0.180108,0.00576584
127716269,-0.0844044,0.415441,-2.1102,-0.760319,-0.0653598,0.639883,2.00598,0.063349,0.039546,0.0488238,0.069665,0.104997,0.114986,0.0805784,0.059586,0.0495808,0.0728987,0.00671932,0.207375,0.600032,0.180108,0.00576584
127916424,-0.0788652,0.41572,-2.10637,-0.755714,-0.0604091,0.644931,2.01036,0.132643,0.137167,0.10679,0.0692197,0.0392554,-0.014348,0.053756,0.0752653,0.0720316,0.00994053,0.00671655,0.206992,0.599943,0.180551,0.00579779
128116588,-0.0723425,0.414488,-2.10497,-0.751664,-0.0564216,0.647628,2.00975,0.2384,0.237297,0.169462,0.0902643,0.0365469,-0.174143,-0.0289548,0.0118941,-0.000956669,-0.1373,0.00657941,0.205029,0.600477,0.182094,0.00582143
128316745,-0.0711976,0.412626,-2.10434,-0.750533,-0.0560399,0.646902,2.00783,0.0562994,0.135501,0.0756558,-0.027215,-0.167786,-0.219001,-0.04221,0.0449488,0.0729393,-0.0620819,0.00648117,0.204297,0.601063,0.182383,0.00577507
128516906,-0.0653268,0.409254,-2.09922,-0.744669,-0.0513257,0.649972,2.00909,-0.024512,0.204859,0.170798,0.0362687,-0.257764,-0.313897,-0.101453,0.0657216,0.172042,0.0610115,0.00633496,0.203191,0.601945,0.182824,0.00570562
128717068,-0.0589778,0.398905,-2.09286,-0.736784,-0.0482854,0.6467,2.00007,-0.244716,0.130129,0.144961,0.00832057,-0.414094,-0.456558,-0.261276,-0.0316201,0.154575,0.115913,0.00581541,0.19966,0.605386,0.183736,0.00540299
128917227,-0.053815,0.384021,-2.08322,-0.727111,-0.0460655,0.640111,1.9872,-0.361795,0.135848,0.185529,0.0423865,-0.491196,-0.498277,-0.303653,-0.019316,0.23183,0.24749,0.00515996,0.19576,0.610319,0.183827,0.00493353
129117402,-0.0571123,0.36606,-2.06932,-0.718661,-0.0487428,0.626617,1.97073,-0.436515,0.062658,0.097249,-0.0600278,-0.606888,-0.481672,-0.251808,0.0399704,0.28799,0.282534,0.00447842,0.193811,0.616767,0.180702,0.00424095
129317559,-0.0540188,0.35231,-2.05824,-0.709608,-0.0460532,0.617525,1.95826,-0.418348,-0.000629306,0.0251982,-0.106281,-0.56909,-0.46365,-0.260827,-0.0170188,0.189903,0.188007,0.00391147,0.1908,0.622302,0.17924,0.00374694
129517709,-0.0462933,0.344162,-2.04107,-0.695493,-0.0378037,0.620192,1.95983,-0.369522,-0.0289382,0.00953579,-0.0738561,-0.433434,-0.29043,-0.163021,0.0226294,0.192784,0.233496,0.00362267,0.189917,0.625601,0.177416,0.00344284
129717873,-0.034446,0.33942,-2.02865,-0.682363,-0.0275815,0.626799,1.96343,-0.372404,-0.067088,0.0315692,0.0349845,-0.219082,-0.162936,-0.195414,-0.0714363,0.0876376,0.257908,0.00342349,0.1879,0.627544,0.177815,0.00331768
129918031,-0.033997,0.334919,-2.02549,-0.679635,-0.0280247,0.622989,1.9575,-0.382856,-0.12617,0.000146627,0.0558523,-0.108529,0.0127986,-0.115753,-0.0404465,0.0968831,0.330052,0.00325081,0.186478,0.62942,0.177668,0.00318356
130118192,-0.0414537,0.328236,-2.02136,-0.679125,-0.0357597,0.612754,1.94515,-0.256187,-0.0922841,-0.00482643,0.040433,-0.0538472,0.0756539,-0.0236656,0.0187662,0.106028,0.27167,0.003039,0.185801,0.632209,0.175999,0.00295135
130318353,-0.0466342,0.326104,-2.02293,-0.682043,-0.040503,0.606558,1.93909,-0.242692,-0.0490334,0.0156211,0.0229187,-0.131881,-0.0215707,-0.0482954,0.0269298,0.126448,0.244097,0.00297636,0.185791,0.633127,0.175233,0.00287188
130518513,-0.0479619,0.324611,-2.02109,-0.681564,-0.041172,0.605125,1.93828,-0.174985,0.0290186,0.0791966,0.0655774,-0.117966,-0.0785387,-0.0643891,0.0264405,0.129683,0.217712,0.00294526,0.186091,0.633693,0.174456,0.00281579
130718680,-0.0413827,0.323908,-2.01417,-0.67555,-0.0330379,0.610667,1.94611,-0.116204,0.0120678,0.0141766,-0.0295445,-0.17922,-0.0864968,-0.00822635,0.0681429,0.130776,0.126554,0.00292912,0.186538,0.634076,0.173686,0.0027713
130918835,-0.0428875,0.323438,-2.01512,-0.676667,-0.0344739,0.608914,1.94434,-0.0200309,0.0453047,0.023569,-0.0259284,-0.128895,-0.119149,-0.0255422,0.0283008,0.0585207,0.010136,0.00291547,0.18651,0.634271,0.173548,0.00275573
131118995,-0.0474302,0.323457,-2.01966,-0.6812,-0.0390199,0.604377,1.9398,-0.0200309,0.0453047,0.023569,-0.0259284,-0.128895,-0.119149,-0.0255422,0.0283008,0.0585207,0.010136,0.00291547,0.18651,0.634271,0.173548,0.00275573
131319156,-0.0510691,0.321337,-2.02232,-0.68398,-0.0431343,0.598506,1.93232,0.195789,0.124693,0.0390934,-0.0377547,-0.0536357,-0.108254,0.0471602,0.0603373,0.0193973,-0.149961,0.00284013,0.185748,0.635164,0.173546,0.00270205
131519318,-0.0579007,0.31981,-2.02299,-0.686598,-0.04987,0.592973,1.92607,0.062672,0.0161141,-0.0639449,-0.14309,-0.182109,-0.153479,0.00516564,0.0296649,0.00120616,-0.158512,0.00281842,0.186242,0.635652,0.172638,0.00264933
131719477,-0.056884,0.319406,-2.02225,-0.685689,-0.0490117,0.593714,1.92652,0.0407567,0.131073,0.0966997,0.0228087,-0.125763,-0.14694,-0.00635368,0.071172,0.112858,0.0370332,0.00280962,0.186082,0.635735,0.172726,0.00264668
131919637,-0.0479176,0.318607,-2.01941,-0.680461,-0.040955,0.598695,1.93031,-0.0322794,0.123986,0.118096,0.054639,-0.138684,-0.284065,-0.167654,-0.068965,0.0068554,-0.0151118,0.00274635,0.184515,0.636223,0.173868,0.00264785
132119798,-0.0476376,0.317403,-2.01831,-0.679507,-0.0408876,0.597709,1.9286,-0.0811998,0.027328,0.0113465,-0.0467687,-0.194721,-0.198171,-0.0893235,-0.0131012,0.0385656,-0.000402361,0.0027029,0.184109,0.636778,0.173797,0.00261342
132319959,-0.0477216,0.316693,-2.01717,-0.678842,-0.0407891,0.597286,1.92819,-0.0242846,0.037026,0.00472867,-0.0559536,-0.167427,-0.144596,-0.027815,0.030593,0.058205,-0.0109193,0.00268408,0.184125,0.637082,0.17352,0.00258862
132520123,-0.0480666,0.316547,-2.01754,-0.679156,-0.0412041,0.596692,1.92743,-0.0130446,0.0189446,0.00881016,-0.0145714,-0.0646236,-0.086522,-0.041688,-0.0157743,-0.000898689,-0.023,0.00267731,0.184032,0.63716,0.173546,0.00258478
132710276,-0.0478285,0.316583,-2.01701,-0.678814,-0.0408402,0.597106,1.92798,0.0263344,0.0312774,0.0455592,0.0613762,0.0729454,-0.00914072,-0.0402505,-0.0469668,-0.0436236,-0.0142691,0.00268058,0.184136,0.637143,0.173457,0.00258359
132910433,-0.0457853,0.316225,-2.01178,-0.674216,-0.0394408,0.600527,1.93008,0.0291556,-0.00802767,-0.00231302,0.0183316,0.0697299,0.0177455,-0.0206687,-0.0472043,-0.0649128,-0.0505214,0.00268166,0.184255,0.637164,0.17332,0.00257892
133110593,-0.0426519,0.316244,-2.00864,-0.671075,-0.0363103,0.603665,1.93322,0.0291556,-0.00802767,-0.00231302,0.0183316,0.0697299,0.0177455,-0.0206687,-0.0472043,-0.0649128,-0.0505214,0.00268166,0.184255,0.637164,0.17332,0.00257892
133320794,-0.0410778,0.316043,-2.00756,-0.669707,-0.0350431,0.604719,1.93374,0.0985183,0.015038,-0.012484,-0.0152858,0.0511894,0.0785099,0.0887875,0.056324,0.0138987,-0.0367939,0.00267023,0.183974,0.637257,0.17352,0.00257864
133520923,-0.031856,0.315228,-2.00053,-0.662411,-0.0254392,0.611105,1.94035,0.244509,0.129241,0.0824513,0.0678149,0.148811,0.00778814,0.0430843,0.00421079,-0.0549184,-0.143076,0.00262287,0.183378,0.637829,0.173622,0.00254829
133711075,-0.0284548,0.313297,-1.99604,-0.658123,-0.022655,0.612042,1.93942,0.300816,0.136571,0.064977,0.037879,0.146731,-0.00123309,0.0610834,0.00919683,-0.075205,-0.211383,0.00254753,0.182481,0.638775,0.1737,0.00249635
133911238,-0.0258299,0.31055,-1.99303,-0.65478,-0.0213397,0.610668,1.93483,0.369911,0.166496,0.0736784,0.0346916,0.163316,0.0144838,0.10199,0.040851,-0.0635769,-0.241478,0.00243704,0.180857,0.640106,0.174166,0.00243276
134111396,-0.0224726,0.307791,-1.98752,-0.649853,-0.0185738,0.610946,1.9329,0.337583,0.107494,0.0165701,-0.0111319,0.149824,0.0403785,0.106298,0.0282703,-0.0884167,-0.262123,0.00234408,0.179826,0.64139,0.17408,0.00236028
134311557,-0.0263327,0.301492,-1.98122,-0.647522,-0.022096,0.60159,1.92051,0.318944,0.125656,0.0978436,0.132309,0.327053,0.141106,0.0792933,-0.0181392,-0.113023,-0.162502,0.00215279,0.178736,0.644547,0.172407,0.00215776
134521733,-0.0400429,0.298787,-1.98468,-0.65583,-0.0334376,0.588277,1.90903,0.238293,0.0917643,0.118989,0.203424,0.413782,0.168141,0.00329836,-0.103159,-0.173088,-0.113136,0.0021109,0.180146,0.645819,0.169883,0.00204152
134721888,-0.0533898,0.294363,-1.9889,-0.663933,-0.0458632,0.571974,1.89162,0.120524,-0.00688452,0.0649939,0.197224,0.445584,0.387697,0.125446,-0.00031751,-0.0600215,0.0904115,0.00199913,0.180006,0.647968,0.168123,0.00190426
134912039,-0.0602723,0.294382,-1.99578,-0.670808,-0.0527497,0.565101,1.88476,0.120524,-0.00688452,0.0649939,0.197224,0.445584,0.387697,0.125446,-0.00031751,-0.0600215,0.0904115,0.00199913,0.180006,0.647968,0.168123,0.00190426
135112199,-0.0670796,0.289415,-1.98742,-0.669486,-0.0567408,0.557094,1.8781,0.139905,0.0362184,0.129076,0.27873,0.530062,0.379273,0.0795311,-0.04681,-0.0953166,0.0968426,0.00190479,0.181391,0.650306,0.164665,0.00173278
135312360,-0.0706513,0.284112,-1.97569,-0.663723,-0.0595145,0.55168,1.87064,0.156304,0.0446968,0.12533,0.263262,0.51242,0.420407,0.142721,0.0192935,-0.0347385,0.132642,0.00178891,0.181693,0.652832,0.162104,0.00158133
135512522,-0.073479,0.280624,-1.9694,-0.661548,-0.0612096,0.546655,1.86532,0.19606,0.0651841,0.11378,0.218942,0.450034,0.326228,0.112624,-0.000281107,-0.0649456,0.0358556,0.00171014,0.181931,0.654617,0.160262,0.00147961
135712681,-0.0715517,0.27874,-1.96207,-0.656636,-0.058642,0.547228,1.86577,0.229833,0.15262,0.180526,0.241675,0.378386,0.247094,0.121971,0.0557236,0.0171781,0.0747667,0.00166494,0.18206,0.655667,0.159186,0.00142232
135912842,-0.0649724,0.278936,-1.95501,-0.650981,-0.0500989,0.554013,1.87594,0.130834,0.171826,0.212024,0.248223,0.257816,0.0716225,-0.00133204,-0.00574155,0.013714,0.0974958,0.00167885,0.183088,0.655631,0.158196,0.00140615
136113003,-0.0636573,0.278524,-1.94816,-0.645845,-0.0485866,0.557835,1.87981,0.0367621,0.131333,0.17085,0.18798,0.129999,0.0637807,0.0306874,0.0588406,0.104853,0.187762,0.00169555,0.184036,0.655506,0.157367,0.00139578
136313163,-0.0609045,0.279077,-1.94741,-0.645341,-0.0444574,0.560323,1.88497,0.0721619,0.149367,0.168451,0.16601,0.0987018,0.0198598,0.0262792,0.0587561,0.0966323,0.136979,0.00171162,0.184582,0.655291,0.157018,0.00139704
136513324,-0.0599984,0.27926,-1.94483,-0.64372,-0.0427485,0.562504,1.8886,0.126063,0.181925,0.214558,0.236304,0.215846,0.00384074,-0.0391869,-0.0292563,-0.00223246,0.0661734,0.001731,0.185369,0.655068,0.156438,0.00139442
136713484,-0.0651163,0.278948,-1.9469,-0.647348,-0.0469396,0.558216,1.8856,0.105842,0.129859,0.167284,0.205936,0.232331,0.0946231,0.0168428,0.00419345,0.0153005,0.0936294,0.00173635,0.186149,0.655142,0.155597,0.00137649
136913653,-0.0699701,0.278086,-1.94704,-0.648592,-0.0523907,0.554362,1.8803,0.185303,0.162021,0.157159,0.159161,0.181126,0.0497926,0.0452613,0.0346881,0.0231353,0.0130392,0.00172435,0.186275,0.655433,0.155209,0.00135949
137113806,-0.0948076,0.278113,-1.9719,-0.673477,-0.0772125,0.529502,1.85544,0.185303,0.162021,0.157159,0.159161,0.181126,0.0497926,0.0452613,0.0346881,0.0231353,0.0130392,0.00172435,0.186275,0.655433,0.155209,0.00135949
137313966,-0.147593,0.277951,-2.02656,-0.727155,-0.130816,0.475385,1.79997,0.301917,0.266516,0.243605,0.22714,0.236942,0.0456809,0.0782441,0.0734598,0.0563142,0.00838984,0.00170639,0.185459,0.655629,0.155841,0.00136428
137514127,-0.244337,0.278046,-2.12916,-0.827382,-0.228229,0.375852,1.70001,0.286459,0.247265,0.203923,0.163168,0.146675,-0.0265091,0.0552398,0.0629734,0.0444644,-0.0461513,0.00168313,0.184219,0.655835,0.156887,0.001376
137714287,-0.398999,0.277369,-2.28675,-0.982934,-0.384702,0.218736,1.53995,0.316057,0.259119,0.203344,0.153147,0.139923,-0.0885215,0.0122159,0.018266,-0.00876128,-0.125262,0.00164309,0.182591,0.656312,0.158073,0.00138033
137914455,-0.617777,0.276354,-2.50723,-1.2027,-0.605406,-0.00340523,1.31316,0.371002,0.286155,0.226639,0.181287,0.196778,-0.0603651,0.0302356,0.0223001,-0.0183937,-0.142776,0.00159067,0.180682,0.657003,0.159346,0.00137806
138114608,-0.860001,0.275463,-2.75358,-1.44533,-0.850075,-0.24815,1.06543,0.361712,0.270368,0.205918,0.156575,0.171982,-0.0179111,0.0810033,0.072834,0.0292229,-0.105391,0.00154329,0.1787,0.657564,0.16081,0.00138285
138314769,-1.11461,0.273192,-3.00621,-1.69823,-1.10606,-0.506559,0.803133,0.422048,0.260314,0.216825,0.217213,0.350672,0.110613,0.106449,0.0413829,-0.0372091,-0.129758,0.0014671,0.177071,0.65896,0.161162,0.00133964
138514930,-1.3729,0.266505,3.03035,-1.94955,-1.36517,-0.773431,0.529791,0.55147,0.250173,0.214422,0.270612,0.586806,0.317028,0.193815,0.0406752,-0.106336,-0.18744,0.00129243,0.174711,0.662878,0.159928,0.00119133
138715092,-1.61544,0.255969,2.80229,-2.18452,-1.60868,-1.03336,0.259733,0.742167,0.339251,0.286146,0.352143,0.764887,0.424861,0.271965,0.0727208,-0.122718,-0.249122,0.00102731,0.169996,0.669512,0.158487,0.000977528
138915251,-1.83532,0.245814,2.59332,-2.39578,-1.83299,-1.27182,0.00498984,0.846972,0.443378,0.366506,0.398307,0.76655,0.397426,0.304862,0.126182,-0.0657022,-0.25298,0.000791409,0.163089,0.676013,0.159287,0.000819571
139115411,-1.95845,0.236326,2.4906,-2.50547,-1.95836,-1.41042,-0.148269,0.864499,0.525534,0.488957,0.54631,0.896843,0.437201,0.283939,0.116354,-0.0443564,-0.156181,0.000618978,0.158456,0.682279,0.157978,0.00066807
139315579,-1.98028,0.230884,2.49775,-2.51326,-1.97437,-1.43544,-0.167929,0.693808,0.525291,0.562881,0.659088,0.937883,0.286622,0.0535106,-0.0711864,-0.157312,-0.109166,0.000569046,0.161909,0.68602,0.150959,0.000542511
139515733,-2.00574,0.219721,2.56644,-2.49607,-1.97885,-1.45199,-0.155116,0.362495,0.454172,0.622409,0.812443,1.0565,0.437326,0.0228601,-0.0618554,-0.0492863,0.305467,0.000568751,0.181441,0.689968,0.12771,0.000312913
139715893,-1.96414,0.219747,2.60803,-2.45459,-1.93721,-1.4105,-0.113537,0.362495,0.454172,0.622409,0.812443,1.0565,0.437326,0.0228601,-0.0618554,-0.0492863,0.305467,0.000568751,0.181441,0.689968,0.12771,0.000312913
139916054,-1.97168,0.213683,2.66254,-2.43435,-1.93117,-1.40672,-0.0872993,0.34947,0.519804,0.707951,0.906051,1.11017,0.42701,0.0137569,-0.0471789,-0.00514078,0.416691,0.000611175,0.197366,0.68861,0.113191,0.000221844
140116221,-1.98502,0.210091,2.69793,-2.42739,-1.9316,-1.40778,-0.0629808,0.382228,0.595281,0.761951,0.923896,1.03209,0.336024,0.021642,-0.00013268,0.0649789,0.465136,0.000684595,0.213346,0.684438,0.101362,0.000169025
140316375,-2.00733,0.208555,2.71316,-2.43429,-1.94161,-1.41461,-0.0432313,0.421639,0.683042,0.829329,0.951642,0.937904,0.224091,0.0175402,0.0414988,0.138006,0.515673,0.000805313,0.229637,0.677633,0.0917847,0.000140701
140516535,-2.02238,0.209163,2.72049,-2.44122,-1.94455,-1.41258,-0.0137153,0.426328,0.725741,0.857339,0.947897,0.825887,0.0523076,-0.0682863,-0.00644505,0.118668,0.478339,0.00097893,0.245048,0.669175,0.0846676,0.000129936
140716696,-2.04435,0.209874,2.71889,-2.45307,-1.95575,-1.41373,0.00797977,0.474262,0.795227,0.916218,0.983426,0.781512,-0.0182726,-0.0795973,0.00844246,0.154062,0.49471,0.00121768,0.260733,0.659247,0.0786747,0.000127266
140916857,-2.06908,0.211076,2.70686,-2.47259,-1.9687,-1.41995,0.0262479,0.306551,0.698057,0.827227,0.879741,0.561425,-0.107563,-0.118953,0.0103719,0.200776,0.568703,0.00149677,0.275558,0.649159,0.0736589,0.000127621
141117017,-2.10379,0.212803,2.68576,-2.49965,-1.9897,-1.42992,0.0420855,0.367563,0.802046,0.948819,1.00906,0.644011,-0.194251,-0.209995,-0.0656272,0.150341,0.562283,0.0019425,0.29369,0.635831,0.0684024,0.00013378
141317178,-2.13547,0.213501,2.67192,-2.52121,-2.00673,-1.43751,0.0595696,0.216906,0.695585,0.877144,0.968557,0.591571,-0.21854,-0.285357,-0.139986,0.0986622,0.595106,0.00247945,0.313098,0.621455,0.0628325,0.000135178
141517371,-2.18005,0.211103,2.66619,-2.54623,-2.03228,-1.4568,0.0719785,0.0751174,0.607919,0.833776,0.967163,0.579767,-0.0500618,-0.182719,-0.03849,0.226881,0.835901,0.00312739,0.339892,0.602459,0.0544063,0.000114904
141717499,-2.23747,0.207587,2.65561,-2.57876,-2.06697,-1.48304,0.0807423,0.0394504,0.641002,0.91153,1.08347,0.649131,-0.107785,-0.285891,-0.132871,0.170307,0.903012,0.00412145,0.373432,0.576978,0.0453733,9.45752e-05
141917659,-2.28276,0.203088,2.65283,-2.60164,-2.09119,-1.50213,0.0930969,-0.0879135,0.565759,0.850485,1.0192,0.472198,-0.166977,-0.31414,-0.130955,0.21425,0.984547,0.00516942,0.40464,0.552147,0.0379673,7.59046e-05
142117820,-2.36202,0.194482,2.65092,-2.6386,-2.13068,-1.53253,0.118067,-0.0411139,0.56987,0.832001,0.977469,0.376733,-0.163034,-0.258682,-0.0715755,0.271926,0.980521,0.0077797,0.464926,0.500757,0.0264889,4.87979e-05
142317989,-2.36175,0.194525,2.65117,-2.63837,-2.13035,-1.53228,0.118323,-0.0411139,0.56987,0.832001,0.977469,0.376733,-0.163034,-0.258682,-0.0715755,0.271926,0.980521,0.0077797,0.464926,0.500757,0.0264889,4.87979e-05
142518141,-2.39034,0.193294,2.64746,-2.65116,-2.14051,-1.53666,0.137037,0.0429221,0.576779,0.805733,0.928883,0.368126,-0.204171,-0.275092,-0.105655,0.203663,0.819084,0.00947087,0.490081,0.47749,0.0229141,4.39363e-05
142718304,-2.41712,0.192891,2.63933,-2.66475,-2.15205,-1.54208,0.145315,0.106629,0.590842,0.786512,0.874087,0.305675,-0.248289,-0.271287,-0.0996103,0.193539,0.704653,0.0113302,0.510225,0.457894,0.0205079,4.28409e-05
142918462,-2.46554,0.193916,2.60712,-2.69928,-2.1814,-1.56333,0.143138,0.160396,0.691637,0.889866,0.954659,0.264886,-0.331434,-0.305053,-0.0945609,0.240255,0.735123,0.0140675,0.532157,0.4355,0.0182314,4.40601e-05
143118622,-2.55679,0.195176,2.5294,-2.77728,-2.25485,-1.62879,0.0914636,0.123537,0.698703,0.90828,0.964859,0.181631,-0.441369,-0.393172,-0.15463,0.216907,0.719049,0.0173312,0.551068,0.415054,0.0164995,4.74434e-05
143318783,-2.68037,0.195126,2.42176,-2.88833,-2.36261,-1.73265,-0.00255258,0.00283885,0.616006,0.841621,0.900824,0.0535098,-0.458299,-0.408823,-0.152446,0.24839,0.773789,0.0204446,0.567712,0.396891,0.0149048,4.78902e-05
143518943,-2.82328,0.19467,2.2995,-3.01011,-2.48169,-1.84225,-0.0950463,-0.0725326,0.590993,0.831272,0.88237,-0.0745801,-0.596865,-0.525266,-0.237352,0.206831,0.738348,0.0267042,0.591335,0.369081,0.0128291,5.10351e-05
143719104,-2.93153,0.195287,2.19157,-3.11935,-2.58828,-1.95144,-0.206562,-0.0725326,0.590993,0.831272,0.88237,-0.0745801,-0.596865,-0.525266,-0.237352,0.206831,0.738348,0.0267042,0.591335,0.369081,0.0128291,5.10351e-05
143919270,-3.0647,0.1965,2.07272,3.046,-2.70625,-2.06068,-0.303263,0.0157484,0.695849,0.93494,0.97291,-0.0327465,-0.582532,-0.488852,-0.184318,0.276105,0.786648,0.0318795,0.605491,0.350923,0.0116519,5.45477e-05
144119424,3.11142,0.197324,1.96154,2.93812,-2.80856,-2.1661,-0.415544,-0.150754,0.530702,0.764376,0.788234,-0.247204,-0.749895,-0.638013,-0.323168,0.144971,0.62069,0.0331705,0.604515,0.350401,0.0118532,6.00302e-05
144319585,3.03276,0.19854,1.87964,2.86116,-2.88317,-2.23921,-0.492096,-0.112384,0.576083,0.80926,0.829262,-0.21471,-0.762873,-0.645213,-0.325535,0.146145,0.616408,0.0352181,0.60417,0.348509,0.0120346,6.81547e-05
144519745,2.95506,0.201342,1.7975,2.78501,-2.95622,-2.30996,-0.566598,-0.0529189,0.612046,0.829176,0.834535,-0.185694,-0.773721,-0.642,-0.325394,0.131696,0.554895,0.0377746,0.602867,0.346918,0.0123598,8.08972e-05
144719912,2.8834,0.203048,1.71929,2.71215,-3.02702,-2.37983,-0.641654,-0.0466564,0.577559,0.76226,0.734215,-0.259997,-0.762816,-0.593147,-0.276347,0.158232,0.48526,0.0390508,0.599307,0.348669,0.01288,9.32673e-05
144920066,2.8397,0.203924,1.6669,2.66679,-3.07473,-2.42311,-0.690954,-0.0413305,0.579068,0.75765,0.721884,-0.268357,-0.798374,-0.620011,-0.301243,0.130151,0.437532,0.0399051,0.593477,0.352813,0.0136947,0.000110383
145120236,2.81321,0.207816,1.62722,2.63531,-3.10289,-2.44981,-0.726482,0.0148501,0.604269,0.770098,0.730346,-0.208024,-0.829609,-0.654099,-0.348793,0.0596721,0.339053,0.0409902,0.585154,0.358784,0.0149327,0.000139561
145310379,2.80046,0.213584,1.60501,2.6189,-3.11167,-2.46014,-0.743021,-0.00990933,0.542974,0.716731,0.71028,-0.116883,-0.73521,-0.621828,-0.355722,0.018494,0.341448,0.042927,0.579722,0.361316,0.0158628,0.000171739
145510539,2.80559,0.219151,1.6001,2.62276,-3.10833,-2.45043,-0.739451,-0.00634062,0.52119,0.702082,0.720654,-0.0284656,-0.769136,-0.702447,-0.464542,-0.113687,0.242198,0.0453958,0.572379,0.364826,0.017175,0.000223946
145720707,2.8117,0.233324,1.59715,2.63093,-3.09347,-2.42979,-0.725015,0.0172103,0.509371,0.68202,0.704101,0.0246451,-0.651357,-0.604044,-0.386384,-0.0619369,0.274434,0.052295,0.564895,0.363687,0.0187815,0.000341432
145920868,2.8206,0.233341,1.60603,2.63984,-3.08459,-2.42089,-0.716085,0.0172103,0.509371,0.68202,0.704101,0.0246451,-0.651357,-0.604044,-0.386384,-0.0619369,0.274434,0.052295,0.564895,0.363687,0.0187815,0.000341432
146121033,2.824,0.243488,1.60686,2.6449,-3.07148,-2.40821,-0.705785,0.0574433,0.476241,0.638373,0.681035,0.136209,-0.597329,-0.596962,-0.426534,-0.154641,0.177441,0.0568816,0.562224,0.361058,0.0194163,0.000419865
146311192,2.81355,0.250943,1.60293,2.64424,-3.07404,-2.4037,-0.698706,0.0328984,0.426223,0.601362,0.677471,0.211327,-0.471633,-0.529251,-0.391115,-0.141218,0.240246,0.0626765,0.563332,0.354187,0.0193188,0.000485348
146511341,2.80604,0.261484,1.60294,2.64695,-3.06841,-2.39414,-0.686885,0.0374539,0.433195,0.61763,0.706316,0.250435,-0.484007,-0.562026,-0.430232,-0.179742,0.22598,0.0698781,0.564408,0.346006,0.0191395,0.000567816
146711501,2.79153,0.27167,1.60524,2.64726,-3.06146,-2.38792,-0.674737,-0.00296032,0.376564,0.589057,0.730405,0.356587,-0.316477,-0.478718,-0.385806,-0.152517,0.346539,0.0786513,0.570268,0.332531,0.0179473,0.000602506
146911661,2.80696,0.282493,1.63922,2.68084,-3.02571,-2.34828,-0.628841,-0.0935122,0.277558,0.518043,0.708294,0.396425,-0.351546,-0.588757,-0.528416,-0.305854,0.284624,0.0890767,0.574656,0.318741,0.0168721,0.000653678
147121829,2.86914,0.289139,1.7264,2.7643,-2.94176,-2.26146,-0.532714,-0.149652,0.277888,0.553519,0.768975,0.397537,-0.226222,-0.493097,-0.42068,-0.161397,0.509248,0.0996348,0.582199,0.30237,0.0151589,0.000636502
147311982,2.93561,0.292857,1.81569,2.84946,-2.85686,-2.17457,-0.437413,-0.286195,0.211402,0.527882,0.770926,0.319715,-0.233451,-0.529662,-0.439954,-0.134705,0.629349,0.10872,0.588854,0.288179,0.0136475,0.00059993
147512155,3.01264,0.296235,1.90623,2.93843,-2.76781,-2.08404,-0.343019,-0.439421,0.12377,0.476027,0.741105,0.20958,-0.33613,-0.653173,-0.544901,-0.195917,0.648245,0.115334,0.591261,0.279896,0.0129115,0.000596568
147712302,3.08581,0.288512,1.98583,3.01378,-2.69512,-2.01293,-0.26827,-0.614227,0.0405871,0.447167,0.749915,0.119819,-0.271824,-0.630661,-0.501073,-0.0930636,0.876293,0.113963,0.596777,0.276598,0.0121476,0.000514528
147912462,-3.11013,0.265541,2.06359,3.0852,-2.62988,-1.95393,-0.208603,-0.905295,-0.095211,0.413205,0.799187,0.0292242,-0.263821,-0.719494,-0.565902,-0.0636388,1.16133,0.0994802,0.604274,0.284146,0.0117285,0.0003713
148112622,-3.00625,0.225793,2.13493,-3.134,-2.57649,-1.91354,-0.174708,-1.22606,-0.256669,0.339597,0.789737,-0.135401,-0.28303,-0.801827,-0.612238,-0.0162418,1.43599,0.0697267,0.606373,0.311512,0.0121769,0.000211623
148312783,-2.90861,0.190044,2.20438,-3.07237,-2.52647,-1.87794,-0.146588,-1.28866,-0.290948,0.301425,0.744979,-0.197509,-0.277874,-0.771441,-0.567979,0.0328084,1.50727,0.0446269,0.599529,0.343082,0.0126556,0.000106658
148512943,-2.83329,0.165923,2.26344,-3.01977,-2.4857,-1.84743,-0.119378,-1.18062,-0.272056,0.245821,0.629426,-0.221471,-0.232262,-0.640333,-0.446188,0.0888767,1.41028,0.0294569,0.588603,0.369051,0.0128337,5.50405e-05
