timestamp,timestamp_sample,hover_thrust,hover_thrust_var,accel_innov,accel_innov_var,accel_innov_test_ratio,accel_noise_var,valid
49760162,49759016,0.591962,0.005732,-3.70538,8.72297,0.174888,5.4766,0
49780234,49778902,0.612642,0.00471262,-1.6717,6.66125,0.0466143,5.79673,0
49855255,49853364,0.603632,0.00304608,1.81484,6.85655,0.0533736,6.27051,0
49954288,49952682,0.560841,0.00199324,2.85905,6.9531,0.130624,6.39442,0
50053280,50052001,0.517326,0.00132551,0.653812,6.86748,0.00691618,6.38275,0
50153524,50151320,0.519426,0.0009613,-0.0743338,7.10478,8.64131e-05,6.78212,0
50251859,50250641,0.52457,0.000769557,2.0781,7.51192,0.0638765,7.17435,0
50352070,50350020,0.515792,0.000636832,-0.833363,7.35316,0.0104943,7.16467,0
50455434,50454252,0.520313,0.000543746,-1.66676,7.52671,0.0410106,7.41619,0
50555713,50553560,0.51827,0.000477773,0.908343,7.55916,0.0121279,7.32342,0
50654095,50652879,0.523152,0.000424519,-0.53646,7.62315,0.00419468,7.45475,0
50754524,50752243,0.520369,0.000382351,-0.738339,7.3855,0.00820142,7.2347,0
50852889,50851517,0.526521,0.00034852,0.271094,7.54448,0.00108235,7.36242,0
50953347,50950836,0.516471,0.000319716,1.24066,7.23466,0.02364,7.04239,0
51051474,51050154,0.524378,0.000294033,-3.22789,7.32133,0.158127,7.34213,0
51161720,51159467,0.529912,0.000274788,1.05081,7.60305,0.0161367,7.39774,0
51259878,51258723,0.521349,0.000257527,2.05119,7.29222,0.0641077,7.13294,0
51360360,51358042,0.521735,0.000240928,-2.46494,7.02285,0.0961298,6.9853,0
51458527,51457363,0.527129,0.0002268,-0.751964,7.13034,0.00881134,7.00417,0
51558786,51556681,0.524956,0.000214224,1.60584,6.83135,0.0419424,6.69376,0
51657260,51656002,0.524705,0.000202251,-0.742168,6.53623,0.00936341,6.42051,0
51751681,51750373,0.526795,0.000191342,-0.429793,6.33404,0.00324037,6.23977,0
51851996,51849669,0.530985,0.000181398,-2.69085,6.20161,0.129728,6.17165,0
51961083,51958948,0.530349,0.000172626,1.88614,6.0246,0.065611,5.92832,0
52059466,52058240,0.526602,0.000164221,-0.213726,5.82538,0.000871258,5.71503,0
52160004,52157558,0.532159,0.000156368,-2.82442,5.76695,0.153699,5.74698,0
52258194,52257031,0.531232,0.00014947,2.60396,5.66308,0.133037,5.61101,0
52357755,52356214,0.526005,0.000142828,1.652,5.58818,0.0542632,5.49748,0
52457204,52455513,0.528039,0.000136365,-1.94515,5.39983,0.0778547,5.34709,0
52551515,52549868,0.530433,0.000130437,-0.469116,5.26816,0.00464151,5.19816,0
52660427,52659118,0.530029,0.000124844,0.896999,5.02522,0.0177904,4.93711,0
52759785,52758483,0.526842,0.000119422,-0.29379,4.8794,0.00196546,4.79199,0
52859393,52857756,0.53116,0.000114315,-2.35414,4.81431,0.127905,4.78508,0
52958370,52957073,0.532843,0.000109814,1.28057,4.74608,0.0383907,4.67791,0
53057939,53056514,0.527446,0.000105567,2.54561,4.7627,0.151178,4.72994,0
53152412,53150744,0.528087,0.000101543,1.87365,4.67398,0.0834545,4.61936,0
53251360,53250063,0.525441,9.76604e-05,0.783683,4.52753,0.0150722,4.45004,0
53355982,53354347,0.526452,9.38647e-05,-0.887787,4.31433,0.0202984,4.25808,0
53454966,53453668,0.529771,9.03015e-05,-1.89902,4.23773,0.0945544,4.20197,0
53554265,53552986,0.527702,8.70406e-05,2.93678,4.1589,0.230421,4.16257,0
53653519,53652304,0.524521,8.39289e-05,0.277098,4.1497,0.00205592,4.079,0
53753039,53751633,0.529118,8.10067e-05,-2.2877,4.23134,0.137429,4.21427,0
53852292,53851000,0.530865,7.84155e-05,0.96978,4.18754,0.0249543,4.12979,0
53951606,53950260,0.529533,7.5911e-05,0.176953,4.03068,0.000863164,3.96517,0
54060875,54059511,0.528748,7.34602e-05,2.85816,3.86018,0.235137,3.88944,0
54160441,54158829,0.525931,7.11318e-05,-0.0672157,3.9038,0.000128591,3.84159,0
54259818,54258149,0.530532,6.89492e-05,-2.67642,4.06314,0.195886,4.06668,0
54358658,54357466,0.530892,6.70294e-05,2.18545,3.99598,0.132805,3.98365,0
54452999,54451837,0.529987,6.51689e-05,0.110742,3.9107,0.00034844,3.85043,0
54552486,54551138,0.528619,6.33312e-05,0.993928,3.75951,0.0291969,3.70919,0
54651785,54650525,0.531006,6.15308e-05,-1.47288,3.68404,0.0654291,3.64607,0
54751208,54749776,0.530853,5.98061e-05,-0.214394,3.55149,0.00143805,3.49665,0
54860251,54859026,0.534793,5.81576e-05,-2.4031,3.61434,0.17753,3.60211,0
54959743,54958345,0.532223,5.665e-05,2.77479,3.69429,0.231572,3.71989,0
55058818,55057663,0.529545,5.52595e-05,-0.0694972,3.85021,0.000139382,3.79359,0
55158538,55156999,0.531416,5.39039e-05,-1.45325,3.7447,0.0626646,3.70847,0
55257601,55256301,0.531883,5.25966e-05,0.853475,3.61033,0.0224178,3.56562,0
55357427,55355620,0.532963,5.12925e-05,-1.80354,3.45827,0.104508,3.43343,0
55456151,55454949,0.535038,5.0046e-05,-0.519609,3.42806,0.0087511,3.37821,0
55560549,55559223,0.537447,4.88356e-05,-2.10805,3.38744,0.145763,3.36562,0
55659914,55658542,0.538064,4.76967e-05,0.936897,3.27145,0.0298127,3.24188,0
55759693,55758024,0.535198,4.66121e-05,1.66749,3.40943,0.0906151,3.39375,0
55858467,55857180,0.535618,4.55707e-05,-1.51766,3.31711,0.0771519,3.28641,0
55957704,55956498,0.536544,4.45491e-05,0.0207269,3.20975,1.48715e-05,3.16421,0
56052276,56050862,0.535949,4.35347e-05,-0.546824,3.11276,0.0106735,3.08342,0
56151588,56150170,0.534488,4.25306e-05,1.34684,3.04245,0.0662473,3.01742,0
56250920,56249491,0.534847,4.15366e-05,-2.16843,2.97899,0.17538,2.97805,0
56360051,56358739,0.536527,4.05993e-05,0.0286273,2.97318,3.06265e-05,2.931,0
56459407,56458059,0.534304,3.96959e-05,2.16762,2.96491,0.17608,2.96935,0
56558840,56557503,0.533977,3.88173e-05,-0.6769,2.88448,0.0176498,2.84748,0
56653073,56651733,0.532997,3.79457e-05,-0.112952,2.8014,0.000506022,2.76126,0
56752480,56751048,0.534653,3.70863e-05,-1.13059,2.74189,0.0517986,2.71356,0
56851490,56850367,0.532865,3.62593e-05,2.88697,2.68914,0.344374,2.72702,0
56951303,56949687,0.532133,3.54718e-05,-1.64194,2.71403,0.110372,2.70562,0
57060348,57058936,0.534409,3.47342e-05,-0.852353,2.82116,0.0286134,2.78742,0
57154872,57153289,0.535068,3.40307e-05,-0.814162,2.76325,0.0266538,2.72935,0
57253817,57252608,0.535188,3.33437e-05,1.44052,2.65376,0.086883,2.64042,0
57353323,57352055,0.5346,3.26591e-05,-0.442348,2.58523,0.00840985,2.55003,0
57452560,57451247,0.536084,3.1977e-05,-0.720356,2.53153,0.0227755,2.4988,0
57551986,57550564,0.534339,3.13147e-05,2.17872,2.50812,0.210287,2.51999,0
57651084,57649883,0.534324,3.06753e-05,-1.81753,2.49497,0.147114,2.49143,0
57760299,57759134,0.535635,3.00602e-05,-0.759957,2.45391,0.0261503,2.42344,0
57860032,57858453,0.53536,2.94489e-05,0.0968665,2.35248,0.000443179,2.3198,0
57959182,57957772,0.536818,2.88387e-05,-3.29075,2.28505,0.526564,2.34551,0
58058263,58057090,0.538428,2.82982e-05,1.07692,2.42967,0.0530367,2.41564,0
58158080,58156557,0.535479,2.78061e-05,3.08722,2.71882,0.389505,2.7773,0
58252102,58250762,0.535672,2.73618e-05,-0.029201,2.72248,3.48007e-05,2.68661,0
58351455,58350081,0.535569,2.69152e-05,-0.716257,2.59982,0.0219257,2.5701,0
58460708,58459332,0.534718,2.64691e-05,3.30483,2.51032,0.483422,2.61416,0
58560052,58558650,0.534015,2.60534e-05,-2.45389,2.66479,0.251075,2.69642,0
58659121,58657977,0.5365,2.56824e-05,-2.27874,2.98949,0.192996,2.99661,0
58758704,58757288,0.536375,2.53426e-05,0.554153,2.91188,0.0117177,2.8793,0
58857882,58856623,0.536238,2.49983e-05,-0.00645648,2.78146,1.66524e-06,2.74607,0
58957307,58955949,0.534699,2.46561e-05,1.77013,2.82531,0.123226,2.81659,0
59051621,59050280,0.533605,2.43222e-05,1.48944,2.78982,0.0883546,2.77026,0
59160836,59159529,0.534959,2.39966e-05,-2.20054,2.90433,0.185256,2.92518,0
59260111,59259021,0.534913,2.36945e-05,1.6324,2.88299,0.1027,2.87215,0
59359557,59358168,0.5337,2.33968e-05,0.271249,2.91629,0.00280326,2.87993,0
59458845,59457530,0.53338,2.30945e-05,1.53612,2.78578,0.0941158,2.76815,0
59553124,59551838,0.532741,2.27866e-05,0.275333,2.70545,0.00311341,2.68425,0
59652771,59651157,0.530836,2.24838e-05,2.06529,2.78309,0.170291,2.77328,0
59751781,59750496,0.531734,2.2191e-05,-2.78333,2.84697,0.302347,2.90424,0
59856190,59854763,0.532387,2.19274e-05,-0.4826,2.89266,0.00894615,2.86111,0
59955357,59954081,0.533255,2.16666e-05,0.290355,2.88166,0.00325068,2.84653,0
60054936,60053512,0.532413,2.1407e-05,0.853314,2.79625,0.0289334,2.76608,0
60153875,60152721,0.533233,2.11416e-05,-1.66922,2.76061,0.112145,2.75468,0
60253428,60252044,0.533132,2.08809e-05,1.57682,2.67335,0.103339,2.66266,0
60352574,60351355,0.532575,2.06179e-05,-1.18157,2.62991,0.0589846,2.61329,0
60452354,60450677,0.534107,2.03599e-05,-1.86729,2.70571,0.143185,2.70278,0
60551313,60549993,0.534176,2.01165e-05,2.00619,2.64814,0.168874,2.65822,0
60655590,60654277,0.534613,1.98853e-05,-2.4007,2.83635,0.225773,2.85049,0
60755332,60753596,0.534796,1.96687e-05,1.28633,2.8046,0.0655533,2.79113,0
60854692,60852991,0.533583,1.94547e-05,2.14659,2.83178,0.180799,2.84157,0
60953553,60952238,0.533289,1.92444e-05,-0.327519,2.76681,0.00430777,2.73437,0
61052955,61051552,0.533846,1.90299e-05,-0.728052,2.67319,0.022032,2.64516,0
61152275,61150874,0.533817,1.88135e-05,0.620465,2.55165,0.0167637,2.52424,0
61251480,61250190,0.534796,1.85938e-05,-2.47528,2.51186,0.271026,2.53366,0
61360557,61359441,0.535937,1.83895e-05,-1.13878,2.54653,0.0565833,2.51323,0
61460137,61458760,0.534897,1.8186e-05,3.35181,2.54212,0.491045,2.62857,0
61559401,61558078,0.533153,1.80102e-05,1.35575,2.94013,0.069462,2.91898,0
61658593,61657465,0.533804,1.78409e-05,-3.27092,2.88058,0.412684,2.95382,0
61758461,61756714,0.535212,1.76871e-05,-2.55669,3.10977,0.233554,3.12741,0
61857311,61856035,0.535023,1.75406e-05,1.56454,3.06627,0.0886991,3.05903,0
61956702,61955369,0.534203,1.73972e-05,0.746854,3.08509,0.0200891,3.05435,0
62055784,62054673,0.534764,1.72517e-05,-1.3041,2.99014,0.0631959,2.9694,0
62155361,62153992,0.535175,1.71077e-05,1.13203,2.92622,0.0486591,2.90792,0
62259570,62258277,0.535133,1.69642e-05,-1.39431,2.901,0.0744608,2.88222,0
62359225,62357595,0.535432,1.68187e-05,-0.166766,2.78886,0.00110801,2.75586,0
62458329,62457037,0.535846,1.66679e-05,-1.5253,2.67491,0.0966407,2.65938,0
62552426,62551267,0.535845,1.65139e-05,-0.203436,2.59293,0.00177345,2.56193,0
62651971,62650586,0.537192,1.63601e-05,-2.78191,2.64714,0.324838,2.67063,0
62751284,62750052,0.537774,1.62164e-05,0.704033,2.63455,0.0209044,2.61666,0
62860425,62859156,0.536538,1.608e-05,2.1696,2.78508,0.187792,2.82034,0
62960031,62958474,0.537024,1.59475e-05,-2.38054,2.77647,0.226786,2.78778,0
63054444,63052827,0.537439,1.58182e-05,1.37523,2.83887,0.0740224,2.83355,0
63153361,63152153,0.537723,1.56917e-05,-0.664307,2.74111,0.0178883,2.70998,0
63252814,63251486,0.538159,1.55616e-05,-0.463945,2.6254,0.0091095,2.59448,0
63351957,63350784,0.53831,1.54282e-05,-1.03058,2.51718,0.0468817,2.4916,0
63451403,63450103,0.538946,1.52922e-05,-0.743882,2.42637,0.0253402,2.39839,0
63561135,63559501,0.537898,1.51607e-05,2.71074,2.56201,0.318678,2.61468,0
63659976,63658672,0.538093,1.5038e-05,-3.01835,2.60325,0.388849,2.64851,0
63759530,63757996,0.538851,1.49244e-05,0.150176,2.68516,0.000933226,2.65637,0
63853490,63852345,0.538383,1.48116e-05,-1.5495,2.70834,0.0985003,2.69651,0
63953237,63951663,0.53787,1.47026e-05,1.12996,2.6747,0.0530409,2.65864,0
64052675,64050982,0.538022,1.45923e-05,-2.02373,2.59536,0.175334,2.60035,0
64151432,64150301,0.538617,1.44816e-05,-0.0958992,2.57312,0.000397124,2.54325,0
64250833,64249620,0.538392,1.43675e-05,0.301864,2.46636,0.00410509,2.43946,0
64360164,64358984,0.538196,1.42502e-05,2.04806,2.35124,0.19822,2.36926,0
64459569,64458191,0.537083,1.41361e-05,1.12074,2.50314,0.0557544,2.48422,0
64558688,64557524,0.538085,1.40245e-05,-3.4113,2.5597,0.505135,2.63717,0
64658192,64656828,0.538568,1.39256e-05,1.01093,2.63529,0.0430898,2.61887,0
64757476,64756147,0.537372,1.38321e-05,1.88859,2.82403,0.140335,2.82402,0
64857119,64855465,0.537692,1.37423e-05,-2.01532,2.74538,0.164377,2.75362,0
64951194,64949818,0.538314,1.36522e-05,-1.63639,2.74038,0.108572,2.73146,0
65060422,65059114,0.539116,1.35664e-05,-1.34109,2.74054,0.0729189,2.71991,0
65159643,65158458,0.538682,1.34785e-05,1.31262,2.68996,0.0711686,2.68076,0
65259405,65257710,0.538606,1.33888e-05,-0.292497,2.59767,0.00365945,2.56793,0
65358251,65357025,0.537903,1.3297e-05,2.79521,2.58143,0.336298,2.62767,0
65457539,65456345,0.537801,1.32088e-05,-1.43916,2.57448,0.0893888,2.56592,0
65557046,65555664,0.539001,1.3126e-05,-1.08334,2.81833,0.0462695,2.79362,0
65656150,65654983,0.538359,1.3049e-05,2.31745,2.80261,0.212921,2.82616,0
65760838,65759268,0.537764,1.29757e-05,2.42243,2.81246,0.231833,2.834,0
65860186,65858588,0.537373,1.29015e-05,-0.602887,2.80092,0.0144188,2.7749,0
65959728,65958002,0.538358,1.28285e-05,-2.02974,2.92065,0.156733,2.92532,0
66053946,66052258,0.538445,1.27572e-05,-0.680109,2.84186,0.0180847,2.8132,0
66152885,66151577,0.53854,1.26844e-05,0.815896,2.7187,0.027206,2.696,0
66252087,66251040,0.539028,1.26082e-05,-2.96756,2.64472,0.369979,2.69007,0
66351417,66350215,0.539733,1.25377e-05,0.972079,2.78517,0.0376971,2.77036,0
66450940,66449535,0.538761,1.2472e-05,2.55531,2.95255,0.245724,2.96785,0
66555183,66553821,0.538401,1.24111e-05,2.75727,3.01266,0.280392,3.03045,0
66654722,66653150,0.538167,1.23514e-05,-0.166887,2.9622,0.00104469,2.92963,0
66753618,66752456,0.53841,1.229e-05,1.01046,2.8753,0.0394562,2.85275,0
66853101,66851777,0.538346,1.22266e-05,-0.939039,2.77128,0.0353544,2.74923,0
66952310,66951094,0.538542,1.21606e-05,0.852161,2.67711,0.0301394,2.65426,0
67051956,67050577,0.538327,1.20937e-05,-1.79548,2.64022,0.135668,2.64298,0
67151090,67149733,0.539503,1.20318e-05,-1.24486,2.9559,0.0582519,2.93263,0
67260294,67258990,0.538812,1.19781e-05,2.9362,3.0436,0.314733,3.09534,0
67359582,67358348,0.538659,1.19251e-05,-0.669712,3.03193,0.0164367,3.00282,0
67459295,67457621,0.538926,1.18697e-05,0.504679,2.93896,0.0096293,2.90912,0
67558224,67557000,0.53867,1.18122e-05,0.304177,2.82403,0.00364033,2.79307,0
67652579,67651293,0.538425,1.17512e-05,1.52355,2.76393,0.0933129,2.75358,0
67752318,67750612,0.538508,1.16902e-05,-1.73831,2.67866,0.125342,2.6795,0
67851442,67850002,0.538502,1.16283e-05,1.53393,2.61405,0.100012,2.6063,0
67960567,67959181,0.538193,1.15671e-05,-1.02922,2.55964,0.045983,2.5436,0
68059912,68058500,0.539327,1.15067e-05,-1.97559,2.80514,0.154595,2.80623,0
68159021,68157853,0.539112,1.14519e-05,2.73662,2.77153,0.30024,2.8182,0
68258554,68257139,0.538471,1.13999e-05,0.860992,2.8705,0.0286944,2.84439,0
68357753,68356488,0.538903,1.13468e-05,-1.58576,2.80076,0.0997596,2.79312,0
68452250,68450810,0.539058,1.12915e-05,0.0268985,2.70405,2.97302e-05,2.6738,0
68551423,68550130,0.538527,1.12354e-05,1.79946,2.64808,0.135866,2.64766,0
68661045,68659515,0.538935,1.11813e-05,-3.74415,2.7063,0.575557,2.80889,0
68759847,68758699,0.539842,1.11343e-05,-1.05522,3.01628,0.0410181,2.98848,0
68859409,68858020,0.539013,1.10908e-05,3.45774,3.20714,0.414215,3.29159,0
68938944,68937594,0.538759,1.10603e-05,0.201371,3.25835,0.00138278,3.22274,0
69052848,69051690,0.538,1.10128e-05,0.905262,3.28734,0.0276988,3.25557,0
69152628,69151009,0.538085,1.09732e-05,-0.642396,3.14008,0.0146023,3.1125,0
69256636,69255294,0.538209,1.09323e-05,-0.46112,3.00235,0.00786909,2.97277,0
69356002,69354613,0.537607,1.08885e-05,2.65186,2.98112,0.262107,3.00246,0
69455187,69453959,0.5376,1.08451e-05,-2.02035,2.93235,0.154665,2.95137,0
69554646,69553251,0.538292,1.08049e-05,-0.124735,3.16137,0.000546838,3.12699,0
69653875,69652615,0.537588,1.0767e-05,2.57894,3.18653,0.231912,3.20455,0
69753906,69752050,0.537526,1.073e-05,-0.957614,3.11876,0.0326705,3.09878,0
69852404,69851212,0.537896,1.06923e-05,-0.143144,3.08997,0.000736799,3.05671,0
69951855,69950527,0.537835,1.06533e-05,-0.980143,2.94947,0.0361903,2.92892,0
70051186,70049845,0.538188,1.06124e-05,-0.855024,2.87374,0.0282662,2.8494,0
70160499,70159098,0.537918,1.05723e-05,0.889887,2.78021,0.0316483,2.75545,0
70259556,70258437,0.538279,1.05277e-05,-1.43322,2.70376,0.0844141,2.69376,0
70354082,70352769,0.538872,1.04815e-05,-3.45999,2.69505,0.493559,2.77227,0
70453512,70452088,0.539422,1.0442e-05,0.242934,2.84746,0.0023029,2.81883,0
70552681,70551536,0.538573,1.04053e-05,2.08726,3.05271,0.158571,3.06272,0
70652135,70650725,0.538432,1.03707e-05,-0.282223,2.97646,0.00297331,2.94474,0
70751394,70750044,0.538354,1.03335e-05,0.876383,2.84074,0.0300409,2.81621,0
70860493,70859295,0.538851,1.02966e-05,-2.47557,2.79542,0.24359,2.83213,0
70960253,70958663,0.538733,1.02593e-05,2.34675,2.8474,0.214903,2.8734,0
71059062,71057936,0.538412,1.02237e-05,-1.25409,2.87965,0.0606842,2.86408,0
71158553,71157252,0.539042,1.01889e-05,-1.07022,2.9328,0.0433929,2.90881,0
71257925,71256571,0.538566,1.01545e-05,2.21643,2.89257,0.188705,2.90913,0
71357093,71355996,0.538329,1.012e-05,-0.10657,2.85277,0.000442345,2.82163,0
71451578,71450260,0.538501,1.00815e-05,-1.32001,2.72937,0.070933,2.71662,0
71551249,71549562,0.538616,1.00426e-05,0.864195,2.64798,0.0313376,2.62623,0
71660436,71658813,0.537876,1.00062e-05,1.21415,2.73995,0.0597803,2.71985,0
71759444,71758133,0.538513,9.96838e-06,-2.18238,2.78936,0.18972,2.80557,0
71858841,71857451,0.538875,9.9339e-06,0.717327,2.82232,0.0202575,2.79776,0
71957913,71956770,0.538573,9.8987e-06,0.50859,2.73966,0.0104905,2.71198,0
72057416,72056089,0.538721,9.8613e-06,-1.65458,2.62722,0.115781,2.62358,0
72156658,72155478,0.538921,9.82242e-06,0.271732,2.54905,0.00321854,2.52196,0
72250956,72249761,0.539292,9.78096e-06,-1.35463,2.51959,0.0809223,2.50523,0
72360332,72359020,0.538973,9.74347e-06,2.39907,2.50288,0.255508,2.53428,0
72439960,72438659,0.538956,9.71245e-06,-1.48159,2.49026,0.0979424,2.48259,0
72554248,72552684,0.538038,9.66619e-06,1.4868,2.61226,0.0940261,2.59987,0
72653086,72652003,0.538226,9.62899e-06,-1.81612,2.52733,0.145005,2.536,0
72752661,72751322,0.538337,9.59161e-06,1.43633,2.50012,0.0916871,2.49035,0
72851941,72850648,0.538333,9.55289e-06,-1.67212,2.4299,0.12785,2.43265,0
72951700,72950027,0.539317,9.51752e-06,-1.71159,2.71584,0.119854,2.70835,0
73055625,73054293,0.539746,9.48677e-06,-2.51909,2.70503,0.260659,2.72288,0
73154722,73153564,0.540086,9.45621e-06,0.358584,2.68064,0.00532966,2.65663,0
73254215,73253069,0.540034,9.42433e-06,-0.370287,2.57456,0.00591742,2.54603,0
73353831,73352214,0.540152,9.39033e-06,1.4443,2.46277,0.0941132,2.46656,0
73452823,73451521,0.539252,9.36015e-06,1.31877,2.80303,0.0689399,2.79069,0
73552170,73550840,0.539532,9.33207e-06,-1.46875,2.73586,0.0876109,2.72356,0
73651480,73650160,0.539543,9.303e-06,0.0204279,2.62432,1.7668e-05,2.59567,0
73760836,73759431,0.540039,9.27453e-06,-2.16317,2.60117,0.199881,2.60759,0
73859849,73858732,0.539826,9.2445e-06,1.96943,2.56988,0.167697,2.5867,0
73959428,73958049,0.540179,9.2147e-06,-3.63168,2.5829,0.567369,2.6658,0
74058730,74057517,0.540691,9.18802e-06,-0.0890624,2.69412,0.000327138,2.66544,0
74158288,74156689,0.540404,9.16104e-06,-0.204772,2.659,0.00175219,2.62992,0
74257430,74256047,0.540318,9.13275e-06,2.19605,2.56189,0.209162,2.59093,0
74351501,74350358,0.539653,9.106e-06,0.396935,2.79133,0.0062717,2.76912,0
74451003,74449731,0.539189,9.08181e-06,0.303391,2.7953,0.00365877,2.76503,0
74560386,74558926,0.539305,9.05861e-06,0.399046,2.66937,0.00662818,2.64109,0
74659662,74658247,0.538978,9.03185e-06,-0.532448,2.62544,0.011998,2.60165,0
74758832,74757566,0.539386,9.00467e-06,-0.0896969,2.61688,0.000341609,2.58838,0
74858190,74856996,0.538656,8.97889e-06,1.46439,2.72533,0.0874287,2.70979,0
74957477,74956229,0.538814,8.9533e-06,-1.26086,2.64369,0.0668157,2.63531,0
75056882,75055523,0.538717,8.9266e-06,-0.618459,2.55726,0.016619,2.53573,0
75151495,75149877,0.539322,8.90026e-06,2.74076,2.83577,0.294325,2.86724,0
75260795,75259155,0.53934,8.88153e-06,-0.641165,2.82597,0.0161633,2.79895,0
75359653,75358443,0.539494,8.85908e-06,0.113264,2.71113,0.000525767,2.682,0
75459179,75457766,0.540166,8.83568e-06,-2.70491,2.82218,0.288057,2.84922,0
75558219,75557084,0.539917,8.81508e-06,2.43627,2.853,0.231157,2.88865,0
75657822,75656484,0.539693,8.79552e-06,-0.460471,2.90083,0.00812157,2.87072,0
75752601,75750757,0.539947,8.77304e-06,-1.74348,2.78998,0.121057,2.78435,0
75851397,75850076,0.540248,8.75191e-06,1.80268,2.80467,0.12874,2.81499,0
75950895,75949580,0.539565,8.73267e-06,2.05689,2.99242,0.157093,3.00087,0
76060014,76058647,0.539537,8.71602e-06,0.434825,2.87672,0.00730278,2.84712,0
76159318,76157968,0.539283,8.6952e-06,0.779772,2.76993,0.0243907,2.74414,0
76253449,76252318,0.539248,8.67318e-06,2.84734,2.94714,0.305657,2.98898,0
76353000,76351652,0.539129,8.65531e-06,-1.32124,2.93359,0.0661185,2.92272,0
76452102,76450973,0.539243,8.63678e-06,1.14247,2.87855,0.0503814,2.8583,0
76551893,76550278,0.539631,8.61732e-06,-1.95728,2.88043,0.147777,2.88483,0
76650962,76649595,0.539716,8.59943e-06,2.03701,2.90008,0.158978,2.91242,0
76760414,76758848,0.539774,8.58373e-06,-1.17405,2.82239,0.0542641,2.80375,0
76859466,76858168,0.53964,8.56462e-06,2.71599,2.77978,0.294851,2.82317,0
76959075,76957483,0.539814,8.54602e-06,-1.32583,2.80247,0.069693,2.78735,0
77053393,77051837,0.540208,8.52565e-06,-2.30029,2.74492,0.214187,2.75046,0
77152467,77151157,0.540212,8.50664e-06,1.6076,2.72387,0.105421,2.7254,0
77251637,77250521,0.54035,8.48743e-06,-2.18849,2.70471,0.196755,2.71396,0
77351086,77349794,0.540317,8.468e-06,1.30268,2.66482,0.0707567,2.65722,0
77460343,77459081,0.540532,8.44992e-06,-1.85992,2.59754,0.147973,2.59519,0
77559851,77558520,0.540084,8.42958e-06,1.72108,2.64962,0.124216,2.65221,0
77658885,77657683,0.540375,8.40936e-06,-1.86863,2.6053,0.148917,2.60575,0
77758415,77757002,0.540174,8.38886e-06,0.619638,2.5846,0.016506,2.5612,0
77857672,77856321,0.540767,8.36808e-06,-2.21758,2.59174,0.210826,2.60128,0
77957420,77955640,0.540595,8.34804e-06,1.22739,2.57865,0.0649125,2.5699,0
78056082,78054959,0.540842,8.32712e-06,-1.34349,2.50875,0.0799405,2.49337,0
78160582,78159249,0.541155,8.30681e-06,-1.87416,2.49676,0.156312,2.49306,0
78259931,78258563,0.540865,8.28551e-06,1.20515,2.46216,0.0655422,2.45487,0
78359415,78358043,0.540966,8.26335e-06,-1.71926,2.41375,0.136065,2.40927,0
78453593,78452235,0.541233,8.23865e-06,-1.97461,2.35105,0.184273,2.35336,0
78553103,78551554,0.541397,8.21497e-06,1.35873,2.32612,0.0881838,2.3275,0
78652530,78650874,0.541336,8.1908e-06,-0.864404,2.27587,0.0364791,2.25456,0
78751509,78750245,0.541959,8.16638e-06,-0.577773,2.31851,0.0159979,2.29326,0
78861101,78859446,0.541232,8.14691e-06,2.33638,2.49147,0.243437,2.54107,0
78955131,78953797,0.541008,8.12677e-06,0.529265,2.5064,0.0124181,2.48238,0
79054437,79053116,0.541116,8.10622e-06,-0.449401,2.39315,0.00937682,2.36829,0
79153705,79152492,0.540846,8.08437e-06,3.96469,2.36291,0.739143,2.49055,0
79252974,79251754,0.540222,8.0671e-06,0.682875,2.65388,0.0195236,2.62725,0
79352762,79351106,0.540587,8.04973e-06,-1.03802,2.63711,0.0453987,2.62056,0
79456734,79455358,0.540562,8.03312e-06,-0.559206,2.53623,0.0136998,2.5075,0
79556279,79554678,0.539925,8.01468e-06,2.39858,2.58834,0.24697,2.60467,0
79655356,79653996,0.540002,7.99694e-06,-1.78202,2.55582,0.138055,2.56723,0
79754706,79753315,0.540335,7.97954e-06,-0.198783,2.57074,0.00170788,2.54366,0
79853953,79852635,0.539924,7.96168e-06,0.638348,2.5384,0.0178367,2.51254,0
79953406,79951981,0.540538,7.94392e-06,-2.4235,2.64762,0.246484,2.6762,0
80052561,80051273,0.540689,7.92832e-06,0.559554,2.61644,0.0132963,2.59181,0
80152178,80150593,0.540491,7.91163e-06,-0.0600586,2.52941,0.000158449,2.50195,0
80251276,80250098,0.540481,7.89329e-06,1.05331,2.4117,0.0511145,2.39587,0
80360392,80359162,0.539776,7.87822e-06,0.727219,2.59458,0.0226475,2.55734,0
80459569,80458481,0.540407,7.8621e-06,-3.35941,2.68131,0.467668,2.76341,0
80559114,80557801,0.540643,7.84937e-06,0.656396,2.74928,0.0174128,2.72495,0
80658345,80657126,0.540627,7.83566e-06,-1.03924,2.63494,0.045543,2.61574,0
80757905,80756454,0.540551,7.82088e-06,2.51135,2.57929,0.271689,2.61478,0
80856861,80855758,0.540043,7.80783e-06,0.0864204,2.73682,0.000303211,2.70735,0
80956448,80955077,0.540573,7.79522e-06,-1.31764,2.80557,0.068759,2.79105,0
81055709,81054544,0.540593,7.7828e-06,-0.0212698,2.69161,1.86755e-05,2.66254,0
81160060,81158682,0.540185,7.77047e-06,1.26814,2.66773,0.0669807,2.65246,0
81259335,81258009,0.540767,7.75696e-06,-3.51215,2.73128,0.501808,2.81473,0
81358719,81357319,0.540937,7.74645e-06,1.25888,2.81141,0.0626327,2.80129,0
81458262,81456638,0.540795,7.73539e-06,-0.434973,2.73594,0.0076838,2.70758,0
81557613,81555957,0.54055,7.72328e-06,4.08622,2.69974,0.687194,2.83463,0
81651633,81650329,0.540418,7.71274e-06,0.145507,2.9322,0.000802296,2.90089,0
81760710,81759561,0.539885,7.70642e-06,1.10591,3.00796,0.0451775,2.97159,0
81860321,81859032,0.539846,7.69712e-06,0.805632,2.86543,0.0251676,2.83756,0
81959900,81958205,0.539635,7.6862e-06,-0.626096,2.76574,0.0157481,2.74454,0
82058747,82057519,0.540386,7.67637e-06,-2.39782,3.08514,0.20707,3.10826,0
82153165,82151872,0.540478,7.66764e-06,-1.72392,3.0397,0.108632,3.03571,0
82252388,82251191,0.540737,7.65964e-06,-0.694859,2.97251,0.0180479,2.94382,0
82351906,82350544,0.541097,7.65051e-06,-3.1946,2.88534,0.392999,2.93882,0
82451404,82449839,0.541227,7.6422e-06,1.84938,2.9279,0.129794,2.94144,0
82560413,82559081,0.540671,7.63813e-06,0.74167,3.21415,0.0190157,3.18554,0
82659834,82658489,0.540768,7.63167e-06,-0.311452,3.073,0.00350734,3.04082,0
82754379,82752753,0.540877,7.62257e-06,-0.1503,2.94865,0.000851244,2.91724,0
82853424,82852073,0.540253,7.61499e-06,2.46933,3.13581,0.216057,3.15416,0
82952556,82951392,0.540442,7.60868e-06,-2.88827,3.15684,0.293615,3.20918,0
83052008,83050748,0.540643,7.60319e-06,-0.206158,3.16486,0.00149212,3.13153,0
83151642,83150031,0.54102,7.59675e-06,-3.10464,3.11345,0.343985,3.1646,0
83260634,83259280,0.540921,7.59385e-06,3.73719,3.21532,0.482642,3.32431,0
83359922,83358600,0.540562,7.59017e-06,0.218498,3.3899,0.00156483,3.35423,0
83459330,83457974,0.540734,7.58569e-06,0.0825039,3.27613,0.000230858,3.24138,0
83558892,83557278,0.540951,7.58005e-06,-2.66627,3.1524,0.250568,3.18393,0
83658313,83656557,0.541216,7.5753e-06,2.39892,3.26998,0.195544,3.30136,0
83757458,83756066,0.54073,7.57217e-06,1.22704,3.48089,0.0480597,3.45783,0
83851422,83850230,0.540694,7.56743e-06,0.309719,3.34436,0.00318699,3.30958,0
83951105,83949550,0.54081,7.56296e-06,1.17706,3.22962,0.0476652,3.20885,0
84059921,84058800,0.540331,7.56143e-06,0.745157,3.33565,0.0184958,3.30295,0
84159344,84158119,0.540755,7.5578e-06,-0.958556,3.42105,0.0298423,3.39432,0
84258665,84257520,0.540702,7.5542e-06,0.613888,3.28321,0.0127537,3.25155,0
84358174,84356757,0.540898,7.54955e-06,1.15405,3.21897,0.0459713,3.19899,0
84457360,84456077,0.540398,7.54528e-06,1.91305,3.30554,0.123018,3.30009,0
84556974,84555547,0.540725,7.54109e-06,-1.85051,3.31143,0.114901,3.31057,0
84651333,84649749,0.540698,7.53553e-06,-0.566636,3.20406,0.0111344,3.17345,0
84760594,84759051,0.540468,7.53262e-06,-0.0047617,3.12914,8.05114e-07,3.09598,0
84854987,84853353,0.540641,7.52643e-06,2.00817,3.31308,0.135247,3.31326,0
84953965,84952709,0.540768,7.52265e-06,-2.14781,3.32487,0.154162,3.33413,0
85053289,85051991,0.540817,7.51888e-06,0.735574,3.24274,0.0185395,3.2143,0
85152491,85151311,0.541078,7.51399e-06,-2.30321,3.18166,0.185256,3.19339,0
85252017,85250634,0.540833,7.50931e-06,2.69763,3.20085,0.252614,3.23978,0
85351163,85350046,0.540719,7.50525e-06,-1.44041,3.21457,0.0717141,3.20149,0
85455968,85454238,0.540786,7.50178e-06,-1.25696,3.12282,0.0562149,3.10511,0
85554927,85553553,0.54058,7.49671e-06,3.01,3.12851,0.321776,3.17899,0
85654218,85652890,0.540348,7.49244e-06,-1.39973,3.17483,0.0685682,3.16576,0
85753457,85752191,0.540746,7.48824e-06,-1.45425,3.22124,0.0729483,3.20763,0
85852846,85851510,0.540955,7.48347e-06,-3.1838,3.1117,0.361951,3.17198,0
85952004,85950830,0.541206,7.47946e-06,1.07836,3.20189,0.0403536,3.18397,0
86051786,86050150,0.540677,7.47652e-06,1.29961,3.40865,0.0550559,3.3878,0
86150927,86149529,0.540736,7.47347e-06,-0.384812,3.27435,0.00502492,3.25644,0
86260422,86258719,0.540636,7.47184e-06,-0.33683,3.15936,0.00399006,3.12743,0
86359225,86358038,0.541263,7.46751e-06,-2.66731,3.36892,0.234646,3.39222,0
86439039,86437646,0.541186,7.46522e-06,2.09637,3.3135,0.14737,3.32877,0
86553388,86551711,0.541658,7.46058e-06,-1.01579,3.36233,0.0340975,3.33122,0
86652432,86651030,0.541826,7.4568e-06,-2.85476,3.21018,0.282077,3.23575,0
86752005,86750350,0.542308,7.45334e-06,-0.750492,3.33113,0.018787,3.29625,0
86850880,86849709,0.541907,7.45032e-06,1.88758,3.44498,0.114917,3.45696,0
86960321,86958980,0.541979,7.45e-06,-1.94989,3.33204,0.126785,3.32276,0
87054445,87053273,0.54212,7.44515e-06,-2.09707,3.2519,0.150261,3.24693,0
87153962,87152592,0.54245,7.44129e-06,0.130693,3.226,0.000588299,3.19545,0
87253309,87252086,0.542309,7.437e-06,-0.0229404,3.14078,1.86174e-05,3.10869,0
87352616,87351232,0.542472,7.43148e-06,-0.529211,2.99882,0.0103768,2.96705,0
87451851,87450550,0.541932,7.4264e-06,1.8228,3.22385,0.114515,3.22739,0
87551665,87549873,0.542306,7.42236e-06,-3.33733,3.22968,0.383174,3.28659,0
87660834,87659120,0.542392,7.42134e-06,0.862043,3.17642,0.0259942,3.15595,0
87759576,87758465,0.542428,7.41667e-06,-1.25547,3.05987,0.057236,3.03655,0
87858984,87857758,0.541946,7.41162e-06,2.57273,3.17588,0.231571,3.20985,0
87958625,87957078,0.542169,7.40741e-06,-3.19989,3.16494,0.359469,3.22284,0
88057720,88056610,0.542329,7.40389e-06,1.17356,3.20222,0.0477875,3.18678,0
88152111,88150749,0.54254,7.3986e-06,0.90922,3.12816,0.0293634,3.10854,0
88251357,88250070,0.542284,7.39464e-06,-0.58477,3.14344,0.0120871,3.11216,0
88360926,88359324,0.542518,7.39272e-06,-0.378394,3.05608,0.00520572,3.0095,0
88459818,88458639,0.542454,7.38744e-06,-0.6558,2.91437,0.0163967,2.88561,0
88559388,88557968,0.542952,7.3818e-06,-0.448856,2.99864,0.00746531,2.96685,0
88653971,88652311,0.543222,7.37502e-06,-2.29529,2.90131,0.201761,2.90434,0
88752938,88751631,0.543195,7.36893e-06,0.168514,2.81468,0.00112099,2.78765,0
88852767,88851105,0.543575,7.36162e-06,-2.97124,2.7831,0.352456,2.81344,0
88951492,88950269,0.543703,7.35504e-06,1.76219,2.78751,0.123779,2.80795,0
89050949,89049588,0.543419,7.34914e-06,0.0225584,2.88706,1.95848e-05,2.85759,0
89155136,89153874,0.54356,7.34338e-06,-4.05762,2.78262,0.657425,2.86036,0
89254559,89253193,0.544104,7.33805e-06,-1.17632,2.98531,0.0515012,2.95763,0
89353612,89352512,0.543706,7.33339e-06,1.45918,3.08503,0.0766858,3.08321,0
89453153,89451831,0.543722,7.32882e-06,-1.0243,2.99767,0.0388888,2.97104,0
89552349,89551158,0.543231,7.3241e-06,2.25677,3.13455,0.180533,3.15383,0
89652263,89650566,0.543154,7.32055e-06,-2.62716,3.13686,0.244476,3.17039,0
89751490,89749791,0.543477,7.31715e-06,-0.815452,3.16816,0.023321,3.13881,0
89860632,89859040,0.543243,7.31565e-06,0.607481,3.09311,0.0132565,3.0643,0
89959543,89958359,0.54364,7.3107e-06,-2.47288,3.05771,0.222212,3.07583,0
90058975,90057679,0.543864,7.30594e-06,-0.637111,3.01377,0.014965,2.983,0
90158201,90156998,0.543738,7.30004e-06,0.799831,2.89459,0.0245565,2.87352,0
90257708,90256374,0.54371,7.29293e-06,-0.675503,2.77791,0.0182513,2.75063,0
90356981,90355639,0.543678,7.28442e-06,0.648581,2.65999,0.0175714,2.63749,0
90456609,90455039,0.543256,7.27535e-06,1.25615,2.68879,0.0652049,2.67462,0
90560383,90559241,0.543368,7.26773e-06,0.437244,2.66029,0.007985,2.62165,0
90659717,90658560,0.543195,7.2579e-06,1.31607,2.55019,0.0754646,2.53812,0
90759161,90757879,0.542813,7.24739e-06,1.65043,2.50544,0.120801,2.49929,0
90858871,90857207,0.542507,7.23643e-06,0.371398,2.45228,0.0062498,2.42584,0
90958098,90956564,0.542742,7.22432e-06,-1.85993,2.37049,0.162149,2.38541,0
91052001,91050872,0.542848,7.21147e-06,0.416673,2.37163,0.00813396,2.34682,0
91151380,91150190,0.543177,7.19947e-06,-0.89199,2.33613,0.0378425,2.31861,0
91260881,91259471,0.543461,7.19011e-06,-0.177372,2.28196,0.00153186,2.25724,0
91360116,91358761,0.543034,7.17775e-06,1.36746,2.28199,0.091048,2.2743,0
91459399,91458078,0.543491,7.16573e-06,-2.39804,2.33447,0.273705,2.36068,0
91559186,91557581,0.543696,7.15549e-06,0.711901,2.32598,0.0242098,2.30838,0
91652916,91651752,0.543704,7.14297e-06,1.6579,2.2526,0.135579,2.26018,0
91752855,91751074,0.544077,7.13146e-06,-3.3024,2.36016,0.513424,2.42534,0
91851696,91850391,0.544127,7.12248e-06,2.7079,2.40811,0.338335,2.46761,0
91951067,91949710,0.543928,7.11417e-06,0.368016,2.44389,0.00615758,2.42032,0
92060073,92058962,0.543749,7.107e-06,0.288723,2.34848,0.00394399,2.32442,0
92154668,92153314,0.543586,7.09661e-06,2.10372,2.56084,0.192022,2.57758,0
92254267,92252634,0.543954,7.08933e-06,-2.05592,2.62344,0.179019,2.63075,0
92353718,92352120,0.544111,7.08254e-06,0.0483195,2.55112,0.000101688,2.5242,0
92452833,92451282,0.544576,7.07478e-06,-2.36063,2.58806,0.239243,2.59978,0
92551739,92550591,0.544497,7.0681e-06,3.06126,2.55121,0.408142,2.63412,0
92651275,92649912,0.543961,7.06374e-06,1.5345,2.83398,0.0923198,2.82847,0
92760561,92759162,0.54374,7.06178e-06,2.35732,2.74287,0.225107,2.76582,0
92859747,92858482,0.543435,7.05757e-06,-1.25231,2.81114,0.0619871,2.80104,0
92954439,92952834,0.543449,7.05324e-06,1.52416,3.03604,0.0850176,3.02248,0
93053862,93052154,0.543454,7.05036e-06,-0.3535,2.93125,0.00473678,2.90245,0
93152839,93151590,0.543243,7.04624e-06,2.18258,2.81568,0.18798,2.82396,0
93252134,93250792,0.543611,7.04161e-06,-2.54874,2.89967,0.248921,2.9343,0
93351451,93350111,0.543954,7.03862e-06,0.916467,3.01941,0.0309079,2.99781,0
93460469,93459363,0.543744,7.03794e-06,0.212482,2.94549,0.00170312,2.90083,0
93559904,93558682,0.544181,7.03383e-06,-2.42379,2.94486,0.221657,2.96236,0
93659402,93658001,0.54411,7.03048e-06,2.9808,2.94528,0.335194,3.0097,0
93758493,93757321,0.543569,7.02893e-06,1.70226,3.22296,0.0998971,3.21363,0
93858209,93856653,0.54374,7.0274e-06,-1.83609,3.15899,0.118576,3.1596,0
93957216,93956029,0.543742,7.02563e-06,2.16353,3.09836,0.167861,3.11053,0
94056660,94055278,0.54353,7.02363e-06,0.0891185,3.06321,0.000288082,3.03077,0
94156214,94154597,0.543938,7.021e-06,-2.20309,3.07568,0.17534,3.08755,0
94255831,94254116,0.544134,7.01889e-06,-0.0244958,3.01988,2.20775e-05,2.98791,0
94359405,94358209,0.544223,7.01694e-06,-0.362142,2.87294,0.00507211,2.84272,0
94458871,94457521,0.544302,7.01259e-06,-2.54921,2.74879,0.26268,2.77377,0
94558206,94556917,0.544839,7.00926e-06,-1.0141,2.92969,0.0390029,2.9022,0
94657887,94656160,0.544348,7.00685e-06,2.8412,3.09823,0.289498,3.15315,0
94756685,94755546,0.54428,7.00585e-06,-1.52858,3.08746,0.0840878,3.07474,0
94850973,94849832,0.544235,7.00318e-06,-0.0457701,3.05978,7.60732e-05,3.02744,0
94960725,94959083,0.544106,7.0033e-06,2.39541,2.91153,0.218975,2.93761,0
95059987,95058589,0.543726,7.00132e-06,-0.0870238,3.02151,0.00027849,2.98995,0
95154119,95152758,0.543257,6.99806e-06,2.19152,3.10453,0.171891,3.10504,0
95253084,95252098,0.543127,6.99634e-06,-1.15907,3.01934,0.0494382,3.01043,0
95353027,95351395,0.543145,6.99388e-06,0.90578,2.95084,0.0308928,2.92276,0
95451924,95450714,0.543272,6.9903e-06,-2.5948,2.84374,0.263072,2.89261,0
95551499,95550033,0.54348,6.98766e-06,1.429,2.97034,0.0763861,2.95521,0
95655981,95654320,0.543599,6.98661e-06,-1.56086,3.05084,0.0887287,3.04425,0
95754987,95753638,0.543366,6.98481e-06,1.29105,2.99248,0.0618889,2.97345,0
95854184,95853073,0.543488,6.98215e-06,-1.45344,2.91,0.0806606,2.90238,0
95953473,95952292,0.543313,6.97895e-06,1.32178,2.84231,0.0682979,2.82548,0
96053212,96051596,0.543591,6.97495e-06,-2.03469,2.7978,0.164413,2.80962,0
96152185,96150916,0.543216,6.97139e-06,1.77981,2.85269,0.123381,2.84757,0
96251574,96250234,0.543413,6.96792e-06,-2.27719,2.84962,0.202195,2.87374,0
96360885,96359486,0.543395,6.96756e-06,2.14986,2.83943,0.180862,2.85076,0
96460213,96458805,0.54313,6.96488e-06,-1.33767,2.85733,0.0695817,2.84964,0
96559861,96558124,0.543378,6.96182e-06,-0.312258,2.82632,0.00383322,2.79765,0
96658899,96657545,0.54358,6.95783e-06,-2.01557,2.73168,0.165243,2.74129,0
96753024,96751843,0.543745,6.95219e-06,-2.29981,2.6903,0.218445,2.70914,0
96852251,96851116,0.544217,6.94912e-06,0.893609,2.90192,0.0305751,2.88475,0
96951650,96950435,0.543757,6.94728e-06,1.81861,3.00882,0.122135,3.0114,0
97051464,97049757,0.543652,6.94524e-06,1.58623,2.90185,0.0963422,2.89585,0
97160356,97159005,0.543531,6.94452e-06,-1.31269,2.81931,0.0679111,2.80774,0
97260105,97258325,0.544176,6.94224e-06,-1.35946,3.10393,0.0661569,3.0841,0
97359010,97357651,0.5439,6.94093e-06,2.61353,3.07852,0.246532,3.11634,0
97458442,97457084,0.543804,6.93972e-06,0.0970526,3.02463,0.000346018,2.99261,0
97552726,97551317,0.544025,6.93613e-06,-1.48472,2.94347,0.0832122,2.93095,0
97651913,97650638,0.543722,6.93366e-06,3.50191,2.99147,0.455494,3.0773,0
97751805,97750134,0.543445,6.93288e-06,-1.19987,3.10839,0.0514621,3.09375,0
97860500,97859210,0.543799,6.93473e-06,-1.02073,3.1419,0.0368455,3.11855,0
97959799,97958524,0.543638,6.93369e-06,0.463392,3.04607,0.00783276,3.01551,0
98059171,98057845,0.543961,6.93203e-06,-0.979077,3.01012,0.0353841,2.98596,0
98158501,98157171,0.54353,6.93054e-06,2.33043,3.05915,0.197256,3.0753,0
98257880,98256517,0.543589,6.92928e-06,-1.72995,3.01561,0.110267,3.01551,0
98352248,98350837,0.543482,6.92697e-06,0.121206,3.07359,0.000531082,3.04112,0
98451444,98450157,0.543594,6.92513e-06,0.172928,2.95094,0.00112597,2.91982,0
98551335,98549615,0.543467,6.9223e-06,-1.18045,2.85389,0.0542517,2.83952,0
98660402,98658727,0.544047,6.9224e-06,-1.54887,3.0876,0.0863313,3.0731,0
98759437,98758047,0.543781,6.921e-06,1.8858,3.05754,0.129234,3.06204,0
98853598,98852404,0.543545,6.91819e-06,1.4165,2.99067,0.0745457,2.98283,0
98953001,98951719,0.543303,6.91607e-06,-0.133551,2.94645,0.000672596,2.91598,0
99052403,99051075,0.543728,6.91371e-06,-1.30339,2.99756,0.0629702,2.98123,0
99152007,99150362,0.543539,6.91162e-06,2.30883,2.89198,0.204808,2.91193,0
99250805,99249678,0.543399,6.9092e-06,-0.415615,2.84228,0.00675263,2.81464,0
99355343,99353962,0.543561,6.90701e-06,-0.668131,2.72437,0.018206,2.70572,0
99454844,99453281,0.543919,6.90304e-06,-0.405093,2.7357,0.00666498,2.70737,0
99554208,99552642,0.543526,6.89928e-06,2.16392,2.71653,0.191525,2.73161,0
99653030,99651925,0.543804,6.8957e-06,-2.17104,2.77019,0.189053,2.7839,0
99752589,99751240,0.544141,6.89332e-06,0.850801,2.8609,0.0281132,2.84155,0
99852271,99850670,0.543678,6.8915e-06,1.61453,2.95306,0.0980791,2.94693,0
99951090,99949878,0.543665,6.88913e-06,0.408479,2.84104,0.0065256,2.81235,0
100060345,100059130,0.543467,6.88788e-06,0.402199,2.74355,0.00655131,2.71512,0
100159856,100158465,0.544038,6.88344e-06,-3.78529,2.83205,0.562152,2.93224,0
100259098,100257808,0.544385,6.88182e-06,0.873927,3.02875,0.0280185,3.00951,0
100358502,100357089,0.544048,6.88024e-06,1.39643,3.03496,0.0713907,3.02464,0
100453027,100451441,0.544,6.87694e-06,1.47204,2.9461,0.0817235,2.93816,0
100551967,100550761,0.543947,6.87439e-06,-2.00665,2.88566,0.155044,2.8929,0
100651583,100650105,0.544397,6.87209e-06,-0.890276,2.97979,0.0295544,2.95244,0
100760944,100759331,0.544247,6.87225e-06,1.02056,2.88435,0.040122,2.85928,0
100859829,100858650,0.54422,6.86908e-06,-0.741001,2.76603,0.0220566,2.74049,0
100959267,100958021,0.543784,6.8654e-06,2.97328,2.83459,0.346528,2.88614,0
101058670,101057294,0.543698,6.86314e-06,-1.90237,2.86465,0.140371,2.87398,0
101157943,101156608,0.544269,6.86232e-06,-1.38748,3.14055,0.0681088,3.12235,0
101257236,101255927,0.544287,6.8621e-06,0.588732,3.03805,0.0126765,3.0113,0
101356526,101355271,0.544387,6.86076e-06,-1.1386,2.89816,0.0497022,2.87647,0
101456031,101454584,0.543992,6.85891e-06,3.54428,2.99467,0.466084,3.08534,0
101560044,101558853,0.543805,6.86058e-06,1.16323,3.17777,0.0473117,3.15562,0
101659483,101658235,0.543364,6.86125e-06,1.93487,3.21557,0.129361,3.20818,0
101758818,101757653,0.543323,6.86138e-06,0.389954,3.10311,0.00544487,3.07039,0
101858380,101856821,0.543012,6.8604e-06,1.83045,3.01888,0.123318,3.00702,0
101957397,101956129,0.543073,6.85863e-06,-1.58903,2.92192,0.0960183,2.92728,0
102051620,102050482,0.543392,6.85687e-06,1.19419,3.19775,0.0495516,3.18494,0
102151102,102149802,0.543557,6.8568e-06,-1.82642,3.13332,0.118292,3.13551,0
102260518,102259055,0.543719,6.85883e-06,-0.042944,3.05004,6.71826e-05,3.01782,0
102354978,102353443,0.543647,6.85617e-06,1.28891,2.924,0.0631285,2.90896,0
102453937,102452726,0.543401,6.85394e-06,0.138015,2.87134,0.000737102,2.84086,0
102553480,102552148,0.543929,6.85157e-06,-1.92814,2.99672,0.137844,2.99704,0
102652672,102651365,0.543753,6.85008e-06,2.44532,2.95475,0.224857,2.98361,0
102752419,102750694,0.543636,6.84852e-06,-0.86082,2.91052,0.0282886,2.88733,0
102856057,102854969,0.543871,6.8472e-06,-1.16772,2.82102,0.0537072,2.79868,0
102955495,102954289,0.544028,6.84382e-06,0.629181,2.73968,0.016055,2.7163,0
103054894,103053608,0.543618,6.84023e-06,0.628881,2.80315,0.0156765,2.77679,0
103154601,103152930,0.544106,6.83675e-06,-2.59534,2.84523,0.263044,2.87286,0
103253395,103252247,0.544231,6.83414e-06,0.995965,2.82704,0.0389865,2.81109,0
103352806,103351629,0.543851,6.83139e-06,1.28298,2.85001,0.0641727,2.83644,0
103452457,103450885,0.543885,6.82805e-06,-0.536501,2.74673,0.0116435,2.71994,0
103551433,103550210,0.54378,6.82363e-06,1.83023,2.62697,0.141682,2.63139,0
103660667,103659456,0.543605,6.82125e-06,-0.829865,2.59198,0.0295217,2.56364,0
103760157,103758775,0.544232,6.81643e-06,-2.41163,2.75037,0.234957,2.76969,0
103859456,103858135,0.544165,6.81308e-06,1.91148,2.68328,0.151297,2.69602,0
103958983,103957414,0.543887,6.8099e-06,-0.37411,2.73476,0.00568639,2.70692,0
104057868,104056735,0.544214,6.8061e-06,-1.74509,2.66965,0.126748,2.66626,0
104157302,104156101,0.543977,6.80208e-06,0.939963,2.66308,0.0368633,2.64401,0
104251718,104250406,0.543792,6.79613e-06,1.41261,2.58093,0.0859064,2.57185,0
104351124,104349725,0.544026,6.7909e-06,-2.69158,2.57678,0.312389,2.61729,0
104460268,104458981,0.544334,6.78941e-06,0.639002,2.63198,0.0172377,2.61082,0
104559673,104558317,0.543687,6.78693e-06,2.33122,2.88934,0.20899,2.90766,0
104659011,104657623,0.543651,6.78553e-06,-1.46954,2.84607,0.084309,2.84022,0
104758203,104756935,0.543854,6.7836e-06,-0.34944,2.78817,0.00486614,2.75983,0
104857913,104856254,0.544065,6.78064e-06,-2.81673,2.68173,0.328726,2.7266,0
104956720,104955593,0.544289,6.77791e-06,0.902433,2.70494,0.0334526,2.68733,0
105051231,105049927,0.54443,6.77364e-06,1.09708,2.71341,0.0492854,2.701,0
105160382,105159218,0.543921,6.77371e-06,2.19426,2.8378,0.188518,2.85237,0
105260063,105258725,0.543899,6.7716e-06,-0.818084,2.78025,0.0267467,2.75823,0
105354214,105352852,0.543748,6.76707e-06,-0.436059,2.68989,0.00785441,2.66418,0
105453576,105452172,0.54386,6.76252e-06,0.275213,2.58557,0.0032549,2.55837,0
105553058,105551490,0.543188,6.7581e-06,2.71883,2.80099,0.293231,2.82723,0
105651928,105650809,0.542914,6.75527e-06,-0.387887,2.7847,0.00600329,2.76128,0
105751501,105750129,0.543229,6.75199e-06,-1.2473,2.7776,0.0622342,2.76973,0
105855760,105854414,0.54331,6.74973e-06,-0.0046678,2.69368,8.98745e-07,2.66531,0
105955337,105953741,0.543383,6.74507e-06,0.0125937,2.5796,6.83143e-06,2.55214,0
106054334,106053215,0.542663,6.74075e-06,3.89702,2.72649,0.618898,2.81702,0
106153739,106152373,0.542228,6.73906e-06,0.546688,2.88031,0.0115291,2.84977,0
106252917,106251692,0.542522,6.73699e-06,-2.30898,2.85437,0.207533,2.89512,0
106352578,106351011,0.542784,6.73583e-06,0.283812,2.92988,0.00305469,2.89911,0
106451611,106450331,0.54285,6.7341e-06,-1.5881,2.81149,0.0996724,2.8123,0
106551195,106549652,0.543383,6.73286e-06,-1.93782,2.99134,0.139482,2.99389,0
106660175,106658901,0.543052,6.73504e-06,1.01157,3.00457,0.0378416,2.98116,0
106759609,106758220,0.543155,6.73406e-06,-1.02663,2.89705,0.0404228,2.87743,0
106858837,106857660,0.543098,6.73214e-06,1.55707,2.78454,0.0967437,2.77698,0
106953238,106951893,0.542992,6.72821e-06,2.64242,2.73745,0.283409,2.77136,0
107052860,107051212,0.542877,6.7254e-06,-1.07787,2.72165,0.0474305,2.70732,0
107151827,107150532,0.543196,6.72255e-06,0.896868,2.77101,0.0322535,2.74955,0
107251262,107249851,0.543003,6.71954e-06,0.266688,2.68492,0.00294328,2.65666,0
107360442,107359103,0.543359,6.71794e-06,-1.49941,2.6895,0.0928806,2.68018,0
107459740,107458426,0.543099,6.7138e-06,1.52259,2.66568,0.0966303,2.65939,0
107559407,107557742,0.543106,6.70945e-06,-1.96181,2.60757,0.163996,2.61795,0
107658409,107657154,0.543349,6.70505e-06,-0.937996,2.57315,0.0379922,2.55271,0
107757679,107756381,0.54339,6.69966e-06,-0.662034,2.46031,0.0197937,2.4371,0
107857012,107855700,0.543936,6.69398e-06,-1.74643,2.52736,0.134089,2.52116,0
107956663,107955235,0.543507,6.6894e-06,3.32847,2.63629,0.466931,2.72309,0
108061125,108059304,0.543644,6.68818e-06,1.61903,2.71898,0.107117,2.71952,0
108160010,108158626,0.543289,6.68619e-06,0.182365,2.80063,0.00131943,2.77107,0
108259367,108257943,0.543346,6.68359e-06,0.352125,2.67562,0.00514903,2.64822,0
108358448,108357265,0.543226,6.67981e-06,-0.613117,2.57011,0.0162515,2.54713,0
108457939,108456606,0.543854,6.67587e-06,-3.21193,2.71765,0.421791,2.77813,0
108552505,108550942,0.544051,6.67248e-06,-1.74096,2.71042,0.12425,2.70309,0
108651453,108650295,0.544357,6.67012e-06,-0.26287,2.68538,0.00285912,2.65686,0
108751440,108749779,0.54436,6.66692e-06,-0.631908,2.56583,0.0172917,2.5392,0
108860163,108858826,0.544884,6.66592e-06,-0.900594,2.64916,0.0340179,2.62234,0
108959364,108958146,0.544557,6.66311e-06,2.40014,2.70215,0.236875,2.74716,0
109053802,109052499,0.544375,6.66017e-06,0.998119,2.69601,0.0410583,2.68809,0
109153468,109151834,0.544397,6.65763e-06,-1.54084,2.61388,0.100922,2.60294,0
109252306,109251138,0.5447,6.65455e-06,0.37627,2.59077,0.00607194,2.56801,0
109351769,109350457,0.544363,6.65184e-06,0.144531,2.643,0.000878174,2.61579,0
109450989,109449776,0.544823,6.64909e-06,-1.38578,2.67681,0.0797123,2.65921,0
109560359,109559178,0.544623,6.64887e-06,1.66789,2.61507,0.118198,2.62218,0
109654541,109653381,0.544386,6.64454e-06,2.02074,2.58888,0.175253,2.60575,0
109754059,109752700,0.544772,6.6416e-06,-3.15199,2.6682,0.413722,2.72207,0
109853163,109852020,0.54501,6.64005e-06,0.298976,2.6869,0.00369639,2.66253,0
109952988,109951340,0.545042,6.63778e-06,-1.59899,2.59793,0.109351,2.58641,0
110051944,110050659,0.545027,6.63487e-06,3.28626,2.55691,0.469294,2.65431,0
110151690,110149978,0.544543,6.63392e-06,1.07566,2.83573,0.045336,2.81802,0
110260625,110259230,0.544299,6.63536e-06,2.68082,2.79624,0.285574,2.83239,0
110360519,110358711,0.544206,6.63474e-06,-2.54949,2.81395,0.256653,2.85439,0
110459073,110457869,0.54466,6.63485e-06,-1.77045,2.97044,0.117247,2.96666,0
110558539,110557188,0.544848,6.63492e-06,-2.6864,2.8867,0.277778,2.91822,0
110652940,110651544,0.545206,6.63426e-06,-0.2405,2.98115,0.00215577,2.95732,0
110752196,110750861,0.545722,6.63523e-06,-1.24856,3.10812,0.0557284,3.08048,0
110851609,110850182,0.54577,6.63626e-06,-0.344884,2.96854,0.00445205,2.93746,0
110960718,110959431,0.545999,6.63868e-06,0.969361,2.87466,0.0363197,2.86395,0
111059898,111058752,0.545469,6.63966e-06,1.5306,3.18586,0.0817058,3.18337,0
111159765,111158148,0.545502,6.64107e-06,0.0745156,3.07187,0.00020084,3.04042,0
111258685,111257393,0.545332,6.64148e-06,0.657264,2.99312,0.0160366,2.96771,0
111358462,111356709,0.545768,6.64175e-06,-1.75626,3.02905,0.113144,3.01721,0
111462227,111460999,0.545876,6.64357e-06,-1.58478,2.96074,0.0942526,2.94107,0
111551765,111550384,0.545896,6.64115e-06,1.6823,2.87241,0.109476,2.88127,0
111651098,111649702,0.545765,6.6414e-06,-1.53803,2.91423,0.0901906,2.90021,0
111760366,111758976,0.545799,6.64374e-06,1.71044,2.83287,0.114748,2.84008,0
111859493,111858278,0.545767,6.64311e-06,-1.32352,2.77587,0.0701167,2.75882,0
111958816,111957621,0.545891,6.64203e-06,1.73844,2.7563,0.121829,2.76519,0
112058251,112056913,0.545731,6.6408e-06,-0.600039,2.72693,0.0146704,2.70005,0
112157397,112156231,0.545869,6.63866e-06,0.984956,2.63882,0.0408489,2.62418,0
112257071,112255716,0.545563,6.63659e-06,-1.02176,2.70289,0.0429168,2.68354,0
112351531,112349904,0.545304,6.6332e-06,0.0248798,2.67625,2.56995e-05,2.6478,0
112460853,112459161,0.545274,6.63247e-06,1.662,2.54188,0.120743,2.53972,0
112555127,112553508,0.544986,6.62824e-06,-0.874267,2.65936,0.0319351,2.64946,0
112654034,112652828,0.54455,6.62552e-06,1.45004,2.71571,0.0860269,2.69896,0
112753464,112752152,0.544559,6.62266e-06,-0.566743,2.59988,0.013727,2.57957,0
112852647,112851467,0.544317,6.61872e-06,0.676413,2.50964,0.0202567,2.48372,0
112952171,112950786,0.54494,6.61498e-06,-3.43831,2.7173,0.483403,2.81022,0
113051529,113050262,0.544904,6.61426e-06,1.91686,2.80408,0.145595,2.80696,0
113160691,113159358,0.544882,6.61551e-06,-1.08007,2.72287,0.047603,2.70065,0
113260084,113258678,0.544471,6.61377e-06,2.46807,2.76497,0.244783,2.78362,0
113359322,113358017,0.544699,6.6123e-06,-2.83896,2.77906,0.32224,2.83635,0
113458673,113457316,0.544848,6.61163e-06,0.707882,2.80802,0.019828,2.78242,0
113558322,113556636,0.544973,6.61003e-06,-2.2698,2.71413,0.210912,2.73571,0
113652361,113650988,0.545172,6.60718e-06,-0.980369,2.70627,0.0394608,2.6854,0
113751927,113750308,0.545428,6.60521e-06,0.268412,2.6755,0.00299196,2.64908,0
113851036,113849746,0.545141,6.60292e-06,0.155222,2.67417,0.0010011,2.64601,0
113960193,113958880,0.545533,6.60284e-06,-1.85813,2.65288,0.144607,2.65085,0
114059364,114058203,0.545508,6.60013e-06,0.228185,2.57369,0.0022479,2.54802,0
114158951,114157518,0.545858,6.59642e-06,-2.55525,2.53338,0.286366,2.55545,0
114257957,114256837,0.545767,6.59294e-06,2.55774,2.48969,0.29196,2.54029,0
114357532,114356157,0.545326,6.59097e-06,0.429714,2.71013,0.00757054,2.68357,0
114452162,114450510,0.545376,6.58724e-06,-0.969937,2.59026,0.0403554,2.57074,0
114551095,114549833,0.545668,6.58401e-06,-0.94404,2.53614,0.0390449,2.51495,0
114660448,114659210,0.545093,6.58406e-06,2.42365,2.79496,0.233518,2.81812,0
114759805,114758401,0.545069,6.58314e-06,-1.51863,2.74261,0.0934324,2.73947,0
114859004,114857723,0.545157,6.58163e-06,0.719226,2.67092,0.0215193,2.64678,0
114958603,114957041,0.545407,6.5793e-06,-3.24988,2.67463,0.43876,2.7462,0
115057681,115056360,0.54577,6.57882e-06,0.0248253,2.81148,2.43564e-05,2.78224,0
115156843,115155678,0.545465,6.57858e-06,0.631976,2.80501,0.0158206,2.7799,0
115251591,115250073,0.545579,6.57627e-06,-1.05023,2.70571,0.0452943,2.68584,0
115360556,115359283,0.546009,6.57756e-06,-0.347678,2.76666,0.00485463,2.73737,0
115459971,115458738,0.545588,6.57705e-06,1.33763,2.85998,0.0695128,2.84926,0
115554133,115552956,0.545479,6.57512e-06,1.49101,2.77145,0.0891271,2.76448,0
115653573,115652277,0.545672,6.57363e-06,-1.79734,2.71677,0.132119,2.71613,0
115753046,115751741,0.545555,6.57202e-06,2.61675,2.69361,0.282453,2.73444,0
115852316,115850916,0.54533,6.57092e-06,-0.333366,2.72518,0.00453111,2.69779,0
115951571,115950248,0.545535,6.56925e-06,0.0119064,2.6571,5.92805e-06,2.62886,0
116055936,116054519,0.545269,6.56834e-06,-1.01746,2.66548,0.0431538,2.64545,0
116155257,116153839,0.544906,6.5661e-06,2.42688,2.62832,0.248987,2.64818,0
116254563,116253163,0.544951,6.56366e-06,-0.944613,2.59249,0.0382427,2.57724,0
116353689,116352478,0.544864,6.56035e-06,2.07308,2.51977,0.189508,2.52734,0
116453074,116451823,0.544788,6.55637e-06,-1.37988,2.45912,0.0860322,2.45753,0
116552870,116551235,0.545404,6.55357e-06,-1.263,2.73501,0.0648044,2.72021,0
116651607,116650437,0.54543,6.55181e-06,0.832991,2.65534,0.0290347,2.63495,0
116751389,116749756,0.545457,6.54895e-06,-1.39247,2.54186,0.084757,2.53195,0
116860625,116859007,0.545266,6.54765e-06,2.76161,2.49688,0.33938,2.54333,0
116959530,116958329,0.544989,6.54475e-06,-0.35977,2.5824,0.0055691,2.55728,0
117059133,117057646,0.545199,6.54121e-06,-0.639233,2.50224,0.0181445,2.48005,0
117158156,117156967,0.544638,6.53763e-06,3.06236,2.58591,0.402954,2.63539,0
117257653,117256285,0.544819,6.53524e-06,-3.09107,2.6579,0.399426,2.73307,0
117357082,117355699,0.545236,6.53453e-06,-1.10059,2.82118,0.0477066,2.80237,0
117451633,117449976,0.545253,6.53243e-06,0.505285,2.70868,0.0104731,2.68281,0
117560831,117559211,0.545027,6.53344e-06,-0.758239,2.66913,0.0239332,2.6474,0
117659953,117658529,0.545604,6.53236e-06,-2.24321,2.8278,0.19772,2.83918,0
117759474,117757848,0.54541,6.53233e-06,1.62771,2.80559,0.104928,2.80465,0
117858282,117857170,0.545605,6.53185e-06,-1.7843,2.7815,0.127179,2.77784,0
117957847,117956488,0.545532,6.53128e-06,1.66348,2.7078,0.113547,2.71012,0
118057032,118055807,0.5454,6.53058e-06,-0.557339,2.6971,0.0127967,2.67102,0
118156785,118155246,0.545351,6.52905e-06,2.17275,2.59647,0.20202,2.61625,0
118260681,118259413,0.545474,6.52902e-06,1.15838,2.70426,0.055133,2.68382,0
118360395,118358731,0.545246,6.52818e-06,-0.311275,2.69633,0.00399275,2.66902,0
118459235,118458052,0.545294,6.52645e-06,1.26725,2.58484,0.0690316,2.57251,0
118558939,118557371,0.545138,6.52403e-06,-0.985602,2.54217,0.0424577,2.52633,0
118657862,118656692,0.545489,6.52148e-06,0.207647,2.59772,0.00184424,2.57083,0
118752229,118751043,0.545525,6.51771e-06,-1.78546,2.56959,0.137847,2.5714,0
118851726,118850363,0.545524,6.51484e-06,-0.378739,2.4857,0.00641193,2.46017,0
118950849,118949689,0.546119,6.51159e-06,-2.46224,2.64517,0.254662,2.66349,0
119055268,119053968,0.546478,6.5111e-06,-2.77976,2.6239,0.32721,2.65037,0
119154420,119153289,0.546758,6.50978e-06,-0.313485,2.62859,0.00415402,2.601,0
119254129,119252764,0.546962,6.50743e-06,-1.96044,2.50847,0.170238,2.50151,0
119353249,119351927,0.547149,6.50407e-06,0.331314,2.4325,0.005014,2.4143,0
119452883,119451249,0.546622,6.50125e-06,1.62266,2.64296,0.110693,2.65107,0
119551986,119550566,0.546838,6.49922e-06,-4.05742,2.60565,0.702006,2.71193,0
119651262,119649885,0.547384,6.49902e-06,-1.79281,2.84516,0.125522,2.82981,0
119760333,119759156,0.546965,6.50212e-06,2.5876,3.03229,0.245348,3.08194,0
119859813,119858456,0.546843,6.50401e-06,-1.42953,3.05668,0.0742835,3.03909,0
119959076,119957776,0.547201,6.50554e-06,-1.19979,3.04074,0.0526001,3.01562,0
120058614,120057241,0.547102,6.50662e-06,1.34297,2.95605,0.0677916,2.95065,0
120153050,120151448,0.547187,6.50585e-06,0.0942744,2.8645,0.000344743,2.83561,0
120251947,120250768,0.546768,6.50634e-06,1.03727,2.97101,0.0402382,2.95166,0
120351394,120350087,0.546969,6.50689e-06,-3.13551,2.87218,0.380332,2.92853,0
120460652,120459340,0.547501,6.51161e-06,-1.19451,3.16652,0.0500674,3.13942,0
120560031,120558733,0.547013,6.51504e-06,2.72052,3.41359,0.240907,3.45693,0
120659566,120657987,0.546873,6.51968e-06,-0.486884,3.40057,0.00774562,3.3671,0
120758706,120757298,0.547236,6.52381e-06,-1.55541,3.40736,0.0788912,3.38931,0
120858105,120856728,0.547308,6.52765e-06,-0.748763,3.27982,0.0189931,3.24798,0
120957597,120955938,0.547423,6.53047e-06,-0.509156,3.13387,0.00919133,3.1015,0
121056534,121055265,0.547183,6.53255e-06,3.10263,3.10095,0.344923,3.1707,0
121150894,121149612,0.546893,6.53442e-06,-0.610854,3.24376,0.0127816,3.22094,0
121260056,121258861,0.546445,6.54009e-06,1.98841,3.33491,0.131731,3.3288,0
121359568,121358182,0.546495,6.54349e-06,-2.72958,3.30692,0.250337,3.35774,0
121458609,121457497,0.546876,6.54766e-06,-1.20598,3.48116,0.0464211,3.45901,0
121558236,121556820,0.546697,6.55187e-06,1.19963,3.37525,0.0473748,3.35198,0
121657487,121656212,0.546792,6.5553e-06,-1.43264,3.27411,0.0696524,3.26088,0
121751718,121750495,0.54687,6.55681e-06,-1.26188,3.16828,0.0558435,3.15032,0
121851146,121849812,0.547146,6.5591e-06,-0.519024,3.13671,0.00954241,3.10511,0
121940812,121939338,0.546988,6.56308e-06,2.43385,3.05484,0.215455,3.08286,0
122055000,122053417,0.547058,6.56351e-06,-0.139273,2.97018,0.000725624,2.9389,0
122154099,122152739,0.54719,6.5637e-06,-2.27521,2.85301,0.201603,2.86807,0
122253444,122252056,0.54748,6.56371e-06,-0.27525,2.8555,0.00294802,2.82531,0
122352702,122351376,0.546901,6.56438e-06,2.33944,3.10936,0.195574,3.12827,0
122452112,122450799,0.547023,6.56582e-06,-3.2992,3.06812,0.394186,3.14176,0
122551280,122550017,0.547338,6.56768e-06,-0.814449,3.15645,0.02335,3.1273,0
122660555,122659269,0.547173,6.57158e-06,-0.443039,3.06998,0.00710407,3.03896,0
122760308,122758778,0.547683,6.57273e-06,-3.01988,3.14009,0.322697,3.17938,0
122854242,122852940,0.547812,6.57336e-06,-3.24193,3.13426,0.372588,3.18308,0
122953541,122952260,0.548268,6.57624e-06,-0.921638,3.30458,0.0285603,3.27133,0
123053387,123051578,0.547886,6.57974e-06,2.71756,3.42298,0.239723,3.4765,0
123152315,123150898,0.54788,6.58412e-06,-3.22494,3.41607,0.338277,3.46617,0
123251608,123250218,0.548308,6.58888e-06,-1.99181,3.5474,0.124263,3.53287,0
123360751,123359474,0.548032,6.59621e-06,2.22078,3.59465,0.152445,3.62963,0
123460190,123458789,0.547939,6.60124e-06,-1.27648,3.55346,0.0509488,3.52809,0
123559453,123558257,0.548228,6.60567e-06,-1.52735,3.486,0.0743544,3.46363,0
123659013,123657428,0.548072,6.60949e-06,1.6714,3.41159,0.0909836,3.41073,0
123757953,123756748,0.547866,6.61324e-06,0.0983694,3.38227,0.000317884,3.3472,0
123857477,123856074,0.548213,6.61628e-06,-3.00046,3.34273,0.299249,3.38164,0
123956667,123955388,0.548596,6.62007e-06,-1.1703,3.42218,0.0444683,3.39178,0
124056094,124054727,0.548351,6.62383e-06,2.46159,3.37478,0.199501,3.41245,0
124160415,124158992,0.548327,6.6301e-06,-2.19946,3.6717,0.146394,3.67087,0
124259654,124258311,0.548433,6.63535e-06,0.275258,3.55556,0.00236771,3.52159,0
124359137,124357749,0.54829,6.64001e-06,0.451696,3.44549,0.0065796,3.4133,0
124458231,124456950,0.548361,6.64373e-06,-1.08609,3.2887,0.0398537,3.26197,0
124557917,124556327,0.548167,6.64665e-06,2.93598,3.1731,0.301842,3.22941,0
124652019,124650623,0.54791,6.6485e-06,-0.775119,3.25652,0.0204994,3.23566,0
124751225,124749947,0.547682,6.65085e-06,2.45899,3.14973,0.213303,3.16817,0
124860309,124859195,0.547417,6.65564e-06,0.136026,3.18465,0.000645567,3.15141,0
124959951,124958514,0.547841,6.65744e-06,-2.80428,3.28565,0.265937,3.33116,0
125059102,125057834,0.548095,6.6605e-06,1.14577,3.3798,0.0431576,3.35924,0
125158650,125157235,0.54773,6.66339e-06,2.89166,3.39471,0.273685,3.4349,0
125253117,125251520,0.547873,6.66536e-06,-1.29765,3.44279,0.0543458,3.42424,0
125352229,125350826,0.547668,6.66827e-06,1.3016,3.37338,0.0558016,3.35121,0
125451551,125450338,0.547601,6.67058e-06,-0.944305,3.24689,0.0305151,3.22468,0
125560750,125559405,0.547907,6.67464e-06,-1.14734,3.23528,0.0452097,3.20441,0
125659832,125658718,0.547799,6.6759e-06,2.26345,3.09903,0.183684,3.11471,0
125754409,125753070,0.547607,6.67629e-06,-1.46716,3.30703,0.0723229,3.29772,0
125853982,125852390,0.547554,6.67819e-06,2.50775,3.21092,0.217618,3.23143,0
125953001,125951772,0.547142,6.68012e-06,2.62043,3.24238,0.235309,3.25909,0
126052320,126051029,0.546933,6.68176e-06,0.036668,3.18098,4.69645e-05,3.14892,0
126151509,126150349,0.547252,6.68273e-06,-2.17124,3.19448,0.163973,3.21716,0
126251187,126249836,0.547611,6.68442e-06,-1.68937,3.26336,0.0971722,3.25789,0
126360591,126358920,0.547704,6.68847e-06,0.385509,3.15012,0.00524201,3.11867,0
126459537,126458239,0.547511,6.68936e-06,1.29041,3.04177,0.0608259,3.02447,0
126558889,126557556,0.547397,6.68949e-06,0.652801,2.9226,0.0162013,2.89463,0
126658483,126656878,0.547453,6.68853e-06,0.17238,2.79891,0.00117962,2.76934,0
126757556,126756268,0.547067,6.68681e-06,3.20432,2.75805,0.413645,2.81554,0
126851719,126850553,0.547065,6.68449e-06,-0.310395,2.82775,0.00378569,2.80059,0
126951256,126949871,0.546531,6.68357e-06,3.39355,2.86366,0.446833,2.9192,0
127060674,127059280,0.546178,6.68653e-06,0.473729,2.94418,0.00846942,2.91303,0
127159653,127158442,0.54662,6.68691e-06,-2.15571,3.07693,0.167811,3.10366,0
127259158,127257762,0.546795,6.68837e-06,-0.277174,3.09221,0.00276053,3.06182,0
127358380,127357080,0.546909,6.68886e-06,-1.02595,2.96377,0.0394611,2.94529,0
127458043,127456419,0.547054,6.68832e-06,-0.612772,2.85971,0.0145893,2.83359,0
