timestamp,lat,lon,alt,alt_ellipsoid,delta_alt,eph,epv,terrain_alt,lat_lon_reset_counter,alt_reset_counter,terrain_alt_valid,dead_reckoning
42339918,34.034368912,108.755143783,426.882,398.817,-0.0,0.746188,1.16528,426.789,2,0,1,0
42349846,34.0343689106,108.755143787,426.882,398.812,-0.0,0.746548,1.16553,426.789,2,0,1,0
42538628,34.0343688775,108.755143888,426.882,398.812,-0.0,0.74606,1.16502,426.793,2,0,1,0
42737190,34.0343688648,108.755143964,426.882,398.807,-0.0,0.745929,1.16477,426.794,2,0,1,0
42945769,34.034368823,108.755144041,426.888,398.808,-0.0,0.746151,1.16562,426.803,2,0,1,0
43149360,34.0343687596,108.755144127,426.893,398.809,-0.0,0.746014,1.16536,426.805,2,0,1,0
43348032,34.0343686563,108.755144214,426.901,398.813,-0.0,0.745881,1.16511,426.808,2,0,1,0
43541670,34.0343685816,108.755144304,426.91,398.818,-0.0,0.7454,1.16546,426.808,2,0,1,0
43745271,34.0343684999,108.75514439,426.927,398.83,-0.0,0.745288,1.1652,426.808,2,0,1,0
43943908,34.0343683528,108.755144463,426.946,398.845,-0.0,0.745214,1.16493,426.808,2,0,1,0
44142545,34.0343681798,108.755144514,426.964,398.859,-0.0,0.745208,1.16467,426.808,2,0,1,0
44341182,34.0343680333,108.755144584,426.984,398.874,-0.0,0.745182,1.16525,426.808,2,0,1,0
44539820,34.0343678981,108.755144681,426.998,398.884,-0.0,0.745193,1.16497,426.808,2,0,1,0
44748388,34.0343677557,108.755144818,427.013,398.895,-0.0,0.745602,1.16493,426.808,2,0,1,0
44947040,34.0343676063,108.755145046,427.026,398.903,-0.0,0.745654,1.16551,426.808,2,0,1,0
45140698,34.0343674389,108.755145426,427.031,398.904,-0.0,0.745307,1.16497,426.808,2,0,1,0
45344300,34.0343672464,108.755145896,427.038,398.907,-0.0,0.745358,1.16553,426.808,2,0,1,0
45542938,34.0343670928,108.755146356,427.057,398.922,-0.0,0.745401,1.16522,426.808,2,0,1,0
45741623,34.0343669825,108.7551467,427.09,398.95,-0.0,0.745477,1.16491,426.808,2,0,1,0
45940217,34.0343669246,108.755146983,427.144,398.998,-0.0,0.745496,1.16461,426.808,2,0,1,0
46148780,34.0343668956,108.755147361,427.216,399.064,-0.0,0.745896,1.16539,426.808,2,0,1,0
46347417,34.0343668627,108.755147814,427.309,399.151,-0.0,0.745824,1.16508,426.808,2,0,1,0
46546054,34.0343668123,108.755148319,427.414,399.249,-0.0,0.74576,1.16477,426.808,2,0,1,0
46739727,34.0343667597,108.755148938,427.511,399.339,-0.0,0.745288,1.16507,426.808,2,0,1,0
46943329,34.034366427,108.755149604,427.613,399.432,-0.0,0.745198,1.16474,426.808,2,0,1,0
47142122,34.0343658057,108.755150413,427.718,399.528,-0.0,0.74511,1.16443,426.808,2,0,1,0
47340619,34.0343647535,108.75515129,427.837,399.639,-0.0,0.745006,1.16496,426.808,2,0,1,0
47539240,34.0343632588,108.755152228,427.971,399.767,-0.0,0.744889,1.16464,426.808,2,0,1,0
47742844,34.0343615966,108.755153002,428.112,399.9,-0.0,0.744716,1.16432,426.808,2,0,1,0
47941595,34.0343601028,108.755153469,428.247,400.024,-0.0,0.744407,1.16482,426.808,2,0,1,0
48140126,34.0343587743,108.755153752,428.377,400.148,-0.0,0.744282,1.16451,426.808,2,0,1,0
48338755,34.0343575087,108.755153562,428.512,400.275,-0.0,0.744133,1.16419,0.0,2,0,0,0
48547324,34.0343561567,108.755152994,428.659,400.413,-0.0,0.744254,1.16408,0.0,2,0,0,0
48746064,34.0343547412,108.755152422,428.804,400.548,-0.0,0.744037,1.16458,0.0,2,0,0,0
48944600,34.0343532939,108.755151837,428.943,400.677,-0.0,0.743774,1.16424,0.0,2,0,0,0
49148208,34.03435182,108.7551513,429.061,400.786,-0.0,0.743519,1.16389,0.0,2,0,0,0
49341921,34.0343505356,108.7551508,429.135,400.851,-0.0,0.742949,1.16416,0.0,2,0,0,0
49540601,34.0343492411,108.755150343,429.184,400.888,-0.0,0.742756,1.16382,0.0,2,0,0,0
49739148,34.0343479938,108.755150084,429.197,400.89,-0.0,0.742645,1.16349,0.0,2,0,0,0
49942785,34.0343468775,108.755149972,429.185,400.864,-0.0,0.742403,1.16315,0.0,2,0,0,0
50141392,34.0343458612,108.755149944,429.165,400.834,-0.0,0.742371,1.16364,0.0,2,0,0,0
50340032,34.0343445829,108.755150065,429.142,400.799,-0.0,0.742373,1.16333,0.0,2,0,0,0
50543630,34.0343429944,108.75515017,429.124,400.768,-0.0,0.74236,1.16302,0.0,2,0,0,0
50742266,34.0343413383,108.755150281,429.114,400.745,-0.0,0.74241,1.16273,0.0,2,0,0,0
50940927,34.0343395947,108.755150343,429.111,400.73,-0.0,0.742471,1.16326,0.0,2,0,0,0
51139554,34.0343377564,108.755150286,429.114,400.719,-0.0,0.74255,1.16299,0.0,2,0,0,0
51348110,34.0343358392,108.755150204,429.115,400.705,-0.0,0.742904,1.16373,0.0,2,0,0,0
51546747,34.034334014,108.75515015,429.118,400.695,-0.0,0.742982,1.16346,0.0,2,0,0,0
51740419,34.0343322245,108.755150081,429.129,400.693,-0.0,0.742684,1.16299,0.0,2,0,0,0
51939057,34.0343303497,108.755149986,429.142,400.694,-0.0,0.742696,1.16355,0.0,2,0,0,0
52147625,34.0343284028,108.755149903,429.151,400.69,-0.0,0.743106,1.16353,0.0,2,0,0,0
52346264,34.0343265962,108.755149821,429.155,400.68,-0.0,0.743123,1.1633,0.0,2,0,0,0
52539934,34.034324863,108.755149716,429.151,400.661,-0.0,0.742754,1.16366,0.0,2,0,0,0
52748503,34.0343230763,108.755149529,429.15,400.646,-0.0,0.743095,1.16366,0.0,2,0,0,0
52947141,34.0343213392,108.755149362,429.152,400.633,-0.0,0.743025,1.16344,0.0,2,0,0,0
53140812,34.0343196651,108.755149258,429.153,400.619,-0.0,0.742626,1.16383,0.0,2,0,0,0
53339638,34.0343180009,108.755149104,429.157,400.609,-0.0,0.742523,1.16363,0.0,2,0,0,0
53543055,34.0343162973,108.7551488,429.176,400.613,-0.0,0.742446,1.16344,0.0,2,0,0,0
53741708,34.0343145802,108.755148409,429.189,400.61,-0.0,0.742315,1.16326,0.0,2,0,0,0
53940330,34.0343128323,108.755148003,429.2,400.608,-0.0,0.742212,1.1639,0.0,2,0,0,0
54148902,34.0343109753,108.755147703,429.218,400.612,-0.0,0.74245,1.16396,0.0,2,0,0,0
54347535,34.0343091718,108.755147404,429.236,400.616,-0.0,0.742335,1.16378,0.0,2,0,0,0
54541213,34.0343073539,108.755147072,429.255,400.62,-0.0,0.741892,1.1642,0.0,2,0,0,0
54739844,34.0343054907,108.755146742,429.267,400.618,-0.0,0.741776,1.16402,0.0,2,0,0,0
54938589,34.0343036778,108.75514654,429.272,400.607,-0.0,0.741667,1.16385,0.0,2,0,0,0
55147076,34.034301832,108.75514638,429.273,400.592,-0.0,0.741857,1.16391,0.0,2,0,0,0
55345689,34.0343000759,108.755146261,429.272,400.574,-0.0,0.741751,1.16456,0.0,2,0,0,0
55549292,34.034298258,108.75514611,429.268,400.555,-0.0,0.741619,1.16437,0.0,2,0,0,0
55748050,34.0342964588,108.755145987,429.266,400.536,-0.0,0.741488,1.16418,0.0,2,0,0,0
55946566,34.034294677,108.75514593,429.265,400.519,-0.0,0.741396,1.16399,0.0,2,0,0,0
56140239,34.0342929216,108.755145846,429.256,400.493,-0.0,0.74098,1.1644,0.0,2,0,0,0
56338875,34.0342911614,108.755145697,429.248,400.468,-0.0,0.740887,1.16421,0.0,2,0,0,0
56547535,34.0342893413,108.755145493,429.247,400.449,-0.0,0.741132,1.16424,0.0,2,0,0,0
56741116,34.0342875719,108.755145302,429.249,400.436,-0.0,0.740733,1.16463,0.0,2,0,0,0
56949687,34.0342856173,108.75514515,429.258,400.429,-0.0,0.740994,1.16465,0.0,2,0,0,0
57143357,34.0342838451,108.755145037,429.261,400.414,-0.0,0.740609,1.16502,0.0,2,0,0,0
57342084,34.034282005,108.755144919,429.256,400.392,-0.0,0.740548,1.16479,0.0,2,0,0,0
57540634,34.0342802042,108.755144718,429.248,400.366,-0.0,0.740485,1.16455,0.0,2,0,0,0
57739270,34.0342784331,108.755144455,429.239,400.34,-0.0,0.740424,1.16432,0.0,2,0,0,0
57937927,34.0342766502,108.755144115,429.241,400.326,-0.0,0.740362,1.16492,0.0,2,0,0,0
58146549,34.0342746755,108.755143699,429.247,400.315,-0.0,0.740638,1.16491,0.0,2,0,0,0
58340150,34.0342728311,108.755143228,429.256,400.309,-0.0,0.740263,1.16526,0.0,2,0,0,0
58548718,34.0342708553,108.755142774,429.272,400.31,-0.0,0.740501,1.16523,0.0,2,0,0,0
58747356,34.0342689791,108.755142402,429.292,400.316,-0.0,0.740464,1.16495,0.0,2,0,0,0
58945995,34.0342670896,108.755142053,429.317,400.327,-0.0,0.740424,1.16467,0.0,2,0,0,0
59139665,34.0342652766,108.755141812,429.331,400.325,-0.0,0.740051,1.165,0.0,2,0,0,0
59338368,34.0342634394,108.755141543,429.329,400.308,-0.0,0.740001,1.16472,0.0,2,0,0,0
59541906,34.0342616295,108.755141236,429.324,400.289,-0.0,0.739948,1.16444,0.0,2,0,0,0
59740545,34.0342598643,108.755140944,429.325,400.274,-0.0,0.739855,1.16501,0.0,2,0,0,0
59944148,34.0342580535,108.7551408,429.321,400.253,-0.0,0.739763,1.16473,0.0,2,0,0,0
60142802,34.0342562772,108.755140708,429.306,400.223,-0.0,0.739763,1.16446,0.0,2,0,0,0
60341423,34.0342545567,108.755140562,429.281,400.181,-0.0,0.739716,1.16418,0.0,2,0,0,0
60540062,34.0342528692,108.755140368,429.263,400.146,-0.0,0.739666,1.16475,0.0,2,0,0,0
60743666,34.0342511813,108.755140199,429.244,400.11,-0.0,0.73964,1.16447,0.0,2,0,0,0
60942302,34.0342495019,108.75514002,429.234,400.083,-0.0,0.739635,1.1642,0.0,2,0,0,0
61141123,34.0342477629,108.755139853,429.233,400.068,-0.0,0.739713,1.16475,0.0,2,0,0,0
61349509,34.0342459038,108.75513974,429.236,400.054,-0.0,0.740102,1.16469,0.0,2,0,0,0
61548204,34.0342441185,108.755139648,429.245,400.049,-0.0,0.74018,1.1644,0.0,2,0,0,0
61746784,34.034242354,108.755139521,429.25,400.039,-0.0,0.740273,1.16495,0.0,2,0,0,0
61945572,34.0342405464,108.755139399,429.266,400.042,-0.0,0.740378,1.16465,0.0,2,0,0,0
62144061,34.0342387532,108.755139385,429.285,400.048,-0.0,0.740466,1.16434,0.0,2,0,0,0
62337734,34.0342369228,108.755139448,429.297,400.047,-0.0,0.740195,1.16465,0.0,2,0,0,0
62541335,34.0342350181,108.755139496,429.31,400.048,-0.0,0.74023,1.16435,0.0,2,0,0,0
62740071,34.0342331446,108.755139466,429.311,400.037,-0.0,0.740247,1.16405,0.0,2,0,0,0
62948543,34.0342311945,108.755139331,429.309,400.022,-0.0,0.740589,1.16398,0.0,2,0,0,0
63142216,34.0342293702,108.755139163,429.308,400.009,-0.0,0.74025,1.1643,0.0,2,0,0,0
63340852,34.0342275203,108.755138987,429.308,399.998,-0.0,0.74024,1.16401,0.0,2,0,0,0
63539544,34.0342257157,108.75513881,429.31,399.989,-0.0,0.740232,1.16372,0.0,2,0,0,0
63738130,34.0342239353,108.755138597,429.323,399.991,-0.0,0.740222,1.16427,0.0,2,0,0,0
63941769,34.0342221401,108.755138314,429.338,399.995,-0.0,0.74021,1.16397,0.0,2,0,0,0
64140369,34.0342204056,108.755138083,429.337,399.982,-0.0,0.740201,1.16367,0.0,2,0,0,0
64349001,34.0342186467,108.755137871,429.324,399.957,-0.0,0.740554,1.1636,0.0,2,0,0,0
64547578,34.0342169456,108.755137606,429.322,399.932,-0.0,0.740536,1.16413,0.0,2,0,0,0
64746215,34.0342152291,108.755137296,429.326,399.936,-0.0,0.740504,1.16384,0.0,2,0,0,0
64939886,34.03421353,108.755137005,429.328,399.925,-0.0,0.740134,1.16333,0.0,2,0,0,0
65138524,34.0342117668,108.755136771,429.326,399.91,-0.0,0.740083,1.16386,0.0,2,0,0,0
65347095,34.0342098996,108.755136612,429.328,399.901,-0.0,0.74035,1.16379,0.0,2,0,0,0
65545731,34.0342081205,108.755136488,429.334,399.895,-0.0,0.740282,1.16351,0.0,2,0,0,0
65739404,34.0342064278,108.755136396,429.336,399.885,-0.0,0.739846,1.16383,0.0,2,0,0,0
65948025,34.0342046207,108.755136335,429.336,399.861,-0.0,0.740057,1.16376,0.0,2,0,0,0
66141645,34.0342029127,108.75513622,429.335,399.86,-0.0,0.739673,1.16327,0.0,2,0,0,0
66340283,34.0342011641,108.755136014,429.331,399.844,-0.0,0.739644,1.163,0.0,2,0,0,0
66543887,34.0341993602,108.755135821,429.33,399.831,-0.0,0.73957,1.16354,0.0,2,0,0,0
66742525,34.0341976151,108.755135608,429.333,399.821,-0.0,0.739506,1.16327,0.0,2,0,0,0
66941163,34.0341958806,108.755135395,429.338,399.815,-0.0,0.739476,1.16301,0.0,2,0,0,0
67139803,34.0341941416,108.755135169,429.341,399.806,-0.0,0.739412,1.16274,0.0,2,0,0,0
67348379,34.0341922988,108.755134964,429.333,399.775,-0.0,0.739662,1.16269,0.0,2,0,0,0
67547036,34.0341905265,108.75513476,429.328,399.771,-0.0,0.7396,1.16323,0.0,2,0,0,0
67740682,34.0341887707,108.75513455,429.325,399.757,-0.0,0.739211,1.16274,0.0,2,0,0,0
67939371,34.0341869674,108.755134391,429.317,399.738,-0.0,0.739152,1.16328,0.0,2,0,0,0
68147892,34.0341850793,108.755134239,429.311,399.723,-0.0,0.739446,1.1632,0.0,2,0,0,0
68346526,34.0341832882,108.755134132,429.309,399.71,-0.0,0.739388,1.16292,0.0,2,0,0,0
68540202,34.0341815292,108.755134042,429.303,399.694,-0.0,0.739017,1.16323,0.0,2,0,0,0
68738838,34.034179762,108.755133928,429.293,399.675,-0.0,0.738974,1.16296,0.0,2,0,0,0
68947582,34.0341778677,108.755133731,429.29,399.664,-0.0,0.739256,1.16289,0.0,2,0,0,0
69141079,34.0341760747,108.755133527,429.288,399.654,-0.0,0.738905,1.16321,0.0,2,0,0,0
69344690,34.0341742082,108.755133301,429.287,399.644,-0.0,0.738879,1.16293,0.0,2,0,0,0
69543321,34.0341724466,108.755133116,429.285,399.635,-0.0,0.738856,1.16265,0.0,2,0,0,0
69742072,34.0341706818,108.755133029,429.293,399.635,-0.0,0.738859,1.16318,0.0,2,0,0,0
69940595,34.0341688916,108.755133,429.302,399.637,-0.0,0.738863,1.1629,0.0,2,0,0,0
70139246,34.0341670613,108.755132878,429.309,399.636,-0.0,0.73883,1.16262,0.0,2,0,0,0
70342836,34.0341652286,108.755132676,429.318,399.639,-0.0,0.738835,1.16314,0.0,2,0,0,0
70541547,34.0341634503,108.755132504,429.325,399.639,-0.0,0.738806,1.16286,0.0,2,0,0,0
70740112,34.0341616719,108.755132327,429.329,399.637,-0.0,0.738815,1.16258,0.0,2,0,0,0
70948694,34.0341598646,108.75513213,429.333,399.635,-0.0,0.739118,1.16251,0.0,2,0,0,0
71147320,34.0341581435,108.755131999,429.343,399.639,-0.0,0.739117,1.16304,0.0,2,0,0,0
71346028,34.0341563613,108.755131919,429.345,399.635,-0.0,0.739141,1.16276,0.0,2,0,0,0
71539630,34.0341546043,108.755131884,429.34,399.625,-0.0,0.738855,1.16307,0.0,2,0,0,0
71738269,34.0341528201,108.755131763,429.332,399.612,-0.0,0.738897,1.16279,0.0,2,0,0,0
71946839,34.0341509642,108.755131627,429.327,399.601,-0.0,0.739263,1.16272,0.0,2,0,0,0
72145570,34.034149191,108.755131416,429.32,399.588,-0.0,0.739303,1.16245,0.0,2,0,0,0
72349099,34.0341474187,108.75513115,429.318,399.58,-0.0,0.739337,1.16297,0.0,2,0,0,0
72542765,34.0341456881,108.755130954,429.316,399.573,-0.0,0.739063,1.16249,0.0,2,0,0,0
72741390,34.0341438799,108.755130795,429.314,399.566,-0.0,0.739117,1.16223,0.0,2,0,0,0
72940078,34.0341420902,108.755130628,429.309,399.556,-0.0,0.739173,1.16198,0.0,2,0,0,0
73143632,34.034140259,108.755130369,429.311,399.553,-0.0,0.739256,1.16251,0.0,2,0,0,0
73342270,34.0341384584,108.755130097,429.319,399.556,-0.0,0.73933,1.16226,0.0,2,0,0,0
73540912,34.0341366626,108.755129943,429.331,399.564,-0.0,0.739371,1.162,0.0,2,0,0,0
73749515,34.034134778,108.755129798,429.342,399.57,-0.0,0.739723,1.16196,0.0,2,0,0,0
73948112,34.0341329877,108.755129605,429.355,399.579,-0.0,0.73976,1.1625,0.0,2,0,0,0
74146754,34.0341312542,108.755129324,429.362,399.582,-0.0,0.739804,1.16225,0.0,2,0,0,0
74335656,34.0341295985,108.755129029,429.371,399.586,-0.0,0.739498,1.16179,0.0,2,0,0,0
74539069,34.0341277867,108.755128794,429.383,399.595,-0.0,0.739554,1.16233,0.0,2,0,0,0
74737702,34.0341260185,108.755128522,429.39,399.599,-0.0,0.739615,1.16209,0.0,2,0,0,0
74946275,34.0341241455,108.755128199,429.397,399.603,-0.0,0.740011,1.16204,0.0,2,0,0,0
75135183,34.0341224579,108.755127882,429.401,399.604,-0.0,0.739756,1.16237,0.0,2,0,0,0
75348515,34.0341205364,108.755127611,429.406,399.606,-0.0,0.740143,1.16232,0.0,2,0,0,0
75547154,34.034118782,108.755127571,429.4,399.595,-0.0,0.740202,1.16207,0.0,2,0,0,0
75740825,34.0341170661,108.755127584,429.39,399.581,-0.0,0.739932,1.1624,0.0,2,0,0,0
75939605,34.0341153425,108.755127632,429.381,399.566,-0.0,0.740024,1.16216,0.0,2,0,0,0
76138101,34.0341136157,108.755127742,429.373,399.554,-0.0,0.740068,1.16192,0.0,2,0,0,0
76341705,34.0341117926,108.755127805,429.368,399.546,-0.0,0.740105,1.16167,0.0,2,0,0,0
76540410,34.0341099556,108.755127752,429.371,399.545,-0.0,0.740148,1.16222,0.0,2,0,0,0
76749062,34.0341079857,108.755127658,429.379,399.55,-0.0,0.740506,1.16218,0.0,2,0,0,0
76947552,34.0341060959,108.755127552,429.385,399.552,-0.0,0.740537,1.16194,0.0,2,0,0,0
77141224,34.0341042571,108.755127381,429.392,399.554,-0.0,0.740241,1.16151,0.0,2,0,0,0
77339862,34.0341024118,108.755127119,429.402,399.561,-0.0,0.740261,1.16205,0.0,2,0,0,0
77538623,34.0341005946,108.755126819,429.411,399.567,-0.0,0.740277,1.16182,0.0,2,0,0,0
77747070,34.0340986822,108.755126544,429.419,399.571,-0.0,0.740574,1.16179,0.0,2,0,0,0
77945708,34.0340968977,108.75512627,429.425,399.574,-0.0,0.740586,1.16156,0.0,2,0,0,0
78149312,34.0340951162,108.755126005,429.43,399.576,-0.0,0.740594,1.1621,0.0,2,0,0,0
78348077,34.0340933907,108.755125774,429.428,399.57,-0.0,0.740602,1.16186,0.0,2,0,0,0
78541631,34.0340916898,108.755125584,429.421,399.558,-0.0,0.740289,1.1622,0.0,2,0,0,0
78740274,34.0340899578,108.755125409,429.417,399.55,-0.0,0.740331,1.16196,0.0,2,0,0,0
78943870,34.0340881815,108.75512528,429.417,399.545,-0.0,0.740319,1.16173,0.0,2,0,0,0
79142521,34.0340864205,108.755125244,429.414,399.537,-0.0,0.74031,1.1615,0.0,2,0,0,0
79341143,34.0340846978,108.755125237,429.409,399.525,-0.0,0.740302,1.16204,0.0,2,0,0,0
79544745,34.034082968,108.75512515,429.403,399.513,-0.0,0.740294,1.16181,0.0,2,0,0,0
79743383,34.0340812822,108.755125012,429.398,399.502,-0.0,0.74029,1.16158,0.0,2,0,0,0
79942026,34.0340795393,108.755124829,429.39,399.488,-0.0,0.74032,1.16213,0.0,2,0,0,0
80140662,34.0340777012,108.755124675,429.384,399.475,-0.0,0.740324,1.16189,0.0,2,0,0,0
80339300,34.0340758514,108.755124431,429.38,399.465,-0.0,0.740328,1.16165,0.0,2,0,0,0
80537937,34.0340740032,108.755124145,429.384,399.462,-0.0,0.74033,1.16141,0.0,2,0,0,0
80746506,34.0340720873,108.755123852,429.391,399.462,-0.0,0.740651,1.16215,0.0,2,0,0,0
80945175,34.0340702831,108.755123574,429.395,399.46,-0.0,0.740651,1.16191,0.0,2,0,0,0
81148786,34.0340685044,108.755123314,429.399,399.45,-0.0,0.7406,1.16167,0.0,2,0,0,0
81347387,34.0340667916,108.755123063,429.41,399.46,-0.0,0.740593,1.16144,0.0,2,0,0,0
81546025,34.0340650278,108.755122881,429.423,399.467,-0.0,0.740571,1.16198,0.0,2,0,0,0
81739698,34.0340632658,108.755122785,429.428,399.464,-0.0,0.740233,1.16154,0.0,2,0,0,0
81938338,34.0340614795,108.755122678,429.427,399.456,-0.0,0.740203,1.16208,0.0,2,0,0,0
82137154,34.0340596784,108.755122544,429.427,399.448,-0.0,0.740176,1.16184,0.0,2,0,0,0
82340581,34.0340578097,108.755122409,429.428,399.441,-0.0,0.740141,1.1616,0.0,2,0,0,0
82539217,34.0340559912,108.755122292,429.423,399.428,-0.0,0.740097,1.16137,0.0,2,0,0,0
82742821,34.0340541517,108.755122177,429.418,399.414,-0.0,0.740059,1.16191,0.0,2,0,0,0
82941619,34.0340523862,108.755122077,429.416,399.403,-0.0,0.740016,1.16167,0.0,2,0,0,0
83140098,34.0340506007,108.75512191,429.417,399.395,-0.0,0.739978,1.16144,0.0,2,0,0,0
83338736,34.0340488298,108.755121715,429.411,399.381,-0.0,0.739931,1.16199,0.0,2,0,0,0
83547306,34.0340469777,108.755121482,429.409,399.37,-0.0,0.740194,1.16196,0.0,2,0,0,0
83746214,34.0340452133,108.755121274,429.408,399.359,-0.0,0.740098,1.16173,0.0,2,0,0,0
83939617,34.0340434814,108.75512108,429.415,399.358,-0.0,0.739734,1.1613,0.0,2,0,0,0
84148188,34.034041618,108.755120812,429.423,399.357,-0.0,0.739996,1.16127,0.0,2,0,0,0
84346825,34.0340398665,108.755120625,429.424,399.349,-0.0,0.739937,1.16181,0.0,2,0,0,0
84545577,34.0340380958,108.755120521,429.424,399.341,-0.0,0.739872,1.16157,0.0,2,0,0,0
84739136,34.0340363374,108.755120422,429.425,399.332,-0.0,0.739452,1.16191,0.0,2,0,0,0
84942740,34.0340344465,108.755120277,429.428,399.326,-0.0,0.739385,1.16167,0.0,2,0,0,0
85141420,34.0340326214,108.755120118,429.43,399.32,-0.0,0.739313,1.16145,0.0,2,0,0,0
85340063,34.0340307851,108.755119896,429.433,399.315,-0.0,0.73924,1.16122,0.0,2,0,0,0
85543621,34.0340289205,108.75511967,429.442,399.317,-0.0,0.739164,1.16176,0.0,2,0,0,0
85742260,34.0340270981,108.755119465,429.449,399.317,-0.0,0.739138,1.16154,0.0,2,0,0,0
85940898,34.034025255,108.75511926,429.453,399.313,-0.0,0.739067,1.16132,0.0,2,0,0,0
86139548,34.0340234288,108.755119099,429.457,399.309,-0.0,0.738993,1.16186,0.0,2,0,0,0
86348138,34.0340215553,108.755118988,429.455,399.298,-0.0,0.739243,1.16183,0.0,2,0,0,0
86541832,34.0340198824,108.755118856,429.448,399.282,-0.0,0.738861,1.1614,0.0,2,0,0,0
86740417,34.0340182133,108.755118708,429.44,399.264,-0.0,0.738755,1.16194,0.0,2,0,0,0
86939055,34.0340165122,108.755118542,429.436,399.251,-0.0,0.738699,1.1617,0.0,2,0,0,0
87142661,34.0340147549,108.755118367,429.437,399.243,-0.0,0.738638,1.16147,0.0,2,0,0,0
87341298,34.0340130523,108.755118223,429.439,399.236,-0.0,0.738574,1.16125,0.0,2,0,0,0
87539938,34.0340113398,108.755118119,429.439,399.226,-0.0,0.738506,1.16179,0.0,2,0,0,0
87738575,34.0340095719,108.755118,429.438,399.216,-0.0,0.738449,1.16156,0.0,2,0,0,0
87947145,34.0340076928,108.755117854,429.434,399.203,-0.0,0.738699,1.16153,0.0,2,0,0,0
88140818,34.0340059223,108.755117732,429.439,399.199,-0.0,0.738285,1.16188,0.0,2,0,0,0
88339456,34.0340040874,108.755117581,429.451,399.202,-0.0,0.738235,1.16165,0.0,2,0,0,0
88548032,34.0340021815,108.755117431,429.462,399.204,-0.0,0.73849,1.16163,0.0,2,0,0,0
88741699,34.0340004066,108.755117303,429.468,399.202,-0.0,0.73813,1.16121,0.0,2,0,0,0
88940372,34.0339985594,108.755117088,429.474,399.2,-0.0,0.738091,1.16176,0.0,2,0,0,0
89139166,34.0339967475,108.755116887,429.482,399.2,-0.0,0.738058,1.16154,0.0,2,0,0,0
89342580,34.0339948979,108.75511672,429.491,399.201,-0.0,0.738029,1.16132,0.0,2,0,0,0
89541220,34.0339930941,108.755116536,429.496,399.199,-0.0,0.738021,1.1611,0.0,2,0,0,0
89739857,34.0339912829,108.755116383,429.499,399.194,-0.0,0.738027,1.16165,0.0,2,0,0,0
89938645,34.033989511,108.755116354,429.493,399.18,-0.0,0.738046,1.16143,0.0,2,0,0,0
90147077,34.0339876485,108.755116301,429.48,399.159,-0.0,0.738387,1.1614,0.0,2,0,0,0
90345709,34.033985821,108.755116123,429.467,399.137,-0.0,0.738414,1.16195,0.0,2,0,0,0
90549309,34.0339839655,108.755115891,429.454,399.115,-0.0,0.738388,1.16171,0.0,2,0,0,0
90748112,34.0339822048,108.755115657,429.445,399.098,-0.0,0.738368,1.16148,0.0,2,0,0,0
90946589,34.0339805377,108.755115432,429.438,399.082,-0.0,0.738385,1.16126,0.0,2,0,0,0
91140264,34.0339789074,108.755115252,429.438,399.073,-0.0,0.738068,1.1616,0.0,2,0,0,0
91338897,34.0339771886,108.755115073,429.443,399.072,-0.0,0.738125,1.16138,0.0,2,0,0,0
91537663,34.0339754528,108.755114905,429.457,399.079,-0.0,0.73819,1.16115,0.0,2,0,0,0
91741141,34.0339736695,108.755114742,429.467,399.082,-0.0,0.73821,1.1617,0.0,2,0,0,0
91949710,34.0339718031,108.755114535,429.481,399.089,-0.0,0.738574,1.16168,0.0,2,0,0,0
92143385,34.0339700211,108.755114264,429.488,399.09,-0.0,0.738318,1.16125,0.0,2,0,0,0
92342090,34.0339681728,108.755114002,429.495,399.091,-0.0,0.738381,1.16179,0.0,2,0,0,0
92540664,34.0339662998,108.755113725,429.501,399.092,-0.0,0.738448,1.16156,0.0,2,0,0,0
92739298,34.0339644043,108.755113455,429.506,399.09,-0.0,0.738554,1.16133,0.0,2,0,0,0
92942905,34.0339624848,108.755113242,429.503,399.081,-0.0,0.738658,1.16188,0.0,2,0,0,0
93141616,34.0339606763,108.755113083,429.498,399.069,-0.0,0.738715,1.16165,0.0,2,0,0,0
93340180,34.0339589555,108.755112946,429.484,399.048,-0.0,0.738812,1.16143,0.0,2,0,0,0
93548750,34.0339571457,108.755112691,429.472,399.029,-0.0,0.739212,1.16141,0.0,2,0,0,0
93747388,34.0339554167,108.755112481,429.466,399.016,-0.0,0.739249,1.16119,0.0,2,0,0,0
93946046,34.0339536417,108.75511228,429.46,399.005,-0.0,0.739302,1.16174,0.0,2,0,0,0
94144670,34.0339518345,108.755112069,429.458,398.998,-0.0,0.739312,1.16151,0.0,2,0,0,0
94338338,34.0339500955,108.755111823,429.464,398.999,-0.0,0.739002,1.16109,0.0,2,0,0,0
94546912,34.0339482371,108.755111605,429.475,399.005,-0.0,0.739338,1.16107,0.0,2,0,0,0
94745567,34.0339464525,108.755111441,429.484,399.009,-0.0,0.739366,1.16162,0.0,2,0,0,0
94949152,34.0339446331,108.755111314,429.498,399.015,-0.0,0.739388,1.16138,0.0,2,0,0,0
95142828,34.0339428929,108.755111308,429.507,399.025,-0.0,0.739103,1.16173,0.0,2,0,0,0
95341464,34.0339411234,108.755111377,429.514,399.028,-0.0,0.739132,1.16149,0.0,2,0,0,0
95540101,34.0339392941,108.755111418,429.521,399.03,-0.0,0.739202,1.16126,0.0,2,0,0,0
95743706,34.0339374255,108.755111369,429.531,399.037,-0.0,0.739255,1.16179,0.0,2,0,0,0
95942379,34.0339356069,108.755111305,429.54,399.042,-0.0,0.739361,1.16156,0.0,2,0,0,0
96140983,34.0339337997,108.75511128,429.544,399.043,-0.0,0.73948,1.16133,0.0,2,0,0,0
96349553,34.0339319016,108.755111228,429.553,399.049,-0.0,0.739905,1.1613,0.0,2,0,0,0
96548192,34.0339301153,108.755111144,429.562,399.056,-0.0,0.740021,1.16184,0.0,2,0,0,0
96741865,34.0339283795,108.755111032,429.565,399.057,-0.0,0.739839,1.16141,0.0,2,0,0,0
96940674,34.0339266192,108.755110926,429.565,399.056,-0.0,0.739983,1.16118,0.0,2,0,0,0
97139150,34.0339249133,108.755110796,429.555,399.044,-0.0,0.740119,1.16173,0.0,2,0,0,0
97337785,34.0339231929,108.755110649,429.545,399.032,-0.0,0.740221,1.1615,0.0,2,0,0,0
97541386,34.033921418,108.755110447,429.54,399.026,-0.0,0.740294,1.16128,0.0,2,0,0,0
97740163,34.0339196341,108.755110199,429.542,399.028,-0.0,0.740358,1.16105,0.0,2,0,0,0
97948594,34.0339177366,108.755109927,429.543,399.029,-0.0,0.740718,1.1618,0.0,2,0,0,0
98147233,34.033915951,108.755109609,429.548,399.034,-0.0,0.740749,1.16158,0.0,2,0,0,0
98340905,34.0339142144,108.755109339,429.549,399.035,-0.0,0.740491,1.16116,0.0,2,0,0,0
98539634,34.0339124264,108.755109038,429.544,399.03,-0.0,0.740509,1.1617,0.0,2,0,0,0
98738183,34.0339106498,108.755108766,429.536,399.022,-0.0,0.740536,1.16148,0.0,2,0,0,0
98941787,34.0339088187,108.755108465,429.535,399.021,-0.0,0.740606,1.16126,0.0,2,0,0,0
99140426,34.0339070612,108.75510821,429.542,399.03,-0.0,0.740632,1.1618,0.0,2,0,0,0
99339257,34.0339053109,108.755108013,429.557,399.046,-0.0,0.740667,1.16157,0.0,2,0,0,0
99542674,34.0339035138,108.75510795,429.572,399.063,-0.0,0.740709,1.16135,0.0,2,0,0,0
99741310,34.0339017758,108.755107945,429.582,399.074,-0.0,0.740779,1.16189,0.0,2,0,0,0
99939948,34.0339000074,108.75510784,429.58,399.071,-0.0,0.740818,1.16166,0.0,2,0,0,0
100138727,34.0338982201,108.755107694,429.569,399.06,-0.0,0.740848,1.16143,0.0,2,0,0,0
100337225,34.0338964439,108.755107586,429.551,399.042,-0.0,0.740907,1.16197,0.0,2,0,0,0
100540833,34.033894602,108.75510749,429.537,399.028,-0.0,0.740924,1.16173,0.0,2,0,0,0
100739467,34.0338928698,108.755107316,429.535,399.026,-0.0,0.740987,1.16149,0.0,2,0,0,0
100948244,34.0338910589,108.755107117,429.543,399.033,-0.0,0.741378,1.16145,0.0,2,0,0,0
101146676,34.0338892379,108.755106905,429.556,399.046,-0.0,0.741429,1.16198,0.0,2,0,0,0
101345316,34.033887356,108.755106799,429.565,399.056,-0.0,0.741497,1.16174,0.0,2,0,0,0
101538988,34.0338854866,108.755106713,429.577,399.068,-0.0,0.741257,1.1613,0.0,2,0,0,0
101737743,34.0338835897,108.755106617,429.58,399.072,-0.0,0.741341,1.16184,0.0,2,0,0,0
101946203,34.0338815914,108.755106483,429.581,399.074,-0.0,0.741759,1.1618,0.0,2,0,0,0
102139870,34.0338797597,108.755106321,429.58,399.073,-0.0,0.741543,1.16136,0.0,2,0,0,0
102343480,34.033877856,108.755106183,429.575,399.069,-0.0,0.741659,1.16189,0.0,2,0,0,0
102542171,34.0338759769,108.75510605,429.57,399.064,-0.0,0.741822,1.16165,0.0,2,0,0,0
102740757,34.0338741383,108.75510588,429.567,399.062,-0.0,0.741976,1.16142,0.0,2,0,0,0
102944357,34.0338723146,108.755105706,429.562,399.055,-0.0,0.742076,1.16195,0.0,2,0,0,0
103142995,34.0338705707,108.755105535,429.555,399.048,-0.0,0.74215,1.1617,0.0,2,0,0,0
103341664,34.0338688641,108.755105279,429.55,399.043,-0.0,0.742245,1.16145,0.0,2,0,0,0
103540276,34.0338671624,108.755104985,429.554,399.047,-0.0,0.742292,1.16198,0.0,2,0,0,0
103738915,34.0338654227,108.755104669,429.562,399.056,-0.0,0.74233,1.16172,0.0,2,0,0,0
103947482,34.0338635737,108.755104403,429.572,399.067,-0.0,0.742686,1.16167,0.0,2,0,0,0
104146128,34.0338618337,108.755104273,429.576,399.071,-0.0,0.742696,1.16142,0.0,2,0,0,0
104339801,34.0338600971,108.755104167,429.579,399.075,-0.0,0.742365,1.16175,0.0,2,0,0,0
104548364,34.0338581813,108.755104023,429.588,399.086,-0.0,0.742718,1.16171,0.0,2,0,0,0
104747003,34.0338563756,108.755103897,429.595,399.095,-0.0,0.742709,1.16146,0.0,2,0,0,0
104945649,34.0338546179,108.755103679,429.601,399.102,-0.0,0.742684,1.16198,0.0,2,0,0,0
105139314,34.0338529423,108.755103374,429.6,399.102,-0.0,0.74235,1.16153,0.0,2,0,0,0
105342921,34.03385121,108.755103131,429.591,399.096,-0.0,0.742341,1.16128,0.0,2,0,0,0
105541558,34.0338495427,108.755102975,429.577,399.083,-0.0,0.74237,1.16182,0.0,2,0,0,0
105740198,34.0338478944,108.755102891,429.563,399.071,-0.0,0.742421,1.16158,0.0,2,0,0,0
105943802,34.0338461701,108.755102791,429.554,399.065,-0.0,0.742479,1.16134,0.0,2,0,0,0
106142442,34.0338444478,108.755102611,429.559,399.073,-0.0,0.742532,1.16111,0.0,2,0,0,0
106341082,34.0338427104,108.755102396,429.564,399.081,-0.0,0.742592,1.16165,0.0,2,0,0,0
106539720,34.0338409754,108.755102149,429.573,399.093,-0.0,0.742656,1.16142,0.0,2,0,0,0
106738361,34.0338391856,108.755101986,429.574,399.098,-0.0,0.742689,1.16195,0.0,2,0,0,0
106941961,34.0338372706,108.755101946,429.575,399.102,-0.0,0.742716,1.16171,0.0,2,0,0,0
107140764,34.0338354645,108.755101887,429.572,399.102,-0.0,0.742751,1.16147,0.0,2,0,0,0
107339239,34.0338336632,108.755101788,429.563,399.095,-0.0,0.742828,1.16124,0.0,2,0,0,0
107547810,34.0338317842,108.755101691,429.548,399.084,-0.0,0.743234,1.16198,0.0,2,0,0,0
107746449,34.0338300055,108.755101521,429.545,399.084,-0.0,0.743232,1.16174,0.0,2,0,0,0
107945246,34.0338282888,108.755101343,429.543,399.086,-0.0,0.743276,1.1615,0.0,2,0,0,0
108138760,34.0338266339,108.755101206,429.542,399.087,-0.0,0.742986,1.16182,0.0,2,0,0,0
108347331,34.0338248699,108.755101028,429.545,399.093,-0.0,0.743358,1.16178,0.0,2,0,0,0
108541004,34.0338232323,108.755100852,429.549,399.099,-0.0,0.743081,1.16134,0.0,2,0,0,0
108749779,34.0338214556,108.755100703,429.554,399.109,-0.0,0.743465,1.16131,0.0,2,0,0,0
108948215,34.0338197394,108.755100568,429.562,399.117,-0.0,0.7435,1.16185,0.0,2,0,0,0
109141886,34.0338180207,108.755100414,429.572,399.13,-0.0,0.743202,1.16141,0.0,2,0,0,0
109340525,34.0338162104,108.755100235,429.582,399.144,-0.0,0.743224,1.16118,0.0,2,0,0,0
109539259,34.0338143894,108.755100052,429.59,399.157,-0.0,0.743279,1.16172,0.0,2,0,0,0
109742769,34.0338125214,108.755099775,429.605,399.176,-0.0,0.743303,1.16149,0.0,2,0,0,0
109941407,34.0338106478,108.75509959,429.617,399.192,-0.0,0.743359,1.16127,0.0,2,0,0,0
110149978,34.0338086996,108.755099452,429.624,399.202,-0.0,0.743699,1.16125,0.0,2,0,0,0
110348723,34.033806862,108.755099338,429.629,399.211,-0.0,0.743708,1.16179,0.0,2,0,0,0
110547256,34.0338050858,108.755099226,429.636,399.221,-0.0,0.743726,1.16157,0.0,2,0,0,0
110740929,34.0338033226,108.755099061,429.635,399.224,-0.0,0.743414,1.16115,0.0,2,0,0,0
110939568,34.0338015098,108.755098915,429.628,399.22,-0.0,0.743441,1.16169,0.0,2,0,0,0
111138255,34.0337996819,108.755098818,429.618,399.212,-0.0,0.743474,1.16147,0.0,2,0,0,0
111346781,34.0337977196,108.755098701,429.617,399.214,-0.0,0.74389,1.16145,0.0,2,0,0,0
111540500,34.0337959046,108.755098547,429.624,399.226,-0.0,0.74363,1.1618,0.0,2,0,0,0
111749064,34.0337939524,108.755098376,429.635,399.246,-0.0,0.744045,1.16177,0.0,2,0,0,0
111947662,34.0337921278,108.755098291,429.643,399.253,-0.0,0.744142,1.16154,0.0,2,0,0,0
112146300,34.0337903931,108.755098249,429.644,399.259,-0.0,0.744251,1.16131,0.0,2,0,0,0
112339971,34.033788739,108.75509817,429.641,399.259,-0.0,0.744038,1.16165,0.0,2,0,0,0
112543576,34.0337869715,108.755098022,429.632,399.255,-0.0,0.744154,1.16142,0.0,2,0,0,0
112742216,34.0337851956,108.755097735,429.628,399.255,-0.0,0.744301,1.1612,0.0,2,0,0,0
112940857,34.0337834387,108.755097427,429.633,399.266,-0.0,0.744407,1.16099,0.0,2,0,0,0
113149425,34.0337815544,108.755097088,429.642,399.281,-0.0,0.744876,1.16173,0.0,2,0,0,0
113348064,34.0337797469,108.755096825,429.645,399.288,-0.0,0.744961,1.16151,0.0,2,0,0,0
113546703,34.0337779338,108.755096582,429.644,399.293,-0.0,0.745044,1.16129,0.0,2,0,0,0
113740376,34.033776155,108.755096365,429.642,399.296,-0.0,0.744795,1.16164,0.0,2,0,0,0
113939015,34.0337743182,108.755096106,429.64,399.299,-0.0,0.744878,1.16142,0.0,2,0,0,0
114137810,34.0337724863,108.755095818,429.642,399.307,-0.0,0.744996,1.16121,0.0,2,0,0,0
114346225,34.033770628,108.755095614,429.641,399.311,-0.0,0.745409,1.16119,0.0,2,0,0,0
114539900,34.0337689067,108.755095421,429.641,399.316,-0.0,0.745156,1.16154,0.0,2,0,0,0
114748469,34.0337670072,108.755095186,429.649,399.336,-0.0,0.745616,1.16152,0.0,2,0,0,0
114947268,34.0337651805,108.755094947,429.656,399.342,-0.0,0.745693,1.16131,0.0,2,0,0,0
115145746,34.0337634389,108.755094641,429.665,399.358,-0.0,0.745769,1.16109,0.0,2,0,0,0
115339415,34.0337617729,108.755094386,429.666,399.364,-0.0,0.745513,1.16144,0.0,2,0,0,0
115543024,34.0337599783,108.755094204,429.659,399.362,-0.0,0.745611,1.16123,0.0,2,0,0,0
115741778,34.0337582759,108.755094068,429.659,399.369,-0.0,0.745678,1.16102,0.0,2,0,0,0
115940303,34.0337565873,108.755093914,429.664,399.38,-0.0,0.745769,1.16158,0.0,2,0,0,0
116143915,34.033754828,108.755093783,429.664,399.386,-0.0,0.745848,1.16137,0.0,2,0,0,0
116342546,34.0337530566,108.755093666,429.658,399.385,-0.0,0.74587,1.16116,0.0,2,0,0,0
116541312,34.033751272,108.755093601,429.65,399.382,-0.0,0.745862,1.16096,0.0,2,0,0,0
116739824,34.0337494866,108.755093545,429.64,399.377,-0.0,0.745842,1.16151,0.0,2,0,0,0
116938463,34.0337477424,108.755093538,429.631,399.372,-0.0,0.745809,1.1613,0.0,2,0,0,0
117147034,34.0337459089,108.755093481,429.627,399.373,-0.0,0.7461,1.16129,0.0,2,0,0,0
117345734,34.0337441635,108.755093362,429.626,399.375,-0.0,0.746049,1.16108,0.0,2,0,0,0
117539346,34.0337424553,108.755093236,429.63,399.382,-0.0,0.745672,1.16143,0.0,2,0,0,0
117747919,34.033740602,108.755093088,429.638,399.395,-0.0,0.745952,1.16142,0.0,2,0,0,0
117946561,34.0337387998,108.755092873,429.65,399.41,-0.0,0.745919,1.16121,0.0,2,0,0,0
118145282,34.0337369293,108.755092706,429.664,399.43,-0.0,0.745889,1.161,0.0,2,0,0,0
118338868,34.0337351466,108.755092503,429.677,399.447,-0.0,0.74553,1.16136,0.0,2,0,0,0
118547439,34.0337332177,108.755092321,429.685,399.461,-0.0,0.745838,1.16135,0.0,2,0,0,0
118741114,34.0337314512,108.75509217,429.689,399.469,-0.0,0.745473,1.16094,0.0,2,0,0,0
118939751,34.0337297105,108.755091984,429.695,399.479,-0.0,0.745444,1.16149,0.0,2,0,0,0
119143355,34.0337279162,108.755091788,429.702,399.491,-0.0,0.745418,1.16127,0.0,2,0,0,0
119341998,34.0337261338,108.755091647,429.708,399.501,-0.0,0.745409,1.16106,0.0,2,0,0,0
119540633,34.0337243427,108.755091519,429.706,399.502,-0.0,0.745426,1.16161,0.0,2,0,0,0
119739272,34.0337225404,108.755091438,429.701,399.499,-0.0,0.745394,1.16139,0.0,2,0,0,0
119947845,34.0337207218,108.755091302,429.698,399.497,-0.0,0.745646,1.16135,0.0,2,0,0,0
120141543,34.0337190186,108.755091161,429.695,399.496,-0.0,0.745304,1.16169,0.0,2,0,0,0
120340158,34.0337172642,108.755091043,429.703,399.506,-0.0,0.745236,1.16146,0.0,2,0,0,0
120538795,34.0337154708,108.755090926,429.717,399.522,-0.0,0.745185,1.16124,0.0,2,0,0,0
120747366,34.0337135965,108.75509073,429.724,399.531,-0.0,0.745446,1.16121,0.0,2,0,0,0
120946005,34.0337118433,108.755090565,429.729,399.535,-0.0,0.745348,1.16175,0.0,2,0,0,0
121134864,34.0337101013,108.755090378,429.731,399.537,-0.0,0.744909,1.16133,0.0,2,0,0,0
121348249,34.0337081649,108.755090221,429.734,399.54,-0.0,0.745068,1.1613,0.0,2,0,0,0
121546888,34.0337063387,108.755090152,429.745,399.55,-0.0,0.744896,1.16108,0.0,2,0,0,0
121740561,34.0337045794,108.755090095,429.748,399.552,-0.0,0.744347,1.16142,0.0,2,0,0,0
121939338,34.0337028101,108.755090003,429.753,399.558,-0.0,0.74415,1.1612,0.0,2,0,0,0
122142805,34.0337010203,108.755089786,429.758,399.561,-0.0,0.74394,1.16098,0.0,2,0,0,0
122341444,34.0336992292,108.755089488,429.756,399.558,-0.0,0.743755,1.16153,0.0,2,0,0,0
122540083,34.0336974456,108.75508914,429.744,399.546,-0.0,0.743572,1.16131,0.0,2,0,0,0
122748798,34.0336955463,108.75508881,429.735,399.536,-0.0,0.743699,1.1613,0.0,2,0,0,0
122942342,34.0336937357,108.755088484,429.732,399.533,-0.0,0.743149,1.16088,0.0,2,0,0,0
123140966,34.0336918904,108.755088171,429.741,399.541,-0.0,0.742966,1.16143,0.0,2,0,0,0
123339605,34.0336900396,108.755087986,429.739,399.539,-0.0,0.742783,1.16122,0.0,2,0,0,0
123538302,34.0336881916,108.755087922,429.734,399.533,-0.0,0.742603,1.16176,0.0,2,0,0,0
123746815,34.0336863074,108.755087802,429.73,399.528,-0.0,0.742729,1.16174,0.0,2,0,0,0
123945466,34.0336845322,108.755087696,429.729,399.525,-0.0,0.742502,1.16151,0.0,2,0,0,0
124149060,34.0336827256,108.755087606,429.736,399.531,-0.0,0.742281,1.16128,0.0,2,0,0,0
124347780,34.0336809035,108.755087585,429.752,399.544,-0.0,0.742103,1.16182,0.0,2,0,0,0
124546347,34.0336791022,108.755087593,429.77,399.559,-0.0,0.74194,1.16159,0.0,2,0,0,0
124740012,34.0336773752,108.755087476,429.774,399.56,-0.0,0.741471,1.16117,0.0,2,0,0,0
124938650,34.0336756344,108.755087333,429.762,399.544,-0.0,0.741308,1.16095,0.0,2,0,0,0
125147259,34.033673874,108.75508726,429.741,399.518,-0.0,0.741508,1.1617,0.0,2,0,0,0
125340894,34.0336722328,108.755087215,429.726,399.497,-0.0,0.741081,1.16128,0.0,2,0,0,0
125549465,34.0336704067,108.75508714,429.714,399.479,-0.0,0.741282,1.16127,0.0,2,0,0,0
125743158,34.0336686829,108.755087026,429.7,399.459,-0.0,0.740842,1.16162,0.0,2,0,0,0
125941815,34.0336669032,108.755086812,429.685,399.438,-0.0,0.740691,1.1614,0.0,2,0,0,0
126140416,34.0336651101,108.755086502,429.672,399.419,-0.0,0.740571,1.16119,0.0,2,0,0,0
126339056,34.0336633081,108.755086143,429.669,399.409,-0.0,0.740458,1.16098,0.0,2,0,0,0
126537713,34.0336614678,108.755085853,429.68,399.415,-0.0,0.740335,1.16153,0.0,2,0,0,0
126746292,34.0336595412,108.755085629,429.696,399.424,-0.0,0.740485,1.16151,0.0,2,0,0,0
126939939,34.0336577749,108.7550855,429.712,399.433,-0.0,0.740035,1.1611,0.0,2,0,0,0
127148510,34.0336558956,108.755085439,429.729,399.443,-0.0,0.740223,1.16109,0.0,2,0,0,0
127347149,34.033654128,108.755085426,429.735,399.441,-0.0,0.740087,1.16164,0.0,2,0,0,0
127545797,34.0336523947,108.7550854,429.726,399.423,-0.0,0.739922,1.16143,0.0,2,0,0,0
127739463,34.0336507244,108.755085356,429.719,399.408,-0.0,0.73944,1.16101,0.0,2,0,0,0
127938136,34.0336490226,108.755085195,429.723,399.403,-0.0,0.739305,1.16157,0.0,2,0,0,0
128136910,34.0336473177,108.755084984,429.729,399.398,-0.0,0.739178,1.16135,0.0,2,0,0,0
128340350,34.0336455478,108.755084807,429.735,399.395,-0.0,0.739043,1.16114,0.0,2,0,0,0
128543952,34.033643763,108.755084583,429.739,399.388,-0.0,0.738903,1.16168,0.0,2,0,0,0
128742589,34.0336420441,108.755084343,429.73,399.368,-0.0,0.738772,1.16147,0.0,2,0,0,0
128941387,34.0336402912,108.755084104,429.721,399.347,-0.0,0.738634,1.16125,0.0,2,0,0,0
129139869,34.0336385582,108.755083908,429.715,399.33,-0.0,0.738504,1.16103,0.0,2,0,0,0
129338509,34.0336368056,108.755083686,429.716,399.32,-0.0,0.738367,1.16158,0.0,2,0,0,0
129542112,34.0336349549,108.755083472,429.723,399.316,-0.0,0.738224,1.16136,0.0,2,0,0,0
129740865,34.0336331352,108.755083246,429.738,399.32,-0.0,0.738092,1.16115,0.0,2,0,0,0
129949322,34.0336312257,108.75508297,429.746,399.317,-0.0,0.738276,1.16114,0.0,2,0,0,0
130147962,34.0336294119,108.755082709,429.748,399.308,-0.0,0.738154,1.16169,0.0,2,0,0,0
130341634,34.0336276342,108.755082493,429.751,399.299,-0.0,0.737714,1.16127,0.0,2,0,0,0
130540352,34.0336258,108.755082269,429.753,399.291,-0.0,0.737591,1.16106,0.0,2,0,0,0
130738915,34.0336240169,108.755082003,429.752,399.278,-0.0,0.737475,1.16161,0.0,2,0,0,0
130937552,34.0336223207,108.755081723,429.752,399.268,-0.0,0.737362,1.1614,0.0,2,0,0,0
131141157,34.0336205887,108.755081438,429.76,399.266,-0.0,0.737254,1.16119,0.0,2,0,0,0
131339832,34.0336188685,108.755081158,429.772,399.267,-0.0,0.737151,1.16098,0.0,2,0,0,0
131548368,34.0336170316,108.75508086,429.781,399.266,-0.0,0.737357,1.16097,0.0,2,0,0,0
131742048,34.0336152952,108.755080633,429.79,399.264,-0.0,0.736893,1.16132,0.0,2,0,0,0
131940681,34.0336135036,108.755080483,429.798,399.263,-0.0,0.736778,1.16111,0.0,2,0,0,0
132139325,34.0336116885,108.755080371,429.804,399.259,-0.0,0.73669,1.1609,0.0,2,0,0,0
132342925,34.0336098344,108.755080352,429.803,399.247,-0.0,0.736615,1.16145,0.0,2,0,0,0
132541566,34.0336080598,108.755080412,429.798,399.232,-0.0,0.73654,1.16124,0.0,2,0,0,0
132740209,34.0336062998,108.755080452,429.798,399.222,-0.0,0.736449,1.16103,0.0,2,0,0,0
132948786,34.0336044605,108.755080416,429.798,399.211,-0.0,0.736665,1.16179,0.0,2,0,0,0
133142449,34.0336027856,108.75508037,429.795,399.198,-0.0,0.736286,1.16137,0.0,2,0,0,0
133341087,34.0336010648,108.755080316,429.794,399.187,-0.0,0.736211,1.16115,0.0,2,0,0,0
133539725,34.0335993151,108.755080172,429.797,399.18,-0.0,0.736134,1.1617,0.0,2,0,0,0
133738366,34.0335975493,108.75507998,429.79,399.162,-0.0,0.736071,1.16148,0.0,2,0,0,0
133946936,34.0335956753,108.755079747,429.783,399.145,-0.0,0.736321,1.16146,0.0,2,0,0,0
134145576,34.0335938815,108.755079484,429.779,399.13,-0.0,0.736278,1.16123,0.0,2,0,0,0
134344214,34.0335920728,108.755079214,429.787,399.128,-0.0,0.736241,1.16177,0.0,2,0,0,0
134542854,34.0335902468,108.755078955,429.8,399.131,-0.0,0.736191,1.16154,0.0,2,0,0,0
134746459,34.0335884032,108.75507872,429.807,399.127,-0.0,0.736146,1.1613,0.0,2,0,0,0
134940132,34.0335866634,108.75507856,429.814,399.124,-0.0,0.735854,1.16165,0.0,2,0,0,0
135138955,34.0335849057,108.755078461,429.817,399.117,-0.0,0.735882,1.16142,0.0,2,0,0,0
135342377,34.0335830823,108.755078355,429.809,399.099,-0.0,0.735908,1.1612,0.0,2,0,0,0
135541016,34.0335812841,108.755078212,429.8,399.08,-0.0,0.735946,1.16098,0.0,2,0,0,0
135739655,34.0335794845,108.755078097,429.801,399.072,-0.0,0.735993,1.16153,0.0,2,0,0,0
135948428,34.0335775831,108.755077934,429.812,399.074,-0.0,0.736355,1.16151,0.0,2,0,0,0
136141900,34.0335757783,108.755077761,429.821,399.075,-0.0,0.736124,1.16109,0.0,2,0,0,0
136340538,34.0335738988,108.755077618,429.824,399.069,-0.0,0.736203,1.16164,0.0,2,0,0,0
136539178,34.0335720109,108.755077473,429.824,399.061,-0.0,0.736285,1.16142,0.0,2,0,0,0
136747902,34.0335700199,108.755077281,429.831,399.06,-0.0,0.736676,1.1614,0.0,2,0,0,0
136946391,34.0335681503,108.755077053,429.843,399.065,-0.0,0.736775,1.16119,0.0,2,0,0,0
137140062,34.0335663527,108.755076874,429.85,399.065,-0.0,0.736576,1.16154,0.0,2,0,0,0
137338707,34.0335645805,108.755076768,429.852,399.059,-0.0,0.736695,1.16132,0.0,2,0,0,0
137547433,34.0335627164,108.755076757,429.844,399.044,-0.0,0.737135,1.1613,0.0,2,0,0,0
137745913,34.0335609241,108.755076749,429.839,399.031,-0.0,0.737224,1.16109,0.0,2,0,0,0
137939585,34.0335591648,108.755076683,429.837,399.022,-0.0,0.737022,1.16144,0.0,2,0,0,0
138143192,34.0335573269,108.755076592,429.834,399.012,-0.0,0.737114,1.16122,0.0,2,0,0,0
138341940,34.0335555419,108.755076472,429.83,399.0,-0.0,0.737195,1.16101,0.0,2,0,0,0
138540471,34.0335537291,108.755076278,429.826,398.989,-0.0,0.73725,1.16157,0.0,2,0,0,0
138739107,34.0335519033,108.755076014,429.828,398.983,-0.0,0.737282,1.16135,0.0,2,0,0,0
138942713,34.0335500518,108.755075714,429.821,398.97,-0.0,0.737306,1.16113,0.0,2,0,0,0
139141377,34.0335482682,108.755075439,429.811,398.955,-0.0,0.737327,1.16167,0.0,2,0,0,0
139339993,34.0335464646,108.755075143,429.809,398.947,-0.0,0.737357,1.16145,0.0,2,0,0,0
139548562,34.0335445308,108.755074841,429.819,398.952,-0.0,0.737705,1.16143,0.0,2,0,0,0
139747207,34.0335427284,108.755074621,429.831,398.96,-0.0,0.737765,1.16121,0.0,2,0,0,0
139945915,34.0335409651,108.75507452,429.843,398.967,-0.0,0.737842,1.16176,0.0,2,0,0,0
140139515,34.0335392243,108.755074446,429.847,398.967,-0.0,0.737609,1.16134,0.0,2,0,0,0
140338153,34.0335374574,108.755074403,429.847,398.961,-0.0,0.737689,1.16112,0.0,2,0,0,0
140541759,34.0335356835,108.755074384,429.84,398.95,-0.0,0.737757,1.16167,0.0,2,0,0,0
140740440,34.0335340012,108.75507438,429.83,398.933,-0.0,0.737815,1.16146,0.0,2,0,0,0
140939038,34.0335322803,108.755074258,429.814,398.911,-0.0,0.737887,1.16124,0.0,2,0,0,0
141142650,34.0335305048,108.755074118,429.799,398.889,-0.0,0.737901,1.16103,0.0,2,0,0,0
141341282,34.0335288048,108.755074011,429.791,398.875,-0.0,0.737914,1.16158,0.0,2,0,0,0
141539921,34.0335271045,108.755073878,429.784,398.862,-0.0,0.73791,1.16137,0.0,2,0,0,0
141738572,34.0335253869,108.755073735,429.781,398.852,-0.0,0.737905,1.16115,0.0,2,0,0,0
141942168,34.0335235892,108.755073626,429.784,398.849,-0.0,0.737913,1.16094,0.0,2,0,0,0
142140810,34.0335217832,108.755073494,429.786,398.846,-0.0,0.737922,1.16149,0.0,2,0,0,0
142349379,34.0335199149,108.755073263,429.786,398.84,-0.0,0.73824,1.16148,0.0,2,0,0,0
142548016,34.0335181319,108.755072966,429.789,398.837,-0.0,0.738256,1.16126,0.0,2,0,0,0
142741689,34.0335163627,108.755072647,429.796,398.839,-0.0,0.737957,1.1616,0.0,2,0,0,0
142940500,34.0335145554,108.755072369,429.81,398.848,-0.0,0.737983,1.16138,0.0,2,0,0,0
143138972,34.0335127573,108.755072147,429.819,398.853,-0.0,0.738004,1.16116,0.0,2,0,0,0
143337607,34.0335109545,108.755071945,429.821,398.849,-0.0,0.738021,1.16171,0.0,2,0,0,0
143541213,34.0335091337,108.755071802,429.815,398.837,-0.0,0.738033,1.16149,0.0,2,0,0,0
143749954,34.0335072992,108.755071707,429.811,398.827,-0.0,0.738321,1.16146,0.0,2,0,0,0
143948423,34.0335055495,108.755071573,429.813,398.823,-0.0,0.738333,1.16124,0.0,2,0,0,0
144147062,34.0335038067,108.755071393,429.821,398.826,-0.0,0.738344,1.16103,0.0,2,0,0,0
144340735,34.0335021147,108.755071189,429.83,398.829,-0.0,0.738041,1.16138,0.0,2,0,0,0
144539521,34.0335003619,108.755071022,429.829,398.822,-0.0,0.738035,1.16116,0.0,2,0,0,0
144742980,34.0334985848,108.75507083,429.822,398.808,-0.0,0.73803,1.16095,0.0,2,0,0,0
144941619,34.0334967955,108.755070601,429.817,398.796,-0.0,0.738013,1.1615,0.0,2,0,0,0
145140264,34.0334949498,108.755070239,429.827,398.801,-0.0,0.737984,1.16129,0.0,2,0,0,0
145348981,34.0334930074,108.755069847,429.843,398.811,-0.0,0.738285,1.16127,0.0,2,0,0,0
145547469,34.0334911899,108.755069598,429.852,398.815,-0.0,0.738288,1.16106,0.0,2,0,0,0
145741144,34.0334894437,108.755069408,429.851,398.807,-0.0,0.737944,1.16141,0.0,2,0,0,0
145939782,34.0334876589,108.755069216,429.843,398.794,-0.0,0.737963,1.1612,0.0,2,0,0,0
146138442,34.0334858634,108.755069016,429.837,398.781,-0.0,0.737972,1.16098,0.0,2,0,0,0
146346992,34.0334839746,108.755068777,429.843,398.783,-0.0,0.738337,1.16097,0.0,2,0,0,0
146540676,34.0334822214,108.755068614,429.854,398.788,-0.0,0.738087,1.16132,0.0,2,0,0,0
146749237,34.0334802932,108.755068423,429.864,398.794,-0.0,0.738468,1.16131,0.0,2,0,0,0
146947897,34.0334784813,108.755068188,429.875,398.801,-0.0,0.73854,1.1611,0.0,2,0,0,0
147146517,34.0334766752,108.755067968,429.882,398.805,-0.0,0.738627,1.16165,0.0,2,0,0,0
147345156,34.0334747872,108.755067794,429.89,398.81,-0.0,0.738715,1.16144,0.0,2,0,0,0
147538828,34.0334729763,108.755067674,429.897,398.812,-0.0,0.738489,1.16103,0.0,2,0,0,0
147737470,34.0334711187,108.755067612,429.9,398.813,-0.0,0.738578,1.16082,0.0,2,0,0,0
147941075,34.0334692899,108.755067612,429.901,398.811,-0.0,0.738681,1.16137,0.0,2,0,0,0
148144678,34.0334675302,108.755067674,429.895,398.801,-0.0,0.738783,1.16116,0.0,2,0,0,0
148343318,34.0334658483,108.755067739,429.89,398.793,-0.0,0.738886,1.16096,0.0,2,0,0,0
148541959,34.0334641562,108.755067684,429.884,398.783,-0.0,0.738987,1.16076,0.0,2,0,0,0
148740596,34.0334624269,108.755067601,429.875,398.77,-0.0,0.739087,1.16131,0.0,2,0,0,0
148939236,34.0334606789,108.755067515,429.862,398.754,-0.0,0.739172,1.16111,0.0,2,0,0,0
149138066,34.0334589041,108.755067344,429.858,398.747,-0.0,0.739243,1.1609,0.0,2,0,0,0
149341481,34.0334570691,108.755067041,429.864,398.749,-0.0,0.739317,1.16145,0.0,2,0,0,0
149540120,34.0334552653,108.755066718,429.874,398.757,-0.0,0.739381,1.16123,0.0,2,0,0,0
149748691,34.0334533678,108.755066434,429.882,398.762,-0.0,0.739765,1.16121,0.0,2,0,0,0
149947334,34.0334515514,108.755066197,429.887,398.764,-0.0,0.73982,1.16176,0.0,2,0,0,0
150145977,34.0334498247,108.755066099,429.892,398.766,-0.0,0.739853,1.16154,0.0,2,0,0,0
150344612,34.0334482906,108.755066274,429.899,398.77,-0.0,0.739885,1.16132,0.0,2,0,0,0
150538284,34.03344721,108.755066998,429.9,398.768,-0.0,0.739595,1.16166,0.0,2,0,0,0
150747019,34.0334465905,108.7550685,429.891,398.755,-0.0,0.7399,1.16164,0.0,2,0,0,0
150940532,34.0334464233,108.755070402,429.884,398.745,-0.0,0.739608,1.16122,0.0,2,0,0,0
151139167,34.0334464318,108.755072621,429.879,398.738,-0.0,0.739632,1.16176,0.0,2,0,0,0
151342773,34.0334464622,108.755074957,429.881,398.738,-0.0,0.73967,1.16153,0.0,2,0,0,0
151541567,34.0334464809,108.755077202,429.883,398.739,-0.0,0.73971,1.16129,0.0,2,0,0,0
151740051,34.0334464072,108.755079362,429.877,398.731,-0.0,0.739752,1.16183,0.0,2,0,0,0
151943658,34.0334463202,108.755081511,429.872,398.725,-0.0,0.739748,1.16159,0.0,2,0,0,0
152142298,34.0334461863,108.755083521,429.873,398.725,-0.0,0.739794,1.16136,0.0,2,0,0,0
152340998,34.0334461087,108.755085459,429.872,398.722,-0.0,0.739867,1.16188,0.0,2,0,0,0
152544542,34.0334459876,108.75508729,429.86,398.709,-0.0,0.73995,1.16163,0.0,2,0,0,0
152743183,34.0334458327,108.755088999,429.852,398.701,-0.0,0.740057,1.16138,0.0,2,0,0,0
152941842,34.0334455694,108.755090666,429.847,398.697,-0.0,0.740194,1.16191,0.0,2,0,0,0
153140527,34.0334451606,108.755092331,429.847,398.698,-0.0,0.740278,1.16166,0.0,2,0,0,0
153339100,34.0334446596,108.755093959,429.849,398.701,-0.0,0.740363,1.16142,0.0,2,0,0,0
153537740,34.0334441417,108.755095639,429.849,398.702,-0.0,0.740432,1.16194,0.0,2,0,0,0
153746309,34.0334437019,108.755097606,429.843,398.698,-0.0,0.740833,1.16188,0.0,2,0,0,0
153944972,34.0334433549,108.755099574,429.835,398.691,-0.0,0.740869,1.16163,0.0,2,0,0,0
154148554,34.0334430518,108.755101626,429.824,398.681,-0.0,0.740901,1.16215,0.0,2,0,0,0
154342319,34.0334428172,108.755103707,429.814,398.673,-0.0,0.740565,1.1617,0.0,2,0,0,0
154540867,34.0334425956,108.75510586,429.806,398.667,-0.0,0.740577,1.16146,0.0,2,0,0,0
154739509,34.0334423771,108.755107999,429.807,398.671,-0.0,0.740568,1.16122,0.0,2,0,0,0
154938146,34.0334421899,108.755110099,429.807,398.674,-0.0,0.740554,1.16175,0.0,2,0,0,0
155141753,34.0334420489,108.755112256,429.809,398.678,-0.0,0.740534,1.16152,0.0,2,0,0,0
155340391,34.0334419439,108.755114315,429.81,398.682,-0.0,0.740511,1.16128,0.0,2,0,0,0
155539030,34.0334418609,108.755116355,429.812,398.687,-0.0,0.74048,1.16182,0.0,2,0,0,0
155747602,34.0334417807,108.755118469,429.817,398.694,-0.0,0.740769,1.16177,0.0,2,0,0,0
155941275,34.0334417419,108.755120403,429.821,398.7,-0.0,0.740374,1.16133,0.0,2,0,0,0
156144884,34.0334416958,108.755122458,429.827,398.707,-0.0,0.740318,1.16186,0.0,2,0,0,0
156343520,34.0334416018,108.755124501,429.826,398.709,-0.0,0.740258,1.16163,0.0,2,0,0,0
156542161,34.0334414299,108.755126549,429.826,398.71,-0.0,0.740196,1.1614,0.0,2,0,0,0
156745812,34.0334412215,108.755128646,429.826,398.712,-0.0,0.740132,1.16117,0.0,2,0,0,0
156944410,34.0334410415,108.755130674,429.83,398.718,-0.0,0.740083,1.16171,0.0,2,0,0,0
157143044,34.0334408181,108.755132711,429.829,398.72,-0.0,0.740069,1.16148,0.0,2,0,0,0
157341684,34.0334406317,108.755134754,429.827,398.72,-0.0,0.740012,1.16126,0.0,2,0,0,0
157540327,34.0334404607,108.755136733,429.831,398.727,-0.0,0.739954,1.16104,0.0,2,0,0,0
157749076,34.0334402178,108.755138797,429.841,398.741,-0.0,0.740218,1.16178,0.0,2,0,0,0
157947534,34.0334399588,108.755140746,429.855,398.759,-0.0,0.740145,1.16156,0.0,2,0,0,0
158141210,34.033439739,108.755142646,429.872,398.78,-0.0,0.739742,1.16113,0.0,2,0,0,0
158344814,34.0334395457,108.755144657,429.885,398.797,-0.0,0.739651,1.16168,0.0,2,0,0,0
158543600,34.0334393739,108.755146649,429.902,398.818,-0.0,0.739542,1.16146,0.0,2,0,0,0
158742093,34.0334392007,108.755148634,429.919,398.84,-0.0,0.739451,1.16125,0.0,2,0,0,0
158940732,34.0334390258,108.75515064,429.931,398.857,-0.0,0.739321,1.16103,0.0,2,0,0,0
159149304,34.033438844,108.755152788,429.934,398.864,-0.0,0.739519,1.16178,0.0,2,0,0,0
159348104,34.0334387135,108.755154865,429.93,398.864,-0.0,0.739403,1.16155,0.0,2,0,0,0
159546582,34.0334386374,108.755156915,429.926,398.865,-0.0,0.739287,1.16132,0.0,2,0,0,0
159740256,34.0334385209,108.755158934,429.923,398.866,-0.0,0.738862,1.16166,0.0,2,0,0,0
159938896,34.0334384291,108.755160967,429.923,398.87,-0.0,0.738717,1.16144,0.0,2,0,0,0
160147531,34.0334383713,108.755163133,429.918,398.867,-0.0,0.738925,1.16141,0.0,2,0,0,0
160346114,34.0334382389,108.755165243,429.913,398.864,-0.0,0.738839,1.16119,0.0,2,0,0,0
160539780,34.0334381297,108.755167321,429.905,398.859,-0.0,0.738407,1.16153,0.0,2,0,0,0
160748351,34.0334380205,108.755169563,429.901,398.858,-0.0,0.738612,1.1615,0.0,2,0,0,0
160947068,34.033437846,108.755171713,429.909,398.869,-0.0,0.738562,1.16129,0.0,2,0,0,0
161140667,34.0334376701,108.755173811,429.917,398.88,-0.0,0.738197,1.16163,0.0,2,0,0,0
161339307,34.0334374703,108.755175995,429.922,398.886,-0.0,0.738156,1.16141,0.0,2,0,0,0
161542911,34.0334372929,108.755178267,429.918,398.883,-0.0,0.738109,1.16118,0.0,2,0,0,0
161741579,34.0334371198,108.755180489,429.918,398.885,-0.0,0.738059,1.16172,0.0,2,0,0,0
161940191,34.0334369137,108.755182688,429.912,398.881,-0.0,0.738006,1.16149,0.0,2,0,0,0
162148761,34.0334366469,108.755185013,429.904,398.874,-0.0,0.738274,1.16147,0.0,2,0,0,0
162342436,34.0334363786,108.755187133,429.903,398.875,-0.0,0.737915,1.16104,0.0,2,0,0,0
162541077,34.033436099,108.755189329,429.904,398.878,-0.0,0.737863,1.16159,0.0,2,0,0,0
162739713,34.0334358338,108.755191525,429.913,398.888,-0.0,0.737809,1.16137,0.0,2,0,0,0
162938352,34.0334355656,108.755193704,429.923,398.899,-0.0,0.737763,1.16115,0.0,2,0,0,0
163141958,34.0334353185,108.755195915,429.925,398.902,-0.0,0.737712,1.16169,0.0,2,0,0,0
163340598,34.0334351627,108.755198089,429.917,398.894,-0.0,0.73767,1.16147,0.0,2,0,0,0
163549172,34.0334350689,108.75520042,429.905,398.882,-0.0,0.737934,1.16145,0.0,2,0,0,0
163747830,34.0334349659,108.755202649,429.896,398.871,-0.0,0.737881,1.16123,0.0,2,0,0,0
163936680,34.0334348693,108.755204801,429.886,398.859,-0.0,0.737525,1.16158,0.0,2,0,0,0
164140129,34.0334347679,108.755207115,429.873,398.843,-0.0,0.737475,1.16137,0.0,2,0,0,0
164338762,34.0334346715,108.755209362,429.865,398.832,-0.0,0.737434,1.16115,0.0,2,0,0,0
164542368,34.0334345505,108.755211647,429.866,398.83,-0.0,0.737402,1.16094,0.0,2,0,0,0
164741157,34.0334344047,108.755213869,429.864,398.825,-0.0,0.737377,1.16149,0.0,2,0,0,0
164949580,34.0334342028,108.755216225,429.86,398.817,-0.0,0.737669,1.16148,0.0,2,0,0,0
165143252,34.0334340229,108.755218383,429.849,398.802,-0.0,0.737352,1.16107,0.0,2,0,0,0
165341918,34.0334338651,108.755220505,429.849,398.799,-0.0,0.737364,1.16086,0.0,2,0,0,0
165540648,34.0334336853,108.755222586,429.851,398.798,-0.0,0.737389,1.16141,0.0,2,0,0,0
165739203,34.0334334785,108.755224661,429.853,398.798,-0.0,0.737424,1.1612,0.0,2,0,0,0
165937811,34.0334332328,108.755226738,429.855,398.798,-0.0,0.737468,1.16099,0.0,2,0,0,0
166146383,34.0334329682,108.75522884,429.855,398.794,-0.0,0.737832,1.16098,0.0,2,0,0,0
166345130,34.0334326844,108.755230821,429.855,398.791,-0.0,0.737837,1.16153,0.0,2,0,0,0
166548638,34.0334323744,108.755232858,429.855,398.789,-0.0,0.73784,1.16131,0.0,2,0,0,0
166747267,34.033432029,108.75523483,429.855,398.785,-0.0,0.737891,1.1611,0.0,2,0,0,0
166945907,34.0334316982,108.755236759,429.861,398.789,-0.0,0.737935,1.16165,0.0,2,0,0,0
167144674,34.0334314044,108.755238703,429.875,398.8,-0.0,0.737971,1.16144,0.0,2,0,0,0
167338220,34.0334311342,108.755240692,429.889,398.811,-0.0,0.737666,1.16103,0.0,2,0,0,0
167546792,34.0334308728,108.755242901,429.896,398.815,-0.0,0.738034,1.16177,0.0,2,0,0,0
167740468,34.0334305293,108.755244888,429.911,398.83,-0.0,0.737696,1.16134,0.0,2,0,0,0
167939222,34.033430195,108.755246928,429.929,398.847,-0.0,0.737705,1.16188,0.0,2,0,0,0
168142714,34.0334299658,108.755249099,429.937,398.855,-0.0,0.737746,1.16165,0.0,2,0,0,0
168341350,34.0334297976,108.755251237,429.942,398.858,-0.0,0.737782,1.16142,0.0,2,0,0,0
168539990,34.0334296639,108.755253373,429.944,398.858,-0.0,0.737798,1.16119,0.0,2,0,0,0
168738635,34.0334295364,108.755255555,429.938,398.851,-0.0,0.737812,1.16173,0.0,2,0,0,0
168947207,34.0334294728,108.755257915,429.928,398.839,-0.0,0.738134,1.16168,0.0,2,0,0,0
169140877,34.0334293898,108.755260111,429.921,398.83,-0.0,0.737831,1.16125,0.0,2,0,0,0
169339571,34.0334292437,108.755262282,429.922,398.829,-0.0,0.737855,1.16178,0.0,2,0,0,0
169548119,34.0334290583,108.75526448,429.932,398.84,-0.0,0.738251,1.16175,0.0,2,0,0,0
169746726,34.0334288373,108.75526657,429.945,398.853,-0.0,0.738302,1.16151,0.0,2,0,0,0
169940402,34.0334285828,108.755268649,429.949,398.858,-0.0,0.738044,1.16184,0.0,2,0,0,0
170139039,34.0334283227,108.755270855,429.946,398.856,-0.0,0.738121,1.1616,0.0,2,0,0,0
170337679,34.0334280704,108.755273142,429.936,398.847,-0.0,0.73821,1.16136,0.0,2,0,0,0
170546253,34.0334277687,108.755275505,429.922,398.836,-0.0,0.738614,1.16132,0.0,2,0,0,0
170739952,34.0334274861,108.755277678,429.907,398.823,-0.0,0.73839,1.16165,0.0,2,0,0,0
170948496,34.0334272137,108.755279947,429.89,398.809,-0.0,0.738762,1.16162,0.0,2,0,0,0
171147137,34.0334270617,108.755282152,429.873,398.795,-0.0,0.738858,1.16138,0.0,2,0,0,0
171340817,34.0334268971,108.755284319,429.86,398.784,-0.0,0.738637,1.16172,0.0,2,0,0,0
171544415,34.0334267552,108.755286609,429.853,398.779,-0.0,0.73872,1.16149,0.0,2,0,0,0
171743236,34.0334265622,108.755288864,429.846,398.775,-0.0,0.738807,1.16127,0.0,2,0,0,0
171941700,34.0334263272,108.755291081,429.838,398.77,-0.0,0.738881,1.16105,0.0,2,0,0,0
172140426,34.0334260392,108.755293272,429.833,398.77,-0.0,0.738979,1.16159,0.0,2,0,0,0
172338974,34.0334257011,108.755295444,429.839,398.783,-0.0,0.739039,1.16137,0.0,2,0,0,0
172547701,34.0334253142,108.755297663,429.854,398.805,-0.0,0.739407,1.16135,0.0,2,0,0,0
172746186,34.0334250376,108.755299792,429.868,398.825,-0.0,0.739462,1.16113,0.0,2,0,0,0
172939862,34.0334249031,108.755301904,429.868,398.832,-0.0,0.739202,1.16147,0.0,2,0,0,0
173148431,34.0334248442,108.755304175,429.857,398.828,-0.0,0.739567,1.16145,0.0,2,0,0,0
173347189,34.0334247512,108.755306308,429.847,398.826,-0.0,0.739619,1.16123,0.0,2,0,0,0
173545712,34.0334246105,108.755308441,429.837,398.825,-0.0,0.739675,1.16101,0.0,2,0,0,0
173739383,34.0334245021,108.755310481,429.832,398.828,-0.0,0.739383,1.16136,0.0,2,0,0,0
173947956,34.0334243668,108.755312656,429.83,398.834,-0.0,0.739754,1.16134,0.0,2,0,0,0
174146668,34.0334242744,108.755314806,429.824,398.838,-0.0,0.739815,1.16113,0.0,2,0,0,0
174340269,34.0334242593,108.755316932,429.819,398.842,-0.0,0.73956,1.16148,0.0,2,0,0,0
174548842,34.0334242322,108.755319267,429.822,398.853,-0.0,0.739945,1.16147,0.0,2,0,0,0
174742515,34.0334241332,108.755321446,429.826,398.865,-0.0,0.739697,1.16106,0.0,2,0,0,0
174941187,34.0334239599,108.755323644,429.832,398.879,-0.0,0.73977,1.16085,0.0,2,0,0,0
175139794,34.0334237801,108.755325828,429.843,398.899,-0.0,0.739846,1.1614,0.0,2,0,0,0
175338434,34.0334235399,108.755327996,429.849,398.912,-0.0,0.739911,1.16119,0.0,2,0,0,0
175542048,34.0334232495,108.755330219,429.851,398.923,-0.0,0.739942,1.16173,0.0,2,0,0,0
175740680,34.0334229162,108.755332381,429.847,398.926,-0.0,0.740014,1.16151,0.0,2,0,0,0
175939319,34.0334226021,108.755334509,429.845,398.932,-0.0,0.740088,1.16129,0.0,2,0,0,0
176147895,34.0334223465,108.755336717,429.841,398.936,-0.0,0.740495,1.16127,0.0,2,0,0,0
176341565,34.0334221659,108.755338751,429.836,398.938,-0.0,0.740265,1.16161,0.0,2,0,0,0
176540262,34.0334219325,108.755340791,429.833,398.943,-0.0,0.740366,1.16139,0.0,2,0,0,0
176738844,34.0334216971,108.755342845,429.831,398.948,-0.0,0.740466,1.16118,0.0,2,0,0,0
176947429,34.0334214448,108.755345051,429.822,398.947,-0.0,0.740886,1.16116,0.0,2,0,0,0
177141092,34.033421239,108.75534712,429.822,398.956,-0.0,0.740676,1.1615,0.0,2,0,0,0
177349665,34.0334210307,108.755349349,429.833,398.975,-0.0,0.741106,1.16147,0.0,2,0,0,0
177548301,34.0334208015,108.755351479,429.842,398.992,-0.0,0.741212,1.16124,0.0,2,0,0,0
177741977,34.0334205692,108.755353543,429.853,399.011,-0.0,0.741006,1.16158,0.0,2,0,0,0
