timestamp,timestamp_sample,control[0],control[1],control[2],control[3],control[4],control[5],control[6],control[7]
174746739,174746488,-0.514796,0.523055,-0.00508383,0.0,0.0,0.0,0.0,-1.0
174747976,174747729,-0.513925,0.520532,-0.00462014,0.0,0.0,0.0,0.0,-1.0
174848533,174848284,-0.524554,0.524485,-0.00301239,0.0,0.0,0.0,0.0,-1.0
174946609,174946358,-0.499757,0.557682,-0.0081335,0.0,0.0,0.0,0.0,-1.0
175048587,175048334,-0.521942,0.51365,0.00738992,0.0,0.0,0.0,0.0,-1.0
175150205,175149953,-0.505192,0.508993,-0.000397226,0.0,0.0,0.0,0.0,-1.0
175248267,175248024,-0.484411,0.397879,-0.00355661,0.0,0.0,0.0,0.0,-1.0
175348827,175348582,0.207091,-0.0242819,0.00922461,0.0,0.0,0.0,0.0,-1.0
175446896,175446653,0.00227584,-0.00302521,-0.0132208,0.0,0.0,0.0,0.0,-1.0
175548704,175548456,-0.000771815,0.0235005,-0.00926813,0.0,0.0,0.0,0.0,-1.0
175646773,175646523,-0.0424485,-0.000382959,0.00908483,0.0,0.0,0.0,0.0,-1.0
175752309,175752051,-0.0807756,0.0300545,-2.25258e-05,0.0,0.0,0.0,0.0,-1.0
175846747,175846501,0.0905373,-0.0441499,0.00897015,0.0,0.0,0.0,0.0,-1.0
175948436,175948189,0.0748058,-0.0738295,0.00300174,0.0,0.0,0.0,0.0,-1.0
176049026,176048787,-0.0176334,0.0210241,-0.0178794,0.0,0.0,0.0,0.0,-1.0
176147061,176146818,-0.0161853,0.0337068,0.000782227,0.0,0.0,0.0,0.0,-1.0
176248859,176248615,-0.0468595,0.0106976,0.00350179,0.0274663,0.0,0.0,0.0,-1.0
176346933,176346688,-0.129583,0.0831119,-0.000162236,0.0461934,0.0,0.0,0.0,-1.0
176448739,176448487,-0.256948,0.144551,-0.00952911,0.208421,0.0,0.0,0.0,-1.0
176546810,176546559,-0.00407663,-0.0864943,0.00723961,0.213684,0.0,0.0,0.0,-1.0
176647475,176647220,-0.126433,0.029416,-0.00198678,0.211579,0.0,0.0,0.0,-1.0
176749156,176748911,-0.0718827,0.0371091,0.00360244,0.212632,0.0,0.0,0.0,-1.0
176847231,176846984,0.0230794,-0.0456778,-0.00279303,0.211579,0.0,0.0,0.0,-1.0
176949224,176948973,-0.0294718,0.0648619,0.000767254,0.211579,0.0,0.0,0.0,-1.0
177047097,177046853,-0.107775,-0.0220409,0.00153574,0.211579,0.0,0.0,0.0,-1.0
177148900,177148652,0.0586999,0.0334682,-0.00543542,0.211579,0.0,0.0,0.0,-1.0
177246975,177246726,-0.0804761,0.0398259,-0.000187167,0.214737,0.0,0.0,0.0,-1.0
177347526,177347279,0.0783108,-0.0455922,-0.00277249,0.213684,0.0,0.0,0.0,-1.0
177449335,177449092,-0.0753258,0.0278758,0.000559626,0.213684,0.0,0.0,0.0,-1.0
177547393,177547149,0.0111707,-0.0182011,-0.00282863,0.213684,0.0,0.0,0.0,-1.0
177649202,177648948,-0.0447717,-0.0336928,0.00264995,0.213684,0.0,0.0,0.0,-1.0
177747405,177747164,0.0680151,-0.0449229,0.00229999,0.214737,0.0,0.0,0.0,-1.0
177849067,177848818,-0.0408983,0.0297241,-0.0101317,0.227368,0.0,0.0,0.0,-1.0
177949616,177949372,0.0251964,-0.0310589,0.000330815,0.236842,0.0,0.0,0.0,-1.0
178047701,178047451,-0.0324131,0.0603492,-0.00725062,0.261053,0.0,0.0,0.0,-1.0
178149485,178149243,0.0168822,0.0194639,-0.00743861,0.261053,0.0,0.0,0.0,-1.0
178247637,178247394,0.0768137,-0.0996251,-0.00372073,0.261053,0.0,0.0,0.0,-1.0
178349367,178349115,0.045608,0.0238611,-0.00744445,0.261053,0.0,0.0,0.0,-1.0
178447429,178447186,0.0156855,0.0242039,-0.00819743,0.261053,0.0,0.0,0.0,-1.0
178548110,178547854,0.057267,0.0106457,-0.00712668,0.261053,0.0,0.0,0.0,-1.0
178649783,178649539,0.0249651,0.0802474,-0.0020526,0.264211,0.0,0.0,0.0,-1.0
178747872,178747615,0.0437311,-0.0136383,-0.00710399,0.266316,0.0,0.0,0.0,-1.0
178849655,178849409,-0.027895,-0.00360354,-0.00738773,0.269474,0.0,0.0,0.0,-1.0
178947738,178947487,0.000168024,0.062488,-0.00611518,0.271579,0.0,0.0,0.0,-1.0
179049576,179049325,0.0261841,0.0556427,-0.007387,0.270526,0.0,0.0,0.0,-1.0
179146362,179146111,0.0297947,-0.104905,-0.0020449,0.292632,0.0,0.0,0.0,-1.0
179249403,179249152,0.000665556,0.041185,-0.00548043,0.301053,0.0,0.0,0.0,-1.0
179350038,179349795,0.0324034,0.0039419,-0.00523898,0.308421,0.0,0.0,0.0,-1.0
179448029,179447781,0.0109658,0.00788874,-0.00805949,0.32,0.0,0.0,0.0,-1.0
179549820,179549575,-0.0902885,0.0032049,-0.00325252,0.321053,0.0,0.0,0.0,-1.0
179647912,179647666,-0.0273401,-0.0228633,-0.00287824,0.321053,0.0,0.0,0.0,-1.0
179748448,179748206,0.0123383,-0.0342081,-0.00464447,0.32,0.0,0.0,0.0,-1.0
179846528,179846278,0.0143901,0.0179666,-0.00686761,0.318947,0.0,0.0,0.0,-1.0
179948330,179948081,-0.0708379,-0.00671348,-0.00457135,0.318947,0.0,0.0,0.0,-1.0
180050116,180049872,0.00623816,0.0221856,-0.00524571,0.347368,0.0,0.0,0.0,-1.0
180148264,180148014,-0.00140416,0.00934497,-0.00798952,0.347368,0.0,0.0,0.0,-1.0
180249997,180249743,-0.0139438,-0.0357446,-0.0038509,0.345263,0.0,0.0,0.0,-1.0
180348063,180347816,-0.0267891,0.0322651,-0.00579038,0.347368,0.0,0.0,0.0,-1.0
180448617,180448374,-0.0163522,0.00203954,-0.00321566,0.348421,0.0,0.0,0.0,-1.0
180546693,180546448,0.0344261,-0.0232593,-0.00313973,0.358947,0.0,0.0,0.0,-1.0
180649747,180649497,-0.0224503,-0.0227715,-0.00468124,0.387368,0.0,0.0,0.0,-1.0
180750296,180750041,-0.0613508,0.0163202,-0.0034833,0.391579,0.0,0.0,0.0,-1.0
180848373,180848114,-0.0483681,0.0153435,-0.00402715,0.402105,0.0,0.0,0.0,-1.0
180946501,180946245,-0.0196519,0.0228893,-0.00314115,0.406316,0.0,0.0,0.0,-1.0
181046986,181046741,-0.0329566,-0.013291,-0.012958,0.413684,0.0,0.0,0.0,-1.0
181148791,181148535,-0.0388548,-0.0145127,-0.00604055,0.418947,0.0,0.0,0.0,-1.0
181247000,181246757,-0.0287254,0.0180742,-0.00618704,0.418947,0.0,0.0,0.0,-1.0
181348657,181348405,-0.00160642,-0.0304644,-0.00597245,0.417895,0.0,0.0,0.0,-1.0
181450454,181450206,-0.000328152,-0.00919124,0.00234408,0.418947,0.0,0.0,0.0,-1.0
181548537,181548281,-0.0434013,0.00643571,-0.00613917,0.432632,0.0,0.0,0.0,-1.0
181649083,181648836,-0.0194376,-0.0296222,-0.00759094,0.437895,0.0,0.0,0.0,-1.0
181747157,181746910,-0.0273162,-0.0119408,1.11715e-05,0.438947,0.0,0.0,0.0,-1.0
181848954,181848707,-0.0706924,0.00419772,-0.00906383,0.437895,0.0,0.0,0.0,-1.0
181947024,181946779,-0.0474275,-0.0363709,-0.011336,0.436842,0.0,0.0,0.0,-1.0
182048956,182048702,-0.031523,0.00785827,-0.0137116,0.435789,0.0,0.0,0.0,-1.0
182149404,182149156,-0.00633669,-0.0464219,-0.0172868,0.432632,0.0,0.0,0.0,-1.0
182247458,182247208,-0.0103529,-0.00632808,-0.00483562,0.442105,0.0,0.0,0.0,-1.0
182349255,182349004,-0.0561821,-0.00658921,-0.00131979,0.456842,0.0,0.0,0.0,-1.0
182447319,182447076,-0.0300216,0.0143757,-0.0081211,0.461053,0.0,0.0,0.0,-1.0
182549123,182548875,-0.0930027,0.00833245,-0.00365447,0.462105,0.0,0.0,0.0,-1.0
182647196,182646947,-0.029165,-0.0128107,-0.00324797,0.464211,0.0,0.0,0.0,-1.0
182749000,182748744,0.0277926,-0.0320272,-0.00394665,0.474737,0.0,0.0,0.0,-1.0
182849709,182849461,-0.0162823,-0.0357826,-0.0135448,0.48,0.0,0.0,0.0,-1.0
182947626,182947373,0.00464023,-0.0603966,-0.00607616,0.484211,0.0,0.0,0.0,-1.0
183049417,183049171,-0.0813357,-0.00948001,-0.0146051,0.498947,0.0,0.0,0.0,-1.0
183147489,183147244,-0.0905862,0.0132732,-0.0142133,0.498947,0.0,0.0,0.0,-1.0
183249290,183249043,0.051021,-0.0843208,-0.0259193,0.496842,0.0,0.0,0.0,-1.0
183347370,183347126,-0.0127405,-0.0440869,-0.0474193,0.487368,0.0,0.0,0.0,-1.0
183447913,183447671,-0.0602362,0.0298163,-0.0352981,0.487368,0.0,0.0,0.0,-1.0
183549714,183549468,-0.0922198,-0.00141432,-0.0416978,0.487368,0.0,0.0,0.0,-1.0
183647846,183647599,-0.0295481,-0.00942885,-0.0636268,0.488421,0.0,0.0,0.0,-1.0
183749582,183749339,0.0291517,-0.0401942,-0.0570988,0.498947,0.0,0.0,0.0,-1.0
183847658,183847412,-0.0756912,-0.0424411,-0.0572077,0.517797,0.0,0.0,0.0,-1.0
183949454,183949213,-0.0307901,-0.00231199,-0.0464695,0.517797,0.0,0.0,0.0,-1.0
184047535,184047283,0.000776746,-0.0428674,-0.0429376,0.517797,0.0,0.0,0.0,-1.0
184148103,184147839,-0.0251088,-0.0239791,-0.0295876,0.521395,0.0,0.0,0.0,-1.0
184249880,184249636,-0.0245891,-0.0326011,-0.0257937,0.526193,0.0,0.0,0.0,-1.0
184347964,184347709,-0.0397215,-0.0216077,-0.0201674,0.526193,0.0,0.0,0.0,-1.0
184449774,184449531,-0.0408211,-0.0363317,-0.0254325,0.526193,0.0,0.0,0.0,-1.0
184547829,184547582,-0.0371243,-0.0132397,-0.0301308,0.526193,0.0,0.0,0.0,-1.0
184648382,184648138,-0.0149195,-0.0346001,-0.0214044,0.5,0.0,0.0,0.0,-1.0
184746604,184746358,0.0735189,-0.0631549,-0.0217385,0.504211,0.0,0.0,0.0,-1.0
184848256,184848007,-0.107747,-0.00136035,-0.0132426,0.506316,0.0,0.0,0.0,-1.0
184950062,184949808,0.0375611,-0.0688792,-0.0189216,0.507368,0.0,0.0,0.0,-1.0
185048136,185047878,0.0274573,-0.0418117,-0.0184677,0.507368,0.0,0.0,0.0,-1.0
185149935,185149677,-0.0828945,-0.00863017,-0.0102092,0.532191,0.0,0.0,0.0,-1.0
185246750,185246507,-0.0371165,-0.0398723,-0.0109098,0.547785,0.0,0.0,0.0,-1.0
185348557,185348306,0.0259551,-0.060416,-0.0116056,0.572974,0.0,0.0,0.0,-1.0
185446631,185446379,-0.0285652,-0.0312296,-0.00479279,0.574174,0.0,0.0,0.0,-1.0
185548548,185548306,0.0180769,-0.030525,-0.00103816,0.574174,0.0,0.0,0.0,-1.0
185650225,185649974,-0.0368719,-0.050664,-0.00204392,0.574174,0.0,0.0,0.0,-1.0
185748296,185748047,0.0170349,-0.0358417,-0.00613179,0.574174,0.0,0.0,0.0,-1.0
185848855,185848605,-0.0515553,-0.0640282,-0.00358011,0.551383,0.0,0.0,0.0,-1.0
185948183,185947933,0.015403,-0.0174539,-0.00736855,0.553782,0.0,0.0,0.0,-1.0
186048722,186048475,-0.0319809,-0.0584513,-0.0088244,0.551383,0.0,0.0,0.0,-1.0
186146793,186146547,-0.0417586,-0.0281081,0.00572489,0.556181,0.0,0.0,0.0,-1.0
186248588,186248344,-0.0414917,-0.03527,-0.00346625,0.547785,0.0,0.0,0.0,-1.0
186350501,186350244,-0.0782427,-0.00139631,-0.00496568,0.511799,0.0,0.0,0.0,-1.0
186448463,186448216,-0.0452503,-0.0419276,-0.0111729,0.522595,0.0,0.0,0.0,-1.0
186549069,186548821,0.0186561,-0.0709463,-0.0181701,0.521395,0.0,0.0,0.0,-1.0
186647091,186646845,-0.0529331,-0.0145854,-0.0240405,0.527393,0.0,0.0,0.0,-1.0
186748925,186748679,0.00550628,-0.0260147,-0.0198179,0.53339,0.0,0.0,0.0,-1.0
186846970,186846716,-0.0398271,-0.0543906,-0.0256983,0.526193,0.0,0.0,0.0,-1.0
186948758,186948514,-0.0441539,-0.0300693,-0.019727,0.526193,0.0,0.0,0.0,-1.0
187050568,187050313,-0.0481162,0.0165982,-0.0155661,0.527393,0.0,0.0,0.0,-1.0
187147445,187147196,-0.0350479,-0.0311208,-0.0181049,0.508421,0.0,0.0,0.0,-1.0
187249198,187248942,-0.0187676,-0.020876,-0.0287571,0.501053,0.0,0.0,0.0,-1.0
187347263,187347014,0.00157081,-0.0393394,-0.0253075,0.526193,0.0,0.0,0.0,-1.0
187449060,187448812,0.0188171,-0.0760451,-0.0315813,0.527393,0.0,0.0,0.0,-1.0
187547135,187546886,0.0122597,-0.0741024,-0.0322958,0.526193,0.0,0.0,0.0,-1.0
187648926,187648684,-0.0906837,0.00388299,-0.0395889,0.526193,0.0,0.0,0.0,-1.0
187749486,187749239,-0.0664113,-0.00377461,-0.0354652,0.526193,0.0,0.0,0.0,-1.0
187847557,187847313,0.0184463,-0.00268201,-0.0361785,0.526193,0.0,0.0,0.0,-1.0
187949390,187949141,-0.0049534,-0.0680721,-0.0340441,0.526193,0.0,0.0,0.0,-1.0
188048681,188048429,-0.0250204,-0.0260818,-0.0343498,0.5106,0.0,0.0,0.0,-1.0
188149236,188148981,-0.0213214,0.00565304,-0.0316795,0.517797,0.0,0.0,0.0,-1.0
188247498,188247241,-0.0647878,-0.00457093,-0.0370874,0.511799,0.0,0.0,0.0,-1.0
188347857,188347611,-0.011262,-0.0197808,-0.0384391,0.515398,0.0,0.0,0.0,-1.0
188449656,188449409,-0.0963903,-0.0432439,-0.0415107,0.517797,0.0,0.0,0.0,-1.0
188547726,188547482,-0.00713221,-0.044935,-0.0499914,0.517797,0.0,0.0,0.0,-1.0
188649528,188649280,-0.0350598,-0.0210601,-0.0515129,0.536989,0.0,0.0,0.0,-1.0
188747597,188747353,-0.0515577,-0.0355963,-0.0551571,0.539388,0.0,0.0,0.0,-1.0
188849399,188849151,-0.0741212,-0.0320128,-0.052626,0.550184,0.0,0.0,0.0,-1.0
188947504,188947250,-0.0351437,-0.0423165,-0.0565558,0.550184,0.0,0.0,0.0,-1.0
189048158,189047909,-0.0279602,-0.037126,-0.0578191,0.548984,0.0,0.0,0.0,-1.0
189149826,189149581,-0.00984257,-0.0643992,-0.0547984,0.548984,0.0,0.0,0.0,-1.0
189247895,189247652,0.00433978,-0.0688814,-0.0514461,0.550184,0.0,0.0,0.0,-1.0
189349700,189349451,-0.10044,-0.014993,-0.0491377,0.550184,0.0,0.0,0.0,-1.0
189447774,189447524,-0.113172,0.00575296,-0.0434076,0.550184,0.0,0.0,0.0,-1.0
189548338,189548088,-0.0147608,-0.0562827,-0.0371232,0.548984,0.0,0.0,0.0,-1.0
189646408,189646153,-0.0159944,-0.054347,-0.0366976,0.550184,0.0,0.0,0.0,-1.0
189748201,189747951,-0.0210983,-0.0414816,-0.0235709,0.550184,0.0,0.0,0.0,-1.0
189850092,189849846,-0.101147,-0.0233462,-0.030429,0.548984,0.0,0.0,0.0,-1.0
189948083,189947822,-0.0123968,-0.0314842,-0.00967309,0.546585,0.0,0.0,0.0,-1.0
190049877,190049624,-0.0102604,-0.020795,-0.0152209,0.546585,0.0,0.0,0.0,-1.0
190147945,190147694,-0.0843172,-0.0328903,-0.00465176,0.544186,0.0,0.0,0.0,-1.0
190248501,190248256,-0.0154493,-0.0321908,-0.0115001,0.544186,0.0,0.0,0.0,-1.0
190346572,190346323,-0.0427027,-0.07062,-0.0111749,0.541787,0.0,0.0,0.0,-1.0
190448372,190448121,-0.0476984,-0.0239189,-0.0127726,0.544186,0.0,0.0,0.0,-1.0
190550169,190549919,-0.032151,-0.0633472,-0.0148776,0.545386,0.0,0.0,0.0,-1.0
190648316,190648066,0.0335759,-0.0487005,-0.00464721,0.546585,0.0,0.0,0.0,-1.0
190750045,190749790,-0.0598253,-0.0118195,-0.00151246,0.544186,0.0,0.0,0.0,-1.0
190846863,190846622,-0.0257884,-0.04959,0.00406975,0.545386,0.0,0.0,0.0,-1.0
190948667,190948420,-0.111561,0.0195283,-0.00948109,0.520196,0.0,0.0,0.0,-1.0
191046743,191046493,0.051876,-0.0519555,-0.00281464,0.504211,0.0,0.0,0.0,-1.0
191148537,191148291,-0.0436257,-0.016544,-0.0169555,0.504211,0.0,0.0,0.0,-1.0
191250342,191250090,-0.0340997,-0.0388261,-0.0153337,0.504211,0.0,0.0,0.0,-1.0
191348406,191348163,-0.0369268,-0.0354571,-0.0290899,0.526193,0.0,0.0,0.0,-1.0
191448990,191448743,-0.0806684,-0.0181932,-0.0288948,0.5,0.0,0.0,0.0,-1.0
191547037,191546793,-0.0252422,-0.0263036,-0.031292,0.502105,0.0,0.0,0.0,-1.0
191648848,191648592,0.0697768,-0.0855065,-0.0398925,0.502105,0.0,0.0,0.0,-1.0
191747075,191746823,0.0405323,-0.0631536,-0.0338575,0.501053,0.0,0.0,0.0,-1.0
191848710,191848462,0.0269748,-0.0672384,-0.0360834,0.502105,0.0,0.0,0.0,-1.0
191950520,191950260,-0.0204108,-0.0312747,-0.0366058,0.517797,0.0,0.0,0.0,-1.0
192047344,192047093,0.041743,-0.0488198,-0.0384342,0.518996,0.0,0.0,0.0,-1.0
192149139,192148890,-0.0592118,-0.0241482,-0.0405555,0.517797,0.0,0.0,0.0,-1.0
192247280,192247034,-0.0561973,-0.0675996,-0.0352733,0.517797,0.0,0.0,0.0,-1.0
192349027,192348771,-0.0675155,0.0115317,-0.0207095,0.515398,0.0,0.0,0.0,-1.0
192447085,192446835,-0.0414401,-0.0107671,-0.0181199,0.516597,0.0,0.0,0.0,-1.0
192549031,192548767,-0.0272624,-0.0481993,-0.0228993,0.517797,0.0,0.0,0.0,-1.0
192649442,192649189,0.00451145,-0.0420634,-0.0177483,0.518996,0.0,0.0,0.0,-1.0
192747513,192747263,0.0339312,-0.127428,-0.0195076,0.53459,0.0,0.0,0.0,-1.0
192849309,192849061,-0.0656904,-0.00273333,-0.0206787,0.53459,0.0,0.0,0.0,-1.0
192947378,192947134,-0.00331303,-0.0364253,-0.0180085,0.53459,0.0,0.0,0.0,-1.0
193049243,193048991,-0.0200879,-0.0091138,-0.0265297,0.53339,0.0,0.0,0.0,-1.0
193147264,193147006,-0.0236887,-0.0298663,-0.0269205,0.53339,0.0,0.0,0.0,-1.0
193249058,193248804,-0.0457973,-0.0332912,-0.0244778,0.53339,0.0,0.0,0.0,-1.0
193349718,193349463,0.0067357,-0.0850875,-0.0359052,0.53339,0.0,0.0,0.0,-1.0
193447684,193447434,-0.130309,-0.0171812,-0.0362585,0.53339,0.0,0.0,0.0,-1.0
193549486,193549232,0.0788797,-0.0663924,-0.0291676,0.53339,0.0,0.0,0.0,-1.0
193647548,193647305,-0.0677296,-0.044685,-0.0248879,0.535789,0.0,0.0,0.0,-1.0
193749358,193749106,-0.0232625,-0.0241859,-0.0262243,0.538188,0.0,0.0,0.0,-1.0
193847429,193847177,-0.097809,-0.0311684,-0.0247867,0.553782,0.0,0.0,0.0,-1.0
193947985,193947735,0.00844526,-0.0850425,-0.0291664,0.553782,0.0,0.0,0.0,-1.0
194049773,194049532,0.0379332,-0.0152888,-0.0182433,0.553782,0.0,0.0,0.0,-1.0
194147909,194147662,-0.0522922,-0.0670268,-0.0294098,0.553782,0.0,0.0,0.0,-1.0
194249655,194249404,-0.0196965,-0.0843887,-0.0263535,0.553782,0.0,0.0,0.0,-1.0
194347715,194347477,-0.00438342,-0.0509321,-0.0256814,0.553782,0.0,0.0,0.0,-1.0
194449546,194449277,-0.00917934,-0.0490892,-0.0154802,0.553782,0.0,0.0,0.0,-1.0
194546352,194546107,-0.0307309,-0.0368688,-0.0189686,0.553782,0.0,0.0,0.0,-1.0
194648157,194647909,0.00267126,-0.061568,-0.0122584,0.551383,0.0,0.0,0.0,-1.0
194749949,194749706,-0.0338468,-0.0834927,-0.0135472,0.553782,0.0,0.0,0.0,-1.0
194848032,194847778,-0.0328489,-0.0271749,-0.0106751,0.552583,0.0,0.0,0.0,-1.0
194949906,194949654,-0.0315957,-0.0191222,-0.0164451,0.552583,0.0,0.0,0.0,-1.0
195047892,195047650,-0.0327144,-0.0397243,-0.00630145,0.552583,0.0,0.0,0.0,-1.0
195148454,195148205,-0.0424044,-0.0169109,-0.0146911,0.550184,0.0,0.0,0.0,-1.0
195246685,195246441,0.00645891,-0.00633516,-0.00673768,0.550184,0.0,0.0,0.0,-1.0
195348328,195348084,-0.0266691,-0.0201148,-0.00747425,0.550184,0.0,0.0,0.0,-1.0
195450116,195449875,-0.0685635,-0.021989,-0.0171039,0.544186,0.0,0.0,0.0,-1.0
195548199,195547949,-0.0294426,-0.0428496,-0.00614993,0.542987,0.0,0.0,0.0,-1.0
195650003,195649746,-0.0291814,-0.0581534,-0.0147161,0.544186,0.0,0.0,0.0,-1.0
195748068,195747822,-0.000189512,-0.0382129,-0.0121191,0.545386,0.0,0.0,0.0,-1.0
195848624,195848377,-0.0251886,-0.0499123,-0.0190198,0.544186,0.0,0.0,0.0,-1.0
195946729,195946485,-0.0213669,-0.0599144,-0.0241773,0.545386,0.0,0.0,0.0,-1.0
196048645,196048394,0.0060406,-0.0538009,-0.017779,0.545386,0.0,0.0,0.0,-1.0
196146616,196146369,-0.0411762,-0.0445377,-0.0269688,0.547785,0.0,0.0,0.0,-1.0
196248366,196248121,-0.0574242,-0.012571,-0.0356958,0.546585,0.0,0.0,0.0,-1.0
196348922,196348678,0.011949,-0.0419724,-0.0286482,0.545386,0.0,0.0,0.0,-1.0
196446993,196446751,-0.00864524,-0.0510136,-0.0297534,0.547785,0.0,0.0,0.0,-1.0
196548800,196548550,0.00432762,-0.0628788,-0.034212,0.548984,0.0,0.0,0.0,-1.0
196646867,196646623,-0.0600168,-0.0119468,-0.0296299,0.550184,0.0,0.0,0.0,-1.0
196748677,196748425,0.0531372,-0.0512211,-0.0189664,0.550184,0.0,0.0,0.0,-1.0
196846906,196846655,-0.0174592,-0.0596627,-0.0200761,0.550184,0.0,0.0,0.0,-1.0
196948560,196948305,0.00273875,-0.0665891,-0.0121543,0.550184,0.0,0.0,0.0,-1.0
197049092,197048849,-0.0114045,-0.0750677,-0.0254956,0.550184,0.0,0.0,0.0,-1.0
197147170,197146924,-0.122604,-0.0239552,-0.0242709,0.550184,0.0,0.0,0.0,-1.0
197248967,197248721,-0.0511981,-0.0415757,-0.0281851,0.550184,0.0,0.0,0.0,-1.0
197347045,197346798,-0.0693441,-0.052148,-0.0216627,0.550184,0.0,0.0,0.0,-1.0
197448846,197448594,-0.0385829,-0.041351,-0.0238472,0.548984,0.0,0.0,0.0,-1.0
197546921,197546667,-0.00953969,-0.0810118,-0.0216063,0.550184,0.0,0.0,0.0,-1.0
197647539,197647291,0.0303035,-0.00981948,-0.00956964,0.550184,0.0,0.0,0.0,-1.0
197749270,197749022,-0.0622684,-0.00847828,-0.0144439,0.551383,0.0,0.0,0.0,-1.0
197847341,197847096,0.00894457,-0.0589859,-0.0129343,0.550184,0.0,0.0,0.0,-1.0
197949144,197948894,-0.0622034,-0.0358451,-0.0211485,0.501053,0.0,0.0,0.0,-1.0
198047216,198046968,-0.0911765,-0.0235797,-0.0261489,0.501053,0.0,0.0,0.0,-1.0
198149027,198148766,-0.0711127,0.00220576,-0.0130238,0.504211,0.0,0.0,0.0,-1.0
198249575,198249327,0.0318138,-0.0396074,-0.00890796,0.511799,0.0,0.0,0.0,-1.0
198347646,198347397,0.0407924,-0.0488787,-0.0147711,0.526193,0.0,0.0,0.0,-1.0
198449475,198449233,-0.0454443,-0.0287455,-0.0224823,0.526193,0.0,0.0,0.0,-1.0
198547511,198547269,-0.0565453,-0.0418618,-0.0176034,0.502105,0.0,0.0,0.0,-1.0
198649316,198649067,-0.031841,-0.0238876,-0.0153636,0.5,0.0,0.0,0.0,-1.0
198746305,198746059,0.0166683,-0.0596178,-0.0193884,0.503158,0.0,0.0,0.0,-1.0
198847948,198847697,-0.0876297,-0.0331193,-0.0224112,0.5106,0.0,0.0,0.0,-1.0
198949785,198949542,-0.0605265,-0.0318992,-0.00907352,0.517797,0.0,0.0,0.0,-1.0
199047819,199047570,-0.0204493,0.00304922,-0.0122704,0.538188,0.0,0.0,0.0,-1.0
199149613,199149371,-0.0268707,-0.0251491,-0.0207685,0.535789,0.0,0.0,0.0,-1.0
199247686,199247441,-0.00944661,-0.0379979,-0.0180983,0.536989,0.0,0.0,0.0,-1.0
199349496,199349241,-0.0150895,-0.043242,-0.0158735,0.535789,0.0,0.0,0.0,-1.0
199447565,199447317,0.0226782,-0.0843297,-0.0223735,0.53459,0.0,0.0,0.0,-1.0
199548259,199548008,-0.0942796,0.0204953,-0.0222631,0.535789,0.0,0.0,0.0,-1.0
199649914,199649669,-0.0380907,-0.0888783,-0.0243818,0.535789,0.0,0.0,0.0,-1.0
199747997,199747746,-0.0644837,-0.00886478,-0.0272869,0.542987,0.0,0.0,0.0,-1.0
199849782,199849541,-0.00958773,-0.0340263,-0.0181123,0.541787,0.0,0.0,0.0,-1.0
199947857,199947615,-0.0199897,-0.0563658,-0.0254025,0.541787,0.0,0.0,0.0,-1.0
200048415,200048173,-0.101939,-0.00709284,-0.0261504,0.539388,0.0,0.0,0.0,-1.0
200146495,200146245,-0.0711385,-0.0147965,-0.0140295,0.539388,0.0,0.0,0.0,-1.0
200248293,200248044,-0.0603893,-0.0552429,-0.0323206,0.541787,0.0,0.0,0.0,-1.0
200350209,200349957,-0.025513,-0.0207056,-0.0198318,0.540587,0.0,0.0,0.0,-1.0
200448166,200447917,0.00800577,-0.0877246,-0.027356,0.542987,0.0,0.0,0.0,-1.0
200546244,200545990,-0.0211552,-0.0528008,-0.0265273,0.541787,0.0,0.0,0.0,-1.0
200648043,200647788,0.00441111,-0.0265788,-0.0139545,0.536989,0.0,0.0,0.0,-1.0
200748589,200748345,-0.0574116,-0.0423518,-0.0259562,0.535789,0.0,0.0,0.0,-1.0
200846665,200846419,-0.119445,-0.0220171,-0.0205255,0.541787,0.0,0.0,0.0,-1.0
200948471,200948217,-0.00874774,-0.044699,-0.0214888,0.538188,0.0,0.0,0.0,-1.0
201050264,201050015,-0.115131,-0.0403261,-0.0237026,0.574174,0.0,0.0,0.0,-1.0
201148493,201148228,0.0147157,-0.0468913,-0.0195873,0.572974,0.0,0.0,0.0,-1.0
201246412,201246163,-0.0308973,-0.0640028,-0.0283326,0.568176,0.0,0.0,0.0,-1.0
201346978,201346721,-0.111085,-0.032755,-0.0190804,0.568176,0.0,0.0,0.0,-1.0
201448765,201448519,-0.0965122,-0.00137306,-0.0303334,0.568176,0.0,0.0,0.0,-1.0
201546844,201546593,0.0111722,-0.0548748,-0.0245172,0.568176,0.0,0.0,0.0,-1.0
201648645,201648394,0.0839201,-0.0396575,-0.0212723,0.540587,0.0,0.0,0.0,-1.0
201750439,201750189,-0.0912335,-0.0338387,-0.0233753,0.527393,0.0,0.0,0.0,-1.0
201848540,201848284,-0.0164536,-0.026968,-0.0262407,0.509474,0.0,0.0,0.0,-1.0
201949175,201948923,-0.0680143,-0.0421978,-0.0302811,0.515398,0.0,0.0,0.0,-1.0
202047146,202046894,-0.0495178,-0.0597206,-0.0342808,0.511799,0.0,0.0,0.0,-1.0
202148936,202148692,-0.12377,0.0387214,-0.026612,0.511799,0.0,0.0,0.0,-1.0
202247179,202246937,-0.0938436,-0.00305583,-0.0338458,0.502105,0.0,0.0,0.0,-1.0
202348817,202348565,-0.0354255,-0.0259251,-0.0239637,0.501053,0.0,0.0,0.0,-1.0
202449378,202449125,-0.0254481,-0.0288804,-0.0233659,0.503158,0.0,0.0,0.0,-1.0
202547450,202547201,0.00482484,-0.061372,-0.0251121,0.503158,0.0,0.0,0.0,-1.0
202649243,202648994,0.00177287,-0.0414308,-0.0283339,0.529792,0.0,0.0,0.0,-1.0
202747395,202747135,0.0154026,-0.0400042,-0.0272058,0.529792,0.0,0.0,0.0,-1.0
202849112,202848866,-0.072352,0.002323,-0.0226522,0.540587,0.0,0.0,0.0,-1.0
202947187,202946940,0.0346199,-0.0491572,-0.018984,0.552583,0.0,0.0,0.0,-1.0
203047876,203047635,-0.0712064,-0.0125923,-0.0356515,0.551383,0.0,0.0,0.0,-1.0
203149549,203149296,0.0100187,-0.072821,-0.0266677,0.547785,0.0,0.0,0.0,-1.0
203247622,203247371,-0.0568872,-0.016296,-0.0324014,0.552583,0.0,0.0,0.0,-1.0
203349418,203349168,-0.0324314,-0.0461921,-0.0285022,0.550184,0.0,0.0,0.0,-1.0
203447487,203447243,-0.0235212,-0.0556557,-0.0212479,0.550184,0.0,0.0,0.0,-1.0
203549284,203549040,-0.103377,0.0376875,-0.0326764,0.550184,0.0,0.0,0.0,-1.0
203647362,203647115,0.0211049,-0.00396726,-0.0192566,0.550184,0.0,0.0,0.0,-1.0
203747926,203747679,-0.0505196,-0.0377433,-0.0272289,0.547785,0.0,0.0,0.0,-1.0
203849835,203849585,-0.100392,0.0253803,-0.0362566,0.551383,0.0,0.0,0.0,-1.0
203949049,203948789,0.0265358,-0.0652275,-0.0343094,0.552583,0.0,0.0,0.0,-1.0
204049590,204049343,0.0205335,-0.0470081,-0.0391518,0.547785,0.0,0.0,0.0,-1.0
204147711,204147460,0.042938,-0.0564889,-0.0466577,0.550184,0.0,0.0,0.0,-1.0
204249455,204249215,-0.0526527,-0.0315793,-0.0597501,0.547785,0.0,0.0,0.0,-1.0
204347557,204347297,-0.0486209,-0.0311351,-0.0606831,0.547785,0.0,0.0,0.0,-1.0
204448096,204447846,-0.0183952,-0.0656658,-0.0638353,0.551383,0.0,0.0,0.0,-1.0
204549901,204549645,-0.082658,-0.0464872,-0.0538432,0.551383,0.0,0.0,0.0,-1.0
204648060,204647810,-0.0419294,-0.025923,-0.0420372,0.551383,0.0,0.0,0.0,-1.0
204749774,204749517,-0.0452447,-0.0435254,-0.0435436,0.551383,0.0,0.0,0.0,-1.0
204847840,204847592,-0.129687,-0.0197532,-0.0207664,0.548984,0.0,0.0,0.0,-1.0
204948392,204948149,-0.106822,-0.0256825,0.00233888,0.546585,0.0,0.0,0.0,-1.0
205046477,205046226,-0.0741711,-0.036701,0.012576,0.547785,0.0,0.0,0.0,-1.0
205148273,205148026,0.00719497,-0.0210857,0.0271385,0.544186,0.0,0.0,0.0,-1.0
205250075,205249822,0.0251446,-0.0439272,0.0373691,0.53459,0.0,0.0,0.0,-1.0
205348158,205347895,-0.00983337,-0.0294802,0.0307189,0.535789,0.0,0.0,0.0,-1.0
205450016,205449761,-0.120683,0.00468073,0.0279469,0.53459,0.0,0.0,0.0,-1.0
205548035,205547783,0.0138621,-0.16351,0.0358371,0.53339,0.0,0.0,0.0,-1.0
205648567,205648324,-0.0276402,-0.0551503,0.0419934,0.504211,0.0,0.0,0.0,-1.0
205746871,205746624,-0.0562082,-0.0518069,0.0421271,0.504211,0.0,0.0,0.0,-1.0
205848443,205848201,0.0104472,-0.0397537,0.0385604,0.5,0.0,0.0,0.0,-1.0
205950249,205949994,0.0200262,-0.0466242,0.0349459,0.501053,0.0,0.0,0.0,-1.0
206048329,206048071,-0.0144012,-0.0546664,0.0183555,0.503158,0.0,0.0,0.0,-1.0
206148878,206148626,-0.110199,-0.00918515,0.0149234,0.505263,0.0,0.0,0.0,-1.0
206247012,206246760,0.0463551,-0.034131,0.0156055,0.547785,0.0,0.0,0.0,-1.0
206348741,206348498,-0.0594589,-0.0387824,0.00313898,0.547785,0.0,0.0,0.0,-1.0
206446820,206446574,0.0208849,-0.013062,0.000244411,0.546585,0.0,0.0,0.0,-1.0
206548756,206548514,-0.0740507,-0.0147763,-0.00584375,0.547785,0.0,0.0,0.0,-1.0
206650419,206650170,-0.0413183,-0.025631,-0.0166817,0.544186,0.0,0.0,0.0,-1.0
206748507,206748248,-0.104337,-0.0187246,-0.0226651,0.544186,0.0,0.0,0.0,-1.0
206849051,206848802,0.0300828,-0.0776348,-0.0237002,0.545386,0.0,0.0,0.0,-1.0
206947124,206946875,-0.0523968,-0.106297,-0.0309833,0.546585,0.0,0.0,0.0,-1.0
207048947,207048701,-0.0227636,-0.0433295,-0.025275,0.546585,0.0,0.0,0.0,-1.0
207147004,207146749,-0.0586446,-0.00106193,-0.0195771,0.547785,0.0,0.0,0.0,-1.0
207248791,207248547,-0.0352005,-0.0700125,-0.0152447,0.546585,0.0,0.0,0.0,-1.0
207350730,207350470,0.0108206,-0.0641563,-0.0154056,0.547785,0.0,0.0,0.0,-1.0
207447423,207447179,-0.0794105,-0.0315781,-0.0149071,0.548984,0.0,0.0,0.0,-1.0
207549233,207548979,-0.0306884,-0.070574,-0.00324463,0.544186,0.0,0.0,0.0,-1.0
207647301,207647053,-0.0251138,-0.0889895,-0.00435751,0.546585,0.0,0.0,0.0,-1.0
207749092,207748850,-0.0238947,-0.0640684,-0.00511849,0.547785,0.0,0.0,0.0,-1.0
207847171,207846923,-0.0131227,-0.0615717,-0.0112169,0.545386,0.0,0.0,0.0,-1.0
207948967,207948722,0.0683215,-0.0700987,-0.00478239,0.545386,0.0,0.0,0.0,-1.0
208049533,208049280,-0.0247156,-0.0573839,-0.0140786,0.545386,0.0,0.0,0.0,-1.0
208147671,208147429,-0.106672,-0.000455683,-0.0126178,0.545386,0.0,0.0,0.0,-1.0
208249413,208249155,-0.0113169,-0.0410381,-0.00772022,0.545386,0.0,0.0,0.0,-1.0
208347475,208347227,0.0488922,-0.0957737,-0.0167346,0.547785,0.0,0.0,0.0,-1.0
208449272,208449025,-0.0764771,-0.0279134,-0.019679,0.541787,0.0,0.0,0.0,-1.0
208547356,208547103,0.023383,-0.0410742,-0.0125977,0.544186,0.0,0.0,0.0,-1.0
208647900,208647656,0.00107184,-0.06601,-0.0188522,0.539388,0.0,0.0,0.0,-1.0
208749704,208749455,-0.0747841,-0.0179646,-0.0175459,0.541787,0.0,0.0,0.0,-1.0
208847774,208847531,-0.0998539,-0.0500879,-0.0224851,0.515398,0.0,0.0,0.0,-1.0
208949636,208949387,0.0395199,-0.0270222,-0.0262514,0.522595,0.0,0.0,0.0,-1.0
209047687,209047438,-0.0424074,-0.0483961,-0.0377634,0.520196,0.0,0.0,0.0,-1.0
209149456,209149203,-0.0716668,-0.0374304,-0.0316015,0.521395,0.0,0.0,0.0,-1.0
209246465,209246218,0.0433731,-0.0903234,-0.0349389,0.523794,0.0,0.0,0.0,-1.0
209348086,209347833,-0.0283156,-0.0504544,-0.0302222,0.520196,0.0,0.0,0.0,-1.0
209449888,209449641,0.099779,-0.0939634,-0.0217654,0.520196,0.0,0.0,0.0,-1.0
209547960,209547705,0.000421774,-0.0532099,-0.0148511,0.520196,0.0,0.0,0.0,-1.0
209649794,209649545,0.039444,-0.104719,-0.0223237,0.521395,0.0,0.0,0.0,-1.0
209747891,209747643,-0.0220397,-0.0601655,-0.0158181,0.521395,0.0,0.0,0.0,-1.0
209848384,209848136,0.00203299,-0.10578,-0.0242401,0.521395,0.0,0.0,0.0,-1.0
209946466,209946216,0.0152873,-0.103535,-0.0102064,0.521395,0.0,0.0,0.0,-1.0
210048405,210048161,-0.0386211,-0.0486668,-0.0179624,0.521395,0.0,0.0,0.0,-1.0
210150055,210149807,-0.0481808,-0.0860555,-0.0155409,0.522595,0.0,0.0,0.0,-1.0
210248137,210247882,-0.0133668,-0.148431,-0.0149983,0.565777,0.0,0.0,0.0,-1.0
210349945,210349681,-0.0994781,-0.00829926,-0.0170358,0.563378,0.0,0.0,0.0,-1.0
210449268,210449000,-0.0257769,-0.057116,-0.00825525,0.565777,0.0,0.0,0.0,-1.0
210548668,210548420,0.0464872,-0.0868207,-0.0191634,0.565777,0.0,0.0,0.0,-1.0
210646634,210646386,-0.0344834,-0.0742304,-0.0276796,0.565777,0.0,0.0,0.0,-1.0
210748436,210748185,0.0311593,-0.0279751,-0.0121528,0.53459,0.0,0.0,0.0,-1.0
210850235,210849984,0.0281873,-0.0566502,-0.0205098,0.529792,0.0,0.0,0.0,-1.0
210948306,210948059,-0.0445696,-0.0849602,-0.03307,0.506316,0.0,0.0,0.0,-1.0
211048864,211048615,-0.0289845,-0.0784341,-0.0294036,0.509474,0.0,0.0,0.0,-1.0
211146934,211146690,-0.0130574,-0.0329566,-0.0229133,0.511799,0.0,0.0,0.0,-1.0
211248739,211248490,-0.0706365,-0.0167682,-0.0242018,0.524994,0.0,0.0,0.0,-1.0
211346924,211346672,-0.103166,-0.00525049,-0.0257746,0.524994,0.0,0.0,0.0,-1.0
211448605,211448361,-0.0719684,-0.036705,-0.0243739,0.521395,0.0,0.0,0.0,-1.0
211550412,211550162,-0.00475607,-0.0996967,-0.0100709,0.5106,0.0,0.0,0.0,-1.0
211648480,211648235,-0.109807,-0.0031897,-0.0188606,0.530991,0.0,0.0,0.0,-1.0
211749040,211748792,-0.0400514,-0.081632,-0.0107061,0.538188,0.0,0.0,0.0,-1.0
211847116,211846866,-0.0393829,-0.058595,-0.00922634,0.535789,0.0,0.0,0.0,-1.0
211948919,211948666,-0.0652671,-0.0678002,-0.0141259,0.535789,0.0,0.0,0.0,-1.0
212046988,212046740,-0.0220746,-0.0798736,-0.0104284,0.535789,0.0,0.0,0.0,-1.0
212148839,212148595,-0.00950546,-0.0664934,-0.00762382,0.535789,0.0,0.0,0.0,-1.0
212249339,212249096,0.034509,-0.0936816,-0.012292,0.535789,0.0,0.0,0.0,-1.0
212347414,212347170,-0.0219231,-0.0722502,-0.0137563,0.535789,0.0,0.0,0.0,-1.0
212449401,212449148,-0.0759418,0.00219799,-0.0179985,0.535789,0.0,0.0,0.0,-1.0
212547292,212547043,-0.0506312,-0.0578945,-0.016236,0.540587,0.0,0.0,0.0,-1.0
212649089,212648842,0.00110321,-0.0930009,-0.0153684,0.535789,0.0,0.0,0.0,-1.0
212747164,212746916,0.0511672,-0.0776917,-0.00785473,0.535789,0.0,0.0,0.0,-1.0
212848961,212848715,-0.0335035,-0.0485949,-0.0180876,0.535789,0.0,0.0,0.0,-1.0
212949549,212949304,-0.0771931,-0.0507758,-0.0172494,0.538188,0.0,0.0,0.0,-1.0
213047593,213047348,-0.0804453,-0.0672005,-0.0184429,0.536989,0.0,0.0,0.0,-1.0
213149393,213149146,0.0415981,-0.0767934,-0.0028174,0.538188,0.0,0.0,0.0,-1.0
213247594,213247350,-0.0357609,-0.074911,-0.00282992,0.538188,0.0,0.0,0.0,-1.0
213349271,213349021,0.0129045,-0.0565205,-0.000985189,0.540587,0.0,0.0,0.0,-1.0
213447342,213447092,-0.0944937,-0.0611894,0.00146099,0.554982,0.0,0.0,0.0,-1.0
213547901,213547651,0.0289521,-0.0708731,-0.00514306,0.553782,0.0,0.0,0.0,-1.0
213649693,213649450,-0.0439165,-0.0971375,0.00154419,0.552583,0.0,0.0,0.0,-1.0
213747763,213747519,0.0601398,-0.103005,-0.00847481,0.551383,0.0,0.0,0.0,-1.0
213849573,213849324,-0.113038,-0.0219985,-0.0118992,0.548984,0.0,0.0,0.0,-1.0
213947646,213947398,0.0101043,-0.0601648,-0.00577747,0.551383,0.0,0.0,0.0,-1.0
214049570,214049312,-0.0398723,-0.0609985,-0.0077519,0.553782,0.0,0.0,0.0,-1.0
214147556,214147302,0.00767905,-0.0259852,-0.00744837,0.553782,0.0,0.0,0.0,-1.0
214248094,214247830,0.000124623,-0.0968633,-0.013696,0.551383,0.0,0.0,0.0,-1.0
214349871,214349628,-0.00465132,-0.0370504,-0.0128728,0.553782,0.0,0.0,0.0,-1.0
214447947,214447702,-0.00166013,-0.0638037,-0.00643889,0.548984,0.0,0.0,0.0,-1.0
214549750,214549501,0.0227113,-0.0572122,-0.017049,0.550184,0.0,0.0,0.0,-1.0
214647818,214647575,-0.116425,-0.016105,-0.0180073,0.551383,0.0,0.0,0.0,-1.0
214748385,214748138,-0.0194024,-0.0843116,-0.0100036,0.551383,0.0,0.0,0.0,-1.0
214846522,214846277,0.0336699,-0.098169,-0.0163348,0.551383,0.0,0.0,0.0,-1.0
214948267,214948011,-0.0449631,-0.0249177,-0.0236579,0.551383,0.0,0.0,0.0,-1.0
215050048,215049805,0.0709974,-0.0736238,-0.0230745,0.551383,0.0,0.0,0.0,-1.0
215148136,215147880,-0.054541,-0.0478955,-0.0295695,0.551383,0.0,0.0,0.0,-1.0
215249931,215249679,-0.0103048,-0.041883,-0.0155276,0.547785,0.0,0.0,0.0,-1.0
215348005,215347753,0.146002,-0.0773743,-0.00732869,0.551383,0.0,0.0,0.0,-1.0
215448557,215448311,-0.00253556,-0.0610907,-0.0105142,0.551383,0.0,0.0,0.0,-1.0
215546632,215546387,-0.035446,-0.0531709,-0.0144987,0.551383,0.0,0.0,0.0,-1.0
215648464,215648217,0.062351,-0.0567208,-0.00652656,0.550184,0.0,0.0,0.0,-1.0
215746519,215746267,-0.0210497,-0.0707674,-0.0134867,0.551383,0.0,0.0,0.0,-1.0
215848304,215848058,-0.0704628,-0.0327944,-0.0168807,0.546585,0.0,0.0,0.0,-1.0
215949034,215948792,0.0327636,-0.0746988,-0.0150962,0.551383,0.0,0.0,0.0,-1.0
216046943,216046690,0.051636,-0.0891892,-0.0249389,0.544186,0.0,0.0,0.0,-1.0
216149983,216149732,-0.0561249,-0.0535307,-0.0250256,0.535789,0.0,0.0,0.0,-1.0
216246808,216246563,-0.00677142,-0.0418481,-0.0278463,0.53459,0.0,0.0,0.0,-1.0
216348610,216348363,-0.0476933,-0.0387486,-0.0327262,0.535789,0.0,0.0,0.0,-1.0
216450412,216450167,-0.0450781,-0.0271576,-0.0240277,0.536989,0.0,0.0,0.0,-1.0
216548478,216548236,-0.000907269,-0.0617171,-0.0223619,0.535789,0.0,0.0,0.0,-1.0
216649038,216648794,-0.101698,0.0111198,-0.0226958,0.540587,0.0,0.0,0.0,-1.0
216747253,216747002,-0.0333852,-0.0383273,-0.0201265,0.538188,0.0,0.0,0.0,-1.0
216848918,216848667,0.0640689,-0.0483691,-0.0142555,0.53459,0.0,0.0,0.0,-1.0
216946988,216946742,-0.0339216,-0.0631083,-0.0161666,0.535789,0.0,0.0,0.0,-1.0
217048795,217048543,-0.00459483,-0.0786037,-0.0132058,0.53459,0.0,0.0,0.0,-1.0
217146865,217146615,0.00641671,-0.0631235,-0.0114029,0.526193,0.0,0.0,0.0,-1.0
217247425,217247174,0.0154866,-0.101632,-0.0234626,0.526193,0.0,0.0,0.0,-1.0
217349219,217348972,-0.0011131,-0.0933743,-0.0232716,0.532191,0.0,0.0,0.0,-1.0
217447292,217447047,-0.0318462,-0.0568467,-0.0227348,0.530991,0.0,0.0,0.0,-1.0
217549209,217548955,-0.0746953,-0.0104062,-0.0210851,0.529792,0.0,0.0,0.0,-1.0
217647163,217646920,-0.0159894,-0.0287637,-0.0210504,0.529792,0.0,0.0,0.0,-1.0
217748969,217748720,-0.116189,0.00527324,-0.0201283,0.529792,0.0,0.0,0.0,-1.0
217847053,217846794,-0.0665982,-0.0146742,-0.0197017,0.530991,0.0,0.0,0.0,-1.0
217947606,217947355,-0.0618971,-0.0288374,-0.0144916,0.539388,0.0,0.0,0.0,-1.0
218049399,218049151,-0.010293,-0.0660094,-0.0168149,0.535789,0.0,0.0,0.0,-1.0
218147479,218147225,0.0516951,-0.0572095,-0.0103245,0.535789,0.0,0.0,0.0,-1.0
218249274,218249024,0.0291051,-0.0647497,-0.0143636,0.53459,0.0,0.0,0.0,-1.0
218347513,218347264,-0.0109491,-0.054542,-0.0199815,0.53459,0.0,0.0,0.0,-1.0
218447905,218447656,-0.00142965,-0.0680164,-0.02286,0.535789,0.0,0.0,0.0,-1.0
218549705,218549455,-0.0657376,-0.0489232,-0.0199172,0.535789,0.0,0.0,0.0,-1.0
218647776,218647530,-0.0966974,-0.016081,-0.0277436,0.536989,0.0,0.0,0.0,-1.0
218749573,218749331,-0.0416068,-0.0567075,-0.0296336,0.538188,0.0,0.0,0.0,-1.0
218847649,218847404,-0.0289819,-0.0305074,-0.023396,0.53459,0.0,0.0,0.0,-1.0
218949469,218949224,0.0290341,-0.0678308,-0.0260159,0.535789,0.0,0.0,0.0,-1.0
219047541,219047292,0.000260985,-0.0660149,-0.0147631,0.535789,0.0,0.0,0.0,-1.0
219148132,219147874,-0.00944232,-0.0744926,-0.0214535,0.535789,0.0,0.0,0.0,-1.0
219249878,219249634,0.00245937,-0.0926768,-0.0244663,0.535789,0.0,0.0,0.0,-1.0
219347968,219347715,-0.0240165,-0.0976315,-0.0214092,0.53459,0.0,0.0,0.0,-1.0
219449940,219449693,-0.0661608,-0.101807,-0.0179776,0.539388,0.0,0.0,0.0,-1.0
219547829,219547583,-0.0199113,-0.0608391,-0.0187255,0.538188,0.0,0.0,0.0,-1.0
219648386,219648141,-0.0399201,-0.0573799,-0.0158897,0.535789,0.0,0.0,0.0,-1.0
219746463,219746215,0.00507221,-0.0452246,-0.0184119,0.548984,0.0,0.0,0.0,-1.0
219848264,219848014,-0.0098759,-0.064214,-0.0158762,0.551383,0.0,0.0,0.0,-1.0
219950075,219949826,-0.0483468,-0.0376355,-0.0155934,0.550184,0.0,0.0,0.0,-1.0
220048148,220047888,-0.0371047,-0.0081405,-0.0143025,0.547785,0.0,0.0,0.0,-1.0
220149936,220149689,-0.085477,-0.0233551,-0.0307174,0.551383,0.0,0.0,0.0,-1.0
220246953,220246706,-0.0680112,-0.0367659,-0.0191134,0.547785,0.0,0.0,0.0,-1.0
220348563,220348320,0.0467299,-0.0803721,0.000142107,0.551383,0.0,0.0,0.0,-1.0
220446637,220446395,0.0153501,-0.0719371,-0.00934334,0.550184,0.0,0.0,0.0,-1.0
220548449,220548198,-0.0779208,-0.0406496,-0.00245771,0.550184,0.0,0.0,0.0,-1.0
220650248,220649993,-0.0665149,-0.00685262,-0.00534989,0.547785,0.0,0.0,0.0,-1.0
220748337,220748088,0.0347542,-0.0903907,0.00155584,0.547785,0.0,0.0,0.0,-1.0
220848874,220848625,-0.0932036,-0.017589,-0.00814706,0.550184,0.0,0.0,0.0,-1.0
220946950,220946700,-0.0385556,-0.0301033,-0.01185,0.547785,0.0,0.0,0.0,-1.0
221048857,221048612,0.00337589,-0.0835976,-0.0270079,0.550184,0.0,0.0,0.0,-1.0
221146822,221146575,0.011932,-0.0365217,-0.0325672,0.550184,0.0,0.0,0.0,-1.0
221248622,221248373,-0.0308259,-0.0731495,-0.0294842,0.548984,0.0,0.0,0.0,-1.0
221350422,221350174,-0.0466766,-0.0501956,-0.0325659,0.546585,0.0,0.0,0.0,-1.0
221448506,221448251,-0.0675246,-0.0133455,-0.0287616,0.550184,0.0,0.0,0.0,-1.0
221546573,221546322,-0.0535787,-0.0323862,-0.00812812,0.546585,0.0,0.0,0.0,-1.0
221647132,221646880,0.0460913,-0.0945747,-0.0171234,0.550184,0.0,0.0,0.0,-1.0
221748937,221748691,-0.0217392,-0.0390863,-0.000267393,0.544186,0.0,0.0,0.0,-1.0
221847110,221846862,-0.0244451,-0.0617015,-0.00125851,0.542987,0.0,0.0,0.0,-1.0
221948802,221948553,-0.0483317,-0.0615868,0.00377005,0.544186,0.0,0.0,0.0,-1.0
222049364,222049112,-0.00677397,-0.0810328,-0.0121974,0.542987,0.0,0.0,0.0,-1.0
222147437,222147189,-0.0609067,-0.024464,-0.0181665,0.515398,0.0,0.0,0.0,-1.0
222249236,222248985,-0.0461613,-0.104295,0.00163118,0.509474,0.0,0.0,0.0,-1.0
222347320,222347071,-0.130342,-0.0168808,-0.00602077,0.511799,0.0,0.0,0.0,-1.0
222449103,222448859,-0.0243352,-0.0824301,-0.00434399,0.515398,0.0,0.0,0.0,-1.0
222547183,222546936,-0.030031,-0.06153,0.00293877,0.515398,0.0,0.0,0.0,-1.0
222649040,222648786,-0.0656656,-0.0801068,-0.00730029,0.515398,0.0,0.0,0.0,-1.0
222749592,222749346,-0.0200584,-0.0512749,-0.0100117,0.544186,0.0,0.0,0.0,-1.0
222847616,222847366,-0.115696,-0.00609,-0.0154061,0.540587,0.0,0.0,0.0,-1.0
222949611,222949365,-0.0305646,-0.0470315,-0.013696,0.538188,0.0,0.0,0.0,-1.0
223047489,223047240,-0.00817523,-0.106544,-0.0199261,0.540587,0.0,0.0,0.0,-1.0
223149301,223149044,-0.0508636,-0.0272783,-0.0108316,0.540587,0.0,0.0,0.0,-1.0
223247356,223247115,-0.0471485,-0.0796818,-0.0134138,0.540587,0.0,0.0,0.0,-1.0
223347922,223347672,0.0363879,-0.0610222,-0.0139087,0.538188,0.0,0.0,0.0,-1.0
223449751,223449500,0.000471317,-0.0595984,-0.00522927,0.538188,0.0,0.0,0.0,-1.0
223547794,223547546,-0.0449921,-0.0612919,-0.00994135,0.538188,0.0,0.0,0.0,-1.0
223649597,223649345,-0.0675084,-0.0638488,-0.0115181,0.541787,0.0,0.0,0.0,-1.0
223747819,223747567,-0.0430179,-0.0255905,-0.00986194,0.539388,0.0,0.0,0.0,-1.0
223849466,223849219,0.0234122,-0.0718558,-0.00585101,0.538188,0.0,0.0,0.0,-1.0
223947550,223947296,-0.0181415,-0.0855078,-0.0187608,0.538188,0.0,0.0,0.0,-1.0
224048110,224047852,-0.00608673,-0.0341604,-0.0237311,0.538188,0.0,0.0,0.0,-1.0
224149904,224149652,-0.0269738,-0.0191685,-0.0190055,0.539388,0.0,0.0,0.0,-1.0
224247976,224247726,-0.0211276,-0.066348,-0.0220861,0.538188,0.0,0.0,0.0,-1.0
224349782,224349527,-0.0313401,-0.105546,-0.0255514,0.538188,0.0,0.0,0.0,-1.0
224447858,224447607,-0.0607383,-0.0948972,-0.0251513,0.535789,0.0,0.0,0.0,-1.0
224548537,224548290,-0.0305876,-0.0333224,-0.0216477,0.535789,0.0,0.0,0.0,-1.0
224646493,224646237,-0.062997,-0.0793428,-0.0233871,0.538188,0.0,0.0,0.0,-1.0
224748277,224748032,0.00930246,-0.100404,-0.0228945,0.540587,0.0,0.0,0.0,-1.0
224850085,224849833,-0.0735568,-0.0361014,-0.0191746,0.539388,0.0,0.0,0.0,-1.0
224948157,224947908,0.0637028,-0.0218263,-0.0186747,0.539388,0.0,0.0,0.0,-1.0
225049960,225049709,-0.0709191,-0.0226846,-0.0319947,0.538188,0.0,0.0,0.0,-1.0
225148044,225147781,-0.101797,-0.0438033,-0.0265254,0.538188,0.0,0.0,0.0,-1.0
225248584,225248339,0.0934463,-0.0552321,-0.0245713,0.540587,0.0,0.0,0.0,-1.0
225346746,225346492,-0.0844867,-0.0291914,-0.0167789,0.539388,0.0,0.0,0.0,-1.0
225448457,225448213,-0.0583891,-0.0683762,-0.0274591,0.535789,0.0,0.0,0.0,-1.0
225550273,225550015,0.00694644,-0.0320356,-0.0131662,0.535789,0.0,0.0,0.0,-1.0
225648338,225648093,0.0801377,-0.0833971,-0.0111489,0.522595,0.0,0.0,0.0,-1.0
225748907,225748652,-0.0529749,-0.0667752,-0.0141465,0.523794,0.0,0.0,0.0,-1.0
225846975,225846720,0.0555029,-0.094318,-0.0140047,0.523794,0.0,0.0,0.0,-1.0
225948766,225948519,-0.0443632,-0.018123,-0.0188271,0.526193,0.0,0.0,0.0,-1.0
226046839,226046595,-0.0253967,-0.0573031,-0.0165351,0.526193,0.0,0.0,0.0,-1.0
226148686,226148440,-0.055887,0.00375464,-0.0182945,0.527393,0.0,0.0,0.0,-1.0
226250448,226250199,0.043391,-0.115706,-0.0252258,0.524994,0.0,0.0,0.0,-1.0
226348522,226348268,0.00434974,-0.0799184,-0.0272806,0.526193,0.0,0.0,0.0,-1.0
226449271,226449022,-0.0923451,-0.0136827,-0.0295601,0.524994,0.0,0.0,0.0,-1.0
226547160,226546904,-0.084599,0.00633337,-0.0289425,0.524994,0.0,0.0,0.0,-1.0
226648946,226648701,0.0197734,-0.057119,-0.0236064,0.546585,0.0,0.0,0.0,-1.0
226747022,226746777,0.00448293,-0.0327175,-0.0309095,0.546585,0.0,0.0,0.0,-1.0
226848817,226848575,-0.0582129,0.00290272,-0.0337054,0.545386,0.0,0.0,0.0,-1.0
226949504,226949258,0.0249737,-0.0298144,-0.030603,0.545386,0.0,0.0,0.0,-1.0
227047453,227047208,-0.0627148,-0.0560276,-0.0299443,0.544186,0.0,0.0,0.0,-1.0
227149264,227149009,-0.0791161,-0.0357118,-0.0382139,0.545386,0.0,0.0,0.0,-1.0
227247476,227247229,-0.0366252,-0.0461684,-0.0333687,0.550184,0.0,0.0,0.0,-1.0
227349130,227348886,-0.0265301,-0.0379975,-0.0314176,0.546585,0.0,0.0,0.0,-1.0
227447216,227446957,-0.0784981,-0.0546408,-0.027779,0.548984,0.0,0.0,0.0,-1.0
227549007,227548756,-0.0400865,-0.0619211,-0.0233575,0.563378,0.0,0.0,0.0,-1.0
227649563,227649314,-0.122676,-0.049404,-0.0179173,0.565777,0.0,0.0,0.0,-1.0
227747630,227747390,0.0211765,-0.111319,-0.0231007,0.564578,0.0,0.0,0.0,-1.0
227849455,227849198,-0.0428642,-0.0498087,-0.0137663,0.565777,0.0,0.0,0.0,-1.0
227947511,227947264,-0.0048537,-0.0660124,-0.0241437,0.564578,0.0,0.0,0.0,-1.0
228049439,228049186,0.00153829,-0.0467997,-0.0191099,0.564578,0.0,0.0,0.0,-1.0
228147388,228147138,-0.047772,-0.0713428,-0.0409809,0.564578,0.0,0.0,0.0,-1.0
228247945,228247697,-0.0110069,-0.0396296,-0.0355522,0.563378,0.0,0.0,0.0,-1.0
228349747,228349496,-0.0473368,-0.0389692,-0.0409784,0.564578,0.0,0.0,0.0,-1.0
228447816,228447570,-0.0387942,-0.0685126,-0.0460592,0.564578,0.0,0.0,0.0,-1.0
228549622,228549374,-0.0057251,-0.0717553,-0.0498435,0.564578,0.0,0.0,0.0,-1.0
228647693,228647445,0.0227091,-0.0956674,-0.0443512,0.564578,0.0,0.0,0.0,-1.0
228749500,228749248,-0.174414,-0.0439308,-0.042917,0.564578,0.0,0.0,0.0,-1.0
228846405,228846157,-0.0290216,0.0124449,-0.0374716,0.564578,0.0,0.0,0.0,-1.0
228948133,228947878,-0.0287541,-0.0540562,-0.0408185,0.556181,0.0,0.0,0.0,-1.0
229049929,229049677,-0.0357484,-0.0459557,-0.027997,0.506316,0.0,0.0,0.0,-1.0
229147998,229147753,-0.0441214,-0.0357392,-0.0197694,0.502105,0.0,0.0,0.0,-1.0
229249813,229249559,-0.0419314,-0.0325483,-0.0153061,0.502105,0.0,0.0,0.0,-1.0
229349126,229348871,-0.0855018,-0.000621723,-0.0140254,0.501053,0.0,0.0,0.0,-1.0
229448435,229448185,-0.0981207,-0.00333627,-0.020107,0.501053,0.0,0.0,0.0,-1.0
229546508,229546262,-0.0230992,-0.0369946,-0.0198598,0.503158,0.0,0.0,0.0,-1.0
229648360,229648115,0.0587965,-0.0834299,-0.0193539,0.504211,0.0,0.0,0.0,-1.0
229750113,229749862,-0.0493515,-0.0539575,-0.0309266,0.507368,0.0,0.0,0.0,-1.0
229848186,229847936,-0.023841,-0.0597543,-0.0345473,0.507368,0.0,0.0,0.0,-1.0
229949996,229949738,-0.0526389,-0.0380135,-0.0351013,0.514198,0.0,0.0,0.0,-1.0
230048067,230047809,0.00830335,-0.067913,-0.0328055,0.515398,0.0,0.0,0.0,-1.0
230148618,230148370,0.0233561,-0.0500694,-0.0301762,0.511799,0.0,0.0,0.0,-1.0
230246693,230246442,-0.0349736,-0.0252429,-0.0327318,0.512999,0.0,0.0,0.0,-1.0
230348488,230348241,-0.0489064,-0.0378933,-0.0235418,0.520196,0.0,0.0,0.0,-1.0
230450313,230450066,0.00643943,-0.0585749,-0.0222537,0.527393,0.0,0.0,0.0,-1.0
230548371,230548116,0.0548354,-0.0808121,-0.0243908,0.542987,0.0,0.0,0.0,-1.0
230648924,230648676,-0.070597,-0.0593295,-0.0296915,0.545386,0.0,0.0,0.0,-1.0
230747161,230746911,0.0124416,-0.0814345,-0.0302401,0.554982,0.0,0.0,0.0,-1.0
230848798,230848550,-0.0928761,-0.0422306,-0.0246768,0.55978,0.0,0.0,0.0,-1.0
230946882,230946626,0.0304982,-0.0570472,-0.0334579,0.55978,0.0,0.0,0.0,-1.0
231048669,231048424,-0.0510102,-0.0733119,-0.0425013,0.560979,0.0,0.0,0.0,-1.0
231150472,231150223,-0.0540305,-0.0181306,-0.0496192,0.568176,0.0,0.0,0.0,-1.0
231247304,231247057,-0.0179235,-0.0807847,-0.0414497,0.569376,0.0,0.0,0.0,-1.0
231349111,231348858,-0.120075,0.0177788,-0.0443311,0.568176,0.0,0.0,0.0,-1.0
231447173,231446932,0.0496306,-0.0508002,-0.0348477,0.569376,0.0,0.0,0.0,-1.0
231549108,231548860,-0.0267132,-0.0206997,-0.0413884,0.569376,0.0,0.0,0.0,-1.0
231647060,231646807,-0.0484221,-0.0492506,-0.0390742,0.569376,0.0,0.0,0.0,-1.0
231748850,231748606,0.0396808,-0.104034,-0.0449995,0.569376,0.0,0.0,0.0,-1.0
231849424,231849182,-0.051585,-0.00633237,-0.0431167,0.569376,0.0,0.0,0.0,-1.0
231947487,231947240,-0.0874189,-0.0241109,-0.0505037,0.569376,0.0,0.0,0.0,-1.0
232049295,232049042,-0.0147617,-0.0738317,-0.050873,0.569376,0.0,0.0,0.0,-1.0
232147358,232147115,-0.0386242,-0.0714062,-0.0546662,0.569376,0.0,0.0,0.0,-1.0
232249165,232248915,-0.0304304,-0.0346162,-0.0436542,0.568176,0.0,0.0,0.0,-1.0
232347323,232347071,-0.0843829,-0.00732058,-0.0462373,0.568176,0.0,0.0,0.0,-1.0
232449046,232448789,-0.0117956,-0.0652498,-0.0474084,0.568176,0.0,0.0,0.0,-1.0
232549590,232549347,-0.0906242,-0.0351073,-0.0412573,0.569376,0.0,0.0,0.0,-1.0
232647668,232647422,-0.0438117,-0.0316727,-0.0314951,0.568176,0.0,0.0,0.0,-1.0
232749476,232749225,-0.0553319,-0.0373962,-0.0445211,0.569376,0.0,0.0,0.0,-1.0
232847545,232847298,-0.0502484,-0.0634714,-0.0431674,0.568176,0.0,0.0,0.0,-1.0
232949347,232949097,0.00922784,-0.0306871,-0.0414943,0.551383,0.0,0.0,0.0,-1.0
233047422,233047172,-0.0230264,-0.0610111,-0.0464544,0.528592,0.0,0.0,0.0,-1.0
233148037,233147785,0.0101696,-0.0675627,-0.0366797,0.526193,0.0,0.0,0.0,-1.0
233249777,233249530,-0.0670465,-0.0305466,-0.0362632,0.516597,0.0,0.0,0.0,-1.0
233347853,233347605,-0.0823297,-0.0483243,-0.0236183,0.514198,0.0,0.0,0.0,-1.0
233449656,233449405,-0.0388674,-0.0118995,-0.0018989,0.502105,0.0,0.0,0.0,-1.0
233547723,233547480,-0.0765501,-0.00922534,0.00688133,0.502105,0.0,0.0,0.0,-1.0
233649536,233649281,0.0124308,-0.0901631,0.0137529,0.504211,0.0,0.0,0.0,-1.0
233746380,233746132,0.087906,-0.0537874,0.0178579,0.504211,0.0,0.0,0.0,-1.0
233848165,233847914,-0.136089,0.00986708,0.00830676,0.504211,0.0,0.0,0.0,-1.0
233946263,233946010,-0.0727363,-0.0253404,0.00817636,0.504211,0.0,0.0,0.0,-1.0
234048034,234047788,-0.0511836,-0.0728253,-0.00327411,0.535789,0.0,0.0,0.0,-1.0
234149841,234149588,-0.00925749,-0.0215227,0.00430637,0.535789,0.0,0.0,0.0,-1.0
234248071,234247820,-0.0435046,-0.0274181,-0.00561053,0.535789,0.0,0.0,0.0,-1.0
234348502,234348256,-0.0463439,-0.0149916,-0.00670787,0.53459,0.0,0.0,0.0,-1.0
234446546,234446302,-0.0397209,-0.0595752,-0.00727454,0.53459,0.0,0.0,0.0,-1.0
234548350,234548099,-0.000893645,-0.0429468,-0.016502,0.53459,0.0,0.0,0.0,-1.0
234646420,234646171,-0.135261,-0.0211521,-0.0239004,0.53339,0.0,0.0,0.0,-1.0
234748226,234747971,0.0139963,-0.0708432,-0.0167023,0.53459,0.0,0.0,0.0,-1.0
234850029,234849771,-0.0542706,-0.00767988,-0.0229215,0.535789,0.0,0.0,0.0,-1.0
234948104,234947846,0.00821164,-0.0145671,-0.0200188,0.551383,0.0,0.0,0.0,-1.0
235048850,235048594,-0.0633401,-0.00849862,-0.0256471,0.551383,0.0,0.0,0.0,-1.0
235146720,235146480,-0.0232768,-0.0465876,-0.0244304,0.55858,0.0,0.0,0.0,-1.0
235248575,235248326,-0.0249376,-0.0394426,-0.0241321,0.55858,0.0,0.0,0.0,-1.0
235350330,235350079,-0.0921465,-0.0121438,-0.0230364,0.55858,0.0,0.0,0.0,-1.0
235448399,235448154,0.0140662,-0.061184,-0.014734,0.557381,0.0,0.0,0.0,-1.0
235549017,235548775,-0.117602,-0.0118517,-0.0196577,0.557381,0.0,0.0,0.0,-1.0
235647035,235646788,-0.0118273,-0.0427914,-0.00516877,0.557381,0.0,0.0,0.0,-1.0
235748834,235748588,-0.0248564,-0.0184086,-0.00633209,0.556181,0.0,0.0,0.0,-1.0
235846988,235846745,-0.00584796,-0.07882,-0.011468,0.556181,0.0,0.0,0.0,-1.0
235948716,235948464,-0.0352257,-0.0439894,-0.0009168,0.557381,0.0,0.0,0.0,-1.0
236046786,236046538,0.0705334,-0.0688179,-0.0120596,0.55858,0.0,0.0,0.0,-1.0
236147351,236147097,0.029998,0.00859164,-0.0124917,0.556181,0.0,0.0,0.0,-1.0
236249157,236248917,0.00995428,-0.0542904,-0.0198377,0.55858,0.0,0.0,0.0,-1.0
236347227,236346972,-0.0990054,-0.0213604,-0.0258133,0.55858,0.0,0.0,0.0,-1.0
236449022,236448772,-0.0162078,-0.123629,-0.0256915,0.557381,0.0,0.0,0.0,-1.0
236547091,236546847,-0.0918681,0.00610579,-0.02725,0.55858,0.0,0.0,0.0,-1.0
236649037,236648778,-0.0258238,-0.0705761,-0.0260288,0.557381,0.0,0.0,0.0,-1.0
236746970,236746722,0.0160016,-0.0480776,-0.024569,0.55978,0.0,0.0,0.0,-1.0
236847530,236847281,-0.098835,-0.0120007,-0.0189009,0.55858,0.0,0.0,0.0,-1.0
236949385,236949139,-0.0374226,-0.0476543,-0.0276119,0.557381,0.0,0.0,0.0,-1.0
237047400,237047156,-0.0326726,-0.0608832,-0.0231853,0.556181,0.0,0.0,0.0,-1.0
237149209,237148956,0.0510651,-0.133029,-0.018494,0.554982,0.0,0.0,0.0,-1.0
237247272,237247030,-0.0306097,-0.028182,-0.0232215,0.554982,0.0,0.0,0.0,-1.0
237349088,237348832,-0.085121,0.0101569,-0.035233,0.554982,0.0,0.0,0.0,-1.0
237449658,237449416,-0.0457905,-0.0375624,-0.0282677,0.557381,0.0,0.0,0.0,-1.0
237547724,237547474,-0.0147586,-0.0563533,-0.0231112,0.554982,0.0,0.0,0.0,-1.0
237649506,237649264,-0.0405342,-0.0186792,-0.0298434,0.554982,0.0,0.0,0.0,-1.0
237747742,237747499,-0.0387457,-0.0493808,-0.0234671,0.554982,0.0,0.0,0.0,-1.0
237849387,237849139,-0.0199723,-0.0927871,-0.0155794,0.554982,0.0,0.0,0.0,-1.0
237947462,237947215,-0.05775,-0.0759323,-0.0221933,0.535789,0.0,0.0,0.0,-1.0
238048022,238047773,0.000673501,-0.0515208,-0.0170049,0.53339,0.0,0.0,0.0,-1.0
238149820,238149573,-0.05416,-0.00715282,-0.0113693,0.509474,0.0,0.0,0.0,-1.0
238247897,238247646,-0.0277218,0.0209224,-0.0147763,0.509474,0.0,0.0,0.0,-1.0
238349693,238349448,0.0181438,-0.0543666,-0.0163567,0.509474,0.0,0.0,0.0,-1.0
238447769,238447524,0.00924629,-0.0346986,-0.0214796,0.5106,0.0,0.0,0.0,-1.0
238548491,238548245,-0.0754981,-0.0462466,-0.0278558,0.511799,0.0,0.0,0.0,-1.0
238646397,238646153,-0.0212617,-0.0631859,-0.0344268,0.539388,0.0,0.0,0.0,-1.0
238748211,238747958,-0.101997,-0.0347691,-0.0282616,0.535789,0.0,0.0,0.0,-1.0
238850010,238849757,0.050429,-0.0917309,-0.0181478,0.535789,0.0,0.0,0.0,-1.0
238948090,238947833,-0.0285405,-0.0660451,-0.0119949,0.535789,0.0,0.0,0.0,-1.0
239049883,239049632,0.0818781,-0.0611948,-0.0189324,0.53459,0.0,0.0,0.0,-1.0
239147955,239147708,-0.0311133,-0.0717731,-0.0197246,0.535789,0.0,0.0,0.0,-1.0
239248512,239248271,-0.0175287,-0.042597,-0.011946,0.53459,0.0,0.0,0.0,-1.0
239346670,239346428,-0.0669615,-0.0403436,-0.0145412,0.535789,0.0,0.0,0.0,-1.0
239448392,239448142,-0.0501145,-0.0127812,-0.0160155,0.535789,0.0,0.0,0.0,-1.0
239550204,239549947,-0.00295456,-0.116761,-0.0205172,0.538188,0.0,0.0,0.0,-1.0
239648270,239648021,-0.0430668,-0.0556006,-0.0258145,0.535789,0.0,0.0,0.0,-1.0
239746347,239746094,-0.0102803,-0.0989407,-0.020435,0.535789,0.0,0.0,0.0,-1.0
239846907,239846651,-0.00451264,-0.0718442,-0.035442,0.535789,0.0,0.0,0.0,-1.0
239948699,239948454,-0.0300004,-0.0679917,-0.0360431,0.553782,0.0,0.0,0.0,-1.0
240046773,240046527,-0.0666354,-0.10248,-0.0361453,0.556181,0.0,0.0,0.0,-1.0
240148647,240148398,-0.111708,-0.0333396,-0.036916,0.55978,0.0,0.0,0.0,-1.0
240250372,240250126,0.0577268,-0.0958713,-0.0351328,0.557381,0.0,0.0,0.0,-1.0
240348452,240348204,-0.0993771,-0.0313918,-0.0387422,0.557381,0.0,0.0,0.0,-1.0
240446549,240446293,0.0100164,-0.0676771,-0.0305457,0.557381,0.0,0.0,0.0,-1.0
240547098,240546840,-0.104175,-0.0215985,-0.0272653,0.556181,0.0,0.0,0.0,-1.0
240648885,240648636,-0.0118545,-0.0827811,-0.0335984,0.557381,0.0,0.0,0.0,-1.0
240746962,240746713,-0.0713268,0.015339,-0.0372581,0.556181,0.0,0.0,0.0,-1.0
240848758,240848511,-0.0295541,-0.0475006,-0.0261415,0.55978,0.0,0.0,0.0,-1.0
240949352,240949106,-0.0333057,-0.0791152,-0.0221606,0.55978,0.0,0.0,0.0,-1.0
241047445,241047198,-0.0119559,-0.0655986,-0.0268611,0.55978,0.0,0.0,0.0,-1.0
241149187,241148945,-0.079755,0.0301025,-0.0280267,0.55978,0.0,0.0,0.0,-1.0
241247437,241247185,-0.0567121,-0.037331,-0.0222103,0.556181,0.0,0.0,0.0,-1.0
241349063,241348821,-0.0188104,-0.0979699,-0.0306571,0.557381,0.0,0.0,0.0,-1.0
241447140,241446896,-0.0756262,-0.0531513,-0.0301237,0.554982,0.0,0.0,0.0,-1.0
241548962,241548711,-0.150134,-0.000163391,-0.0328413,0.55978,0.0,0.0,0.0,-1.0
241649512,241649257,-0.0273296,-0.0603457,-0.0225086,0.557381,0.0,0.0,0.0,-1.0
241747583,241747331,-0.0176654,-0.0710155,-0.0265379,0.557381,0.0,0.0,0.0,-1.0
241849391,241849149,-0.127985,-0.0319343,-0.0193716,0.557381,0.0,0.0,0.0,-1.0
241947465,241947206,0.0092074,-0.0344226,-0.012888,0.557381,0.0,0.0,0.0,-1.0
242049391,242049149,-0.049075,-0.0635881,-0.02193,0.55858,0.0,0.0,0.0,-1.0
242147333,242147081,-0.112797,-0.00288035,-0.0185678,0.55858,0.0,0.0,0.0,-1.0
242247888,242247640,0.00432571,-0.0978819,-0.0192056,0.55978,0.0,0.0,0.0,-1.0
242349693,242349442,-0.027933,-0.0522953,-0.0138664,0.55858,0.0,0.0,0.0,-1.0
242449006,242448756,-0.0263902,-0.0340668,-0.0203663,0.55858,0.0,0.0,0.0,-1.0
242549591,242549340,-0.0147358,-0.0369338,-0.0201342,0.55858,0.0,0.0,0.0,-1.0
242647641,242647391,-0.0212829,-0.0443738,-0.0291628,0.53339,0.0,0.0,0.0,-1.0
242749442,242749195,-0.0946516,-0.0172106,-0.0308377,0.526193,0.0,0.0,0.0,-1.0
242846364,242846119,-0.0480384,-0.0784271,-0.0311252,0.532191,0.0,0.0,0.0,-1.0
242948072,242947826,-0.0245845,-0.0563816,-0.026114,0.53339,0.0,0.0,0.0,-1.0
243049881,243049629,-0.114503,-0.00870284,-0.0254591,0.529792,0.0,0.0,0.0,-1.0
243147949,243147701,-0.0739842,-0.020437,-0.0310652,0.546585,0.0,0.0,0.0,-1.0
243249745,243249501,-0.0242938,-0.0634398,-0.0307913,0.560979,0.0,0.0,0.0,-1.0
243347857,243347605,-0.0316116,-0.0399268,-0.02952,0.55978,0.0,0.0,0.0,-1.0
243448382,243448135,-0.0284156,-0.0770323,-0.0304614,0.55978,0.0,0.0,0.0,-1.0
243546459,243546211,-0.128671,0.00413992,-0.0268769,0.562179,0.0,0.0,0.0,-1.0
243648382,243648138,-0.0222216,-0.0386609,-0.0304609,0.556181,0.0,0.0,0.0,-1.0
243750070,243749812,-0.00488409,-0.0896904,-0.0149187,0.53459,0.0,0.0,0.0,-1.0
243849388,243849139,-0.0344089,-0.0260845,-0.0149914,0.53459,0.0,0.0,0.0,-1.0
243949944,243949688,0.0452984,-0.104056,-0.0221321,0.53459,0.0,0.0,0.0,-1.0
244048035,244047764,-0.0190043,-0.0569857,-0.0241255,0.532191,0.0,0.0,0.0,-1.0
244148571,244148321,-0.0141906,-0.0540304,-0.0222461,0.508421,0.0,0.0,0.0,-1.0
244246641,244246396,0.0585518,-0.105023,-0.027281,0.511799,0.0,0.0,0.0,-1.0
244348457,244348202,-0.0391022,-0.0299658,-0.026114,0.5106,0.0,0.0,0.0,-1.0
244450373,244450118,-0.0118478,-0.0564917,-0.0261244,0.5106,0.0,0.0,0.0,-1.0
244548330,244548072,0.0295491,-0.117127,-0.0251568,0.5106,0.0,0.0,0.0,-1.0
244648885,244648631,0.00413774,-0.103993,-0.025058,0.511799,0.0,0.0,0.0,-1.0
244747126,244746878,-0.0540544,-0.0368119,-0.0270264,0.541787,0.0,0.0,0.0,-1.0
244848750,244848506,-0.0194998,0.00708755,-0.0255619,0.539388,0.0,0.0,0.0,-1.0
244946838,244946586,-0.0276197,-0.0484831,-0.0257708,0.540587,0.0,0.0,0.0,-1.0
245048624,245048383,0.0906657,-0.0678514,-0.0186189,0.540587,0.0,0.0,0.0,-1.0
245150442,245150186,-0.0466436,-0.0449813,-0.0294188,0.538188,0.0,0.0,0.0,-1.0
245248547,245248293,0.0249785,-0.0925179,-0.0221114,0.535789,0.0,0.0,0.0,-1.0
245349061,245348817,-0.027538,-0.0852906,-0.0296512,0.550184,0.0,0.0,0.0,-1.0
245447143,245446892,0.00911862,-0.0569429,-0.0258865,0.547785,0.0,0.0,0.0,-1.0
245549088,245548843,-0.109617,-0.019711,-0.0299381,0.571775,0.0,0.0,0.0,-1.0
245647013,245646768,-0.0682703,-0.0533023,-0.0232992,0.571775,0.0,0.0,0.0,-1.0
245748816,245748571,-0.0329478,-0.0937921,-0.0256373,0.571775,0.0,0.0,0.0,-1.0
245849379,245849127,-0.0376429,-0.0582904,-0.0190032,0.571775,0.0,0.0,0.0,-1.0
245947471,245947221,-0.00245675,-0.0495249,-0.021415,0.571775,0.0,0.0,0.0,-1.0
246049290,246049040,-0.03623,-0.0387363,-0.0244669,0.571775,0.0,0.0,0.0,-1.0
246147329,246147078,-0.0549417,-0.0334988,-0.0260527,0.571775,0.0,0.0,0.0,-1.0
246249125,246248879,-0.0671148,-0.0767531,-0.0395784,0.571775,0.0,0.0,0.0,-1.0
246347317,246347067,-0.110711,-0.0535851,-0.038646,0.571775,0.0,0.0,0.0,-1.0
246449005,246448755,-0.0205155,-0.0852848,-0.0412254,0.571775,0.0,0.0,0.0,-1.0
246549569,246549313,-0.0573279,-0.0155168,-0.0374217,0.571775,0.0,0.0,0.0,-1.0
246647662,246647422,-0.0637326,-0.0441503,-0.0326104,0.571775,0.0,0.0,0.0,-1.0
246749442,246749189,0.00751735,-0.0667128,-0.0374416,0.571775,0.0,0.0,0.0,-1.0
246847513,246847265,-0.0868083,-0.0010086,-0.0385411,0.571775,0.0,0.0,0.0,-1.0
246949314,246949065,-0.0303168,-0.0569852,-0.030283,0.570575,0.0,0.0,0.0,-1.0
247047398,247047143,0.016921,-0.0820736,-0.032224,0.570575,0.0,0.0,0.0,-1.0
247148025,247147770,-0.0937665,-0.0266443,-0.0285224,0.551383,0.0,0.0,0.0,-1.0
247249751,247249500,-0.0841662,-0.0377528,-0.0270654,0.548984,0.0,0.0,0.0,-1.0
247347826,247347575,-0.033347,-0.0238414,-0.0271299,0.540587,0.0,0.0,0.0,-1.0
247449627,247449379,-0.0407149,-0.0623276,-0.0319411,0.523794,0.0,0.0,0.0,-1.0
247547706,247547454,-0.0317629,-0.0529926,-0.0248432,0.526193,0.0,0.0,0.0,-1.0
247649505,247649252,0.0605495,-0.0724368,-0.025087,0.529792,0.0,0.0,0.0,-1.0
247747588,247747330,-0.017123,-0.089054,-0.0232498,0.529792,0.0,0.0,0.0,-1.0
247848151,247847896,0.0298121,-0.0369921,-0.0171885,0.552583,0.0,0.0,0.0,-1.0
247950023,247949777,-0.0512273,-0.0274294,-0.0089054,0.553782,0.0,0.0,0.0,-1.0
248048012,248047762,-0.0368315,-0.0428243,-0.00804143,0.55978,0.0,0.0,0.0,-1.0
248149817,248149565,-0.065052,-0.0414141,-0.0154545,0.554982,0.0,0.0,0.0,-1.0
248248084,248247825,0.0112107,-0.0272026,-0.0112448,0.556181,0.0,0.0,0.0,-1.0
248348453,248348203,-0.0426589,-0.0420353,-0.0174152,0.556181,0.0,0.0,0.0,-1.0
248446520,248446272,-0.0404221,-0.0765574,-0.0231725,0.553782,0.0,0.0,0.0,-1.0
248548343,248548098,0.0284704,-0.0843658,-0.0140385,0.557381,0.0,0.0,0.0,-1.0
248650123,248649873,-0.0445911,-0.0519333,-0.0215352,0.557381,0.0,0.0,0.0,-1.0
248748200,248747952,-0.106926,-0.00452967,-0.0198897,0.55858,0.0,0.0,0.0,-1.0
248850008,248849749,-0.0403293,-0.0907683,-0.0300051,0.556181,0.0,0.0,0.0,-1.0
248946868,248946625,-0.0578414,-0.0276165,-0.0268085,0.556181,0.0,0.0,0.0,-1.0
249048770,249048526,-0.0197114,0.0073123,-0.0157176,0.553782,0.0,0.0,0.0,-1.0
249146732,249146482,0.00457532,-0.109616,-0.0215687,0.553782,0.0,0.0,0.0,-1.0
249248507,249248261,-0.0745006,-0.0210865,-0.024793,0.55978,0.0,0.0,0.0,-1.0
249350323,249350060,-0.0421189,-0.045594,-0.0287077,0.55858,0.0,0.0,0.0,-1.0
249448381,249448137,0.0124873,-0.0506875,-0.0300879,0.556181,0.0,0.0,0.0,-1.0
249548947,249548696,-0.106886,-0.0196221,-0.0284189,0.554982,0.0,0.0,0.0,-1.0
249647075,249646831,-0.0265905,-0.0281838,-0.0203946,0.556181,0.0,0.0,0.0,-1.0
249748835,249748590,-0.0306488,-0.0288804,-0.0265275,0.554982,0.0,0.0,0.0,-1.0
249847000,249846753,0.0462158,-0.0554874,-0.0251978,0.556181,0.0,0.0,0.0,-1.0
249948695,249948447,-0.00686733,-0.0651124,-0.0142217,0.556181,0.0,0.0,0.0,-1.0
