timestamp,x,y,z,r,flaps,aux1,aux2,aux3,aux4,aux5,aux6,mode_switch,return_switch,rattitude_switch,posctl_switch,loiter_switch,acro_switch,offboard_switch,kill_switch,arm_switch,transition_switch,gear_switch,mode_slot,data_source,stab_switch,man_switch
174744658,-0.971154,-0.948171,0.0,1.0,0.0,0.0,0.0,0.0,0.0,0.0,0.0,0,0,0,0,3,0,0,3,0,0,0,1,1,0,0
174767000,-0.971154,-0.948171,0.0,1.0,0.0,0.0,0.0,0.0,0.0,0.0,0.0,0,0,0,0,3,0,0,3,0,0,0,1,1,0,0
174945750,-0.971154,-0.948171,0.0,1.0,0.0,0.0,0.0,0.0,0.0,0.0,0.0,0,0,0,0,3,0,0,3,0,0,0,1,1,0,0
175146890,-0.932692,-0.911585,0.0,1.0,0.0,0.0,0.0,0.0,0.0,0.0,0.0,0,0,0,0,3,0,0,3,0,0,0,1,1,0,0
175348245,0.0650602,-0.213415,0.0,0.0,0.0,0.0,0.0,0.0,0.0,0.0,0.0,0,0,0,0,3,0,0,3,0,0,0,1,1,0,0
175526615,0.0216867,0.031348,0.0,0.0,0.0,0.0,0.0,0.0,0.0,0.0,0.0,0,0,0,0,3,0,0,3,0,0,0,1,1,0,0
175725236,0.0216867,0.0250784,0.0,0.0,0.0,0.0,0.0,0.0,0.0,0.0,0.0,0,0,0,0,3,0,0,3,0,0,0,1,1,0,0
175943664,0.0216867,0.0250784,0.0,0.0,0.0,0.0,0.0,0.0,0.0,0.0,0.0,0,0,0,0,3,0,0,3,0,0,0,1,1,0,0
176145067,0.0192771,0.0250784,0.00979192,0.0,0.0,0.0,0.0,0.0,0.0,0.0,0.0,0,0,0,0,3,0,0,3,0,0,0,1,1,0,0
176345968,0.0216867,0.0250784,0.0538556,0.0,0.0,0.0,0.0,0.0,0.0,0.0,0.0,0,0,0,0,3,0,0,3,0,0,0,1,1,0,0
176544601,0.0192771,0.0250784,0.155447,0.0,0.0,0.0,0.0,0.0,0.0,0.0,0.0,0,0,0,0,3,0,0,3,0,0,0,1,1,0,0
176745845,0.0192771,0.0250784,0.154223,0.0,0.0,0.0,0.0,0.0,0.0,0.0,0.0,0,0,0,0,3,0,0,3,0,0,0,1,1,0,0
176941943,0.0192771,0.0250784,0.152999,0.0,0.0,0.0,0.0,0.0,0.0,0.0,0.0,0,0,0,0,3,0,0,3,0,0,0,1,1,0,0
177143089,0.0192771,0.0250784,0.156671,0.0,0.0,0.0,0.0,0.0,0.0,0.0,0.0,0,0,0,0,3,0,0,3,0,0,0,1,1,0,0
177342343,0.0216867,0.0219436,0.155447,0.0,0.0,0.0,0.0,0.0,0.0,0.0,0.0,0,0,0,0,3,0,0,3,0,0,0,1,1,0,0
177542813,0.0192771,0.0250784,0.155447,0.0,0.0,0.0,0.0,0.0,0.0,0.0,0.0,0,0,0,0,3,0,0,3,0,0,0,1,1,0,0
177744053,0.0192771,0.0250784,0.162791,0.0,0.0,0.0,0.0,0.0,0.0,0.0,0.0,0,0,0,0,3,0,0,3,0,0,0,1,1,0,0
177942565,0.0216867,0.0250784,0.183599,0.0,0.0,0.0,0.0,0.0,0.0,0.0,0.0,0,0,0,0,3,0,0,3,0,0,0,1,1,0,0
178143481,0.0216867,0.0250784,0.210526,0.0,0.0,0.0,0.0,0.0,0.0,0.0,0.0,0,0,0,0,3,0,0,3,0,0,0,1,1,0,0
178344985,0.0192771,0.0250784,0.210526,0.0,0.0,0.0,0.0,0.0,0.0,0.0,0.0,0,0,0,0,3,0,0,3,0,0,0,1,1,0,0
178543538,0.0216867,0.0250784,0.210526,0.0,0.0,0.0,0.0,0.0,0.0,0.0,0.0,0,0,0,0,3,0,0,3,0,0,0,1,1,0,0
178744347,0.0216867,0.0250784,0.216646,0.0,0.0,0.0,0.0,0.0,0.0,0.0,0.0,0,0,0,0,3,0,0,3,0,0,0,1,1,0,0
178946146,0.0192771,0.0250784,0.222766,0.0,0.0,0.0,0.0,0.0,0.0,0.0,0.0,0,0,0,0,3,0,0,3,0,0,0,1,1,0,0
179144281,0.0216867,0.0250784,0.257038,0.0,0.0,0.0,0.0,0.0,0.0,0.0,0.0,0,0,0,0,3,0,0,3,0,0,0,1,1,0,0
179342951,0.0216867,0.0282132,0.26683,0.0,0.0,0.0,0.0,0.0,0.0,0.0,0.0,0,0,0,0,3,0,0,3,0,0,0,1,1,0,0
179543955,0.0216867,0.0250784,0.280294,0.0,0.0,0.0,0.0,0.0,0.0,0.0,0.0,0,0,0,0,3,0,0,3,0,0,0,1,1,0,0
179742624,0.0216867,0.0282132,0.27907,0.0,0.0,0.0,0.0,0.0,0.0,0.0,0.0,0,0,0,0,3,0,0,3,0,0,0,1,1,0,0
179943793,0.0216867,0.0282132,0.27907,0.0,0.0,0.0,0.0,0.0,0.0,0.0,0.0,0,0,0,0,3,0,0,3,0,0,0,1,1,0,0
180144658,0.0216867,0.0282132,0.310894,0.0,0.0,0.0,0.0,0.0,0.0,0.0,0.0,0,0,0,0,3,0,0,3,0,0,0,1,1,0,0
180345918,0.0216867,0.0282132,0.310894,0.0,0.0,0.0,0.0,0.0,0.0,0.0,0.0,0,0,0,0,3,0,0,3,0,0,0,1,1,0,0
180546936,0.0216867,0.0282132,0.325581,0.0,0.0,0.0,0.0,0.0,0.0,0.0,0.0,0,0,0,0,3,0,0,3,0,0,0,1,1,0,0
180748774,0.0216867,0.0282132,0.363525,0.0,0.0,0.0,0.0,0.0,0.0,0.0,0.0,0,0,0,0,3,0,0,3,0,0,0,1,1,0,0
180927356,0.0216867,0.0282132,0.379437,0.0,0.0,0.0,0.0,0.0,0.0,0.0,0.0,0,0,0,0,3,0,0,3,0,0,0,1,1,0,0
181147754,0.0216867,0.0282132,0.394125,0.0,0.0,0.0,0.0,0.0,0.0,0.0,0.0,0,0,0,0,3,0,0,3,0,0,0,1,1,0,0
181346379,0.0192771,0.0282132,0.392901,0.0,0.0,0.0,0.0,0.0,0.0,0.0,0.0,0,0,0,0,3,0,0,3,0,0,0,1,1,0,0
181547760,0.0216867,0.0250784,0.416157,0.00240385,0.0,0.0,0.0,0.0,0.0,0.0,0.0,0,0,0,0,3,0,0,3,0,0,0,1,1,0,0
181726401,0.0192771,0.0250784,0.417381,0.0,0.0,0.0,0.0,0.0,0.0,0.0,0.0,0,0,0,0,3,0,0,3,0,0,0,1,1,0,0
181927412,0.0216867,0.0250784,0.414933,0.0,0.0,0.0,0.0,0.0,0.0,0.0,0.0,0,0,0,0,3,0,0,3,0,0,0,1,1,0,0
182149244,0.0216867,0.0250784,0.413709,0.0,0.0,0.0,0.0,0.0,0.0,0.0,0.0,0,0,0,0,3,0,0,3,0,0,0,1,1,0,0
182328028,0.0216867,0.0250784,0.438188,0.0,0.0,0.0,0.0,0.0,0.0,0.0,0.0,0,0,0,0,3,0,0,3,0,0,0,1,1,0,0
182528221,0.0216867,0.0250784,0.444308,0.0,0.0,0.0,0.0,0.0,0.0,0.0,0.0,0,0,0,0,3,0,0,3,0,0,0,1,1,0,0
182726840,0.0216867,0.0250784,0.458996,0.0,0.0,0.0,0.0,0.0,0.0,0.0,0.0,0,0,0,0,3,0,0,3,0,0,0,1,1,0,0
182948024,0.0216867,0.0250784,0.47858,0.0,0.0,0.0,0.0,0.0,0.0,0.0,0.0,0,0,0,0,3,0,0,3,0,0,0,1,1,0,0
183126965,0.0216867,0.0250784,0.487148,0.0,0.0,0.0,0.0,0.0,0.0,0.0,0.0,0,0,0,0,3,0,0,3,0,0,0,1,1,0,0
183327802,0.0216867,0.0250784,0.473684,0.0,0.0,0.0,0.0,0.0,0.0,0.0,0.0,0,0,0,0,3,0,0,3,0,0,0,1,1,0,0
183529031,0.0554217,0.0188088,0.473684,0.0,0.0,0.0,0.0,0.0,0.0,0.0,0.0,0,0,0,0,3,0,0,3,0,0,0,1,1,0,0
183729956,0.0843373,0.0250784,0.487148,0.0,0.0,0.0,0.0,0.0,0.0,0.0,0.0,0,0,0,0,3,0,0,3,0,0,0,1,1,0,0
183936357,0.0819277,0.0282132,0.507956,0.0,0.0,0.0,0.0,0.0,0.0,0.0,0.0,0,0,0,0,3,0,0,3,0,0,0,1,1,0,0
184129917,0.0674699,0.0282132,0.511628,0.0,0.0,0.0,0.0,0.0,0.0,0.0,0.0,0,0,0,0,3,0,0,3,0,0,0,1,1,0,0
184325788,0.0554217,0.0282132,0.516524,0.0,0.0,0.0,0.0,0.0,0.0,0.0,0.0,0,0,0,0,3,0,0,3,0,0,0,1,1,0,0
184547084,0.0457831,0.0282132,0.517748,0.0,0.0,0.0,0.0,0.0,0.0,0.0,0.0,0,0,0,0,3,0,0,3,0,0,0,1,1,0,0
184725797,0.0433735,0.0282132,0.493268,0.0,0.0,0.0,0.0,0.0,0.0,0.0,0.0,0,0,0,0,3,0,0,3,0,0,0,1,1,0,0
184926610,0.0385542,0.0282132,0.49694,0.0,0.0,0.0,0.0,0.0,0.0,0.0,0.0,0,0,0,0,3,0,0,3,0,0,0,1,1,0,0
185148612,0.0457831,0.0282132,0.525092,0.0,0.0,0.0,0.0,0.0,0.0,0.0,0.0,0,0,0,0,3,0,0,3,0,0,0,1,1,0,0
185347035,0.0361446,0.0282132,0.564259,0.0,0.0,0.0,0.0,0.0,0.0,0.0,0.0,0,0,0,0,3,0,0,3,0,0,0,1,1,0,0
185542712,0.0457831,0.0282132,0.565483,0.0,0.0,0.0,0.0,0.0,0.0,0.0,0.0,0,0,0,0,3,0,0,3,0,0,0,1,1,0,0
185741231,0.0457831,0.0282132,0.565483,0.0,0.0,0.0,0.0,0.0,0.0,0.0,0.0,0,0,0,0,3,0,0,3,0,0,0,1,1,0,0
185942324,0.0313253,0.0282132,0.544676,0.0,0.0,0.0,0.0,0.0,0.0,0.0,0.0,0,0,0,0,3,0,0,3,0,0,0,1,1,0,0
186141440,0.0313253,0.0282132,0.542228,0.0,0.0,0.0,0.0,0.0,0.0,0.0,0.0,0,0,0,0,3,0,0,3,0,0,0,1,1,0,0
186341956,0.0337349,0.0282132,0.501836,0.0,0.0,0.0,0.0,0.0,0.0,0.0,0.0,0,0,0,0,3,0,0,3,0,0,0,1,1,0,0
186543189,0.0337349,0.0282132,0.525092,0.0,0.0,0.0,0.0,0.0,0.0,0.0,0.0,0,0,0,0,3,0,0,3,0,0,0,1,1,0,0
186744207,0.0313253,0.0282132,0.523868,0.0,0.0,0.0,0.0,0.0,0.0,0.0,0.0,0,0,0,0,3,0,0,3,0,0,0,1,1,0,0
186945528,0.0313253,0.0282132,0.516524,0.0,0.0,0.0,0.0,0.0,0.0,0.0,0.0,0,0,0,0,3,0,0,3,0,0,0,1,1,0,0
187146392,0.0289157,0.0282132,0.49694,0.0,0.0,0.0,0.0,0.0,0.0,0.0,0.0,0,0,0,0,3,0,0,3,0,0,0,1,1,0,0
187345125,0.026506,0.031348,0.517748,0.0,0.0,0.0,0.0,0.0,0.0,0.0,0.0,0,0,0,0,3,0,0,3,0,0,0,1,1,0,0
187546352,0.026506,0.031348,0.516524,0.0,0.0,0.0,0.0,0.0,0.0,0.0,0.0,0,0,0,0,3,0,0,3,0,0,0,1,1,0,0
187744928,0.0216867,0.031348,0.517748,0.0,0.0,0.0,0.0,0.0,0.0,0.0,0.0,0,0,0,0,3,0,0,3,0,0,0,1,1,0,0
187943543,0.0240964,0.031348,0.517748,0.0,0.0,0.0,0.0,0.0,0.0,0.0,0.0,0,0,0,0,3,0,0,3,0,0,0,1,1,0,0
188144418,0.060241,0.0282132,0.507956,0.0,0.0,0.0,0.0,0.0,0.0,0.0,0.0,0,0,0,0,3,0,0,3,0,0,0,1,1,0,0
188343319,0.118072,0.0282132,0.505508,0.0,0.0,0.0,0.0,0.0,0.0,0.0,0.0,0,0,0,0,3,0,0,3,0,0,0,1,1,0,0
188541888,0.122892,0.0344828,0.507956,0.0,0.0,0.0,0.0,0.0,0.0,0.0,0.0,0,0,0,0,3,0,0,3,0,0,0,1,1,0,0
188743556,0.106024,0.0282132,0.528764,0.0,0.0,0.0,0.0,0.0,0.0,0.0,0.0,0,0,0,0,3,0,0,3,0,0,0,1,1,0,0
188943935,0.086747,0.0282132,0.541004,0.0,0.0,0.0,0.0,0.0,0.0,0.0,0.0,0,0,0,0,3,0,0,3,0,0,0,1,1,0,0
189142597,0.127711,0.0344828,0.53978,0.0,0.0,0.0,0.0,0.0,0.0,0.0,0.0,0,0,0,0,3,0,0,3,0,0,0,1,1,0,0
189343886,0.144578,0.031348,0.541004,0.0,0.0,0.0,0.0,0.0,0.0,0.0,0.0,0,0,0,0,3,0,0,3,0,0,0,1,1,0,0
189544773,0.0192771,0.0407524,0.53978,0.0,0.0,0.0,0.0,0.0,0.0,0.0,0.0,0,0,0,0,3,0,0,3,0,0,0,1,1,0,0
189746007,0.0216867,0.0282132,0.541004,0.0,0.0,0.0,0.0,0.0,0.0,0.0,0.0,0,0,0,0,3,0,0,3,0,0,0,1,1,0,0
189947101,0.0216867,0.0501567,0.537332,0.0,0.0,0.0,0.0,0.0,0.0,0.0,0.0,0,0,0,0,3,0,0,3,0,0,0,1,1,0,0
190126071,0.0192771,0.172414,0.534884,0.0,0.0,0.0,0.0,0.0,0.0,0.0,0.0,0,0,0,0,3,0,0,3,0,0,0,1,1,0,0
190327122,0.0192771,0.031348,0.532436,0.0,0.0,0.0,0.0,0.0,0.0,0.0,0.0,0,0,0,0,3,0,0,3,0,0,0,1,1,0,0
190528197,0.0554217,0.0188088,0.536108,0.0,0.0,0.0,0.0,0.0,0.0,0.0,0.0,0,0,0,0,3,0,0,3,0,0,0,1,1,0,0
190729346,0.060241,0.0,0.534884,0.0,0.0,0.0,0.0,0.0,0.0,0.0,0.0,0,0,0,0,3,0,0,3,0,0,0,1,1,0,0
190930513,0.0192771,0.0250784,0.510404,0.0,0.0,0.0,0.0,0.0,0.0,0.0,0.0,0,0,0,0,3,0,0,3,0,0,0,1,1,0,0
191128871,0.0168675,0.0282132,0.493268,0.0,0.0,0.0,0.0,0.0,0.0,0.0,0.0,0,0,0,0,3,0,0,3,0,0,0,1,1,0,0
191330653,0.0168675,0.0282132,0.516524,0.0,0.0,0.0,0.0,0.0,0.0,0.0,0.0,0,0,0,0,3,0,0,3,0,0,0,1,1,0,0
191531262,0.0168675,0.0282132,0.49082,0.0,0.0,0.0,0.0,0.0,0.0,0.0,0.0,0,0,0,0,3,0,0,3,0,0,0,1,1,0,0
191732473,0.0168675,0.0282132,0.489596,0.0,0.0,0.0,0.0,0.0,0.0,0.0,0.0,0,0,0,0,3,0,0,3,0,0,0,1,1,0,0
191931077,0.0192771,0.0282132,0.507956,0.0,0.0,0.0,0.0,0.0,0.0,0.0,0.0,0,0,0,0,3,0,0,3,0,0,0,1,1,0,0
192129642,0.0192771,0.031348,0.507956,0.0,0.0,0.0,0.0,0.0,0.0,0.0,0.0,0,0,0,0,3,0,0,3,0,0,0,1,1,0,0
192330770,0.0192771,0.0282132,0.505508,0.0,0.0,0.0,0.0,0.0,0.0,0.0,0.0,0,0,0,0,3,0,0,3,0,0,0,1,1,0,0
192529256,0.0192771,0.0282132,0.507956,0.0,0.0,0.0,0.0,0.0,0.0,0.0,0.0,0,0,0,0,3,0,0,3,0,0,0,1,1,0,0
192731290,0.0192771,0.0282132,0.525092,0.0,0.0,0.0,0.0,0.0,0.0,0.0,0.0,0,0,0,0,3,0,0,3,0,0,0,1,1,0,0
192931498,0.0192771,0.0282132,0.525092,0.0,0.0,0.0,0.0,0.0,0.0,0.0,0.0,0,0,0,0,3,0,0,3,0,0,0,1,1,0,0
193137818,0.0192771,0.0282132,0.523868,0.0,0.0,0.0,0.0,0.0,0.0,0.0,0.0,0,0,0,0,3,0,0,3,0,0,0,1,1,0,0
193348863,0.144578,0.0282132,0.523868,0.0,0.0,0.0,0.0,0.0,0.0,0.0,0.0,0,0,0,0,3,0,0,3,0,0,0,1,1,0,0
193527410,0.187952,0.0219436,0.523868,0.0,0.0,0.0,0.0,0.0,0.0,0.0,0.0,0,0,0,0,3,0,0,3,0,0,0,1,1,0,0
193729290,0.0963855,0.0282132,0.528764,0.0,0.0,0.0,0.0,0.0,0.0,0.0,0.0,0,0,0,0,3,0,0,3,0,0,0,1,1,0,0
193929738,0.0987952,0.0282132,0.544676,0.0,0.0,0.0,0.0,0.0,0.0,0.0,0.0,0,0,0,0,3,0,0,3,0,0,0,1,1,0,0
194130804,0.0457831,0.031348,0.544676,0.0,0.0,0.0,0.0,0.0,0.0,0.0,0.0,0,0,0,0,3,0,0,3,0,0,0,1,1,0,0
194331873,0.0240964,0.0282132,0.544676,0.0,0.0,0.0,0.0,0.0,0.0,0.0,0.0,0,0,0,0,3,0,0,3,0,0,0,1,1,0,0
194533224,0.0192771,0.0282132,0.544676,0.0,0.0,0.0,0.0,0.0,0.0,0.0,0.0,0,0,0,0,3,0,0,3,0,0,0,1,1,0,0
194734096,0.0240964,0.0282132,0.544676,0.0,0.0,0.0,0.0,0.0,0.0,0.0,0.0,0,0,0,0,3,0,0,3,0,0,0,1,1,0,0
194936005,0.0843373,0.0344828,0.543452,0.0,0.0,0.0,0.0,0.0,0.0,0.0,0.0,0,0,0,0,3,0,0,3,0,0,0,1,1,0,0
195133951,0.0361446,0.031348,0.541004,0.0,0.0,0.0,0.0,0.0,0.0,0.0,0.0,0,0,0,0,3,0,0,3,0,0,0,1,1,0,0
195333138,0.0722892,0.031348,0.541004,0.0,0.0,0.0,0.0,0.0,0.0,0.0,0.0,0,0,0,0,3,0,0,3,0,0,0,1,1,0,0
195531843,0.0289157,0.031348,0.53366,0.0,0.0,0.0,0.0,0.0,0.0,0.0,0.0,0,0,0,0,3,0,0,3,0,0,0,1,1,0,0
195732205,0.0361446,0.031348,0.536108,0.0,0.0,0.0,0.0,0.0,0.0,0.0,0.0,0,0,0,0,3,0,0,3,0,0,0,1,1,0,0
195930839,0.0843373,0.031348,0.536108,0.0,0.0,0.0,0.0,0.0,0.0,0.0,0.0,0,0,0,0,3,0,0,3,0,0,0,1,1,0,0
196132108,0.0674699,0.0376176,0.538556,0.0,0.0,0.0,0.0,0.0,0.0,0.0,0.0,0,0,0,0,3,0,0,3,0,0,0,1,1,0,0
196330708,0.0313253,0.122257,0.536108,0.0,0.0,0.0,0.0,0.0,0.0,0.0,0.0,0,0,0,0,3,0,0,3,0,0,0,1,1,0,0
196531802,0.110843,0.106583,0.53978,0.0,0.0,0.0,0.0,0.0,0.0,0.0,0.0,0,0,0,0,3,0,0,3,0,0,0,1,1,0,0
196732983,0.146988,0.0344828,0.541004,0.0,0.0,0.0,0.0,0.0,0.0,0.0,0.0,0,0,0,0,3,0,0,3,0,0,0,1,1,0,0
196928957,0.127711,0.0564263,0.541004,0.0,0.0,0.0,0.0,0.0,0.0,0.0,0.0,0,0,0,0,3,0,0,3,0,0,0,1,1,0,0
197127722,0.0674699,0.0438871,0.541004,0.0,0.0,0.0,0.0,0.0,0.0,0.0,0.0,0,0,0,0,3,0,0,3,0,0,0,1,1,0,0
197329475,0.0144578,0.0595611,0.541004,0.0,0.0,0.0,0.0,0.0,0.0,0.0,0.0,0,0,0,0,3,0,0,3,0,0,0,1,1,0,0
197529749,0.026506,0.0250784,0.541004,0.0,0.0,0.0,0.0,0.0,0.0,0.0,0.0,0,0,0,0,3,0,0,3,0,0,0,1,1,0,0
197731078,0.0168675,0.0282132,0.542228,0.0,0.0,0.0,0.0,0.0,0.0,0.0,0.0,0,0,0,0,3,0,0,3,0,0,0,1,1,0,0
197932141,0.0192771,0.0282132,0.489596,0.0,0.0,0.0,0.0,0.0,0.0,0.0,0.0,0,0,0,0,3,0,0,3,0,0,0,1,1,0,0
198133218,0.0216867,0.031348,0.493268,0.0,0.0,0.0,0.0,0.0,0.0,0.0,0.0,0,0,0,0,3,0,0,3,0,0,0,1,1,0,0
198334154,0.026506,0.031348,0.516524,0.0,0.0,0.0,0.0,0.0,0.0,0.0,0.0,0,0,0,0,3,0,0,3,0,0,0,1,1,0,0
198533058,0.0313253,0.031348,0.49082,0.0,0.0,0.0,0.0,0.0,0.0,0.0,0.0,0,0,0,0,3,0,0,3,0,0,0,1,1,0,0
198734326,0.0289157,0.031348,0.492044,0.0,0.0,0.0,0.0,0.0,0.0,0.0,0.0,0,0,0,0,3,0,0,3,0,0,0,1,1,0,0
198935107,0.0385542,0.0282132,0.507956,0.0,0.0,0.0,0.0,0.0,0.0,0.0,0.0,0,0,0,0,3,0,0,3,0,0,0,1,1,0,0
199133773,0.0698795,0.0282132,0.526316,0.0,0.0,0.0,0.0,0.0,0.0,0.0,0.0,0,0,0,0,3,0,0,3,0,0,0,1,1,0,0
199332464,0.0674699,0.0282132,0.526316,0.0,0.0,0.0,0.0,0.0,0.0,0.0,0.0,0,0,0,0,3,0,0,3,0,0,0,1,1,0,0
199531025,0.060241,0.0282132,0.526316,0.0,0.0,0.0,0.0,0.0,0.0,0.0,0.0,0,0,0,0,3,0,0,3,0,0,0,1,1,0,0
199729660,0.0650602,0.0282132,0.53366,0.0,0.0,0.0,0.0,0.0,0.0,0.0,0.0,0,0,0,0,3,0,0,3,0,0,0,1,1,0,0
199928336,0.060241,0.0282132,0.532436,0.0,0.0,0.0,0.0,0.0,0.0,0.0,0.0,0,0,0,0,3,0,0,3,0,0,0,1,1,0,0
200126806,0.0650602,0.0282132,0.529988,0.0,0.0,0.0,0.0,0.0,0.0,0.0,0.0,0,0,0,0,3,0,0,3,0,0,0,1,1,0,0
200345727,0.0843373,0.0188088,0.531212,0.0,0.0,0.0,0.0,0.0,0.0,0.0,0.0,0,0,0,0,3,0,0,3,0,0,0,1,1,0,0
200547201,0.106024,0.00626959,0.531212,0.0,0.0,0.0,0.0,0.0,0.0,0.0,0.0,0,0,0,0,3,0,0,3,0,0,0,1,1,0,0
200745268,0.0192771,0.0282132,0.52754,0.0,0.0,0.0,0.0,0.0,0.0,0.0,0.0,0,0,0,0,3,0,0,3,0,0,0,1,1,0,0
200946325,0.0192771,0.0282132,0.528764,0.0,0.0,0.0,0.0,0.0,0.0,0.0,0.0,0,0,0,0,3,0,0,3,0,0,0,1,1,0,0
201125132,0.0216867,0.0282132,0.564259,0.0,0.0,0.0,0.0,0.0,0.0,0.0,0.0,0,0,0,0,3,0,0,3,0,0,0,1,1,0,0
201346654,0.0216867,0.0282132,0.559364,0.0,0.0,0.0,0.0,0.0,0.0,0.0,0.0,0,0,0,0,3,0,0,3,0,0,0,1,1,0,0
201545188,0.0192771,0.0282132,0.559364,0.0,0.0,0.0,0.0,0.0,0.0,0.0,0.0,0,0,0,0,3,0,0,3,0,0,0,1,1,0,0
201745599,0.0192771,0.031348,0.517748,0.0,0.0,0.0,0.0,0.0,0.0,0.0,0.0,0,0,0,0,3,0,0,3,0,0,0,1,1,0,0
201947340,0.0192771,0.031348,0.50306,0.0,0.0,0.0,0.0,0.0,0.0,0.0,0.0,0,0,0,0,3,0,0,3,0,0,0,1,1,0,0
202145629,0.0192771,0.031348,0.504284,0.0,0.0,0.0,0.0,0.0,0.0,0.0,0.0,0,0,0,0,3,0,0,3,0,0,0,1,1,0,0
202346731,0.0216867,0.0282132,0.492044,0.0,0.0,0.0,0.0,0.0,0.0,0.0,0.0,0,0,0,0,3,0,0,3,0,0,0,1,1,0,0
202545314,0.0216867,0.031348,0.492044,0.0,0.0,0.0,0.0,0.0,0.0,0.0,0.0,0,0,0,0,3,0,0,3,0,0,0,1,1,0,0
202746454,0.0216867,0.0282132,0.520196,0.0,0.0,0.0,0.0,0.0,0.0,0.0,0.0,0,0,0,0,3,0,0,3,0,0,0,1,1,0,0
202925204,0.0216867,0.0282132,0.543452,0.0,0.0,0.0,0.0,0.0,0.0,0.0,0.0,0,0,0,0,3,0,0,3,0,0,0,1,1,0,0
203146093,0.0216867,0.0282132,0.53978,0.0,0.0,0.0,0.0,0.0,0.0,0.0,0.0,0,0,0,0,3,0,0,3,0,0,0,1,1,0,0
203325106,0.0240964,0.0282132,0.541004,0.0,0.0,0.0,0.0,0.0,0.0,0.0,0.0,0,0,0,0,3,0,0,3,0,0,0,1,1,0,0
203548250,0.0939759,0.0125392,0.541004,0.0,0.0,0.0,0.0,0.0,0.0,0.0,0.0,0,0,0,0,3,0,0,3,0,0,0,1,1,0,0
203746841,0.0192771,0.0282132,0.538556,0.0,0.0,0.0,0.0,0.0,0.0,0.0,0.0,0,0,0,0,3,0,0,3,0,0,0,1,1,0,0
203925687,0.0457831,0.0282132,0.543452,0.0,0.0,0.0,0.0,0.0,0.0,0.0,0.0,0,0,0,0,3,0,0,3,0,0,0,1,1,0,0
204147504,0.0457831,0.0282132,0.541004,0.0,0.0,0.0,0.0,0.0,0.0,0.0,0.0,0,0,0,0,3,0,0,3,0,0,0,1,1,0,0
204346201,0.0192771,0.0282132,0.538556,0.0,0.0,0.0,0.0,0.0,0.0,0.0,0.0,0,0,0,0,3,0,0,3,0,0,0,1,1,0,0
204546385,0.0168675,0.0282132,0.542228,0.0,0.0,0.0,0.0,0.0,0.0,0.0,0.0,0,0,0,0,3,0,0,3,0,0,0,1,1,0,0
204742695,0.0192771,0.0250784,0.542228,0.0,0.0,0.0,0.0,0.0,0.0,0.0,0.0,0,0,0,0,3,0,0,3,0,0,0,1,1,0,0
204943828,0.0192771,0.0250784,0.537332,0.0,0.0,0.0,0.0,0.0,0.0,0.0,0.0,0,0,0,0,3,0,0,3,0,0,0,1,1,0,0
205145306,0.0192771,0.0282132,0.534884,0.0,0.0,0.0,0.0,0.0,0.0,0.0,0.0,0,0,0,0,3,0,0,3,0,0,0,1,1,0,0
205345988,0.0192771,0.0282132,0.526316,0.0,0.0,0.0,0.0,0.0,0.0,0.0,0.0,0,0,0,0,3,0,0,3,0,0,0,1,1,0,0
205547244,0.0506024,0.015674,0.523868,0.0,0.0,0.0,0.0,0.0,0.0,0.0,0.0,0,0,0,0,3,0,0,3,0,0,0,1,1,0,0
205743337,0.060241,0.0125392,0.492044,0.0,0.0,0.0,0.0,0.0,0.0,0.0,0.0,0,0,0,0,3,0,0,3,0,0,0,1,1,0,0
205944447,0.0626506,0.015674,0.49082,0.0,0.0,0.0,0.0,0.0,0.0,0.0,0.0,0,0,0,0,3,0,0,3,0,0,0,1,1,0,0
206143094,0.0819277,0.015674,0.495716,0.0,0.0,0.0,0.0,0.0,0.0,0.0,0.0,0,0,0,0,3,0,0,3,0,0,0,1,1,0,0
206343947,0.0819277,0.015674,0.538556,0.0,0.0,0.0,0.0,0.0,0.0,0.0,0.0,0,0,0,0,3,0,0,3,0,0,0,1,1,0,0
206545568,0.0795181,0.0219436,0.537332,0.0,0.0,0.0,0.0,0.0,0.0,0.0,0.0,0,0,0,0,3,0,0,3,0,0,0,1,1,0,0
206746234,0.103614,0.0344828,0.534884,0.0,0.0,0.0,0.0,0.0,0.0,0.0,0.0,0,0,0,0,3,0,0,3,0,0,0,1,1,0,0
206925019,0.106024,0.0376176,0.537332,0.0,0.0,0.0,0.0,0.0,0.0,0.0,0.0,0,0,0,0,3,0,0,3,0,0,0,1,1,0,0
207146214,0.106024,0.0564263,0.538556,0.0,0.0,0.0,0.0,0.0,0.0,0.0,0.0,0,0,0,0,3,0,0,3,0,0,0,1,1,0,0
207347254,0.103614,0.0376176,0.538556,0.0,0.0,0.0,0.0,0.0,0.0,0.0,0.0,0,0,0,0,3,0,0,3,0,0,0,1,1,0,0
207545680,0.0409639,0.0250784,0.534884,0.0,0.0,0.0,0.0,0.0,0.0,0.0,0.0,0,0,0,0,3,0,0,3,0,0,0,1,1,0,0
207742270,0.0192771,0.031348,0.536108,0.0,0.0,0.0,0.0,0.0,0.0,0.0,0.0,0,0,0,0,3,0,0,3,0,0,0,1,1,0,0
207942938,0.0168675,0.0344828,0.536108,0.0,0.0,0.0,0.0,0.0,0.0,0.0,0.0,0,0,0,0,3,0,0,3,0,0,0,1,1,0,0
208144884,0.0192771,0.0344828,0.536108,0.0,0.0,0.0,0.0,0.0,0.0,0.0,0.0,0,0,0,0,3,0,0,3,0,0,0,1,1,0,0
208342784,0.0674699,0.0376176,0.538556,0.0,0.0,0.0,0.0,0.0,0.0,0.0,0.0,0,0,0,0,3,0,0,3,0,0,0,1,1,0,0
208543874,0.0650602,0.0595611,0.534884,0.0,0.0,0.0,0.0,0.0,0.0,0.0,0.0,0,0,0,0,3,0,0,3,0,0,0,1,1,0,0
208745184,0.0216867,0.125392,0.531212,0.0,0.0,0.0,0.0,0.0,0.0,0.0,0.0,0,0,0,0,3,0,0,3,0,0,0,1,1,0,0
208946135,0.0433735,0.0971787,0.511628,0.0,0.0,0.0,0.0,0.0,0.0,0.0,0.0,0,0,0,0,3,0,0,3,0,0,0,1,1,0,0
209147839,0.0722892,0.0407524,0.511628,0.0,0.0,0.0,0.0,0.0,0.0,0.0,0.0,0,0,0,0,3,0,0,3,0,0,0,1,1,0,0
209348330,0.127711,0.0407524,0.510404,0.0,0.0,0.0,0.0,0.0,0.0,0.0,0.0,0,0,0,0,3,0,0,3,0,0,0,1,1,0,0
209546949,0.115663,0.0564263,0.50918,0.0,0.0,0.0,0.0,0.0,0.0,0.0,0.0,0,0,0,0,3,0,0,3,0,0,0,1,1,0,0
209725765,0.122892,0.0532915,0.511628,0.0,0.0,0.0,0.0,0.0,0.0,0.0,0.0,0,0,0,0,3,0,0,3,0,0,0,1,1,0,0
209946759,0.125301,0.0438871,0.511628,0.0,0.0,0.0,0.0,0.0,0.0,0.0,0.0,0,0,0,0,3,0,0,3,0,0,0,1,1,0,0
210147831,0.122892,0.0344828,0.512852,0.0,0.0,0.0,0.0,0.0,0.0,0.0,0.0,0,0,0,0,3,0,0,3,0,0,0,1,1,0,0
210349544,0.108434,0.0376176,0.555692,0.0,0.0,0.0,0.0,0.0,0.0,0.0,0.0,0,0,0,0,3,0,0,3,0,0,0,1,1,0,0
210548327,0.0722892,0.0877743,0.556916,0.0,0.0,0.0,0.0,0.0,0.0,0.0,0.0,0,0,0,0,3,0,0,3,0,0,0,1,1,0,0
210726529,0.086747,0.0846395,0.525092,0.0,0.0,0.0,0.0,0.0,0.0,0.0,0.0,0,0,0,0,3,0,0,3,0,0,0,1,1,0,0
210947234,0.115663,0.0721003,0.49694,0.0,0.0,0.0,0.0,0.0,0.0,0.0,0.0,0,0,0,0,3,0,0,3,0,0,0,1,1,0,0
211126124,0.115663,0.0721003,0.501836,0.0,0.0,0.0,0.0,0.0,0.0,0.0,0.0,0,0,0,0,3,0,0,3,0,0,0,1,1,0,0
211324643,0.115663,0.0595611,0.5153,0.0,0.0,0.0,0.0,0.0,0.0,0.0,0.0,0,0,0,0,3,0,0,3,0,0,0,1,1,0,0
211546587,0.0192771,0.0783699,0.500612,0.0,0.0,0.0,0.0,0.0,0.0,0.0,0.0,0,0,0,0,3,0,0,3,0,0,0,1,1,0,0
211741942,0.0192771,0.0282132,0.526316,0.0,0.0,0.0,0.0,0.0,0.0,0.0,0.0,0,0,0,0,3,0,0,3,0,0,0,1,1,0,0
211940528,0.0385542,0.015674,0.526316,0.0,0.0,0.0,0.0,0.0,0.0,0.0,0.0,0,0,0,0,3,0,0,3,0,0,0,1,1,0,0
212141706,0.110843,0.0,0.526316,0.0,0.0,0.0,0.0,0.0,0.0,0.0,0.0,0,0,0,0,3,0,0,3,0,0,0,1,1,0,0
212340358,0.0313253,0.0,0.526316,0.0,0.0,0.0,0.0,0.0,0.0,0.0,0.0,0,0,0,0,3,0,0,3,0,0,0,1,1,0,0
212519152,0.0506024,0.0,0.531212,0.0,0.0,0.0,0.0,0.0,0.0,0.0,0.0,0,0,0,0,3,0,0,3,0,0,0,1,1,0,0
212742659,0.060241,0.0,0.526316,0.0,0.0,0.0,0.0,0.0,0.0,0.0,0.0,0,0,0,0,3,0,0,3,0,0,0,1,1,0,0
212943526,0.122892,0.0,0.528764,0.0,0.0,0.0,0.0,0.0,0.0,0.0,0.0,0,0,0,0,3,0,0,3,0,0,0,1,1,0,0
213145229,0.0192771,0.0219436,0.531212,0.0,0.0,0.0,0.0,0.0,0.0,0.0,0.0,0,0,0,0,3,0,0,3,0,0,0,1,1,0,0
213345744,0.0168675,0.0250784,0.532436,0.0,0.0,0.0,0.0,0.0,0.0,0.0,0.0,0,0,0,0,3,0,0,3,0,0,0,1,1,0,0
213547113,0.0168675,0.0250784,0.543452,0.0,0.0,0.0,0.0,0.0,0.0,0.0,0.0,0,0,0,0,3,0,0,3,0,0,0,1,1,0,0
213725872,0.0168675,0.0250784,0.542228,0.0,0.0,0.0,0.0,0.0,0.0,0.0,0.0,0,0,0,0,3,0,0,3,0,0,0,1,1,0,0
213926702,0.0168675,0.0250784,0.542228,0.0,0.0,0.0,0.0,0.0,0.0,0.0,0.0,0,0,0,0,3,0,0,3,0,0,0,1,1,0,0
214125456,0.0216867,0.0282132,0.544676,0.0,0.0,0.0,0.0,0.0,0.0,0.0,0.0,0,0,0,0,3,0,0,3,0,0,0,1,1,0,0
214346538,0.0650602,0.0344828,0.543452,0.0,0.0,0.0,0.0,0.0,0.0,0.0,0.0,0,0,0,0,3,0,0,3,0,0,0,1,1,0,0
214547410,0.110843,0.0376176,0.541004,0.0,0.0,0.0,0.0,0.0,0.0,0.0,0.0,0,0,0,0,3,0,0,3,0,0,0,1,1,0,0
214726196,0.122892,0.0689655,0.542228,0.0,0.0,0.0,0.0,0.0,0.0,0.0,0.0,0,0,0,0,3,0,0,3,0,0,0,1,1,0,0
214928622,0.103614,0.0376176,0.542228,0.0,0.0,0.0,0.0,0.0,0.0,0.0,0.0,0,0,0,0,3,0,0,3,0,0,0,1,1,0,0
215126823,0.0481928,0.0282132,0.542228,0.0,0.0,0.0,0.0,0.0,0.0,0.0,0.0,0,0,0,0,3,0,0,3,0,0,0,1,1,0,0
215327240,0.0168675,0.0971787,0.542228,0.0,0.0,0.0,0.0,0.0,0.0,0.0,0.0,0,0,0,0,3,0,0,3,0,0,0,1,1,0,0
215525944,0.0192771,0.112853,0.542228,0.0,0.0,0.0,0.0,0.0,0.0,0.0,0.0,0,0,0,0,3,0,0,3,0,0,0,1,1,0,0
215724483,0.0192771,0.169279,0.542228,0.0,0.0,0.0,0.0,0.0,0.0,0.0,0.0,0,0,0,0,3,0,0,3,0,0,0,1,1,0,0
215946330,0.0192771,0.0971787,0.542228,0.0,0.0,0.0,0.0,0.0,0.0,0.0,0.0,0,0,0,0,3,0,0,3,0,0,0,1,1,0,0
216146495,0.0192771,0.0282132,0.526316,0.0,0.0,0.0,0.0,0.0,0.0,0.0,0.0,0,0,0,0,3,0,0,3,0,0,0,1,1,0,0
216345065,0.0192771,0.0344828,0.52754,0.0,0.0,0.0,0.0,0.0,0.0,0.0,0.0,0,0,0,0,3,0,0,3,0,0,0,1,1,0,0
216541955,0.0216867,0.0344828,0.52754,0.0,0.0,0.0,0.0,0.0,0.0,0.0,0.0,0,0,0,0,3,0,0,3,0,0,0,1,1,0,0
216742518,0.0216867,0.0407524,0.526316,0.0,0.0,0.0,0.0,0.0,0.0,0.0,0.0,0,0,0,0,3,0,0,3,0,0,0,1,1,0,0
216943682,0.0313253,0.0815047,0.526316,0.0,0.0,0.0,0.0,0.0,0.0,0.0,0.0,0,0,0,0,3,0,0,3,0,0,0,1,1,0,0
217144748,0.0457831,0.100313,0.516524,0.0,0.0,0.0,0.0,0.0,0.0,0.0,0.0,0,0,0,0,3,0,0,3,0,0,0,1,1,0,0
217345997,0.0506024,0.0971787,0.522644,0.0,0.0,0.0,0.0,0.0,0.0,0.0,0.0,0,0,0,0,3,0,0,3,0,0,0,1,1,0,0
217547089,0.060241,0.0344828,0.52142,0.0,0.0,0.0,0.0,0.0,0.0,0.0,0.0,0,0,0,0,3,0,0,3,0,0,0,1,1,0,0
217745603,0.0626506,0.031348,0.52142,0.0,0.0,0.0,0.0,0.0,0.0,0.0,0.0,0,0,0,0,3,0,0,3,0,0,0,1,1,0,0
217947396,0.086747,0.0282132,0.528764,0.0,0.0,0.0,0.0,0.0,0.0,0.0,0.0,0,0,0,0,3,0,0,3,0,0,0,1,1,0,0
218146101,0.0891566,0.0344828,0.526316,0.0,0.0,0.0,0.0,0.0,0.0,0.0,0.0,0,0,0,0,3,0,0,3,0,0,0,1,1,0,0
218344579,0.0819277,0.0407524,0.525092,0.0,0.0,0.0,0.0,0.0,0.0,0.0,0.0,0,0,0,0,3,0,0,3,0,0,0,1,1,0,0
218545020,0.13012,0.0470219,0.526316,0.0,0.0,0.0,0.0,0.0,0.0,0.0,0.0,0,0,0,0,3,0,0,3,0,0,0,1,1,0,0
218743716,0.122892,0.0344828,0.52754,0.0,0.0,0.0,0.0,0.0,0.0,0.0,0.0,0,0,0,0,3,0,0,3,0,0,0,1,1,0,0
218944929,0.125301,0.0344828,0.526316,0.0,0.0,0.0,0.0,0.0,0.0,0.0,0.0,0,0,0,0,3,0,0,3,0,0,0,1,1,0,0
219146117,0.149398,0.0344828,0.526316,0.0,0.0,0.0,0.0,0.0,0.0,0.0,0.0,0,0,0,0,3,0,0,3,0,0,0,1,1,0,0
219347869,0.0216867,0.0344828,0.525092,0.0,0.0,0.0,0.0,0.0,0.0,0.0,0.0,0,0,0,0,3,0,0,3,0,0,0,1,1,0,0
219525956,0.0168675,0.0344828,0.528764,0.0,0.0,0.0,0.0,0.0,0.0,0.0,0.0,0,0,0,0,3,0,0,3,0,0,0,1,1,0,0
219726750,0.0168675,0.031348,0.53978,0.0,0.0,0.0,0.0,0.0,0.0,0.0,0.0,0,0,0,0,3,0,0,3,0,0,0,1,1,0,0
219948656,0.0168675,0.0282132,0.541004,0.0,0.0,0.0,0.0,0.0,0.0,0.0,0.0,0,0,0,0,3,0,0,3,0,0,0,1,1,0,0
220149249,0.0240964,0.031348,0.542228,0.0,0.0,0.0,0.0,0.0,0.0,0.0,0.0,0,0,0,0,3,0,0,3,0,0,0,1,1,0,0
220327837,0.0795181,0.0344828,0.542228,0.0,0.0,0.0,0.0,0.0,0.0,0.0,0.0,0,0,0,0,3,0,0,3,0,0,0,1,1,0,0
220529642,0.0939759,0.031348,0.541004,0.0,0.0,0.0,0.0,0.0,0.0,0.0,0.0,0,0,0,0,3,0,0,3,0,0,0,1,1,0,0
220737555,0.0771084,0.0344828,0.538556,0.0,0.0,0.0,0.0,0.0,0.0,0.0,0.0,0,0,0,0,3,0,0,3,0,0,0,1,1,0,0
220928567,0.0939759,0.0376176,0.538556,0.0,0.0,0.0,0.0,0.0,0.0,0.0,0.0,0,0,0,0,3,0,0,3,0,0,0,1,1,0,0
221130219,0.139759,0.0752351,0.541004,0.0,0.0,0.0,0.0,0.0,0.0,0.0,0.0,0,0,0,0,3,0,0,3,0,0,0,1,1,0,0
221330976,0.118072,0.0407524,0.537332,0.0,0.0,0.0,0.0,0.0,0.0,0.0,0.0,0,0,0,0,3,0,0,3,0,0,0,1,1,0,0
221529551,0.0795181,0.0282132,0.537332,0.0,0.0,0.0,0.0,0.0,0.0,0.0,0.0,0,0,0,0,3,0,0,3,0,0,0,1,1,0,0
221730676,0.0481928,0.0250784,0.534884,0.0,0.0,0.0,0.0,0.0,0.0,0.0,0.0,0,0,0,0,3,0,0,3,0,0,0,1,1,0,0
221930075,0.0192771,0.0344828,0.534884,0.0,0.0,0.0,0.0,0.0,0.0,0.0,0.0,0,0,0,0,3,0,0,3,0,0,0,1,1,0,0
222128821,0.0192771,0.0438871,0.505508,0.0,0.0,0.0,0.0,0.0,0.0,0.0,0.0,0,0,0,0,3,0,0,3,0,0,0,1,1,0,0
222327226,0.0216867,0.0344828,0.501836,0.0,0.0,0.0,0.0,0.0,0.0,0.0,0.0,0,0,0,0,3,0,0,3,0,0,0,1,1,0,0
222527676,0.0385542,0.031348,0.505508,0.0,0.0,0.0,0.0,0.0,0.0,0.0,0.0,0,0,0,0,3,0,0,3,0,0,0,1,1,0,0
222749255,0.0819277,0.0282132,0.534884,0.0,0.0,0.0,0.0,0.0,0.0,0.0,0.0,0,0,0,0,3,0,0,3,0,0,0,1,1,0,0
222948524,0.0746988,0.0282132,0.529988,0.0,0.0,0.0,0.0,0.0,0.0,0.0,0.0,0,0,0,0,3,0,0,3,0,0,0,1,1,0,0
223148235,0.0963855,0.031348,0.531212,0.0,0.0,0.0,0.0,0.0,0.0,0.0,0.0,0,0,0,0,3,0,0,3,0,0,0,1,1,0,0
223346930,0.0843373,0.031348,0.528764,0.0,0.0,0.0,0.0,0.0,0.0,0.0,0.0,0,0,0,0,3,0,0,3,0,0,0,1,1,0,0
223545551,0.0746988,0.0282132,0.526316,0.0,0.0,0.0,0.0,0.0,0.0,0.0,0.0,0,0,0,0,3,0,0,3,0,0,0,1,1,0,0
223744298,0.0915663,0.0250784,0.529988,0.0,0.0,0.0,0.0,0.0,0.0,0.0,0.0,0,0,0,0,3,0,0,3,0,0,0,1,1,0,0
223945444,0.106024,0.0282132,0.528764,0.0,0.0,0.0,0.0,0.0,0.0,0.0,0.0,0,0,0,0,3,0,0,3,0,0,0,1,1,0,0
224146392,0.0385542,0.031348,0.529988,0.0,0.0,0.0,0.0,0.0,0.0,0.0,0.0,0,0,0,0,3,0,0,3,0,0,0,1,1,0,0
224348197,0.0168675,0.031348,0.529988,0.0,0.0,0.0,0.0,0.0,0.0,0.0,0.0,0,0,0,0,3,0,0,3,0,0,0,1,1,0,0
224546967,0.0168675,0.0282132,0.526316,0.0,0.0,0.0,0.0,0.0,0.0,0.0,0.0,0,0,0,0,3,0,0,3,0,0,0,1,1,0,0
224745535,0.0168675,0.015674,0.529988,0.0,0.0,0.0,0.0,0.0,0.0,0.0,0.0,0,0,0,0,3,0,0,3,0,0,0,1,1,0,0
224946063,0.0168675,0.0,0.531212,0.0,0.0,0.0,0.0,0.0,0.0,0.0,0.0,0,0,0,0,3,0,0,3,0,0,0,1,1,0,0
225147606,0.0168675,-0.0945122,0.528764,0.0,0.0,0.0,0.0,0.0,0.0,0.0,0.0,0,0,0,0,3,0,0,3,0,0,0,1,1,0,0
225326395,0.0168675,0.0250784,0.529988,0.0,0.0,0.0,0.0,0.0,0.0,0.0,0.0,0,0,0,0,3,0,0,3,0,0,0,1,1,0,0
225550118,0.0168675,0.0250784,0.526316,0.0,0.0,0.0,0.0,0.0,0.0,0.0,0.0,0,0,0,0,3,0,0,3,0,0,0,1,1,0,0
225748787,0.0168675,0.0250784,0.514076,0.0,0.0,0.0,0.0,0.0,0.0,0.0,0.0,0,0,0,0,3,0,0,3,0,0,0,1,1,0,0
225946706,0.0192771,-0.0182927,0.517748,0.0,0.0,0.0,0.0,0.0,0.0,0.0,0.0,0,0,0,0,3,0,0,3,0,0,0,1,1,0,0
226147649,0.0192771,-0.0426829,0.517748,0.0,0.0,0.0,0.0,0.0,0.0,0.0,0.0,0,0,0,0,3,0,0,3,0,0,0,1,1,0,0
226326512,0.0192771,-0.0213415,0.516524,0.0,0.0,0.0,0.0,0.0,0.0,0.0,0.0,0,0,0,0,3,0,0,3,0,0,0,1,1,0,0
226527802,0.0216867,0.0,0.5153,0.0,0.0,0.0,0.0,0.0,0.0,0.0,0.0,0,0,0,0,3,0,0,3,0,0,0,1,1,0,0
226728662,0.0216867,0.0282132,0.537332,0.0,0.0,0.0,0.0,0.0,0.0,0.0,0.0,0,0,0,0,3,0,0,3,0,0,0,1,1,0,0
226927294,0.0216867,0.0,0.536108,0.0,0.0,0.0,0.0,0.0,0.0,0.0,0.0,0,0,0,0,3,0,0,3,0,0,0,1,1,0,0
227129283,0.026506,0.0,0.536108,0.0,0.0,0.0,0.0,0.0,0.0,0.0,0.0,0,0,0,0,3,0,0,3,0,0,0,1,1,0,0
227329509,0.0313253,0.0,0.537332,0.0,0.0,0.0,0.0,0.0,0.0,0.0,0.0,0,0,0,0,3,0,0,3,0,0,0,1,1,0,0
227530792,0.0313253,0.0,0.554468,0.0,0.0,0.0,0.0,0.0,0.0,0.0,0.0,0,0,0,0,3,0,0,3,0,0,0,1,1,0,0
227731802,0.0240964,0.0,0.555692,0.0,0.0,0.0,0.0,0.0,0.0,0.0,0.0,0,0,0,0,3,0,0,3,0,0,0,1,1,0,0
227930286,0.0240964,0.0,0.555692,0.0,0.0,0.0,0.0,0.0,0.0,0.0,0.0,0,0,0,0,3,0,0,3,0,0,0,1,1,0,0
228129043,0.0433735,0.0,0.555692,0.0,0.0,0.0,0.0,0.0,0.0,0.0,0.0,0,0,0,0,3,0,0,3,0,0,0,1,1,0,0
228350173,0.115663,-0.00609756,0.555692,0.0,0.0,0.0,0.0,0.0,0.0,0.0,0.0,0,0,0,0,3,0,0,3,0,0,0,1,1,0,0
228528887,0.122892,-0.0182927,0.555692,0.0,0.0,0.0,0.0,0.0,0.0,0.0,0.0,0,0,0,0,3,0,0,3,0,0,0,1,1,0,0
228748469,0.0192771,0.0376176,0.554468,0.0,0.0,0.0,0.0,0.0,0.0,0.0,0.0,0,0,0,0,3,0,0,3,0,0,0,1,1,0,0
228948360,0.0216867,0.0282132,0.544676,0.0,0.0,0.0,0.0,0.0,0.0,0.0,0.0,0,0,0,0,3,0,0,3,0,0,0,1,1,0,0
229127373,0.0216867,0.0282132,0.49082,0.0,0.0,0.0,0.0,0.0,0.0,0.0,0.0,0,0,0,0,3,0,0,3,0,0,0,1,1,0,0
229325822,0.026506,0.0282132,0.489596,0.0,0.0,0.0,0.0,0.0,0.0,0.0,0.0,0,0,0,0,3,0,0,3,0,0,0,1,1,0,0
229527147,0.0506024,0.0282132,0.492044,0.0,0.0,0.0,0.0,0.0,0.0,0.0,0.0,0,0,0,0,3,0,0,3,0,0,0,1,1,0,0
229728006,0.0963855,0.0282132,0.49694,0.0,0.0,0.0,0.0,0.0,0.0,0.0,0.0,0,0,0,0,3,0,0,3,0,0,0,1,1,0,0
229937008,0.118072,0.0282132,0.504284,0.0,0.0,0.0,0.0,0.0,0.0,0.0,0.0,0,0,0,0,3,0,0,3,0,0,0,1,1,0,0
230128649,0.146988,0.0282132,0.501836,0.0,0.0,0.0,0.0,0.0,0.0,0.0,0.0,0,0,0,0,3,0,0,3,0,0,0,1,1,0,0
230327166,0.139759,0.0250784,0.510404,0.0,0.0,0.0,0.0,0.0,0.0,0.0,0.0,0,0,0,0,3,0,0,3,0,0,0,1,1,0,0
230547429,0.0746988,0.0,0.534884,0.0,0.0,0.0,0.0,0.0,0.0,0.0,0.0,0,0,0,0,3,0,0,3,0,0,0,1,1,0,0
230746135,0.026506,-0.00609756,0.548348,0.0,0.0,0.0,0.0,0.0,0.0,0.0,0.0,0,0,0,0,3,0,0,3,0,0,0,1,1,0,0
230924696,0.0216867,-0.0213415,0.550796,0.0,0.0,0.0,0.0,0.0,0.0,0.0,0.0,0,0,0,0,3,0,0,3,0,0,0,1,1,0,0
231143304,0.0216867,-0.0243902,0.559364,0.0,0.0,0.0,0.0,0.0,0.0,0.0,0.0,0,0,0,0,3,0,0,3,0,0,0,1,1,0,0
231344968,0.0313253,-0.00914634,0.559364,0.0,0.0,0.0,0.0,0.0,0.0,0.0,0.0,0,0,0,0,3,0,0,3,0,0,0,1,1,0,0
231540811,0.0746988,0.0,0.560588,0.0,0.0,0.0,0.0,0.0,0.0,0.0,0.0,0,0,0,0,3,0,0,3,0,0,0,1,1,0,0
231741863,0.0554217,0.031348,0.560588,0.0,0.0,0.0,0.0,0.0,0.0,0.0,0.0,0,0,0,0,3,0,0,3,0,0,0,1,1,0,0
231942924,0.0795181,0.0689655,0.560588,0.0,0.0,0.0,0.0,0.0,0.0,0.0,0.0,0,0,0,0,3,0,0,3,0,0,0,1,1,0,0
232144171,0.0746988,0.0282132,0.560588,0.0,0.0,0.0,0.0,0.0,0.0,0.0,0.0,0,0,0,0,3,0,0,3,0,0,0,1,1,0,0
232345168,0.0674699,0.0344828,0.559364,0.0,0.0,0.0,0.0,0.0,0.0,0.0,0.0,0,0,0,0,3,0,0,3,0,0,0,1,1,0,0
232543619,0.0578313,0.112853,0.560588,0.0,0.0,0.0,0.0,0.0,0.0,0.0,0.0,0,0,0,0,3,0,0,3,0,0,0,1,1,0,0
232744945,0.0457831,0.0815047,0.559364,0.0,0.0,0.0,0.0,0.0,0.0,0.0,0.0,0,0,0,0,3,0,0,3,0,0,0,1,1,0,0
232945758,0.0313253,0.0282132,0.523868,0.0,0.0,0.0,0.0,0.0,0.0,0.0,0.0,0,0,0,0,3,0,0,3,0,0,0,1,1,0,0
233147915,0.0674699,0.0250784,0.517748,0.0,0.0,0.0,0.0,0.0,0.0,0.0,0.0,0,0,0,0,3,0,0,3,0,0,0,1,1,0,0
233347969,0.0698795,0.0282132,0.50306,0.0,0.0,0.0,0.0,0.0,0.0,0.0,0.0,0,0,0,0,3,0,0,3,0,0,0,1,1,0,0
233526962,0.0771084,0.0282132,0.49082,0.0,0.0,0.0,0.0,0.0,0.0,0.0,0.0,0,0,0,0,3,0,0,3,0,0,0,1,1,0,0
233725606,0.0698795,0.0282132,0.493268,0.0,0.0,0.0,0.0,0.0,0.0,0.0,0.0,0,0,0,0,3,0,0,3,0,0,0,1,1,0,0
233924270,0.060241,0.0250784,0.493268,0.0,0.0,0.0,0.0,0.0,0.0,0.0,0.0,0,0,0,0,3,0,0,3,0,0,0,1,1,0,0
234147644,0.0746988,0.0250784,0.526316,0.0,0.0,0.0,0.0,0.0,0.0,0.0,0.0,0,0,0,0,3,0,0,3,0,0,0,1,1,0,0
234326346,0.120482,0.0282132,0.525092,0.0,0.0,0.0,0.0,0.0,0.0,0.0,0.0,0,0,0,0,3,0,0,3,0,0,0,1,1,0,0
234548221,0.0987952,0.0282132,0.523868,0.0,0.0,0.0,0.0,0.0,0.0,0.0,0.0,0,0,0,0,3,0,0,3,0,0,0,1,1,0,0
234726790,0.106024,0.031348,0.525092,0.0,0.0,0.0,0.0,0.0,0.0,0.0,0.0,0,0,0,0,3,0,0,3,0,0,0,1,1,0,0
234927512,0.106024,0.0282132,0.542228,0.0,0.0,0.0,0.0,0.0,0.0,0.0,0.0,0,0,0,0,3,0,0,3,0,0,0,1,1,0,0
235128989,0.0746988,0.00940439,0.549572,0.0,0.0,0.0,0.0,0.0,0.0,0.0,0.0,0,0,0,0,3,0,0,3,0,0,0,1,1,0,0
235329815,0.0746988,0.0031348,0.549572,0.0,0.0,0.0,0.0,0.0,0.0,0.0,0.0,0,0,0,0,3,0,0,3,0,0,0,1,1,0,0
235531360,0.0795181,0.00626959,0.548348,0.0,0.0,0.0,0.0,0.0,0.0,0.0,0.0,0,0,0,0,3,0,0,3,0,0,0,1,1,0,0
235729775,0.0987952,0.031348,0.547124,0.0,0.0,0.0,0.0,0.0,0.0,0.0,0.0,0,0,0,0,3,0,0,3,0,0,0,1,1,0,0
235928504,0.127711,0.0282132,0.548348,0.0,0.0,0.0,0.0,0.0,0.0,0.0,0.0,0,0,0,0,3,0,0,3,0,0,0,1,1,0,0
236146597,0.144578,0.031348,0.547124,0.0,0.0,0.0,0.0,0.0,0.0,0.0,0.0,0,0,0,0,3,0,0,3,0,0,0,1,1,0,0
236347481,0.137349,0.0282132,0.549572,0.0,0.0,0.0,0.0,0.0,0.0,0.0,0.0,0,0,0,0,3,0,0,3,0,0,0,1,1,0,0
236526324,0.053012,0.0188088,0.549572,0.0,0.0,0.0,0.0,0.0,0.0,0.0,0.0,0,0,0,0,3,0,0,3,0,0,0,1,1,0,0
236724945,0.0168675,0.0250784,0.550796,0.0,0.0,0.0,0.0,0.0,0.0,0.0,0.0,0,0,0,0,3,0,0,3,0,0,0,1,1,0,0
236948255,0.0168675,0.0250784,0.547124,0.0,0.0,0.0,0.0,0.0,0.0,0.0,0.0,0,0,0,0,3,0,0,3,0,0,0,1,1,0,0
237127120,0.0144578,0.0282132,0.5459,0.0,0.0,0.0,0.0,0.0,0.0,0.0,0.0,0,0,0,0,3,0,0,3,0,0,0,1,1,0,0
237325859,0.0144578,0.0282132,0.5459,0.0,0.0,0.0,0.0,0.0,0.0,0.0,0.0,0,0,0,0,3,0,0,3,0,0,0,1,1,0,0
237547440,0.0168675,0.0282132,0.5459,0.0,0.0,0.0,0.0,0.0,0.0,0.0,0.0,0,0,0,0,3,0,0,3,0,0,0,1,1,0,0
237742999,0.0168675,0.0282132,0.547124,0.0,0.0,0.0,0.0,0.0,0.0,0.0,0.0,0,0,0,0,3,0,0,3,0,0,0,1,1,0,0
237944801,0.0144578,0.031348,0.525092,0.0,0.0,0.0,0.0,0.0,0.0,0.0,0.0,0,0,0,0,3,0,0,3,0,0,0,1,1,0,0
238145060,0.0144578,0.0470219,0.499388,0.0,0.0,0.0,0.0,0.0,0.0,0.0,0.0,0,0,0,0,3,0,0,3,0,0,0,1,1,0,0
238346989,0.0192771,0.0344828,0.499388,0.0,0.0,0.0,0.0,0.0,0.0,0.0,0.0,0,0,0,0,3,0,0,3,0,0,0,1,1,0,0
238547588,0.0192771,0.0752351,0.50306,0.0,0.0,0.0,0.0,0.0,0.0,0.0,0.0,0,0,0,0,3,0,0,3,0,0,0,1,1,0,0
238726046,0.0192771,0.0658307,0.526316,0.0,0.0,0.0,0.0,0.0,0.0,0.0,0.0,0,0,0,0,3,0,0,3,0,0,0,1,1,0,0
238927891,0.0192771,0.0564263,0.526316,0.0,0.0,0.0,0.0,0.0,0.0,0.0,0.0,0,0,0,0,3,0,0,3,0,0,0,1,1,0,0
239135989,0.0554217,0.0752351,0.526316,0.0,0.0,0.0,0.0,0.0,0.0,0.0,0.0,0,0,0,0,3,0,0,3,0,0,0,1,1,0,0
239330003,0.122892,0.031348,0.526316,0.0,0.0,0.0,0.0,0.0,0.0,0.0,0.0,0,0,0,0,3,0,0,3,0,0,0,1,1,0,0
239530735,0.13253,0.0282132,0.528764,0.0,0.0,0.0,0.0,0.0,0.0,0.0,0.0,0,0,0,0,3,0,0,3,0,0,0,1,1,0,0
239731998,0.137349,0.0188088,0.526316,0.0,0.0,0.0,0.0,0.0,0.0,0.0,0.0,0,0,0,0,3,0,0,3,0,0,0,1,1,0,0
239930844,0.137349,0.0031348,0.544676,0.0,0.0,0.0,0.0,0.0,0.0,0.0,0.0,0,0,0,0,3,0,0,3,0,0,0,1,1,0,0
240129418,0.115663,0.0,0.550796,0.0,0.0,0.0,0.0,0.0,0.0,0.0,0.0,0,0,0,0,3,0,0,3,0,0,0,1,1,0,0
240328466,0.110843,0.0,0.548348,0.0,0.0,0.0,0.0,0.0,0.0,0.0,0.0,0,0,0,0,3,0,0,3,0,0,0,1,1,0,0
240547004,0.122892,0.0,0.547124,0.0,0.0,0.0,0.0,0.0,0.0,0.0,0.0,0,0,0,0,3,0,0,3,0,0,0,1,1,0,0
240745493,0.103614,0.0,0.547124,0.0,0.0,0.0,0.0,0.0,0.0,0.0,0.0,0,0,0,0,3,0,0,3,0,0,0,1,1,0,0
240944040,0.108434,0.0,0.550796,0.0,0.0,0.0,0.0,0.0,0.0,0.0,0.0,0,0,0,0,3,0,0,3,0,0,0,1,1,0,0
241144525,0.0457831,0.0031348,0.549572,0.0,0.0,0.0,0.0,0.0,0.0,0.0,0.0,0,0,0,0,3,0,0,3,0,0,0,1,1,0,0
241343304,0.0168675,0.0282132,0.548348,0.0,0.0,0.0,0.0,0.0,0.0,0.0,0.0,0,0,0,0,3,0,0,3,0,0,0,1,1,0,0
241544481,0.0168675,0.0250784,0.550796,0.0,0.0,0.0,0.0,0.0,0.0,0.0,0.0,0,0,0,0,3,0,0,3,0,0,0,1,1,0,0
241745459,0.0192771,0.031348,0.548348,0.0,0.0,0.0,0.0,0.0,0.0,0.0,0.0,0,0,0,0,3,0,0,3,0,0,0,1,1,0,0
241946572,0.0216867,0.0344828,0.548348,0.0,0.0,0.0,0.0,0.0,0.0,0.0,0.0,0,0,0,0,3,0,0,3,0,0,0,1,1,0,0
242125514,0.0192771,0.031348,0.549572,0.0,0.0,0.0,0.0,0.0,0.0,0.0,0.0,0,0,0,0,3,0,0,3,0,0,0,1,1,0,0
242349423,0.0313253,0.031348,0.549572,0.0,0.0,0.0,0.0,0.0,0.0,0.0,0.0,0,0,0,0,3,0,0,3,0,0,0,1,1,0,0
242547807,0.0337349,0.031348,0.549572,0.0,0.0,0.0,0.0,0.0,0.0,0.0,0.0,0,0,0,0,3,0,0,3,0,0,0,1,1,0,0
242748424,0.0385542,0.0344828,0.516524,0.0,0.0,0.0,0.0,0.0,0.0,0.0,0.0,0,0,0,0,3,0,0,3,0,0,0,1,1,0,0
242947111,0.0409639,0.0344828,0.522644,0.0,0.0,0.0,0.0,0.0,0.0,0.0,0.0,0,0,0,0,3,0,0,3,0,0,0,1,1,0,0
243145716,0.0385542,0.0344828,0.548348,0.0,0.0,0.0,0.0,0.0,0.0,0.0,0.0,0,0,0,0,3,0,0,3,0,0,0,1,1,0,0
243347273,0.0457831,0.0376176,0.550796,0.0,0.0,0.0,0.0,0.0,0.0,0.0,0.0,0,0,0,0,3,0,0,3,0,0,0,1,1,0,0
243525818,0.0578313,0.0344828,0.553244,0.0,0.0,0.0,0.0,0.0,0.0,0.0,0.0,0,0,0,0,3,0,0,3,0,0,0,1,1,0,0
243749601,0.0674699,0.0344828,0.525092,0.0,0.0,0.0,0.0,0.0,0.0,0.0,0.0,0,0,0,0,3,0,0,3,0,0,0,1,1,0,0
243948582,0.0722892,0.0344828,0.526316,0.0,0.0,0.0,0.0,0.0,0.0,0.0,0.0,0,0,0,0,3,0,0,3,0,0,0,1,1,0,0
244147196,0.0746988,0.0344828,0.498164,0.0,0.0,0.0,0.0,0.0,0.0,0.0,0.0,0,0,0,0,3,0,0,3,0,0,0,1,1,0,0
244347458,0.103614,0.0344828,0.501836,0.0,0.0,0.0,0.0,0.0,0.0,0.0,0.0,0,0,0,0,3,0,0,3,0,0,0,1,1,0,0
244526155,0.0915663,0.031348,0.500612,0.0,0.0,0.0,0.0,0.0,0.0,0.0,0.0,0,0,0,0,3,0,0,3,0,0,0,1,1,0,0
244724855,0.0963855,0.031348,0.532436,0.0,0.0,0.0,0.0,0.0,0.0,0.0,0.0,0,0,0,0,3,0,0,3,0,0,0,1,1,0,0
244946556,0.103614,0.0282132,0.529988,0.0,0.0,0.0,0.0,0.0,0.0,0.0,0.0,0,0,0,0,3,0,0,3,0,0,0,1,1,0,0
245144661,0.0963855,0.0282132,0.528764,0.0,0.0,0.0,0.0,0.0,0.0,0.0,0.0,0,0,0,0,3,0,0,3,0,0,0,1,1,0,0
245345632,0.0939759,0.0282132,0.538556,0.0,0.0,0.0,0.0,0.0,0.0,0.0,0.0,0,0,0,0,3,0,0,3,0,0,0,1,1,0,0
245547008,0.0939759,0.0282132,0.563035,0.0,0.0,0.0,0.0,0.0,0.0,0.0,0.0,0,0,0,0,3,0,0,3,0,0,0,1,1,0,0
245745377,0.0939759,0.0282132,0.563035,0.0,0.0,0.0,0.0,0.0,0.0,0.0,0.0,0,0,0,0,3,0,0,3,0,0,0,1,1,0,0
245946368,0.0939759,0.0282132,0.563035,0.0,0.0,0.0,0.0,0.0,0.0,0.0,0.0,0,0,0,0,3,0,0,3,0,0,0,1,1,0,0
246125241,0.0915663,0.0282132,0.563035,0.0,0.0,0.0,0.0,0.0,0.0,0.0,0.0,0,0,0,0,3,0,0,3,0,0,0,1,1,0,0
246346987,0.0795181,0.0282132,0.563035,0.0,0.0,0.0,0.0,0.0,0.0,0.0,0.0,0,0,0,0,3,0,0,3,0,0,0,1,1,0,0
246547500,0.0746988,0.0282132,0.563035,0.0,0.0,0.0,0.0,0.0,0.0,0.0,0.0,0,0,0,0,3,0,0,3,0,0,0,1,1,0,0
246746013,0.0674699,0.0282132,0.560588,0.0,0.0,0.0,0.0,0.0,0.0,0.0,0.0,0,0,0,0,3,0,0,3,0,0,0,1,1,0,0
246947683,0.0674699,0.0282132,0.561812,0.0,0.0,0.0,0.0,0.0,0.0,0.0,0.0,0,0,0,0,3,0,0,3,0,0,0,1,1,0,0
247146494,0.0674699,0.0282132,0.541004,0.0,0.0,0.0,0.0,0.0,0.0,0.0,0.0,0,0,0,0,3,0,0,3,0,0,0,1,1,0,0
247346922,0.0674699,0.0282132,0.528764,0.0,0.0,0.0,0.0,0.0,0.0,0.0,0.0,0,0,0,0,3,0,0,3,0,0,0,1,1,0,0
247545478,0.0674699,0.0282132,0.5153,0.0,0.0,0.0,0.0,0.0,0.0,0.0,0.0,0,0,0,0,3,0,0,3,0,0,0,1,1,0,0
247724377,0.0650602,0.0282132,0.520196,0.0,0.0,0.0,0.0,0.0,0.0,0.0,0.0,0,0,0,0,3,0,0,3,0,0,0,1,1,0,0
247945945,0.0650602,0.0282132,0.5459,0.0,0.0,0.0,0.0,0.0,0.0,0.0,0.0,0,0,0,0,3,0,0,3,0,0,0,1,1,0,0
248146202,0.0698795,0.0282132,0.5459,0.0,0.0,0.0,0.0,0.0,0.0,0.0,0.0,0,0,0,0,3,0,0,3,0,0,0,1,1,0,0
248347713,0.0650602,0.0282132,0.547124,0.0,0.0,0.0,0.0,0.0,0.0,0.0,0.0,0,0,0,0,3,0,0,3,0,0,0,1,1,0,0
248548470,0.0746988,0.0282132,0.548348,0.0,0.0,0.0,0.0,0.0,0.0,0.0,0.0,0,0,0,0,3,0,0,3,0,0,0,1,1,0,0
248727471,0.0746988,0.0282132,0.549572,0.0,0.0,0.0,0.0,0.0,0.0,0.0,0.0,0,0,0,0,3,0,0,3,0,0,0,1,1,0,0
248926013,0.0674699,0.0282132,0.547124,0.0,0.0,0.0,0.0,0.0,0.0,0.0,0.0,0,0,0,0,3,0,0,3,0,0,0,1,1,0,0
249127314,0.0216867,0.0282132,0.544676,0.0,0.0,0.0,0.0,0.0,0.0,0.0,0.0,0,0,0,0,3,0,0,3,0,0,0,1,1,0,0
249328403,0.0216867,0.0282132,0.549572,0.0,0.0,0.0,0.0,0.0,0.0,0.0,0.0,0,0,0,0,3,0,0,3,0,0,0,1,1,0,0
249526861,0.0216867,0.0282132,0.5459,0.0,0.0,0.0,0.0,0.0,0.0,0.0,0.0,0,0,0,0,3,0,0,3,0,0,0,1,1,0,0
249729217,0.0192771,0.0282132,0.5459,0.0,0.0,0.0,0.0,0.0,0.0,0.0,0.0,0,0,0,0,3,0,0,3,0,0,0,1,1,0,0
249928980,0.0192771,0.031348,0.547124,0.0,0.0,0.0,0.0,0.0,0.0,0.0,0.0,0,0,0,0,3,0,0,3,0,0,0,1,1,0,0
250130632,0.0192771,0.0282132,0.547124,0.0,0.0,0.0,0.0,0.0,0.0,0.0,0.0,0,0,0,0,3,0,0,3,0,0,0,1,1,0,0
250331348,0.0168675,0.0282132,0.547124,0.0,0.0,0.0,0.0,0.0,0.0,0.0,0.0,0,0,0,0,3,0,0,3,0,0,0,1,1,0,0
250533204,0.0168675,0.0250784,0.548348,0.0,0.0,0.0,0.0,0.0,0.0,0.0,0.0,0,0,0,0,3,0,0,3,0,0,0,1,1,0,0
250733642,0.0192771,0.0282132,0.548348,0.0,0.0,0.0,0.0,0.0,0.0,0.0,0.0,0,0,0,0,3,0,0,3,0,0,0,1,1,0,0
250935025,0.0240964,0.0282132,0.543452,0.0,0.0,0.0,0.0,0.0,0.0,0.0,0.0,0,0,0,0,3,0,0,3,0,0,0,1,1,0,0
251135790,0.0216867,0.0282132,0.538556,0.0,0.0,0.0,0.0,0.0,0.0,0.0,0.0,0,0,0,0,3,0,0,3,0,0,0,1,1,0,0
251337505,0.0216867,0.031348,0.501836,0.0,0.0,0.0,0.0,0.0,0.0,0.0,0.0,0,0,0,0,3,0,0,3,0,0,0,1,1,0,0
251538200,0.0216867,0.031348,0.507956,0.0,0.0,0.0,0.0,0.0,0.0,0.0,0.0,0,0,0,0,3,0,0,3,0,0,0,1,1,0,0
251739929,0.0216867,0.0282132,0.529988,0.0,0.0,0.0,0.0,0.0,0.0,0.0,0.0,0,0,0,0,3,0,0,3,0,0,0,1,1,0,0
251940307,0.0216867,0.0282132,0.541004,0.0,0.0,0.0,0.0,0.0,0.0,0.0,0.0,0,0,0,0,3,0,0,3,0,0,0,1,1,0,0
252142170,0.026506,0.0344828,0.541004,0.0,0.0,0.0,0.0,0.0,0.0,0.0,0.0,0,0,0,0,3,0,0,3,0,0,0,1,1,0,0
252340705,0.103614,0.0344828,0.542228,0.0,0.0,0.0,0.0,0.0,0.0,0.0,0.0,0,0,0,0,3,0,0,3,0,0,0,1,1,0,0
252541339,0.0843373,0.031348,0.553244,0.0,0.0,0.0,0.0,0.0,0.0,0.0,0.0,0,0,0,0,3,0,0,3,0,0,0,1,1,0,0
252742297,0.0939759,0.0376176,0.553244,0.0,0.0,0.0,0.0,0.0,0.0,0.0,0.0,0,0,0,0,3,0,0,3,0,0,0,1,1,0,0
252943322,0.0891566,0.0407524,0.553244,0.0,0.0,0.0,0.0,0.0,0.0,0.0,0.0,0,0,0,0,3,0,0,3,0,0,0,1,1,0,0
253144645,0.0192771,0.0344828,0.553244,0.0,0.0,0.0,0.0,0.0,0.0,0.0,0.0,0,0,0,0,3,0,0,3,0,0,0,1,1,0,0
253343385,0.0144578,0.0815047,0.554468,0.0,0.0,0.0,0.0,0.0,0.0,0.0,0.0,0,0,0,0,3,0,0,3,0,0,0,1,1,0,0
253544207,0.0192771,0.0658307,0.554468,0.0,0.0,0.0,0.0,0.0,0.0,0.0,0.0,0,0,0,0,3,0,0,3,0,0,0,1,1,0,0
253742759,0.0313253,0.0501567,0.554468,0.0,0.0,0.0,0.0,0.0,0.0,0.0,0.0,0,0,0,0,3,0,0,3,0,0,0,1,1,0,0
253944524,0.0216867,0.031348,0.553244,0.0,0.0,0.0,0.0,0.0,0.0,0.0,0.0,0,0,0,0,3,0,0,3,0,0,0,1,1,0,0
254145329,0.0192771,0.031348,0.553244,0.0,0.0,0.0,0.0,0.0,0.0,0.0,0.0,0,0,0,0,3,0,0,3,0,0,0,1,1,0,0
254346936,0.0192771,0.0282132,0.550796,0.0,0.0,0.0,0.0,0.0,0.0,0.0,0.0,0,0,0,0,3,0,0,3,0,0,0,1,1,0,0
254545529,0.0192771,0.0532915,0.554468,0.0,0.0,0.0,0.0,0.0,0.0,0.0,0.0,0,0,0,0,3,0,0,3,0,0,0,1,1,0,0
254746057,0.0192771,0.131661,0.553244,0.0,0.0,0.0,0.0,0.0,0.0,0.0,0.0,0,0,0,0,3,0,0,3,0,0,0,1,1,0,0
254924770,0.0192771,0.031348,0.553244,0.0,0.0,0.0,0.0,0.0,0.0,0.0,0.0,0,0,0,0,3,0,0,3,0,0,0,1,1,0,0
255148173,0.0192771,0.0282132,0.554468,0.0,0.0,0.0,0.0,0.0,0.0,0.0,0.0,0,0,0,0,3,0,0,3,0,0,0,1,1,0,0
255326941,0.0192771,0.0282132,0.550796,0.0,0.0,0.0,0.0,0.0,0.0,0.0,0.0,0,0,0,0,3,0,0,3,0,0,0,1,1,0,0
255548286,0.0192771,0.0282132,0.523868,0.0,0.0,0.0,0.0,0.0,0.0,0.0,0.0,0,0,0,0,3,0,0,3,0,0,0,1,1,0,0
255726859,0.0192771,0.0344828,0.523868,0.0,0.0,0.0,0.0,0.0,0.0,0.0,0.0,0,0,0,0,3,0,0,3,0,0,0,1,1,0,0
255927972,0.0192771,0.031348,0.511628,0.0,0.0,0.0,0.0,0.0,0.0,0.0,0.0,0,0,0,0,3,0,0,3,0,0,0,1,1,0,0
256126470,0.0192771,0.0282132,0.494492,0.0,0.0,0.0,0.0,0.0,0.0,0.0,0.0,0,0,0,0,3,0,0,3,0,0,0,1,1,0,0
256345143,0.0192771,0.0282132,0.529988,0.0,0.0,0.0,0.0,0.0,0.0,0.0,0.0,0,0,0,0,3,0,0,3,0,0,0,1,1,0,0
256546658,0.0192771,0.031348,0.526316,0.0,0.0,0.0,0.0,0.0,0.0,0.0,0.0,0,0,0,0,3,0,0,3,0,0,0,1,1,0,0
256745376,0.0192771,0.031348,0.526316,0.0,0.0,0.0,0.0,0.0,0.0,0.0,0.0,0,0,0,0,3,0,0,3,0,0,0,1,1,0,0
256943586,0.0192771,0.031348,0.526316,0.0,0.0,0.0,0.0,0.0,0.0,0.0,0.0,0,0,0,0,3,0,0,3,0,0,0,1,1,0,0
257142291,0.0216867,0.031348,0.538556,0.0,0.0,0.0,0.0,0.0,0.0,0.0,0.0,0,0,0,0,3,0,0,3,0,0,0,1,1,0,0
257343219,0.0216867,0.0344828,0.534884,0.0,0.0,0.0,0.0,0.0,0.0,0.0,0.0,0,0,0,0,3,0,0,3,0,0,0,1,1,0,0
257522033,0.0506024,0.0344828,0.536108,0.0,0.0,0.0,0.0,0.0,0.0,0.0,0.0,0,0,0,0,3,0,0,3,0,0,0,1,1,0,0
257743144,0.0554217,0.0282132,0.53978,0.0,0.0,0.0,0.0,0.0,0.0,0.0,0.0,0,0,0,0,3,0,0,3,0,0,0,1,1,0,0
257943993,0.0216867,0.0250784,0.541004,0.0,0.0,0.0,0.0,0.0,0.0,0.0,0.0,0,0,0,0,3,0,0,3,0,0,0,1,1,0,0
258145346,0.0216867,0.0282132,0.548348,0.0,0.0,0.0,0.0,0.0,0.0,0.0,0.0,0,0,0,0,3,0,0,3,0,0,0,1,1,0,0
258344594,0.0216867,0.0250784,0.547124,0.0,0.0,0.0,0.0,0.0,0.0,0.0,0.0,0,0,0,0,3,0,0,3,0,0,0,1,1,0,0
258543170,0.0192771,0.0250784,0.544676,0.0,0.0,0.0,0.0,0.0,0.0,0.0,0.0,0,0,0,0,3,0,0,3,0,0,0,1,1,0,0
258742018,0.0192771,0.0282132,0.5459,0.0,0.0,0.0,0.0,0.0,0.0,0.0,0.0,0,0,0,0,3,0,0,3,0,0,0,1,1,0,0
258942124,0.0216867,0.0282132,0.548348,0.0,0.0,0.0,0.0,0.0,0.0,0.0,0.0,0,0,0,0,3,0,0,3,0,0,0,1,1,0,0
259140809,0.0216867,0.0250784,0.548348,0.0,0.0,0.0,0.0,0.0,0.0,0.0,0.0,0,0,0,0,3,0,0,3,0,0,0,1,1,0,0
259338996,0.0216867,0.0250784,0.547124,0.0,0.0,0.0,0.0,0.0,0.0,0.0,0.0,0,0,0,0,3,0,0,3,0,0,0,1,1,0,0
259536346,0.0313253,0.0282132,0.547124,0.0,0.0,0.0,0.0,0.0,0.0,0.0,0.0,0,0,0,0,3,0,0,3,0,0,0,1,1,0,0
259734364,0.0313253,0.0282132,0.548348,0.0,0.0,0.0,0.0,0.0,0.0,0.0,0.0,0,0,0,0,3,0,0,3,0,0,0,1,1,0,0
259933109,0.0216867,0.0282132,0.548348,0.0,0.0,0.0,0.0,0.0,0.0,0.0,0.0,0,0,0,0,3,0,0,3,0,0,0,1,1,0,0
260134139,0.0216867,0.0282132,0.5459,0.0,0.0,0.0,0.0,0.0,0.0,0.0,0.0,0,0,0,0,3,0,0,3,0,0,0,1,1,0,0
260332615,0.0361446,0.0282132,0.563035,0.0,0.0,0.0,0.0,0.0,0.0,0.0,0.0,0,0,0,0,3,0,0,3,0,0,0,1,1,0,0
260533738,0.0626506,0.0282132,0.564259,0.0,0.0,0.0,0.0,0.0,0.0,0.0,0.0,0,0,0,0,3,0,0,3,0,0,0,1,1,0,0
260734923,0.0554217,0.0282132,0.563035,0.0,0.0,0.0,0.0,0.0,0.0,0.0,0.0,0,0,0,0,3,0,0,3,0,0,0,1,1,0,0
260936122,0.0409639,0.0282132,0.542228,0.0,0.0,0.0,0.0,0.0,0.0,0.0,0.0,0,0,0,0,3,0,0,3,0,0,0,1,1,0,0
261136999,0.0409639,0.0282132,0.548348,0.0,0.0,0.0,0.0,0.0,0.0,0.0,0.0,0,0,0,0,3,0,0,3,0,0,0,1,1,0,0
261335653,0.0457831,0.031348,0.541004,0.0,0.0,0.0,0.0,0.0,0.0,0.0,0.0,0,0,0,0,3,0,0,3,0,0,0,1,1,0,0
261536878,0.0554217,0.031348,0.526316,0.0,0.0,0.0,0.0,0.0,0.0,0.0,0.0,0,0,0,0,3,0,0,3,0,0,0,1,1,0,0
261737888,0.053012,0.0344828,0.531212,0.0,0.0,0.0,0.0,0.0,0.0,0.0,0.0,0,0,0,0,3,0,0,3,0,0,0,1,1,0,0
261939844,0.0457831,0.0282132,0.52754,0.0,0.0,0.0,0.0,0.0,0.0,0.0,0.0,0,0,0,0,3,0,0,3,0,0,0,1,1,0,0
262140151,0.0385542,0.031348,0.526316,0.0,0.0,0.0,0.0,0.0,0.0,0.0,0.0,0,0,0,0,3,0,0,3,0,0,0,1,1,0,0
262336622,0.0216867,0.031348,0.526316,0.0,0.0,0.0,0.0,0.0,0.0,0.0,0.0,0,0,0,0,3,0,0,3,0,0,0,1,1,0,0
262537376,0.0216867,0.0282132,0.511628,0.0,0.0,0.0,0.0,0.0,0.0,0.0,0.0,0,0,0,0,3,0,0,3,0,0,0,1,1,0,0
262739485,0.0216867,0.0282132,0.516524,0.0,0.0,0.0,0.0,0.0,0.0,0.0,0.0,0,0,0,0,3,0,0,3,0,0,0,1,1,0,0
262939715,0.0216867,0.031348,0.534884,0.0,0.0,0.0,0.0,0.0,0.0,0.0,0.0,0,0,0,0,3,0,0,3,0,0,0,1,1,0,0
263141022,0.0216867,0.031348,0.547124,0.0,0.0,0.0,0.0,0.0,0.0,0.0,0.0,0,0,0,0,3,0,0,3,0,0,0,1,1,0,0
263339676,0.0240964,0.031348,0.544676,0.0,0.0,0.0,0.0,0.0,0.0,0.0,0.0,0,0,0,0,3,0,0,3,0,0,0,1,1,0,0
263540480,0.0240964,0.0282132,0.5459,0.0,0.0,0.0,0.0,0.0,0.0,0.0,0.0,0,0,0,0,3,0,0,3,0,0,0,1,1,0,0
263741697,0.0240964,0.0250784,0.554468,0.0,0.0,0.0,0.0,0.0,0.0,0.0,0.0,0,0,0,0,3,0,0,3,0,0,0,1,1,0,0
263942939,0.0216867,0.0250784,0.563035,0.0,0.0,0.0,0.0,0.0,0.0,0.0,0.0,0,0,0,0,3,0,0,3,0,0,0,1,1,0,0
264144094,0.0216867,0.0250784,0.563035,0.0,0.0,0.0,0.0,0.0,0.0,0.0,0.0,0,0,0,0,3,0,0,3,0,0,0,1,1,0,0
264342685,0.0216867,0.0250784,0.563035,0.0,0.0,0.0,0.0,0.0,0.0,0.0,0.0,0,0,0,0,3,0,0,3,0,0,0,1,1,0,0
264543625,0.0216867,0.0282132,0.561812,0.0,0.0,0.0,0.0,0.0,0.0,0.0,0.0,0,0,0,0,3,0,0,3,0,0,0,1,1,0,0
264742246,0.0554217,0.0188088,0.563035,0.0,0.0,0.0,0.0,0.0,0.0,0.0,0.0,0,0,0,0,3,0,0,3,0,0,0,1,1,0,0
264943578,0.0385542,0.0282132,0.563035,0.0,0.0,0.0,0.0,0.0,0.0,0.0,0.0,0,0,0,0,3,0,0,3,0,0,0,1,1,0,0
265144563,0.0216867,0.031348,0.563035,0.0,0.0,0.0,0.0,0.0,0.0,0.0,0.0,0,0,0,0,3,0,0,3,0,0,0,1,1,0,0
265341416,0.0216867,0.0282132,0.561812,0.0,0.0,0.0,0.0,0.0,0.0,0.0,0.0,0,0,0,0,3,0,0,3,0,0,0,1,1,0,0
265541805,0.0216867,0.0282132,0.561812,0.0,0.0,0.0,0.0,0.0,0.0,0.0,0.0,0,0,0,0,3,0,0,3,0,0,0,1,1,0,0
265740438,0.0216867,0.0282132,0.563035,0.0,0.0,0.0,0.0,0.0,0.0,0.0,0.0,0,0,0,0,3,0,0,3,0,0,0,1,1,0,0
265941819,0.0216867,0.0282132,0.560588,0.0,0.0,0.0,0.0,0.0,0.0,0.0,0.0,0,0,0,0,3,0,0,3,0,0,0,1,1,0,0
266140333,0.0216867,0.0282132,0.561812,0.0,0.0,0.0,0.0,0.0,0.0,0.0,0.0,0,0,0,0,3,0,0,3,0,0,0,1,1,0,0
266339546,0.0192771,0.0282132,0.536108,0.0,0.0,0.0,0.0,0.0,0.0,0.0,0.0,0,0,0,0,3,0,0,3,0,0,0,1,1,0,0
266540225,0.0216867,0.0282132,0.536108,0.0,0.0,0.0,0.0,0.0,0.0,0.0,0.0,0,0,0,0,3,0,0,3,0,0,0,1,1,0,0
266748614,0.0216867,0.0250784,0.536108,0.0,0.0,0.0,0.0,0.0,0.0,0.0,0.0,0,0,0,0,3,0,0,3,0,0,0,1,1,0,0
266942276,0.0216867,0.0282132,0.526316,0.0,0.0,0.0,0.0,0.0,0.0,0.0,0.0,0,0,0,0,3,0,0,3,0,0,0,1,1,0,0
267143600,0.0192771,0.0282132,0.516524,0.0,0.0,0.0,0.0,0.0,0.0,0.0,0.0,0,0,0,0,3,0,0,3,0,0,0,1,1,0,0
267344636,0.0216867,0.0282132,0.514076,0.0,0.0,0.0,0.0,0.0,0.0,0.0,0.0,0,0,0,0,3,0,0,3,0,0,0,1,1,0,0
267545737,0.0216867,0.0282132,0.514076,0.0,0.0,0.0,0.0,0.0,0.0,0.0,0.0,0,0,0,0,3,0,0,3,0,0,0,1,1,0,0
267746535,0.0216867,0.0282132,0.5153,0.0,0.0,0.0,0.0,0.0,0.0,0.0,0.0,0,0,0,0,3,0,0,3,0,0,0,1,1,0,0
267947911,0.0433735,0.0250784,0.547124,0.0,0.0,0.0,0.0,0.0,0.0,0.0,0.0,0,0,0,0,3,0,0,3,0,0,0,1,1,0,0
268126672,0.0216867,0.0282132,0.544676,0.0,0.0,0.0,0.0,0.0,0.0,0.0,0.0,0,0,0,0,3,0,0,3,0,0,0,1,1,0,0
268327646,0.0192771,0.0282132,0.5459,0.0,0.0,0.0,0.0,0.0,0.0,0.0,0.0,0,0,0,0,3,0,0,3,0,0,0,1,1,0,0
268526457,0.0216867,0.0282132,0.55202,0.0,0.0,0.0,0.0,0.0,0.0,0.0,0.0,0,0,0,0,3,0,0,3,0,0,0,1,1,0,0
268724948,0.0385542,0.0250784,0.548348,0.0,0.0,0.0,0.0,0.0,0.0,0.0,0.0,0,0,0,0,3,0,0,3,0,0,0,1,1,0,0
268946487,0.0433735,0.0250784,0.550796,0.0,0.0,0.0,0.0,0.0,0.0,0.0,0.0,0,0,0,0,3,0,0,3,0,0,0,1,1,0,0
269145231,0.0216867,0.0282132,0.549572,0.0,0.0,0.0,0.0,0.0,0.0,0.0,0.0,0,0,0,0,3,0,0,3,0,0,0,1,1,0,0
269344017,0.0216867,0.0282132,0.55202,0.0,0.0,0.0,0.0,0.0,0.0,0.0,0.0,0,0,0,0,3,0,0,3,0,0,0,1,1,0,0
269542651,0.0192771,0.0250784,0.550796,0.0,0.0,0.0,0.0,0.0,0.0,0.0,0.0,0,0,0,0,3,0,0,3,0,0,0,1,1,0,0
269743071,0.0192771,0.0250784,0.548348,0.0,0.0,0.0,0.0,0.0,0.0,0.0,0.0,0,0,0,0,3,0,0,3,0,0,0,1,1,0,0
269944232,0.0409639,0.0282132,0.548348,0.0,0.0,0.0,0.0,0.0,0.0,0.0,0.0,0,0,0,0,3,0,0,3,0,0,0,1,1,0,0
270145287,0.0385542,0.0282132,0.548348,0.0,0.0,0.0,0.0,0.0,0.0,0.0,0.0,0,0,0,0,3,0,0,3,0,0,0,1,1,0,0
270343964,0.026506,0.0282132,0.548348,0.0,0.0,0.0,0.0,0.0,0.0,0.0,0.0,0,0,0,0,3,0,0,3,0,0,0,1,1,0,0
270545039,0.0457831,0.0282132,0.548348,0.0,0.0,0.0,0.0,0.0,0.0,0.0,0.0,0,0,0,0,3,0,0,3,0,0,0,1,1,0,0
270743896,0.0409639,0.0250784,0.55202,0.0,0.0,0.0,0.0,0.0,0.0,0.0,0.0,0,0,0,0,3,0,0,3,0,0,0,1,1,0,0
270944893,0.0313253,0.0282132,0.559364,0.0,0.0,0.0,0.0,0.0,0.0,0.0,0.0,0,0,0,0,3,0,0,3,0,0,0,1,1,0,0
271146052,0.0385542,0.0282132,0.559364,0.0,0.0,0.0,0.0,0.0,0.0,0.0,0.0,0,0,0,0,3,0,0,3,0,0,0,1,1,0,0
271347073,0.0337349,0.0282132,0.556916,0.0,0.0,0.0,0.0,0.0,0.0,0.0,0.0,0,0,0,0,3,0,0,3,0,0,0,1,1,0,0
271525721,0.0216867,0.0282132,0.553244,0.0,0.0,0.0,0.0,0.0,0.0,0.0,0.0,0,0,0,0,3,0,0,3,0,0,0,1,1,0,0
271747037,0.0216867,0.0282132,0.556916,0.0,0.0,0.0,0.0,0.0,0.0,0.0,0.0,0,0,0,0,3,0,0,3,0,0,0,1,1,0,0
271947855,0.0216867,0.0282132,0.556916,0.0,0.0,0.0,0.0,0.0,0.0,0.0,0.0,0,0,0,0,3,0,0,3,0,0,0,1,1,0,0
272126556,0.0216867,0.0282132,0.554468,0.0,0.0,0.0,0.0,0.0,0.0,0.0,0.0,0,0,0,0,3,0,0,3,0,0,0,1,1,0,0
272348179,0.0216867,0.0282132,0.554468,0.0,0.0,0.0,0.0,0.0,0.0,0.0,0.0,0,0,0,0,3,0,0,3,0,0,0,1,1,0,0
272526872,0.0216867,0.0282132,0.55202,0.0,0.0,0.0,0.0,0.0,0.0,0.0,0.0,0,0,0,0,3,0,0,3,0,0,0,1,1,0,0
272727585,0.0216867,0.0282132,0.547124,0.0,0.0,0.0,0.0,0.0,0.0,0.0,0.0,0,0,0,0,3,0,0,3,0,0,0,1,1,0,0
272929284,0.0216867,0.0282132,0.542228,0.0,0.0,0.0,0.0,0.0,0.0,0.0,0.0,0,0,0,0,3,0,0,3,0,0,0,1,1,0,0
273129728,0.0216867,0.031348,0.525092,0.0,0.0,0.0,0.0,0.0,0.0,0.0,0.0,0,0,0,0,3,0,0,3,0,0,0,1,1,0,0
273330999,0.0216867,0.031348,0.52754,0.0,0.0,0.0,0.0,0.0,0.0,0.0,0.0,0,0,0,0,3,0,0,3,0,0,0,1,1,0,0
273531929,0.0216867,0.031348,0.526316,0.0,0.0,0.0,0.0,0.0,0.0,0.0,0.0,0,0,0,0,3,0,0,3,0,0,0,1,1,0,0
273730520,0.0216867,0.0282132,0.529988,0.0,0.0,0.0,0.0,0.0,0.0,0.0,0.0,0,0,0,0,3,0,0,3,0,0,0,1,1,0,0
273929146,0.0216867,0.0282132,0.534884,0.0,0.0,0.0,0.0,0.0,0.0,0.0,0.0,0,0,0,0,3,0,0,3,0,0,0,1,1,0,0
274127882,0.0216867,0.0282132,0.55814,0.0,0.0,0.0,0.0,0.0,0.0,0.0,0.0,0,0,0,0,3,0,0,3,0,0,0,1,1,0,0
274326627,0.0216867,0.0250784,0.560588,0.0,0.0,0.0,0.0,0.0,0.0,0.0,0.0,0,0,0,0,3,0,0,3,0,0,0,1,1,0,0
274549926,0.0216867,0.0282132,0.560588,0.0,0.0,0.0,0.0,0.0,0.0,0.0,0.0,0,0,0,0,3,0,0,3,0,0,0,1,1,0,0
274728730,0.0216867,0.0282132,0.561812,0.0,0.0,0.0,0.0,0.0,0.0,0.0,0.0,0,0,0,0,3,0,0,3,0,0,0,1,1,0,0
274934345,0.0216867,0.0282132,0.566707,-0.00232019,0.0,0.0,0.0,0.0,0.0,0.0,0.0,0,0,0,0,3,0,0,3,0,0,0,1,1,0,0
275128602,0.0240964,0.0188088,0.565483,0.0,0.0,0.0,0.0,0.0,0.0,0.0,0.0,0,0,0,0,3,0,0,3,0,0,0,1,1,0,0
275329607,0.0313253,-0.00304878,0.565483,0.0,0.0,0.0,0.0,0.0,0.0,0.0,0.0,0,0,0,0,3,0,0,3,0,0,0,1,1,0,0
275528418,0.0216867,0.0,0.547124,0.0,0.0,0.0,0.0,0.0,0.0,0.0,0.0,0,0,0,0,3,0,0,3,0,0,0,1,1,0,0
275726841,0.0192771,0.0282132,0.544676,0.0,0.0,0.0,0.0,0.0,0.0,0.0,0.0,0,0,0,0,3,0,0,3,0,0,0,1,1,0,0
275928637,0.0192771,0.0250784,0.525092,0.0,0.0,0.0,0.0,0.0,0.0,0.0,0.0,0,0,0,0,3,0,0,3,0,0,0,1,1,0,0
276129081,0.0216867,0.0250784,0.520196,0.0,0.0,0.0,0.0,0.0,0.0,0.0,0.0,0,0,0,0,3,0,0,3,0,0,0,1,1,0,0
276331009,0.0216867,0.0031348,0.520196,0.0,0.0,0.0,0.0,0.0,0.0,0.0,0.0,0,0,0,0,3,0,0,3,0,0,0,1,1,0,0
276531471,0.0216867,0.0,0.52142,0.0,0.0,0.0,0.0,0.0,0.0,0.0,0.0,0,0,0,0,3,0,0,3,0,0,0,1,1,0,0
276730243,0.0216867,0.0250784,0.554468,0.0,0.0,0.0,0.0,0.0,0.0,0.0,0.0,0,0,0,0,3,0,0,3,0,0,0,1,1,0,0
276931731,0.0216867,0.0250784,0.559364,0.0,0.0,0.0,0.0,0.0,0.0,0.0,0.0,0,0,0,0,3,0,0,3,0,0,0,1,1,0,0
277132182,0.0216867,0.0282132,0.560588,0.0,0.0,0.0,0.0,0.0,0.0,0.0,0.0,0,0,0,0,3,0,0,3,0,0,0,1,1,0,0
277330806,0.0216867,0.0282132,0.559364,0.0,0.0,0.0,0.0,0.0,0.0,0.0,0.0,0,0,0,0,3,0,0,3,0,0,0,1,1,0,0
277532118,0.0216867,0.0250784,0.559364,0.0,0.0,0.0,0.0,0.0,0.0,0.0,0.0,0,0,0,0,3,0,0,3,0,0,0,1,1,0,0
277733067,0.0216867,0.0250784,0.559364,0.0,0.0,0.0,0.0,0.0,0.0,0.0,0.0,0,0,0,0,3,0,0,3,0,0,0,1,1,0,0
277931952,0.0216867,0.0282132,0.559364,0.0,0.0,0.0,0.0,0.0,0.0,0.0,0.0,0,0,0,0,3,0,0,3,0,0,0,1,1,0,0
278133087,0.0216867,0.031348,0.55814,0.0,0.0,0.0,0.0,0.0,0.0,0.0,0.0,0,0,0,0,3,0,0,3,0,0,0,1,1,0,0
278334125,0.0409639,0.122257,0.556916,0.0,0.0,0.0,0.0,0.0,0.0,0.0,0.0,0,0,0,0,3,0,0,3,0,0,0,1,1,0,0
278535196,0.0361446,0.0721003,0.55814,0.0,0.0,0.0,0.0,0.0,0.0,0.0,0.0,0,0,0,0,3,0,0,3,0,0,0,1,1,0,0
278733878,0.0506024,0.0282132,0.543452,0.0,0.0,0.0,0.0,0.0,0.0,0.0,0.0,0,0,0,0,3,0,0,3,0,0,0,1,1,0,0
278935004,0.0313253,0.0250784,0.547124,0.0,0.0,0.0,0.0,0.0,0.0,0.0,0.0,0,0,0,0,3,0,0,3,0,0,0,1,1,0,0
279133433,0.0240964,0.0282132,0.526316,0.0,0.0,0.0,0.0,0.0,0.0,0.0,0.0,0,0,0,0,3,0,0,3,0,0,0,1,1,0,0
279332025,0.0216867,0.0250784,0.528764,0.0,0.0,0.0,0.0,0.0,0.0,0.0,0.0,0,0,0,0,3,0,0,3,0,0,0,1,1,0,0
279530839,0.0650602,0.0250784,0.529988,0.0,0.0,0.0,0.0,0.0,0.0,0.0,0.0,0,0,0,0,3,0,0,3,0,0,0,1,1,0,0
279729624,0.149398,0.0250784,0.529988,0.0,0.0,0.0,0.0,0.0,0.0,0.0,0.0,0,0,0,0,3,0,0,3,0,0,0,1,1,0,0
279930681,0.144578,0.0250784,0.561812,0.0,0.0,0.0,0.0,0.0,0.0,0.0,0.0,0,0,0,0,3,0,0,3,0,0,0,1,1,0,0
280131521,0.115663,0.0250784,0.560588,0.0,0.0,0.0,0.0,0.0,0.0,0.0,0.0,0,0,0,0,3,0,0,3,0,0,0,1,1,0,0
280330303,0.0409639,0.0282132,0.560588,0.0,0.0,0.0,0.0,0.0,0.0,0.0,0.0,0,0,0,0,3,0,0,3,0,0,0,1,1,0,0
280531598,0.0168675,0.0282132,0.559364,0.0,0.0,0.0,0.0,0.0,0.0,0.0,0.0,0,0,0,0,3,0,0,3,0,0,0,1,1,0,0
280732476,0.0168675,0.0282132,0.536108,0.0,0.0,0.0,0.0,0.0,0.0,0.0,0.0,0,0,0,0,3,0,0,3,0,0,0,1,1,0,0
280929267,0.0192771,0.0282132,0.537332,0.0,0.0,0.0,0.0,0.0,0.0,0.0,0.0,0,0,0,0,3,0,0,3,0,0,0,1,1,0,0
281147503,0.0192771,0.0282132,0.538556,0.0,0.0,0.0,0.0,0.0,0.0,0.0,0.0,0,0,0,0,3,0,0,3,0,0,0,1,1,0,0
281326252,0.0192771,0.0282132,0.536108,0.0,0.0,0.0,0.0,0.0,0.0,0.0,0.0,0,0,0,0,3,0,0,3,0,0,0,1,1,0,0
281550255,0.0192771,0.0282132,0.538556,0.0,0.0,0.0,0.0,0.0,0.0,0.0,0.0,0,0,0,0,3,0,0,3,0,0,0,1,1,0,0
281748939,0.0192771,0.0282132,0.538556,0.0,0.0,0.0,0.0,0.0,0.0,0.0,0.0,0,0,0,0,3,0,0,3,0,0,0,1,1,0,0
281947384,0.0216867,0.0250784,0.544676,0.0,0.0,0.0,0.0,0.0,0.0,0.0,0.0,0,0,0,0,3,0,0,3,0,0,0,1,1,0,0
282146281,0.0192771,0.0282132,0.565483,0.0,0.0,0.0,0.0,0.0,0.0,0.0,0.0,0,0,0,0,3,0,0,3,0,0,0,1,1,0,0
282346337,0.0216867,0.0282132,0.565483,0.0,0.0,0.0,0.0,0.0,0.0,0.0,0.0,0,0,0,0,3,0,0,3,0,0,0,1,1,0,0
282545130,0.0240964,0.0282132,0.565483,0.0,0.0,0.0,0.0,0.0,0.0,0.0,0.0,0,0,0,0,3,0,0,3,0,0,0,1,1,0,0
282746596,0.0216867,0.0282132,0.565483,0.0,0.0,0.0,0.0,0.0,0.0,0.0,0.0,0,0,0,0,3,0,0,3,0,0,0,1,1,0,0
282947369,0.0216867,0.031348,0.565483,0.0,0.0,0.0,0.0,0.0,0.0,0.0,0.0,0,0,0,0,3,0,0,3,0,0,0,1,1,0,0
283145947,0.0216867,0.0376176,0.565483,0.0,0.0,0.0,0.0,0.0,0.0,0.0,0.0,0,0,0,0,3,0,0,3,0,0,0,1,1,0,0
283347141,0.0650602,0.0376176,0.565483,0.0,0.0,0.0,0.0,0.0,0.0,0.0,0.0,0,0,0,0,3,0,0,3,0,0,0,1,1,0,0
283548244,0.0674699,0.0376176,0.565483,0.0,0.0,0.0,0.0,0.0,0.0,0.0,0.0,0,0,0,0,3,0,0,3,0,0,0,1,1,0,0
283727056,0.0337349,0.0752351,0.564259,0.0,0.0,0.0,0.0,0.0,0.0,0.0,0.0,0,0,0,0,3,0,0,3,0,0,0,1,1,0,0
283928340,0.0289157,0.0344828,0.518972,0.0,0.0,0.0,0.0,0.0,0.0,0.0,0.0,0,0,0,0,3,0,0,3,0,0,0,1,1,0,0
284134649,0.0216867,0.031348,0.518972,0.0,0.0,0.0,0.0,0.0,0.0,0.0,0.0,0,0,0,0,3,0,0,3,0,0,0,1,1,0,0
284327903,0.0216867,0.0282132,0.523868,0.0,0.0,0.0,0.0,0.0,0.0,0.0,0.0,0,0,0,0,3,0,0,3,0,0,0,1,1,0,0
284529543,0.0216867,0.0282132,0.529988,0.0,0.0,0.0,0.0,0.0,0.0,0.0,0.0,0,0,0,0,3,0,0,3,0,0,0,1,1,0,0
284728370,0.0216867,0.0282132,0.526316,0.0,0.0,0.0,0.0,0.0,0.0,0.0,0.0,0,0,0,0,3,0,0,3,0,0,0,1,1,0,0
284927026,0.0216867,0.0282132,0.531212,0.0,0.0,0.0,0.0,0.0,0.0,0.0,0.0,0,0,0,0,3,0,0,3,0,0,0,1,1,0,0
285125701,0.0506024,0.0344828,0.548348,0.0,0.0,0.0,0.0,0.0,0.0,0.0,0.0,0,0,0,0,3,0,0,3,0,0,0,1,1,0,0
285326017,0.0433735,0.031348,0.563035,0.0,0.0,0.0,0.0,0.0,0.0,0.0,0.0,0,0,0,0,3,0,0,3,0,0,0,1,1,0,0
285524550,0.0361446,0.0282132,0.561812,0.0,0.0,0.0,0.0,0.0,0.0,0.0,0.0,0,0,0,0,3,0,0,3,0,0,0,1,1,0,0
285748212,0.0987952,0.0282132,0.561812,0.0,0.0,0.0,0.0,0.0,0.0,0.0,0.0,0,0,0,0,3,0,0,3,0,0,0,1,1,0,0
285946801,0.13253,0.0250784,0.560588,0.0,0.0,0.0,0.0,0.0,0.0,0.0,0.0,0,0,0,0,3,0,0,3,0,0,0,1,1,0,0
286148772,0.0939759,0.0282132,0.561812,0.0,0.0,0.0,0.0,0.0,0.0,0.0,0.0,0,0,0,0,3,0,0,3,0,0,0,1,1,0,0
286347310,0.0987952,0.0282132,0.561812,0.0,0.0,0.0,0.0,0.0,0.0,0.0,0.0,0,0,0,0,3,0,0,3,0,0,0,1,1,0,0
286547770,0.115663,0.0250784,0.561812,0.0,0.0,0.0,0.0,0.0,0.0,0.0,0.0,0,0,0,0,3,0,0,3,0,0,0,1,1,0,0
286726608,0.115663,0.0250784,0.560588,0.0,0.0,0.0,0.0,0.0,0.0,0.0,0.0,0,0,0,0,3,0,0,3,0,0,0,1,1,0,0
286928401,0.0674699,0.0250784,0.525092,0.0,0.0,0.0,0.0,0.0,0.0,0.0,0.0,0,0,0,0,3,0,0,3,0,0,0,1,1,0,0
287128512,0.0168675,0.0282132,0.523868,0.0,0.0,0.0,0.0,0.0,0.0,0.0,0.0,0,0,0,0,3,0,0,3,0,0,0,1,1,0,0
287330304,0.0168675,0.0250784,0.52754,0.0,0.0,0.0,0.0,0.0,0.0,0.0,0.0,0,0,0,0,3,0,0,3,0,0,0,1,1,0,0
287530943,0.0746988,0.0250784,0.555692,0.0,0.0,0.0,0.0,0.0,0.0,0.0,0.0,0,0,0,0,3,0,0,3,0,0,0,1,1,0,0
287732149,0.0819277,0.0250784,0.553244,0.0,0.0,0.0,0.0,0.0,0.0,0.0,0.0,0,0,0,0,3,0,0,3,0,0,0,1,1,0,0
287933015,0.0385542,0.0282132,0.550796,0.0,0.0,0.0,0.0,0.0,0.0,0.0,0.0,0,0,0,0,3,0,0,3,0,0,0,1,1,0,0
288134893,0.0433735,0.0282132,0.53978,0.0,0.0,0.0,0.0,0.0,0.0,0.0,0.0,0,0,0,0,3,0,0,3,0,0,0,1,1,0,0
288335417,0.0915663,0.0031348,0.542228,0.0,0.0,0.0,0.0,0.0,0.0,0.0,0.0,0,0,0,0,3,0,0,3,0,0,0,1,1,0,0
288536700,0.053012,0.0,0.526316,0.0,0.0,0.0,0.0,0.0,0.0,0.0,0.0,0,0,0,0,3,0,0,3,0,0,0,1,1,0,0
288735275,0.0987952,0.0,0.531212,0.0,0.0,0.0,0.0,0.0,0.0,0.0,0.0,0,0,0,0,3,0,0,3,0,0,0,1,1,0,0
288936214,0.0795181,0.00626959,0.532436,0.0,0.0,0.0,0.0,0.0,0.0,0.0,0.0,0,0,0,0,3,0,0,3,0,0,0,1,1,0,0
289137556,0.0722892,0.0282132,0.534884,0.0,0.0,0.0,0.0,0.0,0.0,0.0,0.0,0,0,0,0,3,0,0,3,0,0,0,1,1,0,0
289338432,0.113253,0.0282132,0.560588,0.0,0.0,0.0,0.0,0.0,0.0,0.0,0.0,0,0,0,0,3,0,0,3,0,0,0,1,1,0,0
289540279,0.137349,0.0031348,0.563035,0.0,0.0,0.0,0.0,0.0,0.0,0.0,0.0,0,0,0,0,3,0,0,3,0,0,0,1,1,0,0
289740657,0.0746988,0.0,0.560588,0.0,0.0,0.0,0.0,0.0,0.0,0.0,0.0,0,0,0,0,3,0,0,3,0,0,0,1,1,0,0
289942402,0.0168675,0.0282132,0.560588,0.0,0.0,0.0,0.0,0.0,0.0,0.0,0.0,0,0,0,0,3,0,0,3,0,0,0,1,1,0,0
290142962,0.0168675,0.0282132,0.507956,0.0,0.0,0.0,0.0,0.0,0.0,0.0,0.0,0,0,0,0,3,0,0,3,0,0,0,1,1,0,0
290341600,0.0168675,0.0282132,0.511628,0.0,0.0,0.0,0.0,0.0,0.0,0.0,0.0,0,0,0,0,3,0,0,3,0,0,0,1,1,0,0
290543257,0.0168675,0.0250784,0.531212,0.0,0.0,0.0,0.0,0.0,0.0,0.0,0.0,0,0,0,0,3,0,0,3,0,0,0,1,1,0,0
290744009,0.0578313,0.0,0.564259,0.0,0.0,0.0,0.0,0.0,0.0,0.0,0.0,0,0,0,0,3,0,0,3,0,0,0,1,1,0,0
290942584,0.0361446,0.0,0.564259,0.0,0.0,0.0,0.0,0.0,0.0,0.0,0.0,0,0,0,0,3,0,0,3,0,0,0,1,1,0,0
291141372,0.086747,0.0,0.563035,0.0,0.0,0.0,0.0,0.0,0.0,0.0,0.0,0,0,0,0,3,0,0,3,0,0,0,1,1,0,0
291342496,0.086747,0.0,0.563035,0.0,0.0,0.0,0.0,0.0,0.0,0.0,0.0,0,0,0,0,3,0,0,3,0,0,0,1,1,0,0
291543264,0.0192771,0.015674,0.563035,0.0,0.0,0.0,0.0,0.0,0.0,0.0,0.0,0,0,0,0,3,0,0,3,0,0,0,1,1,0,0
291744595,0.0192771,0.0250784,0.563035,0.0,0.0,0.0,0.0,0.0,0.0,0.0,0.0,0,0,0,0,3,0,0,3,0,0,0,1,1,0,0
291945579,0.0240964,0.0250784,0.563035,0.0,0.0,0.0,0.0,0.0,0.0,0.0,0.0,0,0,0,0,3,0,0,3,0,0,0,1,1,0,0
292144214,0.0192771,0.0282132,0.561812,0.0,0.0,0.0,0.0,0.0,0.0,0.0,0.0,0,0,0,0,3,0,0,3,0,0,0,1,1,0,0
292346101,0.0192771,0.0282132,0.523868,0.0,0.0,0.0,0.0,0.0,0.0,0.0,0.0,0,0,0,0,3,0,0,3,0,0,0,1,1,0,0
