timestamp,time_utc_usec,lat,lon,alt,alt_ellipsoid,s_variance_m_s,c_variance_rad,eph,epv,hdop,vdop,noise_per_ms,jamming_indicator,vel_m_s,vel_n_m_s,vel_e_m_s,vel_d_m_s,cog_rad,timestamp_time_relative,heading,heading_offset,fix_type,vel_ned_valid,satellites_used
174628040,1603428067000067,340356205,1087574267,423193,395279,0.223,0.648864,0.782,1.293,0.65,1.08,104,4,0.035,-0.033,-0.011,0.011,2.98511,0,nan,0.0,4,1,17
174826945,1603428067200067,340356206,1087574267,423239,395325,0.16,0.648871,0.782,1.291,0.65,1.08,104,4,0.021,-0.006,-0.021,0.005,2.98511,0,nan,0.0,4,1,17
175614974,1603428068000067,340356208,1087574270,423484,395570,0.208,0.648907,0.777,1.288,0.65,1.08,104,3,0.049,0.002,0.049,-0.042,2.98511,0,nan,0.0,4,1,17
176617941,1603428069000066,340356211,1087574276,423832,395917,0.229,0.648952,0.768,1.272,0.65,1.08,104,11,0.003,0.0,0.003,0.068,2.98511,0,nan,0.0,4,1,17
177622100,1603428070000066,340356212,1087574282,424095,396180,0.182,0.648995,0.764,1.26,0.65,1.08,104,5,0.057,-0.043,0.038,-0.014,2.98511,0,nan,0.0,4,1,17
178618941,1603428071000065,340356215,1087574287,424302,396387,0.256,0.649043,0.758,1.252,0.65,1.08,104,3,0.003,0.003,-0.001,0.065,2.98511,0,nan,0.0,4,1,17
179627978,1603428072000065,340356217,1087574293,424556,396642,0.227,0.649089,0.753,1.245,0.65,1.08,104,4,0.046,-0.002,0.046,0.058,2.98511,0,nan,0.0,4,1,17
180617941,1603428073000064,340356219,1087574299,424642,396728,0.182,0.649152,0.765,1.26,0.65,1.08,104,4,0.007,0.006,-0.004,0.001,2.98511,0,nan,0.0,4,1,17
181621253,1603428074000063,340356222,1087574308,424909,396995,0.254,0.649203,0.764,1.26,0.65,1.08,104,11,0.022,0.022,-0.001,0.049,2.98511,0,nan,0.0,4,1,17
182620908,1603428075000063,340356225,1087574315,424939,397024,0.355,0.649256,0.767,1.269,0.65,1.08,104,10,0.06,-0.028,0.053,-0.022,2.98511,0,nan,0.0,4,1,17
183622021,1603428076000062,340356225,1087574324,425078,397163,0.264,0.649312,0.776,1.283,0.62,1.03,103,4,0.058,-0.042,0.04,0.088,2.98511,0,nan,0.0,4,1,18
184613943,1603428077000062,340356217,1087574320,425174,397260,0.184,0.649366,0.792,1.297,0.61,1.01,96,3,0.204,0.028,-0.202,0.004,2.98511,0,nan,0.0,4,1,19
185620288,1603428078000061,340356213,1087574299,425003,397089,0.181,0.649414,0.786,1.279,0.61,1.01,80,4,0.206,-0.041,-0.202,-0.201,2.98511,0,nan,0.0,4,1,19
186621034,1603428079000061,340356222,1087574274,425429,397514,0.221,0.745955,0.782,1.264,0.61,1.01,80,3,0.2,0.009,-0.2,-0.748,4.88851,0,nan,0.0,4,1,19
187615980,1603428080000060,340356217,1087574263,425827,397912,0.254,0.746044,0.782,1.261,0.61,1.01,80,2,0.155,0.058,-0.144,-0.326,4.88851,0,nan,0.0,4,1,19
188616942,1603428081000060,340356211,1087574261,425792,397877,0.241,0.746086,0.78,1.253,0.61,1.01,80,5,0.166,-0.127,-0.108,0.187,4.88851,0,nan,0.0,4,1,19
189617228,1603428082000059,340356195,1087574229,425655,397741,0.16,0.453998,0.772,1.234,0.61,1.01,80,4,0.495,-0.11,-0.482,-0.004,4.42527,0,nan,0.0,4,1,19
190621179,1603428083000058,340356194,1087574178,425828,397913,0.166,0.387061,0.765,1.216,0.61,1.01,80,4,0.47,0.094,-0.461,-0.344,4.81393,0,nan,0.0,4,1,19
191634092,1603428084000058,340356201,1087574141,426071,398156,0.16,0.668193,0.767,1.217,0.61,1.01,80,5,0.316,-0.066,-0.309,-0.042,4.71895,0,nan,0.0,4,1,19
192622047,1603428085000057,340356204,1087574114,425808,397894,0.305,0.69613,0.771,1.221,0.61,1.01,80,3,0.126,-0.019,-0.124,0.509,4.91011,0,nan,0.0,4,1,19
193613130,1603428086000057,340356205,1087574102,425372,397458,0.255,0.696199,0.766,1.211,0.61,1.01,80,8,0.189,0.059,-0.18,0.283,4.91011,0,nan,0.0,4,1,19
194616943,1603428087000056,340356204,1087574064,425110,397195,0.204,0.526437,0.762,1.201,0.62,1.03,86,8,0.411,0.012,-0.411,0.142,4.73765,0,nan,0.0,4,1,18
195619942,1603428088000056,340356199,1087574025,425164,397249,0.183,0.539158,0.768,1.209,0.62,1.03,123,5,0.426,-0.032,-0.425,-0.146,4.66439,0,nan,0.0,4,1,18
196618018,1603428089000055,340356192,1087573990,425221,397306,0.196,0.757745,0.799,1.243,0.61,1.01,106,5,0.479,-0.127,-0.462,-0.123,4.59013,0,nan,0.0,4,1,19
197632981,1603428090000055,340356197,1087573934,425495,397580,0.157,0.258274,0.817,1.253,0.62,1.03,99,3,0.718,0.113,-0.709,-0.3,4.92677,0,nan,0.0,4,1,18
198621940,1603428091000054,340356214,1087573876,425560,397645,0.255,0.494401,0.823,1.26,0.61,1.01,99,4,0.493,0.232,-0.435,0.109,5.10319,0,nan,0.0,4,1,19
199616980,1603428092000053,340356227,1087573827,425207,397293,0.309,0.596726,0.839,1.28,0.62,1.03,92,4,0.486,0.091,-0.478,0.418,5.08404,0,nan,0.0,4,1,18
200621940,1603428093000053,340356241,1087573770,424883,396968,0.284,0.390713,0.851,1.297,0.61,1.01,92,2,0.67,0.129,-0.657,0.302,5.03211,0,nan,0.0,4,1,19
201622960,1603428094000052,340356243,1087573696,424756,396841,0.146,0.287438,0.861,1.307,0.61,1.01,92,2,0.626,-0.008,-0.626,-0.04,4.72315,0,nan,0.0,4,1,19
202628952,1603428095000052,340356252,1087573634,424790,396875,0.254,0.478875,0.85,1.292,0.61,1.01,93,2,0.524,0.079,-0.518,0.421,4.91823,0,nan,0.0,4,1,19
203631401,1603428096000051,340356262,1087573585,424497,396582,0.271,0.426523,0.852,1.294,0.61,1.01,99,3,0.608,0.049,-0.606,0.351,4.89162,0,nan,0.0,4,1,19
204625996,1603428097000051,340356262,1087573528,424491,396576,0.189,0.341752,0.848,1.284,0.61,1.01,99,2,0.64,0.107,-0.631,0.051,4.8161,0,nan,0.0,4,1,19
205613945,1603428098000050,340356267,1087573480,424683,396768,0.161,0.495383,0.839,1.272,0.61,1.01,99,6,0.391,0.023,-0.39,-0.088,4.86528,0,nan,0.0,4,1,19
206614944,1603428099000049,340356260,1087573442,424716,396802,0.161,0.388728,0.835,1.269,0.61,1.01,98,3,0.445,-0.214,-0.389,0.067,4.34499,0,nan,0.0,4,1,19
207621037,1603428100000049,340356242,1087573391,424742,396827,0.187,0.568279,0.845,1.286,0.61,1.01,98,2,0.493,0.04,-0.492,-0.084,4.61236,0,nan,0.0,4,1,19
208618945,1603428101000048,340356236,1087573336,424944,397029,0.174,0.47234,0.839,1.277,0.61,1.01,98,2,0.431,-0.101,-0.419,-0.329,4.5779,0,nan,0.0,4,1,19
209630998,1603428102000048,340356227,1087573293,425004,397090,0.136,0.459233,0.836,1.268,0.61,1.01,98,2,0.376,0.091,-0.365,-0.028,4.81659,0,nan,0.0,4,1,19
210617413,1603428103000047,340356222,1087573236,424806,396891,0.22,0.637985,0.836,1.263,0.61,1.01,98,2,0.53,-0.062,-0.526,0.069,4.69225,0,nan,0.0,4,1,19
211620948,1603428104000047,340356217,1087573172,424894,396979,0.262,0.322713,0.851,1.277,0.61,1.01,92,3,0.854,0.209,-0.828,0.217,4.87783,0,nan,0.0,4,1,19
212619973,1603428105000046,340356236,1087573086,424702,396787,0.212,0.231607,0.854,1.285,0.61,1.01,91,3,0.809,0.102,-0.803,0.206,4.8872,0,nan,0.0,4,1,19
213618939,1603428106000046,340356242,1087573019,424469,396555,0.198,0.407624,0.852,1.289,0.61,1.01,91,3,0.53,-0.104,-0.52,0.043,4.65884,0,nan,0.0,4,1,19
214618941,1603428107000045,340356235,1087572963,424376,396461,0.227,0.611314,0.858,1.304,0.61,1.01,91,2,0.435,-0.062,-0.43,-0.001,4.55162,0,nan,0.0,4,1,19
215620948,1603428108000044,340356228,1087572901,424425,396511,0.187,0.321076,0.845,1.284,0.61,1.01,91,2,0.545,-0.134,-0.529,-0.225,4.48921,0,nan,0.0,4,1,19
216618175,1603428109000044,340356225,1087572852,424522,396608,0.147,0.690033,0.842,1.275,0.61,1.01,91,2,0.389,-0.083,-0.38,-0.004,4.68144,0,nan,0.0,4,1,19
217618019,1603428110000043,340356225,1087572825,424567,396652,0.13,0.673065,0.838,1.267,0.61,1.01,91,4,0.23,0.056,-0.223,-0.007,4.91046,0,nan,0.0,4,1,19
218619945,1603428111000043,340356230,1087572794,424457,396542,0.243,0.555893,0.833,1.264,0.61,1.01,91,3,0.445,0.034,-0.444,0.136,4.75684,0,nan,0.0,4,1,19
219618950,1603428112000042,340356234,1087572743,424357,396443,0.171,0.281615,0.832,1.26,0.61,1.01,91,3,0.643,-0.081,-0.638,0.08,4.66842,0,nan,0.0,4,1,19
220618593,1603428113000042,340356235,1087572685,424315,396400,0.203,0.704366,0.839,1.271,0.61,1.01,91,3,0.435,0.045,-0.433,-0.053,4.75412,0,nan,0.0,4,1,19
221628966,1603428114000041,340356237,1087572620,424551,396636,0.149,0.358007,0.842,1.273,0.61,1.01,91,4,0.634,-0.013,-0.634,-0.301,4.72471,0,nan,0.0,4,1,19
222621942,1603428115000040,340356241,1087572544,424786,396871,0.134,0.28489,0.829,1.255,0.61,1.01,92,3,0.638,0.004,-0.638,-0.184,4.73007,0,nan,0.0,4,1,19
223614949,1603428116000040,340356258,1087572466,424553,396638,0.158,0.181565,0.814,1.235,0.61,1.01,92,3,0.825,0.188,-0.804,0.112,4.91048,0,nan,0.0,4,1,19
224617055,1603428117000039,340356265,1087572378,424380,396465,0.176,0.190776,0.803,1.218,0.61,1.01,92,4,0.897,0.086,-0.893,0.179,4.81033,0,nan,0.0,4,1,19
225617951,1603428118000039,340356273,1087572304,424415,396501,0.139,0.255507,0.79,1.201,0.67,1.21,98,4,0.681,-0.009,-0.681,-0.001,4.7432,0,nan,0.0,4,1,17
226617124,1603428119000038,340356265,1087572254,424278,396363,0.279,0.694471,0.8,1.217,0.64,1.16,98,3,0.501,-0.171,-0.471,0.219,4.58505,0,nan,0.0,4,1,18
227619341,1603428120000038,340356249,1087572222,424085,396170,0.311,0.681959,0.818,1.246,0.64,1.16,98,2,0.215,-0.064,-0.206,0.2,4.43377,0,nan,0.0,4,1,18
228613590,1603428121000037,340356229,1087572196,424253,396338,0.283,0.443328,0.828,1.264,0.64,1.16,97,3,0.244,-0.119,-0.213,-0.351,3.94615,0,nan,0.0,4,1,18
229619944,1603428122000037,340356203,1087572179,424789,396874,0.349,0.409211,0.834,1.276,0.64,1.16,98,3,0.291,-0.28,-0.082,-0.249,3.88421,0,nan,0.0,4,1,18
230618006,1603428123000036,340356188,1087572161,424652,396737,0.294,0.409345,0.852,1.299,0.64,1.16,98,3,0.401,-0.007,-0.401,0.224,3.88421,0,nan,0.0,4,1,18
231612940,1603428124000035,340356169,1087572129,424455,396540,0.258,0.715443,0.854,1.302,0.66,1.19,91,4,0.409,-0.372,-0.169,0.051,3.91244,0,nan,0.0,4,1,17
232619942,1603428125000035,340356140,1087572107,424682,396767,0.258,0.236572,0.85,1.295,0.61,1.01,91,3,0.107,0.003,-0.107,-0.648,3.60332,0,nan,0.0,4,1,19
233621949,1603428126000034,340356135,1087572094,425550,397635,0.303,0.538143,0.852,1.295,0.61,1.01,91,3,0.226,-0.082,-0.21,-0.668,3.92171,0,nan,0.0,4,1,19
234619945,1603428127000034,340356137,1087572057,425329,397415,0.216,0.387819,0.843,1.282,0.61,1.01,85,3,0.431,0.136,-0.409,0.276,4.9397,0,nan,0.0,4,1,19
235620767,1603428128000033,340356141,1087572006,424965,397050,0.287,0.363658,0.857,1.299,0.61,1.01,85,3,0.695,0.18,-0.672,0.164,4.97876,0,nan,0.0,4,1,19
236621294,1603428129000033,340356150,1087571915,424667,396752,0.197,0.202893,0.848,1.292,0.61,1.01,85,3,1.009,0.213,-0.986,0.105,4.85255,0,nan,0.0,4,1,19
237618938,1603428130000032,340356146,1087571811,424719,396804,0.147,0.241355,0.838,1.283,0.61,1.01,85,3,0.733,-0.131,-0.721,-0.206,4.60425,0,nan,0.0,4,1,19
238616167,1603428131000031,340356139,1087571737,424797,396882,0.125,0.280743,0.83,1.269,0.61,1.01,85,3,0.528,-0.107,-0.517,-0.016,4.55266,0,nan,0.0,4,1,19
239614145,1603428132000031,340356140,1087571688,424520,396605,0.213,0.404226,0.822,1.259,0.61,1.01,85,3,0.46,0.164,-0.43,0.275,4.95947,0,nan,0.0,4,1,19
240615021,1603428133000030,340356152,1087571619,424140,396225,0.167,0.227501,0.813,1.249,0.61,1.01,85,3,0.733,0.134,-0.72,0.115,4.91775,0,nan,0.0,4,1,19
241617952,1603428134000030,340356160,1087571527,424074,396159,0.196,0.220707,0.817,1.262,0.61,1.01,85,11,0.901,0.008,-0.901,-0.139,4.75431,0,nan,0.0,4,1,19
242617282,1603428135000029,340356158,1087571437,424239,396324,0.15,0.223201,0.808,1.25,0.61,1.01,85,11,0.722,-0.002,-0.722,-0.346,4.68813,0,nan,0.0,4,1,19
243621363,1603428136000029,340356158,1087571360,424191,396276,0.142,0.284879,0.795,1.226,0.61,1.01,85,11,0.615,0.098,-0.607,0.004,4.77312,0,nan,0.0,4,1,19
244617028,1603428137000028,340356162,1087571285,424086,396171,0.162,0.281321,0.782,1.204,0.61,1.01,91,3,0.608,0.043,-0.607,0.197,4.74651,0,nan,0.0,4,1,19
245627942,1603428138000027,340356171,1087571200,423621,395706,0.177,0.155045,0.774,1.187,0.61,1.01,91,3,0.946,0.164,-0.931,0.45,4.86025,0,nan,0.0,4,1,19
246621945,1603428139000027,340356177,1087571098,423468,395553,0.127,0.184508,0.767,1.176,0.61,1.01,112,3,0.97,-0.05,-0.968,-0.187,4.71729,0,nan,0.0,4,1,19
247628265,1603428140000026,340356183,1087570988,423749,395834,0.143,0.191756,0.763,1.171,0.61,1.01,112,3,1.037,0.009,-1.037,-0.245,4.76709,0,nan,0.0,4,1,19
248621275,1603428141000026,340356184,1087570868,423713,395798,0.169,0.149057,0.761,1.165,0.61,1.01,112,3,1.158,-0.053,-1.157,0.037,4.70357,0,nan,0.0,4,1,19
249618001,1603428142000025,340356183,1087570742,423644,395729,0.149,0.153904,0.755,1.159,0.61,1.01,112,3,1.087,0.054,-1.085,-0.104,4.73152,0,nan,0.0,4,1,19
250620952,1603428143000025,340356182,1087570632,423756,395841,0.174,0.333643,0.769,1.176,0.61,1.01,104,4,0.942,-0.018,-0.942,-0.094,4.69468,0,nan,0.0,4,1,19
251631943,1603428144000024,340356180,1087570533,423811,395896,0.166,0.200079,0.773,1.178,0.61,1.01,97,3,0.884,0.004,-0.884,0.155,4.69476,0,nan,0.0,4,1,19
252626939,1603428145000024,340356176,1087570437,423354,395439,0.172,0.179985,0.767,1.166,0.61,1.01,97,4,0.942,-0.097,-0.937,0.257,4.59931,0,nan,0.0,4,1,19
253620951,1603428146000023,340356168,1087570327,423013,395098,0.171,0.176303,0.76,1.16,0.61,1.01,97,3,1.028,0.046,-1.027,0.046,4.69853,0,nan,0.0,4,1,19
254621012,1603428147000022,340356178,1087570215,423054,395139,0.138,0.231144,0.755,1.157,0.61,1.01,97,3,0.781,0.076,-0.777,-0.077,4.82884,0,nan,0.0,4,1,19
255638032,1603428148000022,340356201,1087570123,423244,395329,0.143,0.169448,0.746,1.144,0.61,1.01,97,3,0.837,0.253,-0.797,-0.324,4.98579,0,nan,0.0,4,1,19
256613953,1603428149000021,340356227,1087570040,423270,395355,0.204,0.214246,0.74,1.134,0.61,1.01,104,3,0.835,0.321,-0.77,0.291,5.03031,0,nan,0.0,4,1,19
257622971,1603428150000021,340356243,1087569965,422849,394934,0.231,0.319732,0.736,1.128,0.61,1.01,103,3,0.632,0.237,-0.586,0.5,5.00935,0,nan,0.0,4,1,19
258615203,1603428151000020,340356260,1087569890,422498,394582,0.22,0.282269,0.734,1.128,0.61,1.01,103,3,0.63,0.055,-0.628,0.298,4.90986,0,nan,0.0,4,1,19
259617981,1603428152000020,340356275,1087569819,422201,394286,0.205,0.273195,0.732,1.128,0.61,1.01,103,3,0.759,0.099,-0.753,0.155,4.88435,0,nan,0.0,4,1,19
260620954,1603428153000019,340356280,1087569754,422157,394242,0.13,0.312394,0.741,1.135,0.65,1.05,97,4,0.592,-0.016,-0.592,-0.169,4.68273,0,nan,0.0,4,1,17
261622570,1603428154000018,340356283,1087569692,422535,394620,0.179,0.348693,0.741,1.133,0.65,1.05,97,3,0.485,0.083,-0.478,-0.412,4.74595,0,nan,0.0,4,1,17
262626090,1603428155000018,340356297,1087569624,422807,394892,0.16,0.265716,0.738,1.131,0.6,1.01,97,3,0.707,0.209,-0.675,-0.051,4.96348,0,nan,0.0,4,1,19
263626992,1603428156000017,340356313,1087569547,422544,394629,0.159,0.227018,0.735,1.127,0.6,1.01,96,3,0.73,0.254,-0.685,0.173,5.05064,0,nan,0.0,4,1,19
264615943,1603428157000017,340356335,1087569469,422443,394527,0.187,0.277708,0.73,1.12,0.6,1.01,96,3,0.74,0.248,-0.698,0.102,5.02897,0,nan,0.0,4,1,19
265614018,1603428158000016,340356353,1087569387,422674,394758,0.14,0.227967,0.725,1.113,0.6,1.01,97,5,0.758,0.164,-0.74,-0.192,4.88897,0,nan,0.0,4,1,19
266617785,1603428159000016,340356359,1087569299,423022,395107,0.158,0.2687,0.721,1.104,0.6,1.01,97,6,0.627,0.053,-0.625,-0.364,4.77979,0,nan,0.0,4,1,19
267615409,1603428160000015,340356370,1087569217,423310,395395,0.166,0.235387,0.72,1.103,0.6,1.01,97,4,0.76,0.121,-0.75,-0.048,4.89044,0,nan,0.0,4,1,19
268613904,1603428161000014,340356381,1087569134,423132,395217,0.201,0.273022,0.722,1.108,0.6,1.01,97,3,0.788,0.007,-0.788,0.223,4.80967,0,nan,0.0,4,1,19
269623943,1603428162000014,340356394,1087569050,422994,395079,0.185,0.284434,0.732,1.124,0.6,1.01,97,5,0.731,0.06,-0.728,0.164,4.82821,0,nan,0.0,4,1,19
270612002,1603428163000013,340356404,1087568966,422853,394938,0.207,0.260629,0.747,1.144,0.6,1.01,97,8,0.86,0.129,-0.851,0.179,4.8699,0,nan,0.0,4,1,19
271619982,1603428164000013,340356418,1087568868,422813,394898,0.183,0.231381,0.749,1.149,0.6,1.01,104,7,0.985,0.182,-0.968,0.038,4.88448,0,nan,0.0,4,1,19
272620954,1603428165000012,340356429,1087568770,423089,395173,0.177,0.218827,0.749,1.152,0.6,1.01,104,7,0.877,0.031,-0.877,-0.251,4.78216,0,nan,0.0,4,1,19
273626982,1603428166000012,340356436,1087568675,423444,395528,0.16,0.196385,0.746,1.151,0.6,1.01,104,4,0.977,0.053,-0.975,0.004,4.7838,0,nan,0.0,4,1,19
274614949,1603428167000011,340356444,1087568578,423388,395473,0.206,0.246606,0.748,1.157,0.6,1.01,104,3,0.874,0.125,-0.865,0.071,4.85175,0,nan,0.0,4,1,19
275630943,1603428168000010,340356460,1087568478,423527,395611,0.198,0.227648,0.75,1.158,0.6,1.01,103,7,0.978,0.043,-0.977,-0.235,4.8147,0,nan,0.0,4,1,19
276623563,1603428169000010,340356472,1087568384,423708,395793,0.164,0.228831,0.748,1.154,0.6,1.01,103,8,0.702,0.045,-0.701,-0.004,4.80441,0,nan,0.0,4,1,19
277630940,1603428170000009,340356480,1087568294,423636,395720,0.138,0.214006,0.741,1.142,0.6,1.01,103,7,0.788,0.085,-0.783,0.066,4.76879,0,nan,0.0,4,1,19
278621954,1603428171000009,340356487,1087568211,423847,395932,0.151,0.215586,0.732,1.128,0.6,1.01,104,5,0.7,-0.139,-0.687,-0.27,4.62448,0,nan,0.0,4,1,19
279629950,1603428172000008,340356501,1087568136,424028,396112,0.139,0.303775,0.726,1.117,0.6,1.01,104,3,0.641,0.118,-0.63,0.049,4.85939,0,nan,0.0,4,1,19
280621455,1603428173000008,340356509,1087568037,424054,396139,0.164,0.170087,0.721,1.11,0.6,1.01,104,5,1.032,0.029,-1.031,0.056,4.74214,0,nan,0.0,4,1,19
281621942,1603428174000007,340356515,1087567928,424138,396223,0.208,0.255716,0.719,1.108,0.6,1.01,104,4,0.786,0.06,-0.783,0.256,4.77233,0,nan,0.0,4,1,19
282612972,1603428175000007,340356515,1087567847,424149,396233,0.248,0.448541,0.727,1.125,0.6,1.01,104,4,0.611,0.034,-0.61,-0.082,4.73746,0,nan,0.0,4,1,19
283622979,1603428176000006,340356506,1087567776,424400,396484,0.207,0.347748,0.753,1.16,0.62,1.03,104,4,0.696,0.038,-0.695,-0.295,4.69112,0,nan,0.0,4,1,18
284617045,1603428177000005,340356500,1087567702,424622,396707,0.15,0.278182,0.751,1.157,0.6,1.01,104,7,0.629,-0.017,-0.629,-0.011,4.68351,0,nan,0.0,4,1,19
285620182,1603428178000005,340356496,1087567631,424446,396530,0.169,0.319357,0.746,1.149,0.6,1.01,104,6,0.523,0.092,-0.515,0.193,4.82485,0,nan,0.0,4,1,19
286616988,1603428179000004,340356500,1087567563,424591,396675,0.14,0.22116,0.738,1.133,0.6,1.01,104,7,0.726,0.116,-0.716,-0.167,4.84843,0,nan,0.0,4,1,19
287621943,1603428180000004,340356513,1087567472,424771,396855,0.149,0.212489,0.732,1.125,0.62,1.03,104,3,0.83,0.082,-0.826,0.02,4.83492,0,nan,0.0,4,1,18
288616942,1603428181000003,340356524,1087567368,424846,396930,0.146,0.213124,0.726,1.116,0.6,1.01,104,3,0.778,0.203,-0.751,0.028,4.93024,0,nan,0.0,4,1,19
289614236,1603428182000003,340356539,1087567260,424743,396827,0.159,0.206446,0.725,1.111,0.6,1.01,104,3,0.851,0.071,-0.848,0.056,4.8486,0,nan,0.0,4,1,19
290612992,1603428183000002,340356546,1087567136,424828,396912,0.165,0.16782,0.721,1.109,0.6,1.01,104,3,1.033,0.163,-1.02,0.182,4.81468,0,nan,0.0,4,1,19
291631072,1603428184000001,340356542,1087567036,424805,396889,0.153,0.258804,0.747,1.129,0.68,1.08,72,6,0.784,-0.099,-0.778,-0.156,4.68547,0,nan,0.0,4,1,16
292629431,1603428185000001,340356544,1087566933,425073,397158,0.124,0.22771,0.741,1.121,0.6,1.01,82,8,0.808,0.105,-0.801,-0.185,4.81075,0,nan,0.0,4,1,19
293637781,1603428186000000,340356549,1087566840,425025,397110,0.161,0.227185,0.739,1.115,0.6,1.01,83,12,0.84,0.056,-0.838,0.187,4.81257,0,nan,0.0,4,1,19
294627000,1603428187000000,340356548,1087566736,424911,396996,0.106,0.198736,0.729,1.094,0.59,0.99,88,5,0.725,0.004,-0.725,0.04,4.69304,0,nan,0.0,4,1,20
295628989,1603428188000000,340356543,1087566646,425178,397262,0.132,0.235178,0.718,1.074,0.59,0.99,94,13,0.651,0.083,-0.646,0.03,4.69768,0,nan,0.0,4,1,20
296627133,1603428189000000,340356545,1087566569,425059,397144,0.156,0.22974,0.717,1.073,0.59,0.99,100,11,0.762,-0.086,-0.757,0.212,4.69114,0,nan,0.0,4,1,20
297629941,1603428189999999,340356549,1087566479,424851,396935,0.148,0.183742,0.712,1.07,0.59,0.99,100,6,0.799,0.094,-0.794,0.235,4.78481,0,nan,0.0,4,1,20
298624974,1603428190999998,340356557,1087566388,424981,397065,0.139,0.189788,0.707,1.063,0.59,0.99,100,7,0.814,0.077,-0.81,-0.007,4.82372,0,nan,0.0,4,1,20
299635943,1603428191999998,340356560,1087566306,425237,397322,0.161,0.300434,0.705,1.062,0.59,0.99,100,6,0.707,-0.027,-0.707,-0.272,4.77375,0,nan,0.0,4,1,20
300624982,1603428192999997,340356557,1087566221,425728,397812,0.127,0.24174,0.699,1.055,0.59,0.99,100,8,0.665,0.077,-0.661,0.027,4.77633,0,nan,0.0,4,1,20
301622957,1603428193999997,340356556,1087566137,425574,397658,0.19,0.197491,0.693,1.043,0.59,0.99,100,7,0.796,0.08,-0.792,0.542,4.75902,0,nan,0.0,4,1,20
302611320,1603428194999996,340356567,1087566026,425472,397556,0.137,0.142858,0.692,1.044,0.59,0.99,89,9,1.19,0.153,-1.18,0.176,4.81265,0,nan,0.0,4,1,20
303623129,1603428195999996,340356574,1087565889,425871,397955,0.154,0.12553,0.69,1.044,0.59,0.99,95,7,1.217,0.131,-1.21,-0.616,4.81558,0,nan,0.0,4,1,20
304621340,1603428196999995,340356586,1087565781,426552,398637,0.158,0.188387,0.691,1.045,0.59,0.99,95,3,1.0,0.202,-0.98,-0.371,4.88701,0,nan,0.0,4,1,20
305631960,1603428197999994,340356598,1087565679,426763,398847,0.122,0.173039,0.689,1.041,0.59,0.99,95,3,0.854,0.168,-0.837,-0.065,4.88287,0,nan,0.0,4,1,20
306624944,1603428198999994,340356611,1087565587,426763,398847,0.168,0.232725,0.685,1.037,0.59,0.99,95,3,0.79,0.11,-0.782,0.083,4.83,0,nan,0.0,4,1,20
307629945,1603428199999993,340356620,1087565502,426947,399031,0.124,0.18496,0.686,1.036,0.59,0.99,95,3,0.936,0.287,-0.891,-0.089,4.95675,0,nan,0.0,4,1,20
308629304,1603428200999993,340356636,1087565380,427187,399271,0.134,0.133759,0.68,1.027,0.59,0.99,102,4,1.103,0.189,-1.087,-0.219,4.83746,0,nan,0.0,4,1,20
309627968,1603428201999992,340356640,1087565265,427441,399525,0.159,0.281106,0.68,1.025,0.59,0.99,102,3,0.948,0.085,-0.944,-0.265,4.77551,0,nan,0.0,4,1,20
310620947,1603428202999992,340356651,1087565165,427612,399696,0.171,0.177591,0.682,1.025,0.59,0.99,102,3,0.821,0.108,-0.814,0.21,4.83139,0,nan,0.0,4,1,20
311628737,1603428203999991,340356660,1087565073,427635,399719,0.148,0.202371,0.68,1.024,0.59,0.99,102,10,0.926,0.026,-0.925,-0.047,4.76228,0,nan,0.0,4,1,20
312617941,1603428204999990,340356655,1087564989,427776,399860,0.125,0.232254,0.68,1.023,0.59,0.99,91,10,0.71,0.012,-0.71,-0.116,4.71327,0,nan,0.0,4,1,20
313625967,1603428205999990,340356656,1087564908,427786,399871,0.174,0.249281,0.68,1.023,0.59,0.99,91,11,0.751,0.121,-0.741,0.237,4.81039,0,nan,0.0,4,1,20
314618938,1603428206999989,340356662,1087564834,427734,399818,0.154,0.236998,0.689,1.035,0.59,0.99,91,8,0.757,0.007,-0.757,-0.035,4.80121,0,nan,0.0,4,1,20
315609940,1603428207999989,340356666,1087564758,427742,399826,0.143,0.293429,0.687,1.029,0.59,0.99,97,4,0.59,0.144,-0.572,0.073,4.87889,0,nan,0.0,4,1,20
316621029,1603428208999988,340356679,1087564686,427816,399900,0.143,0.254664,0.691,1.033,0.59,0.99,97,3,0.625,-0.064,-0.621,-0.182,4.75657,0,nan,0.0,4,1,20
317629942,1603428209999988,340356684,1087564593,428002,400086,0.157,0.283612,0.697,1.041,0.59,0.99,97,3,0.876,-0.14,-0.865,-0.22,4.75121,0,nan,0.0,4,1,20
318611946,1603428210999987,340356677,1087564498,428051,400135,0.22,0.329369,0.705,1.056,0.62,1.03,97,4,0.782,-0.126,-0.772,0.123,4.66096,0,nan,0.0,4,1,19
319616030,1603428211999986,340356671,1087564396,427929,400013,0.164,0.177314,0.708,1.062,0.59,0.99,97,3,1.002,0.06,-1.0,0.183,4.74752,0,nan,0.0,4,1,20
320619016,1603428212999986,340356673,1087564287,427818,399902,0.176,0.210144,0.714,1.075,0.59,0.99,97,5,0.806,0.105,-0.799,0.063,4.82782,0,nan,0.0,4,1,20
321626988,1603428213999985,340356675,1087564187,427981,400065,0.22,0.327054,0.732,1.1,0.59,0.99,97,4,0.865,0.057,-0.864,-0.13,4.79208,0,nan,0.0,4,1,20
322619032,1603428214999985,340356669,1087564092,428081,400165,0.249,0.393835,0.756,1.132,0.59,0.99,97,3,0.793,0.031,-0.792,0.167,4.73096,0,nan,0.0,4,1,20
323626223,1603428215999984,340356662,1087564004,428216,400300,0.247,0.230772,0.782,1.171,0.59,0.99,90,3,0.976,-0.005,-0.976,-0.295,4.68357,0,nan,0.0,4,1,20
324619637,1603428216999984,340356653,1087563908,428422,400506,0.198,0.206737,0.781,1.17,0.59,0.99,84,4,0.86,-0.094,-0.855,0.255,4.63032,0,nan,0.0,4,1,20
325612988,1603428217999983,340356646,1087563806,428233,400317,0.17,0.221996,0.781,1.171,0.59,0.99,84,4,0.843,0.075,-0.84,0.237,4.76757,0,nan,0.0,4,1,20
326613179,1603428218999982,340356639,1087563706,428077,400161,0.165,0.162952,0.772,1.159,0.59,0.99,85,4,1.03,-0.111,-1.024,0.08,4.60312,0,nan,0.0,4,1,20
327619263,1603428219999982,340356628,1087563598,428055,400139,0.213,0.233233,0.766,1.148,0.59,0.99,85,4,0.953,-0.096,-0.948,-0.141,4.58509,0,nan,0.0,4,1,20
328616995,1603428220999981,340356626,1087563498,428186,400270,0.217,0.246309,0.764,1.146,0.59,0.99,85,4,0.869,0.022,-0.868,-0.13,4.75483,0,nan,0.0,4,1,20
329628944,1603428221999981,340356627,1087563401,428355,400439,0.147,0.201933,0.773,1.158,0.59,0.99,90,3,0.856,0.033,-0.856,-0.123,4.75668,0,nan,0.0,4,1,20
330620942,1603428222999980,340356633,1087563298,428406,400489,0.141,0.221436,0.765,1.146,0.59,0.99,90,3,0.798,-0.066,-0.796,0.011,4.69475,0,nan,0.0,4,1,20
331616400,1603428223999980,340356631,1087563203,428264,400347,0.148,0.253202,0.761,1.139,0.59,0.99,90,4,0.739,0.005,-0.739,0.019,4.71581,0,nan,0.0,4,1,20
332618060,1603428224999979,340356630,1087563104,428337,400421,0.152,0.194198,0.758,1.134,0.59,0.99,90,3,0.986,-0.115,-0.979,-0.044,4.6702,0,nan,0.0,4,1,20
333611952,1603428225999978,340356643,1087563005,428551,400635,0.127,0.205088,0.752,1.117,0.59,0.99,90,4,0.839,0.022,-0.839,-0.181,4.79468,0,nan,0.0,4,1,20
334619939,1603428226999978,340356654,1087562911,428322,400406,0.149,0.211336,0.741,1.097,0.59,0.99,90,3,0.84,0.019,-0.84,0.086,4.73955,0,nan,0.0,4,1,20
335631969,1603428227999977,340356663,1087562823,428179,400263,0.166,0.20218,0.732,1.082,0.59,0.99,90,3,0.835,0.255,-0.795,0.029,4.91853,0,nan,0.0,4,1,20
336617382,1603428228999977,340356677,1087562743,428166,400249,0.14,0.257439,0.729,1.079,0.59,0.99,90,4,0.693,0.104,-0.685,0.067,4.846,0,nan,0.0,4,1,20
337617170,1603428229999976,340356693,1087562670,427941,400025,0.183,0.287284,0.728,1.081,0.59,0.99,97,4,0.601,0.088,-0.595,0.201,4.88844,0,nan,0.0,4,1,20
338619460,1603428230999976,340356699,1087562598,427985,400069,0.175,0.28253,0.731,1.089,0.59,0.99,97,3,0.657,0.005,-0.657,0.01,4.75073,0,nan,0.0,4,1,20
339619114,1603428231999975,340356687,1087562533,428207,400290,0.16,0.310124,0.731,1.095,0.59,0.99,97,4,0.591,-0.127,-0.578,-0.178,4.51484,0,nan,0.0,4,1,20
340625946,1603428232999974,340356675,1087562478,428365,400449,0.212,0.578005,0.738,1.105,0.59,0.99,85,3,0.537,-0.259,-0.471,-0.16,4.45258,0,nan,0.0,4,1,20
341640089,1603428233999974,340356659,1087562438,428359,400443,0.241,0.685128,0.745,1.114,0.59,0.99,80,3,0.257,-0.145,-0.212,0.466,4.19523,0,nan,0.0,4,1,20
342621621,1603428234999973,340356650,1087562405,427520,399604,0.228,0.48722,0.745,1.112,0.59,0.99,80,5,0.343,-0.071,-0.335,0.686,4.40748,0,nan,0.0,4,1,20
343616951,1603428235999973,340356639,1087562390,427826,399910,0.269,0.597188,0.744,1.114,0.59,0.99,80,3,0.157,-0.153,0.036,-0.825,3.838,0,nan,0.0,4,1,20
344622283,1603428236999972,340356644,1087562384,428372,400455,0.187,0.62202,0.74,1.103,0.59,0.99,85,3,0.1,0.094,-0.035,0.028,4.79558,0,nan,0.0,4,1,20
345627998,1603428237999972,340356651,1087562366,428247,400330,0.227,0.622083,0.732,1.091,0.59,0.99,85,3,0.065,-0.023,0.061,0.226,4.79558,0,nan,0.0,4,1,20
346620963,1603428238999971,340356643,1087562378,428282,400365,0.113,0.622125,0.725,1.082,0.59,0.99,85,3,0.141,-0.036,0.137,0.016,4.79558,0,nan,0.0,4,1,20
347633951,1603428239999970,340356633,1087562393,428095,400179,0.2,0.622194,0.728,1.084,0.59,0.99,91,10,0.13,-0.073,0.107,-0.088,4.79558,0,nan,0.0,4,1,20
348620039,1603428240999970,340356611,1087562410,428726,400809,0.347,0.473425,0.726,1.084,0.59,0.99,91,3,0.39,-0.389,0.026,-0.631,2.98134,0,nan,0.0,4,1,20
349626943,1603428241999969,340356593,1087562398,429003,401086,0.166,0.683896,0.725,1.078,0.59,0.99,91,8,0.263,-0.077,-0.252,-0.109,3.85993,0,nan,0.0,4,1,20
350623939,1603428242999969,340356588,1087562362,429053,401137,0.142,0.492356,0.725,1.079,0.59,0.99,91,8,0.385,-0.081,-0.376,-0.029,4.54016,0,nan,0.0,4,1,20
351618939,1603428243999968,340356584,1087562319,428872,400956,0.2,0.554569,0.727,1.086,0.59,0.99,91,12,0.442,0.093,-0.432,0.051,4.75538,0,nan,0.0,4,1,20
352617008,1603428244999968,340356581,1087562266,428974,401058,0.186,0.443752,0.724,1.077,0.59,0.99,78,3,0.306,-0.142,-0.271,-0.389,4.43087,0,nan,0.0,4,1,20
353627945,1603428245999967,340356569,1087562227,429029,401113,0.14,0.33912,0.716,1.064,0.59,0.99,78,3,0.338,-0.271,-0.202,0.211,3.87244,0,nan,0.0,4,1,20
354621949,1603428246999966,340356551,1087562194,428923,401007,0.225,0.376277,0.703,1.044,0.59,0.99,78,2,0.031,-0.011,-0.029,0.611,3.58276,0,nan,0.0,4,1,20
355613948,1603428247999966,340356570,1087562195,429133,401217,0.226,0.503365,0.699,1.038,0.59,0.99,83,2,0.172,0.086,0.149,-0.373,6.11493,0,nan,0.0,4,1,20
356625945,1603428248999965,340356588,1087562211,428549,400633,0.193,0.364968,0.692,1.031,0.59,0.99,84,3,0.384,0.215,0.319,0.399,0.909942,0,nan,0.0,4,1,20
357616971,1603428249999965,340356602,1087562225,428427,400510,0.236,0.730658,0.687,1.023,0.59,0.99,84,4,0.096,0.081,-0.052,-0.239,0.647781,0,nan,0.0,4,1,20
358619033,1603428250999964,340356606,1087562212,428622,400706,0.227,0.730709,0.691,1.019,0.59,0.99,84,2,0.056,0.056,-0.004,0.176,0.647781,0,nan,0.0,4,1,20
359635947,1603428251999964,340356604,1087562213,428624,400707,0.225,0.730764,0.686,1.009,0.59,0.99,84,3,0.088,-0.025,0.084,-0.268,0.647781,0,nan,0.0,4,1,20
360621944,1603428252999963,340356602,1087562191,429029,401113,0.214,0.518482,0.681,1.002,0.59,0.99,84,3,0.117,-0.002,-0.117,-0.335,5.18814,0,nan,0.0,4,1,20
361627946,1603428253999962,340356593,1087562162,428843,400927,0.264,0.629341,0.692,1.013,0.61,1.02,95,4,0.046,-0.004,-0.046,0.374,4.16139,0,nan,0.0,4,1,19
362616944,1603428254999962,340356588,1087562165,428752,400836,0.177,0.629386,0.697,1.023,0.59,0.99,95,4,0.169,-0.125,0.114,-0.014,4.16139,0,nan,0.0,4,1,20
363612468,1603428255999961,340356575,1087562165,428515,400598,0.25,0.442577,0.698,1.027,0.59,0.99,95,3,0.167,-0.146,-0.082,0.279,3.48115,0,nan,0.0,4,1,20
364616214,1603428256999961,340356562,1087562154,428513,400597,0.185,0.747161,0.698,1.028,0.59,0.99,95,2,0.202,0.018,-0.201,-0.165,3.59942,0,nan,0.0,4,1,20
365627121,1603428257999960,340356560,1087562125,428798,400882,0.185,0.552916,0.696,1.026,0.59,0.99,95,3,0.326,-0.049,-0.322,-0.37,4.55424,0,nan,0.0,4,1,20
366617590,1603428258999960,340356549,1087562104,428543,400627,0.247,0.587243,0.702,1.036,0.61,1.02,95,5,0.036,0.011,-0.034,0.608,4.16165,0,nan,0.0,4,1,19
367620076,1603428259999959,340356568,1087562104,427999,400083,0.221,0.313615,0.7,1.034,0.62,1.01,95,3,0.493,0.422,-0.255,0.442,5.86576,0,nan,0.0,4,1,19
368622021,1603428260999958,340356600,1087562060,427685,399768,0.137,0.333582,0.697,1.034,0.59,0.99,95,3,0.534,0.058,-0.531,-0.056,5.1353,0,nan,0.0,4,1,20
369627947,1603428261999958,340356609,1087562013,427780,399864,0.203,0.491389,0.702,1.042,0.59,0.99,95,7,0.336,0.098,-0.321,-0.228,5.09835,0,nan,0.0,4,1,20
370618947,1603428262999957,340356629,1087561960,427835,399918,0.142,0.239502,0.7,1.039,0.59,0.99,95,11,0.595,0.174,-0.569,0.073,5.06172,0,nan,0.0,4,1,20
371619986,1603428263999957,340356648,1087561900,427696,399779,0.169,0.376233,0.693,1.031,0.59,0.99,95,3,0.407,0.063,-0.402,0.18,4.94349,0,nan,0.0,4,1,20
372616337,1603428264999956,340356630,1087561850,427709,399793,0.207,0.200373,0.692,1.035,0.59,0.99,96,3,0.797,-0.739,-0.298,-0.468,3.78114,0,nan,0.0,4,1,20
373612053,1603428265999956,340356544,1087561799,428239,400322,0.199,0.172591,0.691,1.04,0.62,1.01,96,3,0.944,-0.799,-0.502,-0.523,3.6468,0,nan,0.0,4,1,19
374612510,1603428266999955,340356497,1087561755,428428,400512,0.19,0.222349,0.688,1.04,0.59,0.99,96,4,0.735,-0.582,-0.45,0.32,3.77669,0,nan,0.0,4,1,20
375620463,1603428267999954,340356444,1087561716,428528,400612,0.146,0.174458,0.687,1.042,0.59,0.99,102,4,0.821,-0.77,-0.285,0.017,3.57523,0,nan,0.0,4,1,20
376615939,1603428268999954,340356399,1087561683,428482,400566,0.181,0.446084,0.684,1.045,0.61,1.01,102,5,0.346,-0.242,-0.247,-0.214,3.7821,0,nan,0.0,4,1,19
377635942,1603428269999953,340356394,1087561662,428836,400920,0.28,0.717465,0.689,1.057,0.59,0.99,117,4,0.174,-0.03,-0.172,-0.383,4.14657,0,nan,0.0,4,1,20
378624003,1603428270999953,340356393,1087561656,429109,401192,0.253,0.717528,0.695,1.064,0.59,0.99,110,4,0.198,0.186,0.068,-0.309,4.14657,0,nan,0.0,4,1,20
379625947,1603428271999952,340356427,1087561673,428758,400842,0.217,0.207606,0.701,1.072,0.65,1.03,109,3,0.714,0.67,0.246,0.643,0.349474,0,nan,0.0,4,1,18
380618944,1603428272999952,340356490,1087561688,428270,400354,0.217,0.176547,0.707,1.086,0.59,0.99,102,10,0.802,0.801,0.047,0.464,0.12074,0,nan,0.0,4,1,20
381629942,1603428273999951,340356540,1087561698,428087,400171,0.253,0.305275,0.706,1.087,0.59,0.99,102,3,0.59,0.565,0.17,0.274,0.253651,0,nan,0.0,4,1,20
382625942,1603428274999950,340356573,1087561712,428139,400222,0.271,0.380111,0.712,1.096,0.59,0.99,102,4,0.492,0.48,0.108,0.034,0.249283,0,nan,0.0,4,1,20
383636050,1603428275999950,340356598,1087561716,428213,400296,0.2,0.457556,0.709,1.092,0.59,0.99,102,3,0.324,0.274,0.173,-0.195,0.335116,0,nan,0.0,4,1,20
384622937,1603428276999949,340356611,1087561719,428566,400650,0.29,0.5433,0.71,1.092,0.59,0.99,101,6,0.076,0.03,0.07,-0.365,0.230975,0,nan,0.0,4,1,20
385629091,1603428277999949,340356612,1087561727,428841,400924,0.252,0.543369,0.714,1.1,0.59,0.99,94,4,0.161,0.135,0.088,-0.233,0.230975,0,nan,0.0,4,1,20
386624140,1603428278999948,340356617,1087561741,428648,400732,0.262,0.54347,0.724,1.117,0.59,0.99,94,4,0.116,-0.047,0.105,0.511,0.230975,0,nan,0.0,4,1,20
387618974,1603428279999948,340356627,1087561754,428274,400358,0.253,0.661634,0.722,1.114,0.59,0.99,81,5,0.187,0.108,0.153,0.574,0.425617,0,nan,0.0,4,1,20
388617226,1603428280999947,340356637,1087561723,429094,401177,0.213,0.582931,0.708,1.089,0.59,0.99,82,3,0.142,0.063,0.127,-0.237,0.507508,0,nan,0.0,4,1,20
389627130,1603428281999946,340356642,1087561730,429379,401463,0.149,0.582989,0.705,1.082,0.59,0.99,82,3,0.134,-0.008,0.134,0.037,0.507508,0,nan,0.0,4,1,20
390618794,1603428282999946,340356636,1087561740,429696,401779,0.255,0.583083,0.708,1.087,0.59,0.99,82,2,0.185,0.172,-0.069,-0.602,0.507508,0,nan,0.0,4,1,20
391618998,1603428283999945,340356641,1087561752,430023,402106,0.241,0.583181,0.706,1.082,0.59,0.99,82,4,0.038,0.027,-0.027,0.169,0.507508,0,nan,0.0,4,1,20
392615943,1603428284999945,340356638,1087561734,429926,402010,0.238,0.583255,0.699,1.071,0.59,0.99,82,4,0.083,-0.053,-0.063,0.143,0.507508,0,nan,0.0,4,1,20
393619938,1603428285999944,340356629,1087561725,429648,401732,0.283,0.583327,0.704,1.079,0.59,0.99,87,4,0.058,-0.05,-0.028,0.16,0.507508,0,nan,0.0,4,1,20
394620948,1603428286999944,340356625,1087561717,430165,402248,0.233,0.583391,0.704,1.074,0.59,0.99,87,4,0.107,-0.104,0.022,-0.137,0.507508,0,nan,0.0,4,1,20
395621941,1603428287999943,340356604,1087561724,430177,402261,0.236,0.614745,0.7,1.069,0.59,0.99,87,3,0.246,-0.239,-0.061,-0.252,2.90905,0,nan,0.0,4,1,20
396610972,1603428288999942,340356612,1087561733,431099,403183,0.219,0.234391,0.697,1.064,0.59,0.99,87,5,0.627,0.568,0.267,-0.849,0.478997,0,nan,0.0,4,1,20
397621944,1603428289999942,340356643,1087561759,431603,403687,0.191,0.418,0.702,1.073,0.59,0.99,87,3,0.357,0.251,0.254,-0.238,0.645339,0,nan,0.0,4,1,20
398624088,1603428290999941,340356662,1087561789,431118,403202,0.242,0.510819,0.701,1.073,0.59,0.99,87,3,0.319,0.233,0.217,0.933,0.716394,0,nan,0.0,4,1,20
399627006,1603428291999941,340356659,1087561797,430344,402427,0.213,0.615299,0.698,1.072,0.62,1.01,93,3,0.272,-0.267,0.051,0.283,1.8013,0,nan,0.0,4,1,19
400622021,1603428292999940,340356629,1087561809,430392,402475,0.165,0.328343,0.697,1.076,0.59,0.99,93,10,0.478,-0.456,0.143,0.221,2.83948,0,nan,0.0,4,1,20
401633952,1603428293999940,340356583,1087561830,430517,402600,0.258,0.301052,0.695,1.077,0.59,0.99,99,6,0.475,-0.416,0.229,-0.609,2.80297,0,nan,0.0,4,1,20
402624950,1603428294999939,340356566,1087561807,431010,403093,0.211,0.35691,0.695,1.076,0.59,0.99,99,3,0.511,-0.198,-0.471,0.212,4.2319,0,nan,0.0,4,1,20
403615951,1603428295999938,340356545,1087561781,430939,403023,0.18,0.402677,0.7,1.091,0.62,1.01,99,3,0.428,-0.343,-0.257,-0.153,3.81045,0,nan,0.0,4,1,19
404623953,1603428296999938,340356527,1087561763,430636,402720,0.236,0.749218,0.698,1.094,0.59,0.99,99,3,0.204,-0.18,-0.096,0.302,3.65841,0,nan,0.0,4,1,20
405626948,1603428297999937,340356514,1087561725,430290,402374,0.249,0.661055,0.699,1.097,0.61,1.02,99,4,0.34,-0.131,-0.313,0.197,4.39556,0,nan,0.0,4,1,19
406622044,1603428298999937,340356481,1087561680,430043,402127,0.172,0.165213,0.701,1.106,0.59,0.99,99,4,0.872,-0.695,-0.526,-0.041,3.83031,0,nan,0.0,4,1,20
407623567,1603428299999936,340356425,1087561646,430020,402104,0.175,0.234289,0.701,1.107,0.59,0.99,100,3,0.544,-0.512,-0.183,-0.1,3.52462,0,nan,0.0,4,1,20
408611944,1603428300999936,340356380,1087561631,430105,402189,0.189,0.305871,0.7,1.106,0.59,0.99,100,4,0.579,-0.573,-0.079,0.03,3.37064,0,nan,0.0,4,1,20
409616953,1603428301999935,340356331,1087561588,429939,402023,0.161,0.202744,0.695,1.088,0.59,0.99,100,4,0.706,-0.485,-0.514,0.218,3.89668,0,nan,0.0,4,1,20
410616943,1603428302999934,340356298,1087561541,429778,401862,0.152,0.363457,0.687,1.066,0.59,0.99,100,7,0.367,-0.218,-0.295,-0.202,4.00233,0,nan,0.0,4,1,20
411618976,1603428303999934,340356272,1087561533,429929,402013,0.2,0.443179,0.683,1.053,0.59,0.99,106,7,0.324,-0.324,-0.009,0.345,3.15664,0,nan,0.0,4,1,20
412612943,1603428304999933,340356250,1087561517,429458,401542,0.235,0.715684,0.681,1.047,0.59,0.99,106,8,0.247,0.01,-0.247,0.641,3.91836,0,nan,0.0,4,1,20
413627948,1603428305999933,340356227,1087561493,429205,401289,0.166,0.506689,0.677,1.038,0.59,0.99,106,3,0.279,-0.264,-0.091,0.013,3.51826,0,nan,0.0,4,1,20
414615946,1603428306999932,340356195,1087561484,429302,401386,0.178,0.433762,0.677,1.037,0.61,1.01,106,3,0.382,-0.374,-0.08,0.093,3.20305,0,nan,0.0,4,1,19
415614070,1603428307999931,340356157,1087561479,429431,401514,0.236,0.306004,0.692,1.057,0.66,1.21,106,3,0.476,-0.467,-0.093,-0.448,3.29673,0,nan,0.0,4,1,18
416620944,1603428308999931,340356114,1087561437,429861,401945,0.143,0.293965,0.697,1.062,0.62,1.03,106,4,0.615,-0.374,-0.488,-0.03,4.02601,0,nan,0.0,4,1,19
417618965,1603428309999930,340356083,1087561415,429824,401907,0.165,0.347859,0.698,1.064,0.59,0.99,106,6,0.366,-0.362,-0.05,0.107,3.41351,0,nan,0.0,4,1,20
418614968,1603428310999930,340356032,1087561395,429923,402006,0.194,0.218552,0.695,1.058,0.59,0.99,106,7,0.679,-0.676,-0.068,0.083,3.25331,0,nan,0.0,4,1,20
419615974,1603428311999929,340355966,1087561382,430035,402119,0.177,0.142711,0.693,1.051,0.59,0.99,106,9,0.895,-0.875,-0.187,0.055,3.31389,0,nan,0.0,4,1,20
420614141,1603428312999929,340355891,1087561376,429980,402063,0.209,0.213802,0.689,1.04,0.59,0.99,106,3,0.739,-0.737,-0.043,0.141,3.1285,0,nan,0.0,4,1,20
421617947,1603428313999928,340355830,1087561365,429909,401992,0.178,0.249956,0.711,1.065,0.62,1.01,106,4,0.535,-0.532,-0.05,-0.091,3.31682,0,nan,0.0,4,1,19
422620043,1603428314999927,340355765,1087561353,429905,401989,0.255,0.258549,0.718,1.078,0.59,0.99,99,3,0.813,-0.785,-0.21,0.17,3.37687,0,nan,0.0,4,1,20
423619941,1603428315999927,340355680,1087561369,429743,401826,0.264,0.247044,0.738,1.109,0.59,0.99,99,3,0.762,-0.756,0.097,-0.161,2.943,0,nan,0.0,4,1,20
424618009,1603428316999926,340355626,1087561394,430335,402418,0.356,0.301453,0.76,1.143,0.59,0.99,99,3,0.706,-0.704,0.055,-0.512,2.97793,0,nan,0.0,4,1,20
425623955,1603428317999926,340355571,1087561398,430520,402604,0.204,0.3468,0.775,1.172,0.62,1.03,92,3,0.522,-0.498,0.153,0.148,2.97332,0,nan,0.0,4,1,19
426617799,1603428318999925,340355527,1087561383,430112,402195,0.242,0.468103,0.779,1.182,0.67,1.07,92,4,0.42,-0.332,-0.257,0.359,3.52963,0,nan,0.0,4,1,17
427611983,1603428319999925,340355480,1087561370,430126,402209,0.255,0.31921,0.781,1.184,0.62,1.03,86,4,0.537,-0.536,-0.022,-0.067,3.25444,0,nan,0.0,4,1,19
428616018,1603428320999924,340355441,1087561384,430326,402410,0.164,0.279215,0.777,1.173,0.59,0.99,86,4,0.47,-0.324,0.34,0.057,2.46645,0,nan,0.0,4,1,20
429613421,1603428321999923,340355395,1087561435,430238,402322,0.172,0.231874,0.768,1.158,0.59,0.99,86,3,0.823,-0.379,0.73,-0.062,2.195,0,nan,0.0,4,1,20
430612233,1603428322999923,340355327,1087561510,429964,402047,0.177,0.134862,0.755,1.134,0.61,1.02,86,4,0.959,-0.567,0.773,-0.456,2.25075,0,nan,0.0,4,1,19
431630147,1603428323999922,340355287,1087561587,430196,402280,0.149,0.208564,0.745,1.12,0.59,0.99,92,4,0.756,-0.289,0.699,-0.208,1.9774,0,nan,0.0,4,1,20
432616330,1603428324999922,340355260,1087561674,430021,402105,0.165,0.1845,0.738,1.113,0.59,0.99,92,8,0.84,-0.089,0.835,0.409,1.75713,0,nan,0.0,4,1,20
433614394,1603428325999921,340355229,1087561785,429976,402060,0.16,0.145646,0.731,1.107,0.59,0.99,92,9,1.091,-0.224,1.068,-0.507,1.78737,0,nan,0.0,4,1,20
434615945,1603428326999921,340355216,1087561912,429925,402009,0.13,0.127242,0.721,1.09,0.59,0.99,92,11,1.053,-0.232,1.027,-0.213,1.7061,0,nan,0.0,4,1,20
435616002,1603428327999920,340355205,1087562036,430096,402179,0.149,0.139943,0.712,1.077,0.59,0.99,92,3,1.076,-0.271,1.041,-0.401,1.69283,0,nan,0.0,4,1,20
436622032,1603428328999919,340355193,1087562160,430152,402236,0.141,0.126777,0.703,1.065,0.59,0.99,98,4,1.21,0.02,1.21,0.319,1.55919,0,nan,0.0,4,1,20
437621982,1603428329999919,340355173,1087562314,429918,402002,0.201,0.156656,0.704,1.065,0.59,0.99,98,2,1.547,-0.481,1.47,0.07,1.80257,0,nan,0.0,4,1,20
438619003,1603428330999918,340355135,1087562475,430045,402129,0.171,0.123772,0.702,1.064,0.62,1.03,99,2,1.415,-0.353,1.371,-0.506,1.79937,0,nan,0.0,4,1,19
439614307,1603428331999918,340355121,1087562612,429988,402071,0.252,0.300764,0.704,1.073,0.62,1.01,99,9,1.25,-0.04,1.25,0.118,1.63969,0,nan,0.0,4,1,19
440620948,1603428332999917,340355111,1087562724,429906,401990,0.165,0.340524,0.718,1.081,0.59,0.99,98,9,0.683,-0.071,0.679,-0.153,1.64342,0,nan,0.0,4,1,20
441626942,1603428333999917,340355111,1087562812,429936,402020,0.155,0.230187,0.715,1.079,0.59,0.99,98,7,0.697,0.005,0.697,-0.236,1.52066,0,nan,0.0,4,1,20
442625121,1603428334999916,340355117,1087562899,429878,401962,0.2,0.353797,0.713,1.079,0.62,1.03,98,3,0.819,-0.052,0.817,-0.032,1.49953,0,nan,0.0,4,1,19
443637052,1603428335999915,340355098,1087562988,429981,402065,0.137,0.178299,0.712,1.076,0.59,0.99,98,3,0.886,-0.091,0.882,-0.026,1.70139,0,nan,0.0,4,1,20
444625951,1603428336999915,340355085,1087563103,429559,401643,0.15,0.143296,0.708,1.072,0.59,0.99,98,3,1.185,-0.338,1.136,0.248,1.76958,0,nan,0.0,4,1,20
445619943,1603428337999914,340355066,1087563223,429598,401682,0.15,0.15214,0.701,1.061,0.59,0.99,98,3,1.016,-0.056,1.015,-0.43,1.67919,0,nan,0.0,4,1,20
446626281,1603428338999914,340355043,1087563342,429847,401930,0.222,0.221785,0.699,1.064,0.59,0.99,98,4,1.006,-0.423,0.913,-0.382,1.81887,0,nan,0.0,4,1,20
447627943,1603428339999913,340355013,1087563453,429835,401918,0.151,0.245513,0.701,1.066,0.59,0.99,98,3,0.826,-0.115,0.818,-0.145,1.76715,0,nan,0.0,4,1,20
448622737,1603428340999912,340354993,1087563538,430166,402250,0.181,0.210555,0.705,1.07,0.59,0.99,98,3,0.711,-0.179,0.688,-0.374,1.8484,0,nan,0.0,4,1,20
449635282,1603428341999912,340354986,1087563627,430191,402275,0.146,0.152279,0.702,1.068,0.59,0.99,98,3,0.99,-0.115,0.983,0.401,1.64748,0,nan,0.0,4,1,20
450614224,1603428342999911,340354987,1087563747,429122,401206,0.175,0.159632,0.696,1.063,0.65,1.05,98,4,1.25,-0.256,1.224,0.696,1.64507,0,nan,0.0,4,1,18
451617960,1603428343999911,340354943,1087563878,428637,400721,0.119,0.102346,0.691,1.056,0.59,0.99,98,3,1.336,-0.478,1.247,0.136,1.9577,0,nan,0.0,4,1,20
452612037,1603428344999910,340354905,1087564020,428332,400416,0.153,0.125718,0.685,1.048,0.59,0.99,98,3,1.214,-0.393,1.148,0.439,1.88977,0,nan,0.0,4,1,20
453610943,1603428345999910,340354885,1087564141,428268,400352,0.204,0.165209,0.683,1.042,0.59,0.99,98,7,0.949,-0.262,0.913,-0.729,1.79346,0,nan,0.0,4,1,20
454616909,1603428346999909,340354880,1087564232,428492,400576,0.137,0.200266,0.68,1.042,0.59,0.99,98,8,0.78,-0.004,0.78,-0.001,1.58444,0,nan,0.0,4,1,20
455628008,1603428347999908,340354884,1087564306,428601,400685,0.218,0.422455,0.697,1.061,0.59,0.99,98,11,0.665,-0.007,0.665,-0.138,1.48335,0,nan,0.0,4,1,20
456620052,1603428348999908,340354862,1087564371,428736,400820,0.167,0.265338,0.702,1.068,0.59,0.99,98,4,0.617,-0.053,0.615,-0.299,1.82536,0,nan,0.0,4,1,20
457619175,1603428349999907,340354860,1087564455,428726,400810,0.13,0.201304,0.701,1.067,0.59,0.99,98,3,0.886,0.07,0.883,0.019,1.54256,0,nan,0.0,4,1,20
458616946,1603428350999907,340354875,1087564531,428689,400773,0.157,0.288826,0.699,1.065,0.59,0.99,98,3,0.653,0.154,0.635,0.019,1.33497,0,nan,0.0,4,1,20
459638938,1603428351999906,340354871,1087564596,428716,400800,0.105,0.167063,0.712,1.069,0.59,0.99,68,7,0.825,-0.063,0.823,-0.001,1.64024,0,nan,0.0,4,1,20
460631940,1603428352999906,340354872,1087564664,428458,400542,0.109,0.313095,0.698,1.044,0.59,0.99,77,6,0.424,0.085,0.416,0.005,1.48332,0,nan,0.0,4,1,20
461638966,1603428353999905,340354864,1087564723,428446,400530,0.122,0.178609,0.684,1.018,0.59,0.99,89,7,0.731,-0.472,0.558,-0.172,2.12878,0,nan,0.0,4,1,20
462623989,1603428354999904,340354846,1087564785,428683,400767,0.127,0.183874,0.674,1.004,0.59,0.99,95,6,0.724,-0.183,0.7,-0.121,1.80379,0,nan,0.0,4,1,20
463621989,1603428355999904,340354842,1087564875,428490,400575,0.107,0.159524,0.67,0.999,0.59,0.99,101,7,0.926,-0.01,0.926,0.148,1.58864,0,nan,0.0,4,1,20
464621938,1603428356999903,340354848,1087564959,428469,400553,0.111,0.258296,0.663,0.989,0.59,0.99,101,6,0.529,0.0,0.529,0.018,1.50151,0,nan,0.0,4,1,20
465627052,1603428357999903,340354852,1087565028,428160,400244,0.144,0.295806,0.657,0.978,0.59,0.99,101,24,0.49,-0.122,0.475,0.319,1.56517,0,nan,0.0,4,1,20
466624756,1603428358999902,340354848,1087565087,428423,400507,0.185,0.250097,0.651,0.97,0.59,0.99,101,12,0.614,0.085,0.609,-0.62,1.43587,0,nan,0.0,4,1,20
467637955,1603428359999902,340354853,1087565152,428689,400773,0.126,0.247036,0.647,0.965,0.59,0.99,102,14,0.606,0.094,0.599,0.059,1.39423,0,nan,0.0,4,1,20
468622089,1603428360999901,340354855,1087565223,428338,400422,0.185,0.296798,0.644,0.961,0.59,0.99,108,14,0.599,0.074,0.594,0.42,1.57309,0,nan,0.0,4,1,20
469612939,1603428361999900,340354850,1087565308,428004,400089,0.166,0.217909,0.642,0.959,0.59,0.99,109,6,0.849,-0.18,0.829,0.261,1.72672,0,nan,0.0,4,1,20
470614949,1603428362999900,340354840,1087565401,428032,400117,0.137,0.187492,0.649,0.963,0.59,0.99,86,3,0.86,0.019,0.859,-0.242,1.61113,0,nan,0.0,4,1,20
471618940,1603428363999899,340354845,1087565471,428057,400142,0.186,0.715828,0.653,0.96,0.59,0.99,86,3,0.396,-0.001,0.396,-0.154,1.54602,0,nan,0.0,4,1,20
472617977,1603428364999899,340354850,1087565536,428280,400365,0.143,0.224408,0.655,0.962,0.59,0.99,86,4,0.714,0.003,0.714,-0.21,1.52644,0,nan,0.0,4,1,20
473625970,1603428365999898,340354841,1087565620,427805,399889,0.131,0.141012,0.653,0.962,0.59,0.99,86,4,1.109,-0.617,0.921,0.158,1.99758,0,nan,0.0,4,1,20
474617983,1603428366999898,340354808,1087565716,427738,399823,0.184,0.300411,0.656,0.968,0.59,0.99,86,3,0.715,-0.264,0.664,-0.152,1.94996,0,nan,0.0,4,1,20
475611026,1603428367999897,340354802,1087565790,427616,399700,0.21,0.476317,0.66,0.975,0.62,1.03,86,3,0.705,-0.026,0.705,0.692,1.68169,0,nan,0.0,4,1,19
476621252,1603428368999896,340354802,1087565861,427387,399471,0.181,0.553574,0.683,0.993,0.62,1.03,86,3,0.373,0.096,0.36,-0.031,1.53937,0,nan,0.0,4,1,19
477616943,1603428369999896,340354806,1087565900,427501,399585,0.164,0.590549,0.694,1.001,0.65,1.04,86,4,0.443,0.074,0.437,-0.195,1.46222,0,nan,0.0,4,1,18
478614946,1603428370999895,340354803,1087565961,427693,399777,0.173,0.37419,0.701,1.01,0.59,0.99,86,3,0.597,-0.095,0.589,-0.111,1.70731,0,nan,0.0,4,1,20
479627001,1603428371999895,340354809,1087566048,427568,399652,0.138,0.225514,0.7,1.012,0.59,0.99,85,3,0.835,0.269,0.791,0.054,1.38268,0,nan,0.0,4,1,20
480621943,1603428372999894,340354797,1087566153,427652,399737,0.225,0.259171,0.719,1.034,0.59,0.99,85,3,1.044,-0.287,1.003,-0.064,1.80811,0,nan,0.0,4,1,20
481617948,1603428373999893,340354794,1087566263,427555,399639,0.19,0.322932,0.732,1.049,0.59,0.99,80,3,0.886,-0.069,0.883,0.024,1.5966,0,nan,0.0,4,1,20
482613942,1603428374999893,340354788,1087566372,427524,399609,0.24,0.357603,0.753,1.069,0.62,1.03,80,3,0.921,0.234,0.891,0.022,1.45969,0,nan,0.0,4,1,19
483612141,1603428375999892,340354794,1087566471,427612,399696,0.131,0.217551,0.753,1.076,0.65,1.04,80,2,0.838,0.026,0.837,0.007,1.52973,0,nan,0.0,4,1,18
484609942,1603428376999892,340354793,1087566572,427827,399912,0.17,0.140312,0.747,1.073,0.65,1.04,80,3,1.09,-0.367,1.027,-0.48,1.8176,0,nan,0.0,4,1,18
485626963,1603428377999891,340354789,1087566678,427745,399830,0.178,0.258269,0.739,1.067,0.59,0.99,80,3,1.01,-0.053,1.008,0.177,1.61955,0,nan,0.0,4,1,20
486611083,1603428378999891,340354789,1087566787,427444,399528,0.202,0.307635,0.746,1.08,0.59,0.99,80,7,1.022,-0.063,1.021,0.218,1.66674,0,nan,0.0,4,1,20
487616434,1603428379999890,340354790,1087566913,427296,399380,0.127,0.243737,0.744,1.066,0.59,0.99,86,7,1.008,-0.069,1.006,0.183,1.61144,0,nan,0.0,4,1,20
488615972,1603428380999889,340354797,1087567031,427327,399412,0.145,0.171877,0.755,1.078,0.59,0.99,86,5,1.057,0.231,1.031,-0.242,1.3895,0,nan,0.0,4,1,20
489618415,1603428381999889,340354782,1087567156,427887,399971,0.191,0.21869,0.755,1.086,0.62,1.03,86,5,1.197,-0.323,1.153,-0.041,1.738,0,nan,0.0,4,1,19
490615940,1603428382999888,340354768,1087567278,427985,400070,0.134,0.215922,0.766,1.086,0.59,0.99,92,2,1.036,0.093,1.032,-0.038,1.55392,0,nan,0.0,4,1,20
491626943,1603428383999888,340354773,1087567365,428107,400192,0.17,0.352734,0.776,1.094,0.59,0.99,92,4,0.749,-0.096,0.743,0.068,1.64687,0,nan,0.0,4,1,20
492615941,1603428384999887,340354754,1087567444,427934,400018,0.178,0.263534,0.79,1.112,0.59,0.99,92,3,0.822,-0.174,0.803,0.304,1.80242,0,nan,0.0,4,1,20
493614015,1603428385999887,340354744,1087567520,427670,399755,0.225,0.501651,0.785,1.115,0.59,0.99,91,2,0.619,-0.047,0.617,0.065,1.62738,0,nan,0.0,4,1,20
494610953,1603428386999886,340354740,1087567592,427953,400038,0.135,0.23344,0.806,1.142,0.62,1.03,91,4,0.672,0.127,0.66,-0.084,1.40636,0,nan,0.0,4,1,19
495627223,1603428387999885,340354746,1087567676,427749,399833,0.169,0.269649,0.792,1.128,0.62,1.03,92,4,0.722,0.097,0.716,0.33,1.44141,0,nan,0.0,4,1,19
496607944,1603428388999885,340354734,1087567769,427656,399740,0.245,0.406431,0.794,1.127,0.62,1.03,92,4,0.835,-0.185,0.814,-0.01,1.76628,0,nan,0.0,4,1,19
497634975,1603428389999884,340354713,1087567870,427847,399932,0.185,0.188525,0.82,1.144,0.62,1.03,92,8,0.895,-0.205,0.871,-0.276,1.80177,0,nan,0.0,4,1,19
498616457,1603428390999884,340354712,1087567974,427705,399790,0.128,0.145834,0.797,1.12,0.62,1.03,69,15,1.026,0.034,1.025,0.097,1.59312,0,nan,0.0,4,1,19
499618940,1603428391999883,340354723,1087568095,427401,399485,0.135,0.147907,0.778,1.101,0.61,1.01,79,24,1.077,0.062,1.075,-0.086,1.53207,0,nan,0.0,4,1,19
500621967,1603428392999883,340354737,1087568217,427688,399773,0.146,0.139356,0.761,1.085,0.59,1.0,90,6,1.112,-0.07,1.11,-0.365,1.59952,0,nan,0.0,4,1,20
501627482,1603428393999882,340354710,1087568338,427666,399751,0.112,0.118004,0.747,1.066,0.59,1.0,90,8,1.153,-0.264,1.122,0.368,1.81422,0,nan,0.0,4,1,20
502620090,1603428394999881,340354705,1087568445,427782,399867,0.179,0.20945,0.743,1.061,0.59,1.0,96,5,0.711,0.115,0.702,-0.649,1.50183,0,nan,0.0,4,1,20
503634983,1603428395999881,340354711,1087568534,427905,399989,0.12,0.183063,0.73,1.049,0.59,1.0,96,8,0.8,-0.072,0.796,0.063,1.51568,0,nan,0.0,4,1,20
504617942,1603428396999880,340354703,1087568601,428057,400142,0.202,0.433473,0.725,1.042,0.59,1.0,96,12,0.621,-0.017,0.621,-0.217,1.6519,0,nan,0.0,4,1,20
505615946,1603428397999880,340354693,1087568683,428190,400274,0.173,0.285278,0.734,1.057,0.59,1.0,96,7,0.902,-0.12,0.894,0.414,1.63502,0,nan,0.0,4,1,20
506619949,1603428398999879,340354685,1087568790,427902,399986,0.183,0.311162,0.753,1.079,0.59,1.0,96,7,0.947,-0.104,0.942,0.075,1.67464,0,nan,0.0,4,1,20
507623946,1603428399999879,340354670,1087568912,428178,400263,0.156,0.121583,0.743,1.068,0.59,1.0,96,9,1.229,-0.156,1.219,-0.548,1.70665,0,nan,0.0,4,1,20
508618979,1603428400999878,340354675,1087569048,428390,400475,0.158,0.182881,0.745,1.073,0.59,1.0,96,6,1.089,0.04,1.088,0.016,1.55239,0,nan,0.0,4,1,20
509634948,1603428401999877,340354680,1087569178,428363,400448,0.158,0.227714,0.742,1.073,0.59,1.0,96,8,1.217,0.097,1.213,0.153,1.48678,0,nan,0.0,4,1,20
510624943,1603428402999877,340354669,1087569313,428146,400230,0.172,0.203081,0.742,1.071,0.59,1.0,96,6,1.023,-0.1,1.018,-0.134,1.66189,0,nan,0.0,4,1,20
511625011,1603428403999876,340354667,1087569413,428297,400382,0.165,0.238308,0.74,1.067,0.59,1.0,96,7,0.844,0.026,0.844,-0.381,1.54251,0,nan,0.0,4,1,20
512622961,1603428404999876,340354681,1087569500,428334,400419,0.145,0.163801,0.727,1.055,0.59,1.0,96,7,0.912,0.273,0.87,0.194,1.3618,0,nan,0.0,4,1,20
513627941,1603428405999875,340354689,1087569605,428305,400390,0.164,0.216673,0.723,1.043,0.59,1.0,103,15,1.04,-0.173,1.025,-0.117,1.63077,0,nan,0.0,4,1,20
514616958,1603428406999875,340354673,1087569717,428440,400525,0.153,0.175409,0.728,1.049,0.59,1.0,103,27,1.074,-0.226,1.05,0.105,1.76454,0,nan,0.0,4,1,20
515639949,1603428407999874,340354650,1087569825,428453,400538,0.143,0.14306,0.725,1.05,0.59,1.0,96,9,1.143,-0.264,1.112,-0.327,1.80225,0,nan,0.0,4,1,20
516621266,1603428408999873,340354639,1087569931,428228,400313,0.141,0.176557,0.714,1.037,0.59,1.0,96,7,0.818,-0.139,0.806,0.405,1.73755,0,nan,0.0,4,1,20
517627277,1603428409999873,340354634,1087569998,427975,400060,0.151,0.453371,0.715,1.038,0.59,1.0,96,6,0.534,0.021,0.534,-0.068,1.58937,0,nan,0.0,4,1,20
518625265,1603428410999872,340354637,1087570074,428292,400376,0.208,0.273792,0.717,1.038,0.59,1.0,96,8,0.927,0.042,0.926,-0.69,1.52471,0,nan,0.0,4,1,20
519626983,1603428411999872,340354629,1087570178,428176,400261,0.175,0.224189,0.723,1.043,0.59,1.0,96,5,1.039,-0.067,1.037,0.315,1.68182,0,nan,0.0,4,1,20
520615942,1603428412999871,340354619,1087570293,428156,400241,0.138,0.21679,0.729,1.049,0.59,1.0,96,6,0.986,-0.141,0.976,-0.07,1.65742,0,nan,0.0,4,1,20
521626941,1603428413999870,340354615,1087570412,428264,400349,0.151,0.182671,0.745,1.071,0.59,1.0,83,4,1.06,0.012,1.06,-0.083,1.60012,0,nan,0.0,4,1,20
522618695,1603428414999870,340354607,1087570543,427854,399939,0.153,0.145176,0.751,1.082,0.59,1.0,84,3,1.301,-0.114,1.295,0.439,1.60572,0,nan,0.0,4,1,20
523616249,1603428415999869,340354600,1087570680,427733,399818,0.219,0.250869,0.77,1.105,0.59,1.0,84,4,1.211,-0.212,1.193,-0.13,1.68608,0,nan,0.0,4,1,20
524611970,1603428416999869,340354586,1087570813,428001,400086,0.159,0.156693,0.776,1.115,0.62,1.03,83,2,1.101,0.031,1.101,-0.405,1.57957,0,nan,0.0,4,1,19
525618941,1603428417999868,340354581,1087570944,427840,399925,0.147,0.174485,0.77,1.111,0.59,1.0,83,2,1.195,-0.114,1.19,0.187,1.61698,0,nan,0.0,4,1,20
526617973,1603428418999868,340354568,1087571046,427607,399692,0.205,0.458638,0.783,1.123,0.62,1.03,83,3,0.622,-0.191,0.592,0.083,1.72515,0,nan,0.0,4,1,19
527629732,1603428419999867,340354553,1087571125,427820,399905,0.263,0.348314,0.807,1.149,0.62,1.03,84,3,0.84,-0.3,0.784,-0.186,1.85326,0,nan,0.0,4,1,19
528614947,1603428420999866,340354553,1087571218,427950,400035,0.144,0.161385,0.807,1.146,0.62,1.03,83,4,0.937,-0.204,0.915,-0.341,1.72097,0,nan,0.0,4,1,19
529612945,1603428421999866,340354539,1087571315,428287,400372,0.167,0.318067,0.802,1.141,0.62,1.03,83,3,0.902,-0.101,0.897,0.097,1.66345,0,nan,0.0,4,1,19
530617942,1603428422999865,340354529,1087571415,427958,400043,0.154,0.222841,0.807,1.144,0.59,1.0,83,3,0.868,-0.015,0.868,0.178,1.62064,0,nan,0.0,4,1,20
531614944,1603428423999865,340354527,1087571519,427556,399642,0.107,0.146556,0.788,1.122,0.59,1.0,83,4,0.907,0.007,0.907,0.096,1.58811,0,nan,0.0,4,1,20
532617139,1603428424999864,340354532,1087571627,427381,399466,0.135,0.18014,0.771,1.105,0.59,1.0,83,9,0.865,0.003,0.865,-0.073,1.56988,0,nan,0.0,4,1,20
533623214,1603428425999864,340354497,1087571726,427503,399588,0.203,0.237225,0.771,1.114,0.59,1.0,89,10,0.984,-0.3,0.938,-0.103,1.93059,0,nan,0.0,4,1,20
534616790,1603428426999863,340354482,1087571827,427308,399394,0.186,0.263425,0.777,1.12,0.62,1.03,89,8,0.875,-0.008,0.875,0.076,1.61474,0,nan,0.0,4,1,19
535610077,1603428427999862,340354481,1087571920,427452,399537,0.243,0.282279,0.782,1.129,0.59,1.0,89,4,0.932,-0.233,0.903,-0.389,1.76975,0,nan,0.0,4,1,20
536618788,1603428428999862,340354476,1087572025,427593,399678,0.146,0.160861,0.778,1.126,0.59,1.0,89,3,1.001,0.035,1.0,0.344,1.5976,0,nan,0.0,4,1,20
537618943,1603428429999861,340354480,1087572143,427368,399454,0.137,0.166963,0.772,1.123,0.59,1.0,89,5,1.116,0.046,1.115,0.07,1.52353,0,nan,0.0,4,1,20
538617946,1603428430999861,340354482,1087572268,427287,399373,0.168,0.184654,0.776,1.125,0.59,1.0,89,7,1.187,-0.042,1.187,-0.17,1.58625,0,nan,0.0,4,1,20
539630958,1603428431999860,340354474,1087572393,427554,399639,0.16,0.217789,0.77,1.117,0.59,1.0,89,8,0.968,-0.039,0.967,-0.359,1.61719,0,nan,0.0,4,1,20
540612974,1603428432999860,340354460,1087572507,427597,399682,0.249,0.391133,0.782,1.132,0.62,1.03,89,3,0.86,-0.189,0.838,-0.151,1.74238,0,nan,0.0,4,1,19
541617974,1603428433999859,340354445,1087572594,427580,399666,0.142,0.192654,0.79,1.139,0.69,1.23,83,3,0.827,-0.121,0.818,0.345,1.72063,0,nan,0.0,4,1,17
542609943,1603428434999858,340354449,1087572691,427367,399452,0.172,0.355946,0.796,1.15,0.62,1.03,83,3,0.895,0.123,0.887,0.003,1.46651,0,nan,0.0,4,1,19
543610595,1603428435999858,340354439,1087572790,427470,399555,0.21,0.403502,0.803,1.157,0.59,1.0,83,7,0.765,-0.012,0.765,-0.282,1.6555,0,nan,0.0,4,1,20
544613943,1603428436999857,340354437,1087572914,427644,399729,0.193,0.23585,0.817,1.173,0.59,1.0,77,7,1.235,0.005,1.235,0.44,1.56287,0,nan,0.0,4,1,20
545626305,1603428437999857,340354436,1087573050,427137,399222,0.154,0.16797,0.822,1.174,0.59,1.0,77,7,1.09,-0.186,1.074,0.606,1.67044,0,nan,0.0,4,1,20
546614948,1603428438999856,340354425,1087573145,427244,399330,0.233,0.503854,0.824,1.174,0.59,1.0,83,3,0.605,-0.273,0.54,-0.218,1.90073,0,nan,0.0,4,1,20
547619002,1603428439999856,340354420,1087573211,427173,399258,0.151,0.426599,0.814,1.16,0.59,1.0,83,3,0.625,-0.023,0.624,0.085,1.6435,0,nan,0.0,4,1,20
548616221,1603428440999855,340354429,1087573296,427118,399203,0.155,0.235416,0.805,1.155,0.59,1.0,83,3,0.792,0.145,0.779,0.151,1.42232,0,nan,0.0,4,1,20
549607961,1603428441999854,340354443,1087573383,427139,399224,0.214,0.308239,0.808,1.161,0.59,1.0,83,3,0.803,-0.034,0.803,-0.194,1.56257,0,nan,0.0,4,1,20
550610003,1603428442999854,340354425,1087573488,427335,399421,0.234,0.358658,0.823,1.182,0.62,1.03,88,4,0.904,-0.182,0.886,0.3,1.74504,0,nan,0.0,4,1,19
551627944,1603428443999853,340354402,1087573606,427123,399209,0.146,0.164702,0.844,1.202,0.66,1.21,88,3,1.109,0.015,1.109,-0.134,1.60869,0,nan,0.0,4,1,18
552616038,1603428444999853,340354397,1087573711,427405,399490,0.127,0.183089,0.822,1.183,0.66,1.21,73,8,0.779,0.092,0.773,0.234,1.5729,0,nan,0.0,4,1,18
553625983,1603428445999852,340354403,1087573772,426939,399025,0.167,0.442245,0.808,1.168,0.59,1.0,83,8,0.342,-0.013,0.342,0.228,1.56825,0,nan,0.0,4,1,20
554621205,1603428446999852,340354414,1087573823,427037,399122,0.147,0.210881,0.797,1.162,0.59,1.0,83,8,0.748,0.234,0.711,-0.195,1.28934,0,nan,0.0,4,1,20
555635974,1603428447999851,340354434,1087573909,427336,399422,0.144,0.224511,0.792,1.155,0.59,1.0,89,6,0.907,0.336,0.843,-0.259,1.24263,0,nan,0.0,4,1,20
556617940,1603428448999850,340354448,1087574003,427103,399189,0.172,0.229554,0.773,1.134,0.59,1.0,95,12,0.62,0.052,0.618,0.227,1.43012,0,nan,0.0,4,1,20
557633978,1603428449999850,340354505,1087574086,426699,398785,0.186,0.135364,0.761,1.119,0.59,1.0,101,7,1.25,0.841,0.924,0.418,0.820027,0,nan,0.0,4,1,20
558619945,1603428450999849,340354568,1087574173,426434,398520,0.136,0.143669,0.751,1.111,0.59,1.0,102,8,1.002,0.571,0.823,-0.097,0.917868,0,nan,0.0,4,1,20
