timestamp,q[0],q[1],q[2],q[3],delta_q_reset[0],delta_q_reset[1],delta_q_reset[2],delta_q_reset[3],quat_reset_counter
174744018,0.755113,0.00344696,-0.0110709,-0.655492,0.999673,-8.95192e-10,-1.14374e-09,0.025565,4
174749018,0.755095,0.00343183,-0.0110669,-0.655513,0.999673,-8.95192e-10,-1.14374e-09,0.025565,4
174798628,0.755191,0.00359724,-0.0111339,-0.655401,0.999673,-8.95192e-10,-1.14374e-09,0.025565,4
174848284,0.754989,0.00346224,-0.0111985,-0.655632,0.999673,-8.95192e-10,-1.14374e-09,0.025565,4
174897941,0.755028,0.00357133,-0.0112285,-0.655587,0.999673,-8.95192e-10,-1.14374e-09,0.025565,4
174942633,0.755174,0.00372574,-0.0113858,-0.655415,0.999673,-8.95192e-10,-1.14374e-09,0.025565,4
174997256,0.754882,0.00354803,-0.0111973,-0.655755,0.999673,-8.95192e-10,-1.14374e-09,0.025565,4
175047086,0.754975,0.0034228,-0.0110199,-0.655652,0.999673,-8.95192e-10,-1.14374e-09,0.025565,4
175096570,0.755123,0.00329482,-0.0108558,-0.655485,0.999673,-8.95192e-10,-1.14374e-09,0.025565,4
175146228,0.755055,0.00368159,-0.0110165,-0.655559,0.999673,-8.95192e-10,-1.14374e-09,0.025565,4
175195884,0.755119,0.00364902,-0.011243,-0.655481,0.999673,-8.95192e-10,-1.14374e-09,0.025565,4
175245542,0.755142,0.00333115,-0.0111533,-0.655458,0.999673,-8.95192e-10,-1.14374e-09,0.025565,4
175295215,0.755134,0.00341192,-0.0107493,-0.655474,0.999673,-8.95192e-10,-1.14374e-09,0.025565,4
175349826,0.755115,0.00341027,-0.0107923,-0.655495,0.999673,-8.95192e-10,-1.14374e-09,0.025565,4
175394515,0.755289,0.00360977,-0.0111714,-0.655286,0.999673,-8.95192e-10,-1.14374e-09,0.025565,4
175444171,0.75552,0.00359103,-0.0113791,-0.655017,0.999673,-8.95192e-10,-1.14374e-09,0.025565,4
175498792,0.755576,0.00355,-0.0113331,-0.654953,0.999673,-8.95192e-10,-1.14374e-09,0.025565,4
175548456,0.755616,0.00352919,-0.0111746,-0.654909,0.999673,-8.95192e-10,-1.14374e-09,0.025565,4
175598290,0.755537,0.00364244,-0.0111834,-0.655,0.999673,-8.95192e-10,-1.14374e-09,0.025565,4
175642833,0.755464,0.00355337,-0.0110802,-0.655087,0.999673,-8.95192e-10,-1.14374e-09,0.025565,4
175697422,0.755585,0.00363425,-0.0112323,-0.654944,0.999673,-8.95192e-10,-1.14374e-09,0.025565,4
175752051,0.755693,0.00374404,-0.0114026,-0.654817,0.999673,-8.95192e-10,-1.14374e-09,0.025565,4
175796735,0.755643,0.00345823,-0.010546,-0.65489,0.999673,-8.95192e-10,-1.14374e-09,0.025565,4
175846501,0.755657,0.00355136,-0.0104132,-0.654876,0.999673,-8.95192e-10,-1.14374e-09,0.025565,4
175896052,0.755706,0.00365985,-0.0107884,-0.654812,0.999673,-8.95192e-10,-1.14374e-09,0.025565,4
175945706,0.755881,0.00381584,-0.0111711,-0.654603,0.999673,-8.95192e-10,-1.14374e-09,0.025565,4
175995364,0.756092,0.00380861,-0.0114488,-0.654355,0.999673,-8.95192e-10,-1.14374e-09,0.025565,4
176045017,0.75622,0.00374404,-0.0112966,-0.654209,0.999673,-8.95192e-10,-1.14374e-09,0.025565,4
176094706,0.756111,0.00378935,-0.0110124,-0.65434,0.999673,-8.95192e-10,-1.14374e-09,0.025565,4
176144335,0.756005,0.00384488,-0.0110232,-0.654462,0.999673,-8.95192e-10,-1.14374e-09,0.025565,4
176198958,0.756104,0.00393057,-0.0110389,-0.654347,0.999673,-8.95192e-10,-1.14374e-09,0.025565,4
176248615,0.75616,0.00381231,-0.0113309,-0.654278,0.999673,-8.95192e-10,-1.14374e-09,0.025565,4
176298272,0.75621,0.00394976,-0.0114384,-0.654217,0.999673,-8.95192e-10,-1.14374e-09,0.025565,4
176342963,0.756213,0.00360701,-0.0108371,-0.654225,0.999673,-8.95192e-10,-1.14374e-09,0.025565,4
176397720,0.756399,0.00393499,-0.0116749,-0.653995,0.999673,-8.95192e-10,-1.14374e-09,0.025565,4
176447243,0.756512,0.00397383,-0.0123362,-0.653851,0.999673,-8.95192e-10,-1.14374e-09,0.025565,4
176496901,0.756554,0.00339387,-0.0104141,-0.653839,0.999673,-8.95192e-10,-1.14374e-09,0.025565,4
176546559,0.75624,0.00438912,-0.0110002,-0.654187,0.999673,-8.95192e-10,-1.14374e-09,0.025565,4
176596215,0.75649,0.00379125,-0.0111188,-0.6539,0.999673,-8.95192e-10,-1.14374e-09,0.025565,4
176645904,0.756681,0.00411737,-0.0113446,-0.653673,0.999673,-8.95192e-10,-1.14374e-09,0.025565,4
176695529,0.75647,0.00383251,-0.0112389,-0.65392,0.999673,-8.95192e-10,-1.14374e-09,0.025565,4
176745186,0.756728,0.00358807,-0.0117205,-0.653614,0.999673,-8.95192e-10,-1.14374e-09,0.025565,4
176794843,0.756748,0.00402646,-0.0115028,-0.653593,0.999673,-8.95192e-10,-1.14374e-09,0.025565,4
176844504,0.756746,0.00387303,-0.0113258,-0.6536,0.999673,-8.95192e-10,-1.14374e-09,0.025565,4
176899140,0.756948,0.00364989,-0.0110181,-0.653372,0.999673,-8.95192e-10,-1.14374e-09,0.025565,4
176948973,0.756639,0.0038288,-0.0112841,-0.653725,0.999673,-8.95192e-10,-1.14374e-09,0.025565,4
176993472,0.756932,0.00354641,-0.0111201,-0.65339,0.999673,-8.95192e-10,-1.14374e-09,0.025565,4
177043129,0.756949,0.00356595,-0.0119474,-0.653355,0.999673,-8.95192e-10,-1.14374e-09,0.025565,4
177097752,0.756943,0.00406168,-0.0106309,-0.653382,0.999673,-8.95192e-10,-1.14374e-09,0.025565,4
177147410,0.757083,0.00362382,-0.0106666,-0.653221,0.999673,-8.95192e-10,-1.14374e-09,0.025565,4
177197161,0.757159,0.00334733,-0.0114549,-0.653121,0.999673,-8.95192e-10,-1.14374e-09,0.025565,4
177246726,0.757266,0.00412798,-0.011694,-0.652988,0.999673,-8.95192e-10,-1.14374e-09,0.025565,4
177296381,0.757209,0.00423509,-0.0113793,-0.65306,0.999673,-8.95192e-10,-1.14374e-09,0.025565,4
177346071,0.757307,0.00416701,-0.0107608,-0.652957,0.999673,-8.95192e-10,-1.14374e-09,0.025565,4
177395698,0.757337,0.0037657,-0.0109066,-0.652922,0.999673,-8.95192e-10,-1.14374e-09,0.025565,4
177445403,0.757237,0.0037626,-0.0114642,-0.653028,0.999673,-8.95192e-10,-1.14374e-09,0.025565,4
177495009,0.757407,0.00380365,-0.0115502,-0.652829,0.999673,-8.95192e-10,-1.14374e-09,0.025565,4
177544667,0.7575,0.00362568,-0.0111261,-0.65273,0.999673,-8.95192e-10,-1.14374e-09,0.025565,4
177599290,0.757386,0.00397406,-0.0112437,-0.652858,0.999673,-8.95192e-10,-1.14374e-09,0.025565,4
177648948,0.757465,0.00415408,-0.0113214,-0.652765,0.999673,-8.95192e-10,-1.14374e-09,0.025565,4
177693638,0.757462,0.00429246,-0.0116486,-0.652761,0.999673,-8.95192e-10,-1.14374e-09,0.025565,4
177743476,0.757495,0.0041703,-0.0115586,-0.652725,0.999673,-8.95192e-10,-1.14374e-09,0.025565,4
177797920,0.757711,0.0036123,-0.0109959,-0.652487,0.999673,-8.95192e-10,-1.14374e-09,0.025565,4
177847575,0.757817,0.00360298,-0.0112338,-0.652361,0.999673,-8.95192e-10,-1.14374e-09,0.025565,4
177897233,0.757724,0.00395457,-0.0117348,-0.652458,0.999673,-8.95192e-10,-1.14374e-09,0.025565,4
177946889,0.757646,0.00416281,-0.0114405,-0.652552,0.999673,-8.95192e-10,-1.14374e-09,0.025565,4
177996600,0.75785,0.00370188,-0.0108949,-0.652327,0.999673,-8.95192e-10,-1.14374e-09,0.025565,4
178046204,0.757853,0.00363463,-0.0112202,-0.652319,0.999673,-8.95192e-10,-1.14374e-09,0.025565,4
178095861,0.757775,0.0040928,-0.0120358,-0.652392,0.999673,-8.95192e-10,-1.14374e-09,0.025565,4
178145518,0.75781,0.00374595,-0.0109608,-0.652372,0.999673,-8.95192e-10,-1.14374e-09,0.025565,4
178195172,0.757701,0.00370308,-0.0115106,-0.65249,0.999673,-8.95192e-10,-1.14374e-09,0.025565,4
178244834,0.757806,0.00421821,-0.0107297,-0.652378,0.999673,-8.95192e-10,-1.14374e-09,0.025565,4
178299459,0.757773,0.00427126,-0.0114215,-0.652404,0.999673,-8.95192e-10,-1.14374e-09,0.025565,4
178349115,0.757943,0.00363458,-0.0108756,-0.65222,0.999673,-8.95192e-10,-1.14374e-09,0.025565,4
178393804,0.757814,0.00387455,-0.0115568,-0.652357,0.999673,-8.95192e-10,-1.14374e-09,0.025565,4
178443462,0.757833,0.0041169,-0.0107077,-0.652348,0.999673,-8.95192e-10,-1.14374e-09,0.025565,4
178498093,0.757847,0.0042871,-0.0115588,-0.652315,0.999673,-8.95192e-10,-1.14374e-09,0.025565,4
178547854,0.757861,0.00358003,-0.0109446,-0.652314,0.999673,-8.95192e-10,-1.14374e-09,0.025565,4
178597399,0.757854,0.0038786,-0.0118448,-0.652306,0.999673,-8.95192e-10,-1.14374e-09,0.025565,4
178647060,0.757786,0.00383985,-0.0110888,-0.652398,0.999673,-8.95192e-10,-1.14374e-09,0.025565,4
178696713,0.757729,0.0040198,-0.0114488,-0.652457,0.999673,-8.95192e-10,-1.14374e-09,0.025565,4
178746371,0.757766,0.00379323,-0.0112841,-0.652418,0.999673,-8.95192e-10,-1.14374e-09,0.025565,4
178796048,0.75775,0.00389771,-0.0111594,-0.652438,0.999673,-8.95192e-10,-1.14374e-09,0.025565,4
178845685,0.757715,0.00391562,-0.0110505,-0.65248,0.999673,-8.95192e-10,-1.14374e-09,0.025565,4
178895342,0.757678,0.00403468,-0.0114645,-0.652515,0.999673,-8.95192e-10,-1.14374e-09,0.025565,4
178944999,0.7577,0.00379767,-0.0112111,-0.652496,0.999673,-8.95192e-10,-1.14374e-09,0.025565,4
178999622,0.757648,0.00440115,-0.0115765,-0.652546,0.999673,-8.95192e-10,-1.14374e-09,0.025565,4
179049325,0.757691,0.00318567,-0.0114196,-0.652505,0.999673,-8.95192e-10,-1.14374e-09,0.025565,4
179094123,0.757748,0.00343463,-0.0117513,-0.652432,0.999673,-8.95192e-10,-1.14374e-09,0.025565,4
179143678,0.75771,0.00415942,-0.0117167,-0.652473,0.999673,-8.95192e-10,-1.14374e-09,0.025565,4
179198256,0.757709,0.00382332,-0.0117428,-0.652475,0.999673,-8.95192e-10,-1.14374e-09,0.025565,4
179247910,0.757531,0.003747,-0.0109363,-0.652697,0.999673,-8.95192e-10,-1.14374e-09,0.025565,4
179297566,0.757664,0.0035907,-0.0114621,-0.652534,0.999673,-8.95192e-10,-1.14374e-09,0.025565,4
179347312,0.757656,0.00380489,-0.0113208,-0.652544,0.999673,-8.95192e-10,-1.14374e-09,0.025565,4
179396880,0.75751,0.00366994,-0.0115566,-0.652711,0.999673,-8.95192e-10,-1.14374e-09,0.025565,4
179446588,0.757708,0.00366167,-0.0107979,-0.652495,0.999673,-8.95192e-10,-1.14374e-09,0.025565,4
179496199,0.757606,0.00405275,-0.0113041,-0.652601,0.999673,-8.95192e-10,-1.14374e-09,0.025565,4
179545851,0.757463,0.00364645,-0.0114958,-0.652767,0.999673,-8.95192e-10,-1.14374e-09,0.025565,4
179595551,0.75766,0.00381577,-0.0108654,-0.652547,0.999673,-8.95192e-10,-1.14374e-09,0.025565,4
179645166,0.757593,0.00379686,-0.0114697,-0.652615,0.999673,-8.95192e-10,-1.14374e-09,0.025565,4
179699792,0.757627,0.00361959,-0.0114797,-0.652577,0.999673,-8.95192e-10,-1.14374e-09,0.025565,4
179744481,0.757525,0.00397272,-0.0113902,-0.652695,0.999673,-8.95192e-10,-1.14374e-09,0.025565,4
179794138,0.757599,0.00353121,-0.0114428,-0.652611,0.999673,-8.95192e-10,-1.14374e-09,0.025565,4
179843799,0.757531,0.00394537,-0.0110061,-0.652695,0.999673,-8.95192e-10,-1.14374e-09,0.025565,4
179898612,0.757672,0.00356626,-0.0110591,-0.652532,0.999673,-8.95192e-10,-1.14374e-09,0.025565,4
179948081,0.75763,0.00379235,-0.0117871,-0.652567,0.999673,-8.95192e-10,-1.14374e-09,0.025565,4
179997732,0.757507,0.00364247,-0.011367,-0.652718,0.999673,-8.95192e-10,-1.14374e-09,0.025565,4
180047389,0.757419,0.00394212,-0.0108675,-0.652827,0.999673,-8.95192e-10,-1.14374e-09,0.025565,4
180097047,0.757421,0.00364169,-0.0112938,-0.652819,0.999673,-8.95192e-10,-1.14374e-09,0.025565,4
180146749,0.757604,0.00343477,-0.0113909,-0.652606,0.999673,-8.95192e-10,-1.14374e-09,0.025565,4
180196361,0.757414,0.00393218,-0.0112003,-0.652827,0.999673,-8.95192e-10,-1.14374e-09,0.025565,4
180246018,0.757258,0.00396558,-0.0110253,-0.653011,0.999673,-8.95192e-10,-1.14374e-09,0.025565,4
180295676,0.757276,0.00388831,-0.0111099,-0.652989,0.999673,-8.95192e-10,-1.14374e-09,0.025565,4
180345333,0.757323,0.00358911,-0.0110156,-0.652938,0.999673,-8.95192e-10,-1.14374e-09,0.025565,4
180399980,0.757361,0.00340685,-0.0113871,-0.652889,0.999673,-8.95192e-10,-1.14374e-09,0.025565,4
180444830,0.757363,0.00380869,-0.0112985,-0.652885,0.999673,-8.95192e-10,-1.14374e-09,0.025565,4
180494318,0.757361,0.00360743,-0.0113356,-0.652888,0.999673,-8.95192e-10,-1.14374e-09,0.025565,4
180543962,0.757345,0.00378702,-0.0113553,-0.652905,0.999673,-8.95192e-10,-1.14374e-09,0.025565,4
180598630,0.757281,0.00382367,-0.0111132,-0.652983,0.999673,-8.95192e-10,-1.14374e-09,0.025565,4
180648242,0.757245,0.00388008,-0.0112464,-0.653023,0.999673,-8.95192e-10,-1.14374e-09,0.025565,4
180693008,0.757428,0.00353339,-0.0115479,-0.652807,0.999673,-8.95192e-10,-1.14374e-09,0.025565,4
180747556,0.757362,0.00404752,-0.0115447,-0.652881,0.999673,-8.95192e-10,-1.14374e-09,0.025565,4
180797214,0.757363,0.00363484,-0.0118161,-0.652877,0.999673,-8.95192e-10,-1.14374e-09,0.025565,4
180846871,0.757439,0.00337343,-0.01187,-0.652789,0.999673,-8.95192e-10,-1.14374e-09,0.025565,4
180896528,0.757239,0.0037154,-0.0115281,-0.653026,0.999673,-8.95192e-10,-1.14374e-09,0.025565,4
180946245,0.757307,0.00357772,-0.0117721,-0.652943,0.999673,-8.95192e-10,-1.14374e-09,0.025565,4
180995842,0.757408,0.00324194,-0.0118615,-0.652826,0.999673,-8.95192e-10,-1.14374e-09,0.025565,4
181045500,0.757605,0.00368404,-0.0117138,-0.652598,0.999673,-8.95192e-10,-1.14374e-09,0.025565,4
181100123,0.757327,0.0035386,-0.0117438,-0.652921,0.999673,-8.95192e-10,-1.14374e-09,0.025565,4
181144814,0.757352,0.00344858,-0.0118459,-0.65289,0.999673,-8.95192e-10,-1.14374e-09,0.025565,4
181194472,0.757438,0.00372905,-0.0110811,-0.652803,0.999673,-8.95192e-10,-1.14374e-09,0.025565,4
181244269,0.757452,0.00377038,-0.0101876,-0.6528,0.999673,-8.95192e-10,-1.14374e-09,0.025565,4
181298752,0.757432,0.0037214,-0.00917726,-0.652839,0.999673,-8.95192e-10,-1.14374e-09,0.025565,4
181348405,0.757573,0.00405493,-0.00872012,-0.65268,0.999673,-8.95192e-10,-1.14374e-09,0.025565,4
181393100,0.757454,0.00367494,-0.00903806,-0.652815,0.999673,-8.95192e-10,-1.14374e-09,0.025565,4
181447724,0.757224,0.00363232,-0.00978698,-0.653072,0.999673,-8.95192e-10,-1.14374e-09,0.025565,4
181497508,0.757146,0.00374663,-0.0110572,-0.653141,0.999673,-8.95192e-10,-1.14374e-09,0.025565,4
181547038,0.757164,0.00322239,-0.012186,-0.653103,0.999673,-8.95192e-10,-1.14374e-09,0.025565,4
181596695,0.757046,0.00319696,-0.0118144,-0.653247,0.999673,-8.95192e-10,-1.14374e-09,0.025565,4
181646353,0.75708,0.00359013,-0.0102728,-0.653231,0.999673,-8.95192e-10,-1.14374e-09,0.025565,4
181696010,0.757192,0.00402516,-0.00848725,-0.653125,0.999673,-8.95192e-10,-1.14374e-09,0.025565,4
181745687,0.757082,0.00407569,-0.00703478,-0.65327,0.999673,-8.95192e-10,-1.14374e-09,0.025565,4
181800290,0.756941,0.00456048,-0.00712537,-0.653428,0.999673,-8.95192e-10,-1.14374e-09,0.025565,4
181844982,0.757246,0.00405615,-0.00831096,-0.653065,0.999673,-8.95192e-10,-1.14374e-09,0.025565,4
181894639,0.757124,0.00389288,-0.00980644,-0.653186,0.999673,-8.95192e-10,-1.14374e-09,0.025565,4
181944296,0.757675,0.00378012,-0.0103752,-0.652539,0.999673,-8.95192e-10,-1.14374e-09,0.025565,4
181998919,0.75837,0.00384077,-0.0106454,-0.651726,0.999673,-8.95192e-10,-1.14374e-09,0.025565,4
182048702,0.75847,0.00360034,-0.0110221,-0.651605,0.999673,-8.95192e-10,-1.14374e-09,0.025565,4
182093292,0.758347,0.00381855,-0.0114349,-0.65174,0.999673,-8.95192e-10,-1.14374e-09,0.025565,4
182147893,0.758584,0.00391953,-0.0104443,-0.65148,0.999673,-8.95192e-10,-1.14374e-09,0.025565,4
182197564,0.758626,0.00412093,-0.0100269,-0.651436,0.999673,-8.95192e-10,-1.14374e-09,0.025565,4
182247208,0.758714,0.00387505,-0.00924607,-0.651347,0.999673,-8.95192e-10,-1.14374e-09,0.025565,4
182296943,0.759029,0.00415014,-0.0087408,-0.650985,0.999673,-8.95192e-10,-1.14374e-09,0.025565,4
182346522,0.758676,0.00420502,-0.00957497,-0.651384,0.999673,-8.95192e-10,-1.14374e-09,0.025565,4
182396177,0.758808,0.00401329,-0.009049,-0.651239,0.999673,-8.95192e-10,-1.14374e-09,0.025565,4
182445835,0.759013,0.00447397,-0.00886058,-0.651,0.999673,-8.95192e-10,-1.14374e-09,0.025565,4
182495493,0.759516,0.00421683,-0.00835807,-0.650422,0.999673,-8.95192e-10,-1.14374e-09,0.025565,4
182545203,0.759539,0.00431068,-0.00864925,-0.65039,0.999673,-8.95192e-10,-1.14374e-09,0.025565,4
182594969,0.759105,0.00380536,-0.00966206,-0.650886,0.999673,-8.95192e-10,-1.14374e-09,0.025565,4
182644465,0.758622,0.00365138,-0.010332,-0.651438,0.999673,-8.95192e-10,-1.14374e-09,0.025565,4
182699088,0.758316,0.00338467,-0.0100375,-0.651801,0.999673,-8.95192e-10,-1.14374e-09,0.025565,4
182748744,0.758137,0.00358392,-0.0101003,-0.652007,0.999673,-8.95192e-10,-1.14374e-09,0.025565,4
182793436,0.758042,0.00379767,-0.0105605,-0.652109,0.999673,-8.95192e-10,-1.14374e-09,0.025565,4
182848142,0.758087,0.00357873,-0.00918605,-0.652079,0.999673,-8.95192e-10,-1.14374e-09,0.025565,4
182897717,0.7579,0.00410835,-0.00820206,-0.652306,0.999673,-8.95192e-10,-1.14374e-09,0.025565,4
182947373,0.757809,0.00373111,-0.00676569,-0.65243,0.999673,-8.95192e-10,-1.14374e-09,0.025565,4
182997033,0.757173,0.00417633,-0.00584814,-0.653175,0.999673,-8.95192e-10,-1.14374e-09,0.025565,4
183046737,0.757556,0.00421795,-0.00487241,-0.652738,0.999673,-8.95192e-10,-1.14374e-09,0.025565,4
183096345,0.757573,0.00388716,-0.0050386,-0.652719,0.999673,-8.95192e-10,-1.14374e-09,0.025565,4
183146002,0.758089,0.00389331,-0.00468048,-0.652123,0.999673,-8.95192e-10,-1.14374e-09,0.025565,4
183195661,0.759061,0.00422807,-0.00432851,-0.650991,0.999673,-8.95192e-10,-1.14374e-09,0.025565,4
183245340,0.7598,0.00349332,-0.0052661,-0.650126,0.999673,-8.95192e-10,-1.14374e-09,0.025565,4
183294976,0.761345,0.00322539,-0.00458473,-0.648323,0.999673,-8.95192e-10,-1.14374e-09,0.025565,4
183344632,0.763207,0.00330177,-0.00306475,-0.646138,0.999673,-8.95192e-10,-1.14374e-09,0.025565,4
183399405,0.765166,0.00348199,-0.00369276,-0.643813,0.999673,-8.95192e-10,-1.14374e-09,0.025565,4
183443947,0.766565,0.00361445,-0.00495801,-0.642138,0.999673,-8.95192e-10,-1.14374e-09,0.025565,4
183493604,0.767823,0.00266126,-0.00488359,-0.640638,0.999673,-8.95192e-10,-1.14374e-09,0.025565,4
183548229,0.769274,0.00284247,-0.00615411,-0.638883,0.999673,-8.95192e-10,-1.14374e-09,0.025565,4
183597885,0.770576,-0.000976972,-0.00583242,-0.637321,0.999673,-8.95192e-10,-1.14374e-09,0.025565,4
183647599,0.772269,-0.00169557,-0.00869176,-0.635234,0.999673,-8.95192e-10,-1.14374e-09,0.025565,4
183697248,0.773559,-0.00464505,-0.0142496,-0.633547,0.999673,-8.95192e-10,-1.14374e-09,0.025565,4
183746856,0.7749,-0.00408182,-0.017209,-0.631836,0.999673,-8.95192e-10,-1.14374e-09,0.025565,4
183796514,0.77588,-0.00545866,-0.0193228,-0.630561,0.999673,-8.95192e-10,-1.14374e-09,0.025565,4
183846219,0.776292,-0.00561564,-0.0197083,-0.63004,0.999673,-8.95192e-10,-1.14374e-09,0.025565,4
183895832,0.776349,-0.00957228,-0.0194086,-0.629932,0.999673,-8.95192e-10,-1.14374e-09,0.025565,4
183945674,0.776142,-0.0126724,-0.0197562,-0.630121,0.999673,-8.95192e-10,-1.14374e-09,0.025565,4
183995145,0.775406,-0.0113427,-0.0216598,-0.63099,0.999673,-8.95192e-10,-1.14374e-09,0.025565,4
184044798,0.774706,-0.0106511,-0.0210127,-0.631883,0.999673,-8.95192e-10,-1.14374e-09,0.025565,4
184099423,0.77369,-0.0116924,-0.0191072,-0.633168,0.999673,-8.95192e-10,-1.14374e-09,0.025565,4
184144114,0.772571,-0.0109606,-0.0197641,-0.634526,0.999673,-8.95192e-10,-1.14374e-09,0.025565,4
184193903,0.771459,-0.009306,-0.0224084,-0.635816,0.999673,-8.95192e-10,-1.14374e-09,0.025565,4
184248395,0.769669,-0.00780307,-0.0241478,-0.637938,0.999673,-8.95192e-10,-1.14374e-09,0.025565,4
184298056,0.76854,-0.00582464,-0.0193829,-0.639481,0.999673,-8.95192e-10,-1.14374e-09,0.025565,4
184347709,0.767129,-0.0043697,-0.0162667,-0.641272,0.999673,-8.95192e-10,-1.14374e-09,0.025565,4
184392401,0.766139,-0.00339535,-0.0175244,-0.642427,0.999673,-8.95192e-10,-1.14374e-09,0.025565,4
184447040,0.764879,-0.00137689,-0.0187922,-0.643898,0.999673,-8.95192e-10,-1.14374e-09,0.025565,4
184496683,0.763856,-0.00107947,-0.0161511,-0.645183,0.999673,-8.95192e-10,-1.14374e-09,0.025565,4
184546339,0.763394,-0.00253169,-0.0137045,-0.645783,0.999673,-8.95192e-10,-1.14374e-09,0.025565,4
184595996,0.762595,-0.00270568,-0.0150566,-0.646696,0.999673,-8.95192e-10,-1.14374e-09,0.025565,4
184645655,0.761872,-0.000583711,-0.0197665,-0.647426,0.999673,-8.95192e-10,-1.14374e-09,0.025565,4
184695312,0.761134,-0.00130734,-0.0209785,-0.648254,0.999673,-8.95192e-10,-1.14374e-09,0.025565,4
184745169,0.760688,-0.00343727,-0.0177025,-0.648867,0.999673,-8.95192e-10,-1.14374e-09,0.025565,4
184799591,0.760069,-0.00357354,-0.0160445,-0.649634,0.999673,-8.95192e-10,-1.14374e-09,0.025565,4
184844283,0.759501,-0.00224863,-0.0172309,-0.650275,0.999673,-8.95192e-10,-1.14374e-09,0.025565,4
184893940,0.758895,-0.000927721,-0.0170405,-0.65099,0.999673,-8.95192e-10,-1.14374e-09,0.025565,4
184948563,0.758403,7.19804e-05,-0.0148794,-0.651616,0.999673,-8.95192e-10,-1.14374e-09,0.025565,4
184998290,0.757589,0.00175613,-0.0145325,-0.652568,0.999673,-8.95192e-10,-1.14374e-09,0.025565,4
185047878,0.757373,0.00376698,-0.0155427,-0.652787,0.999673,-8.95192e-10,-1.14374e-09,0.025565,4
185092570,0.756808,0.00377508,-0.0157721,-0.653436,0.999673,-8.95192e-10,-1.14374e-09,0.025565,4
185147206,0.756071,0.00425603,-0.0159557,-0.654282,0.999673,-8.95192e-10,-1.14374e-09,0.025565,4
185196851,0.755433,0.00280377,-0.0168733,-0.655003,0.999673,-8.95192e-10,-1.14374e-09,0.025565,4
185246507,0.754954,0.00129426,-0.0174298,-0.655545,0.999673,-8.95192e-10,-1.14374e-09,0.025565,4
185296165,0.754384,0.0019378,-0.0165442,-0.656222,0.999673,-8.95192e-10,-1.14374e-09,0.025565,4
185345822,0.753846,0.00295232,-0.0166404,-0.656834,0.999673,-8.95192e-10,-1.14374e-09,0.025565,4
185395479,0.753652,0.00166225,-0.014577,-0.65711,0.999673,-8.95192e-10,-1.14374e-09,0.025565,4
185445137,0.753455,0.00105819,-0.0139967,-0.65735,0.999673,-8.95192e-10,-1.14374e-09,0.025565,4
185499764,0.753242,-0.0014393,-0.0161529,-0.657544,0.999673,-8.95192e-10,-1.14374e-09,0.025565,4
185544557,0.752561,-0.00340362,-0.0180476,-0.658266,0.999673,-8.95192e-10,-1.14374e-09,0.025565,4
185594109,0.752052,-0.00339945,-0.0194072,-0.658809,0.999673,-8.95192e-10,-1.14374e-09,0.025565,4
185648732,0.751476,-0.00198514,-0.0169626,-0.659539,0.999673,-8.95192e-10,-1.14374e-09,0.025565,4
185698393,0.750994,-0.000574963,-0.0171375,-0.660086,0.999673,-8.95192e-10,-1.14374e-09,0.025565,4
185748047,0.750712,-0.000434912,-0.0184861,-0.66037,0.999673,-8.95192e-10,-1.14374e-09,0.025565,4
185792809,0.750616,0.000932356,-0.0193183,-0.660455,0.999673,-8.95192e-10,-1.14374e-09,0.025565,4
185847361,0.75047,0.00305105,-0.0172278,-0.660674,0.999673,-8.95192e-10,-1.14374e-09,0.025565,4
185897091,0.750558,0.000944982,-0.0156949,-0.660617,0.999673,-8.95192e-10,-1.14374e-09,0.025565,4
185946676,0.750679,-7.24693e-06,-0.0143656,-0.660511,0.999673,-8.95192e-10,-1.14374e-09,0.025565,4
185996334,0.750801,0.000893522,-0.0132993,-0.660394,0.999673,-8.95192e-10,-1.14374e-09,0.025565,4
186046003,0.751076,0.00155308,-0.0115109,-0.660114,0.999673,-8.95192e-10,-1.14374e-09,0.025565,4
186095819,0.75112,0.00273989,-0.0099662,-0.660084,0.999673,-8.95192e-10,-1.14374e-09,0.025565,4
186145306,0.750694,0.00548107,-0.0100209,-0.660552,0.999673,-8.95192e-10,-1.14374e-09,0.025565,4
186194963,0.750915,0.00450212,-0.0105422,-0.6603,0.999673,-8.95192e-10,-1.14374e-09,0.025565,4
186244620,0.751362,0.0030366,-0.00945641,-0.659815,0.999673,-8.95192e-10,-1.14374e-09,0.025565,4
186294278,0.751655,0.00442836,-0.00832524,-0.65949,0.999673,-8.95192e-10,-1.14374e-09,0.025565,4
186349105,0.751803,0.00634997,-0.00851423,-0.659302,0.999673,-8.95192e-10,-1.14374e-09,0.025565,4
186398559,0.752706,0.00511109,-0.00800638,-0.658288,0.999673,-8.95192e-10,-1.14374e-09,0.025565,4
186448216,0.753143,0.0044069,-0.0101142,-0.657765,0.999673,-8.95192e-10,-1.14374e-09,0.025565,4
186492908,0.753752,0.0040431,-0.0114968,-0.657046,0.999673,-8.95192e-10,-1.14374e-09,0.025565,4
186547530,0.754425,0.00360228,-0.00944071,-0.656308,0.999673,-8.95192e-10,-1.14374e-09,0.025565,4
186597245,0.75479,0.00334105,-0.00794925,-0.65591,0.999673,-8.95192e-10,-1.14374e-09,0.025565,4
186646845,0.755633,0.00373032,-0.00873898,-0.654927,0.999673,-8.95192e-10,-1.14374e-09,0.025565,4
186696548,0.756304,0.00438134,-0.00975521,-0.654133,0.999673,-8.95192e-10,-1.14374e-09,0.025565,4
186746160,0.756874,0.00401431,-0.0107494,-0.65346,0.999673,-8.95192e-10,-1.14374e-09,0.025565,4
186795818,0.757784,0.00361386,-0.0116707,-0.652391,0.999673,-8.95192e-10,-1.14374e-09,0.025565,4
186845475,0.758453,0.00405203,-0.0123478,-0.651599,0.999673,-8.95192e-10,-1.14374e-09,0.025565,4
186895262,0.758821,0.00324781,-0.0116736,-0.651187,0.999673,-8.95192e-10,-1.14374e-09,0.025565,4
186944789,0.759159,0.00236511,-0.00991094,-0.650825,0.999673,-8.95192e-10,-1.14374e-09,0.025565,4
186994446,0.759238,0.00214053,-0.00880701,-0.65075,0.999673,-8.95192e-10,-1.14374e-09,0.025565,4
187049070,0.759192,0.000611928,-0.00974256,-0.650794,0.999673,-8.95192e-10,-1.14374e-09,0.025565,4
187098729,0.759616,-0.00140644,-0.0092853,-0.650304,0.999673,-8.95192e-10,-1.14374e-09,0.025565,4
187143508,0.759753,-0.000817684,-0.0093847,-0.650144,0.999673,-8.95192e-10,-1.14374e-09,0.025565,4
187193076,0.760107,-2.35556e-05,-0.0101888,-0.649718,0.999673,-8.95192e-10,-1.14374e-09,0.025565,4
187247699,0.760653,-0.000660386,-0.0112673,-0.649061,0.999673,-8.95192e-10,-1.14374e-09,0.025565,4
187297358,0.761068,-0.00143892,-0.0110148,-0.648577,0.999673,-8.95192e-10,-1.14374e-09,0.025565,4
187347014,0.761474,-0.000711651,-0.0102293,-0.648114,0.999673,-8.95192e-10,-1.14374e-09,0.025565,4
187396671,0.762148,0.00114334,-0.00954582,-0.647332,0.999673,-8.95192e-10,-1.14374e-09,0.025565,4
187446519,0.76246,0.00239489,-0.0102923,-0.64695,0.999673,-8.95192e-10,-1.14374e-09,0.025565,4
187495981,0.762907,0.00429199,-0.0129468,-0.646365,0.999673,-8.95192e-10,-1.14374e-09,0.025565,4
187545644,0.763153,0.00516237,-0.0139716,-0.646046,0.999673,-8.95192e-10,-1.14374e-09,0.025565,4
187595304,0.763309,0.00473185,-0.0132654,-0.645881,0.999673,-8.95192e-10,-1.14374e-09,0.025565,4
187644958,0.764105,0.0037155,-0.0100536,-0.645003,0.999673,-8.95192e-10,-1.14374e-09,0.025565,4
187694708,0.764175,0.00363771,-0.0103284,-0.644916,0.999673,-8.95192e-10,-1.14374e-09,0.025565,4
187749239,0.764756,0.00331991,-0.0137507,-0.644165,0.999673,-8.95192e-10,-1.14374e-09,0.025565,4
187798897,0.765195,0.00255412,-0.0165228,-0.643582,0.999673,-8.95192e-10,-1.14374e-09,0.025565,4
187843588,0.765247,0.001231,-0.0158831,-0.64354,0.999673,-8.95192e-10,-1.14374e-09,0.025565,4
187893246,0.765527,-0.000241897,-0.0133657,-0.643265,0.999673,-8.95192e-10,-1.14374e-09,0.025565,4
187947993,0.765492,-8.18519e-06,-0.0120294,-0.643333,0.999673,-8.95192e-10,-1.14374e-09,0.025565,4
187997526,0.765511,-0.000348917,-0.0112643,-0.643325,0.999673,-8.95192e-10,-1.14374e-09,0.025565,4
188047183,0.765631,-0.00148804,-0.0106995,-0.64319,0.999673,-8.95192e-10,-1.14374e-09,0.025565,4
188096841,0.765951,-0.0023137,-0.0107334,-0.642806,0.999673,-8.95192e-10,-1.14374e-09,0.025565,4
188146504,0.765532,-0.00290407,-0.0120685,-0.643278,0.999673,-8.95192e-10,-1.14374e-09,0.025565,4
188196168,0.765716,-0.00447611,-0.0122182,-0.643047,0.999673,-8.95192e-10,-1.14374e-09,0.025565,4
188245963,0.765379,-0.00599936,-0.0158578,-0.643356,0.999673,-8.95192e-10,-1.14374e-09,0.025565,4
188295471,0.765166,-0.00973674,-0.0198934,-0.643452,0.999673,-8.95192e-10,-1.14374e-09,0.025565,4
188345128,0.764899,-0.013338,-0.0233635,-0.643588,0.999673,-8.95192e-10,-1.14374e-09,0.025565,4
188394786,0.764549,-0.0164389,-0.0249745,-0.643872,0.999673,-8.95192e-10,-1.14374e-09,0.025565,4
188449409,0.764541,-0.0184134,-0.0261549,-0.643781,0.999673,-8.95192e-10,-1.14374e-09,0.025565,4
188499143,0.76483,-0.0200628,-0.0275146,-0.643332,0.999673,-8.95192e-10,-1.14374e-09,0.025565,4
188543758,0.764973,-0.0215268,-0.0286565,-0.643065,0.999673,-8.95192e-10,-1.14374e-09,0.025565,4
188593415,0.765179,-0.0207576,-0.0311691,-0.642727,0.999673,-8.95192e-10,-1.14374e-09,0.025565,4
188648040,0.765727,-0.0199168,-0.032188,-0.64205,0.999673,-8.95192e-10,-1.14374e-09,0.025565,4
188697695,0.765995,-0.0193633,-0.0323556,-0.64174,0.999673,-8.95192e-10,-1.14374e-09,0.025565,4
188747353,0.766548,-0.0187711,-0.0322658,-0.641102,0.999673,-8.95192e-10,-1.14374e-09,0.025565,4
188797012,0.767082,-0.0174993,-0.0310042,-0.640561,0.999673,-8.95192e-10,-1.14374e-09,0.025565,4
188846669,0.767667,-0.01493,-0.0298149,-0.639981,0.999673,-8.95192e-10,-1.14374e-09,0.025565,4
188896326,0.768198,-0.0131733,-0.0281317,-0.639458,0.999673,-8.95192e-10,-1.14374e-09,0.025565,4
188945985,0.768633,-0.0111392,-0.0272092,-0.639014,0.999673,-8.95192e-10,-1.14374e-09,0.025565,4
188995641,0.76889,-0.00865577,-0.027913,-0.638713,0.999673,-8.95192e-10,-1.14374e-09,0.025565,4
189045415,0.769218,-0.00774149,-0.0291188,-0.638276,0.999673,-8.95192e-10,-1.14374e-09,0.025565,4
189094955,0.769394,-0.00781547,-0.0293119,-0.638054,0.999673,-8.95192e-10,-1.14374e-09,0.025565,4
189149581,0.769477,-0.00779372,-0.0302728,-0.637909,0.999673,-8.95192e-10,-1.14374e-09,0.025565,4
189199237,0.769116,-0.00963142,-0.0334389,-0.638161,0.999673,-8.95192e-10,-1.14374e-09,0.025565,4
189243929,0.768685,-0.0126532,-0.0354027,-0.638522,0.999673,-8.95192e-10,-1.14374e-09,0.025565,4
189293602,0.768388,-0.0138321,-0.0374502,-0.638737,0.999673,-8.95192e-10,-1.14374e-09,0.025565,4
189348216,0.767748,-0.0129574,-0.040977,-0.639309,0.999673,-8.95192e-10,-1.14374e-09,0.025565,4
189397866,0.767154,-0.0144615,-0.0426253,-0.639881,0.999673,-8.95192e-10,-1.14374e-09,0.025565,4
189447524,0.766246,-0.0149021,-0.0423869,-0.640974,0.999673,-8.95192e-10,-1.14374e-09,0.025565,4
189497186,0.765997,-0.0150742,-0.0391773,-0.641472,0.999673,-8.95192e-10,-1.14374e-09,0.025565,4
189546842,0.7652,-0.0107721,-0.0353004,-0.642734,0.999673,-8.95192e-10,-1.14374e-09,0.025565,4
189596679,0.764212,-0.00107591,-0.029334,-0.644297,0.999673,-8.95192e-10,-1.14374e-09,0.025565,4
189646153,0.763562,0.00364829,-0.0220422,-0.645348,0.999673,-8.95192e-10,-1.14374e-09,0.025565,4
189695810,0.762897,0.0028306,-0.0165745,-0.646301,0.999673,-8.95192e-10,-1.14374e-09,0.025565,4
189745468,0.761561,0.0022464,-0.014319,-0.647931,0.999673,-8.95192e-10,-1.14374e-09,0.025565,4
189795125,0.760736,0.00325337,-0.0128768,-0.648925,0.999673,-8.95192e-10,-1.14374e-09,0.025565,4
189849846,0.759217,0.00338603,-0.0121803,-0.650715,0.999673,-8.95192e-10,-1.14374e-09,0.025565,4
189894441,0.757873,0.00213929,-0.00971434,-0.652326,0.999673,-8.95192e-10,-1.14374e-09,0.025565,4
189944100,0.756965,0.00257034,-0.00882597,-0.65339,0.999673,-8.95192e-10,-1.14374e-09,0.025565,4
189993755,0.755787,0.00379727,-0.0104326,-0.654724,0.999673,-8.95192e-10,-1.14374e-09,0.025565,4
190048384,0.754204,0.00581446,-0.0130508,-0.656485,0.999673,-8.95192e-10,-1.14374e-09,0.025565,4
190098050,0.753021,0.00901406,-0.0160208,-0.65774,0.999673,-8.95192e-10,-1.14374e-09,0.025565,4
190147694,0.751248,0.017412,-0.0223105,-0.659413,0.999673,-8.95192e-10,-1.14374e-09,0.025565,4
190197351,0.750306,0.0249927,-0.0289002,-0.659986,0.999673,-8.95192e-10,-1.14374e-09,0.025565,4
190247014,0.749321,0.0287438,-0.032528,-0.660783,0.999673,-8.95192e-10,-1.14374e-09,0.025565,4
190296666,0.74873,0.0295735,-0.0327923,-0.661403,0.999673,-8.95192e-10,-1.14374e-09,0.025565,4
190346323,0.748466,0.0284907,-0.0294497,-0.661906,0.999673,-8.95192e-10,-1.14374e-09,0.025565,4
190396124,0.748297,0.0234148,-0.0233386,-0.662539,0.999673,-8.95192e-10,-1.14374e-09,0.025565,4
190445652,0.748522,0.015073,-0.0169747,-0.662722,0.999673,-8.95192e-10,-1.14374e-09,0.025565,4
190495295,0.748409,0.009843,-0.0127894,-0.663041,0.999673,-8.95192e-10,-1.14374e-09,0.025565,4
190549919,0.748176,0.00687565,-0.0104511,-0.663382,0.999673,-8.95192e-10,-1.14374e-09,0.025565,4
190594610,0.747726,0.00446649,-0.0107484,-0.663905,0.999673,-8.95192e-10,-1.14374e-09,0.025565,4
190644311,0.747748,-0.000901108,-0.0140091,-0.663835,0.999673,-8.95192e-10,-1.14374e-09,0.025565,4
190693927,0.747556,-0.00744123,-0.0158112,-0.663969,0.999673,-8.95192e-10,-1.14374e-09,0.025565,4
190748549,0.746724,-0.0122294,-0.0160005,-0.664829,0.999673,-8.95192e-10,-1.14374e-09,0.025565,4
190798207,0.746444,-0.0133469,-0.0143255,-0.66516,0.999673,-8.95192e-10,-1.14374e-09,0.025565,4
190842898,0.745757,-0.0104192,-0.0120871,-0.666027,0.999673,-8.95192e-10,-1.14374e-09,0.025565,4
190897558,0.745348,-0.00482128,-0.0101278,-0.666582,0.999673,-8.95192e-10,-1.14374e-09,0.025565,4
190947181,0.74567,-0.00259482,-0.00959433,-0.666242,0.999673,-8.95192e-10,-1.14374e-09,0.025565,4
190996836,0.745917,-0.00308953,-0.00916387,-0.665969,0.999673,-8.95192e-10,-1.14374e-09,0.025565,4
191046493,0.746212,-0.00407598,-0.00809713,-0.665646,0.999673,-8.95192e-10,-1.14374e-09,0.025565,4
191096151,0.74648,-0.00252097,-0.00906834,-0.665342,0.999673,-8.95192e-10,-1.14374e-09,0.025565,4
191145811,0.747234,-0.00102114,-0.0100138,-0.664485,0.999673,-8.95192e-10,-1.14374e-09,0.025565,4
191195576,0.747543,-0.000136148,-0.0102567,-0.664135,0.999673,-8.95192e-10,-1.14374e-09,0.025565,4
191250090,0.748357,-0.000255143,-0.0089245,-0.663236,0.999673,-8.95192e-10,-1.14374e-09,0.025565,4
191294781,0.749056,0.000175437,-0.00795649,-0.662459,0.999673,-8.95192e-10,-1.14374e-09,0.025565,4
191344438,0.750194,0.000791768,-0.00758776,-0.661174,0.999673,-8.95192e-10,-1.14374e-09,0.025565,4
191394097,0.750977,0.00204896,-0.00931225,-0.66026,0.999673,-8.95192e-10,-1.14374e-09,0.025565,4
191448743,0.752415,0.00241834,-0.00910323,-0.658622,0.999673,-8.95192e-10,-1.14374e-09,0.025565,4
191498377,0.754018,0.00200897,-0.00694474,-0.656814,0.999673,-8.95192e-10,-1.14374e-09,0.025565,4
191543068,0.75498,0.00142456,-0.00643004,-0.655715,0.999673,-8.95192e-10,-1.14374e-09,0.025565,4
191597692,0.755811,0.0021989,-0.00792451,-0.654739,0.999673,-8.95192e-10,-1.14374e-09,0.025565,4
191647383,0.757136,0.0025099,-0.00833928,-0.653199,0.999673,-8.95192e-10,-1.14374e-09,0.025565,4
191697006,0.754017,0.00276991,-0.00865103,-0.656793,0.999983,-1.06997e-09,8.78971e-10,-0.00589146,5
191746823,0.755325,0.00302721,-0.00789977,-0.655296,0.999983,-1.06997e-09,8.78971e-10,-0.00589146,5
191796322,0.756216,0.003625,-0.00874598,-0.654253,0.999983,-1.06997e-09,8.78971e-10,-0.00589146,5
191845979,0.757201,0.00280072,-0.0098157,-0.653102,0.999983,-1.06997e-09,8.78971e-10,-0.00589146,5
191895640,0.758255,0.00388499,-0.00991383,-0.651871,0.999983,-1.06997e-09,8.78971e-10,-0.00589146,5
191950260,0.75877,0.00477582,-0.0102746,-0.651261,0.999983,-1.06997e-09,8.78971e-10,-0.00589146,5
191995068,0.759237,0.00419771,-0.0103653,-0.650718,0.999983,-1.06997e-09,8.78971e-10,-0.00589146,5
192044609,0.759792,0.00394004,-0.0100742,-0.650077,0.999983,-1.06997e-09,8.78971e-10,-0.00589146,5
192094270,0.759605,0.00534073,-0.0104345,-0.650279,0.999983,-1.06997e-09,8.78971e-10,-0.00589146,5
192148890,0.759442,0.00600964,-0.0114886,-0.650446,0.999983,-1.06997e-09,8.78971e-10,-0.00589146,5
192198547,0.759324,0.0042054,-0.0098222,-0.650626,0.999983,-1.06997e-09,8.78971e-10,-0.00589146,5
192243240,0.759058,0.00420486,-0.00839967,-0.650955,0.999983,-1.06997e-09,8.78971e-10,-0.00589146,5
192297862,0.758443,0.00440414,-0.00893868,-0.651663,0.999983,-1.06997e-09,8.78971e-10,-0.00589146,5
192347524,0.757591,0.00413666,-0.0117283,-0.652611,0.999983,-1.06997e-09,8.78971e-10,-0.00589146,5
192397179,0.757133,0.0032538,-0.0121225,-0.65314,0.999983,-1.06997e-09,8.78971e-10,-0.00589146,5
192446835,0.756065,0.00338596,-0.0117842,-0.654382,0.999983,-1.06997e-09,8.78971e-10,-0.00589146,5
192496503,0.755433,0.00554215,-0.010444,-0.655119,0.999983,-1.06997e-09,8.78971e-10,-0.00589146,5
192546271,0.754775,0.00547166,-0.00828881,-0.655909,0.999983,-1.06997e-09,8.78971e-10,-0.00589146,5
192595807,0.754232,0.00460674,-0.00820187,-0.656541,0.999983,-1.06997e-09,8.78971e-10,-0.00589146,5
192645465,0.753462,0.00395494,-0.0096669,-0.657409,0.999983,-1.06997e-09,8.78971e-10,-0.00589146,5
192695122,0.753272,0.00370013,-0.010105,-0.657621,0.999983,-1.06997e-09,8.78971e-10,-0.00589146,5
192744780,0.752806,0.00431166,-0.0104036,-0.658146,0.999983,-1.06997e-09,8.78971e-10,-0.00589146,5
192794512,0.752439,0.00456743,-0.00984092,-0.658573,0.999983,-1.06997e-09,8.78971e-10,-0.00589146,5
192849061,0.752306,0.00402006,-0.0096878,-0.65873,0.999983,-1.06997e-09,8.78971e-10,-0.00589146,5
192898718,0.752555,0.0037228,-0.00882239,-0.65846,0.999983,-1.06997e-09,8.78971e-10,-0.00589146,5
192943410,0.752442,0.00407936,-0.00899329,-0.658584,0.999983,-1.06997e-09,8.78971e-10,-0.00589146,5
192998033,0.75253,0.00428175,-0.0104758,-0.65846,0.999983,-1.06997e-09,8.78971e-10,-0.00589146,5
193047751,0.752719,0.00348108,-0.0115853,-0.658231,0.999983,-1.06997e-09,8.78971e-10,-0.00589146,5
193097536,0.752743,0.00310843,-0.0121145,-0.658195,0.999983,-1.06997e-09,8.78971e-10,-0.00589146,5
193147006,0.752728,0.0028492,-0.0122531,-0.658211,0.999983,-1.06997e-09,8.78971e-10,-0.00589146,5
193196666,0.752866,0.00251603,-0.011624,-0.658066,0.999983,-1.06997e-09,8.78971e-10,-0.00589146,5
193246321,0.752768,0.00261156,-0.0122769,-0.658166,0.999983,-1.06997e-09,8.78971e-10,-0.00589146,5
193295980,0.753135,-0.000535724,-0.0147318,-0.657701,0.999983,-1.06997e-09,8.78971e-10,-0.00589146,5
193345722,0.753371,-0.00721887,-0.0184141,-0.657299,0.999983,-1.06997e-09,8.78971e-10,-0.00589146,5
193395293,0.753061,-0.0118962,-0.0244298,-0.65739,0.999983,-1.06997e-09,8.78971e-10,-0.00589146,5
193444951,0.753712,-0.0156802,-0.0310872,-0.656282,0.999983,-1.06997e-09,8.78971e-10,-0.00589146,5
193494660,0.753659,-0.0196517,-0.0367557,-0.655943,0.999983,-1.06997e-09,8.78971e-10,-0.00589146,5
193549232,0.753975,-0.0258444,-0.0391435,-0.655226,0.999983,-1.06997e-09,8.78971e-10,-0.00589146,5
193593930,0.753976,-0.0305967,-0.039857,-0.654977,0.999983,-1.06997e-09,8.78971e-10,-0.00589146,5
193643581,0.753642,-0.031097,-0.0424052,-0.655178,0.999983,-1.06997e-09,8.78971e-10,-0.00589146,5
193698205,0.75354,-0.0268268,-0.0428962,-0.655452,0.999983,-1.06997e-09,8.78971e-10,-0.00589146,5
193747878,0.753718,-0.0232544,-0.0396885,-0.655587,0.999983,-1.06997e-09,8.78971e-10,-0.00589146,5
193797519,0.753928,-0.0205207,-0.0344041,-0.655735,0.999983,-1.06997e-09,8.78971e-10,-0.00589146,5
193847177,0.75375,-0.0170686,-0.0323119,-0.656145,0.999983,-1.06997e-09,8.78971e-10,-0.00589146,5
193896977,0.753845,-0.0149764,-0.0309884,-0.656151,0.999983,-1.06997e-09,8.78971e-10,-0.00589146,5
193946492,0.753895,-0.0136,-0.0301935,-0.65616,0.999983,-1.06997e-09,8.78971e-10,-0.00589146,5
193996152,0.753372,-0.0123255,-0.0312049,-0.656738,0.999983,-1.06997e-09,8.78971e-10,-0.00589146,5
194045807,0.753363,-0.0109971,-0.0322419,-0.656722,0.999983,-1.06997e-09,8.78971e-10,-0.00589146,5
194095466,0.753285,-0.00858799,-0.0285016,-0.65702,0.999983,-1.06997e-09,8.78971e-10,-0.00589146,5
194145233,0.75324,-0.00551248,-0.0227383,-0.657329,0.999983,-1.06997e-09,8.78971e-10,-0.00589146,5
194194804,0.752969,-0.0030185,-0.0187593,-0.657781,0.999983,-1.06997e-09,8.78971e-10,-0.00589146,5
194249404,0.753334,-0.000965769,-0.016002,-0.657442,0.999983,-1.06997e-09,8.78971e-10,-0.00589146,5
194294095,0.753266,1.40144e-05,-0.0165133,-0.657509,0.999983,-1.06997e-09,8.78971e-10,-0.00589146,5
194343753,0.752976,0.000956376,-0.016513,-0.657841,0.999983,-1.06997e-09,8.78971e-10,-0.00589146,5
194398476,0.753003,0.00133293,-0.0141277,-0.657864,0.999983,-1.06997e-09,8.78971e-10,-0.00589146,5
194448034,0.752479,0.00199036,-0.011231,-0.658518,0.999983,-1.06997e-09,8.78971e-10,-0.00589146,5
194497691,0.752347,0.00270638,-0.0100401,-0.658685,0.999983,-1.06997e-09,8.78971e-10,-0.00589146,5
194547349,0.752093,0.00312811,-0.00916782,-0.658986,0.999983,-1.06997e-09,8.78971e-10,-0.00589146,5
194597006,0.75162,0.00299399,-0.00951138,-0.659521,0.999983,-1.06997e-09,8.78971e-10,-0.00589146,5
194646696,0.751012,0.00274107,-0.00972824,-0.660211,0.999983,-1.06997e-09,8.78971e-10,-0.00589146,5
194696427,0.750404,0.00172971,-0.00831762,-0.660925,0.999983,-1.06997e-09,8.78971e-10,-0.00589146,5
194745979,0.750157,0.00180037,-0.00707963,-0.661219,0.999983,-1.06997e-09,8.78971e-10,-0.00589146,5
194795637,0.749377,0.00291635,-0.00751194,-0.662095,0.999983,-1.06997e-09,8.78971e-10,-0.00589146,5
194845300,0.749236,0.00246849,-0.0110235,-0.662207,0.999983,-1.06997e-09,8.78971e-10,-0.00589146,5
194894952,0.749273,-0.00140587,-0.016481,-0.662055,0.999983,-1.06997e-09,8.78971e-10,-0.00589146,5
194949654,0.74886,-0.00554437,-0.0210259,-0.662372,0.999983,-1.06997e-09,8.78971e-10,-0.00589146,5
194994267,0.748488,-0.00557502,-0.0223681,-0.662748,0.999983,-1.06997e-09,8.78971e-10,-0.00589146,5
195043925,0.748437,-0.00623021,-0.0235226,-0.662759,0.999983,-1.06997e-09,8.78971e-10,-0.00589146,5
195098548,0.747847,-0.00772081,-0.0243522,-0.66338,0.999983,-1.06997e-09,8.78971e-10,-0.00589146,5
195148205,0.7479,-0.00850426,-0.023328,-0.663347,0.999983,-1.06997e-09,8.78971e-10,-0.00589146,5
195197863,0.747816,-0.00739745,-0.0205784,-0.663546,0.999983,-1.06997e-09,8.78971e-10,-0.00589146,5
195242696,0.747609,-0.00451298,-0.021078,-0.66379,0.999983,-1.06997e-09,8.78971e-10,-0.00589146,5
195297179,0.747673,-0.00293135,-0.0206074,-0.663741,0.999983,-1.06997e-09,8.78971e-10,-0.00589146,5
195346892,0.747763,-0.00351039,-0.0199842,-0.663656,0.999983,-1.06997e-09,8.78971e-10,-0.00589146,5
195396494,0.74824,-0.00441153,-0.0207784,-0.663088,0.999983,-1.06997e-09,8.78971e-10,-0.00589146,5
195446151,0.748442,-0.00560325,-0.0222812,-0.662802,0.999983,-1.06997e-09,8.78971e-10,-0.00589146,5
195495879,0.748196,-0.00684581,-0.0230667,-0.663041,0.999983,-1.06997e-09,8.78971e-10,-0.00589146,5
195545466,0.748137,-0.00774118,-0.0223551,-0.663123,0.999983,-1.06997e-09,8.78971e-10,-0.00589146,5
195595124,0.747969,-0.00676549,-0.0182486,-0.663449,0.999983,-1.06997e-09,8.78971e-10,-0.00589146,5
195649746,0.747961,-0.00271915,-0.0144658,-0.66358,0.999983,-1.06997e-09,8.78971e-10,-0.00589146,5
195694473,0.74776,6.53143e-05,-0.0141409,-0.663818,0.999983,-1.06997e-09,8.78971e-10,-0.00589146,5
195744096,0.748333,0.000743616,-0.0131426,-0.663193,0.999983,-1.06997e-09,8.78971e-10,-0.00589146,5
195798720,0.74861,0.00103518,-0.0127343,-0.662887,0.999983,-1.06997e-09,8.78971e-10,-0.00589146,5
195848377,0.749038,0.000517905,-0.0132083,-0.662395,0.999983,-1.06997e-09,8.78971e-10,-0.00589146,5
195898035,0.749552,-0.00103961,-0.0140775,-0.661795,0.999983,-1.06997e-09,8.78971e-10,-0.00589146,5
195942727,0.750154,-0.00402142,-0.0156574,-0.661066,0.999983,-1.06997e-09,8.78971e-10,-0.00589146,5
195997350,0.750704,-0.00647501,-0.0175313,-0.660374,0.999983,-1.06997e-09,8.78971e-10,-0.00589146,5
196047138,0.750967,-0.00828473,-0.0211408,-0.659949,0.999983,-1.06997e-09,8.78971e-10,-0.00589146,5
196096665,0.751702,-0.00993162,-0.0242679,-0.658982,0.999983,-1.06997e-09,8.78971e-10,-0.00589146,5
196146369,0.752433,-0.0109221,-0.0253968,-0.658088,0.999983,-1.06997e-09,8.78971e-10,-0.00589146,5
196195990,0.753023,-0.00996541,-0.024299,-0.65747,0.999983,-1.06997e-09,8.78971e-10,-0.00589146,5
196245638,0.754116,-0.00885574,-0.0221653,-0.656307,0.999983,-1.06997e-09,8.78971e-10,-0.00589146,5
196295325,0.755014,-0.00798617,-0.0220862,-0.655288,0.999983,-1.06997e-09,8.78971e-10,-0.00589146,5
196344953,0.75583,-0.0026174,-0.0230975,-0.654355,0.999983,-1.06997e-09,8.78971e-10,-0.00589146,5
196394611,0.756833,0.00629157,-0.0243511,-0.653124,0.999983,-1.06997e-09,8.78971e-10,-0.00589146,5
196444268,0.757062,0.0116371,-0.029071,-0.652592,0.999983,-1.06997e-09,8.78971e-10,-0.00589146,5
196498892,0.757299,0.0113735,-0.0343971,-0.652063,0.999983,-1.06997e-09,8.78971e-10,-0.00589146,5
196548550,0.757574,0.00864916,-0.0365228,-0.651669,0.999983,-1.06997e-09,8.78971e-10,-0.00589146,5
196593419,0.757534,0.00700702,-0.0386905,-0.65161,0.999983,-1.06997e-09,8.78971e-10,-0.00589146,5
196642899,0.757153,0.00435108,-0.0409942,-0.651935,0.999983,-1.06997e-09,8.78971e-10,-0.00589146,5
196697522,0.75661,-0.00268974,-0.0407023,-0.652593,0.999983,-1.06997e-09,8.78971e-10,-0.00589146,5
196747181,0.755979,-0.0113623,-0.0391166,-0.653328,0.999983,-1.06997e-09,8.78971e-10,-0.00589146,5
196796838,0.755135,-0.0164741,-0.0401394,-0.654132,0.999983,-1.06997e-09,8.78971e-10,-0.00589146,5
196846655,0.754575,-0.0190831,-0.0409377,-0.654658,0.999983,-1.06997e-09,8.78971e-10,-0.00589146,5
196896153,0.754041,-0.0190461,-0.0400646,-0.655328,0.999983,-1.06997e-09,8.78971e-10,-0.00589146,5
196945813,0.753326,-0.0175767,-0.038835,-0.656264,0.999983,-1.06997e-09,8.78971e-10,-0.00589146,5
196995467,0.75321,-0.016005,-0.0390291,-0.656426,0.999983,-1.06997e-09,8.78971e-10,-0.00589146,5
197045127,0.753174,-0.0145655,-0.0398663,-0.656451,0.999983,-1.06997e-09,8.78971e-10,-0.00589146,5
197094780,0.752784,-0.0107746,-0.0393715,-0.657001,0.999983,-1.06997e-09,8.78971e-10,-0.00589146,5
197144441,0.753315,-0.00767176,-0.0370072,-0.656573,0.999983,-1.06997e-09,8.78971e-10,-0.00589146,5
197199064,0.753313,-0.00622457,-0.0340185,-0.656752,0.999983,-1.06997e-09,8.78971e-10,-0.00589146,5
197248721,0.753822,-0.00152685,-0.0303036,-0.656378,0.999983,-1.06997e-09,8.78971e-10,-0.00589146,5
197293414,0.753555,0.00633666,-0.0288827,-0.65672,0.999983,-1.06997e-09,8.78971e-10,-0.00589146,5
197343077,0.753835,0.011493,-0.0260441,-0.656447,0.999983,-1.06997e-09,8.78971e-10,-0.00589146,5
197397846,0.7537,0.012089,-0.0228367,-0.656711,0.999983,-1.06997e-09,8.78971e-10,-0.00589146,5
197447352,0.753757,0.0100765,-0.0189879,-0.656802,0.999983,-1.06997e-09,8.78971e-10,-0.00589146,5
197497011,0.753319,0.00797878,-0.0148535,-0.657439,0.999983,-1.06997e-09,8.78971e-10,-0.00589146,5
197546667,0.75309,0.00652741,-0.0114481,-0.657786,0.999983,-1.06997e-09,8.78971e-10,-0.00589146,5
197596327,0.75281,0.00488136,-0.0107704,-0.658132,0.999983,-1.06997e-09,8.78971e-10,-0.00589146,5
197646086,0.752179,0.00500591,-0.0133866,-0.658803,0.999983,-1.06997e-09,8.78971e-10,-0.00589146,5
197695640,0.751872,0.00583723,-0.0150853,-0.659111,0.999983,-1.06997e-09,8.78971e-10,-0.00589146,5
197745334,0.75192,0.00409837,-0.0128282,-0.659117,0.999983,-1.06997e-09,8.78971e-10,-0.00589146,5
197794955,0.751738,0.00267406,-0.0102652,-0.659377,0.999983,-1.06997e-09,8.78971e-10,-0.00589146,5
197844613,0.751274,0.00256252,-0.00987733,-0.659912,0.999983,-1.06997e-09,8.78971e-10,-0.00589146,5
197899236,0.751347,0.00220547,-0.0100726,-0.659827,0.999983,-1.06997e-09,8.78971e-10,-0.00589146,5
197948894,0.751356,0.00228913,-0.0106642,-0.659807,0.999983,-1.06997e-09,8.78971e-10,-0.00589146,5
197993584,0.751259,0.00235849,-0.0107591,-0.659916,0.999983,-1.06997e-09,8.78971e-10,-0.00589146,5
198043246,0.751734,0.00232324,-0.010758,-0.659375,0.999983,-1.06997e-09,8.78971e-10,-0.00589146,5
198097867,0.751818,0.00231161,-0.0122084,-0.659254,0.999983,-1.06997e-09,8.78971e-10,-0.00589146,5
198147524,0.751591,0.00165211,-0.0134116,-0.659491,0.999983,-1.06997e-09,8.78971e-10,-0.00589146,5
198197296,0.752302,0.000708409,-0.0113238,-0.658721,0.999983,-1.06997e-09,8.78971e-10,-0.00589146,5
198246840,0.751991,0.00228672,-0.0126539,-0.659048,0.999983,-1.06997e-09,8.78971e-10,-0.00589146,5
198296498,0.752554,0.00357086,-0.0151496,-0.658346,0.999983,-1.06997e-09,8.78971e-10,-0.00589146,5
198346155,0.75227,0.00381952,-0.0171409,-0.658621,0.999983,-1.06997e-09,8.78971e-10,-0.00589146,5
198395813,0.752399,0.00315354,-0.0152786,-0.658523,0.999983,-1.06997e-09,8.78971e-10,-0.00589146,5
198445596,0.75252,0.00218997,-0.0124942,-0.658447,0.999983,-1.06997e-09,8.78971e-10,-0.00589146,5
198495128,0.752249,0.00167364,-0.0119112,-0.658769,0.999983,-1.06997e-09,8.78971e-10,-0.00589146,5
198544825,0.752163,0.00233802,-0.0120941,-0.658862,0.999983,-1.06997e-09,8.78971e-10,-0.00589146,5
198599409,0.75185,0.00292667,-0.0129245,-0.659201,0.999983,-1.06997e-09,8.78971e-10,-0.00589146,5
198649067,0.751552,0.00210133,-0.0134729,-0.659533,0.999983,-1.06997e-09,8.78971e-10,-0.00589146,5
198693760,0.751324,0.00144409,-0.0134305,-0.659795,0.999983,-1.06997e-09,8.78971e-10,-0.00589146,5
198743571,0.751405,0.00117613,-0.0123942,-0.659723,0.999983,-1.06997e-09,8.78971e-10,-0.00589146,5
198798040,0.751155,0.00135043,-0.0120076,-0.660015,0.999983,-1.06997e-09,8.78971e-10,-0.00589146,5
198847697,0.750972,0.0016157,-0.0140993,-0.660181,0.999983,-1.06997e-09,8.78971e-10,-0.00589146,5
198897350,0.751314,0.000583221,-0.0145332,-0.659785,0.999983,-1.06997e-09,8.78971e-10,-0.00589146,5
198947015,0.751209,0.00101811,-0.0148357,-0.659897,0.999983,-1.06997e-09,8.78971e-10,-0.00589146,5
198996749,0.751796,0.00141644,-0.0133092,-0.65926,0.999983,-1.06997e-09,8.78971e-10,-0.00589146,5
199046329,0.75152,0.00075214,-0.01639,-0.659507,0.999983,-1.06997e-09,8.78971e-10,-0.00589146,5
199095986,0.751913,-0.00239131,-0.0200823,-0.658952,0.999983,-1.06997e-09,8.78971e-10,-0.00589146,5
199145643,0.751961,-0.00411911,-0.0219084,-0.658831,0.999983,-1.06997e-09,8.78971e-10,-0.00589146,5
199195301,0.75193,-0.00520865,-0.020612,-0.6589,0.999983,-1.06997e-09,8.78971e-10,-0.00589146,5
199245043,0.752185,-0.00556321,-0.0192935,-0.658646,0.999983,-1.06997e-09,8.78971e-10,-0.00589146,5
199299581,0.752198,-0.00546904,-0.0200757,-0.658608,0.999983,-1.06997e-09,8.78971e-10,-0.00589146,5
199349241,0.752341,-0.00586392,-0.0211885,-0.658407,0.999983,-1.06997e-09,8.78971e-10,-0.00589146,5
199393932,0.752437,-0.006396,-0.020506,-0.658314,0.999983,-1.06997e-09,8.78971e-10,-0.00589146,5
199443589,0.752503,-0.00698423,-0.0199232,-0.65825,0.999983,-1.06997e-09,8.78971e-10,-0.00589146,5
199498244,0.752804,-0.00678009,-0.0200208,-0.657905,0.999983,-1.06997e-09,8.78971e-10,-0.00589146,5
199548008,0.752896,-0.00535919,-0.0217945,-0.657756,0.999983,-1.06997e-09,8.78971e-10,-0.00589146,5
199597530,0.753365,-0.00430688,-0.0216738,-0.657231,0.999983,-1.06997e-09,8.78971e-10,-0.00589146,5
199647189,0.753423,-0.00404238,-0.0205754,-0.657202,0.999983,-1.06997e-09,8.78971e-10,-0.00589146,5
199696843,0.753446,-0.00311573,-0.0209737,-0.657168,0.999983,-1.06997e-09,8.78971e-10,-0.00589146,5
199746501,0.753782,-0.00415876,-0.0202838,-0.656799,0.999983,-1.06997e-09,8.78971e-10,-0.00589146,5
199796217,0.753701,-0.00540957,-0.0189563,-0.656922,0.999983,-1.06997e-09,8.78971e-10,-0.00589146,5
199845817,0.753445,-0.00523163,-0.0193985,-0.657204,0.999983,-1.06997e-09,8.78971e-10,-0.00589146,5
199895474,0.75377,-0.00411835,-0.0201373,-0.656817,0.999983,-1.06997e-09,8.78971e-10,-0.00589146,5
199945133,0.753861,-0.00347771,-0.019862,-0.656725,0.999983,-1.06997e-09,8.78971e-10,-0.00589146,5
199999755,0.754173,-0.00368807,-0.0190217,-0.65639,0.999983,-1.06997e-09,8.78971e-10,-0.00589146,5
200044451,0.754259,-0.00402056,-0.0184811,-0.656304,0.999983,-1.06997e-09,8.78971e-10,-0.00589146,5
200094279,0.754302,-0.00415246,-0.0193193,-0.65623,0.999983,-1.06997e-09,8.78971e-10,-0.00589146,5
200143763,0.754242,-0.00440654,-0.0195998,-0.656289,0.999983,-1.06997e-09,8.78971e-10,-0.00589146,5
200198389,0.754172,-0.00430631,-0.0207963,-0.656333,0.999983,-1.06997e-09,8.78971e-10,-0.00589146,5
200248044,0.754749,-0.00518049,-0.0219225,-0.655627,0.999983,-1.06997e-09,8.78971e-10,-0.00589146,5
200297701,0.754992,-0.00684129,-0.0232211,-0.655287,0.999983,-1.06997e-09,8.78971e-10,-0.00589146,5
200347460,0.754612,-0.00914114,-0.0258938,-0.655596,0.999983,-1.06997e-09,8.78971e-10,-0.00589146,5
200397012,0.754831,-0.0103245,-0.0263798,-0.655308,0.999983,-1.06997e-09,8.78971e-10,-0.00589146,5
200446674,0.754947,-0.0119144,-0.022934,-0.655276,0.999983,-1.06997e-09,8.78971e-10,-0.00589146,5
200496335,0.754596,-0.0136735,-0.0225308,-0.655661,0.999983,-1.06997e-09,8.78971e-10,-0.00589146,5
200545990,0.754643,-0.0148644,-0.0250162,-0.65549,0.999983,-1.06997e-09,8.78971e-10,-0.00589146,5
200595660,0.754546,-0.0159314,-0.0257064,-0.65555,0.999983,-1.06997e-09,8.78971e-10,-0.00589146,5
200645304,0.75396,-0.0175452,-0.0249467,-0.656212,0.999983,-1.06997e-09,8.78971e-10,-0.00589146,5
200699929,0.753972,-0.0185169,-0.0235792,-0.656222,0.999983,-1.06997e-09,8.78971e-10,-0.00589146,5
200744622,0.754117,-0.0160788,-0.0210725,-0.656205,0.999983,-1.06997e-09,8.78971e-10,-0.00589146,5
200794284,0.753653,-0.00956596,-0.0175825,-0.656967,0.999983,-1.06997e-09,8.78971e-10,-0.00589146,5
200843940,0.753939,-0.0046454,-0.0126584,-0.656806,0.999983,-1.06997e-09,8.78971e-10,-0.00589146,5
200898722,0.753761,-0.0023289,-0.0113218,-0.657047,0.999983,-1.06997e-09,8.78971e-10,-0.00589146,5
200948217,0.753975,-0.00140661,-0.0115789,-0.6568,0.999983,-1.06997e-09,8.78971e-10,-0.00589146,5
200992912,0.753961,-0.000990725,-0.0112548,-0.656823,0.999983,-1.06997e-09,8.78971e-10,-0.00589146,5
201047533,0.754008,-0.000850789,-0.00949895,-0.656795,0.999983,-1.06997e-09,8.78971e-10,-0.00589146,5
201097196,0.754208,-0.000408373,-0.00858947,-0.65658,0.999983,-1.06997e-09,8.78971e-10,-0.00589146,5
201146911,0.754128,0.000270744,-0.0100875,-0.65665,0.999983,-1.06997e-09,8.78971e-10,-0.00589146,5
201196511,0.754548,0.000578772,-0.0113759,-0.656146,0.999983,-1.06997e-09,8.78971e-10,-0.00589146,5
201246163,0.754833,0.000245121,-0.00954803,-0.655848,0.999983,-1.06997e-09,8.78971e-10,-0.00589146,5
201295821,0.755028,0.00039714,-0.00830416,-0.655639,0.999983,-1.06997e-09,8.78971e-10,-0.00589146,5
201345512,0.754895,0.00183314,-0.00974819,-0.65577,0.999983,-1.06997e-09,8.78971e-10,-0.00589146,5
201400105,0.755237,0.00279477,-0.0119234,-0.655338,0.999983,-1.06997e-09,8.78971e-10,-0.00589146,5
201444797,0.755645,0.00239225,-0.0113947,-0.654878,0.999983,-1.06997e-09,8.78971e-10,-0.00589146,5
201494452,0.755827,0.00218781,-0.0109056,-0.654677,0.999983,-1.06997e-09,8.78971e-10,-0.00589146,5
201544123,0.755622,0.00354871,-0.0133087,-0.654863,0.999983,-1.06997e-09,8.78971e-10,-0.00589146,5
201598733,0.756058,0.00395822,-0.0146553,-0.654328,0.999983,-1.06997e-09,8.78971e-10,-0.00589146,5
201648394,0.756079,0.00121332,-0.0125238,-0.654359,0.999983,-1.06997e-09,8.78971e-10,-0.00589146,5
201693184,0.756367,0.000321729,-0.0101831,-0.654068,0.999983,-1.06997e-09,8.78971e-10,-0.00589146,5
201747706,0.756115,0.000990485,-0.00998543,-0.654361,0.999983,-1.06997e-09,8.78971e-10,-0.00589146,5
201797361,0.756164,0.00160265,-0.0108405,-0.654291,0.999983,-1.06997e-09,8.78971e-10,-0.00589146,5
201847022,0.756048,0.00120326,-0.0115906,-0.654412,0.999983,-1.06997e-09,8.78971e-10,-0.00589146,5
201896679,0.75612,0.000744889,-0.0109393,-0.654341,0.999983,-1.06997e-09,8.78971e-10,-0.00589146,5
201946367,0.75614,0.00062848,-0.0102985,-0.654329,0.999983,-1.06997e-09,8.78971e-10,-0.00589146,5
201996004,0.756062,0.000547662,-0.0107326,-0.654411,0.999983,-1.06997e-09,8.78971e-10,-0.00589146,5
202045653,0.756301,0.00112467,-0.0106392,-0.654137,0.999983,-1.06997e-09,8.78971e-10,-0.00589146,5
202100276,0.756381,0.00205755,-0.00999954,-0.654051,0.999983,-1.06997e-09,8.78971e-10,-0.00589146,5
202144969,0.756392,0.00213584,-0.0100862,-0.654038,0.999983,-1.06997e-09,8.78971e-10,-0.00589146,5
202194626,0.756029,0.00176799,-0.011144,-0.654441,0.999983,-1.06997e-09,8.78971e-10,-0.00589146,5
202244444,0.756415,0.00180531,-0.0117129,-0.653985,0.999983,-1.06997e-09,8.78971e-10,-0.00589146,5
202298908,0.756382,0.0024631,-0.0137019,-0.653982,0.999983,-1.06997e-09,8.78971e-10,-0.00589146,5
202348565,0.756076,0.0022375,-0.014073,-0.654329,0.999983,-1.06997e-09,8.78971e-10,-0.00589146,5
202393258,0.756011,0.00154183,-0.0120344,-0.654446,0.999983,-1.06997e-09,8.78971e-10,-0.00589146,5
202447880,0.755851,0.00133652,-0.00998459,-0.654666,0.999983,-1.06997e-09,8.78971e-10,-0.00589146,5
202497676,0.755412,0.00153008,-0.0106306,-0.655163,0.999983,-1.06997e-09,8.78971e-10,-0.00589146,5
202547201,0.755228,0.00146606,-0.0116462,-0.655357,0.999983,-1.06997e-09,8.78971e-10,-0.00589146,5
202596853,0.754697,0.00180374,-0.0133025,-0.655936,0.999983,-1.06997e-09,8.78971e-10,-0.00589146,5
202646513,0.754667,0.00198178,-0.0131976,-0.655972,0.999983,-1.06997e-09,8.78971e-10,-0.00589146,5
202696169,0.754164,0.0026862,-0.0125206,-0.656561,0.999983,-1.06997e-09,8.78971e-10,-0.00589146,5
202745873,0.754283,0.00212863,-0.0112869,-0.656449,0.999983,-1.06997e-09,8.78971e-10,-0.00589146,5
202795484,0.75394,0.00178434,-0.0109461,-0.65685,0.999983,-1.06997e-09,8.78971e-10,-0.00589146,5
202845185,0.75422,0.00245194,-0.0105272,-0.656533,0.999983,-1.06997e-09,8.78971e-10,-0.00589146,5
202894800,0.754374,0.00290768,-0.010205,-0.656359,0.999983,-1.06997e-09,8.78971e-10,-0.00589146,5
202944458,0.754239,0.00346511,-0.0115908,-0.656488,0.999983,-1.06997e-09,8.78971e-10,-0.00589146,5
202999082,0.754515,0.00344269,-0.011448,-0.656174,0.999983,-1.06997e-09,8.78971e-10,-0.00589146,5
203043917,0.755041,0.00246766,-0.0109398,-0.655581,0.999983,-1.06997e-09,8.78971e-10,-0.00589146,5
203093432,0.754788,0.00223781,-0.0106064,-0.655879,0.999983,-1.06997e-09,8.78971e-10,-0.00589146,5
203148054,0.755065,0.00282192,-0.0106364,-0.655557,0.999983,-1.06997e-09,8.78971e-10,-0.00589146,5
203197712,0.754987,0.00316529,-0.0108955,-0.655642,0.999983,-1.06997e-09,8.78971e-10,-0.00589146,5
203247371,0.755243,0.00277974,-0.0109391,-0.655348,0.999983,-1.06997e-09,8.78971e-10,-0.00589146,5
203297123,0.755264,0.00269054,-0.0112105,-0.65532,0.999983,-1.06997e-09,8.78971e-10,-0.00589146,5
203346686,0.755405,0.00259864,-0.0119526,-0.655144,0.999983,-1.06997e-09,8.78971e-10,-0.00589146,5
203396343,0.755423,0.00224425,-0.0114374,-0.655134,0.999983,-1.06997e-09,8.78971e-10,-0.00589146,5
203446001,0.755144,-0.000563801,-0.0137839,-0.655414,0.999983,-1.06997e-09,8.78971e-10,-0.00589146,5
203495659,0.755264,-0.00691485,-0.0189155,-0.655111,0.999983,-1.06997e-09,8.78971e-10,-0.00589146,5
203545316,0.755149,-0.0139294,-0.0231258,-0.654997,0.999983,-1.06997e-09,8.78971e-10,-0.00589146,5
203595165,0.754565,-0.0184202,-0.0245754,-0.655506,0.999983,-1.06997e-09,8.78971e-10,-0.00589146,5
203644633,0.75437,-0.0204083,-0.021815,-0.655769,0.999983,-1.06997e-09,8.78971e-10,-0.00589146,5
203699256,0.754551,-0.0169113,-0.0167826,-0.655808,0.999983,-1.06997e-09,8.78971e-10,-0.00589146,5
203743949,0.754688,-0.0100368,-0.0143116,-0.655851,0.999983,-1.06997e-09,8.78971e-10,-0.00589146,5
203793605,0.754978,-0.00619392,-0.0128781,-0.655594,0.999983,-1.06997e-09,8.78971e-10,-0.00589146,5
203848346,0.755326,-0.00511187,-0.0112834,-0.655232,0.999983,-1.06997e-09,8.78971e-10,-0.00589146,5
203897886,0.755894,-0.00552953,-0.00883055,-0.654611,0.999983,-1.06997e-09,8.78971e-10,-0.00589146,5
203947561,0.756136,-0.0049262,-0.00866417,-0.654338,0.999983,-1.06997e-09,8.78971e-10,-0.00589146,5
203997203,0.756899,-0.00496,-0.00983988,-0.653439,0.999983,-1.06997e-09,8.78971e-10,-0.00589146,5
204046860,0.757324,-0.00541764,-0.0121519,-0.652903,0.999983,-1.06997e-09,8.78971e-10,-0.00589146,5
204096585,0.75831,-0.00589866,-0.0139092,-0.651719,0.999983,-1.06997e-09,8.78971e-10,-0.00589146,5
204146175,0.759099,-0.00546228,-0.0154068,-0.65077,0.999983,-1.06997e-09,8.78971e-10,-0.00589146,5
204195833,0.760109,-0.00316607,-0.0156291,-0.6496,0.999983,-1.06997e-09,8.78971e-10,-0.00589146,5
204245491,0.761544,-0.00264495,-0.0138958,-0.647958,0.999983,-1.06997e-09,8.78971e-10,-0.00589146,5
204295150,0.7625,-0.00310822,-0.0141576,-0.646825,0.999983,-1.06997e-09,8.78971e-10,-0.00589146,5
204344850,0.7635,-0.00169298,-0.0154839,-0.64562,0.999983,-1.06997e-09,8.78971e-10,-0.00589146,5
204399599,0.764491,0.00129923,-0.0149297,-0.64446,0.999983,-1.06997e-09,8.78971e-10,-0.00589146,5
204444123,0.765348,0.00257948,-0.0124353,-0.643491,0.999983,-1.06997e-09,8.78971e-10,-0.00589146,5
204493780,0.765863,0.00388284,-0.0124148,-0.642872,0.999983,-1.06997e-09,8.78971e-10,-0.00589146,5
204548403,0.765768,0.00542027,-0.0141777,-0.642938,0.999983,-1.06997e-09,8.78971e-10,-0.00589146,5
204598061,0.765439,0.00664172,-0.0147237,-0.643306,0.999983,-1.06997e-09,8.78971e-10,-0.00589146,5
204647810,0.764828,0.0076937,-0.0143156,-0.64403,0.999983,-1.06997e-09,8.78971e-10,-0.00589146,5
204692411,0.764025,0.00938367,-0.0142649,-0.644961,0.999983,-1.06997e-09,8.78971e-10,-0.00589146,5
204747074,0.76287,0.00914647,-0.0165963,-0.646275,0.999983,-1.06997e-09,8.78971e-10,-0.00589146,5
204796692,0.761145,0.00874935,-0.0192285,-0.648237,0.999983,-1.06997e-09,8.78971e-10,-0.00589146,5
204846350,0.759586,0.00961939,-0.0201452,-0.650024,0.999983,-1.06997e-09,8.78971e-10,-0.00589146,5
204896007,0.757371,0.00956471,-0.0189354,-0.65264,0.999983,-1.06997e-09,8.78971e-10,-0.00589146,5
