timestamp,timestamp_sample,accel_device_id,gyro_device_id,delta_angle[0],delta_angle[1],delta_angle[2],delta_velocity[0],delta_velocity[1],delta_velocity[2],delta_angle_dt,delta_velocity_dt,delta_velocity_clipping
174742800,174742519,3932170,3932170,7.62376e-05,-5.081e-05,0.000149479,0.000720766,-0.000784588,-0.0485724,4989,4989,0
174747784,174747507,3932170,3932170,3.80774e-05,-3.73081e-05,-2.67348e-05,-0.000335549,-0.00129141,-0.0490552,4988,4988,0
175246678,175246378,3932170,3932170,0.000339838,-0.000325276,7.54961e-05,0.000708196,-0.00314867,-0.0497177,4985,4985,0
175750566,175750240,3932170,3932170,0.000824143,-0.000470678,7.97933e-05,-6.64554e-05,-0.00173202,-0.0496257,4990,4990,0
176249826,176249113,3932170,3932170,0.000402048,-8.74283e-05,0.000151896,0.000319025,-0.00950095,-0.0508293,4988,4988,0
176748288,176747997,3932170,3932170,0.000701132,-0.00066368,-6.85618e-05,0.000416831,-0.00844617,-0.052768,4959,4959,0
177247400,177247009,3932170,3932170,0.00127888,-0.000139476,0.000195865,-0.0135015,0.00367288,-0.0542117,4955,4955,0
177745989,177745727,3932170,3932170,-0.000634377,0.000624355,2.22956e-05,-0.00103487,0.00107442,-0.0471612,4988,4988,0
178244876,178244602,3932170,3932170,-0.000533374,0.00189919,0.000205001,-0.0326536,0.016991,-0.0542635,4990,4990,0
178748711,178748462,3932170,3932170,-0.000852248,-0.000258755,-0.000143491,0.00284351,-0.00484506,-0.0454142,4976,4976,0
179247612,179247335,3932170,3932170,-0.000555017,4.28413e-06,0.00013752,0.00769762,0.000952625,-0.0422713,4988,4988,0
179746468,179746215,3932170,3932170,0.000120878,0.000795144,0.000108047,-0.00970013,-0.00305157,-0.0488519,4995,4995,0
180245379,180245082,3932170,3932170,0.000557331,-3.3301e-05,-0.000113788,0.000817756,-0.00590492,-0.0472171,4994,4994,0
180749469,180749087,3932170,3932170,0.000754156,-0.000196606,-0.000466118,-0.000103244,0.00325763,-0.0471834,4970,4970,0
181243087,181242827,3932170,3932170,-0.000489194,0.000957323,0.000607194,-0.00133851,0.00587391,-0.0496412,4989,4989,0
181746967,181746693,3932170,3932170,9.45433e-05,4.70909e-05,-0.000355675,-0.00406139,-0.00332419,-0.0502266,4977,4977,0
182245863,182245564,3932170,3932170,0.000256028,-0.000596036,-0.000526031,-0.00229021,-0.00934205,-0.0488115,4991,4991,0
182750074,182749429,3932170,3932170,-0.00101726,0.000499754,0.000390186,-0.00750356,0.00326711,-0.052898,4985,4985,0
183248628,183248299,3932170,3932170,-0.00182686,0.000783756,0.00136373,-0.00521087,0.0111065,-0.0515692,4988,4988,0
183747527,183747185,3932170,3932170,-0.000418392,-0.000153753,-1.74363e-06,0.00531266,-0.0107103,-0.0464442,4970,4970,0
184246496,184246207,3932170,3932170,-0.000747127,0.000599711,0.000276053,-0.00896248,0.0032796,-0.0550824,4927,4927,0
184745227,184744922,3932170,3932170,-0.00275263,0.000985482,0.00105266,-0.00849423,0.0103503,-0.0522505,4990,4990,0
185244070,185243795,3932170,3932170,-0.000866342,0.00015535,-0.000259072,-0.00343721,-0.000601926,-0.0532986,4942,4942,0
185747946,185747658,3932170,3932170,-0.000815037,6.9914e-06,0.000579197,-0.0057747,0.00904074,-0.0529198,4989,4989,0
186246821,186246573,3932170,3932170,0.000938403,-0.000510786,-0.000420497,0.00325655,-0.0180097,-0.0451397,5029,5029,0
186745653,186745407,3932170,3932170,0.000575705,-0.00106032,-0.0003328,0.00623266,-0.0194041,-0.0398807,4988,4988,0
187249618,187249302,3932170,3932170,-0.000290877,-2.42148e-05,0.000844175,-0.00309622,0.0062664,-0.0506469,5019,5019,0
187748578,187748279,3932170,3932170,0.000813635,-0.00083377,-0.000704469,-0.00013548,-0.00758557,-0.0434241,4943,4943,0
188247304,188247035,3932170,3932170,0.000758073,-0.00138542,-0.000803962,0.00315598,-0.0173605,-0.0414247,4992,4992,0
188746167,188745896,3932170,3932170,0.000524176,0.000597582,0.000789549,-0.00292917,0.0157718,-0.0548598,4942,4942,0
189245075,189244773,3932170,3932170,-0.000649196,-0.00049839,-0.00065302,-0.00477081,-0.0100878,-0.0498629,4988,4988,0
189748879,189748635,3932170,3932170,-0.000731091,0.00062478,-0.000514739,-0.00300202,-0.0147726,-0.0509319,4989,4989,0
190247784,190247512,3932170,3932170,0.000404753,0.000146398,-5.65096e-05,-0.00212975,-0.00446701,-0.0446743,4989,4989,0
190746695,190746387,3932170,3932170,0.000224633,-0.000167535,0.000695926,-0.00178792,0.0154533,-0.054962,4989,4989,0
191251263,191250375,3932170,3932170,0.000139211,0.000151995,-0.000371522,0.0036574,-0.00347702,-0.0434508,4967,4967,0
191744399,191744142,3932170,3932170,0.000672285,-0.000718412,-0.000468668,-0.00172865,-0.0224802,-0.042006,4994,4994,0
192248310,192248003,3932170,3932170,0.00147265,-4.42799e-05,-0.000968925,0.00451133,0.00120007,-0.0467201,4989,4989,0
192747125,192746878,3932170,3932170,-0.00113919,0.00115364,0.000698932,-0.00897492,0.00996787,-0.0549342,4989,4989,0
193246015,193245750,3932170,3932170,0.000620105,-0.000383301,-0.000572589,-7.97778e-05,-0.00151509,-0.0504015,4982,4982,0
193749998,193749634,3932170,3932170,-0.000147298,0.000968858,-0.000813011,-0.00119399,-0.0113227,-0.0451448,5003,5003,0
194248874,194248496,3932170,3932170,-0.000666396,0.000654063,0.000498848,-0.00188416,0.00817706,-0.0555867,4984,4984,0
194747848,194747554,3932170,3932170,-0.000294801,0.00068361,0.00048479,-0.00647597,0.0143054,-0.0533144,4970,4970,0
195246505,195246248,3932170,3932170,-0.000450368,0.000157645,-0.000186446,-0.0062871,-0.00725127,-0.0507913,4988,4988,0
195745432,195745125,3932170,3932170,0.000555173,-0.000459457,-3.27383e-05,0.00680921,-0.0165741,-0.0409257,4985,4985,0
196244360,196244005,3932170,3932170,-0.00109558,0.000529618,0.00122541,-0.00500376,0.00267188,-0.0494883,4989,4989,0
196748477,196747870,3932170,3932170,-0.00216535,-0.000487602,-0.000144231,-0.00668935,-0.00975473,-0.0523866,4991,4991,0
197246997,197246745,3932170,3932170,-0.00086535,0.00183051,0.00086227,-0.00698021,0.0204831,-0.0554544,4983,4983,0
197746399,197745622,3932170,3932170,-4.07368e-05,0.000191706,0.000640614,0.00195135,0.0143396,-0.0504955,4964,4964,0
198245008,198244695,3932170,3932170,0.00180175,-0.000643863,-0.000472658,0.00461752,0.000408658,-0.0426836,5029,5029,0
198743634,198743376,3932170,3932170,-0.00059325,0.000556545,0.000577487,-0.00353174,-0.000591989,-0.0520708,4988,4988,0
199247503,199247242,3932170,3932170,-0.000358413,-0.000257572,-0.000236022,-0.000628078,-0.00626329,-0.0425319,4988,4988,0
199746363,199746120,3932170,3932170,8.85397e-05,0.000125007,0.000877776,-0.000474341,0.0184882,-0.0553611,4935,4935,0
200245281,200244998,3932170,3932170,-0.00119722,0.000592276,0.00123905,-0.00700575,0.0185696,-0.0582398,4977,4977,0
200749153,200748865,3932170,3932170,0.00146684,0.00107791,-0.000106104,0.0022163,0.0141589,-0.0485376,4989,4989,0
201243083,201242821,3932170,3932170,-0.00027562,0.000681459,0.000231059,-0.00491561,0.0149333,-0.0609232,5001,5001,0
201747079,201746776,3932170,3932170,0.00116277,7.29306e-05,0.000375029,-0.000354309,0.0134466,-0.051945,4996,4996,0
202245754,202245498,3932170,3932170,0.00129217,-0.000396122,-3.26039e-05,0.0023118,0.0044481,-0.0433488,4987,4987,0
202744650,202744377,3932170,3932170,-0.00108089,0.000487162,0.000686151,-0.00364191,0.00186151,-0.0492704,4989,4989,0
203248654,203248244,3932170,3932170,0.000383439,-0.000218105,-4.74191e-05,-0.00133378,0.000737387,-0.049822,4989,4989,0
203747417,203747122,3932170,3932170,0.00101454,0.0010994,0.00021173,0.00123634,-0.00646928,-0.0517914,4989,4989,0
204246550,204246010,3932170,3932170,-0.000253381,0.000876098,0.000851102,-0.00319857,0.0166186,-0.0590026,4996,4996,0
204750163,204749869,3932170,3932170,0.000435078,-0.000149522,0.000555341,-0.000926179,0.021046,-0.052622,4989,4989,0
205249978,205248904,3932170,3932170,-0.000204678,-1.18219e-05,-0.00114662,-0.00236215,-0.0128355,-0.0454019,4960,4960,0
205742898,205742638,3932170,3932170,-0.00208069,0.000585076,0.000423795,-0.00423199,0.00578299,-0.0455239,4989,4989,0
206246813,206246505,3932170,3932170,-0.000894439,-0.000500395,-0.000642771,-0.00997516,-0.0254552,-0.0464483,4989,4989,0
206745637,206745384,3932170,3932170,0.000240466,0.000460207,0.000617603,-0.00534313,0.0129281,-0.0497916,4966,4966,0
207244602,207244264,3932170,3932170,0.000491492,0.00124918,-7.30744e-05,-0.00281888,-0.00490716,-0.0482985,4988,4988,0
207748384,207748132,3932170,3932170,-0.000399742,0.000824159,0.000294846,-0.00579289,0.00955862,-0.059121,4988,4988,0
208247350,208247013,3932170,3932170,-0.000187227,4.35162e-05,-0.000289499,-0.00595372,0.00576443,-0.0566024,4988,4988,0
208751297,208750993,3932170,3932170,0.000480204,0.000217461,-0.00138356,-0.00573499,-0.0288525,-0.0440657,4980,4980,0
209245117,209244823,3932170,3932170,-0.00226921,-0.000216255,0.00112062,-0.00553141,-0.00373799,-0.0512361,4984,4984,0
209748910,209748640,3932170,3932170,-4.1885e-05,0.000116711,0.00056873,-0.00610905,0.00253288,-0.0483236,4990,4990,0
210247808,210247518,3932170,3932170,-4.40469e-05,0.0013968,0.00114827,-0.00940722,0.0284834,-0.0594278,4988,4988,0
210746773,210746524,3932170,3932170,0.00100347,-0.00108313,-0.00105827,0.00229949,-0.0362177,-0.0409882,4985,4985,0
211245690,211245403,3932170,3932170,4.05926e-05,-8.94795e-05,-0.000531208,-0.000607715,0.00333656,-0.0446388,4989,4989,0
211749950,211749292,3932170,3932170,-0.00118456,0.000592505,6.44593e-05,-0.00679339,0.00244959,-0.0544089,5007,5007,0
212248540,212248187,3932170,3932170,-0.00144736,0.00100403,0.000538208,-0.0103685,0.000601676,-0.0528738,4975,4975,0
212747975,212747189,3932170,3932170,-0.00133297,-5.44155e-06,1.47086e-06,-0.00725317,-0.00186457,-0.0522748,4959,4959,0
213246169,213245914,3932170,3932170,0.000299111,0.00175914,-0.000224736,-0.00321026,-0.0128543,-0.0513828,4989,4989,0
213745075,213744794,3932170,3932170,-0.000403389,-0.00051807,-0.000625046,-0.0040165,-0.027956,-0.045258,4989,4989,0
214248976,214248664,3932170,3932170,-0.000194123,0.000294129,-0.000191245,0.00206168,-0.00930429,-0.0439599,4989,4989,0
214747856,214747545,3932170,3932170,-0.000269658,0.000298874,0.000101872,-0.00606948,0.00842536,-0.0579745,4988,4988,0
215246677,215246426,3932170,3932170,0.00032198,0.0010528,-0.000286902,0.00201931,-0.00107286,-0.0443979,4989,4989,0
215745644,215745350,3932170,3932170,0.00060559,0.000343603,0.000665156,-0.0001705,0.00374243,-0.0548301,4970,4970,0
216244664,216244370,3932170,3932170,-0.000190729,0.000160555,0.000549025,-0.00462298,0.00565155,-0.0562326,4974,4974,0
216748367,216748060,3932170,3932170,0.000736833,-0.000478651,-0.00056435,-0.00379146,-0.000950466,-0.0495218,4987,4987,0
217247250,217246941,3932170,3932170,-0.000307805,0.000700455,0.0013514,-0.00430187,0.0152849,-0.0539278,4991,4991,0
217746119,217745825,3932170,3932170,-0.000403863,0.000244637,0.000693633,-4.18485e-05,0.019991,-0.0476291,4993,4993,0
218249974,218249693,3932170,3932170,-0.000365163,0.000391487,0.000112862,-0.00193827,0.00142704,-0.0440365,4988,4988,0
218748826,218748573,3932170,3932170,-0.000149354,0.000132031,0.000272567,-0.00245688,0.0122339,-0.0531801,4989,4989,0
219248185,219247456,3932170,3932170,-0.000550176,-9.41834e-05,-0.000111803,-0.00721866,-0.0112504,-0.0500865,4991,4991,0
219746860,219746539,3932170,3932170,-0.000423012,-9.95557e-05,-0.000217692,-0.00106489,-0.00300295,-0.0472118,5016,5016,0
220245486,220245231,3932170,3932170,0.00089249,-0.000735282,-0.00039845,0.00529225,-0.0149946,-0.0431538,4989,4989,0
220744379,220744101,3932170,3932170,-0.000423601,-3.29667e-05,-0.00148655,-9.13427e-05,-0.0231248,-0.0433982,4989,4989,0
221248223,221247972,3932170,3932170,0.000379203,-9.23612e-05,7.0479e-05,-0.00472454,-2.72084e-05,-0.0540165,4985,4985,0
221747123,221746855,3932170,3932170,3.72206e-05,0.000168356,-0.000912416,-0.00277837,-0.00512173,-0.0456134,4988,4988,0
222245987,222245737,3932170,3932170,0.000447208,0.000325417,-0.000439307,0.00263956,-0.00138879,-0.041518,4986,4986,0
222749887,222749629,3932170,3932170,0.000255193,-0.000772344,-0.000279297,0.00132765,0.00937295,-0.045886,5004,5004,0
223243975,223243657,3932170,3932170,3.69833e-05,9.81389e-05,-0.00065889,-0.00366294,-0.00749814,-0.0460695,4962,4962,0
223747630,223747374,3932170,3932170,0.000354524,-0.000784211,-0.00140791,0.00254468,-0.0295597,-0.039511,4987,4987,0
224246574,224246257,3932170,3932170,-0.000528007,0.00153055,0.000199939,-0.00319227,0.0118545,-0.0543551,4990,4990,0
224745452,224745148,3932170,3932170,0.000124076,-0.000325486,-0.000473384,-0.00456111,-0.0163306,-0.0504295,4998,4998,0
225249261,225249011,3932170,3932170,-0.00303638,0.000383618,0.00104799,-0.00355155,0.0176517,-0.0557973,4989,4989,0
225748682,225747897,3932170,3932170,-0.00055113,0.000200919,0.000199034,-0.00485205,-0.0040712,-0.0515924,4989,4989,0
226247085,226246789,3932170,3932170,-0.000588617,-9.79348e-05,6.30026e-05,-0.0062504,-0.0114429,-0.0516208,4956,4956,0
226746321,226745860,3932170,3932170,-0.000580093,-0.000135649,9.20522e-05,-0.0082304,0.000596975,-0.0520187,4968,4968,0
227244807,227244547,3932170,3932170,0.000444782,-0.000343787,0.000349078,-0.00247699,0.00491051,-0.0498904,4972,4972,0
227748722,227748416,3932170,3932170,-0.000461937,0.000792832,0.000977241,-0.00198457,0.0285975,-0.0570712,4989,4989,0
228247611,228247317,3932170,3932170,-0.000198277,-0.000904375,-0.0001095,-0.00269067,-0.00897243,-0.0486114,4980,4980,0
228746438,228746187,3932170,3932170,0.00157538,0.00155416,0.000276126,0.00134116,0.0203276,-0.0498509,4984,4984,0
229245359,229245068,3932170,3932170,0.000896837,-0.000352248,-0.000699707,0.0042051,0.0105727,-0.0461938,4988,4988,0
229749259,229749000,3932170,3932170,-0.000195809,-0.000162664,0.000527929,-0.000685775,0.0130313,-0.0426809,4994,4994,0
230243258,230243004,3932170,3932170,-0.000335629,0.000456644,-0.000221333,-0.00242554,-0.00727453,-0.0388534,4965,4965,0
230746977,230746715,3932170,3932170,-0.000725061,0.000724805,0.000407963,-0.00527447,-0.00140032,-0.0444982,4995,4995,0
231245908,231245596,3932170,3932170,-0.000274913,0.000340388,-0.000253551,-0.00489919,-0.0138655,-0.0571407,4992,4992,0
231744720,231744477,3932170,3932170,0.000932876,4.38836e-05,-0.000936273,-0.00276371,-0.0275878,-0.0486998,4989,4989,0
232248732,232248368,3932170,3932170,-0.000154438,-0.000369677,-0.00114358,0.00179366,-0.0255269,-0.0456886,5006,5006,0
232747522,232747235,3932170,3932170,0.00021722,0.000504596,0.000577875,-0.00185581,0.015522,-0.0567926,4989,4989,0
233246499,233246167,3932170,3932170,-0.00173623,0.000392071,0.00107874,-0.00975786,0.012013,-0.049382,4952,4952,0
233745432,233745143,3932170,3932170,-0.00138614,0.000162154,-0.000158127,-0.00990299,-0.0133442,-0.0456327,4964,4964,0
234244153,234243889,3932170,3932170,-0.00024129,-0.00104669,2.49043e-05,-0.00113792,-0.00187082,-0.0439477,4989,4989,0
234748086,234747767,3932170,3932170,-0.000868544,0.000354067,0.000505055,-0.0102534,0.0160402,-0.0554901,4993,4993,0
235246896,235246648,3932170,3932170,-0.000561201,0.000364197,0.000482326,-0.00114368,-0.00157158,-0.050908,4989,4989,0
235745832,235745533,3932170,3932170,0.00133699,-0.00102971,-0.000187077,0.00509953,-0.00743013,-0.0468849,4989,4989,0
236249655,236249407,3932170,3932170,-0.000261063,5.63699e-05,7.27046e-05,-0.00170445,-0.00521856,-0.0447757,4989,4989,0
236743628,236743341,3932170,3932170,0.000249808,0.000706381,8.23017e-05,-0.00206892,-0.00762197,-0.0520077,4972,4972,0
237247641,237247300,3932170,3932170,0.000243814,-0.000457974,0.000894442,-0.000959626,-0.00148429,-0.0523293,4960,4960,0
237746384,237746108,3932170,3932170,-0.000338483,-0.000100015,4.63082e-05,-0.00217318,-0.000657931,-0.0447785,4986,4986,0
238245230,238244950,3932170,3932170,0.000736617,-0.00074161,-0.000413448,0.00493225,-0.00980495,-0.0409501,4991,4991,0
238749100,238748826,3932170,3932170,0.000681714,-0.000407333,-0.000820245,0.000204937,-0.0229414,-0.0426578,4992,4992,0
239247956,239247709,3932170,3932170,-0.000773022,-0.000851904,-0.000243482,-0.00287355,0.000696813,-0.045004,4989,4989,0
239747235,239746599,3932170,3932170,-0.00116994,0.00101765,0.00114577,-0.00559086,0.00570208,-0.05227,4991,4991,0
240245748,240245498,3932170,3932170,0.00127289,-0.000933705,-0.00130528,4.64448e-05,-0.029175,-0.0434215,4975,4975,0
240745417,240744504,3932170,3932170,-0.000192524,0.000497877,0.00117555,-0.00151177,0.0237621,-0.0548921,4970,4970,0
241243509,241243252,3932170,3932170,0.000620517,0.000854835,-0.000482376,-0.00325102,0.0014236,-0.0452936,4988,4988,0
241747396,241747127,3932170,3932170,-0.00046463,0.000180536,0.000655477,-0.00430857,-0.000914983,-0.0505509,4988,4988,0
242246312,242246014,3932170,3932170,-0.00165609,0.000999849,0.000492433,-0.0109967,0.0160903,-0.0549201,4989,4989,0
242745145,242744900,3932170,3932170,-0.000949752,0.000411829,0.00110526,-0.00463567,0.0173464,-0.051055,4987,4987,0
243249067,243248776,3932170,3932170,-3.68193e-05,8.77605e-05,0.000330254,-0.00268257,0.00300817,-0.0518943,4989,4989,0
243748000,243747663,3932170,3932170,0.000148127,-6.29762e-05,-0.000915422,-0.00101138,-0.0117473,-0.0439549,4981,4981,0
244247027,244246724,3932170,3932170,-0.000808278,0.000564253,0.0010207,-0.00148312,0.0260192,-0.0472937,4951,4951,0
244745691,244745437,3932170,3932170,-8.22492e-05,-0.000228888,-8.61528e-05,0.00343308,0.00618152,-0.0454598,4990,4990,0
245249579,245249315,3932170,3932170,-0.0010436,0.000920837,0.0009457,-0.00626805,0.0132628,-0.0532489,4992,4992,0
245748518,245748202,3932170,3932170,-0.000148186,0.000755255,0.000901195,-0.00744263,0.0364233,-0.0621831,4992,4992,0
246247695,246247089,3932170,3932170,0.000544398,0.000741906,0.00112,-0.00420694,0.0089335,-0.0548692,4992,4992,0
246746282,246745975,3932170,3932170,-0.00129384,8.94557e-05,0.000299163,-0.00498986,-0.00785878,-0.052155,4992,4992,0
247250570,247249850,3932170,3932170,0.000993472,1.54026e-05,0.000297527,-0.00206127,0.0137783,-0.0545594,4983,4983,0
247744175,247743879,3932170,3932170,-0.00134236,0.000786789,-0.000656523,-0.00668989,-0.0068901,-0.0463109,4920,4920,0
248247885,248247624,3932170,3932170,-0.000442526,-0.000494382,-0.000808533,-0.000639084,-0.0228728,-0.0415075,4989,4989,0
248746862,248746511,3932170,3932170,0.00163455,-0.00117497,-0.000501348,0.00602476,-0.0178819,-0.042626,4984,4984,0
249245691,249245399,3932170,3932170,0.000945353,-0.000268804,0.000270274,0.00147521,0.00225418,-0.0468566,4989,4989,0
249749583,249749276,3932170,3932170,3.00824e-05,-0.000152558,0.000152357,-0.00036408,-0.00734653,-0.0431862,4990,4990,0
250248461,250248169,3932170,3932170,-0.000304829,-0.000168605,0.00044745,-0.00340028,-0.00788723,-0.0512264,4986,4986,0
250747358,250747056,3932170,3932170,8.95799e-05,7.02991e-05,4.71456e-05,-0.00490729,-0.00721053,-0.0514451,4963,4963,0
251246432,251246054,3932170,3932170,-0.000753391,0.00100425,0.000630317,-0.00658173,0.0129197,-0.0517239,4964,4964,0
251745094,251744827,3932170,3932170,-0.00141407,0.000338556,0.00064903,-0.0087285,0.0108435,-0.0560532,4981,4981,0
252243980,252243719,3932170,3932170,0.00106377,-0.000488602,0.000579984,0.00308369,0.0139888,-0.0487741,4970,4970,0
252747909,252747594,3932170,3932170,0.00012605,0.000746646,0.00056355,-0.00433395,0.0121698,-0.0512735,4988,4988,0
253246731,253246484,3932170,3932170,0.00174752,1.48474e-05,-0.000975798,0.00829285,-0.0193396,-0.0427787,4992,4992,0
253750615,253750359,3932170,3932170,-0.00108674,-7.40675e-05,0.000191021,0.00109512,-0.00207851,-0.0465808,4989,4989,0
254244648,254244312,3932170,3932170,0.000206297,-0.000798952,-0.00173828,-0.00414315,-0.0266201,-0.0454809,5043,5043,0
254743715,254743274,3932170,3932170,0.00115787,9.91109e-05,0.000222115,0.000297078,0.0131063,-0.0487781,4971,4971,0
255247291,255247029,3932170,3932170,0.000275912,-0.000342616,-0.000698354,0.00162855,-0.0202465,-0.0418431,4994,4994,0
255746177,255745912,3932170,3932170,-0.000719492,0.000744431,0.00135825,-0.00585782,0.0264518,-0.0545604,4989,4989,0
256245098,256244803,3932170,3932170,0.000192743,-0.000434186,-0.000619408,-0.00307455,-0.018885,-0.040053,4988,4988,0
256748926,256748679,3932170,3932170,0.00108286,-0.000674351,-0.000968114,0.00643204,-0.00655076,-0.0435978,4989,4989,0
257247817,257247568,3932170,3932170,-0.00189543,0.00103366,0.00112932,-0.00995725,0.0101483,-0.0551764,4988,4988,0
257746813,257746458,3932170,3932170,-0.000600791,-7.22915e-05,0.000937204,-0.0010597,0.00266105,-0.0479407,4988,4988,0
258245812,258245469,3932170,3932170,-0.000816724,0.000492287,0.000716662,-0.00766812,0.0170138,-0.0545476,4968,4968,0
258744502,258744236,3932170,3932170,0.000725575,-0.000259692,-0.000685386,0.00565359,0.00366146,-0.0499242,4989,4989,0
259248382,259248115,3932170,3932170,0.000325942,-0.00037023,-3.51198e-05,-0.00165897,-0.00438716,-0.0511097,4989,4989,0
259747296,259747004,3932170,3932170,0.000317036,-0.000502746,-0.00121578,-0.00107674,-0.0282643,-0.0426508,4988,4988,0
260246148,260245895,3932170,3932170,0.000207072,-0.000360171,-0.000720264,-0.000907664,-0.0158389,-0.0440648,4985,4985,0
260750136,260749771,3932170,3932170,4.986e-05,0.000153921,8.22995e-06,-0.00140576,0.00293444,-0.0467721,4988,4988,0
261248974,261248663,3932170,3932170,7.03903e-05,-0.000114202,-0.000668066,-0.000354111,-0.000551912,-0.0445827,4990,4990,0
261747965,261747712,3932170,3932170,0.00132027,-2.78866e-05,-0.00124285,0.00174461,-0.0172866,-0.0444222,4938,4938,0
262246701,262246444,3932170,3932170,0.000183873,0.000246076,0.00118059,-0.00146851,0.0263755,-0.0493832,4993,4993,0
262745633,262745331,3932170,3932170,0.000783792,0.000304331,0.000228022,-0.000510684,0.0122191,-0.0460111,4989,4989,0
263244549,263244253,3932170,3932170,0.000928337,-0.000589546,-0.000932738,-0.00163784,-0.0252543,-0.0464487,4998,4998,0
263748349,263748100,3932170,3932170,-0.000697747,0.000221293,-0.000979717,-0.00552466,-0.024475,-0.0466664,4983,4983,0
264247245,264246992,3932170,3932170,0.000150436,-0.000430936,-0.00119945,0.000431214,-0.0219759,-0.0448745,4985,4985,0
264746130,264745882,3932170,3932170,-0.000131044,-0.000278326,0.000414347,-0.00230109,-0.0051726,-0.0484769,4982,4982,0
265245167,265244869,3932170,3932170,0.000159081,-0.000315706,4.35445e-05,0.0020895,0.00178968,-0.0516563,4969,4969,0
265743924,265743661,3932170,3932170,-0.000386015,-0.000131754,0.000389094,-0.00407152,-0.00487298,-0.0524725,4984,4984,0
266247817,266247563,3932170,3932170,-0.000423805,0.000592374,0.000770246,-0.00354317,0.012929,-0.0508323,4994,4994,0
266746750,266746433,3932170,3932170,0.000528166,-6.02021e-05,-0.00084143,0.00139147,-0.0200241,-0.0473769,4989,4989,0
267245566,267245322,3932170,3932170,-0.000482401,0.000483773,0.000664856,-0.00189553,-0.00362683,-0.0498308,4989,4989,0
267749930,267749205,3932170,3932170,-0.00138638,0.000190193,0.00118315,-0.0052069,-0.00412503,-0.0496302,4991,4991,0
268248393,268248124,3932170,3932170,-0.000985543,0.000442595,0.00113838,-0.00526621,0.00289795,-0.0529584,5020,5020,0
268747826,268747072,3932170,3932170,-0.000347328,6.59053e-05,0.000423995,-0.00388418,7.52828e-05,-0.0525047,4967,4967,0
269246428,269246142,3932170,3932170,0.000293601,-0.000141502,-0.000114534,0.000392846,0.00351487,-0.0495932,5256,5256,0
269745041,269744772,3932170,3932170,0.00128316,-0.000690311,-0.000735454,0.000452415,-0.0092852,-0.0480049,4995,4995,0
270248955,270248646,3932170,3932170,-0.000727001,0.000321531,-0.000319346,0.00167285,0.00657613,-0.0479807,4989,4989,0
270747826,270747537,3932170,3932170,-0.000742095,0.000119446,-0.000383029,-0.00441614,-0.0164228,-0.050305,4987,4987,0
271246681,271246428,3932170,3932170,-0.00116438,0.000404524,0.000765686,-0.00785782,0.0108194,-0.0529421,4969,4969,0
271750624,271750309,3932170,3932170,0.000977429,-0.000612365,-0.000653678,0.00360388,-0.0147585,-0.0433319,4987,4987,0
272244646,272244314,3932170,3932170,-0.000442802,0.000368055,0.00114312,0.000366811,0.0233292,-0.0530746,4964,4964,0
272748670,272748359,3932170,3932170,-0.000156466,5.50402e-05,0.000357921,-0.00405825,-0.00376059,-0.0495911,5253,5253,0
273247324,273246987,3932170,3932170,0.000842501,0.00017396,0.000473897,0.00215066,0.0271585,-0.0502784,4990,4990,0
273746122,273745876,3932170,3932170,-0.000255967,0.000395375,0.000217908,0.00102867,0.0119805,-0.0440762,4989,4989,0
274250336,274249761,3932170,3932170,-0.000156105,-0.000434681,1.09223e-05,-0.000394274,0.000318402,-0.0460875,4993,4993,0
274748893,274748648,3932170,3932170,-0.00108172,0.000440446,0.000467547,-0.00338637,0.000927442,-0.0499571,4988,4988,0
275247945,275247541,3932170,3932170,-0.000414384,-0.000284963,-0.000127574,-0.00205045,-0.0087203,-0.052212,4989,4989,0
275746853,275746565,3932170,3932170,-0.00100884,0.000816049,0.00165745,-0.00619792,0.0265015,-0.0546966,4971,4971,0
276245974,276245593,3932170,3932170,-0.00107831,0.000207772,0.00158342,-0.00392333,0.0237705,-0.057779,5257,5257,0
276744522,276744217,3932170,3932170,-0.000247067,-0.00102098,-0.000849976,-0.00124757,-0.0201281,-0.0429348,4989,4989,0
277248448,277248125,3932170,3932170,0.000836964,-0.000411935,-0.000861525,0.000645143,0.000955264,-0.0514388,4994,4994,0
277747240,277746991,3932170,3932170,-0.000275863,-0.000266703,-0.000588262,-0.00174997,-0.0222717,-0.0466703,4989,4989,0
278246178,278245884,3932170,3932170,-0.000356824,0.000540066,0.00142973,-0.00228093,0.0367887,-0.0572297,4981,4981,0
278750023,278749767,3932170,3932170,-0.00128621,-0.000427457,-0.000343699,-0.00683018,-0.00676015,-0.0504201,4967,4967,0
279244106,279243803,3932170,3932170,-0.00133772,0.000508382,0.000759179,-0.00551834,0.0149783,-0.0490643,4951,4951,0
279748164,279747810,3932170,3932170,-0.000625648,-0.00163103,-0.000321695,-0.00616157,-0.0143901,-0.0459145,4965,4965,0
280246750,280246447,3932170,3932170,-0.000369444,0.000980838,0.000722725,-0.00497563,0.0105969,-0.0579932,4989,4989,0
280745594,280745345,3932170,3932170,0.000474075,2.7521e-05,-0.000256972,0.00240667,0.00673091,-0.049631,4997,4997,0
281249495,281249218,3932170,3932170,0.000997647,-0.000879898,-0.00121897,-0.000712604,-0.0262606,-0.0440957,4988,4988,0
281748830,281748107,3932170,3932170,-0.000146502,0.000623679,0.000939822,-0.00596694,0.0147584,-0.0566348,4979,4979,0
282247257,282247006,3932170,3932170,0.000203181,0.000124894,0.000787359,-0.00177798,0.000950879,-0.0520953,4975,4975,0
282746417,282745981,3932170,3932170,-0.000421773,0.000939573,0.000907911,-0.0043191,0.0322235,-0.0575268,4978,4978,0
283245293,283245044,3932170,3932170,0.00126308,-0.00132512,-0.000923392,0.00374604,-0.0280974,-0.0454507,5238,5238,0
283743945,283743685,3932170,3932170,0.00200923,-0.000207809,-0.000475715,0.00554597,-0.00903418,-0.0440868,4989,4989,0
284247868,284247567,3932170,3932170,0.000837969,-5.19217e-05,-0.000570181,0.00438255,0.00845964,-0.0436576,4989,4989,0
284746752,284746461,3932170,3932170,-0.000232781,-7.88961e-05,-0.000140256,0.000231985,-0.00206108,-0.0417139,4989,4989,0
285245602,285245355,3932170,3932170,0.000135608,-0.000699163,-0.000996248,-0.00619065,-0.0201878,-0.0449584,4984,4984,0
285749486,285749237,3932170,3932170,-0.000775614,-0.000351934,0.000362645,-0.00124814,0.00358655,-0.0455709,4988,4988,0
286243577,286243242,3932170,3932170,0.00103379,0.000452634,0.000203395,0.0012,-0.000572695,-0.0468671,4957,4957,0
286747610,286747274,3932170,3932170,0.000107989,6.02029e-05,0.000436678,-0.00130238,-0.00322687,-0.05002,4927,4927,0
287246182,287245919,3932170,3932170,-0.000645255,0.000139618,0.000570487,-0.000974117,-0.00559709,-0.0488427,4990,4990,0
287745052,287744813,3932170,3932170,0.000663035,-0.000698233,-0.000572049,-0.000667905,-0.0135417,-0.0494246,4989,4989,0
288248965,288248697,3932170,3932170,-0.000647336,-0.000783673,0.000679546,-0.00497124,0.00453492,-0.0542486,4987,4987,0
288747835,288747590,3932170,3932170,-0.000845295,-5.70911e-05,0.00105627,-0.00619366,0.0119836,-0.0481723,4989,4989,0
289246808,289246486,3932170,3932170,-0.000635708,-6.10543e-05,0.000255788,-0.00655011,-0.0161574,-0.0501662,4989,4989,0
289745785,289745499,3932170,3932170,-0.0010699,3.00449e-05,-0.000532253,-0.00804627,-0.00333557,-0.053367,4966,4966,0
290244918,290244529,3932170,3932170,0.000194942,-0.000463988,-0.00016503,0.00129447,0.00109088,-0.0428478,4967,4967,0
290748452,290748156,3932170,3932170,-0.000660133,-0.000908749,8.72536e-05,-0.00242485,0.00118422,-0.0548234,4988,4988,0
291247329,291247082,3932170,3932170,0.00043293,-0.00100195,0.000513612,0.000562335,0.00809778,-0.0523256,4982,4982,0
291746208,291745946,3932170,3932170,8.8905e-05,0.000718293,0.000868678,-0.00292782,0.0233182,-0.0553274,4989,4989,0
292250154,292249850,3932170,3932170,-0.00105517,0.000584212,0.000911868,-0.00738907,0.00425977,-0.054053,5009,5009,0
292749018,292748771,3932170,3932170,0.000470412,-0.000413294,-0.000617407,0.00145929,-0.00700587,-0.0418575,4983,4983,0
293243089,293242803,3932170,3932170,0.00127548,-0.00112912,-0.000896246,0.00148587,-0.00826553,-0.0429437,4995,4995,0
293747007,293746755,3932170,3932170,0.000850131,0.00047988,-0.000488433,0.0060533,0.000937769,-0.0424104,4920,4920,0
294245665,294245410,3932170,3932170,-0.00200518,-8.14479e-05,0.000218766,-0.00807365,0.00210099,-0.053598,4960,4960,0
294749549,294749296,3932170,3932170,0.00149696,-0.000165796,-0.000479829,0.00490188,-0.0122155,-0.0448159,4992,4992,0
295248440,295248195,3932170,3932170,-0.000603509,-6.58715e-06,0.000208673,-0.000767181,-0.00643186,-0.0388103,4992,4992,0
295747337,295747086,3932170,3932170,-0.00099322,-0.000244241,0.00027282,-0.00484104,-0.0182105,-0.0446956,4983,4983,0
296246228,296245980,3932170,3932170,0.00121494,-0.00160598,-0.000510621,0.00329085,0.000938185,-0.0461664,4989,4989,0
296745453,296744938,3932170,3932170,0.000703292,0.00021053,-0.00063988,-0.00344147,-0.00393437,-0.0520215,4967,4967,0
297244226,297244003,3932170,3932170,-0.00137507,0.00144959,0.00102136,-0.00571002,0.0253527,-0.053487,4948,4948,0
297747917,297747655,3932170,3932170,2.54301e-06,-4.42729e-05,-2.27566e-05,-0.00495794,-0.00184528,-0.0493255,4989,4989,0
298246918,298246551,3932170,3932170,-0.000416838,-0.000604404,-3.04292e-05,-0.00472223,-0.0168122,-0.0496243,4989,4989,0
298745693,298745446,3932170,3932170,-0.000227159,-0.000927038,-5.14072e-05,-0.00383652,0.00361924,-0.0519645,4989,4989,0
299249580,299249332,3932170,3932170,0.000190678,0.000100877,-0.000110816,-0.00257811,0.000400988,-0.0528693,4989,4989,0
299748477,299748229,3932170,3932170,-0.00138065,0.000296505,-0.000360626,-0.00500553,-0.0198443,-0.0486337,4990,4990,0
300247428,300247173,3932170,3932170,-0.000914957,-0.00025422,-0.000431097,-0.00622415,-0.0147552,-0.0452529,4952,4952,0
300746598,300746262,3932170,3932170,0.00143632,-0.00106841,-0.000864452,0.00395861,-0.0110194,-0.0388259,4960,4960,0
301245183,301244917,3932170,3932170,0.00173352,-0.000911096,-0.00087127,0.00390995,-0.002138,-0.0423603,4987,4987,0
301749058,301748806,3932170,3932170,0.000267162,0.00192133,0.000467187,-0.00346061,0.00167322,-0.050279,4995,4995,0
302247989,302247737,3932170,3932170,-0.00164253,0.000204624,0.000800781,-0.00629346,0.0173563,-0.0563603,4984,4984,0
302746867,302746595,3932170,3932170,-0.000474103,0.00278419,1.17386e-05,-0.00815881,-0.0030198,-0.058061,4990,4990,0
303251450,303250480,3932170,3932170,-0.000853173,0.000588229,0.000194354,-0.00616879,-0.00855306,-0.0543124,4983,4983,0
303744692,303744446,3932170,3932170,0.00141769,-0.000532231,-0.000999522,0.00398299,-0.00303302,-0.0448754,4925,4925,0
304243935,304243514,3932170,3932170,-0.000882073,0.000144582,3.79089e-05,-0.00203513,-0.00772199,-0.0354441,4962,4962,0
304747441,304747171,3932170,3932170,-0.000538442,-0.000151897,0.000428657,-0.0037876,0.000375947,-0.0439809,4990,4990,0
305246396,305246081,3932170,3932170,-0.00154363,2.63817e-05,0.000223628,-0.00863342,-0.0206745,-0.0470171,4987,4987,0
305745273,305744967,3932170,3932170,-0.000681547,0.000444657,0.000519545,-0.00401015,0.00629578,-0.0531569,4994,4994,0
306249101,306248848,3932170,3932170,-0.000734342,8.05344e-05,0.000454217,-0.00600837,0.000246465,-0.052299,4988,4988,0
306748021,306747756,3932170,3932170,-0.00034311,0.000140077,0.000503384,-0.00437138,0.00890793,-0.0520057,4998,4998,0
307246925,307246674,3932170,3932170,-0.000341657,0.00010576,-0.000225692,-0.00489457,-0.0114632,-0.0505195,4954,4954,0
307746028,307745762,3932170,3932170,-0.000728445,-0.000554916,-0.000658197,-0.00776532,-0.0192304,-0.0478866,4963,4963,0
308244746,308244486,3932170,3932170,-0.000731784,-0.00020418,-0.000396511,-0.00069178,-0.00827457,-0.0441139,4991,4991,0
308748640,308748325,3932170,3932170,-0.000164177,-0.000158042,-0.000743423,0.00240418,-0.0042386,-0.0441142,4992,4992,0
309247465,309247220,3932170,3932170,-0.000979231,-0.00065417,-0.000622998,0.00194016,-0.0175193,-0.0420857,4988,4988,0
309746375,309746119,3932170,3932170,-0.000217087,7.1211e-05,0.000878178,-0.00298306,-0.00326272,-0.0482801,4990,4990,0
310250256,310250004,3932170,3932170,-0.00153564,3.83347e-05,0.000784267,-0.00535625,-0.00366614,-0.0485745,4989,4989,0
310744395,310744010,3932170,3932170,-6.75675e-05,0.000481423,0.000475139,0.00217439,0.0240304,-0.0538934,4958,4958,0
311248354,311248005,3932170,3932170,0.00105749,-0.00025574,-0.000854276,0.00138267,-0.020462,-0.0482827,4967,4967,0
311746951,311746697,3932170,3932170,0.00046559,-0.000188031,0.000947578,0.000490366,0.0222995,-0.0510669,4988,4988,0
312245930,312245655,3932170,3932170,0.000601263,-0.000144384,1.84039e-05,-0.000715504,0.000427612,-0.0552231,5050,5050,0
312749835,312749494,3932170,3932170,-0.00128733,0.000589569,6.05479e-06,-0.00483999,0.00154547,-0.0513801,5002,5002,0
313248626,313248379,3932170,3932170,0.00094051,-0.000578803,-0.00145323,-0.00368606,-0.0311681,-0.0427751,4986,4986,0
313747616,313747282,3932170,3932170,0.000507986,4.21031e-05,-0.000395353,-0.00443135,-0.00517741,-0.0514668,4994,4994,0
314246530,314246275,3932170,3932170,0.000346518,-0.000181698,-0.000708412,-0.00099003,-0.00243387,-0.0462982,4977,4977,0
314745626,314745285,3932170,3932170,0.000724638,-0.000445908,-0.00067671,0.00330817,-0.0106096,-0.0466196,4969,4969,0
315244237,315243972,3932170,3932170,-0.000716218,-0.000249378,-1.52595e-05,-0.00552969,-0.0221992,-0.0478985,4946,4946,0
315748187,315747861,3932170,3932170,0.000981673,-7.19828e-05,-0.000338746,0.00552056,-0.00389218,-0.046706,4991,4991,0
316247204,316246759,3932170,3932170,-0.000690141,1.25713e-05,7.51406e-05,-0.00218988,-0.000403364,-0.0492751,4991,4991,0
316745903,316745655,3932170,3932170,-0.000469054,-0.000273311,0.000199197,-0.000890873,0.00470325,-0.0449584,4989,4989,0
317250250,317249546,3932170,3932170,0.000579287,-0.000120156,-0.00115937,-0.00258434,-0.0290728,-0.0461222,4991,4991,0
317743802,317743492,3932170,3932170,-0.000971689,0.000267718,0.000792274,-0.00422559,0.0252507,-0.0586959,4970,4970,0
318248297,318247530,3932170,3932170,0.00049101,-0.00015133,0.000286513,-0.00175985,0.00359074,-0.0510208,4964,4964,0
318746494,318746239,3932170,3932170,-0.000173642,-0.000525412,0.000783624,-0.00051777,0.0220717,-0.0507546,4989,4989,0
319245407,319245141,3932170,3932170,0.000618183,-0.0012635,-0.00125955,0.00364057,-0.0229092,-0.041284,4992,4992,0
319749330,319749026,3932170,3932170,-0.000687498,0.000442705,0.000936959,-0.00349202,0.0139961,-0.0567292,4990,4990,0
320248173,320247921,3932170,3932170,0.000296041,-0.000515815,-0.000690433,-0.000847176,-0.00853896,-0.0452039,4925,4925,0
320747118,320746869,3932170,3932170,0.000497523,-0.00119374,-0.000760741,0.00343856,-0.026243,-0.0422542,5032,5032,0
321246095,321245797,3932170,3932170,0.000732601,-0.000295151,-0.000487736,0.00549296,-0.013152,-0.0475119,4971,4971,0
321745103,321744837,3932170,3932170,0.000351359,-0.000125064,0.000366835,0.00592415,0.012804,-0.0423706,4965,4965,0
322243775,322243521,3932170,3932170,-0.000452896,-0.000168285,1.55765e-05,-0.00329943,-0.0239703,-0.0459665,4989,4989,0
322747728,322747417,3932170,3932170,0.0010173,-0.000294151,0.00022898,0.00804697,0.0136222,-0.0516218,4997,4997,0
323246649,323246309,3932170,3932170,0.00011411,0.000141191,1.29196e-05,0.0043095,0.00529224,-0.0478732,4989,4989,0
323750709,323750269,3932170,3932170,0.000167165,2.51036e-05,-0.000292137,0.00136735,-0.00543569,-0.0504619,5027,5027,0
324249342,324249097,3932170,3932170,-1.94848e-05,0.000337414,0.000646826,-0.00429249,-0.00179956,-0.0476284,4987,4987,0
324744051,324743035,3932170,3932170,0.00075839,-0.000893812,-0.000816239,0.00305785,-0.0272953,-0.0414538,4967,4967,0
325247329,325247082,3932170,3932170,0.00169022,-5.66489e-05,-0.000503385,0.00351174,0.0017582,-0.0474574,4971,4971,0
325746056,325745796,3932170,3932170,-0.000712203,0.000289123,-0.000663028,-0.0025973,-0.00873541,-0.0498474,4990,4990,0
326245057,326244696,3932170,3932170,-0.00261785,0.000441972,0.000206302,-0.00851637,-0.0108931,-0.0508241,4989,4989,0
326748892,326748646,3932170,3932170,-0.000293421,-9.48848e-05,0.000568065,-0.000465157,-0.00698612,-0.0465414,5000,5000,0
327247764,327247494,3932170,3932170,0.00127943,-0.000195662,-0.000753622,-0.0011981,-0.0124309,-0.0512934,4999,4999,0
327746684,327746385,3932170,3932170,-0.00100931,0.000161736,-0.000292965,-0.00238401,0.00603579,-0.0538203,4989,4989,0
328245652,328245322,3932170,3932170,-0.00094227,-6.50834e-06,-6.22474e-05,-0.0048787,-0.00362148,-0.0502806,4987,4987,0
328744679,328744376,3932170,3932170,-0.000812029,2.66875e-05,-0.000164147,-0.0033906,-0.0125858,-0.0479563,4967,4967,0
329248347,329248088,3932170,3932170,0.000176782,0.000135638,-0.00011949,-0.00539242,-0.0139995,-0.0499383,5001,5001,0
329747298,329747015,3932170,3932170,-0.0012335,0.00073968,0.000514177,-0.00487025,-0.0059273,-0.0523813,5023,5023,0
330246129,330245875,3932170,3932170,0.00018762,0.000276558,0.0011625,0.000582451,0.0255547,-0.0504068,4985,4985,0
330750087,330749787,3932170,3932170,0.00054962,-9.6393e-05,8.91087e-06,0.00528116,0.015547,-0.0483881,5011,5011,0
331248971,331248677,3932170,3932170,-0.00119603,0.000226666,0.000521806,-0.0101082,0.00194303,-0.0528309,4998,4998,0
331747868,331747617,3932170,3932170,-0.00102689,0.000730813,0.000869313,-0.00577954,0.00314253,-0.0482188,4969,4969,0
332247460,332246646,3932170,3932170,0.000707459,-0.000967024,-6.92958e-05,0.00135129,0.0115991,-0.0490042,4965,4965,0
332745630,332745374,3932170,3932170,0.00126928,-0.00060168,-0.000513041,0.00268619,-0.0111268,-0.0477997,4996,4996,0
333244596,333244322,3932170,3932170,-0.000190601,4.15868e-05,-0.000733248,-0.00269608,-0.00286105,-0.0501136,5041,5041,0
333748450,333748203,3932170,3932170,-0.000502015,0.00015506,6.52891e-05,-0.00324567,0.000996808,-0.0477983,5028,5028,0
334247390,334247060,3932170,3932170,0.00197633,-0.000962418,-0.00131548,0.00700125,-0.0239709,-0.0440192,4985,4985,0
334746221,334745961,3932170,3932170,0.000314294,0.000265449,0.000363147,-0.00422601,0.00828196,-0.0565785,4987,4987,0
335245225,335244868,3932170,3932170,-0.00191696,0.00113104,0.00114728,-0.00633946,0.0149263,-0.0540125,4969,4969,0
335744354,335743971,3932170,3932170,-0.000886104,0.000396525,-0.000121104,-0.00872572,-0.000466045,-0.0526777,4979,4979,0
336247908,336247653,3932170,3932170,-0.000447891,0.000248359,0.00023044,-0.00247825,0.00467802,-0.0502963,4989,4989,0
336746867,336746554,3932170,3932170,-0.00140184,0.00048828,0.000432005,-0.00747514,-0.000295531,-0.0504246,4985,4985,0
337245792,337245456,3932170,3932170,-0.000109918,-0.000382109,6.3684e-06,-0.00153287,0.00439706,-0.0474472,4989,4989,0
337749596,337749348,3932170,3932170,0.000540832,-0.000251632,-9.9123e-05,0.000818679,-0.0153861,-0.0433085,4990,4990,0
338248581,338248247,3932170,3932170,-3.50199e-05,-0.000514605,0.00131645,-0.0012491,0.001875,-0.0473468,4988,4988,0
338747944,338747188,3932170,3932170,-0.00165784,0.00106404,0.00215791,-0.00741652,0.0159458,-0.0540366,4957,4957,0
339246567,339246281,3932170,3932170,0.000267219,2.95387e-05,-0.000133785,0.00526196,0.00696667,-0.045608,4966,4966,0
339745222,339744953,3932170,3932170,0.00137489,-0.000869202,-0.000771846,0.00134856,-0.0088463,-0.0423424,4989,4989,0
340249154,340248843,3932170,3932170,0.000505754,-0.000174801,-0.000626627,0.0023372,0.0044423,-0.0461194,4989,4989,0
340748023,340747776,3932170,3932170,-0.00127488,0.00101468,0.00141721,-0.00902049,0.026894,-0.0561772,4984,4984,0
341246894,341246648,3932170,3932170,0.00087032,2.37609e-05,0.00124115,-0.00333383,0.0072411,-0.0466675,4986,4986,0
341745798,341745550,3932170,3932170,-0.00040583,-0.000182376,0.00173642,-0.00517188,0.00396148,-0.0472484,4989,4989,0
342244751,342244453,3932170,3932170,-4.25919e-05,-0.000822503,-0.000880462,0.000865835,-0.0187781,-0.0426332,4963,4963,0
342743915,342743533,3932170,3932170,0.00162539,-0.000718541,-0.000365188,0.00688634,-0.00495125,-0.0543704,4969,4969,0
343247503,343247245,3932170,3932170,0.0015333,0.000296058,0.000656063,0.00127082,0.0177221,-0.0570751,4985,4985,0
343746428,343746152,3932170,3932170,-0.000907285,-0.000309782,0.000516646,0.00331197,0.0116586,-0.0448339,4992,4992,0
344250334,344250044,3932170,3932170,0.00178486,-0.000994891,-0.00109966,0.00380599,-0.00704727,-0.0389948,4993,4993,0
344749235,344748942,3932170,3932170,-0.000554259,-0.00028117,6.63313e-05,-0.00249911,-0.0102072,-0.0464963,4983,4983,0
345248199,345247858,3932170,3932170,-5.28676e-05,-0.000456016,-0.000493394,-0.000600546,-0.0357063,-0.0464571,4989,4989,0
345747063,345746777,3932170,3932170,-0.000214486,0.000226782,5.08719e-05,-0.00264271,-0.000815812,-0.0487349,4958,4958,0
346246035,346245812,3932170,3932170,-0.000461983,0.000649646,0.000893213,-0.00381593,0.0247941,-0.0536803,4966,4966,0
346744836,346744552,3932170,3932170,0.00105815,-0.00111227,-0.000982282,0.00152465,-0.0264277,-0.0397251,4988,4988,0
347248716,347248444,3932170,3932170,0.000573669,0.000105409,0.000186034,0.0013785,0.00407455,-0.0524242,4989,4989,0
347747593,347747347,3932170,3932170,0.000220455,0.000297331,-0.000610476,-0.00270314,-0.00636187,-0.0518555,4989,4989,0
348246549,348246251,3932170,3932170,-0.00124848,0.000508891,0.000211917,-0.005436,-0.0079799,-0.0478396,4989,4989,0
348750396,348750148,3932170,3932170,0.000566191,-0.000414076,-0.000892596,-0.00188968,-0.0167801,-0.0401936,4995,4995,0
349244404,349244102,3932170,3932170,-0.00045737,-0.000234355,0.000109421,-0.00156055,0.00710452,-0.0508326,4951,4951,0
349748451,349748156,3932170,3932170,0.000537489,-0.00069261,-0.00104474,0.00441668,-0.0336649,-0.0404353,4957,4957,0
350247106,350246852,3932170,3932170,-0.000571451,-9.11742e-05,-0.000111378,0.000309794,0.00378548,-0.049379,4989,4989,0
350746041,350745759,3932170,3932170,-0.00114045,0.000486268,0.00151238,-0.0040472,0.00531108,-0.0486381,4990,4990,0
351249971,351249654,3932170,3932170,-0.000264427,0.000388826,-0.000409957,-0.00117842,-0.00314318,-0.0465884,4995,4995,0
351749196,351748554,3932170,3932170,-0.000708086,0.000562994,0.00102985,-0.00384245,-0.00276366,-0.0525721,4990,4990,0
352247700,352247456,3932170,3932170,0.000429064,0.000307178,-3.50345e-05,-0.00260632,0.00680456,-0.0550114,4990,4990,0
352746790,352746360,3932170,3932170,0.000918224,-6.29061e-05,0.000281539,0.00145135,0.00478041,-0.0478418,4984,4984,0
353245756,353245419,3932170,3932170,-0.000925023,-0.000109787,-0.000166266,0.00557712,0.001877,-0.0454377,4969,4969,0
353744424,353744167,3932170,3932170,0.000578214,-0.000358458,8.47773e-05,0.00129201,-0.00110413,-0.0491055,4985,4985,0
354248335,354248059,3932170,3932170,0.00103862,-6.45596e-05,-0.000991807,0.00303534,-0.00254705,-0.0407661,4989,4989,0
354747273,354746963,3932170,3932170,-0.00440065,6.37276e-05,0.000107462,-0.0054594,-0.0170143,-0.0564449,4990,4990,0
355246172,355245867,3932170,3932170,-0.000538255,0.000223016,-2.72092e-06,-0.00822203,0.00890548,-0.0529259,4986,4986,0
355750051,355749760,3932170,3932170,-0.000369529,0.000192535,5.39436e-05,0.000429348,-0.000633176,-0.0378706,4980,4980,0
356244029,356243720,3932170,3932170,0.00115029,-0.000743287,-0.000355665,0.00628464,-0.0210677,-0.0468869,4980,4980,0
356748011,356747704,3932170,3932170,6.9763e-06,-0.00117708,0.000140331,0.00211813,-0.0142799,-0.0433043,4959,4959,0
357246729,357246473,3932170,3932170,-0.000463466,0.000222435,-8.35501e-05,-0.00553638,-0.011176,-0.0533716,4978,4978,0
357745653,357745377,3932170,3932170,0.000252901,0.000600396,0.00096301,-0.000171698,0.0248366,-0.0536129,4989,4989,0
358249578,358249270,3932170,3932170,0.00109448,-0.000531739,-0.000627478,0.00319918,-0.00934063,-0.0413047,4985,4985,0
358748473,358748176,3932170,3932170,0.00205607,-0.00108077,-0.000299517,0.00474059,-0.00372458,-0.0441663,4994,4994,0
359247651,359247082,3932170,3932170,-0.000272177,-2.82851e-05,0.000445259,-0.00194014,0.004358,-0.0480273,4987,4987,0
359746352,359746056,3932170,3932170,-0.000973051,0.000763502,0.000988172,-0.0062909,0.0214818,-0.0609979,4979,4979,0
360245395,360245054,3932170,3932170,0.000404732,0.00211833,0.000378283,0.00522431,0.0103514,-0.0480043,4930,4930,0
360744053,360743794,3932170,3932170,-0.000982585,0.000198701,0.00039573,0.00109351,-0.0173003,-0.0421397,4990,4990,0
361248008,361247688,3932170,3932170,-0.000316658,-0.000163261,0.000640835,0.00228736,-0.0163683,-0.045575,4990,4990,0
361746886,361746593,3932170,3932170,0.000727059,-0.000425531,-0.000554183,0.0068754,0.00141439,-0.0513363,4990,4990,0
362245792,362245497,3932170,3932170,-0.000651242,0.00046511,0.000617573,-0.00673847,0.00522787,-0.0494219,4988,4988,0
362749682,362749392,3932170,3932170,0.000151505,-0.00111223,-0.00062431,0.00252541,-0.0121198,-0.0421863,4990,4990,0
363243645,363243309,3932170,3932170,-0.000360134,0.000503607,6.33976e-05,-0.00230357,-0.00564122,-0.0519697,4942,4942,0
363747702,363747341,3932170,3932170,0.000511034,-0.00039844,-0.000184493,0.0011622,0.00202839,-0.0513576,4968,4968,0
364246365,364246107,3932170,3932170,0.000718186,-0.00139972,-0.000368746,0.00330941,0.00714496,-0.0489221,4989,4989,0
364745367,364745014,3932170,3932170,-0.00055602,0.000293104,-3.06441e-05,-0.000647357,-0.0147055,-0.0443105,4990,4990,0
365249158,365248909,3932170,3932170,0.000296039,0.000188362,-5.48791e-05,0.00211688,0.00593481,-0.0465936,4990,4990,0
365748510,365747816,3932170,3932170,0.000773629,0.000347612,0.000897532,0.000455623,0.0258108,-0.0475157,4992,4992,0
366246963,366246719,3932170,3932170,0.00119812,0.000678969,0.00109143,-0.000438048,0.0226317,-0.0548323,4989,4989,0
366745980,366745635,3932170,3932170,-0.0025458,0.0004965,0.00129046,-0.00650213,0.0121252,-0.0537776,4968,4968,0
367245011,367244674,3932170,3932170,0.000481417,-0.00271917,-0.000644711,0.00165932,-0.0101741,-0.0419171,4971,4971,0
367748699,367748428,3932170,3932170,0.00105814,-0.000688467,-0.00136495,-0.00330048,-0.0316297,-0.0431272,4992,4992,0
368247641,368247330,3932170,3932170,0.00142699,-0.000597868,-0.000403568,0.00505966,-0.0068446,-0.0479599,4984,4984,0
368746488,368746239,3932170,3932170,0.00184909,-0.000545377,-0.000392097,0.00601829,-0.00513115,-0.0455432,4992,4992,0
369245462,369245142,3932170,3932170,0.00279542,3.43031e-06,0.000494859,0.00032927,0.020382,-0.0568745,4987,4987,0
369749291,369749039,3932170,3932170,-0.000219548,-0.000167268,8.36602e-05,0.000503043,0.0127422,-0.0474836,4988,4988,0
370243259,370242965,3932170,3932170,0.000320718,-0.000198172,0.000230395,0.00193673,-0.00655052,-0.0418555,4951,4951,0
370747282,370746972,3932170,3932170,-0.00124541,0.00068738,0.00128961,-0.00538204,0.0201225,-0.0509662,4970,4970,0
371246034,371245759,3932170,3932170,0.000251657,0.000154729,0.000160845,-0.0045116,0.00887247,-0.0554698,4992,4992,0
371744939,371744662,3932170,3932170,0.000208535,0.000301643,0.000386308,0.00430668,0.0117374,-0.0483561,4989,4989,0
372248964,372248562,3932170,3932170,-0.0054369,-0.000939451,0.000394841,-0.00865493,0.0111141,-0.0596521,4994,4994,0
372747711,372747464,3932170,3932170,0.00558016,-2.85049e-05,-0.00142415,5.06252e-05,-0.0114783,-0.0523072,4989,4989,0
373246958,373246372,3932170,3932170,0.00116027,0.000258205,0.000456608,-0.00155933,-0.00955443,-0.0426089,4988,4988,0
373745572,373745284,3932170,3932170,-0.00109113,2.59566e-05,-4.59854e-05,-0.00258845,-0.000292769,-0.0500056,4993,4993,0
374244854,374244320,3932170,3932170,-0.000728294,0.000129462,0.000766027,-0.00409031,-0.00983004,-0.0447127,4975,4975,0
374748365,374748091,3932170,3932170,-0.00169227,-4.87527e-05,-0.000237085,-0.00494482,-0.00659575,-0.0549345,5000,5000,0
375247292,375246986,3932170,3932170,0.00188656,-0.000178843,-0.000506952,0.000340619,0.00604392,-0.0459737,4982,4982,0
375746183,375745894,3932170,3932170,0.000403807,0.000248419,0.000413272,0.000287557,-0.00152754,-0.051033,4987,4987,0
376250104,376249790,3932170,3932170,0.00168231,-6.53005e-05,-0.000761915,-0.000350618,-0.00604593,-0.0516817,4989,4989,0
376748995,376748697,3932170,3932170,-0.00135894,-0.000132237,0.000198004,-0.00531195,-0.015062,-0.0516479,4986,4986,0
377247859,377247610,3932170,3932170,0.000853275,-0.000569703,-0.000520625,0.00508186,-0.0120172,-0.0440379,4984,4984,0
377746925,377746626,3932170,3932170,-0.000947194,0.00045903,0.000727783,-0.00498408,0.0176121,-0.0567983,4957,4957,0
378245681,378245419,3932170,3932170,0.00202153,-0.000864382,-0.00130822,0.00628875,-0.0130857,-0.0462666,4990,4990,0
378749588,378749318,3932170,3932170,0.000231913,5.50443e-06,-0.000576306,-0.00457123,0.00795307,-0.0400925,4992,4992,0
379248465,379248222,3932170,3932170,0.000684794,-0.000100224,-0.000279625,-0.00414674,-0.0146499,-0.0513621,4989,4989,0
379747520,379747133,3932170,3932170,0.000580547,-0.000674972,-0.00104788,0.00221547,-0.02019,-0.0460067,4992,4992,0
380246321,380246038,3932170,3932170,-0.00157426,0.000603088,0.000733873,-0.00359635,0.00834498,-0.0488076,4990,4990,0
380745317,380744990,3932170,3932170,0.000953488,6.79027e-05,-0.000257482,0.00119774,-0.00541996,-0.0482307,5023,5023,0
381244267,381243975,3932170,3932170,-0.00155773,0.000173413,0.000506825,-0.00755232,-0.00256325,-0.052821,4963,4963,0
381748007,381747754,3932170,3932170,0.0009653,-0.000912798,-0.0014869,0.00561022,-0.0282124,-0.0392257,4994,4994,0
382246957,382246657,3932170,3932170,0.00123662,-0.000899471,-0.000709189,0.00533144,-0.0222396,-0.0426867,4989,4989,0
382745868,382745565,3932170,3932170,0.000200126,0.000196287,0.000325484,-0.001015,-0.00592734,-0.0537564,4989,4989,0
383249709,383249462,3932170,3932170,-7.53552e-05,-0.00031089,-0.00126289,-0.00240619,-0.0348098,-0.0439704,4989,4989,0
383748619,383748371,3932170,3932170,-0.000241524,0.000399248,0.000573628,-0.00282435,0.0127118,-0.0573766,4971,4971,0
384247618,384247279,3932170,3932170,0.000763758,-0.000459374,-0.000257504,0.00195697,-0.00487223,-0.0471335,4982,4982,0
384746594,384746347,3932170,3932170,0.000321256,0.000112208,-0.00029483,0.00134264,0.00598204,-0.0425964,4969,4969,0
385245367,385245104,3932170,3932170,0.00114137,0.000370681,0.00039118,-0.00342929,0.0101733,-0.0510247,4995,4995,0
385749320,385749000,3932170,3932170,0.000896894,-0.000971009,-0.000468644,0.0020336,-0.0135528,-0.0387202,4997,4997,0
386248341,386248001,3932170,3932170,1.61004e-05,-0.000284314,-0.000747672,-8.73072e-05,-0.0201177,-0.0493668,5039,5039,0
386747058,386746809,3932170,3932170,-0.000522587,0.000140646,0.000102735,-0.00421073,-0.0134972,-0.0514036,4988,4988,0
387251437,387250708,3932170,3932170,-0.00095244,0.000680792,0.00104608,-0.00667238,0.0133837,-0.0560157,4988,4988,0
387744932,387744675,3932170,3932170,-0.00116594,8.95927e-05,0.000143856,-0.00276573,-0.0021158,-0.0558504,5027,5027,0
388244081,388243645,3932170,3932170,0.000263501,-0.000261558,-0.000792761,0.00196483,-0.0171203,-0.0452317,4954,4954,0
388747986,388747708,3932170,3932170,-0.000836485,5.75658e-05,-0.000184343,0.00169554,-0.00189685,-0.0480197,5264,5264,0
389246599,389246342,3932170,3932170,0.00134388,-0.000482367,-0.000389834,0.00041576,-0.0141263,-0.0398167,4972,4972,0
389745507,389745251,3932170,3932170,-0.000172276,0.00060635,0.000421781,-0.00401139,0.0193229,-0.0555638,4990,4990,0
390249456,390249156,3932170,3932170,0.00148234,-0.000348261,-0.000457665,0.00455068,-0.00108183,-0.0496012,4997,4997,0
390743341,390743086,3932170,3932170,-0.0026193,1.10873e-05,0.000460916,-0.00357833,0.0050128,-0.0508491,4977,4977,0
391247247,391246968,3932170,3932170,-0.000812973,-0.000897983,-0.000495801,-0.00118444,-0.0296006,-0.0406066,4984,4984,0
391746271,391745971,3932170,3932170,0.000112458,0.00170145,0.00017767,-0.00294066,0.000460352,-0.0452416,4954,4954,0
392245056,392244788,3932170,3932170,-0.00100801,-6.47252e-05,-0.000138109,-0.00369605,-0.022614,-0.0526175,4992,4992,0
392749047,392748685,3932170,3932170,0.0004152,-2.53632e-05,-0.000374373,-0.00238908,0.00660075,-0.0454264,4990,4990,0
393247836,393247592,3932170,3932170,0.00184324,-0.000419066,-0.00106726,0.00183327,-0.0271337,-0.0445895,4988,4988,0
393746855,393746557,3932170,3932170,-0.0013011,-1.73181e-05,-0.000175361,-0.00712265,-0.0101487,-0.0526571,4991,4991,0
394250650,394250400,3932170,3932170,0.000710115,-0.000299759,-0.000372779,0.00179974,-0.00628251,-0.0533584,4989,4989,0
394744633,394744379,3932170,3932170,-0.000126694,9.26856e-05,0.000423886,0.00125591,0.0102236,-0.0478729,5052,5052,0
395243627,395243334,3932170,3932170,0.000619325,-0.00047556,-0.000489546,0.000263525,-0.0121009,-0.0501566,4964,4964,0
395747777,395747396,3932170,3932170,0.00209976,0.0005615,0.00012311,-0.00346437,0.00904408,-0.0593629,5256,5256,0
396246338,396246040,3932170,3932170,-0.000683587,-8.56237e-05,-0.000429286,-0.000593769,-0.00365386,-0.0478692,4990,4990,0
396745220,396744961,3932170,3932170,-0.000208911,-0.000143406,-0.00014811,0.000897525,0.00465843,-0.0413755,4992,4992,0
397249188,397248850,3932170,3932170,-0.000893108,-7.71577e-05,-0.00927004,0.000753018,-0.00435201,-0.0495667,4991,4991,0
397748053,397747758,3932170,3932170,0.000346914,0.000471889,-0.000904552,0.0023433,0.0151807,-0.0409138,4989,4989,0
398246926,398246677,3932170,3932170,0.00105412,-0.000382109,0.000233281,0.00171129,0.00312105,-0.0415253,4980,4980,0
398745981,398745689,3932170,3932170,0.00109248,-0.000411648,-0.00012206,0.00440118,-0.01706,-0.0471171,4942,4942,0
399245090,399244757,3932170,3932170,-0.000433832,0.000419872,0.000740844,-0.00495708,0.00768705,-0.0615971,5253,5253,0
399748642,399748387,3932170,3932170,0.001205,-0.000225637,-0.000515687,0.00854514,-0.0114446,-0.0485636,4989,4989,0
400247548,400247299,3932170,3932170,0.00114986,-0.000181735,-0.00374576,-0.00240568,-0.00159687,-0.0420287,4988,4988,0
400746509,400746210,3932170,3932170,-0.000465029,-0.000487823,0.000110252,-0.00378853,0.010416,-0.0529558,4992,4992,0
401251826,401250163,3932170,3932170,-0.000524185,0.00116093,0.00111703,0.000832579,0.0189305,-0.0546455,4987,4987,0
401744286,401744029,3932170,3932170,-0.00057731,-3.96076e-06,0.000761337,-0.00306473,-0.00383812,-0.0469161,4994,4994,0
402248858,402248008,3932170,3932170,-0.00112116,0.000212789,0.000458617,-0.00138448,0.00741887,-0.0434569,4975,4975,0
402747431,402747095,3932170,3932170,-0.000560174,0.000361957,0.000517949,-0.00269024,0.00549729,-0.0515204,5242,5242,0
403246007,403245749,3932170,3932170,0.000711788,0.00012826,6.31594e-05,0.00203079,0.00831331,-0.0505414,4989,4989,0
403745041,403744659,3932170,3932170,0.000744458,-0.000446792,-0.00131291,-0.00231763,-0.0201025,-0.0376474,4989,4989,0
404248818,404248565,3932170,3932170,0.00127701,-0.000504508,-0.000507064,0.00273741,-0.00869593,-0.0444686,4981,4981,0
404747785,404747470,3932170,3932170,-0.000891955,-0.00031257,-0.000744118,-0.00669448,-0.0282591,-0.0455092,4989,4989,0
405246692,405246382,3932170,3932170,-0.000875563,-0.000126113,0.000606209,-0.000666197,0.00414413,-0.0553807,4980,4980,0
405745797,405745388,3932170,3932170,-0.00184503,0.000385101,0.000980119,-0.00496292,0.000258155,-0.0519574,4977,4977,0
406244763,406244466,3932170,3932170,0.00152684,-0.000108865,-0.000957958,0.00505945,-0.0105984,-0.0474151,5249,5249,0
406749077,406748107,3932170,3932170,-0.000105676,0.000204343,-0.00674048,0.0075448,-0.00772063,-0.0532834,4992,4992,0
407247266,407247015,3932170,3932170,-0.000563883,-1.49926e-05,-0.000377172,-0.00310636,-0.00242662,-0.0503533,4987,4987,0
407746178,407745926,3932170,3932170,-1.35049e-05,0.000140485,0.00122225,0.00233473,-0.00630541,-0.0472183,4986,4986,0
408245082,408244836,3932170,3932170,0.000220804,-0.000240968,0.000327004,0.00528206,-0.0078236,-0.0431129,4989,4989,0
408744073,408743800,3932170,3932170,0.00288622,-0.000141778,-0.000518759,0.000782878,-0.00624311,-0.0437601,4985,4985,0
409248093,409247773,3932170,3932170,-1.0032e-05,-0.00027578,-0.000737838,-0.00344764,-0.00315608,-0.0467084,4969,4969,0
409747267,409746805,3932170,3932170,-0.000592092,-0.000322222,-0.000162816,0.000577625,-0.0218541,-0.0496983,4957,4957,0
410245794,410245537,3932170,3932170,0.00107051,-0.000579407,-0.000502581,0.00260209,-0.0163781,-0.0481776,5054,5054,0
410749621,410749372,3932170,3932170,0.000275227,0.000196757,0.000740781,-0.00119744,0.0024279,-0.0552519,4990,4990,0
411243544,411243294,3932170,3932170,0.000593703,-2.32882e-05,4.71409e-05,-0.00263735,-0.000138619,-0.0410855,4986,4986,0
411747521,411747204,3932170,3932170,0.00249516,-0.000907656,-0.000805534,0.00314753,-0.0182124,-0.0424622,4998,4998,0
412246470,412246106,3932170,3932170,-0.000238818,-0.000472688,-0.000402289,0.00183293,-0.0209869,-0.0416093,4989,4989,0
412745389,412745088,3932170,3932170,0.000442632,-0.000192079,0.000383234,9.77855e-05,-0.00518365,-0.0546921,4972,4972,0
413244596,413244189,3932170,3932170,-0.000867247,0.000112425,0.000360384,-0.00138436,0.00738627,-0.0491022,4954,4954,0
413748149,413747830,3932170,3932170,0.000965531,-0.000140343,0.000106283,0.00334293,0.0023077,-0.0520629,4989,4989,0
414247044,414246747,3932170,3932170,-0.00105639,0.000438086,0.000690006,-0.00323137,0.00947611,-0.0548595,4987,4987,0
414745949,414745697,3932170,3932170,-0.00204783,0.000744401,0.000351802,-0.00325218,-0.0151317,-0.051307,5034,5034,0
415249812,415249557,3932170,3932170,-0.00152623,0.000420413,0.000722013,-0.00709788,-0.000159502,-0.05773,4989,4989,0
415743737,415743486,3932170,3932170,0.00165817,-0.000656681,-0.000976145,0.000910496,-0.0103314,-0.0522474,5001,5001,0
416248462,416247439,3932170,3932170,-0.000987388,-0.00122594,-0.0012259,0.00348601,-0.036732,-0.0336506,4917,4917,0
416746823,416746530,3932170,3932170,-5.04021e-05,5.60889e-05,0.000378882,-0.00828638,0.00291838,-0.048046,4960,4960,0
417245459,417245204,3932170,3932170,-0.000488365,0.000580916,-0.000124111,-0.00500737,-0.00541586,-0.045982,4989,4989,0
417749354,417749102,3932170,3932170,0.000645629,-0.000745471,-0.00143686,-0.00149429,-0.0268674,-0.0414963,4987,4987,0
418248268,418248017,3932170,3932170,-0.000691333,0.000110161,-0.000344439,-0.00412494,0.00146545,-0.0514655,4987,4987,0
418747228,418746967,3932170,3932170,-0.0010983,-6.87352e-05,-0.000385432,-0.00369392,-0.0195306,-0.0422488,5026,5026,0
419246136,419245843,3932170,3932170,-0.000699122,-0.000649807,-0.00122553,-0.00389287,-0.0282164,-0.0449339,4989,4989,0
419745170,419744823,3932170,3932170,0.00179814,-0.000185411,-0.000722806,0.000970854,-0.00415101,-0.0466861,4961,4961,0
420244267,420243913,3932170,3932170,0.00106568,-0.000400435,-0.000269819,-0.00576752,0.00262373,-0.0476671,4966,4966,0
420747829,420747566,3932170,3932170,0.000734614,-0.000997494,-0.00092796,0.00467394,-0.0198216,-0.0427271,4988,4988,0
421246731,421246482,3932170,3932170,-0.000301081,-0.000321615,-0.000396058,-0.000338524,-0.00741773,-0.0431771,4989,4989,0
421750927,421750394,3932170,3932170,-0.00111771,0.000345024,0.000678181,-0.00361579,-0.00442723,-0.0495873,4999,4999,0
422249540,422249297,3932170,3932170,-0.000487956,-0.000257935,-0.000670947,-0.00370938,-0.00753182,-0.0427307,4984,4984,0
422743952,422743216,3932170,3932170,-0.00102212,0.000613686,0.000696765,-0.00590852,-0.00207484,-0.0516715,4965,4965,0
423247441,423247195,3932170,3932170,0.000439391,0.000539101,0.00045942,-0.0015615,0.00462633,-0.0513478,4930,4930,0
423747022,423746286,3932170,3932170,0.000458325,0.000127756,0.000801405,-0.00317799,0.0174879,-0.0561608,4988,4988,0
