timestamp,timestamp_sample,accel_device_id,gyro_device_id,delta_angle[0],delta_angle[1],delta_angle[2],delta_velocity[0],delta_velocity[1],delta_velocity[2],delta_angle_dt,delta_velocity_dt,delta_velocity_clipping
174744440,174744294,4259850,4325386,2.62438e-05,-8.19992e-05,0.000109281,0.000994217,0.000647898,-0.0485461,4977,4990,0
174749438,174749293,4259850,4325386,-3.93401e-06,5.36611e-06,-2.73116e-05,-0.00135301,-0.000566926,-0.0491619,4999,4997,0
175247925,175247814,4259850,4325386,0.000349351,-0.000313543,0.000181381,0.000173321,-0.0020646,-0.0486355,4985,4922,0
175751850,175751688,4259850,4325386,0.000786517,-0.000423058,0.00025053,-0.00118211,-0.00201847,-0.0487128,4994,4927,0
176245401,176245234,4259850,4325386,0.000704442,-0.000324871,-6.9328e-05,-0.000703149,-0.0033623,-0.0473002,4961,4913,0
176749318,176749184,4259850,4325386,0.000762138,-0.00043099,2.26167e-05,-0.00398808,-0.0069807,-0.0531285,4941,4923,0
177247796,177247664,4259850,4325386,0.0011017,-0.000146129,6.17792e-05,-0.0218638,0.00798307,-0.0522848,4949,4924,0
177746493,177746384,4259850,4325386,-0.000740844,0.000680738,-6.40145e-05,-0.0027353,0.00264627,-0.0527415,4987,4923,0
178245266,178245116,4259850,4325386,-0.000586941,0.00188978,0.000132132,-0.0366279,0.0184438,-0.0574651,4967,4922,0
178748941,178748817,4259850,4325386,-0.000894156,-0.000193823,-0.000113042,0.00442784,-0.00693219,-0.0454311,4990,4922,0
179247151,179247038,4259850,4325386,-0.000576917,0.000534273,0.00013608,0.00778576,0.00180862,-0.0427216,4983,4865,0
179746188,179746009,4259850,4325386,0.000420049,0.000827976,-7.23944e-05,-0.0115882,-0.00137983,-0.0516644,4956,4920,0
180249578,180249468,4259850,4325386,8.22689e-05,0.000615977,0.000112028,-0.0111889,0.0116818,-0.0518526,4987,4915,0
180748665,180748198,4259850,4325386,0.000543402,0.000107827,-0.000235365,0.00291579,0.00302231,-0.0546678,4993,5912,0
181247177,181247024,4259850,4325386,0.000174211,-0.000359581,-0.000794902,0.00366607,-0.00872574,-0.043837,4974,4976,0
181745754,181745635,4259850,4325386,0.000626696,-3.55879e-05,-0.000511826,-0.00296648,-0.000114705,-0.0496549,4989,4919,0
182245171,182245060,4259850,4325386,0.000593684,-0.000512537,-0.00065397,-0.0028869,-0.00796336,-0.05118,4967,4969,0
182748680,182748563,4259850,4325386,-0.000536696,-1.04116e-06,0.000319283,-0.0085073,-0.00420064,-0.0537488,4987,4925,0
183247396,183247285,4259850,4325386,-0.00127922,0.000121541,0.000332521,-0.0120292,-0.0123372,-0.050725,4986,4674,0
183746251,183746129,4259850,4325386,0.000206822,-0.000427515,-0.000274791,0.00304844,-0.0118533,-0.0489454,4958,4961,0
184249330,184249219,4259850,4325386,-9.50134e-05,0.000722499,-0.000296969,0.00235293,0.00296468,-0.0472665,4985,4954,0
184743130,184742954,4259850,4325386,-0.00124239,0.000227853,-0.000755571,-0.0126538,-0.0314093,-0.0567869,4983,4919,0
185246969,185246777,4259850,4325386,-0.000212384,0.000314414,0.000363406,-0.00160456,0.0162226,-0.0569209,4951,4951,0
185745527,185745386,4259850,4325386,5.4742e-05,-0.00015781,-0.000273297,-0.00689768,-0.0184133,-0.0562469,4986,4914,0
186244344,186244229,4259850,4325386,0.00013354,0.000246807,0.000594329,0.00260181,0.0168949,-0.0453602,4990,4959,0
186748429,186748317,4259850,4325386,-0.000359775,-0.000666598,-0.000354187,-0.00697456,-0.0092478,-0.0483348,4987,4954,0
187247647,187247538,4259850,4325386,-0.000486572,4.77987e-06,-0.000262263,-0.00608261,-0.00212024,-0.0489479,4987,4924,0
187746377,187746261,4259850,4325386,0.000814201,-0.000808875,0.000145834,0.00305723,-0.00233694,-0.042299,4987,4952,0
188245158,188245043,4259850,4325386,0.000531715,-0.000990738,0.00034452,0.00910546,-0.00516537,-0.0389955,4983,4984,0
188744098,188743915,4259850,4325386,-0.00102885,0.000964806,0.000792463,-0.0060747,0.0158216,-0.0539144,4969,4975,0
189247562,189247453,4259850,4325386,-0.00134925,0.000143893,0.000172116,-0.00560008,0.00127133,-0.0460734,4986,3937,0
189746276,189746143,4259850,4325386,0.000926843,-0.000237007,-0.0010694,0.000154378,-0.0144915,-0.0467855,4737,4915,0
190244976,190244863,4259850,4325386,0.000919954,-3.90351e-05,-0.000194384,-0.0049426,-0.00558987,-0.0505592,4986,4924,0
190749038,190748823,4259850,4325386,0.000740038,-0.000983451,-0.000616839,0.00500685,-0.0174061,-0.0521369,4961,5948,0
191247408,191247297,4259850,4325386,-0.000153336,0.00018228,0.000731151,0.000926941,0.00696084,-0.0414564,4987,4953,0
191746134,191746020,4259850,4325386,-0.000535332,-0.000290292,0.00022538,-0.0100187,-0.0140834,-0.0501999,4987,4988,0
192244984,192244779,4259850,4325386,-0.00131316,0.00105692,0.000983741,-0.00336491,0.0229164,-0.0592713,4978,5911,0
192748634,192748454,4259850,4325386,-0.00101057,0.00118558,0.000678519,-0.00140472,0.017424,-0.0612006,4987,5904,0
193247317,193247204,4259850,4325386,0.000418534,-0.000319263,-0.000475221,-0.00349053,-0.00609468,-0.0525276,4985,4921,0
193746272,193746123,4259850,4325386,-8.04488e-05,0.0011973,0.000660256,0.00414007,-0.00470033,-0.0415333,5040,4722,0
194249888,194249730,4259850,4325386,-0.000598055,0.000825376,0.000666646,-0.00530302,0.0162175,-0.055516,4964,4966,0
194748444,194748336,4259850,4325386,-0.000228084,0.000643189,0.000593284,-0.00484751,0.0151565,-0.0519876,4988,4968,0
195247184,195247065,4259850,4325386,-0.000519343,0.000354164,-0.000111528,-0.0129447,0.00670334,-0.0559766,4981,4990,0
195745481,195745322,4259850,4325386,0.000513837,-0.000380851,0.000107691,0.0105412,-0.013089,-0.0398568,4985,4922,0
196244437,196244205,4259850,4325386,-0.00108267,0.000476497,0.00122931,-0.00416909,0.00739085,-0.048808,4988,4925,0
196748402,196747722,4259850,4325386,-0.00179834,-0.000744386,-0.000552468,-0.012169,-0.00818255,-0.0667752,4988,6070,0
197246694,197246518,4259850,4325386,-0.00106339,0.00167873,0.000529781,-0.013791,0.0178529,-0.065035,4972,5894,0
197750339,197750158,4259850,4325386,-0.000234657,-0.000431428,-0.00138184,-0.0110902,-0.0192678,-0.0513659,4990,4945,0
198244006,198243892,4259850,4325386,0.000704084,0.000177333,0.000720048,0.0108925,0.0130204,-0.0386297,4986,4978,0
198747242,198747105,4259850,4325386,-0.000404008,0.000282602,0.00023331,0.00333861,0.0118811,-0.0421247,4987,4924,0
199246033,199245835,4259850,4325386,4.28477e-05,-0.000176182,0.000195708,0.0024581,-0.00968887,-0.0437019,4990,4941,0
199745664,199745552,4259850,4325386,-0.000805864,0.000308242,0.00101855,-0.00335653,0.0223939,-0.0512467,4984,4910,0
200244453,200244327,4259850,4325386,-0.001246,0.000354615,0.000193466,-0.0166271,0.0138901,-0.058616,5035,4923,0
200748105,200747989,4259850,4325386,9.0435e-05,0.00183221,0.000764572,0.00265941,0.0283535,-0.0440457,4986,4922,0
201247488,201246751,4259850,4325386,7.66679e-05,0.00051167,0.000391817,0.00378016,-0.0122879,-0.0462852,5024,4905,0
201750753,201750638,4259850,4325386,0.000960512,-0.000231476,-0.00106336,0.00270534,-0.0236531,-0.0422342,4953,4919,0
202244312,202244161,4259850,4325386,-2.26351e-05,0.00064909,0.00134886,0.00295519,0.0232655,-0.0434994,4985,4922,0
202748040,202747875,4259850,4325386,-0.000499415,5.53776e-05,0.000274783,0.0107444,0.00927336,-0.0402948,4976,4924,0
203247317,203247189,4259850,4325386,6.37721e-05,-0.000117293,0.000347492,-0.000869877,0.00367926,-0.0510258,4985,4929,0
203746460,203746321,4259850,4325386,0.00105759,0.00115828,0.000153204,-0.000477477,0.000316116,-0.054794,4988,4925,0
204245173,204245045,4259850,4325386,-0.000780576,0.000616401,0.000633946,-0.00534351,0.0160949,-0.0561454,4985,4990,0
204748932,204748815,4259850,4325386,-0.00101166,0.000291906,0.000843002,-0.00748663,0.0240033,-0.0519405,4990,4918,0
205247740,205247609,4259850,4325386,0.000528136,-6.99317e-05,-0.00147006,0.00368954,-0.0215769,-0.0419924,4966,4922,0
205746325,205746209,4259850,4325386,0.000178771,0.000101193,-0.000210834,0.00803073,0.0133319,-0.0438645,4986,4982,0
206245044,206244934,4259850,4325386,0.00107809,-0.00166273,-0.000749068,0.00314565,-0.0270036,-0.0433259,4988,4929,0
206748810,206748647,4259850,4325386,0.00133726,-0.000422776,-0.000142219,0.00473838,-0.0128362,-0.0458063,4987,4983,0
207247733,207247576,4259850,4325386,7.70029e-05,0.00112656,-0.000131567,0.0022971,-0.00285223,-0.0436025,4964,4965,0
207745994,207745831,4259850,4325386,0.000387745,-0.000127017,-0.00145722,-0.00510806,-0.00974222,-0.0530258,4986,4971,0
208249642,208249446,4259850,4325386,-0.000249554,-0.000103564,0.000991595,-0.00213003,0.00283332,-0.053393,4956,4961,0
208748233,208748092,4259850,4325386,0.00208432,8.36326e-05,-0.000254314,0.0162788,-0.00632866,-0.0400317,4994,4922,0
209247361,209246813,4259850,4325386,-0.00198029,-1.90174e-05,0.00131021,-0.00355208,0.0154347,-0.050351,4988,5258,0
209745646,209745537,4259850,4325386,0.000364951,-0.000493149,-0.000115983,-0.00116434,-0.0149026,-0.0508101,4988,4996,0
210244581,210244431,4259850,4325386,-0.00023353,0.000298933,-0.0010395,-0.00726109,-0.0214185,-0.0463267,4959,4919,0
210748149,210748028,4259850,4325386,0.000153015,-0.000829732,-0.000934974,-0.00923423,-0.023945,-0.0539313,4998,4998,0
211247300,211247152,4259850,4325386,0.000406191,-0.000127573,-0.000634936,0.00247273,-0.000117338,-0.043023,4987,4923,0
211750561,211750416,4259850,4325386,-0.00114122,0.00052774,0.00020442,-0.00796243,0.00887675,-0.0517629,4987,4971,0
212249496,212249367,4259850,4325386,-0.00144675,0.00101686,0.00117552,-0.018359,0.0105065,-0.0565934,4957,4924,0
212748049,212747875,4259850,4325386,-0.00145884,0.000100245,-4.33612e-05,-0.0148912,0.0105455,-0.054938,4995,4965,0
213246701,213246593,4259850,4325386,0.000252587,0.00170813,-0.000232301,-0.0093319,-0.00895582,-0.0524191,4988,4923,0
213745509,213745372,4259850,4325386,-0.000423729,-0.000539158,-0.000661903,-0.0123941,-0.0148062,-0.05522,4963,4962,0
214249164,214249036,4259850,4325386,-0.000252918,0.000401003,-6.17817e-05,0.00642069,-0.00710078,-0.0424292,4989,4939,0
214747905,214747760,4259850,4325386,-0.000434319,0.000190952,-0.000210305,-0.0109887,0.00748112,-0.0569207,4987,4948,0
215246062,215245938,4259850,4325386,5.11405e-05,0.00110251,-3.79292e-06,0.00531283,0.000772895,-0.0426856,4987,4927,0
215744777,215744665,4259850,4325386,0.000421526,0.000237797,0.000311408,-0.00443581,0.00578973,-0.052284,4987,4791,0
216244041,216243395,4259850,4325386,-0.000265354,-5.59652e-05,-0.00010417,-0.0097916,0.00655294,-0.0647132,4973,5912,0
216747436,216747326,4259850,4325386,0.000549075,-0.000361001,-0.000579091,-0.00346053,0.00142008,-0.0458947,4974,4978,0
217246043,217245921,4259850,4325386,-0.000690295,0.000475485,0.000712808,-0.00936658,0.0133044,-0.0522634,4978,4782,0
217744731,217744559,4259850,4325386,-0.00161159,0.000703149,0.00150324,-0.00642573,0.0249622,-0.0492833,4987,4952,0
218248422,218248274,4259850,4325386,-0.000275411,0.000417515,0.000179952,-0.00457423,-0.00101406,-0.0469483,4987,4930,0
218747281,218747141,4259850,4325386,-0.000437267,-0.000275557,4.05834e-05,-0.00333368,0.000283657,-0.0456946,4973,4918,0
219245837,219245727,4259850,4325386,0.00149593,-0.00101585,-0.00116603,-0.0070172,-0.0245278,-0.051013,4988,4924,0
219744568,219744457,4259850,4325386,-0.000137092,-3.42445e-05,-0.000777782,0.00262229,-0.018301,-0.0437772,4986,4922,0
220248299,220248182,4259850,4325386,0.000320274,-0.000800147,-0.00153109,0.000828252,-0.0179229,-0.0465392,4986,4924,0
220747269,220747117,4259850,4325386,-0.001585,0.000735963,-0.000174666,-0.0156196,0.0148441,-0.0595189,4980,4978,0
221245831,221245720,4259850,4325386,0.00013636,-0.000181664,0.000201722,-0.00145011,0.00507723,-0.0460688,4988,4783,0
221749471,221749337,4259850,4325386,2.2214e-05,0.000557712,-0.00059782,-0.0077743,0.00687924,-0.0533456,4987,4921,0
222248187,222248066,4259850,4325386,0.00068545,0.000310921,-0.000766285,0.00309328,0.00211956,-0.0421579,4988,4926,0
222747493,222747372,4259850,4325386,-0.000988104,-0.000101397,0.000994601,-0.00330027,0.01929,-0.0446757,4988,4784,0
223245388,223245166,4259850,4325386,-0.000260181,0.0004085,-0.000610041,-0.00726465,-0.00082634,-0.0537353,4977,4971,0
223744249,223744091,4259850,4325386,-0.000107463,0.000323759,0.00105035,0.00956024,0.00531037,-0.0417697,4985,4961,0
224247594,224247463,4259850,4325386,-0.00039098,0.00153748,0.00032184,-0.00462124,0.0126538,-0.0523958,4988,4965,0
224746307,224746196,4259850,4325386,-0.00015996,-0.000169023,-0.000318658,-0.00962335,-0.0136987,-0.0558087,4993,4925,0
225245569,225245458,4259850,4325386,-0.00148433,-0.000330928,-0.00107051,-0.00192406,-0.0197663,-0.0450626,4986,4960,0
225749346,225749136,4259850,4325386,-0.000416789,0.00028822,0.000442022,-0.00972039,0.00260075,-0.0498921,4987,4924,0
226248127,226247990,4259850,4325386,-0.000861188,-2.70349e-05,0.000454243,-0.011982,-0.00706916,-0.0563007,4973,4922,0
226746707,226746587,4259850,4325386,-0.000681136,3.72874e-05,8.16546e-05,-0.0119384,0.0125364,-0.0547701,4983,4921,0
227245517,227245316,4259850,4325386,0.000483673,-0.000306068,0.000359897,0.00131778,0.00282198,-0.0549673,4988,5905,0
227748769,227748614,4259850,4325386,-0.000906805,0.00101218,0.00115345,0.000449292,0.0306539,-0.0496711,4993,4927,0
228247393,228247260,4259850,4325386,7.88476e-05,-0.000967638,-0.000453734,-0.00485622,-0.0131431,-0.0481454,4987,4921,0
228746218,228745998,4259850,4325386,0.00081095,0.00182007,0.000743478,0.00189024,0.0236747,-0.0463631,4997,4971,0
229245406,229245263,4259850,4325386,0.000461347,-7.13098e-05,-0.000445076,0.00943568,0.0126291,-0.0390655,4987,4928,0
229749076,229748935,4259850,4325386,-0.000655419,-9.61066e-05,0.000991307,0.00475033,0.0155031,-0.0383856,4982,4913,0
230247797,230247662,4259850,4325386,6.76804e-05,-0.000422997,-0.000465945,-0.00148758,-0.00130725,-0.0468484,4991,4927,0
230746116,230745983,4259850,4325386,-0.000513319,0.000749255,0.000595044,-0.00463227,9.12492e-05,-0.0490125,4992,4999,0
231245001,231244846,4259850,4325386,0.000572523,-8.94871e-05,-0.000980701,-0.00646489,-0.0196153,-0.0572427,4966,4766,0
231748524,231748408,4259850,4325386,-0.00109455,0.00091346,0.00134041,-0.00817338,0.0235351,-0.055886,4976,4923,0
232247695,232247559,4259850,4325386,0.000807986,-0.00049152,-0.00112214,0.0079539,-0.0273547,-0.0472645,4978,4921,0
232746418,232746288,4259850,4325386,-0.00103897,0.000915578,0.000874096,-0.00559561,0.024616,-0.0548252,4987,4960,0
233250164,233250048,4259850,4325386,0.000551562,-0.000183912,-0.000304298,0.00945472,0.00924764,-0.0388225,4968,4968,0
233749040,233748885,4259850,4325386,-0.00126427,0.00117142,0.000914085,-0.00159474,0.0289202,-0.0433116,4971,4915,0
234247573,234247461,4259850,4325386,0.000578266,-0.000901808,0.000488551,-0.00122529,0.00630234,-0.0505961,4987,4921,0
234746484,234746197,4259850,4325386,-0.000241746,-0.000719478,-0.000456261,-0.0114882,-0.00471537,-0.051429,4980,4914,0
235245033,235244919,4259850,4325386,-0.000176233,0.000376216,-0.000179118,-0.00140519,-0.000423026,-0.049616,4987,4938,0
235748333,235748223,4259850,4325386,0.000788145,-0.0013374,-0.000834772,0.00322598,-0.0262565,-0.0465057,4986,4955,0
236247002,236246865,4259850,4325386,0.000346322,0.000203844,0.00045967,-0.000965351,-0.00954972,-0.0481368,4946,4933,0
236745884,236745753,4259850,4325386,-2.38098e-05,0.000704806,0.000383988,-0.00433366,-0.000791462,-0.0485319,4966,4925,0
237244483,237244323,4259850,4325386,0.00163811,-0.000589704,-0.000493969,-0.00450809,-0.0125217,-0.051295,4986,4969,0
237748165,237748043,4259850,4325386,-9.65529e-05,-0.000112623,-0.000244377,0.00196956,0.00735048,-0.0461316,4988,4979,0
238246883,238246770,4259850,4325386,0.000461549,-0.00120836,-0.000759183,0.00361756,-0.0247702,-0.0407699,4987,4989,0
238745917,238745756,4259850,4325386,0.000724485,0.00011223,0.000659403,0.00786305,-0.00273344,-0.0412245,4973,4978,0
239249372,239249215,4259850,4325386,-0.000464138,-0.00078437,-0.000201854,-0.00319262,0.00872509,-0.0542925,4987,5695,0
239748642,239748443,4259850,4325386,-0.00119788,0.000967483,0.00174794,-0.00551903,0.0204075,-0.0588135,4987,5854,0
240247337,240247175,4259850,4325386,0.00025228,-0.00060429,-0.00105758,-0.0120633,-0.0261715,-0.0544348,4990,4997,0
240746111,240745997,4259850,4325386,0.000277859,1.85592e-06,0.000685755,0.0104812,0.0025983,-0.0408289,4959,4774,0
241245126,241244970,4259850,4325386,0.000564871,0.000940921,-0.000763649,-0.00150046,0.00396561,-0.0475793,4999,4992,0
241748562,241748352,4259850,4325386,-0.00040591,0.000312402,0.000723902,-0.00511418,0.00130234,-0.048526,4991,4971,0
242247198,242247079,4259850,4325386,-0.00163959,0.00106583,0.000641588,-0.00933402,0.0271683,-0.0518809,4979,4922,0
242745946,242745808,4259850,4325386,-0.000901945,0.000468205,0.00108408,-0.00227331,0.0235192,-0.0468942,4980,4965,0
243249933,243249771,4259850,4325386,-9.87898e-05,0.000168112,0.000342892,-0.00526906,0.00617197,-0.0533501,4958,4946,0
243748052,243747865,4259850,4325386,0.000271144,-0.000161528,-0.000916114,0.000782555,-0.010458,-0.0440069,4983,4926,0
244246822,244246672,4259850,4325386,-0.00135241,0.000713495,0.00128562,0.000897903,0.0299927,-0.0455655,4952,4920,0
244745374,244745217,4259850,4325386,-0.000535756,2.53724e-05,-0.000203752,0.00416347,0.00464476,-0.0429949,4989,4997,0
245249345,245248938,4259850,4325386,-0.00108831,0.000660433,0.000555121,-0.0112717,0.00871441,-0.0638192,4989,5768,0
245747772,245747663,4259850,4325386,-0.00106535,0.000787848,0.00066511,-0.0108678,0.0377342,-0.0572717,4979,4966,0
246246526,246246396,4259850,4325386,0.000120745,0.0010151,0.00113421,-0.00687909,0.0157342,-0.0551236,4990,4924,0
246750233,246750113,4259850,4325386,-0.000185885,0.000569013,0.000570949,0.00454645,0.0216185,-0.0459189,4989,4970,0
247249450,247249340,4259850,4325386,0.000316354,0.000355774,0.000181191,-0.0047288,0.0171567,-0.0523093,4988,4980,0
247743197,247743082,4259850,4325386,3.39975e-05,-8.04405e-05,-0.00138855,-0.00964253,-0.0206062,-0.0504982,4985,4960,0
248247012,248246898,4259850,4325386,0.000393814,-0.000673805,-0.000816872,0.00241267,-0.0285367,-0.0434369,5044,4936,0
248745932,248745744,4259850,4325386,0.00120746,-0.000612598,0.000429846,0.0121072,-0.00688776,-0.0420877,4962,4962,0
249248925,249248750,4259850,4325386,0.000305669,-0.000389895,-0.000916669,0.000653063,-0.0225869,-0.0523921,4988,5748,0
249747807,249747604,4259850,4325386,0.00010019,0.00018353,0.000554786,-0.00160705,-0.00123546,-0.0484129,4965,4933,0
250246326,250246211,4259850,4325386,0.000733768,-0.000471069,-0.000766696,-0.0042786,-0.0127374,-0.0497428,4988,4923,0
250750040,250749928,4259850,4325386,-0.00045291,0.000111919,0.00038524,-0.00279265,-0.000474251,-0.046827,4987,4970,0
251248391,251248163,4259850,4325386,-0.000138437,0.00122165,0.000825068,-0.00197938,0.0182674,-0.0442276,4990,4931,0
251747003,251746891,4259850,4325386,-0.000745023,0.000602489,0.00128566,-0.00879258,0.0277591,-0.0520505,4986,4979,0
252245838,252245622,4259850,4325386,0.00152443,-0.00114117,-0.000397945,0.0125223,-0.0143176,-0.0412629,4936,4921,0
252744662,252744553,4259850,4325386,-6.50228e-06,-2.69107e-05,-0.000166101,-0.00835497,-0.00315768,-0.0551665,5010,4902,0
253248250,253248071,4259850,4325386,0.00145584,-0.000141356,-0.0013788,0.00123532,-0.0272338,-0.0485765,4988,4985,0
253746989,253746813,4259850,4325386,-0.000701031,4.81365e-05,0.000208604,-0.00778056,-0.00857698,-0.0664257,4983,5911,0
254245812,254245696,4259850,4325386,-0.000485216,-0.000282713,-0.00122994,-0.0181243,-0.00761055,-0.0570875,4974,4961,0
254744674,254744520,4259850,4325386,0.00141158,9.04061e-05,-0.00022847,0.00634652,0.0112242,-0.0439073,4959,4925,0
255243102,255242995,4259850,4325386,0.000305107,0.00034024,0.000763111,0.005047,0.0121935,-0.0488975,4966,4919,0
255747484,255747364,4259850,4325386,0.000154119,0.000466106,0.00119221,0.0056978,0.0279042,-0.041304,4931,4733,0
256246097,256245951,4259850,4325386,-0.000158618,-0.000240499,-0.000514918,-0.00603123,-0.0168662,-0.0463343,4995,4951,0
256749316,256749195,4259850,4325386,0.00102973,-0.000635938,-0.000913516,0.00998604,-0.0148518,-0.0397537,5019,4895,0
257248043,257247895,4259850,4325386,-0.00192121,0.000981763,0.000843853,-0.0173091,0.0128951,-0.0575379,4986,4925,0
257746863,257746659,4259850,4325386,-0.000654841,-2.2152e-05,0.00100197,0.00143863,0.00499911,-0.046262,4988,4923,0
258245973,258245856,4259850,4325386,-0.000971028,0.000481664,0.000689256,-0.00555508,0.0215857,-0.0507401,4987,4973,0
258744880,258744706,4259850,4325386,0.000530708,-0.000168894,-0.000561204,0.00968135,0.000240934,-0.0538352,4990,5910,0
259248827,259248604,4259850,4325386,0.000314876,-0.000373602,-2.15688e-05,-0.00266431,-0.0032444,-0.0615789,5276,6057,0
259747344,259747201,4259850,4325386,0.000614305,-0.000639596,-0.00115404,0.00083598,-0.0281684,-0.0450361,4984,4923,0
260245934,260245772,4259850,4325386,0.000407028,-0.000513353,-0.000546912,0.00139477,-0.0145255,-0.0441932,4989,4923,0
260749105,260748989,4259850,4325386,-0.000117427,0.000187934,0.0005506,-0.00034869,0.00605201,-0.0469881,4986,4925,0
261247836,261247723,4259850,4325386,-0.000140655,-3.54792e-05,-6.64947e-05,0.00386719,0.00210316,-0.0447225,4989,4980,0
261746768,261746654,4259850,4325386,0.00139633,0.000377546,-0.000813395,0.00617387,-0.00779956,-0.0412124,4941,4942,0
262245324,262245189,4259850,4325386,-0.000824773,0.000616665,0.0017614,-0.0113473,0.0240473,-0.0536035,4984,4924,0
262749205,262748909,4259850,4325386,0.00162465,-0.000907437,-0.000836558,0.00105108,-0.0171793,-0.0424948,4986,4923,0
263248340,263248155,4259850,4325386,-0.00127952,0.000590145,0.00153112,-0.0049149,0.0151217,-0.0510903,4984,4934,0
263747228,263747057,4259850,4325386,0.000834574,-0.000300727,-0.00149582,-0.00350222,-0.0309712,-0.0498743,4984,4977,0
264245784,264245600,4259850,4325386,0.00107697,-0.00073086,-0.000718699,0.0101437,-0.0242734,-0.0413848,4985,4961,0
264749740,264749528,4259850,4325386,-1.66172e-05,-0.000399294,-0.000336051,0.00309515,-9.06597e-05,-0.0456562,4967,4965,0
265243175,265243063,4259850,4325386,-0.000172409,-1.03442e-05,-0.000280899,0.00087169,0.00202029,-0.0486838,4979,4984,0
265746922,265746783,4259850,4325386,-0.000136292,0.000117054,0.000613413,-0.00288093,0.0140953,-0.0437105,4986,4471,0
266245667,266245530,4259850,4325386,-0.000325111,-7.11897e-05,0.000195362,-0.0096119,-0.00205247,-0.0560897,4995,4937,0
266749364,266749239,4259850,4325386,-0.00104039,0.000407919,0.000257246,-0.009791,0.00095319,-0.0546916,4967,4926,0
267248187,267248067,4259850,4325386,-0.000672146,0.000277267,0.000712392,0.00398966,0.00654502,-0.0415529,5045,4933,0
267746848,267746704,4259850,4325386,0.00103378,-0.000493013,-0.00115358,-0.00591047,-0.0234666,-0.049598,4989,4963,0
268250671,268250493,4259850,4325386,-0.000614784,0.000521759,0.000877291,0.00358381,0.015851,-0.0453518,4976,4923,0
268744285,268744165,4259850,4325386,0.00014378,-0.00020699,-0.000825613,-0.00025528,-0.00208862,-0.0489617,4987,4958,0
269248009,269247885,4259850,4325386,0.000215355,-9.9783e-05,-0.000442036,0.00405688,-0.00132674,-0.0449786,4987,4924,0
269746739,269746627,4259850,4325386,0.000912286,-0.000393925,-0.000831131,-0.00762459,-0.0140892,-0.0528671,4995,4925,0
270244978,270244851,4259850,4325386,-0.001277,0.000345096,0.000592659,-0.00284016,-0.00389522,-0.05068,4988,4928,0
270749352,270748573,4259850,4325386,-0.00103188,0.000256675,-0.000173039,-0.0119742,0.00274712,-0.0633488,4985,5646,0
271247974,271247865,4259850,4325386,-0.000947674,0.000532144,0.000981343,-0.00636768,0.0272595,-0.0524979,4990,4966,0
271746725,271746536,4259850,4325386,-0.00134707,0.00072075,0.00120536,-0.00703797,0.0231324,-0.0536891,4984,4932,0
272245389,272245272,4259850,4325386,-0.00015655,0.000214743,0.00107421,0.00516693,0.0227592,-0.0463503,4991,4949,0
272744112,272744001,4259850,4325386,2.22272e-05,-0.000190507,0.000167436,-0.00102861,0.00341318,-0.0494163,4987,4987,0
273247843,273247723,4259850,4325386,0.000855428,0.000196839,0.000398668,0.011988,0.0260563,-0.0403784,4989,4981,0
273746657,273746546,4259850,4325386,-0.000287438,0.00035892,0.000312815,0.0120663,0.00938182,-0.0379837,4956,4962,0
274250406,274250179,4259850,4325386,-0.000235549,-0.000401675,7.88544e-05,0.00440813,0.00225311,-0.0434835,4991,4991,0
274749020,274748912,4259850,4325386,-0.00109306,0.000409082,0.00037465,-0.00564059,0.00282784,-0.050806,4986,4925,0
275247992,275247743,4259850,4325386,-0.000237463,-0.000363745,-0.000250592,-0.00536461,-0.00646105,-0.054397,4997,4963,0
275746639,275746511,4259850,4325386,-0.00140211,0.000830776,0.00163502,-0.0106738,0.022286,-0.0534367,4969,4925,0
276246021,276245790,4259850,4325386,-0.00108164,0.000112604,0.00154209,-0.00653446,0.0244912,-0.0517334,4982,4919,0
276744569,276744413,4259850,4325386,0.000184294,-0.00121822,-0.000931219,-0.00364806,-0.0190663,-0.0480159,4982,4924,0
277248235,277248062,4259850,4325386,0.000773332,-0.000407744,-0.00079232,0.0030285,0.00445202,-0.0479742,4989,4961,0
277746912,277746795,4259850,4325386,0.000196125,-0.000627472,-0.000656685,-0.000893308,-0.0225275,-0.0486784,4989,4915,0
278249663,278249517,4259850,4325386,0.00172506,-0.000934822,-0.000700429,0.0163243,-0.0182043,-0.0393209,4987,4915,0
278747578,278747464,4259850,4325386,0.00034987,-0.00136809,-0.000691523,0.0100231,-0.0234155,-0.0410488,4986,4920,0
279246417,279246258,4259850,4325386,-7.99666e-05,0.000313934,0.00014416,0.00428372,0.0147995,-0.0396307,4968,4928,0
279744878,279744769,4259850,4325386,0.000501883,-0.00144987,-0.000709029,0.00902013,-0.003816,-0.0391472,4988,4976,0
280249083,280248501,4259850,4325386,0.000135406,0.000907811,0.000588753,0.000195237,0.00545984,-0.0588986,4997,5754,0
280747358,280747247,4259850,4325386,0.00104446,-0.000301083,-0.000708472,0.002782,-0.00465536,-0.049002,4948,4959,0
281246087,281245957,4259850,4325386,-0.000168277,0.000204809,0.000954413,0.00843715,0.0136124,-0.0407203,4987,4923,0
281749829,281749678,4259850,4325386,8.6678e-05,0.000400578,0.000966478,-0.000717059,0.00639922,-0.0494683,4987,4953,0
282248561,282248445,4259850,4325386,0.00016901,-8.38075e-06,0.000467878,0.00389783,-0.00598762,-0.0468917,4983,4971,0
282747591,282747430,4259850,4325386,0.000401491,0.000583964,0.000389873,0.0117803,0.0097289,-0.0433624,4976,4984,0
283246600,283246480,4259850,4325386,0.000492148,-0.00100467,-0.000799522,-0.0035819,-0.0252197,-0.0502273,4929,4926,0
283745314,283745184,4259850,4325386,0.00191682,-0.0004707,-0.000781792,0.00326165,-0.0265697,-0.0462464,4980,4987,0
284248446,284248335,4259850,4325386,0.000861815,-0.000105769,-0.000626096,0.0120233,0.0036049,-0.0373577,4987,4930,0
284747388,284747244,4259850,4325386,-0.000256358,-5.00342e-05,-0.000140513,0.000726037,0.000282621,-0.0423567,4967,4971,0
285245917,285245804,4259850,4325386,0.000207836,-0.000760589,-0.00104183,-0.00773196,-0.0195261,-0.0481529,4988,4970,0
285749642,285749525,4259850,4325386,-0.000857662,-0.000341031,0.00046058,0.00085794,0.00318658,-0.0450823,4986,4926,0
286243624,286243488,4259850,4325386,0.000763725,0.000587766,0.000346,0.00812636,-0.00553742,-0.0423631,4953,4956,0
286747705,286747479,4259850,4325386,5.29055e-05,0.000119102,0.00047492,-0.00187086,-0.00161754,-0.0506352,4934,4921,0
287246529,287246394,4259850,4325386,-0.000571553,0.000165004,0.000522979,-0.00459013,-0.00556865,-0.0503216,4983,4925,0
287744577,287744465,4259850,4325386,0.00115681,-0.000862368,-0.000781334,-0.00015411,-0.0127283,-0.0488012,4989,4985,0
288248377,288248228,4259850,4325386,-0.000733424,-0.000869479,0.000179055,-0.00895323,-0.00447072,-0.0541501,4969,4988,0
288747091,288746955,4259850,4325386,-0.00127214,-0.000254654,0.000991172,-0.00867333,0.0103365,-0.0468944,5024,4905,0
289250762,289250642,4259850,4325386,-0.000911598,0.000427539,0.00105492,0.00626217,0.021847,-0.0414105,4989,4772,0
289744541,289744422,4259850,4325386,-6.0352e-05,-0.00064074,-0.00136979,-0.00298962,-0.0224655,-0.0508452,4979,4928,0
290243647,290243481,4259850,4325386,0.000390261,-0.000165222,-0.000136661,0.00130959,0.00159641,-0.042493,4920,5029,0
290746989,290746845,4259850,4325386,-0.000783409,-0.00113192,-7.297e-06,-0.001404,0.00417561,-0.0496973,4985,4922,0
291245273,291245154,4259850,4325386,-0.00081047,-0.000272426,0.000724142,-0.0125423,0.021429,-0.0579002,4968,4992,0
291748868,291748754,4259850,4325386,0.0011569,-0.000357678,0.000210257,0.0120772,-0.00995997,-0.0416865,4987,4986,0
292248387,292248275,4259850,4325386,-0.000145563,-5.30725e-05,-0.000309642,-0.0107459,-0.018686,-0.053473,4964,4924,0
292746883,292746771,4259850,4325386,7.44499e-05,-0.000214801,7.17293e-05,0.00485169,-0.00130398,-0.0386398,4986,4771,0
293245677,293245506,4259850,4325386,0.000346966,-0.00156005,-0.000988177,-0.00386698,-0.0341139,-0.0546027,4985,5905,0
293744648,293744471,4259850,4325386,1.52389e-05,0.00105239,0.0004184,0.000245454,0.00829021,-0.0455545,4920,5042,0
294248300,294248111,4259850,4325386,-0.00177935,0.000388465,0.00130971,-0.00706149,0.0277954,-0.0560142,5004,4924,0
294747498,294747379,4259850,4325386,0.000300378,0.00104585,0.000764232,0.00284579,0.0163331,-0.0461839,4954,4926,0
295246289,295245898,4259850,4325386,-0.000418653,0.000152212,0.000577723,-0.00537223,-0.000686206,-0.0563586,4992,5844,0
295749907,295749770,4259850,4325386,-0.00132767,0.000742947,0.00115088,-0.00837562,0.0171335,-0.0503255,4991,4922,0
296248535,296248349,4259850,4325386,0.00129683,-0.00161127,-0.000809058,-0.00416511,-0.00499949,-0.0487575,4971,4932,0
296747215,296747077,4259850,4325386,1.72738e-05,0.000323453,-0.000424337,-0.00636548,-0.00486886,-0.0564131,4986,4966,0
297245678,297245480,4259850,4325386,-0.00063013,0.00113669,0.000733454,0.00481939,0.026385,-0.053505,4999,5915,0
297749586,297749397,4259850,4325386,-0.000207145,0.000166706,-0.000357788,-0.00102777,-9.9848e-05,-0.0480107,5009,5015,0
298248140,298247992,4259850,4325386,-0.000954054,-0.000364914,0.000264232,-0.0107984,-0.00751052,-0.0556784,4995,4925,0
298747347,298747012,4259850,4325386,-0.000159954,-0.000706481,0.000105478,-0.00602355,0.0149889,-0.0561456,4989,4983,0
299245966,299245780,4259850,4325386,-0.000196873,0.000186485,-0.000306514,0.00430159,0.00278823,-0.0544048,4989,5911,0
299750212,299749968,4259850,4325386,-0.0020724,0.00077525,0.000427981,-0.0138121,0.0167744,-0.0584534,4993,4940,0
300243845,300243713,4259850,4325386,0.00169721,-0.000949034,-0.000561536,0.0111582,-0.0165999,-0.0382923,4985,4971,0
300747047,300746935,4259850,4325386,0.0014336,-0.00114104,-0.000786625,0.00947503,-0.0142235,-0.0383795,4986,4959,0
301245780,301245672,4259850,4325386,0.00175214,-0.000881744,-0.000877622,0.00887082,-0.01015,-0.0398287,4987,4988,0
301749538,301749427,4259850,4325386,0.00025118,0.00195156,0.000473376,-0.000429498,0.000743537,-0.0469157,4977,4975,0
302247810,302247680,4259850,4325386,-0.00176199,7.92282e-05,0.000307423,-0.0147347,0.0136861,-0.0572069,4984,4969,0
302746650,302746450,4259850,4325386,-0.000238187,0.0024091,-0.000283501,-0.011205,-0.00182493,-0.0600826,5022,4914,0
303250512,303250324,4259850,4325386,-0.000500696,0.000493576,-0.000128757,-0.00974842,-0.0124599,-0.0576022,4969,4917,0
303744009,303743888,4259850,4325386,0.000880897,-0.000303562,-0.000535702,0.0103719,0.00884778,-0.0383598,4988,4774,0
304247720,304247610,4259850,4325386,0.000188597,2.43906e-05,-0.000225698,-0.00326632,0.0140201,-0.0416529,4983,4922,0
304746581,304746408,4259850,4325386,-0.000492806,-0.000150359,0.000752978,-0.00384869,0.000540264,-0.0485887,4992,4929,0
305245217,305245083,4259850,4325386,0.000327449,-0.00059021,-0.00122948,-0.0058619,-0.0353348,-0.0470597,4988,4952,0
305749092,305748904,4259850,4325386,0.000416102,-0.00035239,4.82049e-05,0.00111722,-0.000218657,-0.0529004,4993,5764,0
306247669,306247542,4259850,4325386,-0.000213865,-0.000331085,-0.000444884,-0.00771127,-0.0109791,-0.0528732,4990,4925,0
306746583,306746358,4259850,4325386,-0.000366218,-0.000280837,9.11324e-05,-0.00760742,0.00361135,-0.0547059,4961,4963,0
307245131,307245016,4259850,4325386,0.000639486,-0.000387246,-0.000583812,4.57156e-06,-0.0122281,-0.0474946,4988,4947,0
307743880,307743751,4259850,4325386,0.00127063,-0.00126424,-0.000918992,0.00415141,-0.0264775,-0.0413463,4988,4616,0
308247595,308247476,4259850,4325386,-0.00080294,0.000322219,0.000131204,-0.00687453,0.0114677,-0.0544283,4987,4924,0
308746508,308746394,4259850,4325386,-0.000523008,0.000175122,0.000154841,0.00649355,-0.00372975,-0.044549,4968,4925,0
309250266,309249938,4259850,4325386,-0.00205002,-0.000168882,-0.000539111,-0.0057748,-0.022331,-0.0562489,4990,5776,0
309748914,309748802,4259850,4325386,-0.00036427,2.67942e-05,0.000537898,0.000928068,0.00137739,-0.0420259,4989,4922,0
310246651,310246509,4259850,4325386,0.00190057,-0.00107212,-0.00143804,0.00112481,-0.025852,-0.0439902,5044,4936,0
310745369,310745216,4259850,4325386,0.000564096,0.000154832,5.45434e-05,0.0143778,0.0135172,-0.0426986,4966,4922,0
311248401,311248206,4259850,4325386,0.00116871,-0.000153785,-0.00102507,-0.00251807,-0.0231109,-0.0525272,4994,4991,0
311746678,311746561,4259850,4325386,-0.000205898,0.000251256,0.00135415,0.00206695,0.0261368,-0.0466728,4979,4927,0
312245411,312245298,4259850,4325386,0.0004369,-5.51674e-05,2.50565e-05,-0.000902144,0.00428204,-0.0503018,4986,4643,0
312749135,312749023,4259850,4325386,-0.000809215,0.00013592,-0.000429985,-0.00667442,-0.00736857,-0.052437,4987,4926,0
313247733,313247333,4259850,4325386,0.00219913,-0.001069,-0.00144643,0.00619706,-0.0252039,-0.0409774,4991,4930,0
313750636,313750493,4259850,4325386,-0.00024067,6.34855e-05,0.00070376,-0.00602191,-0.00380389,-0.0501947,4995,4988,0
314244083,314243914,4259850,4325386,0.000154446,-0.000233472,0.000210637,0.00232308,-0.000785901,-0.0449582,4964,4927,0
314747582,314747461,4259850,4325386,0.000208954,-0.000453769,-0.000538943,-0.00602376,-0.0188007,-0.0521584,4970,4927,0
315246319,315246203,4259850,4325386,-0.00161608,0.000335065,0.000966555,-0.0122362,0.010855,-0.0535253,4992,4925,0
315745064,315744937,4259850,4325386,-0.000398719,0.000531031,0.000747475,-0.00540061,0.0189086,-0.0503076,4987,4924,0
316248843,316248732,4259850,4325386,-0.000353792,7.43981e-05,0.000146566,-0.00396142,0.0125303,-0.0530701,4972,4927,0
316747507,316747397,4259850,4325386,-0.000365188,-0.000456209,9.25153e-05,0.00393882,0.00328078,-0.0434677,4987,4925,0
317246339,317246134,4259850,4325386,1.24672e-05,0.000536955,0.00051758,0.0131267,0.0136312,-0.0482383,4988,5908,0
317745096,317744981,4259850,4325386,-0.000395609,0.000187772,0.000871031,0.00128075,0.025686,-0.0500589,4968,4972,0
318244284,318244107,4259850,4325386,0.000114076,-0.000100581,-9.78065e-05,0.00141854,0.000295944,-0.0446912,4988,4923,0
318748125,318748001,4259850,4325386,0.000609255,-0.000923742,9.06036e-05,0.00771839,0.00473155,-0.0379965,4989,4712,0
319247239,319247116,4259850,4325386,6.32573e-05,-0.000879607,-0.00136303,-0.0052435,-0.0160004,-0.0483368,4985,4977,0
319746134,319746021,4259850,4325386,-0.000173326,2.56754e-05,-0.000891855,-0.00684623,-0.00897406,-0.0501953,4972,4930,0
320249695,320249578,4259850,4325386,3.20762e-05,-0.000209812,-0.000617279,-0.00446481,-0.00134669,-0.050367,4985,4942,0
320748427,320748316,4259850,4325386,6.16747e-06,-0.00106652,-0.000869345,-0.000975338,-0.0233571,-0.0477945,4987,4976,0
321246624,321246505,4259850,4325386,0.000803709,-0.000318363,-0.000447801,0.00327431,-0.0148574,-0.0489815,4987,4924,0
321744366,321744248,4259850,4325386,-0.000631515,0.000424865,0.00106266,0.00715591,0.0202791,-0.039609,4980,5005,0
322247179,322247069,4259850,4325386,-0.00104974,0.00099486,0.00136024,0.000193491,0.0336394,-0.0487025,5035,4924,0
322745917,322745759,4259850,4325386,-0.00142306,0.000735527,0.00161209,0.00104472,0.0311664,-0.0517561,4987,4957,0
323249739,323249609,4259850,4325386,0.000610105,-0.000324598,-0.000607746,-0.000627093,-0.0130784,-0.0532416,4997,4983,0
323748392,323748246,4259850,4325386,0.000155462,7.19419e-05,-0.000670938,0.0030657,0.000757663,-0.0457657,5012,4908,0
324247360,324246961,4259850,4325386,0.000599251,0.000257095,-0.000579658,-0.00724951,-0.00322646,-0.0489197,4984,4990,0
324745866,324745716,4259850,4325386,-0.000811254,-0.000205727,-7.43506e-05,-0.0132875,-0.0142185,-0.055014,4969,4933,0
325243714,325243553,4259850,4325386,-0.00184631,0.000820747,0.00112108,-0.00667647,0.0295537,-0.0529481,4961,4957,0
325747372,325747242,4259850,4325386,-0.00112696,0.000596956,-0.000240627,-0.00890207,0.00138336,-0.0557871,4995,4938,0
326245996,326245853,4259850,4325386,-0.00293756,0.000699358,0.000574942,-0.0168412,0.0158737,-0.057252,4988,4926,0
326749717,326749596,4259850,4325386,-0.000427,-5.60455e-05,0.000549791,0.00121551,-0.005845,-0.0449581,5002,4884,0
327248490,327248377,4259850,4325386,0.00111674,-0.000125383,-0.000677261,-0.00542596,-0.0148409,-0.0546502,4965,4923,0
327747206,327747056,4259850,4325386,-0.00100655,0.000179403,-0.000253062,-0.00277188,0.00922702,-0.0526212,4989,4989,0
328245927,328245793,4259850,4325386,-0.000916374,3.96962e-05,-0.000256418,-0.00926044,0.00450562,-0.0539441,4988,4988,0
328744792,328744576,4259850,4325386,-0.000697062,-4.42594e-05,-0.000224338,-0.0070848,-0.0106737,-0.0613053,4970,5911,0
329248033,329247761,4259850,4325386,0.000902535,-0.000368244,-0.000692839,-0.00836693,-0.0164223,-0.0541155,4991,4927,0
329746608,329746496,4259850,4325386,-0.000544559,0.000334385,-0.000320186,-0.00985953,-0.0135043,-0.0533344,4988,4676,0
330249452,330249272,4259850,4325386,0.00217824,-0.000984943,-0.000771036,0.0115295,-0.0114903,-0.0453402,4987,5768,0
330748351,330748171,4259850,4325386,-0.00119938,0.000432796,0.000834187,-0.00170219,0.0229408,-0.0464765,4964,4929,0
331246858,331246748,4259850,4325386,0.000422804,-0.000649622,-0.000816268,-0.00876343,-0.0239737,-0.0538619,4962,4921,0
331745601,331745488,4259850,4325386,-7.1666e-05,0.000378423,-0.000194513,-0.00893553,-0.0156945,-0.052195,4987,4769,0
332243786,332243679,4259850,4325386,-1.95878e-05,-0.000705273,0.000648916,-0.00388807,-0.00055421,-0.0497379,4982,4950,0
332747551,332747405,4259850,4325386,0.00120974,-0.000645843,-0.000687402,-0.00303054,-0.0190523,-0.0517878,4979,4920,0
333245854,333245718,4259850,4325386,-0.000358957,0.000234367,-0.000443747,-0.00752778,0.00269875,-0.0534659,4983,4929,0
333745341,333745137,4259850,4325386,0.000717481,-0.000486394,-0.000379573,0.000134529,-0.0188132,-0.0414121,4960,4935,0
334248850,334248610,4259850,4325386,0.00134957,-0.000818626,-0.00133442,6.89181e-05,-0.0358188,-0.0487692,4989,4933,0
334747611,334747399,4259850,4325386,0.000296315,0.000267457,0.000450907,-0.00362028,0.00250638,-0.0633332,4991,5911,0
335246322,335246161,4259850,4325386,-0.00171269,0.00112886,0.00134515,0.00134476,0.0257097,-0.0492014,4954,4960,0
335745019,335744824,4259850,4325386,-0.00113118,0.000528914,3.22408e-05,-0.0171947,0.0135664,-0.0648328,4987,5655,0
336248684,336248565,4259850,4325386,-0.000483854,0.000302805,0.000158734,-0.0013006,0.00583753,-0.0456511,5002,4926,0
336747408,336747290,4259850,4325386,-0.00145234,0.000513563,0.000488067,-0.0145621,0.00821184,-0.0550641,4983,4974,0
337245842,337245653,4259850,4325386,-0.000125996,-0.000407119,0.000144939,0.00235782,0.00596961,-0.0466596,4989,4990,0
337749424,337749257,4259850,4325386,0.000549916,-5.55195e-05,0.000186245,0.00333147,-0.0124349,-0.0440267,4987,4941,0
338248630,338248496,4259850,4325386,-1.09347e-05,-0.000419651,0.0015599,0.00124481,0.00159379,-0.046856,4988,4966,0
338747993,338747387,4259850,4325386,-0.00171634,0.000966494,0.00195896,-0.0114855,0.0196568,-0.0559496,4948,4958,0
339246360,339246223,4259850,4325386,-0.000149271,0.00024175,7.42487e-05,0.0052407,0.00919009,-0.0422079,4962,4924,0
339744823,339744711,4259850,4325386,0.00127346,-0.000667934,-0.000168661,0.0087,-0.00222609,-0.0422294,4987,4995,0
340248334,340248131,4259850,4325386,0.000115997,-5.0162e-05,-0.000190427,0.00450405,0.00761199,-0.0519888,4980,5907,0
340746801,340746690,4259850,4325386,-0.00152487,0.000630304,0.000790302,-0.0177566,0.0070421,-0.0574103,4988,4927,0
341250854,341250594,4259850,4325386,0.000672996,-0.000712264,0.000294358,0.00240901,-0.0118574,-0.039214,4987,4920,0
341744355,341744198,4259850,4325386,-5.84667e-05,-0.000227923,0.000870905,-0.0107193,-0.00299762,-0.0525903,5028,4914,0
342243018,342242896,4259850,4325386,0.000330804,-0.000332957,-0.000101173,0.00149552,-0.00276435,-0.0485822,4986,4925,0
342746732,342746623,4259850,4325386,0.000206845,-0.000891914,-0.00082155,-0.0042094,-0.0319362,-0.0577639,4986,4923,0
343245481,343245364,4259850,4325386,-0.000228876,0.000988028,0.000624847,-0.00990101,0.0250376,-0.0595336,4989,4995,0
343749321,343749171,4259850,4325386,-0.00067613,-0.000950534,-0.000713995,0.00416258,-0.021652,-0.0397996,4971,4974,0
344247946,344247829,4259850,4325386,0.000137344,0.000408833,0.000177684,0.010134,0.0165228,-0.036456,4986,4949,0
344747440,344747322,4259850,4325386,0.0007495,-0.000712668,-0.00126188,0.00115546,-0.0239182,-0.0415898,4963,4925,0
345245925,345245807,4259850,4325386,0.00123896,-0.000603716,-0.000268538,0.0123083,-0.00909074,-0.0443835,4988,4962,0
345744709,345744548,4259850,4325386,-2.72399e-05,0.000133694,0.000374545,-0.00265908,-0.00182753,-0.0535277,4984,4973,0
346243682,346243524,4259850,4325386,-0.00124716,0.000172474,0.000333823,-0.0121309,0.00806819,-0.0562257,4962,4963,0
346747145,346747013,4259850,4325386,-0.000583863,-0.000448632,-0.000434673,-0.0124457,-0.0130429,-0.0506851,4987,4926,0
347245866,347245753,4259850,4325386,-0.00055563,0.000807033,-0.000145451,-0.0123158,0.0139731,-0.0618023,4987,4951,0
347745162,347745052,4259850,4325386,0.000331114,-0.000173426,0.000226482,0.00620318,-0.00915041,-0.0439143,4990,4925,0
348248508,348248394,4259850,4325386,-0.00172865,0.000929618,0.00132546,-0.00965779,0.0217432,-0.0523398,4928,4918,0
348747075,348746962,4259850,4325386,0.000383031,-7.7729e-05,0.000550615,0.00455587,0.00385288,-0.0404731,4987,4989,0
349245456,349245290,4259850,4325386,-0.000382473,-0.000306965,-6.35456e-05,0.00440992,-0.00374389,-0.0445773,4965,4923,0
349744051,349743942,4259850,4325386,-0.000626054,0.00121067,0.000968118,-1.63008e-05,0.0286157,-0.0488182,4988,4973,0
350247779,350247669,4259850,4325386,-0.000658225,-8.17506e-05,-0.00016399,0.000244494,0.00648241,-0.048287,4981,4972,0
350746655,350746411,4259850,4325386,-0.00121062,0.000483645,0.00146535,-0.00606243,0.00800901,-0.0505397,4988,4935,0
351245461,351245349,4259850,4325386,-0.000257104,0.000754546,0.000302556,-0.00300562,-0.00137896,-0.0540681,4955,4926,0
351749244,351748879,4259850,4325386,-0.000698202,0.000549365,0.000834488,-0.00926914,-0.00154675,-0.0561529,4989,4913,0
352248259,352248116,4259850,4325386,0.000411923,0.000301024,-3.87262e-05,-0.00374825,0.00727566,-0.0547131,4987,4975,0
352747015,352746859,4259850,4325386,0.000761009,4.05263e-05,0.000272399,0.00103509,0.00624977,-0.041772,4986,4924,0
353245804,353245668,4259850,4325386,-0.0010767,5.6016e-06,7.17028e-05,0.0102428,-0.00160682,-0.0396814,5022,4917,0
353743952,353743838,4259850,4325386,0.000535766,-0.000390233,0.000114145,0.00195346,-0.00133122,-0.0485547,4987,4987,0
354247686,354247567,4259850,4325386,0.000661461,-7.04768e-05,-0.00028392,0.00853838,0.00240715,-0.0380094,4987,4975,0
354746578,354746468,4259850,4325386,-0.00409065,7.62405e-06,-6.35373e-05,-0.00505608,-0.0182838,-0.0577766,4983,4970,0
355250158,355250042,4259850,4325386,0.000658321,-0.000528398,-0.000325154,0.00738061,0.00131059,-0.0476188,4991,4923,0
355748885,355748775,4259850,4325386,-0.000487972,0.000155996,-0.000269689,0.00221774,-0.00263063,-0.0358304,4983,4926,0
356247869,356247619,4259850,4325386,-0.00129972,-4.78202e-05,0.000174213,-0.0118255,0.00809088,-0.0575575,4994,4924,0
356745538,356745422,4259850,4325386,0.000393625,-0.000681102,0.00061356,-0.00208462,-0.00124835,-0.0524101,4988,4921,0
357244355,357244178,4259850,4325386,0.0013066,-0.0009327,-0.000648116,0.00743787,-0.0209957,-0.0565429,4995,5970,0
357747950,357747732,4259850,4325386,0.00135087,-0.000392738,-0.000355333,0.0125287,-0.00648991,-0.0454023,4991,5628,0
358246585,358246469,4259850,4325386,-0.000536281,0.000370229,0.000908526,-0.00508714,0.0327595,-0.0495005,4987,4960,0
358750480,358750338,4259850,4325386,0.00195194,-0.00136869,-0.00127805,0.00251282,-0.0255773,-0.0444039,4984,4989,0
359244140,359243950,4259850,4325386,0.000349017,6.36298e-05,0.000213276,-0.00672176,-0.00763848,-0.056518,4983,4967,0
359747835,359747682,4259850,4325386,-0.000454925,0.00058126,0.00102418,-0.00300968,0.0279152,-0.0554258,4991,4925,0
360246591,360246474,4259850,4325386,0.000856759,0.00177706,-6.58464e-05,0.0139334,-0.00248618,-0.0402371,4952,4921,0
360745703,360745562,4259850,4325386,-0.00144885,0.000571799,0.000686167,-0.00652395,0.00512375,-0.0448117,4988,4987,0
361249265,361248894,4259850,4325386,-0.000440584,-6.83518e-05,0.000865369,-0.00653012,-0.00217772,-0.0540653,4990,5704,0
361747741,361747630,4259850,4325386,0.000908304,-0.00060886,-0.000828161,0.01372,-0.0120664,-0.0449504,4987,4950,0
362246517,362246373,4259850,4325386,-0.000666325,0.000476378,0.000595335,-0.00531376,0.00781471,-0.0491017,4986,4969,0
362750229,362750100,4259850,4325386,0.000143798,-0.00109894,-0.000688431,0.00665214,-0.0130312,-0.0403254,4987,4983,0
363243698,363243505,4259850,4325386,-0.000214351,0.000330208,-0.000219292,-0.00810336,-0.00582794,-0.0526154,4941,4649,0
363747750,363747583,4259850,4325386,0.000260221,-0.000386537,-0.00019209,0.00370251,0.00453745,-0.0456055,4987,4925,0
364246738,364246628,4259850,4325386,0.000637604,-0.00139308,-0.000252737,0.00814936,0.00335686,-0.0420523,4986,4980,0
364745416,364745216,4259850,4325386,-0.000541502,0.000374697,3.15357e-05,0.00246613,-0.0125181,-0.0456888,4984,4977,0
365248942,365248794,4259850,4325386,-0.000140712,0.000289135,0.000164378,0.00538136,0.0070141,-0.0428653,4988,4926,0
365748470,365747537,4259850,4325386,-0.000197948,0.000622189,0.000961831,0.00421207,0.0207801,-0.047358,4987,6020,0
366246668,366246494,4259850,4325386,0.000579181,0.000804038,0.000876342,-0.00309548,0.0248345,-0.0494477,4965,4959,0
366745143,366745020,4259850,4325386,-0.00220582,0.000137455,0.000229798,-0.0143195,-0.00502204,-0.0550679,4990,4766,0
367247925,367247754,4259850,4325386,0.00047363,-0.00247046,-0.000436052,-0.0070582,-0.000957963,-0.0481745,4991,4956,0
367746602,367746491,4259850,4325386,0.00146146,-0.000701807,-0.000816107,0.0135662,0.00510613,-0.0397854,4986,4925,0
368245472,368245326,4259850,4325386,-0.00042482,0.000604709,0.000993462,-0.00106191,0.0314037,-0.0517842,4965,4925,0
368749147,368748988,4259850,4325386,0.00139492,-0.000760637,-0.000909885,-0.00209972,-0.0257674,-0.05109,4988,4989,0
369247940,369247826,4259850,4325386,0.0032918,-0.000652457,-0.000434323,0.00989036,-0.0130872,-0.044768,4988,4925,0
369746596,369746446,4259850,4325386,-0.00116361,0.000180462,0.000467244,-0.0110613,0.000291073,-0.0512771,4987,4922,0
370244800,370244689,4259850,4325386,0.000375186,-0.000340323,-0.000345153,0.0070732,-0.0107261,-0.0385744,4988,4763,0
370749317,370748472,4259850,4325386,-0.000643287,0.000451476,0.000865233,0.00776218,0.0249556,-0.0450705,4971,4969,0
371247699,371247484,4259850,4325386,0.000634674,0.000151084,0.000412806,-0.00314465,0.000862365,-0.0530233,4997,4998,0
371746048,371745906,4259850,4325386,0.000597367,-7.98472e-05,8.69909e-05,0.0139153,0.000617851,-0.0405668,4985,4926,0
372249832,372249635,4259850,4325386,-0.0054066,-0.000817762,0.000642555,-0.0155605,0.0199292,-0.0608827,4991,4978,0
372749015,372748901,4259850,4325386,0.00519742,7.73444e-05,-0.00132118,-0.00291939,-0.0163198,-0.0550583,4980,4970,0
373247788,373247618,4259850,4325386,0.00101007,0.000181786,0.000321879,0.00134074,-0.00924998,-0.0418887,4988,4927,0
373746598,373746468,4259850,4325386,-0.00116653,0.000137368,0.0002386,-0.00791125,0.00413366,-0.0525059,4965,4925,0
374245911,374245748,4259850,4325386,-0.000936802,0.00030593,0.000942507,-0.00419166,0.00525029,-0.0446806,4952,4952,0
374744911,374744795,4259850,4325386,0.00066001,-0.000934649,-0.000359267,0.0138497,-0.018359,-0.0434485,5258,4927,0
375248516,375248118,4259850,4325386,0.00195383,-0.000184313,-0.000587916,0.00212554,0.000968965,-0.0448667,4980,4917,0
375746979,375746861,4259850,4325386,0.00035476,0.000193255,0.000410756,0.00196665,-0.00314991,-0.0490034,4989,4926,0
376250153,376250043,4259850,4325386,0.00169892,-5.61683e-05,-0.000793669,-0.00129427,-0.00501552,-0.0512833,4987,4923,0
376749052,376748897,4259850,4325386,-0.00110492,-0.000279512,-6.4997e-05,-0.0103583,-0.0122966,-0.0568103,4989,4921,0
377247683,377247541,4259850,4325386,0.000639802,-0.000364426,-7.43438e-05,0.0121934,-0.00825377,-0.042413,4970,4925,0
377746409,377746271,4259850,4325386,-0.00148068,0.00027394,0.000273927,-0.0114702,0.0091261,-0.0547122,4985,4967,0
378245248,378245014,4259850,4325386,0.00154567,-0.00036447,-0.000594976,0.0151354,-0.00417884,-0.0493347,4989,5722,0
378749445,378748750,4259850,4325386,1.49049e-05,0.000380268,-0.000360766,-0.00327704,0.00799512,-0.0451046,4987,5767,0
379247752,379247618,4259850,4325386,0.00146684,-0.000403957,-0.000837891,-0.00517,-0.0182863,-0.0545462,4965,4989,0
379746341,379746228,4259850,4325386,0.00028257,-0.000377908,2.93351e-05,0.0124349,0.00312987,-0.0413326,4988,4931,0
380250086,380249974,4259850,4325386,0.000674716,-0.000187101,0.000302477,0.00860811,0.00818457,-0.0426877,4989,4965,0
380744060,380743896,4259850,4325386,0.00105416,0.000218388,-0.000139031,0.00266723,-0.00555293,-0.0462523,4990,4935,0
381247826,381247696,4259850,4325386,-0.000799276,4.9152e-05,0.00164803,0.0018035,0.0269157,-0.0488399,5233,4925,0
381747085,381746972,4259850,4325386,0.00110689,-0.000788401,-0.000376348,0.0167774,-0.0103512,-0.0369057,4995,4928,0
382245733,382245605,4259850,4325386,0.00124735,-0.000674332,0.000297201,0.0118901,-0.00983843,-0.0417979,4934,4915,0
382749382,382749207,4259850,4325386,-0.000286014,0.000283119,0.000519934,-0.000365353,0.000946106,-0.0487432,4988,4925,0
383248717,383247951,4259850,4325386,0.00157583,-0.000769349,-0.00101437,0.00846918,-0.0358801,-0.0544454,4986,6055,0
383747015,383746870,4259850,4325386,-0.000718747,0.000298605,-0.000501515,-0.00474475,0.000408457,-0.0523443,4960,4927,0
384245547,384245436,4259850,4325386,0.000104891,9.54983e-05,-0.000137273,-0.00222287,0.00982759,-0.0479265,4988,4997,0
384744296,384744179,4259850,4325386,-0.000693908,0.000294483,0.0002035,-0.000287752,0.00483355,-0.0424715,4977,4947,0
385247510,385247360,4259850,4325386,0.00200564,0.00011874,-6.11545e-05,0.0044808,0.00201094,-0.0428796,4292,4927,0
385746223,385746106,4259850,4325386,0.00039443,3.8625e-05,0.00079182,-0.000305425,0.0119632,-0.0472007,4984,4988,0
386245027,386244851,4259850,4325386,0.000206333,8.14782e-05,-0.000105747,0.0057557,0.00438252,-0.0423296,4982,4926,0
386748705,386748583,4259850,4325386,-0.00113094,0.000604517,0.000851201,-0.0109645,0.00971868,-0.0540577,4991,4927,0
387247431,387247323,4259850,4325386,0.00157999,-0.000632084,-0.00139679,-9.84067e-05,-0.0333199,-0.0488053,4987,5009,0
387745998,387745861,4259850,4325386,-0.00119913,0.000109868,0.000161759,-0.00366521,-0.00546848,-0.0515315,5026,4908,0
388244422,388244312,4259850,4325386,0.000191708,-0.000264985,-0.000831443,0.00530218,-0.0162244,-0.045705,4984,4957,0
388748161,388748042,4259850,4325386,-0.000863323,3.59546e-05,-0.000124969,0.00452914,-0.000828637,-0.0436135,4987,4928,0
389246962,389246814,4259850,4325386,0.00128475,-0.000419468,-0.000317208,0.00323597,-0.0132715,-0.0391062,4963,4927,0
389745669,389745531,4259850,4325386,-0.000438694,0.000669083,0.000457497,-0.00348747,0.0210167,-0.0530234,4989,4924,0
390249498,390249353,4259850,4325386,0.00120444,-0.000158314,-0.00017579,0.0111121,-0.00228623,-0.0375994,4997,4400,0
390743165,390743018,4259850,4325386,-0.00281442,7.71733e-05,0.000465171,-0.00339363,0.00658146,-0.0490604,4987,4923,0
391247026,391246879,4259850,4325386,1.45255e-05,-0.00104016,-0.0011109,-0.00772713,-0.0323797,-0.048108,4964,4926,0
391745609,391745491,4259850,4325386,-8.50859e-05,0.00166636,0.000596242,-0.0013455,0.00302163,-0.0457161,4981,4928,0
392244348,392244235,4259850,4325386,2.727e-05,-0.000370193,-0.000598761,-0.00590524,-0.0276229,-0.0572518,4988,4976,0
392748118,392747967,4259850,4325386,-0.000191058,0.000206047,2.45958e-05,0.00206971,0.010094,-0.0410574,4990,4982,0
393246387,393246211,4259850,4325386,0.00234313,-0.000318564,-0.00059607,0.00832797,-0.0154921,-0.0427565,4985,4935,0
393749584,393749444,4259850,4325386,-0.00134852,0.000804598,0.000835962,-0.0106275,0.0221541,-0.0577413,4988,4945,0
394248308,394248198,4259850,4325386,0.000306229,-0.000238014,-0.000238518,0.00127415,0.00624875,-0.0473415,4989,4876,0
394747116,394747005,4259850,4325386,0.000151212,-0.000168575,0.000211821,0.000241206,0.00361059,-0.0415153,4978,4926,0
395245977,395245813,4259850,4325386,0.00044727,-0.000260449,-0.000600463,-0.00572032,-0.00118365,-0.0573615,4966,4926,0
395744531,395744419,4259850,4325386,0.00188324,0.000333033,0.000248963,-0.00417211,-0.0114135,-0.0579382,4987,4942,0
396248267,396248153,4259850,4325386,-0.000875,-0.000152514,-0.000411998,0.000172605,-0.004815,-0.0491242,4988,4927,0
396747052,396746897,4259850,4325386,0.000317327,-0.000251543,-0.000629453,0.00475405,3.32295e-05,-0.0377443,4994,4978,0
397246017,397245905,4259850,4325386,7.78945e-05,0.00031911,-0.010357,-0.0143014,0.00355468,-0.0545765,5253,4986,0
397749118,397748921,4259850,4325386,0.000549312,0.000324818,-0.00111018,0.00792787,0.0117983,-0.0285032,4976,3925,0
398243022,398242852,4259850,4325386,-0.000456393,-3.40206e-05,0.0014257,-0.00303185,-0.00134281,-0.0417896,4966,4930,0
398746538,398746414,4259850,4325386,0.00100211,-0.000403962,-0.000175247,0.00610514,-0.0278213,-0.0475885,4986,4926,0
399245273,399245155,4259850,4325386,-0.000487784,0.000395312,0.000552469,-0.00745895,0.00894631,-0.0578501,4990,4972,0
399749063,399748887,4259850,4325386,0.00106293,-0.000111045,-0.000381761,0.015993,-0.00785004,-0.0434984,4987,4922,0
400247755,400247633,4259850,4325386,0.00105732,-4.79244e-05,-0.00368159,6.56616e-06,0.00161072,-0.0301359,4990,3747,0
400746559,400746406,4259850,4325386,-0.000702071,-0.000439794,0.000248343,-0.00148479,0.0111835,-0.0508,4991,4928,0
401251785,401250110,4259850,4325386,-0.000988298,0.00134945,0.00113858,0.000860803,0.019987,-0.0617326,4988,5923,0
401744127,401743958,4259850,4325386,-0.000497869,-9.59312e-05,0.000769515,-0.00400033,-0.00351654,-0.0483212,4977,4926,0
402247783,402247594,4259850,4325386,-0.00139478,0.000504022,0.000738071,0.00200215,0.00936629,-0.042113,4987,4977,0
402746455,402746340,4259850,4325386,-0.000717055,0.000354633,0.000725238,-0.00260611,0.00406338,-0.0484592,4974,4926,0
403245228,403245088,4259850,4325386,-9.83365e-05,0.000459535,0.000447835,-0.000678118,0.0166273,-0.0490675,4990,4926,0
403749162,403749004,4259850,4325386,-0.0017585,0.000526057,0.00141668,-0.00621108,0.00819325,-0.0461579,4961,4962,0
404248217,404248100,4259850,4325386,0.00100255,-0.000276835,-0.000119842,0.00740402,0.00148975,-0.0410815,4972,4954,0
404746871,404746757,4259850,4325386,0.000703608,-0.000979992,-0.00137212,-0.00146427,-0.0344639,-0.0462874,4987,4926,0
405245220,405245051,4259850,4325386,-0.00103315,-8.96468e-05,-0.000177549,-0.00418882,0.00105544,-0.0531462,4980,4927,0
405743937,405743804,4259850,4325386,-0.000813136,-0.000302151,-0.000628514,-0.0112598,-0.0186096,-0.0559899,4973,4935,0
406247671,406247527,4259850,4325386,0.000809979,-0.000270009,-0.00131378,-0.00695557,-0.0306979,-0.0498952,4988,4928,0
406746387,406746272,4259850,4325386,-0.000765221,0.000424279,-0.00694794,0.00844854,-0.0101204,-0.050665,4986,5010,0
407245248,407245128,4259850,4325386,0.000528675,-0.000122362,-0.00145112,-0.00639325,-0.0190815,-0.0528583,4953,4767,0
407748936,407748751,4259850,4325386,9.50738e-05,-0.000446715,0.000414155,0.0070392,-0.0141261,-0.0420046,4990,4988,0
408249046,408247536,4259850,4325386,0.000261334,-0.000277828,0.000626139,0.00195287,-0.00775624,-0.0526341,5002,5913,0
408746802,408746690,4259850,4325386,0.00204663,-0.000225958,-0.00067007,-0.00494086,-0.015714,-0.049734,4982,4770,0
409247036,409245430,4259850,4325386,-0.00016119,-0.000403805,-0.000290964,0.00438222,-0.00890853,-0.0511285,4972,5916,0
409744658,409744507,4259850,4325386,0.00108165,-0.000631448,-0.000564104,0.00400939,-0.0179575,-0.0495903,4961,4957,0
410248662,410248431,4259850,4325386,0.000106164,-0.000337784,-0.000473962,-0.00425538,-0.0128091,-0.0575766,4981,4987,0
410747291,410747158,4259850,4325386,0.000174575,0.000118375,-0.000476415,-0.00527014,0.000997184,-0.0528611,4987,4971,0
411246093,411245983,4259850,4325386,-8.38665e-05,-0.000217143,-0.000358385,0.00237694,-0.00726458,-0.0431485,4999,4926,0
411749768,411749634,4259850,4325386,0.00142493,-0.000704213,-0.00112165,-0.0019206,-0.0292002,-0.0459444,4987,4965,0
412243692,412243562,4259850,4325386,-0.000478888,0.000356869,0.00104249,0.0012778,0.00588273,-0.0480256,5014,4908,0
412747938,412747818,4259850,4325386,-0.000254156,-0.000213282,0.000118157,0.00200766,-0.00935984,-0.0470955,4954,4955,0
413246498,413246369,4259850,4325386,-0.000299936,-6.43578e-05,0.000189705,0.00350976,0.00946061,-0.0448577,4987,4988,0
413745234,413745119,4259850,4325386,-0.00124922,0.00058302,0.00120468,-0.00744287,0.028722,-0.0559845,4986,4866,0
414248960,414248847,4259850,4325386,-0.000603856,0.000663808,0.000874626,-0.00280245,0.012602,-0.0519912,4988,4948,0
414747863,414747676,4259850,4325386,-0.00259942,0.00105681,0.0007983,-0.00586268,0.00699263,-0.049287,4964,4963,0
415246457,415246341,4259850,4325386,0.0013055,-0.000796986,-0.0011146,0.00152918,-0.0314684,-0.0524083,4991,4930,0
415745205,415745083,4259850,4325386,0.00135352,-0.000627543,-0.000745406,-0.00254668,-0.0115714,-0.0534946,4987,4659,0
416244440,416244328,4259850,4325386,0.00158004,-0.00126981,-0.000322039,0.00441607,-0.000452629,-0.0378902,4988,4966,0
416748187,416748061,4259850,4325386,9.00354e-05,5.44077e-05,0.000311257,-0.00172004,0.00281513,-0.0465237,4975,4927,0
417247132,417246931,4259850,4325386,-0.000691335,0.000836808,0.000430991,-0.00858206,0.00884096,-0.0541352,5004,4998,0
417745168,417745054,4259850,4325386,-0.000167028,0.000343061,0.000495892,0.0024556,0.0123052,-0.0459928,4988,4962,0
418248934,418248789,4259850,4325386,-0.000693595,0.000164041,-0.000336273,-0.00826597,0.00964924,-0.0541689,4964,4926,0
418747695,418747533,4259850,4325386,-0.00108633,-7.97633e-05,-0.00044028,-0.00853331,-0.0150691,-0.0472213,4988,4771,0
419246407,419246278,4259850,4325386,-0.000541059,-0.000691765,-0.00127543,-0.0053852,-0.0258574,-0.0517706,4987,4988,0
419745223,419745075,4259850,4325386,0.00168738,-8.58557e-05,-0.000655072,0.00260858,-0.00870558,-0.0440212,4958,4964,0
420244317,420244113,4259850,4325386,0.00124592,-0.000313971,-0.000273601,-0.00350477,-0.0027753,-0.0483349,4964,4962,0
420747645,420747503,4259850,4325386,0.000853205,-0.000946362,-0.000557948,0.01185,-0.0186902,-0.0403413,4983,4926,0
421246365,421246249,4259850,4325386,-0.000102424,-0.000302776,-0.000190367,0.00168539,-0.00683097,-0.0462017,4987,4926,0
421750116,421749992,4259850,4325386,-0.000711228,0.000259654,-1.61865e-06,-0.00894872,-0.0147556,-0.0526727,4995,4932,0
422249168,422248982,4259850,4325386,-0.000701579,-0.000336841,-0.000778769,-0.00351269,-0.00744057,-0.0416088,4958,4965,0
422747281,422747163,4259850,4325386,-0.000174507,0.00108239,0.00103656,0.00314424,0.0247677,-0.0469396,4962,4928,0
423246067,423245936,4259850,4325386,-0.000276024,0.0010113,0.00110366,-0.00818663,0.0241658,-0.0581124,4965,4954,0
423744578,423744469,4259850,4325386,-0.00026277,0.000223006,0.000714263,-0.0110333,0.0261685,-0.0577372,4988,4881,0
424248953,424248204,4259850,4325386,0.000442919,-0.00100888,-0.00100408,0.00319503,-0.0200324,-0.054182,4982,5914,0
424746709,424746556,4259850,4325386,-9.45073e-05,-3.07072e-05,-0.000310584,-0.000351268,-0.0114431,-0.0407358,4998,4932,0
425245341,425245200,4259850,4325386,-0.000877687,0.000207972,-0.00013961,-0.00462634,-0.00190533,-0.0448777,4991,4917,0
