timestamp,timestamp_sample,xyz[0],xyz[1],xyz[2]
360167236,360166390,0.00631109,0.0286397,-0.0305478
360169693,360168857,0.0338893,0.0580361,-0.0206018
360187253,360186410,-0.0417371,-0.00103645,0.0386345
360209725,360208889,0.056583,0.0724718,0.0133151
360229747,360228911,-0.165513,-0.0580838,-0.0641529
360247322,360246476,0.0520668,0.0951547,0.067296
360267359,360266499,0.0221491,-0.140258,-0.0985808
360289826,360288978,-0.184741,0.102831,0.0209549
360307384,360306545,0.0599948,-0.0849991,0.00890546
360327400,360326566,-0.0116507,-0.0670531,-0.0374171
360349887,360349045,-0.155527,0.213428,0.0327283
360369903,360369067,0.0257767,-0.0943072,0.0158205
360387490,360386649,-0.0126819,0.00409894,-0.00668349
360407502,360406661,-0.156383,0.211137,0.0134438
360429978,360429142,0.0251994,-0.11982,0.00842433
360447534,360446700,-0.00410183,0.000839787,-0.00444848
360467556,360466722,-0.126873,0.216331,0.0164541
360490053,360489201,-0.0531657,-0.0910938,0.00608985
360507607,360506767,0.0469611,-0.0654739,-0.00952527
360527623,360526789,-0.0512525,0.234647,0.00957961
360547645,360546811,-0.0683803,-0.0856529,-0.000653211
360570133,360569297,0.144667,-0.197842,-0.0116441
360587690,360586856,0.00440336,0.153506,0.0139737
360607717,360606882,-0.103737,0.0566124,-0.00258192
360627735,360626901,0.0787888,-0.153435,0.0042731
360650219,360649381,0.0706157,-0.116322,0.0163591
360667785,360666945,-0.00187155,0.159416,-0.0226076
360687801,360686968,-0.0879992,-0.00130037,-0.0149526
360710291,360709447,0.0159877,-0.106413,0.0119517
360727848,360727012,-0.00894287,0.0514572,0.00747967
360747872,360747034,-0.0312295,0.0937774,-0.0385272
360767896,360767057,-0.0486164,-0.0338082,-0.00658812
360790378,360789536,-0.0164467,-0.0962393,0.0367195
360807957,360807105,0.037201,0.0295407,-0.012367
360827957,360827124,-0.00189306,0.0320596,-0.0523041
360850440,360849603,-0.0449062,-0.0155643,-0.0183321
360868013,360867168,-0.0648276,-0.0247951,0.0559538
360888032,360887198,0.0880168,0.0230406,-0.0225552
360908052,360907218,-0.0243996,0.0112751,-0.0515258
360930529,360929692,-0.103523,0.000307234,-0.0155685
360948100,360947258,-0.0290485,-0.0105091,0.068226
360968130,360967297,0.147623,-0.0155393,-0.0289297
360990599,360989759,0.0606481,-0.0247217,-0.0735901
361005622,361004776,-0.108582,0.0382061,0.046113
361028187,361027348,0.0134691,-0.016966,0.0680924
361048223,361047370,0.266151,-0.0506126,-0.00540823
361070720,361069868,0.0532431,0.000849671,-0.041063
361088252,361087414,-0.210985,0.0586105,-0.0286977
361108282,361107437,0.0834617,-0.0655596,0.0501751
361128305,361127459,0.315736,-0.025227,0.054354
361145769,361144932,-0.206059,0.0602262,-0.0695989
361173374,361172529,-0.140282,0.0928147,-0.052079
361188361,361187526,0.0790907,-0.107291,0.0146999
361210843,361210006,0.256295,-0.05247,0.0825074
361228406,361227570,-0.0111672,0.149216,-0.00117904
361248426,361247593,-0.195317,-0.042412,-0.0792705
361268449,361267615,0.0270203,-0.162785,-0.020887
361285925,361285089,0.182614,0.151008,0.0812498
361308494,361307660,0.0767678,0.136017,0.0339749
361328516,361327682,-0.187469,-0.0902289,-0.0692929
361350998,361350161,-0.173948,-0.1628,-0.0983416
361368574,361367727,0.0984565,0.112574,0.067209
361388589,361387749,0.105691,0.156174,0.0762461
361408605,361407771,-0.148629,-0.0761959,-0.055874
361426089,361425253,-0.0727563,-0.110697,-0.051467
361448649,361447816,0.0455825,0.0642875,0.0426325
361468678,361467838,0.178224,0.0967931,0.0945371
361491170,361490322,0.0691844,0.0197467,0.0322065
361506171,361505335,-0.127823,-0.0731863,-0.0748095
361528739,361527905,0.0349013,0.0614862,0.00632652
361548769,361547928,0.190258,0.158086,0.0880798
361566249,361565411,-0.003604,-0.0492128,-0.031467
361588813,361587972,-0.0697213,-0.175795,-0.0720912
361608828,361607995,0.0428648,-0.0212759,-0.00885222
361628861,361628020,0.161518,0.107222,0.0560168
361646333,361645491,-0.00133674,-0.0627545,-0.00759527
361668900,361668066,-0.0542109,-0.102948,-0.0365655
361688921,361688084,0.0367645,0.0172303,-0.0185099
361706403,361705558,0.0537255,0.0900232,0.0173231
361728964,361728130,-0.0317323,0.000846977,0.0149018
361748994,361748151,-0.0442259,-0.0548752,0.01306
361769011,361768173,0.039961,0.0329592,-0.00603292
361786490,361785647,-0.0683587,-0.037114,-0.0252974
361809057,361808222,-0.0575807,-0.0907523,-0.00482523
361829083,361828243,-0.0168256,0.0118616,0.0442794
361846551,361845714,0.0274403,0.0754283,-0.0199333
361869124,361868288,-0.0799439,-0.00247815,-0.0464374
361889152,361888310,-0.129017,-0.0960567,-0.0218484
361909166,361908332,0.0130817,0.00340377,0.0627443
361926640,361925804,0.0878686,0.106468,-0.00165692
361949208,361948375,-0.0515521,0.0216512,-0.0509321
361969237,361968399,-0.171676,-0.147904,-0.05125
361986706,361985870,0.179635,0.0633317,0.0672285
362006729,362005893,0.176405,0.112041,0.0112284
362029304,362028464,-0.0309572,0.0260649,-0.0377676
362049328,362048486,-0.200723,-0.157027,-0.0724547
362066796,362065960,0.192477,0.0495515,0.0618631
362089365,362088531,0.248454,0.120615,0.0628677
362109387,362108553,-0.0482621,0.0428224,-0.0151848
362126869,362126030,-0.159182,-0.136415,-0.054499
362146888,362146052,0.152188,0.0205266,0.0530571
362169463,362168629,0.22884,0.0965073,0.0744449
362189487,362188649,-0.0378649,0.0673632,0.0035104
362206952,362206116,-0.243939,-0.0950849,-0.0699729
362229535,362228691,0.0113147,-0.0570893,-0.00551793
362249553,362248710,0.201435,0.0712835,0.0687488
362267022,362266183,-0.190915,-0.0283463,-0.0353122
362287044,362286205,-0.211796,-0.0826786,-0.058775
362309611,362308777,0.0254286,-0.0145319,-0.00553761
362329636,362328799,0.139172,0.0754688,0.0401573
362347115,362346279,-0.133612,-0.0303649,-0.0120465
362369681,362368844,-0.16512,-0.0523121,-0.0154125
362389715,362388868,0.0790938,0.0332187,-0.0095216
362407185,362406340,0.0268471,-0.0113313,-0.00337795
362427198,362426362,-0.0815357,-0.0674026,0.0146754
362449767,362448933,-0.0171964,-0.0191211,0.0450914
362469801,362468955,0.145833,0.0813906,0.00159129
362487273,362486429,-0.0909393,-0.0445109,-0.0506804
362507294,362506451,-0.122458,-0.0611701,0.013667
362529856,362529022,0.0650179,-0.0214078,0.0629042
362547344,362546496,0.191276,0.0686273,0.0155841
362567364,362566525,-0.156457,-0.00938148,-0.0591175
362589931,362589089,-0.239169,-0.0943474,-0.0714115
362607399,362606563,0.249248,0.0350292,0.0662745
362627421,362626585,0.218542,0.100638,0.0370214
362647446,362646608,-0.18511,-0.00180956,-0.0333262
362670019,362669181,-0.275201,-0.109254,-0.0637925
362687493,362686652,0.193259,0.024989,0.0235382
362707511,362706675,0.170511,0.101675,0.0609234
362730092,362729246,-0.0575863,0.0352255,0.024586
362747566,362746719,-0.111117,-0.0924366,-0.0571949
362767578,362766742,0.183317,0.0102216,-0.00111882
362787600,362786764,0.0306104,0.0606721,0.0147089
362810169,362809335,-0.105005,0.0188264,0.0145418
362827648,362826809,0.0518393,-0.0052639,0.00580557
362847667,362846831,0.133266,-0.0175709,-0.0408833
362867690,362866853,-0.0835143,-0.0538226,-0.0249435
362890262,362889427,-0.13817,-0.0644606,0.00613549
362907734,362906898,0.167512,0.0325581,0.0427082
362927757,362926920,0.0932866,0.0383049,-0.0331419
362950338,362949491,-0.145344,-0.0224221,-0.0601262
362967802,362966965,-0.178875,-0.0304399,0.00570561
362987826,362986987,0.211687,0.0437889,0.0772119
363007846,363007010,0.0884775,0.0835032,0.0255488
363030414,363029581,-0.184364,0.0242533,-0.032661
363047891,363047054,-0.122223,-0.0952365,-0.0258121
363067916,363067077,0.253055,0.0540746,0.0544683
363090485,363089648,0.190078,0.11525,0.0518122
363107962,363107122,-0.289169,-0.0360869,-0.0371292
363127980,363127144,-0.100312,-0.146939,-0.0507811
363148010,363147166,0.158707,-0.000698416,-0.00321368
363170573,363169737,0.0554151,0.0527956,-0.0364017
363188060,363187224,-0.0951274,0.0288725,0.0539374
363208069,363207233,-0.00362333,-0.1017,0.0826794
363228096,363227256,0.122172,-0.15534,0.0595716
363248120,363247281,0.206492,-0.275815,0.0200395
363268152,363267300,0.180621,-0.410293,-0.00749913
363288162,363287323,0.0140934,-0.423761,-0.0304668
363310727,363309894,0.0469545,-0.467945,0.00910043
363328204,363327368,-0.249123,-0.306555,-0.0139471
363348238,363347390,-0.36749,-0.198004,-0.0208624
363368253,363367412,-0.350144,-0.0798451,-0.0340601
363385819,363384981,-0.120662,0.209861,-0.0737564
363408306,363407457,-0.237329,0.0576952,-0.0538226
363428325,363427479,-0.19616,0.103955,-0.0702547
363450891,363450058,-0.303159,-0.0610848,-0.0615125
363468364,363467524,-0.111938,0.156639,-0.100843
363488385,363487546,-0.0526428,0.20877,-0.11205
363508412,363507568,0.0116376,0.267043,-0.110449
363525970,363525134,0.251517,0.255802,-0.00337787
363548450,363547613,0.191637,0.339114,-0.0823493
363568481,363567635,0.2768,0.345616,-0.0692193
363591053,363590207,0.140072,0.348545,-0.12906
363608533,363607680,0.364859,0.321203,-0.0548082
363628539,363627702,0.358946,0.297682,-0.0266287
363648564,363647725,0.326591,0.249141,-0.0246153
363666134,363665299,0.256132,0.0181962,0.0698274
363688607,363687770,0.252517,0.159956,0.0132198
363708629,363707792,0.199814,0.108271,0.0442954
363728657,363727821,0.171641,0.0655654,0.0629155
363746224,363745382,0.109051,-0.0710093,0.106122
363768705,363767859,0.0825052,0.0331151,0.0801726
363788720,363787881,0.0318773,0.042577,0.0712543
363806290,363805447,-0.0361986,-0.0286982,0.103437
363828762,363827926,0.0330793,0.0419458,0.0345512
363848788,363847948,0.0624416,0.0127733,0.0303825
363868811,363867971,0.0883267,-0.0462915,0.0233297
363886377,363885537,-0.0298706,-0.22208,0.0471552
363908852,363908015,0.110901,-0.160208,0.0185005
363928874,363928038,0.0762519,-0.189493,0.0147272
363946441,363945606,-0.139068,-0.291896,0.0206141
363968919,363968082,0.0952781,-0.213479,-0.00129029
363988948,363988105,0.094838,-0.213137,0.00877473
364008963,364008127,0.0979691,-0.266535,0.0146529
364026531,364025693,-0.143612,-0.417647,0.0453178
364049011,364048172,0.118173,-0.465841,0.0442399
364069034,364068194,0.118271,-0.522411,0.0623359
364086595,364085760,-0.173724,-0.395228,0.0172919
364109095,364108239,0.121466,-0.521078,0.0694656
364129104,364128261,0.101303,-0.453449,0.0494744
364149120,364148284,0.0937933,-0.383125,0.036299
364166705,364165850,-0.207297,0.0063415,-0.0419302
364189165,364188329,0.0298083,-0.210279,0.00567378
364209187,364208351,0.0317829,-0.152449,0.00787734
364226752,364225917,-0.171101,0.15505,-0.00398402
364246774,364245939,-0.144803,0.151079,0.0104187
364269261,364268418,0.0652688,-0.0558093,0.0201723
364289287,364288440,0.0614848,-0.00840779,0.0299034
364306841,364306006,-0.108444,0.187428,0.0234166
364329329,364328485,0.0422662,0.0354582,0.0326581
364349345,364348507,0.0220227,0.0295801,0.0249251
364366911,364366073,-0.110976,0.212402,0.0549854
364386938,364386103,-0.104823,0.222589,0.0534191
364409411,364408574,0.0271351,0.105673,0.0312682
364429433,364428597,0.0372033,0.106709,0.0260568
364447011,364446177,-0.0211186,0.234348,0.0888318
364469478,364468641,0.0214098,0.153254,0.0614746
364489507,364488664,0.0107011,0.154218,0.077713
364507068,364506230,0.0247332,0.0993089,0.130059
364527095,364526254,-0.00256775,0.0618748,0.137199
364549573,364548737,-0.0340342,0.117845,0.109675
364569593,364568753,-0.0144083,0.124937,0.118141
364587164,364586321,-0.039898,-0.0873166,0.104844
364607183,364606349,-0.016481,-0.124596,0.09995
364629656,364628820,0.108566,-0.0708999,0.074416
364647231,364646386,-0.0323659,-0.221962,0.0620127
364667249,364666408,0.0167181,-0.251195,0.024986
364689723,364688887,0.172449,-0.303988,0.0416358
364709757,364708910,0.205454,-0.345022,0.0313953
364727317,364726475,0.0391302,-0.249532,-0.0393489
364747348,364746499,0.0398269,-0.202257,-0.0439797
364769814,364768977,0.271438,-0.362672,-0.0523656
364787403,364786543,0.0419874,-0.127083,-0.0534249
364807408,364806570,0.0364267,-0.0887506,-0.058899
364829886,364829044,0.289739,-0.329831,-0.0600196
364849905,364849066,0.288128,-0.318444,-0.0650776
364867479,364866642,0.0895883,0.059363,-0.0481541
364887497,364886661,0.111227,0.116659,-0.0534508
364909979,364909133,0.218258,-0.130731,-0.0859453
364927541,364926699,0.0720485,0.229096,-0.0611618
364947564,364946723,0.0761957,0.238756,-0.0412463
364970048,364969200,0.153934,0.084532,-0.0935561
364990064,364989228,0.194288,0.117897,-0.0738089
365007625,365006789,0.22146,0.124972,0.0135173
365027649,365026814,0.294914,0.0579245,-0.00716856
365050129,365049290,0.142661,0.142615,-0.0657334
365067692,365066856,0.0997237,0.294896,-0.0553371
365087732,365086894,-0.0989021,0.402498,-0.0525456
365107736,365106900,-0.233294,0.358034,-0.0404057
365130224,365129380,0.0129092,-0.268842,-0.0149185
365147780,365146945,-0.0571913,-0.218683,-0.00777863
365167805,365166968,0.123841,-0.359648,0.00962279
365190308,365189446,0.102461,0.152135,0.0178219
365207863,365207023,0.08124,0.0952068,0.0275166
365227870,365227035,-0.183608,0.139681,0.00549607
365247904,365247066,-0.176138,-0.114214,0.030827
365270375,365269536,0.114794,-0.118157,0.0791022
365287939,365287101,0.120649,-0.0838488,0.0622998
365307960,365307124,0.010801,-0.0440016,0.0496075
365330442,365329603,-0.343505,0.162524,0.0279624
365348016,365347170,-0.302111,0.279893,0.0660807
365368043,365367191,-0.249262,0.360289,0.0570202
365388054,365387215,-0.0615992,0.114625,0.066144
365410529,365409693,-0.343381,0.130585,0.0821899
365428100,365427258,-0.463195,-0.0214042,0.064731
365448120,365447284,-0.39349,-0.0443604,0.0453467
365470610,365469760,-0.126014,0.110345,-0.0457086
365485613,365484777,-0.161762,0.276632,-0.0341944
365508184,365507348,-0.580741,-0.428434,0.0358318
365528206,365527370,-0.336461,-0.215902,-0.0496194
365550688,365549849,-0.137407,-0.0816812,-0.0328519
365568252,365567415,-0.287925,-0.114586,-0.00532222
365588286,365587437,-0.319878,-0.0602242,0.0284414
365608303,365607462,-0.152906,0.0574615,-0.0204392
365625769,365624933,-0.107356,0.126762,0.00236782
365648346,365647504,-0.0397353,0.180831,0.0933831
365668362,365667527,0.154163,0.0695198,0.135925
365690846,365690006,-0.103616,0.0389074,0.14127
365708407,365707571,-0.0744916,-0.0377924,0.19224
365728429,365727594,0.262307,-0.200565,0.239378
365745906,365745067,0.340807,-0.154008,0.231497
365765929,365765090,0.411678,-0.0549499,0.230641
365788499,365787663,0.0167998,-0.0968409,0.244925
365808519,365807683,0.265739,-0.050943,0.179136
365830998,365830162,0.355107,-0.070295,0.216453
365848573,365847728,0.0627974,0.0266771,0.160594
365868601,365867750,-0.122398,0.00591627,0.187202
365888623,365887789,0.127959,0.0307207,0.178943
365906095,365905247,0.115424,0.131627,0.158416
365928653,365927818,-0.122363,0.000906696,0.307145
365946135,365945293,-0.101655,-0.0155085,0.252502
365971163,365970321,0.056876,0.057179,0.294048
365986184,365985347,-0.0328944,-0.0258698,0.312259
366008746,366007907,-0.0908005,-0.130507,0.349104
366028773,366027929,-0.163512,-0.0419366,0.399924
366046244,366045403,-0.0888067,-0.0667403,0.381142
366068810,366067974,0.0136133,0.070883,0.400738
366088832,366087996,-0.378073,0.14109,0.406545
366108869,366108019,-0.392283,0.150353,0.462927
366126340,366125493,-0.19018,0.0595137,0.43234
366148908,366148066,0.13626,0.186737,0.406363
366168922,366168086,-0.11336,0.114753,0.449768
366186396,366185560,-0.0916861,0.0445534,0.46265
366208966,366208131,0.062225,0.149748,0.426069
366228995,366228159,0.200968,-0.0213019,0.416725
366249011,366248176,0.174303,0.0179545,0.461078
366266499,366265649,0.251979,-0.0473134,0.484091
366289058,366288222,0.197054,0.00698322,0.465051
366309088,366308243,0.152559,-0.169193,0.498203
366326553,366325716,0.135896,-0.26058,0.489132
366349127,366348289,0.521239,-0.127176,0.419216
366366605,366365765,0.398544,-0.223328,0.418477
366389168,366388332,0.0639977,-0.0819419,0.40376
366406642,366405806,0.097151,-0.111724,0.396544
366429215,366428377,0.239928,-0.116167,0.373237
366446687,366445851,-0.0199707,-0.0455948,0.355607
366466712,366465873,-0.0199935,-0.0339885,0.324079
366486731,366485895,-0.0137629,-0.0792031,0.325467
366509308,366508467,-0.233137,0.101311,0.284454
366526778,366525941,-0.149195,0.143383,0.240428
366546801,366545965,-0.141669,0.0631599,0.199295
366569370,366568534,-0.226234,0.184234,0.139072
366586865,366586018,-0.184889,0.0797254,0.160435
366606867,366606031,-0.267816,0.104615,0.11179
366626897,366626052,-0.279861,0.167838,0.0611744
366649468,366648623,-0.203702,0.125342,0.0359234
366666940,366666103,-0.225558,0.105955,-0.00629282
366686959,366686124,-0.310019,0.0457525,-0.00607378
366709536,366708691,-0.179976,0.0819832,-0.054218
366727009,366726164,-0.0828914,0.0569725,-0.0721907
366747025,366746186,0.0261681,0.0977512,-0.0811163
366767051,366766209,0.0272118,0.0812352,-0.0754456
366789616,366788780,-0.0249109,0.015048,-0.0935246
366807099,366806256,0.106324,-0.0210812,-0.0937273
366827126,366826281,0.173512,-0.0418539,-0.189234
366847135,366846299,0.268882,-0.0619556,-0.186822
366869711,366868869,0.214641,-0.172525,-0.195583
366887181,366886345,0.126426,-0.0855874,-0.211062
366907202,366906366,0.235713,-0.0916853,-0.172809
366929772,366928937,0.265474,-0.0896237,-0.174728
366947248,366946410,0.224059,-0.0314991,-0.180189
366967280,366966433,0.193462,-0.0958451,-0.126426
366987297,366986455,0.0793342,-0.0657838,-0.173836
367009862,367009026,0.066292,-0.0342521,-0.133087
367027349,367026500,0.0744887,-0.116718,-0.162341
367047361,367046522,-0.22335,-0.0126235,-0.113303
367069929,367069093,-0.300243,-0.0124059,-0.0762172
367087406,367086567,-0.238126,0.00484096,-0.0773488
367107426,367106589,-0.175416,0.0150233,-0.0885739
367127461,367126615,-0.0248222,0.029166,-0.0907777
367150022,367149185,-0.0775075,0.0646534,-0.0701649
367167493,367166657,-0.00640863,-0.0653682,-0.0438327
367187519,367186679,0.0863326,0.00804964,-0.059086
367210094,367209250,0.217314,-0.0479109,-0.02677
367227591,367226728,0.361728,0.0834441,-0.101254
367247585,367246748,0.311417,0.0569933,-0.0439917
367267606,367266770,0.389271,0.0564188,-0.0893469
367290186,367289352,0.450934,0.071857,-0.0823762
367307651,367306815,0.276537,0.0928502,-0.10845
367327676,367326837,0.283152,0.061553,-0.0620949
367347696,367346860,0.106806,0.0637624,-0.0904898
367370275,367369429,-0.103051,0.08595,-0.0534263
367387747,367386904,-0.120227,0.113738,-0.099899
367407766,367406927,-0.0152534,0.0313805,-0.0963775
367430344,367429497,-0.100554,-0.0859709,-0.0757753
367447814,367446978,-0.0778012,-0.0748304,-0.0768476
367467829,367466992,0.0250874,-0.136779,-0.0589552
367487854,367487015,0.168766,-0.0672614,-0.0448188
367510432,367509586,0.275589,0.0626359,-0.0530504
367527896,367527060,0.230236,0.101986,-0.0677271
367547918,367547082,0.254261,-0.0172644,-0.0299351
367570489,367569653,0.095693,-0.034698,-0.0277468
367587963,367587127,-0.0330211,-0.0158649,-0.0537028
367607985,367607149,-0.0741799,0.00178594,0.00354366
367628008,367627172,-0.21466,-0.00401265,-0.0299484
367650578,367649743,-0.35897,-0.0682625,-0.0184049
367668058,367667218,-0.246531,-0.120708,-0.000290939
367688084,367687241,-0.234652,-0.0529253,-0.0364193
367708103,367707261,0.0170214,-0.0602074,0.0394806
367728123,367727284,0.024656,-0.00290219,-0.0241033
367748148,367747306,-0.0846033,-0.0213181,0.0255207
367768165,367767329,-0.00329024,-0.0440759,0.0504911
367790739,367789900,0.142639,0.11981,-0.0309017
367808210,367807373,0.154328,0.212008,0.00594883
367828249,367827398,-0.0952146,0.114147,0.0083128
367848257,367847418,-0.434579,0.123887,-0.0193074
367865817,367864983,-0.311772,0.0442817,0.00400224
367888307,367887463,-0.17575,0.216425,-0.029839
367908340,367907500,-0.103446,0.188411,-0.0699479
367930900,367930065,-0.384154,0.0663861,-0.0245562
367948367,367947530,-0.438836,0.160857,-0.040719
367968390,367967552,-0.0989339,0.119853,-0.0710802
367988411,367987575,0.298206,0.145192,-0.0625663
368005974,368005140,0.473847,0.0575812,-0.0544259
368028465,368027620,0.223296,-0.00284203,-0.0294619
368048479,368047642,0.141677,-0.00460116,-0.085769
368071063,368070217,0.477147,0.030618,-0.0679304
368088533,368087687,0.47836,0.00502029,-0.039574
368108547,368107709,0.136566,0.123443,-0.0471087
368128577,368127732,-0.0841711,0.160395,0.017322
368146152,368145307,-0.283581,0.281708,-0.0170487
368168616,368167779,-0.0415072,0.292724,-0.0379228
368188642,368187799,-0.14886,0.324581,-0.0164128
368208668,368207821,-0.254601,0.179946,0.0493887
368226262,368225411,-0.236595,0.231016,0.0357405
368248719,368247879,-0.0830753,0.269174,-0.0334024
368268732,368267892,0.185823,0.296934,-0.0181422
368286302,368285454,0.254494,0.0980507,0.0270794
368308770,368307933,0.052935,0.0152784,0.0648593
368328808,368327956,0.116346,-0.101814,0.0272022
368348815,368347978,0.444786,-0.145597,0.0607904
368366377,368365544,0.406903,-0.277628,0.0707219
368388859,368388023,0.290217,-0.387266,0.126642
368408892,368408045,0.0697351,-0.256152,0.13449
368426447,368425611,0.0524598,-0.30575,0.117712
368448929,368448090,0.311346,-0.21936,0.118553
368468949,368468112,0.309208,-0.275658,0.161284
368488971,368488135,-0.00469975,-0.216146,0.174495
368506534,368505701,-0.193278,-0.164233,0.216715
368529029,368528182,-0.148797,-0.0444911,0.168247
368549041,368548202,0.046644,0.0340512,0.151311
368566601,368565768,-0.0161118,0.0839357,0.171555
368589094,368588247,-0.333461,0.0828102,0.179975
368609123,368608287,-0.410549,0.0663305,0.214187
368629128,368628292,-0.273976,0.134727,0.192174
368646693,368645857,-0.1013,-0.00208704,0.198276
368669175,368668339,0.0273582,-0.0656904,0.218039
368689200,368688360,-0.0290101,-0.0895803,0.213355
368706762,368705924,0.087258,-0.0902169,0.198157
368726790,368725947,0.10078,-0.0544863,0.193806
368749271,368748426,0.573929,-0.013058,0.168962
368769292,368768448,0.356254,-0.1454,0.175374
368786847,368786014,0.235141,-0.177558,0.21512
368809344,368808493,-0.112774,-0.1756,0.16359
368829352,368828516,-0.0761058,-0.120581,0.126829
368846920,368846081,0.0463874,-0.12118,0.074681
368866937,368866104,0.0372043,-0.0685525,0.0887564
368889419,368888583,-0.329162,-0.0289254,0.11387
368909455,368908616,-0.28789,0.0175018,0.0534666
368927008,368926171,-0.265256,0.140635,0.0427135
368949486,368948650,-0.335195,0.0985033,0.0423869
368969512,368968673,-0.632789,0.0940009,0.0907964
368987088,368986245,-0.655656,0.0591308,0.0859199
369007100,369006261,-0.654311,0.11326,0.0380091
369029585,369028740,-0.205611,0.112901,0.0147287
369049609,369048764,-0.0282206,0.116335,-0.00947425
369067181,369066333,-0.0752842,-0.05198,0.0601393
369087185,369086350,-0.159523,-0.181105,0.0542669
369109666,369108829,0.0350171,-0.170759,0.02999
369127235,369126395,0.132242,-0.104323,-0.024827
369147257,369146418,0.2475,-0.241907,-0.00176514
369169733,369168897,-0.097799,-0.260748,0.0509622
369189755,369188919,-0.116947,-0.212298,0.00813189
369207328,369206485,-0.178683,-0.202191,0.0175239
369227360,369226522,0.0650729,-0.126828,-0.0270679
369249833,369248986,-0.0422604,-0.219045,0.0121885
369267386,369266552,-0.203027,-0.0297705,-0.00484397
369287412,369286575,-0.435783,-0.00573499,-0.000397043
369309896,369309060,-0.21728,0.198214,-0.015282
369329913,369329076,-0.281836,0.155395,-0.0068568
369347476,369346642,-0.309582,0.150927,-0.0160876
369367498,369366664,-0.585233,0.0189929,0.0279247
369389979,369389143,-0.575182,0.0454446,0.0235944
369407543,369406709,-0.473128,0.148669,-0.0564223
369427572,369426731,-0.0190531,0.19475,-0.0292424
369450065,369449212,-0.0482985,0.172331,-0.0460753
369467614,369466776,0.0309099,0.0693901,-0.0198849
369487633,369486799,0.164126,0.104756,0.00290007
369507652,369506818,0.420217,0.127721,-0.0489774
369530139,369529302,0.661904,-0.0282406,-0.0171646
369547701,369546867,0.523266,0.0632029,-0.0764114
369567733,369566888,0.223927,0.0160577,-0.0349618
369587747,369586911,0.056113,0.0908121,-0.0283539
369610232,369609390,0.295589,0.0760045,-0.0487104
369627793,369626955,0.167348,0.12308,-0.0428183
369647816,369646978,-0.096768,0.0852784,-0.0564108
369670300,369669457,-0.19619,0.276364,-0.0831002
369687859,369687023,-0.149577,0.333897,-0.0407262
369707879,369707045,0.0974554,0.335699,-0.0702761
369727914,369727068,0.194051,0.230465,-0.0594904
369750387,369749547,0.0311513,0.22317,-0.0519411
369767950,369767113,0.0244688,0.159826,-0.0709227
369787968,369787135,0.361995,0.0833371,-0.0405945
369810451,369809614,0.56177,-0.0675009,-0.035386
369828024,369827180,0.580121,-0.180895,-0.0440142
369848046,369847211,0.451499,-0.230045,0.0113999
369868060,369867227,0.394768,-0.230699,-0.0149154
369890541,369889704,0.824193,-0.173129,-0.0408161
369908126,369907285,0.76112,-0.0983552,-0.0276824
369928134,369927292,0.571172,-0.0462424,-0.00079691
369950642,369949798,0.136301,0.120342,0.0146719
369968174,369967337,-0.00734803,0.122875,0.028739
369988196,369987359,0.0344405,0.188462,-0.0288321
370008218,370007382,0.0607241,0.219272,-0.0171544
370030701,370029861,-0.470292,0.274623,0.065196
370048262,370047427,-0.380758,0.28879,0.0135693
370068289,370067449,-0.252984,0.302037,-0.015816
370088313,370087471,0.177461,0.206746,-0.0375478
370105781,370104945,0.238067,0.0973002,-0.0830939
370128353,370127516,-0.121957,-0.153542,-0.010428
370148372,370147539,-0.126339,-0.306849,-0.0254884
370170854,370170018,0.238998,-0.309167,-0.0401841
370188421,370187584,0.24089,-0.376974,-0.00778229
370208443,370207606,-0.00332543,-0.538649,0.0285364
370228465,370227628,-0.235389,-0.465515,0.0147044
370245938,370245102,-0.381087,-0.316256,0.0157841
370268516,370267676,-0.0974184,-0.0265394,-0.0250287
370288535,370287696,-0.141957,0.0218956,-0.0479618
370311021,370310175,-0.444759,0.036106,0.0124587
370328593,370327741,-0.353347,0.076102,0.0279267
370348596,370347763,-0.170269,0.0740125,-0.0202639
370368619,370367785,0.115842,0.115235,-0.0299167
370386104,370385262,0.110805,0.143627,-0.0301988
370408677,370407830,-0.332538,0.0122468,-0.0156396
370428698,370427853,-0.285976,0.0126354,-0.00505705
370448709,370447875,0.0729904,-0.0291843,-0.0602162
370466188,370465351,0.132726,-0.185454,-0.0276291
370488753,370487920,0.123275,-0.321931,0.00551898
370508782,370507943,-0.0663366,-0.408603,0.00780523
370526255,370525416,-0.3223,-0.487377,-0.00205249
370548821,370547987,0.212257,-0.4964,-0.0106732
370568848,370568010,0.426219,-0.458747,-0.0328156
370588869,370588035,-0.0995858,-0.512945,0.00555422
370606343,370605506,-0.035945,-0.376718,0.0195063
370628914,370628077,-0.126956,-0.222284,-0.00534518
370648933,370648099,0.186143,-0.133565,0.0431731
370666413,370665573,0.376244,-0.177789,0.0124237
370688978,370688144,-0.0207884,-0.223716,0.0857561
370709000,370708167,-0.034034,-0.206406,0.0955766
370729029,370728189,0.117726,-0.0644868,0.0272469
370746502,370745663,0.309876,-0.00193871,0.0762137
370769080,370768234,0.261866,-0.0515451,0.0380774
370789099,370788259,-0.0520311,-0.311553,0.0944062
370806567,370805730,0.0247353,-0.222233,0.0960961
370826592,370825753,-0.188754,-0.310609,0.0177485
370849166,370848324,0.210501,-0.296449,0.0371481
370869181,370868346,-0.0449163,-0.332089,0.01794
370886656,370885820,-0.219046,-0.335367,0.067297
370909231,370908391,-0.311397,-0.171564,0.0484696
370929252,370928414,-0.171791,-0.121062,0.0166867
370946735,370945899,-0.00374228,-0.125987,-0.0157479
370966746,370965910,0.0751952,-0.172116,0.0202567
370989321,370988481,-0.274191,-0.0710797,0.0603728
371009344,371008503,-0.142147,0.0421887,0.0256509
371026813,371025977,0.0962691,0.0303421,0.0546795
371049401,371048548,0.273199,0.0540819,0.0322295
371069405,371068571,0.343571,-0.00842605,0.0402933
371086892,371086046,0.153467,0.103218,0.0411012
371106903,371106067,0.168684,0.0765883,0.0459495
371129488,371128654,0.315619,0.138495,0.026338
371149498,371148660,0.318547,-0.00063621,0.00695201
371166970,371166134,0.234064,0.0408775,-0.011076
371189549,371188705,-0.0784264,-0.00850726,0.0272916
371209562,371208728,-0.17491,0.0681553,0.0117916
371227039,371226201,-0.192975,0.024576,0.0138236
371247061,371246226,-0.0896131,0.115022,-0.011498
371269629,371268795,-0.247299,0.0663318,0.00655306
371289687,371288844,-0.461636,0.0484738,0.0440871
371307128,371306291,-0.523885,0.155814,0.00119163
371327162,371326321,-0.171452,0.128344,0.0185223
371349718,371348885,0.208922,0.260809,-0.0247718
371367199,371366361,0.295472,0.18119,-0.000716589
371387235,371386381,0.0563086,0.195642,0.0328856
371409794,371408960,0.0401903,0.1162,-0.00803602
371429830,371428981,0.334539,0.0604996,0.00247401
371447299,371446451,0.400818,0.0397567,-0.0408431
371467313,371466471,0.380184,-0.0262884,0.00952741
371489876,371489042,0.0178505,-0.0530702,-0.00210525
371507352,371506515,-0.0507977,-0.116803,0.0168574
371527380,371526538,0.0698976,0.012888,0.00479612
371549946,371549109,0.169594,0.023203,-0.0278487
371567419,371566583,0.120621,0.1689,-0.0325157
371587441,371586605,-0.198863,0.137152,0.0197528
371607471,371606635,-0.278215,0.249775,-0.0036494
371630037,371629199,-0.096126,0.212923,-0.0503554
371647509,371646673,-0.0147548,0.198288,-0.0268952
371667531,371666695,-0.0291284,0.058395,-0.0307034
371690125,371689278,-0.512953,-0.00858999,-0.000349098
371707601,371706744,-0.34558,-0.16725,-0.0213406
371727602,371726762,-0.33561,-0.132445,-0.0616228
371747621,371746785,0.112,-0.255704,-0.0627003
371770190,371769356,-0.169098,-0.326882,-0.0146799
371787680,371786830,-0.166325,-0.263882,-0.0574967
371807689,371806852,-0.271953,-0.321054,-0.0274463
371827719,371826875,-0.0995549,-0.166313,-0.0572421
371850287,371849446,0.132376,-0.145122,-0.0769138
371867759,371866920,0.105664,0.0278758,-0.0832425
371887778,371886942,-0.32397,-0.0371307,-0.0678119
371910347,371909513,-0.175807,0.152207,-0.0852515
371927823,371926987,-0.0951922,0.215745,-0.103314
371947854,371947009,0.159612,0.296722,-0.111535
371967874,371967032,0.0780601,0.16324,-0.060775
371990439,371989605,-0.31892,0.25334,-0.0271363
372007913,372007077,-0.340926,0.30575,-0.0754553
372027938,372027102,0.066834,0.243979,-0.0950701
372050532,372049687,-0.00702977,0.187367,-0.0825976
372067987,372067151,0.0304805,0.0131706,-0.105988
372088003,372087166,-0.385985,-0.00336895,-0.0601977
372108033,372107189,-0.264191,-0.0867691,-0.106118
372130594,372129760,0.231463,-0.175102,-0.0905205
372148085,372147238,0.00783402,-0.184295,-0.113565
372168101,372167258,-0.0434713,-0.256476,-0.103549
372188118,372187282,-0.315268,-0.203817,-0.113154
372205692,372204854,-0.276489,-0.155069,-0.0958274
372228163,372227324,0.179274,-0.0226824,-0.183333
372248183,372247346,0.13336,0.118316,-0.148812
372270754,372269917,-0.306114,0.20919,-0.117475
372288251,372287391,-0.233245,0.32759,-0.177053
372308261,372307416,-0.0715606,0.443423,-0.195634
372328281,372327436,0.483493,0.530238,-0.176568
372345854,372345010,0.331615,0.448745,-0.174997
372368326,372367481,0.0568039,0.381184,-0.125758
372388344,372387503,0.0803553,0.273088,-0.16279
372410908,372410074,0.648778,0.34511,-0.174847
372428385,372427548,0.671846,0.259288,-0.191538
372448417,372447571,0.30882,0.137633,-0.128562
372468430,372467593,0.0433575,0.0813494,-0.161356
372485994,372485158,-0.220069,0.0843063,-0.16036
372508475,372507638,0.315328,0.114569,-0.188714
372528514,372527660,0.199705,-0.0729837,-0.14212
372551084,372550231,-0.208838,-0.0330048,-0.153278
372568555,372567705,-0.223851,-0.0404721,-0.184171
372588565,372587728,-0.0431128,0.0488208,-0.193838
372608597,372607750,0.140783,-0.0816905,-0.208051
372626152,372625317,0.06292,0.0856974,-0.219131
372648648,372647811,-0.205952,0.0260899,-0.162585
372668654,372667817,-0.110824,0.0506314,-0.1371
372688677,372687841,0.180091,0.0301556,-0.156046
372706252,372705405,0.0893378,0.0392564,-0.142839
372728721,372727884,-0.16782,-0.118398,-0.109252
372748746,372747907,-0.284917,-0.190506,-0.102691
372766326,372765473,-0.15082,-0.188386,-0.11301
372788792,372787952,0.0464511,-0.155709,-0.127526
372808811,372807974,0.062723,-0.189557,-0.124424
372828837,372827997,-0.132407,-0.263661,-0.0838489
372846402,372845562,-0.0836628,-0.301286,-0.102135
372868878,372868042,-0.0890304,-0.278967,-0.117816
372888900,372888064,-0.0382021,-0.311662,-0.12691
372906465,372905630,0.102731,-0.402936,-0.117872
372928945,372928109,-0.222321,-0.356974,-0.108622
372948968,372948131,-0.420648,-0.219904,-0.155355
372968990,372968154,-0.141047,-0.14625,-0.127104
372986555,372985719,-0.00968178,-0.0609997,-0.161538
373009040,373008199,-0.0578381,0.00899738,-0.173491
373029060,373028223,-0.196525,0.00914356,-0.133737
373046622,373045787,-0.0971616,0.0725525,-0.163526
373069114,373068272,0.0878443,0.2304,-0.162616
373089145,373088301,0.13763,0.291746,-0.17666
373109148,373108311,0.0807075,0.273318,-0.142972
373126712,373125877,-0.123717,0.307536,-0.17369
373149201,373148359,-0.407905,0.304135,-0.188886
373169217,373168379,-0.00116616,0.23448,-0.157585
373186790,373185956,-0.0495053,0.148237,-0.227176
373206805,373205967,-0.177557,0.0541346,-0.151547
373229295,373228446,-0.591979,-0.100886,-0.146122
373249310,373248468,-0.249881,-0.180927,-0.121698
373266869,373266034,-0.0262919,-0.158855,-0.155995
373289351,373288513,0.33127,-0.268879,-0.121178
373309385,373308538,0.134698,-0.24948,-0.0835065
373326936,373326101,0.39351,-0.296875,-0.108224
373346980,373346139,0.318801,-0.180456,-0.100838
373369439,373368603,0.74027,0.0706694,-0.151912
373389461,373388625,0.793643,0.143571,-0.151282
373407029,373406191,0.652573,0.34018,-0.114796
373429520,373428670,0.255058,0.394433,-0.12904
373449529,373448692,0.0796403,0.443171,-0.0868964
373467103,373466260,0.0614097,0.511935,-0.11861
373487117,373486282,0.0466943,0.494734,-0.0997212
373509599,373508760,-0.157691,0.329479,-0.0548526
373529625,373528782,-0.284363,0.148821,-0.0327424
373547197,373546348,-0.217222,0.106677,-0.0246254
373569667,373568827,0.0121281,0.0245102,-0.0670005
373589686,373588850,0.071238,-0.0597632,-0.0437673
373607258,373606415,0.150585,-0.00768638,-0.0538651
373627294,373626438,-0.0162987,-0.121444,-0.0453162
373649753,373648917,-0.225812,-0.0635708,-0.0605177
373669776,373668939,0.0921861,0.0801028,-0.0921761
373687352,373686505,0.1396,0.0605214,-0.0556751
373707366,373706527,0.224969,0.153807,-0.0557154
373729843,373729007,0.00914229,0.13665,-0.0333786
373747431,373746574,-0.118397,0.220358,-0.0107756
373767434,373766595,0.238101,0.176619,-0.0282067
373789916,373789074,0.381233,0.15216,-0.00887851
373809936,373809100,0.122914,0.0353034,-0.00686991
373827503,373826666,-0.240761,0.0586278,-0.0548857
373847527,373846685,-0.348487,-0.0750583,-0.018607
373870009,373869164,0.0581498,-0.117418,-0.0572931
373887572,373886730,0.123541,-0.142741,-0.062363
373907588,373906752,-0.0193359,-0.228377,-0.029698
373930078,373929231,-0.220072,-0.199829,-0.0479029
373950100,373949254,-0.0610738,-0.231644,-0.0349215
373967655,373966820,0.195007,-0.237022,-0.0788841
373987680,373986844,0.328759,-0.172659,-0.058843
374010160,374009324,-0.0799211,-0.178862,-0.0334057
374027725,374026887,-0.00192212,-0.0609591,-0.0321323
374047745,374046909,-0.113182,-0.0717037,-0.0398228
374067767,374066932,0.098147,0.0790375,-0.0798996
374090250,374089411,0.0443786,0.0130554,-0.044538
374107819,374106977,-0.262464,0.205123,-0.0359913
374127842,374126999,-0.457319,0.143597,-0.0319405
374150325,374149482,-0.113998,0.286785,-0.0539148
374167883,374167044,-0.00807951,0.284484,-0.119163
374187902,374187066,-0.00884361,0.166546,-0.049914
374207925,374207089,-0.416028,0.132354,-0.056232
374230424,374229568,-0.436502,-0.0905966,-0.0415743
374247972,374247134,-0.351953,-0.136185,-0.05278
374267992,374267156,0.0259245,-0.147248,-0.127672
374290472,374289635,-0.30583,-0.21241,-0.0640745
374308052,374307201,-0.301192,-0.161595,-0.0515322
374328062,374327227,-0.160715,-0.0970337,-0.0340322
374348091,374347248,0.0483771,0.0698406,-0.0764052
374370562,374369725,0.177051,-0.0391899,-0.102311
374388128,374387293,0.162706,-0.122874,-0.0400827
374408167,374407316,-0.0750514,-0.0720406,-0.0179076
374430629,374429789,0.064935,-0.0405367,-0.0267976
374445668,374444810,-0.215902,0.106387,-0.0804711
374468223,374467383,0.00766881,0.0225267,-0.0509635
374488243,374487403,-0.0681401,-0.13647,-0.0688251
374510725,374509889,-0.07223,-0.041786,-0.0916607
374528305,374527461,0.167944,-0.014461,-0.0881143
374548334,374547472,0.278337,0.0685709,-0.117016
374568334,374567493,0.250899,0.091974,-0.110061
374585806,374584967,0.314501,0.00607338,-0.112109
374608376,374607540,-0.172698,0.00323616,-0.080827
374628398,374627560,-0.0391542,0.0489801,-0.100302
374650897,374650057,-0.0661497,-0.0912268,-0.0680471
374668444,374667605,-0.377761,-0.0253412,-0.0915722
374688468,374687633,-0.398296,-0.12188,-0.0667024
374708496,374707654,-0.371031,0.0116015,-0.0876259
374725971,374725125,-0.191288,0.0906709,-0.108833
374748550,374747695,0.105081,0.00942626,-0.103353
374768553,374767717,0.0059435,-0.0265949,-0.107806
374791044,374790197,-0.00141851,-0.142282,-0.111065
374808618,374807762,0.027575,-0.186921,-0.141506
374828620,374827785,0.223338,-0.308881,-0.188079
374848643,374847807,0.193462,-0.552832,-0.136131
374866126,374865284,0.247961,-0.780703,-0.154984
374888688,374887852,0.0567241,-0.874754,-0.120503
374908714,374907879,0.143529,-0.724778,-0.172954
374928732,374927897,0.35176,-0.61901,-0.181622
374946207,374945371,0.290997,-0.359928,-0.163828
374968777,374967942,0.0899137,-0.198627,-0.170915
374988799,374987964,0.108214,-0.0186009,-0.185095
375006283,375005438,0.24847,0.141176,-0.145051
375028844,375028009,0.331641,0.370257,-0.164502
375048870,375048031,0.118915,0.749025,-0.156259
375068892,375068057,-0.189994,0.856627,-0.173755
375086364,375085528,-0.294559,0.757428,-0.12941
375108934,375108099,-0.0780766,0.7971,-0.183478
375128963,375128128,-0.0436101,0.603444,-0.189528
375146432,375145595,-0.0729751,0.477624,-0.136856
375169012,375168166,-0.101557,0.198783,-0.147341
375189028,375188189,-0.00665778,0.144169,-0.169064
375209050,375208211,0.115796,-0.066892,-0.169787
375226527,375225685,0.121916,-0.258752,-0.20285
375249110,375248258,0.178793,-0.422878,-0.185331
375269119,375268284,0.0771277,-0.391739,-0.164589
375286589,375285752,0.0524134,-0.268606,-0.16528
375306613,375305776,0.247155,-0.0783767,-0.173188
375329191,375328348,0.266784,0.135126,-0.186326
375346665,375345819,0.384548,0.210181,-0.174029
375366678,375365842,0.170772,0.294297,-0.122609
375389253,375388413,0.0775655,0.392411,-0.141972
375406723,375405887,0.0190067,0.462201,-0.153969
375426745,375425909,-0.0986918,0.318106,-0.110039
375446768,375445931,-0.0394929,0.0430837,-0.0739348
375469344,375468503,-0.0759506,-0.057759,-0.0769655
375486816,375485977,-0.0413516,-0.0347638,-0.108145
375506835,375505999,0.118587,-0.135972,-0.104771
375529408,375528570,-0.0370804,-0.23665,-0.076916
375546880,375546044,0.0900478,-0.24041,-0.0888455
375566902,375566066,-0.189425,-0.176153,-0.0884188
375586925,375586088,-0.235463,-0.133436,-0.0710166
375609496,375608660,0.208208,-0.0930708,-0.0791511
375626969,375626133,0.13427,-0.123134,-0.079617
375647000,375646156,0.21113,-0.0979186,-0.0599518
375669580,375668729,-0.14627,-0.00081929,-0.0135711
375687050,375686201,-0.376841,0.140889,-0.0332266
375707061,375706225,-0.0980677,0.202666,-0.0427475
375727102,375726257,0.066002,0.217962,-0.0477876
375749654,375748817,-0.0787564,0.192978,-0.0156147
375767127,375766291,0.196353,0.0355742,-0.00202847
375787149,375786313,-0.20359,0.0807533,0.00567579
375807174,375806338,-0.107929,0.160874,-0.0323351
375829742,375828906,0.445156,0.00255507,-0.0111716
375847232,375846383,0.230531,0.00108421,-0.01973
375867243,375866403,0.181222,-0.248354,0.0267674
375889809,375888974,-0.0312955,-0.146721,0.0627136
375907294,375906447,-0.164538,-0.223859,0.0243133
375927326,375926470,-0.0578843,-0.0782351,-0.0134214
375947335,375946492,-0.0597242,0.115758,-0.00957667
375969899,375969064,-0.269535,0.108002,0.0228443
375987373,375986537,-0.285451,0.0325285,0.030502
376007404,376006562,-0.169846,0.0142148,0.0609158
376029983,376029131,0.0220629,0.0268561,-0.00986309
376047445,376046604,0.146834,0.0391465,-0.0007387
376067463,376066627,0.0149915,0.103304,0.00238283
376087485,376086650,-0.201023,0.05933,0.0274934
376110065,376109227,-0.138148,0.0391251,0.0216364
376127530,376126694,-0.0466556,0.0141391,0.0387578
376147553,376146717,0.178813,-0.11429,0.0154821
376170137,376169299,0.0710475,-0.120019,0.055153
376187604,376186761,-0.151877,-0.0629797,0.0198479
376207620,376206784,-0.276164,-0.0367687,0.0304037
376227653,376226806,-0.197355,-0.0353843,0.044946
376250217,376249380,-0.0789558,-0.00475758,0.0442153
376267692,376266853,0.00491875,-0.131077,0.0445246
376287711,376286875,-0.308467,0.0447126,0.0520022
376307740,376306898,-0.463402,0.0435074,-0.00040679
376330308,376329467,-0.218485,0.129416,0.0531072
376347784,376346942,-0.182854,-0.0515315,0.03394
376367805,376366968,-0.105863,-0.153046,0.0726812
376390379,376389535,-0.177282,-0.00996128,0.0500325
376407845,376407008,-0.106763,0.106409,0.0282223
376427867,376427031,0.040689,0.0807091,0.0313966
376447889,376447053,0.143325,-0.0121513,0.0665763
376470460,376469624,-0.126776,-0.134513,0.0560034
376487934,376487098,-0.198118,-0.15824,0.0654043
376507961,376507123,-0.256435,-0.17063,0.0512786
376530539,376529692,-0.0598474,-0.189359,0.0388172
376548012,376547165,0.00462214,-0.13279,0.0247608
376568026,376567188,-0.187103,-0.203206,0.0539505
376588058,376587210,-0.274202,-0.0953073,0.052866
376610619,376609781,-0.04867,-0.0177578,-0.0310573
376628110,376627274,0.00926492,0.0863483,-0.0173571
376648118,376647282,0.0359144,0.0476189,-0.0217795
376668136,376667300,-0.281401,0.030049,0.00244802
376685709,376684872,-0.179069,0.072767,-0.0161796
376708184,376707347,0.0594138,0.143966,-0.0562909
376728204,376727367,0.433102,0.290274,-0.0704636
376750777,376749940,0.0449027,0.145299,-0.0369722
376768251,376767412,0.0949388,0.18491,-0.00564807
376788282,376787434,0.220477,0.166462,-0.0126703
376808299,376807457,0.50291,0.306005,-0.0597489
376825858,376825022,0.594032,0.121138,-0.0688004
376848343,376847505,0.391842,-0.0608947,-0.0556794
376868361,376867524,0.178874,-0.178165,0.00856069
376890936,376890102,0.310542,-0.206583,-0.0038041
376908406,376907569,0.147244,-0.168596,-0.0370902
376928428,376927591,-0.0936925,-0.126764,-0.0459763
376948450,376947614,-0.541161,-0.320763,0.00224613
376966015,376965179,-0.492525,-0.30986,0.00852287
376988495,376987658,-0.203787,-0.21155,-0.0319849
377008521,377007681,-0.000534427,-0.105462,-0.0641249
377031101,377030255,-0.209825,-0.0386895,-0.0339546
377048582,377047726,-0.255792,0.0839379,-0.0378997
377068585,377067748,-0.126557,0.175553,-0.0318053
377088620,377087777,0.235022,0.113233,-0.051071
377106182,377105345,0.422423,0.181916,-0.0786732
377128659,377127823,0.33678,0.110487,-0.0530552
377148674,377147838,-0.00112875,0.147998,-0.0899716
377171261,377170412,0.142747,0.187112,-0.10774
377186261,377185426,0.0054268,0.0463733,-0.0867262
377208745,377207905,0.163627,0.00275008,-0.0690212
377228767,377227928,-0.0664123,0.112644,-0.0667814
377246333,377245493,-0.263799,0.0517287,-0.0398631
377268811,377267975,-0.285311,0.0654546,-0.0441914
377288832,377287996,-0.12065,-0.0224017,-0.0380048
377308861,377308017,-0.0350744,0.0408377,-0.0444068
377326420,377325583,-0.157106,-0.0246643,-0.0268851
377348898,377348062,-0.20206,-0.0238536,-0.0323457
377368921,377368085,-0.0308235,-0.163277,-0.0354027
377386483,377385650,-0.00188575,-0.115077,-0.0518433
377408966,377408129,0.0419538,-0.0518174,-0.034434
377428988,377428152,-0.0221163,-0.0211896,-0.045023
377449014,377448174,0.100725,-0.0944181,-0.00159191
377466579,377465740,0.100979,-0.0502872,-0.0142159
377489066,377488224,0.223645,-0.0528822,-0.017431
377509084,377508241,0.182076,0.0878307,-0.0248995
377526640,377525807,0.297802,0.000984274,-0.025079
377549135,377548287,0.2767,0.0326389,-0.0104605
377569154,377568309,0.212321,0.0529332,-0.0677923
377589168,377588332,0.115471,0.0853552,-0.0627473
377606730,377605897,0.133616,0.0322347,-0.0778288
377629217,377628376,0.0339269,-0.0327566,-0.0978033
377649237,377648399,-0.0548119,-0.0292957,-0.0794248
377666811,377665964,-0.184766,-0.00736518,-0.0962687
377686834,377685987,-0.0776162,0.0220672,-0.083868
377709313,377708466,0.0187547,0.0470715,-0.0820737
377729334,377728492,-0.052584,0.147681,-0.0765638
377746887,377746054,-0.019261,0.097898,-0.0588798
377769371,377768533,0.00129046,0.0740373,-0.0475185
377789392,377788556,0.139355,0.210313,-0.0556453
377806955,377806121,0.171948,0.242257,-0.0479816
377826977,377826143,0.236706,0.175987,-0.0298725
377849459,377848623,0.134481,0.0375713,0.00684233
377869483,377868647,0.0130424,0.0355495,-0.0055796
377887046,377886211,-0.0529752,-0.00305433,-0.0236203
377909542,377908693,0.0116541,-0.0661703,-0.0361824
377929549,377928712,0.030066,-0.198006,-0.00155646
377947125,377946283,-0.0510372,-0.198516,-0.0235515
377967138,377966301,-0.130283,-0.183461,-0.0248308
377989616,377988780,-0.114394,-0.183269,-0.0307976
378009638,378008802,0.0342748,-0.1165,-0.0200334
378027208,378026368,0.0187425,-0.149602,-0.0220797
378047230,378046390,0.0119002,-0.0260293,-0.0167184
378069705,378068869,-0.194097,0.0565987,-0.0385753
378087277,378086435,-0.214778,0.124419,0.00584504
378107311,378106457,-0.243499,0.202745,-0.0209991
378129773,378128937,-0.123505,0.163009,0.00230036
378149795,378148959,-0.214527,0.226079,0.0143644
378167375,378166525,-0.262893,0.0780758,-0.000187333
378187387,378186547,-0.242541,0.131662,0.0276141
378209862,378209026,0.115586,0.0870511,-0.00868209
378227432,378226599,0.152096,0.0417216,-0.0163044
378247452,378246614,0.324011,0.0355362,-0.0314207
378269933,378269093,0.000456567,-0.0426844,0.0104229
378289955,378289116,-0.0197774,0.0482655,0.0206324
378307515,378306681,0.222793,-0.100339,0.0160008
378327541,378326704,0.310069,-0.0554228,-0.0121952
378350021,378349183,0.118798,-0.174622,0.0288128
378367586,378366749,-0.180918,-0.20851,0.0837831
378387605,378386771,-0.255998,-0.146784,0.0348685
378410103,378409251,-0.00350832,-0.0581462,0.000778035
378430115,378429279,0.121216,0.0927477,-0.0173357
378447698,378446864,0.0548535,0.00557069,0.0325789
378467698,378466861,-0.101864,0.133666,0.0390304
378490183,378489346,0.167103,0.134504,-0.0136954
378507739,378506906,0.136619,0.187124,-0.00184642
378527762,378526928,0.351272,0.163883,-0.0304144
378547784,378546950,0.094798,0.0916134,0.00536213
378570278,378569433,-0.121621,0.111422,0.0320127
378587835,378586995,-0.0768174,0.137129,-0.0324238
378607859,378607018,0.21421,0.159429,-0.0309645
378630340,378629497,0.0476693,0.00820893,-0.029625
378647904,378647062,-0.0347018,-0.121165,0.00346237
378667918,378667085,-0.206415,-0.155777,0.0035563
378687949,378687107,-0.117517,-0.00282325,-0.0191009
378710429,378709587,0.23707,-0.0618997,-0.032521
378727988,378727152,-0.0222763,-0.13089,-0.00608331
378748008,378747174,-0.372678,-0.257571,0.0736314
378770490,378769654,-0.129775,-0.0879531,0.00499179
378788092,378787236,0.00487758,0.0127951,-0.0672872
378808082,378807242,0.275411,0.111459,-0.022547
378828104,378827270,-0.124199,0.000623794,-0.00943151
378850580,378849744,-0.410837,-0.0116044,-0.00161369
378868146,378867309,-0.17859,-0.066205,0.0103959
378888171,378887332,0.0417336,-0.0848538,-0.0405473
378908188,378907354,0.0284677,-0.191684,-0.00221403
378925666,378924827,-0.137108,-0.192968,0.000575858
378948244,378947406,-0.335181,-0.222356,-0.0115431
378968260,378967421,-0.117199,-0.171055,-0.0160064
378990740,378989901,-0.0597778,-0.259377,-0.00565537
379008308,379007466,-0.0916823,-0.112894,0.00122833
379028330,379027488,-0.184457,0.0153219,0.000639714
379048344,379047511,-0.0993906,0.0870813,0.016927
379065824,379064984,0.0292543,0.113759,0.00130383
379088389,379087555,0.181968,0.0152679,0.0234874
379108415,379107581,0.00443408,0.118359,0.0245647
379130896,379130057,-0.0982617,0.0917415,-0.0196034
379148456,379147623,-0.00177859,0.0363865,0.0265077
379168479,379167645,0.0931926,-0.00406825,-0.00629947
379188501,379187668,-0.0206966,0.00700179,-0.0334932
379205978,379205141,-0.114395,-0.104975,0.0106846
379228549,379227712,-0.288567,-0.0809137,-0.0167185
379248568,379247735,-0.0913863,0.0430636,-0.0672606
379271063,379270216,0.0652099,0.0869612,-0.0904874
379288616,379287780,0.0189035,0.0784566,-0.0665933
379308635,379307802,0.0118514,-0.0814305,-0.0670492
379328658,379327824,0.037032,-0.0724285,-0.0829188
379346146,379345309,-0.0586119,-0.145656,-0.0540169
379368709,379367876,0.0620919,-0.231808,-0.073832
379388729,379387895,-0.0151215,-0.446183,-0.0220161
379408747,379407914,-0.12423,-0.449964,-0.0202936
379426226,379425388,-0.183664,-0.518666,-0.0176774
379448792,379447959,0.196234,-0.418388,-0.0394776
379468820,379467981,0.243322,-0.395635,-0.0817129
379486322,379485455,0.369597,-0.209343,-0.0336756
379508866,379508026,0.194297,-0.0674319,-0.0806267
379528885,379528051,0.316794,0.175543,-0.0988689
379548911,379548071,0.470153,0.238113,-0.0834338
379566381,379565544,0.479611,0.218941,-0.0996728
379588949,379588116,0.227872,0.245459,-0.0569137
379608972,379608138,-0.0263913,0.324398,-0.117466
379626448,379625612,-0.0421447,0.346498,-0.0621782
379649029,379648183,-0.0337623,0.336374,-0.102258
379669039,379668205,-0.254565,0.238078,-0.0761808
379689061,379688228,-0.331236,0.166443,-0.0860982
379706541,379705702,-0.522303,0.174434,-0.0950606
379729118,379728279,0.0734443,0.137819,-0.141861
379749129,379748295,0.0301878,0.0176901,-0.122905
379766605,379765769,0.180742,-0.0289401,-0.138771
379786635,379785791,-0.172398,-0.0754029,-0.114606
379809203,379808362,-0.0724862,-0.0119023,-0.126785
379829224,379828385,0.342632,0.173394,-0.112219
379846694,379845858,0.384854,0.130361,-0.106051
379869272,379868430,0.253842,0.225048,-0.0709623
379889311,379888452,0.140553,0.399935,-0.0780737
379906762,379905925,0.159725,0.40654,-0.0917311
379926784,379925948,0.395997,0.401965,-0.0965747
379949353,379948519,0.287219,0.171036,-0.129804
379969377,379968543,0.0154426,0.0810104,-0.0838685
379986856,379986015,-0.102428,-0.0808966,-0.0597142
380009420,380008586,-0.200874,-0.180095,-0.0577609
380029449,380028615,-0.11222,-0.29223,-0.0731295
380046919,380046082,-0.147819,-0.264271,-0.0955498
380066941,380066104,-0.246976,-0.309187,-0.0687543
380089510,380088676,-0.19465,-0.151594,-0.0577854
380109540,380108698,-0.0604622,0.00326484,-0.0620845
380127010,380126172,0.0906433,-0.00300498,-0.0878765
380149592,380148743,0.0630248,0.0427231,-0.0745738
380169600,380168766,-0.0625544,9.69495e-05,-0.114923
380187086,380186239,-0.211363,0.0532822,-0.100194
380207105,380206269,-0.0248395,0.0797907,-0.107482
380229666,380228832,0.192977,0.0953233,-0.133115
380249694,380248855,-0.114645,-0.0465727,-0.0900491
380267165,380266329,-0.245722,-0.149809,-0.0974379
380287188,380286351,-0.601517,-0.234789,-0.110697
380309764,380308922,-0.366235,-0.289527,-0.109971
380327241,380326396,-0.280667,-0.286139,-0.136755
380347256,380346418,-0.289733,-0.285914,-0.127416
380369823,380368989,-0.545379,-0.229737,-0.0779223
380389848,380389012,-0.320701,-0.0087367,-0.0650377
380407341,380406498,-0.166923,-0.0188674,-0.0795949
380427360,380426508,0.203461,0.0838939,-0.0984398
380449912,380449079,0.006482,-0.0472119,-0.0921139
380467388,380466552,-0.0909686,0.00927162,-0.103106
380487411,380486575,-0.0506784,0.070874,-0.112418
380509997,380509149,0.477765,0.159491,-0.15198
380527456,380526620,0.312453,0.0718655,-0.158901
380547478,380546642,-0.0852637,0.0242306,-0.0844552
380567503,380566664,-0.416366,0.112701,-0.132129
380590085,380589236,-0.110024,0.0744966,-0.164635
380607545,380606709,0.00775791,0.0763916,-0.21009
380627568,380626732,-0.0330228,0.0182452,-0.205544
380647590,380646754,-0.293635,-0.0868048,-0.128954
380667616,380666776,-0.306804,-0.00786281,-0.164953
380687635,380686799,0.143812,0.0373967,-0.198536
380707657,380706821,0.275727,0.0522999,-0.175855
380730229,380729394,-0.0797001,-0.0242017,-0.104964
380747705,380746866,0.0688016,-0.00599456,-0.116633
380767725,380766888,-0.0208018,0.0402576,-0.152516
380787747,380786911,0.381315,-0.0616187,-0.102292
380810321,380809482,0.301022,-0.113753,-0.0848514
380827794,380826955,0.0330037,-0.103022,-0.0631609
380847814,380846978,-0.0708,-0.144526,0.0044848
380870383,380869549,0.154013,-0.0418604,-0.0494015
380887859,380887023,0.308519,-0.163201,-0.0475856
380907883,380907045,0.30135,-0.124859,-0.0344866
380927904,380927067,-0.0666361,-0.100618,-0.0169306
380950472,380949639,-0.0852341,-0.083954,-0.0298804
380967948,380967112,-0.0365957,0.032377,-0.00573937
380987971,380987135,0.146181,0.0141298,-0.0565103
381010552,381009706,-0.209739,-0.107188,0.0213826
381028026,381027180,-0.364839,-0.153031,0.0298905
381048040,381047202,-0.358483,-0.221802,0.00121062
381068062,381067226,-0.0855073,-0.254553,0.00100157
381090638,381089795,0.0816186,-0.373399,-0.00686223
381108118,381107281,0.0487674,-0.310926,-0.00332543
381128128,381127292,-0.143665,-0.22892,0.0128859
381148161,381147324,0.0565741,-0.145499,0.0161125
381168180,381167336,0.339068,0.0219444,0.0292237
381188199,381187359,0.420557,0.103886,0.0286283
381208220,381207381,0.23602,0.277906,0.04018
381230785,381229952,-0.0979143,0.345034,0.00195193
381248271,381247426,0.0131931,0.364794,0.0399627
381268298,381267448,0.386911,0.38299,0.0015084
381288313,381287470,0.258963,0.429553,0.0374734
381305875,381305036,0.229544,0.320109,0.0233912
381328352,381327515,-0.0494154,0.34313,0.0596335
381348377,381347537,0.24942,0.308744,0.0312984
381370945,381370109,0.409847,0.150433,0.0108784
381388419,381387582,0.441972,-0.0550756,0.0491287
381408442,381407605,0.0546748,-0.1037,0.0536651
381428476,381427630,-0.0546071,-0.163039,0.041564
381446043,381445193,-0.0939309,-0.213944,0.0623289
381468509,381467672,0.143469,-0.195608,0.0332592
381488545,381487698,0.0539965,-0.275677,0.0761461
381511108,381510271,-0.169191,-0.136224,0.0804091
381528618,381527739,-0.176237,-0.00153816,0.0311747
381548598,381547761,0.0529043,0.0883003,0.0385289
381568627,381567784,0.163443,0.128187,0.0295575
381586190,381585355,0.270033,0.233352,0.0326039
381608683,381607831,0.0800097,0.333827,0.0709568
381628687,381627851,-0.104981,0.370337,0.0261393
381648712,381647873,0.115942,0.334411,0.0701365
381666297,381665455,0.117144,0.302551,0.0179213
381688758,381687918,-0.146119,0.166025,0.0566569
381708776,381707940,-0.441032,0.0764881,0.0427106
381726344,381725506,-0.624959,-0.00202421,0.0614394
381748821,381747985,-0.279965,-0.0288184,0.0371587
381768844,381768007,-0.152128,-0.0781263,0.0423065
381788867,381788030,-0.257048,-0.0378653,0.0338425
381806433,381805595,-0.222445,-0.145045,0.0622024
381828914,381828074,-0.0399788,-0.0652016,0.0590975
381848933,381848097,0.29541,-0.104217,0.0469178
381866498,381865662,0.179221,0.0237731,0.0298938
381888979,381888142,0.0935611,-0.031249,0.0728681
381909000,381908164,0.0329797,-0.112816,0.095625
381929024,381928186,0.163623,-0.0831962,0.07547
381946591,381945754,0.165438,-0.0518033,0.0280302
381969080,381968237,0.0819052,-0.0931712,0.0573537
381989096,381988253,-0.20031,-0.13707,0.0748325
382006656,382005821,0.0198646,-0.22505,0.114633
382026677,382025841,0.0098454,-0.0682179,0.0903831
382049157,382048321,0.424587,0.0173806,0.038391
382069190,382068345,0.335769,0.0724349,0.0773423
382086746,382085911,0.17528,-0.0061276,0.0756548
382109231,382108388,0.131233,0.126984,0.0653295
382129248,382128410,0.118996,0.146162,0.019157
382146819,382145976,-0.00981273,0.102637,0.00884251
382166835,382166001,-0.107765,-0.00474601,0.0338003
382189320,382188477,-0.242914,-0.0353595,0.046356
382209346,382208510,-0.126643,-0.0491974,0.0135955
382226900,382226065,-0.0643436,0.0116019,0.0339445
382249380,382248544,0.28129,-0.0264548,-0.00677099
382269407,382268570,0.139151,-0.0826509,0.0304796
382286998,382286132,0.0959612,-0.00284618,-0.00136317
382306994,382306159,-0.156314,-0.0514632,0.00757692
382329470,382328633,0.00510942,0.0242592,-0.0130682
382349492,382348656,-0.0715188,-0.058789,0.00960009
382367061,382366223,-0.0923667,-0.036253,-0.0176757
382389550,382388701,-0.579212,-0.0871896,-0.0118775
382409559,382408723,-0.66704,0.0308986,0.0248997
382427127,382426289,-0.608067,0.0430082,-0.0383672
382447147,382446311,-0.263709,0.056855,-0.0236061
382469626,382468790,-0.252268,0.0185807,-0.00572112
382489649,382488812,-0.48215,-0.0754363,0.00712252
382507221,382506378,-0.397939,-0.00684035,0.00539121
382527242,382526403,-0.111186,0.0269217,-0.0486089
382549719,382548879,0.362497,0.102539,-0.0707027
382567293,382566445,0.29545,-0.0161734,-0.0716233
382587314,382586467,0.0443645,-0.0330472,-0.0678535
382609783,382608946,0.0791874,-0.014144,-0.0784549
382629805,382628969,0.314478,0.0433413,-0.105769
382647373,382646535,0.366487,0.0376755,-0.120569
382667409,382666559,0.12921,-0.0345868,-0.0717173
382689874,382689036,-0.267758,-0.0115027,-0.0632605
382707445,382706610,-0.246674,-0.124916,-0.0804618
382727460,382726624,-0.0166207,0.0513177,-0.140962
382749939,382749103,0.201301,-0.117261,-0.127413
382769965,382769125,-0.315424,-0.0709594,-0.0681037
382787532,382786696,-0.293046,-0.151821,-0.0853676
382807562,382806727,-0.213175,-0.0788749,-0.0711049
382830031,382829192,0.187465,0.0400974,-0.115018
382847606,382846758,0.0787365,0.0213941,-0.0718815
382867625,382866788,-0.0754174,0.045641,-0.0629394
382890118,382889259,-0.253658,0.0369387,-0.0744346
382910121,382909282,0.123828,0.0857576,-0.0544088
382927683,382926847,0.214772,0.0399806,-0.0928581
382947714,382946870,0.091475,0.0886725,-0.0729164
382970186,382969349,-0.137158,0.0717544,-0.0803925
382987753,382986914,-0.0160642,-0.0217036,-0.0563464
383007782,383006937,0.181979,0.0624739,-0.0921963
383027797,383026962,0.303903,0.00629918,-0.099827
383050283,383049438,-0.0304269,-0.108984,-0.0504656
383067839,383067004,0.000361866,-0.29987,-0.0674099
383087871,383087026,-0.0168311,-0.287655,-0.0701838
383110343,383109505,0.209266,-0.253093,-0.116799
383127906,383127071,0.110218,-0.281355,-0.0720983
383147934,383147095,-0.233637,-0.124679,-0.0738646
383167963,383167115,-0.325112,-0.0885943,-0.0825799
383190431,383189594,-0.0766967,0.180591,-0.0992775
383208000,383207165,0.126688,0.221757,-0.10372
383228018,383227182,0.130519,0.395207,-0.103734
383250514,383249667,-0.088687,0.400771,-0.100392
383268094,383267237,-0.0388637,0.326492,-0.0730724
383288109,383287252,0.273349,0.30359,-0.0813232
383308115,383307281,0.348164,0.25485,-0.0798226
383330588,383329751,0.0174063,0.00864556,-0.0438867
383348161,383347318,-0.0183787,0.0307099,-0.0439781
383368176,383367341,0.00358893,-0.205998,-0.0612651
383388199,383387363,0.29464,-0.218066,-0.0608393
383405671,383404835,0.24068,-0.236577,-0.0697301
383428243,383427406,-0.104175,-0.257167,-0.0482848
383448275,383447428,-0.144456,-0.227063,-0.0403904
383470746,383469907,0.130483,-0.116483,-0.0910776
383488349,383487485,0.259414,-0.0808716,-0.0557633
383508347,383507503,0.271283,-0.0741144,-0.06837
383528353,383527518,-0.0385535,0.0556385,-0.0429183
383545827,383544991,-0.0326688,0.0892771,-0.0597798
383568402,383567565,0.111247,0.107712,-0.0704278
