timestamp,lat,lon,alt,alt_ellipsoid,delta_alt,eph,epv,terrain_alt,lat_lon_reset_counter,alt_reset_counter,terrain_alt_valid,dead_reckoning
703914654,34.03622079008846,108.76087471812886,425.92795,396.75372,-0.0,1.2734286,2.0138311,425.8386,2,0,1,0
703924577,34.03622080355801,108.76087471157753,425.9278,396.75357,-0.0,1.2735976,2.0139558,425.83832,2,0,1,0
704113394,34.0362210426479,108.7608745938787,425.92642,396.74847,-0.0,1.2733678,2.0136855,425.84323,2,0,1,0
704321765,34.0362213099784,108.76087446616657,425.92624,396.74435,-0.0,1.2734792,2.0141282,425.83752,2,0,1,0
704520356,34.03622157090216,108.76087436408278,425.92484,396.7382,-0.0,1.2734061,2.0139775,425.8386,2,0,1,0
704723919,34.03622182310996,108.76087425215131,425.92548,396.73428,-0.0,1.2733363,2.0138242,425.84006,2,0,1,0
704922666,34.036222066355215,108.760874131627,425.92776,396.73166,-0.0,1.2732947,2.0141392,425.84225,2,0,1,0
705121103,34.03622230038706,108.76087401985592,425.92725,396.72592,-0.0,1.2732548,2.0139918,425.83542,2,0,1,0
705319726,34.03622254396465,108.76087391020654,425.92767,396.7205,-0.0,1.2731962,2.0138435,425.84018,2,0,1,0
705513327,34.03622279878403,108.76087380700758,425.92953,396.71625,-0.0,1.2729775,2.014036,425.8365,2,0,1,0
705722024,34.03622309417393,108.76087370639347,425.93546,396.71637,-0.0,1.2731134,2.0140169,425.8365,2,0,1,0
705915471,34.03622337102229,108.76087362413963,425.94595,396.7207,-0.0,1.2728945,2.0137486,425.8365,2,0,1,0
706123993,34.036223676639786,108.76087353239001,425.9633,396.7315,-0.0,1.2730333,2.0137346,425.8365,2,0,1,0
706317621,34.03622394640065,108.76087344456032,425.97876,396.73984,-0.0,1.2728217,2.013933,425.8365,2,0,1,0
706516290,34.036224225106935,108.76087333290569,425.98795,396.74194,-0.0,1.2728151,2.0137982,425.8365,2,0,1,0
706714814,34.03622448350061,108.76087321672308,425.9945,396.7415,-0.0,1.2728226,2.0136645,425.8365,2,0,1,0
706913401,34.03622473806161,108.760873092861,425.99838,396.73846,-0.0,1.2728556,2.013987,425.8365,2,0,1,0
707121923,34.036224982160235,108.76087298019468,425.99933,396.73248,-0.0,1.2730643,2.01397,425.8365,2,0,1,0
707320619,34.03622522019199,108.76087288996642,425.9958,396.72266,-0.0,1.2731208,2.0138276,425.8365,2,0,1,0
707524073,34.03622546183448,108.76087279367069,425.98996,396.71045,-0.0,1.273176,2.013685,425.8365,2,0,1,0
707722666,34.03622571880978,108.76087271993202,425.9787,396.69418,-0.0,1.2732779,2.014011,425.8365,2,0,1,0
707921259,34.03622595116274,108.7608726504626,425.96597,396.6762,-0.0,1.2733842,2.0138729,425.8365,2,0,1,0
708119864,34.036226153275685,108.76087257593218,425.94873,396.65393,-0.0,1.2734604,2.0137286,425.83463,2,0,1,0
708318445,34.03622634830007,108.76087249400692,425.93582,396.63663,-0.0,1.2735271,2.0140486,425.83163,2,0,1,0
708522003,34.03622652990852,108.76087238465504,425.9259,396.62262,-0.0,1.2735785,2.0139036,425.81915,2,0,1,0
708715631,34.03622670330917,108.76087228009247,425.9177,396.61047,-0.0,1.2734451,2.0141003,425.81824,2,0,1,0
708924150,34.0362268782311,108.76087213551034,425.91388,396.60284,-0.0,1.2736535,2.0136223,425.81824,2,0,1,0
709122746,34.0362270447769,108.76087199776931,425.91354,396.59848,-0.0,1.2737005,2.013949,425.81824,2,0,1,0
709321339,34.036227214637556,108.76087186726014,425.91306,396.5941,-0.0,1.2737142,2.0138113,425.81824,2,0,1,0
709514967,34.0362273592337,108.76087172859023,425.9134,396.59045,-0.0,1.2735205,2.0140102,425.81824,2,0,1,0
709713561,34.0362274971176,108.76087157395854,425.9169,396.59012,-0.0,1.273523,2.0138686,425.81824,2,0,1,0
709917118,34.036227657994274,108.7608714381969,425.92526,396.59454,-0.0,1.2735167,2.0137253,425.81824,2,0,1,0
710115755,34.03622783256992,108.760871282463,425.9311,396.59616,-0.0,1.2735026,2.0140448,425.81824,2,0,1,0
710314303,34.03622798159159,108.76087113979813,425.9364,396.59668,-0.0,1.2734815,2.0138974,425.81824,2,0,1,0
710522827,34.036228142942115,108.76087100871453,425.93707,396.5926,-0.0,1.2736481,2.0138779,0.0,2,0,0,0
710721419,34.03622830024448,108.76087090416488,425.93698,396.58777,-0.0,1.2736199,2.0137331,0.0,2,0,0,0
710920011,34.0362284427908,108.76087080489614,425.93988,396.5859,-0.0,1.2735862,2.0140529,0.0,2,0,0,0
711118799,34.03622857943749,108.76087073363358,425.9477,396.58932,-0.0,1.273555,2.0139077,0.0,2,0,0,0
711322162,34.03622870082211,108.76087069074981,425.95773,396.59613,-0.0,1.2735188,2.0137653,0.0,2,0,0,0
711520755,34.03622879347299,108.76087064490342,425.96783,396.60358,-0.0,1.2734412,2.0140855,0.0,2,0,0,0
711714384,34.03622882426726,108.76087064329148,425.98135,396.61533,-0.0,1.2732211,2.0138204,0.0,2,0,0,0
711923084,34.0362287710505,108.76087074061194,425.9983,396.63058,-0.0,1.2733431,2.0138059,0.0,2,0,0,0
712121498,34.03622869913997,108.76087089807946,426.01233,396.6424,-0.0,1.2732843,2.0136693,0.0,2,0,0,0
712315126,34.036228670663455,108.76087109579943,426.02817,396.6558,-0.0,1.2730542,2.01387,0.0,2,0,0,0
712513719,34.03622871183533,108.7608714014095,426.04202,396.6669,-0.0,1.2730147,2.013738,0.0,2,0,0,0
712722387,34.03622884803589,108.76087177955006,426.04922,396.67096,-0.0,1.2731185,2.013728,0.0,2,0,0,0
712915875,34.036228996793696,108.76087207043261,426.0607,396.67923,-0.0,1.2728741,2.0139306,0.0,2,0,0,0
713114463,34.036229229396376,108.76087224729811,426.06873,396.68375,-0.0,1.2728289,2.0138004,0.0,2,0,0,0
713322985,34.03622952397896,108.76087227866032,426.06866,396.68054,-0.0,1.2729613,2.0137937,0.0,2,0,0,0
713521676,34.036229757362214,108.7608721046981,426.0689,396.67734,-0.0,1.2728978,2.0136604,0.0,2,0,0,0
713720174,34.036229975584234,108.76087176138948,426.0692,396.67465,-0.0,1.2728542,2.0139904,0.0,2,0,0,0
713913799,34.036230146402346,108.76087133146969,426.0738,396.6753,-0.0,1.2726471,2.0137331,0.0,2,0,0,0
714122327,34.03623032693887,108.76087072904687,426.06802,396.6663,-0.0,1.2727768,2.0137272,0.0,2,0,0,0
714320975,34.03623043321277,108.76087010732188,426.07523,396.6699,-0.0,1.2727349,2.013597,0.0,2,0,0,0
714519555,34.0362305366907,108.76086945720517,426.09436,396.68488,-0.0,1.2727067,2.0139272,0.0,2,0,0,0
714718100,34.03623065681579,108.7608688599856,426.1318,396.7176,-0.0,1.2726917,2.0137947,0.0,2,0,0,0
714921658,34.03623085716532,108.7608682421754,426.18915,396.76935,-0.0,1.2726698,2.0141187,0.0,2,0,0,0
715120281,34.036231093039156,108.76086755149583,426.25778,396.83224,-0.0,1.2726772,2.0139802,0.0,2,0,0,0
715313879,34.03623128961285,108.76086681882765,426.33307,396.90204,-0.0,1.2725319,2.013719,0.0,2,0,0,0
715522401,34.03623150642309,108.76086591312344,426.39685,396.96036,-0.0,1.2727259,2.0137079,0.0,2,0,0,0
715716029,34.0362318409439,108.7608651281636,426.4305,396.99014,-0.0,1.2726012,2.0139058,0.0,2,0,0,0
715914622,34.036232360308624,108.76086436686577,426.45486,397.01218,-0.0,1.272619,2.0137646,0.0,2,0,0,0
716123145,34.03623274155791,108.76086372335222,426.4685,397.0224,-0.0,1.272807,2.0137532,0.0,2,0,0,0
716316773,34.0362330747943,108.76086316343032,426.4479,396.9982,-0.0,1.2726182,2.0139532,0.0,2,0,0,0
716515366,34.03623346474559,108.76086262969565,426.42123,396.96817,-0.0,1.2726011,2.0138175,0.0,2,0,0,0
716713987,34.03623379020779,108.76086223824299,426.40692,396.94946,-0.0,1.2725714,2.0136838,0.0,2,0,0,0
716922481,34.03623413775684,108.76086196388384,426.42294,396.96057,-0.0,1.2726821,2.0136724,0.0,2,0,0,0
717116109,34.03623443537292,108.76086178632768,426.47852,397.01035,-0.0,1.2724495,2.013874,0.0,2,0,0,0
717314702,34.03623475326782,108.76086160288256,426.55646,397.08224,-0.0,1.272383,2.0137398,0.0,2,0,0,0
717523224,34.03623506617973,108.76086142853221,426.6586,397.1777,-0.0,1.2724912,2.0137303,0.0,2,0,0,0
717721817,34.03623524995752,108.76086128856082,426.7456,397.25717,-0.0,1.2724246,2.0135987,0.0,2,0,0,0
717920410,34.03623544008361,108.76086109301431,426.78375,397.2868,-0.0,1.2723595,2.0139258,0.0,2,0,0,0
718109238,34.03623560955189,108.76086091871825,426.77512,397.26956,-0.0,1.2721174,2.0136676,0.0,2,0,0,0
718322561,34.03623579084672,108.76086091070508,426.74722,397.2331,-0.0,1.2722083,2.0136588,0.0,2,0,0,0
718516189,34.03623599217166,108.76086093122593,426.72574,397.203,-0.0,1.2719771,2.0138636,0.0,2,0,0,0
718714781,34.03623622781372,108.76086098863043,426.71194,397.18036,-0.0,1.2719148,2.0137346,0.0,2,0,0,0
718923499,34.03623646728414,108.76086107514337,426.7136,397.1731,-0.0,1.2720412,2.0137327,0.0,2,0,0,0
719116976,34.036236663545644,108.7608611877426,426.73816,397.1878,-0.0,1.2718182,2.013939,0.0,2,0,0,0
719315524,34.03623686947834,108.76086134106261,426.7867,397.226,-0.0,1.2717661,2.013805,0.0,2,0,0,0
719514117,34.03623710551545,108.76086136678678,426.84756,397.27518,-0.0,1.271698,2.0136704,0.0,2,0,0,0
719722804,34.036237329790886,108.76086114736877,426.92667,397.34317,-0.0,1.2718344,2.0136604,0.0,2,0,0,0
719921234,34.036237490225396,108.7608606301857,427.01263,397.41644,-0.0,1.2718295,2.0139906,0.0,2,0,0,0
720119855,34.03623768584546,108.76085991096943,427.10855,397.49875,-0.0,1.2718097,2.013854,0.0,2,0,0,0
720323384,34.03623791540525,108.76085917871258,427.22653,397.60266,-0.0,1.2717944,2.0141814,0.0,2,0,0,0
720522098,34.036238140759025,108.76085845893225,427.35315,397.7135,-0.0,1.2717897,2.014037,0.0,2,0,0,0
720715604,34.03623835560219,108.76085768973225,427.43533,397.7793,-0.0,1.2716395,2.0137734,0.0,2,0,0,0
720914204,34.0362385747567,108.7608568513111,427.4622,397.78818,-0.0,1.2716364,2.0136378,0.0,2,0,0,0
721122758,34.03623885828768,108.76085610191002,427.44745,397.7565,-0.0,1.271813,2.014089,0.0,2,0,0,0
721321400,34.03623917017513,108.76085561112122,427.40765,397.69928,-0.0,1.271778,2.0139456,0.0,2,0,0,0
721519908,34.03623953061804,108.76085516735354,427.34848,397.62305,-0.0,1.2717142,2.0138001,0.0,2,0,0,0
721723511,34.036239978361095,108.76085465454972,427.2654,397.52203,-0.0,1.271625,2.0141213,0.0,2,0,0,0
721917091,34.03624040651127,108.7608540411174,427.17313,397.41312,-0.0,1.271416,2.0138545,0.0,2,0,0,0
722115698,34.0362407613452,108.76085316122385,427.10382,397.32562,-0.0,1.2713388,2.0137155,0.0,2,0,0,0
722314277,34.03624105259226,108.7608520607595,427.0792,397.2835,-0.0,1.2712716,2.0140424,0.0,2,0,0,0
722522799,34.036241439235205,108.76085080822494,427.09747,397.2832,-0.0,1.2713673,2.0140336,0.0,2,0,0,0
722721392,34.036241747510246,108.76084948941498,427.1441,397.31064,-0.0,1.2713618,2.0139008,0.0,2,0,0,0
722920040,34.036242027305335,108.76084821214337,427.2095,397.35583,-0.0,1.2713869,2.0137715,0.0,2,0,0,0
723123543,34.03624228782536,108.76084708226912,427.295,397.42108,-0.0,1.2714262,2.0141041,0.0,2,0,0,0
723322135,34.03624245740253,108.76084597788866,427.39523,397.50198,-0.0,1.2715094,2.0139775,0.0,2,0,0,0
723520739,34.03624262247229,108.7608448247975,427.49786,397.58414,-0.0,1.271599,2.013853,0.0,2,0,0,0
723719342,34.03624276690793,108.76084382133014,427.5779,397.64456,-0.0,1.2717135,2.013729,0.0,2,0,0,0
723922878,34.0362429020472,108.76084297823797,427.62778,397.67422,-0.0,1.2718389,2.0140712,0.0,2,0,0,0
724121471,34.0362430544163,108.76084217534003,427.65375,397.6802,-0.0,1.2719697,2.0139441,0.0,2,0,0,0
724315099,34.036243151673524,108.76084126064693,427.6734,397.68036,-0.0,1.271949,2.0141585,0.0,2,0,0,0
724523621,34.03624330090547,108.76084011025765,427.69897,397.68573,-0.0,1.2722447,2.0141573,0.0,2,0,0,0
724722264,34.036243507070346,108.7608390250027,427.72845,397.69492,-0.0,1.2723601,2.014029,0.0,2,0,0,0
724915853,34.03624369629214,108.76083803997423,427.7555,397.7013,-0.0,1.2722698,2.0142353,0.0,2,0,0,0
725114438,34.03624389696235,108.76083707044567,427.78455,397.7108,-0.0,1.272357,2.0141034,0.0,2,0,0,0
725322959,34.03624412229643,108.76083602675901,427.8046,397.71136,-0.0,1.2726328,2.0141053,0.0,2,0,0,0
725521550,34.03624427867841,108.76083503249824,427.8165,397.70224,-0.0,1.272707,2.01445,0.0,2,0,0,0
725715178,34.03624432360961,108.76083409909148,427.82736,397.6942,-0.0,1.2725986,2.0141907,0.0,2,0,0,0
725913934,34.03624433360644,108.76083314419905,427.83655,397.68292,-0.0,1.2726711,2.0140638,0.0,2,0,0,0
726122293,34.036244301937344,108.76083214006195,427.83813,397.66458,-0.0,1.2729102,2.0140672,0.0,2,0,0,0
726320886,34.036244250544996,108.7608311274602,427.8293,397.63608,-0.0,1.2729663,2.0144122,0.0,2,0,0,0
726519482,34.03624419304344,108.76083006023659,427.8247,397.61105,-0.0,1.2730104,2.0142763,0.0,2,0,0,0
726718258,34.036244155118474,108.76082890485907,427.82718,397.59354,-0.0,1.2730446,2.0141418,0.0,2,0,0,0
726921634,34.03624407674304,108.76082754730149,427.8368,397.58313,-0.0,1.2730783,2.0144818,0.0,2,0,0,0
727115257,34.03624399038759,108.76082609015198,427.85727,397.58432,-0.0,1.2729471,2.0142183,0.0,2,0,0,0
727313850,34.03624391133723,108.76082451043462,427.88916,397.59567,-0.0,1.2729913,2.0140898,0.0,2,0,0,0
727522504,34.036243850942306,108.7608228969534,427.92914,397.6149,-0.0,1.2731918,2.0140934,0.0,2,0,0,0
727720967,34.03624382059467,108.76082141267612,427.9712,397.63806,-0.0,1.2732278,2.014438,0.0,2,0,0,0
727914593,34.03624382475257,108.76081998083606,428.0099,397.6568,-0.0,1.2730694,2.0141733,0.0,2,0,0,0
728118151,34.03624382104649,108.76081845595381,428.0507,397.67755,-0.0,1.2730993,2.0145123,0.0,2,0,0,0
728316811,34.03624383599826,108.76081699761733,428.09735,397.70456,-0.0,1.27313,2.0143776,0.0,2,0,0,0
728515337,34.036243848103126,108.76081553323662,428.14328,397.73035,-0.0,1.2731555,2.0142453,0.0,2,0,0,0
728713929,34.03624381529123,108.76081396717824,428.1904,397.75735,-0.0,1.2731826,2.0145857,0.0,2,0,0,0
728922452,34.036243791373465,108.7608121794093,428.2177,397.76398,-0.0,1.2733592,2.014575,0.0,2,0,0,0
729121103,34.036243754325454,108.76081036378294,428.21613,397.74277,-0.0,1.2733558,2.0144296,0.0,2,0,0,0
729319637,34.03624370830572,108.7608083950488,428.17853,397.6851,-0.0,1.2733473,2.014285,0.0,2,0,0,0
729523200,34.03624364070262,108.76080622288941,428.10223,397.58838,-0.0,1.2733349,2.0146158,0.0,2,0,0,0
729721789,34.036243567528984,108.76080403425595,428.0043,397.47086,-0.0,1.273312,2.0144618,0.0,2,0,0,0
729920453,34.036243555209225,108.76080188149957,427.92212,397.36908,-0.0,1.2733073,2.0147896,0.0,2,0,0,0
730118973,34.03624354199935,108.76079970540731,427.85553,397.2821,-0.0,1.2732786,2.0146275,0.0,2,0,0,0
730322548,34.03624342102791,108.76079740798595,427.81067,397.21753,-0.0,1.2732478,2.014467,0.0,2,0,0,0
730516198,34.03624324669831,108.76079511201097,427.79596,397.18253,-0.0,1.2730521,2.0146582,0.0,2,0,0,0
730714763,34.03624305680505,108.76079263691953,427.81073,397.1774,-0.0,1.2730272,2.0145028,0.0,2,0,0,0
730923274,34.036242844045276,108.76079007673316,427.84985,397.19662,-0.0,1.273193,2.0144844,0.0,2,0,0,0
731116902,34.03624264894901,108.76078765772658,427.91055,397.23743,-0.0,1.2730123,2.0146813,0.0,2,0,0,0
731315494,34.036242500063786,108.76078513228921,427.98483,397.2918,-0.0,1.2730011,2.0145319,0.0,2,0,0,0
731514087,34.03624244099048,108.76078257425551,428.06537,397.35074,-0.0,1.2729574,2.0143805,0.0,2,0,0,0
731722610,34.03624234626466,108.76077981299062,428.14597,397.41193,-0.0,1.2731191,2.0143616,0.0,2,0,0,0
731921203,34.036242316746716,108.76077719909459,428.23505,397.4809,-0.0,1.273103,2.0142126,0.0,2,0,0,0
732110060,34.03624235032518,108.76077490158264,428.3264,397.55276,-0.0,1.2729093,2.01441,0.0,2,0,0,0
732323353,34.03624249517382,108.7607725447049,428.43558,397.64243,-0.0,1.2730662,2.0143926,0.0,2,0,0,0
732521946,34.03624267544709,108.76077066938673,428.54773,397.73468,-0.0,1.2730653,2.0142467,0.0,2,0,0,0
732720538,34.03624280862024,108.7607691120776,428.67166,397.83893,-0.0,1.2730664,2.0145772,0.0,2,0,0,0
732909359,34.036242804175664,108.76076781323079,428.79825,397.94522,-0.0,1.2728752,2.0142972,0.0,2,0,0,0
733122691,34.03624269475634,108.76076629944734,428.94543,398.0724,-0.0,1.2730502,2.0142798,0.0,2,0,0,0
733321281,34.03624250783651,108.76076493259302,429.03745,398.1444,-0.0,1.2730781,2.0141358,0.0,2,0,0,0
733514911,34.036242234335454,108.760763726526,429.04526,398.1321,-0.0,1.2729154,2.0143344,0.0,2,0,0,0
733723615,34.03624197128269,108.76076250938483,428.97577,398.0429,-0.0,1.2731115,2.0143216,0.0,2,0,0,0
733922026,34.036241901077865,108.76076157429259,428.87296,397.92017,-0.0,1.2731322,2.0141792,0.0,2,0,0,0
734115652,34.036241832129235,108.76076087658029,428.7492,397.77792,-0.0,1.2729728,2.014379,0.0,2,0,0,0
734314245,34.03624168856985,108.76076034140956,428.60236,397.61243,-0.0,1.2730069,2.0142376,0.0,2,0,0,0
734522923,34.03624159294105,108.76075980975767,428.44977,397.44083,-0.0,1.273209,2.0142262,0.0,2,0,0,0
734716396,34.0362414798245,108.76075938128677,428.32657,397.29816,-0.0,1.2730547,2.013956,0.0,2,0,0,0
734914989,34.036241347478246,108.7607590190279,428.22803,397.17923,-0.0,1.2730813,2.014285,0.0,2,0,0,0
735123510,34.036241263942166,108.76075851786095,428.14307,397.07416,-0.0,1.2732902,2.0142734,0.0,2,0,0,0
735322213,34.03624111852543,108.76075782790579,428.0843,396.9965,-0.0,1.2733512,2.014132,0.0,2,0,0,0
735520696,34.036240915657835,108.76075703867153,428.05103,396.94342,-0.0,1.2734232,2.0144608,0.0,2,0,0,0
735714324,34.03624070744007,108.76075617725871,428.04202,396.91382,-0.0,1.2733072,2.014183,0.0,2,0,0,0
735922847,34.036240418500284,108.7607551321808,428.05902,396.91083,-0.0,1.2735581,2.0141652,0.0,2,0,0,0
736121563,34.03624015398459,108.76075403093525,428.09708,396.92877,-0.0,1.2736392,2.01402,0.0,2,0,0,0
736320032,34.036239959016164,108.76075286723457,428.14725,396.95953,-0.0,1.2736987,2.0143428,0.0,2,0,0,0
736523590,34.036239806458475,108.76075150318505,428.20847,397.0026,-0.0,1.2737573,2.0141945,0.0,2,0,0,0
736722236,34.03623971653656,108.76075008589677,428.28293,397.05923,-0.0,1.273827,2.01405,0.0,2,0,0,0
736920924,34.036239609888305,108.76074871865951,428.36343,397.12253,-0.0,1.2738953,2.0139077,0.0,2,0,0,0
737114403,34.036239402293,108.76074747570112,428.42636,397.16803,-0.0,1.2737597,2.0141046,0.0,2,0,0,0
737322926,34.03623912822339,108.76074620281159,428.4702,397.19568,-0.0,1.2739857,2.014089,0.0,2,0,0,0
737516553,34.03623895097319,108.7607452171821,428.49762,397.2062,-0.0,1.273826,2.014287,0.0,2,0,0,0
737715146,34.03623881076106,108.76074426092492,428.52048,397.21457,-0.0,1.2738706,2.0141377,0.0,2,0,0,0
737923669,34.036238608928315,108.76074310684432,428.539,397.21817,-0.0,1.2741174,2.0141175,0.0,2,0,0,0
738122261,34.03623835083422,108.76074186885904,428.5526,397.2157,-0.0,1.2741841,2.0144358,0.0,2,0,0,0
738315889,34.03623808066372,108.76074062878314,428.5832,397.23105,-0.0,1.27407,2.014154,0.0,2,0,0,0
738514495,34.03623786192222,108.76073934927497,428.6296,397.26233,-0.0,1.2741324,2.0140014,0.0,2,0,0,0
738723003,34.036237673281796,108.76073795691404,428.66385,397.28223,-0.0,1.2743797,2.013977,0.0,2,0,0,0
738916632,34.0362374928571,108.76073676646472,428.6645,397.268,-0.0,1.2742664,2.0141704,0.0,2,0,0,0
739115225,34.03623732254553,108.76073558687217,428.63654,397.2255,-0.0,1.2743323,2.014021,0.0,2,0,0,0
739323748,34.03623713977497,108.76073421562457,428.57184,397.14676,-0.0,1.2745719,2.0139995,0.0,2,0,0,0
739522340,34.03623700182159,108.76073274683131,428.47687,397.03885,-0.0,1.2746289,2.013853,0.0,2,0,0,0
739720932,34.03623689056222,108.76073115442162,428.36163,396.91022,-0.0,1.2746634,2.0141742,0.0,2,0,0,0
739909772,34.03623680101232,108.76072953161496,428.2339,396.77036,-0.0,1.2745265,2.0139012,0.0,2,0,0,0
740123082,34.03623661542882,108.76072751116394,428.07574,396.601,-0.0,1.2747495,2.0138803,0.0,2,0,0,0
740316710,34.03623650895196,108.7607253707602,427.93744,396.45062,-0.0,1.2746189,2.0140772,0.0,2,0,0,0
740515305,34.036236485349676,108.76072293157186,427.82257,396.32236,-0.0,1.2746843,2.013937,0.0,2,0,0,0
740714111,34.036236354031544,108.76072034199272,427.73328,396.22015,-0.0,1.2747402,2.0137951,0.0,2,0,0,0
740917454,34.036236098590635,108.76071769911297,427.6711,396.14523,-0.0,1.2748234,2.0136569,0.0,2,0,0,0
741116046,34.036235944519824,108.7607151810397,427.6438,396.10364,-0.0,1.2748927,2.0139837,0.0,2,0,0,0
741314642,34.03623591594457,108.76071279157121,427.6366,396.08038,-0.0,1.2749481,2.0138466,0.0,2,0,0,0
741513345,34.03623584002857,108.76071038831701,427.6377,396.06476,-0.0,1.2749794,2.013709,0.0,2,0,0,0
741721764,34.03623568733037,108.76070783242608,427.66263,396.07294,-0.0,1.2751946,2.0136948,0.0,2,0,0,0
741920346,34.03623543523534,108.76070539786444,427.70557,396.09964,-0.0,1.2752311,2.0140204,0.0,2,0,0,0
742118939,34.036235084061225,108.76070293384782,427.75674,396.1336,-0.0,1.2752554,2.0138795,0.0,2,0,0,0
742317646,34.036234760464616,108.76070050415066,427.81454,396.17484,-0.0,1.275276,2.013741,0.0,2,0,0,0
742521090,34.03623442155826,108.76069814371351,427.89377,396.237,-0.0,1.2752931,2.014065,0.0,2,0,0,0
742719682,34.03623395194196,108.76069590359143,427.99008,396.3173,-0.0,1.2753084,2.0139277,0.0,2,0,0,0
742913310,34.036233560141156,108.76069371898485,428.10703,396.4195,-0.0,1.2751395,2.0136683,0.0,2,0,0,0
743121921,34.03623345250142,108.7606912034266,428.2511,396.54852,-0.0,1.2753551,2.0136588,0.0,2,0,0,0
743315461,34.036233496750214,108.76068886567532,428.40262,396.68707,-0.0,1.275201,2.0138614,0.0,2,0,0,0
743523982,34.03623355392175,108.76068654428684,428.557,396.82748,-0.0,1.2754197,2.0138533,0.0,2,0,0,0
743717610,34.03623354258784,108.76068436518568,428.6299,396.88785,-0.0,1.2752765,2.013599,0.0,2,0,0,0
743916230,34.03623338579195,108.7606820817912,428.63977,396.88486,-0.0,1.2753326,2.01347,0.0,2,0,0,0
744114805,34.036233202045345,108.76067995574272,428.62027,396.8526,-0.0,1.2753826,2.0137997,0.0,2,0,0,0
744313388,34.036233028794975,108.76067793848992,428.5876,396.80734,-0.0,1.2754366,2.0136712,0.0,2,0,0,0
744521912,34.03623284076594,108.76067585780405,428.53854,396.74347,-0.0,1.2756622,2.013663,0.0,2,0,0,0
744720517,34.03623268723868,108.76067400067087,428.4724,396.66193,-0.0,1.2756841,2.0139906,0.0,2,0,0,0
744919097,34.03623252356014,108.76067231811588,428.39554,396.56937,-0.0,1.2757019,2.0138495,0.0,2,0,0,0
745122706,34.036232413820294,108.76067059682198,428.31497,396.47397,-0.0,1.2757229,2.013709,0.0,2,0,0,0
745321246,34.03623227238986,108.7606688571161,428.2468,396.39136,-0.0,1.2757589,2.014035,0.0,2,0,0,0
745519839,34.03623207009873,108.76066707427294,428.19186,396.32144,-0.0,1.2757739,2.0138974,0.0,2,0,0,0
745713467,34.03623186582647,108.76066536266654,428.14444,396.2578,-0.0,1.2756081,2.0136356,0.0,2,0,0,0
745921989,34.036231695206624,108.76066364776888,428.10306,396.20004,-0.0,1.275787,2.0136247,0.0,2,0,0,0
746115618,34.0362316318707,108.76066218411947,428.08148,396.16266,-0.0,1.2756137,2.013827,0.0,2,0,0,0
746324218,34.03623153337596,108.76066064836401,428.0644,396.1294,-0.0,1.275814,2.0138164,0.0,2,0,0,0
746517770,34.03623139164885,108.76065920521745,428.06262,396.1112,-0.0,1.2756705,2.013561,0.0,2,0,0,0
746716360,34.03623125203906,108.76065775539536,428.08447,396.1184,-0.0,1.2757049,2.0138922,0.0,2,0,0,0
746915002,34.03623103705504,108.7606564171014,428.1329,396.15286,-0.0,1.2757442,2.013763,0.0,2,0,0,0
747113546,34.03623079561766,108.76065515100677,428.19238,396.19806,-0.0,1.27578,2.0136342,0.0,2,0,0,0
747322069,34.03623044938254,108.76065371025145,428.25787,396.2492,-0.0,1.2759693,2.0136275,0.0,2,0,0,0
747520660,34.0362300197591,108.7606521428992,428.30487,396.28195,-0.0,1.275975,2.013957,0.0,2,0,0,0
747719448,34.036229558996965,108.76065040082402,428.3241,396.2876,-0.0,1.2759764,2.0138245,0.0,2,0,0,0
747922854,34.03622905699421,108.76064864964124,428.3273,396.27856,-0.0,1.2759811,2.0136921,0.0,2,0,0,0
748121403,34.0362285785418,108.76064697123726,428.31912,396.25836,-0.0,1.2760007,2.013563,0.0,2,0,0,0
748319996,34.03622808734337,108.7606452141966,428.29788,396.22495,-0.0,1.2759978,2.0138922,0.0,2,0,0,0
748518741,34.03622753792806,108.76064348189178,428.26642,396.1815,-0.0,1.2759931,2.0137534,0.0,2,0,0,0
748722146,34.03622688633771,108.7606418452181,428.22458,396.1276,-0.0,1.2759875,2.0136156,0.0,2,0,0,0
748920739,34.03622619184733,108.76064030641096,428.18652,396.07816,-0.0,1.276001,2.013943,0.0,2,0,0,0
749124296,34.03622548929383,108.76063874804301,428.16327,396.04282,-0.0,1.276013,2.0138073,0.0,2,0,0,0
749323028,34.03622482031579,108.7606373373233,428.15344,396.02148,-0.0,1.2760249,2.0136738,0.0,2,0,0,0
749516521,34.03622421438984,108.76063603446767,428.15442,396.0099,-0.0,1.2758319,2.0138776,0.0,2,0,0,0
749715138,34.03622364181307,108.76063482966468,428.1656,396.00946,-0.0,1.2758409,2.0137484,0.0,2,0,0,0
749913703,34.03622308264706,108.76063373417482,428.1926,396.02435,-0.0,1.2758433,2.0136197,0.0,2,0,0,0
750122323,34.0362226601919,108.76063256304931,428.2418,396.06256,-0.0,1.2760148,2.013613,0.0,2,0,0,0
750320817,34.0362224117196,108.76063146513692,428.30325,396.1121,-0.0,1.2760001,2.0139422,0.0,2,0,0,0
750524379,34.03622223621474,108.76063030792079,428.37537,396.17307,-0.0,1.2759694,2.0138102,0.0,2,0,0,0
750722967,34.03622208086274,108.76062914954545,428.45462,396.24164,-0.0,1.2759684,2.0136795,0.0,2,0,0,0
750921631,34.03622177239261,108.76062792708538,428.53513,396.31134,-0.0,1.2759687,2.0140054,0.0,2,0,0,0
751120153,34.03622136520104,108.76062642154157,428.60275,396.36926,-0.0,1.2759571,2.0138671,0.0,2,0,0,0
751313781,34.03622099776595,108.76062472753031,428.64362,396.40045,-0.0,1.2757702,2.0136049,0.0,2,0,0,0
751522344,34.03622064032422,108.76062273406188,428.6496,396.3984,-0.0,1.2759417,2.0135915,0.0,2,0,0,0
751721047,34.03622029390146,108.76062086901207,428.6341,396.37653,-0.0,1.2759237,2.013917,0.0,2,0,0,0
751924453,34.036220054909094,108.76061897146405,428.5833,396.31924,-0.0,1.2758907,2.01378,0.0,2,0,0,0
752123088,34.036219825404395,108.76061698052068,428.48413,396.2152,-0.0,1.2758648,2.0136409,0.0,2,0,0,0
752321639,34.03621954030783,108.76061472276314,428.35306,396.0788,-0.0,1.2758558,2.0139632,0.0,2,0,0,0
752520294,34.0362192462012,108.76061229694781,428.2011,395.92166,-0.0,1.2758462,2.0138237,0.0,2,0,0,0
752713859,34.03621891159155,108.76060987647303,428.05783,395.77368,-0.0,1.2756493,2.013561,0.0,2,0,0,0
752917416,34.03621842841133,108.76060733376914,427.94635,395.6577,-0.0,1.2756509,2.013886,0.0,2,0,0,0
753116009,34.03621782271001,108.76060476757189,427.87857,395.58435,-0.0,1.2756634,2.0137508,0.0,2,0,0,0
753324531,34.036217170274234,108.76060192336216,427.83502,395.5343,-0.0,1.2758679,2.0137415,0.0,2,0,0,0
753523124,34.03621667020817,108.76059911405112,427.82126,395.51373,-0.0,1.2759011,2.0136075,0.0,2,0,0,0
753721721,34.036216316006325,108.76059626075363,427.82776,395.5142,-0.0,1.2759341,2.0139344,0.0,2,0,0,0
753920311,34.03621597971021,108.76059340534478,427.8344,395.51453,-0.0,1.2759724,2.0137987,0.0,2,0,0,0
754118902,34.03621562100999,108.7605906458774,427.845,395.51855,-0.0,1.2759877,2.0136566,0.0,2,0,0,0
754322459,34.03621525058996,108.76058797928793,427.85938,395.52606,-0.0,1.2760012,2.0139756,0.0,2,0,0,0
754521052,34.03621490862965,108.76058553956302,427.88605,395.54718,-0.0,1.2760063,2.013834,0.0,2,0,0,0
754719645,34.03621460765549,108.76058348223732,427.9379,395.59436,-0.0,1.2760297,2.013696,0.0,2,0,0,0
754918238,34.03621430148436,108.76058166974326,428.01245,395.6642,-0.0,1.2760249,2.014017,0.0,2,0,0,0
755121834,34.036213992148504,108.76057988757374,428.1119,395.75842,-0.0,1.2760016,2.0138757,0.0,2,0,0,0
755315423,34.036213819142326,108.76057828116178,428.211,395.854,-0.0,1.2758185,2.0140705,0.0,2,0,0,0
755514156,34.03621360147981,108.7605766188411,428.31143,395.95294,-0.0,1.2758089,2.0139265,0.0,2,0,0,0
755722538,34.03621318949472,108.7605747792106,428.4227,396.06357,-0.0,1.276,2.01391,0.0,2,0,0,0
755916166,34.03621272756194,108.76057306961343,428.51822,396.15747,-0.0,1.2758331,2.013646,0.0,2,0,0,0
756124688,34.03621210437361,108.7605711566873,428.5958,396.2328,-0.0,1.2760384,2.01409,0.0,2,0,0,0
756323427,34.03621159853895,108.76056928373124,428.62704,396.26245,-0.0,1.2760407,2.0139453,0.0,2,0,0,0
756521874,34.036211159822656,108.76056744929643,428.6157,396.24945,-0.0,1.2760131,2.0138025,0.0,2,0,0,0
756720467,34.0362107242733,108.76056563106921,428.56326,396.19595,-0.0,1.2759769,2.0136592,0.0,2,0,0,0
756914123,34.036210349304696,108.76056380522445,428.48224,396.115,-0.0,1.2757624,2.0138547,0.0,2,0,0,0
757112814,34.03621000232364,108.76056197946244,428.37543,396.00854,-0.0,1.2757127,2.0137126,0.0,2,0,0,0
757321209,34.03620975582404,108.7605602299771,428.26,395.89243,-0.0,1.2758449,2.0136962,0.0,2,0,0,0
757519801,34.03620955987166,108.76055895963955,428.16873,395.79874,-0.0,1.2758366,2.0140193,0.0,2,0,0,0
757723360,34.0362093930307,108.76055782941565,428.08603,395.71204,-0.0,1.2758157,2.0138798,0.0,2,0,0,0
757922028,34.036209256992954,108.76055686457921,428.01254,395.63434,-0.0,1.2760334,2.013888,0.0,2,0,0,0
758120544,34.0362090901608,108.76055584375123,427.96234,395.57996,-0.0,1.2762843,2.013884,0.0,2,0,0,0
758314171,34.036208886955336,108.76055484730718,427.92535,395.53906,-0.0,1.2761477,2.01408,0.0,2,0,0,0
758517730,34.03620863527065,108.7605538564107,427.87595,395.4876,-0.0,1.2762028,2.0139358,0.0,2,0,0,0
758716341,34.03620843275144,108.76055291941512,427.8045,395.4156,-0.0,1.2762631,2.0137942,0.0,2,0,0,0
758924898,34.036208185724206,108.76055209260217,427.7136,395.32407,-0.0,1.2764938,2.0137804,0.0,2,0,0,0
759123437,34.03620787962614,108.76055148834854,427.6194,395.23096,-0.0,1.276544,2.014105,0.0,2,0,0,0
759322029,34.03620746461608,108.76055092855744,427.5442,395.15787,-0.0,1.2766377,2.0139844,0.0,2,0,0,0
759520676,34.036206948275606,108.76055034372048,427.52286,395.1377,-0.0,1.2766908,2.013841,0.0,2,0,0,0
759714251,34.03620645603529,108.76054972644764,427.55157,395.16855,-0.0,1.2765745,2.0140324,0.0,2,0,0,0
759912843,34.03620596131412,108.76054908230707,427.62476,395.2437,-0.0,1.2766695,2.013884,0.0,2,0,0,0
760121364,34.03620541338392,108.76054852295113,427.73386,395.35522,-0.0,1.2769561,2.013863,0.0,2,0,0,0
760319991,34.03620493644644,108.76054792596356,427.86963,395.49442,-0.0,1.2770584,2.014183,0.0,2,0,0,0
760518549,34.03620448380641,108.76054730829732,428.03238,395.66202,-0.0,1.2771491,2.0140345,0.0,2,0,0,0
760722109,34.036204080859434,108.76054679332024,428.21466,395.85013,-0.0,1.2772468,2.013886,0.0,2,0,0,0
760920701,34.036203726743175,108.7605462145063,428.36597,396.00766,-0.0,1.2773376,2.0137415,0.0,2,0,0,0
761119294,34.03620335053323,108.76054547649396,428.45935,396.10715,-0.0,1.2774198,2.0140617,0.0,2,0,0,0
761312921,34.03620310229503,108.76054488335572,428.50836,396.16177,-0.0,1.2773111,2.014249,0.0,2,0,0,0
761516482,34.036202890752065,108.76054439073329,428.5156,396.17493,-0.0,1.27738,2.0140913,0.0,2,0,0,0
761725004,34.036202545289676,108.76054385035798,428.4879,396.1528,-0.0,1.2776271,2.0140493,0.0,2,0,0,0
761923592,34.03620226969255,108.76054343840102,428.44937,396.11993,-0.0,1.2776899,2.0143533,0.0,2,0,0,0
762117221,34.03620209604572,108.76054312917445,428.43048,396.10693,-0.0,1.2775322,2.0145237,0.0,2,0,0,0
762315812,34.0362019712341,108.76054285132788,428.44644,396.12778,-0.0,1.2775484,2.014344,0.0,2,0,0,0
762514565,34.036201827163694,108.76054255719102,428.49405,396.17935,-0.0,1.2775769,2.0146337,0.0,2,0,0,0
762712998,34.036201545760186,108.76054213173812,428.53674,396.22546,-0.0,1.2775981,2.0144427,0.0,2,0,0,0
762921520,34.03620117470533,108.76054164476716,428.5402,396.23184,-0.0,1.2778107,2.014381,0.0,2,0,0,0
763120113,34.03620085866107,108.76054127563725,428.5006,396.19562,-0.0,1.2778363,2.0141962,0.0,2,0,0,0
763318849,34.03620041957241,108.76054081934294,428.41733,396.1167,-0.0,1.2778438,2.0144894,0.0,2,0,0,0
763522330,34.036199866672185,108.76054031630994,428.31836,396.0217,-0.0,1.2778466,2.0143085,0.0,2,0,0,0
763715890,34.036199336766046,108.76053991240592,428.23492,395.9403,-0.0,1.2776809,2.0140114,0.0,2,0,0,0
763914483,34.03619873615859,108.76053945994155,428.16837,395.87686,-0.0,1.2777001,2.014313,0.0,2,0,0,0
764113162,34.03619805852035,108.76053898359044,428.1397,395.85178,-0.0,1.277721,2.0141413,0.0,2,0,0,0
764321598,34.036197269776565,108.7605385108828,428.14243,395.85754,-0.0,1.277929,2.0140939,0.0,2,0,0,0
764520195,34.03619634443293,108.76053789098277,428.16013,395.87906,-0.0,1.2779312,2.014394,0.0,2,0,0,0
764723793,34.036195249975684,108.76053717586649,428.19968,395.92206,-0.0,1.277934,2.0142236,0.0,2,0,0,0
764922426,34.03619414797107,108.76053647577795,428.25385,395.97882,-0.0,1.2779547,2.014059,0.0,2,0,0,0
765115970,34.03619309547947,108.76053590915848,428.3042,396.02975,-0.0,1.2777947,2.0137758,0.0,2,0,0,0
765314611,34.03619203337793,108.76053540298105,428.3381,396.06458,-0.0,1.2778015,2.0140843,0.0,2,0,0,0
765513154,34.03619104203761,108.7605348875922,428.35483,396.08298,-0.0,1.2778057,2.0139282,0.0,2,0,0,0
765721734,34.036189992419594,108.76053449975275,428.3635,396.0932,-0.0,1.2780106,2.0143585,0.0,2,0,0,0
765920322,34.03618912143081,108.76053415625064,428.3552,396.08682,-0.0,1.2780249,2.0141907,0.0,2,0,0,0
766123826,34.03618825176296,108.76053387008562,428.32547,396.05835,-0.0,1.2780356,2.0140245,0.0,2,0,0,0
766322456,34.03618742720804,108.7605335954086,428.28583,396.02158,-0.0,1.2780427,2.0138643,0.0,2,0,0,0
766521136,34.03618666766788,108.76053325004315,428.25153,395.98856,-0.0,1.2780476,2.0141728,0.0,2,0,0,0
766719604,34.03618595713888,108.76053299217358,428.22586,395.96533,-0.0,1.27804,2.0140147,0.0,2,0,0,0
766913231,34.03618527079167,108.7605327532438,428.2122,395.95483,-0.0,1.2778406,2.0141947,0.0,2,0,0,0
767116792,34.03618446167901,108.76053251479053,428.2094,395.95496,-0.0,1.2778457,2.0140336,0.0,2,0,0,0
767315381,34.0361835754196,108.76053217878166,428.2155,395.96436,-0.0,1.2778343,2.0138698,0.0,2,0,0,0
767523908,34.03618260761777,108.76053167719925,428.22726,395.9781,-0.0,1.2780162,2.014299,0.0,2,0,0,0
767722496,34.03618165111126,108.76053115015667,428.2469,396.0002,-0.0,1.2780244,2.0141327,0.0,2,0,0,0
767916123,34.036180703524515,108.76053066908723,428.2744,396.03058,-0.0,1.2778213,2.0143113,0.0,2,0,0,0
768114716,34.03617964962224,108.76053018478909,428.30673,396.06436,-0.0,1.2777919,2.014145,0.0,2,0,0,0
768313309,34.03617852884817,108.76052967782546,428.33902,396.09622,-0.0,1.2777591,2.0139844,0.0,2,0,0,0
768521831,34.03617732072994,108.76052914022716,428.36676,396.1226,-0.0,1.2779267,2.0139513,0.0,2,0,0,0
768710682,34.036176160589015,108.76052853264433,428.39633,396.15057,-0.0,1.27772,2.0141373,0.0,2,0,0,0
768923986,34.03617478321511,108.76052768356338,428.44363,396.19736,-0.0,1.2778862,2.0141,0.0,2,0,0,0
769122599,34.03617355634363,108.76052694360871,428.50305,396.25586,-0.0,1.2778705,2.0139408,0.0,2,0,0,0
769321166,34.03617234794641,108.76052631772792,428.5638,396.31525,-0.0,1.277857,2.0137858,0.0,2,0,0,0
769519764,34.03617127146163,108.76052571186288,428.6227,396.37222,-0.0,1.2778274,2.0140963,0.0,2,0,0,0
769718351,34.03617029981718,108.760525094468,428.67212,396.41916,-0.0,1.2778004,2.013941,0.0,2,0,0,0
769921910,34.03616936307516,108.76052446945562,428.71725,396.46317,-0.0,1.2777692,2.0137868,0.0,2,0,0,0
770115536,34.03616852633621,108.7605238114689,428.75772,396.5036,-0.0,1.2775577,2.0139778,0.0,2,0,0,0
770324249,34.03616748892582,108.76052297472364,428.79456,396.5395,-0.0,1.2777276,2.0139549,0.0,2,0,0,0
770522651,34.036166364514706,108.76052225536453,428.81546,396.55875,-0.0,1.2776979,2.0138104,0.0,2,0,0,0
770716280,34.036165244717765,108.76052152172292,428.82437,396.56564,-0.0,1.2774878,2.0140052,0.0,2,0,0,0
770914871,34.03616406642835,108.7605207678583,428.83374,396.5741,-0.0,1.2774814,2.0138605,0.0,2,0,0,0
771113565,34.03616292664793,108.76052003908113,428.84924,396.58936,-0.0,1.2774771,2.0137143,0.0,2,0,0,0
771317021,34.03616189011267,108.76051933282444,428.86487,396.6051,-0.0,1.2774674,2.0135715,0.0,2,0,0,0
771515614,34.03616107634636,108.76051877640927,428.87897,396.61945,-0.0,1.2774423,2.0138898,0.0,2,0,0,0
771724136,34.036160406993005,108.76051828515499,428.89426,396.63574,-0.0,1.2776154,2.0138655,0.0,2,0,0,0
771922942,34.03615981191323,108.76051788679897,428.90848,396.65036,-0.0,1.2775885,2.0137167,0.0,2,0,0,0
772121321,34.03615921646478,108.76051753414701,428.92493,396.66803,-0.0,1.2775576,2.0140305,0.0,2,0,0,0
772319914,34.03615864949059,108.76051716559789,428.94144,396.68643,-0.0,1.2775124,2.0138805,0.0,2,0,0,0
772513542,34.03615812569105,108.7605168151812,428.95468,396.70056,-0.0,1.2773004,2.0140693,0.0,2,0,0,0
772722137,34.03615749476117,108.76051645010982,428.9537,396.70035,-0.0,1.2774631,2.0140388,0.0,2,0,0,0
772920656,34.03615676218143,108.7605160768005,428.93448,396.6819,-0.0,1.2774403,2.0138817,0.0,2,0,0,0
773124213,34.036155944290186,108.76051568482072,428.9019,396.64996,-0.0,1.2774124,2.0141916,0.0,2,0,0,0
773322806,34.03615505812917,108.76051527268008,428.86115,396.61093,-0.0,1.277405,2.0140378,0.0,2,0,0,0
773521430,34.03615407301971,108.76051478184104,428.81107,396.56372,-0.0,1.2773633,2.0138838,0.0,2,0,0,0
773715040,34.036153067961045,108.76051427417354,428.76053,396.51636,-0.0,1.2771554,2.0140736,0.0,2,0,0,0
773913621,34.0361520602265,108.7605137660921,428.71286,396.4718,-0.0,1.277151,2.0139272,0.0,2,0,0,0
774117176,34.03615096291789,108.76051324296259,428.6633,396.42462,-0.0,1.2771415,2.0137808,0.0,2,0,0,0
774315769,34.03614988489811,108.76051274461011,428.6106,396.37405,-0.0,1.2771169,2.0136368,0.0,2,0,0,0
774524292,34.036148806423725,108.76051222787665,428.55496,396.32062,-0.0,1.2772784,2.0136182,0.0,2,0,0,0
774722886,34.03614772192846,108.76051166920642,428.49942,396.26767,-0.0,1.2772604,2.0139382,0.0,2,0,0,0
774921476,34.03614650031904,108.7605110908724,428.44748,396.21826,-0.0,1.2772453,2.0137973,0.0,2,0,0,0
775120118,34.03614513548887,108.76051046418534,428.40057,396.17313,-0.0,1.2772391,2.0136564,0.0,2,0,0,0
775318661,34.036143787391524,108.76050979237375,428.35013,396.12448,-0.0,1.2772348,2.0139778,0.0,2,0,0,0
775512289,34.03614252497458,108.7605091883521,428.3088,396.08514,-0.0,1.2770241,2.013713,0.0,2,0,0,0
775720810,34.03614119727242,108.76050853220987,428.26376,396.04288,-0.0,1.2771808,2.0136974,0.0,2,0,0,0
775919403,34.036139756710604,108.76050781198302,428.22772,396.00925,-0.0,1.2771848,2.0140214,0.0,2,0,0,0
776122960,34.036138129358726,108.76050697234263,428.19263,395.97775,-0.0,1.2771822,2.0138764,0.0,2,0,0,0
776321553,34.03613634551784,108.76050598702115,428.15768,395.94553,-0.0,1.2771739,2.0137346,0.0,2,0,0,0
776520169,34.03613446070452,108.76050495970122,428.12323,395.91516,-0.0,1.2771496,2.0135942,0.0,2,0,0,0
776718738,34.03613258316436,108.76050401451614,428.0992,395.89462,-0.0,1.2771275,2.0139146,0.0,2,0,0,0
776912366,34.03613075209257,108.76050319938466,428.07883,395.87918,-0.0,1.2769257,2.0136502,0.0,2,0,0,0
777115923,34.03612900345921,108.7605024490624,428.06583,395.8694,-0.0,1.2769268,2.0135128,0.0,2,0,0,0
777324448,34.03612730155141,108.7605017879954,428.05402,395.86072,-0.0,1.2771178,2.0135005,0.0,2,0,0,0
777523038,34.0361257489279,108.7605011371326,428.0542,395.86517,-0.0,1.2771163,2.013824,0.0,2,0,0,0
777721630,34.03612437952639,108.76050052230657,428.0688,395.8839,-0.0,1.277141,2.0136902,0.0,2,0,0,0
777920223,34.03612316180183,108.76049983523941,428.09265,395.91156,-0.0,1.2771839,2.0135558,0.0,2,0,0,0
778118949,34.03612202262178,108.7604991532019,428.11716,395.93985,-0.0,1.2772174,2.0138814,0.0,2,0,0,0
778312461,34.03612097461106,108.76049850260628,428.15286,395.98013,-0.0,1.2770818,2.0136225,0.0,2,0,0,0
778520965,34.036119802788264,108.7604977500464,428.20563,396.03708,-0.0,1.2773416,2.013615,0.0,2,0,0,0
778719597,34.03611865358242,108.76049716566828,428.25275,396.09024,-0.0,1.2774026,2.0134845,0.0,2,0,0,0
778918247,34.036117582732714,108.76049670221518,428.27597,396.11948,-0.0,1.2774498,2.0138097,0.0,2,0,0,0
779121707,34.03611651167733,108.76049629992852,428.29062,396.14062,-0.0,1.2775097,2.0136747,0.0,2,0,0,0
779320305,34.03611559698198,108.76049591713999,428.31107,396.16812,-0.0,1.2775922,2.0139992,0.0,2,0,0,0
779513927,34.03611485013933,108.76049556034913,428.3367,396.20047,-0.0,1.2774817,2.0137365,0.0,2,0,0,0
779712578,34.03611413433596,108.76049541280737,428.35794,396.22763,-0.0,1.2775629,2.0135937,0.0,2,0,0,0
779921042,34.03611349583372,108.7604953538169,428.38412,396.2609,-0.0,1.2778281,2.014036,0.0,2,0,0,0
780124599,34.036112956897234,108.76049530070466,428.41528,396.29932,-0.0,1.277905,2.0138788,0.0,2,0,0,0
780318264,34.03611247321135,108.76049530074799,428.44907,396.34042,-0.0,1.2777929,2.0140653,0.0,2,0,0,0
780516950,34.0361118490236,108.76049529576194,428.48962,396.38885,-0.0,1.2778687,2.0138984,0.0,2,0,0,0
780715413,34.036111039049516,108.76049527343064,428.53528,396.4415,-0.0,1.2780124,2.0142272,0.0,2,0,0,0
780914004,34.03611012684239,108.76049526171848,428.59485,396.51,-0.0,1.2781031,2.0145216,0.0,2,0,0,0
781112597,34.036109102821726,108.7604950983223,428.67093,396.5943,-0.0,1.2781954,2.0143425,0.0,2,0,0,0
781321133,34.03610800458776,108.76049493875577,428.74725,396.67676,-0.0,1.2784759,2.01429,0.0,2,0,0,0
781519712,34.03610704669232,108.76049464433278,428.82172,396.75897,-0.0,1.2785394,2.0141146,0.0,2,0,0,0
781723269,34.036106060022426,108.76049436255718,428.88602,396.83115,-0.0,1.2785938,2.0144143,0.0,2,0,0,0
781921863,34.03610517942827,108.7604942122838,428.90048,396.8537,-0.0,1.278662,2.0142453,0.0,2,0,0,0
782120479,34.03610439565534,108.76049406180304,428.87302,396.8343,-0.0,1.278719,2.0140808,0.0,2,0,0,0
782319049,34.036103666455126,108.76049384303508,428.8146,396.78445,-0.0,1.2787299,2.0139153,0.0,2,0,0,0
782512674,34.03610300308877,108.76049358181261,428.7233,396.7009,-0.0,1.2785903,2.0140977,0.0,2,0,0,0
782716231,34.03610216295879,108.76049335594524,428.58603,396.57114,-0.0,1.2786331,2.0139394,0.0,2,0,0,0
782914864,34.03610125170293,108.76049307435567,428.42786,396.42038,-0.0,1.2786689,2.0137851,0.0,2,0,0,0
783123345,34.03610032589231,108.76049269289204,428.2702,396.27106,-0.0,1.2788887,2.0137575,0.0,2,0,0,0
783321939,34.036099516792426,108.76049245114821,428.13696,396.14468,-0.0,1.2789383,2.0140715,0.0,2,0,0,0
783510782,34.036098823253624,108.7604922045189,428.05078,396.0683,-0.0,1.278787,2.0137975,0.0,2,0,0,0
783714167,34.03609814445785,108.7604919048165,428.01697,396.04465,-0.0,1.2788326,2.014108,0.0,2,0,0,0
783912781,34.0360973996911,108.76049168517929,428.02612,396.06354,-0.0,1.2788893,2.013954,0.0,2,0,0,0
784121273,34.036096411563726,108.76049160075084,428.0538,396.09943,-0.0,1.279143,2.0139182,0.0,2,0,0,0
784320055,34.03609532724118,108.76049150257845,428.09445,396.147,-0.0,1.2792155,2.014228,0.0,2,0,0,0
784523428,34.03609416967364,108.76049110581903,428.1489,396.20874,-0.0,1.2792944,2.014071,0.0,2,0,0,0
784722015,34.03609296785018,108.76049046687804,428.212,396.27933,-0.0,1.2793969,2.0139189,0.0,2,0,0,0
784920611,34.036091717723,108.76048971895548,428.28696,396.36377,-0.0,1.2794771,2.0137677,0.0,2,0,0,0
785119391,34.03609044361549,108.76048891630411,428.3574,396.44318,-0.0,1.279567,2.0140824,0.0,2,0,0,0
785312827,34.036089134207,108.76048822029567,428.41794,396.51297,-0.0,1.279472,2.0138109,0.0,2,0,0,0
785521350,34.036087744881804,108.7604875443659,428.48822,396.59274,-0.0,1.2797601,2.0137885,0.0,2,0,0,0
785715017,34.03608651624834,108.76048707066758,428.54504,396.65677,-0.0,1.2796826,2.0139797,0.0,2,0,0,0
785923640,34.03608516785137,108.76048664350179,428.59845,396.71872,-0.0,1.2799923,2.0139527,0.0,2,0,0,0
786122092,34.03608386758654,108.76048631142834,428.64835,396.77682,-0.0,1.2801095,2.0137982,0.0,2,0,0,0
786315719,34.03608266090959,108.76048598910391,428.6902,396.82654,-0.0,1.2800313,2.0139875,0.0,2,0,0,0
786514312,34.03608155795801,108.76048566230801,428.7325,396.87888,-0.0,1.2801373,2.0138388,0.0,2,0,0,0
786713018,34.03608052835375,108.76048542153806,428.77487,396.9322,-0.0,1.2802424,2.01369,0.0,2,0,0,0
786921426,34.03607955271343,108.76048516975588,428.81964,396.99014,-0.0,1.2805402,2.014131,0.0,2,0,0,0
787115055,34.03607878764579,108.76048492786711,428.868,397.05414,-0.0,1.2804255,2.0138586,0.0,2,0,0,0
787318611,34.03607800926739,108.76048472754256,428.925,397.12573,-0.0,1.2805225,2.0137148,0.0,2,0,0,0
787517250,34.036077109461935,108.76048467865454,428.96875,397.1821,-0.0,1.2806193,2.0140352,0.0,2,0,0,0
787715797,34.03607602411051,108.76048469720557,429.0013,397.22696,-0.0,1.280712,2.0138881,0.0,2,0,0,0
787914391,34.0360749369234,108.76048461221876,429.01996,397.2578,-0.0,1.2808044,2.0137427,0.0,2,0,0,0
788112981,34.03607391922389,108.76048451911754,429.03223,397.28204,-0.0,1.2808791,2.014061,0.0,2,0,0,0
788321531,34.0360729640309,108.76048452450328,429.0363,397.29736,-0.0,1.281155,2.014041,0.0,2,0,0,0
788520096,34.03607217508682,108.76048457240469,429.03204,397.30493,-0.0,1.281238,2.0138965,0.0,2,0,0,0
788723652,34.03607152523809,108.7604846386451,429.02597,397.3106,-0.0,1.2813219,2.0137517,0.0,2,0,0,0
788917280,34.0360710253084,108.76048473477465,429.01727,397.31454,-0.0,1.2812119,2.0139434,0.0,2,0,0,0
789115873,34.03607059934345,108.76048488397687,429.0098,397.3203,-0.0,1.2812822,2.0137963,0.0,2,0,0,0
789314465,34.036070213139844,108.76048511659708,428.98712,397.3104,-0.0,1.2813663,2.0136538,0.0,2,0,0,0
789513064,34.03606979691811,108.76048533816399,428.94058,397.2774,-0.0,1.2814509,2.0139735,0.0,2,0,0,0
789716614,34.0360692746379,108.7604854730427,428.86197,397.2123,-0.0,1.2815293,2.013833,0.0,2,0,0,0
789915238,34.0360686336574,108.76048554768695,428.75204,397.11496,-0.0,1.2815791,2.0136914,0.0,2,0,0,0
790123729,34.03606779237888,108.76048557960873,428.61478,396.99014,-0.0,1.2818377,2.013678,0.0,2,0,0,0
790322322,34.03606696139158,108.76048536781701,428.4731,396.85825,-0.0,1.2818809,2.0139997,0.0,2,0,0,0
790520920,34.036066076920335,108.76048505414363,428.3416,396.7366,-0.0,1.2819175,2.0138607,0.0,2,0,0,0
790719506,34.03606498947511,108.76048467812483,428.25397,396.6599,-0.0,1.2819617,2.013721,0.0,2,0,0,0
790913135,34.03606386973011,108.7604841965812,428.2191,396.63733,-0.0,1.2818136,2.013921,0.0,2,0,0,0
791121655,34.03606271252208,108.76048355474245,428.21585,396.64554,-0.0,1.282089,2.0139086,0.0,2,0,0,0
791320271,34.03606142681953,108.76048295107375,428.2353,396.67502,-0.0,1.282181,2.0137653,0.0,2,0,0,0
791518878,34.03606006264131,108.76048242101204,428.27396,396.7243,-0.0,1.2822459,2.014085,0.0,2,0,0,0
791722398,34.036058610621886,108.76048200351346,428.3322,396.7917,-0.0,1.2823389,2.0139413,0.0,2,0,0,0
791916025,34.03605707884038,108.760481690588,428.39835,396.86765,-0.0,1.2822535,2.013678,0.0,2,0,0,0
792114755,34.03605533525138,108.76048145131148,428.4724,396.94952,-0.0,1.2823651,2.0135415,0.0,2,0,0,0
792313211,34.03605362099406,108.76048110208026,428.55472,397.03915,-0.0,1.2824776,2.0138671,0.0,2,0,0,0
792516767,34.0360519730675,108.76048053008307,428.6539,397.15045,-0.0,1.2825717,2.0137293,0.0,2,0,0,0
792715360,34.03605032473016,108.76048026985853,428.7503,397.26016,-0.0,1.2826774,2.0135968,0.0,2,0,0,0
792924072,34.0360485879862,108.76048034715689,428.8284,397.3529,-0.0,1.2829819,2.0135875,0.0,2,0,0,0
793122474,34.03604708217609,108.76048054397195,428.87598,397.4145,-0.0,1.2830591,2.0139143,0.0,2,0,0,0
793321066,34.03604565062236,108.76048080350553,428.89432,397.44565,-0.0,1.2831467,2.0137832,0.0,2,0,0,0
793514707,34.03604442187062,108.7604809664554,428.8802,397.4444,-0.0,1.2830176,2.0135255,0.0,2,0,0,0
793713358,34.036043386160905,108.76048110688365,428.8453,397.42264,-0.0,1.2831031,2.0138526,0.0,2,0,0,0
793921809,34.036042472667795,108.76048127066016,428.8047,397.39465,-0.0,1.2833767,2.013847,0.0,2,0,0,0
794120402,34.03604168513059,108.76048142673602,428.77017,397.37155,-0.0,1.2834545,2.0137153,0.0,2,0,0,0
794318997,34.03604096673757,108.76048145493142,428.73837,397.3521,-0.0,1.2835298,2.0140436,0.0,2,0,0,0
794517639,34.03604022587369,108.76048142086348,428.70813,397.33487,-0.0,1.2835848,2.0139027,0.0,2,0,0,0
794721142,34.03603937121529,108.7604813210137,428.6828,397.32278,-0.0,1.2836391,2.0137627,0.0,2,0,0,0
794914828,34.03603838533486,108.7604811969463,428.6639,397.31647,-0.0,1.2835057,2.0139656,0.0,2,0,0,0
795113363,34.0360372631552,108.76048109987134,428.64465,397.30972,-0.0,1.283564,2.0138316,0.0,2,0,0,0
795321938,34.036036062293846,108.76048101393292,428.62653,397.30325,-0.0,1.2838163,2.0138223,0.0,2,0,0,0
795515520,34.03603494501993,108.7604808969866,428.61176,397.29843,-0.0,1.2836798,2.013566,0.0,2,0,0,0
795724034,34.0360338058755,108.76048071206398,428.58966,397.28683,-0.0,1.2839308,2.0135586,0.0,2,0,0,0
795922731,34.03603289449103,108.76048045485852,428.56876,397.27554,-0.0,1.2840155,2.0138874,0.0,2,0,0,0
796121325,34.03603209153179,108.76048014838833,428.54605,397.26346,-0.0,1.2841074,2.013756,0.0,2,0,0,0
796314854,34.03603128030467,108.7604798320239,428.52225,397.25052,-0.0,1.2840105,2.013502,0.0,2,0,0,0
796518403,34.03603027727056,108.76047954095482,428.49805,397.23837,-0.0,1.284125,2.013831,0.0,2,0,0,0
796716995,34.03602913646198,108.76047925212184,428.48193,397.23605,-0.0,1.2842432,2.0137029,0.0,2,0,0,0
796915591,34.036027961072534,108.76047896188146,428.47928,397.24603,-0.0,1.2843835,2.0135775,0.0,2,0,0,0
797124111,34.03602673079301,108.76047872757077,428.48035,397.25983,-0.0,1.2846941,2.0135744,0.0,2,0,0,0
797322702,34.03602554022344,108.76047859572135,428.48486,397.2776,-0.0,1.2847897,2.0139077,0.0,2,0,0,0
797521294,34.03602422429844,108.76047851392332,428.4931,397.2998,-0.0,1.2848568,2.0137775,0.0,2,0,0,0
797719888,34.03602275370312,108.76047845812421,428.50797,397.32764,-0.0,1.284927,2.0136487,0.0,2,0,0,0
797913514,34.036021323126235,108.76047840849333,428.5262,397.35892,-0.0,1.284768,2.0138545,0.0,2,0,0,0
798122036,34.036019871348074,108.76047838233553,428.54572,397.39017,-0.0,1.2850262,2.0138505,0.0,2,0,0,0
798310875,34.036018741209226,108.760478252473,428.5602,397.41586,-0.0,1.2848605,2.0135949,0.0,2,0,0,0
798514256,34.03601762378066,108.76047804250422,428.57272,397.43845,-0.0,1.2849033,2.0139189,0.0,2,0,0,0
798722816,34.03601658656048,108.76047784189117,428.5842,397.45975,-0.0,1.2851715,2.0139105,0.0,2,0,0,0
798916417,34.036015759604076,108.76047759561466,428.59818,397.485,-0.0,1.2850268,2.0136542,0.0,2,0,0,0
799115215,34.036014985376674,108.7604773725625,428.61685,397.51468,-0.0,1.2850823,2.0135243,0.0,2,0,0,0
799318555,34.036014099550755,108.76047721541734,428.62946,397.5389,-0.0,1.2851329,2.0138528,0.0,2,0,0,0
799517147,34.036013036257614,108.76047698185117,428.64014,397.5615,-0.0,1.2851884,2.0137248,0.0,2,0,0,0
799715741,34.03601173317996,108.76047676153357,428.65686,397.58905,-0.0,1.2852428,2.0135975,0.0,2,0,0,0
799914454,34.0360102569239,108.76047663763393,428.67624,397.61908,-0.0,1.2852964,2.0134685,0.0,2,0,0,0
800122854,34.036008692809084,108.76047649299397,428.70038,397.6535,-0.0,1.2855474,2.0139213,0.0,2,0,0,0
800321446,34.03600723854376,108.76047648621075,428.7186,397.68225,-0.0,1.2856007,2.013791,0.0,2,0,0,0
800520038,34.03600582373106,108.76047657480959,428.72714,397.70212,-0.0,1.2856414,2.0136602,0.0,2,0,0,0
800718798,34.03600449744595,108.76047664018348,428.72623,397.71265,-0.0,1.2856923,2.0135283,0.0,2,0,0,0
800922188,34.03600325963701,108.76047669822945,428.72308,397.72153,-0.0,1.2857355,2.0138552,0.0,2,0,0,0
801120780,34.03600205277243,108.76047674633963,428.7281,397.73993,-0.0,1.2857732,2.0137253,0.0,2,0,0,0
801314407,34.03600076931882,108.76047679966636,428.7269,397.7517,-0.0,1.2855976,2.0134716,0.0,2,0,0,0
801523086,34.0359992009848,108.76047682074483,428.70862,397.7444,-0.0,1.2858385,2.0134666,0.0,2,0,0,0
801716560,34.03599771992605,108.76047677032764,428.68015,397.727,-0.0,1.2856545,2.0136726,0.0,2,0,0,0
801915155,34.03599625387621,108.7604766736682,428.64084,397.69888,-0.0,1.2856869,2.013547,0.0,2,0,0,0
802113742,34.03599485225336,108.7604764265248,428.59824,397.6682,-0.0,1.2857215,2.0134215,0.0,2,0,0,0
802322381,34.03599340359592,108.76047600215446,428.55792,397.63934,-0.0,1.2859596,2.0138776,0.0,2,0,0,0
802520855,34.03599204283151,108.7604755936394,428.52853,397.62317,-0.0,1.2859739,2.0137496,0.0,2,0,0,0
802714484,34.03599063194583,108.76047531644072,428.51236,397.6186,-0.0,1.2857956,2.013498,0.0,2,0,0,0
802923006,34.035989008772226,108.7604750552228,428.51047,397.6287,-0.0,1.2860194,2.0134962,0.0,2,0,0,0
803121619,34.03598757157379,108.76047486330525,428.5171,397.64603,-0.0,1.28604,2.0138288,0.0,2,0,0,0
803320237,34.03598623491028,108.76047468343427,428.52795,397.66653,-0.0,1.2860643,2.0137012,0.0,2,0,0,0
803513818,34.0359850595039,108.76047447147873,428.54517,397.69324,-0.0,1.2858658,2.0134509,0.0,2,0,0,0
803722339,34.03598393975963,108.76047425335459,428.5688,397.725,-0.0,1.2860895,2.013448,0.0,2,0,0,0
803920968,34.0359829812212,108.76047406520229,428.59402,397.75745,-0.0,1.2861096,2.0137815,0.0,2,0,0,0
804119523,34.03598212855253,108.76047395169113,428.61877,397.78937,-0.0,1.2861042,2.0136545,0.0,2,0,0,0
804323080,34.035981279263346,108.76047393873698,428.64462,397.8208,-0.0,1.2860817,2.0135262,0.0,2,0,0,0
804516729,34.03598040527361,108.76047394896612,428.6654,397.84653,-0.0,1.2858347,2.0137355,0.0,2,0,0,0
804715300,34.03597939958163,108.76047395948562,428.69537,397.8809,-0.0,1.2857728,2.0136108,0.0,2,0,0,0
804913892,34.03597819962963,108.76047396102246,428.72934,397.91794,-0.0,1.285694,2.0134873,0.0,2,0,0,0
805122414,34.03597687334433,108.76047395655704,428.76532,397.9564,-0.0,1.2858009,2.0134852,0.0,2,0,0,0
805311267,34.035975799416484,108.76047382048462,428.79922,397.9941,-0.0,1.2854917,2.0136936,0.0,2,0,0,0
805514636,34.03597488815222,108.76047361034952,428.84164,398.0391,-0.0,1.2853658,2.0135674,0.0,2,0,0,0
805723156,34.03597395839733,108.76047358443799,428.88443,398.08594,-0.0,1.2854466,2.0135658,0.0,2,0,0,0
805921755,34.03597314948697,108.76047364542147,428.9254,398.13123,-0.0,1.2853161,2.013442,0.0,2,0,0,0
806120343,34.03597232802065,108.76047376382475,428.9652,398.1748,-0.0,1.2851759,2.0137746,0.0,2,0,0,0
806318933,34.03597148312336,108.7604739850207,428.98453,398.19788,-0.0,1.2850333,2.0136478,0.0,2,0,0,0
806522491,34.0359706802686,108.76047422095431,428.97037,398.1873,-0.0,1.2848821,2.0135195,0.0,2,0,0,0
806716117,34.035969811922605,108.76047435008,428.9113,398.1322,-0.0,1.2845379,2.0137289,0.0,2,0,0,0
806914847,34.03596871669106,108.76047440605545,428.80475,398.02902,-0.0,1.2843864,2.0136056,0.0,2,0,0,0
807123294,34.03596750711619,108.76047442787761,428.6777,397.9056,-0.0,1.2844381,2.0136056,0.0,2,0,0,0
807321823,34.03596636560474,108.76047428973555,428.5596,397.79074,-0.0,1.2842919,2.0134816,0.0,2,0,0,0
807515451,34.03596533377027,108.76047395437044,428.4653,397.69897,-0.0,1.2839583,2.0136914,0.0,2,0,0,0
807714144,34.035964417102235,108.76047357189336,428.3936,397.62854,-0.0,1.283817,2.0135667,0.0,2,0,0,0
807922566,34.03596345839188,108.76047324729157,428.34644,397.58163,-0.0,1.2838798,2.0135663,0.0,2,0,0,0
808121157,34.03596244209841,108.76047297944743,428.33542,397.5707,-0.0,1.2837491,2.0134423,0.0,2,0,0,0
808314784,34.03596137571758,108.76047270829162,428.36057,397.59634,-0.0,1.2834301,2.0136526,0.0,2,0,0,0
808523412,34.035960061764634,108.76047243432177,428.41913,397.65402,-0.0,1.2834995,2.0136507,0.0,2,0,0,0
808721899,34.03595873729701,108.76047224004414,428.49808,397.73093,-0.0,1.283394,2.0135267,0.0,2,0,0,0
808920515,34.03595740262307,108.76047199480496,428.5947,397.82776,-0.0,1.2832912,2.0138597,0.0,2,0,0,0
809119084,34.03595595295431,108.7604718196954,428.70123,397.93472,-0.0,1.2832031,2.013734,0.0,2,0,0,0
809317722,34.035954458944694,108.76047170188157,428.78305,398.01807,-0.0,1.2831203,2.0136087,0.0,2,0,0,0
809521232,34.035952897265716,108.76047158539279,428.8304,398.06662,-0.0,1.2829977,2.0134795,0.0,2,0,0,0
809719846,34.03595127131329,108.76047132893589,428.84213,398.0798,-0.0,1.2829089,2.013813,0.0,2,0,0,0
809923381,34.03594957908091,108.76047107367987,428.8421,398.08154,-0.0,1.2828101,2.0136862,0.0,2,0,0,0
810122006,34.03594777298555,108.76047080145092,428.83813,398.07928,-0.0,1.2827026,2.013561,0.0,2,0,0,0
810315613,34.03594585285576,108.76047054060706,428.82565,398.0677,-0.0,1.282392,2.0137708,0.0,2,0,0,0
810514197,34.03594386812699,108.76047027061443,428.80338,398.04602,-0.0,1.2822697,2.013649,0.0,2,0,0,0
810717787,34.035942071637635,108.76047006805919,428.77954,398.0222,-0.0,1.2821432,2.013527,0.0,2,0,0,0
810916380,34.03594052191445,108.76046995848395,428.7478,397.9883,-0.0,1.2820187,2.0134044,0.0,2,0,0,0
811119899,34.03593922924894,108.76046979517236,428.70905,397.94727,-0.0,1.28188,2.013739,0.0,2,0,0,0
811318491,34.03593831944248,108.76046951722664,428.67865,397.91394,-0.0,1.2817636,2.0136206,0.0,2,0,0,0
811517083,34.035937589024186,108.76046924768406,428.6641,397.89624,-0.0,1.2816256,2.013501,0.0,2,0,0,0
811715676,34.0359369048511,108.7604690356024,428.6534,397.87955,-0.0,1.2814798,2.0133796,0.0,2,0,0,0
811914268,34.03593610214997,108.76046901970882,428.6309,397.85007,-0.0,1.2813275,2.013714,0.0,2,0,0,0
812122789,34.03593515992493,108.76046906690718,428.615,397.82678,-0.0,1.2813582,2.0137143,0.0,2,0,0,0
812321382,34.03593419354809,108.76046908338793,428.60443,397.80786,-0.0,1.2811874,2.013589,0.0,2,0,0,0
812519973,34.03593304280861,108.76046907631374,428.5931,397.787,-0.0,1.281019,2.0134637,0.0,2,0,0,0
812718566,34.03593177885788,108.76046902581298,428.5868,397.77072,-0.0,1.2808346,2.0137956,0.0,2,0,0,0
812922123,34.035930438198164,108.76046901108089,428.58682,397.76105,-0.0,1.280674,2.0136676,0.0,2,0,0,0
813110961,34.035929195208745,108.76046899427844,428.59464,397.75827,-0.0,1.2803442,2.0134196,0.0,2,0,0,0
813314343,34.03592789334956,108.76046897818001,428.60895,397.76227,-0.0,1.2802037,2.013752,0.0,2,0,0,0
813522867,34.035926635162575,108.76046901730702,428.63028,397.77332,-0.0,1.280269,2.0137503,0.0,2,0,0,0
813716492,34.03592550123365,108.76046915487913,428.659,397.7913,-0.0,1.2799451,2.0134962,0.0,2,0,0,0
813915237,34.035924440171755,108.76046937533074,428.69135,397.8135,-0.0,1.2798201,2.0138233,0.0,2,0,0,0
814123608,34.035923503641826,108.76046950851376,428.73016,397.84302,-0.0,1.2798808,2.0138185,0.0,2,0,0,0
814317233,34.03592272409807,108.76046967829238,428.77646,397.87955,-0.0,1.2795709,2.013565,0.0,2,0,0,0
814515828,34.03592191333592,108.76046998932284,428.84186,397.9354,-0.0,1.2794768,2.013438,0.0,2,0,0,0
814714535,34.03592118744792,108.76047034435955,428.91318,397.9968,-0.0,1.279384,2.0137691,0.0,2,0,0,0
814922939,34.03592046577971,108.76047073702746,428.9862,398.0613,-0.0,1.2794794,2.0137649,0.0,2,0,0,0
815116566,34.03591987094226,108.76047113598742,429.03677,398.10284,-0.0,1.2791821,2.0139704,0.0,2,0,0,0
815315161,34.0359193260207,108.76047155850287,429.04886,398.10577,-0.0,1.2790903,2.0138357,0.0,2,0,0,0
815513829,34.03591873440793,108.76047191473954,429.02557,398.0743,-0.0,1.2789603,2.014157,0.0,2,0,0,0
815717358,34.035918167015254,108.76047219153237,428.97705,398.01996,-0.0,1.2788659,2.014007,0.0,2,0,0,0
815915901,34.03591755605332,108.76047242874839,428.90805,397.9453,-0.0,1.278777,2.014322,0.0,2,0,0,0
816114491,34.03591688196789,108.76047275575804,428.82007,397.8515,-0.0,1.2786849,2.0141597,0.0,2,0,0,0
816323215,34.03591595205937,108.76047298597909,428.6915,397.71524,-0.0,1.2787812,2.014124,0.0,2,0,0,0
816516640,34.03591492310794,108.7604730956481,428.54605,397.56403,-0.0,1.2785071,2.0138402,0.0,2,0,0,0
816715233,34.03591380972857,108.76047324373528,428.4286,397.4398,-0.0,1.2784152,2.0141516,0.0,2,0,0,0
816913825,34.03591279494571,108.76047336503719,428.36465,397.36996,-0.0,1.278323,2.013997,0.0,2,0,0,0
817122395,34.035911891487046,108.76047346638455,428.36957,397.3682,-0.0,1.278425,2.0139687,0.0,2,0,0,0
817315977,34.03591104929907,108.76047338090022,428.42102,397.41235,-0.0,1.278161,2.0141585,0.0,2,0,0,0
817514567,34.03591009461968,108.7604730466114,428.49887,397.48093,-0.0,1.2780838,2.0140092,0.0,2,0,0,0
817723088,34.03590890494079,108.76047247788387,428.6077,397.58093,-0.0,1.2781938,2.0139859,0.0,2,0,0,0
817921690,34.035907733856284,108.76047201484663,428.73346,397.69617,-0.0,1.2781323,2.013838,0.0,2,0,0,0
818120272,34.035906507366995,108.76047157366806,428.8581,397.8096,-0.0,1.2780565,2.0141547,0.0,2,0,0,0
818318867,34.03590515349805,108.76047112756362,428.96777,397.9085,-0.0,1.277979,2.014001,0.0,2,0,0,0
